{"last_updated":1713891991,"ttl":30,"version":"2.2","data":{"bikes":[{"bike_id":"2a3a28aa-d906-4dbb-beb3-a06b1c16d8e4","system_id":"levelo_inurba_marseille","lat":43.312239,"lon":5.368562,"is_reserved":false,"is_disabled":false,"rental_uris":{"android":"levelo://app?vid=2a3a28aa-d906-4dbb-beb3-a06b1c16d8e4","ios":"levelo://app?vid=2a3a28aa-d906-4dbb-beb3-a06b1c16d8e4"},"vehicle_type_id":"4","last_reported":1713891991,"current_range_meters":26000,"station_id":"ce4bgl92rcd13ifvqbq0","pricing_plan_id":"cebpf4jnsgd1na2vs0mg"},{"bike_id":"95754625-f23c-476a-886e-c69c2034246b","system_id":"levelo_inurba_marseille","lat":43.314811,"lon":5.373104,"is_reserved":false,"is_disabled":false,"rental_uris":{"android":"levelo://app?vid=95754625-f23c-476a-886e-c69c2034246b","ios":"levelo://app?vid=95754625-f23c-476a-886e-c69c2034246b"},"vehicle_type_id":"4","last_reported":1713891991,"current_range_meters":6400,"station_id":"ce4bgt12rcd13ifvqcd0","pricing_plan_id":"cebpf4jnsgd1na2vs0mg"},{"bike_id":"3deaa35e-21a4-49a6-b77b-d4c017b7642e","system_id":"levelo_inurba_marseille","lat":43.317075,"lon":5.377367,"is_reserved":false,"is_disabled":false,"rental_uris":{"android":"levelo://app?vid=3deaa35e-21a4-49a6-b77b-d4c017b7642e","ios":"levelo://app?vid=3deaa35e-21a4-49a6-b77b-d4c017b7642e"},"vehicle_type_id":"4","last_reported":1713891991,"current_range_meters":12400,"station_id":"ce4bgth2rcd13ifvqch0","pricing_plan_id":"cebpf4jnsgd1na2vs0mg"},{"bike_id":"8c395149-c248-44f3-9ed5-11a7c51301c3","system_id":"levelo_inurba_marseille","lat":43.30703,"lon":5.36558,"is_reserved":false,"is_disabled":false,"rental_uris":{"android":"levelo://app?vid=8c395149-c248-44f3-9ed5-11a7c51301c3","ios":"levelo://app?vid=8c395149-c248-44f3-9ed5-11a7c51301c3"},"vehicle_type_id":"4","last_reported":1713891991,"current_range_meters":6000,"station_id":"","pricing_plan_id":"cebpf4jnsgd1na2vs0mg"},{"bike_id":"1a03e002-c2f3-4122-9c7b-47adec5836db","system_id":"levelo_inurba_marseille","lat":43.30539,"lon":5.367033,"is_reserved":false,"is_disabled":false,"rental_uris":{"android":"levelo://app?vid=1a03e002-c2f3-4122-9c7b-47adec5836db","ios":"levelo://app?vid=1a03e002-c2f3-4122-9c7b-47adec5836db"},"vehicle_type_id":"4","last_reported":1713891991,"current_range_meters":4000,"station_id":"ce4bgr92rcd13ifvqc7g","pricing_plan_id":"cebpf4jnsgd1na2vs0mg"},{"bike_id":"23bcaa23-a5f1-41dc-95e5-df83eb4777fc","system_id":"levelo_inurba_marseille","lat":43.284534,"lon":5.358662,"is_reserved":false,"is_disabled":false,"rental_uris":{"android":"levelo://app?vid=23bcaa23-a5f1-41dc-95e5-df83eb4777fc","ios":"levelo://app?vid=23bcaa23-a5f1-41dc-95e5-df83eb4777fc"},"vehicle_type_id":"4","last_reported":1713891991,"current_range_meters":17600,"station_id":"ce4bhah2rcd13ifvqei0","pricing_plan_id":"cebpf4jnsgd1na2vs0mg"},{"bike_id":"3e4afca8-f5f4-4129-bad7-c19bdfb20a2b","system_id":"levelo_inurba_marseille","lat":43.305989,"lon":5.37225,"is_reserved":false,"is_disabled":false,"rental_uris":{"android":"levelo://app?vid=3e4afca8-f5f4-4129-bad7-c19bdfb20a2b","ios":"levelo://app?vid=3e4afca8-f5f4-4129-bad7-c19bdfb20a2b"},"vehicle_type_id":"4","last_reported":1713891991,"current_range_meters":18400,"station_id":"ce4bgqh2rcd13ifvqc4g","pricing_plan_id":"cebpf4jnsgd1na2vs0mg"},{"bike_id":"128825ae-d6c8-4b0a-b8bd-9b41f455d9c5","system_id":"levelo_inurba_marseille","lat":43.305989,"lon":5.37225,"is_reserved":false,"is_disabled":false,"rental_uris":{"android":"levelo://app?vid=128825ae-d6c8-4b0a-b8bd-9b41f455d9c5","ios":"levelo://app?vid=128825ae-d6c8-4b0a-b8bd-9b41f455d9c5"},"vehicle_type_id":"4","last_reported":1713891991,"current_range_meters":18000,"station_id":"ce4bgqh2rcd13ifvqc4g","pricing_plan_id":"cebpf4jnsgd1na2vs0mg"},{"bike_id":"7a301813-2da4-44b1-81b1-52f885b9e8aa","system_id":"levelo_inurba_marseille","lat":43.31127,"lon":5.37758,"is_reserved":false,"is_disabled":false,"rental_uris":{"android":"levelo://app?vid=7a301813-2da4-44b1-81b1-52f885b9e8aa","ios":"levelo://app?vid=7a301813-2da4-44b1-81b1-52f885b9e8aa"},"vehicle_type_id":"4","last_reported":1713891991,"current_range_meters":9600,"station_id":"ce4bgt92rcd13ifvqcg0","pricing_plan_id":"cebpf4jnsgd1na2vs0mg"},{"bike_id":"eb019ad4-2236-4d67-8cd7-8622bbd1a83e","system_id":"levelo_inurba_marseille","lat":43.31124,"lon":5.3776,"is_reserved":false,"is_disabled":false,"rental_uris":{"android":"levelo://app?vid=eb019ad4-2236-4d67-8cd7-8622bbd1a83e","ios":"levelo://app?vid=eb019ad4-2236-4d67-8cd7-8622bbd1a83e"},"vehicle_type_id":"4","last_reported":1713891991,"current_range_meters":6000,"station_id":"ce4bgt92rcd13ifvqcg0","pricing_plan_id":"cebpf4jnsgd1na2vs0mg"},{"bike_id":"ee02425b-8aa3-479b-86a1-4bca0eda6f0d","system_id":"levelo_inurba_marseille","lat":43.31128,"lon":5.37764,"is_reserved":false,"is_disabled":false,"rental_uris":{"android":"levelo://app?vid=ee02425b-8aa3-479b-86a1-4bca0eda6f0d","ios":"levelo://app?vid=ee02425b-8aa3-479b-86a1-4bca0eda6f0d"},"vehicle_type_id":"4","last_reported":1713891991,"current_range_meters":1600,"station_id":"ce4bgt92rcd13ifvqcg0","pricing_plan_id":"cebpf4jnsgd1na2vs0mg"},{"bike_id":"d625ee43-6179-4529-a4ae-a50bb69e6c19","system_id":"levelo_inurba_marseille","lat":43.31124,"lon":5.37769,"is_reserved":false,"is_disabled":false,"rental_uris":{"android":"levelo://app?vid=d625ee43-6179-4529-a4ae-a50bb69e6c19","ios":"levelo://app?vid=d625ee43-6179-4529-a4ae-a50bb69e6c19"},"vehicle_type_id":"4","last_reported":1713891991,"current_range_meters":22400,"station_id":"ce4bgt92rcd13ifvqcg0","pricing_plan_id":"cebpf4jnsgd1na2vs0mg"},{"bike_id":"f1751c9a-17ca-4408-988f-de5d0f880a76","system_id":"levelo_inurba_marseille","lat":43.311131,"lon":5.377651,"is_reserved":false,"is_disabled":false,"rental_uris":{"android":"levelo://app?vid=f1751c9a-17ca-4408-988f-de5d0f880a76","ios":"levelo://app?vid=f1751c9a-17ca-4408-988f-de5d0f880a76"},"vehicle_type_id":"4","last_reported":1713891991,"current_range_meters":5200,"station_id":"ce4bgt92rcd13ifvqcg0","pricing_plan_id":"cebpf4jnsgd1na2vs0mg"},{"bike_id":"52239be2-b5e6-4ca0-8bb5-e7a3e4a159f2","system_id":"levelo_inurba_marseille","lat":43.31113,"lon":5.37773,"is_reserved":false,"is_disabled":false,"rental_uris":{"android":"levelo://app?vid=52239be2-b5e6-4ca0-8bb5-e7a3e4a159f2","ios":"levelo://app?vid=52239be2-b5e6-4ca0-8bb5-e7a3e4a159f2"},"vehicle_type_id":"4","last_reported":1713891991,"current_range_meters":24000,"station_id":"ce4bgt92rcd13ifvqcg0","pricing_plan_id":"cebpf4jnsgd1na2vs0mg"},{"bike_id":"9244865a-f40e-46c3-aae5-be807cd2d22a","system_id":"levelo_inurba_marseille","lat":43.307945,"lon":5.376487,"is_reserved":false,"is_disabled":false,"rental_uris":{"android":"levelo://app?vid=9244865a-f40e-46c3-aae5-be807cd2d22a","ios":"levelo://app?vid=9244865a-f40e-46c3-aae5-be807cd2d22a"},"vehicle_type_id":"4","last_reported":1713891991,"current_range_meters":0,"station_id":"ce4bgv92rcd13ifvqcq0","pricing_plan_id":"cebpf4jnsgd1na2vs0mg"},{"bike_id":"cafad043-67a0-4fd9-8f90-8eb9336c4ede","system_id":"levelo_inurba_marseille","lat":43.307875,"lon":5.37641,"is_reserved":false,"is_disabled":false,"rental_uris":{"android":"levelo://app?vid=cafad043-67a0-4fd9-8f90-8eb9336c4ede","ios":"levelo://app?vid=cafad043-67a0-4fd9-8f90-8eb9336c4ede"},"vehicle_type_id":"4","last_reported":1713891991,"current_range_meters":20400,"station_id":"ce4bgv92rcd13ifvqcq0","pricing_plan_id":"cebpf4jnsgd1na2vs0mg"},{"bike_id":"a91864a4-f3e0-437e-9b02-97c3648728be","system_id":"levelo_inurba_marseille","lat":43.307945,"lon":5.376487,"is_reserved":false,"is_disabled":false,"rental_uris":{"android":"levelo://app?vid=a91864a4-f3e0-437e-9b02-97c3648728be","ios":"levelo://app?vid=a91864a4-f3e0-437e-9b02-97c3648728be"},"vehicle_type_id":"4","last_reported":1713891991,"current_range_meters":21200,"station_id":"ce4bgv92rcd13ifvqcq0","pricing_plan_id":"cebpf4jnsgd1na2vs0mg"},{"bike_id":"4bc12c00-6728-49e9-8e31-f68d4e76f95c","system_id":"levelo_inurba_marseille","lat":43.307945,"lon":5.376487,"is_reserved":false,"is_disabled":false,"rental_uris":{"android":"levelo://app?vid=4bc12c00-6728-49e9-8e31-f68d4e76f95c","ios":"levelo://app?vid=4bc12c00-6728-49e9-8e31-f68d4e76f95c"},"vehicle_type_id":"4","last_reported":1713891991,"current_range_meters":0,"station_id":"ce4bgv92rcd13ifvqcq0","pricing_plan_id":"cebpf4jnsgd1na2vs0mg"},{"bike_id":"08e3e0ee-05fe-4ee2-a7e5-e2082aaad53f","system_id":"levelo_inurba_marseille","lat":43.307945,"lon":5.376487,"is_reserved":false,"is_disabled":false,"rental_uris":{"android":"levelo://app?vid=08e3e0ee-05fe-4ee2-a7e5-e2082aaad53f","ios":"levelo://app?vid=08e3e0ee-05fe-4ee2-a7e5-e2082aaad53f"},"vehicle_type_id":"4","last_reported":1713891991,"current_range_meters":3200,"station_id":"ce4bgv92rcd13ifvqcq0","pricing_plan_id":"cebpf4jnsgd1na2vs0mg"},{"bike_id":"73d8b4b6-3f91-4f14-a84b-93df2118ac6b","system_id":"levelo_inurba_marseille","lat":43.307945,"lon":5.376487,"is_reserved":false,"is_disabled":false,"rental_uris":{"android":"levelo://app?vid=73d8b4b6-3f91-4f14-a84b-93df2118ac6b","ios":"levelo://app?vid=73d8b4b6-3f91-4f14-a84b-93df2118ac6b"},"vehicle_type_id":"4","last_reported":1713891991,"current_range_meters":14000,"station_id":"ce4bgv92rcd13ifvqcq0","pricing_plan_id":"cebpf4jnsgd1na2vs0mg"},{"bike_id":"11d29c44-25c3-4cfd-a8fd-cbb3659711d3","system_id":"levelo_inurba_marseille","lat":43.307945,"lon":5.376487,"is_reserved":false,"is_disabled":false,"rental_uris":{"android":"levelo://app?vid=11d29c44-25c3-4cfd-a8fd-cbb3659711d3","ios":"levelo://app?vid=11d29c44-25c3-4cfd-a8fd-cbb3659711d3"},"vehicle_type_id":"4","last_reported":1713891991,"current_range_meters":30000,"station_id":"ce4bgv92rcd13ifvqcq0","pricing_plan_id":"cebpf4jnsgd1na2vs0mg"},{"bike_id":"2775bb1f-91bb-4b61-bd58-b93d2d567984","system_id":"levelo_inurba_marseille","lat":43.307945,"lon":5.376487,"is_reserved":false,"is_disabled":false,"rental_uris":{"android":"levelo://app?vid=2775bb1f-91bb-4b61-bd58-b93d2d567984","ios":"levelo://app?vid=2775bb1f-91bb-4b61-bd58-b93d2d567984"},"vehicle_type_id":"4","last_reported":1713891991,"current_range_meters":14000,"station_id":"ce4bgv92rcd13ifvqcq0","pricing_plan_id":"cebpf4jnsgd1na2vs0mg"},{"bike_id":"55a783cb-2b22-4e60-91a0-03ae54e65c4b","system_id":"levelo_inurba_marseille","lat":43.307945,"lon":5.376487,"is_reserved":false,"is_disabled":false,"rental_uris":{"android":"levelo://app?vid=55a783cb-2b22-4e60-91a0-03ae54e65c4b","ios":"levelo://app?vid=55a783cb-2b22-4e60-91a0-03ae54e65c4b"},"vehicle_type_id":"4","last_reported":1713891991,"current_range_meters":4400,"station_id":"ce4bgv92rcd13ifvqcq0","pricing_plan_id":"cebpf4jnsgd1na2vs0mg"},{"bike_id":"f4f1e335-219c-47f0-b779-c881c019edcc","system_id":"levelo_inurba_marseille","lat":43.307945,"lon":5.376487,"is_reserved":false,"is_disabled":false,"rental_uris":{"android":"levelo://app?vid=f4f1e335-219c-47f0-b779-c881c019edcc","ios":"levelo://app?vid=f4f1e335-219c-47f0-b779-c881c019edcc"},"vehicle_type_id":"4","last_reported":1713891991,"current_range_meters":12000,"station_id":"ce4bgv92rcd13ifvqcq0","pricing_plan_id":"cebpf4jnsgd1na2vs0mg"},{"bike_id":"40ac654f-0367-405c-a54e-ded371a72343","system_id":"levelo_inurba_marseille","lat":43.307945,"lon":5.376487,"is_reserved":false,"is_disabled":false,"rental_uris":{"android":"levelo://app?vid=40ac654f-0367-405c-a54e-ded371a72343","ios":"levelo://app?vid=40ac654f-0367-405c-a54e-ded371a72343"},"vehicle_type_id":"4","last_reported":1713891991,"current_range_meters":12000,"station_id":"ce4bgv92rcd13ifvqcq0","pricing_plan_id":"cebpf4jnsgd1na2vs0mg"},{"bike_id":"88031a16-c107-438f-b4bf-7a98330b2a89","system_id":"levelo_inurba_marseille","lat":43.307945,"lon":5.376487,"is_reserved":false,"is_disabled":false,"rental_uris":{"android":"levelo://app?vid=88031a16-c107-438f-b4bf-7a98330b2a89","ios":"levelo://app?vid=88031a16-c107-438f-b4bf-7a98330b2a89"},"vehicle_type_id":"4","last_reported":1713891991,"current_range_meters":2800,"station_id":"ce4bgv92rcd13ifvqcq0","pricing_plan_id":"cebpf4jnsgd1na2vs0mg"},{"bike_id":"bcd00e71-3c5e-408c-9f39-c7caf7f9f1d6","system_id":"levelo_inurba_marseille","lat":43.307945,"lon":5.376487,"is_reserved":false,"is_disabled":false,"rental_uris":{"android":"levelo://app?vid=bcd00e71-3c5e-408c-9f39-c7caf7f9f1d6","ios":"levelo://app?vid=bcd00e71-3c5e-408c-9f39-c7caf7f9f1d6"},"vehicle_type_id":"4","last_reported":1713891991,"current_range_meters":31200,"station_id":"ce4bgv92rcd13ifvqcq0","pricing_plan_id":"cebpf4jnsgd1na2vs0mg"},{"bike_id":"9b6ab9a1-561b-4147-a306-878900fb29cc","system_id":"levelo_inurba_marseille","lat":43.317075,"lon":5.377367,"is_reserved":false,"is_disabled":false,"rental_uris":{"android":"levelo://app?vid=9b6ab9a1-561b-4147-a306-878900fb29cc","ios":"levelo://app?vid=9b6ab9a1-561b-4147-a306-878900fb29cc"},"vehicle_type_id":"4","last_reported":1713891991,"current_range_meters":26800,"station_id":"ce4bgth2rcd13ifvqch0","pricing_plan_id":"cebpf4jnsgd1na2vs0mg"},{"bike_id":"6b032671-daad-448d-b88f-858f3154755b","system_id":"levelo_inurba_marseille","lat":43.289184,"lon":5.366408,"is_reserved":false,"is_disabled":false,"rental_uris":{"android":"levelo://app?vid=6b032671-daad-448d-b88f-858f3154755b","ios":"levelo://app?vid=6b032671-daad-448d-b88f-858f3154755b"},"vehicle_type_id":"4","last_reported":1713891991,"current_range_meters":0,"station_id":"ce4bhap2rcd13ifvqek0","pricing_plan_id":"cebpf4jnsgd1na2vs0mg"},{"bike_id":"05d05ad0-4bb8-499d-82f0-aa0297336982","system_id":"levelo_inurba_marseille","lat":43.317075,"lon":5.377367,"is_reserved":false,"is_disabled":false,"rental_uris":{"android":"levelo://app?vid=05d05ad0-4bb8-499d-82f0-aa0297336982","ios":"levelo://app?vid=05d05ad0-4bb8-499d-82f0-aa0297336982"},"vehicle_type_id":"4","last_reported":1713891991,"current_range_meters":15200,"station_id":"ce4bgth2rcd13ifvqch0","pricing_plan_id":"cebpf4jnsgd1na2vs0mg"},{"bike_id":"aa5ec48f-9f21-4e10-94f1-5cf77fa622c0","system_id":"levelo_inurba_marseille","lat":43.317043,"lon":5.37753,"is_reserved":false,"is_disabled":false,"rental_uris":{"android":"levelo://app?vid=aa5ec48f-9f21-4e10-94f1-5cf77fa622c0","ios":"levelo://app?vid=aa5ec48f-9f21-4e10-94f1-5cf77fa622c0"},"vehicle_type_id":"4","last_reported":1713891991,"current_range_meters":19200,"station_id":"ce4bgth2rcd13ifvqch0","pricing_plan_id":"cebpf4jnsgd1na2vs0mg"},{"bike_id":"ecdcf3cc-7f50-4c48-a458-1601f9df5d62","system_id":"levelo_inurba_marseille","lat":43.31701,"lon":5.37763,"is_reserved":false,"is_disabled":false,"rental_uris":{"android":"levelo://app?vid=ecdcf3cc-7f50-4c48-a458-1601f9df5d62","ios":"levelo://app?vid=ecdcf3cc-7f50-4c48-a458-1601f9df5d62"},"vehicle_type_id":"4","last_reported":1713891991,"current_range_meters":3600,"station_id":"ce4bgth2rcd13ifvqch0","pricing_plan_id":"cebpf4jnsgd1na2vs0mg"},{"bike_id":"7bd9dcd7-cfa4-4720-b545-724872c01541","system_id":"levelo_inurba_marseille","lat":43.317091,"lon":5.377614,"is_reserved":false,"is_disabled":false,"rental_uris":{"android":"levelo://app?vid=7bd9dcd7-cfa4-4720-b545-724872c01541","ios":"levelo://app?vid=7bd9dcd7-cfa4-4720-b545-724872c01541"},"vehicle_type_id":"4","last_reported":1713891991,"current_range_meters":21600,"station_id":"ce4bgth2rcd13ifvqch0","pricing_plan_id":"cebpf4jnsgd1na2vs0mg"},{"bike_id":"8205d3be-53d5-4ff1-bfd9-a4bf2feb5647","system_id":"levelo_inurba_marseille","lat":43.315293,"lon":5.380349,"is_reserved":false,"is_disabled":false,"rental_uris":{"android":"levelo://app?vid=8205d3be-53d5-4ff1-bfd9-a4bf2feb5647","ios":"levelo://app?vid=8205d3be-53d5-4ff1-bfd9-a4bf2feb5647"},"vehicle_type_id":"4","last_reported":1713891991,"current_range_meters":28400,"station_id":"ce4bhsp2rcd13ifvqi50","pricing_plan_id":"cebpf4jnsgd1na2vs0mg"},{"bike_id":"20617b6f-01e4-4823-8a20-199bfedddf1d","system_id":"levelo_inurba_marseille","lat":43.315289,"lon":5.380349,"is_reserved":false,"is_disabled":false,"rental_uris":{"android":"levelo://app?vid=20617b6f-01e4-4823-8a20-199bfedddf1d","ios":"levelo://app?vid=20617b6f-01e4-4823-8a20-199bfedddf1d"},"vehicle_type_id":"4","last_reported":1713891991,"current_range_meters":28400,"station_id":"ce4bhsp2rcd13ifvqi50","pricing_plan_id":"cebpf4jnsgd1na2vs0mg"},{"bike_id":"2d67a8a1-b916-4a50-9aa9-d8b15ba78f4d","system_id":"levelo_inurba_marseille","lat":43.315289,"lon":5.380349,"is_reserved":false,"is_disabled":false,"rental_uris":{"android":"levelo://app?vid=2d67a8a1-b916-4a50-9aa9-d8b15ba78f4d","ios":"levelo://app?vid=2d67a8a1-b916-4a50-9aa9-d8b15ba78f4d"},"vehicle_type_id":"4","last_reported":1713891991,"current_range_meters":30000,"station_id":"ce4bhsp2rcd13ifvqi50","pricing_plan_id":"cebpf4jnsgd1na2vs0mg"},{"bike_id":"e72de5c9-483a-4fac-a533-cfb2bccfe519","system_id":"levelo_inurba_marseille","lat":43.301939,"lon":5.366286,"is_reserved":false,"is_disabled":false,"rental_uris":{"android":"levelo://app?vid=e72de5c9-483a-4fac-a533-cfb2bccfe519","ios":"levelo://app?vid=e72de5c9-483a-4fac-a533-cfb2bccfe519"},"vehicle_type_id":"4","last_reported":1713891991,"current_range_meters":20400,"station_id":"ce4bgrh2rcd13ifvqc8g","pricing_plan_id":"cebpf4jnsgd1na2vs0mg"},{"bike_id":"f53046d5-4064-46fd-8497-23c957f47333","system_id":"levelo_inurba_marseille","lat":43.301939,"lon":5.366286,"is_reserved":false,"is_disabled":false,"rental_uris":{"android":"levelo://app?vid=f53046d5-4064-46fd-8497-23c957f47333","ios":"levelo://app?vid=f53046d5-4064-46fd-8497-23c957f47333"},"vehicle_type_id":"4","last_reported":1713891991,"current_range_meters":27200,"station_id":"ce4bgrh2rcd13ifvqc8g","pricing_plan_id":"cebpf4jnsgd1na2vs0mg"},{"bike_id":"da3ba2a3-e2a9-4ba3-9ccc-1cf48025aa51","system_id":"levelo_inurba_marseille","lat":43.308012,"lon":5.381511,"is_reserved":false,"is_disabled":false,"rental_uris":{"android":"levelo://app?vid=da3ba2a3-e2a9-4ba3-9ccc-1cf48025aa51","ios":"levelo://app?vid=da3ba2a3-e2a9-4ba3-9ccc-1cf48025aa51"},"vehicle_type_id":"4","last_reported":1713891991,"current_range_meters":0,"station_id":"ce4bgt12rcd13ifvqce0","pricing_plan_id":"cebpf4jnsgd1na2vs0mg"},{"bike_id":"0f427966-859d-45b2-b875-742d11c38f1a","system_id":"levelo_inurba_marseille","lat":43.3046,"lon":5.37899,"is_reserved":false,"is_disabled":false,"rental_uris":{"android":"levelo://app?vid=0f427966-859d-45b2-b875-742d11c38f1a","ios":"levelo://app?vid=0f427966-859d-45b2-b875-742d11c38f1a"},"vehicle_type_id":"4","last_reported":1713891991,"current_range_meters":0,"station_id":"ce4bgup2rcd13ifvqcn0","pricing_plan_id":"cebpf4jnsgd1na2vs0mg"},{"bike_id":"e0707e42-4f87-4399-b3fb-82d1ffe11d1a","system_id":"levelo_inurba_marseille","lat":43.319935,"lon":5.381699,"is_reserved":false,"is_disabled":false,"rental_uris":{"android":"levelo://app?vid=e0707e42-4f87-4399-b3fb-82d1ffe11d1a","ios":"levelo://app?vid=e0707e42-4f87-4399-b3fb-82d1ffe11d1a"},"vehicle_type_id":"4","last_reported":1713891991,"current_range_meters":5200,"station_id":"ce4bhr12rcd13ifvqhpg","pricing_plan_id":"cebpf4jnsgd1na2vs0mg"},{"bike_id":"291355f8-1be6-4b88-9d14-dde4ba9491f8","system_id":"levelo_inurba_marseille","lat":43.302784,"lon":5.377158,"is_reserved":false,"is_disabled":false,"rental_uris":{"android":"levelo://app?vid=291355f8-1be6-4b88-9d14-dde4ba9491f8","ios":"levelo://app?vid=291355f8-1be6-4b88-9d14-dde4ba9491f8"},"vehicle_type_id":"4","last_reported":1713891991,"current_range_meters":0,"station_id":"ce4bguh2rcd13ifvqcj0","pricing_plan_id":"cebpf4jnsgd1na2vs0mg"},{"bike_id":"4826a5e3-8239-4110-a7f8-2731651cddab","system_id":"levelo_inurba_marseille","lat":43.289468,"lon":5.363719,"is_reserved":false,"is_disabled":false,"rental_uris":{"android":"levelo://app?vid=4826a5e3-8239-4110-a7f8-2731651cddab","ios":"levelo://app?vid=4826a5e3-8239-4110-a7f8-2731651cddab"},"vehicle_type_id":"4","last_reported":1713891991,"current_range_meters":14400,"station_id":"ce4bhc92rcd13ifvqetg","pricing_plan_id":"cebpf4jnsgd1na2vs0mg"},{"bike_id":"b58947b7-faf8-401b-bd0a-6d94c409bd34","system_id":"levelo_inurba_marseille","lat":43.302784,"lon":5.377158,"is_reserved":false,"is_disabled":false,"rental_uris":{"android":"levelo://app?vid=b58947b7-faf8-401b-bd0a-6d94c409bd34","ios":"levelo://app?vid=b58947b7-faf8-401b-bd0a-6d94c409bd34"},"vehicle_type_id":"4","last_reported":1713891991,"current_range_meters":18400,"station_id":"ce4bguh2rcd13ifvqcj0","pricing_plan_id":"cebpf4jnsgd1na2vs0mg"},{"bike_id":"882851c9-7d28-4284-b645-28323f9809e1","system_id":"levelo_inurba_marseille","lat":43.313571,"lon":5.384829,"is_reserved":false,"is_disabled":false,"rental_uris":{"android":"levelo://app?vid=882851c9-7d28-4284-b645-28323f9809e1","ios":"levelo://app?vid=882851c9-7d28-4284-b645-28323f9809e1"},"vehicle_type_id":"4","last_reported":1713891991,"current_range_meters":8800,"station_id":"ce4bgt92rcd13ifvqcf0","pricing_plan_id":"cebpf4jnsgd1na2vs0mg"},{"bike_id":"52d5a12f-c1e4-44a1-b856-f6b113400ce2","system_id":"levelo_inurba_marseille","lat":43.313571,"lon":5.384829,"is_reserved":false,"is_disabled":false,"rental_uris":{"android":"levelo://app?vid=52d5a12f-c1e4-44a1-b856-f6b113400ce2","ios":"levelo://app?vid=52d5a12f-c1e4-44a1-b856-f6b113400ce2"},"vehicle_type_id":"4","last_reported":1713891991,"current_range_meters":10000,"station_id":"ce4bgt92rcd13ifvqcf0","pricing_plan_id":"cebpf4jnsgd1na2vs0mg"},{"bike_id":"98ab1ef8-806d-429a-b5f3-3d1e03072932","system_id":"levelo_inurba_marseille","lat":43.313571,"lon":5.384829,"is_reserved":false,"is_disabled":false,"rental_uris":{"android":"levelo://app?vid=98ab1ef8-806d-429a-b5f3-3d1e03072932","ios":"levelo://app?vid=98ab1ef8-806d-429a-b5f3-3d1e03072932"},"vehicle_type_id":"4","last_reported":1713891991,"current_range_meters":16400,"station_id":"ce4bgt92rcd13ifvqcf0","pricing_plan_id":"cebpf4jnsgd1na2vs0mg"},{"bike_id":"ee9a046b-73eb-4916-b03c-05198acabf71","system_id":"levelo_inurba_marseille","lat":43.313571,"lon":5.384829,"is_reserved":false,"is_disabled":false,"rental_uris":{"android":"levelo://app?vid=ee9a046b-73eb-4916-b03c-05198acabf71","ios":"levelo://app?vid=ee9a046b-73eb-4916-b03c-05198acabf71"},"vehicle_type_id":"4","last_reported":1713891991,"current_range_meters":14400,"station_id":"ce4bgt92rcd13ifvqcf0","pricing_plan_id":"cebpf4jnsgd1na2vs0mg"},{"bike_id":"809ae121-1fe0-4a2c-8f22-f936b3322d47","system_id":"levelo_inurba_marseille","lat":43.299222,"lon":5.365554,"is_reserved":false,"is_disabled":false,"rental_uris":{"android":"levelo://app?vid=809ae121-1fe0-4a2c-8f22-f936b3322d47","ios":"levelo://app?vid=809ae121-1fe0-4a2c-8f22-f936b3322d47"},"vehicle_type_id":"4","last_reported":1713891991,"current_range_meters":2000,"station_id":"ce4bgm92rcd13ifvqbr0","pricing_plan_id":"cebpf4jnsgd1na2vs0mg"},{"bike_id":"c1887217-1322-42c0-81a2-9144431b0066","system_id":"levelo_inurba_marseille","lat":43.299222,"lon":5.365554,"is_reserved":false,"is_disabled":false,"rental_uris":{"android":"levelo://app?vid=c1887217-1322-42c0-81a2-9144431b0066","ios":"levelo://app?vid=c1887217-1322-42c0-81a2-9144431b0066"},"vehicle_type_id":"4","last_reported":1713891991,"current_range_meters":10000,"station_id":"ce4bgm92rcd13ifvqbr0","pricing_plan_id":"cebpf4jnsgd1na2vs0mg"},{"bike_id":"b73f197c-a5d6-4aef-9777-49217ef177c8","system_id":"levelo_inurba_marseille","lat":43.299222,"lon":5.365554,"is_reserved":false,"is_disabled":false,"rental_uris":{"android":"levelo://app?vid=b73f197c-a5d6-4aef-9777-49217ef177c8","ios":"levelo://app?vid=b73f197c-a5d6-4aef-9777-49217ef177c8"},"vehicle_type_id":"4","last_reported":1713891991,"current_range_meters":24800,"station_id":"ce4bgm92rcd13ifvqbr0","pricing_plan_id":"cebpf4jnsgd1na2vs0mg"},{"bike_id":"bfad8d05-b338-430e-83dd-0060bcc492be","system_id":"levelo_inurba_marseille","lat":43.29937,"lon":5.36536,"is_reserved":false,"is_disabled":false,"rental_uris":{"android":"levelo://app?vid=bfad8d05-b338-430e-83dd-0060bcc492be","ios":"levelo://app?vid=bfad8d05-b338-430e-83dd-0060bcc492be"},"vehicle_type_id":"4","last_reported":1713891991,"current_range_meters":16000,"station_id":"","pricing_plan_id":"cebpf4jnsgd1na2vs0mg"},{"bike_id":"20704c0a-dc9d-4a93-955d-743550b192c6","system_id":"levelo_inurba_marseille","lat":43.29934,"lon":5.36544,"is_reserved":false,"is_disabled":false,"rental_uris":{"android":"levelo://app?vid=20704c0a-dc9d-4a93-955d-743550b192c6","ios":"levelo://app?vid=20704c0a-dc9d-4a93-955d-743550b192c6"},"vehicle_type_id":"4","last_reported":1713891991,"current_range_meters":5600,"station_id":"ce4bgm92rcd13ifvqbr0","pricing_plan_id":"cebpf4jnsgd1na2vs0mg"},{"bike_id":"c625f90d-ffa5-4d44-992f-fe8b13357d78","system_id":"levelo_inurba_marseille","lat":43.299222,"lon":5.365554,"is_reserved":false,"is_disabled":false,"rental_uris":{"android":"levelo://app?vid=c625f90d-ffa5-4d44-992f-fe8b13357d78","ios":"levelo://app?vid=c625f90d-ffa5-4d44-992f-fe8b13357d78"},"vehicle_type_id":"4","last_reported":1713891991,"current_range_meters":0,"station_id":"ce4bgm92rcd13ifvqbr0","pricing_plan_id":"cebpf4jnsgd1na2vs0mg"},{"bike_id":"e1a5cf51-fe77-4ba4-b32f-d807eacf8d4a","system_id":"levelo_inurba_marseille","lat":43.29966,"lon":5.37198,"is_reserved":false,"is_disabled":false,"rental_uris":{"android":"levelo://app?vid=e1a5cf51-fe77-4ba4-b32f-d807eacf8d4a","ios":"levelo://app?vid=e1a5cf51-fe77-4ba4-b32f-d807eacf8d4a"},"vehicle_type_id":"4","last_reported":1713891991,"current_range_meters":3600,"station_id":"ce4bgr92rcd13ifvqc7g","pricing_plan_id":"cebpf4jnsgd1na2vs0mg"},{"bike_id":"0748efb8-2dec-4add-a4a0-bf67f45f2495","system_id":"levelo_inurba_marseille","lat":43.320392,"lon":5.382508,"is_reserved":false,"is_disabled":false,"rental_uris":{"android":"levelo://app?vid=0748efb8-2dec-4add-a4a0-bf67f45f2495","ios":"levelo://app?vid=0748efb8-2dec-4add-a4a0-bf67f45f2495"},"vehicle_type_id":"4","last_reported":1713891991,"current_range_meters":0,"station_id":"ce4bhr12rcd13ifvqhqg","pricing_plan_id":"cebpf4jnsgd1na2vs0mg"},{"bike_id":"bea8eece-a67d-4e27-8c47-5b0be0a8092a","system_id":"levelo_inurba_marseille","lat":43.298433,"lon":5.362774,"is_reserved":false,"is_disabled":false,"rental_uris":{"android":"levelo://app?vid=bea8eece-a67d-4e27-8c47-5b0be0a8092a","ios":"levelo://app?vid=bea8eece-a67d-4e27-8c47-5b0be0a8092a"},"vehicle_type_id":"4","last_reported":1713891991,"current_range_meters":26400,"station_id":"ce4bgpp2rcd13ifvqc3g","pricing_plan_id":"cebpf4jnsgd1na2vs0mg"},{"bike_id":"1901bbc6-5d32-4bb0-874f-441e2131997c","system_id":"levelo_inurba_marseille","lat":43.305364,"lon":5.384119,"is_reserved":false,"is_disabled":false,"rental_uris":{"android":"levelo://app?vid=1901bbc6-5d32-4bb0-874f-441e2131997c","ios":"levelo://app?vid=1901bbc6-5d32-4bb0-874f-441e2131997c"},"vehicle_type_id":"4","last_reported":1713891991,"current_range_meters":5200,"station_id":"ce4bgg92rcd13ifvqb30","pricing_plan_id":"cebpf4jnsgd1na2vs0mg"},{"bike_id":"bb4fc0d2-2db9-45ad-adba-bf3a34299dd8","system_id":"levelo_inurba_marseille","lat":43.298433,"lon":5.362774,"is_reserved":false,"is_disabled":false,"rental_uris":{"android":"levelo://app?vid=bb4fc0d2-2db9-45ad-adba-bf3a34299dd8","ios":"levelo://app?vid=bb4fc0d2-2db9-45ad-adba-bf3a34299dd8"},"vehicle_type_id":"4","last_reported":1713891991,"current_range_meters":19200,"station_id":"ce4bgpp2rcd13ifvqc3g","pricing_plan_id":"cebpf4jnsgd1na2vs0mg"},{"bike_id":"da14cd64-b205-4c16-8c7e-95744f924e41","system_id":"levelo_inurba_marseille","lat":43.298433,"lon":5.362774,"is_reserved":false,"is_disabled":false,"rental_uris":{"android":"levelo://app?vid=da14cd64-b205-4c16-8c7e-95744f924e41","ios":"levelo://app?vid=da14cd64-b205-4c16-8c7e-95744f924e41"},"vehicle_type_id":"4","last_reported":1713891991,"current_range_meters":0,"station_id":"ce4bgpp2rcd13ifvqc3g","pricing_plan_id":"cebpf4jnsgd1na2vs0mg"},{"bike_id":"6e1b619e-4c7b-453c-855a-4417648d3557","system_id":"levelo_inurba_marseille","lat":43.29849,"lon":5.36283,"is_reserved":false,"is_disabled":false,"rental_uris":{"android":"levelo://app?vid=6e1b619e-4c7b-453c-855a-4417648d3557","ios":"levelo://app?vid=6e1b619e-4c7b-453c-855a-4417648d3557"},"vehicle_type_id":"4","last_reported":1713891991,"current_range_meters":2000,"station_id":"ce4bgpp2rcd13ifvqc3g","pricing_plan_id":"cebpf4jnsgd1na2vs0mg"},{"bike_id":"04b03e48-31ff-4b54-ab4c-0cb5f6551ae4","system_id":"levelo_inurba_marseille","lat":43.2985,"lon":5.36272,"is_reserved":false,"is_disabled":false,"rental_uris":{"android":"levelo://app?vid=04b03e48-31ff-4b54-ab4c-0cb5f6551ae4","ios":"levelo://app?vid=04b03e48-31ff-4b54-ab4c-0cb5f6551ae4"},"vehicle_type_id":"4","last_reported":1713891991,"current_range_meters":13200,"station_id":"ce4bgpp2rcd13ifvqc3g","pricing_plan_id":"cebpf4jnsgd1na2vs0mg"},{"bike_id":"2f4e75ca-24fa-4a9d-9c07-d867716aa659","system_id":"levelo_inurba_marseille","lat":43.29844,"lon":5.36266,"is_reserved":false,"is_disabled":false,"rental_uris":{"android":"levelo://app?vid=2f4e75ca-24fa-4a9d-9c07-d867716aa659","ios":"levelo://app?vid=2f4e75ca-24fa-4a9d-9c07-d867716aa659"},"vehicle_type_id":"4","last_reported":1713891991,"current_range_meters":9600,"station_id":"ce4bgpp2rcd13ifvqc3g","pricing_plan_id":"cebpf4jnsgd1na2vs0mg"},{"bike_id":"5410e2d6-c181-4129-ba18-8b5e3785bb4c","system_id":"levelo_inurba_marseille","lat":43.311722,"lon":5.387247,"is_reserved":false,"is_disabled":false,"rental_uris":{"android":"levelo://app?vid=5410e2d6-c181-4129-ba18-8b5e3785bb4c","ios":"levelo://app?vid=5410e2d6-c181-4129-ba18-8b5e3785bb4c"},"vehicle_type_id":"4","last_reported":1713891991,"current_range_meters":0,"station_id":"ce4bgv12rcd13ifvqcp0","pricing_plan_id":"cebpf4jnsgd1na2vs0mg"},{"bike_id":"a2d0584f-211c-4bf2-8d93-c8ade0d9adf7","system_id":"levelo_inurba_marseille","lat":43.311722,"lon":5.387247,"is_reserved":false,"is_disabled":false,"rental_uris":{"android":"levelo://app?vid=a2d0584f-211c-4bf2-8d93-c8ade0d9adf7","ios":"levelo://app?vid=a2d0584f-211c-4bf2-8d93-c8ade0d9adf7"},"vehicle_type_id":"4","last_reported":1713891991,"current_range_meters":10800,"station_id":"ce4bgv12rcd13ifvqcp0","pricing_plan_id":"cebpf4jnsgd1na2vs0mg"},{"bike_id":"ac33e524-878f-4d9f-a288-6d408505902c","system_id":"levelo_inurba_marseille","lat":43.311722,"lon":5.387247,"is_reserved":false,"is_disabled":false,"rental_uris":{"android":"levelo://app?vid=ac33e524-878f-4d9f-a288-6d408505902c","ios":"levelo://app?vid=ac33e524-878f-4d9f-a288-6d408505902c"},"vehicle_type_id":"4","last_reported":1713891991,"current_range_meters":4400,"station_id":"ce4bgv12rcd13ifvqcp0","pricing_plan_id":"cebpf4jnsgd1na2vs0mg"},{"bike_id":"1c51233e-61e1-4e95-b675-fe7a6b85bf58","system_id":"levelo_inurba_marseille","lat":43.297794,"lon":5.370888,"is_reserved":false,"is_disabled":false,"rental_uris":{"android":"levelo://app?vid=1c51233e-61e1-4e95-b675-fe7a6b85bf58","ios":"levelo://app?vid=1c51233e-61e1-4e95-b675-fe7a6b85bf58"},"vehicle_type_id":"4","last_reported":1713891991,"current_range_meters":3200,"station_id":"ce4bgop2rcd13ifvqc1g","pricing_plan_id":"cebpf4jnsgd1na2vs0mg"},{"bike_id":"021d5f2e-8e79-4114-b8ed-9cadf2727028","system_id":"levelo_inurba_marseille","lat":43.297774,"lon":5.370875,"is_reserved":false,"is_disabled":false,"rental_uris":{"android":"levelo://app?vid=021d5f2e-8e79-4114-b8ed-9cadf2727028","ios":"levelo://app?vid=021d5f2e-8e79-4114-b8ed-9cadf2727028"},"vehicle_type_id":"4","last_reported":1713891991,"current_range_meters":28000,"station_id":"ce4bgop2rcd13ifvqc1g","pricing_plan_id":"cebpf4jnsgd1na2vs0mg"},{"bike_id":"27ed7e3b-1e10-4778-b7ec-a12b5d711d4d","system_id":"levelo_inurba_marseille","lat":43.322872,"lon":5.382756,"is_reserved":false,"is_disabled":false,"rental_uris":{"android":"levelo://app?vid=27ed7e3b-1e10-4778-b7ec-a12b5d711d4d","ios":"levelo://app?vid=27ed7e3b-1e10-4778-b7ec-a12b5d711d4d"},"vehicle_type_id":"4","last_reported":1713891991,"current_range_meters":10800,"station_id":"ce4bhr12rcd13ifvqhqg","pricing_plan_id":"cebpf4jnsgd1na2vs0mg"},{"bike_id":"b78186bf-b294-4378-b267-e00845ec226c","system_id":"levelo_inurba_marseille","lat":43.297163,"lon":5.365866,"is_reserved":false,"is_disabled":false,"rental_uris":{"android":"levelo://app?vid=b78186bf-b294-4378-b267-e00845ec226c","ios":"levelo://app?vid=b78186bf-b294-4378-b267-e00845ec226c"},"vehicle_type_id":"4","last_reported":1713891991,"current_range_meters":21200,"station_id":"ce4bgn12rcd13ifvqbt0","pricing_plan_id":"cebpf4jnsgd1na2vs0mg"},{"bike_id":"aa0b1295-6c8e-4ebe-80bd-4942726f3954","system_id":"levelo_inurba_marseille","lat":43.297163,"lon":5.365866,"is_reserved":false,"is_disabled":false,"rental_uris":{"android":"levelo://app?vid=aa0b1295-6c8e-4ebe-80bd-4942726f3954","ios":"levelo://app?vid=aa0b1295-6c8e-4ebe-80bd-4942726f3954"},"vehicle_type_id":"4","last_reported":1713891991,"current_range_meters":8800,"station_id":"ce4bgn12rcd13ifvqbt0","pricing_plan_id":"cebpf4jnsgd1na2vs0mg"},{"bike_id":"e90aa3de-9e8e-4e06-a22b-d89ad903247a","system_id":"levelo_inurba_marseille","lat":43.29705,"lon":5.36612,"is_reserved":false,"is_disabled":false,"rental_uris":{"android":"levelo://app?vid=e90aa3de-9e8e-4e06-a22b-d89ad903247a","ios":"levelo://app?vid=e90aa3de-9e8e-4e06-a22b-d89ad903247a"},"vehicle_type_id":"4","last_reported":1713891991,"current_range_meters":0,"station_id":"ce4bgn12rcd13ifvqbt0","pricing_plan_id":"cebpf4jnsgd1na2vs0mg"},{"bike_id":"4076032c-e1c9-4938-920e-9fb70c464787","system_id":"levelo_inurba_marseille","lat":43.297163,"lon":5.365866,"is_reserved":false,"is_disabled":false,"rental_uris":{"android":"levelo://app?vid=4076032c-e1c9-4938-920e-9fb70c464787","ios":"levelo://app?vid=4076032c-e1c9-4938-920e-9fb70c464787"},"vehicle_type_id":"4","last_reported":1713891991,"current_range_meters":24000,"station_id":"ce4bgn12rcd13ifvqbt0","pricing_plan_id":"cebpf4jnsgd1na2vs0mg"},{"bike_id":"764b1925-dda4-4a4f-8c90-7974327dead0","system_id":"levelo_inurba_marseille","lat":43.2968,"lon":5.37291,"is_reserved":false,"is_disabled":false,"rental_uris":{"android":"levelo://app?vid=764b1925-dda4-4a4f-8c90-7974327dead0","ios":"levelo://app?vid=764b1925-dda4-4a4f-8c90-7974327dead0"},"vehicle_type_id":"4","last_reported":1713891991,"current_range_meters":14800,"station_id":"ce4bgk12rcd13ifvqbj0","pricing_plan_id":"cebpf4jnsgd1na2vs0mg"},{"bike_id":"a1896729-c630-48a8-9301-af2e5e66ee4c","system_id":"levelo_inurba_marseille","lat":43.2968,"lon":5.37291,"is_reserved":false,"is_disabled":false,"rental_uris":{"android":"levelo://app?vid=a1896729-c630-48a8-9301-af2e5e66ee4c","ios":"levelo://app?vid=a1896729-c630-48a8-9301-af2e5e66ee4c"},"vehicle_type_id":"4","last_reported":1713891991,"current_range_meters":10400,"station_id":"ce4bgk12rcd13ifvqbj0","pricing_plan_id":"cebpf4jnsgd1na2vs0mg"},{"bike_id":"1e46f18d-b232-4f69-b626-d3608fddcecc","system_id":"levelo_inurba_marseille","lat":43.2968,"lon":5.37291,"is_reserved":false,"is_disabled":false,"rental_uris":{"android":"levelo://app?vid=1e46f18d-b232-4f69-b626-d3608fddcecc","ios":"levelo://app?vid=1e46f18d-b232-4f69-b626-d3608fddcecc"},"vehicle_type_id":"4","last_reported":1713891991,"current_range_meters":800,"station_id":"ce4bgk12rcd13ifvqbj0","pricing_plan_id":"cebpf4jnsgd1na2vs0mg"},{"bike_id":"22ee16ca-a245-4dc1-ad8a-db06da73955c","system_id":"levelo_inurba_marseille","lat":43.295948,"lon":5.368766,"is_reserved":false,"is_disabled":false,"rental_uris":{"android":"levelo://app?vid=22ee16ca-a245-4dc1-ad8a-db06da73955c","ios":"levelo://app?vid=22ee16ca-a245-4dc1-ad8a-db06da73955c"},"vehicle_type_id":"4","last_reported":1713891991,"current_range_meters":12800,"station_id":"","pricing_plan_id":"cebpf4jnsgd1na2vs0mg"},{"bike_id":"851adc45-2983-473b-8f94-a7c994915401","system_id":"levelo_inurba_marseille","lat":43.296131,"lon":5.370791,"is_reserved":false,"is_disabled":false,"rental_uris":{"android":"levelo://app?vid=851adc45-2983-473b-8f94-a7c994915401","ios":"levelo://app?vid=851adc45-2983-473b-8f94-a7c994915401"},"vehicle_type_id":"4","last_reported":1713891991,"current_range_meters":21600,"station_id":"ce4bgnh2rcd13ifvqc0g","pricing_plan_id":"cebpf4jnsgd1na2vs0mg"},{"bike_id":"ad2f6506-efd7-456a-b841-361f88e18dde","system_id":"levelo_inurba_marseille","lat":43.29573,"lon":5.367355,"is_reserved":false,"is_disabled":false,"rental_uris":{"android":"levelo://app?vid=ad2f6506-efd7-456a-b841-361f88e18dde","ios":"levelo://app?vid=ad2f6506-efd7-456a-b841-361f88e18dde"},"vehicle_type_id":"4","last_reported":1713891991,"current_range_meters":9600,"station_id":"ce4bgph2rcd13ifvqc2g","pricing_plan_id":"cebpf4jnsgd1na2vs0mg"},{"bike_id":"48e244e0-e654-4a47-a727-85fa40101c99","system_id":"levelo_inurba_marseille","lat":43.29573,"lon":5.367355,"is_reserved":false,"is_disabled":false,"rental_uris":{"android":"levelo://app?vid=48e244e0-e654-4a47-a727-85fa40101c99","ios":"levelo://app?vid=48e244e0-e654-4a47-a727-85fa40101c99"},"vehicle_type_id":"4","last_reported":1713891991,"current_range_meters":27200,"station_id":"ce4bgph2rcd13ifvqc2g","pricing_plan_id":"cebpf4jnsgd1na2vs0mg"},{"bike_id":"ce5bbb5c-3624-477e-b86e-316786e043ca","system_id":"levelo_inurba_marseille","lat":43.297193,"lon":5.376318,"is_reserved":false,"is_disabled":false,"rental_uris":{"android":"levelo://app?vid=ce5bbb5c-3624-477e-b86e-316786e043ca","ios":"levelo://app?vid=ce5bbb5c-3624-477e-b86e-316786e043ca"},"vehicle_type_id":"4","last_reported":1713891991,"current_range_meters":12800,"station_id":"ce4bgkh2rcd13ifvqbl0","pricing_plan_id":"cebpf4jnsgd1na2vs0mg"},{"bike_id":"1e4c00ec-89dc-4cc1-92e2-14441733da43","system_id":"levelo_inurba_marseille","lat":43.299028,"lon":5.381509,"is_reserved":false,"is_disabled":false,"rental_uris":{"android":"levelo://app?vid=1e4c00ec-89dc-4cc1-92e2-14441733da43","ios":"levelo://app?vid=1e4c00ec-89dc-4cc1-92e2-14441733da43"},"vehicle_type_id":"4","last_reported":1713891991,"current_range_meters":11600,"station_id":"ce4bgj12rcd13ifvqbc0","pricing_plan_id":"cebpf4jnsgd1na2vs0mg"},{"bike_id":"3512a265-ab6c-40c9-92a2-08a16174fdbe","system_id":"levelo_inurba_marseille","lat":43.317269,"lon":5.390109,"is_reserved":false,"is_disabled":false,"rental_uris":{"android":"levelo://app?vid=3512a265-ab6c-40c9-92a2-08a16174fdbe","ios":"levelo://app?vid=3512a265-ab6c-40c9-92a2-08a16174fdbe"},"vehicle_type_id":"4","last_reported":1713891991,"current_range_meters":0,"station_id":"ce4bhqp2rcd13ifvqhng","pricing_plan_id":"cebpf4jnsgd1na2vs0mg"},{"bike_id":"730fa032-1821-42e7-b61f-572075c353a4","system_id":"levelo_inurba_marseille","lat":43.317557,"lon":5.390173,"is_reserved":false,"is_disabled":false,"rental_uris":{"android":"levelo://app?vid=730fa032-1821-42e7-b61f-572075c353a4","ios":"levelo://app?vid=730fa032-1821-42e7-b61f-572075c353a4"},"vehicle_type_id":"4","last_reported":1713891991,"current_range_meters":11200,"station_id":"ce4bhqp2rcd13ifvqhng","pricing_plan_id":"cebpf4jnsgd1na2vs0mg"},{"bike_id":"8ca3ec5b-cca1-46c0-81d0-be883cff6b3e","system_id":"levelo_inurba_marseille","lat":43.317557,"lon":5.390173,"is_reserved":false,"is_disabled":false,"rental_uris":{"android":"levelo://app?vid=8ca3ec5b-cca1-46c0-81d0-be883cff6b3e","ios":"levelo://app?vid=8ca3ec5b-cca1-46c0-81d0-be883cff6b3e"},"vehicle_type_id":"4","last_reported":1713891991,"current_range_meters":31200,"station_id":"ce4bhqp2rcd13ifvqhng","pricing_plan_id":"cebpf4jnsgd1na2vs0mg"},{"bike_id":"9c58f77e-fe93-423a-aacc-1d9eb5af8f42","system_id":"levelo_inurba_marseille","lat":43.336134,"lon":5.410341,"is_reserved":false,"is_disabled":false,"rental_uris":{"android":"levelo://app?vid=9c58f77e-fe93-423a-aacc-1d9eb5af8f42","ios":"levelo://app?vid=9c58f77e-fe93-423a-aacc-1d9eb5af8f42"},"vehicle_type_id":"4","last_reported":1713891991,"current_range_meters":17200,"station_id":"ce4bhqh2rcd13ifvqhmg","pricing_plan_id":"cebpf4jnsgd1na2vs0mg"},{"bike_id":"7c243a2a-cdb4-43ae-b85b-1a804fa651bb","system_id":"levelo_inurba_marseille","lat":43.296921,"lon":5.376579,"is_reserved":false,"is_disabled":false,"rental_uris":{"android":"levelo://app?vid=7c243a2a-cdb4-43ae-b85b-1a804fa651bb","ios":"levelo://app?vid=7c243a2a-cdb4-43ae-b85b-1a804fa651bb"},"vehicle_type_id":"4","last_reported":1713891991,"current_range_meters":30800,"station_id":"ce4bgkh2rcd13ifvqbl0","pricing_plan_id":"cebpf4jnsgd1na2vs0mg"},{"bike_id":"e9c6a310-d581-485b-96a5-a51d288a12eb","system_id":"levelo_inurba_marseille","lat":43.317557,"lon":5.390173,"is_reserved":false,"is_disabled":false,"rental_uris":{"android":"levelo://app?vid=e9c6a310-d581-485b-96a5-a51d288a12eb","ios":"levelo://app?vid=e9c6a310-d581-485b-96a5-a51d288a12eb"},"vehicle_type_id":"4","last_reported":1713891991,"current_range_meters":4000,"station_id":"ce4bhqp2rcd13ifvqhng","pricing_plan_id":"cebpf4jnsgd1na2vs0mg"},{"bike_id":"3def7f89-7943-4742-ab61-c725d3df3e24","system_id":"levelo_inurba_marseille","lat":43.29582,"lon":5.37503,"is_reserved":false,"is_disabled":false,"rental_uris":{"android":"levelo://app?vid=3def7f89-7943-4742-ab61-c725d3df3e24","ios":"levelo://app?vid=3def7f89-7943-4742-ab61-c725d3df3e24"},"vehicle_type_id":"4","last_reported":1713891991,"current_range_meters":0,"station_id":"ce4bgh92rcd13ifvqb50","pricing_plan_id":"cebpf4jnsgd1na2vs0mg"},{"bike_id":"adfc13a3-c3d9-45b4-9381-2aee5b8b2f57","system_id":"levelo_inurba_marseille","lat":43.304274,"lon":5.388873,"is_reserved":false,"is_disabled":false,"rental_uris":{"android":"levelo://app?vid=adfc13a3-c3d9-45b4-9381-2aee5b8b2f57","ios":"levelo://app?vid=adfc13a3-c3d9-45b4-9381-2aee5b8b2f57"},"vehicle_type_id":"4","last_reported":1713891991,"current_range_meters":20400,"station_id":"ce4bgk12rcd13ifvqbi0","pricing_plan_id":"cebpf4jnsgd1na2vs0mg"},{"bike_id":"bbae126f-0126-4df8-8b3e-322752d7dfe2","system_id":"levelo_inurba_marseille","lat":43.304274,"lon":5.388873,"is_reserved":false,"is_disabled":false,"rental_uris":{"android":"levelo://app?vid=bbae126f-0126-4df8-8b3e-322752d7dfe2","ios":"levelo://app?vid=bbae126f-0126-4df8-8b3e-322752d7dfe2"},"vehicle_type_id":"4","last_reported":1713891991,"current_range_meters":27200,"station_id":"ce4bgk12rcd13ifvqbi0","pricing_plan_id":"cebpf4jnsgd1na2vs0mg"},{"bike_id":"78ff15d1-8130-45a0-b6e7-a2bd813e1914","system_id":"levelo_inurba_marseille","lat":43.30434,"lon":5.38879,"is_reserved":false,"is_disabled":false,"rental_uris":{"android":"levelo://app?vid=78ff15d1-8130-45a0-b6e7-a2bd813e1914","ios":"levelo://app?vid=78ff15d1-8130-45a0-b6e7-a2bd813e1914"},"vehicle_type_id":"4","last_reported":1713891991,"current_range_meters":25200,"station_id":"ce4bgk12rcd13ifvqbi0","pricing_plan_id":"cebpf4jnsgd1na2vs0mg"},{"bike_id":"958f8321-5eb0-461c-b31b-c6efbfa33b2d","system_id":"levelo_inurba_marseille","lat":43.304274,"lon":5.388873,"is_reserved":false,"is_disabled":false,"rental_uris":{"android":"levelo://app?vid=958f8321-5eb0-461c-b31b-c6efbfa33b2d","ios":"levelo://app?vid=958f8321-5eb0-461c-b31b-c6efbfa33b2d"},"vehicle_type_id":"4","last_reported":1713891991,"current_range_meters":12400,"station_id":"ce4bgk12rcd13ifvqbi0","pricing_plan_id":"cebpf4jnsgd1na2vs0mg"},{"bike_id":"d53764c1-5a05-4117-90db-b4f4290835cd","system_id":"levelo_inurba_marseille","lat":43.30444,"lon":5.38887,"is_reserved":false,"is_disabled":false,"rental_uris":{"android":"levelo://app?vid=d53764c1-5a05-4117-90db-b4f4290835cd","ios":"levelo://app?vid=d53764c1-5a05-4117-90db-b4f4290835cd"},"vehicle_type_id":"4","last_reported":1713891991,"current_range_meters":12800,"station_id":"ce4bgk12rcd13ifvqbi0","pricing_plan_id":"cebpf4jnsgd1na2vs0mg"},{"bike_id":"47a80bb3-a408-483e-9d6a-de83dab03df4","system_id":"levelo_inurba_marseille","lat":43.304274,"lon":5.388873,"is_reserved":false,"is_disabled":false,"rental_uris":{"android":"levelo://app?vid=47a80bb3-a408-483e-9d6a-de83dab03df4","ios":"levelo://app?vid=47a80bb3-a408-483e-9d6a-de83dab03df4"},"vehicle_type_id":"4","last_reported":1713891991,"current_range_meters":11600,"station_id":"ce4bgk12rcd13ifvqbi0","pricing_plan_id":"cebpf4jnsgd1na2vs0mg"},{"bike_id":"1593f166-ac0a-48cc-943f-cd9d2fea8de3","system_id":"levelo_inurba_marseille","lat":43.3044,"lon":5.3889,"is_reserved":false,"is_disabled":false,"rental_uris":{"android":"levelo://app?vid=1593f166-ac0a-48cc-943f-cd9d2fea8de3","ios":"levelo://app?vid=1593f166-ac0a-48cc-943f-cd9d2fea8de3"},"vehicle_type_id":"4","last_reported":1713891991,"current_range_meters":1600,"station_id":"ce4bgk12rcd13ifvqbi0","pricing_plan_id":"cebpf4jnsgd1na2vs0mg"},{"bike_id":"e9a8b597-86da-40c0-b478-990564a0aaa5","system_id":"levelo_inurba_marseille","lat":43.298037,"lon":5.381066,"is_reserved":false,"is_disabled":false,"rental_uris":{"android":"levelo://app?vid=e9a8b597-86da-40c0-b478-990564a0aaa5","ios":"levelo://app?vid=e9a8b597-86da-40c0-b478-990564a0aaa5"},"vehicle_type_id":"4","last_reported":1713891991,"current_range_meters":14800,"station_id":"ce4bgip2rcd13ifvqbb0","pricing_plan_id":"cebpf4jnsgd1na2vs0mg"},{"bike_id":"3f9ad79f-39a3-4062-97ce-203091f78020","system_id":"levelo_inurba_marseille","lat":43.304274,"lon":5.388873,"is_reserved":false,"is_disabled":false,"rental_uris":{"android":"levelo://app?vid=3f9ad79f-39a3-4062-97ce-203091f78020","ios":"levelo://app?vid=3f9ad79f-39a3-4062-97ce-203091f78020"},"vehicle_type_id":"4","last_reported":1713891991,"current_range_meters":14800,"station_id":"ce4bgk12rcd13ifvqbi0","pricing_plan_id":"cebpf4jnsgd1na2vs0mg"},{"bike_id":"98875dca-9cfc-4d35-84fa-f4cd23315b7b","system_id":"levelo_inurba_marseille","lat":43.29791,"lon":5.381077,"is_reserved":false,"is_disabled":false,"rental_uris":{"android":"levelo://app?vid=98875dca-9cfc-4d35-84fa-f4cd23315b7b","ios":"levelo://app?vid=98875dca-9cfc-4d35-84fa-f4cd23315b7b"},"vehicle_type_id":"4","last_reported":1713891991,"current_range_meters":4000,"station_id":"ce4bgip2rcd13ifvqbb0","pricing_plan_id":"cebpf4jnsgd1na2vs0mg"},{"bike_id":"75534077-5cef-4f58-a8a7-7958b47e2240","system_id":"levelo_inurba_marseille","lat":43.304274,"lon":5.388873,"is_reserved":false,"is_disabled":false,"rental_uris":{"android":"levelo://app?vid=75534077-5cef-4f58-a8a7-7958b47e2240","ios":"levelo://app?vid=75534077-5cef-4f58-a8a7-7958b47e2240"},"vehicle_type_id":"4","last_reported":1713891991,"current_range_meters":6000,"station_id":"ce4bgk12rcd13ifvqbi0","pricing_plan_id":"cebpf4jnsgd1na2vs0mg"},{"bike_id":"2c1da4e9-90aa-4033-9a37-cfae8a91c579","system_id":"levelo_inurba_marseille","lat":43.30432,"lon":5.38889,"is_reserved":false,"is_disabled":false,"rental_uris":{"android":"levelo://app?vid=2c1da4e9-90aa-4033-9a37-cfae8a91c579","ios":"levelo://app?vid=2c1da4e9-90aa-4033-9a37-cfae8a91c579"},"vehicle_type_id":"4","last_reported":1713891991,"current_range_meters":6400,"station_id":"ce4bgk12rcd13ifvqbi0","pricing_plan_id":"cebpf4jnsgd1na2vs0mg"},{"bike_id":"51109523-f562-4674-a9ac-ba7c53841737","system_id":"levelo_inurba_marseille","lat":43.30434,"lon":5.38893,"is_reserved":false,"is_disabled":false,"rental_uris":{"android":"levelo://app?vid=51109523-f562-4674-a9ac-ba7c53841737","ios":"levelo://app?vid=51109523-f562-4674-a9ac-ba7c53841737"},"vehicle_type_id":"4","last_reported":1713891991,"current_range_meters":28800,"station_id":"ce4bgk12rcd13ifvqbi0","pricing_plan_id":"cebpf4jnsgd1na2vs0mg"},{"bike_id":"e84a950c-fff5-479b-a747-42e67ebf37eb","system_id":"levelo_inurba_marseille","lat":43.304274,"lon":5.388873,"is_reserved":false,"is_disabled":false,"rental_uris":{"android":"levelo://app?vid=e84a950c-fff5-479b-a747-42e67ebf37eb","ios":"levelo://app?vid=e84a950c-fff5-479b-a747-42e67ebf37eb"},"vehicle_type_id":"4","last_reported":1713891991,"current_range_meters":28000,"station_id":"ce4bgk12rcd13ifvqbi0","pricing_plan_id":"cebpf4jnsgd1na2vs0mg"},{"bike_id":"bfc691c6-2dcf-45a1-a90e-cf4c3d19eb6e","system_id":"levelo_inurba_marseille","lat":43.304274,"lon":5.388873,"is_reserved":false,"is_disabled":false,"rental_uris":{"android":"levelo://app?vid=bfc691c6-2dcf-45a1-a90e-cf4c3d19eb6e","ios":"levelo://app?vid=bfc691c6-2dcf-45a1-a90e-cf4c3d19eb6e"},"vehicle_type_id":"4","last_reported":1713891991,"current_range_meters":2800,"station_id":"ce4bgk12rcd13ifvqbi0","pricing_plan_id":"cebpf4jnsgd1na2vs0mg"},{"bike_id":"23dc7b60-2004-4f58-856a-129617d82d35","system_id":"levelo_inurba_marseille","lat":43.30444,"lon":5.38902,"is_reserved":false,"is_disabled":false,"rental_uris":{"android":"levelo://app?vid=23dc7b60-2004-4f58-856a-129617d82d35","ios":"levelo://app?vid=23dc7b60-2004-4f58-856a-129617d82d35"},"vehicle_type_id":"4","last_reported":1713891991,"current_range_meters":8000,"station_id":"ce4bgk12rcd13ifvqbi0","pricing_plan_id":"cebpf4jnsgd1na2vs0mg"},{"bike_id":"5a17ab96-1138-48e7-83c5-d6e4c7e31bd9","system_id":"levelo_inurba_marseille","lat":43.3043,"lon":5.388958,"is_reserved":false,"is_disabled":false,"rental_uris":{"android":"levelo://app?vid=5a17ab96-1138-48e7-83c5-d6e4c7e31bd9","ios":"levelo://app?vid=5a17ab96-1138-48e7-83c5-d6e4c7e31bd9"},"vehicle_type_id":"4","last_reported":1713891991,"current_range_meters":18400,"station_id":"ce4bgk12rcd13ifvqbi0","pricing_plan_id":"cebpf4jnsgd1na2vs0mg"},{"bike_id":"6f89d645-8c19-41a3-a1c4-c7baac24a724","system_id":"levelo_inurba_marseille","lat":43.298037,"lon":5.381066,"is_reserved":false,"is_disabled":false,"rental_uris":{"android":"levelo://app?vid=6f89d645-8c19-41a3-a1c4-c7baac24a724","ios":"levelo://app?vid=6f89d645-8c19-41a3-a1c4-c7baac24a724"},"vehicle_type_id":"4","last_reported":1713891991,"current_range_meters":0,"station_id":"ce4bgip2rcd13ifvqbb0","pricing_plan_id":"cebpf4jnsgd1na2vs0mg"},{"bike_id":"9c757ec0-dee9-4ed2-b9f2-da970fc3e86d","system_id":"levelo_inurba_marseille","lat":43.29617,"lon":5.37713,"is_reserved":false,"is_disabled":false,"rental_uris":{"android":"levelo://app?vid=9c757ec0-dee9-4ed2-b9f2-da970fc3e86d","ios":"levelo://app?vid=9c757ec0-dee9-4ed2-b9f2-da970fc3e86d"},"vehicle_type_id":"4","last_reported":1713891991,"current_range_meters":28000,"station_id":"","pricing_plan_id":"cebpf4jnsgd1na2vs0mg"},{"bike_id":"a00b3990-a373-4fdc-88cb-7bc4f571c907","system_id":"levelo_inurba_marseille","lat":43.304278,"lon":5.388868,"is_reserved":false,"is_disabled":false,"rental_uris":{"android":"levelo://app?vid=a00b3990-a373-4fdc-88cb-7bc4f571c907","ios":"levelo://app?vid=a00b3990-a373-4fdc-88cb-7bc4f571c907"},"vehicle_type_id":"4","last_reported":1713891991,"current_range_meters":10800,"station_id":"ce4bgk12rcd13ifvqbi0","pricing_plan_id":"cebpf4jnsgd1na2vs0mg"},{"bike_id":"86653855-b682-4708-9ce9-485ab13b3e73","system_id":"levelo_inurba_marseille","lat":43.299707,"lon":5.384859,"is_reserved":false,"is_disabled":false,"rental_uris":{"android":"levelo://app?vid=86653855-b682-4708-9ce9-485ab13b3e73","ios":"levelo://app?vid=86653855-b682-4708-9ce9-485ab13b3e73"},"vehicle_type_id":"4","last_reported":1713891991,"current_range_meters":31200,"station_id":"ce4bgj92rcd13ifvqbd0","pricing_plan_id":"cebpf4jnsgd1na2vs0mg"},{"bike_id":"4294d4d1-ea59-4ce1-b5af-7cbe71d87daf","system_id":"levelo_inurba_marseille","lat":43.29976,"lon":5.384832,"is_reserved":false,"is_disabled":false,"rental_uris":{"android":"levelo://app?vid=4294d4d1-ea59-4ce1-b5af-7cbe71d87daf","ios":"levelo://app?vid=4294d4d1-ea59-4ce1-b5af-7cbe71d87daf"},"vehicle_type_id":"4","last_reported":1713891991,"current_range_meters":18800,"station_id":"ce4bgj92rcd13ifvqbd0","pricing_plan_id":"cebpf4jnsgd1na2vs0mg"},{"bike_id":"22dc416a-6bd8-4ded-8265-eb829a79ea27","system_id":"levelo_inurba_marseille","lat":43.29977,"lon":5.38497,"is_reserved":false,"is_disabled":false,"rental_uris":{"android":"levelo://app?vid=22dc416a-6bd8-4ded-8265-eb829a79ea27","ios":"levelo://app?vid=22dc416a-6bd8-4ded-8265-eb829a79ea27"},"vehicle_type_id":"4","last_reported":1713891991,"current_range_meters":0,"station_id":"ce4bgj92rcd13ifvqbd0","pricing_plan_id":"cebpf4jnsgd1na2vs0mg"},{"bike_id":"a1619fff-af6e-4720-a652-86040d08a712","system_id":"levelo_inurba_marseille","lat":43.32367,"lon":5.388836,"is_reserved":false,"is_disabled":false,"rental_uris":{"android":"levelo://app?vid=a1619fff-af6e-4720-a652-86040d08a712","ios":"levelo://app?vid=a1619fff-af6e-4720-a652-86040d08a712"},"vehicle_type_id":"4","last_reported":1713891991,"current_range_meters":16000,"station_id":"ce4bhqp2rcd13ifvqhog","pricing_plan_id":"cebpf4jnsgd1na2vs0mg"},{"bike_id":"239a1fe0-52d4-4a7d-80d6-b06369747b6b","system_id":"levelo_inurba_marseille","lat":43.32367,"lon":5.388836,"is_reserved":false,"is_disabled":false,"rental_uris":{"android":"levelo://app?vid=239a1fe0-52d4-4a7d-80d6-b06369747b6b","ios":"levelo://app?vid=239a1fe0-52d4-4a7d-80d6-b06369747b6b"},"vehicle_type_id":"4","last_reported":1713891991,"current_range_meters":4800,"station_id":"ce4bhqp2rcd13ifvqhog","pricing_plan_id":"cebpf4jnsgd1na2vs0mg"},{"bike_id":"6344c216-6b16-4b13-b74a-d65cbde250f9","system_id":"levelo_inurba_marseille","lat":43.32367,"lon":5.388836,"is_reserved":false,"is_disabled":false,"rental_uris":{"android":"levelo://app?vid=6344c216-6b16-4b13-b74a-d65cbde250f9","ios":"levelo://app?vid=6344c216-6b16-4b13-b74a-d65cbde250f9"},"vehicle_type_id":"4","last_reported":1713891991,"current_range_meters":17200,"station_id":"ce4bhqp2rcd13ifvqhog","pricing_plan_id":"cebpf4jnsgd1na2vs0mg"},{"bike_id":"f3a6b3d8-6ff4-4ed9-a7e1-695ac1f9d609","system_id":"levelo_inurba_marseille","lat":43.29602,"lon":5.381084,"is_reserved":false,"is_disabled":false,"rental_uris":{"android":"levelo://app?vid=f3a6b3d8-6ff4-4ed9-a7e1-695ac1f9d609","ios":"levelo://app?vid=f3a6b3d8-6ff4-4ed9-a7e1-695ac1f9d609"},"vehicle_type_id":"4","last_reported":1713891991,"current_range_meters":6400,"station_id":"ce4bgl12rcd13ifvqbo0","pricing_plan_id":"cebpf4jnsgd1na2vs0mg"},{"bike_id":"6520bfd6-2d7d-45f9-8f05-1eda9d712629","system_id":"levelo_inurba_marseille","lat":43.292749,"lon":5.368402,"is_reserved":false,"is_disabled":false,"rental_uris":{"android":"levelo://app?vid=6520bfd6-2d7d-45f9-8f05-1eda9d712629","ios":"levelo://app?vid=6520bfd6-2d7d-45f9-8f05-1eda9d712629"},"vehicle_type_id":"4","last_reported":1713891991,"current_range_meters":11200,"station_id":"ce4bhbp2rcd13ifvqesg","pricing_plan_id":"cebpf4jnsgd1na2vs0mg"},{"bike_id":"b24fc48f-0030-4d9f-9d8c-3aa3b60f93f5","system_id":"levelo_inurba_marseille","lat":43.293443,"lon":5.372187,"is_reserved":false,"is_disabled":false,"rental_uris":{"android":"levelo://app?vid=b24fc48f-0030-4d9f-9d8c-3aa3b60f93f5","ios":"levelo://app?vid=b24fc48f-0030-4d9f-9d8c-3aa3b60f93f5"},"vehicle_type_id":"4","last_reported":1713891991,"current_range_meters":5600,"station_id":"ce4bgh92rcd13ifvqb40","pricing_plan_id":"cebpf4jnsgd1na2vs0mg"},{"bike_id":"1a75c8ef-52a2-4027-92e0-8638ebb583bc","system_id":"levelo_inurba_marseille","lat":43.292749,"lon":5.368402,"is_reserved":false,"is_disabled":false,"rental_uris":{"android":"levelo://app?vid=1a75c8ef-52a2-4027-92e0-8638ebb583bc","ios":"levelo://app?vid=1a75c8ef-52a2-4027-92e0-8638ebb583bc"},"vehicle_type_id":"4","last_reported":1713891991,"current_range_meters":6400,"station_id":"ce4bhbp2rcd13ifvqesg","pricing_plan_id":"cebpf4jnsgd1na2vs0mg"},{"bike_id":"4a5b6478-1b1b-4b35-bc6d-8a402a280fc4","system_id":"levelo_inurba_marseille","lat":43.293108,"lon":5.37176,"is_reserved":false,"is_disabled":false,"rental_uris":{"android":"levelo://app?vid=4a5b6478-1b1b-4b35-bc6d-8a402a280fc4","ios":"levelo://app?vid=4a5b6478-1b1b-4b35-bc6d-8a402a280fc4"},"vehicle_type_id":"4","last_reported":1713891991,"current_range_meters":16400,"station_id":"ce4bgh92rcd13ifvqb40","pricing_plan_id":"cebpf4jnsgd1na2vs0mg"},{"bike_id":"ad07bfbc-f572-4385-b77f-718223317e1e","system_id":"levelo_inurba_marseille","lat":43.29311,"lon":5.37179,"is_reserved":false,"is_disabled":false,"rental_uris":{"android":"levelo://app?vid=ad07bfbc-f572-4385-b77f-718223317e1e","ios":"levelo://app?vid=ad07bfbc-f572-4385-b77f-718223317e1e"},"vehicle_type_id":"4","last_reported":1713891991,"current_range_meters":14800,"station_id":"ce4bgh92rcd13ifvqb40","pricing_plan_id":"cebpf4jnsgd1na2vs0mg"},{"bike_id":"5ce27b33-b7b5-4bb1-9b8f-227977031fde","system_id":"levelo_inurba_marseille","lat":43.29309,"lon":5.37171,"is_reserved":false,"is_disabled":false,"rental_uris":{"android":"levelo://app?vid=5ce27b33-b7b5-4bb1-9b8f-227977031fde","ios":"levelo://app?vid=5ce27b33-b7b5-4bb1-9b8f-227977031fde"},"vehicle_type_id":"4","last_reported":1713891991,"current_range_meters":30400,"station_id":"ce4bgh92rcd13ifvqb40","pricing_plan_id":"cebpf4jnsgd1na2vs0mg"},{"bike_id":"7b5293c4-0dd9-4c75-b479-f12443d7234d","system_id":"levelo_inurba_marseille","lat":43.29309,"lon":5.37186,"is_reserved":false,"is_disabled":false,"rental_uris":{"android":"levelo://app?vid=7b5293c4-0dd9-4c75-b479-f12443d7234d","ios":"levelo://app?vid=7b5293c4-0dd9-4c75-b479-f12443d7234d"},"vehicle_type_id":"4","last_reported":1713891991,"current_range_meters":8000,"station_id":"ce4bgh92rcd13ifvqb40","pricing_plan_id":"cebpf4jnsgd1na2vs0mg"},{"bike_id":"c3c1bb10-152a-4846-ac3e-aa1f22531228","system_id":"levelo_inurba_marseille","lat":43.292749,"lon":5.368402,"is_reserved":false,"is_disabled":false,"rental_uris":{"android":"levelo://app?vid=c3c1bb10-152a-4846-ac3e-aa1f22531228","ios":"levelo://app?vid=c3c1bb10-152a-4846-ac3e-aa1f22531228"},"vehicle_type_id":"4","last_reported":1713891991,"current_range_meters":1200,"station_id":"ce4bhbp2rcd13ifvqesg","pricing_plan_id":"cebpf4jnsgd1na2vs0mg"},{"bike_id":"684b5fb4-556d-4da6-bae9-5b525aed2cea","system_id":"levelo_inurba_marseille","lat":43.292749,"lon":5.368402,"is_reserved":false,"is_disabled":false,"rental_uris":{"android":"levelo://app?vid=684b5fb4-556d-4da6-bae9-5b525aed2cea","ios":"levelo://app?vid=684b5fb4-556d-4da6-bae9-5b525aed2cea"},"vehicle_type_id":"4","last_reported":1713891991,"current_range_meters":24400,"station_id":"ce4bhbp2rcd13ifvqesg","pricing_plan_id":"cebpf4jnsgd1na2vs0mg"},{"bike_id":"b2a77064-2bdb-49ce-878d-3aa826acd46f","system_id":"levelo_inurba_marseille","lat":43.303002,"lon":5.392142,"is_reserved":false,"is_disabled":false,"rental_uris":{"android":"levelo://app?vid=b2a77064-2bdb-49ce-878d-3aa826acd46f","ios":"levelo://app?vid=b2a77064-2bdb-49ce-878d-3aa826acd46f"},"vehicle_type_id":"4","last_reported":1713891991,"current_range_meters":26000,"station_id":"ce4bgkh2rcd13ifvqbk0","pricing_plan_id":"cebpf4jnsgd1na2vs0mg"},{"bike_id":"c1a695a1-813c-4d60-9c44-de34be6deeb8","system_id":"levelo_inurba_marseille","lat":43.293009,"lon":5.374584,"is_reserved":false,"is_disabled":false,"rental_uris":{"android":"levelo://app?vid=c1a695a1-813c-4d60-9c44-de34be6deeb8","ios":"levelo://app?vid=c1a695a1-813c-4d60-9c44-de34be6deeb8"},"vehicle_type_id":"4","last_reported":1713891991,"current_range_meters":14800,"station_id":"ce4bgi12rcd13ifvqb70","pricing_plan_id":"cebpf4jnsgd1na2vs0mg"},{"bike_id":"ac4a21a5-358e-452a-ae03-e1818a15c6aa","system_id":"levelo_inurba_marseille","lat":43.30591,"lon":5.39346,"is_reserved":false,"is_disabled":false,"rental_uris":{"android":"levelo://app?vid=ac4a21a5-358e-452a-ae03-e1818a15c6aa","ios":"levelo://app?vid=ac4a21a5-358e-452a-ae03-e1818a15c6aa"},"vehicle_type_id":"4","last_reported":1713891991,"current_range_meters":0,"station_id":"ce4bh0p2rcd13ifvqd80","pricing_plan_id":"cebpf4jnsgd1na2vs0mg"},{"bike_id":"2c62173c-9008-4d50-8fb8-b6753eba37ac","system_id":"levelo_inurba_marseille","lat":43.305994,"lon":5.393687,"is_reserved":false,"is_disabled":false,"rental_uris":{"android":"levelo://app?vid=2c62173c-9008-4d50-8fb8-b6753eba37ac","ios":"levelo://app?vid=2c62173c-9008-4d50-8fb8-b6753eba37ac"},"vehicle_type_id":"4","last_reported":1713891991,"current_range_meters":7200,"station_id":"ce4bh0p2rcd13ifvqd80","pricing_plan_id":"cebpf4jnsgd1na2vs0mg"},{"bike_id":"e4edf9bd-6a62-45c9-97a8-88c8e9190d1f","system_id":"levelo_inurba_marseille","lat":43.293009,"lon":5.374584,"is_reserved":false,"is_disabled":false,"rental_uris":{"android":"levelo://app?vid=e4edf9bd-6a62-45c9-97a8-88c8e9190d1f","ios":"levelo://app?vid=e4edf9bd-6a62-45c9-97a8-88c8e9190d1f"},"vehicle_type_id":"4","last_reported":1713891991,"current_range_meters":18800,"station_id":"ce4bgi12rcd13ifvqb70","pricing_plan_id":"cebpf4jnsgd1na2vs0mg"},{"bike_id":"4a622338-f290-4bbf-a5f1-a948a45a2259","system_id":"levelo_inurba_marseille","lat":43.293009,"lon":5.374584,"is_reserved":false,"is_disabled":false,"rental_uris":{"android":"levelo://app?vid=4a622338-f290-4bbf-a5f1-a948a45a2259","ios":"levelo://app?vid=4a622338-f290-4bbf-a5f1-a948a45a2259"},"vehicle_type_id":"4","last_reported":1713891991,"current_range_meters":0,"station_id":"ce4bgi12rcd13ifvqb70","pricing_plan_id":"cebpf4jnsgd1na2vs0mg"},{"bike_id":"44be06bc-dc86-493b-810e-7aa8b402db44","system_id":"levelo_inurba_marseille","lat":43.293009,"lon":5.374584,"is_reserved":false,"is_disabled":false,"rental_uris":{"android":"levelo://app?vid=44be06bc-dc86-493b-810e-7aa8b402db44","ios":"levelo://app?vid=44be06bc-dc86-493b-810e-7aa8b402db44"},"vehicle_type_id":"4","last_reported":1713891991,"current_range_meters":19600,"station_id":"ce4bgi12rcd13ifvqb70","pricing_plan_id":"cebpf4jnsgd1na2vs0mg"},{"bike_id":"60cafb62-5b9b-496e-b768-5dd95dc7c4d4","system_id":"levelo_inurba_marseille","lat":43.305994,"lon":5.393687,"is_reserved":false,"is_disabled":false,"rental_uris":{"android":"levelo://app?vid=60cafb62-5b9b-496e-b768-5dd95dc7c4d4","ios":"levelo://app?vid=60cafb62-5b9b-496e-b768-5dd95dc7c4d4"},"vehicle_type_id":"4","last_reported":1713891991,"current_range_meters":17600,"station_id":"ce4bh0p2rcd13ifvqd80","pricing_plan_id":"cebpf4jnsgd1na2vs0mg"},{"bike_id":"a2c342ae-1e47-4db4-9b08-734178cccfd5","system_id":"levelo_inurba_marseille","lat":43.305994,"lon":5.393687,"is_reserved":false,"is_disabled":false,"rental_uris":{"android":"levelo://app?vid=a2c342ae-1e47-4db4-9b08-734178cccfd5","ios":"levelo://app?vid=a2c342ae-1e47-4db4-9b08-734178cccfd5"},"vehicle_type_id":"4","last_reported":1713891991,"current_range_meters":12400,"station_id":"ce4bh0p2rcd13ifvqd80","pricing_plan_id":"cebpf4jnsgd1na2vs0mg"},{"bike_id":"a5f03ce0-1869-4ed0-99c3-fbcdf4e2e2d1","system_id":"levelo_inurba_marseille","lat":43.305994,"lon":5.393687,"is_reserved":false,"is_disabled":false,"rental_uris":{"android":"levelo://app?vid=a5f03ce0-1869-4ed0-99c3-fbcdf4e2e2d1","ios":"levelo://app?vid=a5f03ce0-1869-4ed0-99c3-fbcdf4e2e2d1"},"vehicle_type_id":"4","last_reported":1713891991,"current_range_meters":8000,"station_id":"ce4bh0p2rcd13ifvqd80","pricing_plan_id":"cebpf4jnsgd1na2vs0mg"},{"bike_id":"90539e7e-e99f-47d3-a4ca-3f3d915507e5","system_id":"levelo_inurba_marseille","lat":43.293009,"lon":5.374584,"is_reserved":false,"is_disabled":false,"rental_uris":{"android":"levelo://app?vid=90539e7e-e99f-47d3-a4ca-3f3d915507e5","ios":"levelo://app?vid=90539e7e-e99f-47d3-a4ca-3f3d915507e5"},"vehicle_type_id":"4","last_reported":1713891991,"current_range_meters":11600,"station_id":"ce4bgi12rcd13ifvqb70","pricing_plan_id":"cebpf4jnsgd1na2vs0mg"},{"bike_id":"4fd274d0-4f9c-4087-b797-897023ffcb33","system_id":"levelo_inurba_marseille","lat":43.30307,"lon":5.39201,"is_reserved":false,"is_disabled":false,"rental_uris":{"android":"levelo://app?vid=4fd274d0-4f9c-4087-b797-897023ffcb33","ios":"levelo://app?vid=4fd274d0-4f9c-4087-b797-897023ffcb33"},"vehicle_type_id":"4","last_reported":1713891991,"current_range_meters":25600,"station_id":"ce4bgkh2rcd13ifvqbk0","pricing_plan_id":"cebpf4jnsgd1na2vs0mg"},{"bike_id":"996f8a12-655a-4f64-bf57-e69e78acfe89","system_id":"levelo_inurba_marseille","lat":43.302992,"lon":5.392136,"is_reserved":false,"is_disabled":false,"rental_uris":{"android":"levelo://app?vid=996f8a12-655a-4f64-bf57-e69e78acfe89","ios":"levelo://app?vid=996f8a12-655a-4f64-bf57-e69e78acfe89"},"vehicle_type_id":"4","last_reported":1713891991,"current_range_meters":19200,"station_id":"ce4bgkh2rcd13ifvqbk0","pricing_plan_id":"cebpf4jnsgd1na2vs0mg"},{"bike_id":"f4aee84e-524c-44f7-bc69-85c11a586763","system_id":"levelo_inurba_marseille","lat":43.304277,"lon":5.392843,"is_reserved":false,"is_disabled":false,"rental_uris":{"android":"levelo://app?vid=f4aee84e-524c-44f7-bc69-85c11a586763","ios":"levelo://app?vid=f4aee84e-524c-44f7-bc69-85c11a586763"},"vehicle_type_id":"4","last_reported":1713891991,"current_range_meters":10800,"station_id":"ce4bgkh2rcd13ifvqbk0","pricing_plan_id":"cebpf4jnsgd1na2vs0mg"},{"bike_id":"18d31608-3891-44aa-b580-07f841807bb2","system_id":"levelo_inurba_marseille","lat":43.302992,"lon":5.392136,"is_reserved":false,"is_disabled":false,"rental_uris":{"android":"levelo://app?vid=18d31608-3891-44aa-b580-07f841807bb2","ios":"levelo://app?vid=18d31608-3891-44aa-b580-07f841807bb2"},"vehicle_type_id":"4","last_reported":1713891991,"current_range_meters":28400,"station_id":"ce4bgkh2rcd13ifvqbk0","pricing_plan_id":"cebpf4jnsgd1na2vs0mg"},{"bike_id":"57675b19-7617-428a-a0de-10096834b2db","system_id":"levelo_inurba_marseille","lat":43.309047,"lon":5.396551,"is_reserved":false,"is_disabled":false,"rental_uris":{"android":"levelo://app?vid=57675b19-7617-428a-a0de-10096834b2db","ios":"levelo://app?vid=57675b19-7617-428a-a0de-10096834b2db"},"vehicle_type_id":"4","last_reported":1713891991,"current_range_meters":0,"station_id":"ce4bh012rcd13ifvqcv0","pricing_plan_id":"cebpf4jnsgd1na2vs0mg"},{"bike_id":"f30e9d8d-29f6-4ece-bde8-dbe8e8bf7274","system_id":"levelo_inurba_marseille","lat":43.302992,"lon":5.392136,"is_reserved":false,"is_disabled":false,"rental_uris":{"android":"levelo://app?vid=f30e9d8d-29f6-4ece-bde8-dbe8e8bf7274","ios":"levelo://app?vid=f30e9d8d-29f6-4ece-bde8-dbe8e8bf7274"},"vehicle_type_id":"4","last_reported":1713891991,"current_range_meters":28400,"station_id":"ce4bgkh2rcd13ifvqbk0","pricing_plan_id":"cebpf4jnsgd1na2vs0mg"},{"bike_id":"36bdc8f7-24c0-4f48-91a5-589746c34eb8","system_id":"levelo_inurba_marseille","lat":43.303002,"lon":5.392142,"is_reserved":false,"is_disabled":false,"rental_uris":{"android":"levelo://app?vid=36bdc8f7-24c0-4f48-91a5-589746c34eb8","ios":"levelo://app?vid=36bdc8f7-24c0-4f48-91a5-589746c34eb8"},"vehicle_type_id":"4","last_reported":1713891991,"current_range_meters":17600,"station_id":"ce4bgkh2rcd13ifvqbk0","pricing_plan_id":"cebpf4jnsgd1na2vs0mg"},{"bike_id":"16b8f9d1-4d0c-4731-ad54-e7d17b7400fa","system_id":"levelo_inurba_marseille","lat":43.302992,"lon":5.392136,"is_reserved":false,"is_disabled":false,"rental_uris":{"android":"levelo://app?vid=16b8f9d1-4d0c-4731-ad54-e7d17b7400fa","ios":"levelo://app?vid=16b8f9d1-4d0c-4731-ad54-e7d17b7400fa"},"vehicle_type_id":"4","last_reported":1713891991,"current_range_meters":5200,"station_id":"ce4bgkh2rcd13ifvqbk0","pricing_plan_id":"cebpf4jnsgd1na2vs0mg"},{"bike_id":"9a1f201f-8d05-47e2-b892-19bd67372538","system_id":"levelo_inurba_marseille","lat":43.2936,"lon":5.37835,"is_reserved":false,"is_disabled":false,"rental_uris":{"android":"levelo://app?vid=9a1f201f-8d05-47e2-b892-19bd67372538","ios":"levelo://app?vid=9a1f201f-8d05-47e2-b892-19bd67372538"},"vehicle_type_id":"4","last_reported":1713891991,"current_range_meters":4000,"station_id":"ce4bgjh2rcd13ifvqbf0","pricing_plan_id":"cebpf4jnsgd1na2vs0mg"},{"bike_id":"f7531b8d-d164-4aa5-ba31-3fe534dabad8","system_id":"levelo_inurba_marseille","lat":43.302992,"lon":5.392136,"is_reserved":false,"is_disabled":false,"rental_uris":{"android":"levelo://app?vid=f7531b8d-d164-4aa5-ba31-3fe534dabad8","ios":"levelo://app?vid=f7531b8d-d164-4aa5-ba31-3fe534dabad8"},"vehicle_type_id":"4","last_reported":1713891991,"current_range_meters":26000,"station_id":"ce4bgkh2rcd13ifvqbk0","pricing_plan_id":"cebpf4jnsgd1na2vs0mg"},{"bike_id":"55358bab-35f3-4ec0-a2f8-93b83406fd58","system_id":"levelo_inurba_marseille","lat":43.302992,"lon":5.392136,"is_reserved":false,"is_disabled":false,"rental_uris":{"android":"levelo://app?vid=55358bab-35f3-4ec0-a2f8-93b83406fd58","ios":"levelo://app?vid=55358bab-35f3-4ec0-a2f8-93b83406fd58"},"vehicle_type_id":"4","last_reported":1713891991,"current_range_meters":28000,"station_id":"ce4bgkh2rcd13ifvqbk0","pricing_plan_id":"cebpf4jnsgd1na2vs0mg"},{"bike_id":"e7e2df04-4dd7-4c3d-99f9-9ddbf5abd55d","system_id":"levelo_inurba_marseille","lat":43.302992,"lon":5.392136,"is_reserved":false,"is_disabled":false,"rental_uris":{"android":"levelo://app?vid=e7e2df04-4dd7-4c3d-99f9-9ddbf5abd55d","ios":"levelo://app?vid=e7e2df04-4dd7-4c3d-99f9-9ddbf5abd55d"},"vehicle_type_id":"4","last_reported":1713891991,"current_range_meters":9200,"station_id":"ce4bgkh2rcd13ifvqbk0","pricing_plan_id":"cebpf4jnsgd1na2vs0mg"},{"bike_id":"e3961b69-6b71-49c2-8e71-cae6c530fe65","system_id":"levelo_inurba_marseille","lat":43.302992,"lon":5.392136,"is_reserved":false,"is_disabled":false,"rental_uris":{"android":"levelo://app?vid=e3961b69-6b71-49c2-8e71-cae6c530fe65","ios":"levelo://app?vid=e3961b69-6b71-49c2-8e71-cae6c530fe65"},"vehicle_type_id":"4","last_reported":1713891991,"current_range_meters":4800,"station_id":"ce4bgkh2rcd13ifvqbk0","pricing_plan_id":"cebpf4jnsgd1na2vs0mg"},{"bike_id":"5a8b6021-cb1b-490a-a43e-971dcde1c464","system_id":"levelo_inurba_marseille","lat":43.292311,"lon":5.360731,"is_reserved":false,"is_disabled":false,"rental_uris":{"android":"levelo://app?vid=5a8b6021-cb1b-490a-a43e-971dcde1c464","ios":"levelo://app?vid=5a8b6021-cb1b-490a-a43e-971dcde1c464"},"vehicle_type_id":"4","last_reported":1713891991,"current_range_meters":22000,"station_id":"ce4bhbh2rcd13ifvqeqg","pricing_plan_id":"cebpf4jnsgd1na2vs0mg"},{"bike_id":"63e8aa00-8ced-40f2-bbbe-d8c1d2721073","system_id":"levelo_inurba_marseille","lat":43.302992,"lon":5.392136,"is_reserved":false,"is_disabled":false,"rental_uris":{"android":"levelo://app?vid=63e8aa00-8ced-40f2-bbbe-d8c1d2721073","ios":"levelo://app?vid=63e8aa00-8ced-40f2-bbbe-d8c1d2721073"},"vehicle_type_id":"4","last_reported":1713891991,"current_range_meters":11600,"station_id":"ce4bgkh2rcd13ifvqbk0","pricing_plan_id":"cebpf4jnsgd1na2vs0mg"},{"bike_id":"d3f608dd-ff9c-4730-ab1b-6ea32e28817b","system_id":"levelo_inurba_marseille","lat":43.2936,"lon":5.37835,"is_reserved":false,"is_disabled":false,"rental_uris":{"android":"levelo://app?vid=d3f608dd-ff9c-4730-ab1b-6ea32e28817b","ios":"levelo://app?vid=d3f608dd-ff9c-4730-ab1b-6ea32e28817b"},"vehicle_type_id":"4","last_reported":1713891991,"current_range_meters":17200,"station_id":"ce4bgjh2rcd13ifvqbf0","pricing_plan_id":"cebpf4jnsgd1na2vs0mg"},{"bike_id":"d873c860-49d6-46ee-a159-1806de365305","system_id":"levelo_inurba_marseille","lat":43.292323,"lon":5.360717,"is_reserved":false,"is_disabled":false,"rental_uris":{"android":"levelo://app?vid=d873c860-49d6-46ee-a159-1806de365305","ios":"levelo://app?vid=d873c860-49d6-46ee-a159-1806de365305"},"vehicle_type_id":"4","last_reported":1713891991,"current_range_meters":20400,"station_id":"ce4bhbh2rcd13ifvqeqg","pricing_plan_id":"cebpf4jnsgd1na2vs0mg"},{"bike_id":"e90b7662-b3c3-44f7-91b2-af980f6949a6","system_id":"levelo_inurba_marseille","lat":43.300852,"lon":5.390859,"is_reserved":false,"is_disabled":false,"rental_uris":{"android":"levelo://app?vid=e90b7662-b3c3-44f7-91b2-af980f6949a6","ios":"levelo://app?vid=e90b7662-b3c3-44f7-91b2-af980f6949a6"},"vehicle_type_id":"4","last_reported":1713891991,"current_range_meters":14400,"station_id":"ce4bh192rcd13ifvqdb0","pricing_plan_id":"cebpf4jnsgd1na2vs0mg"},{"bike_id":"d2b100c6-441b-4a27-b338-d27e8747f8cd","system_id":"levelo_inurba_marseille","lat":43.292311,"lon":5.360731,"is_reserved":false,"is_disabled":false,"rental_uris":{"android":"levelo://app?vid=d2b100c6-441b-4a27-b338-d27e8747f8cd","ios":"levelo://app?vid=d2b100c6-441b-4a27-b338-d27e8747f8cd"},"vehicle_type_id":"4","last_reported":1713891991,"current_range_meters":400,"station_id":"ce4bhbh2rcd13ifvqeqg","pricing_plan_id":"cebpf4jnsgd1na2vs0mg"},{"bike_id":"ad7dabf7-f477-47bb-baca-4b9a97972d8b","system_id":"levelo_inurba_marseille","lat":43.292311,"lon":5.360731,"is_reserved":false,"is_disabled":false,"rental_uris":{"android":"levelo://app?vid=ad7dabf7-f477-47bb-baca-4b9a97972d8b","ios":"levelo://app?vid=ad7dabf7-f477-47bb-baca-4b9a97972d8b"},"vehicle_type_id":"4","last_reported":1713891991,"current_range_meters":21600,"station_id":"ce4bhbh2rcd13ifvqeqg","pricing_plan_id":"cebpf4jnsgd1na2vs0mg"},{"bike_id":"934889b4-f84b-4dc3-879a-0db25446b78d","system_id":"levelo_inurba_marseille","lat":43.300852,"lon":5.390859,"is_reserved":false,"is_disabled":false,"rental_uris":{"android":"levelo://app?vid=934889b4-f84b-4dc3-879a-0db25446b78d","ios":"levelo://app?vid=934889b4-f84b-4dc3-879a-0db25446b78d"},"vehicle_type_id":"4","last_reported":1713891991,"current_range_meters":19600,"station_id":"ce4bh192rcd13ifvqdb0","pricing_plan_id":"cebpf4jnsgd1na2vs0mg"},{"bike_id":"e3452ebd-1c69-4ec9-8a8d-6853cc26cc22","system_id":"levelo_inurba_marseille","lat":43.300852,"lon":5.390859,"is_reserved":false,"is_disabled":false,"rental_uris":{"android":"levelo://app?vid=e3452ebd-1c69-4ec9-8a8d-6853cc26cc22","ios":"levelo://app?vid=e3452ebd-1c69-4ec9-8a8d-6853cc26cc22"},"vehicle_type_id":"4","last_reported":1713891991,"current_range_meters":30000,"station_id":"ce4bh192rcd13ifvqdb0","pricing_plan_id":"cebpf4jnsgd1na2vs0mg"},{"bike_id":"3332da14-161c-46c4-a398-996988cecec2","system_id":"levelo_inurba_marseille","lat":43.293009,"lon":5.374584,"is_reserved":false,"is_disabled":false,"rental_uris":{"android":"levelo://app?vid=3332da14-161c-46c4-a398-996988cecec2","ios":"levelo://app?vid=3332da14-161c-46c4-a398-996988cecec2"},"vehicle_type_id":"4","last_reported":1713891991,"current_range_meters":3600,"station_id":"ce4bgi12rcd13ifvqb70","pricing_plan_id":"cebpf4jnsgd1na2vs0mg"},{"bike_id":"d5a6e7d5-1b9e-4f22-ac52-96059143cd50","system_id":"levelo_inurba_marseille","lat":43.300852,"lon":5.390859,"is_reserved":false,"is_disabled":false,"rental_uris":{"android":"levelo://app?vid=d5a6e7d5-1b9e-4f22-ac52-96059143cd50","ios":"levelo://app?vid=d5a6e7d5-1b9e-4f22-ac52-96059143cd50"},"vehicle_type_id":"4","last_reported":1713891991,"current_range_meters":19200,"station_id":"ce4bh192rcd13ifvqdb0","pricing_plan_id":"cebpf4jnsgd1na2vs0mg"},{"bike_id":"7be5ce9a-2186-41e6-be2a-b8442b860ea7","system_id":"levelo_inurba_marseille","lat":43.26681,"lon":5.382694,"is_reserved":false,"is_disabled":false,"rental_uris":{"android":"levelo://app?vid=7be5ce9a-2186-41e6-be2a-b8442b860ea7","ios":"levelo://app?vid=7be5ce9a-2186-41e6-be2a-b8442b860ea7"},"vehicle_type_id":"4","last_reported":1713891991,"current_range_meters":10400,"station_id":"ce4bhg92rcd13ifvqf90","pricing_plan_id":"cebpf4jnsgd1na2vs0mg"},{"bike_id":"5c2094b6-6a28-45e1-a4ed-585003b26214","system_id":"levelo_inurba_marseille","lat":43.29176,"lon":5.37143,"is_reserved":false,"is_disabled":false,"rental_uris":{"android":"levelo://app?vid=5c2094b6-6a28-45e1-a4ed-585003b26214","ios":"levelo://app?vid=5c2094b6-6a28-45e1-a4ed-585003b26214"},"vehicle_type_id":"4","last_reported":1713891991,"current_range_meters":0,"station_id":"ce4bha92rcd13ifvqeh0","pricing_plan_id":"cebpf4jnsgd1na2vs0mg"},{"bike_id":"ec73e063-1251-4c09-bde2-7b8f5ad12e31","system_id":"levelo_inurba_marseille","lat":43.298764,"lon":5.388973,"is_reserved":false,"is_disabled":false,"rental_uris":{"android":"levelo://app?vid=ec73e063-1251-4c09-bde2-7b8f5ad12e31","ios":"levelo://app?vid=ec73e063-1251-4c09-bde2-7b8f5ad12e31"},"vehicle_type_id":"4","last_reported":1713891991,"current_range_meters":19200,"station_id":"ce4bh392rcd13ifvqdl0","pricing_plan_id":"cebpf4jnsgd1na2vs0mg"},{"bike_id":"760d54d9-7bc4-4400-9a3d-8403be97e8eb","system_id":"levelo_inurba_marseille","lat":43.298764,"lon":5.388973,"is_reserved":false,"is_disabled":false,"rental_uris":{"android":"levelo://app?vid=760d54d9-7bc4-4400-9a3d-8403be97e8eb","ios":"levelo://app?vid=760d54d9-7bc4-4400-9a3d-8403be97e8eb"},"vehicle_type_id":"4","last_reported":1713891991,"current_range_meters":5200,"station_id":"ce4bh392rcd13ifvqdl0","pricing_plan_id":"cebpf4jnsgd1na2vs0mg"},{"bike_id":"c3e8fbb4-fa7b-4b4c-a7cc-eea3c7fa3610","system_id":"levelo_inurba_marseille","lat":43.283998,"lon":5.375062,"is_reserved":false,"is_disabled":false,"rental_uris":{"android":"levelo://app?vid=c3e8fbb4-fa7b-4b4c-a7cc-eea3c7fa3610","ios":"levelo://app?vid=c3e8fbb4-fa7b-4b4c-a7cc-eea3c7fa3610"},"vehicle_type_id":"4","last_reported":1713891991,"current_range_meters":28800,"station_id":"ce4bh412rcd13ifvqds0","pricing_plan_id":"cebpf4jnsgd1na2vs0mg"},{"bike_id":"e00c1796-e9db-4c74-bd2c-6a189847c998","system_id":"levelo_inurba_marseille","lat":43.298764,"lon":5.388973,"is_reserved":false,"is_disabled":false,"rental_uris":{"android":"levelo://app?vid=e00c1796-e9db-4c74-bd2c-6a189847c998","ios":"levelo://app?vid=e00c1796-e9db-4c74-bd2c-6a189847c998"},"vehicle_type_id":"4","last_reported":1713891991,"current_range_meters":800,"station_id":"ce4bh392rcd13ifvqdl0","pricing_plan_id":"cebpf4jnsgd1na2vs0mg"},{"bike_id":"78de36d7-6df8-4fc5-8535-1faf25075482","system_id":"levelo_inurba_marseille","lat":43.309047,"lon":5.396551,"is_reserved":false,"is_disabled":false,"rental_uris":{"android":"levelo://app?vid=78de36d7-6df8-4fc5-8535-1faf25075482","ios":"levelo://app?vid=78de36d7-6df8-4fc5-8535-1faf25075482"},"vehicle_type_id":"4","last_reported":1713891991,"current_range_meters":25600,"station_id":"ce4bh012rcd13ifvqcv0","pricing_plan_id":"cebpf4jnsgd1na2vs0mg"},{"bike_id":"fcb02411-b54f-4304-aa04-7fee8237fffa","system_id":"levelo_inurba_marseille","lat":43.292005,"lon":5.357875,"is_reserved":false,"is_disabled":false,"rental_uris":{"android":"levelo://app?vid=fcb02411-b54f-4304-aa04-7fee8237fffa","ios":"levelo://app?vid=fcb02411-b54f-4304-aa04-7fee8237fffa"},"vehicle_type_id":"4","last_reported":1713891991,"current_range_meters":6800,"station_id":"ce4bhb12rcd13ifvqel0","pricing_plan_id":"cebpf4jnsgd1na2vs0mg"},{"bike_id":"70942102-5232-4c00-ae22-b5f1912ee976","system_id":"levelo_inurba_marseille","lat":43.292005,"lon":5.357875,"is_reserved":false,"is_disabled":false,"rental_uris":{"android":"levelo://app?vid=70942102-5232-4c00-ae22-b5f1912ee976","ios":"levelo://app?vid=70942102-5232-4c00-ae22-b5f1912ee976"},"vehicle_type_id":"4","last_reported":1713891991,"current_range_meters":18400,"station_id":"ce4bhb12rcd13ifvqel0","pricing_plan_id":"cebpf4jnsgd1na2vs0mg"},{"bike_id":"33b4971c-873f-44d2-8c76-c554a35fb1e0","system_id":"levelo_inurba_marseille","lat":43.291994,"lon":5.357886,"is_reserved":false,"is_disabled":false,"rental_uris":{"android":"levelo://app?vid=33b4971c-873f-44d2-8c76-c554a35fb1e0","ios":"levelo://app?vid=33b4971c-873f-44d2-8c76-c554a35fb1e0"},"vehicle_type_id":"4","last_reported":1713891991,"current_range_meters":21600,"station_id":"ce4bhb12rcd13ifvqel0","pricing_plan_id":"cebpf4jnsgd1na2vs0mg"},{"bike_id":"e436f56a-5ff5-4eba-92cf-8fd6e5709edb","system_id":"levelo_inurba_marseille","lat":43.291994,"lon":5.357886,"is_reserved":false,"is_disabled":false,"rental_uris":{"android":"levelo://app?vid=e436f56a-5ff5-4eba-92cf-8fd6e5709edb","ios":"levelo://app?vid=e436f56a-5ff5-4eba-92cf-8fd6e5709edb"},"vehicle_type_id":"4","last_reported":1713891991,"current_range_meters":7600,"station_id":"ce4bhb12rcd13ifvqel0","pricing_plan_id":"cebpf4jnsgd1na2vs0mg"},{"bike_id":"5e3414b5-756b-4ea4-ae73-c72cea38835b","system_id":"levelo_inurba_marseille","lat":43.297815,"lon":5.393548,"is_reserved":false,"is_disabled":false,"rental_uris":{"android":"levelo://app?vid=5e3414b5-756b-4ea4-ae73-c72cea38835b","ios":"levelo://app?vid=5e3414b5-756b-4ea4-ae73-c72cea38835b"},"vehicle_type_id":"4","last_reported":1713891991,"current_range_meters":8400,"station_id":"chh1huq6cuj3fo74tm60","pricing_plan_id":"cebpf4jnsgd1na2vs0mg"},{"bike_id":"e321408b-0e43-41da-993e-0db2c5de41c4","system_id":"levelo_inurba_marseille","lat":43.308803,"lon":5.39637,"is_reserved":false,"is_disabled":false,"rental_uris":{"android":"levelo://app?vid=e321408b-0e43-41da-993e-0db2c5de41c4","ios":"levelo://app?vid=e321408b-0e43-41da-993e-0db2c5de41c4"},"vehicle_type_id":"4","last_reported":1713891991,"current_range_meters":2800,"station_id":"ce4bh012rcd13ifvqcv0","pricing_plan_id":"cebpf4jnsgd1na2vs0mg"},{"bike_id":"b8d3d99f-1a52-4caa-a75d-eb88999b9fd9","system_id":"levelo_inurba_marseille","lat":43.309038,"lon":5.396546,"is_reserved":false,"is_disabled":false,"rental_uris":{"android":"levelo://app?vid=b8d3d99f-1a52-4caa-a75d-eb88999b9fd9","ios":"levelo://app?vid=b8d3d99f-1a52-4caa-a75d-eb88999b9fd9"},"vehicle_type_id":"4","last_reported":1713891991,"current_range_meters":9200,"station_id":"ce4bh012rcd13ifvqcv0","pricing_plan_id":"cebpf4jnsgd1na2vs0mg"},{"bike_id":"988e45bb-4a60-439a-842a-a194c5547e71","system_id":"levelo_inurba_marseille","lat":43.309047,"lon":5.396551,"is_reserved":false,"is_disabled":false,"rental_uris":{"android":"levelo://app?vid=988e45bb-4a60-439a-842a-a194c5547e71","ios":"levelo://app?vid=988e45bb-4a60-439a-842a-a194c5547e71"},"vehicle_type_id":"4","last_reported":1713891991,"current_range_meters":11600,"station_id":"ce4bh012rcd13ifvqcv0","pricing_plan_id":"cebpf4jnsgd1na2vs0mg"},{"bike_id":"585944e5-b174-4f1c-a9ed-aedd20aef470","system_id":"levelo_inurba_marseille","lat":43.309047,"lon":5.396551,"is_reserved":false,"is_disabled":false,"rental_uris":{"android":"levelo://app?vid=585944e5-b174-4f1c-a9ed-aedd20aef470","ios":"levelo://app?vid=585944e5-b174-4f1c-a9ed-aedd20aef470"},"vehicle_type_id":"4","last_reported":1713891991,"current_range_meters":24000,"station_id":"ce4bh012rcd13ifvqcv0","pricing_plan_id":"cebpf4jnsgd1na2vs0mg"},{"bike_id":"596a3b1a-09e1-49a5-a078-65fef0cd7bf1","system_id":"levelo_inurba_marseille","lat":43.313291,"lon":5.396838,"is_reserved":false,"is_disabled":false,"rental_uris":{"android":"levelo://app?vid=596a3b1a-09e1-49a5-a078-65fef0cd7bf1","ios":"levelo://app?vid=596a3b1a-09e1-49a5-a078-65fef0cd7bf1"},"vehicle_type_id":"4","last_reported":1713891991,"current_range_meters":29200,"station_id":"ce4bgvp2rcd13ifvqcu0","pricing_plan_id":"cebpf4jnsgd1na2vs0mg"},{"bike_id":"09ac5ef4-0872-43a5-a251-263d8ee24ba8","system_id":"levelo_inurba_marseille","lat":43.313291,"lon":5.396838,"is_reserved":false,"is_disabled":false,"rental_uris":{"android":"levelo://app?vid=09ac5ef4-0872-43a5-a251-263d8ee24ba8","ios":"levelo://app?vid=09ac5ef4-0872-43a5-a251-263d8ee24ba8"},"vehicle_type_id":"4","last_reported":1713891991,"current_range_meters":0,"station_id":"ce4bgvp2rcd13ifvqcu0","pricing_plan_id":"cebpf4jnsgd1na2vs0mg"},{"bike_id":"4459b92f-26d1-41bb-b997-2c0f38106014","system_id":"levelo_inurba_marseille","lat":43.313291,"lon":5.396838,"is_reserved":false,"is_disabled":false,"rental_uris":{"android":"levelo://app?vid=4459b92f-26d1-41bb-b997-2c0f38106014","ios":"levelo://app?vid=4459b92f-26d1-41bb-b997-2c0f38106014"},"vehicle_type_id":"4","last_reported":1713891991,"current_range_meters":22800,"station_id":"ce4bgvp2rcd13ifvqcu0","pricing_plan_id":"cebpf4jnsgd1na2vs0mg"},{"bike_id":"0b695e1c-647f-480e-8712-dbb92db41e5b","system_id":"levelo_inurba_marseille","lat":43.313291,"lon":5.396838,"is_reserved":false,"is_disabled":false,"rental_uris":{"android":"levelo://app?vid=0b695e1c-647f-480e-8712-dbb92db41e5b","ios":"levelo://app?vid=0b695e1c-647f-480e-8712-dbb92db41e5b"},"vehicle_type_id":"4","last_reported":1713891991,"current_range_meters":8800,"station_id":"ce4bgvp2rcd13ifvqcu0","pricing_plan_id":"cebpf4jnsgd1na2vs0mg"},{"bike_id":"f5785a2e-b517-4871-9602-0cb15eddc062","system_id":"levelo_inurba_marseille","lat":43.309038,"lon":5.396546,"is_reserved":false,"is_disabled":false,"rental_uris":{"android":"levelo://app?vid=f5785a2e-b517-4871-9602-0cb15eddc062","ios":"levelo://app?vid=f5785a2e-b517-4871-9602-0cb15eddc062"},"vehicle_type_id":"4","last_reported":1713891991,"current_range_meters":18800,"station_id":"ce4bh012rcd13ifvqcv0","pricing_plan_id":"cebpf4jnsgd1na2vs0mg"},{"bike_id":"b30e7edd-4d60-409e-9a56-ed46e4c3cda1","system_id":"levelo_inurba_marseille","lat":43.309038,"lon":5.396546,"is_reserved":false,"is_disabled":false,"rental_uris":{"android":"levelo://app?vid=b30e7edd-4d60-409e-9a56-ed46e4c3cda1","ios":"levelo://app?vid=b30e7edd-4d60-409e-9a56-ed46e4c3cda1"},"vehicle_type_id":"4","last_reported":1713891991,"current_range_meters":16000,"station_id":"ce4bh012rcd13ifvqcv0","pricing_plan_id":"cebpf4jnsgd1na2vs0mg"},{"bike_id":"abcc733a-6b50-4997-899d-6817c31810da","system_id":"levelo_inurba_marseille","lat":43.309047,"lon":5.396551,"is_reserved":false,"is_disabled":false,"rental_uris":{"android":"levelo://app?vid=abcc733a-6b50-4997-899d-6817c31810da","ios":"levelo://app?vid=abcc733a-6b50-4997-899d-6817c31810da"},"vehicle_type_id":"4","last_reported":1713891991,"current_range_meters":31200,"station_id":"ce4bh012rcd13ifvqcv0","pricing_plan_id":"cebpf4jnsgd1na2vs0mg"},{"bike_id":"0877e327-e0dc-4d90-9a35-fb9bc0dab67f","system_id":"levelo_inurba_marseille","lat":43.309047,"lon":5.396551,"is_reserved":false,"is_disabled":false,"rental_uris":{"android":"levelo://app?vid=0877e327-e0dc-4d90-9a35-fb9bc0dab67f","ios":"levelo://app?vid=0877e327-e0dc-4d90-9a35-fb9bc0dab67f"},"vehicle_type_id":"4","last_reported":1713891991,"current_range_meters":15200,"station_id":"ce4bh012rcd13ifvqcv0","pricing_plan_id":"cebpf4jnsgd1na2vs0mg"},{"bike_id":"52483cf1-79e4-4bf8-9d12-66153df1640e","system_id":"levelo_inurba_marseille","lat":43.309038,"lon":5.396546,"is_reserved":false,"is_disabled":false,"rental_uris":{"android":"levelo://app?vid=52483cf1-79e4-4bf8-9d12-66153df1640e","ios":"levelo://app?vid=52483cf1-79e4-4bf8-9d12-66153df1640e"},"vehicle_type_id":"4","last_reported":1713891991,"current_range_meters":27600,"station_id":"ce4bh012rcd13ifvqcv0","pricing_plan_id":"cebpf4jnsgd1na2vs0mg"},{"bike_id":"000b1709-3316-4747-a950-00540ffbb5e8","system_id":"levelo_inurba_marseille","lat":43.309047,"lon":5.396551,"is_reserved":false,"is_disabled":false,"rental_uris":{"android":"levelo://app?vid=000b1709-3316-4747-a950-00540ffbb5e8","ios":"levelo://app?vid=000b1709-3316-4747-a950-00540ffbb5e8"},"vehicle_type_id":"4","last_reported":1713891991,"current_range_meters":11200,"station_id":"ce4bh012rcd13ifvqcv0","pricing_plan_id":"cebpf4jnsgd1na2vs0mg"},{"bike_id":"a2cf1614-2937-4a30-8f45-3ff7029920dd","system_id":"levelo_inurba_marseille","lat":43.29529,"lon":5.385581,"is_reserved":false,"is_disabled":false,"rental_uris":{"android":"levelo://app?vid=a2cf1614-2937-4a30-8f45-3ff7029920dd","ios":"levelo://app?vid=a2cf1614-2937-4a30-8f45-3ff7029920dd"},"vehicle_type_id":"4","last_reported":1713891991,"current_range_meters":23600,"station_id":"ce4bgih2rcd13ifvqba0","pricing_plan_id":"cebpf4jnsgd1na2vs0mg"},{"bike_id":"23940679-7880-4261-9ac3-834d56a8b553","system_id":"levelo_inurba_marseille","lat":43.29529,"lon":5.385581,"is_reserved":false,"is_disabled":false,"rental_uris":{"android":"levelo://app?vid=23940679-7880-4261-9ac3-834d56a8b553","ios":"levelo://app?vid=23940679-7880-4261-9ac3-834d56a8b553"},"vehicle_type_id":"4","last_reported":1713891991,"current_range_meters":13200,"station_id":"ce4bgih2rcd13ifvqba0","pricing_plan_id":"cebpf4jnsgd1na2vs0mg"},{"bike_id":"dc6a11eb-1f9f-4cc7-90cc-065cce5f25ef","system_id":"levelo_inurba_marseille","lat":43.29529,"lon":5.385581,"is_reserved":false,"is_disabled":false,"rental_uris":{"android":"levelo://app?vid=dc6a11eb-1f9f-4cc7-90cc-065cce5f25ef","ios":"levelo://app?vid=dc6a11eb-1f9f-4cc7-90cc-065cce5f25ef"},"vehicle_type_id":"4","last_reported":1713891991,"current_range_meters":23200,"station_id":"ce4bgih2rcd13ifvqba0","pricing_plan_id":"cebpf4jnsgd1na2vs0mg"},{"bike_id":"27af17c8-45a6-45ee-a620-c19be228537f","system_id":"levelo_inurba_marseille","lat":43.29529,"lon":5.385581,"is_reserved":false,"is_disabled":false,"rental_uris":{"android":"levelo://app?vid=27af17c8-45a6-45ee-a620-c19be228537f","ios":"levelo://app?vid=27af17c8-45a6-45ee-a620-c19be228537f"},"vehicle_type_id":"4","last_reported":1713891991,"current_range_meters":3200,"station_id":"ce4bgih2rcd13ifvqba0","pricing_plan_id":"cebpf4jnsgd1na2vs0mg"},{"bike_id":"7f226c65-311d-47c6-b702-65f9fa5194ea","system_id":"levelo_inurba_marseille","lat":43.29529,"lon":5.385581,"is_reserved":false,"is_disabled":false,"rental_uris":{"android":"levelo://app?vid=7f226c65-311d-47c6-b702-65f9fa5194ea","ios":"levelo://app?vid=7f226c65-311d-47c6-b702-65f9fa5194ea"},"vehicle_type_id":"4","last_reported":1713891991,"current_range_meters":22000,"station_id":"ce4bgih2rcd13ifvqba0","pricing_plan_id":"cebpf4jnsgd1na2vs0mg"},{"bike_id":"f196e8e1-acf5-46b8-b4c8-a33cf97ed503","system_id":"levelo_inurba_marseille","lat":43.29529,"lon":5.385581,"is_reserved":false,"is_disabled":false,"rental_uris":{"android":"levelo://app?vid=f196e8e1-acf5-46b8-b4c8-a33cf97ed503","ios":"levelo://app?vid=f196e8e1-acf5-46b8-b4c8-a33cf97ed503"},"vehicle_type_id":"4","last_reported":1713891991,"current_range_meters":6400,"station_id":"ce4bgih2rcd13ifvqba0","pricing_plan_id":"cebpf4jnsgd1na2vs0mg"},{"bike_id":"81c1a37b-4ede-410f-94c3-67c073c37981","system_id":"levelo_inurba_marseille","lat":43.29529,"lon":5.385581,"is_reserved":false,"is_disabled":false,"rental_uris":{"android":"levelo://app?vid=81c1a37b-4ede-410f-94c3-67c073c37981","ios":"levelo://app?vid=81c1a37b-4ede-410f-94c3-67c073c37981"},"vehicle_type_id":"4","last_reported":1713891991,"current_range_meters":400,"station_id":"ce4bgih2rcd13ifvqba0","pricing_plan_id":"cebpf4jnsgd1na2vs0mg"},{"bike_id":"019c71de-13dc-47e4-9c8a-1a8ba05d010e","system_id":"levelo_inurba_marseille","lat":43.29529,"lon":5.385581,"is_reserved":false,"is_disabled":false,"rental_uris":{"android":"levelo://app?vid=019c71de-13dc-47e4-9c8a-1a8ba05d010e","ios":"levelo://app?vid=019c71de-13dc-47e4-9c8a-1a8ba05d010e"},"vehicle_type_id":"4","last_reported":1713891991,"current_range_meters":28800,"station_id":"ce4bgih2rcd13ifvqba0","pricing_plan_id":"cebpf4jnsgd1na2vs0mg"},{"bike_id":"78651ef1-adcc-427f-9a7b-a9a957d2305e","system_id":"levelo_inurba_marseille","lat":43.29529,"lon":5.385581,"is_reserved":false,"is_disabled":false,"rental_uris":{"android":"levelo://app?vid=78651ef1-adcc-427f-9a7b-a9a957d2305e","ios":"levelo://app?vid=78651ef1-adcc-427f-9a7b-a9a957d2305e"},"vehicle_type_id":"4","last_reported":1713891991,"current_range_meters":12400,"station_id":"ce4bgih2rcd13ifvqba0","pricing_plan_id":"cebpf4jnsgd1na2vs0mg"},{"bike_id":"a94c3275-3b23-479a-8657-6036e5973d02","system_id":"levelo_inurba_marseille","lat":43.29529,"lon":5.385581,"is_reserved":false,"is_disabled":false,"rental_uris":{"android":"levelo://app?vid=a94c3275-3b23-479a-8657-6036e5973d02","ios":"levelo://app?vid=a94c3275-3b23-479a-8657-6036e5973d02"},"vehicle_type_id":"4","last_reported":1713891991,"current_range_meters":11200,"station_id":"ce4bgih2rcd13ifvqba0","pricing_plan_id":"cebpf4jnsgd1na2vs0mg"},{"bike_id":"02230193-af71-4a20-8901-5f9a16103a51","system_id":"levelo_inurba_marseille","lat":43.29529,"lon":5.385581,"is_reserved":false,"is_disabled":false,"rental_uris":{"android":"levelo://app?vid=02230193-af71-4a20-8901-5f9a16103a51","ios":"levelo://app?vid=02230193-af71-4a20-8901-5f9a16103a51"},"vehicle_type_id":"4","last_reported":1713891991,"current_range_meters":25600,"station_id":"ce4bgih2rcd13ifvqba0","pricing_plan_id":"cebpf4jnsgd1na2vs0mg"},{"bike_id":"ddc0faac-de68-4bb4-b567-e4c319c4f59a","system_id":"levelo_inurba_marseille","lat":43.29529,"lon":5.385581,"is_reserved":false,"is_disabled":false,"rental_uris":{"android":"levelo://app?vid=ddc0faac-de68-4bb4-b567-e4c319c4f59a","ios":"levelo://app?vid=ddc0faac-de68-4bb4-b567-e4c319c4f59a"},"vehicle_type_id":"4","last_reported":1713891991,"current_range_meters":8400,"station_id":"ce4bgih2rcd13ifvqba0","pricing_plan_id":"cebpf4jnsgd1na2vs0mg"},{"bike_id":"db6d1c26-1d88-4adc-ab9d-f7c31428f2c5","system_id":"levelo_inurba_marseille","lat":43.309047,"lon":5.396551,"is_reserved":false,"is_disabled":false,"rental_uris":{"android":"levelo://app?vid=db6d1c26-1d88-4adc-ab9d-f7c31428f2c5","ios":"levelo://app?vid=db6d1c26-1d88-4adc-ab9d-f7c31428f2c5"},"vehicle_type_id":"4","last_reported":1713891991,"current_range_meters":25200,"station_id":"ce4bh012rcd13ifvqcv0","pricing_plan_id":"cebpf4jnsgd1na2vs0mg"},{"bike_id":"82eff1fd-00e7-49dd-97bd-9bca33a7e35c","system_id":"levelo_inurba_marseille","lat":43.285856,"lon":5.350771,"is_reserved":false,"is_disabled":false,"rental_uris":{"android":"levelo://app?vid=82eff1fd-00e7-49dd-97bd-9bca33a7e35c","ios":"levelo://app?vid=82eff1fd-00e7-49dd-97bd-9bca33a7e35c"},"vehicle_type_id":"4","last_reported":1713891991,"current_range_meters":0,"station_id":"ce4bhch2rcd13ifvqeug","pricing_plan_id":"cebpf4jnsgd1na2vs0mg"},{"bike_id":"fe30b24e-a32c-4e3f-b44d-f571c5c49116","system_id":"levelo_inurba_marseille","lat":43.290779,"lon":5.371482,"is_reserved":false,"is_disabled":false,"rental_uris":{"android":"levelo://app?vid=fe30b24e-a32c-4e3f-b44d-f571c5c49116","ios":"levelo://app?vid=fe30b24e-a32c-4e3f-b44d-f571c5c49116"},"vehicle_type_id":"4","last_reported":1713891991,"current_range_meters":10400,"station_id":"ce4bh5p2rcd13ifvqe4g","pricing_plan_id":"cebpf4jnsgd1na2vs0mg"},{"bike_id":"0ee29aa0-c7f8-42b8-bbe2-729e64964f5b","system_id":"levelo_inurba_marseille","lat":43.294869,"lon":5.386138,"is_reserved":false,"is_disabled":false,"rental_uris":{"android":"levelo://app?vid=0ee29aa0-c7f8-42b8-bbe2-729e64964f5b","ios":"levelo://app?vid=0ee29aa0-c7f8-42b8-bbe2-729e64964f5b"},"vehicle_type_id":"4","last_reported":1713891991,"current_range_meters":16000,"station_id":"ce4bh2h2rcd13ifvqdh0","pricing_plan_id":"cebpf4jnsgd1na2vs0mg"},{"bike_id":"46669910-9d3e-4cb6-acb0-431263e6ef1d","system_id":"levelo_inurba_marseille","lat":43.302008,"lon":5.394694,"is_reserved":false,"is_disabled":false,"rental_uris":{"android":"levelo://app?vid=46669910-9d3e-4cb6-acb0-431263e6ef1d","ios":"levelo://app?vid=46669910-9d3e-4cb6-acb0-431263e6ef1d"},"vehicle_type_id":"4","last_reported":1713891991,"current_range_meters":8000,"station_id":"ce4bh0p2rcd13ifvqd70","pricing_plan_id":"cebpf4jnsgd1na2vs0mg"},{"bike_id":"eb5cb527-5367-4ab6-8e9d-f8de1760c59b","system_id":"levelo_inurba_marseille","lat":43.302008,"lon":5.394694,"is_reserved":false,"is_disabled":false,"rental_uris":{"android":"levelo://app?vid=eb5cb527-5367-4ab6-8e9d-f8de1760c59b","ios":"levelo://app?vid=eb5cb527-5367-4ab6-8e9d-f8de1760c59b"},"vehicle_type_id":"4","last_reported":1713891991,"current_range_meters":4400,"station_id":"ce4bh0p2rcd13ifvqd70","pricing_plan_id":"cebpf4jnsgd1na2vs0mg"},{"bike_id":"755cb5d4-5d7d-4f5c-9c42-2dfd63082f9d","system_id":"levelo_inurba_marseille","lat":43.302008,"lon":5.394694,"is_reserved":false,"is_disabled":false,"rental_uris":{"android":"levelo://app?vid=755cb5d4-5d7d-4f5c-9c42-2dfd63082f9d","ios":"levelo://app?vid=755cb5d4-5d7d-4f5c-9c42-2dfd63082f9d"},"vehicle_type_id":"4","last_reported":1713891991,"current_range_meters":22000,"station_id":"ce4bh0p2rcd13ifvqd70","pricing_plan_id":"cebpf4jnsgd1na2vs0mg"},{"bike_id":"ca5645ae-830f-454c-a99b-73a14c52ff30","system_id":"levelo_inurba_marseille","lat":43.302008,"lon":5.394694,"is_reserved":false,"is_disabled":false,"rental_uris":{"android":"levelo://app?vid=ca5645ae-830f-454c-a99b-73a14c52ff30","ios":"levelo://app?vid=ca5645ae-830f-454c-a99b-73a14c52ff30"},"vehicle_type_id":"4","last_reported":1713891991,"current_range_meters":4400,"station_id":"ce4bh0p2rcd13ifvqd70","pricing_plan_id":"cebpf4jnsgd1na2vs0mg"},{"bike_id":"6f6445c6-b834-4ff5-b53e-31da99bf2d98","system_id":"levelo_inurba_marseille","lat":43.290631,"lon":5.359244,"is_reserved":false,"is_disabled":false,"rental_uris":{"android":"levelo://app?vid=6f6445c6-b834-4ff5-b53e-31da99bf2d98","ios":"levelo://app?vid=6f6445c6-b834-4ff5-b53e-31da99bf2d98"},"vehicle_type_id":"4","last_reported":1713891991,"current_range_meters":20000,"station_id":"ce4bha92rcd13ifvqeg0","pricing_plan_id":"cebpf4jnsgd1na2vs0mg"},{"bike_id":"cd9c12a9-f379-49aa-93b5-e56a79db46b6","system_id":"levelo_inurba_marseille","lat":43.302008,"lon":5.394694,"is_reserved":false,"is_disabled":false,"rental_uris":{"android":"levelo://app?vid=cd9c12a9-f379-49aa-93b5-e56a79db46b6","ios":"levelo://app?vid=cd9c12a9-f379-49aa-93b5-e56a79db46b6"},"vehicle_type_id":"4","last_reported":1713891991,"current_range_meters":3600,"station_id":"ce4bh0p2rcd13ifvqd70","pricing_plan_id":"cebpf4jnsgd1na2vs0mg"},{"bike_id":"f75b12e1-d78e-4c18-878d-6a7efe70362c","system_id":"levelo_inurba_marseille","lat":43.302008,"lon":5.394694,"is_reserved":false,"is_disabled":false,"rental_uris":{"android":"levelo://app?vid=f75b12e1-d78e-4c18-878d-6a7efe70362c","ios":"levelo://app?vid=f75b12e1-d78e-4c18-878d-6a7efe70362c"},"vehicle_type_id":"4","last_reported":1713891991,"current_range_meters":14000,"station_id":"ce4bh0p2rcd13ifvqd70","pricing_plan_id":"cebpf4jnsgd1na2vs0mg"},{"bike_id":"932f124c-4e98-466a-8962-fff5555f8841","system_id":"levelo_inurba_marseille","lat":43.290631,"lon":5.359244,"is_reserved":false,"is_disabled":false,"rental_uris":{"android":"levelo://app?vid=932f124c-4e98-466a-8962-fff5555f8841","ios":"levelo://app?vid=932f124c-4e98-466a-8962-fff5555f8841"},"vehicle_type_id":"4","last_reported":1713891991,"current_range_meters":31200,"station_id":"ce4bha92rcd13ifvqeg0","pricing_plan_id":"cebpf4jnsgd1na2vs0mg"},{"bike_id":"359036d9-ade8-46e6-9cc7-b7df92f43f9c","system_id":"levelo_inurba_marseille","lat":43.290631,"lon":5.359244,"is_reserved":false,"is_disabled":false,"rental_uris":{"android":"levelo://app?vid=359036d9-ade8-46e6-9cc7-b7df92f43f9c","ios":"levelo://app?vid=359036d9-ade8-46e6-9cc7-b7df92f43f9c"},"vehicle_type_id":"4","last_reported":1713891991,"current_range_meters":22000,"station_id":"ce4bha92rcd13ifvqeg0","pricing_plan_id":"cebpf4jnsgd1na2vs0mg"},{"bike_id":"6af862d0-5feb-47a4-b090-ead1479a771f","system_id":"levelo_inurba_marseille","lat":43.290631,"lon":5.359244,"is_reserved":false,"is_disabled":false,"rental_uris":{"android":"levelo://app?vid=6af862d0-5feb-47a4-b090-ead1479a771f","ios":"levelo://app?vid=6af862d0-5feb-47a4-b090-ead1479a771f"},"vehicle_type_id":"4","last_reported":1713891991,"current_range_meters":400,"station_id":"ce4bha92rcd13ifvqeg0","pricing_plan_id":"cebpf4jnsgd1na2vs0mg"},{"bike_id":"c47454df-cb59-4af3-bbdf-1973bd50d15c","system_id":"levelo_inurba_marseille","lat":43.29423,"lon":5.38588,"is_reserved":false,"is_disabled":false,"rental_uris":{"android":"levelo://app?vid=c47454df-cb59-4af3-bbdf-1973bd50d15c","ios":"levelo://app?vid=c47454df-cb59-4af3-bbdf-1973bd50d15c"},"vehicle_type_id":"4","last_reported":1713891991,"current_range_meters":4400,"station_id":"ce4bh2h2rcd13ifvqdh0","pricing_plan_id":"cebpf4jnsgd1na2vs0mg"},{"bike_id":"b8ad5140-a5e7-4e44-ab92-b60518a34257","system_id":"levelo_inurba_marseille","lat":43.294153,"lon":5.386305,"is_reserved":false,"is_disabled":false,"rental_uris":{"android":"levelo://app?vid=b8ad5140-a5e7-4e44-ab92-b60518a34257","ios":"levelo://app?vid=b8ad5140-a5e7-4e44-ab92-b60518a34257"},"vehicle_type_id":"4","last_reported":1713891991,"current_range_meters":9200,"station_id":"ce4bh2h2rcd13ifvqdh0","pricing_plan_id":"cebpf4jnsgd1na2vs0mg"},{"bike_id":"ba0a90df-997c-4280-b4f4-b264f1746343","system_id":"levelo_inurba_marseille","lat":43.29422,"lon":5.3861,"is_reserved":false,"is_disabled":false,"rental_uris":{"android":"levelo://app?vid=ba0a90df-997c-4280-b4f4-b264f1746343","ios":"levelo://app?vid=ba0a90df-997c-4280-b4f4-b264f1746343"},"vehicle_type_id":"4","last_reported":1713891991,"current_range_meters":19200,"station_id":"ce4bh2h2rcd13ifvqdh0","pricing_plan_id":"cebpf4jnsgd1na2vs0mg"},{"bike_id":"4e58720a-6f4c-4217-b6e0-2038526a0980","system_id":"levelo_inurba_marseille","lat":43.294153,"lon":5.386305,"is_reserved":false,"is_disabled":false,"rental_uris":{"android":"levelo://app?vid=4e58720a-6f4c-4217-b6e0-2038526a0980","ios":"levelo://app?vid=4e58720a-6f4c-4217-b6e0-2038526a0980"},"vehicle_type_id":"4","last_reported":1713891991,"current_range_meters":20400,"station_id":"ce4bh2h2rcd13ifvqdh0","pricing_plan_id":"cebpf4jnsgd1na2vs0mg"},{"bike_id":"632fd4c0-30ab-450d-b895-3190ed420156","system_id":"levelo_inurba_marseille","lat":43.29424,"lon":5.38618,"is_reserved":false,"is_disabled":false,"rental_uris":{"android":"levelo://app?vid=632fd4c0-30ab-450d-b895-3190ed420156","ios":"levelo://app?vid=632fd4c0-30ab-450d-b895-3190ed420156"},"vehicle_type_id":"4","last_reported":1713891991,"current_range_meters":27200,"station_id":"ce4bh2h2rcd13ifvqdh0","pricing_plan_id":"cebpf4jnsgd1na2vs0mg"},{"bike_id":"cbf36594-c75e-4d58-ae62-fc9218da963e","system_id":"levelo_inurba_marseille","lat":43.294153,"lon":5.386305,"is_reserved":false,"is_disabled":false,"rental_uris":{"android":"levelo://app?vid=cbf36594-c75e-4d58-ae62-fc9218da963e","ios":"levelo://app?vid=cbf36594-c75e-4d58-ae62-fc9218da963e"},"vehicle_type_id":"4","last_reported":1713891991,"current_range_meters":21200,"station_id":"ce4bh2h2rcd13ifvqdh0","pricing_plan_id":"cebpf4jnsgd1na2vs0mg"},