{"last_updated":1730099373,"ttl":60,"version":"2.2","data":{"bikes":[{"bike_id":"7214614c-a7af-4e58-a985-bf4dbe26d6e3","system_id":"levelo_inurba_marseille","lat":43.30601,"lon":5.37228,"is_reserved":false,"is_disabled":false,"rental_uris":{"android":"levelo://app?vid=7214614c-a7af-4e58-a985-bf4dbe26d6e3","ios":"levelo://app?vid=7214614c-a7af-4e58-a985-bf4dbe26d6e3"},"vehicle_type_id":"4","last_reported":1730099373,"current_range_meters":36800,"station_id":"ce4bgqh2rcd13ifvqc4g","pricing_plan_id":"cebpf4jnsgd1na2vs0mg"},{"bike_id":"9cd762a1-f70c-4043-83fe-bc56af730fae","system_id":"levelo_inurba_marseille","lat":43.29217,"lon":5.36068,"is_reserved":false,"is_disabled":false,"rental_uris":{"android":"levelo://app?vid=9cd762a1-f70c-4043-83fe-bc56af730fae","ios":"levelo://app?vid=9cd762a1-f70c-4043-83fe-bc56af730fae"},"vehicle_type_id":"4","last_reported":1730099373,"current_range_meters":24400,"station_id":"ce4bhbh2rcd13ifvqeqg","pricing_plan_id":"cebpf4jnsgd1na2vs0mg"},{"bike_id":"24c756de-8ede-4a4d-9a89-987f5f773832","system_id":"levelo_inurba_marseille","lat":43.30475,"lon":5.379088,"is_reserved":false,"is_disabled":false,"rental_uris":{"android":"levelo://app?vid=24c756de-8ede-4a4d-9a89-987f5f773832","ios":"levelo://app?vid=24c756de-8ede-4a4d-9a89-987f5f773832"},"vehicle_type_id":"4","last_reported":1730099373,"current_range_meters":38000,"station_id":"ce4bgup2rcd13ifvqcn0","pricing_plan_id":"cebpf4jnsgd1na2vs0mg"},{"bike_id":"1e7c1adc-6e5f-45d9-a75d-a51f2ad067c8","system_id":"levelo_inurba_marseille","lat":43.29893,"lon":5.43654,"is_reserved":false,"is_disabled":false,"rental_uris":{"android":"levelo://app?vid=1e7c1adc-6e5f-45d9-a75d-a51f2ad067c8","ios":"levelo://app?vid=1e7c1adc-6e5f-45d9-a75d-a51f2ad067c8"},"vehicle_type_id":"4","last_reported":1730099373,"current_range_meters":3200,"station_id":"ce4bhpp2rcd13ifvqhfg","pricing_plan_id":"cebpf4jnsgd1na2vs0mg"},{"bike_id":"6cd46184-ccd4-41a7-92e5-9f321ea4dee8","system_id":"levelo_inurba_marseille","lat":43.24081,"lon":5.37745,"is_reserved":false,"is_disabled":false,"rental_uris":{"android":"levelo://app?vid=6cd46184-ccd4-41a7-92e5-9f321ea4dee8","ios":"levelo://app?vid=6cd46184-ccd4-41a7-92e5-9f321ea4dee8"},"vehicle_type_id":"4","last_reported":1730099373,"current_range_meters":38000,"station_id":"ce4bhnp2rcd13ifvqgvg","pricing_plan_id":"cebpf4jnsgd1na2vs0mg"},{"bike_id":"b6e289e4-f54c-41d4-9b66-a1a2db060b7b","system_id":"levelo_inurba_marseille","lat":43.28455,"lon":5.35892,"is_reserved":false,"is_disabled":false,"rental_uris":{"android":"levelo://app?vid=b6e289e4-f54c-41d4-9b66-a1a2db060b7b","ios":"levelo://app?vid=b6e289e4-f54c-41d4-9b66-a1a2db060b7b"},"vehicle_type_id":"4","last_reported":1730099373,"current_range_meters":39200,"station_id":"ce4bhah2rcd13ifvqei0","pricing_plan_id":"cebpf4jnsgd1na2vs0mg"},{"bike_id":"90b09f7c-4665-4372-8e70-8220f506b4de","system_id":"levelo_inurba_marseille","lat":43.25724,"lon":5.41102,"is_reserved":false,"is_disabled":false,"rental_uris":{"android":"levelo://app?vid=90b09f7c-4665-4372-8e70-8220f506b4de","ios":"levelo://app?vid=90b09f7c-4665-4372-8e70-8220f506b4de"},"vehicle_type_id":"4","last_reported":1730099373,"current_range_meters":8800,"station_id":"ce4bhkp2rcd13ifvqgd0","pricing_plan_id":"cebpf4jnsgd1na2vs0mg"},{"bike_id":"83dc329b-1766-4a0e-99ca-b0b205cf41c3","system_id":"levelo_inurba_marseille","lat":43.28099,"lon":5.37839,"is_reserved":false,"is_disabled":false,"rental_uris":{"android":"levelo://app?vid=83dc329b-1766-4a0e-99ca-b0b205cf41c3","ios":"levelo://app?vid=83dc329b-1766-4a0e-99ca-b0b205cf41c3"},"vehicle_type_id":"4","last_reported":1730099373,"current_range_meters":26800,"station_id":"ce4bha12rcd13ifvqee0","pricing_plan_id":"cebpf4jnsgd1na2vs0mg"},{"bike_id":"d000e26b-bf12-46fd-85ce-68d8dba55702","system_id":"levelo_inurba_marseille","lat":43.29037,"lon":5.39955,"is_reserved":false,"is_disabled":false,"rental_uris":{"android":"levelo://app?vid=d000e26b-bf12-46fd-85ce-68d8dba55702","ios":"levelo://app?vid=d000e26b-bf12-46fd-85ce-68d8dba55702"},"vehicle_type_id":"4","last_reported":1730099373,"current_range_meters":24000,"station_id":"ce4bh392rcd13ifvqdm0","pricing_plan_id":"cebpf4jnsgd1na2vs0mg"},{"bike_id":"2bdbb128-358a-4735-9145-ec8420ecb195","system_id":"levelo_inurba_marseille","lat":43.30458,"lon":5.37914,"is_reserved":false,"is_disabled":false,"rental_uris":{"android":"levelo://app?vid=2bdbb128-358a-4735-9145-ec8420ecb195","ios":"levelo://app?vid=2bdbb128-358a-4735-9145-ec8420ecb195"},"vehicle_type_id":"4","last_reported":1730099373,"current_range_meters":14000,"station_id":"ce4bgup2rcd13ifvqcn0","pricing_plan_id":"cebpf4jnsgd1na2vs0mg"},{"bike_id":"0417c2c0-a8fa-4e85-94c8-8f98d5bb5512","system_id":"levelo_inurba_marseille","lat":43.24806,"lon":5.37452,"is_reserved":false,"is_disabled":false,"rental_uris":{"android":"levelo://app?vid=0417c2c0-a8fa-4e85-94c8-8f98d5bb5512","ios":"levelo://app?vid=0417c2c0-a8fa-4e85-94c8-8f98d5bb5512"},"vehicle_type_id":"4","last_reported":1730099373,"current_range_meters":36800,"station_id":"ce4bhgh2rcd13ifvqfb0","pricing_plan_id":"cebpf4jnsgd1na2vs0mg"},{"bike_id":"ecbd94d9-b3e4-4531-9fbb-d7c8d73ebbc9","system_id":"levelo_inurba_marseille","lat":43.30459,"lon":5.37906,"is_reserved":false,"is_disabled":false,"rental_uris":{"android":"levelo://app?vid=ecbd94d9-b3e4-4531-9fbb-d7c8d73ebbc9","ios":"levelo://app?vid=ecbd94d9-b3e4-4531-9fbb-d7c8d73ebbc9"},"vehicle_type_id":"4","last_reported":1730099373,"current_range_meters":24400,"station_id":"ce4bgup2rcd13ifvqcn0","pricing_plan_id":"cebpf4jnsgd1na2vs0mg"},{"bike_id":"c992afc2-2fbf-4367-99c3-aaab10742675","system_id":"levelo_inurba_marseille","lat":43.290668,"lon":5.371538,"is_reserved":false,"is_disabled":false,"rental_uris":{"android":"levelo://app?vid=c992afc2-2fbf-4367-99c3-aaab10742675","ios":"levelo://app?vid=c992afc2-2fbf-4367-99c3-aaab10742675"},"vehicle_type_id":"4","last_reported":1730099373,"current_range_meters":24800,"station_id":"ce4bh5p2rcd13ifvqe4g","pricing_plan_id":"cebpf4jnsgd1na2vs0mg"},{"bike_id":"e1395604-316e-4ef3-9482-76e16d240733","system_id":"levelo_inurba_marseille","lat":43.30877,"lon":5.39633,"is_reserved":false,"is_disabled":false,"rental_uris":{"android":"levelo://app?vid=e1395604-316e-4ef3-9482-76e16d240733","ios":"levelo://app?vid=e1395604-316e-4ef3-9482-76e16d240733"},"vehicle_type_id":"4","last_reported":1730099373,"current_range_meters":38000,"station_id":"ce4bh012rcd13ifvqcv0","pricing_plan_id":"cebpf4jnsgd1na2vs0mg"},{"bike_id":"e2971513-5509-43da-a4bb-a3d89812546c","system_id":"levelo_inurba_marseille","lat":43.25002,"lon":5.3891,"is_reserved":false,"is_disabled":false,"rental_uris":{"android":"levelo://app?vid=e2971513-5509-43da-a4bb-a3d89812546c","ios":"levelo://app?vid=e2971513-5509-43da-a4bb-a3d89812546c"},"vehicle_type_id":"4","last_reported":1730099373,"current_range_meters":6800,"station_id":"ce4bhgp2rcd13ifvqfd0","pricing_plan_id":"cebpf4jnsgd1na2vs0mg"},{"bike_id":"836f7436-a4c1-44c4-bfd8-a2c6c8f2c411","system_id":"levelo_inurba_marseille","lat":43.32936,"lon":5.41112,"is_reserved":false,"is_disabled":false,"rental_uris":{"android":"levelo://app?vid=836f7436-a4c1-44c4-bfd8-a2c6c8f2c411","ios":"levelo://app?vid=836f7436-a4c1-44c4-bfd8-a2c6c8f2c411"},"vehicle_type_id":"4","last_reported":1730099373,"current_range_meters":30400,"station_id":"","pricing_plan_id":"cebpf4jnsgd1na2vs0mg"},{"bike_id":"165632c2-bf24-4ddf-9b0c-1ac1684518ef","system_id":"levelo_inurba_marseille","lat":43.31342,"lon":5.36716,"is_reserved":false,"is_disabled":false,"rental_uris":{"android":"levelo://app?vid=165632c2-bf24-4ddf-9b0c-1ac1684518ef","ios":"levelo://app?vid=165632c2-bf24-4ddf-9b0c-1ac1684518ef"},"vehicle_type_id":"4","last_reported":1730099373,"current_range_meters":24000,"station_id":"ce4bgr92rcd13ifvqc6g","pricing_plan_id":"cebpf4jnsgd1na2vs0mg"},{"bike_id":"90e0a2b5-b022-429a-8a2d-73d110adf034","system_id":"levelo_inurba_marseille","lat":43.2799,"lon":5.40015,"is_reserved":false,"is_disabled":false,"rental_uris":{"android":"levelo://app?vid=90e0a2b5-b022-429a-8a2d-73d110adf034","ios":"levelo://app?vid=90e0a2b5-b022-429a-8a2d-73d110adf034"},"vehicle_type_id":"4","last_reported":1730099373,"current_range_meters":38800,"station_id":"ce4bho92rcd13ifvqh4g","pricing_plan_id":"cebpf4jnsgd1na2vs0mg"},{"bike_id":"c151cf74-fa7e-4aca-97a5-f6e88f5aac2e","system_id":"levelo_inurba_marseille","lat":43.29257,"lon":5.36601,"is_reserved":false,"is_disabled":false,"rental_uris":{"android":"levelo://app?vid=c151cf74-fa7e-4aca-97a5-f6e88f5aac2e","ios":"levelo://app?vid=c151cf74-fa7e-4aca-97a5-f6e88f5aac2e"},"vehicle_type_id":"4","last_reported":1730099373,"current_range_meters":37600,"station_id":"","pricing_plan_id":"cebpf4jnsgd1na2vs0mg"},{"bike_id":"b464796f-2dfb-4afd-99bf-7d5bb89381d7","system_id":"levelo_inurba_marseille","lat":43.309333,"lon":5.390445,"is_reserved":false,"is_disabled":false,"rental_uris":{"android":"levelo://app?vid=b464796f-2dfb-4afd-99bf-7d5bb89381d7","ios":"levelo://app?vid=b464796f-2dfb-4afd-99bf-7d5bb89381d7"},"vehicle_type_id":"4","last_reported":1730099373,"current_range_meters":29600,"station_id":"ce4bgup2rcd13ifvqco0","pricing_plan_id":"cebpf4jnsgd1na2vs0mg"},{"bike_id":"ec399b4d-5813-47d4-8d3b-babd7ad31ee7","system_id":"levelo_inurba_marseille","lat":43.29577,"lon":5.37511,"is_reserved":false,"is_disabled":false,"rental_uris":{"android":"levelo://app?vid=ec399b4d-5813-47d4-8d3b-babd7ad31ee7","ios":"levelo://app?vid=ec399b4d-5813-47d4-8d3b-babd7ad31ee7"},"vehicle_type_id":"4","last_reported":1730099373,"current_range_meters":36000,"station_id":"ce4bgh92rcd13ifvqb50","pricing_plan_id":"cebpf4jnsgd1na2vs0mg"},{"bike_id":"8c62532a-f601-41ff-8656-ed501730a731","system_id":"levelo_inurba_marseille","lat":43.28038,"lon":5.40573,"is_reserved":false,"is_disabled":false,"rental_uris":{"android":"levelo://app?vid=8c62532a-f601-41ff-8656-ed501730a731","ios":"levelo://app?vid=8c62532a-f601-41ff-8656-ed501730a731"},"vehicle_type_id":"4","last_reported":1730099373,"current_range_meters":39200,"station_id":"","pricing_plan_id":"cebpf4jnsgd1na2vs0mg"},{"bike_id":"6bd29c4c-3eb0-4b09-918d-887520495315","system_id":"levelo_inurba_marseille","lat":43.31718,"lon":5.42407,"is_reserved":false,"is_disabled":false,"rental_uris":{"android":"levelo://app?vid=6bd29c4c-3eb0-4b09-918d-887520495315","ios":"levelo://app?vid=6bd29c4c-3eb0-4b09-918d-887520495315"},"vehicle_type_id":"4","last_reported":1730099373,"current_range_meters":22400,"station_id":"ce4bhp92rcd13ifvqhbg","pricing_plan_id":"cebpf4jnsgd1na2vs0mg"},{"bike_id":"f23bd07e-c21f-480f-bcf1-78ad062ae4ca","system_id":"levelo_inurba_marseille","lat":43.27951,"lon":5.41041,"is_reserved":false,"is_disabled":false,"rental_uris":{"android":"levelo://app?vid=f23bd07e-c21f-480f-bcf1-78ad062ae4ca","ios":"levelo://app?vid=f23bd07e-c21f-480f-bcf1-78ad062ae4ca"},"vehicle_type_id":"4","last_reported":1730099373,"current_range_meters":38800,"station_id":"ce4bhnp2rcd13ifvqh0g","pricing_plan_id":"cebpf4jnsgd1na2vs0mg"},{"bike_id":"c0710a3f-9259-48fc-8baf-5f373be38096","system_id":"levelo_inurba_marseille","lat":43.306076,"lon":5.372294,"is_reserved":false,"is_disabled":false,"rental_uris":{"android":"levelo://app?vid=c0710a3f-9259-48fc-8baf-5f373be38096","ios":"levelo://app?vid=c0710a3f-9259-48fc-8baf-5f373be38096"},"vehicle_type_id":"4","last_reported":1730099373,"current_range_meters":34800,"station_id":"ce4bgqh2rcd13ifvqc4g","pricing_plan_id":"cebpf4jnsgd1na2vs0mg"},{"bike_id":"a1299989-63d3-46c5-93a4-46dc521f99fa","system_id":"levelo_inurba_marseille","lat":43.300659,"lon":5.386378,"is_reserved":false,"is_disabled":false,"rental_uris":{"android":"levelo://app?vid=a1299989-63d3-46c5-93a4-46dc521f99fa","ios":"levelo://app?vid=a1299989-63d3-46c5-93a4-46dc521f99fa"},"vehicle_type_id":"4","last_reported":1730099373,"current_range_meters":36400,"station_id":"ce4bghh2rcd13ifvqb60","pricing_plan_id":"cebpf4jnsgd1na2vs0mg"},{"bike_id":"eb74aa32-c49d-4202-bac3-91a96c4d4783","system_id":"levelo_inurba_marseille","lat":43.30803,"lon":5.36991,"is_reserved":false,"is_disabled":false,"rental_uris":{"android":"levelo://app?vid=eb74aa32-c49d-4202-bac3-91a96c4d4783","ios":"levelo://app?vid=eb74aa32-c49d-4202-bac3-91a96c4d4783"},"vehicle_type_id":"4","last_reported":1730099373,"current_range_meters":17200,"station_id":"ce4bguh2rcd13ifvqckg","pricing_plan_id":"cebpf4jnsgd1na2vs0mg"},{"bike_id":"82ba1ebd-1864-4708-8dec-10bc8bc410b5","system_id":"levelo_inurba_marseille","lat":43.311756,"lon":5.387152,"is_reserved":false,"is_disabled":false,"rental_uris":{"android":"levelo://app?vid=82ba1ebd-1864-4708-8dec-10bc8bc410b5","ios":"levelo://app?vid=82ba1ebd-1864-4708-8dec-10bc8bc410b5"},"vehicle_type_id":"4","last_reported":1730099373,"current_range_meters":19600,"station_id":"ce4bh4p2rcd13ifvqe0g","pricing_plan_id":"cebpf4jnsgd1na2vs0mg"},{"bike_id":"84e374c4-fc62-498f-bc8b-cb0b8a3e0a0c","system_id":"levelo_inurba_marseille","lat":43.25726,"lon":5.41103,"is_reserved":false,"is_disabled":false,"rental_uris":{"android":"levelo://app?vid=84e374c4-fc62-498f-bc8b-cb0b8a3e0a0c","ios":"levelo://app?vid=84e374c4-fc62-498f-bc8b-cb0b8a3e0a0c"},"vehicle_type_id":"4","last_reported":1730099373,"current_range_meters":38800,"station_id":"ce4bhkp2rcd13ifvqgd0","pricing_plan_id":"cebpf4jnsgd1na2vs0mg"},{"bike_id":"0ad713f1-9091-41a0-aeb4-ff06192f73cc","system_id":"levelo_inurba_marseille","lat":43.30147,"lon":5.38093,"is_reserved":false,"is_disabled":false,"rental_uris":{"android":"levelo://app?vid=0ad713f1-9091-41a0-aeb4-ff06192f73cc","ios":"levelo://app?vid=0ad713f1-9091-41a0-aeb4-ff06192f73cc"},"vehicle_type_id":"4","last_reported":1730099373,"current_range_meters":36400,"station_id":"ce4bgjp2rcd13ifvqbh0","pricing_plan_id":"cebpf4jnsgd1na2vs0mg"},{"bike_id":"75f2e981-d20e-4abd-9642-0a30d889fe55","system_id":"levelo_inurba_marseille","lat":43.28098,"lon":5.37843,"is_reserved":false,"is_disabled":false,"rental_uris":{"android":"levelo://app?vid=75f2e981-d20e-4abd-9642-0a30d889fe55","ios":"levelo://app?vid=75f2e981-d20e-4abd-9642-0a30d889fe55"},"vehicle_type_id":"4","last_reported":1730099373,"current_range_meters":16400,"station_id":"ce4bha12rcd13ifvqee0","pricing_plan_id":"cebpf4jnsgd1na2vs0mg"},{"bike_id":"48e40d75-ca0c-48e5-ae31-b42eeb6f4184","system_id":"levelo_inurba_marseille","lat":43.31067,"lon":5.38359,"is_reserved":false,"is_disabled":false,"rental_uris":{"android":"levelo://app?vid=48e40d75-ca0c-48e5-ae31-b42eeb6f4184","ios":"levelo://app?vid=48e40d75-ca0c-48e5-ae31-b42eeb6f4184"},"vehicle_type_id":"4","last_reported":1730099373,"current_range_meters":11200,"station_id":"ce4bgv92rcd13ifvqcr0","pricing_plan_id":"cebpf4jnsgd1na2vs0mg"},{"bike_id":"4fcf7a14-f159-4469-9b31-a769cef9e754","system_id":"levelo_inurba_marseille","lat":43.30471,"lon":5.37914,"is_reserved":false,"is_disabled":false,"rental_uris":{"android":"levelo://app?vid=4fcf7a14-f159-4469-9b31-a769cef9e754","ios":"levelo://app?vid=4fcf7a14-f159-4469-9b31-a769cef9e754"},"vehicle_type_id":"4","last_reported":1730099373,"current_range_meters":33600,"station_id":"ce4bgup2rcd13ifvqcn0","pricing_plan_id":"cebpf4jnsgd1na2vs0mg"},{"bike_id":"090c043d-c75d-4799-97ee-f225f61fa3ea","system_id":"levelo_inurba_marseille","lat":43.28152,"lon":5.42646,"is_reserved":false,"is_disabled":false,"rental_uris":{"android":"levelo://app?vid=090c043d-c75d-4799-97ee-f225f61fa3ea","ios":"levelo://app?vid=090c043d-c75d-4799-97ee-f225f61fa3ea"},"vehicle_type_id":"4","last_reported":1730099373,"current_range_meters":16400,"station_id":"ce4bhnh2rcd13ifvqgug","pricing_plan_id":"cebpf4jnsgd1na2vs0mg"},{"bike_id":"04be2868-2aab-4e6c-8872-303c9381e9e2","system_id":"levelo_inurba_marseille","lat":43.300697,"lon":5.400823,"is_reserved":false,"is_disabled":false,"rental_uris":{"android":"levelo://app?vid=04be2868-2aab-4e6c-8872-303c9381e9e2","ios":"levelo://app?vid=04be2868-2aab-4e6c-8872-303c9381e9e2"},"vehicle_type_id":"4","last_reported":1730099373,"current_range_meters":9600,"station_id":"ce4bh112rcd13ifvqd90","pricing_plan_id":"cebpf4jnsgd1na2vs0mg"},{"bike_id":"c70c3f6b-a8d0-434d-b9f6-e5c66a62c638","system_id":"levelo_inurba_marseille","lat":43.31751,"lon":5.39022,"is_reserved":false,"is_disabled":false,"rental_uris":{"android":"levelo://app?vid=c70c3f6b-a8d0-434d-b9f6-e5c66a62c638","ios":"levelo://app?vid=c70c3f6b-a8d0-434d-b9f6-e5c66a62c638"},"vehicle_type_id":"4","last_reported":1730099373,"current_range_meters":38800,"station_id":"ce4bhqp2rcd13ifvqhng","pricing_plan_id":"cebpf4jnsgd1na2vs0mg"},{"bike_id":"9f113e3c-8920-4ab8-9198-269cff71881f","system_id":"levelo_inurba_marseille","lat":43.30141,"lon":5.38087,"is_reserved":false,"is_disabled":false,"rental_uris":{"android":"levelo://app?vid=9f113e3c-8920-4ab8-9198-269cff71881f","ios":"levelo://app?vid=9f113e3c-8920-4ab8-9198-269cff71881f"},"vehicle_type_id":"4","last_reported":1730099373,"current_range_meters":36400,"station_id":"ce4bgjp2rcd13ifvqbh0","pricing_plan_id":"cebpf4jnsgd1na2vs0mg"},{"bike_id":"7b87e6db-3f7a-48c8-83b0-5ba95a586374","system_id":"levelo_inurba_marseille","lat":43.28456,"lon":5.35885,"is_reserved":false,"is_disabled":false,"rental_uris":{"android":"levelo://app?vid=7b87e6db-3f7a-48c8-83b0-5ba95a586374","ios":"levelo://app?vid=7b87e6db-3f7a-48c8-83b0-5ba95a586374"},"vehicle_type_id":"4","last_reported":1730099373,"current_range_meters":38800,"station_id":"ce4bhah2rcd13ifvqei0","pricing_plan_id":"cebpf4jnsgd1na2vs0mg"},{"bike_id":"2ab6a876-b383-42be-8174-3b09d00c2764","system_id":"levelo_inurba_marseille","lat":43.22925,"lon":5.35375,"is_reserved":false,"is_disabled":false,"rental_uris":{"android":"levelo://app?vid=2ab6a876-b383-42be-8174-3b09d00c2764","ios":"levelo://app?vid=2ab6a876-b383-42be-8174-3b09d00c2764"},"vehicle_type_id":"4","last_reported":1730099373,"current_range_meters":37600,"station_id":"cpo3532slgdg3j2ikp40","pricing_plan_id":"cebpf4jnsgd1na2vs0mg"},{"bike_id":"e1e56546-be93-4e63-96fa-0cb66e566798","system_id":"levelo_inurba_marseille","lat":43.27317,"lon":5.39077,"is_reserved":false,"is_disabled":false,"rental_uris":{"android":"levelo://app?vid=e1e56546-be93-4e63-96fa-0cb66e566798","ios":"levelo://app?vid=e1e56546-be93-4e63-96fa-0cb66e566798"},"vehicle_type_id":"4","last_reported":1730099373,"current_range_meters":38800,"station_id":"ce4bhgp2rcd13ifvqfe0","pricing_plan_id":"cebpf4jnsgd1na2vs0mg"},{"bike_id":"e9d2627b-0323-4f6a-bb61-f8fed2e2d6e2","system_id":"levelo_inurba_marseille","lat":43.24181,"lon":5.39719,"is_reserved":false,"is_disabled":false,"rental_uris":{"android":"levelo://app?vid=e9d2627b-0323-4f6a-bb61-f8fed2e2d6e2","ios":"levelo://app?vid=e9d2627b-0323-4f6a-bb61-f8fed2e2d6e2"},"vehicle_type_id":"4","last_reported":1730099373,"current_range_meters":9600,"station_id":"ce4bhn12rcd13ifvqgpg","pricing_plan_id":"cebpf4jnsgd1na2vs0mg"},{"bike_id":"711ea989-9bbd-4a86-a947-8e287449186f","system_id":"levelo_inurba_marseille","lat":43.22922,"lon":5.35377,"is_reserved":false,"is_disabled":false,"rental_uris":{"android":"levelo://app?vid=711ea989-9bbd-4a86-a947-8e287449186f","ios":"levelo://app?vid=711ea989-9bbd-4a86-a947-8e287449186f"},"vehicle_type_id":"4","last_reported":1730099373,"current_range_meters":37600,"station_id":"cpo3532slgdg3j2ikp40","pricing_plan_id":"cebpf4jnsgd1na2vs0mg"},{"bike_id":"2e8b17ce-dde4-4cdc-913d-93de395cf91d","system_id":"levelo_inurba_marseille","lat":43.25729,"lon":5.41102,"is_reserved":false,"is_disabled":false,"rental_uris":{"android":"levelo://app?vid=2e8b17ce-dde4-4cdc-913d-93de395cf91d","ios":"levelo://app?vid=2e8b17ce-dde4-4cdc-913d-93de395cf91d"},"vehicle_type_id":"4","last_reported":1730099373,"current_range_meters":7200,"station_id":"ce4bhkp2rcd13ifvqgd0","pricing_plan_id":"cebpf4jnsgd1na2vs0mg"},{"bike_id":"27f39214-437b-402f-ba70-e8fd46f4e41b","system_id":"levelo_inurba_marseille","lat":43.284857,"lon":5.36927,"is_reserved":false,"is_disabled":false,"rental_uris":{"android":"levelo://app?vid=27f39214-437b-402f-ba70-e8fd46f4e41b","ios":"levelo://app?vid=27f39214-437b-402f-ba70-e8fd46f4e41b"},"vehicle_type_id":"4","last_reported":1730099373,"current_range_meters":15200,"station_id":"","pricing_plan_id":"cebpf4jnsgd1na2vs0mg"},{"bike_id":"bd4e1a28-5e3f-420f-8236-1634e6a8a61d","system_id":"levelo_inurba_marseille","lat":43.25577,"lon":5.3824,"is_reserved":false,"is_disabled":false,"rental_uris":{"android":"levelo://app?vid=bd4e1a28-5e3f-420f-8236-1634e6a8a61d","ios":"levelo://app?vid=bd4e1a28-5e3f-420f-8236-1634e6a8a61d"},"vehicle_type_id":"4","last_reported":1730099373,"current_range_meters":39200,"station_id":"ce4bhih2rcd13ifvqfs0","pricing_plan_id":"cebpf4jnsgd1na2vs0mg"},{"bike_id":"d1dacee6-8f47-4ca5-823b-a2ea6c3413e8","system_id":"levelo_inurba_marseille","lat":43.23197,"lon":5.35556,"is_reserved":false,"is_disabled":false,"rental_uris":{"android":"levelo://app?vid=d1dacee6-8f47-4ca5-823b-a2ea6c3413e8","ios":"levelo://app?vid=d1dacee6-8f47-4ca5-823b-a2ea6c3413e8"},"vehicle_type_id":"4","last_reported":1730099373,"current_range_meters":36800,"station_id":"ce4bhu92rcd13ifvqi70","pricing_plan_id":"cebpf4jnsgd1na2vs0mg"},{"bike_id":"03d55284-2761-4f0a-99ad-de6474a188e4","system_id":"levelo_inurba_marseille","lat":43.304823,"lon":5.379063,"is_reserved":false,"is_disabled":false,"rental_uris":{"android":"levelo://app?vid=03d55284-2761-4f0a-99ad-de6474a188e4","ios":"levelo://app?vid=03d55284-2761-4f0a-99ad-de6474a188e4"},"vehicle_type_id":"4","last_reported":1730099373,"current_range_meters":28400,"station_id":"ce4bgup2rcd13ifvqcn0","pricing_plan_id":"cebpf4jnsgd1na2vs0mg"},{"bike_id":"c15bb78c-79db-454d-9049-5376c32a3e58","system_id":"levelo_inurba_marseille","lat":43.25088,"lon":5.3952,"is_reserved":false,"is_disabled":false,"rental_uris":{"android":"levelo://app?vid=c15bb78c-79db-454d-9049-5376c32a3e58","ios":"levelo://app?vid=c15bb78c-79db-454d-9049-5376c32a3e58"},"vehicle_type_id":"4","last_reported":1730099373,"current_range_meters":20400,"station_id":"ce4bhm12rcd13ifvqgkg","pricing_plan_id":"cebpf4jnsgd1na2vs0mg"},{"bike_id":"f86ffbbb-c6b3-4c95-8c77-72cb73d6b6a3","system_id":"levelo_inurba_marseille","lat":43.26031,"lon":5.37541,"is_reserved":false,"is_disabled":false,"rental_uris":{"android":"levelo://app?vid=f86ffbbb-c6b3-4c95-8c77-72cb73d6b6a3","ios":"levelo://app?vid=f86ffbbb-c6b3-4c95-8c77-72cb73d6b6a3"},"vehicle_type_id":"4","last_reported":1730099373,"current_range_meters":38800,"station_id":"ce4bhgh2rcd13ifvqfa0","pricing_plan_id":"cebpf4jnsgd1na2vs0mg"},{"bike_id":"062c37a5-8c98-4262-a368-0baffa13b81a","system_id":"levelo_inurba_marseille","lat":43.2955,"lon":5.42287,"is_reserved":false,"is_disabled":false,"rental_uris":{"android":"levelo://app?vid=062c37a5-8c98-4262-a368-0baffa13b81a","ios":"levelo://app?vid=062c37a5-8c98-4262-a368-0baffa13b81a"},"vehicle_type_id":"4","last_reported":1730099373,"current_range_meters":18800,"station_id":"ce4bhph2rcd13ifvqhdg","pricing_plan_id":"cebpf4jnsgd1na2vs0mg"},{"bike_id":"c617479c-40f2-49ac-ae62-20a0a7b2a8a7","system_id":"levelo_inurba_marseille","lat":43.30598,"lon":5.37208,"is_reserved":false,"is_disabled":false,"rental_uris":{"android":"levelo://app?vid=c617479c-40f2-49ac-ae62-20a0a7b2a8a7","ios":"levelo://app?vid=c617479c-40f2-49ac-ae62-20a0a7b2a8a7"},"vehicle_type_id":"4","last_reported":1730099373,"current_range_meters":38000,"station_id":"ce4bgqh2rcd13ifvqc4g","pricing_plan_id":"cebpf4jnsgd1na2vs0mg"},{"bike_id":"edbc0e87-faf3-4a8c-ba97-80b74e7fb7da","system_id":"levelo_inurba_marseille","lat":43.32337,"lon":5.40621,"is_reserved":false,"is_disabled":false,"rental_uris":{"android":"levelo://app?vid=edbc0e87-faf3-4a8c-ba97-80b74e7fb7da","ios":"levelo://app?vid=edbc0e87-faf3-4a8c-ba97-80b74e7fb7da"},"vehicle_type_id":"4","last_reported":1730099373,"current_range_meters":21600,"station_id":"ce4bhq92rcd13ifvqhjg","pricing_plan_id":"cebpf4jnsgd1na2vs0mg"},{"bike_id":"2a4b3e5a-17d0-4019-b3ee-401daa0d2ca0","system_id":"levelo_inurba_marseille","lat":43.30461,"lon":5.37903,"is_reserved":false,"is_disabled":false,"rental_uris":{"android":"levelo://app?vid=2a4b3e5a-17d0-4019-b3ee-401daa0d2ca0","ios":"levelo://app?vid=2a4b3e5a-17d0-4019-b3ee-401daa0d2ca0"},"vehicle_type_id":"4","last_reported":1730099373,"current_range_meters":34800,"station_id":"ce4bgup2rcd13ifvqcn0","pricing_plan_id":"cebpf4jnsgd1na2vs0mg"},{"bike_id":"fb0fb3bd-9991-459b-b6be-e6c91b7de3e3","system_id":"levelo_inurba_marseille","lat":43.28093,"lon":5.37854,"is_reserved":false,"is_disabled":false,"rental_uris":{"android":"levelo://app?vid=fb0fb3bd-9991-459b-b6be-e6c91b7de3e3","ios":"levelo://app?vid=fb0fb3bd-9991-459b-b6be-e6c91b7de3e3"},"vehicle_type_id":"4","last_reported":1730099373,"current_range_meters":24000,"station_id":"ce4bha12rcd13ifvqee0","pricing_plan_id":"cebpf4jnsgd1na2vs0mg"},{"bike_id":"49d48a20-ca55-4e3a-abd2-6bef373d1253","system_id":"levelo_inurba_marseille","lat":43.23058,"lon":5.35488,"is_reserved":false,"is_disabled":false,"rental_uris":{"android":"levelo://app?vid=49d48a20-ca55-4e3a-abd2-6bef373d1253","ios":"levelo://app?vid=49d48a20-ca55-4e3a-abd2-6bef373d1253"},"vehicle_type_id":"4","last_reported":1730099373,"current_range_meters":36800,"station_id":"cpo3342slgdg3j2ifvpg","pricing_plan_id":"cebpf4jnsgd1na2vs0mg"},{"bike_id":"9b79b680-30f8-4395-9792-113c894b5741","system_id":"levelo_inurba_marseille","lat":43.27172,"lon":5.4099,"is_reserved":false,"is_disabled":false,"rental_uris":{"android":"levelo://app?vid=9b79b680-30f8-4395-9792-113c894b5741","ios":"levelo://app?vid=9b79b680-30f8-4395-9792-113c894b5741"},"vehicle_type_id":"4","last_reported":1730099373,"current_range_meters":38400,"station_id":"ce4bhl12rcd13ifvqgf0","pricing_plan_id":"cebpf4jnsgd1na2vs0mg"},{"bike_id":"6875a1a6-32b9-4783-93f5-84a3a0c85f67","system_id":"levelo_inurba_marseille","lat":43.23066,"lon":5.35491,"is_reserved":false,"is_disabled":false,"rental_uris":{"android":"levelo://app?vid=6875a1a6-32b9-4783-93f5-84a3a0c85f67","ios":"levelo://app?vid=6875a1a6-32b9-4783-93f5-84a3a0c85f67"},"vehicle_type_id":"4","last_reported":1730099373,"current_range_meters":20400,"station_id":"cpo3342slgdg3j2ifvpg","pricing_plan_id":"cebpf4jnsgd1na2vs0mg"},{"bike_id":"7daba550-57fa-427b-a443-0c724a890480","system_id":"levelo_inurba_marseille","lat":43.2998,"lon":5.37173,"is_reserved":false,"is_disabled":false,"rental_uris":{"android":"levelo://app?vid=7daba550-57fa-427b-a443-0c724a890480","ios":"levelo://app?vid=7daba550-57fa-427b-a443-0c724a890480"},"vehicle_type_id":"4","last_reported":1730099373,"current_range_meters":39200,"station_id":"ce4bgr92rcd13ifvqc7g","pricing_plan_id":"cebpf4jnsgd1na2vs0mg"},{"bike_id":"e89036ab-06cb-459b-91f1-830ff3435de6","system_id":"levelo_inurba_marseille","lat":43.23188,"lon":5.35543,"is_reserved":false,"is_disabled":false,"rental_uris":{"android":"levelo://app?vid=e89036ab-06cb-459b-91f1-830ff3435de6","ios":"levelo://app?vid=e89036ab-06cb-459b-91f1-830ff3435de6"},"vehicle_type_id":"4","last_reported":1730099373,"current_range_meters":37600,"station_id":"ce4bhu92rcd13ifvqi70","pricing_plan_id":"cebpf4jnsgd1na2vs0mg"},{"bike_id":"29e4d27e-c275-400d-963d-7448af940e61","system_id":"levelo_inurba_marseille","lat":43.32338,"lon":5.40622,"is_reserved":false,"is_disabled":false,"rental_uris":{"android":"levelo://app?vid=29e4d27e-c275-400d-963d-7448af940e61","ios":"levelo://app?vid=29e4d27e-c275-400d-963d-7448af940e61"},"vehicle_type_id":"4","last_reported":1730099373,"current_range_meters":13600,"station_id":"ce4bhq92rcd13ifvqhjg","pricing_plan_id":"cebpf4jnsgd1na2vs0mg"},{"bike_id":"66fb00a7-295c-492a-b5c9-538d3dea086f","system_id":"levelo_inurba_marseille","lat":43.23184,"lon":5.4372,"is_reserved":false,"is_disabled":false,"rental_uris":{"android":"levelo://app?vid=66fb00a7-295c-492a-b5c9-538d3dea086f","ios":"levelo://app?vid=66fb00a7-295c-492a-b5c9-538d3dea086f"},"vehicle_type_id":"4","last_reported":1730099373,"current_range_meters":22400,"station_id":"","pricing_plan_id":"cebpf4jnsgd1na2vs0mg"},{"bike_id":"f52c7091-86b1-4bca-9605-476f54a36694","system_id":"levelo_inurba_marseille","lat":43.29014,"lon":5.3814,"is_reserved":false,"is_disabled":false,"rental_uris":{"android":"levelo://app?vid=f52c7091-86b1-4bca-9605-476f54a36694","ios":"levelo://app?vid=f52c7091-86b1-4bca-9605-476f54a36694"},"vehicle_type_id":"4","last_reported":1730099373,"current_range_meters":38800,"station_id":"ce4bh4p2rcd13ifvqe1g","pricing_plan_id":"cebpf4jnsgd1na2vs0mg"},{"bike_id":"b1d55027-2f8a-47e1-9245-9ac2ee1613ea","system_id":"levelo_inurba_marseille","lat":43.309723,"lon":5.373458,"is_reserved":false,"is_disabled":false,"rental_uris":{"android":"levelo://app?vid=b1d55027-2f8a-47e1-9245-9ac2ee1613ea","ios":"levelo://app?vid=b1d55027-2f8a-47e1-9245-9ac2ee1613ea"},"vehicle_type_id":"4","last_reported":1730099373,"current_range_meters":16400,"station_id":"ce4bguh2rcd13ifvqckg","pricing_plan_id":"cebpf4jnsgd1na2vs0mg"},{"bike_id":"7fe76d9c-88a1-4c85-8e5f-9f86d7557849","system_id":"levelo_inurba_marseille","lat":43.2315,"lon":5.4371,"is_reserved":false,"is_disabled":false,"rental_uris":{"android":"levelo://app?vid=7fe76d9c-88a1-4c85-8e5f-9f86d7557849","ios":"levelo://app?vid=7fe76d9c-88a1-4c85-8e5f-9f86d7557849"},"vehicle_type_id":"4","last_reported":1730099373,"current_range_meters":22800,"station_id":"ce4bhmp2rcd13ifvqgog","pricing_plan_id":"cebpf4jnsgd1na2vs0mg"},{"bike_id":"5d013205-968f-46f0-8cb2-f55d13ad5ff4","system_id":"levelo_inurba_marseille","lat":43.32483,"lon":5.36566,"is_reserved":false,"is_disabled":false,"rental_uris":{"android":"levelo://app?vid=5d013205-968f-46f0-8cb2-f55d13ad5ff4","ios":"levelo://app?vid=5d013205-968f-46f0-8cb2-f55d13ad5ff4"},"vehicle_type_id":"4","last_reported":1730099373,"current_range_meters":37600,"station_id":"ce4bhs12rcd13ifvqhvg","pricing_plan_id":"cebpf4jnsgd1na2vs0mg"},{"bike_id":"66f24966-24c0-4e84-acff-14a3153957ef","system_id":"levelo_inurba_marseille","lat":43.29272,"lon":5.36852,"is_reserved":false,"is_disabled":false,"rental_uris":{"android":"levelo://app?vid=66f24966-24c0-4e84-acff-14a3153957ef","ios":"levelo://app?vid=66f24966-24c0-4e84-acff-14a3153957ef"},"vehicle_type_id":"4","last_reported":1730099373,"current_range_meters":28400,"station_id":"ce4bhbp2rcd13ifvqesg","pricing_plan_id":"cebpf4jnsgd1na2vs0mg"},{"bike_id":"c9f299e7-44b3-4adc-a93d-769d4eadb8bd","system_id":"levelo_inurba_marseille","lat":43.23143,"lon":5.4372,"is_reserved":false,"is_disabled":false,"rental_uris":{"android":"levelo://app?vid=c9f299e7-44b3-4adc-a93d-769d4eadb8bd","ios":"levelo://app?vid=c9f299e7-44b3-4adc-a93d-769d4eadb8bd"},"vehicle_type_id":"4","last_reported":1730099373,"current_range_meters":33200,"station_id":"ce4bhmp2rcd13ifvqgog","pricing_plan_id":"cebpf4jnsgd1na2vs0mg"},{"bike_id":"ccbbcc3a-57dc-4100-9e85-b0b48ef3c3ea","system_id":"levelo_inurba_marseille","lat":43.30152,"lon":5.38081,"is_reserved":false,"is_disabled":false,"rental_uris":{"android":"levelo://app?vid=ccbbcc3a-57dc-4100-9e85-b0b48ef3c3ea","ios":"levelo://app?vid=ccbbcc3a-57dc-4100-9e85-b0b48ef3c3ea"},"vehicle_type_id":"4","last_reported":1730099373,"current_range_meters":27200,"station_id":"ce4bgjp2rcd13ifvqbh0","pricing_plan_id":"cebpf4jnsgd1na2vs0mg"},{"bike_id":"8b1435f2-e9dd-44c1-a5f6-f4cfccf31c9f","system_id":"levelo_inurba_marseille","lat":43.33099,"lon":5.38212,"is_reserved":false,"is_disabled":false,"rental_uris":{"android":"levelo://app?vid=8b1435f2-e9dd-44c1-a5f6-f4cfccf31c9f","ios":"levelo://app?vid=8b1435f2-e9dd-44c1-a5f6-f4cfccf31c9f"},"vehicle_type_id":"4","last_reported":1730099373,"current_range_meters":30400,"station_id":"","pricing_plan_id":"cebpf4jnsgd1na2vs0mg"},{"bike_id":"eba855d6-bb86-4b54-87b1-b102aa1a672a","system_id":"levelo_inurba_marseille","lat":43.31753,"lon":5.39019,"is_reserved":false,"is_disabled":false,"rental_uris":{"android":"levelo://app?vid=eba855d6-bb86-4b54-87b1-b102aa1a672a","ios":"levelo://app?vid=eba855d6-bb86-4b54-87b1-b102aa1a672a"},"vehicle_type_id":"4","last_reported":1730099373,"current_range_meters":38000,"station_id":"ce4bhqp2rcd13ifvqhng","pricing_plan_id":"cebpf4jnsgd1na2vs0mg"},{"bike_id":"3d822701-cfd6-42b9-b711-72bd3e903ecb","system_id":"levelo_inurba_marseille","lat":43.25107,"lon":5.40323,"is_reserved":false,"is_disabled":false,"rental_uris":{"android":"levelo://app?vid=3d822701-cfd6-42b9-b711-72bd3e903ecb","ios":"levelo://app?vid=3d822701-cfd6-42b9-b711-72bd3e903ecb"},"vehicle_type_id":"4","last_reported":1730099373,"current_range_meters":11600,"station_id":"ce4bhlh2rcd13ifvqgig","pricing_plan_id":"cebpf4jnsgd1na2vs0mg"},{"bike_id":"f2510b72-7e55-4d25-ac93-c226c89cf60e","system_id":"levelo_inurba_marseille","lat":43.30309,"lon":5.369,"is_reserved":false,"is_disabled":false,"rental_uris":{"android":"levelo://app?vid=f2510b72-7e55-4d25-ac93-c226c89cf60e","ios":"levelo://app?vid=f2510b72-7e55-4d25-ac93-c226c89cf60e"},"vehicle_type_id":"4","last_reported":1730099373,"current_range_meters":36800,"station_id":"ce4bgqh2rcd13ifvqc5g","pricing_plan_id":"cebpf4jnsgd1na2vs0mg"},{"bike_id":"f64b9058-544c-4d6f-8e70-ba93a62f900a","system_id":"levelo_inurba_marseille","lat":43.30148,"lon":5.38096,"is_reserved":false,"is_disabled":false,"rental_uris":{"android":"levelo://app?vid=f64b9058-544c-4d6f-8e70-ba93a62f900a","ios":"levelo://app?vid=f64b9058-544c-4d6f-8e70-ba93a62f900a"},"vehicle_type_id":"4","last_reported":1730099373,"current_range_meters":32400,"station_id":"ce4bgjp2rcd13ifvqbh0","pricing_plan_id":"cebpf4jnsgd1na2vs0mg"},{"bike_id":"ef915c69-a746-473b-bdc6-ca2cdbe5bac9","system_id":"levelo_inurba_marseille","lat":43.322855,"lon":5.382798,"is_reserved":false,"is_disabled":false,"rental_uris":{"android":"levelo://app?vid=ef915c69-a746-473b-bdc6-ca2cdbe5bac9","ios":"levelo://app?vid=ef915c69-a746-473b-bdc6-ca2cdbe5bac9"},"vehicle_type_id":"4","last_reported":1730099373,"current_range_meters":39200,"station_id":"ce4bhr12rcd13ifvqhqg","pricing_plan_id":"cebpf4jnsgd1na2vs0mg"},{"bike_id":"3d5a1e4f-9eaf-4518-a7d4-cd942bb61755","system_id":"levelo_inurba_marseille","lat":43.28703,"lon":5.39977,"is_reserved":false,"is_disabled":false,"rental_uris":{"android":"levelo://app?vid=3d5a1e4f-9eaf-4518-a7d4-cd942bb61755","ios":"levelo://app?vid=3d5a1e4f-9eaf-4518-a7d4-cd942bb61755"},"vehicle_type_id":"4","last_reported":1730099373,"current_range_meters":28800,"station_id":"ce4bho92rcd13ifvqh3g","pricing_plan_id":"cebpf4jnsgd1na2vs0mg"},{"bike_id":"cd8988cf-34e0-4cd8-92c1-67d3cd8c964e","system_id":"levelo_inurba_marseille","lat":43.23955,"lon":5.36628,"is_reserved":false,"is_disabled":false,"rental_uris":{"android":"levelo://app?vid=cd8988cf-34e0-4cd8-92c1-67d3cd8c964e","ios":"levelo://app?vid=cd8988cf-34e0-4cd8-92c1-67d3cd8c964e"},"vehicle_type_id":"4","last_reported":1730099373,"current_range_meters":11600,"station_id":"ce4bhi12rcd13ifvqfp0","pricing_plan_id":"cebpf4jnsgd1na2vs0mg"},{"bike_id":"2c43417b-f62a-48c6-8cfb-77a118369c3c","system_id":"levelo_inurba_marseille","lat":43.31712,"lon":5.437,"is_reserved":false,"is_disabled":false,"rental_uris":{"android":"levelo://app?vid=2c43417b-f62a-48c6-8cfb-77a118369c3c","ios":"levelo://app?vid=2c43417b-f62a-48c6-8cfb-77a118369c3c"},"vehicle_type_id":"4","last_reported":1730099373,"current_range_meters":36800,"station_id":"ce4bhp92rcd13ifvqhcg","pricing_plan_id":"cebpf4jnsgd1na2vs0mg"},{"bike_id":"24c053cc-373c-4d62-8b09-84a4d2361cd9","system_id":"levelo_inurba_marseille","lat":43.31355,"lon":5.36702,"is_reserved":false,"is_disabled":false,"rental_uris":{"android":"levelo://app?vid=24c053cc-373c-4d62-8b09-84a4d2361cd9","ios":"levelo://app?vid=24c053cc-373c-4d62-8b09-84a4d2361cd9"},"vehicle_type_id":"4","last_reported":1730099373,"current_range_meters":39200,"station_id":"ce4bgr92rcd13ifvqc6g","pricing_plan_id":"cebpf4jnsgd1na2vs0mg"},{"bike_id":"1d3ab87f-da1d-49a0-af8c-bb697182e2ee","system_id":"levelo_inurba_marseille","lat":43.29231,"lon":5.36077,"is_reserved":false,"is_disabled":false,"rental_uris":{"android":"levelo://app?vid=1d3ab87f-da1d-49a0-af8c-bb697182e2ee","ios":"levelo://app?vid=1d3ab87f-da1d-49a0-af8c-bb697182e2ee"},"vehicle_type_id":"4","last_reported":1730099373,"current_range_meters":34000,"station_id":"ce4bhbh2rcd13ifvqeqg","pricing_plan_id":"cebpf4jnsgd1na2vs0mg"},{"bike_id":"4461f702-9d41-45c6-b89e-9f584ce5f30d","system_id":"levelo_inurba_marseille","lat":43.28925,"lon":5.36394,"is_reserved":false,"is_disabled":false,"rental_uris":{"android":"levelo://app?vid=4461f702-9d41-45c6-b89e-9f584ce5f30d","ios":"levelo://app?vid=4461f702-9d41-45c6-b89e-9f584ce5f30d"},"vehicle_type_id":"4","last_reported":1730099373,"current_range_meters":27600,"station_id":"ce4bhc92rcd13ifvqetg","pricing_plan_id":"cebpf4jnsgd1na2vs0mg"},{"bike_id":"ed359f0a-e127-4b75-a938-306e58651b29","system_id":"levelo_inurba_marseille","lat":43.30282,"lon":5.37694,"is_reserved":false,"is_disabled":false,"rental_uris":{"android":"levelo://app?vid=ed359f0a-e127-4b75-a938-306e58651b29","ios":"levelo://app?vid=ed359f0a-e127-4b75-a938-306e58651b29"},"vehicle_type_id":"4","last_reported":1730099373,"current_range_meters":25200,"station_id":"ce4bguh2rcd13ifvqcj0","pricing_plan_id":"cebpf4jnsgd1na2vs0mg"},{"bike_id":"cb1dfec9-10d1-4857-876c-42659ada593e","system_id":"levelo_inurba_marseille","lat":43.30152,"lon":5.38083,"is_reserved":false,"is_disabled":false,"rental_uris":{"android":"levelo://app?vid=cb1dfec9-10d1-4857-876c-42659ada593e","ios":"levelo://app?vid=cb1dfec9-10d1-4857-876c-42659ada593e"},"vehicle_type_id":"4","last_reported":1730099373,"current_range_meters":28400,"station_id":"ce4bgjp2rcd13ifvqbh0","pricing_plan_id":"cebpf4jnsgd1na2vs0mg"},{"bike_id":"5a70dc92-4a6f-4af7-ba8f-6b784bf94a61","system_id":"levelo_inurba_marseille","lat":43.27056,"lon":5.39963,"is_reserved":false,"is_disabled":false,"rental_uris":{"android":"levelo://app?vid=5a70dc92-4a6f-4af7-ba8f-6b784bf94a61","ios":"levelo://app?vid=5a70dc92-4a6f-4af7-ba8f-6b784bf94a61"},"vehicle_type_id":"4","last_reported":1730099373,"current_range_meters":36400,"station_id":"","pricing_plan_id":"cebpf4jnsgd1na2vs0mg"},{"bike_id":"bea43885-0856-455e-ac3f-50e3c52f4d9e","system_id":"levelo_inurba_marseille","lat":43.251,"lon":5.40315,"is_reserved":false,"is_disabled":false,"rental_uris":{"android":"levelo://app?vid=bea43885-0856-455e-ac3f-50e3c52f4d9e","ios":"levelo://app?vid=bea43885-0856-455e-ac3f-50e3c52f4d9e"},"vehicle_type_id":"4","last_reported":1730099373,"current_range_meters":38000,"station_id":"ce4bhlh2rcd13ifvqgig","pricing_plan_id":"cebpf4jnsgd1na2vs0mg"},{"bike_id":"9ac06857-e5cf-459f-87b4-75d0710bcab5","system_id":"levelo_inurba_marseille","lat":43.32336,"lon":5.40618,"is_reserved":false,"is_disabled":false,"rental_uris":{"android":"levelo://app?vid=9ac06857-e5cf-459f-87b4-75d0710bcab5","ios":"levelo://app?vid=9ac06857-e5cf-459f-87b4-75d0710bcab5"},"vehicle_type_id":"4","last_reported":1730099373,"current_range_meters":12800,"station_id":"ce4bhq92rcd13ifvqhjg","pricing_plan_id":"cebpf4jnsgd1na2vs0mg"},{"bike_id":"22ca0989-6470-4735-a8b1-883f9bf848b8","system_id":"levelo_inurba_marseille","lat":43.24543,"lon":5.3952,"is_reserved":false,"is_disabled":false,"rental_uris":{"android":"levelo://app?vid=22ca0989-6470-4735-a8b1-883f9bf848b8","ios":"levelo://app?vid=22ca0989-6470-4735-a8b1-883f9bf848b8"},"vehicle_type_id":"4","last_reported":1730099373,"current_range_meters":38800,"station_id":"ce4bhlp2rcd13ifvqgjg","pricing_plan_id":"cebpf4jnsgd1na2vs0mg"},{"bike_id":"aacb3cb6-ebb2-4c9a-9d59-1efc9a1b694e","system_id":"levelo_inurba_marseille","lat":43.25103,"lon":5.40323,"is_reserved":false,"is_disabled":false,"rental_uris":{"android":"levelo://app?vid=aacb3cb6-ebb2-4c9a-9d59-1efc9a1b694e","ios":"levelo://app?vid=aacb3cb6-ebb2-4c9a-9d59-1efc9a1b694e"},"vehicle_type_id":"4","last_reported":1730099373,"current_range_meters":9200,"station_id":"ce4bhlh2rcd13ifvqgig","pricing_plan_id":"cebpf4jnsgd1na2vs0mg"},{"bike_id":"9adafdd8-3240-48a9-a8cf-b77695dc96b2","system_id":"levelo_inurba_marseille","lat":43.32364,"lon":5.38883,"is_reserved":false,"is_disabled":false,"rental_uris":{"android":"levelo://app?vid=9adafdd8-3240-48a9-a8cf-b77695dc96b2","ios":"levelo://app?vid=9adafdd8-3240-48a9-a8cf-b77695dc96b2"},"vehicle_type_id":"4","last_reported":1730099373,"current_range_meters":38000,"station_id":"ce4bhqp2rcd13ifvqhog","pricing_plan_id":"cebpf4jnsgd1na2vs0mg"},{"bike_id":"8d66ba2e-e771-4c67-99ad-ef2d113002e3","system_id":"levelo_inurba_marseille","lat":43.25082,"lon":5.39517,"is_reserved":false,"is_disabled":false,"rental_uris":{"android":"levelo://app?vid=8d66ba2e-e771-4c67-99ad-ef2d113002e3","ios":"levelo://app?vid=8d66ba2e-e771-4c67-99ad-ef2d113002e3"},"vehicle_type_id":"4","last_reported":1730099373,"current_range_meters":39200,"station_id":"ce4bhm12rcd13ifvqgkg","pricing_plan_id":"cebpf4jnsgd1na2vs0mg"},{"bike_id":"6981206a-d30e-4a3d-914c-c893cef2a8e3","system_id":"levelo_inurba_marseille","lat":43.28697,"lon":5.3998,"is_reserved":false,"is_disabled":false,"rental_uris":{"android":"levelo://app?vid=6981206a-d30e-4a3d-914c-c893cef2a8e3","ios":"levelo://app?vid=6981206a-d30e-4a3d-914c-c893cef2a8e3"},"vehicle_type_id":"4","last_reported":1730099373,"current_range_meters":38800,"station_id":"ce4bho92rcd13ifvqh3g","pricing_plan_id":"cebpf4jnsgd1na2vs0mg"},{"bike_id":"0a326fe4-fc75-452a-91e6-92f8abe57572","system_id":"levelo_inurba_marseille","lat":43.29619,"lon":5.37168,"is_reserved":false,"is_disabled":false,"rental_uris":{"android":"levelo://app?vid=0a326fe4-fc75-452a-91e6-92f8abe57572","ios":"levelo://app?vid=0a326fe4-fc75-452a-91e6-92f8abe57572"},"vehicle_type_id":"4","last_reported":1730099373,"current_range_meters":20800,"station_id":"ce4bgnh2rcd13ifvqc0g","pricing_plan_id":"cebpf4jnsgd1na2vs0mg"},{"bike_id":"bff575ca-c255-4a46-8a9d-4bac098e697d","system_id":"levelo_inurba_marseille","lat":43.28459,"lon":5.35883,"is_reserved":false,"is_disabled":false,"rental_uris":{"android":"levelo://app?vid=bff575ca-c255-4a46-8a9d-4bac098e697d","ios":"levelo://app?vid=bff575ca-c255-4a46-8a9d-4bac098e697d"},"vehicle_type_id":"4","last_reported":1730099373,"current_range_meters":38800,"station_id":"ce4bhah2rcd13ifvqei0","pricing_plan_id":"cebpf4jnsgd1na2vs0mg"},{"bike_id":"c8713419-a835-43b9-ac75-b05adb95bea9","system_id":"levelo_inurba_marseille","lat":43.29553,"lon":5.42286,"is_reserved":false,"is_disabled":false,"rental_uris":{"android":"levelo://app?vid=c8713419-a835-43b9-ac75-b05adb95bea9","ios":"levelo://app?vid=c8713419-a835-43b9-ac75-b05adb95bea9"},"vehicle_type_id":"4","last_reported":1730099373,"current_range_meters":38800,"station_id":"ce4bhph2rcd13ifvqhdg","pricing_plan_id":"cebpf4jnsgd1na2vs0mg"},{"bike_id":"52c7a067-c6b6-464f-bdb8-3add878baa13","system_id":"levelo_inurba_marseille","lat":43.311096,"lon":5.377777,"is_reserved":false,"is_disabled":false,"rental_uris":{"android":"levelo://app?vid=52c7a067-c6b6-464f-bdb8-3add878baa13","ios":"levelo://app?vid=52c7a067-c6b6-464f-bdb8-3add878baa13"},"vehicle_type_id":"4","last_reported":1730099373,"current_range_meters":35600,"station_id":"ce4bgt92rcd13ifvqcg0","pricing_plan_id":"cebpf4jnsgd1na2vs0mg"},{"bike_id":"ef4c3fc5-30a2-4016-a8cb-6ce788a189fc","system_id":"levelo_inurba_marseille","lat":43.29322,"lon":5.37023,"is_reserved":false,"is_disabled":false,"rental_uris":{"android":"levelo://app?vid=ef4c3fc5-30a2-4016-a8cb-6ce788a189fc","ios":"levelo://app?vid=ef4c3fc5-30a2-4016-a8cb-6ce788a189fc"},"vehicle_type_id":"4","last_reported":1730099373,"current_range_meters":13600,"station_id":"","pricing_plan_id":"cebpf4jnsgd1na2vs0mg"},{"bike_id":"93d82bfd-ea76-4407-82bc-fffe9912c130","system_id":"levelo_inurba_marseille","lat":43.24079,"lon":5.37754,"is_reserved":false,"is_disabled":false,"rental_uris":{"android":"levelo://app?vid=93d82bfd-ea76-4407-82bc-fffe9912c130","ios":"levelo://app?vid=93d82bfd-ea76-4407-82bc-fffe9912c130"},"vehicle_type_id":"4","last_reported":1730099373,"current_range_meters":38400,"station_id":"ce4bhnp2rcd13ifvqgvg","pricing_plan_id":"cebpf4jnsgd1na2vs0mg"},{"bike_id":"36e9df11-871b-42b5-b413-0559282d5b19","system_id":"levelo_inurba_marseille","lat":43.28934,"lon":5.36627,"is_reserved":false,"is_disabled":false,"rental_uris":{"android":"levelo://app?vid=36e9df11-871b-42b5-b413-0559282d5b19","ios":"levelo://app?vid=36e9df11-871b-42b5-b413-0559282d5b19"},"vehicle_type_id":"4","last_reported":1730099373,"current_range_meters":39200,"station_id":"ce4bhap2rcd13ifvqek0","pricing_plan_id":"cebpf4jnsgd1na2vs0mg"},{"bike_id":"93f53457-fd30-497a-aab4-1b6fdc19bb5d","system_id":"levelo_inurba_marseille","lat":43.29279,"lon":5.4011,"is_reserved":false,"is_disabled":false,"rental_uris":{"android":"levelo://app?vid=93f53457-fd30-497a-aab4-1b6fdc19bb5d","ios":"levelo://app?vid=93f53457-fd30-497a-aab4-1b6fdc19bb5d"},"vehicle_type_id":"4","last_reported":1730099373,"current_range_meters":25200,"station_id":"ce4bh312rcd13ifvqdk0","pricing_plan_id":"cebpf4jnsgd1na2vs0mg"},{"bike_id":"6a13b893-b42b-4a62-9517-c2734937350b","system_id":"levelo_inurba_marseille","lat":43.30598,"lon":5.37238,"is_reserved":false,"is_disabled":false,"rental_uris":{"android":"levelo://app?vid=6a13b893-b42b-4a62-9517-c2734937350b","ios":"levelo://app?vid=6a13b893-b42b-4a62-9517-c2734937350b"},"vehicle_type_id":"4","last_reported":1730099373,"current_range_meters":21600,"station_id":"ce4bgqh2rcd13ifvqc4g","pricing_plan_id":"cebpf4jnsgd1na2vs0mg"},{"bike_id":"22e69140-bec2-4569-b1a2-bd6ec9c288e5","system_id":"levelo_inurba_marseille","lat":43.28147,"lon":5.42641,"is_reserved":false,"is_disabled":false,"rental_uris":{"android":"levelo://app?vid=22e69140-bec2-4569-b1a2-bd6ec9c288e5","ios":"levelo://app?vid=22e69140-bec2-4569-b1a2-bd6ec9c288e5"},"vehicle_type_id":"4","last_reported":1730099373,"current_range_meters":19200,"station_id":"ce4bhnh2rcd13ifvqgug","pricing_plan_id":"cebpf4jnsgd1na2vs0mg"},{"bike_id":"e113f747-4daa-44f7-a218-9e030daa2565","system_id":"levelo_inurba_marseille","lat":43.32098,"lon":5.36777,"is_reserved":false,"is_disabled":false,"rental_uris":{"android":"levelo://app?vid=e113f747-4daa-44f7-a218-9e030daa2565","ios":"levelo://app?vid=e113f747-4daa-44f7-a218-9e030daa2565"},"vehicle_type_id":"4","last_reported":1730099373,"current_range_meters":22800,"station_id":"ce4bhrh2rcd13ifvqhug","pricing_plan_id":"cebpf4jnsgd1na2vs0mg"},{"bike_id":"8b354c4d-df01-4c8e-9ed0-e733c7e5588d","system_id":"levelo_inurba_marseille","lat":43.29312,"lon":5.371837,"is_reserved":false,"is_disabled":false,"rental_uris":{"android":"levelo://app?vid=8b354c4d-df01-4c8e-9ed0-e733c7e5588d","ios":"levelo://app?vid=8b354c4d-df01-4c8e-9ed0-e733c7e5588d"},"vehicle_type_id":"4","last_reported":1730099373,"current_range_meters":38800,"station_id":"ce4bgh92rcd13ifvqb40","pricing_plan_id":"cebpf4jnsgd1na2vs0mg"},{"bike_id":"c83bf92a-895e-4031-90cc-0a4806604b3f","system_id":"levelo_inurba_marseille","lat":43.23054,"lon":5.35491,"is_reserved":false,"is_disabled":false,"rental_uris":{"android":"levelo://app?vid=c83bf92a-895e-4031-90cc-0a4806604b3f","ios":"levelo://app?vid=c83bf92a-895e-4031-90cc-0a4806604b3f"},"vehicle_type_id":"4","last_reported":1730099373,"current_range_meters":37600,"station_id":"cpo3342slgdg3j2ifvpg","pricing_plan_id":"cebpf4jnsgd1na2vs0mg"},{"bike_id":"7aa75f4f-6c54-422b-a13a-a6e764682ad2","system_id":"levelo_inurba_marseille","lat":43.29039,"lon":5.39979,"is_reserved":false,"is_disabled":false,"rental_uris":{"android":"levelo://app?vid=7aa75f4f-6c54-422b-a13a-a6e764682ad2","ios":"levelo://app?vid=7aa75f4f-6c54-422b-a13a-a6e764682ad2"},"vehicle_type_id":"4","last_reported":1730099373,"current_range_meters":32800,"station_id":"ce4bh392rcd13ifvqdm0","pricing_plan_id":"cebpf4jnsgd1na2vs0mg"},{"bike_id":"9fd56fad-5f3d-42b4-b491-7b57b76bc0cf","system_id":"levelo_inurba_marseille","lat":43.27815,"lon":5.40709,"is_reserved":false,"is_disabled":false,"rental_uris":{"android":"levelo://app?vid=9fd56fad-5f3d-42b4-b491-7b57b76bc0cf","ios":"levelo://app?vid=9fd56fad-5f3d-42b4-b491-7b57b76bc0cf"},"vehicle_type_id":"4","last_reported":1730099373,"current_range_meters":18000,"station_id":"ce4bhnh2rcd13ifvqgtg","pricing_plan_id":"cebpf4jnsgd1na2vs0mg"},{"bike_id":"4b362985-db1a-4fb6-acf6-25ab1075fd08","system_id":"levelo_inurba_marseille","lat":43.27046,"lon":5.40267,"is_reserved":false,"is_disabled":false,"rental_uris":{"android":"levelo://app?vid=4b362985-db1a-4fb6-acf6-25ab1075fd08","ios":"levelo://app?vid=4b362985-db1a-4fb6-acf6-25ab1075fd08"},"vehicle_type_id":"4","last_reported":1730099373,"current_range_meters":38800,"station_id":"ce4bhk92rcd13ifvqgc0","pricing_plan_id":"cebpf4jnsgd1na2vs0mg"},{"bike_id":"690b5d62-9810-4150-863e-35762f14a011","system_id":"levelo_inurba_marseille","lat":43.24802,"lon":5.37454,"is_reserved":false,"is_disabled":false,"rental_uris":{"android":"levelo://app?vid=690b5d62-9810-4150-863e-35762f14a011","ios":"levelo://app?vid=690b5d62-9810-4150-863e-35762f14a011"},"vehicle_type_id":"4","last_reported":1730099373,"current_range_meters":32000,"station_id":"ce4bhgh2rcd13ifvqfb0","pricing_plan_id":"cebpf4jnsgd1na2vs0mg"},{"bike_id":"b83094b0-a22a-41fb-a052-40a950e0e02b","system_id":"levelo_inurba_marseille","lat":43.31756,"lon":5.39009,"is_reserved":false,"is_disabled":false,"rental_uris":{"android":"levelo://app?vid=b83094b0-a22a-41fb-a052-40a950e0e02b","ios":"levelo://app?vid=b83094b0-a22a-41fb-a052-40a950e0e02b"},"vehicle_type_id":"4","last_reported":1730099373,"current_range_meters":8000,"station_id":"ce4bhqp2rcd13ifvqhng","pricing_plan_id":"cebpf4jnsgd1na2vs0mg"},{"bike_id":"02800cf3-3e93-47cb-858a-46e5c5ea05ea","system_id":"levelo_inurba_marseille","lat":43.30352,"lon":5.41875,"is_reserved":false,"is_disabled":false,"rental_uris":{"android":"levelo://app?vid=02800cf3-3e93-47cb-858a-46e5c5ea05ea","ios":"levelo://app?vid=02800cf3-3e93-47cb-858a-46e5c5ea05ea"},"vehicle_type_id":"4","last_reported":1730099373,"current_range_meters":38000,"station_id":"ce4bhop2rcd13ifvqh7g","pricing_plan_id":"cebpf4jnsgd1na2vs0mg"},{"bike_id":"b04efa54-544e-4d58-9594-ae7e10fe76cf","system_id":"levelo_inurba_marseille","lat":43.25865,"lon":5.39897,"is_reserved":false,"is_disabled":false,"rental_uris":{"android":"levelo://app?vid=b04efa54-544e-4d58-9594-ae7e10fe76cf","ios":"levelo://app?vid=b04efa54-544e-4d58-9594-ae7e10fe76cf"},"vehicle_type_id":"4","last_reported":1730099373,"current_range_meters":8000,"station_id":"ce4bhl92rcd13ifvqghg","pricing_plan_id":"cebpf4jnsgd1na2vs0mg"},{"bike_id":"16578466-81f3-472d-b079-b2e4ec231203","system_id":"levelo_inurba_marseille","lat":43.33611,"lon":5.41022,"is_reserved":false,"is_disabled":false,"rental_uris":{"android":"levelo://app?vid=16578466-81f3-472d-b079-b2e4ec231203","ios":"levelo://app?vid=16578466-81f3-472d-b079-b2e4ec231203"},"vehicle_type_id":"4","last_reported":1730099373,"current_range_meters":38800,"station_id":"ce4bhqh2rcd13ifvqhmg","pricing_plan_id":"cebpf4jnsgd1na2vs0mg"},{"bike_id":"1d0d92b7-f6c1-4ccd-8c1f-6182976eb675","system_id":"levelo_inurba_marseille","lat":43.26203,"lon":5.37928,"is_reserved":false,"is_disabled":false,"rental_uris":{"android":"levelo://app?vid=1d0d92b7-f6c1-4ccd-8c1f-6182976eb675","ios":"levelo://app?vid=1d0d92b7-f6c1-4ccd-8c1f-6182976eb675"},"vehicle_type_id":"4","last_reported":1730099373,"current_range_meters":34000,"station_id":"ce4bhjp2rcd13ifvqg90","pricing_plan_id":"cebpf4jnsgd1na2vs0mg"},{"bike_id":"88f4470b-7870-405c-bb98-30d944051ae9","system_id":"levelo_inurba_marseille","lat":43.30147,"lon":5.38075,"is_reserved":false,"is_disabled":false,"rental_uris":{"android":"levelo://app?vid=88f4470b-7870-405c-bb98-30d944051ae9","ios":"levelo://app?vid=88f4470b-7870-405c-bb98-30d944051ae9"},"vehicle_type_id":"4","last_reported":1730099373,"current_range_meters":22000,"station_id":"ce4bgjp2rcd13ifvqbh0","pricing_plan_id":"cebpf4jnsgd1na2vs0mg"},{"bike_id":"f1704452-cc24-4a74-8351-c1aa1bec66cb","system_id":"levelo_inurba_marseille","lat":43.28847,"lon":5.35852,"is_reserved":false,"is_disabled":false,"rental_uris":{"android":"levelo://app?vid=f1704452-cc24-4a74-8351-c1aa1bec66cb","ios":"levelo://app?vid=f1704452-cc24-4a74-8351-c1aa1bec66cb"},"vehicle_type_id":"4","last_reported":1730099373,"current_range_meters":28400,"station_id":"ce4bhb12rcd13ifvqem0","pricing_plan_id":"cebpf4jnsgd1na2vs0mg"},{"bike_id":"939ef23a-8e9f-47e0-ba95-784e8e1c14b8","system_id":"levelo_inurba_marseille","lat":43.23059,"lon":5.35486,"is_reserved":false,"is_disabled":false,"rental_uris":{"android":"levelo://app?vid=939ef23a-8e9f-47e0-ba95-784e8e1c14b8","ios":"levelo://app?vid=939ef23a-8e9f-47e0-ba95-784e8e1c14b8"},"vehicle_type_id":"4","last_reported":1730099373,"current_range_meters":23200,"station_id":"cpo3342slgdg3j2ifvpg","pricing_plan_id":"cebpf4jnsgd1na2vs0mg"},{"bike_id":"021587fc-ad63-431d-a7e8-303272bb59f7","system_id":"levelo_inurba_marseille","lat":43.30462,"lon":5.37912,"is_reserved":false,"is_disabled":false,"rental_uris":{"android":"levelo://app?vid=021587fc-ad63-431d-a7e8-303272bb59f7","ios":"levelo://app?vid=021587fc-ad63-431d-a7e8-303272bb59f7"},"vehicle_type_id":"4","last_reported":1730099373,"current_range_meters":38800,"station_id":"ce4bgup2rcd13ifvqcn0","pricing_plan_id":"cebpf4jnsgd1na2vs0mg"},{"bike_id":"630e8ee7-2ca4-4214-9e45-0804a2e1bf1d","system_id":"levelo_inurba_marseille","lat":43.31893,"lon":5.40726,"is_reserved":false,"is_disabled":false,"rental_uris":{"android":"levelo://app?vid=630e8ee7-2ca4-4214-9e45-0804a2e1bf1d","ios":"levelo://app?vid=630e8ee7-2ca4-4214-9e45-0804a2e1bf1d"},"vehicle_type_id":"4","last_reported":1730099373,"current_range_meters":8000,"station_id":"ce4bhq12rcd13ifvqhig","pricing_plan_id":"cebpf4jnsgd1na2vs0mg"},{"bike_id":"ba7ff12b-4fb3-47ea-b304-85ab8fca1364","system_id":"levelo_inurba_marseille","lat":43.32282,"lon":5.38276,"is_reserved":false,"is_disabled":false,"rental_uris":{"android":"levelo://app?vid=ba7ff12b-4fb3-47ea-b304-85ab8fca1364","ios":"levelo://app?vid=ba7ff12b-4fb3-47ea-b304-85ab8fca1364"},"vehicle_type_id":"4","last_reported":1730099373,"current_range_meters":39200,"station_id":"ce4bhr12rcd13ifvqhqg","pricing_plan_id":"cebpf4jnsgd1na2vs0mg"},{"bike_id":"d08008ab-88cd-46b1-bbf3-f8c1dbf0580a","system_id":"levelo_inurba_marseille","lat":43.29035,"lon":5.39962,"is_reserved":false,"is_disabled":false,"rental_uris":{"android":"levelo://app?vid=d08008ab-88cd-46b1-bbf3-f8c1dbf0580a","ios":"levelo://app?vid=d08008ab-88cd-46b1-bbf3-f8c1dbf0580a"},"vehicle_type_id":"4","last_reported":1730099373,"current_range_meters":36800,"station_id":"ce4bh392rcd13ifvqdm0","pricing_plan_id":"cebpf4jnsgd1na2vs0mg"},{"bike_id":"3175915b-2fbf-4d22-8776-58128d4114a6","system_id":"levelo_inurba_marseille","lat":43.27991,"lon":5.41651,"is_reserved":false,"is_disabled":false,"rental_uris":{"android":"levelo://app?vid=3175915b-2fbf-4d22-8776-58128d4114a6","ios":"levelo://app?vid=3175915b-2fbf-4d22-8776-58128d4114a6"},"vehicle_type_id":"4","last_reported":1730099373,"current_range_meters":4400,"station_id":"ce4bho12rcd13ifvqh1g","pricing_plan_id":"cebpf4jnsgd1na2vs0mg"},{"bike_id":"2842f46d-2e4d-42ec-9460-60174175b404","system_id":"levelo_inurba_marseille","lat":43.25107,"lon":5.40309,"is_reserved":false,"is_disabled":false,"rental_uris":{"android":"levelo://app?vid=2842f46d-2e4d-42ec-9460-60174175b404","ios":"levelo://app?vid=2842f46d-2e4d-42ec-9460-60174175b404"},"vehicle_type_id":"4","last_reported":1730099373,"current_range_meters":28800,"station_id":"ce4bhlh2rcd13ifvqgig","pricing_plan_id":"cebpf4jnsgd1na2vs0mg"},{"bike_id":"7eb6b8b8-427c-44ca-8b12-8504481810c5","system_id":"levelo_inurba_marseille","lat":43.25861,"lon":5.39902,"is_reserved":false,"is_disabled":false,"rental_uris":{"android":"levelo://app?vid=7eb6b8b8-427c-44ca-8b12-8504481810c5","ios":"levelo://app?vid=7eb6b8b8-427c-44ca-8b12-8504481810c5"},"vehicle_type_id":"4","last_reported":1730099373,"current_range_meters":34000,"station_id":"ce4bhl92rcd13ifvqghg","pricing_plan_id":"cebpf4jnsgd1na2vs0mg"},{"bike_id":"e25b08b7-745a-4210-bcf7-4e097ebda2a4","system_id":"levelo_inurba_marseille","lat":43.28154,"lon":5.42646,"is_reserved":false,"is_disabled":false,"rental_uris":{"android":"levelo://app?vid=e25b08b7-745a-4210-bcf7-4e097ebda2a4","ios":"levelo://app?vid=e25b08b7-745a-4210-bcf7-4e097ebda2a4"},"vehicle_type_id":"4","last_reported":1730099373,"current_range_meters":21600,"station_id":"ce4bhnh2rcd13ifvqgug","pricing_plan_id":"cebpf4jnsgd1na2vs0mg"},{"bike_id":"f7a50275-88a4-4be4-ac33-5cce1242cfaa","system_id":"levelo_inurba_marseille","lat":43.3171,"lon":5.37756,"is_reserved":false,"is_disabled":false,"rental_uris":{"android":"levelo://app?vid=f7a50275-88a4-4be4-ac33-5cce1242cfaa","ios":"levelo://app?vid=f7a50275-88a4-4be4-ac33-5cce1242cfaa"},"vehicle_type_id":"4","last_reported":1730099373,"current_range_meters":39200,"station_id":"ce4bgth2rcd13ifvqch0","pricing_plan_id":"cebpf4jnsgd1na2vs0mg"},{"bike_id":"53e995e6-add3-40f6-8acb-cde71469a9f4","system_id":"levelo_inurba_marseille","lat":43.3117,"lon":5.38713,"is_reserved":false,"is_disabled":false,"rental_uris":{"android":"levelo://app?vid=53e995e6-add3-40f6-8acb-cde71469a9f4","ios":"levelo://app?vid=53e995e6-add3-40f6-8acb-cde71469a9f4"},"vehicle_type_id":"4","last_reported":1730099373,"current_range_meters":38800,"station_id":"ce4bgv12rcd13ifvqcp0","pricing_plan_id":"cebpf4jnsgd1na2vs0mg"},{"bike_id":"e20c89c8-49fc-48c0-8a85-ade3d59fe2fc","system_id":"levelo_inurba_marseille","lat":43.25101,"lon":5.40327,"is_reserved":false,"is_disabled":false,"rental_uris":{"android":"levelo://app?vid=e20c89c8-49fc-48c0-8a85-ade3d59fe2fc","ios":"levelo://app?vid=e20c89c8-49fc-48c0-8a85-ade3d59fe2fc"},"vehicle_type_id":"4","last_reported":1730099373,"current_range_meters":32000,"station_id":"ce4bhlh2rcd13ifvqgig","pricing_plan_id":"cebpf4jnsgd1na2vs0mg"},{"bike_id":"0e6d7f45-38e9-416c-af7c-70cf58d1daa1","system_id":"levelo_inurba_marseille","lat":43.30465,"lon":5.37898,"is_reserved":false,"is_disabled":false,"rental_uris":{"android":"levelo://app?vid=0e6d7f45-38e9-416c-af7c-70cf58d1daa1","ios":"levelo://app?vid=0e6d7f45-38e9-416c-af7c-70cf58d1daa1"},"vehicle_type_id":"4","last_reported":1730099373,"current_range_meters":38800,"station_id":"ce4bgup2rcd13ifvqcn0","pricing_plan_id":"cebpf4jnsgd1na2vs0mg"},{"bike_id":"2b067b04-0d6a-4fcf-96fd-ac86e7fdae93","system_id":"levelo_inurba_marseille","lat":43.26936,"lon":5.40254,"is_reserved":false,"is_disabled":false,"rental_uris":{"android":"levelo://app?vid=2b067b04-0d6a-4fcf-96fd-ac86e7fdae93","ios":"levelo://app?vid=2b067b04-0d6a-4fcf-96fd-ac86e7fdae93"},"vehicle_type_id":"4","last_reported":1730099373,"current_range_meters":38800,"station_id":"cjm6bp8fraef2m0cb0m0","pricing_plan_id":"cebpf4jnsgd1na2vs0mg"},{"bike_id":"abc5207f-d86f-4e31-9ce9-ca2d68d828ba","system_id":"levelo_inurba_marseille","lat":43.24995,"lon":5.38927,"is_reserved":false,"is_disabled":false,"rental_uris":{"android":"levelo://app?vid=abc5207f-d86f-4e31-9ce9-ca2d68d828ba","ios":"levelo://app?vid=abc5207f-d86f-4e31-9ce9-ca2d68d828ba"},"vehicle_type_id":"4","last_reported":1730099373,"current_range_meters":38800,"station_id":"ce4bhgp2rcd13ifvqfd0","pricing_plan_id":"cebpf4jnsgd1na2vs0mg"},{"bike_id":"7ca56edd-ab0f-42b5-b290-aff4cb25cb72","system_id":"levelo_inurba_marseille","lat":43.24386,"lon":5.37053,"is_reserved":false,"is_disabled":false,"rental_uris":{"android":"levelo://app?vid=7ca56edd-ab0f-42b5-b290-aff4cb25cb72","ios":"levelo://app?vid=7ca56edd-ab0f-42b5-b290-aff4cb25cb72"},"vehicle_type_id":"4","last_reported":1730099373,"current_range_meters":30800,"station_id":"ce4bhhh2rcd13ifvqfk0","pricing_plan_id":"cebpf4jnsgd1na2vs0mg"},{"bike_id":"4cf016cf-222a-4af0-b71c-5001d7c7e17d","system_id":"levelo_inurba_marseille","lat":43.25086,"lon":5.3951,"is_reserved":false,"is_disabled":false,"rental_uris":{"android":"levelo://app?vid=4cf016cf-222a-4af0-b71c-5001d7c7e17d","ios":"levelo://app?vid=4cf016cf-222a-4af0-b71c-5001d7c7e17d"},"vehicle_type_id":"4","last_reported":1730099373,"current_range_meters":32800,"station_id":"ce4bhm12rcd13ifvqgkg","pricing_plan_id":"cebpf4jnsgd1na2vs0mg"},{"bike_id":"845ec0a8-ef22-446f-b8a2-0eed2cd9bb8b","system_id":"levelo_inurba_marseille","lat":43.26546,"lon":5.37288,"is_reserved":false,"is_disabled":false,"rental_uris":{"android":"levelo://app?vid=845ec0a8-ef22-446f-b8a2-0eed2cd9bb8b","ios":"levelo://app?vid=845ec0a8-ef22-446f-b8a2-0eed2cd9bb8b"},"vehicle_type_id":"4","last_reported":1730099373,"current_range_meters":22400,"station_id":"ce4bhg12rcd13ifvqf70","pricing_plan_id":"cebpf4jnsgd1na2vs0mg"},{"bike_id":"ebb131a9-f804-4dcd-8356-6ee7c34f93ec","system_id":"levelo_inurba_marseille","lat":43.28701,"lon":5.37385,"is_reserved":false,"is_disabled":false,"rental_uris":{"android":"levelo://app?vid=ebb131a9-f804-4dcd-8356-6ee7c34f93ec","ios":"levelo://app?vid=ebb131a9-f804-4dcd-8356-6ee7c34f93ec"},"vehicle_type_id":"4","last_reported":1730099373,"current_range_meters":19200,"station_id":"ce4bh3p2rcd13ifvqdq0","pricing_plan_id":"cebpf4jnsgd1na2vs0mg"},{"bike_id":"01e91815-70ed-463a-96bb-b29b7b86fe77","system_id":"levelo_inurba_marseille","lat":43.27198,"lon":5.39185,"is_reserved":false,"is_disabled":false,"rental_uris":{"android":"levelo://app?vid=01e91815-70ed-463a-96bb-b29b7b86fe77","ios":"levelo://app?vid=01e91815-70ed-463a-96bb-b29b7b86fe77"},"vehicle_type_id":"4","last_reported":1730099373,"current_range_meters":16800,"station_id":"","pricing_plan_id":"cebpf4jnsgd1na2vs0mg"},{"bike_id":"31af93ce-eb73-4c91-8c34-6bdb634a4070","system_id":"levelo_inurba_marseille","lat":43.3046,"lon":5.37912,"is_reserved":false,"is_disabled":false,"rental_uris":{"android":"levelo://app?vid=31af93ce-eb73-4c91-8c34-6bdb634a4070","ios":"levelo://app?vid=31af93ce-eb73-4c91-8c34-6bdb634a4070"},"vehicle_type_id":"4","last_reported":1730099373,"current_range_meters":16800,"station_id":"ce4bgup2rcd13ifvqcn0","pricing_plan_id":"cebpf4jnsgd1na2vs0mg"},{"bike_id":"a25b6a83-2d57-4dc8-94af-f08d4dbf848d","system_id":"levelo_inurba_marseille","lat":43.259414,"lon":5.409064,"is_reserved":false,"is_disabled":false,"rental_uris":{"android":"levelo://app?vid=a25b6a83-2d57-4dc8-94af-f08d4dbf848d","ios":"levelo://app?vid=a25b6a83-2d57-4dc8-94af-f08d4dbf848d"},"vehicle_type_id":"4","last_reported":1730099373,"current_range_meters":37600,"station_id":"ce4bhm92rcd13ifvqglg","pricing_plan_id":"cebpf4jnsgd1na2vs0mg"},{"bike_id":"8d1224ea-8c67-414f-8e8e-8dff85dd0343","system_id":"levelo_inurba_marseille","lat":43.25004,"lon":5.38922,"is_reserved":false,"is_disabled":false,"rental_uris":{"android":"levelo://app?vid=8d1224ea-8c67-414f-8e8e-8dff85dd0343","ios":"levelo://app?vid=8d1224ea-8c67-414f-8e8e-8dff85dd0343"},"vehicle_type_id":"4","last_reported":1730099373,"current_range_meters":32800,"station_id":"ce4bhgp2rcd13ifvqfd0","pricing_plan_id":"cebpf4jnsgd1na2vs0mg"},{"bike_id":"9befed88-9f8c-464c-b07b-093bd97066bb","system_id":"levelo_inurba_marseille","lat":43.29805,"lon":5.37136,"is_reserved":false,"is_disabled":false,"rental_uris":{"android":"levelo://app?vid=9befed88-9f8c-464c-b07b-093bd97066bb","ios":"levelo://app?vid=9befed88-9f8c-464c-b07b-093bd97066bb"},"vehicle_type_id":"4","last_reported":1730099373,"current_range_meters":16400,"station_id":"","pricing_plan_id":"cebpf4jnsgd1na2vs0mg"},{"bike_id":"b9634bec-6e6b-42ca-bd4e-77b9f2dd994d","system_id":"levelo_inurba_marseille","lat":43.31366,"lon":5.368127,"is_reserved":false,"is_disabled":false,"rental_uris":{"android":"levelo://app?vid=b9634bec-6e6b-42ca-bd4e-77b9f2dd994d","ios":"levelo://app?vid=b9634bec-6e6b-42ca-bd4e-77b9f2dd994d"},"vehicle_type_id":"4","last_reported":1730099373,"current_range_meters":37600,"station_id":"ce4bgl92rcd13ifvqbq0","pricing_plan_id":"cebpf4jnsgd1na2vs0mg"},{"bike_id":"f37e3b02-a49c-4c4e-b112-f9c8c24edf90","system_id":"levelo_inurba_marseille","lat":43.23186,"lon":5.35557,"is_reserved":false,"is_disabled":false,"rental_uris":{"android":"levelo://app?vid=f37e3b02-a49c-4c4e-b112-f9c8c24edf90","ios":"levelo://app?vid=f37e3b02-a49c-4c4e-b112-f9c8c24edf90"},"vehicle_type_id":"4","last_reported":1730099373,"current_range_meters":10800,"station_id":"ce4bhu92rcd13ifvqi70","pricing_plan_id":"cebpf4jnsgd1na2vs0mg"},{"bike_id":"40cbd8b7-e89b-4e96-8576-0d54fd7ba2c3","system_id":"levelo_inurba_marseille","lat":43.30146,"lon":5.38087,"is_reserved":false,"is_disabled":false,"rental_uris":{"android":"levelo://app?vid=40cbd8b7-e89b-4e96-8576-0d54fd7ba2c3","ios":"levelo://app?vid=40cbd8b7-e89b-4e96-8576-0d54fd7ba2c3"},"vehicle_type_id":"4","last_reported":1730099373,"current_range_meters":32800,"station_id":"ce4bgjp2rcd13ifvqbh0","pricing_plan_id":"cebpf4jnsgd1na2vs0mg"},{"bike_id":"7e9e06a6-9ef2-4e90-8e33-ad059cb0edf6","system_id":"levelo_inurba_marseille","lat":43.30463,"lon":5.37906,"is_reserved":false,"is_disabled":false,"rental_uris":{"android":"levelo://app?vid=7e9e06a6-9ef2-4e90-8e33-ad059cb0edf6","ios":"levelo://app?vid=7e9e06a6-9ef2-4e90-8e33-ad059cb0edf6"},"vehicle_type_id":"4","last_reported":1730099373,"current_range_meters":30000,"station_id":"ce4bgup2rcd13ifvqcn0","pricing_plan_id":"cebpf4jnsgd1na2vs0mg"},{"bike_id":"c0e2fb61-910f-4eeb-9c97-1b1ef7e694af","system_id":"levelo_inurba_marseille","lat":43.28559,"lon":5.39496,"is_reserved":false,"is_disabled":false,"rental_uris":{"android":"levelo://app?vid=c0e2fb61-910f-4eeb-9c97-1b1ef7e694af","ios":"levelo://app?vid=c0e2fb61-910f-4eeb-9c97-1b1ef7e694af"},"vehicle_type_id":"4","last_reported":1730099373,"current_range_meters":36000,"station_id":"ce4bh292rcd13ifvqdg0","pricing_plan_id":"cebpf4jnsgd1na2vs0mg"},{"bike_id":"50884efb-aa93-47c7-b30a-d43a956bc7bb","system_id":"levelo_inurba_marseille","lat":43.30869,"lon":5.37193,"is_reserved":false,"is_disabled":false,"rental_uris":{"android":"levelo://app?vid=50884efb-aa93-47c7-b30a-d43a956bc7bb","ios":"levelo://app?vid=50884efb-aa93-47c7-b30a-d43a956bc7bb"},"vehicle_type_id":"4","last_reported":1730099373,"current_range_meters":38800,"station_id":"ce4bguh2rcd13ifvqckg","pricing_plan_id":"cebpf4jnsgd1na2vs0mg"},{"bike_id":"45fd3cf8-8ef7-4153-9f92-719140053506","system_id":"levelo_inurba_marseille","lat":43.32286,"lon":5.38276,"is_reserved":false,"is_disabled":false,"rental_uris":{"android":"levelo://app?vid=45fd3cf8-8ef7-4153-9f92-719140053506","ios":"levelo://app?vid=45fd3cf8-8ef7-4153-9f92-719140053506"},"vehicle_type_id":"4","last_reported":1730099373,"current_range_meters":24400,"station_id":"ce4bhr12rcd13ifvqhqg","pricing_plan_id":"cebpf4jnsgd1na2vs0mg"},{"bike_id":"1492a169-2d73-48b8-9767-d181153df6d9","system_id":"levelo_inurba_marseille","lat":43.31679,"lon":5.40462,"is_reserved":false,"is_disabled":false,"rental_uris":{"android":"levelo://app?vid=1492a169-2d73-48b8-9767-d181153df6d9","ios":"levelo://app?vid=1492a169-2d73-48b8-9767-d181153df6d9"},"vehicle_type_id":"4","last_reported":1730099373,"current_range_meters":38400,"station_id":"ce4bh012rcd13ifvqd00","pricing_plan_id":"cebpf4jnsgd1na2vs0mg"},{"bike_id":"0fc35ec4-d69e-455a-854d-9256f0d5a7e6","system_id":"levelo_inurba_marseille","lat":43.24067,"lon":5.37758,"is_reserved":false,"is_disabled":false,"rental_uris":{"android":"levelo://app?vid=0fc35ec4-d69e-455a-854d-9256f0d5a7e6","ios":"levelo://app?vid=0fc35ec4-d69e-455a-854d-9256f0d5a7e6"},"vehicle_type_id":"4","last_reported":1730099373,"current_range_meters":24400,"station_id":"ce4bhnp2rcd13ifvqgvg","pricing_plan_id":"cebpf4jnsgd1na2vs0mg"},{"bike_id":"9c975ea9-79b8-44be-86c3-0afb0514a4ca","system_id":"levelo_inurba_marseille","lat":43.28152,"lon":5.42643,"is_reserved":false,"is_disabled":false,"rental_uris":{"android":"levelo://app?vid=9c975ea9-79b8-44be-86c3-0afb0514a4ca","ios":"levelo://app?vid=9c975ea9-79b8-44be-86c3-0afb0514a4ca"},"vehicle_type_id":"4","last_reported":1730099373,"current_range_meters":20800,"station_id":"ce4bhnh2rcd13ifvqgug","pricing_plan_id":"cebpf4jnsgd1na2vs0mg"},{"bike_id":"9f501856-31bd-489e-8c68-79174caf584a","system_id":"levelo_inurba_marseille","lat":43.27487,"lon":5.4245,"is_reserved":false,"is_disabled":false,"rental_uris":{"android":"levelo://app?vid=9f501856-31bd-489e-8c68-79174caf584a","ios":"levelo://app?vid=9f501856-31bd-489e-8c68-79174caf584a"},"vehicle_type_id":"4","last_reported":1730099373,"current_range_meters":38000,"station_id":"ce4bhn92rcd13ifvqgrg","pricing_plan_id":"cebpf4jnsgd1na2vs0mg"},{"bike_id":"d5acf910-316d-4385-ae65-1e40484c3a09","system_id":"levelo_inurba_marseille","lat":43.30866,"lon":5.37186,"is_reserved":false,"is_disabled":false,"rental_uris":{"android":"levelo://app?vid=d5acf910-316d-4385-ae65-1e40484c3a09","ios":"levelo://app?vid=d5acf910-316d-4385-ae65-1e40484c3a09"},"vehicle_type_id":"4","last_reported":1730099373,"current_range_meters":28400,"station_id":"ce4bguh2rcd13ifvqckg","pricing_plan_id":"cebpf4jnsgd1na2vs0mg"},{"bike_id":"e39645c5-87ac-4e87-90ca-e4c6f3ff67ce","system_id":"levelo_inurba_marseille","lat":43.29936,"lon":5.36534,"is_reserved":false,"is_disabled":false,"rental_uris":{"android":"levelo://app?vid=e39645c5-87ac-4e87-90ca-e4c6f3ff67ce","ios":"levelo://app?vid=e39645c5-87ac-4e87-90ca-e4c6f3ff67ce"},"vehicle_type_id":"4","last_reported":1730099373,"current_range_meters":31200,"station_id":"ce4bgm92rcd13ifvqbr0","pricing_plan_id":"cebpf4jnsgd1na2vs0mg"},{"bike_id":"cee26a70-d49b-4523-9d92-ab35b921fa6a","system_id":"levelo_inurba_marseille","lat":43.25728,"lon":5.41106,"is_reserved":false,"is_disabled":false,"rental_uris":{"android":"levelo://app?vid=cee26a70-d49b-4523-9d92-ab35b921fa6a","ios":"levelo://app?vid=cee26a70-d49b-4523-9d92-ab35b921fa6a"},"vehicle_type_id":"4","last_reported":1730099373,"current_range_meters":32400,"station_id":"ce4bhkp2rcd13ifvqgd0","pricing_plan_id":"cebpf4jnsgd1na2vs0mg"},{"bike_id":"def66fbe-9129-4b94-9aa6-f0a9941a832b","system_id":"levelo_inurba_marseille","lat":43.29177,"lon":5.36904,"is_reserved":false,"is_disabled":false,"rental_uris":{"android":"levelo://app?vid=def66fbe-9129-4b94-9aa6-f0a9941a832b","ios":"levelo://app?vid=def66fbe-9129-4b94-9aa6-f0a9941a832b"},"vehicle_type_id":"4","last_reported":1730099373,"current_range_meters":12800,"station_id":"","pricing_plan_id":"cebpf4jnsgd1na2vs0mg"},{"bike_id":"8a5799ec-e449-40ff-9cff-af399ca40c89","system_id":"levelo_inurba_marseille","lat":43.30797,"lon":5.38157,"is_reserved":false,"is_disabled":false,"rental_uris":{"android":"levelo://app?vid=8a5799ec-e449-40ff-9cff-af399ca40c89","ios":"levelo://app?vid=8a5799ec-e449-40ff-9cff-af399ca40c89"},"vehicle_type_id":"4","last_reported":1730099373,"current_range_meters":38800,"station_id":"ce4bgt12rcd13ifvqce0","pricing_plan_id":"cebpf4jnsgd1na2vs0mg"},{"bike_id":"f3690954-b533-4390-8f2c-e6e1f64c2162","system_id":"levelo_inurba_marseille","lat":43.291016,"lon":5.381384,"is_reserved":false,"is_disabled":false,"rental_uris":{"android":"levelo://app?vid=f3690954-b533-4390-8f2c-e6e1f64c2162","ios":"levelo://app?vid=f3690954-b533-4390-8f2c-e6e1f64c2162"},"vehicle_type_id":"4","last_reported":1730099373,"current_range_meters":37600,"station_id":"ce4bh512rcd13ifvqe2g","pricing_plan_id":"cebpf4jnsgd1na2vs0mg"},{"bike_id":"fd44f0b2-de28-4434-9fad-aeeaa9d34761","system_id":"levelo_inurba_marseille","lat":43.30316,"lon":5.36882,"is_reserved":false,"is_disabled":false,"rental_uris":{"android":"levelo://app?vid=fd44f0b2-de28-4434-9fad-aeeaa9d34761","ios":"levelo://app?vid=fd44f0b2-de28-4434-9fad-aeeaa9d34761"},"vehicle_type_id":"4","last_reported":1730099373,"current_range_meters":40000,"station_id":"ce4bgqh2rcd13ifvqc5g","pricing_plan_id":"cebpf4jnsgd1na2vs0mg"},{"bike_id":"621b7f9c-2a13-44fa-9465-ba908913147e","system_id":"levelo_inurba_marseille","lat":43.31481,"lon":5.37303,"is_reserved":false,"is_disabled":false,"rental_uris":{"android":"levelo://app?vid=621b7f9c-2a13-44fa-9465-ba908913147e","ios":"levelo://app?vid=621b7f9c-2a13-44fa-9465-ba908913147e"},"vehicle_type_id":"4","last_reported":1730099373,"current_range_meters":16000,"station_id":"ce4bgt12rcd13ifvqcd0","pricing_plan_id":"cebpf4jnsgd1na2vs0mg"},{"bike_id":"8d1f6948-7dd0-4121-9ecb-61bdb27c8d43","system_id":"levelo_inurba_marseille","lat":43.28367,"lon":5.38629,"is_reserved":false,"is_disabled":false,"rental_uris":{"android":"levelo://app?vid=8d1f6948-7dd0-4121-9ecb-61bdb27c8d43","ios":"levelo://app?vid=8d1f6948-7dd0-4121-9ecb-61bdb27c8d43"},"vehicle_type_id":"4","last_reported":1730099373,"current_range_meters":37600,"station_id":"ce4bh492rcd13ifvqdvg","pricing_plan_id":"cebpf4jnsgd1na2vs0mg"},{"bike_id":"a08296db-b3f4-4d7c-b368-674ac3a21b1e","system_id":"levelo_inurba_marseille","lat":43.23058,"lon":5.35493,"is_reserved":false,"is_disabled":false,"rental_uris":{"android":"levelo://app?vid=a08296db-b3f4-4d7c-b368-674ac3a21b1e","ios":"levelo://app?vid=a08296db-b3f4-4d7c-b368-674ac3a21b1e"},"vehicle_type_id":"4","last_reported":1730099373,"current_range_meters":37600,"station_id":"cpo3342slgdg3j2ifvpg","pricing_plan_id":"cebpf4jnsgd1na2vs0mg"},{"bike_id":"56fa48c3-db27-4e34-89de-464ed017462b","system_id":"levelo_inurba_marseille","lat":43.2846,"lon":5.35882,"is_reserved":false,"is_disabled":false,"rental_uris":{"android":"levelo://app?vid=56fa48c3-db27-4e34-89de-464ed017462b","ios":"levelo://app?vid=56fa48c3-db27-4e34-89de-464ed017462b"},"vehicle_type_id":"4","last_reported":1730099373,"current_range_meters":17600,"station_id":"ce4bhah2rcd13ifvqei0","pricing_plan_id":"cebpf4jnsgd1na2vs0mg"},{"bike_id":"e8b1d499-1fb8-48d9-9f2a-60b4b9923777","system_id":"levelo_inurba_marseille","lat":43.30532,"lon":5.36705,"is_reserved":false,"is_disabled":false,"rental_uris":{"android":"levelo://app?vid=e8b1d499-1fb8-48d9-9f2a-60b4b9923777","ios":"levelo://app?vid=e8b1d499-1fb8-48d9-9f2a-60b4b9923777"},"vehicle_type_id":"4","last_reported":1730099373,"current_range_meters":22800,"station_id":"ce4bgrp2rcd13ifvqc9g","pricing_plan_id":"cebpf4jnsgd1na2vs0mg"},{"bike_id":"28513593-b70e-4462-b74c-8c32f307ccf0","system_id":"levelo_inurba_marseille","lat":43.28458,"lon":5.35888,"is_reserved":false,"is_disabled":false,"rental_uris":{"android":"levelo://app?vid=28513593-b70e-4462-b74c-8c32f307ccf0","ios":"levelo://app?vid=28513593-b70e-4462-b74c-8c32f307ccf0"},"vehicle_type_id":"4","last_reported":1730099373,"current_range_meters":35600,"station_id":"ce4bhah2rcd13ifvqei0","pricing_plan_id":"cebpf4jnsgd1na2vs0mg"},{"bike_id":"8ad359cc-17ad-4946-92a2-75ffb73bf8da","system_id":"levelo_inurba_marseille","lat":43.30456,"lon":5.37903,"is_reserved":false,"is_disabled":false,"rental_uris":{"android":"levelo://app?vid=8ad359cc-17ad-4946-92a2-75ffb73bf8da","ios":"levelo://app?vid=8ad359cc-17ad-4946-92a2-75ffb73bf8da"},"vehicle_type_id":"4","last_reported":1730099373,"current_range_meters":20400,"station_id":"ce4bgup2rcd13ifvqcn0","pricing_plan_id":"cebpf4jnsgd1na2vs0mg"},{"bike_id":"2a6848c1-d22b-44f2-a324-89f4967e1c2c","system_id":"levelo_inurba_marseille","lat":43.30137,"lon":5.37427,"is_reserved":false,"is_disabled":false,"rental_uris":{"android":"levelo://app?vid=2a6848c1-d22b-44f2-a324-89f4967e1c2c","ios":"levelo://app?vid=2a6848c1-d22b-44f2-a324-89f4967e1c2c"},"vehicle_type_id":"4","last_reported":1730099373,"current_range_meters":27200,"station_id":"ce4bgs92rcd13ifvqcc0","pricing_plan_id":"cebpf4jnsgd1na2vs0mg"},{"bike_id":"3da2b441-84ba-4dd2-867a-0bc4320d98b3","system_id":"levelo_inurba_marseille","lat":43.3229,"lon":5.3827,"is_reserved":false,"is_disabled":false,"rental_uris":{"android":"levelo://app?vid=3da2b441-84ba-4dd2-867a-0bc4320d98b3","ios":"levelo://app?vid=3da2b441-84ba-4dd2-867a-0bc4320d98b3"},"vehicle_type_id":"4","last_reported":1730099373,"current_range_meters":34800,"station_id":"ce4bhr12rcd13ifvqhqg","pricing_plan_id":"cebpf4jnsgd1na2vs0mg"},{"bike_id":"d42cd8f1-be9f-4587-96dc-fd9d11f4d1a0","system_id":"levelo_inurba_marseille","lat":43.25104,"lon":5.40305,"is_reserved":false,"is_disabled":false,"rental_uris":{"android":"levelo://app?vid=d42cd8f1-be9f-4587-96dc-fd9d11f4d1a0","ios":"levelo://app?vid=d42cd8f1-be9f-4587-96dc-fd9d11f4d1a0"},"vehicle_type_id":"4","last_reported":1730099373,"current_range_meters":22800,"station_id":"ce4bhlh2rcd13ifvqgig","pricing_plan_id":"cebpf4jnsgd1na2vs0mg"},{"bike_id":"76588601-f0de-444c-8708-6d6ae74a37db","system_id":"levelo_inurba_marseille","lat":43.23968,"lon":5.36635,"is_reserved":false,"is_disabled":false,"rental_uris":{"android":"levelo://app?vid=76588601-f0de-444c-8708-6d6ae74a37db","ios":"levelo://app?vid=76588601-f0de-444c-8708-6d6ae74a37db"},"vehicle_type_id":"4","last_reported":1730099373,"current_range_meters":38000,"station_id":"ce4bhi12rcd13ifvqfp0","pricing_plan_id":"cebpf4jnsgd1na2vs0mg"},{"bike_id":"418c0678-ebd4-44ec-9d52-ef30cd557f87","system_id":"levelo_inurba_marseille","lat":43.25577,"lon":5.38229,"is_reserved":false,"is_disabled":false,"rental_uris":{"android":"levelo://app?vid=418c0678-ebd4-44ec-9d52-ef30cd557f87","ios":"levelo://app?vid=418c0678-ebd4-44ec-9d52-ef30cd557f87"},"vehicle_type_id":"4","last_reported":1730099373,"current_range_meters":24000,"station_id":"ce4bhih2rcd13ifvqfs0","pricing_plan_id":"cebpf4jnsgd1na2vs0mg"},{"bike_id":"f0ea8353-673d-43cd-877c-e41fb0518d77","system_id":"levelo_inurba_marseille","lat":43.30147,"lon":5.38076,"is_reserved":false,"is_disabled":false,"rental_uris":{"android":"levelo://app?vid=f0ea8353-673d-43cd-877c-e41fb0518d77","ios":"levelo://app?vid=f0ea8353-673d-43cd-877c-e41fb0518d77"},"vehicle_type_id":"4","last_reported":1730099373,"current_range_meters":36000,"station_id":"ce4bgjp2rcd13ifvqbh0","pricing_plan_id":"cebpf4jnsgd1na2vs0mg"},{"bike_id":"670968be-382e-49ac-a03c-a0a735afb68f","system_id":"levelo_inurba_marseille","lat":43.25577,"lon":5.38234,"is_reserved":false,"is_disabled":false,"rental_uris":{"android":"levelo://app?vid=670968be-382e-49ac-a03c-a0a735afb68f","ios":"levelo://app?vid=670968be-382e-49ac-a03c-a0a735afb68f"},"vehicle_type_id":"4","last_reported":1730099373,"current_range_meters":38800,"station_id":"ce4bhih2rcd13ifvqfs0","pricing_plan_id":"cebpf4jnsgd1na2vs0mg"},{"bike_id":"9a599d39-93e1-4768-9001-e14667f53e65","system_id":"levelo_inurba_marseille","lat":43.30799,"lon":5.38148,"is_reserved":false,"is_disabled":false,"rental_uris":{"android":"levelo://app?vid=9a599d39-93e1-4768-9001-e14667f53e65","ios":"levelo://app?vid=9a599d39-93e1-4768-9001-e14667f53e65"},"vehicle_type_id":"4","last_reported":1730099373,"current_range_meters":38800,"station_id":"ce4bgt12rcd13ifvqce0","pricing_plan_id":"cebpf4jnsgd1na2vs0mg"},{"bike_id":"9403ad19-9050-4623-81ae-08b1b66bb37c","system_id":"levelo_inurba_marseille","lat":43.23189,"lon":5.39978,"is_reserved":false,"is_disabled":false,"rental_uris":{"android":"levelo://app?vid=9403ad19-9050-4623-81ae-08b1b66bb37c","ios":"levelo://app?vid=9403ad19-9050-4623-81ae-08b1b66bb37c"},"vehicle_type_id":"4","last_reported":1730099373,"current_range_meters":37600,"station_id":"ce4bhn12rcd13ifvqgqg","pricing_plan_id":"cebpf4jnsgd1na2vs0mg"},{"bike_id":"5da9d619-ce39-47fc-ae36-85bd3ea3d144","system_id":"levelo_inurba_marseille","lat":43.29036,"lon":5.39963,"is_reserved":false,"is_disabled":false,"rental_uris":{"android":"levelo://app?vid=5da9d619-ce39-47fc-ae36-85bd3ea3d144","ios":"levelo://app?vid=5da9d619-ce39-47fc-ae36-85bd3ea3d144"},"vehicle_type_id":"4","last_reported":1730099373,"current_range_meters":36800,"station_id":"ce4bh392rcd13ifvqdm0","pricing_plan_id":"cebpf4jnsgd1na2vs0mg"},{"bike_id":"d5a1c7ae-9162-4121-b272-151b950895e5","system_id":"levelo_inurba_marseille","lat":43.27948,"lon":5.41041,"is_reserved":false,"is_disabled":false,"rental_uris":{"android":"levelo://app?vid=d5a1c7ae-9162-4121-b272-151b950895e5","ios":"levelo://app?vid=d5a1c7ae-9162-4121-b272-151b950895e5"},"vehicle_type_id":"4","last_reported":1730099373,"current_range_meters":16000,"station_id":"ce4bhnp2rcd13ifvqh0g","pricing_plan_id":"cebpf4jnsgd1na2vs0mg"},{"bike_id":"79b412b6-7504-41de-b13f-6567b5a9d93f","system_id":"levelo_inurba_marseille","lat":43.31526,"lon":5.38042,"is_reserved":false,"is_disabled":false,"rental_uris":{"android":"levelo://app?vid=79b412b6-7504-41de-b13f-6567b5a9d93f","ios":"levelo://app?vid=79b412b6-7504-41de-b13f-6567b5a9d93f"},"vehicle_type_id":"4","last_reported":1730099373,"current_range_meters":6800,"station_id":"ce4bhsp2rcd13ifvqi50","pricing_plan_id":"cebpf4jnsgd1na2vs0mg"},{"bike_id":"a764cfb4-3e3d-4080-9b40-c76c6f394b50","system_id":"levelo_inurba_marseille","lat":43.29552,"lon":5.42289,"is_reserved":false,"is_disabled":false,"rental_uris":{"android":"levelo://app?vid=a764cfb4-3e3d-4080-9b40-c76c6f394b50","ios":"levelo://app?vid=a764cfb4-3e3d-4080-9b40-c76c6f394b50"},"vehicle_type_id":"4","last_reported":1730099373,"current_range_meters":24800,"station_id":"ce4bhph2rcd13ifvqhdg","pricing_plan_id":"cebpf4jnsgd1na2vs0mg"},{"bike_id":"02fd0614-a6c6-42e2-a6aa-0d2136f615e7","system_id":"levelo_inurba_marseille","lat":43.25105,"lon":5.40324,"is_reserved":false,"is_disabled":false,"rental_uris":{"android":"levelo://app?vid=02fd0614-a6c6-42e2-a6aa-0d2136f615e7","ios":"levelo://app?vid=02fd0614-a6c6-42e2-a6aa-0d2136f615e7"},"vehicle_type_id":"4","last_reported":1730099373,"current_range_meters":22800,"station_id":"ce4bhlh2rcd13ifvqgig","pricing_plan_id":"cebpf4jnsgd1na2vs0mg"},{"bike_id":"cd68f1dc-3134-4c22-9fa5-8490da02f071","system_id":"levelo_inurba_marseille","lat":43.23151,"lon":5.43719,"is_reserved":false,"is_disabled":false,"rental_uris":{"android":"levelo://app?vid=cd68f1dc-3134-4c22-9fa5-8490da02f071","ios":"levelo://app?vid=cd68f1dc-3134-4c22-9fa5-8490da02f071"},"vehicle_type_id":"4","last_reported":1730099373,"current_range_meters":10800,"station_id":"ce4bhmp2rcd13ifvqgog","pricing_plan_id":"cebpf4jnsgd1na2vs0mg"},{"bike_id":"0b1d0298-4a28-4837-b63f-6e32a7d2c051","system_id":"levelo_inurba_marseille","lat":43.28896,"lon":5.36495,"is_reserved":false,"is_disabled":false,"rental_uris":{"android":"levelo://app?vid=0b1d0298-4a28-4837-b63f-6e32a7d2c051","ios":"levelo://app?vid=0b1d0298-4a28-4837-b63f-6e32a7d2c051"},"vehicle_type_id":"4","last_reported":1730099373,"current_range_meters":28400,"station_id":"","pricing_plan_id":"cebpf4jnsgd1na2vs0mg"},{"bike_id":"9df781dc-a17d-4c43-8d58-f238f2778b8b","system_id":"levelo_inurba_marseille","lat":43.25103,"lon":5.40323,"is_reserved":false,"is_disabled":false,"rental_uris":{"android":"levelo://app?vid=9df781dc-a17d-4c43-8d58-f238f2778b8b","ios":"levelo://app?vid=9df781dc-a17d-4c43-8d58-f238f2778b8b"},"vehicle_type_id":"4","last_reported":1730099373,"current_range_meters":12000,"station_id":"ce4bhlh2rcd13ifvqgig","pricing_plan_id":"cebpf4jnsgd1na2vs0mg"},{"bike_id":"a5e385c9-904e-4fc8-b75a-a1b0091661fe","system_id":"levelo_inurba_marseille","lat":43.3015,"lon":5.38091,"is_reserved":false,"is_disabled":false,"rental_uris":{"android":"levelo://app?vid=a5e385c9-904e-4fc8-b75a-a1b0091661fe","ios":"levelo://app?vid=a5e385c9-904e-4fc8-b75a-a1b0091661fe"},"vehicle_type_id":"4","last_reported":1730099373,"current_range_meters":36800,"station_id":"ce4bgjp2rcd13ifvqbh0","pricing_plan_id":"cebpf4jnsgd1na2vs0mg"},{"bike_id":"5ed2fff8-c3d4-4654-a668-3b57adf4f72b","system_id":"levelo_inurba_marseille","lat":43.27487,"lon":5.42453,"is_reserved":false,"is_disabled":false,"rental_uris":{"android":"levelo://app?vid=5ed2fff8-c3d4-4654-a668-3b57adf4f72b","ios":"levelo://app?vid=5ed2fff8-c3d4-4654-a668-3b57adf4f72b"},"vehicle_type_id":"4","last_reported":1730099373,"current_range_meters":20000,"station_id":"ce4bhn92rcd13ifvqgrg","pricing_plan_id":"cebpf4jnsgd1na2vs0mg"},{"bike_id":"a7c6eb8e-227c-4432-958d-8969596fd179","system_id":"levelo_inurba_marseille","lat":43.25729,"lon":5.41106,"is_reserved":false,"is_disabled":false,"rental_uris":{"android":"levelo://app?vid=a7c6eb8e-227c-4432-958d-8969596fd179","ios":"levelo://app?vid=a7c6eb8e-227c-4432-958d-8969596fd179"},"vehicle_type_id":"4","last_reported":1730099373,"current_range_meters":39200,"station_id":"ce4bhkp2rcd13ifvqgd0","pricing_plan_id":"cebpf4jnsgd1na2vs0mg"},{"bike_id":"c43d76fc-8dd7-430b-af42-f70b3dce699a","system_id":"levelo_inurba_marseille","lat":43.28155,"lon":5.42635,"is_reserved":false,"is_disabled":false,"rental_uris":{"android":"levelo://app?vid=c43d76fc-8dd7-430b-af42-f70b3dce699a","ios":"levelo://app?vid=c43d76fc-8dd7-430b-af42-f70b3dce699a"},"vehicle_type_id":"4","last_reported":1730099373,"current_range_meters":38800,"station_id":"ce4bhnh2rcd13ifvqgug","pricing_plan_id":"cebpf4jnsgd1na2vs0mg"},{"bike_id":"1af1ace0-6d50-4670-9928-9bb4053befbf","system_id":"levelo_inurba_marseille","lat":43.25863,"lon":5.39897,"is_reserved":false,"is_disabled":false,"rental_uris":{"android":"levelo://app?vid=1af1ace0-6d50-4670-9928-9bb4053befbf","ios":"levelo://app?vid=1af1ace0-6d50-4670-9928-9bb4053befbf"},"vehicle_type_id":"4","last_reported":1730099373,"current_range_meters":38800,"station_id":"ce4bhl92rcd13ifvqghg","pricing_plan_id":"cebpf4jnsgd1na2vs0mg"},{"bike_id":"e89316dc-a19a-469f-a9cd-dc00b495757e","system_id":"levelo_inurba_marseille","lat":43.27427,"lon":5.40654,"is_reserved":false,"is_disabled":false,"rental_uris":{"android":"levelo://app?vid=e89316dc-a19a-469f-a9cd-dc00b495757e","ios":"levelo://app?vid=e89316dc-a19a-469f-a9cd-dc00b495757e"},"vehicle_type_id":"4","last_reported":1730099373,"current_range_meters":6800,"station_id":"","pricing_plan_id":"cebpf4jnsgd1na2vs0mg"},{"bike_id":"88d679ce-bf81-422c-88c5-977567915cf3","system_id":"levelo_inurba_marseille","lat":43.27483,"lon":5.42467,"is_reserved":false,"is_disabled":false,"rental_uris":{"android":"levelo://app?vid=88d679ce-bf81-422c-88c5-977567915cf3","ios":"levelo://app?vid=88d679ce-bf81-422c-88c5-977567915cf3"},"vehicle_type_id":"4","last_reported":1730099373,"current_range_meters":39200,"station_id":"ce4bhn92rcd13ifvqgrg","pricing_plan_id":"cebpf4jnsgd1na2vs0mg"},{"bike_id":"40cb860c-c6cd-4c15-b796-c88e99e4424d","system_id":"levelo_inurba_marseille","lat":43.25109,"lon":5.40331,"is_reserved":false,"is_disabled":false,"rental_uris":{"android":"levelo://app?vid=40cb860c-c6cd-4c15-b796-c88e99e4424d","ios":"levelo://app?vid=40cb860c-c6cd-4c15-b796-c88e99e4424d"},"vehicle_type_id":"4","last_reported":1730099373,"current_range_meters":16400,"station_id":"ce4bhlh2rcd13ifvqgig","pricing_plan_id":"cebpf4jnsgd1na2vs0mg"},{"bike_id":"04dd23bb-f238-4eba-90d1-d80bc6673779","system_id":"levelo_inurba_marseille","lat":43.31169,"lon":5.38708,"is_reserved":false,"is_disabled":false,"rental_uris":{"android":"levelo://app?vid=04dd23bb-f238-4eba-90d1-d80bc6673779","ios":"levelo://app?vid=04dd23bb-f238-4eba-90d1-d80bc6673779"},"vehicle_type_id":"4","last_reported":1730099373,"current_range_meters":32400,"station_id":"ce4bgv12rcd13ifvqcp0","pricing_plan_id":"cebpf4jnsgd1na2vs0mg"},{"bike_id":"81e500be-3ff6-45b1-af40-237783c8efb0","system_id":"levelo_inurba_marseille","lat":43.27813,"lon":5.40713,"is_reserved":false,"is_disabled":false,"rental_uris":{"android":"levelo://app?vid=81e500be-3ff6-45b1-af40-237783c8efb0","ios":"levelo://app?vid=81e500be-3ff6-45b1-af40-237783c8efb0"},"vehicle_type_id":"4","last_reported":1730099373,"current_range_meters":9600,"station_id":"ce4bhnh2rcd13ifvqgtg","pricing_plan_id":"cebpf4jnsgd1na2vs0mg"},{"bike_id":"5d820ce0-2d55-46e5-b74d-cc75a18e2e27","system_id":"levelo_inurba_marseille","lat":43.26992,"lon":5.39245,"is_reserved":false,"is_disabled":false,"rental_uris":{"android":"levelo://app?vid=5d820ce0-2d55-46e5-b74d-cc75a18e2e27","ios":"levelo://app?vid=5d820ce0-2d55-46e5-b74d-cc75a18e2e27"},"vehicle_type_id":"4","last_reported":1730099373,"current_range_meters":33200,"station_id":"ce4bgh92rcd13ifvqb40","pricing_plan_id":"cebpf4jnsgd1na2vs0mg"},{"bike_id":"40b039ad-0769-4a0e-8ad8-e16a05aa5fd5","system_id":"levelo_inurba_marseille","lat":43.27946,"lon":5.4104,"is_reserved":false,"is_disabled":false,"rental_uris":{"android":"levelo://app?vid=40b039ad-0769-4a0e-8ad8-e16a05aa5fd5","ios":"levelo://app?vid=40b039ad-0769-4a0e-8ad8-e16a05aa5fd5"},"vehicle_type_id":"4","last_reported":1730099373,"current_range_meters":38000,"station_id":"ce4bhnp2rcd13ifvqh0g","pricing_plan_id":"cebpf4jnsgd1na2vs0mg"},{"bike_id":"e3f47b80-4d77-4b5e-837f-43a3c11bfd44","system_id":"levelo_inurba_marseille","lat":43.3121,"lon":5.3681,"is_reserved":false,"is_disabled":false,"rental_uris":{"android":"levelo://app?vid=e3f47b80-4d77-4b5e-837f-43a3c11bfd44","ios":"levelo://app?vid=e3f47b80-4d77-4b5e-837f-43a3c11bfd44"},"vehicle_type_id":"4","last_reported":1730099373,"current_range_meters":36800,"station_id":"ce4bgl92rcd13ifvqbq0","pricing_plan_id":"cebpf4jnsgd1na2vs0mg"},{"bike_id":"df18a4d4-051a-4a60-ad8e-e275c817d3a2","system_id":"levelo_inurba_marseille","lat":43.30532,"lon":5.36537,"is_reserved":false,"is_disabled":false,"rental_uris":{"android":"levelo://app?vid=df18a4d4-051a-4a60-ad8e-e275c817d3a2","ios":"levelo://app?vid=df18a4d4-051a-4a60-ad8e-e275c817d3a2"},"vehicle_type_id":"4","last_reported":1730099373,"current_range_meters":34000,"station_id":"ce4bgs12rcd13ifvqcag","pricing_plan_id":"cebpf4jnsgd1na2vs0mg"},{"bike_id":"85954db0-0f95-4cab-bd1b-ba49cde47c67","system_id":"levelo_inurba_marseille","lat":43.31297,"lon":5.38285,"is_reserved":false,"is_disabled":false,"rental_uris":{"android":"levelo://app?vid=85954db0-0f95-4cab-bd1b-ba49cde47c67","ios":"levelo://app?vid=85954db0-0f95-4cab-bd1b-ba49cde47c67"},"vehicle_type_id":"4","last_reported":1730099373,"current_range_meters":16400,"station_id":"","pricing_plan_id":"cebpf4jnsgd1na2vs0mg"},{"bike_id":"c33840bb-541b-44ef-96bb-6a123c31f14f","system_id":"levelo_inurba_marseille","lat":43.30457,"lon":5.37909,"is_reserved":false,"is_disabled":false,"rental_uris":{"android":"levelo://app?vid=c33840bb-541b-44ef-96bb-6a123c31f14f","ios":"levelo://app?vid=c33840bb-541b-44ef-96bb-6a123c31f14f"},"vehicle_type_id":"4","last_reported":1730099373,"current_range_meters":30800,"station_id":"ce4bgup2rcd13ifvqcn0","pricing_plan_id":"cebpf4jnsgd1na2vs0mg"},{"bike_id":"42dac13f-214f-4da4-918e-f2fe6ed3fc58","system_id":"levelo_inurba_marseille","lat":43.311756,"lon":5.387074,"is_reserved":false,"is_disabled":false,"rental_uris":{"android":"levelo://app?vid=42dac13f-214f-4da4-918e-f2fe6ed3fc58","ios":"levelo://app?vid=42dac13f-214f-4da4-918e-f2fe6ed3fc58"},"vehicle_type_id":"4","last_reported":1730099373,"current_range_meters":38800,"station_id":"ce4bgv12rcd13ifvqcp0","pricing_plan_id":"cebpf4jnsgd1na2vs0mg"},{"bike_id":"2b94bfb9-e35b-4f7b-9795-79ad564e7b11","system_id":"levelo_inurba_marseille","lat":43.29554,"lon":5.42287,"is_reserved":false,"is_disabled":false,"rental_uris":{"android":"levelo://app?vid=2b94bfb9-e35b-4f7b-9795-79ad564e7b11","ios":"levelo://app?vid=2b94bfb9-e35b-4f7b-9795-79ad564e7b11"},"vehicle_type_id":"4","last_reported":1730099373,"current_range_meters":30400,"station_id":"ce4bhph2rcd13ifvqhdg","pricing_plan_id":"cebpf4jnsgd1na2vs0mg"},{"bike_id":"9013a3e1-f982-49e2-8d48-57870016015e","system_id":"levelo_inurba_marseille","lat":43.28849,"lon":5.35841,"is_reserved":false,"is_disabled":false,"rental_uris":{"android":"levelo://app?vid=9013a3e1-f982-49e2-8d48-57870016015e","ios":"levelo://app?vid=9013a3e1-f982-49e2-8d48-57870016015e"},"vehicle_type_id":"4","last_reported":1730099373,"current_range_meters":38800,"station_id":"ce4bhb12rcd13ifvqem0","pricing_plan_id":"cebpf4jnsgd1na2vs0mg"},{"bike_id":"8d875046-c003-4303-8d71-2434c9617cda","system_id":"levelo_inurba_marseille","lat":43.26198,"lon":5.37923,"is_reserved":false,"is_disabled":false,"rental_uris":{"android":"levelo://app?vid=8d875046-c003-4303-8d71-2434c9617cda","ios":"levelo://app?vid=8d875046-c003-4303-8d71-2434c9617cda"},"vehicle_type_id":"4","last_reported":1730099373,"current_range_meters":37600,"station_id":"ce4bhjp2rcd13ifvqg90","pricing_plan_id":"cebpf4jnsgd1na2vs0mg"},{"bike_id":"628ec5cc-4883-45f3-ab38-563c60e63a3a","system_id":"levelo_inurba_marseille","lat":43.26197,"lon":5.37938,"is_reserved":false,"is_disabled":false,"rental_uris":{"android":"levelo://app?vid=628ec5cc-4883-45f3-ab38-563c60e63a3a","ios":"levelo://app?vid=628ec5cc-4883-45f3-ab38-563c60e63a3a"},"vehicle_type_id":"4","last_reported":1730099373,"current_range_meters":6000,"station_id":"ce4bhjp2rcd13ifvqg90","pricing_plan_id":"cebpf4jnsgd1na2vs0mg"},{"bike_id":"5e8add12-0a2f-4ee0-a948-b3005ed38fe3","system_id":"levelo_inurba_marseille","lat":43.324812,"lon":5.365658,"is_reserved":false,"is_disabled":false,"rental_uris":{"android":"levelo://app?vid=5e8add12-0a2f-4ee0-a948-b3005ed38fe3","ios":"levelo://app?vid=5e8add12-0a2f-4ee0-a948-b3005ed38fe3"},"vehicle_type_id":"4","last_reported":1730099373,"current_range_meters":38000,"station_id":"ce4bhs12rcd13ifvqhvg","pricing_plan_id":"cebpf4jnsgd1na2vs0mg"},{"bike_id":"f9cee378-df1a-4dca-8961-74fa6d883443","system_id":"levelo_inurba_marseille","lat":43.32038,"lon":5.40745,"is_reserved":false,"is_disabled":false,"rental_uris":{"android":"levelo://app?vid=f9cee378-df1a-4dca-8961-74fa6d883443","ios":"levelo://app?vid=f9cee378-df1a-4dca-8961-74fa6d883443"},"vehicle_type_id":"4","last_reported":1730099373,"current_range_meters":4800,"station_id":"ce4bhq92rcd13ifvqhjg","pricing_plan_id":"cebpf4jnsgd1na2vs0mg"},{"bike_id":"dc1db8f0-a45c-4980-84b1-5990614565b3","system_id":"levelo_inurba_marseille","lat":43.30144,"lon":5.38085,"is_reserved":false,"is_disabled":false,"rental_uris":{"android":"levelo://app?vid=dc1db8f0-a45c-4980-84b1-5990614565b3","ios":"levelo://app?vid=dc1db8f0-a45c-4980-84b1-5990614565b3"},"vehicle_type_id":"4","last_reported":1730099373,"current_range_meters":32400,"station_id":"ce4bgjp2rcd13ifvqbh0","pricing_plan_id":"cebpf4jnsgd1na2vs0mg"},{"bike_id":"58c29938-9a66-4cb0-80d8-96474a8212ec","system_id":"levelo_inurba_marseille","lat":43.23154,"lon":5.43719,"is_reserved":false,"is_disabled":false,"rental_uris":{"android":"levelo://app?vid=58c29938-9a66-4cb0-80d8-96474a8212ec","ios":"levelo://app?vid=58c29938-9a66-4cb0-80d8-96474a8212ec"},"vehicle_type_id":"4","last_reported":1730099373,"current_range_meters":23200,"station_id":"ce4bhmp2rcd13ifvqgog","pricing_plan_id":"cebpf4jnsgd1na2vs0mg"},{"bike_id":"1257c724-44cf-4bf9-b9f1-3ed2713a28c2","system_id":"levelo_inurba_marseille","lat":43.29041,"lon":5.39976,"is_reserved":false,"is_disabled":false,"rental_uris":{"android":"levelo://app?vid=1257c724-44cf-4bf9-b9f1-3ed2713a28c2","ios":"levelo://app?vid=1257c724-44cf-4bf9-b9f1-3ed2713a28c2"},"vehicle_type_id":"4","last_reported":1730099373,"current_range_meters":28400,"station_id":"ce4bh392rcd13ifvqdm0","pricing_plan_id":"cebpf4jnsgd1na2vs0mg"},{"bike_id":"6242fc62-a9ab-417b-89b0-6df54281ec5c","system_id":"levelo_inurba_marseille","lat":43.23189,"lon":5.39985,"is_reserved":false,"is_disabled":false,"rental_uris":{"android":"levelo://app?vid=6242fc62-a9ab-417b-89b0-6df54281ec5c","ios":"levelo://app?vid=6242fc62-a9ab-417b-89b0-6df54281ec5c"},"vehicle_type_id":"4","last_reported":1730099373,"current_range_meters":27200,"station_id":"ce4bhn12rcd13ifvqgqg","pricing_plan_id":"cebpf4jnsgd1na2vs0mg"},{"bike_id":"f52c26d6-ed5d-4930-9b5c-5cc93b8c8071","system_id":"levelo_inurba_marseille","lat":43.26548,"lon":5.37297,"is_reserved":false,"is_disabled":false,"rental_uris":{"android":"levelo://app?vid=f52c26d6-ed5d-4930-9b5c-5cc93b8c8071","ios":"levelo://app?vid=f52c26d6-ed5d-4930-9b5c-5cc93b8c8071"},"vehicle_type_id":"4","last_reported":1730099373,"current_range_meters":38000,"station_id":"ce4bhg12rcd13ifvqf70","pricing_plan_id":"cebpf4jnsgd1na2vs0mg"},{"bike_id":"b77e9b80-b65f-458e-8510-14e801e47556","system_id":"levelo_inurba_marseille","lat":43.28613,"lon":5.35096,"is_reserved":false,"is_disabled":false,"rental_uris":{"android":"levelo://app?vid=b77e9b80-b65f-458e-8510-14e801e47556","ios":"levelo://app?vid=b77e9b80-b65f-458e-8510-14e801e47556"},"vehicle_type_id":"4","last_reported":1730099373,"current_range_meters":37600,"station_id":"ce4bhch2rcd13ifvqeug","pricing_plan_id":"cebpf4jnsgd1na2vs0mg"},{"bike_id":"2801c97e-79b1-4d15-891c-d62cd74bdc61","system_id":"levelo_inurba_marseille","lat":43.29035,"lon":5.39956,"is_reserved":false,"is_disabled":false,"rental_uris":{"android":"levelo://app?vid=2801c97e-79b1-4d15-891c-d62cd74bdc61","ios":"levelo://app?vid=2801c97e-79b1-4d15-891c-d62cd74bdc61"},"vehicle_type_id":"4","last_reported":1730099373,"current_range_meters":38800,"station_id":"ce4bh392rcd13ifvqdm0","pricing_plan_id":"cebpf4jnsgd1na2vs0mg"},{"bike_id":"a792347a-d158-4403-9c48-1b4e0c6fc790","system_id":"levelo_inurba_marseille","lat":43.27068,"lon":5.42278,"is_reserved":false,"is_disabled":false,"rental_uris":{"android":"levelo://app?vid=a792347a-d158-4403-9c48-1b4e0c6fc790","ios":"levelo://app?vid=a792347a-d158-4403-9c48-1b4e0c6fc790"},"vehicle_type_id":"4","last_reported":1730099373,"current_range_meters":38800,"station_id":"ce4bhk92rcd13ifvqgb0","pricing_plan_id":"cebpf4jnsgd1na2vs0mg"},{"bike_id":"c54ad764-6ee9-458d-b1fd-4ba2647c6a0a","system_id":"levelo_inurba_marseille","lat":43.32482,"lon":5.36569,"is_reserved":false,"is_disabled":false,"rental_uris":{"android":"levelo://app?vid=c54ad764-6ee9-458d-b1fd-4ba2647c6a0a","ios":"levelo://app?vid=c54ad764-6ee9-458d-b1fd-4ba2647c6a0a"},"vehicle_type_id":"4","last_reported":1730099373,"current_range_meters":38800,"station_id":"ce4bhs12rcd13ifvqhvg","pricing_plan_id":"cebpf4jnsgd1na2vs0mg"},{"bike_id":"b497d91c-1f87-4508-b462-50136e06ba9f","system_id":"levelo_inurba_marseille","lat":43.24173,"lon":5.39732,"is_reserved":false,"is_disabled":false,"rental_uris":{"android":"levelo://app?vid=b497d91c-1f87-4508-b462-50136e06ba9f","ios":"levelo://app?vid=b497d91c-1f87-4508-b462-50136e06ba9f"},"vehicle_type_id":"4","last_reported":1730099373,"current_range_meters":32800,"station_id":"ce4bhn12rcd13ifvqgpg","pricing_plan_id":"cebpf4jnsgd1na2vs0mg"},{"bike_id":"70b7791d-7ac6-4f16-a66f-4f718575b7d4","system_id":"levelo_inurba_marseille","lat":43.287445,"lon":5.386613,"is_reserved":false,"is_disabled":false,"rental_uris":{"android":"levelo://app?vid=70b7791d-7ac6-4f16-a66f-4f718575b7d4","ios":"levelo://app?vid=70b7791d-7ac6-4f16-a66f-4f718575b7d4"},"vehicle_type_id":"4","last_reported":1730099373,"current_range_meters":9200,"station_id":"","pricing_plan_id":"cebpf4jnsgd1na2vs0mg"},{"bike_id":"e0bf05b6-3eb6-4872-8e8d-82b38f035f72","system_id":"levelo_inurba_marseille","lat":43.23182,"lon":5.39978,"is_reserved":false,"is_disabled":false,"rental_uris":{"android":"levelo://app?vid=e0bf05b6-3eb6-4872-8e8d-82b38f035f72","ios":"levelo://app?vid=e0bf05b6-3eb6-4872-8e8d-82b38f035f72"},"vehicle_type_id":"4","last_reported":1730099373,"current_range_meters":39200,"station_id":"ce4bhn12rcd13ifvqgqg","pricing_plan_id":"cebpf4jnsgd1na2vs0mg"},{"bike_id":"dba8cbb6-488b-4476-81c2-22862d5ee384","system_id":"levelo_inurba_marseille","lat":43.30779,"lon":5.37653,"is_reserved":false,"is_disabled":false,"rental_uris":{"android":"levelo://app?vid=dba8cbb6-488b-4476-81c2-22862d5ee384","ios":"levelo://app?vid=dba8cbb6-488b-4476-81c2-22862d5ee384"},"vehicle_type_id":"4","last_reported":1730099373,"current_range_meters":39200,"station_id":"ce4bgv92rcd13ifvqcq0","pricing_plan_id":"cebpf4jnsgd1na2vs0mg"},{"bike_id":"870759aa-b4f1-410f-8dd7-8cce75f5dcfb","system_id":"levelo_inurba_marseille","lat":43.23149,"lon":5.4372,"is_reserved":false,"is_disabled":false,"rental_uris":{"android":"levelo://app?vid=870759aa-b4f1-410f-8dd7-8cce75f5dcfb","ios":"levelo://app?vid=870759aa-b4f1-410f-8dd7-8cce75f5dcfb"},"vehicle_type_id":"4","last_reported":1730099373,"current_range_meters":39200,"station_id":"ce4bhmp2rcd13ifvqgog","pricing_plan_id":"cebpf4jnsgd1na2vs0mg"},{"bike_id":"826eb7f4-7b2c-4960-b8f0-1ad2d382103e","system_id":"levelo_inurba_marseille","lat":43.27496,"lon":5.42446,"is_reserved":false,"is_disabled":false,"rental_uris":{"android":"levelo://app?vid=826eb7f4-7b2c-4960-b8f0-1ad2d382103e","ios":"levelo://app?vid=826eb7f4-7b2c-4960-b8f0-1ad2d382103e"},"vehicle_type_id":"4","last_reported":1730099373,"current_range_meters":38400,"station_id":"ce4bhn92rcd13ifvqgrg","pricing_plan_id":"cebpf4jnsgd1na2vs0mg"},{"bike_id":"03ffeab1-71a3-48a9-9c51-d04215d91470","system_id":"levelo_inurba_marseille","lat":43.281534,"lon":5.426472,"is_reserved":false,"is_disabled":false,"rental_uris":{"android":"levelo://app?vid=03ffeab1-71a3-48a9-9c51-d04215d91470","ios":"levelo://app?vid=03ffeab1-71a3-48a9-9c51-d04215d91470"},"vehicle_type_id":"4","last_reported":1730099373,"current_range_meters":22400,"station_id":"ce4bhnh2rcd13ifvqgug","pricing_plan_id":"cebpf4jnsgd1na2vs0mg"},