{"last_updated":1679857488,"ttl":30,"version":"2.2","data":{"bikes":[{"bike_id":"89ab714e-749d-41e7-b8cd-52c785f62a8f","system_id":"levelo_inurba_marseille","lat":43.314811,"lon":5.373104,"is_reserved":false,"is_disabled":false,"rental_uris":{"android":"levelo://app?vid=89ab714e-749d-41e7-b8cd-52c785f62a8f","ios":"levelo://app?vid=89ab714e-749d-41e7-b8cd-52c785f62a8f"},"vehicle_type_id":"4","last_reported":1679857488,"current_range_meters":800,"station_id":"ce4bgt12rcd13ifvqcd0","pricing_plan_id":"free"},{"bike_id":"b892e1e4-0f67-4318-9af9-95b584452a62","system_id":"levelo_inurba_marseille","lat":43.31802,"lon":5.36951,"is_reserved":false,"is_disabled":false,"rental_uris":{"android":"levelo://app?vid=b892e1e4-0f67-4318-9af9-95b584452a62","ios":"levelo://app?vid=b892e1e4-0f67-4318-9af9-95b584452a62"},"vehicle_type_id":"4","last_reported":1679857488,"current_range_meters":5600,"station_id":"","pricing_plan_id":"free"},{"bike_id":"17d9eafc-c727-49b4-a6ad-871ff69b3f60","system_id":"levelo_inurba_marseille","lat":43.30547,"lon":5.36702,"is_reserved":false,"is_disabled":false,"rental_uris":{"android":"levelo://app?vid=17d9eafc-c727-49b4-a6ad-871ff69b3f60","ios":"levelo://app?vid=17d9eafc-c727-49b4-a6ad-871ff69b3f60"},"vehicle_type_id":"4","last_reported":1679857488,"current_range_meters":0,"station_id":"","pricing_plan_id":"free"},{"bike_id":"0d1ef7bc-8ee3-4b4f-b36a-ec2d555293a2","system_id":"levelo_inurba_marseille","lat":43.30544,"lon":5.36694,"is_reserved":false,"is_disabled":false,"rental_uris":{"android":"levelo://app?vid=0d1ef7bc-8ee3-4b4f-b36a-ec2d555293a2","ios":"levelo://app?vid=0d1ef7bc-8ee3-4b4f-b36a-ec2d555293a2"},"vehicle_type_id":"4","last_reported":1679857488,"current_range_meters":2400,"station_id":"","pricing_plan_id":"free"},{"bike_id":"f9f3cdb1-18ec-47a5-a1bd-b8fff79e5db2","system_id":"levelo_inurba_marseille","lat":43.305989,"lon":5.37225,"is_reserved":false,"is_disabled":false,"rental_uris":{"android":"levelo://app?vid=f9f3cdb1-18ec-47a5-a1bd-b8fff79e5db2","ios":"levelo://app?vid=f9f3cdb1-18ec-47a5-a1bd-b8fff79e5db2"},"vehicle_type_id":"4","last_reported":1679857488,"current_range_meters":5200,"station_id":"ce4bgqh2rcd13ifvqc4g","pricing_plan_id":"free"},{"bike_id":"20ba0205-9777-4400-8bb3-eed1330b95a6","system_id":"levelo_inurba_marseille","lat":43.305162,"lon":5.371981,"is_reserved":false,"is_disabled":false,"rental_uris":{"android":"levelo://app?vid=20ba0205-9777-4400-8bb3-eed1330b95a6","ios":"levelo://app?vid=20ba0205-9777-4400-8bb3-eed1330b95a6"},"vehicle_type_id":"4","last_reported":1679857488,"current_range_meters":0,"station_id":"","pricing_plan_id":"free"},{"bike_id":"65696ac3-ba5b-455e-bc42-26e38e32dc30","system_id":"levelo_inurba_marseille","lat":43.317075,"lon":5.377367,"is_reserved":false,"is_disabled":false,"rental_uris":{"android":"levelo://app?vid=65696ac3-ba5b-455e-bc42-26e38e32dc30","ios":"levelo://app?vid=65696ac3-ba5b-455e-bc42-26e38e32dc30"},"vehicle_type_id":"4","last_reported":1679857488,"current_range_meters":5600,"station_id":"ce4bgth2rcd13ifvqch0","pricing_plan_id":"free"},{"bike_id":"4d499669-739c-49c7-a2bf-cf5391c2b374","system_id":"levelo_inurba_marseille","lat":43.30568,"lon":5.37622,"is_reserved":false,"is_disabled":false,"rental_uris":{"android":"levelo://app?vid=4d499669-739c-49c7-a2bf-cf5391c2b374","ios":"levelo://app?vid=4d499669-739c-49c7-a2bf-cf5391c2b374"},"vehicle_type_id":"4","last_reported":1679857488,"current_range_meters":10400,"station_id":"","pricing_plan_id":"free"},{"bike_id":"456a45c9-cc9d-4696-8cfa-7e27a005cca2","system_id":"levelo_inurba_marseille","lat":43.30806,"lon":5.381455,"is_reserved":false,"is_disabled":false,"rental_uris":{"android":"levelo://app?vid=456a45c9-cc9d-4696-8cfa-7e27a005cca2","ios":"levelo://app?vid=456a45c9-cc9d-4696-8cfa-7e27a005cca2"},"vehicle_type_id":"4","last_reported":1679857488,"current_range_meters":0,"station_id":"ce4bgt12rcd13ifvqce0","pricing_plan_id":"free"},{"bike_id":"db3c8a58-c66c-42bf-846d-78672da18a6c","system_id":"levelo_inurba_marseille","lat":43.30808,"lon":5.3815,"is_reserved":false,"is_disabled":false,"rental_uris":{"android":"levelo://app?vid=db3c8a58-c66c-42bf-846d-78672da18a6c","ios":"levelo://app?vid=db3c8a58-c66c-42bf-846d-78672da18a6c"},"vehicle_type_id":"4","last_reported":1679857488,"current_range_meters":0,"station_id":"","pricing_plan_id":"free"},{"bike_id":"3ba873c1-78f9-4c45-9f2d-f9c79065082f","system_id":"levelo_inurba_marseille","lat":43.308037,"lon":5.381577,"is_reserved":false,"is_disabled":false,"rental_uris":{"android":"levelo://app?vid=3ba873c1-78f9-4c45-9f2d-f9c79065082f","ios":"levelo://app?vid=3ba873c1-78f9-4c45-9f2d-f9c79065082f"},"vehicle_type_id":"4","last_reported":1679857488,"current_range_meters":0,"station_id":"","pricing_plan_id":"free"},{"bike_id":"79b2877e-f299-4ba9-bcf6-228bff8ea8d5","system_id":"levelo_inurba_marseille","lat":43.304606,"lon":5.379026,"is_reserved":false,"is_disabled":false,"rental_uris":{"android":"levelo://app?vid=79b2877e-f299-4ba9-bcf6-228bff8ea8d5","ios":"levelo://app?vid=79b2877e-f299-4ba9-bcf6-228bff8ea8d5"},"vehicle_type_id":"4","last_reported":1679857488,"current_range_meters":0,"station_id":"ce4bgup2rcd13ifvqcn0","pricing_plan_id":"free"},{"bike_id":"41d40f6a-f10b-4a50-9088-ef6b4c6bc88b","system_id":"levelo_inurba_marseille","lat":43.304563,"lon":5.379073,"is_reserved":false,"is_disabled":false,"rental_uris":{"android":"levelo://app?vid=41d40f6a-f10b-4a50-9088-ef6b4c6bc88b","ios":"levelo://app?vid=41d40f6a-f10b-4a50-9088-ef6b4c6bc88b"},"vehicle_type_id":"4","last_reported":1679857488,"current_range_meters":0,"station_id":"ce4bgup2rcd13ifvqcn0","pricing_plan_id":"free"},{"bike_id":"15f7dae4-aebe-4f13-ae18-c3626bf36a16","system_id":"levelo_inurba_marseille","lat":43.30141,"lon":5.37408,"is_reserved":false,"is_disabled":false,"rental_uris":{"android":"levelo://app?vid=15f7dae4-aebe-4f13-ae18-c3626bf36a16","ios":"levelo://app?vid=15f7dae4-aebe-4f13-ae18-c3626bf36a16"},"vehicle_type_id":"4","last_reported":1679857488,"current_range_meters":28000,"station_id":"","pricing_plan_id":"free"},{"bike_id":"6a041521-63d2-4f9e-91f3-113e7d79a514","system_id":"levelo_inurba_marseille","lat":43.313571,"lon":5.384829,"is_reserved":false,"is_disabled":false,"rental_uris":{"android":"levelo://app?vid=6a041521-63d2-4f9e-91f3-113e7d79a514","ios":"levelo://app?vid=6a041521-63d2-4f9e-91f3-113e7d79a514"},"vehicle_type_id":"4","last_reported":1679857488,"current_range_meters":0,"station_id":"ce4bgt92rcd13ifvqcf0","pricing_plan_id":"free"},{"bike_id":"79c5e22e-3a16-4b4d-bcb5-3d9a5dccd4fd","system_id":"levelo_inurba_marseille","lat":43.305364,"lon":5.384119,"is_reserved":false,"is_disabled":false,"rental_uris":{"android":"levelo://app?vid=79c5e22e-3a16-4b4d-bcb5-3d9a5dccd4fd","ios":"levelo://app?vid=79c5e22e-3a16-4b4d-bcb5-3d9a5dccd4fd"},"vehicle_type_id":"4","last_reported":1679857488,"current_range_meters":10400,"station_id":"ce4bgg92rcd13ifvqb30","pricing_plan_id":"free"},{"bike_id":"b3b44fd2-cdb3-450e-bc17-d3dad5697feb","system_id":"levelo_inurba_marseille","lat":43.298433,"lon":5.362774,"is_reserved":false,"is_disabled":false,"rental_uris":{"android":"levelo://app?vid=b3b44fd2-cdb3-450e-bc17-d3dad5697feb","ios":"levelo://app?vid=b3b44fd2-cdb3-450e-bc17-d3dad5697feb"},"vehicle_type_id":"4","last_reported":1679857488,"current_range_meters":7200,"station_id":"ce4bgpp2rcd13ifvqc3g","pricing_plan_id":"free"},{"bike_id":"920c9081-39ef-4669-aad3-af9bb3839a9e","system_id":"levelo_inurba_marseille","lat":43.299153,"lon":5.374592,"is_reserved":false,"is_disabled":false,"rental_uris":{"android":"levelo://app?vid=920c9081-39ef-4669-aad3-af9bb3839a9e","ios":"levelo://app?vid=920c9081-39ef-4669-aad3-af9bb3839a9e"},"vehicle_type_id":"4","last_reported":1679857488,"current_range_meters":0,"station_id":"ce4bgjh2rcd13ifvqbg0","pricing_plan_id":"free"},{"bike_id":"d56e3d7e-7d96-473c-9e77-841af62b52c7","system_id":"levelo_inurba_marseille","lat":43.296181,"lon":5.371524,"is_reserved":false,"is_disabled":false,"rental_uris":{"android":"levelo://app?vid=d56e3d7e-7d96-473c-9e77-841af62b52c7","ios":"levelo://app?vid=d56e3d7e-7d96-473c-9e77-841af62b52c7"},"vehicle_type_id":"4","last_reported":1679857488,"current_range_meters":0,"station_id":"ce4bgk12rcd13ifvqbj0","pricing_plan_id":"free"},{"bike_id":"eb8d0a2e-d755-4eb0-8285-15cf667be204","system_id":"levelo_inurba_marseille","lat":43.299028,"lon":5.381509,"is_reserved":false,"is_disabled":false,"rental_uris":{"android":"levelo://app?vid=eb8d0a2e-d755-4eb0-8285-15cf667be204","ios":"levelo://app?vid=eb8d0a2e-d755-4eb0-8285-15cf667be204"},"vehicle_type_id":"4","last_reported":1679857488,"current_range_meters":2800,"station_id":"ce4bgj12rcd13ifvqbc0","pricing_plan_id":"free"},{"bike_id":"5a2547d9-c787-48fd-8ea1-61716c397ddf","system_id":"levelo_inurba_marseille","lat":43.317557,"lon":5.390173,"is_reserved":false,"is_disabled":false,"rental_uris":{"android":"levelo://app?vid=5a2547d9-c787-48fd-8ea1-61716c397ddf","ios":"levelo://app?vid=5a2547d9-c787-48fd-8ea1-61716c397ddf"},"vehicle_type_id":"4","last_reported":1679857488,"current_range_meters":12800,"station_id":"ce4bhqp2rcd13ifvqhng","pricing_plan_id":"free"},{"bike_id":"5763ee4f-4df3-4c94-90ea-5cdde2ba16ff","system_id":"levelo_inurba_marseille","lat":43.32263,"lon":5.38694,"is_reserved":false,"is_disabled":false,"rental_uris":{"android":"levelo://app?vid=5763ee4f-4df3-4c94-90ea-5cdde2ba16ff","ios":"levelo://app?vid=5763ee4f-4df3-4c94-90ea-5cdde2ba16ff"},"vehicle_type_id":"4","last_reported":1679857488,"current_range_meters":4800,"station_id":"","pricing_plan_id":"free"},{"bike_id":"d7c5cf1e-768e-4c11-a57a-abb60db7dbba","system_id":"levelo_inurba_marseille","lat":43.298037,"lon":5.381066,"is_reserved":false,"is_disabled":false,"rental_uris":{"android":"levelo://app?vid=d7c5cf1e-768e-4c11-a57a-abb60db7dbba","ios":"levelo://app?vid=d7c5cf1e-768e-4c11-a57a-abb60db7dbba"},"vehicle_type_id":"4","last_reported":1679857488,"current_range_meters":0,"station_id":"ce4bgip2rcd13ifvqbb0","pricing_plan_id":"free"},{"bike_id":"4fbea99f-10f5-4719-9a71-8cdf19065679","system_id":"levelo_inurba_marseille","lat":43.298037,"lon":5.381066,"is_reserved":false,"is_disabled":false,"rental_uris":{"android":"levelo://app?vid=4fbea99f-10f5-4719-9a71-8cdf19065679","ios":"levelo://app?vid=4fbea99f-10f5-4719-9a71-8cdf19065679"},"vehicle_type_id":"4","last_reported":1679857488,"current_range_meters":0,"station_id":"ce4bgip2rcd13ifvqbb0","pricing_plan_id":"free"},{"bike_id":"22b1bb8c-bd58-4603-a71b-bb2d323548a0","system_id":"levelo_inurba_marseille","lat":43.298037,"lon":5.381066,"is_reserved":false,"is_disabled":false,"rental_uris":{"android":"levelo://app?vid=22b1bb8c-bd58-4603-a71b-bb2d323548a0","ios":"levelo://app?vid=22b1bb8c-bd58-4603-a71b-bb2d323548a0"},"vehicle_type_id":"4","last_reported":1679857488,"current_range_meters":0,"station_id":"ce4bgip2rcd13ifvqbb0","pricing_plan_id":"free"},{"bike_id":"22bd96c0-ff9a-4dd8-96de-d86d3758d4d9","system_id":"levelo_inurba_marseille","lat":43.2966,"lon":5.37815,"is_reserved":false,"is_disabled":false,"rental_uris":{"android":"levelo://app?vid=22bd96c0-ff9a-4dd8-96de-d86d3758d4d9","ios":"levelo://app?vid=22bd96c0-ff9a-4dd8-96de-d86d3758d4d9"},"vehicle_type_id":"4","last_reported":1679857488,"current_range_meters":0,"station_id":"ce4bgi92rcd13ifvqb90","pricing_plan_id":"free"},{"bike_id":"77811361-2d8d-45d5-b346-89b307556f92","system_id":"levelo_inurba_marseille","lat":43.29597,"lon":5.37829,"is_reserved":false,"is_disabled":false,"rental_uris":{"android":"levelo://app?vid=77811361-2d8d-45d5-b346-89b307556f92","ios":"levelo://app?vid=77811361-2d8d-45d5-b346-89b307556f92"},"vehicle_type_id":"4","last_reported":1679857488,"current_range_meters":0,"station_id":"","pricing_plan_id":"free"},{"bike_id":"a1540e75-d1a1-47cc-9ddb-476b5b42b3b3","system_id":"levelo_inurba_marseille","lat":43.32367,"lon":5.388836,"is_reserved":false,"is_disabled":false,"rental_uris":{"android":"levelo://app?vid=a1540e75-d1a1-47cc-9ddb-476b5b42b3b3","ios":"levelo://app?vid=a1540e75-d1a1-47cc-9ddb-476b5b42b3b3"},"vehicle_type_id":"4","last_reported":1679857488,"current_range_meters":6400,"station_id":"ce4bhqp2rcd13ifvqhog","pricing_plan_id":"free"},{"bike_id":"d6e467d2-29de-47be-bc7d-8508cc3c7b93","system_id":"levelo_inurba_marseille","lat":43.323658,"lon":5.388811,"is_reserved":false,"is_disabled":false,"rental_uris":{"android":"levelo://app?vid=d6e467d2-29de-47be-bc7d-8508cc3c7b93","ios":"levelo://app?vid=d6e467d2-29de-47be-bc7d-8508cc3c7b93"},"vehicle_type_id":"4","last_reported":1679857488,"current_range_meters":4000,"station_id":"","pricing_plan_id":"free"},{"bike_id":"6aa36845-519e-42c9-87d2-aec9c8bcebe7","system_id":"levelo_inurba_marseille","lat":43.32401,"lon":5.38966,"is_reserved":false,"is_disabled":false,"rental_uris":{"android":"levelo://app?vid=6aa36845-519e-42c9-87d2-aec9c8bcebe7","ios":"levelo://app?vid=6aa36845-519e-42c9-87d2-aec9c8bcebe7"},"vehicle_type_id":"4","last_reported":1679857488,"current_range_meters":0,"station_id":"","pricing_plan_id":"free"},{"bike_id":"97bb11a3-9912-4ce0-ba14-81f8f872272b","system_id":"levelo_inurba_marseille","lat":43.293009,"lon":5.374584,"is_reserved":false,"is_disabled":false,"rental_uris":{"android":"levelo://app?vid=97bb11a3-9912-4ce0-ba14-81f8f872272b","ios":"levelo://app?vid=97bb11a3-9912-4ce0-ba14-81f8f872272b"},"vehicle_type_id":"4","last_reported":1679857488,"current_range_meters":13600,"station_id":"ce4bgi12rcd13ifvqb70","pricing_plan_id":"free"},{"bike_id":"fbb22f4f-3947-4f68-8701-5e0632278133","system_id":"levelo_inurba_marseille","lat":43.305994,"lon":5.393687,"is_reserved":false,"is_disabled":false,"rental_uris":{"android":"levelo://app?vid=fbb22f4f-3947-4f68-8701-5e0632278133","ios":"levelo://app?vid=fbb22f4f-3947-4f68-8701-5e0632278133"},"vehicle_type_id":"4","last_reported":1679857488,"current_range_meters":0,"station_id":"ce4bh0p2rcd13ifvqd80","pricing_plan_id":"free"},{"bike_id":"cfec20a7-ebcf-45a9-9a40-e759ab59bff8","system_id":"levelo_inurba_marseille","lat":43.298764,"lon":5.388973,"is_reserved":false,"is_disabled":false,"rental_uris":{"android":"levelo://app?vid=cfec20a7-ebcf-45a9-9a40-e759ab59bff8","ios":"levelo://app?vid=cfec20a7-ebcf-45a9-9a40-e759ab59bff8"},"vehicle_type_id":"4","last_reported":1679857488,"current_range_meters":0,"station_id":"ce4bh392rcd13ifvqdl0","pricing_plan_id":"free"},{"bike_id":"c3255c04-ecd1-44fd-92f0-4165c36ff255","system_id":"levelo_inurba_marseille","lat":43.309038,"lon":5.396546,"is_reserved":false,"is_disabled":false,"rental_uris":{"android":"levelo://app?vid=c3255c04-ecd1-44fd-92f0-4165c36ff255","ios":"levelo://app?vid=c3255c04-ecd1-44fd-92f0-4165c36ff255"},"vehicle_type_id":"4","last_reported":1679857488,"current_range_meters":400,"station_id":"ce4bh012rcd13ifvqcv0","pricing_plan_id":"free"},{"bike_id":"2f28d868-e8a0-4eae-abdf-2d82d2e11d07","system_id":"levelo_inurba_marseille","lat":43.295475,"lon":5.385461,"is_reserved":false,"is_disabled":false,"rental_uris":{"android":"levelo://app?vid=2f28d868-e8a0-4eae-abdf-2d82d2e11d07","ios":"levelo://app?vid=2f28d868-e8a0-4eae-abdf-2d82d2e11d07"},"vehicle_type_id":"4","last_reported":1679857488,"current_range_meters":0,"station_id":"ce4bgih2rcd13ifvqba0","pricing_plan_id":"free"},{"bike_id":"82b8117a-4c1e-4686-91e0-5296e0788944","system_id":"levelo_inurba_marseille","lat":43.302008,"lon":5.394694,"is_reserved":false,"is_disabled":false,"rental_uris":{"android":"levelo://app?vid=82b8117a-4c1e-4686-91e0-5296e0788944","ios":"levelo://app?vid=82b8117a-4c1e-4686-91e0-5296e0788944"},"vehicle_type_id":"4","last_reported":1679857488,"current_range_meters":2400,"station_id":"ce4bh0p2rcd13ifvqd70","pricing_plan_id":"free"},{"bike_id":"70e9b6c8-7cff-4966-bf49-69f3ae74be52","system_id":"levelo_inurba_marseille","lat":43.294162,"lon":5.386292,"is_reserved":false,"is_disabled":false,"rental_uris":{"android":"levelo://app?vid=70e9b6c8-7cff-4966-bf49-69f3ae74be52","ios":"levelo://app?vid=70e9b6c8-7cff-4966-bf49-69f3ae74be52"},"vehicle_type_id":"4","last_reported":1679857488,"current_range_meters":8400,"station_id":"ce4bh2h2rcd13ifvqdh0","pricing_plan_id":"free"},{"bike_id":"60995c9c-56c0-473e-9b6e-83455aa452e2","system_id":"levelo_inurba_marseille","lat":43.289417,"lon":5.366311,"is_reserved":false,"is_disabled":false,"rental_uris":{"android":"levelo://app?vid=60995c9c-56c0-473e-9b6e-83455aa452e2","ios":"levelo://app?vid=60995c9c-56c0-473e-9b6e-83455aa452e2"},"vehicle_type_id":"4","last_reported":1679857488,"current_range_meters":0,"station_id":"","pricing_plan_id":"free"},{"bike_id":"155664a4-91e3-42cb-882e-7f10519fd5f1","system_id":"levelo_inurba_marseille","lat":43.292644,"lon":5.384257,"is_reserved":false,"is_disabled":false,"rental_uris":{"android":"levelo://app?vid=155664a4-91e3-42cb-882e-7f10519fd5f1","ios":"levelo://app?vid=155664a4-91e3-42cb-882e-7f10519fd5f1"},"vehicle_type_id":"4","last_reported":1679857488,"current_range_meters":5600,"station_id":"ce4bh692rcd13ifvqea0","pricing_plan_id":"free"},{"bike_id":"3c087a11-878b-42c8-b560-1a28baf87a87","system_id":"levelo_inurba_marseille","lat":43.292644,"lon":5.384257,"is_reserved":false,"is_disabled":false,"rental_uris":{"android":"levelo://app?vid=3c087a11-878b-42c8-b560-1a28baf87a87","ios":"levelo://app?vid=3c087a11-878b-42c8-b560-1a28baf87a87"},"vehicle_type_id":"4","last_reported":1679857488,"current_range_meters":9200,"station_id":"ce4bh692rcd13ifvqea0","pricing_plan_id":"free"},{"bike_id":"b26321ea-0085-419b-94eb-c33dd2746800","system_id":"levelo_inurba_marseille","lat":43.304274,"lon":5.397513,"is_reserved":false,"is_disabled":false,"rental_uris":{"android":"levelo://app?vid=b26321ea-0085-419b-94eb-c33dd2746800","ios":"levelo://app?vid=b26321ea-0085-419b-94eb-c33dd2746800"},"vehicle_type_id":"4","last_reported":1679857488,"current_range_meters":0,"station_id":"ce4bh092rcd13ifvqd20","pricing_plan_id":"free"},{"bike_id":"035947ec-588c-41da-91c2-d282788ef021","system_id":"levelo_inurba_marseille","lat":43.33041,"lon":5.38921,"is_reserved":false,"is_disabled":false,"rental_uris":{"android":"levelo://app?vid=035947ec-588c-41da-91c2-d282788ef021","ios":"levelo://app?vid=035947ec-588c-41da-91c2-d282788ef021"},"vehicle_type_id":"4","last_reported":1679857488,"current_range_meters":7200,"station_id":"ce4bhr92rcd13ifvqhrg","pricing_plan_id":"free"},{"bike_id":"2f3bdf5e-d213-4bfa-ad7d-31bb6bf46664","system_id":"levelo_inurba_marseille","lat":43.33047,"lon":5.38914,"is_reserved":false,"is_disabled":false,"rental_uris":{"android":"levelo://app?vid=2f3bdf5e-d213-4bfa-ad7d-31bb6bf46664","ios":"levelo://app?vid=2f3bdf5e-d213-4bfa-ad7d-31bb6bf46664"},"vehicle_type_id":"4","last_reported":1679857488,"current_range_meters":0,"station_id":"ce4bhr92rcd13ifvqhrg","pricing_plan_id":"free"},{"bike_id":"0228adce-4dee-49d9-9924-bd7aab26a025","system_id":"levelo_inurba_marseille","lat":43.33044,"lon":5.38921,"is_reserved":false,"is_disabled":false,"rental_uris":{"android":"levelo://app?vid=0228adce-4dee-49d9-9924-bd7aab26a025","ios":"levelo://app?vid=0228adce-4dee-49d9-9924-bd7aab26a025"},"vehicle_type_id":"4","last_reported":1679857488,"current_range_meters":3200,"station_id":"ce4bhr92rcd13ifvqhrg","pricing_plan_id":"free"},{"bike_id":"a599eb04-5e8f-474d-abb2-77e432547a35","system_id":"levelo_inurba_marseille","lat":43.278128,"lon":5.407195,"is_reserved":false,"is_disabled":false,"rental_uris":{"android":"levelo://app?vid=a599eb04-5e8f-474d-abb2-77e432547a35","ios":"levelo://app?vid=a599eb04-5e8f-474d-abb2-77e432547a35"},"vehicle_type_id":"4","last_reported":1679857488,"current_range_meters":0,"station_id":"ce4bhnh2rcd13ifvqgtg","pricing_plan_id":"free"},{"bike_id":"aacb67f2-47b3-4454-b4eb-54c9fb94ee12","system_id":"levelo_inurba_marseille","lat":43.33131,"lon":5.38936,"is_reserved":false,"is_disabled":false,"rental_uris":{"android":"levelo://app?vid=aacb67f2-47b3-4454-b4eb-54c9fb94ee12","ios":"levelo://app?vid=aacb67f2-47b3-4454-b4eb-54c9fb94ee12"},"vehicle_type_id":"4","last_reported":1679857488,"current_range_meters":6400,"station_id":"","pricing_plan_id":"free"},{"bike_id":"e8e8fa14-3205-4435-be94-287bbc6e2f36","system_id":"levelo_inurba_marseille","lat":43.28856,"lon":5.358371,"is_reserved":false,"is_disabled":false,"rental_uris":{"android":"levelo://app?vid=e8e8fa14-3205-4435-be94-287bbc6e2f36","ios":"levelo://app?vid=e8e8fa14-3205-4435-be94-287bbc6e2f36"},"vehicle_type_id":"4","last_reported":1679857488,"current_range_meters":0,"station_id":"ce4bhb12rcd13ifvqem0","pricing_plan_id":"free"},{"bike_id":"5dbe79cc-8fb2-4919-b431-be73ab496c56","system_id":"levelo_inurba_marseille","lat":43.337463,"lon":5.37464,"is_reserved":false,"is_disabled":false,"rental_uris":{"android":"levelo://app?vid=5dbe79cc-8fb2-4919-b431-be73ab496c56","ios":"levelo://app?vid=5dbe79cc-8fb2-4919-b431-be73ab496c56"},"vehicle_type_id":"4","last_reported":1679857488,"current_range_meters":27600,"station_id":"","pricing_plan_id":"free"},{"bike_id":"ebfc55c1-104a-4c8d-897c-ee5df44daade","system_id":"levelo_inurba_marseille","lat":43.30642,"lon":5.401031,"is_reserved":false,"is_disabled":false,"rental_uris":{"android":"levelo://app?vid=ebfc55c1-104a-4c8d-897c-ee5df44daade","ios":"levelo://app?vid=ebfc55c1-104a-4c8d-897c-ee5df44daade"},"vehicle_type_id":"4","last_reported":1679857488,"current_range_meters":0,"station_id":"ce4bh112rcd13ifvqda0","pricing_plan_id":"free"},{"bike_id":"68945ec7-8151-430c-bc43-aa93473c08bc","system_id":"levelo_inurba_marseille","lat":43.286593,"lon":5.363346,"is_reserved":false,"is_disabled":false,"rental_uris":{"android":"levelo://app?vid=68945ec7-8151-430c-bc43-aa93473c08bc","ios":"levelo://app?vid=68945ec7-8151-430c-bc43-aa93473c08bc"},"vehicle_type_id":"4","last_reported":1679857488,"current_range_meters":0,"station_id":"ce4bhah2rcd13ifvqej0","pricing_plan_id":"free"},{"bike_id":"1d191d97-77b6-405a-b9c2-5f5dd1945ecd","system_id":"levelo_inurba_marseille","lat":43.326541,"lon":5.398448,"is_reserved":false,"is_disabled":false,"rental_uris":{"android":"levelo://app?vid=1d191d97-77b6-405a-b9c2-5f5dd1945ecd","ios":"levelo://app?vid=1d191d97-77b6-405a-b9c2-5f5dd1945ecd"},"vehicle_type_id":"4","last_reported":1679857488,"current_range_meters":5200,"station_id":"","pricing_plan_id":"free"},{"bike_id":"a6a41833-5cbc-4165-a08b-90d39c5b0da1","system_id":"levelo_inurba_marseille","lat":43.30032,"lon":5.40104,"is_reserved":false,"is_disabled":false,"rental_uris":{"android":"levelo://app?vid=a6a41833-5cbc-4165-a08b-90d39c5b0da1","ios":"levelo://app?vid=a6a41833-5cbc-4165-a08b-90d39c5b0da1"},"vehicle_type_id":"4","last_reported":1679857488,"current_range_meters":0,"station_id":"","pricing_plan_id":"free"},{"bike_id":"29ce400f-3a14-4a05-bfdc-58f6ce48b743","system_id":"levelo_inurba_marseille","lat":43.284534,"lon":5.358662,"is_reserved":false,"is_disabled":false,"rental_uris":{"android":"levelo://app?vid=29ce400f-3a14-4a05-bfdc-58f6ce48b743","ios":"levelo://app?vid=29ce400f-3a14-4a05-bfdc-58f6ce48b743"},"vehicle_type_id":"4","last_reported":1679857488,"current_range_meters":0,"station_id":"ce4bhah2rcd13ifvqei0","pricing_plan_id":"free"},{"bike_id":"01fd5e88-affc-467f-8753-1448c1c5abde","system_id":"levelo_inurba_marseille","lat":43.284534,"lon":5.358662,"is_reserved":false,"is_disabled":false,"rental_uris":{"android":"levelo://app?vid=01fd5e88-affc-467f-8753-1448c1c5abde","ios":"levelo://app?vid=01fd5e88-affc-467f-8753-1448c1c5abde"},"vehicle_type_id":"4","last_reported":1679857488,"current_range_meters":0,"station_id":"ce4bhah2rcd13ifvqei0","pricing_plan_id":"free"},{"bike_id":"f88151fb-f1ff-49a9-a877-ec8a41b0e0d7","system_id":"levelo_inurba_marseille","lat":43.286595,"lon":5.386795,"is_reserved":false,"is_disabled":false,"rental_uris":{"android":"levelo://app?vid=f88151fb-f1ff-49a9-a877-ec8a41b0e0d7","ios":"levelo://app?vid=f88151fb-f1ff-49a9-a877-ec8a41b0e0d7"},"vehicle_type_id":"4","last_reported":1679857488,"current_range_meters":3200,"station_id":"ce4bh492rcd13ifvqdug","pricing_plan_id":"free"},{"bike_id":"209f1066-79d5-4bd7-871f-6c17ba66c9cc","system_id":"levelo_inurba_marseille","lat":43.323464,"lon":5.406297,"is_reserved":false,"is_disabled":false,"rental_uris":{"android":"levelo://app?vid=209f1066-79d5-4bd7-871f-6c17ba66c9cc","ios":"levelo://app?vid=209f1066-79d5-4bd7-871f-6c17ba66c9cc"},"vehicle_type_id":"4","last_reported":1679857488,"current_range_meters":0,"station_id":"ce4bhq92rcd13ifvqhjg","pricing_plan_id":"free"},{"bike_id":"0adc1c5f-7606-4aa1-bf0c-2fc19eff80be","system_id":"levelo_inurba_marseille","lat":43.283502,"lon":5.386471,"is_reserved":false,"is_disabled":false,"rental_uris":{"android":"levelo://app?vid=0adc1c5f-7606-4aa1-bf0c-2fc19eff80be","ios":"levelo://app?vid=0adc1c5f-7606-4aa1-bf0c-2fc19eff80be"},"vehicle_type_id":"4","last_reported":1679857488,"current_range_meters":29200,"station_id":"ce4bh492rcd13ifvqdvg","pricing_plan_id":"free"},{"bike_id":"a3722fe5-b566-4b3d-81df-0cf5bde6c320","system_id":"levelo_inurba_marseille","lat":43.282693,"lon":5.350743,"is_reserved":false,"is_disabled":false,"rental_uris":{"android":"levelo://app?vid=a3722fe5-b566-4b3d-81df-0cf5bde6c320","ios":"levelo://app?vid=a3722fe5-b566-4b3d-81df-0cf5bde6c320"},"vehicle_type_id":"4","last_reported":1679857488,"current_range_meters":0,"station_id":"","pricing_plan_id":"free"},{"bike_id":"960f4c9f-991f-49a0-a4da-c17f26ca9963","system_id":"levelo_inurba_marseille","lat":43.28039,"lon":5.369297,"is_reserved":false,"is_disabled":false,"rental_uris":{"android":"levelo://app?vid=960f4c9f-991f-49a0-a4da-c17f26ca9963","ios":"levelo://app?vid=960f4c9f-991f-49a0-a4da-c17f26ca9963"},"vehicle_type_id":"4","last_reported":1679857488,"current_range_meters":11200,"station_id":"ce4bha12rcd13ifvqef0","pricing_plan_id":"free"},{"bike_id":"dbdfca20-6124-4d52-bf05-8eb519925b47","system_id":"levelo_inurba_marseille","lat":43.280382,"lon":5.369291,"is_reserved":false,"is_disabled":false,"rental_uris":{"android":"levelo://app?vid=dbdfca20-6124-4d52-bf05-8eb519925b47","ios":"levelo://app?vid=dbdfca20-6124-4d52-bf05-8eb519925b47"},"vehicle_type_id":"4","last_reported":1679857488,"current_range_meters":10400,"station_id":"ce4bha12rcd13ifvqef0","pricing_plan_id":"free"},{"bike_id":"c4661960-0e0c-46c3-adcc-f12fced8ffd7","system_id":"levelo_inurba_marseille","lat":43.296263,"lon":5.40601,"is_reserved":false,"is_disabled":false,"rental_uris":{"android":"levelo://app?vid=c4661960-0e0c-46c3-adcc-f12fced8ffd7","ios":"levelo://app?vid=c4661960-0e0c-46c3-adcc-f12fced8ffd7"},"vehicle_type_id":"4","last_reported":1679857488,"current_range_meters":800,"station_id":"ce4bh0h2rcd13ifvqd60","pricing_plan_id":"free"},{"bike_id":"f4b9fbcd-f16a-4c0e-b465-8cbe16a4ea4b","system_id":"levelo_inurba_marseille","lat":43.281044,"lon":5.378308,"is_reserved":false,"is_disabled":false,"rental_uris":{"android":"levelo://app?vid=f4b9fbcd-f16a-4c0e-b465-8cbe16a4ea4b","ios":"levelo://app?vid=f4b9fbcd-f16a-4c0e-b465-8cbe16a4ea4b"},"vehicle_type_id":"4","last_reported":1679857488,"current_range_meters":4400,"station_id":"ce4bha12rcd13ifvqee0","pricing_plan_id":"free"},{"bike_id":"95245d0a-497b-46e0-9626-dd9703191492","system_id":"levelo_inurba_marseille","lat":43.284462,"lon":5.392121,"is_reserved":false,"is_disabled":false,"rental_uris":{"android":"levelo://app?vid=95245d0a-497b-46e0-9626-dd9703191492","ios":"levelo://app?vid=95245d0a-497b-46e0-9626-dd9703191492"},"vehicle_type_id":"4","last_reported":1679857488,"current_range_meters":12000,"station_id":"ce4bhoh2rcd13ifvqh5g","pricing_plan_id":"free"},{"bike_id":"ea0d4461-91d2-4509-b6d2-8a5719ff0c30","system_id":"levelo_inurba_marseille","lat":43.284462,"lon":5.392121,"is_reserved":false,"is_disabled":false,"rental_uris":{"android":"levelo://app?vid=ea0d4461-91d2-4509-b6d2-8a5719ff0c30","ios":"levelo://app?vid=ea0d4461-91d2-4509-b6d2-8a5719ff0c30"},"vehicle_type_id":"4","last_reported":1679857488,"current_range_meters":3200,"station_id":"ce4bhoh2rcd13ifvqh5g","pricing_plan_id":"free"},{"bike_id":"39f33dce-6510-444a-9aa8-eeeec7fd6e3b","system_id":"levelo_inurba_marseille","lat":43.284462,"lon":5.392121,"is_reserved":false,"is_disabled":false,"rental_uris":{"android":"levelo://app?vid=39f33dce-6510-444a-9aa8-eeeec7fd6e3b","ios":"levelo://app?vid=39f33dce-6510-444a-9aa8-eeeec7fd6e3b"},"vehicle_type_id":"4","last_reported":1679857488,"current_range_meters":3200,"station_id":"ce4bhoh2rcd13ifvqh5g","pricing_plan_id":"free"},{"bike_id":"ae0bfcc7-7f1e-4efb-8c8d-3502b6ffe37f","system_id":"levelo_inurba_marseille","lat":43.29155,"lon":5.4037,"is_reserved":false,"is_disabled":false,"rental_uris":{"android":"levelo://app?vid=ae0bfcc7-7f1e-4efb-8c8d-3502b6ffe37f","ios":"levelo://app?vid=ae0bfcc7-7f1e-4efb-8c8d-3502b6ffe37f"},"vehicle_type_id":"4","last_reported":1679857488,"current_range_meters":0,"station_id":"","pricing_plan_id":"free"},{"bike_id":"a3bc2317-36ab-40be-adc9-24e75984fec2","system_id":"levelo_inurba_marseille","lat":43.304188,"lon":5.412904,"is_reserved":false,"is_disabled":false,"rental_uris":{"android":"levelo://app?vid=a3bc2317-36ab-40be-adc9-24e75984fec2","ios":"levelo://app?vid=a3bc2317-36ab-40be-adc9-24e75984fec2"},"vehicle_type_id":"4","last_reported":1679857488,"current_range_meters":14000,"station_id":"ce4bhop2rcd13ifvqh8g","pricing_plan_id":"free"},{"bike_id":"f1ed81b9-7ba6-4495-8bc8-c9ce82113d85","system_id":"levelo_inurba_marseille","lat":43.304188,"lon":5.412904,"is_reserved":false,"is_disabled":false,"rental_uris":{"android":"levelo://app?vid=f1ed81b9-7ba6-4495-8bc8-c9ce82113d85","ios":"levelo://app?vid=f1ed81b9-7ba6-4495-8bc8-c9ce82113d85"},"vehicle_type_id":"4","last_reported":1679857488,"current_range_meters":6800,"station_id":"ce4bhop2rcd13ifvqh8g","pricing_plan_id":"free"},{"bike_id":"5973fad0-3faf-48a0-b351-675ddecfb2d1","system_id":"levelo_inurba_marseille","lat":43.325233,"lon":5.414318,"is_reserved":false,"is_disabled":false,"rental_uris":{"android":"levelo://app?vid=5973fad0-3faf-48a0-b351-675ddecfb2d1","ios":"levelo://app?vid=5973fad0-3faf-48a0-b351-675ddecfb2d1"},"vehicle_type_id":"4","last_reported":1679857488,"current_range_meters":2800,"station_id":"ce4bhq12rcd13ifvqhhg","pricing_plan_id":"free"},{"bike_id":"d5d05df5-a0b0-4cc0-80ce-7f0cf1b34c71","system_id":"levelo_inurba_marseille","lat":43.325233,"lon":5.414318,"is_reserved":false,"is_disabled":false,"rental_uris":{"android":"levelo://app?vid=d5d05df5-a0b0-4cc0-80ce-7f0cf1b34c71","ios":"levelo://app?vid=d5d05df5-a0b0-4cc0-80ce-7f0cf1b34c71"},"vehicle_type_id":"4","last_reported":1679857488,"current_range_meters":26800,"station_id":"ce4bhq12rcd13ifvqhhg","pricing_plan_id":"free"},{"bike_id":"532f8366-7da1-4040-9c3f-d558c2da9ad6","system_id":"levelo_inurba_marseille","lat":43.292571,"lon":5.409107,"is_reserved":false,"is_disabled":false,"rental_uris":{"android":"levelo://app?vid=532f8366-7da1-4040-9c3f-d558c2da9ad6","ios":"levelo://app?vid=532f8366-7da1-4040-9c3f-d558c2da9ad6"},"vehicle_type_id":"4","last_reported":1679857488,"current_range_meters":4000,"station_id":"ce4bh192rcd13ifvqdc0","pricing_plan_id":"free"},{"bike_id":"3a04b52f-c28b-4c99-b3a5-3b9f3afc452a","system_id":"levelo_inurba_marseille","lat":43.280784,"lon":5.396622,"is_reserved":false,"is_disabled":false,"rental_uris":{"android":"levelo://app?vid=3a04b52f-c28b-4c99-b3a5-3b9f3afc452a","ios":"levelo://app?vid=3a04b52f-c28b-4c99-b3a5-3b9f3afc452a"},"vehicle_type_id":"4","last_reported":1679857488,"current_range_meters":400,"station_id":"ce4bho12rcd13ifvqh2g","pricing_plan_id":"free"},{"bike_id":"2da7c858-d418-40c5-93c8-f4c6c1c21b9b","system_id":"levelo_inurba_marseille","lat":43.33605,"lon":5.41023,"is_reserved":false,"is_disabled":false,"rental_uris":{"android":"levelo://app?vid=2da7c858-d418-40c5-93c8-f4c6c1c21b9b","ios":"levelo://app?vid=2da7c858-d418-40c5-93c8-f4c6c1c21b9b"},"vehicle_type_id":"4","last_reported":1679857488,"current_range_meters":4800,"station_id":"","pricing_plan_id":"free"},{"bike_id":"afcb475d-1999-4d07-9d46-aaf2020d210b","system_id":"levelo_inurba_marseille","lat":43.33603,"lon":5.41031,"is_reserved":false,"is_disabled":false,"rental_uris":{"android":"levelo://app?vid=afcb475d-1999-4d07-9d46-aaf2020d210b","ios":"levelo://app?vid=afcb475d-1999-4d07-9d46-aaf2020d210b"},"vehicle_type_id":"4","last_reported":1679857488,"current_range_meters":13600,"station_id":"","pricing_plan_id":"free"},{"bike_id":"d133b0fc-07b5-4ba2-8e3b-fad83301fae4","system_id":"levelo_inurba_marseille","lat":43.32827,"lon":5.41758,"is_reserved":false,"is_disabled":false,"rental_uris":{"android":"levelo://app?vid=d133b0fc-07b5-4ba2-8e3b-fad83301fae4","ios":"levelo://app?vid=d133b0fc-07b5-4ba2-8e3b-fad83301fae4"},"vehicle_type_id":"4","last_reported":1679857488,"current_range_meters":0,"station_id":"","pricing_plan_id":"free"},{"bike_id":"cf9f4f77-491b-4bab-9394-506ae06f3107","system_id":"levelo_inurba_marseille","lat":43.328287,"lon":5.417573,"is_reserved":false,"is_disabled":false,"rental_uris":{"android":"levelo://app?vid=cf9f4f77-491b-4bab-9394-506ae06f3107","ios":"levelo://app?vid=cf9f4f77-491b-4bab-9394-506ae06f3107"},"vehicle_type_id":"4","last_reported":1679857488,"current_range_meters":0,"station_id":"","pricing_plan_id":"free"},{"bike_id":"efdb12d8-1f25-4f9d-97b9-1ea089389bcb","system_id":"levelo_inurba_marseille","lat":43.330195,"lon":5.419124,"is_reserved":false,"is_disabled":false,"rental_uris":{"android":"levelo://app?vid=efdb12d8-1f25-4f9d-97b9-1ea089389bcb","ios":"levelo://app?vid=efdb12d8-1f25-4f9d-97b9-1ea089389bcb"},"vehicle_type_id":"4","last_reported":1679857488,"current_range_meters":0,"station_id":"","pricing_plan_id":"free"},{"bike_id":"98d9ff8a-2d4a-4af1-8174-0b959aa69127","system_id":"levelo_inurba_marseille","lat":43.27231,"lon":5.39098,"is_reserved":false,"is_disabled":false,"rental_uris":{"android":"levelo://app?vid=98d9ff8a-2d4a-4af1-8174-0b959aa69127","ios":"levelo://app?vid=98d9ff8a-2d4a-4af1-8174-0b959aa69127"},"vehicle_type_id":"4","last_reported":1679857488,"current_range_meters":0,"station_id":"ce4bh212rcd13ifvqde0","pricing_plan_id":"free"},{"bike_id":"cafdd4b1-073c-4abf-aec8-712a5beb5c3f","system_id":"levelo_inurba_marseille","lat":43.295523,"lon":5.422926,"is_reserved":false,"is_disabled":false,"rental_uris":{"android":"levelo://app?vid=cafdd4b1-073c-4abf-aec8-712a5beb5c3f","ios":"levelo://app?vid=cafdd4b1-073c-4abf-aec8-712a5beb5c3f"},"vehicle_type_id":"4","last_reported":1679857488,"current_range_meters":5200,"station_id":"ce4bhph2rcd13ifvqhdg","pricing_plan_id":"free"},{"bike_id":"1a7bf06b-00b6-47ef-955b-c863afe94ee4","system_id":"levelo_inurba_marseille","lat":43.295523,"lon":5.422926,"is_reserved":false,"is_disabled":false,"rental_uris":{"android":"levelo://app?vid=1a7bf06b-00b6-47ef-955b-c863afe94ee4","ios":"levelo://app?vid=1a7bf06b-00b6-47ef-955b-c863afe94ee4"},"vehicle_type_id":"4","last_reported":1679857488,"current_range_meters":6800,"station_id":"ce4bhph2rcd13ifvqhdg","pricing_plan_id":"free"},{"bike_id":"6c2ea7b7-f60a-4267-a61b-8af37e0dc176","system_id":"levelo_inurba_marseille","lat":43.295523,"lon":5.422926,"is_reserved":false,"is_disabled":false,"rental_uris":{"android":"levelo://app?vid=6c2ea7b7-f60a-4267-a61b-8af37e0dc176","ios":"levelo://app?vid=6c2ea7b7-f60a-4267-a61b-8af37e0dc176"},"vehicle_type_id":"4","last_reported":1679857488,"current_range_meters":0,"station_id":"ce4bhph2rcd13ifvqhdg","pricing_plan_id":"free"},{"bike_id":"91664935-db6d-4eee-bfbb-f80a585418b0","system_id":"levelo_inurba_marseille","lat":43.295523,"lon":5.422926,"is_reserved":false,"is_disabled":false,"rental_uris":{"android":"levelo://app?vid=91664935-db6d-4eee-bfbb-f80a585418b0","ios":"levelo://app?vid=91664935-db6d-4eee-bfbb-f80a585418b0"},"vehicle_type_id":"4","last_reported":1679857488,"current_range_meters":4000,"station_id":"ce4bhph2rcd13ifvqhdg","pricing_plan_id":"free"},{"bike_id":"f02acfe9-a272-47c7-ade7-01d538238904","system_id":"levelo_inurba_marseille","lat":43.27817,"lon":5.4071,"is_reserved":false,"is_disabled":false,"rental_uris":{"android":"levelo://app?vid=f02acfe9-a272-47c7-ade7-01d538238904","ios":"levelo://app?vid=f02acfe9-a272-47c7-ade7-01d538238904"},"vehicle_type_id":"4","last_reported":1679857488,"current_range_meters":0,"station_id":"ce4bhnh2rcd13ifvqgtg","pricing_plan_id":"free"},{"bike_id":"d2f3fd58-f010-42c5-9544-0e3f8a1ea0b1","system_id":"levelo_inurba_marseille","lat":43.27816,"lon":5.40711,"is_reserved":false,"is_disabled":false,"rental_uris":{"android":"levelo://app?vid=d2f3fd58-f010-42c5-9544-0e3f8a1ea0b1","ios":"levelo://app?vid=d2f3fd58-f010-42c5-9544-0e3f8a1ea0b1"},"vehicle_type_id":"4","last_reported":1679857488,"current_range_meters":7600,"station_id":"","pricing_plan_id":"free"},{"bike_id":"c59b291c-d0ad-4484-8320-501821af96f1","system_id":"levelo_inurba_marseille","lat":43.278045,"lon":5.407084,"is_reserved":false,"is_disabled":false,"rental_uris":{"android":"levelo://app?vid=c59b291c-d0ad-4484-8320-501821af96f1","ios":"levelo://app?vid=c59b291c-d0ad-4484-8320-501821af96f1"},"vehicle_type_id":"4","last_reported":1679857488,"current_range_meters":2400,"station_id":"","pricing_plan_id":"free"},{"bike_id":"6d1b6f64-8bce-433f-a2aa-d0ab8c1ad51b","system_id":"levelo_inurba_marseille","lat":43.278072,"lon":5.407141,"is_reserved":false,"is_disabled":false,"rental_uris":{"android":"levelo://app?vid=6d1b6f64-8bce-433f-a2aa-d0ab8c1ad51b","ios":"levelo://app?vid=6d1b6f64-8bce-433f-a2aa-d0ab8c1ad51b"},"vehicle_type_id":"4","last_reported":1679857488,"current_range_meters":4800,"station_id":"ce4bhnh2rcd13ifvqgtg","pricing_plan_id":"free"},{"bike_id":"eb7af83e-03c5-41f4-9d0e-bc9c358b1738","system_id":"levelo_inurba_marseille","lat":43.278063,"lon":5.407131,"is_reserved":false,"is_disabled":false,"rental_uris":{"android":"levelo://app?vid=eb7af83e-03c5-41f4-9d0e-bc9c358b1738","ios":"levelo://app?vid=eb7af83e-03c5-41f4-9d0e-bc9c358b1738"},"vehicle_type_id":"4","last_reported":1679857488,"current_range_meters":0,"station_id":"","pricing_plan_id":"free"},{"bike_id":"4e0c37d4-6ba3-44c8-800c-5bc6f0cf1f1e","system_id":"levelo_inurba_marseille","lat":43.278074,"lon":5.407173,"is_reserved":false,"is_disabled":false,"rental_uris":{"android":"levelo://app?vid=4e0c37d4-6ba3-44c8-800c-5bc6f0cf1f1e","ios":"levelo://app?vid=4e0c37d4-6ba3-44c8-800c-5bc6f0cf1f1e"},"vehicle_type_id":"4","last_reported":1679857488,"current_range_meters":4400,"station_id":"ce4bhnh2rcd13ifvqgtg","pricing_plan_id":"free"},{"bike_id":"1235e794-8b28-47c9-94e4-d4b352e3f408","system_id":"levelo_inurba_marseille","lat":43.26549,"lon":5.372942,"is_reserved":false,"is_disabled":false,"rental_uris":{"android":"levelo://app?vid=1235e794-8b28-47c9-94e4-d4b352e3f408","ios":"levelo://app?vid=1235e794-8b28-47c9-94e4-d4b352e3f408"},"vehicle_type_id":"4","last_reported":1679857488,"current_range_meters":0,"station_id":"ce4bhg12rcd13ifvqf70","pricing_plan_id":"free"},{"bike_id":"6a277c29-5400-42e3-9c37-bd98f6e9c072","system_id":"levelo_inurba_marseille","lat":43.267966,"lon":5.393976,"is_reserved":false,"is_disabled":false,"rental_uris":{"android":"levelo://app?vid=6a277c29-5400-42e3-9c37-bd98f6e9c072","ios":"levelo://app?vid=6a277c29-5400-42e3-9c37-bd98f6e9c072"},"vehicle_type_id":"4","last_reported":1679857488,"current_range_meters":0,"station_id":"ce4bhh12rcd13ifvqfg0","pricing_plan_id":"free"},{"bike_id":"f4da5c1e-bb08-42ce-92e5-2768460b386c","system_id":"levelo_inurba_marseille","lat":43.331864,"lon":5.431794,"is_reserved":false,"is_disabled":false,"rental_uris":{"android":"levelo://app?vid=f4da5c1e-bb08-42ce-92e5-2768460b386c","ios":"levelo://app?vid=f4da5c1e-bb08-42ce-92e5-2768460b386c"},"vehicle_type_id":"4","last_reported":1679857488,"current_range_meters":11600,"station_id":"","pricing_plan_id":"free"},{"bike_id":"2e987450-75ac-4941-9350-8f25bb6505cc","system_id":"levelo_inurba_marseille","lat":43.317104,"lon":5.436818,"is_reserved":false,"is_disabled":false,"rental_uris":{"android":"levelo://app?vid=2e987450-75ac-4941-9350-8f25bb6505cc","ios":"levelo://app?vid=2e987450-75ac-4941-9350-8f25bb6505cc"},"vehicle_type_id":"4","last_reported":1679857488,"current_range_meters":14800,"station_id":"ce4bhp92rcd13ifvqhcg","pricing_plan_id":"free"},{"bike_id":"095f2b0c-278e-4884-9e8e-87e4ce1c33bb","system_id":"levelo_inurba_marseille","lat":43.267959,"lon":5.402685,"is_reserved":false,"is_disabled":false,"rental_uris":{"android":"levelo://app?vid=095f2b0c-278e-4884-9e8e-87e4ce1c33bb","ios":"levelo://app?vid=095f2b0c-278e-4884-9e8e-87e4ce1c33bb"},"vehicle_type_id":"4","last_reported":1679857488,"current_range_meters":7200,"station_id":"ce501612rcd8frsf0b60","pricing_plan_id":"free"},{"bike_id":"ccb90c0d-715d-4dfb-ac29-efd28eda4448","system_id":"levelo_inurba_marseille","lat":43.267959,"lon":5.402687,"is_reserved":false,"is_disabled":false,"rental_uris":{"android":"levelo://app?vid=ccb90c0d-715d-4dfb-ac29-efd28eda4448","ios":"levelo://app?vid=ccb90c0d-715d-4dfb-ac29-efd28eda4448"},"vehicle_type_id":"4","last_reported":1679857488,"current_range_meters":22400,"station_id":"ce501612rcd8frsf0b60","pricing_plan_id":"free"},{"bike_id":"69600b78-0f44-40d0-ab39-402aca4eb68d","system_id":"levelo_inurba_marseille","lat":43.29896,"lon":5.43665,"is_reserved":false,"is_disabled":false,"rental_uris":{"android":"levelo://app?vid=69600b78-0f44-40d0-ab39-402aca4eb68d","ios":"levelo://app?vid=69600b78-0f44-40d0-ab39-402aca4eb68d"},"vehicle_type_id":"4","last_reported":1679857488,"current_range_meters":20800,"station_id":"ce4bhpp2rcd13ifvqhfg","pricing_plan_id":"free"},{"bike_id":"5357a8e4-a196-45ec-a1f8-1fd07c17eb75","system_id":"levelo_inurba_marseille","lat":43.260909,"lon":5.397591,"is_reserved":false,"is_disabled":false,"rental_uris":{"android":"levelo://app?vid=5357a8e4-a196-45ec-a1f8-1fd07c17eb75","ios":"levelo://app?vid=5357a8e4-a196-45ec-a1f8-1fd07c17eb75"},"vehicle_type_id":"4","last_reported":1679857488,"current_range_meters":11600,"station_id":"ce4bhi12rcd13ifvqfq0","pricing_plan_id":"free"},{"bike_id":"8e344158-5c99-46b8-b84a-a0b85f26dbf4","system_id":"levelo_inurba_marseille","lat":43.260909,"lon":5.397591,"is_reserved":false,"is_disabled":false,"rental_uris":{"android":"levelo://app?vid=8e344158-5c99-46b8-b84a-a0b85f26dbf4","ios":"levelo://app?vid=8e344158-5c99-46b8-b84a-a0b85f26dbf4"},"vehicle_type_id":"4","last_reported":1679857488,"current_range_meters":3600,"station_id":"ce4bhi12rcd13ifvqfq0","pricing_plan_id":"free"},{"bike_id":"43207228-b3fd-475f-ae03-41f3f0ffa8ba","system_id":"levelo_inurba_marseille","lat":43.260909,"lon":5.397591,"is_reserved":false,"is_disabled":false,"rental_uris":{"android":"levelo://app?vid=43207228-b3fd-475f-ae03-41f3f0ffa8ba","ios":"levelo://app?vid=43207228-b3fd-475f-ae03-41f3f0ffa8ba"},"vehicle_type_id":"4","last_reported":1679857488,"current_range_meters":7200,"station_id":"ce4bhi12rcd13ifvqfq0","pricing_plan_id":"free"},{"bike_id":"de75e9e5-a260-49bf-a5ff-1926dc5f6150","system_id":"levelo_inurba_marseille","lat":43.255756,"lon":5.382303,"is_reserved":false,"is_disabled":false,"rental_uris":{"android":"levelo://app?vid=de75e9e5-a260-49bf-a5ff-1926dc5f6150","ios":"levelo://app?vid=de75e9e5-a260-49bf-a5ff-1926dc5f6150"},"vehicle_type_id":"4","last_reported":1679857488,"current_range_meters":5600,"station_id":"ce4bhih2rcd13ifvqfs0","pricing_plan_id":"free"},{"bike_id":"08f6336a-adc1-49fc-bc78-b01afdfdfc7c","system_id":"levelo_inurba_marseille","lat":43.270721,"lon":5.422764,"is_reserved":false,"is_disabled":false,"rental_uris":{"android":"levelo://app?vid=08f6336a-adc1-49fc-bc78-b01afdfdfc7c","ios":"levelo://app?vid=08f6336a-adc1-49fc-bc78-b01afdfdfc7c"},"vehicle_type_id":"4","last_reported":1679857488,"current_range_meters":30000,"station_id":"ce4bhk92rcd13ifvqgb0","pricing_plan_id":"free"},{"bike_id":"b5505fc3-2cf8-4bb9-84fc-38472ac1234d","system_id":"levelo_inurba_marseille","lat":43.27078,"lon":5.42283,"is_reserved":false,"is_disabled":false,"rental_uris":{"android":"levelo://app?vid=b5505fc3-2cf8-4bb9-84fc-38472ac1234d","ios":"levelo://app?vid=b5505fc3-2cf8-4bb9-84fc-38472ac1234d"},"vehicle_type_id":"4","last_reported":1679857488,"current_range_meters":6800,"station_id":"ce4bhk92rcd13ifvqgb0","pricing_plan_id":"free"},{"bike_id":"e966b116-f1b6-413a-ac59-63e2ea4fa22f","system_id":"levelo_inurba_marseille","lat":43.270721,"lon":5.422764,"is_reserved":false,"is_disabled":false,"rental_uris":{"android":"levelo://app?vid=e966b116-f1b6-413a-ac59-63e2ea4fa22f","ios":"levelo://app?vid=e966b116-f1b6-413a-ac59-63e2ea4fa22f"},"vehicle_type_id":"4","last_reported":1679857488,"current_range_meters":4000,"station_id":"ce4bhk92rcd13ifvqgb0","pricing_plan_id":"free"},{"bike_id":"f0ba5e52-837f-4754-9829-0dac8eb1e4d5","system_id":"levelo_inurba_marseille","lat":43.250009,"lon":5.389195,"is_reserved":false,"is_disabled":false,"rental_uris":{"android":"levelo://app?vid=f0ba5e52-837f-4754-9829-0dac8eb1e4d5","ios":"levelo://app?vid=f0ba5e52-837f-4754-9829-0dac8eb1e4d5"},"vehicle_type_id":"4","last_reported":1679857488,"current_range_meters":0,"station_id":"ce4bhgp2rcd13ifvqfd0","pricing_plan_id":"free"},{"bike_id":"2819a97b-ab62-412f-ba95-92901ce7058e","system_id":"levelo_inurba_marseille","lat":43.250009,"lon":5.389195,"is_reserved":false,"is_disabled":false,"rental_uris":{"android":"levelo://app?vid=2819a97b-ab62-412f-ba95-92901ce7058e","ios":"levelo://app?vid=2819a97b-ab62-412f-ba95-92901ce7058e"},"vehicle_type_id":"4","last_reported":1679857488,"current_range_meters":0,"station_id":"ce4bhgp2rcd13ifvqfd0","pricing_plan_id":"free"},{"bike_id":"cee0ac16-1eb4-47af-b09b-40bacf0733d6","system_id":"levelo_inurba_marseille","lat":43.250009,"lon":5.389195,"is_reserved":false,"is_disabled":false,"rental_uris":{"android":"levelo://app?vid=cee0ac16-1eb4-47af-b09b-40bacf0733d6","ios":"levelo://app?vid=cee0ac16-1eb4-47af-b09b-40bacf0733d6"},"vehicle_type_id":"4","last_reported":1679857488,"current_range_meters":12400,"station_id":"ce4bhgp2rcd13ifvqfd0","pricing_plan_id":"free"},{"bike_id":"9fec407a-00ca-465f-8c87-4e5476d05cc9","system_id":"levelo_inurba_marseille","lat":43.25119,"lon":5.40315,"is_reserved":false,"is_disabled":false,"rental_uris":{"android":"levelo://app?vid=9fec407a-00ca-465f-8c87-4e5476d05cc9","ios":"levelo://app?vid=9fec407a-00ca-465f-8c87-4e5476d05cc9"},"vehicle_type_id":"4","last_reported":1679857488,"current_range_meters":4400,"station_id":"ce4bhlh2rcd13ifvqgig","pricing_plan_id":"free"},{"bike_id":"8bcb4702-6194-43eb-a1fc-1fd70d7344b0","system_id":"levelo_inurba_marseille","lat":43.24397,"lon":5.3712,"is_reserved":false,"is_disabled":false,"rental_uris":{"android":"levelo://app?vid=8bcb4702-6194-43eb-a1fc-1fd70d7344b0","ios":"levelo://app?vid=8bcb4702-6194-43eb-a1fc-1fd70d7344b0"},"vehicle_type_id":"4","last_reported":1679857488,"current_range_meters":27200,"station_id":"ce4bhhh2rcd13ifvqfk0","pricing_plan_id":"free"},{"bike_id":"fe65ab9e-ef38-44f5-bfa5-9e725399970b","system_id":"levelo_inurba_marseille","lat":43.24546,"lon":5.39524,"is_reserved":false,"is_disabled":false,"rental_uris":{"android":"levelo://app?vid=fe65ab9e-ef38-44f5-bfa5-9e725399970b","ios":"levelo://app?vid=fe65ab9e-ef38-44f5-bfa5-9e725399970b"},"vehicle_type_id":"4","last_reported":1679857488,"current_range_meters":0,"station_id":"","pricing_plan_id":"free"},{"bike_id":"1fde9e1d-5fd5-477c-9d4f-1dd57ba6b1b7","system_id":"levelo_inurba_marseille","lat":43.24076,"lon":5.37759,"is_reserved":false,"is_disabled":false,"rental_uris":{"android":"levelo://app?vid=1fde9e1d-5fd5-477c-9d4f-1dd57ba6b1b7","ios":"levelo://app?vid=1fde9e1d-5fd5-477c-9d4f-1dd57ba6b1b7"},"vehicle_type_id":"4","last_reported":1679857488,"current_range_meters":30400,"station_id":"ce4bhnp2rcd13ifvqgvg","pricing_plan_id":"free"},{"bike_id":"01390ef5-744a-40f2-a77b-906256da51e7","system_id":"levelo_inurba_marseille","lat":43.240623,"lon":5.377642,"is_reserved":false,"is_disabled":false,"rental_uris":{"android":"levelo://app?vid=01390ef5-744a-40f2-a77b-906256da51e7","ios":"levelo://app?vid=01390ef5-744a-40f2-a77b-906256da51e7"},"vehicle_type_id":"4","last_reported":1679857488,"current_range_meters":400,"station_id":"ce4bhnp2rcd13ifvqgvg","pricing_plan_id":"free"},{"bike_id":"99ec9591-689f-43c6-b4f0-94293b068ab3","system_id":"levelo_inurba_marseille","lat":43.243807,"lon":5.403062,"is_reserved":false,"is_disabled":false,"rental_uris":{"android":"levelo://app?vid=99ec9591-689f-43c6-b4f0-94293b068ab3","ios":"levelo://app?vid=99ec9591-689f-43c6-b4f0-94293b068ab3"},"vehicle_type_id":"4","last_reported":1679857488,"current_range_meters":11600,"station_id":"","pricing_plan_id":"free"},{"bike_id":"060a5c43-7ac9-4d27-b764-50b706d6f92c","system_id":"levelo_inurba_marseille","lat":43.241782,"lon":5.397264,"is_reserved":false,"is_disabled":false,"rental_uris":{"android":"levelo://app?vid=060a5c43-7ac9-4d27-b764-50b706d6f92c","ios":"levelo://app?vid=060a5c43-7ac9-4d27-b764-50b706d6f92c"},"vehicle_type_id":"4","last_reported":1679857488,"current_range_meters":12400,"station_id":"ce4bhn12rcd13ifvqgpg","pricing_plan_id":"free"},{"bike_id":"d90be3db-2000-4e04-a388-d792f5ae0cb3","system_id":"levelo_inurba_marseille","lat":43.241782,"lon":5.397264,"is_reserved":false,"is_disabled":false,"rental_uris":{"android":"levelo://app?vid=d90be3db-2000-4e04-a388-d792f5ae0cb3","ios":"levelo://app?vid=d90be3db-2000-4e04-a388-d792f5ae0cb3"},"vehicle_type_id":"4","last_reported":1679857488,"current_range_meters":400,"station_id":"ce4bhn12rcd13ifvqgpg","pricing_plan_id":"free"},{"bike_id":"12b9e0b7-199c-45f2-8c4f-e74fdb124d69","system_id":"levelo_inurba_marseille","lat":43.28463,"lon":5.48688,"is_reserved":false,"is_disabled":false,"rental_uris":{"android":"levelo://app?vid=12b9e0b7-199c-45f2-8c4f-e74fdb124d69","ios":"levelo://app?vid=12b9e0b7-199c-45f2-8c4f-e74fdb124d69"},"vehicle_type_id":"4","last_reported":1679857488,"current_range_meters":8000,"station_id":"","pricing_plan_id":"free"}]}}