{"last_updated":1726510292,"ttl":30,"version":"2.2","data":{"bikes":[{"bike_id":"466e085e-9b19-4cf6-9b6a-90b36c0cf150","system_id":"levelo_inurba_marseille","lat":43.26807,"lon":5.40268,"is_reserved":false,"is_disabled":false,"rental_uris":{"android":"levelo://app?vid=466e085e-9b19-4cf6-9b6a-90b36c0cf150","ios":"levelo://app?vid=466e085e-9b19-4cf6-9b6a-90b36c0cf150"},"vehicle_type_id":"4","last_reported":1726510293,"current_range_meters":27600,"station_id":"ce501612rcd8frsf0b60","pricing_plan_id":"cebpf4jnsgd1na2vs0mg"},{"bike_id":"94093477-d3cb-4d9b-bda9-bd54e8de9360","system_id":"levelo_inurba_marseille","lat":43.33017,"lon":5.39037,"is_reserved":false,"is_disabled":false,"rental_uris":{"android":"levelo://app?vid=94093477-d3cb-4d9b-bda9-bd54e8de9360","ios":"levelo://app?vid=94093477-d3cb-4d9b-bda9-bd54e8de9360"},"vehicle_type_id":"4","last_reported":1726510293,"current_range_meters":20400,"station_id":"ce4bhr92rcd13ifvqhrg","pricing_plan_id":"cebpf4jnsgd1na2vs0mg"},{"bike_id":"43176770-eaee-4996-86c7-d408161e4ce6","system_id":"levelo_inurba_marseille","lat":43.29895,"lon":5.4366,"is_reserved":false,"is_disabled":false,"rental_uris":{"android":"levelo://app?vid=43176770-eaee-4996-86c7-d408161e4ce6","ios":"levelo://app?vid=43176770-eaee-4996-86c7-d408161e4ce6"},"vehicle_type_id":"4","last_reported":1726510293,"current_range_meters":9600,"station_id":"ce4bhpp2rcd13ifvqhfg","pricing_plan_id":"cebpf4jnsgd1na2vs0mg"},{"bike_id":"e5112606-65bf-467e-8b52-703899d6fe1a","system_id":"levelo_inurba_marseille","lat":43.272,"lon":5.39187,"is_reserved":false,"is_disabled":false,"rental_uris":{"android":"levelo://app?vid=e5112606-65bf-467e-8b52-703899d6fe1a","ios":"levelo://app?vid=e5112606-65bf-467e-8b52-703899d6fe1a"},"vehicle_type_id":"4","last_reported":1726510293,"current_range_meters":22800,"station_id":"ce4bhhp2rcd13ifvqfm0","pricing_plan_id":"cebpf4jnsgd1na2vs0mg"},{"bike_id":"7e74ccf1-6e94-422c-bb3a-8867c576e37a","system_id":"levelo_inurba_marseille","lat":43.22929,"lon":5.35376,"is_reserved":false,"is_disabled":false,"rental_uris":{"android":"levelo://app?vid=7e74ccf1-6e94-422c-bb3a-8867c576e37a","ios":"levelo://app?vid=7e74ccf1-6e94-422c-bb3a-8867c576e37a"},"vehicle_type_id":"4","last_reported":1726510293,"current_range_meters":24400,"station_id":"cpo3532slgdg3j2ikp40","pricing_plan_id":"cebpf4jnsgd1na2vs0mg"},{"bike_id":"6180a616-5eb8-4776-9ef6-92ac4773a0ec","system_id":"levelo_inurba_marseille","lat":43.29573,"lon":5.39973,"is_reserved":false,"is_disabled":false,"rental_uris":{"android":"levelo://app?vid=6180a616-5eb8-4776-9ef6-92ac4773a0ec","ios":"levelo://app?vid=6180a616-5eb8-4776-9ef6-92ac4773a0ec"},"vehicle_type_id":"4","last_reported":1726510293,"current_range_meters":22000,"station_id":"ce4bh312rcd13ifvqdj0","pricing_plan_id":"cebpf4jnsgd1na2vs0mg"},{"bike_id":"13ec4916-f0ea-4897-8afc-596425b42c42","system_id":"levelo_inurba_marseille","lat":43.23183,"lon":5.35554,"is_reserved":false,"is_disabled":false,"rental_uris":{"android":"levelo://app?vid=13ec4916-f0ea-4897-8afc-596425b42c42","ios":"levelo://app?vid=13ec4916-f0ea-4897-8afc-596425b42c42"},"vehicle_type_id":"4","last_reported":1726510293,"current_range_meters":14400,"station_id":"ce4bhu92rcd13ifvqi70","pricing_plan_id":"cebpf4jnsgd1na2vs0mg"},{"bike_id":"76c2ad49-6301-48ff-bc82-807c296aea33","system_id":"levelo_inurba_marseille","lat":43.33025,"lon":5.39045,"is_reserved":false,"is_disabled":false,"rental_uris":{"android":"levelo://app?vid=76c2ad49-6301-48ff-bc82-807c296aea33","ios":"levelo://app?vid=76c2ad49-6301-48ff-bc82-807c296aea33"},"vehicle_type_id":"4","last_reported":1726510293,"current_range_meters":4000,"station_id":"ce4bhr92rcd13ifvqhrg","pricing_plan_id":"cebpf4jnsgd1na2vs0mg"},{"bike_id":"35b88061-5912-4aff-9e4e-e98380315a37","system_id":"levelo_inurba_marseille","lat":43.317084,"lon":5.377388,"is_reserved":false,"is_disabled":false,"rental_uris":{"android":"levelo://app?vid=35b88061-5912-4aff-9e4e-e98380315a37","ios":"levelo://app?vid=35b88061-5912-4aff-9e4e-e98380315a37"},"vehicle_type_id":"4","last_reported":1726510293,"current_range_meters":38800,"station_id":"ce4bgth2rcd13ifvqch0","pricing_plan_id":"cebpf4jnsgd1na2vs0mg"},{"bike_id":"e5a3b5b3-2320-4c4e-9f8b-9f6fa23846a7","system_id":"levelo_inurba_marseille","lat":43.317566,"lon":5.390173,"is_reserved":false,"is_disabled":false,"rental_uris":{"android":"levelo://app?vid=e5a3b5b3-2320-4c4e-9f8b-9f6fa23846a7","ios":"levelo://app?vid=e5a3b5b3-2320-4c4e-9f8b-9f6fa23846a7"},"vehicle_type_id":"4","last_reported":1726510293,"current_range_meters":6000,"station_id":"ce4bhqp2rcd13ifvqhng","pricing_plan_id":"cebpf4jnsgd1na2vs0mg"},{"bike_id":"20315a8b-1dbf-494b-864b-34c2bda04e85","system_id":"levelo_inurba_marseille","lat":43.26546,"lon":5.37289,"is_reserved":false,"is_disabled":false,"rental_uris":{"android":"levelo://app?vid=20315a8b-1dbf-494b-864b-34c2bda04e85","ios":"levelo://app?vid=20315a8b-1dbf-494b-864b-34c2bda04e85"},"vehicle_type_id":"4","last_reported":1726510293,"current_range_meters":8000,"station_id":"ce4bhg12rcd13ifvqf70","pricing_plan_id":"cebpf4jnsgd1na2vs0mg"},{"bike_id":"66a11e96-8394-4385-9cd5-65f3f9c28446","system_id":"levelo_inurba_marseille","lat":43.31756,"lon":5.39016,"is_reserved":false,"is_disabled":false,"rental_uris":{"android":"levelo://app?vid=66a11e96-8394-4385-9cd5-65f3f9c28446","ios":"levelo://app?vid=66a11e96-8394-4385-9cd5-65f3f9c28446"},"vehicle_type_id":"4","last_reported":1726510293,"current_range_meters":3600,"station_id":"ce4bhqp2rcd13ifvqhng","pricing_plan_id":"cebpf4jnsgd1na2vs0mg"},{"bike_id":"5abbdcbd-31d8-46d4-9d5b-85dee90c9a7e","system_id":"levelo_inurba_marseille","lat":43.31359,"lon":5.38494,"is_reserved":false,"is_disabled":false,"rental_uris":{"android":"levelo://app?vid=5abbdcbd-31d8-46d4-9d5b-85dee90c9a7e","ios":"levelo://app?vid=5abbdcbd-31d8-46d4-9d5b-85dee90c9a7e"},"vehicle_type_id":"4","last_reported":1726510293,"current_range_meters":13600,"station_id":"ce4bgt92rcd13ifvqcf0","pricing_plan_id":"cebpf4jnsgd1na2vs0mg"},{"bike_id":"d1f60ab0-256f-49ee-942a-761b0358a92c","system_id":"levelo_inurba_marseille","lat":43.27912,"lon":5.39578,"is_reserved":false,"is_disabled":false,"rental_uris":{"android":"levelo://app?vid=d1f60ab0-256f-49ee-942a-761b0358a92c","ios":"levelo://app?vid=d1f60ab0-256f-49ee-942a-761b0358a92c"},"vehicle_type_id":"4","last_reported":1726510293,"current_range_meters":25600,"station_id":"ce4bhf92rcd13ifvqf40","pricing_plan_id":"cebpf4jnsgd1na2vs0mg"},{"bike_id":"cd02defb-2284-4b6c-a2c1-6d264de4aed5","system_id":"levelo_inurba_marseille","lat":43.30182,"lon":5.3661,"is_reserved":false,"is_disabled":false,"rental_uris":{"android":"levelo://app?vid=cd02defb-2284-4b6c-a2c1-6d264de4aed5","ios":"levelo://app?vid=cd02defb-2284-4b6c-a2c1-6d264de4aed5"},"vehicle_type_id":"4","last_reported":1726510293,"current_range_meters":400,"station_id":"ce4bgrh2rcd13ifvqc8g","pricing_plan_id":"cebpf4jnsgd1na2vs0mg"},{"bike_id":"8420397d-a83c-4adc-9a3b-30db84a637f5","system_id":"levelo_inurba_marseille","lat":43.30929,"lon":5.40142,"is_reserved":false,"is_disabled":false,"rental_uris":{"android":"levelo://app?vid=8420397d-a83c-4adc-9a3b-30db84a637f5","ios":"levelo://app?vid=8420397d-a83c-4adc-9a3b-30db84a637f5"},"vehicle_type_id":"4","last_reported":1726510293,"current_range_meters":28800,"station_id":"ce4bgvp2rcd13ifvqct0","pricing_plan_id":"cebpf4jnsgd1na2vs0mg"},{"bike_id":"36ddff22-13de-412e-a3c9-4d9ef192cfe1","system_id":"levelo_inurba_marseille","lat":43.31878,"lon":5.40739,"is_reserved":false,"is_disabled":false,"rental_uris":{"android":"levelo://app?vid=36ddff22-13de-412e-a3c9-4d9ef192cfe1","ios":"levelo://app?vid=36ddff22-13de-412e-a3c9-4d9ef192cfe1"},"vehicle_type_id":"4","last_reported":1726510293,"current_range_meters":38800,"station_id":"ce4bhq12rcd13ifvqhig","pricing_plan_id":"cebpf4jnsgd1na2vs0mg"},{"bike_id":"2a5808e5-1612-4dc1-a62b-b9c71459256c","system_id":"levelo_inurba_marseille","lat":43.34085,"lon":5.39113,"is_reserved":false,"is_disabled":false,"rental_uris":{"android":"levelo://app?vid=2a5808e5-1612-4dc1-a62b-b9c71459256c","ios":"levelo://app?vid=2a5808e5-1612-4dc1-a62b-b9c71459256c"},"vehicle_type_id":"4","last_reported":1726510293,"current_range_meters":17600,"station_id":"","pricing_plan_id":"cebpf4jnsgd1na2vs0mg"},{"bike_id":"e75bdf37-6017-4dd9-8183-f2edc970ca06","system_id":"levelo_inurba_marseille","lat":43.23192,"lon":5.35557,"is_reserved":false,"is_disabled":false,"rental_uris":{"android":"levelo://app?vid=e75bdf37-6017-4dd9-8183-f2edc970ca06","ios":"levelo://app?vid=e75bdf37-6017-4dd9-8183-f2edc970ca06"},"vehicle_type_id":"4","last_reported":1726510293,"current_range_meters":34800,"station_id":"ce4bhu92rcd13ifvqi70","pricing_plan_id":"cebpf4jnsgd1na2vs0mg"},{"bike_id":"41373f46-df70-4058-8a3b-c065c3277ad4","system_id":"levelo_inurba_marseille","lat":43.299683,"lon":5.384907,"is_reserved":false,"is_disabled":false,"rental_uris":{"android":"levelo://app?vid=41373f46-df70-4058-8a3b-c065c3277ad4","ios":"levelo://app?vid=41373f46-df70-4058-8a3b-c065c3277ad4"},"vehicle_type_id":"4","last_reported":1726510293,"current_range_meters":9200,"station_id":"ce4bgj92rcd13ifvqbd0","pricing_plan_id":"cebpf4jnsgd1na2vs0mg"},{"bike_id":"fd68a8a3-0814-4beb-84ce-2b3f872e5921","system_id":"levelo_inurba_marseille","lat":43.29863,"lon":5.39743,"is_reserved":false,"is_disabled":false,"rental_uris":{"android":"levelo://app?vid=fd68a8a3-0814-4beb-84ce-2b3f872e5921","ios":"levelo://app?vid=fd68a8a3-0814-4beb-84ce-2b3f872e5921"},"vehicle_type_id":"4","last_reported":1726510293,"current_range_meters":38800,"station_id":"ce4bh0h2rcd13ifvqd50","pricing_plan_id":"cebpf4jnsgd1na2vs0mg"},{"bike_id":"f8d8f13f-4c4f-4493-bb97-c0ff3d353c4f","system_id":"levelo_inurba_marseille","lat":43.289276,"lon":5.383853,"is_reserved":false,"is_disabled":false,"rental_uris":{"android":"levelo://app?vid=f8d8f13f-4c4f-4493-bb97-c0ff3d353c4f","ios":"levelo://app?vid=f8d8f13f-4c4f-4493-bb97-c0ff3d353c4f"},"vehicle_type_id":"4","last_reported":1726510293,"current_range_meters":35600,"station_id":"ce4bh612rcd13ifvqe6g","pricing_plan_id":"cebpf4jnsgd1na2vs0mg"},{"bike_id":"d8e51abb-ebe8-4506-8440-8a913b57a1c5","system_id":"levelo_inurba_marseille","lat":43.292562,"lon":5.409137,"is_reserved":false,"is_disabled":false,"rental_uris":{"android":"levelo://app?vid=d8e51abb-ebe8-4506-8440-8a913b57a1c5","ios":"levelo://app?vid=d8e51abb-ebe8-4506-8440-8a913b57a1c5"},"vehicle_type_id":"4","last_reported":1726510293,"current_range_meters":4800,"station_id":"ce4bgip2rcd13ifvqbb0","pricing_plan_id":"cebpf4jnsgd1na2vs0mg"},{"bike_id":"a6807785-57d0-46bf-85f5-175851947e4e","system_id":"levelo_inurba_marseille","lat":43.27811,"lon":5.40714,"is_reserved":false,"is_disabled":false,"rental_uris":{"android":"levelo://app?vid=a6807785-57d0-46bf-85f5-175851947e4e","ios":"levelo://app?vid=a6807785-57d0-46bf-85f5-175851947e4e"},"vehicle_type_id":"4","last_reported":1726510293,"current_range_meters":5600,"station_id":"ce4bhnh2rcd13ifvqgtg","pricing_plan_id":"cebpf4jnsgd1na2vs0mg"},{"bike_id":"b4f2cfd6-8aa6-42e6-8926-4c7d5a7e9b9a","system_id":"levelo_inurba_marseille","lat":43.30798,"lon":5.38169,"is_reserved":false,"is_disabled":false,"rental_uris":{"android":"levelo://app?vid=b4f2cfd6-8aa6-42e6-8926-4c7d5a7e9b9a","ios":"levelo://app?vid=b4f2cfd6-8aa6-42e6-8926-4c7d5a7e9b9a"},"vehicle_type_id":"4","last_reported":1726510293,"current_range_meters":24400,"station_id":"ce4bgt12rcd13ifvqce0","pricing_plan_id":"cebpf4jnsgd1na2vs0mg"},{"bike_id":"ee274c91-e641-41d2-9ad2-cdf3de04c71a","system_id":"levelo_inurba_marseille","lat":43.24179,"lon":5.39737,"is_reserved":false,"is_disabled":false,"rental_uris":{"android":"levelo://app?vid=ee274c91-e641-41d2-9ad2-cdf3de04c71a","ios":"levelo://app?vid=ee274c91-e641-41d2-9ad2-cdf3de04c71a"},"vehicle_type_id":"4","last_reported":1726510293,"current_range_meters":10000,"station_id":"ce4bhn12rcd13ifvqgpg","pricing_plan_id":"cebpf4jnsgd1na2vs0mg"},{"bike_id":"acafaf94-9aa2-4cda-b4b3-76f278ae5310","system_id":"levelo_inurba_marseille","lat":43.24808,"lon":5.37458,"is_reserved":false,"is_disabled":false,"rental_uris":{"android":"levelo://app?vid=acafaf94-9aa2-4cda-b4b3-76f278ae5310","ios":"levelo://app?vid=acafaf94-9aa2-4cda-b4b3-76f278ae5310"},"vehicle_type_id":"4","last_reported":1726510293,"current_range_meters":9200,"station_id":"ce4bhgh2rcd13ifvqfb0","pricing_plan_id":"cebpf4jnsgd1na2vs0mg"},{"bike_id":"8e7d9e50-f8bd-4f0f-86eb-5e55e3240436","system_id":"levelo_inurba_marseille","lat":43.27992,"lon":5.40023,"is_reserved":false,"is_disabled":false,"rental_uris":{"android":"levelo://app?vid=8e7d9e50-f8bd-4f0f-86eb-5e55e3240436","ios":"levelo://app?vid=8e7d9e50-f8bd-4f0f-86eb-5e55e3240436"},"vehicle_type_id":"4","last_reported":1726510293,"current_range_meters":28000,"station_id":"ce4bho92rcd13ifvqh4g","pricing_plan_id":"cebpf4jnsgd1na2vs0mg"},{"bike_id":"5961145c-0379-42e3-8026-979ca535d647","system_id":"levelo_inurba_marseille","lat":43.30924,"lon":5.40144,"is_reserved":false,"is_disabled":false,"rental_uris":{"android":"levelo://app?vid=5961145c-0379-42e3-8026-979ca535d647","ios":"levelo://app?vid=5961145c-0379-42e3-8026-979ca535d647"},"vehicle_type_id":"4","last_reported":1726510293,"current_range_meters":9600,"station_id":"ce4bgvp2rcd13ifvqct0","pricing_plan_id":"cebpf4jnsgd1na2vs0mg"},{"bike_id":"d7a02890-c1ea-4111-8a72-e0565cc94594","system_id":"levelo_inurba_marseille","lat":43.30326,"lon":5.40439,"is_reserved":false,"is_disabled":false,"rental_uris":{"android":"levelo://app?vid=d7a02890-c1ea-4111-8a72-e0565cc94594","ios":"levelo://app?vid=d7a02890-c1ea-4111-8a72-e0565cc94594"},"vehicle_type_id":"4","last_reported":1726510293,"current_range_meters":38800,"station_id":"ce4bh012rcd13ifvqd10","pricing_plan_id":"cebpf4jnsgd1na2vs0mg"},{"bike_id":"1d21fa07-66b5-43da-a914-0a762c87663b","system_id":"levelo_inurba_marseille","lat":43.29517,"lon":5.39043,"is_reserved":false,"is_disabled":false,"rental_uris":{"android":"levelo://app?vid=1d21fa07-66b5-43da-a914-0a762c87663b","ios":"levelo://app?vid=1d21fa07-66b5-43da-a914-0a762c87663b"},"vehicle_type_id":"4","last_reported":1726510293,"current_range_meters":20800,"station_id":"ce4bh3p2rcd13ifvqdp0","pricing_plan_id":"cebpf4jnsgd1na2vs0mg"},{"bike_id":"2f7504c4-7bb9-4251-8dc3-14592ce22ff7","system_id":"levelo_inurba_marseille","lat":43.28353,"lon":5.38105,"is_reserved":false,"is_disabled":false,"rental_uris":{"android":"levelo://app?vid=2f7504c4-7bb9-4251-8dc3-14592ce22ff7","ios":"levelo://app?vid=2f7504c4-7bb9-4251-8dc3-14592ce22ff7"},"vehicle_type_id":"4","last_reported":1726510293,"current_range_meters":25600,"station_id":"ce4bh412rcd13ifvqdr0","pricing_plan_id":"cebpf4jnsgd1na2vs0mg"},{"bike_id":"f409a27c-3291-4d9b-ac57-9e74e75d80d1","system_id":"levelo_inurba_marseille","lat":43.32363,"lon":5.38879,"is_reserved":false,"is_disabled":false,"rental_uris":{"android":"levelo://app?vid=f409a27c-3291-4d9b-ac57-9e74e75d80d1","ios":"levelo://app?vid=f409a27c-3291-4d9b-ac57-9e74e75d80d1"},"vehicle_type_id":"4","last_reported":1726510293,"current_range_meters":18800,"station_id":"ce4bhqp2rcd13ifvqhog","pricing_plan_id":"cebpf4jnsgd1na2vs0mg"},{"bike_id":"b66e36b7-1654-40c4-9a73-880cf57c8eec","system_id":"levelo_inurba_marseille","lat":43.28459,"lon":5.35883,"is_reserved":false,"is_disabled":false,"rental_uris":{"android":"levelo://app?vid=b66e36b7-1654-40c4-9a73-880cf57c8eec","ios":"levelo://app?vid=b66e36b7-1654-40c4-9a73-880cf57c8eec"},"vehicle_type_id":"4","last_reported":1726510293,"current_range_meters":29600,"station_id":"ce4bhah2rcd13ifvqei0","pricing_plan_id":"cebpf4jnsgd1na2vs0mg"},{"bike_id":"4eb4ae0a-58d4-4b0e-b621-3f0553d4aae5","system_id":"levelo_inurba_marseille","lat":43.31277,"lon":5.4017,"is_reserved":false,"is_disabled":false,"rental_uris":{"android":"levelo://app?vid=4eb4ae0a-58d4-4b0e-b621-3f0553d4aae5","ios":"levelo://app?vid=4eb4ae0a-58d4-4b0e-b621-3f0553d4aae5"},"vehicle_type_id":"4","last_reported":1726510293,"current_range_meters":38800,"station_id":"ce4bh092rcd13ifvqd30","pricing_plan_id":"cebpf4jnsgd1na2vs0mg"},{"bike_id":"c7f93bf2-2b30-4c5c-aa72-447b3f4a28ea","system_id":"levelo_inurba_marseille","lat":43.29896,"lon":5.43662,"is_reserved":false,"is_disabled":false,"rental_uris":{"android":"levelo://app?vid=c7f93bf2-2b30-4c5c-aa72-447b3f4a28ea","ios":"levelo://app?vid=c7f93bf2-2b30-4c5c-aa72-447b3f4a28ea"},"vehicle_type_id":"4","last_reported":1726510293,"current_range_meters":13600,"station_id":"ce4bhpp2rcd13ifvqhfg","pricing_plan_id":"cebpf4jnsgd1na2vs0mg"},{"bike_id":"2ea39ac9-d917-4a6d-991a-7c46fff629cb","system_id":"levelo_inurba_marseille","lat":43.25577,"lon":5.38225,"is_reserved":false,"is_disabled":false,"rental_uris":{"android":"levelo://app?vid=2ea39ac9-d917-4a6d-991a-7c46fff629cb","ios":"levelo://app?vid=2ea39ac9-d917-4a6d-991a-7c46fff629cb"},"vehicle_type_id":"4","last_reported":1726510293,"current_range_meters":24800,"station_id":"ce4bhih2rcd13ifvqfs0","pricing_plan_id":"cebpf4jnsgd1na2vs0mg"},{"bike_id":"26db0265-0a91-4c66-8aa8-67a94f7eef0d","system_id":"levelo_inurba_marseille","lat":43.26941,"lon":5.40056,"is_reserved":false,"is_disabled":false,"rental_uris":{"android":"levelo://app?vid=26db0265-0a91-4c66-8aa8-67a94f7eef0d","ios":"levelo://app?vid=26db0265-0a91-4c66-8aa8-67a94f7eef0d"},"vehicle_type_id":"4","last_reported":1726510293,"current_range_meters":2800,"station_id":"","pricing_plan_id":"cebpf4jnsgd1na2vs0mg"},{"bike_id":"37bc5c67-49da-4277-adbf-7cf9bd4cee1c","system_id":"levelo_inurba_marseille","lat":43.3116,"lon":5.38723,"is_reserved":false,"is_disabled":false,"rental_uris":{"android":"levelo://app?vid=37bc5c67-49da-4277-adbf-7cf9bd4cee1c","ios":"levelo://app?vid=37bc5c67-49da-4277-adbf-7cf9bd4cee1c"},"vehicle_type_id":"4","last_reported":1726510293,"current_range_meters":38800,"station_id":"ce4bh612rcd13ifvqe6g","pricing_plan_id":"cebpf4jnsgd1na2vs0mg"},{"bike_id":"c3d6b649-15e3-4bba-8167-f82ba135df07","system_id":"levelo_inurba_marseille","lat":43.30925,"lon":5.40149,"is_reserved":false,"is_disabled":false,"rental_uris":{"android":"levelo://app?vid=c3d6b649-15e3-4bba-8167-f82ba135df07","ios":"levelo://app?vid=c3d6b649-15e3-4bba-8167-f82ba135df07"},"vehicle_type_id":"4","last_reported":1726510293,"current_range_meters":36800,"station_id":"ce4bgvp2rcd13ifvqct0","pricing_plan_id":"cebpf4jnsgd1na2vs0mg"},{"bike_id":"75f414ef-dead-4117-8b36-2c250f77c270","system_id":"levelo_inurba_marseille","lat":43.30931,"lon":5.40148,"is_reserved":false,"is_disabled":false,"rental_uris":{"android":"levelo://app?vid=75f414ef-dead-4117-8b36-2c250f77c270","ios":"levelo://app?vid=75f414ef-dead-4117-8b36-2c250f77c270"},"vehicle_type_id":"4","last_reported":1726510293,"current_range_meters":38800,"station_id":"ce4bgvp2rcd13ifvqct0","pricing_plan_id":"cebpf4jnsgd1na2vs0mg"},{"bike_id":"3ad991c0-46d9-4d17-8fb3-e78855f41bee","system_id":"levelo_inurba_marseille","lat":43.286785,"lon":5.386546,"is_reserved":false,"is_disabled":false,"rental_uris":{"android":"levelo://app?vid=3ad991c0-46d9-4d17-8fb3-e78855f41bee","ios":"levelo://app?vid=3ad991c0-46d9-4d17-8fb3-e78855f41bee"},"vehicle_type_id":"4","last_reported":1726510293,"current_range_meters":14000,"station_id":"ce4bgh92rcd13ifvqb50","pricing_plan_id":"cebpf4jnsgd1na2vs0mg"},{"bike_id":"5e4102d2-53ef-4917-a176-fc7602dbcc11","system_id":"levelo_inurba_marseille","lat":43.23178,"lon":5.39989,"is_reserved":false,"is_disabled":false,"rental_uris":{"android":"levelo://app?vid=5e4102d2-53ef-4917-a176-fc7602dbcc11","ios":"levelo://app?vid=5e4102d2-53ef-4917-a176-fc7602dbcc11"},"vehicle_type_id":"4","last_reported":1726510293,"current_range_meters":3200,"station_id":"ce4bhn12rcd13ifvqgqg","pricing_plan_id":"cebpf4jnsgd1na2vs0mg"},{"bike_id":"4153cc51-d4e8-4e56-a8fd-c1a04ecf3fa7","system_id":"levelo_inurba_marseille","lat":43.2995,"lon":5.4133,"is_reserved":false,"is_disabled":false,"rental_uris":{"android":"levelo://app?vid=4153cc51-d4e8-4e56-a8fd-c1a04ecf3fa7","ios":"levelo://app?vid=4153cc51-d4e8-4e56-a8fd-c1a04ecf3fa7"},"vehicle_type_id":"4","last_reported":1726510293,"current_range_meters":33600,"station_id":"ce4bhp12rcd13ifvqh9g","pricing_plan_id":"cebpf4jnsgd1na2vs0mg"},{"bike_id":"76eeb6bb-047a-4f3b-99ab-0e1ecc93d053","system_id":"levelo_inurba_marseille","lat":43.29063,"lon":5.3592,"is_reserved":false,"is_disabled":false,"rental_uris":{"android":"levelo://app?vid=76eeb6bb-047a-4f3b-99ab-0e1ecc93d053","ios":"levelo://app?vid=76eeb6bb-047a-4f3b-99ab-0e1ecc93d053"},"vehicle_type_id":"4","last_reported":1726510293,"current_range_meters":7200,"station_id":"ce4bha92rcd13ifvqeg0","pricing_plan_id":"cebpf4jnsgd1na2vs0mg"},{"bike_id":"f3c3b9d0-0ccb-4784-8379-b25b85e09b30","system_id":"levelo_inurba_marseille","lat":43.31678,"lon":5.40467,"is_reserved":false,"is_disabled":false,"rental_uris":{"android":"levelo://app?vid=f3c3b9d0-0ccb-4784-8379-b25b85e09b30","ios":"levelo://app?vid=f3c3b9d0-0ccb-4784-8379-b25b85e09b30"},"vehicle_type_id":"4","last_reported":1726510293,"current_range_meters":2000,"station_id":"ce4bh012rcd13ifvqd00","pricing_plan_id":"cebpf4jnsgd1na2vs0mg"},{"bike_id":"8cb592d9-f82f-4171-894f-8d7ffa6525e5","system_id":"levelo_inurba_marseille","lat":43.23197,"lon":5.35547,"is_reserved":false,"is_disabled":false,"rental_uris":{"android":"levelo://app?vid=8cb592d9-f82f-4171-894f-8d7ffa6525e5","ios":"levelo://app?vid=8cb592d9-f82f-4171-894f-8d7ffa6525e5"},"vehicle_type_id":"4","last_reported":1726510293,"current_range_meters":24400,"station_id":"ce4bhu92rcd13ifvqi70","pricing_plan_id":"cebpf4jnsgd1na2vs0mg"},{"bike_id":"e8577ff1-e7d5-4bd8-af09-a820a63b8b50","system_id":"levelo_inurba_marseille","lat":43.33016,"lon":5.39056,"is_reserved":false,"is_disabled":false,"rental_uris":{"android":"levelo://app?vid=e8577ff1-e7d5-4bd8-af09-a820a63b8b50","ios":"levelo://app?vid=e8577ff1-e7d5-4bd8-af09-a820a63b8b50"},"vehicle_type_id":"4","last_reported":1726510293,"current_range_meters":18800,"station_id":"ce4bhr92rcd13ifvqhrg","pricing_plan_id":"cebpf4jnsgd1na2vs0mg"},{"bike_id":"18d4f861-7101-4587-ba20-193e38e742cf","system_id":"levelo_inurba_marseille","lat":43.28402,"lon":5.34981,"is_reserved":false,"is_disabled":false,"rental_uris":{"android":"levelo://app?vid=18d4f861-7101-4587-ba20-193e38e742cf","ios":"levelo://app?vid=18d4f861-7101-4587-ba20-193e38e742cf"},"vehicle_type_id":"4","last_reported":1726510293,"current_range_meters":38400,"station_id":"ce4bhbh2rcd13ifvqepg","pricing_plan_id":"cebpf4jnsgd1na2vs0mg"},{"bike_id":"20a4a91d-8541-4958-9b2e-4e75165c8a2a","system_id":"levelo_inurba_marseille","lat":43.30792,"lon":5.43526,"is_reserved":false,"is_disabled":false,"rental_uris":{"android":"levelo://app?vid=20a4a91d-8541-4958-9b2e-4e75165c8a2a","ios":"levelo://app?vid=20a4a91d-8541-4958-9b2e-4e75165c8a2a"},"vehicle_type_id":"4","last_reported":1726510293,"current_range_meters":18000,"station_id":"ce4bhph2rcd13ifvqheg","pricing_plan_id":"cebpf4jnsgd1na2vs0mg"},{"bike_id":"884ce34f-311b-4b7f-b1aa-154556a00ef7","system_id":"levelo_inurba_marseille","lat":43.30138,"lon":5.3742,"is_reserved":false,"is_disabled":false,"rental_uris":{"android":"levelo://app?vid=884ce34f-311b-4b7f-b1aa-154556a00ef7","ios":"levelo://app?vid=884ce34f-311b-4b7f-b1aa-154556a00ef7"},"vehicle_type_id":"4","last_reported":1726510293,"current_range_meters":0,"station_id":"ce4bgs92rcd13ifvqcc0","pricing_plan_id":"cebpf4jnsgd1na2vs0mg"},{"bike_id":"238d1829-b979-4346-84b5-3eafa0d79267","system_id":"levelo_inurba_marseille","lat":43.31718,"lon":5.42411,"is_reserved":false,"is_disabled":false,"rental_uris":{"android":"levelo://app?vid=238d1829-b979-4346-84b5-3eafa0d79267","ios":"levelo://app?vid=238d1829-b979-4346-84b5-3eafa0d79267"},"vehicle_type_id":"4","last_reported":1726510293,"current_range_meters":38000,"station_id":"ce4bhp92rcd13ifvqhbg","pricing_plan_id":"cebpf4jnsgd1na2vs0mg"},{"bike_id":"734ba24e-3529-4117-a6a2-d42732aa7fe8","system_id":"levelo_inurba_marseille","lat":43.30144,"lon":5.38783,"is_reserved":false,"is_disabled":false,"rental_uris":{"android":"levelo://app?vid=734ba24e-3529-4117-a6a2-d42732aa7fe8","ios":"levelo://app?vid=734ba24e-3529-4117-a6a2-d42732aa7fe8"},"vehicle_type_id":"4","last_reported":1726510293,"current_range_meters":4000,"station_id":"ce4bghh2rcd13ifvqb60","pricing_plan_id":"cebpf4jnsgd1na2vs0mg"},{"bike_id":"6fcb0470-5b2d-4c1d-8d35-ccfb07e79374","system_id":"levelo_inurba_marseille","lat":43.31324,"lon":5.39692,"is_reserved":false,"is_disabled":false,"rental_uris":{"android":"levelo://app?vid=6fcb0470-5b2d-4c1d-8d35-ccfb07e79374","ios":"levelo://app?vid=6fcb0470-5b2d-4c1d-8d35-ccfb07e79374"},"vehicle_type_id":"4","last_reported":1726510293,"current_range_meters":39200,"station_id":"ce4bgvp2rcd13ifvqcu0","pricing_plan_id":"cebpf4jnsgd1na2vs0mg"},{"bike_id":"e5b041ad-649d-4aa9-9539-d3f562b93cbb","system_id":"levelo_inurba_marseille","lat":43.33021,"lon":5.39051,"is_reserved":false,"is_disabled":false,"rental_uris":{"android":"levelo://app?vid=e5b041ad-649d-4aa9-9539-d3f562b93cbb","ios":"levelo://app?vid=e5b041ad-649d-4aa9-9539-d3f562b93cbb"},"vehicle_type_id":"4","last_reported":1726510293,"current_range_meters":30400,"station_id":"ce4bhr92rcd13ifvqhrg","pricing_plan_id":"cebpf4jnsgd1na2vs0mg"},{"bike_id":"b1db6496-7d7b-4acc-a88c-e5406d38e100","system_id":"levelo_inurba_marseille","lat":43.23192,"lon":5.35557,"is_reserved":false,"is_disabled":false,"rental_uris":{"android":"levelo://app?vid=b1db6496-7d7b-4acc-a88c-e5406d38e100","ios":"levelo://app?vid=b1db6496-7d7b-4acc-a88c-e5406d38e100"},"vehicle_type_id":"4","last_reported":1726510293,"current_range_meters":30400,"station_id":"ce4bhu92rcd13ifvqi70","pricing_plan_id":"cebpf4jnsgd1na2vs0mg"},{"bike_id":"e458fa1c-1f23-496d-a562-e9e9eccb352b","system_id":"levelo_inurba_marseille","lat":43.27491,"lon":5.42453,"is_reserved":false,"is_disabled":false,"rental_uris":{"android":"levelo://app?vid=e458fa1c-1f23-496d-a562-e9e9eccb352b","ios":"levelo://app?vid=e458fa1c-1f23-496d-a562-e9e9eccb352b"},"vehicle_type_id":"4","last_reported":1726510293,"current_range_meters":29600,"station_id":"ce4bhn92rcd13ifvqgrg","pricing_plan_id":"cebpf4jnsgd1na2vs0mg"},{"bike_id":"2efc6f4a-afde-4e30-a1a4-d3b871aa5532","system_id":"levelo_inurba_marseille","lat":43.258667,"lon":5.398944,"is_reserved":false,"is_disabled":false,"rental_uris":{"android":"levelo://app?vid=2efc6f4a-afde-4e30-a1a4-d3b871aa5532","ios":"levelo://app?vid=2efc6f4a-afde-4e30-a1a4-d3b871aa5532"},"vehicle_type_id":"4","last_reported":1726510293,"current_range_meters":18000,"station_id":"ce4bhl92rcd13ifvqghg","pricing_plan_id":"cebpf4jnsgd1na2vs0mg"},{"bike_id":"e4682088-2317-4692-89a5-d1d5bfa0439f","system_id":"levelo_inurba_marseille","lat":43.29305,"lon":5.3717,"is_reserved":false,"is_disabled":false,"rental_uris":{"android":"levelo://app?vid=e4682088-2317-4692-89a5-d1d5bfa0439f","ios":"levelo://app?vid=e4682088-2317-4692-89a5-d1d5bfa0439f"},"vehicle_type_id":"4","last_reported":1726510293,"current_range_meters":7200,"station_id":"ce4bgh92rcd13ifvqb40","pricing_plan_id":"cebpf4jnsgd1na2vs0mg"},{"bike_id":"4bc34e93-9109-44f3-a01e-0cc66bf5a4c1","system_id":"levelo_inurba_marseille","lat":43.28932,"lon":5.36395,"is_reserved":false,"is_disabled":false,"rental_uris":{"android":"levelo://app?vid=4bc34e93-9109-44f3-a01e-0cc66bf5a4c1","ios":"levelo://app?vid=4bc34e93-9109-44f3-a01e-0cc66bf5a4c1"},"vehicle_type_id":"4","last_reported":1726510293,"current_range_meters":11200,"station_id":"ce4bhc92rcd13ifvqetg","pricing_plan_id":"cebpf4jnsgd1na2vs0mg"},{"bike_id":"5cf4c2f1-f092-4550-b8cf-369099ebc3bc","system_id":"levelo_inurba_marseille","lat":43.2456,"lon":5.41552,"is_reserved":false,"is_disabled":false,"rental_uris":{"android":"levelo://app?vid=5cf4c2f1-f092-4550-b8cf-369099ebc3bc","ios":"levelo://app?vid=5cf4c2f1-f092-4550-b8cf-369099ebc3bc"},"vehicle_type_id":"4","last_reported":1726510293,"current_range_meters":7200,"station_id":"ce4bhlh2rcd13ifvqgig","pricing_plan_id":"cebpf4jnsgd1na2vs0mg"},{"bike_id":"778ff5a1-c856-4f64-b7b8-0aa154b5139a","system_id":"levelo_inurba_marseille","lat":43.28,"lon":5.40009,"is_reserved":false,"is_disabled":false,"rental_uris":{"android":"levelo://app?vid=778ff5a1-c856-4f64-b7b8-0aa154b5139a","ios":"levelo://app?vid=778ff5a1-c856-4f64-b7b8-0aa154b5139a"},"vehicle_type_id":"4","last_reported":1726510293,"current_range_meters":6000,"station_id":"ce4bho92rcd13ifvqh4g","pricing_plan_id":"cebpf4jnsgd1na2vs0mg"},{"bike_id":"53e77d41-6f29-4793-b390-d72257675886","system_id":"levelo_inurba_marseille","lat":43.31222,"lon":5.36864,"is_reserved":false,"is_disabled":false,"rental_uris":{"android":"levelo://app?vid=53e77d41-6f29-4793-b390-d72257675886","ios":"levelo://app?vid=53e77d41-6f29-4793-b390-d72257675886"},"vehicle_type_id":"4","last_reported":1726510293,"current_range_meters":10000,"station_id":"ce4bgl92rcd13ifvqbq0","pricing_plan_id":"cebpf4jnsgd1na2vs0mg"},{"bike_id":"b645ac77-0d58-4fa9-8ad3-947af8bdb1d9","system_id":"levelo_inurba_marseille","lat":43.29897,"lon":5.43671,"is_reserved":false,"is_disabled":false,"rental_uris":{"android":"levelo://app?vid=b645ac77-0d58-4fa9-8ad3-947af8bdb1d9","ios":"levelo://app?vid=b645ac77-0d58-4fa9-8ad3-947af8bdb1d9"},"vehicle_type_id":"4","last_reported":1726510293,"current_range_meters":28000,"station_id":"ce4bhpp2rcd13ifvqhfg","pricing_plan_id":"cebpf4jnsgd1na2vs0mg"},{"bike_id":"b45cf04c-f834-44b4-9515-8d6f17b3efbe","system_id":"levelo_inurba_marseille","lat":43.295105,"lon":5.388979,"is_reserved":false,"is_disabled":false,"rental_uris":{"android":"levelo://app?vid=b45cf04c-f834-44b4-9515-8d6f17b3efbe","ios":"levelo://app?vid=b45cf04c-f834-44b4-9515-8d6f17b3efbe"},"vehicle_type_id":"4","last_reported":1726510293,"current_range_meters":32800,"station_id":"ce4bh3p2rcd13ifvqdp0","pricing_plan_id":"cebpf4jnsgd1na2vs0mg"},{"bike_id":"f8bacb80-e453-4a18-9d70-ff343eb7cf84","system_id":"levelo_inurba_marseille","lat":43.33026,"lon":5.39046,"is_reserved":false,"is_disabled":false,"rental_uris":{"android":"levelo://app?vid=f8bacb80-e453-4a18-9d70-ff343eb7cf84","ios":"levelo://app?vid=f8bacb80-e453-4a18-9d70-ff343eb7cf84"},"vehicle_type_id":"4","last_reported":1726510293,"current_range_meters":8800,"station_id":"ce4bhr92rcd13ifvqhrg","pricing_plan_id":"cebpf4jnsgd1na2vs0mg"},{"bike_id":"7abc2a25-404a-4f70-a7c0-c89315b5c4bc","system_id":"levelo_inurba_marseille","lat":43.30939,"lon":5.40314,"is_reserved":false,"is_disabled":false,"rental_uris":{"android":"levelo://app?vid=7abc2a25-404a-4f70-a7c0-c89315b5c4bc","ios":"levelo://app?vid=7abc2a25-404a-4f70-a7c0-c89315b5c4bc"},"vehicle_type_id":"4","last_reported":1726510293,"current_range_meters":25600,"station_id":"","pricing_plan_id":"cebpf4jnsgd1na2vs0mg"},{"bike_id":"942bdd64-f200-44ac-a610-985ce2109e95","system_id":"levelo_inurba_marseille","lat":43.28663,"lon":5.36357,"is_reserved":false,"is_disabled":false,"rental_uris":{"android":"levelo://app?vid=942bdd64-f200-44ac-a610-985ce2109e95","ios":"levelo://app?vid=942bdd64-f200-44ac-a610-985ce2109e95"},"vehicle_type_id":"4","last_reported":1726510293,"current_range_meters":8800,"station_id":"ce4bhah2rcd13ifvqej0","pricing_plan_id":"cebpf4jnsgd1na2vs0mg"},{"bike_id":"677498c9-746b-4650-9a8e-2c7479635944","system_id":"levelo_inurba_marseille","lat":43.33022,"lon":5.3905,"is_reserved":false,"is_disabled":false,"rental_uris":{"android":"levelo://app?vid=677498c9-746b-4650-9a8e-2c7479635944","ios":"levelo://app?vid=677498c9-746b-4650-9a8e-2c7479635944"},"vehicle_type_id":"4","last_reported":1726510293,"current_range_meters":26000,"station_id":"ce4bhr92rcd13ifvqhrg","pricing_plan_id":"cebpf4jnsgd1na2vs0mg"},{"bike_id":"f49b9997-05df-4280-aea3-aa321ca78ebc","system_id":"levelo_inurba_marseille","lat":43.2815,"lon":5.42647,"is_reserved":false,"is_disabled":false,"rental_uris":{"android":"levelo://app?vid=f49b9997-05df-4280-aea3-aa321ca78ebc","ios":"levelo://app?vid=f49b9997-05df-4280-aea3-aa321ca78ebc"},"vehicle_type_id":"4","last_reported":1726510293,"current_range_meters":4000,"station_id":"ce4bhnh2rcd13ifvqgug","pricing_plan_id":"cebpf4jnsgd1na2vs0mg"},{"bike_id":"28ba0773-94d1-4be9-b073-5e23edd0caec","system_id":"levelo_inurba_marseille","lat":43.30348,"lon":5.41885,"is_reserved":false,"is_disabled":false,"rental_uris":{"android":"levelo://app?vid=28ba0773-94d1-4be9-b073-5e23edd0caec","ios":"levelo://app?vid=28ba0773-94d1-4be9-b073-5e23edd0caec"},"vehicle_type_id":"4","last_reported":1726510293,"current_range_meters":2800,"station_id":"ce4bhop2rcd13ifvqh7g","pricing_plan_id":"cebpf4jnsgd1na2vs0mg"},{"bike_id":"a09b8657-3298-4390-8dd5-f622909fc3da","system_id":"levelo_inurba_marseille","lat":43.31066,"lon":5.40091,"is_reserved":false,"is_disabled":false,"rental_uris":{"android":"levelo://app?vid=a09b8657-3298-4390-8dd5-f622909fc3da","ios":"levelo://app?vid=a09b8657-3298-4390-8dd5-f622909fc3da"},"vehicle_type_id":"4","last_reported":1726510293,"current_range_meters":38800,"station_id":"","pricing_plan_id":"cebpf4jnsgd1na2vs0mg"},{"bike_id":"45bf3c02-840b-4e76-9e39-9c6411b3fc4c","system_id":"levelo_inurba_marseille","lat":43.23955,"lon":5.3663,"is_reserved":false,"is_disabled":false,"rental_uris":{"android":"levelo://app?vid=45bf3c02-840b-4e76-9e39-9c6411b3fc4c","ios":"levelo://app?vid=45bf3c02-840b-4e76-9e39-9c6411b3fc4c"},"vehicle_type_id":"4","last_reported":1726510293,"current_range_meters":24400,"station_id":"ce4bhi12rcd13ifvqfp0","pricing_plan_id":"cebpf4jnsgd1na2vs0mg"},{"bike_id":"ff14788f-72d6-418f-a0c9-26698df03a52","system_id":"levelo_inurba_marseille","lat":43.306793,"lon":5.394741,"is_reserved":false,"is_disabled":false,"rental_uris":{"android":"levelo://app?vid=ff14788f-72d6-418f-a0c9-26698df03a52","ios":"levelo://app?vid=ff14788f-72d6-418f-a0c9-26698df03a52"},"vehicle_type_id":"4","last_reported":1726510293,"current_range_meters":34000,"station_id":"ce4bh012rcd13ifvqcv0","pricing_plan_id":"cebpf4jnsgd1na2vs0mg"},{"bike_id":"132c9a95-1852-4d87-b5f4-b638587c4830","system_id":"levelo_inurba_marseille","lat":43.24659,"lon":5.38171,"is_reserved":false,"is_disabled":false,"rental_uris":{"android":"levelo://app?vid=132c9a95-1852-4d87-b5f4-b638587c4830","ios":"levelo://app?vid=132c9a95-1852-4d87-b5f4-b638587c4830"},"vehicle_type_id":"4","last_reported":1726510293,"current_range_meters":38000,"station_id":"ce4bhih2rcd13ifvqfr0","pricing_plan_id":"cebpf4jnsgd1na2vs0mg"},{"bike_id":"94829247-daf5-4b5f-8142-20e89d959705","system_id":"levelo_inurba_marseille","lat":43.31186,"lon":5.38729,"is_reserved":false,"is_disabled":false,"rental_uris":{"android":"levelo://app?vid=94829247-daf5-4b5f-8142-20e89d959705","ios":"levelo://app?vid=94829247-daf5-4b5f-8142-20e89d959705"},"vehicle_type_id":"4","last_reported":1726510293,"current_range_meters":38800,"station_id":"ce4bgv12rcd13ifvqcp0","pricing_plan_id":"cebpf4jnsgd1na2vs0mg"},{"bike_id":"f76e7115-dcce-4dd4-9178-71d00b158324","system_id":"levelo_inurba_marseille","lat":43.25114,"lon":5.40316,"is_reserved":false,"is_disabled":false,"rental_uris":{"android":"levelo://app?vid=f76e7115-dcce-4dd4-9178-71d00b158324","ios":"levelo://app?vid=f76e7115-dcce-4dd4-9178-71d00b158324"},"vehicle_type_id":"4","last_reported":1726510293,"current_range_meters":39200,"station_id":"ce4bhlh2rcd13ifvqgig","pricing_plan_id":"cebpf4jnsgd1na2vs0mg"},{"bike_id":"784f0c85-85f3-48a3-a139-6db77981ce44","system_id":"levelo_inurba_marseille","lat":43.28147,"lon":5.42651,"is_reserved":false,"is_disabled":false,"rental_uris":{"android":"levelo://app?vid=784f0c85-85f3-48a3-a139-6db77981ce44","ios":"levelo://app?vid=784f0c85-85f3-48a3-a139-6db77981ce44"},"vehicle_type_id":"4","last_reported":1726510293,"current_range_meters":8800,"station_id":"ce4bhnh2rcd13ifvqgug","pricing_plan_id":"cebpf4jnsgd1na2vs0mg"},{"bike_id":"99684f50-b398-427b-a4e9-7ca0a0382c79","system_id":"levelo_inurba_marseille","lat":43.23193,"lon":5.35544,"is_reserved":false,"is_disabled":false,"rental_uris":{"android":"levelo://app?vid=99684f50-b398-427b-a4e9-7ca0a0382c79","ios":"levelo://app?vid=99684f50-b398-427b-a4e9-7ca0a0382c79"},"vehicle_type_id":"4","last_reported":1726510293,"current_range_meters":38800,"station_id":"ce4bhu92rcd13ifvqi70","pricing_plan_id":"cebpf4jnsgd1na2vs0mg"},{"bike_id":"1f190273-cdad-41cc-9a1a-21af45cf32d6","system_id":"levelo_inurba_marseille","lat":43.30354,"lon":5.4188,"is_reserved":false,"is_disabled":false,"rental_uris":{"android":"levelo://app?vid=1f190273-cdad-41cc-9a1a-21af45cf32d6","ios":"levelo://app?vid=1f190273-cdad-41cc-9a1a-21af45cf32d6"},"vehicle_type_id":"4","last_reported":1726510293,"current_range_meters":12800,"station_id":"ce4bhop2rcd13ifvqh7g","pricing_plan_id":"cebpf4jnsgd1na2vs0mg"},{"bike_id":"fc615797-bff7-4869-b461-6cbc793e273d","system_id":"levelo_inurba_marseille","lat":43.29269,"lon":5.38446,"is_reserved":false,"is_disabled":false,"rental_uris":{"android":"levelo://app?vid=fc615797-bff7-4869-b461-6cbc793e273d","ios":"levelo://app?vid=fc615797-bff7-4869-b461-6cbc793e273d"},"vehicle_type_id":"4","last_reported":1726510293,"current_range_meters":12800,"station_id":"ce4bh692rcd13ifvqea0","pricing_plan_id":"cebpf4jnsgd1na2vs0mg"},{"bike_id":"1e50fdae-020a-4cb6-9b1c-d6613add5f05","system_id":"levelo_inurba_marseille","lat":43.30923,"lon":5.40145,"is_reserved":false,"is_disabled":false,"rental_uris":{"android":"levelo://app?vid=1e50fdae-020a-4cb6-9b1c-d6613add5f05","ios":"levelo://app?vid=1e50fdae-020a-4cb6-9b1c-d6613add5f05"},"vehicle_type_id":"4","last_reported":1726510293,"current_range_meters":17600,"station_id":"ce4bgvp2rcd13ifvqct0","pricing_plan_id":"cebpf4jnsgd1na2vs0mg"},{"bike_id":"51a0ef68-0a0c-4c80-8365-793323e0b2e1","system_id":"levelo_inurba_marseille","lat":43.31715,"lon":5.42405,"is_reserved":false,"is_disabled":false,"rental_uris":{"android":"levelo://app?vid=51a0ef68-0a0c-4c80-8365-793323e0b2e1","ios":"levelo://app?vid=51a0ef68-0a0c-4c80-8365-793323e0b2e1"},"vehicle_type_id":"4","last_reported":1726510293,"current_range_meters":38800,"station_id":"ce4bhp92rcd13ifvqhbg","pricing_plan_id":"cebpf4jnsgd1na2vs0mg"},{"bike_id":"8322ab72-41cf-422f-862e-11752066ae0f","system_id":"levelo_inurba_marseille","lat":43.29628,"lon":5.377206,"is_reserved":false,"is_disabled":false,"rental_uris":{"android":"levelo://app?vid=8322ab72-41cf-422f-862e-11752066ae0f","ios":"levelo://app?vid=8322ab72-41cf-422f-862e-11752066ae0f"},"vehicle_type_id":"4","last_reported":1726510293,"current_range_meters":35200,"station_id":"ce4bh0p2rcd13ifvqd80","pricing_plan_id":"cebpf4jnsgd1na2vs0mg"},{"bike_id":"35da71ca-23bc-4b30-9113-be2934f2ba7c","system_id":"levelo_inurba_marseille","lat":43.2894,"lon":5.36396,"is_reserved":false,"is_disabled":false,"rental_uris":{"android":"levelo://app?vid=35da71ca-23bc-4b30-9113-be2934f2ba7c","ios":"levelo://app?vid=35da71ca-23bc-4b30-9113-be2934f2ba7c"},"vehicle_type_id":"4","last_reported":1726510293,"current_range_meters":26800,"station_id":"ce4bhc92rcd13ifvqetg","pricing_plan_id":"cebpf4jnsgd1na2vs0mg"},{"bike_id":"d4a5eb26-b065-4afe-af9d-6f80f0b9f610","system_id":"levelo_inurba_marseille","lat":43.31713,"lon":5.43698,"is_reserved":false,"is_disabled":false,"rental_uris":{"android":"levelo://app?vid=d4a5eb26-b065-4afe-af9d-6f80f0b9f610","ios":"levelo://app?vid=d4a5eb26-b065-4afe-af9d-6f80f0b9f610"},"vehicle_type_id":"4","last_reported":1726510293,"current_range_meters":9600,"station_id":"ce4bhp92rcd13ifvqhcg","pricing_plan_id":"cebpf4jnsgd1na2vs0mg"},{"bike_id":"21ad3885-9e9d-45ca-bbf4-c0e797bacf84","system_id":"levelo_inurba_marseille","lat":43.29868,"lon":5.39739,"is_reserved":false,"is_disabled":false,"rental_uris":{"android":"levelo://app?vid=21ad3885-9e9d-45ca-bbf4-c0e797bacf84","ios":"levelo://app?vid=21ad3885-9e9d-45ca-bbf4-c0e797bacf84"},"vehicle_type_id":"4","last_reported":1726510293,"current_range_meters":25600,"station_id":"ce4bh0h2rcd13ifvqd50","pricing_plan_id":"cebpf4jnsgd1na2vs0mg"},{"bike_id":"e2d0eb8f-b91a-4f09-bd69-1eba8d59a730","system_id":"levelo_inurba_marseille","lat":43.2467,"lon":5.38523,"is_reserved":false,"is_disabled":false,"rental_uris":{"android":"levelo://app?vid=e2d0eb8f-b91a-4f09-bd69-1eba8d59a730","ios":"levelo://app?vid=e2d0eb8f-b91a-4f09-bd69-1eba8d59a730"},"vehicle_type_id":"4","last_reported":1726510293,"current_range_meters":28400,"station_id":"ce4bhlp2rcd13ifvqgjg","pricing_plan_id":"cebpf4jnsgd1na2vs0mg"},{"bike_id":"ad52bffe-b70a-42f0-a7cb-f6e89905477b","system_id":"levelo_inurba_marseille","lat":43.29876,"lon":5.39735,"is_reserved":false,"is_disabled":false,"rental_uris":{"android":"levelo://app?vid=ad52bffe-b70a-42f0-a7cb-f6e89905477b","ios":"levelo://app?vid=ad52bffe-b70a-42f0-a7cb-f6e89905477b"},"vehicle_type_id":"4","last_reported":1726510293,"current_range_meters":24800,"station_id":"ce4bh0h2rcd13ifvqd50","pricing_plan_id":"cebpf4jnsgd1na2vs0mg"},{"bike_id":"8ce3f8ef-31fb-48cb-ad14-2fa7b1356719","system_id":"levelo_inurba_marseille","lat":43.30794,"lon":5.3817,"is_reserved":false,"is_disabled":false,"rental_uris":{"android":"levelo://app?vid=8ce3f8ef-31fb-48cb-ad14-2fa7b1356719","ios":"levelo://app?vid=8ce3f8ef-31fb-48cb-ad14-2fa7b1356719"},"vehicle_type_id":"4","last_reported":1726510293,"current_range_meters":22800,"station_id":"ce4bgt12rcd13ifvqce0","pricing_plan_id":"cebpf4jnsgd1na2vs0mg"},{"bike_id":"77828b37-5aef-468b-af51-b3d54fd4d4e3","system_id":"levelo_inurba_marseille","lat":43.27985,"lon":5.4166,"is_reserved":false,"is_disabled":false,"rental_uris":{"android":"levelo://app?vid=77828b37-5aef-468b-af51-b3d54fd4d4e3","ios":"levelo://app?vid=77828b37-5aef-468b-af51-b3d54fd4d4e3"},"vehicle_type_id":"4","last_reported":1726510293,"current_range_meters":6000,"station_id":"ce4bho12rcd13ifvqh1g","pricing_plan_id":"cebpf4jnsgd1na2vs0mg"},{"bike_id":"464e6496-bd36-4002-9762-5934be6fd19c","system_id":"levelo_inurba_marseille","lat":43.2922,"lon":5.36057,"is_reserved":false,"is_disabled":false,"rental_uris":{"android":"levelo://app?vid=464e6496-bd36-4002-9762-5934be6fd19c","ios":"levelo://app?vid=464e6496-bd36-4002-9762-5934be6fd19c"},"vehicle_type_id":"4","last_reported":1726510293,"current_range_meters":17600,"station_id":"ce4bhbh2rcd13ifvqeqg","pricing_plan_id":"cebpf4jnsgd1na2vs0mg"},{"bike_id":"aa5adc59-9239-4c47-aa54-d00da5446700","system_id":"levelo_inurba_marseille","lat":43.29801,"lon":5.40412,"is_reserved":false,"is_disabled":false,"rental_uris":{"android":"levelo://app?vid=aa5adc59-9239-4c47-aa54-d00da5446700","ios":"levelo://app?vid=aa5adc59-9239-4c47-aa54-d00da5446700"},"vehicle_type_id":"4","last_reported":1726510293,"current_range_meters":3200,"station_id":"ce4bh112rcd13ifvqd90","pricing_plan_id":"cebpf4jnsgd1na2vs0mg"},{"bike_id":"922259b4-799d-46c2-b36f-c36a4831d6bb","system_id":"levelo_inurba_marseille","lat":43.29806,"lon":5.40393,"is_reserved":false,"is_disabled":false,"rental_uris":{"android":"levelo://app?vid=922259b4-799d-46c2-b36f-c36a4831d6bb","ios":"levelo://app?vid=922259b4-799d-46c2-b36f-c36a4831d6bb"},"vehicle_type_id":"4","last_reported":1726510293,"current_range_meters":7200,"station_id":"ce4bh112rcd13ifvqd90","pricing_plan_id":"cebpf4jnsgd1na2vs0mg"},{"bike_id":"6ad2fe94-195b-4d58-9ac6-d3a9675a4c80","system_id":"levelo_inurba_marseille","lat":43.23061,"lon":5.35496,"is_reserved":false,"is_disabled":false,"rental_uris":{"android":"levelo://app?vid=6ad2fe94-195b-4d58-9ac6-d3a9675a4c80","ios":"levelo://app?vid=6ad2fe94-195b-4d58-9ac6-d3a9675a4c80"},"vehicle_type_id":"4","last_reported":1726510293,"current_range_meters":15200,"station_id":"cpo3342slgdg3j2ifvpg","pricing_plan_id":"cebpf4jnsgd1na2vs0mg"},{"bike_id":"6dd17a2f-59bb-4453-859d-2c09ab795824","system_id":"levelo_inurba_marseille","lat":43.33019,"lon":5.39042,"is_reserved":false,"is_disabled":false,"rental_uris":{"android":"levelo://app?vid=6dd17a2f-59bb-4453-859d-2c09ab795824","ios":"levelo://app?vid=6dd17a2f-59bb-4453-859d-2c09ab795824"},"vehicle_type_id":"4","last_reported":1726510293,"current_range_meters":36400,"station_id":"ce4bhr92rcd13ifvqhrg","pricing_plan_id":"cebpf4jnsgd1na2vs0mg"},{"bike_id":"ad0f06dd-599b-435a-9c65-29b015099757","system_id":"levelo_inurba_marseille","lat":43.28151,"lon":5.42646,"is_reserved":false,"is_disabled":false,"rental_uris":{"android":"levelo://app?vid=ad0f06dd-599b-435a-9c65-29b015099757","ios":"levelo://app?vid=ad0f06dd-599b-435a-9c65-29b015099757"},"vehicle_type_id":"4","last_reported":1726510293,"current_range_meters":18800,"station_id":"ce4bhnh2rcd13ifvqgug","pricing_plan_id":"cebpf4jnsgd1na2vs0mg"},{"bike_id":"f0af9421-94e4-4ab6-b302-28f6f3adc108","system_id":"levelo_inurba_marseille","lat":43.30867,"lon":5.39626,"is_reserved":false,"is_disabled":false,"rental_uris":{"android":"levelo://app?vid=f0af9421-94e4-4ab6-b302-28f6f3adc108","ios":"levelo://app?vid=f0af9421-94e4-4ab6-b302-28f6f3adc108"},"vehicle_type_id":"4","last_reported":1726510293,"current_range_meters":11600,"station_id":"ce4bh012rcd13ifvqcv0","pricing_plan_id":"cebpf4jnsgd1na2vs0mg"},{"bike_id":"a0da9788-6ad0-4bd2-9978-72c1654ca4ea","system_id":"levelo_inurba_marseille","lat":43.32362,"lon":5.38889,"is_reserved":false,"is_disabled":false,"rental_uris":{"android":"levelo://app?vid=a0da9788-6ad0-4bd2-9978-72c1654ca4ea","ios":"levelo://app?vid=a0da9788-6ad0-4bd2-9978-72c1654ca4ea"},"vehicle_type_id":"4","last_reported":1726510293,"current_range_meters":24800,"station_id":"ce4bhqp2rcd13ifvqhog","pricing_plan_id":"cebpf4jnsgd1na2vs0mg"},{"bike_id":"fa9e058e-a15c-4e79-809c-07686eeec661","system_id":"levelo_inurba_marseille","lat":43.29528,"lon":5.38549,"is_reserved":false,"is_disabled":false,"rental_uris":{"android":"levelo://app?vid=fa9e058e-a15c-4e79-809c-07686eeec661","ios":"levelo://app?vid=fa9e058e-a15c-4e79-809c-07686eeec661"},"vehicle_type_id":"4","last_reported":1726510293,"current_range_meters":8000,"station_id":"ce4bgih2rcd13ifvqba0","pricing_plan_id":"cebpf4jnsgd1na2vs0mg"},{"bike_id":"ecea90a2-03bc-49fe-a0c9-9430c9ca4d9a","system_id":"levelo_inurba_marseille","lat":43.29022,"lon":5.38646,"is_reserved":false,"is_disabled":false,"rental_uris":{"android":"levelo://app?vid=ecea90a2-03bc-49fe-a0c9-9430c9ca4d9a","ios":"levelo://app?vid=ecea90a2-03bc-49fe-a0c9-9430c9ca4d9a"},"vehicle_type_id":"4","last_reported":1726510293,"current_range_meters":11600,"station_id":"ce4bh4p2rcd13ifvqe0g","pricing_plan_id":"cebpf4jnsgd1na2vs0mg"},{"bike_id":"ee2a6f6f-8fd5-4be5-b404-f76250f2e4dc","system_id":"levelo_inurba_marseille","lat":43.2749,"lon":5.42454,"is_reserved":false,"is_disabled":false,"rental_uris":{"android":"levelo://app?vid=ee2a6f6f-8fd5-4be5-b404-f76250f2e4dc","ios":"levelo://app?vid=ee2a6f6f-8fd5-4be5-b404-f76250f2e4dc"},"vehicle_type_id":"4","last_reported":1726510293,"current_range_meters":8000,"station_id":"ce4bhn92rcd13ifvqgrg","pricing_plan_id":"cebpf4jnsgd1na2vs0mg"},{"bike_id":"22f26e89-4ccd-47af-bb30-5f037502847c","system_id":"levelo_inurba_marseille","lat":43.23178,"lon":5.39999,"is_reserved":false,"is_disabled":false,"rental_uris":{"android":"levelo://app?vid=22f26e89-4ccd-47af-bb30-5f037502847c","ios":"levelo://app?vid=22f26e89-4ccd-47af-bb30-5f037502847c"},"vehicle_type_id":"4","last_reported":1726510293,"current_range_meters":32000,"station_id":"ce4bhn12rcd13ifvqgqg","pricing_plan_id":"cebpf4jnsgd1na2vs0mg"},{"bike_id":"47da8432-6bb1-4de6-98a4-5cc3e415de33","system_id":"levelo_inurba_marseille","lat":43.28149,"lon":5.4264,"is_reserved":false,"is_disabled":false,"rental_uris":{"android":"levelo://app?vid=47da8432-6bb1-4de6-98a4-5cc3e415de33","ios":"levelo://app?vid=47da8432-6bb1-4de6-98a4-5cc3e415de33"},"vehicle_type_id":"4","last_reported":1726510293,"current_range_meters":3600,"station_id":"ce4bhnh2rcd13ifvqgug","pricing_plan_id":"cebpf4jnsgd1na2vs0mg"},{"bike_id":"dcedc4d0-5154-46be-ab26-09bd6c855628","system_id":"levelo_inurba_marseille","lat":43.32363,"lon":5.38883,"is_reserved":false,"is_disabled":false,"rental_uris":{"android":"levelo://app?vid=dcedc4d0-5154-46be-ab26-09bd6c855628","ios":"levelo://app?vid=dcedc4d0-5154-46be-ab26-09bd6c855628"},"vehicle_type_id":"4","last_reported":1726510293,"current_range_meters":36800,"station_id":"ce4bhqp2rcd13ifvqhog","pricing_plan_id":"cebpf4jnsgd1na2vs0mg"},{"bike_id":"7c448479-469b-48ed-803c-a009c0332fc4","system_id":"levelo_inurba_marseille","lat":43.29414,"lon":5.38615,"is_reserved":false,"is_disabled":false,"rental_uris":{"android":"levelo://app?vid=7c448479-469b-48ed-803c-a009c0332fc4","ios":"levelo://app?vid=7c448479-469b-48ed-803c-a009c0332fc4"},"vehicle_type_id":"4","last_reported":1726510293,"current_range_meters":8800,"station_id":"ce4bh2h2rcd13ifvqdh0","pricing_plan_id":"cebpf4jnsgd1na2vs0mg"},{"bike_id":"b376ebd7-b3c4-4aa9-98e1-64a51bc3a1d4","system_id":"levelo_inurba_marseille","lat":43.28945,"lon":5.36637,"is_reserved":false,"is_disabled":false,"rental_uris":{"android":"levelo://app?vid=b376ebd7-b3c4-4aa9-98e1-64a51bc3a1d4","ios":"levelo://app?vid=b376ebd7-b3c4-4aa9-98e1-64a51bc3a1d4"},"vehicle_type_id":"4","last_reported":1726510293,"current_range_meters":37600,"station_id":"ce4bhap2rcd13ifvqek0","pricing_plan_id":"cebpf4jnsgd1na2vs0mg"},{"bike_id":"65eecb51-7024-4f30-af20-d65f809bce2b","system_id":"levelo_inurba_marseille","lat":43.31459,"lon":5.38338,"is_reserved":false,"is_disabled":false,"rental_uris":{"android":"levelo://app?vid=65eecb51-7024-4f30-af20-d65f809bce2b","ios":"levelo://app?vid=65eecb51-7024-4f30-af20-d65f809bce2b"},"vehicle_type_id":"4","last_reported":1726510293,"current_range_meters":11200,"station_id":"ce4bgvp2rcd13ifvqcu0","pricing_plan_id":"cebpf4jnsgd1na2vs0mg"},{"bike_id":"fba76a5e-18ae-426d-b476-eecc46e87760","system_id":"levelo_inurba_marseille","lat":43.29194,"lon":5.3581,"is_reserved":false,"is_disabled":false,"rental_uris":{"android":"levelo://app?vid=fba76a5e-18ae-426d-b476-eecc46e87760","ios":"levelo://app?vid=fba76a5e-18ae-426d-b476-eecc46e87760"},"vehicle_type_id":"4","last_reported":1726510293,"current_range_meters":21600,"station_id":"ce4bhb12rcd13ifvqel0","pricing_plan_id":"cebpf4jnsgd1na2vs0mg"},{"bike_id":"714bd286-0914-421a-ac78-a8aec3d8de06","system_id":"levelo_inurba_marseille","lat":43.31711,"lon":5.4371,"is_reserved":false,"is_disabled":false,"rental_uris":{"android":"levelo://app?vid=714bd286-0914-421a-ac78-a8aec3d8de06","ios":"levelo://app?vid=714bd286-0914-421a-ac78-a8aec3d8de06"},"vehicle_type_id":"4","last_reported":1726510293,"current_range_meters":8400,"station_id":"ce4bhp92rcd13ifvqhcg","pricing_plan_id":"cebpf4jnsgd1na2vs0mg"},{"bike_id":"ad00b097-47ad-4ac9-ab9e-e2cd15ec4b40","system_id":"levelo_inurba_marseille","lat":43.28606,"lon":5.37066,"is_reserved":false,"is_disabled":false,"rental_uris":{"android":"levelo://app?vid=ad00b097-47ad-4ac9-ab9e-e2cd15ec4b40","ios":"levelo://app?vid=ad00b097-47ad-4ac9-ab9e-e2cd15ec4b40"},"vehicle_type_id":"4","last_reported":1726510293,"current_range_meters":16800,"station_id":"ce4bht12rcd13ifvqi60","pricing_plan_id":"cebpf4jnsgd1na2vs0mg"},{"bike_id":"2d495c32-06ee-4a96-8af0-be9158c0930d","system_id":"levelo_inurba_marseille","lat":43.2781,"lon":5.40708,"is_reserved":false,"is_disabled":false,"rental_uris":{"android":"levelo://app?vid=2d495c32-06ee-4a96-8af0-be9158c0930d","ios":"levelo://app?vid=2d495c32-06ee-4a96-8af0-be9158c0930d"},"vehicle_type_id":"4","last_reported":1726510293,"current_range_meters":26000,"station_id":"ce4bhnh2rcd13ifvqgtg","pricing_plan_id":"cebpf4jnsgd1na2vs0mg"},{"bike_id":"4388eebc-0c2f-4ab4-a38f-5339135d3d19","system_id":"levelo_inurba_marseille","lat":43.30323,"lon":5.4044,"is_reserved":false,"is_disabled":false,"rental_uris":{"android":"levelo://app?vid=4388eebc-0c2f-4ab4-a38f-5339135d3d19","ios":"levelo://app?vid=4388eebc-0c2f-4ab4-a38f-5339135d3d19"},"vehicle_type_id":"4","last_reported":1726510293,"current_range_meters":38800,"station_id":"ce4bh012rcd13ifvqd10","pricing_plan_id":"cebpf4jnsgd1na2vs0mg"},{"bike_id":"4a2a1899-b086-45d8-9119-eed50392528b","system_id":"levelo_inurba_marseille","lat":43.27833,"lon":5.39216,"is_reserved":false,"is_disabled":false,"rental_uris":{"android":"levelo://app?vid=4a2a1899-b086-45d8-9119-eed50392528b","ios":"levelo://app?vid=4a2a1899-b086-45d8-9119-eed50392528b"},"vehicle_type_id":"4","last_reported":1726510293,"current_range_meters":11200,"station_id":"ce4bhjp2rcd13ifvqga0","pricing_plan_id":"cebpf4jnsgd1na2vs0mg"},{"bike_id":"2a74aa2d-f8fa-4b59-af3e-57ccb051a669","system_id":"levelo_inurba_marseille","lat":43.317261,"lon":5.423863,"is_reserved":false,"is_disabled":false,"rental_uris":{"android":"levelo://app?vid=2a74aa2d-f8fa-4b59-af3e-57ccb051a669","ios":"levelo://app?vid=2a74aa2d-f8fa-4b59-af3e-57ccb051a669"},"vehicle_type_id":"4","last_reported":1726510293,"current_range_meters":16000,"station_id":"ce4bhp92rcd13ifvqhbg","pricing_plan_id":"cebpf4jnsgd1na2vs0mg"},{"bike_id":"4b416f5c-d0bb-4b83-a0d2-9152e8fdacd6","system_id":"levelo_inurba_marseille","lat":43.28459,"lon":5.3588,"is_reserved":false,"is_disabled":false,"rental_uris":{"android":"levelo://app?vid=4b416f5c-d0bb-4b83-a0d2-9152e8fdacd6","ios":"levelo://app?vid=4b416f5c-d0bb-4b83-a0d2-9152e8fdacd6"},"vehicle_type_id":"4","last_reported":1726510293,"current_range_meters":18800,"station_id":"ce4bhah2rcd13ifvqei0","pricing_plan_id":"cebpf4jnsgd1na2vs0mg"},{"bike_id":"c5cd1bc6-e936-4ea5-9eae-558c0dd88416","system_id":"levelo_inurba_marseille","lat":43.25716,"lon":5.41114,"is_reserved":false,"is_disabled":false,"rental_uris":{"android":"levelo://app?vid=c5cd1bc6-e936-4ea5-9eae-558c0dd88416","ios":"levelo://app?vid=c5cd1bc6-e936-4ea5-9eae-558c0dd88416"},"vehicle_type_id":"4","last_reported":1726510293,"current_range_meters":11600,"station_id":"ce4bhkp2rcd13ifvqgd0","pricing_plan_id":"cebpf4jnsgd1na2vs0mg"},{"bike_id":"b336e4f7-7a39-4317-9834-72f37ccf19f8","system_id":"levelo_inurba_marseille","lat":43.29256,"lon":5.40916,"is_reserved":false,"is_disabled":false,"rental_uris":{"android":"levelo://app?vid=b336e4f7-7a39-4317-9834-72f37ccf19f8","ios":"levelo://app?vid=b336e4f7-7a39-4317-9834-72f37ccf19f8"},"vehicle_type_id":"4","last_reported":1726510293,"current_range_meters":38800,"station_id":"ce4bh192rcd13ifvqdc0","pricing_plan_id":"cebpf4jnsgd1na2vs0mg"},{"bike_id":"df4a1142-9e90-48bf-8d5c-53f4cf6d2721","system_id":"levelo_inurba_marseille","lat":43.31071,"lon":5.42437,"is_reserved":false,"is_disabled":false,"rental_uris":{"android":"levelo://app?vid=df4a1142-9e90-48bf-8d5c-53f4cf6d2721","ios":"levelo://app?vid=df4a1142-9e90-48bf-8d5c-53f4cf6d2721"},"vehicle_type_id":"4","last_reported":1726510293,"current_range_meters":17200,"station_id":"ce4bhp92rcd13ifvqhag","pricing_plan_id":"cebpf4jnsgd1na2vs0mg"},{"bike_id":"cbaf03bf-0340-4293-a424-18d0ef0b595f","system_id":"levelo_inurba_marseille","lat":43.29895,"lon":5.43667,"is_reserved":false,"is_disabled":false,"rental_uris":{"android":"levelo://app?vid=cbaf03bf-0340-4293-a424-18d0ef0b595f","ios":"levelo://app?vid=cbaf03bf-0340-4293-a424-18d0ef0b595f"},"vehicle_type_id":"4","last_reported":1726510293,"current_range_meters":26000,"station_id":"ce4bhpp2rcd13ifvqhfg","pricing_plan_id":"cebpf4jnsgd1na2vs0mg"},{"bike_id":"549deceb-f4f2-49c7-aa51-81499cb9257e","system_id":"levelo_inurba_marseille","lat":43.26945,"lon":5.38645,"is_reserved":false,"is_disabled":false,"rental_uris":{"android":"levelo://app?vid=549deceb-f4f2-49c7-aa51-81499cb9257e","ios":"levelo://app?vid=549deceb-f4f2-49c7-aa51-81499cb9257e"},"vehicle_type_id":"4","last_reported":1726510293,"current_range_meters":7200,"station_id":"ce4bhh92rcd13ifvqfh0","pricing_plan_id":"cebpf4jnsgd1na2vs0mg"},{"bike_id":"662fad08-280e-4174-bc78-8be0b40551bf","system_id":"levelo_inurba_marseille","lat":43.27669,"lon":5.38886,"is_reserved":false,"is_disabled":false,"rental_uris":{"android":"levelo://app?vid=662fad08-280e-4174-bc78-8be0b40551bf","ios":"levelo://app?vid=662fad08-280e-4174-bc78-8be0b40551bf"},"vehicle_type_id":"4","last_reported":1726510293,"current_range_meters":11600,"station_id":"ce4bhi12rcd13ifvqfo0","pricing_plan_id":"cebpf4jnsgd1na2vs0mg"},{"bike_id":"810918e3-2b60-4fa8-b41f-7f2ef8fc704e","system_id":"levelo_inurba_marseille","lat":43.29304,"lon":5.37176,"is_reserved":false,"is_disabled":false,"rental_uris":{"android":"levelo://app?vid=810918e3-2b60-4fa8-b41f-7f2ef8fc704e","ios":"levelo://app?vid=810918e3-2b60-4fa8-b41f-7f2ef8fc704e"},"vehicle_type_id":"4","last_reported":1726510293,"current_range_meters":20400,"station_id":"ce4bgh92rcd13ifvqb40","pricing_plan_id":"cebpf4jnsgd1na2vs0mg"},{"bike_id":"de3353ae-d48a-4f39-b92c-5b1d056de8df","system_id":"levelo_inurba_marseille","lat":43.31073,"lon":5.38356,"is_reserved":false,"is_disabled":false,"rental_uris":{"android":"levelo://app?vid=de3353ae-d48a-4f39-b92c-5b1d056de8df","ios":"levelo://app?vid=de3353ae-d48a-4f39-b92c-5b1d056de8df"},"vehicle_type_id":"4","last_reported":1726510293,"current_range_meters":38800,"station_id":"ce4bgv92rcd13ifvqcr0","pricing_plan_id":"cebpf4jnsgd1na2vs0mg"},{"bike_id":"cf8323f7-231e-4a92-ab81-08dfa897ae56","system_id":"levelo_inurba_marseille","lat":43.292969,"lon":5.374688,"is_reserved":false,"is_disabled":false,"rental_uris":{"android":"levelo://app?vid=cf8323f7-231e-4a92-ab81-08dfa897ae56","ios":"levelo://app?vid=cf8323f7-231e-4a92-ab81-08dfa897ae56"},"vehicle_type_id":"4","last_reported":1726510293,"current_range_meters":38000,"station_id":"ce4bgi12rcd13ifvqb70","pricing_plan_id":"cebpf4jnsgd1na2vs0mg"},{"bike_id":"328d45f9-980e-4811-97c0-47d761861509","system_id":"levelo_inurba_marseille","lat":43.29847,"lon":5.37836,"is_reserved":false,"is_disabled":false,"rental_uris":{"android":"levelo://app?vid=328d45f9-980e-4811-97c0-47d761861509","ios":"levelo://app?vid=328d45f9-980e-4811-97c0-47d761861509"},"vehicle_type_id":"4","last_reported":1726510293,"current_range_meters":22400,"station_id":"ce4bgkh2rcd13ifvqbl0","pricing_plan_id":"cebpf4jnsgd1na2vs0mg"},{"bike_id":"95d6a80a-81d7-439e-8764-7e0667387477","system_id":"levelo_inurba_marseille","lat":43.24662,"lon":5.38172,"is_reserved":false,"is_disabled":false,"rental_uris":{"android":"levelo://app?vid=95d6a80a-81d7-439e-8764-7e0667387477","ios":"levelo://app?vid=95d6a80a-81d7-439e-8764-7e0667387477"},"vehicle_type_id":"4","last_reported":1726510293,"current_range_meters":38800,"station_id":"ce4bhih2rcd13ifvqfr0","pricing_plan_id":"cebpf4jnsgd1na2vs0mg"},{"bike_id":"6f7ee213-f92f-4edb-a750-7c5eb22c28ce","system_id":"levelo_inurba_marseille","lat":43.29867,"lon":5.39735,"is_reserved":false,"is_disabled":false,"rental_uris":{"android":"levelo://app?vid=6f7ee213-f92f-4edb-a750-7c5eb22c28ce","ios":"levelo://app?vid=6f7ee213-f92f-4edb-a750-7c5eb22c28ce"},"vehicle_type_id":"4","last_reported":1726510293,"current_range_meters":0,"station_id":"ce4bh0h2rcd13ifvqd50","pricing_plan_id":"cebpf4jnsgd1na2vs0mg"},{"bike_id":"35de39f5-91ac-452f-9f9b-542577aaea56","system_id":"levelo_inurba_marseille","lat":43.29927,"lon":5.37464,"is_reserved":false,"is_disabled":false,"rental_uris":{"android":"levelo://app?vid=35de39f5-91ac-452f-9f9b-542577aaea56","ios":"levelo://app?vid=35de39f5-91ac-452f-9f9b-542577aaea56"},"vehicle_type_id":"4","last_reported":1726510293,"current_range_meters":3200,"station_id":"ce4bgjh2rcd13ifvqbg0","pricing_plan_id":"cebpf4jnsgd1na2vs0mg"},{"bike_id":"fe43840c-a2c0-45d0-a19d-4ad10017aa65","system_id":"levelo_inurba_marseille","lat":43.2804,"lon":5.36946,"is_reserved":false,"is_disabled":false,"rental_uris":{"android":"levelo://app?vid=fe43840c-a2c0-45d0-a19d-4ad10017aa65","ios":"levelo://app?vid=fe43840c-a2c0-45d0-a19d-4ad10017aa65"},"vehicle_type_id":"4","last_reported":1726510293,"current_range_meters":28000,"station_id":"ce4bha12rcd13ifvqef0","pricing_plan_id":"cebpf4jnsgd1na2vs0mg"},{"bike_id":"fa690805-233a-4a70-a9f3-33f1b67cdb1f","system_id":"levelo_inurba_marseille","lat":43.32289,"lon":5.38267,"is_reserved":false,"is_disabled":false,"rental_uris":{"android":"levelo://app?vid=fa690805-233a-4a70-a9f3-33f1b67cdb1f","ios":"levelo://app?vid=fa690805-233a-4a70-a9f3-33f1b67cdb1f"},"vehicle_type_id":"4","last_reported":1726510293,"current_range_meters":36800,"station_id":"ce4bhr12rcd13ifvqhqg","pricing_plan_id":"cebpf4jnsgd1na2vs0mg"},{"bike_id":"8b608b96-fedf-4511-8d4b-09bad2606e1a","system_id":"levelo_inurba_marseille","lat":43.27718,"lon":5.4113,"is_reserved":false,"is_disabled":false,"rental_uris":{"android":"levelo://app?vid=8b608b96-fedf-4511-8d4b-09bad2606e1a","ios":"levelo://app?vid=8b608b96-fedf-4511-8d4b-09bad2606e1a"},"vehicle_type_id":"4","last_reported":1726510293,"current_range_meters":14400,"station_id":"","pricing_plan_id":"cebpf4jnsgd1na2vs0mg"},{"bike_id":"3aedbbc3-18c0-4a66-8451-02251189e001","system_id":"levelo_inurba_marseille","lat":43.28027,"lon":5.42594,"is_reserved":false,"is_disabled":false,"rental_uris":{"android":"levelo://app?vid=3aedbbc3-18c0-4a66-8451-02251189e001","ios":"levelo://app?vid=3aedbbc3-18c0-4a66-8451-02251189e001"},"vehicle_type_id":"4","last_reported":1726510293,"current_range_meters":8800,"station_id":"ce4bhnh2rcd13ifvqgug","pricing_plan_id":"cebpf4jnsgd1na2vs0mg"},{"bike_id":"70b88215-4436-4b90-8ece-7363720f248f","system_id":"levelo_inurba_marseille","lat":43.32367,"lon":5.38886,"is_reserved":false,"is_disabled":false,"rental_uris":{"android":"levelo://app?vid=70b88215-4436-4b90-8ece-7363720f248f","ios":"levelo://app?vid=70b88215-4436-4b90-8ece-7363720f248f"},"vehicle_type_id":"4","last_reported":1726510293,"current_range_meters":10000,"station_id":"ce4bhqp2rcd13ifvqhog","pricing_plan_id":"cebpf4jnsgd1na2vs0mg"},{"bike_id":"7364d898-e5b3-444a-9b50-cc968348eb6e","system_id":"levelo_inurba_marseille","lat":43.28152,"lon":5.42647,"is_reserved":false,"is_disabled":false,"rental_uris":{"android":"levelo://app?vid=7364d898-e5b3-444a-9b50-cc968348eb6e","ios":"levelo://app?vid=7364d898-e5b3-444a-9b50-cc968348eb6e"},"vehicle_type_id":"4","last_reported":1726510293,"current_range_meters":10000,"station_id":"ce4bhnh2rcd13ifvqgug","pricing_plan_id":"cebpf4jnsgd1na2vs0mg"},{"bike_id":"38a06196-c1b6-466d-8e61-336257e32fce","system_id":"levelo_inurba_marseille","lat":43.26804,"lon":5.40266,"is_reserved":false,"is_disabled":false,"rental_uris":{"android":"levelo://app?vid=38a06196-c1b6-466d-8e61-336257e32fce","ios":"levelo://app?vid=38a06196-c1b6-466d-8e61-336257e32fce"},"vehicle_type_id":"4","last_reported":1726510293,"current_range_meters":10000,"station_id":"ce501612rcd8frsf0b60","pricing_plan_id":"cebpf4jnsgd1na2vs0mg"},{"bike_id":"5e94114f-6929-43db-821b-ea1076715c13","system_id":"levelo_inurba_marseille","lat":43.2929,"lon":5.37177,"is_reserved":false,"is_disabled":false,"rental_uris":{"android":"levelo://app?vid=5e94114f-6929-43db-821b-ea1076715c13","ios":"levelo://app?vid=5e94114f-6929-43db-821b-ea1076715c13"},"vehicle_type_id":"4","last_reported":1726510293,"current_range_meters":8000,"station_id":"ce4bgh92rcd13ifvqb40","pricing_plan_id":"cebpf4jnsgd1na2vs0mg"},{"bike_id":"2bc00c15-b391-445f-8056-cc4a33f1972d","system_id":"levelo_inurba_marseille","lat":43.25719,"lon":5.4111,"is_reserved":false,"is_disabled":false,"rental_uris":{"android":"levelo://app?vid=2bc00c15-b391-445f-8056-cc4a33f1972d","ios":"levelo://app?vid=2bc00c15-b391-445f-8056-cc4a33f1972d"},"vehicle_type_id":"4","last_reported":1726510293,"current_range_meters":23200,"station_id":"ce4bhkp2rcd13ifvqgd0","pricing_plan_id":"cebpf4jnsgd1na2vs0mg"},{"bike_id":"5d8c1843-4254-4775-a696-ae426e0a1af6","system_id":"levelo_inurba_marseille","lat":43.29225,"lon":5.36052,"is_reserved":false,"is_disabled":false,"rental_uris":{"android":"levelo://app?vid=5d8c1843-4254-4775-a696-ae426e0a1af6","ios":"levelo://app?vid=5d8c1843-4254-4775-a696-ae426e0a1af6"},"vehicle_type_id":"4","last_reported":1726510293,"current_range_meters":24800,"station_id":"ce4bhbh2rcd13ifvqeqg","pricing_plan_id":"cebpf4jnsgd1na2vs0mg"},{"bike_id":"778b620b-1f57-482f-b8a8-118f50104237","system_id":"levelo_inurba_marseille","lat":43.25575,"lon":5.38238,"is_reserved":false,"is_disabled":false,"rental_uris":{"android":"levelo://app?vid=778b620b-1f57-482f-b8a8-118f50104237","ios":"levelo://app?vid=778b620b-1f57-482f-b8a8-118f50104237"},"vehicle_type_id":"4","last_reported":1726510293,"current_range_meters":35200,"station_id":"ce4bhih2rcd13ifvqfs0","pricing_plan_id":"cebpf4jnsgd1na2vs0mg"},{"bike_id":"48a6b3e9-8600-4600-bef9-85b975b24e66","system_id":"levelo_inurba_marseille","lat":43.2905,"lon":5.35921,"is_reserved":false,"is_disabled":false,"rental_uris":{"android":"levelo://app?vid=48a6b3e9-8600-4600-bef9-85b975b24e66","ios":"levelo://app?vid=48a6b3e9-8600-4600-bef9-85b975b24e66"},"vehicle_type_id":"4","last_reported":1726510293,"current_range_meters":4800,"station_id":"ce4bha92rcd13ifvqeg0","pricing_plan_id":"cebpf4jnsgd1na2vs0mg"},{"bike_id":"194eec9d-53cc-4318-9f34-36a4f2e495dd","system_id":"levelo_inurba_marseille","lat":43.2781,"lon":5.40708,"is_reserved":false,"is_disabled":false,"rental_uris":{"android":"levelo://app?vid=194eec9d-53cc-4318-9f34-36a4f2e495dd","ios":"levelo://app?vid=194eec9d-53cc-4318-9f34-36a4f2e495dd"},"vehicle_type_id":"4","last_reported":1726510293,"current_range_meters":30800,"station_id":"ce4bhnh2rcd13ifvqgtg","pricing_plan_id":"cebpf4jnsgd1na2vs0mg"},{"bike_id":"5c0ce240-113d-4be3-b7d4-c92c91f91461","system_id":"levelo_inurba_marseille","lat":43.280353,"lon":5.426,"is_reserved":false,"is_disabled":false,"rental_uris":{"android":"levelo://app?vid=5c0ce240-113d-4be3-b7d4-c92c91f91461","ios":"levelo://app?vid=5c0ce240-113d-4be3-b7d4-c92c91f91461"},"vehicle_type_id":"4","last_reported":1726510293,"current_range_meters":12400,"station_id":"ce4bhnh2rcd13ifvqgug","pricing_plan_id":"cebpf4jnsgd1na2vs0mg"},{"bike_id":"0760be35-7535-411f-92da-2986422d5607","system_id":"levelo_inurba_marseille","lat":43.27991,"lon":5.40021,"is_reserved":false,"is_disabled":false,"rental_uris":{"android":"levelo://app?vid=0760be35-7535-411f-92da-2986422d5607","ios":"levelo://app?vid=0760be35-7535-411f-92da-2986422d5607"},"vehicle_type_id":"4","last_reported":1726510293,"current_range_meters":26800,"station_id":"ce4bho92rcd13ifvqh4g","pricing_plan_id":"cebpf4jnsgd1na2vs0mg"},{"bike_id":"f6b015cb-995a-484d-80d0-1606ad7b4b9c","system_id":"levelo_inurba_marseille","lat":43.258212,"lon":5.399657,"is_reserved":false,"is_disabled":false,"rental_uris":{"android":"levelo://app?vid=f6b015cb-995a-484d-80d0-1606ad7b4b9c","ios":"levelo://app?vid=f6b015cb-995a-484d-80d0-1606ad7b4b9c"},"vehicle_type_id":"4","last_reported":1726510293,"current_range_meters":2800,"station_id":"","pricing_plan_id":"cebpf4jnsgd1na2vs0mg"},{"bike_id":"12d67ac7-3103-4255-bcf6-091378bda43d","system_id":"levelo_inurba_marseille","lat":43.24386,"lon":5.37061,"is_reserved":false,"is_disabled":false,"rental_uris":{"android":"levelo://app?vid=12d67ac7-3103-4255-bcf6-091378bda43d","ios":"levelo://app?vid=12d67ac7-3103-4255-bcf6-091378bda43d"},"vehicle_type_id":"4","last_reported":1726510293,"current_range_meters":2800,"station_id":"ce4bhhh2rcd13ifvqfk0","pricing_plan_id":"cebpf4jnsgd1na2vs0mg"},{"bike_id":"6afad03a-7399-44fa-8f0b-fcf919694e67","system_id":"levelo_inurba_marseille","lat":43.31328,"lon":5.39693,"is_reserved":false,"is_disabled":false,"rental_uris":{"android":"levelo://app?vid=6afad03a-7399-44fa-8f0b-fcf919694e67","ios":"levelo://app?vid=6afad03a-7399-44fa-8f0b-fcf919694e67"},"vehicle_type_id":"4","last_reported":1726510293,"current_range_meters":34800,"station_id":"ce4bgvp2rcd13ifvqcu0","pricing_plan_id":"cebpf4jnsgd1na2vs0mg"},{"bike_id":"1ebd8891-1cb3-427f-b68a-d33b9c8f1a8f","system_id":"levelo_inurba_marseille","lat":43.29966,"lon":5.38493,"is_reserved":false,"is_disabled":false,"rental_uris":{"android":"levelo://app?vid=1ebd8891-1cb3-427f-b68a-d33b9c8f1a8f","ios":"levelo://app?vid=1ebd8891-1cb3-427f-b68a-d33b9c8f1a8f"},"vehicle_type_id":"4","last_reported":1726510293,"current_range_meters":14800,"station_id":"","pricing_plan_id":"cebpf4jnsgd1na2vs0mg"},{"bike_id":"0b0e929e-d24f-4cf8-98d9-0d9a9b05686b","system_id":"levelo_inurba_marseille","lat":43.27998,"lon":5.40021,"is_reserved":false,"is_disabled":false,"rental_uris":{"android":"levelo://app?vid=0b0e929e-d24f-4cf8-98d9-0d9a9b05686b","ios":"levelo://app?vid=0b0e929e-d24f-4cf8-98d9-0d9a9b05686b"},"vehicle_type_id":"4","last_reported":1726510293,"current_range_meters":29600,"station_id":"ce4bho92rcd13ifvqh4g","pricing_plan_id":"cebpf4jnsgd1na2vs0mg"},{"bike_id":"11b96f85-8a00-4dcd-a8f4-8d536bf7f2a1","system_id":"levelo_inurba_marseille","lat":43.32286,"lon":5.38281,"is_reserved":false,"is_disabled":false,"rental_uris":{"android":"levelo://app?vid=11b96f85-8a00-4dcd-a8f4-8d536bf7f2a1","ios":"levelo://app?vid=11b96f85-8a00-4dcd-a8f4-8d536bf7f2a1"},"vehicle_type_id":"4","last_reported":1726510293,"current_range_meters":2000,"station_id":"ce4bhr12rcd13ifvqhqg","pricing_plan_id":"cebpf4jnsgd1na2vs0mg"},{"bike_id":"8e871097-6ca9-458f-a7af-51bf04225af9","system_id":"levelo_inurba_marseille","lat":43.33016,"lon":5.39051,"is_reserved":false,"is_disabled":false,"rental_uris":{"android":"levelo://app?vid=8e871097-6ca9-458f-a7af-51bf04225af9","ios":"levelo://app?vid=8e871097-6ca9-458f-a7af-51bf04225af9"},"vehicle_type_id":"4","last_reported":1726510293,"current_range_meters":16800,"station_id":"ce4bhr92rcd13ifvqhrg","pricing_plan_id":"cebpf4jnsgd1na2vs0mg"},{"bike_id":"c83965aa-4f13-46bb-8475-de1aa58e937e","system_id":"levelo_inurba_marseille","lat":43.317066,"lon":5.377315,"is_reserved":false,"is_disabled":false,"rental_uris":{"android":"levelo://app?vid=c83965aa-4f13-46bb-8475-de1aa58e937e","ios":"levelo://app?vid=c83965aa-4f13-46bb-8475-de1aa58e937e"},"vehicle_type_id":"4","last_reported":1726510293,"current_range_meters":27600,"station_id":"ce4bgth2rcd13ifvqch0","pricing_plan_id":"cebpf4jnsgd1na2vs0mg"},{"bike_id":"0bd08b4a-7515-4ac3-ba66-e101a8c84da2","system_id":"levelo_inurba_marseille","lat":43.26955,"lon":5.38632,"is_reserved":false,"is_disabled":false,"rental_uris":{"android":"levelo://app?vid=0bd08b4a-7515-4ac3-ba66-e101a8c84da2","ios":"levelo://app?vid=0bd08b4a-7515-4ac3-ba66-e101a8c84da2"},"vehicle_type_id":"4","last_reported":1726510293,"current_range_meters":12000,"station_id":"ce4bhh92rcd13ifvqfh0","pricing_plan_id":"cebpf4jnsgd1na2vs0mg"},{"bike_id":"d123d1bd-bfb0-4b00-8bd2-16607f49164e","system_id":"levelo_inurba_marseille","lat":43.28147,"lon":5.42643,"is_reserved":false,"is_disabled":false,"rental_uris":{"android":"levelo://app?vid=d123d1bd-bfb0-4b00-8bd2-16607f49164e","ios":"levelo://app?vid=d123d1bd-bfb0-4b00-8bd2-16607f49164e"},"vehicle_type_id":"4","last_reported":1726510293,"current_range_meters":8800,"station_id":"ce4bhnh2rcd13ifvqgug","pricing_plan_id":"cebpf4jnsgd1na2vs0mg"},{"bike_id":"47f8796b-a82b-4d8a-bae4-04e07a0e0419","system_id":"levelo_inurba_marseille","lat":43.29596,"lon":5.38114,"is_reserved":false,"is_disabled":false,"rental_uris":{"android":"levelo://app?vid=47f8796b-a82b-4d8a-bae4-04e07a0e0419","ios":"levelo://app?vid=47f8796b-a82b-4d8a-bae4-04e07a0e0419"},"vehicle_type_id":"4","last_reported":1726510293,"current_range_meters":28000,"station_id":"ce4bgl12rcd13ifvqbo0","pricing_plan_id":"cebpf4jnsgd1na2vs0mg"},{"bike_id":"6f387a41-1a28-4619-ac86-26875678b81b","system_id":"levelo_inurba_marseille","lat":43.29895,"lon":5.43675,"is_reserved":false,"is_disabled":false,"rental_uris":{"android":"levelo://app?vid=6f387a41-1a28-4619-ac86-26875678b81b","ios":"levelo://app?vid=6f387a41-1a28-4619-ac86-26875678b81b"},"vehicle_type_id":"4","last_reported":1726510293,"current_range_meters":25600,"station_id":"ce4bhpp2rcd13ifvqhfg","pricing_plan_id":"cebpf4jnsgd1na2vs0mg"},{"bike_id":"3e70a32d-ee51-49e0-99e7-d18b30ad22ed","system_id":"levelo_inurba_marseille","lat":43.27813,"lon":5.39215,"is_reserved":false,"is_disabled":false,"rental_uris":{"android":"levelo://app?vid=3e70a32d-ee51-49e0-99e7-d18b30ad22ed","ios":"levelo://app?vid=3e70a32d-ee51-49e0-99e7-d18b30ad22ed"},"vehicle_type_id":"4","last_reported":1726510293,"current_range_meters":11200,"station_id":"ce4bhjp2rcd13ifvqga0","pricing_plan_id":"cebpf4jnsgd1na2vs0mg"},{"bike_id":"29280795-5a52-4dad-ba35-7a9557901f53","system_id":"levelo_inurba_marseille","lat":43.28946,"lon":5.364,"is_reserved":false,"is_disabled":false,"rental_uris":{"android":"levelo://app?vid=29280795-5a52-4dad-ba35-7a9557901f53","ios":"levelo://app?vid=29280795-5a52-4dad-ba35-7a9557901f53"},"vehicle_type_id":"4","last_reported":1726510293,"current_range_meters":10000,"station_id":"ce4bhc92rcd13ifvqetg","pricing_plan_id":"cebpf4jnsgd1na2vs0mg"},{"bike_id":"92e597b3-0c64-4cb7-ad08-7c6561c47121","system_id":"levelo_inurba_marseille","lat":43.27996,"lon":5.40009,"is_reserved":false,"is_disabled":false,"rental_uris":{"android":"levelo://app?vid=92e597b3-0c64-4cb7-ad08-7c6561c47121","ios":"levelo://app?vid=92e597b3-0c64-4cb7-ad08-7c6561c47121"},"vehicle_type_id":"4","last_reported":1726510293,"current_range_meters":8400,"station_id":"ce4bho92rcd13ifvqh4g","pricing_plan_id":"cebpf4jnsgd1na2vs0mg"},{"bike_id":"af0507c1-1090-473d-aefe-fa82d31f86d7","system_id":"levelo_inurba_marseille","lat":43.3096,"lon":5.3725,"is_reserved":false,"is_disabled":false,"rental_uris":{"android":"levelo://app?vid=af0507c1-1090-473d-aefe-fa82d31f86d7","ios":"levelo://app?vid=af0507c1-1090-473d-aefe-fa82d31f86d7"},"vehicle_type_id":"4","last_reported":1726510293,"current_range_meters":8400,"station_id":"ce4bguh2rcd13ifvqckg","pricing_plan_id":"cebpf4jnsgd1na2vs0mg"},{"bike_id":"d0aab10e-aefe-49c0-9d2e-929aef270b6b","system_id":"levelo_inurba_marseille","lat":43.27811,"lon":5.40709,"is_reserved":false,"is_disabled":false,"rental_uris":{"android":"levelo://app?vid=d0aab10e-aefe-49c0-9d2e-929aef270b6b","ios":"levelo://app?vid=d0aab10e-aefe-49c0-9d2e-929aef270b6b"},"vehicle_type_id":"4","last_reported":1726510293,"current_range_meters":22400,"station_id":"ce4bhnh2rcd13ifvqgtg","pricing_plan_id":"cebpf4jnsgd1na2vs0mg"},{"bike_id":"fab9d901-ef76-4cac-8183-93e7117090d0","system_id":"levelo_inurba_marseille","lat":43.28084,"lon":5.39663,"is_reserved":false,"is_disabled":false,"rental_uris":{"android":"levelo://app?vid=fab9d901-ef76-4cac-8183-93e7117090d0","ios":"levelo://app?vid=fab9d901-ef76-4cac-8183-93e7117090d0"},"vehicle_type_id":"4","last_reported":1726510293,"current_range_meters":8000,"station_id":"ce4bho12rcd13ifvqh2g","pricing_plan_id":"cebpf4jnsgd1na2vs0mg"},{"bike_id":"9a889f52-dc30-44bc-ae41-25e7902f921d","system_id":"levelo_inurba_marseille","lat":43.28404,"lon":5.37522,"is_reserved":false,"is_disabled":false,"rental_uris":{"android":"levelo://app?vid=9a889f52-dc30-44bc-ae41-25e7902f921d","ios":"levelo://app?vid=9a889f52-dc30-44bc-ae41-25e7902f921d"},"vehicle_type_id":"4","last_reported":1726510293,"current_range_meters":16800,"station_id":"ce4bh412rcd13ifvqds0","pricing_plan_id":"cebpf4jnsgd1na2vs0mg"},{"bike_id":"5d02e820-174a-4b65-b04d-cc4d96d2a0f2","system_id":"levelo_inurba_marseille","lat":43.28152,"lon":5.42645,"is_reserved":false,"is_disabled":false,"rental_uris":{"android":"levelo://app?vid=5d02e820-174a-4b65-b04d-cc4d96d2a0f2","ios":"levelo://app?vid=5d02e820-174a-4b65-b04d-cc4d96d2a0f2"},"vehicle_type_id":"4","last_reported":1726510293,"current_range_meters":4400,"station_id":"ce4bhnh2rcd13ifvqgug","pricing_plan_id":"cebpf4jnsgd1na2vs0mg"},{"bike_id":"efd73f19-4dbc-4e3f-b32f-cb53b58a33a4","system_id":"levelo_inurba_marseille","lat":43.30323,"lon":5.4044,"is_reserved":false,"is_disabled":false,"rental_uris":{"android":"levelo://app?vid=efd73f19-4dbc-4e3f-b32f-cb53b58a33a4","ios":"levelo://app?vid=efd73f19-4dbc-4e3f-b32f-cb53b58a33a4"},"vehicle_type_id":"4","last_reported":1726510293,"current_range_meters":37600,"station_id":"ce4bh012rcd13ifvqd10","pricing_plan_id":"cebpf4jnsgd1na2vs0mg"},{"bike_id":"d907984a-938f-48b2-8bf9-fba6816c8953","system_id":"levelo_inurba_marseille","lat":43.273376,"lon":5.393049,"is_reserved":false,"is_disabled":false,"rental_uris":{"android":"levelo://app?vid=d907984a-938f-48b2-8bf9-fba6816c8953","ios":"levelo://app?vid=d907984a-938f-48b2-8bf9-fba6816c8953"},"vehicle_type_id":"4","last_reported":1726510293,"current_range_meters":6400,"station_id":"ce4bhdp2rcd13ifvqf20","pricing_plan_id":"cebpf4jnsgd1na2vs0mg"},{"bike_id":"9106ddff-5120-4c4f-8185-d2759a87beea","system_id":"levelo_inurba_marseille","lat":43.3236,"lon":5.38884,"is_reserved":false,"is_disabled":false,"rental_uris":{"android":"levelo://app?vid=9106ddff-5120-4c4f-8185-d2759a87beea","ios":"levelo://app?vid=9106ddff-5120-4c4f-8185-d2759a87beea"},"vehicle_type_id":"4","last_reported":1726510293,"current_range_meters":16400,"station_id":"ce4bhqp2rcd13ifvqhog","pricing_plan_id":"cebpf4jnsgd1na2vs0mg"},{"bike_id":"d56dc265-83a3-4f7d-97a8-2e786272cae8","system_id":"levelo_inurba_marseille","lat":43.31992,"lon":5.38156,"is_reserved":false,"is_disabled":false,"rental_uris":{"android":"levelo://app?vid=d56dc265-83a3-4f7d-97a8-2e786272cae8","ios":"levelo://app?vid=d56dc265-83a3-4f7d-97a8-2e786272cae8"},"vehicle_type_id":"4","last_reported":1726510293,"current_range_meters":14400,"station_id":"ce4bhr12rcd13ifvqhpg","pricing_plan_id":"cebpf4jnsgd1na2vs0mg"},{"bike_id":"fccccb4f-d4e8-48f7-b5dd-c21ffbe0ef1f","system_id":"levelo_inurba_marseille","lat":43.30943,"lon":5.38634,"is_reserved":false,"is_disabled":false,"rental_uris":{"android":"levelo://app?vid=fccccb4f-d4e8-48f7-b5dd-c21ffbe0ef1f","ios":"levelo://app?vid=fccccb4f-d4e8-48f7-b5dd-c21ffbe0ef1f"},"vehicle_type_id":"4","last_reported":1726510293,"current_range_meters":2800,"station_id":"","pricing_plan_id":"cebpf4jnsgd1na2vs0mg"},{"bike_id":"45874cf0-f413-4a9c-b5ce-46cd79d9f149","system_id":"levelo_inurba_marseille","lat":43.23177,"lon":5.3999,"is_reserved":false,"is_disabled":false,"rental_uris":{"android":"levelo://app?vid=45874cf0-f413-4a9c-b5ce-46cd79d9f149","ios":"levelo://app?vid=45874cf0-f413-4a9c-b5ce-46cd79d9f149"},"vehicle_type_id":"4","last_reported":1726510293,"current_range_meters":8800,"station_id":"ce4bhn12rcd13ifvqgqg","pricing_plan_id":"cebpf4jnsgd1na2vs0mg"},{"bike_id":"63b3292c-fdfc-47f6-901a-5d38dd642a88","system_id":"levelo_inurba_marseille","lat":43.31127,"lon":5.39341,"is_reserved":false,"is_disabled":false,"rental_uris":{"android":"levelo://app?vid=63b3292c-fdfc-47f6-901a-5d38dd642a88","ios":"levelo://app?vid=63b3292c-fdfc-47f6-901a-5d38dd642a88"},"vehicle_type_id":"4","last_reported":1726510293,"current_range_meters":8400,"station_id":"","pricing_plan_id":"cebpf4jnsgd1na2vs0mg"},{"bike_id":"9eac4b7b-0fe7-4786-9c55-810077f8111b","system_id":"levelo_inurba_marseille","lat":43.24163,"lon":5.36393,"is_reserved":false,"is_disabled":false,"rental_uris":{"android":"levelo://app?vid=9eac4b7b-0fe7-4786-9c55-810077f8111b","ios":"levelo://app?vid=9eac4b7b-0fe7-4786-9c55-810077f8111b"},"vehicle_type_id":"4","last_reported":1726510293,"current_range_meters":4400,"station_id":"cpo36qri1sfpv3e86is0","pricing_plan_id":"cebpf4jnsgd1na2vs0mg"},{"bike_id":"2838c27a-4ab4-4845-9412-e4a06c1dd27c","system_id":"levelo_inurba_marseille","lat":43.296387,"lon":5.372945,"is_reserved":false,"is_disabled":false,"rental_uris":{"android":"levelo://app?vid=2838c27a-4ab4-4845-9412-e4a06c1dd27c","ios":"levelo://app?vid=2838c27a-4ab4-4845-9412-e4a06c1dd27c"},"vehicle_type_id":"4","last_reported":1726510293,"current_range_meters":2800,"station_id":"ce4bgk12rcd13ifvqbj0","pricing_plan_id":"cebpf4jnsgd1na2vs0mg"},{"bike_id":"cd448541-4010-43e5-80f1-c1dbc6324ee7","system_id":"levelo_inurba_marseille","lat":43.31168,"lon":5.38721,"is_reserved":false,"is_disabled":false,"rental_uris":{"android":"levelo://app?vid=cd448541-4010-43e5-80f1-c1dbc6324ee7","ios":"levelo://app?vid=cd448541-4010-43e5-80f1-c1dbc6324ee7"},"vehicle_type_id":"4","last_reported":1726510293,"current_range_meters":20400,"station_id":"ce4bgv12rcd13ifvqcp0","pricing_plan_id":"cebpf4jnsgd1na2vs0mg"},{"bike_id":"db865793-aa7c-4f02-a065-6a457f5ad6dc","system_id":"levelo_inurba_marseille","lat":43.30091,"lon":5.36526,"is_reserved":false,"is_disabled":false,"rental_uris":{"android":"levelo://app?vid=db865793-aa7c-4f02-a065-6a457f5ad6dc","ios":"levelo://app?vid=db865793-aa7c-4f02-a065-6a457f5ad6dc"},"vehicle_type_id":"4","last_reported":1726510293,"current_range_meters":3600,"station_id":"","pricing_plan_id":"cebpf4jnsgd1na2vs0mg"},{"bike_id":"625e05cb-9c0a-41d8-b8b5-e93f292478df","system_id":"levelo_inurba_marseille","lat":43.2971,"lon":5.36612,"is_reserved":false,"is_disabled":false,"rental_uris":{"android":"levelo://app?vid=625e05cb-9c0a-41d8-b8b5-e93f292478df","ios":"levelo://app?vid=625e05cb-9c0a-41d8-b8b5-e93f292478df"},"vehicle_type_id":"4","last_reported":1726510293,"current_range_meters":22800,"station_id":"ce4bgn12rcd13ifvqbt0","pricing_plan_id":"cebpf4jnsgd1na2vs0mg"},{"bike_id":"067e622e-5b24-421a-bc80-2b5c4352d9c2","system_id":"levelo_inurba_marseille","lat":43.28923,"lon":5.36391,"is_reserved":false,"is_disabled":false,"rental_uris":{"android":"levelo://app?vid=067e622e-5b24-421a-bc80-2b5c4352d9c2","ios":"levelo://app?vid=067e622e-5b24-421a-bc80-2b5c4352d9c2"},"vehicle_type_id":"4","last_reported":1726510293,"current_range_meters":17600,"station_id":"ce4bhc92rcd13ifvqetg","pricing_plan_id":"cebpf4jnsgd1na2vs0mg"},{"bike_id":"51c571c6-0b9d-40e4-934a-617e2bb456e6","system_id":"levelo_inurba_marseille","lat":43.3095,"lon":5.39019,"is_reserved":false,"is_disabled":false,"rental_uris":{"android":"levelo://app?vid=51c571c6-0b9d-40e4-934a-617e2bb456e6","ios":"levelo://app?vid=51c571c6-0b9d-40e4-934a-617e2bb456e6"},"vehicle_type_id":"4","last_reported":1726510293,"current_range_meters":38800,"station_id":"ce4bgup2rcd13ifvqco0","pricing_plan_id":"cebpf4jnsgd1na2vs0mg"},{"bike_id":"6ad48669-65a8-4e18-b903-e06055b6208e","system_id":"levelo_inurba_marseille","lat":43.26557,"lon":5.3728,"is_reserved":false,"is_disabled":false,"rental_uris":{"android":"levelo://app?vid=6ad48669-65a8-4e18-b903-e06055b6208e","ios":"levelo://app?vid=6ad48669-65a8-4e18-b903-e06055b6208e"},"vehicle_type_id":"4","last_reported":1726510293,"current_range_meters":39200,"station_id":"ce4bhg12rcd13ifvqf70","pricing_plan_id":"cebpf4jnsgd1na2vs0mg"},{"bike_id":"eec22482-353c-4a02-85b5-2ecb269a0e4e","system_id":"levelo_inurba_marseille","lat":43.31263,"lon":5.3684,"is_reserved":false,"is_disabled":false,"rental_uris":{"android":"levelo://app?vid=eec22482-353c-4a02-85b5-2ecb269a0e4e","ios":"levelo://app?vid=eec22482-353c-4a02-85b5-2ecb269a0e4e"},"vehicle_type_id":"4","last_reported":1726510293,"current_range_meters":32000,"station_id":"ce4bgl92rcd13ifvqbq0","pricing_plan_id":"cebpf4jnsgd1na2vs0mg"},{"bike_id":"346451ee-1f0d-4a1f-908d-db78b5735330","system_id":"levelo_inurba_marseille","lat":43.31125,"lon":5.38021,"is_reserved":false,"is_disabled":false,"rental_uris":{"android":"levelo://app?vid=346451ee-1f0d-4a1f-908d-db78b5735330","ios":"levelo://app?vid=346451ee-1f0d-4a1f-908d-db78b5735330"},"vehicle_type_id":"4","last_reported":1726510293,"current_range_meters":19200,"station_id":"","pricing_plan_id":"cebpf4jnsgd1na2vs0mg"},{"bike_id":"29bdddb5-cdb3-4757-bb03-741155ee0f46","system_id":"levelo_inurba_marseille","lat":43.24066,"lon":5.37768,"is_reserved":false,"is_disabled":false,"rental_uris":{"android":"levelo://app?vid=29bdddb5-cdb3-4757-bb03-741155ee0f46","ios":"levelo://app?vid=29bdddb5-cdb3-4757-bb03-741155ee0f46"},"vehicle_type_id":"4","last_reported":1726510293,"current_range_meters":6800,"station_id":"ce4bhnp2rcd13ifvqgvg","pricing_plan_id":"cebpf4jnsgd1na2vs0mg"},{"bike_id":"6435afba-bc2a-421e-b067-dda192f62a13","system_id":"levelo_inurba_marseille","lat":43.29575,"lon":5.37523,"is_reserved":false,"is_disabled":false,"rental_uris":{"android":"levelo://app?vid=6435afba-bc2a-421e-b067-dda192f62a13","ios":"levelo://app?vid=6435afba-bc2a-421e-b067-dda192f62a13"},"vehicle_type_id":"4","last_reported":1726510293,"current_range_meters":27600,"station_id":"ce4bgh92rcd13ifvqb50","pricing_plan_id":"cebpf4jnsgd1na2vs0mg"},{"bike_id":"73ade8ef-4416-441b-987e-7a74e884fa20","system_id":"levelo_inurba_marseille","lat":43.33018,"lon":5.39048,"is_reserved":false,"is_disabled":false,"rental_uris":{"android":"levelo://app?vid=73ade8ef-4416-441b-987e-7a74e884fa20","ios":"levelo://app?vid=73ade8ef-4416-441b-987e-7a74e884fa20"},"vehicle_type_id":"4","last_reported":1726510293,"current_range_meters":14800,"station_id":"ce4bhr92rcd13ifvqhrg","pricing_plan_id":"cebpf4jnsgd1na2vs0mg"},{"bike_id":"5bb1d010-0238-448f-a470-fc44e8685316","system_id":"levelo_inurba_marseille","lat":43.23193,"lon":5.35543,"is_reserved":false,"is_disabled":false,"rental_uris":{"android":"levelo://app?vid=5bb1d010-0238-448f-a470-fc44e8685316","ios":"levelo://app?vid=5bb1d010-0238-448f-a470-fc44e8685316"},"vehicle_type_id":"4","last_reported":1726510293,"current_range_meters":38000,"station_id":"ce4bhu92rcd13ifvqi70","pricing_plan_id":"cebpf4jnsgd1na2vs0mg"},{"bike_id":"7b786adf-b297-4422-a6d2-ca1cd4c928ca","system_id":"levelo_inurba_marseille","lat":43.24167,"lon":5.36398,"is_reserved":false,"is_disabled":false,"rental_uris":{"android":"levelo://app?vid=7b786adf-b297-4422-a6d2-ca1cd4c928ca","ios":"levelo://app?vid=7b786adf-b297-4422-a6d2-ca1cd4c928ca"},"vehicle_type_id":"4","last_reported":1726510293,"current_range_meters":19200,"station_id":"cpo36qri1sfpv3e86is0","pricing_plan_id":"cebpf4jnsgd1na2vs0mg"},{"bike_id":"9dbbd17f-5450-487d-a669-5df91e9c6a9f","system_id":"levelo_inurba_marseille","lat":43.33023,"lon":5.39045,"is_reserved":false,"is_disabled":false,"rental_uris":{"android":"levelo://app?vid=9dbbd17f-5450-487d-a669-5df91e9c6a9f","ios":"levelo://app?vid=9dbbd17f-5450-487d-a669-5df91e9c6a9f"},"vehicle_type_id":"4","last_reported":1726510293,"current_range_meters":2800,"station_id":"ce4bhr92rcd13ifvqhrg","pricing_plan_id":"cebpf4jnsgd1na2vs0mg"},{"bike_id":"9c4ae57a-2882-416c-8ef5-5d6f1c0d8a96","system_id":"levelo_inurba_marseille","lat":43.28703,"lon":5.37389,"is_reserved":false,"is_disabled":false,"rental_uris":{"android":"levelo://app?vid=9c4ae57a-2882-416c-8ef5-5d6f1c0d8a96","ios":"levelo://app?vid=9c4ae57a-2882-416c-8ef5-5d6f1c0d8a96"},"vehicle_type_id":"4","last_reported":1726510293,"current_range_meters":36400,"station_id":"ce4bh3p2rcd13ifvqdq0","pricing_plan_id":"cebpf4jnsgd1na2vs0mg"},{"bike_id":"c2e5d5ee-484b-42d2-97bb-30fd992faf4b","system_id":"levelo_inurba_marseille","lat":43.23187,"lon":5.35553,"is_reserved":false,"is_disabled":false,"rental_uris":{"android":"levelo://app?vid=c2e5d5ee-484b-42d2-97bb-30fd992faf4b","ios":"levelo://app?vid=c2e5d5ee-484b-42d2-97bb-30fd992faf4b"},"vehicle_type_id":"4","last_reported":1726510293,"current_range_meters":16400,"station_id":"ce4bhu92rcd13ifvqi70","pricing_plan_id":"cebpf4jnsgd1na2vs0mg"},{"bike_id":"d09fb39a-2862-4661-8e0a-ab9926e9248e","system_id":"levelo_inurba_marseille","lat":43.311258,"lon":5.377863,"is_reserved":false,"is_disabled":false,"rental_uris":{"android":"levelo://app?vid=d09fb39a-2862-4661-8e0a-ab9926e9248e","ios":"levelo://app?vid=d09fb39a-2862-4661-8e0a-ab9926e9248e"},"vehicle_type_id":"4","last_reported":1726510293,"current_range_meters":38800,"station_id":"ce4bgt92rcd13ifvqcg0","pricing_plan_id":"cebpf4jnsgd1na2vs0mg"},{"bike_id":"9d57a6f4-2131-4758-81f1-268ac6da0a62","system_id":"levelo_inurba_marseille","lat":43.32477,"lon":5.3657,"is_reserved":false,"is_disabled":false,"rental_uris":{"android":"levelo://app?vid=9d57a6f4-2131-4758-81f1-268ac6da0a62","ios":"levelo://app?vid=9d57a6f4-2131-4758-81f1-268ac6da0a62"},"vehicle_type_id":"4","last_reported":1726510293,"current_range_meters":30000,"station_id":"ce4bhs12rcd13ifvqhvg","pricing_plan_id":"cebpf4jnsgd1na2vs0mg"},{"bike_id":"65a4ccd0-2f7c-4899-b31b-c7c5f032daeb","system_id":"levelo_inurba_marseille","lat":43.23182,"lon":5.35562,"is_reserved":false,"is_disabled":false,"rental_uris":{"android":"levelo://app?vid=65a4ccd0-2f7c-4899-b31b-c7c5f032daeb","ios":"levelo://app?vid=65a4ccd0-2f7c-4899-b31b-c7c5f032daeb"},"vehicle_type_id":"4","last_reported":1726510293,"current_range_meters":34000,"station_id":"ce4bhu92rcd13ifvqi70","pricing_plan_id":"cebpf4jnsgd1na2vs0mg"},{"bike_id":"2e203179-077b-43b9-a985-5eaf1a0c1c83","system_id":"levelo_inurba_marseille","lat":43.23177,"lon":5.39986,"is_reserved":false,"is_disabled":false,"rental_uris":{"android":"levelo://app?vid=2e203179-077b-43b9-a985-5eaf1a0c1c83","ios":"levelo://app?vid=2e203179-077b-43b9-a985-5eaf1a0c1c83"},"vehicle_type_id":"4","last_reported":1726510293,"current_range_meters":20000,"station_id":"ce4bhn12rcd13ifvqgqg","pricing_plan_id":"cebpf4jnsgd1na2vs0mg"},{"bike_id":"89b81ed8-88d2-4ca1-9622-b938a38be7ed","system_id":"levelo_inurba_marseille","lat":43.298968,"lon":5.387771,"is_reserved":false,"is_disabled":false,"rental_uris":{"android":"levelo://app?vid=89b81ed8-88d2-4ca1-9622-b938a38be7ed","ios":"levelo://app?vid=89b81ed8-88d2-4ca1-9622-b938a38be7ed"},"vehicle_type_id":"4","last_reported":1726510293,"current_range_meters":23200,"station_id":"ce4bh392rcd13ifvqdl0","pricing_plan_id":"cebpf4jnsgd1na2vs0mg"},{"bike_id":"0ba9a840-0749-493b-93f5-5a0f2f2b3bc9","system_id":"levelo_inurba_marseille","lat":43.28468,"lon":5.38418,"is_reserved":false,"is_disabled":false,"rental_uris":{"android":"levelo://app?vid=0ba9a840-0749-493b-93f5-5a0f2f2b3bc9","ios":"levelo://app?vid=0ba9a840-0749-493b-93f5-5a0f2f2b3bc9"},"vehicle_type_id":"4","last_reported":1726510293,"current_range_meters":38800,"station_id":"ce4bh512rcd13ifvqe3g","pricing_plan_id":"cebpf4jnsgd1na2vs0mg"},{"bike_id":"ec10b7c1-83fb-4c89-8439-3b56a276f7f0","system_id":"levelo_inurba_marseille","lat":43.27813,"lon":5.40711,"is_reserved":false,"is_disabled":false,"rental_uris":{"android":"levelo://app?vid=ec10b7c1-83fb-4c89-8439-3b56a276f7f0","ios":"levelo://app?vid=ec10b7c1-83fb-4c89-8439-3b56a276f7f0"},"vehicle_type_id":"4","last_reported":1726510293,"current_range_meters":11200,"station_id":"ce4bhnh2rcd13ifvqgtg","pricing_plan_id":"cebpf4jnsgd1na2vs0mg"},{"bike_id":"9bfdb6ad-6413-486c-91bb-7c4ece303b4c","system_id":"levelo_inurba_marseille","lat":43.30637,"lon":5.40086,"is_reserved":false,"is_disabled":false,"rental_uris":{"android":"levelo://app?vid=9bfdb6ad-6413-486c-91bb-7c4ece303b4c","ios":"levelo://app?vid=9bfdb6ad-6413-486c-91bb-7c4ece303b4c"},"vehicle_type_id":"4","last_reported":1726510293,"current_range_meters":38800,"station_id":"ce4bh112rcd13ifvqda0","pricing_plan_id":"cebpf4jnsgd1na2vs0mg"},{"bike_id":"c82042bf-94ca-436c-ab15-5d02e08482a7","system_id":"levelo_inurba_marseille","lat":43.28935,"lon":5.364,"is_reserved":false,"is_disabled":false,"rental_uris":{"android":"levelo://app?vid=c82042bf-94ca-436c-ab15-5d02e08482a7","ios":"levelo://app?vid=c82042bf-94ca-436c-ab15-5d02e08482a7"},"vehicle_type_id":"4","last_reported":1726510293,"current_range_meters":13600,"station_id":"ce4bhc92rcd13ifvqetg","pricing_plan_id":"cebpf4jnsgd1na2vs0mg"},{"bike_id":"e666387e-fbd3-4bfc-ac40-4c0b2c2e10b6","system_id":"levelo_inurba_marseille","lat":43.24657,"lon":5.38161,"is_reserved":false,"is_disabled":false,"rental_uris":{"android":"levelo://app?vid=e666387e-fbd3-4bfc-ac40-4c0b2c2e10b6","ios":"levelo://app?vid=e666387e-fbd3-4bfc-ac40-4c0b2c2e10b6"},"vehicle_type_id":"4","last_reported":1726510293,"current_range_meters":19600,"station_id":"ce4bhih2rcd13ifvqfr0","pricing_plan_id":"cebpf4jnsgd1na2vs0mg"},{"bike_id":"af1752d8-9427-4138-be18-463a583006e8","system_id":"levelo_inurba_marseille","lat":43.27811,"lon":5.40711,"is_reserved":false,"is_disabled":false,"rental_uris":{"android":"levelo://app?vid=af1752d8-9427-4138-be18-463a583006e8","ios":"levelo://app?vid=af1752d8-9427-4138-be18-463a583006e8"},"vehicle_type_id":"4","last_reported":1726510293,"current_range_meters":23200,"station_id":"ce4bhnh2rcd13ifvqgtg","pricing_plan_id":"cebpf4jnsgd1na2vs0mg"},{"bike_id":"72894e1f-a22e-4f3d-8b22-3980391d1687","system_id":"levelo_inurba_marseille","lat":43.28856,"lon":5.35853,"is_reserved":false,"is_disabled":false,"rental_uris":{"android":"levelo://app?vid=72894e1f-a22e-4f3d-8b22-3980391d1687","ios":"levelo://app?vid=72894e1f-a22e-4f3d-8b22-3980391d1687"},"vehicle_type_id":"4","last_reported":1726510293,"current_range_meters":29600,"station_id":"ce4bhb12rcd13ifvqem0","pricing_plan_id":"cebpf4jnsgd1na2vs0mg"},{"bike_id":"58b99689-67d9-42b9-b105-b2d400ae4a83","system_id":"levelo_inurba_marseille","lat":43.22937,"lon":5.35375,"is_reserved":false,"is_disabled":false,"rental_uris":{"android":"levelo://app?vid=58b99689-67d9-42b9-b105-b2d400ae4a83","ios":"levelo://app?vid=58b99689-67d9-42b9-b105-b2d400ae4a83"},"vehicle_type_id":"4","last_reported":1726510293,"current_range_meters":30400,"station_id":"cpo3532slgdg3j2ikp40","pricing_plan_id":"cebpf4jnsgd1na2vs0mg"},{"bike_id":"ebdc4ee7-686e-475b-a63b-b4ab1d9fbe88","system_id":"levelo_inurba_marseille","lat":43.311209,"lon":5.377792,"is_reserved":false,"is_disabled":false,"rental_uris":{"android":"levelo://app?vid=ebdc4ee7-686e-475b-a63b-b4ab1d9fbe88","ios":"levelo://app?vid=ebdc4ee7-686e-475b-a63b-b4ab1d9fbe88"},"vehicle_type_id":"4","last_reported":1726510293,"current_range_meters":38800,"station_id":"ce4bgt92rcd13ifvqcg0","pricing_plan_id":"cebpf4jnsgd1na2vs0mg"},{"bike_id":"1de2cd63-3aa5-4e2d-b416-7a94810ab222","system_id":"levelo_inurba_marseille","lat":43.30419,"lon":5.41286,"is_reserved":false,"is_disabled":false,"rental_uris":{"android":"levelo://app?vid=1de2cd63-3aa5-4e2d-b416-7a94810ab222","ios":"levelo://app?vid=1de2cd63-3aa5-4e2d-b416-7a94810ab222"},"vehicle_type_id":"4","last_reported":1726510293,"current_range_meters":5600,"station_id":"ce4bhop2rcd13ifvqh8g","pricing_plan_id":"cebpf4jnsgd1na2vs0mg"},{"bike_id":"40e6fe0f-da1f-45af-a9eb-54cb19db8690","system_id":"levelo_inurba_marseille","lat":43.283722,"lon":5.380959,"is_reserved":false,"is_disabled":false,"rental_uris":{"android":"levelo://app?vid=40e6fe0f-da1f-45af-a9eb-54cb19db8690","ios":"levelo://app?vid=40e6fe0f-da1f-45af-a9eb-54cb19db8690"},"vehicle_type_id":"4","last_reported":1726510293,"current_range_meters":3200,"station_id":"ce4bh412rcd13ifvqdr0","pricing_plan_id":"cebpf4jnsgd1na2vs0mg"},{"bike_id":"ba55f83c-c472-402d-8d8a-f2e32574af36","system_id":"levelo_inurba_marseille","lat":43.29872,"lon":5.39739,"is_reserved":false,"is_disabled":false,"rental_uris":{"android":"levelo://app?vid=ba55f83c-c472-402d-8d8a-f2e32574af36","ios":"levelo://app?vid=ba55f83c-c472-402d-8d8a-f2e32574af36"},"vehicle_type_id":"4","last_reported":1726510293,"current_range_meters":33600,"station_id":"ce4bh0h2rcd13ifvqd50","pricing_plan_id":"cebpf4jnsgd1na2vs0mg"},{"bike_id":"1f60962f-c9e1-4ef9-baf9-0f27c0d2e97d","system_id":"levelo_inurba_marseille","lat":43.27808,"lon":5.40712,"is_reserved":false,"is_disabled":false,"rental_uris":{"android":"levelo://app?vid=1f60962f-c9e1-4ef9-baf9-0f27c0d2e97d","ios":"levelo://app?vid=1f60962f-c9e1-4ef9-baf9-0f27c0d2e97d"},"vehicle_type_id":"4","last_reported":1726510293,"current_range_meters":4800,"station_id":"ce4bhnh2rcd13ifvqgtg","pricing_plan_id":"cebpf4jnsgd1na2vs0mg"},{"bike_id":"36ac99db-ecbc-4ee8-b239-ef64ac120ce1","system_id":"levelo_inurba_marseille","lat":43.29903,"lon":5.43668,"is_reserved":false,"is_disabled":false,"rental_uris":{"android":"levelo://app?vid=36ac99db-ecbc-4ee8-b239-ef64ac120ce1","ios":"levelo://app?vid=36ac99db-ecbc-4ee8-b239-ef64ac120ce1"},"vehicle_type_id":"4","last_reported":1726510293,"current_range_meters":8000,"station_id":"ce4bhpp2rcd13ifvqhfg","pricing_plan_id":"cebpf4jnsgd1na2vs0mg"},{"bike_id":"9e6943a6-cea6-42e7-89b4-748226eb9e92","system_id":"levelo_inurba_marseille","lat":43.30932,"lon":5.4015,"is_reserved":false,"is_disabled":false,"rental_uris":{"android":"levelo://app?vid=9e6943a6-cea6-42e7-89b4-748226eb9e92","ios":"levelo://app?vid=9e6943a6-cea6-42e7-89b4-748226eb9e92"},"vehicle_type_id":"4","last_reported":1726510293,"current_range_meters":9200,"station_id":"ce4bgvp2rcd13ifvqct0","pricing_plan_id":"cebpf4jnsgd1na2vs0mg"},{"bike_id":"83086daa-e293-4617-a6b7-8c25d1be185f","system_id":"levelo_inurba_marseille","lat":43.31714,"lon":5.43706,"is_reserved":false,"is_disabled":false,"rental_uris":{"android":"levelo://app?vid=83086daa-e293-4617-a6b7-8c25d1be185f","ios":"levelo://app?vid=83086daa-e293-4617-a6b7-8c25d1be185f"},"vehicle_type_id":"4","last_reported":1726510293,"current_range_meters":2800,"station_id":"ce4bhp92rcd13ifvqhcg","pricing_plan_id":"cebpf4jnsgd1na2vs0mg"},{"bike_id":"770714b3-eeb7-4016-88f6-0a5b5471963d","system_id":"levelo_inurba_marseille","lat":43.25002,"lon":5.38927,"is_reserved":false,"is_disabled":false,"rental_uris":{"android":"levelo://app?vid=770714b3-eeb7-4016-88f6-0a5b5471963d","ios":"levelo://app?vid=770714b3-eeb7-4016-88f6-0a5b5471963d"},"vehicle_type_id":"4","last_reported":1726510293,"current_range_meters":16000,"station_id":"ce4bhgp2rcd13ifvqfd0","pricing_plan_id":"cebpf4jnsgd1na2vs0mg"},{"bike_id":"0df06088-362e-49d9-8f54-f66df627f855","system_id":"levelo_inurba_marseille","lat":43.31758,"lon":5.36962,"is_reserved":false,"is_disabled":false,"rental_uris":{"android":"levelo://app?vid=0df06088-362e-49d9-8f54-f66df627f855","ios":"levelo://app?vid=0df06088-362e-49d9-8f54-f66df627f855"},"vehicle_type_id":"4","last_reported":1726510293,"current_range_meters":34800,"station_id":"","pricing_plan_id":"cebpf4jnsgd1na2vs0mg"},{"bike_id":"44f40c76-41c9-4542-bf46-974fed68ed9b","system_id":"levelo_inurba_marseille","lat":43.25572,"lon":5.38226,"is_reserved":false,"is_disabled":false,"rental_uris":{"android":"levelo://app?vid=44f40c76-41c9-4542-bf46-974fed68ed9b","ios":"levelo://app?vid=44f40c76-41c9-4542-bf46-974fed68ed9b"},"vehicle_type_id":"4","last_reported":1726510293,"current_range_meters":11200,"station_id":"ce4bhih2rcd13ifvqfs0","pricing_plan_id":"cebpf4jnsgd1na2vs0mg"},{"bike_id":"30b1c089-4e52-4a7a-a137-74d4ef2d3fbd","system_id":"levelo_inurba_marseille","lat":43.23188,"lon":5.3555,"is_reserved":false,"is_disabled":false,"rental_uris":{"android":"levelo://app?vid=30b1c089-4e52-4a7a-a137-74d4ef2d3fbd","ios":"levelo://app?vid=30b1c089-4e52-4a7a-a137-74d4ef2d3fbd"},"vehicle_type_id":"4","last_reported":1726510293,"current_range_meters":38000,"station_id":"ce4bhu92rcd13ifvqi70","pricing_plan_id":"cebpf4jnsgd1na2vs0mg"},{"bike_id":"dd0bc304-b281-41a1-b57b-bae5c80dcc77","system_id":"levelo_inurba_marseille","lat":43.314808,"lon":5.37315,"is_reserved":false,"is_disabled":false,"rental_uris":{"android":"levelo://app?vid=dd0bc304-b281-41a1-b57b-bae5c80dcc77","ios":"levelo://app?vid=dd0bc304-b281-41a1-b57b-bae5c80dcc77"},"vehicle_type_id":"4","last_reported":1726510293,"current_range_meters":38800,"station_id":"ce4bgt12rcd13ifvqcd0","pricing_plan_id":"cebpf4jnsgd1na2vs0mg"},{"bike_id":"aee0e376-5e37-41ff-872b-c1506f10079c","system_id":"levelo_inurba_marseille","lat":43.30242,"lon":5.40044,"is_reserved":false,"is_disabled":false,"rental_uris":{"android":"levelo://app?vid=aee0e376-5e37-41ff-872b-c1506f10079c","ios":"levelo://app?vid=aee0e376-5e37-41ff-872b-c1506f10079c"},"vehicle_type_id":"4","last_reported":1726510293,"current_range_meters":26800,"station_id":"","pricing_plan_id":"cebpf4jnsgd1na2vs0mg"},{"bike_id":"98b49645-0839-455c-812e-6554895f5271","system_id":"levelo_inurba_marseille","lat":43.290009,"lon":5.356131,"is_reserved":false,"is_disabled":false,"rental_uris":{"android":"levelo://app?vid=98b49645-0839-455c-812e-6554895f5271","ios":"levelo://app?vid=98b49645-0839-455c-812e-6554895f5271"},"vehicle_type_id":"4","last_reported":1726510293,"current_range_meters":30000,"station_id":"ce4bgqh2rcd13ifvqc5g","pricing_plan_id":"cebpf4jnsgd1na2vs0mg"},{"bike_id":"3b00a2ff-e021-4dfe-b98c-26ba2560755e","system_id":"levelo_inurba_marseille","lat":43.27898,"lon":5.38014,"is_reserved":false,"is_disabled":false,"rental_uris":{"android":"levelo://app?vid=3b00a2ff-e021-4dfe-b98c-26ba2560755e","ios":"levelo://app?vid=3b00a2ff-e021-4dfe-b98c-26ba2560755e"},"vehicle_type_id":"4","last_reported":1726510293,"current_range_meters":30800,"station_id":"ce4bhf92rcd13ifvqf50","pricing_plan_id":"cebpf4jnsgd1na2vs0mg"},{"bike_id":"0d04464b-4218-4af5-942c-01f21d055469","system_id":"levelo_inurba_marseille","lat":43.278109,"lon":5.40718,"is_reserved":false,"is_disabled":false,"rental_uris":{"android":"levelo://app?vid=0d04464b-4218-4af5-942c-01f21d055469","ios":"levelo://app?vid=0d04464b-4218-4af5-942c-01f21d055469"},"vehicle_type_id":"4","last_reported":1726510293,"current_range_meters":16800,"station_id":"ce4bhnh2rcd13ifvqgug","pricing_plan_id":"cebpf4jnsgd1na2vs0mg"},