{"last_updated":1737576629,"ttl":60,"version":"2.2","data":{"bikes":[{"bike_id":"df333c25-0f88-42f5-b3dc-c9f35cb12def","system_id":"levelo_inurba_marseille","lat":43.29002,"lon":5.38117,"is_reserved":false,"is_disabled":false,"rental_uris":{"android":"levelo://app?vid=df333c25-0f88-42f5-b3dc-c9f35cb12def","ios":"levelo://app?vid=df333c25-0f88-42f5-b3dc-c9f35cb12def"},"vehicle_type_id":"4","last_reported":1737576629,"current_range_meters":13600,"station_id":"ce4bh4p2rcd13ifvqe1g","pricing_plan_id":"cebpf4jnsgd1na2vs0mg"},{"bike_id":"bc87ebb9-79d8-48ae-98f1-73024abdc038","system_id":"levelo_inurba_marseille","lat":43.29236,"lon":5.36047,"is_reserved":false,"is_disabled":true,"rental_uris":{"android":"levelo://app?vid=bc87ebb9-79d8-48ae-98f1-73024abdc038","ios":"levelo://app?vid=bc87ebb9-79d8-48ae-98f1-73024abdc038"},"vehicle_type_id":"4","last_reported":1737576629,"current_range_meters":800,"station_id":"ce4bhbh2rcd13ifvqeqg","pricing_plan_id":"cebpf4jnsgd1na2vs0mg"},{"bike_id":"6e18928a-47f2-4736-aca6-b8a8b5ad6936","system_id":"levelo_inurba_marseille","lat":43.27817,"lon":5.40701,"is_reserved":false,"is_disabled":false,"rental_uris":{"android":"levelo://app?vid=6e18928a-47f2-4736-aca6-b8a8b5ad6936","ios":"levelo://app?vid=6e18928a-47f2-4736-aca6-b8a8b5ad6936"},"vehicle_type_id":"4","last_reported":1737576629,"current_range_meters":39200,"station_id":"ce4bhnh2rcd13ifvqgtg","pricing_plan_id":"cebpf4jnsgd1na2vs0mg"},{"bike_id":"5fe5e92b-23bb-4860-a2fe-86743e81fb05","system_id":"levelo_inurba_marseille","lat":43.28457,"lon":5.35886,"is_reserved":false,"is_disabled":false,"rental_uris":{"android":"levelo://app?vid=5fe5e92b-23bb-4860-a2fe-86743e81fb05","ios":"levelo://app?vid=5fe5e92b-23bb-4860-a2fe-86743e81fb05"},"vehicle_type_id":"4","last_reported":1737576629,"current_range_meters":24800,"station_id":"ce4bhah2rcd13ifvqei0","pricing_plan_id":"cebpf4jnsgd1na2vs0mg"},{"bike_id":"b4515517-c8a5-4347-9a75-b80759d8b378","system_id":"levelo_inurba_marseille","lat":43.29698,"lon":5.36608,"is_reserved":false,"is_disabled":false,"rental_uris":{"android":"levelo://app?vid=b4515517-c8a5-4347-9a75-b80759d8b378","ios":"levelo://app?vid=b4515517-c8a5-4347-9a75-b80759d8b378"},"vehicle_type_id":"4","last_reported":1737576629,"current_range_meters":38800,"station_id":"ce4bgn12rcd13ifvqbt0","pricing_plan_id":"cebpf4jnsgd1na2vs0mg"},{"bike_id":"762c363e-b2db-4405-8db4-1b7c46009985","system_id":"levelo_inurba_marseille","lat":43.2827,"lon":5.35072,"is_reserved":false,"is_disabled":false,"rental_uris":{"android":"levelo://app?vid=762c363e-b2db-4405-8db4-1b7c46009985","ios":"levelo://app?vid=762c363e-b2db-4405-8db4-1b7c46009985"},"vehicle_type_id":"4","last_reported":1737576629,"current_range_meters":35200,"station_id":"ce4bhbp2rcd13ifvqerg","pricing_plan_id":"cebpf4jnsgd1na2vs0mg"},{"bike_id":"bbda3c6a-8a7d-4032-92e7-cc076cf2b2b8","system_id":"levelo_inurba_marseille","lat":43.29038,"lon":5.37561,"is_reserved":false,"is_disabled":false,"rental_uris":{"android":"levelo://app?vid=bbda3c6a-8a7d-4032-92e7-cc076cf2b2b8","ios":"levelo://app?vid=bbda3c6a-8a7d-4032-92e7-cc076cf2b2b8"},"vehicle_type_id":"4","last_reported":1737576629,"current_range_meters":20800,"station_id":"ce4bh692rcd13ifvqe90","pricing_plan_id":"cebpf4jnsgd1na2vs0mg"},{"bike_id":"4d9af203-3667-4745-ac7f-03559c37ec70","system_id":"levelo_inurba_marseille","lat":43.31485,"lon":5.37284,"is_reserved":false,"is_disabled":false,"rental_uris":{"android":"levelo://app?vid=4d9af203-3667-4745-ac7f-03559c37ec70","ios":"levelo://app?vid=4d9af203-3667-4745-ac7f-03559c37ec70"},"vehicle_type_id":"4","last_reported":1737576629,"current_range_meters":30000,"station_id":"ce4bgt12rcd13ifvqcd0","pricing_plan_id":"cebpf4jnsgd1na2vs0mg"},{"bike_id":"21f1aed0-517d-44fe-acc4-af2df5aa40a3","system_id":"levelo_inurba_marseille","lat":43.31065,"lon":5.38357,"is_reserved":false,"is_disabled":false,"rental_uris":{"android":"levelo://app?vid=21f1aed0-517d-44fe-acc4-af2df5aa40a3","ios":"levelo://app?vid=21f1aed0-517d-44fe-acc4-af2df5aa40a3"},"vehicle_type_id":"4","last_reported":1737576629,"current_range_meters":27600,"station_id":"ce4bgv92rcd13ifvqcr0","pricing_plan_id":"cebpf4jnsgd1na2vs0mg"},{"bike_id":"eea95a78-8daf-4faa-aee3-23a96919c2f6","system_id":"levelo_inurba_marseille","lat":43.28915,"lon":5.38381,"is_reserved":false,"is_disabled":false,"rental_uris":{"android":"levelo://app?vid=eea95a78-8daf-4faa-aee3-23a96919c2f6","ios":"levelo://app?vid=eea95a78-8daf-4faa-aee3-23a96919c2f6"},"vehicle_type_id":"4","last_reported":1737576629,"current_range_meters":20400,"station_id":"ce4bh612rcd13ifvqe6g","pricing_plan_id":"cebpf4jnsgd1na2vs0mg"},{"bike_id":"6a7fd8e3-60b6-4468-9c52-741f71ef3c74","system_id":"levelo_inurba_marseille","lat":43.30126,"lon":5.39876,"is_reserved":false,"is_disabled":false,"rental_uris":{"android":"levelo://app?vid=6a7fd8e3-60b6-4468-9c52-741f71ef3c74","ios":"levelo://app?vid=6a7fd8e3-60b6-4468-9c52-741f71ef3c74"},"vehicle_type_id":"4","last_reported":1737576629,"current_range_meters":38400,"station_id":"ce4bh0h2rcd13ifvqd40","pricing_plan_id":"cebpf4jnsgd1na2vs0mg"},{"bike_id":"f9509cf3-61c9-4e98-a3dc-ab6e052fedb5","system_id":"levelo_inurba_marseille","lat":43.24049,"lon":5.37733,"is_reserved":false,"is_disabled":false,"rental_uris":{"android":"levelo://app?vid=f9509cf3-61c9-4e98-a3dc-ab6e052fedb5","ios":"levelo://app?vid=f9509cf3-61c9-4e98-a3dc-ab6e052fedb5"},"vehicle_type_id":"4","last_reported":1737576629,"current_range_meters":39200,"station_id":"ce4bhnp2rcd13ifvqgvg","pricing_plan_id":"cebpf4jnsgd1na2vs0mg"},{"bike_id":"1d112a4c-9e7e-41d8-8ffb-8c02b95439bd","system_id":"levelo_inurba_marseille","lat":43.28402,"lon":5.3751,"is_reserved":false,"is_disabled":false,"rental_uris":{"android":"levelo://app?vid=1d112a4c-9e7e-41d8-8ffb-8c02b95439bd","ios":"levelo://app?vid=1d112a4c-9e7e-41d8-8ffb-8c02b95439bd"},"vehicle_type_id":"4","last_reported":1737576629,"current_range_meters":36800,"station_id":"ce4bh412rcd13ifvqds0","pricing_plan_id":"cebpf4jnsgd1na2vs0mg"},{"bike_id":"f80daf71-64ee-49e9-aa12-8ec2343a46ac","system_id":"levelo_inurba_marseille","lat":43.33032,"lon":5.39032,"is_reserved":false,"is_disabled":false,"rental_uris":{"android":"levelo://app?vid=f80daf71-64ee-49e9-aa12-8ec2343a46ac","ios":"levelo://app?vid=f80daf71-64ee-49e9-aa12-8ec2343a46ac"},"vehicle_type_id":"4","last_reported":1737576629,"current_range_meters":38800,"station_id":"ce4bhr92rcd13ifvqhrg","pricing_plan_id":"cebpf4jnsgd1na2vs0mg"},{"bike_id":"c23f8336-5a03-4943-81ac-cb3e6e23d0a0","system_id":"levelo_inurba_marseille","lat":43.2794,"lon":5.39591,"is_reserved":false,"is_disabled":false,"rental_uris":{"android":"levelo://app?vid=c23f8336-5a03-4943-81ac-cb3e6e23d0a0","ios":"levelo://app?vid=c23f8336-5a03-4943-81ac-cb3e6e23d0a0"},"vehicle_type_id":"4","last_reported":1737576629,"current_range_meters":37600,"station_id":"ce4bhf92rcd13ifvqf40","pricing_plan_id":"cebpf4jnsgd1na2vs0mg"},{"bike_id":"47a5c903-d960-4eec-b908-6451b150f9f7","system_id":"levelo_inurba_marseille","lat":43.240629,"lon":5.377669,"is_reserved":false,"is_disabled":false,"rental_uris":{"android":"levelo://app?vid=47a5c903-d960-4eec-b908-6451b150f9f7","ios":"levelo://app?vid=47a5c903-d960-4eec-b908-6451b150f9f7"},"vehicle_type_id":"4","last_reported":1737576629,"current_range_meters":39200,"station_id":"ce4bhnp2rcd13ifvqgvg","pricing_plan_id":"cebpf4jnsgd1na2vs0mg"},{"bike_id":"2d89806f-db31-45f9-ab39-70b15ff8deae","system_id":"levelo_inurba_marseille","lat":43.29797,"lon":5.39337,"is_reserved":false,"is_disabled":false,"rental_uris":{"android":"levelo://app?vid=2d89806f-db31-45f9-ab39-70b15ff8deae","ios":"levelo://app?vid=2d89806f-db31-45f9-ab39-70b15ff8deae"},"vehicle_type_id":"4","last_reported":1737576629,"current_range_meters":38800,"station_id":"chh1huq6cuj3fo74tm60","pricing_plan_id":"cebpf4jnsgd1na2vs0mg"},{"bike_id":"c8b7aed7-c47b-4197-99ca-6b34bfddf40f","system_id":"levelo_inurba_marseille","lat":43.24053,"lon":5.37728,"is_reserved":false,"is_disabled":false,"rental_uris":{"android":"levelo://app?vid=c8b7aed7-c47b-4197-99ca-6b34bfddf40f","ios":"levelo://app?vid=c8b7aed7-c47b-4197-99ca-6b34bfddf40f"},"vehicle_type_id":"4","last_reported":1737576629,"current_range_meters":36000,"station_id":"ce4bhnp2rcd13ifvqgvg","pricing_plan_id":"cebpf4jnsgd1na2vs0mg"},{"bike_id":"20216445-5aad-4521-ab5b-10bfd8c7354d","system_id":"levelo_inurba_marseille","lat":43.31279,"lon":5.37755,"is_reserved":false,"is_disabled":false,"rental_uris":{"android":"levelo://app?vid=20216445-5aad-4521-ab5b-10bfd8c7354d","ios":"levelo://app?vid=20216445-5aad-4521-ab5b-10bfd8c7354d"},"vehicle_type_id":"4","last_reported":1737576629,"current_range_meters":10800,"station_id":"","pricing_plan_id":"cebpf4jnsgd1na2vs0mg"},{"bike_id":"03029508-7ed2-4693-b735-f7deaf763344","system_id":"levelo_inurba_marseille","lat":43.25574,"lon":5.38246,"is_reserved":false,"is_disabled":false,"rental_uris":{"android":"levelo://app?vid=03029508-7ed2-4693-b735-f7deaf763344","ios":"levelo://app?vid=03029508-7ed2-4693-b735-f7deaf763344"},"vehicle_type_id":"4","last_reported":1737576629,"current_range_meters":20000,"station_id":"ce4bhih2rcd13ifvqfs0","pricing_plan_id":"cebpf4jnsgd1na2vs0mg"},{"bike_id":"4a628dfb-3512-48d2-ae74-8fc43a310d07","system_id":"levelo_inurba_marseille","lat":43.2867,"lon":5.36353,"is_reserved":false,"is_disabled":false,"rental_uris":{"android":"levelo://app?vid=4a628dfb-3512-48d2-ae74-8fc43a310d07","ios":"levelo://app?vid=4a628dfb-3512-48d2-ae74-8fc43a310d07"},"vehicle_type_id":"4","last_reported":1737576629,"current_range_meters":2800,"station_id":"ce4bhah2rcd13ifvqej0","pricing_plan_id":"cebpf4jnsgd1na2vs0mg"},{"bike_id":"4920d6f6-8670-4936-b3f9-eca676954082","system_id":"levelo_inurba_marseille","lat":43.27998,"lon":5.40021,"is_reserved":false,"is_disabled":false,"rental_uris":{"android":"levelo://app?vid=4920d6f6-8670-4936-b3f9-eca676954082","ios":"levelo://app?vid=4920d6f6-8670-4936-b3f9-eca676954082"},"vehicle_type_id":"4","last_reported":1737576629,"current_range_meters":8800,"station_id":"ce4bho92rcd13ifvqh4g","pricing_plan_id":"cebpf4jnsgd1na2vs0mg"},{"bike_id":"57f78879-3285-4372-8280-be0d5b9070ca","system_id":"levelo_inurba_marseille","lat":43.32111,"lon":5.36786,"is_reserved":false,"is_disabled":false,"rental_uris":{"android":"levelo://app?vid=57f78879-3285-4372-8280-be0d5b9070ca","ios":"levelo://app?vid=57f78879-3285-4372-8280-be0d5b9070ca"},"vehicle_type_id":"4","last_reported":1737576629,"current_range_meters":38800,"station_id":"ce4bhrh2rcd13ifvqhug","pricing_plan_id":"cebpf4jnsgd1na2vs0mg"},{"bike_id":"0e1fe683-79a2-47f7-93d0-06378253c699","system_id":"levelo_inurba_marseille","lat":43.29539,"lon":5.39047,"is_reserved":false,"is_disabled":false,"rental_uris":{"android":"levelo://app?vid=0e1fe683-79a2-47f7-93d0-06378253c699","ios":"levelo://app?vid=0e1fe683-79a2-47f7-93d0-06378253c699"},"vehicle_type_id":"4","last_reported":1737576629,"current_range_meters":24800,"station_id":"ce4bh3p2rcd13ifvqdp0","pricing_plan_id":"cebpf4jnsgd1na2vs0mg"},{"bike_id":"30406749-cd63-4c24-8e0d-9ec4dbe01476","system_id":"levelo_inurba_marseille","lat":43.29535,"lon":5.39029,"is_reserved":false,"is_disabled":false,"rental_uris":{"android":"levelo://app?vid=30406749-cd63-4c24-8e0d-9ec4dbe01476","ios":"levelo://app?vid=30406749-cd63-4c24-8e0d-9ec4dbe01476"},"vehicle_type_id":"4","last_reported":1737576629,"current_range_meters":30000,"station_id":"ce4bh3p2rcd13ifvqdp0","pricing_plan_id":"cebpf4jnsgd1na2vs0mg"},{"bike_id":"c7e4dcb1-e5b0-45e1-8872-17f211dc0053","system_id":"levelo_inurba_marseille","lat":43.28456,"lon":5.38559,"is_reserved":false,"is_disabled":false,"rental_uris":{"android":"levelo://app?vid=c7e4dcb1-e5b0-45e1-8872-17f211dc0053","ios":"levelo://app?vid=c7e4dcb1-e5b0-45e1-8872-17f211dc0053"},"vehicle_type_id":"4","last_reported":1737576629,"current_range_meters":38800,"station_id":"ce4bh8p2rcd13ifvqeb0","pricing_plan_id":"cebpf4jnsgd1na2vs0mg"},{"bike_id":"3d39a886-a602-45ec-b4d3-356e165c2974","system_id":"levelo_inurba_marseille","lat":43.29195,"lon":5.3579,"is_reserved":false,"is_disabled":true,"rental_uris":{"android":"levelo://app?vid=3d39a886-a602-45ec-b4d3-356e165c2974","ios":"levelo://app?vid=3d39a886-a602-45ec-b4d3-356e165c2974"},"vehicle_type_id":"4","last_reported":1737576629,"current_range_meters":0,"station_id":"ce4bhb12rcd13ifvqel0","pricing_plan_id":"cebpf4jnsgd1na2vs0mg"},{"bike_id":"cac15169-486f-43a5-9e95-33c702c4876b","system_id":"levelo_inurba_marseille","lat":43.30807,"lon":5.43526,"is_reserved":false,"is_disabled":false,"rental_uris":{"android":"levelo://app?vid=cac15169-486f-43a5-9e95-33c702c4876b","ios":"levelo://app?vid=cac15169-486f-43a5-9e95-33c702c4876b"},"vehicle_type_id":"4","last_reported":1737576629,"current_range_meters":39200,"station_id":"ce4bhph2rcd13ifvqheg","pricing_plan_id":"cebpf4jnsgd1na2vs0mg"},{"bike_id":"0fd77b24-9641-4f85-ad37-0e79c1de1769","system_id":"levelo_inurba_marseille","lat":43.27825,"lon":5.40728,"is_reserved":false,"is_disabled":false,"rental_uris":{"android":"levelo://app?vid=0fd77b24-9641-4f85-ad37-0e79c1de1769","ios":"levelo://app?vid=0fd77b24-9641-4f85-ad37-0e79c1de1769"},"vehicle_type_id":"4","last_reported":1737576629,"current_range_meters":16800,"station_id":"ce4bhnh2rcd13ifvqgtg","pricing_plan_id":"cebpf4jnsgd1na2vs0mg"},{"bike_id":"9a4d472e-28ea-4459-9d68-e6f39648a217","system_id":"levelo_inurba_marseille","lat":43.28933,"lon":5.36629,"is_reserved":false,"is_disabled":false,"rental_uris":{"android":"levelo://app?vid=9a4d472e-28ea-4459-9d68-e6f39648a217","ios":"levelo://app?vid=9a4d472e-28ea-4459-9d68-e6f39648a217"},"vehicle_type_id":"4","last_reported":1737576629,"current_range_meters":30400,"station_id":"ce4bhap2rcd13ifvqek0","pricing_plan_id":"cebpf4jnsgd1na2vs0mg"},{"bike_id":"5a874f97-e53a-486b-bf03-022b93e71acd","system_id":"levelo_inurba_marseille","lat":43.25507,"lon":5.37645,"is_reserved":false,"is_disabled":false,"rental_uris":{"android":"levelo://app?vid=5a874f97-e53a-486b-bf03-022b93e71acd","ios":"levelo://app?vid=5a874f97-e53a-486b-bf03-022b93e71acd"},"vehicle_type_id":"4","last_reported":1737576629,"current_range_meters":26000,"station_id":"ce4bhh12rcd13ifvqff0","pricing_plan_id":"cebpf4jnsgd1na2vs0mg"},{"bike_id":"111cba43-0574-438f-ae2a-d648b015eb76","system_id":"levelo_inurba_marseille","lat":43.31179,"lon":5.38717,"is_reserved":false,"is_disabled":false,"rental_uris":{"android":"levelo://app?vid=111cba43-0574-438f-ae2a-d648b015eb76","ios":"levelo://app?vid=111cba43-0574-438f-ae2a-d648b015eb76"},"vehicle_type_id":"4","last_reported":1737576629,"current_range_meters":37600,"station_id":"ce4bgv12rcd13ifvqcp0","pricing_plan_id":"cebpf4jnsgd1na2vs0mg"},{"bike_id":"f3c26539-39eb-4970-8988-70b2b5358f9e","system_id":"levelo_inurba_marseille","lat":43.2929,"lon":5.37463,"is_reserved":false,"is_disabled":false,"rental_uris":{"android":"levelo://app?vid=f3c26539-39eb-4970-8988-70b2b5358f9e","ios":"levelo://app?vid=f3c26539-39eb-4970-8988-70b2b5358f9e"},"vehicle_type_id":"4","last_reported":1737576629,"current_range_meters":34000,"station_id":"ce4bgi12rcd13ifvqb70","pricing_plan_id":"cebpf4jnsgd1na2vs0mg"},{"bike_id":"7ab51a43-683e-4bd7-a5aa-dd0cb59be96b","system_id":"levelo_inurba_marseille","lat":43.29788,"lon":5.39343,"is_reserved":false,"is_disabled":false,"rental_uris":{"android":"levelo://app?vid=7ab51a43-683e-4bd7-a5aa-dd0cb59be96b","ios":"levelo://app?vid=7ab51a43-683e-4bd7-a5aa-dd0cb59be96b"},"vehicle_type_id":"4","last_reported":1737576629,"current_range_meters":38800,"station_id":"chh1huq6cuj3fo74tm60","pricing_plan_id":"cebpf4jnsgd1na2vs0mg"},{"bike_id":"1a7ae9b9-108c-498f-8bac-48904d23f7bc","system_id":"levelo_inurba_marseille","lat":43.28474,"lon":5.38439,"is_reserved":false,"is_disabled":true,"rental_uris":{"android":"levelo://app?vid=1a7ae9b9-108c-498f-8bac-48904d23f7bc","ios":"levelo://app?vid=1a7ae9b9-108c-498f-8bac-48904d23f7bc"},"vehicle_type_id":"4","last_reported":1737576629,"current_range_meters":36800,"station_id":"ce4bh512rcd13ifvqe3g","pricing_plan_id":"cebpf4jnsgd1na2vs0mg"},{"bike_id":"666ac6f2-402d-477d-9d05-70c68e04cb11","system_id":"levelo_inurba_marseille","lat":43.29969,"lon":5.38492,"is_reserved":false,"is_disabled":false,"rental_uris":{"android":"levelo://app?vid=666ac6f2-402d-477d-9d05-70c68e04cb11","ios":"levelo://app?vid=666ac6f2-402d-477d-9d05-70c68e04cb11"},"vehicle_type_id":"4","last_reported":1737576629,"current_range_meters":5600,"station_id":"ce4bgj92rcd13ifvqbd0","pricing_plan_id":"cebpf4jnsgd1na2vs0mg"},{"bike_id":"212ed2e6-f694-4453-a9b8-263502261c77","system_id":"levelo_inurba_marseille","lat":43.29267,"lon":5.38448,"is_reserved":false,"is_disabled":false,"rental_uris":{"android":"levelo://app?vid=212ed2e6-f694-4453-a9b8-263502261c77","ios":"levelo://app?vid=212ed2e6-f694-4453-a9b8-263502261c77"},"vehicle_type_id":"4","last_reported":1737576629,"current_range_meters":38800,"station_id":"ce4bh692rcd13ifvqea0","pricing_plan_id":"cebpf4jnsgd1na2vs0mg"},{"bike_id":"fbc6b901-293c-4cc3-8495-b0d71e091198","system_id":"levelo_inurba_marseille","lat":43.27888,"lon":5.38013,"is_reserved":false,"is_disabled":false,"rental_uris":{"android":"levelo://app?vid=fbc6b901-293c-4cc3-8495-b0d71e091198","ios":"levelo://app?vid=fbc6b901-293c-4cc3-8495-b0d71e091198"},"vehicle_type_id":"4","last_reported":1737576629,"current_range_meters":38800,"station_id":"ce4bhf92rcd13ifvqf50","pricing_plan_id":"cebpf4jnsgd1na2vs0mg"},{"bike_id":"4a1877ac-0eba-4d1d-a5b6-5c57a0d326b7","system_id":"levelo_inurba_marseille","lat":43.31078,"lon":5.42433,"is_reserved":false,"is_disabled":false,"rental_uris":{"android":"levelo://app?vid=4a1877ac-0eba-4d1d-a5b6-5c57a0d326b7","ios":"levelo://app?vid=4a1877ac-0eba-4d1d-a5b6-5c57a0d326b7"},"vehicle_type_id":"4","last_reported":1737576629,"current_range_meters":16400,"station_id":"ce4bhp92rcd13ifvqhag","pricing_plan_id":"cebpf4jnsgd1na2vs0mg"},{"bike_id":"1c5350bc-b85e-4a3a-a39b-e473b0f89be6","system_id":"levelo_inurba_marseille","lat":43.31764,"lon":5.38993,"is_reserved":false,"is_disabled":false,"rental_uris":{"android":"levelo://app?vid=1c5350bc-b85e-4a3a-a39b-e473b0f89be6","ios":"levelo://app?vid=1c5350bc-b85e-4a3a-a39b-e473b0f89be6"},"vehicle_type_id":"4","last_reported":1737576629,"current_range_meters":22000,"station_id":"ce4bhqp2rcd13ifvqhng","pricing_plan_id":"cebpf4jnsgd1na2vs0mg"},{"bike_id":"a2a3717c-0128-442c-a71e-f199be5b1805","system_id":"levelo_inurba_marseille","lat":43.26952,"lon":5.3864,"is_reserved":false,"is_disabled":false,"rental_uris":{"android":"levelo://app?vid=a2a3717c-0128-442c-a71e-f199be5b1805","ios":"levelo://app?vid=a2a3717c-0128-442c-a71e-f199be5b1805"},"vehicle_type_id":"4","last_reported":1737576629,"current_range_meters":33200,"station_id":"ce4bhh92rcd13ifvqfh0","pricing_plan_id":"cebpf4jnsgd1na2vs0mg"},{"bike_id":"cf57abd2-b4fe-4583-854c-2b18778aed8f","system_id":"levelo_inurba_marseille","lat":43.3026,"lon":5.40038,"is_reserved":false,"is_disabled":false,"rental_uris":{"android":"levelo://app?vid=cf57abd2-b4fe-4583-854c-2b18778aed8f","ios":"levelo://app?vid=cf57abd2-b4fe-4583-854c-2b18778aed8f"},"vehicle_type_id":"4","last_reported":1737576629,"current_range_meters":16400,"station_id":"ce4bgvh2rcd13ifvqcs0","pricing_plan_id":"cebpf4jnsgd1na2vs0mg"},{"bike_id":"012b9b4c-083c-4fe9-9a64-36583ef538cf","system_id":"levelo_inurba_marseille","lat":43.30922,"lon":5.40106,"is_reserved":false,"is_disabled":false,"rental_uris":{"android":"levelo://app?vid=012b9b4c-083c-4fe9-9a64-36583ef538cf","ios":"levelo://app?vid=012b9b4c-083c-4fe9-9a64-36583ef538cf"},"vehicle_type_id":"4","last_reported":1737576629,"current_range_meters":6000,"station_id":"ce4bgvp2rcd13ifvqct0","pricing_plan_id":"cebpf4jnsgd1na2vs0mg"},{"bike_id":"93323bd3-0053-453d-a5b8-d94077bd189c","system_id":"levelo_inurba_marseille","lat":43.29526,"lon":5.38539,"is_reserved":false,"is_disabled":false,"rental_uris":{"android":"levelo://app?vid=93323bd3-0053-453d-a5b8-d94077bd189c","ios":"levelo://app?vid=93323bd3-0053-453d-a5b8-d94077bd189c"},"vehicle_type_id":"4","last_reported":1737576629,"current_range_meters":17200,"station_id":"ce4bgih2rcd13ifvqba0","pricing_plan_id":"cebpf4jnsgd1na2vs0mg"},{"bike_id":"7ace546e-9c67-4124-8420-9ed07a575e5a","system_id":"levelo_inurba_marseille","lat":43.31632,"lon":5.40556,"is_reserved":false,"is_disabled":true,"rental_uris":{"android":"levelo://app?vid=7ace546e-9c67-4124-8420-9ed07a575e5a","ios":"levelo://app?vid=7ace546e-9c67-4124-8420-9ed07a575e5a"},"vehicle_type_id":"4","last_reported":1737576629,"current_range_meters":800,"station_id":"","pricing_plan_id":"cebpf4jnsgd1na2vs0mg"},{"bike_id":"f4064b91-d50f-4faa-b80a-c4b38df2d08b","system_id":"levelo_inurba_marseille","lat":43.2293,"lon":5.35377,"is_reserved":false,"is_disabled":false,"rental_uris":{"android":"levelo://app?vid=f4064b91-d50f-4faa-b80a-c4b38df2d08b","ios":"levelo://app?vid=f4064b91-d50f-4faa-b80a-c4b38df2d08b"},"vehicle_type_id":"4","last_reported":1737576629,"current_range_meters":38800,"station_id":"cpo3532slgdg3j2ikp40","pricing_plan_id":"cebpf4jnsgd1na2vs0mg"},{"bike_id":"05f99f32-62a1-4772-aab8-f5e1ccbaacdc","system_id":"levelo_inurba_marseille","lat":43.28842,"lon":5.358473,"is_reserved":false,"is_disabled":false,"rental_uris":{"android":"levelo://app?vid=05f99f32-62a1-4772-aab8-f5e1ccbaacdc","ios":"levelo://app?vid=05f99f32-62a1-4772-aab8-f5e1ccbaacdc"},"vehicle_type_id":"4","last_reported":1737576629,"current_range_meters":38800,"station_id":"ce4bhb12rcd13ifvqem0","pricing_plan_id":"cebpf4jnsgd1na2vs0mg"},{"bike_id":"9ed50d36-25d6-49f9-af6f-cf1c3b7a8ea4","system_id":"levelo_inurba_marseille","lat":43.264918,"lon":5.395483,"is_reserved":false,"is_disabled":false,"rental_uris":{"android":"levelo://app?vid=9ed50d36-25d6-49f9-af6f-cf1c3b7a8ea4","ios":"levelo://app?vid=9ed50d36-25d6-49f9-af6f-cf1c3b7a8ea4"},"vehicle_type_id":"4","last_reported":1737576629,"current_range_meters":31200,"station_id":"ce4bhi12rcd13ifvqfq0","pricing_plan_id":"cebpf4jnsgd1na2vs0mg"},{"bike_id":"5e75dd30-ab3b-44d3-8dcb-cb5fd4a0eb65","system_id":"levelo_inurba_marseille","lat":43.24644,"lon":5.38888,"is_reserved":false,"is_disabled":false,"rental_uris":{"android":"levelo://app?vid=5e75dd30-ab3b-44d3-8dcb-cb5fd4a0eb65","ios":"levelo://app?vid=5e75dd30-ab3b-44d3-8dcb-cb5fd4a0eb65"},"vehicle_type_id":"4","last_reported":1737576629,"current_range_meters":38800,"station_id":"ce4bhg12rcd13ifvqf60","pricing_plan_id":"cebpf4jnsgd1na2vs0mg"},{"bike_id":"81fb8919-e61f-4a4e-9310-2573005bf866","system_id":"levelo_inurba_marseille","lat":43.31162,"lon":5.38726,"is_reserved":false,"is_disabled":false,"rental_uris":{"android":"levelo://app?vid=81fb8919-e61f-4a4e-9310-2573005bf866","ios":"levelo://app?vid=81fb8919-e61f-4a4e-9310-2573005bf866"},"vehicle_type_id":"4","last_reported":1737576629,"current_range_meters":11200,"station_id":"ce4bgv12rcd13ifvqcp0","pricing_plan_id":"cebpf4jnsgd1na2vs0mg"},{"bike_id":"90c8c19d-949d-460f-bb27-403a94bcdfaa","system_id":"levelo_inurba_marseille","lat":43.28457,"lon":5.3587,"is_reserved":false,"is_disabled":false,"rental_uris":{"android":"levelo://app?vid=90c8c19d-949d-460f-bb27-403a94bcdfaa","ios":"levelo://app?vid=90c8c19d-949d-460f-bb27-403a94bcdfaa"},"vehicle_type_id":"4","last_reported":1737576629,"current_range_meters":14400,"station_id":"ce4bhah2rcd13ifvqei0","pricing_plan_id":"cebpf4jnsgd1na2vs0mg"},{"bike_id":"95686d4b-aec0-40de-b18e-cbe8599dc121","system_id":"levelo_inurba_marseille","lat":43.2971,"lon":5.36609,"is_reserved":false,"is_disabled":false,"rental_uris":{"android":"levelo://app?vid=95686d4b-aec0-40de-b18e-cbe8599dc121","ios":"levelo://app?vid=95686d4b-aec0-40de-b18e-cbe8599dc121"},"vehicle_type_id":"4","last_reported":1737576629,"current_range_meters":19200,"station_id":"ce4bgn12rcd13ifvqbt0","pricing_plan_id":"cebpf4jnsgd1na2vs0mg"},{"bike_id":"8c4ec436-c014-426e-be5e-f5e97109170a","system_id":"levelo_inurba_marseille","lat":43.30882,"lon":5.39649,"is_reserved":false,"is_disabled":false,"rental_uris":{"android":"levelo://app?vid=8c4ec436-c014-426e-be5e-f5e97109170a","ios":"levelo://app?vid=8c4ec436-c014-426e-be5e-f5e97109170a"},"vehicle_type_id":"4","last_reported":1737576629,"current_range_meters":17600,"station_id":"ce4bh012rcd13ifvqcv0","pricing_plan_id":"cebpf4jnsgd1na2vs0mg"},{"bike_id":"65094a7f-b962-43c6-b0af-b51087b9f16f","system_id":"levelo_inurba_marseille","lat":43.28937,"lon":5.36629,"is_reserved":false,"is_disabled":false,"rental_uris":{"android":"levelo://app?vid=65094a7f-b962-43c6-b0af-b51087b9f16f","ios":"levelo://app?vid=65094a7f-b962-43c6-b0af-b51087b9f16f"},"vehicle_type_id":"4","last_reported":1737576629,"current_range_meters":32400,"station_id":"ce4bhap2rcd13ifvqek0","pricing_plan_id":"cebpf4jnsgd1na2vs0mg"},{"bike_id":"83a7dad4-6d8c-49a5-9d76-0bccaf3a371c","system_id":"levelo_inurba_marseille","lat":43.29895,"lon":5.38904,"is_reserved":false,"is_disabled":false,"rental_uris":{"android":"levelo://app?vid=83a7dad4-6d8c-49a5-9d76-0bccaf3a371c","ios":"levelo://app?vid=83a7dad4-6d8c-49a5-9d76-0bccaf3a371c"},"vehicle_type_id":"4","last_reported":1737576629,"current_range_meters":33600,"station_id":"ce4bh392rcd13ifvqdl0","pricing_plan_id":"cebpf4jnsgd1na2vs0mg"},{"bike_id":"0f8fbb30-1403-4012-8d4b-bed4ddc3f0cc","system_id":"levelo_inurba_marseille","lat":43.31329,"lon":5.39695,"is_reserved":false,"is_disabled":false,"rental_uris":{"android":"levelo://app?vid=0f8fbb30-1403-4012-8d4b-bed4ddc3f0cc","ios":"levelo://app?vid=0f8fbb30-1403-4012-8d4b-bed4ddc3f0cc"},"vehicle_type_id":"4","last_reported":1737576629,"current_range_meters":24400,"station_id":"ce4bgvp2rcd13ifvqcu0","pricing_plan_id":"cebpf4jnsgd1na2vs0mg"},{"bike_id":"97003c6d-799e-4566-bb9b-54d2510dd4a4","system_id":"levelo_inurba_marseille","lat":43.29271,"lon":5.38443,"is_reserved":false,"is_disabled":false,"rental_uris":{"android":"levelo://app?vid=97003c6d-799e-4566-bb9b-54d2510dd4a4","ios":"levelo://app?vid=97003c6d-799e-4566-bb9b-54d2510dd4a4"},"vehicle_type_id":"4","last_reported":1737576629,"current_range_meters":9600,"station_id":"ce4bh692rcd13ifvqea0","pricing_plan_id":"cebpf4jnsgd1na2vs0mg"},{"bike_id":"e140bb4a-5e7a-45e7-9cd7-0031c0e81926","system_id":"levelo_inurba_marseille","lat":43.28108,"lon":5.37836,"is_reserved":false,"is_disabled":false,"rental_uris":{"android":"levelo://app?vid=e140bb4a-5e7a-45e7-9cd7-0031c0e81926","ios":"levelo://app?vid=e140bb4a-5e7a-45e7-9cd7-0031c0e81926"},"vehicle_type_id":"4","last_reported":1737576629,"current_range_meters":33200,"station_id":"ce4bha12rcd13ifvqee0","pricing_plan_id":"cebpf4jnsgd1na2vs0mg"},{"bike_id":"0095f608-c8a3-464a-9e01-fb511f5fe6c3","system_id":"levelo_inurba_marseille","lat":43.3156,"lon":5.3729,"is_reserved":false,"is_disabled":false,"rental_uris":{"android":"levelo://app?vid=0095f608-c8a3-464a-9e01-fb511f5fe6c3","ios":"levelo://app?vid=0095f608-c8a3-464a-9e01-fb511f5fe6c3"},"vehicle_type_id":"4","last_reported":1737576629,"current_range_meters":28800,"station_id":"ce4bgt12rcd13ifvqcd0","pricing_plan_id":"cebpf4jnsgd1na2vs0mg"},{"bike_id":"89d74705-7f42-45f3-bdbc-e8e63c7486d0","system_id":"levelo_inurba_marseille","lat":43.30919,"lon":5.40156,"is_reserved":false,"is_disabled":true,"rental_uris":{"android":"levelo://app?vid=89d74705-7f42-45f3-bdbc-e8e63c7486d0","ios":"levelo://app?vid=89d74705-7f42-45f3-bdbc-e8e63c7486d0"},"vehicle_type_id":"4","last_reported":1737576629,"current_range_meters":20400,"station_id":"ce4bgvp2rcd13ifvqct0","pricing_plan_id":"cebpf4jnsgd1na2vs0mg"},{"bike_id":"9f96de60-ba44-4c93-9707-a282028a4274","system_id":"levelo_inurba_marseille","lat":43.24162,"lon":5.39712,"is_reserved":false,"is_disabled":false,"rental_uris":{"android":"levelo://app?vid=9f96de60-ba44-4c93-9707-a282028a4274","ios":"levelo://app?vid=9f96de60-ba44-4c93-9707-a282028a4274"},"vehicle_type_id":"4","last_reported":1737576629,"current_range_meters":38800,"station_id":"ce4bhn12rcd13ifvqgpg","pricing_plan_id":"cebpf4jnsgd1na2vs0mg"},{"bike_id":"f2decab9-91be-42d6-a32f-3f3b95b4f52f","system_id":"levelo_inurba_marseille","lat":43.28502,"lon":5.38444,"is_reserved":false,"is_disabled":false,"rental_uris":{"android":"levelo://app?vid=f2decab9-91be-42d6-a32f-3f3b95b4f52f","ios":"levelo://app?vid=f2decab9-91be-42d6-a32f-3f3b95b4f52f"},"vehicle_type_id":"4","last_reported":1737576629,"current_range_meters":34800,"station_id":"ce4bh512rcd13ifvqe3g","pricing_plan_id":"cebpf4jnsgd1na2vs0mg"},{"bike_id":"3325dbd1-27ed-4cd9-ba91-0feff7fdaa22","system_id":"levelo_inurba_marseille","lat":43.30346,"lon":5.40436,"is_reserved":false,"is_disabled":false,"rental_uris":{"android":"levelo://app?vid=3325dbd1-27ed-4cd9-ba91-0feff7fdaa22","ios":"levelo://app?vid=3325dbd1-27ed-4cd9-ba91-0feff7fdaa22"},"vehicle_type_id":"4","last_reported":1737576629,"current_range_meters":38800,"station_id":"ce4bh012rcd13ifvqd10","pricing_plan_id":"cebpf4jnsgd1na2vs0mg"},{"bike_id":"2aa8a242-3616-46c6-abfd-6cf012bd07d4","system_id":"levelo_inurba_marseille","lat":43.29976,"lon":5.38468,"is_reserved":false,"is_disabled":false,"rental_uris":{"android":"levelo://app?vid=2aa8a242-3616-46c6-abfd-6cf012bd07d4","ios":"levelo://app?vid=2aa8a242-3616-46c6-abfd-6cf012bd07d4"},"vehicle_type_id":"4","last_reported":1737576629,"current_range_meters":14800,"station_id":"ce4bgj92rcd13ifvqbd0","pricing_plan_id":"cebpf4jnsgd1na2vs0mg"},{"bike_id":"6a9e6fb3-1965-43ab-a598-cf1f58670842","system_id":"levelo_inurba_marseille","lat":43.23189,"lon":5.39964,"is_reserved":false,"is_disabled":false,"rental_uris":{"android":"levelo://app?vid=6a9e6fb3-1965-43ab-a598-cf1f58670842","ios":"levelo://app?vid=6a9e6fb3-1965-43ab-a598-cf1f58670842"},"vehicle_type_id":"4","last_reported":1737576629,"current_range_meters":30000,"station_id":"ce4bhn12rcd13ifvqgqg","pricing_plan_id":"cebpf4jnsgd1na2vs0mg"},{"bike_id":"d54cf9a8-30da-4bf3-aa16-dc5befe7fdbc","system_id":"levelo_inurba_marseille","lat":43.29257,"lon":5.3843,"is_reserved":false,"is_disabled":true,"rental_uris":{"android":"levelo://app?vid=d54cf9a8-30da-4bf3-aa16-dc5befe7fdbc","ios":"levelo://app?vid=d54cf9a8-30da-4bf3-aa16-dc5befe7fdbc"},"vehicle_type_id":"4","last_reported":1737576629,"current_range_meters":0,"station_id":"ce4bh692rcd13ifvqea0","pricing_plan_id":"cebpf4jnsgd1na2vs0mg"},{"bike_id":"110f4d36-27c9-49b8-86bf-d85558408b80","system_id":"levelo_inurba_marseille","lat":43.32369,"lon":5.38872,"is_reserved":false,"is_disabled":false,"rental_uris":{"android":"levelo://app?vid=110f4d36-27c9-49b8-86bf-d85558408b80","ios":"levelo://app?vid=110f4d36-27c9-49b8-86bf-d85558408b80"},"vehicle_type_id":"4","last_reported":1737576629,"current_range_meters":22800,"station_id":"ce4bhqp2rcd13ifvqhog","pricing_plan_id":"cebpf4jnsgd1na2vs0mg"},{"bike_id":"e2151eb3-314b-404c-b259-cf12a3a3e0c6","system_id":"levelo_inurba_marseille","lat":43.31576,"lon":5.40246,"is_reserved":false,"is_disabled":false,"rental_uris":{"android":"levelo://app?vid=e2151eb3-314b-404c-b259-cf12a3a3e0c6","ios":"levelo://app?vid=e2151eb3-314b-404c-b259-cf12a3a3e0c6"},"vehicle_type_id":"4","last_reported":1737576629,"current_range_meters":25200,"station_id":"","pricing_plan_id":"cebpf4jnsgd1na2vs0mg"},{"bike_id":"8af34738-1005-41d3-9a03-fb3cbeb3f15f","system_id":"levelo_inurba_marseille","lat":43.317,"lon":5.37755,"is_reserved":false,"is_disabled":false,"rental_uris":{"android":"levelo://app?vid=8af34738-1005-41d3-9a03-fb3cbeb3f15f","ios":"levelo://app?vid=8af34738-1005-41d3-9a03-fb3cbeb3f15f"},"vehicle_type_id":"4","last_reported":1737576629,"current_range_meters":39200,"station_id":"ce4bgth2rcd13ifvqch0","pricing_plan_id":"cebpf4jnsgd1na2vs0mg"},{"bike_id":"b357054c-3137-4ad4-b589-5831a84f2f7f","system_id":"levelo_inurba_marseille","lat":43.29167,"lon":5.37151,"is_reserved":false,"is_disabled":false,"rental_uris":{"android":"levelo://app?vid=b357054c-3137-4ad4-b589-5831a84f2f7f","ios":"levelo://app?vid=b357054c-3137-4ad4-b589-5831a84f2f7f"},"vehicle_type_id":"4","last_reported":1737576629,"current_range_meters":36800,"station_id":"ce4bha92rcd13ifvqeh0","pricing_plan_id":"cebpf4jnsgd1na2vs0mg"},{"bike_id":"3bcd921d-810c-4845-87ab-d96c2ac5451e","system_id":"levelo_inurba_marseille","lat":43.27781,"lon":5.40717,"is_reserved":false,"is_disabled":false,"rental_uris":{"android":"levelo://app?vid=3bcd921d-810c-4845-87ab-d96c2ac5451e","ios":"levelo://app?vid=3bcd921d-810c-4845-87ab-d96c2ac5451e"},"vehicle_type_id":"4","last_reported":1737576629,"current_range_meters":11200,"station_id":"ce4bhnh2rcd13ifvqgtg","pricing_plan_id":"cebpf4jnsgd1na2vs0mg"},{"bike_id":"1d9b4bae-13f4-44b3-ab0a-59d68f310773","system_id":"levelo_inurba_marseille","lat":43.28678,"lon":5.38668,"is_reserved":false,"is_disabled":false,"rental_uris":{"android":"levelo://app?vid=1d9b4bae-13f4-44b3-ab0a-59d68f310773","ios":"levelo://app?vid=1d9b4bae-13f4-44b3-ab0a-59d68f310773"},"vehicle_type_id":"4","last_reported":1737576629,"current_range_meters":32800,"station_id":"ce4bh492rcd13ifvqdug","pricing_plan_id":"cebpf4jnsgd1na2vs0mg"},{"bike_id":"c01ff322-934e-4fed-b8ab-096213fbdb3c","system_id":"levelo_inurba_marseille","lat":43.319986,"lon":5.381542,"is_reserved":false,"is_disabled":false,"rental_uris":{"android":"levelo://app?vid=c01ff322-934e-4fed-b8ab-096213fbdb3c","ios":"levelo://app?vid=c01ff322-934e-4fed-b8ab-096213fbdb3c"},"vehicle_type_id":"4","last_reported":1737576629,"current_range_meters":39200,"station_id":"ce4bhr12rcd13ifvqhpg","pricing_plan_id":"cebpf4jnsgd1na2vs0mg"},{"bike_id":"ac8f2c99-5b2b-4a62-9ac6-c3f184bbda75","system_id":"levelo_inurba_marseille","lat":43.27894,"lon":5.38018,"is_reserved":false,"is_disabled":false,"rental_uris":{"android":"levelo://app?vid=ac8f2c99-5b2b-4a62-9ac6-c3f184bbda75","ios":"levelo://app?vid=ac8f2c99-5b2b-4a62-9ac6-c3f184bbda75"},"vehicle_type_id":"4","last_reported":1737576629,"current_range_meters":38800,"station_id":"ce4bhf92rcd13ifvqf50","pricing_plan_id":"cebpf4jnsgd1na2vs0mg"},{"bike_id":"69db6415-9707-42d2-aff6-bddac8adc810","system_id":"levelo_inurba_marseille","lat":43.28417,"lon":5.37514,"is_reserved":false,"is_disabled":false,"rental_uris":{"android":"levelo://app?vid=69db6415-9707-42d2-aff6-bddac8adc810","ios":"levelo://app?vid=69db6415-9707-42d2-aff6-bddac8adc810"},"vehicle_type_id":"4","last_reported":1737576629,"current_range_meters":38000,"station_id":"ce4bh412rcd13ifvqds0","pricing_plan_id":"cebpf4jnsgd1na2vs0mg"},{"bike_id":"df8b4b2d-132c-40ce-be48-5a5c27cf8a06","system_id":"levelo_inurba_marseille","lat":43.30913,"lon":5.36831,"is_reserved":false,"is_disabled":false,"rental_uris":{"android":"levelo://app?vid=df8b4b2d-132c-40ce-be48-5a5c27cf8a06","ios":"levelo://app?vid=df8b4b2d-132c-40ce-be48-5a5c27cf8a06"},"vehicle_type_id":"4","last_reported":1737576629,"current_range_meters":35600,"station_id":"ce4bgn92rcd13ifvqbvg","pricing_plan_id":"cebpf4jnsgd1na2vs0mg"},{"bike_id":"6440f376-b0ac-4979-8b74-813c76d7599b","system_id":"levelo_inurba_marseille","lat":43.24185,"lon":5.39716,"is_reserved":false,"is_disabled":false,"rental_uris":{"android":"levelo://app?vid=6440f376-b0ac-4979-8b74-813c76d7599b","ios":"levelo://app?vid=6440f376-b0ac-4979-8b74-813c76d7599b"},"vehicle_type_id":"4","last_reported":1737576629,"current_range_meters":28000,"station_id":"ce4bhn12rcd13ifvqgpg","pricing_plan_id":"cebpf4jnsgd1na2vs0mg"},{"bike_id":"07222054-6bcd-45e4-8545-43979da21269","system_id":"levelo_inurba_marseille","lat":43.30145,"lon":5.39877,"is_reserved":false,"is_disabled":false,"rental_uris":{"android":"levelo://app?vid=07222054-6bcd-45e4-8545-43979da21269","ios":"levelo://app?vid=07222054-6bcd-45e4-8545-43979da21269"},"vehicle_type_id":"4","last_reported":1737576629,"current_range_meters":38800,"station_id":"ce4bh0h2rcd13ifvqd40","pricing_plan_id":"cebpf4jnsgd1na2vs0mg"},{"bike_id":"53608539-8cd0-47e7-9cfb-d1161556d6fb","system_id":"levelo_inurba_marseille","lat":43.25511,"lon":5.37645,"is_reserved":false,"is_disabled":false,"rental_uris":{"android":"levelo://app?vid=53608539-8cd0-47e7-9cfb-d1161556d6fb","ios":"levelo://app?vid=53608539-8cd0-47e7-9cfb-d1161556d6fb"},"vehicle_type_id":"4","last_reported":1737576629,"current_range_meters":24800,"station_id":"ce4bhh12rcd13ifvqff0","pricing_plan_id":"cebpf4jnsgd1na2vs0mg"},{"bike_id":"f98a7ee0-f9fe-4556-933e-ecf6827038e5","system_id":"levelo_inurba_marseille","lat":43.29187,"lon":5.35712,"is_reserved":false,"is_disabled":false,"rental_uris":{"android":"levelo://app?vid=f98a7ee0-f9fe-4556-933e-ecf6827038e5","ios":"levelo://app?vid=f98a7ee0-f9fe-4556-933e-ecf6827038e5"},"vehicle_type_id":"4","last_reported":1737576629,"current_range_meters":18000,"station_id":"","pricing_plan_id":"cebpf4jnsgd1na2vs0mg"},{"bike_id":"8fca4091-c5fa-4154-84ea-a7460f617841","system_id":"levelo_inurba_marseille","lat":43.30221,"lon":5.39457,"is_reserved":false,"is_disabled":false,"rental_uris":{"android":"levelo://app?vid=8fca4091-c5fa-4154-84ea-a7460f617841","ios":"levelo://app?vid=8fca4091-c5fa-4154-84ea-a7460f617841"},"vehicle_type_id":"4","last_reported":1737576629,"current_range_meters":10800,"station_id":"ce4bh0p2rcd13ifvqd70","pricing_plan_id":"cebpf4jnsgd1na2vs0mg"},{"bike_id":"5bcaa165-3855-4961-b7f5-0a96e04dc71c","system_id":"levelo_inurba_marseille","lat":43.24077,"lon":5.37755,"is_reserved":false,"is_disabled":false,"rental_uris":{"android":"levelo://app?vid=5bcaa165-3855-4961-b7f5-0a96e04dc71c","ios":"levelo://app?vid=5bcaa165-3855-4961-b7f5-0a96e04dc71c"},"vehicle_type_id":"4","last_reported":1737576629,"current_range_meters":23200,"station_id":"ce4bhnp2rcd13ifvqgvg","pricing_plan_id":"cebpf4jnsgd1na2vs0mg"},{"bike_id":"ff6ba4ef-2428-4321-8448-57ca34185bdb","system_id":"levelo_inurba_marseille","lat":43.27428,"lon":5.3942,"is_reserved":false,"is_disabled":false,"rental_uris":{"android":"levelo://app?vid=ff6ba4ef-2428-4321-8448-57ca34185bdb","ios":"levelo://app?vid=ff6ba4ef-2428-4321-8448-57ca34185bdb"},"vehicle_type_id":"4","last_reported":1737576629,"current_range_meters":22000,"station_id":"ce4bhdp2rcd13ifvqf20","pricing_plan_id":"cebpf4jnsgd1na2vs0mg"},{"bike_id":"91f957bd-7ae6-4841-8ac4-1ecdcd0c697e","system_id":"levelo_inurba_marseille","lat":43.31544,"lon":5.40155,"is_reserved":false,"is_disabled":false,"rental_uris":{"android":"levelo://app?vid=91f957bd-7ae6-4841-8ac4-1ecdcd0c697e","ios":"levelo://app?vid=91f957bd-7ae6-4841-8ac4-1ecdcd0c697e"},"vehicle_type_id":"4","last_reported":1737576629,"current_range_meters":28000,"station_id":"","pricing_plan_id":"cebpf4jnsgd1na2vs0mg"},{"bike_id":"ffccc443-e6b0-4ef5-bf1a-7a7bffbf1f18","system_id":"levelo_inurba_marseille","lat":43.27942,"lon":5.41054,"is_reserved":false,"is_disabled":false,"rental_uris":{"android":"levelo://app?vid=ffccc443-e6b0-4ef5-bf1a-7a7bffbf1f18","ios":"levelo://app?vid=ffccc443-e6b0-4ef5-bf1a-7a7bffbf1f18"},"vehicle_type_id":"4","last_reported":1737576629,"current_range_meters":34800,"station_id":"ce4bhnp2rcd13ifvqh0g","pricing_plan_id":"cebpf4jnsgd1na2vs0mg"},{"bike_id":"96663138-92b9-4343-9a11-314ee4531fc0","system_id":"levelo_inurba_marseille","lat":43.3076,"lon":5.37654,"is_reserved":false,"is_disabled":true,"rental_uris":{"android":"levelo://app?vid=96663138-92b9-4343-9a11-314ee4531fc0","ios":"levelo://app?vid=96663138-92b9-4343-9a11-314ee4531fc0"},"vehicle_type_id":"4","last_reported":1737576629,"current_range_meters":17600,"station_id":"ce4bgv92rcd13ifvqcq0","pricing_plan_id":"cebpf4jnsgd1na2vs0mg"},{"bike_id":"53d770e5-ae11-4c3d-809b-fec5fee00e76","system_id":"levelo_inurba_marseille","lat":43.29962,"lon":5.38501,"is_reserved":false,"is_disabled":false,"rental_uris":{"android":"levelo://app?vid=53d770e5-ae11-4c3d-809b-fec5fee00e76","ios":"levelo://app?vid=53d770e5-ae11-4c3d-809b-fec5fee00e76"},"vehicle_type_id":"4","last_reported":1737576629,"current_range_meters":38800,"station_id":"ce4bgj92rcd13ifvqbd0","pricing_plan_id":"cebpf4jnsgd1na2vs0mg"},{"bike_id":"a9d08443-71b6-4ab7-93ae-f8d5b6602792","system_id":"levelo_inurba_marseille","lat":43.30794,"lon":5.43537,"is_reserved":false,"is_disabled":false,"rental_uris":{"android":"levelo://app?vid=a9d08443-71b6-4ab7-93ae-f8d5b6602792","ios":"levelo://app?vid=a9d08443-71b6-4ab7-93ae-f8d5b6602792"},"vehicle_type_id":"4","last_reported":1737576629,"current_range_meters":14400,"station_id":"ce4bhph2rcd13ifvqheg","pricing_plan_id":"cebpf4jnsgd1na2vs0mg"},{"bike_id":"1bf6e842-f177-4f99-a02d-c8597377b434","system_id":"levelo_inurba_marseille","lat":43.30089,"lon":5.39082,"is_reserved":false,"is_disabled":false,"rental_uris":{"android":"levelo://app?vid=1bf6e842-f177-4f99-a02d-c8597377b434","ios":"levelo://app?vid=1bf6e842-f177-4f99-a02d-c8597377b434"},"vehicle_type_id":"4","last_reported":1737576629,"current_range_meters":12400,"station_id":"ce4bh192rcd13ifvqdb0","pricing_plan_id":"cebpf4jnsgd1na2vs0mg"},{"bike_id":"7c99757d-a618-4c05-bdf4-03e32374f001","system_id":"levelo_inurba_marseille","lat":43.28453,"lon":5.35866,"is_reserved":false,"is_disabled":false,"rental_uris":{"android":"levelo://app?vid=7c99757d-a618-4c05-bdf4-03e32374f001","ios":"levelo://app?vid=7c99757d-a618-4c05-bdf4-03e32374f001"},"vehicle_type_id":"4","last_reported":1737576629,"current_range_meters":34000,"station_id":"ce4bhah2rcd13ifvqei0","pricing_plan_id":"cebpf4jnsgd1na2vs0mg"},{"bike_id":"671a624e-4572-4a73-878a-56cac04af55b","system_id":"levelo_inurba_marseille","lat":43.29022,"lon":5.38638,"is_reserved":false,"is_disabled":false,"rental_uris":{"android":"levelo://app?vid=671a624e-4572-4a73-878a-56cac04af55b","ios":"levelo://app?vid=671a624e-4572-4a73-878a-56cac04af55b"},"vehicle_type_id":"4","last_reported":1737576629,"current_range_meters":20800,"station_id":"ce4bh4p2rcd13ifvqe0g","pricing_plan_id":"cebpf4jnsgd1na2vs0mg"},{"bike_id":"b657a756-1477-49c4-a8ff-7db2f86ec3c4","system_id":"levelo_inurba_marseille","lat":43.297863,"lon":5.39336,"is_reserved":false,"is_disabled":false,"rental_uris":{"android":"levelo://app?vid=b657a756-1477-49c4-a8ff-7db2f86ec3c4","ios":"levelo://app?vid=b657a756-1477-49c4-a8ff-7db2f86ec3c4"},"vehicle_type_id":"4","last_reported":1737576629,"current_range_meters":22000,"station_id":"chh1huq6cuj3fo74tm60","pricing_plan_id":"cebpf4jnsgd1na2vs0mg"},{"bike_id":"8ab0346c-8001-4067-8852-009244e2b53d","system_id":"levelo_inurba_marseille","lat":43.31089,"lon":5.42434,"is_reserved":false,"is_disabled":false,"rental_uris":{"android":"levelo://app?vid=8ab0346c-8001-4067-8852-009244e2b53d","ios":"levelo://app?vid=8ab0346c-8001-4067-8852-009244e2b53d"},"vehicle_type_id":"4","last_reported":1737576629,"current_range_meters":39200,"station_id":"ce4bhp92rcd13ifvqhag","pricing_plan_id":"cebpf4jnsgd1na2vs0mg"},{"bike_id":"49b72580-0a1d-4edc-bc96-4de0de30e7b4","system_id":"levelo_inurba_marseille","lat":43.31068,"lon":5.38347,"is_reserved":false,"is_disabled":false,"rental_uris":{"android":"levelo://app?vid=49b72580-0a1d-4edc-bc96-4de0de30e7b4","ios":"levelo://app?vid=49b72580-0a1d-4edc-bc96-4de0de30e7b4"},"vehicle_type_id":"4","last_reported":1737576629,"current_range_meters":38800,"station_id":"ce4bgv92rcd13ifvqcr0","pricing_plan_id":"cebpf4jnsgd1na2vs0mg"},{"bike_id":"ae61e9fb-77e2-453d-8f80-29ea9c2b14f4","system_id":"levelo_inurba_marseille","lat":43.29718,"lon":5.36607,"is_reserved":false,"is_disabled":false,"rental_uris":{"android":"levelo://app?vid=ae61e9fb-77e2-453d-8f80-29ea9c2b14f4","ios":"levelo://app?vid=ae61e9fb-77e2-453d-8f80-29ea9c2b14f4"},"vehicle_type_id":"4","last_reported":1737576629,"current_range_meters":38400,"station_id":"ce4bgn12rcd13ifvqbt0","pricing_plan_id":"cebpf4jnsgd1na2vs0mg"},{"bike_id":"03f65ec4-487a-4a60-a6b7-d28a834120f4","system_id":"levelo_inurba_marseille","lat":43.28165,"lon":5.42641,"is_reserved":false,"is_disabled":false,"rental_uris":{"android":"levelo://app?vid=03f65ec4-487a-4a60-a6b7-d28a834120f4","ios":"levelo://app?vid=03f65ec4-487a-4a60-a6b7-d28a834120f4"},"vehicle_type_id":"4","last_reported":1737576629,"current_range_meters":30800,"station_id":"ce4bhnh2rcd13ifvqgug","pricing_plan_id":"cebpf4jnsgd1na2vs0mg"},{"bike_id":"e14baba4-7381-4ad7-9450-30b4b09a275b","system_id":"levelo_inurba_marseille","lat":43.310826,"lon":5.42432,"is_reserved":false,"is_disabled":false,"rental_uris":{"android":"levelo://app?vid=e14baba4-7381-4ad7-9450-30b4b09a275b","ios":"levelo://app?vid=e14baba4-7381-4ad7-9450-30b4b09a275b"},"vehicle_type_id":"4","last_reported":1737576629,"current_range_meters":39200,"station_id":"ce4bhp92rcd13ifvqhag","pricing_plan_id":"cebpf4jnsgd1na2vs0mg"},{"bike_id":"46df303c-af7b-4bd6-88dd-7d9758a3ac21","system_id":"levelo_inurba_marseille","lat":43.30368,"lon":5.38883,"is_reserved":false,"is_disabled":true,"rental_uris":{"android":"levelo://app?vid=46df303c-af7b-4bd6-88dd-7d9758a3ac21","ios":"levelo://app?vid=46df303c-af7b-4bd6-88dd-7d9758a3ac21"},"vehicle_type_id":"4","last_reported":1737576629,"current_range_meters":24000,"station_id":"","pricing_plan_id":"cebpf4jnsgd1na2vs0mg"},{"bike_id":"5ba5cfe7-a3f0-4559-acb3-f50099266fea","system_id":"levelo_inurba_marseille","lat":43.27547,"lon":5.38391,"is_reserved":false,"is_disabled":false,"rental_uris":{"android":"levelo://app?vid=5ba5cfe7-a3f0-4559-acb3-f50099266fea","ios":"levelo://app?vid=5ba5cfe7-a3f0-4559-acb3-f50099266fea"},"vehicle_type_id":"4","last_reported":1737576629,"current_range_meters":31200,"station_id":"ce4bhh92rcd13ifvqfi0","pricing_plan_id":"cebpf4jnsgd1na2vs0mg"},{"bike_id":"dc25515f-2516-4d8e-8ff7-eaa9f571f705","system_id":"levelo_inurba_marseille","lat":43.30096,"lon":5.39086,"is_reserved":false,"is_disabled":true,"rental_uris":{"android":"levelo://app?vid=dc25515f-2516-4d8e-8ff7-eaa9f571f705","ios":"levelo://app?vid=dc25515f-2516-4d8e-8ff7-eaa9f571f705"},"vehicle_type_id":"4","last_reported":1737576629,"current_range_meters":0,"station_id":"ce4bh192rcd13ifvqdb0","pricing_plan_id":"cebpf4jnsgd1na2vs0mg"},{"bike_id":"ed100342-f883-4b53-abec-316a656acfa1","system_id":"levelo_inurba_marseille","lat":43.29014,"lon":5.38639,"is_reserved":false,"is_disabled":false,"rental_uris":{"android":"levelo://app?vid=ed100342-f883-4b53-abec-316a656acfa1","ios":"levelo://app?vid=ed100342-f883-4b53-abec-316a656acfa1"},"vehicle_type_id":"4","last_reported":1737576629,"current_range_meters":30000,"station_id":"ce4bh4p2rcd13ifvqe0g","pricing_plan_id":"cebpf4jnsgd1na2vs0mg"},{"bike_id":"a1712345-b722-42f5-b051-36e9414f412a","system_id":"levelo_inurba_marseille","lat":43.30129,"lon":5.39842,"is_reserved":false,"is_disabled":false,"rental_uris":{"android":"levelo://app?vid=a1712345-b722-42f5-b051-36e9414f412a","ios":"levelo://app?vid=a1712345-b722-42f5-b051-36e9414f412a"},"vehicle_type_id":"4","last_reported":1737576629,"current_range_meters":17200,"station_id":"ce4bh0h2rcd13ifvqd40","pricing_plan_id":"cebpf4jnsgd1na2vs0mg"},{"bike_id":"4338c634-d115-4253-b4d8-e8c8711639d9","system_id":"levelo_inurba_marseille","lat":43.2784,"lon":5.39212,"is_reserved":false,"is_disabled":false,"rental_uris":{"android":"levelo://app?vid=4338c634-d115-4253-b4d8-e8c8711639d9","ios":"levelo://app?vid=4338c634-d115-4253-b4d8-e8c8711639d9"},"vehicle_type_id":"4","last_reported":1737576629,"current_range_meters":22800,"station_id":"ce4bhjp2rcd13ifvqga0","pricing_plan_id":"cebpf4jnsgd1na2vs0mg"},{"bike_id":"173e3aa7-0f78-46bd-a3ba-457b0bd64da9","system_id":"levelo_inurba_marseille","lat":43.281,"lon":5.37858,"is_reserved":false,"is_disabled":false,"rental_uris":{"android":"levelo://app?vid=173e3aa7-0f78-46bd-a3ba-457b0bd64da9","ios":"levelo://app?vid=173e3aa7-0f78-46bd-a3ba-457b0bd64da9"},"vehicle_type_id":"4","last_reported":1737576629,"current_range_meters":18000,"station_id":"ce4bha12rcd13ifvqee0","pricing_plan_id":"cebpf4jnsgd1na2vs0mg"},{"bike_id":"978e10b0-a57e-40ff-905f-cb455f9c0b12","system_id":"levelo_inurba_marseille","lat":43.286835,"lon":5.386812,"is_reserved":false,"is_disabled":false,"rental_uris":{"android":"levelo://app?vid=978e10b0-a57e-40ff-905f-cb455f9c0b12","ios":"levelo://app?vid=978e10b0-a57e-40ff-905f-cb455f9c0b12"},"vehicle_type_id":"4","last_reported":1737576629,"current_range_meters":27600,"station_id":"ce4bh492rcd13ifvqdug","pricing_plan_id":"cebpf4jnsgd1na2vs0mg"},{"bike_id":"68402148-60a5-4cb9-9fd1-f8a71c609ca3","system_id":"levelo_inurba_marseille","lat":43.30145,"lon":5.39869,"is_reserved":false,"is_disabled":false,"rental_uris":{"android":"levelo://app?vid=68402148-60a5-4cb9-9fd1-f8a71c609ca3","ios":"levelo://app?vid=68402148-60a5-4cb9-9fd1-f8a71c609ca3"},"vehicle_type_id":"4","last_reported":1737576629,"current_range_meters":25600,"station_id":"ce4bh0h2rcd13ifvqd40","pricing_plan_id":"cebpf4jnsgd1na2vs0mg"},{"bike_id":"e6f5cc07-7521-407d-88c2-2999a4a7ae9e","system_id":"levelo_inurba_marseille","lat":43.27948,"lon":5.4103,"is_reserved":false,"is_disabled":false,"rental_uris":{"android":"levelo://app?vid=e6f5cc07-7521-407d-88c2-2999a4a7ae9e","ios":"levelo://app?vid=e6f5cc07-7521-407d-88c2-2999a4a7ae9e"},"vehicle_type_id":"4","last_reported":1737576629,"current_range_meters":16800,"station_id":"ce4bhnp2rcd13ifvqh0g","pricing_plan_id":"cebpf4jnsgd1na2vs0mg"},{"bike_id":"a74613b0-0632-4e74-90d6-f057fde31b01","system_id":"levelo_inurba_marseille","lat":43.30876,"lon":5.39642,"is_reserved":false,"is_disabled":false,"rental_uris":{"android":"levelo://app?vid=a74613b0-0632-4e74-90d6-f057fde31b01","ios":"levelo://app?vid=a74613b0-0632-4e74-90d6-f057fde31b01"},"vehicle_type_id":"4","last_reported":1737576629,"current_range_meters":37600,"station_id":"ce4bh012rcd13ifvqcv0","pricing_plan_id":"cebpf4jnsgd1na2vs0mg"},{"bike_id":"a7708f30-9219-4bd1-8375-405a911cd519","system_id":"levelo_inurba_marseille","lat":43.2293,"lon":5.35373,"is_reserved":false,"is_disabled":false,"rental_uris":{"android":"levelo://app?vid=a7708f30-9219-4bd1-8375-405a911cd519","ios":"levelo://app?vid=a7708f30-9219-4bd1-8375-405a911cd519"},"vehicle_type_id":"4","last_reported":1737576629,"current_range_meters":8400,"station_id":"cpo3532slgdg3j2ikp40","pricing_plan_id":"cebpf4jnsgd1na2vs0mg"},{"bike_id":"df52a64c-de81-404e-842e-688282a4849a","system_id":"levelo_inurba_marseille","lat":43.31686,"lon":5.40474,"is_reserved":false,"is_disabled":false,"rental_uris":{"android":"levelo://app?vid=df52a64c-de81-404e-842e-688282a4849a","ios":"levelo://app?vid=df52a64c-de81-404e-842e-688282a4849a"},"vehicle_type_id":"4","last_reported":1737576629,"current_range_meters":37600,"station_id":"ce4bh012rcd13ifvqd00","pricing_plan_id":"cebpf4jnsgd1na2vs0mg"},{"bike_id":"d3d5b534-d49b-40f8-8d4b-3d3c137145d8","system_id":"levelo_inurba_marseille","lat":43.29165,"lon":5.37149,"is_reserved":false,"is_disabled":false,"rental_uris":{"android":"levelo://app?vid=d3d5b534-d49b-40f8-8d4b-3d3c137145d8","ios":"levelo://app?vid=d3d5b534-d49b-40f8-8d4b-3d3c137145d8"},"vehicle_type_id":"4","last_reported":1737576629,"current_range_meters":23200,"station_id":"ce4bha92rcd13ifvqeh0","pricing_plan_id":"cebpf4jnsgd1na2vs0mg"},{"bike_id":"e0ba6aac-d8ba-47b1-aa97-80ae735f1af2","system_id":"levelo_inurba_marseille","lat":43.2572,"lon":5.41113,"is_reserved":false,"is_disabled":false,"rental_uris":{"android":"levelo://app?vid=e0ba6aac-d8ba-47b1-aa97-80ae735f1af2","ios":"levelo://app?vid=e0ba6aac-d8ba-47b1-aa97-80ae735f1af2"},"vehicle_type_id":"4","last_reported":1737576629,"current_range_meters":39200,"station_id":"ce4bhkp2rcd13ifvqgd0","pricing_plan_id":"cebpf4jnsgd1na2vs0mg"},{"bike_id":"179b1787-549c-4fa1-b1ea-f50ab6d62f3c","system_id":"levelo_inurba_marseille","lat":43.29525,"lon":5.39041,"is_reserved":false,"is_disabled":false,"rental_uris":{"android":"levelo://app?vid=179b1787-549c-4fa1-b1ea-f50ab6d62f3c","ios":"levelo://app?vid=179b1787-549c-4fa1-b1ea-f50ab6d62f3c"},"vehicle_type_id":"4","last_reported":1737576629,"current_range_meters":6800,"station_id":"ce4bh3p2rcd13ifvqdp0","pricing_plan_id":"cebpf4jnsgd1na2vs0mg"},{"bike_id":"fe5283d4-ad50-4326-875d-e657e7e908e3","system_id":"levelo_inurba_marseille","lat":43.31459,"lon":5.37336,"is_reserved":false,"is_disabled":false,"rental_uris":{"android":"levelo://app?vid=fe5283d4-ad50-4326-875d-e657e7e908e3","ios":"levelo://app?vid=fe5283d4-ad50-4326-875d-e657e7e908e3"},"vehicle_type_id":"4","last_reported":1737576629,"current_range_meters":32800,"station_id":"ce4bgt12rcd13ifvqcd0","pricing_plan_id":"cebpf4jnsgd1na2vs0mg"},{"bike_id":"95289c82-6911-43c4-a49c-6e7f2290b672","system_id":"levelo_inurba_marseille","lat":43.30408,"lon":5.41275,"is_reserved":false,"is_disabled":true,"rental_uris":{"android":"levelo://app?vid=95289c82-6911-43c4-a49c-6e7f2290b672","ios":"levelo://app?vid=95289c82-6911-43c4-a49c-6e7f2290b672"},"vehicle_type_id":"4","last_reported":1737576629,"current_range_meters":2000,"station_id":"ce4bhop2rcd13ifvqh8g","pricing_plan_id":"cebpf4jnsgd1na2vs0mg"},{"bike_id":"b199a3a8-8574-42c1-920f-c78eb684329c","system_id":"levelo_inurba_marseille","lat":43.28929,"lon":5.36638,"is_reserved":false,"is_disabled":false,"rental_uris":{"android":"levelo://app?vid=b199a3a8-8574-42c1-920f-c78eb684329c","ios":"levelo://app?vid=b199a3a8-8574-42c1-920f-c78eb684329c"},"vehicle_type_id":"4","last_reported":1737576629,"current_range_meters":27600,"station_id":"ce4bhap2rcd13ifvqek0","pricing_plan_id":"cebpf4jnsgd1na2vs0mg"},{"bike_id":"13d0625c-c889-4d06-a37d-35193e5a4f67","system_id":"levelo_inurba_marseille","lat":43.30333,"lon":5.36918,"is_reserved":false,"is_disabled":false,"rental_uris":{"android":"levelo://app?vid=13d0625c-c889-4d06-a37d-35193e5a4f67","ios":"levelo://app?vid=13d0625c-c889-4d06-a37d-35193e5a4f67"},"vehicle_type_id":"4","last_reported":1737576629,"current_range_meters":20000,"station_id":"ce4bgqh2rcd13ifvqc5g","pricing_plan_id":"cebpf4jnsgd1na2vs0mg"},{"bike_id":"aa78dc9b-1ad6-4b84-b70b-d65d57de4050","system_id":"levelo_inurba_marseille","lat":43.30673,"lon":5.40084,"is_reserved":false,"is_disabled":false,"rental_uris":{"android":"levelo://app?vid=aa78dc9b-1ad6-4b84-b70b-d65d57de4050","ios":"levelo://app?vid=aa78dc9b-1ad6-4b84-b70b-d65d57de4050"},"vehicle_type_id":"4","last_reported":1737576629,"current_range_meters":14000,"station_id":"ce4bh112rcd13ifvqda0","pricing_plan_id":"cebpf4jnsgd1na2vs0mg"},{"bike_id":"96e0558c-cec8-47c4-89d3-1aa21c4b0119","system_id":"levelo_inurba_marseille","lat":43.25705,"lon":5.418,"is_reserved":false,"is_disabled":false,"rental_uris":{"android":"levelo://app?vid=96e0558c-cec8-47c4-89d3-1aa21c4b0119","ios":"levelo://app?vid=96e0558c-cec8-47c4-89d3-1aa21c4b0119"},"vehicle_type_id":"4","last_reported":1737576629,"current_range_meters":20000,"station_id":"","pricing_plan_id":"cebpf4jnsgd1na2vs0mg"},{"bike_id":"f4f0bb5b-d280-444f-a04a-6cef2bf9bee3","system_id":"levelo_inurba_marseille","lat":43.27942,"lon":5.41036,"is_reserved":false,"is_disabled":false,"rental_uris":{"android":"levelo://app?vid=f4f0bb5b-d280-444f-a04a-6cef2bf9bee3","ios":"levelo://app?vid=f4f0bb5b-d280-444f-a04a-6cef2bf9bee3"},"vehicle_type_id":"4","last_reported":1737576629,"current_range_meters":27200,"station_id":"ce4bhnp2rcd13ifvqh0g","pricing_plan_id":"cebpf4jnsgd1na2vs0mg"},{"bike_id":"e56673c9-6d54-4cee-9600-19b9bdfc7c6c","system_id":"levelo_inurba_marseille","lat":43.26948,"lon":5.38645,"is_reserved":false,"is_disabled":false,"rental_uris":{"android":"levelo://app?vid=e56673c9-6d54-4cee-9600-19b9bdfc7c6c","ios":"levelo://app?vid=e56673c9-6d54-4cee-9600-19b9bdfc7c6c"},"vehicle_type_id":"4","last_reported":1737576629,"current_range_meters":8400,"station_id":"ce4bhh92rcd13ifvqfh0","pricing_plan_id":"cebpf4jnsgd1na2vs0mg"},{"bike_id":"ea82f148-4829-4513-b7c9-a3f31cdd2e6a","system_id":"levelo_inurba_marseille","lat":43.30645,"lon":5.40099,"is_reserved":false,"is_disabled":false,"rental_uris":{"android":"levelo://app?vid=ea82f148-4829-4513-b7c9-a3f31cdd2e6a","ios":"levelo://app?vid=ea82f148-4829-4513-b7c9-a3f31cdd2e6a"},"vehicle_type_id":"4","last_reported":1737576629,"current_range_meters":12800,"station_id":"ce4bh112rcd13ifvqda0","pricing_plan_id":"cebpf4jnsgd1na2vs0mg"},{"bike_id":"273414ea-1401-4794-b313-34930b6f0ad8","system_id":"levelo_inurba_marseille","lat":43.29981,"lon":5.38495,"is_reserved":false,"is_disabled":false,"rental_uris":{"android":"levelo://app?vid=273414ea-1401-4794-b313-34930b6f0ad8","ios":"levelo://app?vid=273414ea-1401-4794-b313-34930b6f0ad8"},"vehicle_type_id":"4","last_reported":1737576629,"current_range_meters":38800,"station_id":"ce4bgj92rcd13ifvqbd0","pricing_plan_id":"cebpf4jnsgd1na2vs0mg"},{"bike_id":"5f2676f8-0004-4b83-8adf-66c1f0e7ad65","system_id":"levelo_inurba_marseille","lat":43.31125,"lon":5.37774,"is_reserved":false,"is_disabled":false,"rental_uris":{"android":"levelo://app?vid=5f2676f8-0004-4b83-8adf-66c1f0e7ad65","ios":"levelo://app?vid=5f2676f8-0004-4b83-8adf-66c1f0e7ad65"},"vehicle_type_id":"4","last_reported":1737576629,"current_range_meters":35600,"station_id":"ce4bgt92rcd13ifvqcg0","pricing_plan_id":"cebpf4jnsgd1na2vs0mg"},{"bike_id":"13a64475-e4c7-493c-900a-0bcfe86942ca","system_id":"levelo_inurba_marseille","lat":43.30808,"lon":5.43522,"is_reserved":false,"is_disabled":false,"rental_uris":{"android":"levelo://app?vid=13a64475-e4c7-493c-900a-0bcfe86942ca","ios":"levelo://app?vid=13a64475-e4c7-493c-900a-0bcfe86942ca"},"vehicle_type_id":"4","last_reported":1737576629,"current_range_meters":16000,"station_id":"ce4bhph2rcd13ifvqheg","pricing_plan_id":"cebpf4jnsgd1na2vs0mg"},{"bike_id":"aa5c58df-4830-437e-bfc2-4f90bf8c9657","system_id":"levelo_inurba_marseille","lat":43.2997,"lon":5.38496,"is_reserved":false,"is_disabled":false,"rental_uris":{"android":"levelo://app?vid=aa5c58df-4830-437e-bfc2-4f90bf8c9657","ios":"levelo://app?vid=aa5c58df-4830-437e-bfc2-4f90bf8c9657"},"vehicle_type_id":"4","last_reported":1737576629,"current_range_meters":6400,"station_id":"ce4bgj92rcd13ifvqbd0","pricing_plan_id":"cebpf4jnsgd1na2vs0mg"},{"bike_id":"ac3fa518-fef3-4a6f-9e1e-03befa6efc87","system_id":"levelo_inurba_marseille","lat":43.27949,"lon":5.41047,"is_reserved":false,"is_disabled":false,"rental_uris":{"android":"levelo://app?vid=ac3fa518-fef3-4a6f-9e1e-03befa6efc87","ios":"levelo://app?vid=ac3fa518-fef3-4a6f-9e1e-03befa6efc87"},"vehicle_type_id":"4","last_reported":1737576629,"current_range_meters":12400,"station_id":"ce4bhnp2rcd13ifvqh0g","pricing_plan_id":"cebpf4jnsgd1na2vs0mg"},{"bike_id":"366618e5-58e4-49a2-b359-c5654fbadc2c","system_id":"levelo_inurba_marseille","lat":43.24043,"lon":5.37714,"is_reserved":false,"is_disabled":false,"rental_uris":{"android":"levelo://app?vid=366618e5-58e4-49a2-b359-c5654fbadc2c","ios":"levelo://app?vid=366618e5-58e4-49a2-b359-c5654fbadc2c"},"vehicle_type_id":"4","last_reported":1737576629,"current_range_meters":20800,"station_id":"ce4bhnp2rcd13ifvqgvg","pricing_plan_id":"cebpf4jnsgd1na2vs0mg"},{"bike_id":"c3b3bebb-09f3-4084-8c35-a5fde3b4b8b8","system_id":"levelo_inurba_marseille","lat":43.29194,"lon":5.35799,"is_reserved":false,"is_disabled":false,"rental_uris":{"android":"levelo://app?vid=c3b3bebb-09f3-4084-8c35-a5fde3b4b8b8","ios":"levelo://app?vid=c3b3bebb-09f3-4084-8c35-a5fde3b4b8b8"},"vehicle_type_id":"4","last_reported":1737576629,"current_range_meters":34000,"station_id":"ce4bhb12rcd13ifvqel0","pricing_plan_id":"cebpf4jnsgd1na2vs0mg"},{"bike_id":"aaa0c41b-3b4f-4f38-bba2-425d19b5f467","system_id":"levelo_inurba_marseille","lat":43.25719,"lon":5.4181,"is_reserved":false,"is_disabled":false,"rental_uris":{"android":"levelo://app?vid=aaa0c41b-3b4f-4f38-bba2-425d19b5f467","ios":"levelo://app?vid=aaa0c41b-3b4f-4f38-bba2-425d19b5f467"},"vehicle_type_id":"4","last_reported":1737576629,"current_range_meters":31200,"station_id":"","pricing_plan_id":"cebpf4jnsgd1na2vs0mg"},{"bike_id":"b0ee3244-b915-4f05-8704-8eb07d0c50b6","system_id":"levelo_inurba_marseille","lat":43.31715,"lon":5.37827,"is_reserved":false,"is_disabled":false,"rental_uris":{"android":"levelo://app?vid=b0ee3244-b915-4f05-8704-8eb07d0c50b6","ios":"levelo://app?vid=b0ee3244-b915-4f05-8704-8eb07d0c50b6"},"vehicle_type_id":"4","last_reported":1737576629,"current_range_meters":39200,"station_id":"ce4bgth2rcd13ifvqch0","pricing_plan_id":"cebpf4jnsgd1na2vs0mg"},{"bike_id":"2c89f2df-1730-4475-ab17-da02f7faf3ef","system_id":"levelo_inurba_marseille","lat":43.29199,"lon":5.39325,"is_reserved":false,"is_disabled":false,"rental_uris":{"android":"levelo://app?vid=2c89f2df-1730-4475-ab17-da02f7faf3ef","ios":"levelo://app?vid=2c89f2df-1730-4475-ab17-da02f7faf3ef"},"vehicle_type_id":"4","last_reported":1737576629,"current_range_meters":38000,"station_id":"ce4bh192rcd13ifvqdd0","pricing_plan_id":"cebpf4jnsgd1na2vs0mg"},{"bike_id":"3241f650-82fe-4cf2-95cc-1395a37ba999","system_id":"levelo_inurba_marseille","lat":43.30352,"lon":5.41872,"is_reserved":false,"is_disabled":false,"rental_uris":{"android":"levelo://app?vid=3241f650-82fe-4cf2-95cc-1395a37ba999","ios":"levelo://app?vid=3241f650-82fe-4cf2-95cc-1395a37ba999"},"vehicle_type_id":"4","last_reported":1737576629,"current_range_meters":35200,"station_id":"ce4bhop2rcd13ifvqh7g","pricing_plan_id":"cebpf4jnsgd1na2vs0mg"},{"bike_id":"9711e9b6-e5ba-49b8-927a-e3818ac0de6e","system_id":"levelo_inurba_marseille","lat":43.29531,"lon":5.38544,"is_reserved":false,"is_disabled":false,"rental_uris":{"android":"levelo://app?vid=9711e9b6-e5ba-49b8-927a-e3818ac0de6e","ios":"levelo://app?vid=9711e9b6-e5ba-49b8-927a-e3818ac0de6e"},"vehicle_type_id":"4","last_reported":1737576629,"current_range_meters":32000,"station_id":"ce4bgih2rcd13ifvqba0","pricing_plan_id":"cebpf4jnsgd1na2vs0mg"},{"bike_id":"58bd67b2-eea0-4ad2-8092-8cb589d6733b","system_id":"levelo_inurba_marseille","lat":43.30792,"lon":5.43518,"is_reserved":false,"is_disabled":false,"rental_uris":{"android":"levelo://app?vid=58bd67b2-eea0-4ad2-8092-8cb589d6733b","ios":"levelo://app?vid=58bd67b2-eea0-4ad2-8092-8cb589d6733b"},"vehicle_type_id":"4","last_reported":1737576629,"current_range_meters":8000,"station_id":"ce4bhph2rcd13ifvqheg","pricing_plan_id":"cebpf4jnsgd1na2vs0mg"},{"bike_id":"f8216a2b-e7c5-4eea-8c3d-912daef0d729","system_id":"levelo_inurba_marseille","lat":43.29893,"lon":5.43644,"is_reserved":false,"is_disabled":false,"rental_uris":{"android":"levelo://app?vid=f8216a2b-e7c5-4eea-8c3d-912daef0d729","ios":"levelo://app?vid=f8216a2b-e7c5-4eea-8c3d-912daef0d729"},"vehicle_type_id":"4","last_reported":1737576629,"current_range_meters":23200,"station_id":"ce4bhpp2rcd13ifvqhfg","pricing_plan_id":"cebpf4jnsgd1na2vs0mg"},{"bike_id":"86fce387-d25e-46bb-928c-c6923257e7fb","system_id":"levelo_inurba_marseille","lat":43.28418,"lon":5.37511,"is_reserved":false,"is_disabled":false,"rental_uris":{"android":"levelo://app?vid=86fce387-d25e-46bb-928c-c6923257e7fb","ios":"levelo://app?vid=86fce387-d25e-46bb-928c-c6923257e7fb"},"vehicle_type_id":"4","last_reported":1737576629,"current_range_meters":38000,"station_id":"ce4bh412rcd13ifvqds0","pricing_plan_id":"cebpf4jnsgd1na2vs0mg"},{"bike_id":"f69be3dd-5c08-41a5-a494-c4d2892249c1","system_id":"levelo_inurba_marseille","lat":43.33739,"lon":5.39184,"is_reserved":false,"is_disabled":false,"rental_uris":{"android":"levelo://app?vid=f69be3dd-5c08-41a5-a494-c4d2892249c1","ios":"levelo://app?vid=f69be3dd-5c08-41a5-a494-c4d2892249c1"},"vehicle_type_id":"4","last_reported":1737576629,"current_range_meters":38800,"station_id":"ce4bhr92rcd13ifvqhsg","pricing_plan_id":"cebpf4jnsgd1na2vs0mg"},{"bike_id":"20b5de21-c867-4b77-9848-bea3b3e4bccf","system_id":"levelo_inurba_marseille","lat":43.30673,"lon":5.40078,"is_reserved":false,"is_disabled":false,"rental_uris":{"android":"levelo://app?vid=20b5de21-c867-4b77-9848-bea3b3e4bccf","ios":"levelo://app?vid=20b5de21-c867-4b77-9848-bea3b3e4bccf"},"vehicle_type_id":"4","last_reported":1737576629,"current_range_meters":38000,"station_id":"ce4bh112rcd13ifvqda0","pricing_plan_id":"cebpf4jnsgd1na2vs0mg"},{"bike_id":"fa86212b-b092-4008-96d3-f4a4266c241a","system_id":"levelo_inurba_marseille","lat":43.29714,"lon":5.3627,"is_reserved":false,"is_disabled":true,"rental_uris":{"android":"levelo://app?vid=fa86212b-b092-4008-96d3-f4a4266c241a","ios":"levelo://app?vid=fa86212b-b092-4008-96d3-f4a4266c241a"},"vehicle_type_id":"4","last_reported":1737576629,"current_range_meters":0,"station_id":"","pricing_plan_id":"cebpf4jnsgd1na2vs0mg"},{"bike_id":"a43310e2-1908-44e7-acd1-fa2cac064eeb","system_id":"levelo_inurba_marseille","lat":43.33733,"lon":5.39189,"is_reserved":false,"is_disabled":false,"rental_uris":{"android":"levelo://app?vid=a43310e2-1908-44e7-acd1-fa2cac064eeb","ios":"levelo://app?vid=a43310e2-1908-44e7-acd1-fa2cac064eeb"},"vehicle_type_id":"4","last_reported":1737576629,"current_range_meters":38800,"station_id":"ce4bhr92rcd13ifvqhsg","pricing_plan_id":"cebpf4jnsgd1na2vs0mg"},{"bike_id":"a7239622-729f-4aad-9c1c-b8db3157fe13","system_id":"levelo_inurba_marseille","lat":43.28701,"lon":5.37387,"is_reserved":false,"is_disabled":false,"rental_uris":{"android":"levelo://app?vid=a7239622-729f-4aad-9c1c-b8db3157fe13","ios":"levelo://app?vid=a7239622-729f-4aad-9c1c-b8db3157fe13"},"vehicle_type_id":"4","last_reported":1737576629,"current_range_meters":39200,"station_id":"ce4bh3p2rcd13ifvqdq0","pricing_plan_id":"cebpf4jnsgd1na2vs0mg"},{"bike_id":"b4b8b8ad-4ad7-4155-943f-90d66aac77c6","system_id":"levelo_inurba_marseille","lat":43.28679,"lon":5.38681,"is_reserved":false,"is_disabled":false,"rental_uris":{"android":"levelo://app?vid=b4b8b8ad-4ad7-4155-943f-90d66aac77c6","ios":"levelo://app?vid=b4b8b8ad-4ad7-4155-943f-90d66aac77c6"},"vehicle_type_id":"4","last_reported":1737576629,"current_range_meters":39200,"station_id":"ce4bh492rcd13ifvqdug","pricing_plan_id":"cebpf4jnsgd1na2vs0mg"},{"bike_id":"9863b7f9-4316-4322-9f6c-3cc66b0448e2","system_id":"levelo_inurba_marseille","lat":43.279439,"lon":5.389008,"is_reserved":false,"is_disabled":true,"rental_uris":{"android":"levelo://app?vid=9863b7f9-4316-4322-9f6c-3cc66b0448e2","ios":"levelo://app?vid=9863b7f9-4316-4322-9f6c-3cc66b0448e2"},"vehicle_type_id":"4","last_reported":1737576629,"current_range_meters":28000,"station_id":"","pricing_plan_id":"cebpf4jnsgd1na2vs0mg"},{"bike_id":"41558aff-4493-4695-8a6b-37d89836b9c2","system_id":"levelo_inurba_marseille","lat":43.2756,"lon":5.3842,"is_reserved":false,"is_disabled":false,"rental_uris":{"android":"levelo://app?vid=41558aff-4493-4695-8a6b-37d89836b9c2","ios":"levelo://app?vid=41558aff-4493-4695-8a6b-37d89836b9c2"},"vehicle_type_id":"4","last_reported":1737576629,"current_range_meters":38800,"station_id":"ce4bhh92rcd13ifvqfi0","pricing_plan_id":"cebpf4jnsgd1na2vs0mg"},{"bike_id":"c072e3af-4d17-488d-8fb7-d9317a7547d1","system_id":"levelo_inurba_marseille","lat":43.28295,"lon":5.43225,"is_reserved":false,"is_disabled":false,"rental_uris":{"android":"levelo://app?vid=c072e3af-4d17-488d-8fb7-d9317a7547d1","ios":"levelo://app?vid=c072e3af-4d17-488d-8fb7-d9317a7547d1"},"vehicle_type_id":"4","last_reported":1737576629,"current_range_meters":30000,"station_id":"","pricing_plan_id":"cebpf4jnsgd1na2vs0mg"},{"bike_id":"a5363d95-3287-47fc-be89-6c53b80f6665","system_id":"levelo_inurba_marseille","lat":43.29273,"lon":5.38431,"is_reserved":false,"is_disabled":false,"rental_uris":{"android":"levelo://app?vid=a5363d95-3287-47fc-be89-6c53b80f6665","ios":"levelo://app?vid=a5363d95-3287-47fc-be89-6c53b80f6665"},"vehicle_type_id":"4","last_reported":1737576629,"current_range_meters":16000,"station_id":"ce4bh692rcd13ifvqea0","pricing_plan_id":"cebpf4jnsgd1na2vs0mg"},{"bike_id":"eddb6b89-082b-479c-b34f-44c352a03897","system_id":"levelo_inurba_marseille","lat":43.25503,"lon":5.37652,"is_reserved":false,"is_disabled":false,"rental_uris":{"android":"levelo://app?vid=eddb6b89-082b-479c-b34f-44c352a03897","ios":"levelo://app?vid=eddb6b89-082b-479c-b34f-44c352a03897"},"vehicle_type_id":"4","last_reported":1737576629,"current_range_meters":38800,"station_id":"ce4bhh12rcd13ifvqff0","pricing_plan_id":"cebpf4jnsgd1na2vs0mg"},{"bike_id":"795016d8-3d99-4697-be28-e44e10ed86a8","system_id":"levelo_inurba_marseille","lat":43.27897,"lon":5.38007,"is_reserved":false,"is_disabled":false,"rental_uris":{"android":"levelo://app?vid=795016d8-3d99-4697-be28-e44e10ed86a8","ios":"levelo://app?vid=795016d8-3d99-4697-be28-e44e10ed86a8"},"vehicle_type_id":"4","last_reported":1737576629,"current_range_meters":38800,"station_id":"ce4bhf92rcd13ifvqf50","pricing_plan_id":"cebpf4jnsgd1na2vs0mg"},{"bike_id":"d482e144-5239-4ce2-b6b9-78a44e7f8317","system_id":"levelo_inurba_marseille","lat":43.31161,"lon":5.3872,"is_reserved":false,"is_disabled":false,"rental_uris":{"android":"levelo://app?vid=d482e144-5239-4ce2-b6b9-78a44e7f8317","ios":"levelo://app?vid=d482e144-5239-4ce2-b6b9-78a44e7f8317"},"vehicle_type_id":"4","last_reported":1737576629,"current_range_meters":22800,"station_id":"ce4bgv12rcd13ifvqcp0","pricing_plan_id":"cebpf4jnsgd1na2vs0mg"},{"bike_id":"895f869d-5830-4c5b-80e3-0bb0d95c3704","system_id":"levelo_inurba_marseille","lat":43.23958,"lon":5.36634,"is_reserved":false,"is_disabled":false,"rental_uris":{"android":"levelo://app?vid=895f869d-5830-4c5b-80e3-0bb0d95c3704","ios":"levelo://app?vid=895f869d-5830-4c5b-80e3-0bb0d95c3704"},"vehicle_type_id":"4","last_reported":1737576629,"current_range_meters":24800,"station_id":"ce4bhi12rcd13ifvqfp0","pricing_plan_id":"cebpf4jnsgd1na2vs0mg"},{"bike_id":"3c3a7ef9-6af7-4b28-917e-e6ba18feb67f","system_id":"levelo_inurba_marseille","lat":43.30235,"lon":5.40051,"is_reserved":false,"is_disabled":false,"rental_uris":{"android":"levelo://app?vid=3c3a7ef9-6af7-4b28-917e-e6ba18feb67f","ios":"levelo://app?vid=3c3a7ef9-6af7-4b28-917e-e6ba18feb67f"},"vehicle_type_id":"4","last_reported":1737576629,"current_range_meters":39200,"station_id":"ce4bgvh2rcd13ifvqcs0","pricing_plan_id":"cebpf4jnsgd1na2vs0mg"},{"bike_id":"71dadf1d-7daf-40cc-84d2-9745b102a8dc","system_id":"levelo_inurba_marseille","lat":43.315,"lon":5.37301,"is_reserved":false,"is_disabled":false,"rental_uris":{"android":"levelo://app?vid=71dadf1d-7daf-40cc-84d2-9745b102a8dc","ios":"levelo://app?vid=71dadf1d-7daf-40cc-84d2-9745b102a8dc"},"vehicle_type_id":"4","last_reported":1737576629,"current_range_meters":38000,"station_id":"ce4bgt12rcd13ifvqcd0","pricing_plan_id":"cebpf4jnsgd1na2vs0mg"},{"bike_id":"dfbd27e7-12bf-4812-80d1-488dbaf230dc","system_id":"levelo_inurba_marseille","lat":43.3247,"lon":5.36562,"is_reserved":false,"is_disabled":false,"rental_uris":{"android":"levelo://app?vid=dfbd27e7-12bf-4812-80d1-488dbaf230dc","ios":"levelo://app?vid=dfbd27e7-12bf-4812-80d1-488dbaf230dc"},"vehicle_type_id":"4","last_reported":1737576629,"current_range_meters":24800,"station_id":"ce4bhs12rcd13ifvqhvg","pricing_plan_id":"cebpf4jnsgd1na2vs0mg"},{"bike_id":"8e2fe138-ff09-4b92-834b-8fe11a686c0f","system_id":"levelo_inurba_marseille","lat":43.30113,"lon":5.39873,"is_reserved":false,"is_disabled":false,"rental_uris":{"android":"levelo://app?vid=8e2fe138-ff09-4b92-834b-8fe11a686c0f","ios":"levelo://app?vid=8e2fe138-ff09-4b92-834b-8fe11a686c0f"},"vehicle_type_id":"4","last_reported":1737576629,"current_range_meters":15200,"station_id":"ce4bh0h2rcd13ifvqd40","pricing_plan_id":"cebpf4jnsgd1na2vs0mg"},{"bike_id":"cbe3d43a-3232-428f-9c50-59c0c78cb3c9","system_id":"levelo_inurba_marseille","lat":43.29793,"lon":5.39338,"is_reserved":false,"is_disabled":false,"rental_uris":{"android":"levelo://app?vid=cbe3d43a-3232-428f-9c50-59c0c78cb3c9","ios":"levelo://app?vid=cbe3d43a-3232-428f-9c50-59c0c78cb3c9"},"vehicle_type_id":"4","last_reported":1737576629,"current_range_meters":25200,"station_id":"chh1huq6cuj3fo74tm60","pricing_plan_id":"cebpf4jnsgd1na2vs0mg"},{"bike_id":"1bbcb40a-d07f-4f56-b3b1-fad30cc81cb3","system_id":"levelo_inurba_marseille","lat":43.28939,"lon":5.36634,"is_reserved":false,"is_disabled":false,"rental_uris":{"android":"levelo://app?vid=1bbcb40a-d07f-4f56-b3b1-fad30cc81cb3","ios":"levelo://app?vid=1bbcb40a-d07f-4f56-b3b1-fad30cc81cb3"},"vehicle_type_id":"4","last_reported":1737576629,"current_range_meters":30000,"station_id":"ce4bhap2rcd13ifvqek0","pricing_plan_id":"cebpf4jnsgd1na2vs0mg"},{"bike_id":"0d555cab-a3ac-493c-97d1-05fb30170afc","system_id":"levelo_inurba_marseille","lat":43.27804,"lon":5.40706,"is_reserved":false,"is_disabled":false,"rental_uris":{"android":"levelo://app?vid=0d555cab-a3ac-493c-97d1-05fb30170afc","ios":"levelo://app?vid=0d555cab-a3ac-493c-97d1-05fb30170afc"},"vehicle_type_id":"4","last_reported":1737576629,"current_range_meters":9200,"station_id":"ce4bhnh2rcd13ifvqgtg","pricing_plan_id":"cebpf4jnsgd1na2vs0mg"},{"bike_id":"7a9c2dda-8bc0-46b6-a018-36ff197b62b5","system_id":"levelo_inurba_marseille","lat":43.29534,"lon":5.38542,"is_reserved":false,"is_disabled":false,"rental_uris":{"android":"levelo://app?vid=7a9c2dda-8bc0-46b6-a018-36ff197b62b5","ios":"levelo://app?vid=7a9c2dda-8bc0-46b6-a018-36ff197b62b5"},"vehicle_type_id":"4","last_reported":1737576629,"current_range_meters":32000,"station_id":"ce4bgih2rcd13ifvqba0","pricing_plan_id":"cebpf4jnsgd1na2vs0mg"},{"bike_id":"49052dc3-4d8a-4007-89e4-6a2b13d47195","system_id":"levelo_inurba_marseille","lat":43.24395,"lon":5.37055,"is_reserved":false,"is_disabled":true,"rental_uris":{"android":"levelo://app?vid=49052dc3-4d8a-4007-89e4-6a2b13d47195","ios":"levelo://app?vid=49052dc3-4d8a-4007-89e4-6a2b13d47195"},"vehicle_type_id":"4","last_reported":1737576629,"current_range_meters":12800,"station_id":"ce4bhhh2rcd13ifvqfk0","pricing_plan_id":"cebpf4jnsgd1na2vs0mg"},{"bike_id":"c5fb49ad-f90e-4caa-a5d1-c3c35c35098e","system_id":"levelo_inurba_marseille","lat":43.28926,"lon":5.36636,"is_reserved":false,"is_disabled":false,"rental_uris":{"android":"levelo://app?vid=c5fb49ad-f90e-4caa-a5d1-c3c35c35098e","ios":"levelo://app?vid=c5fb49ad-f90e-4caa-a5d1-c3c35c35098e"},"vehicle_type_id":"4","last_reported":1737576629,"current_range_meters":18000,"station_id":"ce4bhap2rcd13ifvqek0","pricing_plan_id":"cebpf4jnsgd1na2vs0mg"},{"bike_id":"c7dff3cc-e6b8-4ad0-901d-d6dc0a57d7a5","system_id":"levelo_inurba_marseille","lat":43.29259,"lon":5.38446,"is_reserved":false,"is_disabled":false,"rental_uris":{"android":"levelo://app?vid=c7dff3cc-e6b8-4ad0-901d-d6dc0a57d7a5","ios":"levelo://app?vid=c7dff3cc-e6b8-4ad0-901d-d6dc0a57d7a5"},"vehicle_type_id":"4","last_reported":1737576629,"current_range_meters":8000,"station_id":"ce4bh692rcd13ifvqea0","pricing_plan_id":"cebpf4jnsgd1na2vs0mg"},{"bike_id":"1c0bdd64-b440-4cb1-8eef-940fab5db96c","system_id":"levelo_inurba_marseille","lat":43.30136,"lon":5.39861,"is_reserved":false,"is_disabled":false,"rental_uris":{"android":"levelo://app?vid=1c0bdd64-b440-4cb1-8eef-940fab5db96c","ios":"levelo://app?vid=1c0bdd64-b440-4cb1-8eef-940fab5db96c"},"vehicle_type_id":"4","last_reported":1737576629,"current_range_meters":39200,"station_id":"ce4bh0h2rcd13ifvqd40","pricing_plan_id":"cebpf4jnsgd1na2vs0mg"},{"bike_id":"0f3bc4ba-3bb5-47c8-80d4-8518c927bcf9","system_id":"levelo_inurba_marseille","lat":43.279999,"lon":5.400106,"is_reserved":false,"is_disabled":false,"rental_uris":{"android":"levelo://app?vid=0f3bc4ba-3bb5-47c8-80d4-8518c927bcf9","ios":"levelo://app?vid=0f3bc4ba-3bb5-47c8-80d4-8518c927bcf9"},"vehicle_type_id":"4","last_reported":1737576629,"current_range_meters":38800,"station_id":"ce4bho92rcd13ifvqh4g","pricing_plan_id":"cebpf4jnsgd1na2vs0mg"},{"bike_id":"dd0f15cd-123f-4d48-8259-bed14253e065","system_id":"levelo_inurba_marseille","lat":43.30322,"lon":5.40443,"is_reserved":false,"is_disabled":false,"rental_uris":{"android":"levelo://app?vid=dd0f15cd-123f-4d48-8259-bed14253e065","ios":"levelo://app?vid=dd0f15cd-123f-4d48-8259-bed14253e065"},"vehicle_type_id":"4","last_reported":1737576629,"current_range_meters":20000,"station_id":"ce4bh012rcd13ifvqd10","pricing_plan_id":"cebpf4jnsgd1na2vs0mg"},{"bike_id":"fcd4837f-6e09-4786-bcf5-c3a686cbcfef","system_id":"levelo_inurba_marseille","lat":43.29892,"lon":5.43656,"is_reserved":false,"is_disabled":false,"rental_uris":{"android":"levelo://app?vid=fcd4837f-6e09-4786-bcf5-c3a686cbcfef","ios":"levelo://app?vid=fcd4837f-6e09-4786-bcf5-c3a686cbcfef"},"vehicle_type_id":"4","last_reported":1737576629,"current_range_meters":30800,"station_id":"ce4bhpp2rcd13ifvqhfg","pricing_plan_id":"cebpf4jnsgd1na2vs0mg"},{"bike_id":"d561329e-e53f-4714-85a9-2ace5d8e89b2","system_id":"levelo_inurba_marseille","lat":43.28108,"lon":5.37849,"is_reserved":false,"is_disabled":false,"rental_uris":{"android":"levelo://app?vid=d561329e-e53f-4714-85a9-2ace5d8e89b2","ios":"levelo://app?vid=d561329e-e53f-4714-85a9-2ace5d8e89b2"},"vehicle_type_id":"4","last_reported":1737576629,"current_range_meters":32400,"station_id":"ce4bha12rcd13ifvqee0","pricing_plan_id":"cebpf4jnsgd1na2vs0mg"},{"bike_id":"690952aa-4cf6-4ec8-a1ef-02ddc0138251","system_id":"levelo_inurba_marseille","lat":43.26149,"lon":5.42058,"is_reserved":false,"is_disabled":false,"rental_uris":{"android":"levelo://app?vid=690952aa-4cf6-4ec8-a1ef-02ddc0138251","ios":"levelo://app?vid=690952aa-4cf6-4ec8-a1ef-02ddc0138251"},"vehicle_type_id":"4","last_reported":1737576629,"current_range_meters":31200,"station_id":"","pricing_plan_id":"cebpf4jnsgd1na2vs0mg"},{"bike_id":"fe233461-342e-4d59-a353-860a472acf79","system_id":"levelo_inurba_marseille","lat":43.24471,"lon":5.39598,"is_reserved":false,"is_disabled":false,"rental_uris":{"android":"levelo://app?vid=fe233461-342e-4d59-a353-860a472acf79","ios":"levelo://app?vid=fe233461-342e-4d59-a353-860a472acf79"},"vehicle_type_id":"4","last_reported":1737576629,"current_range_meters":13600,"station_id":"","pricing_plan_id":"cebpf4jnsgd1na2vs0mg"},{"bike_id":"cc1afb68-34b0-436f-9522-7a18e847b6c4","system_id":"levelo_inurba_marseille","lat":43.29788,"lon":5.40393,"is_reserved":false,"is_disabled":false,"rental_uris":{"android":"levelo://app?vid=cc1afb68-34b0-436f-9522-7a18e847b6c4","ios":"levelo://app?vid=cc1afb68-34b0-436f-9522-7a18e847b6c4"},"vehicle_type_id":"4","last_reported":1737576629,"current_range_meters":38000,"station_id":"ce4bh112rcd13ifvqd90","pricing_plan_id":"cebpf4jnsgd1na2vs0mg"},{"bike_id":"03af5a1d-20f6-4b21-b63e-8bec9df4705a","system_id":"levelo_inurba_marseille","lat":43.27568,"lon":5.38418,"is_reserved":false,"is_disabled":false,"rental_uris":{"android":"levelo://app?vid=03af5a1d-20f6-4b21-b63e-8bec9df4705a","ios":"levelo://app?vid=03af5a1d-20f6-4b21-b63e-8bec9df4705a"},"vehicle_type_id":"4","last_reported":1737576629,"current_range_meters":22400,"station_id":"ce4bhh92rcd13ifvqfi0","pricing_plan_id":"cebpf4jnsgd1na2vs0mg"},{"bike_id":"0442718d-ac1a-4b42-80ad-cb544ec0e81c","system_id":"levelo_inurba_marseille","lat":43.29027,"lon":5.38656,"is_reserved":false,"is_disabled":true,"rental_uris":{"android":"levelo://app?vid=0442718d-ac1a-4b42-80ad-cb544ec0e81c","ios":"levelo://app?vid=0442718d-ac1a-4b42-80ad-cb544ec0e81c"},"vehicle_type_id":"4","last_reported":1737576629,"current_range_meters":0,"station_id":"ce4bh4p2rcd13ifvqe0g","pricing_plan_id":"cebpf4jnsgd1na2vs0mg"},{"bike_id":"abc941ac-5452-4eb7-8a25-528c43a14f52","system_id":"levelo_inurba_marseille","lat":43.2927,"lon":5.38434,"is_reserved":false,"is_disabled":false,"rental_uris":{"android":"levelo://app?vid=abc941ac-5452-4eb7-8a25-528c43a14f52","ios":"levelo://app?vid=abc941ac-5452-4eb7-8a25-528c43a14f52"},"vehicle_type_id":"4","last_reported":1737576629,"current_range_meters":38800,"station_id":"ce4bh692rcd13ifvqea0","pricing_plan_id":"cebpf4jnsgd1na2vs0mg"},{"bike_id":"587483c9-2e76-4dd6-8e62-cfbf184f34f9","system_id":"levelo_inurba_marseille","lat":43.28152,"lon":5.42645,"is_reserved":false,"is_disabled":false,"rental_uris":{"android":"levelo://app?vid=587483c9-2e76-4dd6-8e62-cfbf184f34f9","ios":"levelo://app?vid=587483c9-2e76-4dd6-8e62-cfbf184f34f9"},"vehicle_type_id":"4","last_reported":1737576629,"current_range_meters":37600,"station_id":"ce4bhnh2rcd13ifvqgug","pricing_plan_id":"cebpf4jnsgd1na2vs0mg"},{"bike_id":"477a9bbc-d0b1-4f23-920e-fab66e06cb8f","system_id":"levelo_inurba_marseille","lat":43.26948,"lon":5.38904,"is_reserved":false,"is_disabled":false,"rental_uris":{"android":"levelo://app?vid=477a9bbc-d0b1-4f23-920e-fab66e06cb8f","ios":"levelo://app?vid=477a9bbc-d0b1-4f23-920e-fab66e06cb8f"},"vehicle_type_id":"4","last_reported":1737576629,"current_range_meters":38800,"station_id":"ce4bhhh2rcd13ifvqfl0","pricing_plan_id":"cebpf4jnsgd1na2vs0mg"},{"bike_id":"e9506c2b-731e-4de7-bc66-75f6ed7af806","system_id":"levelo_inurba_marseille","lat":43.28346,"lon":5.38111,"is_reserved":false,"is_disabled":false,"rental_uris":{"android":"levelo://app?vid=e9506c2b-731e-4de7-bc66-75f6ed7af806","ios":"levelo://app?vid=e9506c2b-731e-4de7-bc66-75f6ed7af806"},"vehicle_type_id":"4","last_reported":1737576629,"current_range_meters":17200,"station_id":"ce4bh412rcd13ifvqdr0","pricing_plan_id":"cebpf4jnsgd1na2vs0mg"},{"bike_id":"2195c46d-bf4c-407c-a135-0e6ac55489a6","system_id":"levelo_inurba_marseille","lat":43.29673,"lon":5.36582,"is_reserved":false,"is_disabled":false,"rental_uris":{"android":"levelo://app?vid=2195c46d-bf4c-407c-a135-0e6ac55489a6","ios":"levelo://app?vid=2195c46d-bf4c-407c-a135-0e6ac55489a6"},"vehicle_type_id":"4","last_reported":1737576629,"current_range_meters":38400,"station_id":"ce4bgn12rcd13ifvqbt0","pricing_plan_id":"cebpf4jnsgd1na2vs0mg"},{"bike_id":"d8ed04ba-e2d5-42d2-a00c-73c3d6720802","system_id":"levelo_inurba_marseille","lat":43.28436,"lon":5.39197,"is_reserved":false,"is_disabled":false,"rental_uris":{"android":"levelo://app?vid=d8ed04ba-e2d5-42d2-a00c-73c3d6720802","ios":"levelo://app?vid=d8ed04ba-e2d5-42d2-a00c-73c3d6720802"},"vehicle_type_id":"4","last_reported":1737576629,"current_range_meters":37600,"station_id":"ce4bhoh2rcd13ifvqh5g","pricing_plan_id":"cebpf4jnsgd1na2vs0mg"},{"bike_id":"12d4cf66-0850-4966-9b21-37269dcb5145","system_id":"levelo_inurba_marseille","lat":43.26562,"lon":5.37298,"is_reserved":false,"is_disabled":false,"rental_uris":{"android":"levelo://app?vid=12d4cf66-0850-4966-9b21-37269dcb5145","ios":"levelo://app?vid=12d4cf66-0850-4966-9b21-37269dcb5145"},"vehicle_type_id":"4","last_reported":1737576629,"current_range_meters":16800,"station_id":"ce4bhg12rcd13ifvqf70","pricing_plan_id":"cebpf4jnsgd1na2vs0mg"},{"bike_id":"0f401976-6aad-441a-b3af-96a97796859c","system_id":"levelo_inurba_marseille","lat":43.30242,"lon":5.40066,"is_reserved":false,"is_disabled":false,"rental_uris":{"android":"levelo://app?vid=0f401976-6aad-441a-b3af-96a97796859c","ios":"levelo://app?vid=0f401976-6aad-441a-b3af-96a97796859c"},"vehicle_type_id":"4","last_reported":1737576629,"current_range_meters":8800,"station_id":"ce4bgvh2rcd13ifvqcs0","pricing_plan_id":"cebpf4jnsgd1na2vs0mg"},{"bike_id":"51a36b3c-6a3c-4a10-8421-cf3855c7a215","system_id":"levelo_inurba_marseille","lat":43.25577,"lon":5.38242,"is_reserved":false,"is_disabled":false,"rental_uris":{"android":"levelo://app?vid=51a36b3c-6a3c-4a10-8421-cf3855c7a215","ios":"levelo://app?vid=51a36b3c-6a3c-4a10-8421-cf3855c7a215"},"vehicle_type_id":"4","last_reported":1737576629,"current_range_meters":9200,"station_id":"ce4bhih2rcd13ifvqfs0","pricing_plan_id":"cebpf4jnsgd1na2vs0mg"},{"bike_id":"83cc2184-6d1f-41d8-83e4-b17468e5eba9","system_id":"levelo_inurba_marseille","lat":43.30519,"lon":5.38426,"is_reserved":false,"is_disabled":false,"rental_uris":{"android":"levelo://app?vid=83cc2184-6d1f-41d8-83e4-b17468e5eba9","ios":"levelo://app?vid=83cc2184-6d1f-41d8-83e4-b17468e5eba9"},"vehicle_type_id":"4","last_reported":1737576629,"current_range_meters":21600,"station_id":"ce4bgg92rcd13ifvqb30","pricing_plan_id":"cebpf4jnsgd1na2vs0mg"},{"bike_id":"f9d64e89-84dd-4423-8ab8-d5f9add24d94","system_id":"levelo_inurba_marseille","lat":43.28858,"lon":5.35844,"is_reserved":false,"is_disabled":false,"rental_uris":{"android":"levelo://app?vid=f9d64e89-84dd-4423-8ab8-d5f9add24d94","ios":"levelo://app?vid=f9d64e89-84dd-4423-8ab8-d5f9add24d94"},"vehicle_type_id":"4","last_reported":1737576629,"current_range_meters":6400,"station_id":"ce4bhb12rcd13ifvqem0","pricing_plan_id":"cebpf4jnsgd1na2vs0mg"},{"bike_id":"612e82f7-10fc-4a4a-9e67-aa82ed05c11f","system_id":"levelo_inurba_marseille","lat":43.2468,"lon":5.38147,"is_reserved":false,"is_disabled":false,"rental_uris":{"android":"levelo://app?vid=612e82f7-10fc-4a4a-9e67-aa82ed05c11f","ios":"levelo://app?vid=612e82f7-10fc-4a4a-9e67-aa82ed05c11f"},"vehicle_type_id":"4","last_reported":1737576629,"current_range_meters":28800,"station_id":"ce4bhih2rcd13ifvqfr0","pricing_plan_id":"cebpf4jnsgd1na2vs0mg"},{"bike_id":"13ff516e-16cf-4543-8540-9030b8b296b4","system_id":"levelo_inurba_marseille","lat":43.231964,"lon":5.35548,"is_reserved":false,"is_disabled":false,"rental_uris":{"android":"levelo://app?vid=13ff516e-16cf-4543-8540-9030b8b296b4","ios":"levelo://app?vid=13ff516e-16cf-4543-8540-9030b8b296b4"},"vehicle_type_id":"4","last_reported":1737576629,"current_range_meters":32400,"station_id":"ce4bhu92rcd13ifvqi70","pricing_plan_id":"cebpf4jnsgd1na2vs0mg"},{"bike_id":"6a3f11ae-19cd-4d89-806e-94dec7d182bb","system_id":"levelo_inurba_marseille","lat":43.25821,"lon":5.39433,"is_reserved":false,"is_disabled":false,"rental_uris":{"android":"levelo://app?vid=6a3f11ae-19cd-4d89-806e-94dec7d182bb","ios":"levelo://app?vid=6a3f11ae-19cd-4d89-806e-94dec7d182bb"},"vehicle_type_id":"4","last_reported":1737576629,"current_range_meters":39200,"station_id":"ce4bhip2rcd13ifvqft0","pricing_plan_id":"cebpf4jnsgd1na2vs0mg"},{"bike_id":"9984a19d-448e-4ed2-8c95-d1103fd0e167","system_id":"levelo_inurba_marseille","lat":43.31756,"lon":5.39019,"is_reserved":false,"is_disabled":false,"rental_uris":{"android":"levelo://app?vid=9984a19d-448e-4ed2-8c95-d1103fd0e167","ios":"levelo://app?vid=9984a19d-448e-4ed2-8c95-d1103fd0e167"},"vehicle_type_id":"4","last_reported":1737576629,"current_range_meters":38800,"station_id":"ce4bhqp2rcd13ifvqhng","pricing_plan_id":"cebpf4jnsgd1na2vs0mg"},{"bike_id":"dc9afc0d-d533-431b-a32f-6f6423d7880b","system_id":"levelo_inurba_marseille","lat":43.31729,"lon":5.42405,"is_reserved":false,"is_disabled":false,"rental_uris":{"android":"levelo://app?vid=dc9afc0d-d533-431b-a32f-6f6423d7880b","ios":"levelo://app?vid=dc9afc0d-d533-431b-a32f-6f6423d7880b"},"vehicle_type_id":"4","last_reported":1737576629,"current_range_meters":34000,"station_id":"ce4bhp92rcd13ifvqhbg","pricing_plan_id":"cebpf4jnsgd1na2vs0mg"},{"bike_id":"bfc7d970-e019-4665-84d5-e5a81d0af44a","system_id":"levelo_inurba_marseille","lat":43.27945,"lon":5.41037,"is_reserved":false,"is_disabled":false,"rental_uris":{"android":"levelo://app?vid=bfc7d970-e019-4665-84d5-e5a81d0af44a","ios":"levelo://app?vid=bfc7d970-e019-4665-84d5-e5a81d0af44a"},"vehicle_type_id":"4","last_reported":1737576629,"current_range_meters":24800,"station_id":"ce4bhnp2rcd13ifvqh0g","pricing_plan_id":"cebpf4jnsgd1na2vs0mg"},{"bike_id":"888038f9-044f-4ded-824f-b22d803d5b12","system_id":"levelo_inurba_marseille","lat":43.29579,"lon":5.37497,"is_reserved":false,"is_disabled":true,"rental_uris":{"android":"levelo://app?vid=888038f9-044f-4ded-824f-b22d803d5b12","ios":"levelo://app?vid=888038f9-044f-4ded-824f-b22d803d5b12"},"vehicle_type_id":"4","last_reported":1737576629,"current_range_meters":18000,"station_id":"ce4bgh92rcd13ifvqb50","pricing_plan_id":"cebpf4jnsgd1na2vs0mg"},{"bike_id":"1ae613fd-e5a3-4724-a5f0-4e62fceaab3e","system_id":"levelo_inurba_marseille","lat":43.29969,"lon":5.38499,"is_reserved":false,"is_disabled":false,"rental_uris":{"android":"levelo://app?vid=1ae613fd-e5a3-4724-a5f0-4e62fceaab3e","ios":"levelo://app?vid=1ae613fd-e5a3-4724-a5f0-4e62fceaab3e"},"vehicle_type_id":"4","last_reported":1737576629,"current_range_meters":19200,"station_id":"ce4bgj92rcd13ifvqbd0","pricing_plan_id":"cebpf4jnsgd1na2vs0mg"},{"bike_id":"1876537c-c9d8-4160-b31c-e17d644f44c6","system_id":"levelo_inurba_marseille","lat":43.32486,"lon":5.36549,"is_reserved":false,"is_disabled":false,"rental_uris":{"android":"levelo://app?vid=1876537c-c9d8-4160-b31c-e17d644f44c6","ios":"levelo://app?vid=1876537c-c9d8-4160-b31c-e17d644f44c6"},"vehicle_type_id":"4","last_reported":1737576629,"current_range_meters":37600,"station_id":"ce4bhs12rcd13ifvqhvg","pricing_plan_id":"cebpf4jnsgd1na2vs0mg"},{"bike_id":"3ca427d4-897d-4f96-8e6b-de1063edad3d","system_id":"levelo_inurba_marseille","lat":43.28464,"lon":5.3585,"is_reserved":false,"is_disabled":false,"rental_uris":{"android":"levelo://app?vid=3ca427d4-897d-4f96-8e6b-de1063edad3d","ios":"levelo://app?vid=3ca427d4-897d-4f96-8e6b-de1063edad3d"},"vehicle_type_id":"4","last_reported":1737576629,"current_range_meters":38800,"station_id":"ce4bhah2rcd13ifvqei0","pricing_plan_id":"cebpf4jnsgd1na2vs0mg"},{"bike_id":"c823623c-c35f-4687-b871-ce6de62c15c6","system_id":"levelo_inurba_marseille","lat":43.27948,"lon":5.41048,"is_reserved":false,"is_disabled":false,"rental_uris":{"android":"levelo://app?vid=c823623c-c35f-4687-b871-ce6de62c15c6","ios":"levelo://app?vid=c823623c-c35f-4687-b871-ce6de62c15c6"},"vehicle_type_id":"4","last_reported":1737576629,"current_range_meters":17600,"station_id":"ce4bhnp2rcd13ifvqh0g","pricing_plan_id":"cebpf4jnsgd1na2vs0mg"},{"bike_id":"e8a719c3-72fb-42b4-b084-16027c2fd6ce","system_id":"levelo_inurba_marseille","lat":43.3092,"lon":5.4015,"is_reserved":false,"is_disabled":false,"rental_uris":{"android":"levelo://app?vid=e8a719c3-72fb-42b4-b084-16027c2fd6ce","ios":"levelo://app?vid=e8a719c3-72fb-42b4-b084-16027c2fd6ce"},"vehicle_type_id":"4","last_reported":1737576629,"current_range_meters":16800,"station_id":"ce4bgvp2rcd13ifvqct0","pricing_plan_id":"cebpf4jnsgd1na2vs0mg"},{"bike_id":"96c2fa56-b9b2-48b0-9427-797c2cb5b739","system_id":"levelo_inurba_marseille","lat":43.29268,"lon":5.36849,"is_reserved":false,"is_disabled":true,"rental_uris":{"android":"levelo://app?vid=96c2fa56-b9b2-48b0-9427-797c2cb5b739","ios":"levelo://app?vid=96c2fa56-b9b2-48b0-9427-797c2cb5b739"},"vehicle_type_id":"4","last_reported":1737576629,"current_range_meters":0,"station_id":"ce4bhbp2rcd13ifvqesg","pricing_plan_id":"cebpf4jnsgd1na2vs0mg"},{"bike_id":"79828ee4-c684-43d2-ac05-6026af7f61c3","system_id":"levelo_inurba_marseille","lat":43.30252,"lon":5.40059,"is_reserved":false,"is_disabled":false,"rental_uris":{"android":"levelo://app?vid=79828ee4-c684-43d2-ac05-6026af7f61c3","ios":"levelo://app?vid=79828ee4-c684-43d2-ac05-6026af7f61c3"},"vehicle_type_id":"4","last_reported":1737576629,"current_range_meters":27200,"station_id":"ce4bgvh2rcd13ifvqcs0","pricing_plan_id":"cebpf4jnsgd1na2vs0mg"},{"bike_id":"427ec049-7bdc-415e-93a1-e025c8b36d89","system_id":"levelo_inurba_marseille","lat":43.28,"lon":5.39993,"is_reserved":false,"is_disabled":false,"rental_uris":{"android":"levelo://app?vid=427ec049-7bdc-415e-93a1-e025c8b36d89","ios":"levelo://app?vid=427ec049-7bdc-415e-93a1-e025c8b36d89"},"vehicle_type_id":"4","last_reported":1737576629,"current_range_meters":38800,"station_id":"ce4bho92rcd13ifvqh4g","pricing_plan_id":"cebpf4jnsgd1na2vs0mg"},{"bike_id":"cd84d9bd-df92-4f8f-95c6-101292c966c6","system_id":"levelo_inurba_marseille","lat":43.29711,"lon":5.37699,"is_reserved":false,"is_disabled":false,"rental_uris":{"android":"levelo://app?vid=cd84d9bd-df92-4f8f-95c6-101292c966c6","ios":"levelo://app?vid=cd84d9bd-df92-4f8f-95c6-101292c966c6"},"vehicle_type_id":"4","last_reported":1737576629,"current_range_meters":5600,"station_id":"ce4bgkh2rcd13ifvqbl0","pricing_plan_id":"cebpf4jnsgd1na2vs0mg"},{"bike_id":"c355606a-44fe-4448-8d82-d0d7fc581621","system_id":"levelo_inurba_marseille","lat":43.29856,"lon":5.36257,"is_reserved":false,"is_disabled":false,"rental_uris":{"android":"levelo://app?vid=c355606a-44fe-4448-8d82-d0d7fc581621","ios":"levelo://app?vid=c355606a-44fe-4448-8d82-d0d7fc581621"},"vehicle_type_id":"4","last_reported":1737576629,"current_range_meters":38000,"station_id":"ce4bgpp2rcd13ifvqc3g","pricing_plan_id":"cebpf4jnsgd1na2vs0mg"},{"bike_id":"b7c48665-5d78-4174-b837-4aa023f8c486","system_id":"levelo_inurba_marseille","lat":43.28467,"lon":5.35893,"is_reserved":false,"is_disabled":false,"rental_uris":{"android":"levelo://app?vid=b7c48665-5d78-4174-b837-4aa023f8c486","ios":"levelo://app?vid=b7c48665-5d78-4174-b837-4aa023f8c486"},"vehicle_type_id":"4","last_reported":1737576629,"current_range_meters":10800,"station_id":"ce4bhah2rcd13ifvqei0","pricing_plan_id":"cebpf4jnsgd1na2vs0mg"},{"bike_id":"eeea7204-b995-442f-99cb-0a930aba3173","system_id":"levelo_inurba_marseille","lat":43.28694,"lon":5.38668,"is_reserved":false,"is_disabled":false,"rental_uris":{"android":"levelo://app?vid=eeea7204-b995-442f-99cb-0a930aba3173","ios":"levelo://app?vid=eeea7204-b995-442f-99cb-0a930aba3173"},"vehicle_type_id":"4","last_reported":1737576629,"current_range_meters":38800,"station_id":"ce4bh492rcd13ifvqdug","pricing_plan_id":"cebpf4jnsgd1na2vs0mg"},{"bike_id":"e41c1f13-73b0-4fe8-960e-72c7a66abd39","system_id":"levelo_inurba_marseille","lat":43.30652,"lon":5.40086,"is_reserved":false,"is_disabled":false,"rental_uris":{"android":"levelo://app?vid=e41c1f13-73b0-4fe8-960e-72c7a66abd39","ios":"levelo://app?vid=e41c1f13-73b0-4fe8-960e-72c7a66abd39"},"vehicle_type_id":"4","last_reported":1737576629,"current_range_meters":34000,"station_id":"ce4bh112rcd13ifvqda0","pricing_plan_id":"cebpf4jnsgd1na2vs0mg"},{"bike_id":"68e9c31c-ad3e-43bf-9dd6-a2db62b95ef7","system_id":"levelo_inurba_marseille","lat":43.32459,"lon":5.36574,"is_reserved":false,"is_disabled":false,"rental_uris":{"android":"levelo://app?vid=68e9c31c-ad3e-43bf-9dd6-a2db62b95ef7","ios":"levelo://app?vid=68e9c31c-ad3e-43bf-9dd6-a2db62b95ef7"},"vehicle_type_id":"4","last_reported":1737576629,"current_range_meters":25600,"station_id":"ce4bhs12rcd13ifvqhvg","pricing_plan_id":"cebpf4jnsgd1na2vs0mg"},{"bike_id":"9f9633df-2a19-4408-94dc-1022a9d9005a","system_id":"levelo_inurba_marseille","lat":43.29304,"lon":5.3746,"is_reserved":false,"is_disabled":false,"rental_uris":{"android":"levelo://app?vid=9f9633df-2a19-4408-94dc-1022a9d9005a","ios":"levelo://app?vid=9f9633df-2a19-4408-94dc-1022a9d9005a"},"vehicle_type_id":"4","last_reported":1737576629,"current_range_meters":12800,"station_id":"ce4bgi12rcd13ifvqb70","pricing_plan_id":"cebpf4jnsgd1na2vs0mg"},{"bike_id":"a8f619ef-8db1-4312-9c2f-1f19846a3d2d","system_id":"levelo_inurba_marseille","lat":43.28452,"lon":5.35892,"is_reserved":false,"is_disabled":false,"rental_uris":{"android":"levelo://app?vid=a8f619ef-8db1-4312-9c2f-1f19846a3d2d","ios":"levelo://app?vid=a8f619ef-8db1-4312-9c2f-1f19846a3d2d"},"vehicle_type_id":"4","last_reported":1737576629,"current_range_meters":22800,"station_id":"ce4bhah2rcd13ifvqei0","pricing_plan_id":"cebpf4jnsgd1na2vs0mg"},{"bike_id":"127a26b6-ed39-4c2e-9fc7-31005f453be1","system_id":"levelo_inurba_marseille","lat":43.30651,"lon":5.40083,"is_reserved":false,"is_disabled":false,"rental_uris":{"android":"levelo://app?vid=127a26b6-ed39-4c2e-9fc7-31005f453be1","ios":"levelo://app?vid=127a26b6-ed39-4c2e-9fc7-31005f453be1"},"vehicle_type_id":"4","last_reported":1737576629,"current_range_meters":38800,"station_id":"ce4bh112rcd13ifvqda0","pricing_plan_id":"cebpf4jnsgd1na2vs0mg"},{"bike_id":"d44e0181-8fda-48f6-8535-2fda924ce2fd","system_id":"levelo_inurba_marseille","lat":43.29905,"lon":5.43643,"is_reserved":false,"is_disabled":false,"rental_uris":{"android":"levelo://app?vid=d44e0181-8fda-48f6-8535-2fda924ce2fd","ios":"levelo://app?vid=d44e0181-8fda-48f6-8535-2fda924ce2fd"},"vehicle_type_id":"4","last_reported":1737576629,"current_range_meters":6800,"station_id":"ce4bhpp2rcd13ifvqhfg","pricing_plan_id":"cebpf4jnsgd1na2vs0mg"},{"bike_id":"bd771a8e-666c-4f89-bb31-e000a937060f","system_id":"levelo_inurba_marseille","lat":43.28415,"lon":5.3752,"is_reserved":false,"is_disabled":true,"rental_uris":{"android":"levelo://app?vid=bd771a8e-666c-4f89-bb31-e000a937060f","ios":"levelo://app?vid=bd771a8e-666c-4f89-bb31-e000a937060f"},"vehicle_type_id":"4","last_reported":1737576629,"current_range_meters":8000,"station_id":"ce4bh412rcd13ifvqds0","pricing_plan_id":"cebpf4jnsgd1na2vs0mg"},{"bike_id":"d8ce4ac7-3548-4c99-80c2-54448a2f2a6a","system_id":"levelo_inurba_marseille","lat":43.29268,"lon":5.36841,"is_reserved":false,"is_disabled":true,"rental_uris":{"android":"levelo://app?vid=d8ce4ac7-3548-4c99-80c2-54448a2f2a6a","ios":"levelo://app?vid=d8ce4ac7-3548-4c99-80c2-54448a2f2a6a"},"vehicle_type_id":"4","last_reported":1737576629,"current_range_meters":30000,"station_id":"ce4bhbp2rcd13ifvqesg","pricing_plan_id":"cebpf4jnsgd1na2vs0mg"},{"bike_id":"7874dafc-e029-48fe-90b1-e3af68fcb3fd","system_id":"levelo_inurba_marseille","lat":43.30591,"lon":5.39344,"is_reserved":false,"is_disabled":false,"rental_uris":{"android":"levelo://app?vid=7874dafc-e029-48fe-90b1-e3af68fcb3fd","ios":"levelo://app?vid=7874dafc-e029-48fe-90b1-e3af68fcb3fd"},"vehicle_type_id":"4","last_reported":1737576629,"current_range_meters":34800,"station_id":"ce4bh0p2rcd13ifvqd80","pricing_plan_id":"cebpf4jnsgd1na2vs0mg"},{"bike_id":"97631e4b-cbaf-458d-84b3-007b2f354e62","system_id":"levelo_inurba_marseille","lat":43.27988,"lon":5.41654,"is_reserved":false,"is_disabled":false,"rental_uris":{"android":"levelo://app?vid=97631e4b-cbaf-458d-84b3-007b2f354e62","ios":"levelo://app?vid=97631e4b-cbaf-458d-84b3-007b2f354e62"},"vehicle_type_id":"4","last_reported":1737576629,"current_range_meters":25200,"station_id":"ce4bho12rcd13ifvqh1g","pricing_plan_id":"cebpf4jnsgd1na2vs0mg"},{"bike_id":"949a2c5f-99a7-4003-81ed-706918f23154","system_id":"levelo_inurba_marseille","lat":43.28405,"lon":5.37523,"is_reserved":false,"is_disabled":false,"rental_uris":{"android":"levelo://app?vid=949a2c5f-99a7-4003-81ed-706918f23154","ios":"levelo://app?vid=949a2c5f-99a7-4003-81ed-706918f23154"},"vehicle_type_id":"4","last_reported":1737576629,"current_range_meters":6800,"station_id":"ce4bh412rcd13ifvqds0","pricing_plan_id":"cebpf4jnsgd1na2vs0mg"},{"bike_id":"777a4ba7-5e4e-4fbe-9023-ec04cbdf50ba","system_id":"levelo_inurba_marseille","lat":43.29516,"lon":5.39043,"is_reserved":false,"is_disabled":false,"rental_uris":{"android":"levelo://app?vid=777a4ba7-5e4e-4fbe-9023-ec04cbdf50ba","ios":"levelo://app?vid=777a4ba7-5e4e-4fbe-9023-ec04cbdf50ba"},"vehicle_type_id":"4","last_reported":1737576629,"current_range_meters":3600,"station_id":"ce4bh3p2rcd13ifvqdp0","pricing_plan_id":"cebpf4jnsgd1na2vs0mg"},{"bike_id":"f5b52696-dada-4db8-ac63-486420d431ea","system_id":"levelo_inurba_marseille","lat":43.24659,"lon":5.38877,"is_reserved":false,"is_disabled":false,"rental_uris":{"android":"levelo://app?vid=f5b52696-dada-4db8-ac63-486420d431ea","ios":"levelo://app?vid=f5b52696-dada-4db8-ac63-486420d431ea"},"vehicle_type_id":"4","last_reported":1737576629,"current_range_meters":38800,"station_id":"ce4bhg12rcd13ifvqf60","pricing_plan_id":"cebpf4jnsgd1na2vs0mg"},{"bike_id":"3d2884c8-e678-49ea-8adc-aa1053c2bea5","system_id":"levelo_inurba_marseille","lat":43.30248,"lon":5.4005,"is_reserved":false,"is_disabled":false,"rental_uris":{"android":"levelo://app?vid=3d2884c8-e678-49ea-8adc-aa1053c2bea5","ios":"levelo://app?vid=3d2884c8-e678-49ea-8adc-aa1053c2bea5"},"vehicle_type_id":"4","last_reported":1737576629,"current_range_meters":39200,"station_id":"ce4bgvh2rcd13ifvqcs0","pricing_plan_id":"cebpf4jnsgd1na2vs0mg"},{"bike_id":"41cbfd42-0427-4f0c-acd1-3a1428939f5c","system_id":"levelo_inurba_marseille","lat":43.29866,"lon":5.38912,"is_reserved":false,"is_disabled":false,"rental_uris":{"android":"levelo://app?vid=41cbfd42-0427-4f0c-acd1-3a1428939f5c","ios":"levelo://app?vid=41cbfd42-0427-4f0c-acd1-3a1428939f5c"},"vehicle_type_id":"4","last_reported":1737576629,"current_range_meters":39200,"station_id":"ce4bh392rcd13ifvqdl0","pricing_plan_id":"cebpf4jnsgd1na2vs0mg"},{"bike_id":"62126633-6db5-48fa-8960-d4ae58a1c980","system_id":"levelo_inurba_marseille","lat":43.2815,"lon":5.42636,"is_reserved":false,"is_disabled":false,"rental_uris":{"android":"levelo://app?vid=62126633-6db5-48fa-8960-d4ae58a1c980","ios":"levelo://app?vid=62126633-6db5-48fa-8960-d4ae58a1c980"},"vehicle_type_id":"4","last_reported":1737576629,"current_range_meters":9200,"station_id":"ce4bhnh2rcd13ifvqgug","pricing_plan_id":"cebpf4jnsgd1na2vs0mg"},{"bike_id":"9d4a405e-07f6-429f-91db-0fe6ae3990b3","system_id":"levelo_inurba_marseille","lat":43.28484,"lon":5.38406,"is_reserved":false,"is_disabled":false,"rental_uris":{"android":"levelo://app?vid=9d4a405e-07f6-429f-91db-0fe6ae3990b3","ios":"levelo://app?vid=9d4a405e-07f6-429f-91db-0fe6ae3990b3"},"vehicle_type_id":"4","last_reported":1737576629,"current_range_meters":8400,"station_id":"ce4bh512rcd13ifvqe3g","pricing_plan_id":"cebpf4jnsgd1na2vs0mg"},