{"last_updated":1701778429,"ttl":30,"version":"2.2","data":{"bikes":[{"bike_id":"5ba3014d-8658-4332-a218-35f7ef631cda","system_id":"levelo_inurba_marseille","lat":43.31345,"lon":5.36717,"is_reserved":false,"is_disabled":false,"rental_uris":{"android":"levelo://app?vid=5ba3014d-8658-4332-a218-35f7ef631cda","ios":"levelo://app?vid=5ba3014d-8658-4332-a218-35f7ef631cda"},"vehicle_type_id":"4","last_reported":1701778429,"current_range_meters":21600,"station_id":"ce4bgr92rcd13ifvqc6g","pricing_plan_id":"free"},{"bike_id":"4167b9f2-99d5-4760-a9a1-6d91aacce329","system_id":"levelo_inurba_marseille","lat":43.313391,"lon":5.36706,"is_reserved":false,"is_disabled":false,"rental_uris":{"android":"levelo://app?vid=4167b9f2-99d5-4760-a9a1-6d91aacce329","ios":"levelo://app?vid=4167b9f2-99d5-4760-a9a1-6d91aacce329"},"vehicle_type_id":"4","last_reported":1701778429,"current_range_meters":23600,"station_id":"ce4bgr92rcd13ifvqc6g","pricing_plan_id":"free"},{"bike_id":"5d732bf6-ebd0-4dac-adbc-6879eca6073c","system_id":"levelo_inurba_marseille","lat":43.313391,"lon":5.36706,"is_reserved":false,"is_disabled":false,"rental_uris":{"android":"levelo://app?vid=5d732bf6-ebd0-4dac-adbc-6879eca6073c","ios":"levelo://app?vid=5d732bf6-ebd0-4dac-adbc-6879eca6073c"},"vehicle_type_id":"4","last_reported":1701778429,"current_range_meters":8000,"station_id":"ce4bgr92rcd13ifvqc6g","pricing_plan_id":"free"},{"bike_id":"70b41924-c4ab-4775-984a-0b2c192e1b51","system_id":"levelo_inurba_marseille","lat":43.313391,"lon":5.36706,"is_reserved":false,"is_disabled":false,"rental_uris":{"android":"levelo://app?vid=70b41924-c4ab-4775-984a-0b2c192e1b51","ios":"levelo://app?vid=70b41924-c4ab-4775-984a-0b2c192e1b51"},"vehicle_type_id":"4","last_reported":1701778429,"current_range_meters":31600,"station_id":"ce4bgr92rcd13ifvqc6g","pricing_plan_id":"free"},{"bike_id":"335bd2e4-d778-465e-8392-7659726a15ef","system_id":"levelo_inurba_marseille","lat":43.313494,"lon":5.367064,"is_reserved":false,"is_disabled":false,"rental_uris":{"android":"levelo://app?vid=335bd2e4-d778-465e-8392-7659726a15ef","ios":"levelo://app?vid=335bd2e4-d778-465e-8392-7659726a15ef"},"vehicle_type_id":"4","last_reported":1701778429,"current_range_meters":22400,"station_id":"ce4bgr92rcd13ifvqc6g","pricing_plan_id":"free"},{"bike_id":"3e81bf10-5475-43cf-86ae-1191f8fce7d0","system_id":"levelo_inurba_marseille","lat":43.313496,"lon":5.367069,"is_reserved":false,"is_disabled":false,"rental_uris":{"android":"levelo://app?vid=3e81bf10-5475-43cf-86ae-1191f8fce7d0","ios":"levelo://app?vid=3e81bf10-5475-43cf-86ae-1191f8fce7d0"},"vehicle_type_id":"4","last_reported":1701778429,"current_range_meters":11600,"station_id":"ce4bgr92rcd13ifvqc6g","pricing_plan_id":"free"},{"bike_id":"5fd61d4d-97d9-46ea-ad6e-9ae0ba00cbdf","system_id":"levelo_inurba_marseille","lat":43.313505,"lon":5.36709,"is_reserved":false,"is_disabled":false,"rental_uris":{"android":"levelo://app?vid=5fd61d4d-97d9-46ea-ad6e-9ae0ba00cbdf","ios":"levelo://app?vid=5fd61d4d-97d9-46ea-ad6e-9ae0ba00cbdf"},"vehicle_type_id":"4","last_reported":1701778429,"current_range_meters":24800,"station_id":"ce4bgr92rcd13ifvqc6g","pricing_plan_id":"free"},{"bike_id":"4b076af0-63cb-42ed-902b-1abd681f46fe","system_id":"levelo_inurba_marseille","lat":43.313391,"lon":5.36706,"is_reserved":false,"is_disabled":false,"rental_uris":{"android":"levelo://app?vid=4b076af0-63cb-42ed-902b-1abd681f46fe","ios":"levelo://app?vid=4b076af0-63cb-42ed-902b-1abd681f46fe"},"vehicle_type_id":"4","last_reported":1701778429,"current_range_meters":14000,"station_id":"ce4bgr92rcd13ifvqc6g","pricing_plan_id":"free"},{"bike_id":"6c22590d-6750-4410-b7e4-1413015c08a1","system_id":"levelo_inurba_marseille","lat":43.313532,"lon":5.367098,"is_reserved":false,"is_disabled":false,"rental_uris":{"android":"levelo://app?vid=6c22590d-6750-4410-b7e4-1413015c08a1","ios":"levelo://app?vid=6c22590d-6750-4410-b7e4-1413015c08a1"},"vehicle_type_id":"4","last_reported":1701778429,"current_range_meters":19200,"station_id":"ce4bgr92rcd13ifvqc6g","pricing_plan_id":"free"},{"bike_id":"b5b52938-c5f2-4aae-93b3-a65ff916766b","system_id":"levelo_inurba_marseille","lat":43.31352,"lon":5.36719,"is_reserved":false,"is_disabled":false,"rental_uris":{"android":"levelo://app?vid=b5b52938-c5f2-4aae-93b3-a65ff916766b","ios":"levelo://app?vid=b5b52938-c5f2-4aae-93b3-a65ff916766b"},"vehicle_type_id":"4","last_reported":1701778429,"current_range_meters":8400,"station_id":"ce4bgr92rcd13ifvqc6g","pricing_plan_id":"free"},{"bike_id":"745e6030-c6ca-4127-8d3f-4f131fa830a6","system_id":"levelo_inurba_marseille","lat":43.313391,"lon":5.36706,"is_reserved":false,"is_disabled":false,"rental_uris":{"android":"levelo://app?vid=745e6030-c6ca-4127-8d3f-4f131fa830a6","ios":"levelo://app?vid=745e6030-c6ca-4127-8d3f-4f131fa830a6"},"vehicle_type_id":"4","last_reported":1701778429,"current_range_meters":18400,"station_id":"ce4bgr92rcd13ifvqc6g","pricing_plan_id":"free"},{"bike_id":"c90c4f56-179f-47c0-b367-8237d5be2f6f","system_id":"levelo_inurba_marseille","lat":43.313551,"lon":5.366892,"is_reserved":false,"is_disabled":false,"rental_uris":{"android":"levelo://app?vid=c90c4f56-179f-47c0-b367-8237d5be2f6f","ios":"levelo://app?vid=c90c4f56-179f-47c0-b367-8237d5be2f6f"},"vehicle_type_id":"4","last_reported":1701778429,"current_range_meters":22400,"station_id":"","pricing_plan_id":"free"},{"bike_id":"0244d170-5838-4ab0-94da-2dda74a0c916","system_id":"levelo_inurba_marseille","lat":43.313391,"lon":5.36706,"is_reserved":false,"is_disabled":false,"rental_uris":{"android":"levelo://app?vid=0244d170-5838-4ab0-94da-2dda74a0c916","ios":"levelo://app?vid=0244d170-5838-4ab0-94da-2dda74a0c916"},"vehicle_type_id":"4","last_reported":1701778429,"current_range_meters":16800,"station_id":"ce4bgr92rcd13ifvqc6g","pricing_plan_id":"free"},{"bike_id":"bde4eeae-5677-4d2b-8f11-0b7fbe38c7d4","system_id":"levelo_inurba_marseille","lat":43.313391,"lon":5.36706,"is_reserved":false,"is_disabled":false,"rental_uris":{"android":"levelo://app?vid=bde4eeae-5677-4d2b-8f11-0b7fbe38c7d4","ios":"levelo://app?vid=bde4eeae-5677-4d2b-8f11-0b7fbe38c7d4"},"vehicle_type_id":"4","last_reported":1701778429,"current_range_meters":3200,"station_id":"ce4bgr92rcd13ifvqc6g","pricing_plan_id":"free"},{"bike_id":"ff9f49a8-7cd0-4bbf-a87a-af7489536e88","system_id":"levelo_inurba_marseille","lat":43.313391,"lon":5.36706,"is_reserved":false,"is_disabled":false,"rental_uris":{"android":"levelo://app?vid=ff9f49a8-7cd0-4bbf-a87a-af7489536e88","ios":"levelo://app?vid=ff9f49a8-7cd0-4bbf-a87a-af7489536e88"},"vehicle_type_id":"4","last_reported":1701778429,"current_range_meters":30800,"station_id":"ce4bgr92rcd13ifvqc6g","pricing_plan_id":"free"},{"bike_id":"6ab0b009-7473-4db1-a38d-a3713c518ad7","system_id":"levelo_inurba_marseille","lat":43.312239,"lon":5.368562,"is_reserved":false,"is_disabled":false,"rental_uris":{"android":"levelo://app?vid=6ab0b009-7473-4db1-a38d-a3713c518ad7","ios":"levelo://app?vid=6ab0b009-7473-4db1-a38d-a3713c518ad7"},"vehicle_type_id":"4","last_reported":1701778429,"current_range_meters":22000,"station_id":"ce4bgl92rcd13ifvqbq0","pricing_plan_id":"free"},{"bike_id":"ec5c6422-ce13-4ac4-bdfb-eb3510f685d8","system_id":"levelo_inurba_marseille","lat":43.312239,"lon":5.368562,"is_reserved":false,"is_disabled":false,"rental_uris":{"android":"levelo://app?vid=ec5c6422-ce13-4ac4-bdfb-eb3510f685d8","ios":"levelo://app?vid=ec5c6422-ce13-4ac4-bdfb-eb3510f685d8"},"vehicle_type_id":"4","last_reported":1701778429,"current_range_meters":31200,"station_id":"ce4bgl92rcd13ifvqbq0","pricing_plan_id":"free"},{"bike_id":"31496447-4d47-4bcb-ba7b-fa00fcf8ed8c","system_id":"levelo_inurba_marseille","lat":43.312239,"lon":5.368562,"is_reserved":false,"is_disabled":false,"rental_uris":{"android":"levelo://app?vid=31496447-4d47-4bcb-ba7b-fa00fcf8ed8c","ios":"levelo://app?vid=31496447-4d47-4bcb-ba7b-fa00fcf8ed8c"},"vehicle_type_id":"4","last_reported":1701778429,"current_range_meters":31600,"station_id":"ce4bgl92rcd13ifvqbq0","pricing_plan_id":"free"},{"bike_id":"c84da087-1a97-449f-b316-95f95a5b7fae","system_id":"levelo_inurba_marseille","lat":43.309076,"lon":5.368465,"is_reserved":false,"is_disabled":false,"rental_uris":{"android":"levelo://app?vid=c84da087-1a97-449f-b316-95f95a5b7fae","ios":"levelo://app?vid=c84da087-1a97-449f-b316-95f95a5b7fae"},"vehicle_type_id":"4","last_reported":1701778429,"current_range_meters":13200,"station_id":"ce4bgn92rcd13ifvqbvg","pricing_plan_id":"free"},{"bike_id":"4d4759d5-33a0-442f-8178-0c555242d3e8","system_id":"levelo_inurba_marseille","lat":43.30888,"lon":5.36839,"is_reserved":false,"is_disabled":false,"rental_uris":{"android":"levelo://app?vid=4d4759d5-33a0-442f-8178-0c555242d3e8","ios":"levelo://app?vid=4d4759d5-33a0-442f-8178-0c555242d3e8"},"vehicle_type_id":"4","last_reported":1701778429,"current_range_meters":26000,"station_id":"ce4bgn92rcd13ifvqbvg","pricing_plan_id":"free"},{"bike_id":"303e4ff1-3db0-473a-ada9-b629a9bae404","system_id":"levelo_inurba_marseille","lat":43.314936,"lon":5.373051,"is_reserved":false,"is_disabled":false,"rental_uris":{"android":"levelo://app?vid=303e4ff1-3db0-473a-ada9-b629a9bae404","ios":"levelo://app?vid=303e4ff1-3db0-473a-ada9-b629a9bae404"},"vehicle_type_id":"4","last_reported":1701778429,"current_range_meters":28800,"station_id":"ce4bgt12rcd13ifvqcd0","pricing_plan_id":"free"},{"bike_id":"bcee250f-90e0-4b5e-8f52-e9df13978b6d","system_id":"levelo_inurba_marseille","lat":43.30545,"lon":5.36702,"is_reserved":false,"is_disabled":false,"rental_uris":{"android":"levelo://app?vid=bcee250f-90e0-4b5e-8f52-e9df13978b6d","ios":"levelo://app?vid=bcee250f-90e0-4b5e-8f52-e9df13978b6d"},"vehicle_type_id":"4","last_reported":1701778429,"current_range_meters":26000,"station_id":"ce4bgrp2rcd13ifvqc9g","pricing_plan_id":"free"},{"bike_id":"2d0177cd-880c-4d97-a547-048500665bff","system_id":"levelo_inurba_marseille","lat":43.30552,"lon":5.36548,"is_reserved":false,"is_disabled":false,"rental_uris":{"android":"levelo://app?vid=2d0177cd-880c-4d97-a547-048500665bff","ios":"levelo://app?vid=2d0177cd-880c-4d97-a547-048500665bff"},"vehicle_type_id":"4","last_reported":1701778429,"current_range_meters":9600,"station_id":"ce4bgs12rcd13ifvqcag","pricing_plan_id":"free"},{"bike_id":"e68bd4fb-ac30-4166-938d-db87e415e22c","system_id":"levelo_inurba_marseille","lat":43.30533,"lon":5.36702,"is_reserved":false,"is_disabled":false,"rental_uris":{"android":"levelo://app?vid=e68bd4fb-ac30-4166-938d-db87e415e22c","ios":"levelo://app?vid=e68bd4fb-ac30-4166-938d-db87e415e22c"},"vehicle_type_id":"4","last_reported":1701778429,"current_range_meters":0,"station_id":"ce4bgrp2rcd13ifvqc9g","pricing_plan_id":"free"},{"bike_id":"0671dc0f-9adf-4a3e-aa7d-6b734255e364","system_id":"levelo_inurba_marseille","lat":43.305381,"lon":5.365284,"is_reserved":false,"is_disabled":false,"rental_uris":{"android":"levelo://app?vid=0671dc0f-9adf-4a3e-aa7d-6b734255e364","ios":"levelo://app?vid=0671dc0f-9adf-4a3e-aa7d-6b734255e364"},"vehicle_type_id":"4","last_reported":1701778429,"current_range_meters":24400,"station_id":"ce4bgs12rcd13ifvqcag","pricing_plan_id":"free"},{"bike_id":"8fa38ece-1367-42e9-a5f2-f5515618036e","system_id":"levelo_inurba_marseille","lat":43.305714,"lon":5.365633,"is_reserved":false,"is_disabled":false,"rental_uris":{"android":"levelo://app?vid=8fa38ece-1367-42e9-a5f2-f5515618036e","ios":"levelo://app?vid=8fa38ece-1367-42e9-a5f2-f5515618036e"},"vehicle_type_id":"4","last_reported":1701778429,"current_range_meters":31600,"station_id":"ce4bgs12rcd13ifvqcag","pricing_plan_id":"free"},{"bike_id":"d1100838-aa99-4652-baaf-d26b0ced4988","system_id":"levelo_inurba_marseille","lat":43.30535,"lon":5.36522,"is_reserved":false,"is_disabled":false,"rental_uris":{"android":"levelo://app?vid=d1100838-aa99-4652-baaf-d26b0ced4988","ios":"levelo://app?vid=d1100838-aa99-4652-baaf-d26b0ced4988"},"vehicle_type_id":"4","last_reported":1701778429,"current_range_meters":12400,"station_id":"ce4bgs12rcd13ifvqcag","pricing_plan_id":"free"},{"bike_id":"d05eed6e-8d31-4d0b-950a-f4d8e7fe4c79","system_id":"levelo_inurba_marseille","lat":43.305714,"lon":5.365633,"is_reserved":false,"is_disabled":false,"rental_uris":{"android":"levelo://app?vid=d05eed6e-8d31-4d0b-950a-f4d8e7fe4c79","ios":"levelo://app?vid=d05eed6e-8d31-4d0b-950a-f4d8e7fe4c79"},"vehicle_type_id":"4","last_reported":1701778429,"current_range_meters":29200,"station_id":"ce4bgs12rcd13ifvqcag","pricing_plan_id":"free"},{"bike_id":"f60d59da-8d33-4d03-b82f-1226208b44da","system_id":"levelo_inurba_marseille","lat":43.305989,"lon":5.37225,"is_reserved":false,"is_disabled":false,"rental_uris":{"android":"levelo://app?vid=f60d59da-8d33-4d03-b82f-1226208b44da","ios":"levelo://app?vid=f60d59da-8d33-4d03-b82f-1226208b44da"},"vehicle_type_id":"4","last_reported":1701778429,"current_range_meters":9200,"station_id":"ce4bgqh2rcd13ifvqc4g","pricing_plan_id":"free"},{"bike_id":"a0798650-484d-4db8-af32-93b085576601","system_id":"levelo_inurba_marseille","lat":43.305989,"lon":5.37225,"is_reserved":false,"is_disabled":false,"rental_uris":{"android":"levelo://app?vid=a0798650-484d-4db8-af32-93b085576601","ios":"levelo://app?vid=a0798650-484d-4db8-af32-93b085576601"},"vehicle_type_id":"4","last_reported":1701778429,"current_range_meters":22400,"station_id":"ce4bgqh2rcd13ifvqc4g","pricing_plan_id":"free"},{"bike_id":"a728eea0-9f43-42cf-b8b1-39763a7f1ef5","system_id":"levelo_inurba_marseille","lat":43.30595,"lon":5.37213,"is_reserved":false,"is_disabled":false,"rental_uris":{"android":"levelo://app?vid=a728eea0-9f43-42cf-b8b1-39763a7f1ef5","ios":"levelo://app?vid=a728eea0-9f43-42cf-b8b1-39763a7f1ef5"},"vehicle_type_id":"4","last_reported":1701778429,"current_range_meters":400,"station_id":"ce4bgqh2rcd13ifvqc4g","pricing_plan_id":"free"},{"bike_id":"1788bc16-92be-44dd-b3cc-c231c3fe029e","system_id":"levelo_inurba_marseille","lat":43.305989,"lon":5.37225,"is_reserved":false,"is_disabled":false,"rental_uris":{"android":"levelo://app?vid=1788bc16-92be-44dd-b3cc-c231c3fe029e","ios":"levelo://app?vid=1788bc16-92be-44dd-b3cc-c231c3fe029e"},"vehicle_type_id":"4","last_reported":1701778429,"current_range_meters":12400,"station_id":"ce4bgqh2rcd13ifvqc4g","pricing_plan_id":"free"},{"bike_id":"b065b12a-ef87-47d8-8ac6-a38844050d40","system_id":"levelo_inurba_marseille","lat":43.319338,"lon":5.372928,"is_reserved":false,"is_disabled":false,"rental_uris":{"android":"levelo://app?vid=b065b12a-ef87-47d8-8ac6-a38844050d40","ios":"levelo://app?vid=b065b12a-ef87-47d8-8ac6-a38844050d40"},"vehicle_type_id":"4","last_reported":1701778429,"current_range_meters":0,"station_id":"","pricing_plan_id":"free"},{"bike_id":"298362fc-b71f-42c6-9c67-27f977a8843d","system_id":"levelo_inurba_marseille","lat":43.31114,"lon":5.37776,"is_reserved":false,"is_disabled":false,"rental_uris":{"android":"levelo://app?vid=298362fc-b71f-42c6-9c67-27f977a8843d","ios":"levelo://app?vid=298362fc-b71f-42c6-9c67-27f977a8843d"},"vehicle_type_id":"4","last_reported":1701778429,"current_range_meters":17200,"station_id":"ce4bgt92rcd13ifvqcg0","pricing_plan_id":"free"},{"bike_id":"d2aa89e0-c0d2-4d12-a38c-e75e2bd4ffe6","system_id":"levelo_inurba_marseille","lat":43.308113,"lon":5.37664,"is_reserved":false,"is_disabled":false,"rental_uris":{"android":"levelo://app?vid=d2aa89e0-c0d2-4d12-a38c-e75e2bd4ffe6","ios":"levelo://app?vid=d2aa89e0-c0d2-4d12-a38c-e75e2bd4ffe6"},"vehicle_type_id":"4","last_reported":1701778429,"current_range_meters":29200,"station_id":"ce4bgv92rcd13ifvqcq0","pricing_plan_id":"free"},{"bike_id":"c52d5db6-7f37-47da-8dc9-fe39b7f57219","system_id":"levelo_inurba_marseille","lat":43.307945,"lon":5.376487,"is_reserved":false,"is_disabled":false,"rental_uris":{"android":"levelo://app?vid=c52d5db6-7f37-47da-8dc9-fe39b7f57219","ios":"levelo://app?vid=c52d5db6-7f37-47da-8dc9-fe39b7f57219"},"vehicle_type_id":"4","last_reported":1701778429,"current_range_meters":14400,"station_id":"ce4bgv92rcd13ifvqcq0","pricing_plan_id":"free"},{"bike_id":"520bd81f-ddb1-4cc7-9ebe-efd36c582364","system_id":"levelo_inurba_marseille","lat":43.317075,"lon":5.377367,"is_reserved":false,"is_disabled":false,"rental_uris":{"android":"levelo://app?vid=520bd81f-ddb1-4cc7-9ebe-efd36c582364","ios":"levelo://app?vid=520bd81f-ddb1-4cc7-9ebe-efd36c582364"},"vehicle_type_id":"4","last_reported":1701778429,"current_range_meters":10400,"station_id":"ce4bgth2rcd13ifvqch0","pricing_plan_id":"free"},{"bike_id":"fb6fd937-527b-4585-9058-0dfdc6436ac8","system_id":"levelo_inurba_marseille","lat":43.31351,"lon":5.37909,"is_reserved":false,"is_disabled":false,"rental_uris":{"android":"levelo://app?vid=fb6fd937-527b-4585-9058-0dfdc6436ac8","ios":"levelo://app?vid=fb6fd937-527b-4585-9058-0dfdc6436ac8"},"vehicle_type_id":"4","last_reported":1701778429,"current_range_meters":10400,"station_id":"","pricing_plan_id":"free"},{"bike_id":"bd6c366d-e94a-43ac-9285-37c1b8d12067","system_id":"levelo_inurba_marseille","lat":43.30302,"lon":5.36902,"is_reserved":false,"is_disabled":false,"rental_uris":{"android":"levelo://app?vid=bd6c366d-e94a-43ac-9285-37c1b8d12067","ios":"levelo://app?vid=bd6c366d-e94a-43ac-9285-37c1b8d12067"},"vehicle_type_id":"4","last_reported":1701778429,"current_range_meters":2400,"station_id":"ce4bgqh2rcd13ifvqc5g","pricing_plan_id":"free"},{"bike_id":"4d42c57c-b26d-44cc-936d-f06055e6608f","system_id":"levelo_inurba_marseille","lat":43.30188,"lon":5.36623,"is_reserved":false,"is_disabled":false,"rental_uris":{"android":"levelo://app?vid=4d42c57c-b26d-44cc-936d-f06055e6608f","ios":"levelo://app?vid=4d42c57c-b26d-44cc-936d-f06055e6608f"},"vehicle_type_id":"4","last_reported":1701778429,"current_range_meters":6800,"station_id":"ce4bgt92rcd13ifvqcf0","pricing_plan_id":"free"},{"bike_id":"d8a68134-b036-4ad3-8a4b-d5e9ae7e7a91","system_id":"levelo_inurba_marseille","lat":43.308012,"lon":5.381511,"is_reserved":false,"is_disabled":false,"rental_uris":{"android":"levelo://app?vid=d8a68134-b036-4ad3-8a4b-d5e9ae7e7a91","ios":"levelo://app?vid=d8a68134-b036-4ad3-8a4b-d5e9ae7e7a91"},"vehicle_type_id":"4","last_reported":1701778429,"current_range_meters":28800,"station_id":"ce4bgt12rcd13ifvqce0","pricing_plan_id":"free"},{"bike_id":"6800097a-8e03-4081-a2ba-fae603fc203c","system_id":"levelo_inurba_marseille","lat":43.30795,"lon":5.38152,"is_reserved":false,"is_disabled":false,"rental_uris":{"android":"levelo://app?vid=6800097a-8e03-4081-a2ba-fae603fc203c","ios":"levelo://app?vid=6800097a-8e03-4081-a2ba-fae603fc203c"},"vehicle_type_id":"4","last_reported":1701778429,"current_range_meters":17200,"station_id":"ce4bgt12rcd13ifvqce0","pricing_plan_id":"free"},{"bike_id":"1d8fbc9f-a370-4ced-81a8-4aac6726903a","system_id":"levelo_inurba_marseille","lat":43.324771,"lon":5.36557,"is_reserved":false,"is_disabled":false,"rental_uris":{"android":"levelo://app?vid=1d8fbc9f-a370-4ced-81a8-4aac6726903a","ios":"levelo://app?vid=1d8fbc9f-a370-4ced-81a8-4aac6726903a"},"vehicle_type_id":"4","last_reported":1701778429,"current_range_meters":18800,"station_id":"ce4bhs12rcd13ifvqhvg","pricing_plan_id":"free"},{"bike_id":"fd01627b-64c2-4d52-8bfd-4cab12c5ce93","system_id":"levelo_inurba_marseille","lat":43.313391,"lon":5.36706,"is_reserved":false,"is_disabled":false,"rental_uris":{"android":"levelo://app?vid=fd01627b-64c2-4d52-8bfd-4cab12c5ce93","ios":"levelo://app?vid=fd01627b-64c2-4d52-8bfd-4cab12c5ce93"},"vehicle_type_id":"4","last_reported":1701778429,"current_range_meters":21600,"station_id":"ce4bgr92rcd13ifvqc6g","pricing_plan_id":"free"},{"bike_id":"ab542b0a-b258-4b62-baed-c4ff4b3a7961","system_id":"levelo_inurba_marseille","lat":43.324771,"lon":5.36557,"is_reserved":false,"is_disabled":false,"rental_uris":{"android":"levelo://app?vid=ab542b0a-b258-4b62-baed-c4ff4b3a7961","ios":"levelo://app?vid=ab542b0a-b258-4b62-baed-c4ff4b3a7961"},"vehicle_type_id":"4","last_reported":1701778429,"current_range_meters":13200,"station_id":"ce4bhs12rcd13ifvqhvg","pricing_plan_id":"free"},{"bike_id":"41280701-a143-4e50-93ef-fa297df3585f","system_id":"levelo_inurba_marseille","lat":43.324789,"lon":5.365667,"is_reserved":false,"is_disabled":false,"rental_uris":{"android":"levelo://app?vid=41280701-a143-4e50-93ef-fa297df3585f","ios":"levelo://app?vid=41280701-a143-4e50-93ef-fa297df3585f"},"vehicle_type_id":"4","last_reported":1701778429,"current_range_meters":26000,"station_id":"ce4bhs12rcd13ifvqhvg","pricing_plan_id":"free"},{"bike_id":"349dfaee-3ed5-42be-8292-0ab2ba4552e5","system_id":"levelo_inurba_marseille","lat":43.324771,"lon":5.36557,"is_reserved":false,"is_disabled":false,"rental_uris":{"android":"levelo://app?vid=349dfaee-3ed5-42be-8292-0ab2ba4552e5","ios":"levelo://app?vid=349dfaee-3ed5-42be-8292-0ab2ba4552e5"},"vehicle_type_id":"4","last_reported":1701778429,"current_range_meters":28400,"station_id":"ce4bhs12rcd13ifvqhvg","pricing_plan_id":"free"},{"bike_id":"852119ee-a1ff-4dd7-873d-79436926be9f","system_id":"levelo_inurba_marseille","lat":43.31991,"lon":5.38165,"is_reserved":false,"is_disabled":false,"rental_uris":{"android":"levelo://app?vid=852119ee-a1ff-4dd7-873d-79436926be9f","ios":"levelo://app?vid=852119ee-a1ff-4dd7-873d-79436926be9f"},"vehicle_type_id":"4","last_reported":1701778429,"current_range_meters":12800,"station_id":"ce4bhr12rcd13ifvqhpg","pricing_plan_id":"free"},{"bike_id":"473f7c86-7b37-4456-a482-a6fb5d10e1a0","system_id":"levelo_inurba_marseille","lat":43.299724,"lon":5.371829,"is_reserved":false,"is_disabled":false,"rental_uris":{"android":"levelo://app?vid=473f7c86-7b37-4456-a482-a6fb5d10e1a0","ios":"levelo://app?vid=473f7c86-7b37-4456-a482-a6fb5d10e1a0"},"vehicle_type_id":"4","last_reported":1701778429,"current_range_meters":23200,"station_id":"ce4bgr92rcd13ifvqc7g","pricing_plan_id":"free"},{"bike_id":"47c291db-a702-4865-9097-2678b3fdead3","system_id":"levelo_inurba_marseille","lat":43.298433,"lon":5.362774,"is_reserved":false,"is_disabled":false,"rental_uris":{"android":"levelo://app?vid=47c291db-a702-4865-9097-2678b3fdead3","ios":"levelo://app?vid=47c291db-a702-4865-9097-2678b3fdead3"},"vehicle_type_id":"4","last_reported":1701778429,"current_range_meters":25200,"station_id":"ce4bgpp2rcd13ifvqc3g","pricing_plan_id":"free"},{"bike_id":"0e859481-928a-46e5-b63f-1ef502825551","system_id":"levelo_inurba_marseille","lat":43.311722,"lon":5.387247,"is_reserved":false,"is_disabled":false,"rental_uris":{"android":"levelo://app?vid=0e859481-928a-46e5-b63f-1ef502825551","ios":"levelo://app?vid=0e859481-928a-46e5-b63f-1ef502825551"},"vehicle_type_id":"4","last_reported":1701778429,"current_range_meters":28000,"station_id":"ce4bgv12rcd13ifvqcp0","pricing_plan_id":"free"},{"bike_id":"156a12df-3b67-495d-9828-fc9eb0c650dd","system_id":"levelo_inurba_marseille","lat":43.297774,"lon":5.370875,"is_reserved":false,"is_disabled":false,"rental_uris":{"android":"levelo://app?vid=156a12df-3b67-495d-9828-fc9eb0c650dd","ios":"levelo://app?vid=156a12df-3b67-495d-9828-fc9eb0c650dd"},"vehicle_type_id":"4","last_reported":1701778429,"current_range_meters":24000,"station_id":"ce4bgop2rcd13ifvqc1g","pricing_plan_id":"free"},{"bike_id":"9ffca776-ceec-4d2b-9581-994876bf07b1","system_id":"levelo_inurba_marseille","lat":43.297774,"lon":5.370875,"is_reserved":false,"is_disabled":false,"rental_uris":{"android":"levelo://app?vid=9ffca776-ceec-4d2b-9581-994876bf07b1","ios":"levelo://app?vid=9ffca776-ceec-4d2b-9581-994876bf07b1"},"vehicle_type_id":"4","last_reported":1701778429,"current_range_meters":31200,"station_id":"ce4bgop2rcd13ifvqc1g","pricing_plan_id":"free"},{"bike_id":"7c9b34d1-3514-4392-a2ee-937250c3bc00","system_id":"levelo_inurba_marseille","lat":43.328371,"lon":5.366909,"is_reserved":false,"is_disabled":false,"rental_uris":{"android":"levelo://app?vid=7c9b34d1-3514-4392-a2ee-937250c3bc00","ios":"levelo://app?vid=7c9b34d1-3514-4392-a2ee-937250c3bc00"},"vehicle_type_id":"4","last_reported":1701778429,"current_range_meters":15200,"station_id":"ce4bhs92rcd13ifvqi0g","pricing_plan_id":"free"},{"bike_id":"b4879a0b-f87c-476b-ba9f-57011b8686d8","system_id":"levelo_inurba_marseille","lat":43.298218,"lon":5.374416,"is_reserved":false,"is_disabled":false,"rental_uris":{"android":"levelo://app?vid=b4879a0b-f87c-476b-ba9f-57011b8686d8","ios":"levelo://app?vid=b4879a0b-f87c-476b-ba9f-57011b8686d8"},"vehicle_type_id":"4","last_reported":1701778429,"current_range_meters":17600,"station_id":"","pricing_plan_id":"free"},{"bike_id":"eb6e7f47-d703-40d3-b365-ef330215af35","system_id":"levelo_inurba_marseille","lat":43.295908,"lon":5.368,"is_reserved":false,"is_disabled":false,"rental_uris":{"android":"levelo://app?vid=eb6e7f47-d703-40d3-b365-ef330215af35","ios":"levelo://app?vid=eb6e7f47-d703-40d3-b365-ef330215af35"},"vehicle_type_id":"4","last_reported":1701778429,"current_range_meters":24800,"station_id":"","pricing_plan_id":"free"},{"bike_id":"eaa0e7e7-2390-47fa-909b-7b240952cbef","system_id":"levelo_inurba_marseille","lat":43.316538,"lon":5.38954,"is_reserved":false,"is_disabled":false,"rental_uris":{"android":"levelo://app?vid=eaa0e7e7-2390-47fa-909b-7b240952cbef","ios":"levelo://app?vid=eaa0e7e7-2390-47fa-909b-7b240952cbef"},"vehicle_type_id":"4","last_reported":1701778429,"current_range_meters":13200,"station_id":"","pricing_plan_id":"free"},{"bike_id":"477ae435-0f3c-4245-8596-246a5d6e8464","system_id":"levelo_inurba_marseille","lat":43.296131,"lon":5.370791,"is_reserved":false,"is_disabled":false,"rental_uris":{"android":"levelo://app?vid=477ae435-0f3c-4245-8596-246a5d6e8464","ios":"levelo://app?vid=477ae435-0f3c-4245-8596-246a5d6e8464"},"vehicle_type_id":"4","last_reported":1701778429,"current_range_meters":11600,"station_id":"ce4bgnh2rcd13ifvqc0g","pricing_plan_id":"free"},{"bike_id":"29ff7a7b-7b8e-4c3c-926e-3a15bd082839","system_id":"levelo_inurba_marseille","lat":43.309589,"lon":5.390258,"is_reserved":false,"is_disabled":false,"rental_uris":{"android":"levelo://app?vid=29ff7a7b-7b8e-4c3c-926e-3a15bd082839","ios":"levelo://app?vid=29ff7a7b-7b8e-4c3c-926e-3a15bd082839"},"vehicle_type_id":"4","last_reported":1701778429,"current_range_meters":7200,"station_id":"ce4bgup2rcd13ifvqco0","pricing_plan_id":"free"},{"bike_id":"a112623d-8508-4b6e-91fe-78472f294bd5","system_id":"levelo_inurba_marseille","lat":43.299028,"lon":5.381509,"is_reserved":false,"is_disabled":false,"rental_uris":{"android":"levelo://app?vid=a112623d-8508-4b6e-91fe-78472f294bd5","ios":"levelo://app?vid=a112623d-8508-4b6e-91fe-78472f294bd5"},"vehicle_type_id":"4","last_reported":1701778429,"current_range_meters":23200,"station_id":"ce4bgj12rcd13ifvqbc0","pricing_plan_id":"free"},{"bike_id":"520c8717-569f-4e4a-9011-ac832b6d9613","system_id":"levelo_inurba_marseille","lat":43.317557,"lon":5.390173,"is_reserved":false,"is_disabled":false,"rental_uris":{"android":"levelo://app?vid=520c8717-569f-4e4a-9011-ac832b6d9613","ios":"levelo://app?vid=520c8717-569f-4e4a-9011-ac832b6d9613"},"vehicle_type_id":"4","last_reported":1701778429,"current_range_meters":5200,"station_id":"ce4bhqp2rcd13ifvqhng","pricing_plan_id":"free"},{"bike_id":"b3988052-ad7d-4a77-8008-cb4860c538f4","system_id":"levelo_inurba_marseille","lat":43.298037,"lon":5.381066,"is_reserved":false,"is_disabled":false,"rental_uris":{"android":"levelo://app?vid=b3988052-ad7d-4a77-8008-cb4860c538f4","ios":"levelo://app?vid=b3988052-ad7d-4a77-8008-cb4860c538f4"},"vehicle_type_id":"4","last_reported":1701778429,"current_range_meters":6000,"station_id":"ce4bgip2rcd13ifvqbb0","pricing_plan_id":"free"},{"bike_id":"593b30dd-6c65-420d-ae59-e7f22b45e6bf","system_id":"levelo_inurba_marseille","lat":43.295748,"lon":5.37522,"is_reserved":false,"is_disabled":false,"rental_uris":{"android":"levelo://app?vid=593b30dd-6c65-420d-ae59-e7f22b45e6bf","ios":"levelo://app?vid=593b30dd-6c65-420d-ae59-e7f22b45e6bf"},"vehicle_type_id":"4","last_reported":1701778429,"current_range_meters":8400,"station_id":"ce4bgh92rcd13ifvqb50","pricing_plan_id":"free"},{"bike_id":"5a24d3e4-9091-4857-b90b-e97f409a6b08","system_id":"levelo_inurba_marseille","lat":43.296263,"lon":5.377094,"is_reserved":false,"is_disabled":false,"rental_uris":{"android":"levelo://app?vid=5a24d3e4-9091-4857-b90b-e97f409a6b08","ios":"levelo://app?vid=5a24d3e4-9091-4857-b90b-e97f409a6b08"},"vehicle_type_id":"4","last_reported":1701778429,"current_range_meters":19600,"station_id":"ce4bgi92rcd13ifvqb90","pricing_plan_id":"free"},{"bike_id":"14cd996b-a395-457b-92e4-f048b5e1bee4","system_id":"levelo_inurba_marseille","lat":43.29616,"lon":5.37712,"is_reserved":false,"is_disabled":false,"rental_uris":{"android":"levelo://app?vid=14cd996b-a395-457b-92e4-f048b5e1bee4","ios":"levelo://app?vid=14cd996b-a395-457b-92e4-f048b5e1bee4"},"vehicle_type_id":"4","last_reported":1701778429,"current_range_meters":18400,"station_id":"ce4bgi92rcd13ifvqb90","pricing_plan_id":"free"},{"bike_id":"8dcda5e9-a15c-49ae-a58c-fe7df8a840f0","system_id":"levelo_inurba_marseille","lat":43.304274,"lon":5.388873,"is_reserved":false,"is_disabled":false,"rental_uris":{"android":"levelo://app?vid=8dcda5e9-a15c-49ae-a58c-fe7df8a840f0","ios":"levelo://app?vid=8dcda5e9-a15c-49ae-a58c-fe7df8a840f0"},"vehicle_type_id":"4","last_reported":1701778429,"current_range_meters":4400,"station_id":"ce4bgk12rcd13ifvqbi0","pricing_plan_id":"free"},{"bike_id":"3279ab10-c559-4255-80ce-132e262777da","system_id":"levelo_inurba_marseille","lat":43.29578,"lon":5.38029,"is_reserved":false,"is_disabled":false,"rental_uris":{"android":"levelo://app?vid=3279ab10-c559-4255-80ce-132e262777da","ios":"levelo://app?vid=3279ab10-c559-4255-80ce-132e262777da"},"vehicle_type_id":"4","last_reported":1701778429,"current_range_meters":14800,"station_id":"","pricing_plan_id":"free"},{"bike_id":"65051609-9d9d-4f30-9e8a-b1e4abf9c067","system_id":"levelo_inurba_marseille","lat":43.305994,"lon":5.393687,"is_reserved":false,"is_disabled":false,"rental_uris":{"android":"levelo://app?vid=65051609-9d9d-4f30-9e8a-b1e4abf9c067","ios":"levelo://app?vid=65051609-9d9d-4f30-9e8a-b1e4abf9c067"},"vehicle_type_id":"4","last_reported":1701778429,"current_range_meters":27200,"station_id":"ce4bh0p2rcd13ifvqd80","pricing_plan_id":"free"},{"bike_id":"f7b1189d-116c-436a-8382-2ef75f276bf9","system_id":"levelo_inurba_marseille","lat":43.305994,"lon":5.393687,"is_reserved":false,"is_disabled":false,"rental_uris":{"android":"levelo://app?vid=f7b1189d-116c-436a-8382-2ef75f276bf9","ios":"levelo://app?vid=f7b1189d-116c-436a-8382-2ef75f276bf9"},"vehicle_type_id":"4","last_reported":1701778429,"current_range_meters":30400,"station_id":"ce4bh0p2rcd13ifvqd80","pricing_plan_id":"free"},{"bike_id":"5ad5c9b2-c472-43d8-9a51-71eb677b769d","system_id":"levelo_inurba_marseille","lat":43.305994,"lon":5.393687,"is_reserved":false,"is_disabled":false,"rental_uris":{"android":"levelo://app?vid=5ad5c9b2-c472-43d8-9a51-71eb677b769d","ios":"levelo://app?vid=5ad5c9b2-c472-43d8-9a51-71eb677b769d"},"vehicle_type_id":"4","last_reported":1701778429,"current_range_meters":21600,"station_id":"ce4bh0p2rcd13ifvqd80","pricing_plan_id":"free"},{"bike_id":"7a0c652d-af26-4f7b-ad92-e60f8fa4c5a9","system_id":"levelo_inurba_marseille","lat":43.305994,"lon":5.393687,"is_reserved":false,"is_disabled":false,"rental_uris":{"android":"levelo://app?vid=7a0c652d-af26-4f7b-ad92-e60f8fa4c5a9","ios":"levelo://app?vid=7a0c652d-af26-4f7b-ad92-e60f8fa4c5a9"},"vehicle_type_id":"4","last_reported":1701778429,"current_range_meters":28400,"station_id":"ce4bh0p2rcd13ifvqd80","pricing_plan_id":"free"},{"bike_id":"8aff97d7-fdfa-4b80-b8db-e50906e5a2ef","system_id":"levelo_inurba_marseille","lat":43.305994,"lon":5.393687,"is_reserved":false,"is_disabled":false,"rental_uris":{"android":"levelo://app?vid=8aff97d7-fdfa-4b80-b8db-e50906e5a2ef","ios":"levelo://app?vid=8aff97d7-fdfa-4b80-b8db-e50906e5a2ef"},"vehicle_type_id":"4","last_reported":1701778429,"current_range_meters":9600,"station_id":"ce4bh0p2rcd13ifvqd80","pricing_plan_id":"free"},{"bike_id":"2f5b95d4-0e80-4191-9328-7b1c42689368","system_id":"levelo_inurba_marseille","lat":43.2936,"lon":5.37835,"is_reserved":false,"is_disabled":false,"rental_uris":{"android":"levelo://app?vid=2f5b95d4-0e80-4191-9328-7b1c42689368","ios":"levelo://app?vid=2f5b95d4-0e80-4191-9328-7b1c42689368"},"vehicle_type_id":"4","last_reported":1701778429,"current_range_meters":13600,"station_id":"ce4bgjh2rcd13ifvqbf0","pricing_plan_id":"free"},{"bike_id":"1de8e1e6-18f9-409b-b49c-a161684a6971","system_id":"levelo_inurba_marseille","lat":43.2936,"lon":5.37835,"is_reserved":false,"is_disabled":false,"rental_uris":{"android":"levelo://app?vid=1de8e1e6-18f9-409b-b49c-a161684a6971","ios":"levelo://app?vid=1de8e1e6-18f9-409b-b49c-a161684a6971"},"vehicle_type_id":"4","last_reported":1701778429,"current_range_meters":25200,"station_id":"ce4bgjh2rcd13ifvqbf0","pricing_plan_id":"free"},{"bike_id":"55a452a4-0c69-46d7-8b3f-1256a3671278","system_id":"levelo_inurba_marseille","lat":43.292663,"lon":5.376389,"is_reserved":false,"is_disabled":false,"rental_uris":{"android":"levelo://app?vid=55a452a4-0c69-46d7-8b3f-1256a3671278","ios":"levelo://app?vid=55a452a4-0c69-46d7-8b3f-1256a3671278"},"vehicle_type_id":"4","last_reported":1701778429,"current_range_meters":25600,"station_id":"ce4bgi12rcd13ifvqb80","pricing_plan_id":"free"},{"bike_id":"6093c208-31eb-4399-a579-953aabda9b01","system_id":"levelo_inurba_marseille","lat":43.313256,"lon":5.396943,"is_reserved":false,"is_disabled":false,"rental_uris":{"android":"levelo://app?vid=6093c208-31eb-4399-a579-953aabda9b01","ios":"levelo://app?vid=6093c208-31eb-4399-a579-953aabda9b01"},"vehicle_type_id":"4","last_reported":1701778429,"current_range_meters":30400,"station_id":"","pricing_plan_id":"free"},{"bike_id":"b99c3d73-c66d-487b-a384-7d3decbcc5a7","system_id":"levelo_inurba_marseille","lat":43.313291,"lon":5.396838,"is_reserved":false,"is_disabled":false,"rental_uris":{"android":"levelo://app?vid=b99c3d73-c66d-487b-a384-7d3decbcc5a7","ios":"levelo://app?vid=b99c3d73-c66d-487b-a384-7d3decbcc5a7"},"vehicle_type_id":"4","last_reported":1701778429,"current_range_meters":29200,"station_id":"ce4bgvp2rcd13ifvqcu0","pricing_plan_id":"free"},{"bike_id":"6120aeb0-bd5e-45e5-a96d-a386f2db4662","system_id":"levelo_inurba_marseille","lat":43.31326,"lon":5.396989,"is_reserved":false,"is_disabled":false,"rental_uris":{"android":"levelo://app?vid=6120aeb0-bd5e-45e5-a96d-a386f2db4662","ios":"levelo://app?vid=6120aeb0-bd5e-45e5-a96d-a386f2db4662"},"vehicle_type_id":"4","last_reported":1701778429,"current_range_meters":16400,"station_id":"ce4bgvp2rcd13ifvqcu0","pricing_plan_id":"free"},{"bike_id":"7e6ea924-bc1e-47c9-a150-f05f8e7ab0ff","system_id":"levelo_inurba_marseille","lat":43.29529,"lon":5.385581,"is_reserved":false,"is_disabled":false,"rental_uris":{"android":"levelo://app?vid=7e6ea924-bc1e-47c9-a150-f05f8e7ab0ff","ios":"levelo://app?vid=7e6ea924-bc1e-47c9-a150-f05f8e7ab0ff"},"vehicle_type_id":"4","last_reported":1701778429,"current_range_meters":11600,"station_id":"ce4bgih2rcd13ifvqba0","pricing_plan_id":"free"},{"bike_id":"6ca1638a-706e-4f37-b839-e4ec47b40736","system_id":"levelo_inurba_marseille","lat":43.290624,"lon":5.359245,"is_reserved":false,"is_disabled":false,"rental_uris":{"android":"levelo://app?vid=6ca1638a-706e-4f37-b839-e4ec47b40736","ios":"levelo://app?vid=6ca1638a-706e-4f37-b839-e4ec47b40736"},"vehicle_type_id":"4","last_reported":1701778429,"current_range_meters":26000,"station_id":"ce4bha92rcd13ifvqeg0","pricing_plan_id":"free"},{"bike_id":"61c763c8-25d4-4191-a250-feceef35c11c","system_id":"levelo_inurba_marseille","lat":43.294207,"lon":5.386163,"is_reserved":false,"is_disabled":false,"rental_uris":{"android":"levelo://app?vid=61c763c8-25d4-4191-a250-feceef35c11c","ios":"levelo://app?vid=61c763c8-25d4-4191-a250-feceef35c11c"},"vehicle_type_id":"4","last_reported":1701778429,"current_range_meters":23200,"station_id":"ce4bh2h2rcd13ifvqdh0","pricing_plan_id":"free"},{"bike_id":"52961b5e-00d9-41d6-b733-beb958d02fde","system_id":"levelo_inurba_marseille","lat":43.294162,"lon":5.386292,"is_reserved":false,"is_disabled":false,"rental_uris":{"android":"levelo://app?vid=52961b5e-00d9-41d6-b733-beb958d02fde","ios":"levelo://app?vid=52961b5e-00d9-41d6-b733-beb958d02fde"},"vehicle_type_id":"4","last_reported":1701778429,"current_range_meters":4400,"station_id":"ce4bh2h2rcd13ifvqdh0","pricing_plan_id":"free"},{"bike_id":"5234982b-b12e-43cf-a31b-cc4b01db58a6","system_id":"levelo_inurba_marseille","lat":43.289184,"lon":5.366408,"is_reserved":false,"is_disabled":false,"rental_uris":{"android":"levelo://app?vid=5234982b-b12e-43cf-a31b-cc4b01db58a6","ios":"levelo://app?vid=5234982b-b12e-43cf-a31b-cc4b01db58a6"},"vehicle_type_id":"4","last_reported":1701778429,"current_range_meters":24400,"station_id":"ce4bhap2rcd13ifvqek0","pricing_plan_id":"free"},{"bike_id":"94242893-5966-4508-9ebb-ad74b3651228","system_id":"levelo_inurba_marseille","lat":43.292642,"lon":5.384254,"is_reserved":false,"is_disabled":false,"rental_uris":{"android":"levelo://app?vid=94242893-5966-4508-9ebb-ad74b3651228","ios":"levelo://app?vid=94242893-5966-4508-9ebb-ad74b3651228"},"vehicle_type_id":"4","last_reported":1701778429,"current_range_meters":0,"station_id":"ce4bh692rcd13ifvqea0","pricing_plan_id":"free"},{"bike_id":"8fdedd7b-4952-499b-9b5d-0181947dd921","system_id":"levelo_inurba_marseille","lat":43.304274,"lon":5.397513,"is_reserved":false,"is_disabled":false,"rental_uris":{"android":"levelo://app?vid=8fdedd7b-4952-499b-9b5d-0181947dd921","ios":"levelo://app?vid=8fdedd7b-4952-499b-9b5d-0181947dd921"},"vehicle_type_id":"4","last_reported":1701778429,"current_range_meters":13200,"station_id":"ce4bh092rcd13ifvqd20","pricing_plan_id":"free"},{"bike_id":"2becf173-e0df-4769-92c6-041d86f283fc","system_id":"levelo_inurba_marseille","lat":43.330442,"lon":5.389148,"is_reserved":false,"is_disabled":false,"rental_uris":{"android":"levelo://app?vid=2becf173-e0df-4769-92c6-041d86f283fc","ios":"levelo://app?vid=2becf173-e0df-4769-92c6-041d86f283fc"},"vehicle_type_id":"4","last_reported":1701778429,"current_range_meters":22400,"station_id":"ce4bhr92rcd13ifvqhrg","pricing_plan_id":"free"},{"bike_id":"f68e2c8b-de08-4ad7-b342-74483183b5be","system_id":"levelo_inurba_marseille","lat":43.33049,"lon":5.38909,"is_reserved":false,"is_disabled":false,"rental_uris":{"android":"levelo://app?vid=f68e2c8b-de08-4ad7-b342-74483183b5be","ios":"levelo://app?vid=f68e2c8b-de08-4ad7-b342-74483183b5be"},"vehicle_type_id":"4","last_reported":1701778429,"current_range_meters":30800,"station_id":"ce4bhr92rcd13ifvqhrg","pricing_plan_id":"free"},{"bike_id":"63400ba9-96e9-4684-9616-219437977824","system_id":"levelo_inurba_marseille","lat":43.28847,"lon":5.35855,"is_reserved":false,"is_disabled":false,"rental_uris":{"android":"levelo://app?vid=63400ba9-96e9-4684-9616-219437977824","ios":"levelo://app?vid=63400ba9-96e9-4684-9616-219437977824"},"vehicle_type_id":"4","last_reported":1701778429,"current_range_meters":12800,"station_id":"ce4bhb12rcd13ifvqem0","pricing_plan_id":"free"},{"bike_id":"bf3891cd-6ab6-47de-bbed-6b6810c3145b","system_id":"levelo_inurba_marseille","lat":43.302759,"lon":5.400793,"is_reserved":false,"is_disabled":false,"rental_uris":{"android":"levelo://app?vid=bf3891cd-6ab6-47de-bbed-6b6810c3145b","ios":"levelo://app?vid=bf3891cd-6ab6-47de-bbed-6b6810c3145b"},"vehicle_type_id":"4","last_reported":1701778429,"current_range_meters":24000,"station_id":"ce4bgvh2rcd13ifvqcs0","pricing_plan_id":"free"},{"bike_id":"b1da507f-59bc-4bfa-9de7-dd18b0d37739","system_id":"levelo_inurba_marseille","lat":43.337478,"lon":5.374491,"is_reserved":false,"is_disabled":false,"rental_uris":{"android":"levelo://app?vid=b1da507f-59bc-4bfa-9de7-dd18b0d37739","ios":"levelo://app?vid=b1da507f-59bc-4bfa-9de7-dd18b0d37739"},"vehicle_type_id":"4","last_reported":1701778429,"current_range_meters":30400,"station_id":"","pricing_plan_id":"free"},{"bike_id":"d4e9be23-ee2b-47b7-b5cf-00d0222060aa","system_id":"levelo_inurba_marseille","lat":43.309303,"lon":5.401437,"is_reserved":false,"is_disabled":false,"rental_uris":{"android":"levelo://app?vid=d4e9be23-ee2b-47b7-b5cf-00d0222060aa","ios":"levelo://app?vid=d4e9be23-ee2b-47b7-b5cf-00d0222060aa"},"vehicle_type_id":"4","last_reported":1701778429,"current_range_meters":20000,"station_id":"ce4bgvp2rcd13ifvqct0","pricing_plan_id":"free"},{"bike_id":"2fbea006-0d22-445c-bfc1-d379dcddc1c1","system_id":"levelo_inurba_marseille","lat":43.337476,"lon":5.374681,"is_reserved":false,"is_disabled":false,"rental_uris":{"android":"levelo://app?vid=2fbea006-0d22-445c-bfc1-d379dcddc1c1","ios":"levelo://app?vid=2fbea006-0d22-445c-bfc1-d379dcddc1c1"},"vehicle_type_id":"4","last_reported":1701778429,"current_range_meters":29200,"station_id":"","pricing_plan_id":"free"},{"bike_id":"683431fc-a075-4fbb-ab1e-b0d50ce423b9","system_id":"levelo_inurba_marseille","lat":43.309293,"lon":5.401477,"is_reserved":false,"is_disabled":false,"rental_uris":{"android":"levelo://app?vid=683431fc-a075-4fbb-ab1e-b0d50ce423b9","ios":"levelo://app?vid=683431fc-a075-4fbb-ab1e-b0d50ce423b9"},"vehicle_type_id":"4","last_reported":1701778429,"current_range_meters":4800,"station_id":"ce4bgvp2rcd13ifvqct0","pricing_plan_id":"free"},{"bike_id":"61e94894-252e-4e6e-9735-b09eceabfad5","system_id":"levelo_inurba_marseille","lat":43.3375,"lon":5.37469,"is_reserved":false,"is_disabled":false,"rental_uris":{"android":"levelo://app?vid=61e94894-252e-4e6e-9735-b09eceabfad5","ios":"levelo://app?vid=61e94894-252e-4e6e-9735-b09eceabfad5"},"vehicle_type_id":"4","last_reported":1701778429,"current_range_meters":29600,"station_id":"","pricing_plan_id":"free"},{"bike_id":"16a612a4-4b9e-4df2-8d20-8252967a2136","system_id":"levelo_inurba_marseille","lat":43.309371,"lon":5.401449,"is_reserved":false,"is_disabled":false,"rental_uris":{"android":"levelo://app?vid=16a612a4-4b9e-4df2-8d20-8252967a2136","ios":"levelo://app?vid=16a612a4-4b9e-4df2-8d20-8252967a2136"},"vehicle_type_id":"4","last_reported":1701778429,"current_range_meters":23600,"station_id":"ce4bgvp2rcd13ifvqct0","pricing_plan_id":"free"},{"bike_id":"5fb2d61f-8cc1-4dba-8080-f0d048606588","system_id":"levelo_inurba_marseille","lat":43.306412,"lon":5.401035,"is_reserved":false,"is_disabled":false,"rental_uris":{"android":"levelo://app?vid=5fb2d61f-8cc1-4dba-8080-f0d048606588","ios":"levelo://app?vid=5fb2d61f-8cc1-4dba-8080-f0d048606588"},"vehicle_type_id":"4","last_reported":1701778429,"current_range_meters":31200,"station_id":"ce4bh112rcd13ifvqda0","pricing_plan_id":"free"},{"bike_id":"3c523915-3408-4bc0-a6c5-20a4248b36a3","system_id":"levelo_inurba_marseille","lat":43.306412,"lon":5.401035,"is_reserved":false,"is_disabled":false,"rental_uris":{"android":"levelo://app?vid=3c523915-3408-4bc0-a6c5-20a4248b36a3","ios":"levelo://app?vid=3c523915-3408-4bc0-a6c5-20a4248b36a3"},"vehicle_type_id":"4","last_reported":1701778429,"current_range_meters":24000,"station_id":"ce4bh112rcd13ifvqda0","pricing_plan_id":"free"},{"bike_id":"ad18997d-c132-4f67-aeaa-ecaefca05bfc","system_id":"levelo_inurba_marseille","lat":43.306412,"lon":5.401035,"is_reserved":false,"is_disabled":false,"rental_uris":{"android":"levelo://app?vid=ad18997d-c132-4f67-aeaa-ecaefca05bfc","ios":"levelo://app?vid=ad18997d-c132-4f67-aeaa-ecaefca05bfc"},"vehicle_type_id":"4","last_reported":1701778429,"current_range_meters":11200,"station_id":"ce4bh112rcd13ifvqda0","pricing_plan_id":"free"},{"bike_id":"6b4ba298-52d5-44e7-9aa5-989d2120c2bd","system_id":"levelo_inurba_marseille","lat":43.30642,"lon":5.401031,"is_reserved":false,"is_disabled":false,"rental_uris":{"android":"levelo://app?vid=6b4ba298-52d5-44e7-9aa5-989d2120c2bd","ios":"levelo://app?vid=6b4ba298-52d5-44e7-9aa5-989d2120c2bd"},"vehicle_type_id":"4","last_reported":1701778429,"current_range_meters":18800,"station_id":"ce4bh112rcd13ifvqda0","pricing_plan_id":"free"},{"bike_id":"141e3529-e042-41a3-beee-e74b146a42da","system_id":"levelo_inurba_marseille","lat":43.301117,"lon":5.398795,"is_reserved":false,"is_disabled":false,"rental_uris":{"android":"levelo://app?vid=141e3529-e042-41a3-beee-e74b146a42da","ios":"levelo://app?vid=141e3529-e042-41a3-beee-e74b146a42da"},"vehicle_type_id":"4","last_reported":1701778429,"current_range_meters":28000,"station_id":"ce4bh0h2rcd13ifvqd40","pricing_plan_id":"free"},{"bike_id":"11087c8f-43f4-4f2e-83e1-9a28a20b91ae","system_id":"levelo_inurba_marseille","lat":43.301257,"lon":5.398635,"is_reserved":false,"is_disabled":false,"rental_uris":{"android":"levelo://app?vid=11087c8f-43f4-4f2e-83e1-9a28a20b91ae","ios":"levelo://app?vid=11087c8f-43f4-4f2e-83e1-9a28a20b91ae"},"vehicle_type_id":"4","last_reported":1701778429,"current_range_meters":31200,"station_id":"ce4bh0h2rcd13ifvqd40","pricing_plan_id":"free"},{"bike_id":"a9138573-340a-492c-8157-c72e7bdbe2df","system_id":"levelo_inurba_marseille","lat":43.286593,"lon":5.363346,"is_reserved":false,"is_disabled":false,"rental_uris":{"android":"levelo://app?vid=a9138573-340a-492c-8157-c72e7bdbe2df","ios":"levelo://app?vid=a9138573-340a-492c-8157-c72e7bdbe2df"},"vehicle_type_id":"4","last_reported":1701778429,"current_range_meters":24000,"station_id":"ce4bhah2rcd13ifvqej0","pricing_plan_id":"free"},{"bike_id":"589f529d-f06a-4732-84d3-2dbb34388008","system_id":"levelo_inurba_marseille","lat":43.295196,"lon":5.39397,"is_reserved":false,"is_disabled":false,"rental_uris":{"android":"levelo://app?vid=589f529d-f06a-4732-84d3-2dbb34388008","ios":"levelo://app?vid=589f529d-f06a-4732-84d3-2dbb34388008"},"vehicle_type_id":"4","last_reported":1701778429,"current_range_meters":19600,"station_id":"ce4bh292rcd13ifvqdf0","pricing_plan_id":"free"},{"bike_id":"01c20adb-8e9b-4a98-a193-625b891b7829","system_id":"levelo_inurba_marseille","lat":43.295196,"lon":5.39397,"is_reserved":false,"is_disabled":false,"rental_uris":{"android":"levelo://app?vid=01c20adb-8e9b-4a98-a193-625b891b7829","ios":"levelo://app?vid=01c20adb-8e9b-4a98-a193-625b891b7829"},"vehicle_type_id":"4","last_reported":1701778429,"current_range_meters":22800,"station_id":"ce4bh292rcd13ifvqdf0","pricing_plan_id":"free"},{"bike_id":"f3db0803-2c0b-4f28-a45c-443b39323931","system_id":"levelo_inurba_marseille","lat":43.295194,"lon":5.39397,"is_reserved":false,"is_disabled":false,"rental_uris":{"android":"levelo://app?vid=f3db0803-2c0b-4f28-a45c-443b39323931","ios":"levelo://app?vid=f3db0803-2c0b-4f28-a45c-443b39323931"},"vehicle_type_id":"4","last_reported":1701778429,"current_range_meters":28400,"station_id":"ce4bh292rcd13ifvqdf0","pricing_plan_id":"free"},{"bike_id":"af69b4c1-34ee-4255-9103-6170c74654ac","system_id":"levelo_inurba_marseille","lat":43.289307,"lon":5.38406,"is_reserved":false,"is_disabled":false,"rental_uris":{"android":"levelo://app?vid=af69b4c1-34ee-4255-9103-6170c74654ac","ios":"levelo://app?vid=af69b4c1-34ee-4255-9103-6170c74654ac"},"vehicle_type_id":"4","last_reported":1701778429,"current_range_meters":29200,"station_id":"ce4bh612rcd13ifvqe6g","pricing_plan_id":"free"},{"bike_id":"a9806f5d-8874-414e-a5ba-6d21b3108d2c","system_id":"levelo_inurba_marseille","lat":43.286039,"lon":5.370679,"is_reserved":false,"is_disabled":false,"rental_uris":{"android":"levelo://app?vid=a9806f5d-8874-414e-a5ba-6d21b3108d2c","ios":"levelo://app?vid=a9806f5d-8874-414e-a5ba-6d21b3108d2c"},"vehicle_type_id":"4","last_reported":1701778429,"current_range_meters":27200,"station_id":"ce4bht12rcd13ifvqi60","pricing_plan_id":"free"},{"bike_id":"93c6c93b-e915-42fa-bca5-0680bf37b668","system_id":"levelo_inurba_marseille","lat":43.284534,"lon":5.358662,"is_reserved":false,"is_disabled":false,"rental_uris":{"android":"levelo://app?vid=93c6c93b-e915-42fa-bca5-0680bf37b668","ios":"levelo://app?vid=93c6c93b-e915-42fa-bca5-0680bf37b668"},"vehicle_type_id":"4","last_reported":1701778429,"current_range_meters":11600,"station_id":"ce4bhah2rcd13ifvqei0","pricing_plan_id":"free"},{"bike_id":"a7b716bd-6f6f-4d7c-94ed-74e91bfcfea3","system_id":"levelo_inurba_marseille","lat":43.284534,"lon":5.358662,"is_reserved":false,"is_disabled":false,"rental_uris":{"android":"levelo://app?vid=a7b716bd-6f6f-4d7c-94ed-74e91bfcfea3","ios":"levelo://app?vid=a7b716bd-6f6f-4d7c-94ed-74e91bfcfea3"},"vehicle_type_id":"4","last_reported":1701778429,"current_range_meters":22800,"station_id":"ce4bhah2rcd13ifvqei0","pricing_plan_id":"free"},{"bike_id":"aa7cd928-db6e-405c-8803-4e4d3c68e05a","system_id":"levelo_inurba_marseille","lat":43.283998,"lon":5.375062,"is_reserved":false,"is_disabled":false,"rental_uris":{"android":"levelo://app?vid=aa7cd928-db6e-405c-8803-4e4d3c68e05a","ios":"levelo://app?vid=aa7cd928-db6e-405c-8803-4e4d3c68e05a"},"vehicle_type_id":"4","last_reported":1701778429,"current_range_meters":23200,"station_id":"ce4bh412rcd13ifvqds0","pricing_plan_id":"free"},{"bike_id":"bf41fd1d-54af-4b93-9045-9e7e3d7f3269","system_id":"levelo_inurba_marseille","lat":43.283998,"lon":5.375062,"is_reserved":false,"is_disabled":false,"rental_uris":{"android":"levelo://app?vid=bf41fd1d-54af-4b93-9045-9e7e3d7f3269","ios":"levelo://app?vid=bf41fd1d-54af-4b93-9045-9e7e3d7f3269"},"vehicle_type_id":"4","last_reported":1701778429,"current_range_meters":7200,"station_id":"ce4bh412rcd13ifvqds0","pricing_plan_id":"free"},{"bike_id":"8391c8d5-b699-42af-84e6-7dc666f5fa0e","system_id":"levelo_inurba_marseille","lat":43.295713,"lon":5.399639,"is_reserved":false,"is_disabled":false,"rental_uris":{"android":"levelo://app?vid=8391c8d5-b699-42af-84e6-7dc666f5fa0e","ios":"levelo://app?vid=8391c8d5-b699-42af-84e6-7dc666f5fa0e"},"vehicle_type_id":"4","last_reported":1701778429,"current_range_meters":27600,"station_id":"ce4bh312rcd13ifvqdj0","pricing_plan_id":"free"},{"bike_id":"7d013d72-f190-4569-9176-53af4d4a9b96","system_id":"levelo_inurba_marseille","lat":43.295713,"lon":5.399639,"is_reserved":false,"is_disabled":false,"rental_uris":{"android":"levelo://app?vid=7d013d72-f190-4569-9176-53af4d4a9b96","ios":"levelo://app?vid=7d013d72-f190-4569-9176-53af4d4a9b96"},"vehicle_type_id":"4","last_reported":1701778429,"current_range_meters":19600,"station_id":"ce4bh312rcd13ifvqdj0","pricing_plan_id":"free"},{"bike_id":"b9f39ae2-f69c-43ee-abb5-ab47166dcd66","system_id":"levelo_inurba_marseille","lat":43.283998,"lon":5.375062,"is_reserved":false,"is_disabled":false,"rental_uris":{"android":"levelo://app?vid=b9f39ae2-f69c-43ee-abb5-ab47166dcd66","ios":"levelo://app?vid=b9f39ae2-f69c-43ee-abb5-ab47166dcd66"},"vehicle_type_id":"4","last_reported":1701778429,"current_range_meters":17200,"station_id":"ce4bh412rcd13ifvqds0","pricing_plan_id":"free"},{"bike_id":"0f0ac315-0b57-4d1a-9dfc-d50d1bbc9931","system_id":"levelo_inurba_marseille","lat":43.286595,"lon":5.386795,"is_reserved":false,"is_disabled":false,"rental_uris":{"android":"levelo://app?vid=0f0ac315-0b57-4d1a-9dfc-d50d1bbc9931","ios":"levelo://app?vid=0f0ac315-0b57-4d1a-9dfc-d50d1bbc9931"},"vehicle_type_id":"4","last_reported":1701778429,"current_range_meters":3200,"station_id":"ce4bh492rcd13ifvqdug","pricing_plan_id":"free"},{"bike_id":"4d869850-0e87-4c8e-af9d-b5a9b6d0270d","system_id":"levelo_inurba_marseille","lat":43.323464,"lon":5.406297,"is_reserved":false,"is_disabled":false,"rental_uris":{"android":"levelo://app?vid=4d869850-0e87-4c8e-af9d-b5a9b6d0270d","ios":"levelo://app?vid=4d869850-0e87-4c8e-af9d-b5a9b6d0270d"},"vehicle_type_id":"4","last_reported":1701778429,"current_range_meters":10800,"station_id":"ce4bhq92rcd13ifvqhjg","pricing_plan_id":"free"},{"bike_id":"26a1eaaa-c052-4229-965d-422f6e872f39","system_id":"levelo_inurba_marseille","lat":43.337168,"lon":5.391825,"is_reserved":false,"is_disabled":false,"rental_uris":{"android":"levelo://app?vid=26a1eaaa-c052-4229-965d-422f6e872f39","ios":"levelo://app?vid=26a1eaaa-c052-4229-965d-422f6e872f39"},"vehicle_type_id":"4","last_reported":1701778429,"current_range_meters":27200,"station_id":"ce4bhr92rcd13ifvqhsg","pricing_plan_id":"free"},{"bike_id":"209927e9-bd41-4b8a-a143-8b63875b6bc8","system_id":"levelo_inurba_marseille","lat":43.284787,"lon":5.384116,"is_reserved":false,"is_disabled":false,"rental_uris":{"android":"levelo://app?vid=209927e9-bd41-4b8a-a143-8b63875b6bc8","ios":"levelo://app?vid=209927e9-bd41-4b8a-a143-8b63875b6bc8"},"vehicle_type_id":"4","last_reported":1701778429,"current_range_meters":19600,"station_id":"ce4bh512rcd13ifvqe3g","pricing_plan_id":"free"},{"bike_id":"342b4692-ed71-472a-bcfc-751e5c37fcc4","system_id":"levelo_inurba_marseille","lat":43.283502,"lon":5.386471,"is_reserved":false,"is_disabled":false,"rental_uris":{"android":"levelo://app?vid=342b4692-ed71-472a-bcfc-751e5c37fcc4","ios":"levelo://app?vid=342b4692-ed71-472a-bcfc-751e5c37fcc4"},"vehicle_type_id":"4","last_reported":1701778429,"current_range_meters":11600,"station_id":"ce4bh492rcd13ifvqdvg","pricing_plan_id":"free"},{"bike_id":"9b477abe-032b-4df7-953c-43522d51167b","system_id":"levelo_inurba_marseille","lat":43.296263,"lon":5.40601,"is_reserved":false,"is_disabled":false,"rental_uris":{"android":"levelo://app?vid=9b477abe-032b-4df7-953c-43522d51167b","ios":"levelo://app?vid=9b477abe-032b-4df7-953c-43522d51167b"},"vehicle_type_id":"4","last_reported":1701778429,"current_range_meters":12000,"station_id":"ce4bh0h2rcd13ifvqd60","pricing_plan_id":"free"},{"bike_id":"7fde9557-927e-40ba-9f91-e68d2efa9ac8","system_id":"levelo_inurba_marseille","lat":43.296263,"lon":5.40601,"is_reserved":false,"is_disabled":false,"rental_uris":{"android":"levelo://app?vid=7fde9557-927e-40ba-9f91-e68d2efa9ac8","ios":"levelo://app?vid=7fde9557-927e-40ba-9f91-e68d2efa9ac8"},"vehicle_type_id":"4","last_reported":1701778429,"current_range_meters":19200,"station_id":"ce4bh0h2rcd13ifvqd60","pricing_plan_id":"free"},{"bike_id":"93b42eae-55a4-4fe1-ad02-a671dc7c17ca","system_id":"levelo_inurba_marseille","lat":43.284462,"lon":5.392121,"is_reserved":false,"is_disabled":false,"rental_uris":{"android":"levelo://app?vid=93b42eae-55a4-4fe1-ad02-a671dc7c17ca","ios":"levelo://app?vid=93b42eae-55a4-4fe1-ad02-a671dc7c17ca"},"vehicle_type_id":"4","last_reported":1701778429,"current_range_meters":20000,"station_id":"ce4bhoh2rcd13ifvqh5g","pricing_plan_id":"free"},{"bike_id":"efb5fe83-e3e3-4add-8540-6e61e1a847bb","system_id":"levelo_inurba_marseille","lat":43.3266,"lon":5.40981,"is_reserved":false,"is_disabled":false,"rental_uris":{"android":"levelo://app?vid=efb5fe83-e3e3-4add-8540-6e61e1a847bb","ios":"levelo://app?vid=efb5fe83-e3e3-4add-8540-6e61e1a847bb"},"vehicle_type_id":"4","last_reported":1701778429,"current_range_meters":24400,"station_id":"ce4bhpp2rcd13ifvqhgg","pricing_plan_id":"free"},{"bike_id":"be2777a6-ea6e-46dd-bb90-1098e5347070","system_id":"levelo_inurba_marseille","lat":43.326605,"lon":5.409903,"is_reserved":false,"is_disabled":false,"rental_uris":{"android":"levelo://app?vid=be2777a6-ea6e-46dd-bb90-1098e5347070","ios":"levelo://app?vid=be2777a6-ea6e-46dd-bb90-1098e5347070"},"vehicle_type_id":"4","last_reported":1701778429,"current_range_meters":24400,"station_id":"ce4bhpp2rcd13ifvqhgg","pricing_plan_id":"free"},{"bike_id":"876d825d-f1ec-4536-a5f9-fcc306417330","system_id":"levelo_inurba_marseille","lat":43.326605,"lon":5.409903,"is_reserved":false,"is_disabled":false,"rental_uris":{"android":"levelo://app?vid=876d825d-f1ec-4536-a5f9-fcc306417330","ios":"levelo://app?vid=876d825d-f1ec-4536-a5f9-fcc306417330"},"vehicle_type_id":"4","last_reported":1701778429,"current_range_meters":18000,"station_id":"ce4bhpp2rcd13ifvqhgg","pricing_plan_id":"free"},{"bike_id":"fc0f01ba-69ed-479b-9e65-f39483a15901","system_id":"levelo_inurba_marseille","lat":43.326605,"lon":5.409903,"is_reserved":false,"is_disabled":false,"rental_uris":{"android":"levelo://app?vid=fc0f01ba-69ed-479b-9e65-f39483a15901","ios":"levelo://app?vid=fc0f01ba-69ed-479b-9e65-f39483a15901"},"vehicle_type_id":"4","last_reported":1701778429,"current_range_meters":23200,"station_id":"ce4bhpp2rcd13ifvqhgg","pricing_plan_id":"free"},{"bike_id":"f98eb9e4-5fdc-4141-b98b-ce396fedd7e2","system_id":"levelo_inurba_marseille","lat":43.304188,"lon":5.412904,"is_reserved":false,"is_disabled":false,"rental_uris":{"android":"levelo://app?vid=f98eb9e4-5fdc-4141-b98b-ce396fedd7e2","ios":"levelo://app?vid=f98eb9e4-5fdc-4141-b98b-ce396fedd7e2"},"vehicle_type_id":"4","last_reported":1701778429,"current_range_meters":16400,"station_id":"ce4bhop2rcd13ifvqh8g","pricing_plan_id":"free"},{"bike_id":"db1e34a2-e8e5-40af-bdd4-f039b6c5bb1d","system_id":"levelo_inurba_marseille","lat":43.320045,"lon":5.415048,"is_reserved":false,"is_disabled":false,"rental_uris":{"android":"levelo://app?vid=db1e34a2-e8e5-40af-bdd4-f039b6c5bb1d","ios":"levelo://app?vid=db1e34a2-e8e5-40af-bdd4-f039b6c5bb1d"},"vehicle_type_id":"4","last_reported":1701778429,"current_range_meters":13600,"station_id":"ce4bhq92rcd13ifvqhkg","pricing_plan_id":"free"},{"bike_id":"8349a74c-cc94-4bee-81c3-40945970fc14","system_id":"levelo_inurba_marseille","lat":43.292569,"lon":5.409107,"is_reserved":false,"is_disabled":false,"rental_uris":{"android":"levelo://app?vid=8349a74c-cc94-4bee-81c3-40945970fc14","ios":"levelo://app?vid=8349a74c-cc94-4bee-81c3-40945970fc14"},"vehicle_type_id":"4","last_reported":1701778429,"current_range_meters":20000,"station_id":"ce4bh192rcd13ifvqdc0","pricing_plan_id":"free"},{"bike_id":"a7d7646d-a533-4eba-8285-55642225e828","system_id":"levelo_inurba_marseille","lat":43.292569,"lon":5.409107,"is_reserved":false,"is_disabled":false,"rental_uris":{"android":"levelo://app?vid=a7d7646d-a533-4eba-8285-55642225e828","ios":"levelo://app?vid=a7d7646d-a533-4eba-8285-55642225e828"},"vehicle_type_id":"4","last_reported":1701778429,"current_range_meters":27200,"station_id":"ce4bh192rcd13ifvqdc0","pricing_plan_id":"free"},{"bike_id":"a5936a09-cb26-4642-981a-965e4e7ddcb4","system_id":"levelo_inurba_marseille","lat":43.32541,"lon":5.41439,"is_reserved":false,"is_disabled":false,"rental_uris":{"android":"levelo://app?vid=a5936a09-cb26-4642-981a-965e4e7ddcb4","ios":"levelo://app?vid=a5936a09-cb26-4642-981a-965e4e7ddcb4"},"vehicle_type_id":"4","last_reported":1701778429,"current_range_meters":28400,"station_id":"ce4bhq12rcd13ifvqhhg","pricing_plan_id":"free"},{"bike_id":"c47a3a40-66b7-4748-bdfd-50326ef0015a","system_id":"levelo_inurba_marseille","lat":43.276179,"lon":5.361009,"is_reserved":false,"is_disabled":false,"rental_uris":{"android":"levelo://app?vid=c47a3a40-66b7-4748-bdfd-50326ef0015a","ios":"levelo://app?vid=c47a3a40-66b7-4748-bdfd-50326ef0015a"},"vehicle_type_id":"4","last_reported":1701778429,"current_range_meters":8400,"station_id":"ce4bgj92rcd13ifvqbe0","pricing_plan_id":"free"},{"bike_id":"a6c2a5fb-786a-47ae-9479-ecbe950d5895","system_id":"levelo_inurba_marseille","lat":43.276179,"lon":5.361009,"is_reserved":false,"is_disabled":false,"rental_uris":{"android":"levelo://app?vid=a6c2a5fb-786a-47ae-9479-ecbe950d5895","ios":"levelo://app?vid=a6c2a5fb-786a-47ae-9479-ecbe950d5895"},"vehicle_type_id":"4","last_reported":1701778429,"current_range_meters":24800,"station_id":"ce4bgj92rcd13ifvqbe0","pricing_plan_id":"free"},{"bike_id":"e7422ad5-d028-47ff-b59b-5a9483e8e396","system_id":"levelo_inurba_marseille","lat":43.278399,"lon":5.392139,"is_reserved":false,"is_disabled":false,"rental_uris":{"android":"levelo://app?vid=e7422ad5-d028-47ff-b59b-5a9483e8e396","ios":"levelo://app?vid=e7422ad5-d028-47ff-b59b-5a9483e8e396"},"vehicle_type_id":"4","last_reported":1701778429,"current_range_meters":30800,"station_id":"ce4bhjp2rcd13ifvqga0","pricing_plan_id":"free"},{"bike_id":"1258299f-d7e4-429c-a530-9c376d622f15","system_id":"levelo_inurba_marseille","lat":43.33612,"lon":5.410321,"is_reserved":false,"is_disabled":false,"rental_uris":{"android":"levelo://app?vid=1258299f-d7e4-429c-a530-9c376d622f15","ios":"levelo://app?vid=1258299f-d7e4-429c-a530-9c376d622f15"},"vehicle_type_id":"4","last_reported":1701778429,"current_range_meters":31200,"station_id":"ce4bhqh2rcd13ifvqhmg","pricing_plan_id":"free"},{"bike_id":"63601069-f29c-4b18-9965-8a1788ef7d0c","system_id":"levelo_inurba_marseille","lat":43.273609,"lon":5.362708,"is_reserved":false,"is_disabled":false,"rental_uris":{"android":"levelo://app?vid=63601069-f29c-4b18-9965-8a1788ef7d0c","ios":"levelo://app?vid=63601069-f29c-4b18-9965-8a1788ef7d0c"},"vehicle_type_id":"4","last_reported":1701778429,"current_range_meters":1600,"station_id":"ce4bhbh2rcd13ifvqeo0","pricing_plan_id":"free"},{"bike_id":"bc0a5789-4d28-49b5-b0aa-690d5a8ac681","system_id":"levelo_inurba_marseille","lat":43.273613,"lon":5.362705,"is_reserved":false,"is_disabled":false,"rental_uris":{"android":"levelo://app?vid=bc0a5789-4d28-49b5-b0aa-690d5a8ac681","ios":"levelo://app?vid=bc0a5789-4d28-49b5-b0aa-690d5a8ac681"},"vehicle_type_id":"4","last_reported":1701778429,"current_range_meters":30800,"station_id":"ce4bhbh2rcd13ifvqeo0","pricing_plan_id":"free"},{"bike_id":"671fb5f1-2a82-4780-a5b0-30c24b7c7c9c","system_id":"levelo_inurba_marseille","lat":43.336047,"lon":5.410217,"is_reserved":false,"is_disabled":false,"rental_uris":{"android":"levelo://app?vid=671fb5f1-2a82-4780-a5b0-30c24b7c7c9c","ios":"levelo://app?vid=671fb5f1-2a82-4780-a5b0-30c24b7c7c9c"},"vehicle_type_id":"4","last_reported":1701778429,"current_range_meters":31200,"station_id":"ce4bhqh2rcd13ifvqhmg","pricing_plan_id":"free"},{"bike_id":"8a47b020-aa5b-4cc3-8211-b16e6ca47a88","system_id":"levelo_inurba_marseille","lat":43.336148,"lon":5.410349,"is_reserved":false,"is_disabled":false,"rental_uris":{"android":"levelo://app?vid=8a47b020-aa5b-4cc3-8211-b16e6ca47a88","ios":"levelo://app?vid=8a47b020-aa5b-4cc3-8211-b16e6ca47a88"},"vehicle_type_id":"4","last_reported":1701778429,"current_range_meters":2000,"station_id":"ce4bhqh2rcd13ifvqhmg","pricing_plan_id":"free"},{"bike_id":"08678b78-097b-4632-bd32-20790a62dc4c","system_id":"levelo_inurba_marseille","lat":43.27555,"lon":5.38418,"is_reserved":false,"is_disabled":false,"rental_uris":{"android":"levelo://app?vid=08678b78-097b-4632-bd32-20790a62dc4c","ios":"levelo://app?vid=08678b78-097b-4632-bd32-20790a62dc4c"},"vehicle_type_id":"4","last_reported":1701778429,"current_range_meters":0,"station_id":"ce4bhh92rcd13ifvqfi0","pricing_plan_id":"free"},{"bike_id":"4e82e8fe-efe4-4055-9952-cf9ff8ef7567","system_id":"levelo_inurba_marseille","lat":43.33612,"lon":5.410321,"is_reserved":false,"is_disabled":false,"rental_uris":{"android":"levelo://app?vid=4e82e8fe-efe4-4055-9952-cf9ff8ef7567","ios":"levelo://app?vid=4e82e8fe-efe4-4055-9952-cf9ff8ef7567"},"vehicle_type_id":"4","last_reported":1701778429,"current_range_meters":13600,"station_id":"ce4bhqh2rcd13ifvqhmg","pricing_plan_id":"free"},{"bike_id":"6dee21f9-0077-4751-a68d-f121846d4b85","system_id":"levelo_inurba_marseille","lat":43.336134,"lon":5.410341,"is_reserved":false,"is_disabled":false,"rental_uris":{"android":"levelo://app?vid=6dee21f9-0077-4751-a68d-f121846d4b85","ios":"levelo://app?vid=6dee21f9-0077-4751-a68d-f121846d4b85"},"vehicle_type_id":"4","last_reported":1701778429,"current_range_meters":10400,"station_id":"ce4bhqh2rcd13ifvqhmg","pricing_plan_id":"free"},{"bike_id":"2b4b5227-7f75-4606-8538-80a8d3038e52","system_id":"levelo_inurba_marseille","lat":43.340804,"lon":5.410219,"is_reserved":false,"is_disabled":false,"rental_uris":{"android":"levelo://app?vid=2b4b5227-7f75-4606-8538-80a8d3038e52","ios":"levelo://app?vid=2b4b5227-7f75-4606-8538-80a8d3038e52"},"vehicle_type_id":"4","last_reported":1701778429,"current_range_meters":20400,"station_id":"ce4bhqh2rcd13ifvqhlg","pricing_plan_id":"free"},{"bike_id":"4f4e5d52-124e-4276-8af2-2d2503944d2e","system_id":"levelo_inurba_marseille","lat":43.340804,"lon":5.410219,"is_reserved":false,"is_disabled":false,"rental_uris":{"android":"levelo://app?vid=4f4e5d52-124e-4276-8af2-2d2503944d2e","ios":"levelo://app?vid=4f4e5d52-124e-4276-8af2-2d2503944d2e"},"vehicle_type_id":"4","last_reported":1701778429,"current_range_meters":31600,"station_id":"ce4bhqh2rcd13ifvqhlg","pricing_plan_id":"free"},{"bike_id":"c5e2d489-64a7-4b1d-90c3-714ee1643fb3","system_id":"levelo_inurba_marseille","lat":43.340804,"lon":5.410219,"is_reserved":false,"is_disabled":false,"rental_uris":{"android":"levelo://app?vid=c5e2d489-64a7-4b1d-90c3-714ee1643fb3","ios":"levelo://app?vid=c5e2d489-64a7-4b1d-90c3-714ee1643fb3"},"vehicle_type_id":"4","last_reported":1701778429,"current_range_meters":29200,"station_id":"ce4bhqh2rcd13ifvqhlg","pricing_plan_id":"free"},{"bike_id":"16157153-85f0-4b89-ba4e-76c2768de1a5","system_id":"levelo_inurba_marseille","lat":43.340804,"lon":5.410219,"is_reserved":false,"is_disabled":false,"rental_uris":{"android":"levelo://app?vid=16157153-85f0-4b89-ba4e-76c2768de1a5","ios":"levelo://app?vid=16157153-85f0-4b89-ba4e-76c2768de1a5"},"vehicle_type_id":"4","last_reported":1701778429,"current_range_meters":30800,"station_id":"ce4bhqh2rcd13ifvqhlg","pricing_plan_id":"free"},{"bike_id":"910fd3aa-d2e0-4553-894a-6161d41c7fcd","system_id":"levelo_inurba_marseille","lat":43.275801,"lon":5.395314,"is_reserved":false,"is_disabled":false,"rental_uris":{"android":"levelo://app?vid=910fd3aa-d2e0-4553-894a-6161d41c7fcd","ios":"levelo://app?vid=910fd3aa-d2e0-4553-894a-6161d41c7fcd"},"vehicle_type_id":"4","last_reported":1701778429,"current_range_meters":6400,"station_id":"","pricing_plan_id":"free"},{"bike_id":"8834434a-9c82-4d22-8468-bc4bfcddaa52","system_id":"levelo_inurba_marseille","lat":43.310785,"lon":5.424305,"is_reserved":false,"is_disabled":false,"rental_uris":{"android":"levelo://app?vid=8834434a-9c82-4d22-8468-bc4bfcddaa52","ios":"levelo://app?vid=8834434a-9c82-4d22-8468-bc4bfcddaa52"},"vehicle_type_id":"4","last_reported":1701778429,"current_range_meters":16000,"station_id":"ce4bhp92rcd13ifvqhag","pricing_plan_id":"free"},{"bike_id":"859d7ec7-684f-4249-96cc-164a9ac7874a","system_id":"levelo_inurba_marseille","lat":43.304096,"lon":5.425385,"is_reserved":false,"is_disabled":false,"rental_uris":{"android":"levelo://app?vid=859d7ec7-684f-4249-96cc-164a9ac7874a","ios":"levelo://app?vid=859d7ec7-684f-4249-96cc-164a9ac7874a"},"vehicle_type_id":"4","last_reported":1701778429,"current_range_meters":22400,"station_id":"ce4bhoh2rcd13ifvqh6g","pricing_plan_id":"free"},{"bike_id":"6b1e9140-7af3-4671-93c4-d7b03c10a75d","system_id":"levelo_inurba_marseille","lat":43.304088,"lon":5.425388,"is_reserved":false,"is_disabled":false,"rental_uris":{"android":"levelo://app?vid=6b1e9140-7af3-4671-93c4-d7b03c10a75d","ios":"levelo://app?vid=6b1e9140-7af3-4671-93c4-d7b03c10a75d"},"vehicle_type_id":"4","last_reported":1701778429,"current_range_meters":23200,"station_id":"ce4bhoh2rcd13ifvqh6g","pricing_plan_id":"free"},{"bike_id":"660c308c-d963-4181-b619-16f149b2e918","system_id":"levelo_inurba_marseille","lat":43.295511,"lon":5.422926,"is_reserved":false,"is_disabled":false,"rental_uris":{"android":"levelo://app?vid=660c308c-d963-4181-b619-16f149b2e918","ios":"levelo://app?vid=660c308c-d963-4181-b619-16f149b2e918"},"vehicle_type_id":"4","last_reported":1701778429,"current_range_meters":30400,"station_id":"ce4bhph2rcd13ifvqhdg","pricing_plan_id":"free"},{"bike_id":"52680e6a-ea24-44da-a67d-c5a7fc620f21","system_id":"levelo_inurba_marseille","lat":43.272124,"lon":5.391768,"is_reserved":false,"is_disabled":false,"rental_uris":{"android":"levelo://app?vid=52680e6a-ea24-44da-a67d-c5a7fc620f21","ios":"levelo://app?vid=52680e6a-ea24-44da-a67d-c5a7fc620f21"},"vehicle_type_id":"4","last_reported":1701778429,"current_range_meters":19200,"station_id":"ce4bhhp2rcd13ifvqfm0","pricing_plan_id":"free"},{"bike_id":"047942e5-ef64-44e7-ac49-66ebb4011af0","system_id":"levelo_inurba_marseille","lat":43.272124,"lon":5.391768,"is_reserved":false,"is_disabled":false,"rental_uris":{"android":"levelo://app?vid=047942e5-ef64-44e7-ac49-66ebb4011af0","ios":"levelo://app?vid=047942e5-ef64-44e7-ac49-66ebb4011af0"},"vehicle_type_id":"4","last_reported":1701778429,"current_range_meters":21200,"station_id":"ce4bhhp2rcd13ifvqfm0","pricing_plan_id":"free"},{"bike_id":"d0e128a0-d0b1-4807-bdc2-47a21a9104c1","system_id":"levelo_inurba_marseille","lat":43.272124,"lon":5.391768,"is_reserved":false,"is_disabled":false,"rental_uris":{"android":"levelo://app?vid=d0e128a0-d0b1-4807-bdc2-47a21a9104c1","ios":"levelo://app?vid=d0e128a0-d0b1-4807-bdc2-47a21a9104c1"},"vehicle_type_id":"4","last_reported":1701778429,"current_range_meters":5600,"station_id":"ce4bhhp2rcd13ifvqfm0","pricing_plan_id":"free"},{"bike_id":"4aaafaa4-5992-4d41-aca4-45ea537c3e9e","system_id":"levelo_inurba_marseille","lat":43.27214,"lon":5.3925,"is_reserved":false,"is_disabled":false,"rental_uris":{"android":"levelo://app?vid=4aaafaa4-5992-4d41-aca4-45ea537c3e9e","ios":"levelo://app?vid=4aaafaa4-5992-4d41-aca4-45ea537c3e9e"},"vehicle_type_id":"4","last_reported":1701778429,"current_range_meters":17200,"station_id":"","pricing_plan_id":"free"},{"bike_id":"17db11e9-ff6b-4265-a772-9fca0f8a787a","system_id":"levelo_inurba_marseille","lat":43.28156,"lon":5.41185,"is_reserved":false,"is_disabled":false,"rental_uris":{"android":"levelo://app?vid=17db11e9-ff6b-4265-a772-9fca0f8a787a","ios":"levelo://app?vid=17db11e9-ff6b-4265-a772-9fca0f8a787a"},"vehicle_type_id":"4","last_reported":1701778429,"current_range_meters":10800,"station_id":"","pricing_plan_id":"free"},{"bike_id":"fc312a70-182f-4354-9291-4a3b103c7ac0","system_id":"levelo_inurba_marseille","lat":43.269319,"lon":5.389397,"is_reserved":false,"is_disabled":false,"rental_uris":{"android":"levelo://app?vid=fc312a70-182f-4354-9291-4a3b103c7ac0","ios":"levelo://app?vid=fc312a70-182f-4354-9291-4a3b103c7ac0"},"vehicle_type_id":"4","last_reported":1701778429,"current_range_meters":4800,"station_id":"ce4bhhh2rcd13ifvqfl0","pricing_plan_id":"free"},{"bike_id":"f6e02bb4-0506-4f5f-a0d2-6f95424fa1c5","system_id":"levelo_inurba_marseille","lat":43.26558,"lon":5.37284,"is_reserved":false,"is_disabled":false,"rental_uris":{"android":"levelo://app?vid=f6e02bb4-0506-4f5f-a0d2-6f95424fa1c5","ios":"levelo://app?vid=f6e02bb4-0506-4f5f-a0d2-6f95424fa1c5"},"vehicle_type_id":"4","last_reported":1701778429,"current_range_meters":2400,"station_id":"ce4bhg12rcd13ifvqf70","pricing_plan_id":"free"},{"bike_id":"6a3e8968-1837-494c-9dff-07e792ffca68","system_id":"levelo_inurba_marseille","lat":43.26779,"lon":5.39415,"is_reserved":false,"is_disabled":false,"rental_uris":{"android":"levelo://app?vid=6a3e8968-1837-494c-9dff-07e792ffca68","ios":"levelo://app?vid=6a3e8968-1837-494c-9dff-07e792ffca68"},"vehicle_type_id":"4","last_reported":1701778429,"current_range_meters":6800,"station_id":"ce4bhh12rcd13ifvqfg0","pricing_plan_id":"free"},{"bike_id":"c5d4a784-a569-4a14-8b4d-4a699e691b7c","system_id":"levelo_inurba_marseille","lat":43.308051,"lon":5.43527,"is_reserved":false,"is_disabled":false,"rental_uris":{"android":"levelo://app?vid=c5d4a784-a569-4a14-8b4d-4a699e691b7c","ios":"levelo://app?vid=c5d4a784-a569-4a14-8b4d-4a699e691b7c"},"vehicle_type_id":"4","last_reported":1701778429,"current_range_meters":23200,"station_id":"ce4bhph2rcd13ifvqheg","pricing_plan_id":"free"},{"bike_id":"f46c6dd2-71b0-4e0c-bcf9-3ac341b75700","system_id":"levelo_inurba_marseille","lat":43.265569,"lon":5.390047,"is_reserved":false,"is_disabled":false,"rental_uris":{"android":"levelo://app?vid=f46c6dd2-71b0-4e0c-bcf9-3ac341b75700","ios":"levelo://app?vid=f46c6dd2-71b0-4e0c-bcf9-3ac341b75700"},"vehicle_type_id":"4","last_reported":1701778429,"current_range_meters":0,"station_id":"ce4bhe12rcd13ifvqf30","pricing_plan_id":"free"},{"bike_id":"cf932d2f-4289-4b7b-8617-28451ba9c738","system_id":"levelo_inurba_marseille","lat":43.26202,"lon":5.379299,"is_reserved":false,"is_disabled":false,"rental_uris":{"android":"levelo://app?vid=cf932d2f-4289-4b7b-8617-28451ba9c738","ios":"levelo://app?vid=cf932d2f-4289-4b7b-8617-28451ba9c738"},"vehicle_type_id":"4","last_reported":1701778429,"current_range_meters":18000,"station_id":"ce4bhjp2rcd13ifvqg90","pricing_plan_id":"free"},{"bike_id":"893b2ac6-4c6b-4863-9ca8-ac20559a7a5d","system_id":"levelo_inurba_marseille","lat":43.271368,"lon":5.40928,"is_reserved":false,"is_disabled":false,"rental_uris":{"android":"levelo://app?vid=893b2ac6-4c6b-4863-9ca8-ac20559a7a5d","ios":"levelo://app?vid=893b2ac6-4c6b-4863-9ca8-ac20559a7a5d"},"vehicle_type_id":"4","last_reported":1701778429,"current_range_meters":25200,"station_id":"ce4bhl12rcd13ifvqgf0","pricing_plan_id":"free"},{"bike_id":"832bbf83-f612-426a-a9a9-4ed9c874c863","system_id":"levelo_inurba_marseille","lat":43.267959,"lon":5.402687,"is_reserved":false,"is_disabled":false,"rental_uris":{"android":"levelo://app?vid=832bbf83-f612-426a-a9a9-4ed9c874c863","ios":"levelo://app?vid=832bbf83-f612-426a-a9a9-4ed9c874c863"},"vehicle_type_id":"4","last_reported":1701778429,"current_range_meters":24400,"station_id":"ce501612rcd8frsf0b60","pricing_plan_id":"free"},{"bike_id":"c54cd023-a6f2-4d68-aabc-4be9f862ccbb","system_id":"levelo_inurba_marseille","lat":43.298768,"lon":5.43643,"is_reserved":false,"is_disabled":false,"rental_uris":{"android":"levelo://app?vid=c54cd023-a6f2-4d68-aabc-4be9f862ccbb","ios":"levelo://app?vid=c54cd023-a6f2-4d68-aabc-4be9f862ccbb"},"vehicle_type_id":"4","last_reported":1701778429,"current_range_meters":26000,"station_id":"ce4bhpp2rcd13ifvqhfg","pricing_plan_id":"free"},{"bike_id":"e68ab6f0-24dc-4bed-ae8b-4719433808b4","system_id":"levelo_inurba_marseille","lat":43.281548,"lon":5.42643,"is_reserved":false,"is_disabled":false,"rental_uris":{"android":"levelo://app?vid=e68ab6f0-24dc-4bed-ae8b-4719433808b4","ios":"levelo://app?vid=e68ab6f0-24dc-4bed-ae8b-4719433808b4"},"vehicle_type_id":"4","last_reported":1701778429,"current_range_meters":30000,"station_id":"ce4bhnh2rcd13ifvqgug","pricing_plan_id":"free"},{"bike_id":"ccfb6374-efd8-4e8a-8ce5-22095db70bda","system_id":"levelo_inurba_marseille","lat":43.281548,"lon":5.42643,"is_reserved":false,"is_disabled":false,"rental_uris":{"android":"levelo://app?vid=ccfb6374-efd8-4e8a-8ce5-22095db70bda","ios":"levelo://app?vid=ccfb6374-efd8-4e8a-8ce5-22095db70bda"},"vehicle_type_id":"4","last_reported":1701778429,"current_range_meters":20000,"station_id":"ce4bhnh2rcd13ifvqgug","pricing_plan_id":"free"},{"bike_id":"c6f044ff-789e-4833-ab97-b5bb5727e969","system_id":"levelo_inurba_marseille","lat":43.281548,"lon":5.42643,"is_reserved":false,"is_disabled":false,"rental_uris":{"android":"levelo://app?vid=c6f044ff-789e-4833-ab97-b5bb5727e969","ios":"levelo://app?vid=c6f044ff-789e-4833-ab97-b5bb5727e969"},"vehicle_type_id":"4","last_reported":1701778429,"current_range_meters":10000,"station_id":"ce4bhnh2rcd13ifvqgug","pricing_plan_id":"free"},{"bike_id":"ba79533f-8afa-4a18-8c7e-e0778a812000","system_id":"levelo_inurba_marseille","lat":43.2607,"lon":5.393983,"is_reserved":false,"is_disabled":false,"rental_uris":{"android":"levelo://app?vid=ba79533f-8afa-4a18-8c7e-e0778a812000","ios":"levelo://app?vid=ba79533f-8afa-4a18-8c7e-e0778a812000"},"vehicle_type_id":"4","last_reported":1701778429,"current_range_meters":28800,"station_id":"ce4bhh92rcd13ifvqfj0","pricing_plan_id":"free"},{"bike_id":"93da9e28-965a-4b5c-8286-be3708316f04","system_id":"levelo_inurba_marseille","lat":43.275028,"lon":5.424534,"is_reserved":false,"is_disabled":false,"rental_uris":{"android":"levelo://app?vid=93da9e28-965a-4b5c-8286-be3708316f04","ios":"levelo://app?vid=93da9e28-965a-4b5c-8286-be3708316f04"},"vehicle_type_id":"4","last_reported":1701778429,"current_range_meters":29600,"station_id":"ce4bhn92rcd13ifvqgrg","pricing_plan_id":"free"},{"bike_id":"e5610242-cf81-4886-bb77-93aee91b02d6","system_id":"levelo_inurba_marseille","lat":43.275028,"lon":5.424534,"is_reserved":false,"is_disabled":false,"rental_uris":{"android":"levelo://app?vid=e5610242-cf81-4886-bb77-93aee91b02d6","ios":"levelo://app?vid=e5610242-cf81-4886-bb77-93aee91b02d6"},"vehicle_type_id":"4","last_reported":1701778429,"current_range_meters":4800,"station_id":"ce4bhn92rcd13ifvqgrg","pricing_plan_id":"free"},{"bike_id":"691b9079-0770-43af-aa83-f2290bca892b","system_id":"levelo_inurba_marseille","lat":43.255756,"lon":5.382303,"is_reserved":false,"is_disabled":false,"rental_uris":{"android":"levelo://app?vid=691b9079-0770-43af-aa83-f2290bca892b","ios":"levelo://app?vid=691b9079-0770-43af-aa83-f2290bca892b"},"vehicle_type_id":"4","last_reported":1701778429,"current_range_meters":24800,"station_id":"ce4bhih2rcd13ifvqfs0","pricing_plan_id":"free"},{"bike_id":"8fd00fe8-be8f-47e5-8787-f2091c48ddd8","system_id":"levelo_inurba_marseille","lat":43.255756,"lon":5.382303,"is_reserved":false,"is_disabled":false,"rental_uris":{"android":"levelo://app?vid=8fd00fe8-be8f-47e5-8787-f2091c48ddd8","ios":"levelo://app?vid=8fd00fe8-be8f-47e5-8787-f2091c48ddd8"},"vehicle_type_id":"4","last_reported":1701778429,"current_range_meters":16800,"station_id":"ce4bhih2rcd13ifvqfs0","pricing_plan_id":"free"},{"bike_id":"0c8af203-d673-474c-840b-33000aa98c3d","system_id":"levelo_inurba_marseille","lat":43.255756,"lon":5.382303,"is_reserved":false,"is_disabled":false,"rental_uris":{"android":"levelo://app?vid=0c8af203-d673-474c-840b-33000aa98c3d","ios":"levelo://app?vid=0c8af203-d673-474c-840b-33000aa98c3d"},"vehicle_type_id":"4","last_reported":1701778429,"current_range_meters":22000,"station_id":"ce4bhih2rcd13ifvqfs0","pricing_plan_id":"free"},{"bike_id":"9cf0bb24-deeb-4ace-b255-3d4b5d796cdf","system_id":"levelo_inurba_marseille","lat":43.2479,"lon":5.374457,"is_reserved":false,"is_disabled":false,"rental_uris":{"android":"levelo://app?vid=9cf0bb24-deeb-4ace-b255-3d4b5d796cdf","ios":"levelo://app?vid=9cf0bb24-deeb-4ace-b255-3d4b5d796cdf"},"vehicle_type_id":"4","last_reported":1701778429,"current_range_meters":31200,"station_id":"ce4bhgh2rcd13ifvqfb0","pricing_plan_id":"free"},{"bike_id":"0c5dd37f-06ef-4b2a-8f04-7e748e11872f","system_id":"levelo_inurba_marseille","lat":43.257265,"lon":5.411057,"is_reserved":false,"is_disabled":false,"rental_uris":{"android":"levelo://app?vid=0c5dd37f-06ef-4b2a-8f04-7e748e11872f","ios":"levelo://app?vid=0c5dd37f-06ef-4b2a-8f04-7e748e11872f"},"vehicle_type_id":"4","last_reported":1701778429,"current_range_meters":18800,"station_id":"ce4bhkp2rcd13ifvqgd0","pricing_plan_id":"free"},{"bike_id":"6d89ba26-a018-4503-8bc7-0e2707c2382b","system_id":"levelo_inurba_marseille","lat":43.25722,"lon":5.41105,"is_reserved":false,"is_disabled":false,"rental_uris":{"android":"levelo://app?vid=6d89ba26-a018-4503-8bc7-0e2707c2382b","ios":"levelo://app?vid=6d89ba26-a018-4503-8bc7-0e2707c2382b"},"vehicle_type_id":"4","last_reported":1701778429,"current_range_meters":5200,"station_id":"ce4bhkp2rcd13ifvqgd0","pricing_plan_id":"free"},{"bike_id":"908b18e5-f3a0-4189-9b52-ad5820ca1297","system_id":"levelo_inurba_marseille","lat":43.25721,"lon":5.41108,"is_reserved":false,"is_disabled":false,"rental_uris":{"android":"levelo://app?vid=908b18e5-f3a0-4189-9b52-ad5820ca1297","ios":"levelo://app?vid=908b18e5-f3a0-4189-9b52-ad5820ca1297"},"vehicle_type_id":"4","last_reported":1701778429,"current_range_meters":13200,"station_id":"ce4bhkp2rcd13ifvqgd0","pricing_plan_id":"free"},{"bike_id":"9d46e448-6e32-41d0-8903-9aa80a2a6d3a","system_id":"levelo_inurba_marseille","lat":43.2479,"lon":5.374457,"is_reserved":false,"is_disabled":false,"rental_uris":{"android":"levelo://app?vid=9d46e448-6e32-41d0-8903-9aa80a2a6d3a","ios":"levelo://app?vid=9d46e448-6e32-41d0-8903-9aa80a2a6d3a"},"vehicle_type_id":"4","last_reported":1701778429,"current_range_meters":22000,"station_id":"ce4bhgh2rcd13ifvqfb0","pricing_plan_id":"free"},{"bike_id":"fcf1fa6a-e33d-462b-ab51-649de336b58b","system_id":"levelo_inurba_marseille","lat":43.25083,"lon":5.3951,"is_reserved":false,"is_disabled":false,"rental_uris":{"android":"levelo://app?vid=fcf1fa6a-e33d-462b-ab51-649de336b58b","ios":"levelo://app?vid=fcf1fa6a-e33d-462b-ab51-649de336b58b"},"vehicle_type_id":"4","last_reported":1701778429,"current_range_meters":5200,"station_id":"ce4bhm12rcd13ifvqgkg","pricing_plan_id":"free"},{"bike_id":"92e7334c-a084-4e33-b666-5e3bb0c70082","system_id":"levelo_inurba_marseille","lat":43.250813,"lon":5.39513,"is_reserved":false,"is_disabled":false,"rental_uris":{"android":"levelo://app?vid=92e7334c-a084-4e33-b666-5e3bb0c70082","ios":"levelo://app?vid=92e7334c-a084-4e33-b666-5e3bb0c70082"},"vehicle_type_id":"4","last_reported":1701778429,"current_range_meters":25200,"station_id":"ce4bhm12rcd13ifvqgkg","pricing_plan_id":"free"},{"bike_id":"f89da2a0-9961-4b35-bbe7-4227980ab0fc","system_id":"levelo_inurba_marseille","lat":43.250966,"lon":5.395186,"is_reserved":false,"is_disabled":false,"rental_uris":{"android":"levelo://app?vid=f89da2a0-9961-4b35-bbe7-4227980ab0fc","ios":"levelo://app?vid=f89da2a0-9961-4b35-bbe7-4227980ab0fc"},"vehicle_type_id":"4","last_reported":1701778429,"current_range_meters":30400,"station_id":"ce4bhm12rcd13ifvqgkg","pricing_plan_id":"free"},{"bike_id":"5923cf95-5cfc-4945-9d02-b21fb4ef7a73","system_id":"levelo_inurba_marseille","lat":43.246622,"lon":5.381632,"is_reserved":false,"is_disabled":false,"rental_uris":{"android":"levelo://app?vid=5923cf95-5cfc-4945-9d02-b21fb4ef7a73","ios":"levelo://app?vid=5923cf95-5cfc-4945-9d02-b21fb4ef7a73"},"vehicle_type_id":"4","last_reported":1701778429,"current_range_meters":0,"station_id":"ce4bhih2rcd13ifvqfr0","pricing_plan_id":"free"},{"bike_id":"a7aa65c6-1489-4376-8587-5bccddc17a4b","system_id":"levelo_inurba_marseille","lat":43.24693,"lon":5.382096,"is_reserved":false,"is_disabled":false,"rental_uris":{"android":"levelo://app?vid=a7aa65c6-1489-4376-8587-5bccddc17a4b","ios":"levelo://app?vid=a7aa65c6-1489-4376-8587-5bccddc17a4b"},"vehicle_type_id":"4","last_reported":1701778429,"current_range_meters":20400,"station_id":"ce4bhih2rcd13ifvqfr0","pricing_plan_id":"free"},{"bike_id":"cb4e4086-8219-4fba-88c1-0e944da0b150","system_id":"levelo_inurba_marseille","lat":43.25102,"lon":5.403214,"is_reserved":false,"is_disabled":false,"rental_uris":{"android":"levelo://app?vid=cb4e4086-8219-4fba-88c1-0e944da0b150","ios":"levelo://app?vid=cb4e4086-8219-4fba-88c1-0e944da0b150"},"vehicle_type_id":"4","last_reported":1701778429,"current_range_meters":24400,"station_id":"ce4bhlh2rcd13ifvqgig","pricing_plan_id":"free"},{"bike_id":"ab533dad-8d79-447c-aa75-36b06a25f940","system_id":"levelo_inurba_marseille","lat":43.24693,"lon":5.382096,"is_reserved":false,"is_disabled":false,"rental_uris":{"android":"levelo://app?vid=ab533dad-8d79-447c-aa75-36b06a25f940","ios":"levelo://app?vid=ab533dad-8d79-447c-aa75-36b06a25f940"},"vehicle_type_id":"4","last_reported":1701778429,"current_range_meters":8000,"station_id":"ce4bhih2rcd13ifvqfr0","pricing_plan_id":"free"},{"bike_id":"5ae3db74-75b3-4023-87be-98d4844d31d1","system_id":"levelo_inurba_marseille","lat":43.25102,"lon":5.403214,"is_reserved":false,"is_disabled":false,"rental_uris":{"android":"levelo://app?vid=5ae3db74-75b3-4023-87be-98d4844d31d1","ios":"levelo://app?vid=5ae3db74-75b3-4023-87be-98d4844d31d1"},"vehicle_type_id":"4","last_reported":1701778429,"current_range_meters":7600,"station_id":"ce4bhlh2rcd13ifvqgig","pricing_plan_id":"free"},{"bike_id":"243cee38-8933-4e60-b545-9140b584a65d","system_id":"levelo_inurba_marseille","lat":43.243884,"lon":5.370736,"is_reserved":false,"is_disabled":false,"rental_uris":{"android":"levelo://app?vid=243cee38-8933-4e60-b545-9140b584a65d","ios":"levelo://app?vid=243cee38-8933-4e60-b545-9140b584a65d"},"vehicle_type_id":"4","last_reported":1701778429,"current_range_meters":28000,"station_id":"ce4bhhh2rcd13ifvqfk0","pricing_plan_id":"free"},{"bike_id":"678bebca-3e53-476d-b0ac-84fd767b79db","system_id":"levelo_inurba_marseille","lat":43.245581,"lon":5.395069,"is_reserved":false,"is_disabled":false,"rental_uris":{"android":"levelo://app?vid=678bebca-3e53-476d-b0ac-84fd767b79db","ios":"levelo://app?vid=678bebca-3e53-476d-b0ac-84fd767b79db"},"vehicle_type_id":"4","last_reported":1701778429,"current_range_meters":8400,"station_id":"ce4bhlp2rcd13ifvqgjg","pricing_plan_id":"free"},{"bike_id":"0315da7f-87fa-4055-b382-7d72c0daef10","system_id":"levelo_inurba_marseille","lat":43.24072,"lon":5.37761,"is_reserved":false,"is_disabled":false,"rental_uris":{"android":"levelo://app?vid=0315da7f-87fa-4055-b382-7d72c0daef10","ios":"levelo://app?vid=0315da7f-87fa-4055-b382-7d72c0daef10"},"vehicle_type_id":"4","last_reported":1701778429,"current_range_meters":28000,"station_id":"ce4bhnp2rcd13ifvqgvg","pricing_plan_id":"free"},{"bike_id":"9f98581c-8321-4518-8823-402c9ea0822f","system_id":"levelo_inurba_marseille","lat":43.24072,"lon":5.37761,"is_reserved":false,"is_disabled":false,"rental_uris":{"android":"levelo://app?vid=9f98581c-8321-4518-8823-402c9ea0822f","ios":"levelo://app?vid=9f98581c-8321-4518-8823-402c9ea0822f"},"vehicle_type_id":"4","last_reported":1701778429,"current_range_meters":10400,"station_id":"ce4bhnp2rcd13ifvqgvg","pricing_plan_id":"free"},{"bike_id":"8c28f869-8b27-4717-955f-eeabe389dff8","system_id":"levelo_inurba_marseille","lat":43.24071,"lon":5.37758,"is_reserved":false,"is_disabled":false,"rental_uris":{"android":"levelo://app?vid=8c28f869-8b27-4717-955f-eeabe389dff8","ios":"levelo://app?vid=8c28f869-8b27-4717-955f-eeabe389dff8"},"vehicle_type_id":"4","last_reported":1701778429,"current_range_meters":30400,"station_id":"ce4bhnp2rcd13ifvqgvg","pricing_plan_id":"free"},{"bike_id":"9f9eb382-f99a-4ffc-9842-b4408c41e05e","system_id":"levelo_inurba_marseille","lat":43.24071,"lon":5.377595,"is_reserved":false,"is_disabled":false,"rental_uris":{"android":"levelo://app?vid=9f9eb382-f99a-4ffc-9842-b4408c41e05e","ios":"levelo://app?vid=9f9eb382-f99a-4ffc-9842-b4408c41e05e"},"vehicle_type_id":"4","last_reported":1701778429,"current_range_meters":800,"station_id":"ce4bhnp2rcd13ifvqgvg","pricing_plan_id":"free"},{"bike_id":"2ac84801-0821-4fac-abed-f2686e6b71ef","system_id":"levelo_inurba_marseille","lat":43.24071,"lon":5.37761,"is_reserved":false,"is_disabled":false,"rental_uris":{"android":"levelo://app?vid=2ac84801-0821-4fac-abed-f2686e6b71ef","ios":"levelo://app?vid=2ac84801-0821-4fac-abed-f2686e6b71ef"},"vehicle_type_id":"4","last_reported":1701778429,"current_range_meters":9200,"station_id":"ce4bhnp2rcd13ifvqgvg","pricing_plan_id":"free"},{"bike_id":"e93d2c63-f14c-4faa-aae7-c435a0599ef0","system_id":"levelo_inurba_marseille","lat":43.24069,"lon":5.37762,"is_reserved":false,"is_disabled":false,"rental_uris":{"android":"levelo://app?vid=e93d2c63-f14c-4faa-aae7-c435a0599ef0","ios":"levelo://app?vid=e93d2c63-f14c-4faa-aae7-c435a0599ef0"},"vehicle_type_id":"4","last_reported":1701778429,"current_range_meters":23600,"station_id":"ce4bhnp2rcd13ifvqgvg","pricing_plan_id":"free"},{"bike_id":"cb6ba51b-84b7-4540-b8f5-403657ef16c8","system_id":"levelo_inurba_marseille","lat":43.24068,"lon":5.37759,"is_reserved":false,"is_disabled":false,"rental_uris":{"android":"levelo://app?vid=cb6ba51b-84b7-4540-b8f5-403657ef16c8","ios":"levelo://app?vid=cb6ba51b-84b7-4540-b8f5-403657ef16c8"},"vehicle_type_id":"4","last_reported":1701778429,"current_range_meters":24400,"station_id":"ce4bhnp2rcd13ifvqgvg","pricing_plan_id":"free"},{"bike_id":"2e43447f-abca-4d71-8f13-a975156b923b","system_id":"levelo_inurba_marseille","lat":43.24068,"lon":5.37764,"is_reserved":false,"is_disabled":false,"rental_uris":{"android":"levelo://app?vid=2e43447f-abca-4d71-8f13-a975156b923b","ios":"levelo://app?vid=2e43447f-abca-4d71-8f13-a975156b923b"},"vehicle_type_id":"4","last_reported":1701778429,"current_range_meters":30000,"station_id":"ce4bhnp2rcd13ifvqgvg","pricing_plan_id":"free"},{"bike_id":"47b6ddf7-38fa-4964-bb0a-d1f8b0fa0c7b","system_id":"levelo_inurba_marseille","lat":43.241782,"lon":5.397261,"is_reserved":false,"is_disabled":false,"rental_uris":{"android":"levelo://app?vid=47b6ddf7-38fa-4964-bb0a-d1f8b0fa0c7b","ios":"levelo://app?vid=47b6ddf7-38fa-4964-bb0a-d1f8b0fa0c7b"},"vehicle_type_id":"4","last_reported":1701778429,"current_range_meters":30000,"station_id":"ce4bhn12rcd13ifvqgpg","pricing_plan_id":"free"},{"bike_id":"70a96165-1805-417c-a4c2-fe290d98ccde","system_id":"levelo_inurba_marseille","lat":43.241782,"lon":5.397261,"is_reserved":false,"is_disabled":false,"rental_uris":{"android":"levelo://app?vid=70a96165-1805-417c-a4c2-fe290d98ccde","ios":"levelo://app?vid=70a96165-1805-417c-a4c2-fe290d98ccde"},"vehicle_type_id":"4","last_reported":1701778429,"current_range_meters":9600,"station_id":"ce4bhn12rcd13ifvqgpg","pricing_plan_id":"free"},{"bike_id":"ce7ebaad-f3c2-410c-80bf-328e7dcdbc0d","system_id":"levelo_inurba_marseille","lat":43.241782,"lon":5.397261,"is_reserved":false,"is_disabled":false,"rental_uris":{"android":"levelo://app?vid=ce7ebaad-f3c2-410c-80bf-328e7dcdbc0d","ios":"levelo://app?vid=ce7ebaad-f3c2-410c-80bf-328e7dcdbc0d"},"vehicle_type_id":"4","last_reported":1701778429,"current_range_meters":4000,"station_id":"ce4bhn12rcd13ifvqgpg","pricing_plan_id":"free"},{"bike_id":"cf3102c4-88e0-4a41-86b7-69a76932d3e6","system_id":"levelo_inurba_marseille","lat":43.231923,"lon":5.355545,"is_reserved":false,"is_disabled":false,"rental_uris":{"android":"levelo://app?vid=cf3102c4-88e0-4a41-86b7-69a76932d3e6","ios":"levelo://app?vid=cf3102c4-88e0-4a41-86b7-69a76932d3e6"},"vehicle_type_id":"4","last_reported":1701778429,"current_range_meters":31600,"station_id":"ce4bhu92rcd13ifvqi70","pricing_plan_id":"free"},{"bike_id":"f922cddf-9fbc-4714-b966-50501c7ff4b4","system_id":"levelo_inurba_marseille","lat":43.23183,"lon":5.35551,"is_reserved":false,"is_disabled":false,"rental_uris":{"android":"levelo://app?vid=f922cddf-9fbc-4714-b966-50501c7ff4b4","ios":"levelo://app?vid=f922cddf-9fbc-4714-b966-50501c7ff4b4"},"vehicle_type_id":"4","last_reported":1701778429,"current_range_meters":8000,"station_id":"ce4bhu92rcd13ifvqi70","pricing_plan_id":"free"},{"bike_id":"5278a15d-20a4-43d4-86a2-a3cf79e58d2a","system_id":"levelo_inurba_marseille","lat":43.231793,"lon":5.400044,"is_reserved":false,"is_disabled":false,"rental_uris":{"android":"levelo://app?vid=5278a15d-20a4-43d4-86a2-a3cf79e58d2a","ios":"levelo://app?vid=5278a15d-20a4-43d4-86a2-a3cf79e58d2a"},"vehicle_type_id":"4","last_reported":1701778429,"current_range_meters":16800,"station_id":"ce4bhn12rcd13ifvqgqg","pricing_plan_id":"free"},{"bike_id":"b24377f2-8ed0-4651-85c1-637313820b38","system_id":"levelo_inurba_marseille","lat":43.231794,"lon":5.400052,"is_reserved":false,"is_disabled":false,"rental_uris":{"android":"levelo://app?vid=b24377f2-8ed0-4651-85c1-637313820b38","ios":"levelo://app?vid=b24377f2-8ed0-4651-85c1-637313820b38"},"vehicle_type_id":"4","last_reported":1701778429,"current_range_meters":23600,"station_id":"ce4bhn12rcd13ifvqgqg","pricing_plan_id":"free"},{"bike_id":"c1ea53d3-f77a-4d0f-880c-9af43a51a81c","system_id":"levelo_inurba_marseille","lat":43.231562,"lon":5.436933,"is_reserved":false,"is_disabled":false,"rental_uris":{"android":"levelo://app?vid=c1ea53d3-f77a-4d0f-880c-9af43a51a81c","ios":"levelo://app?vid=c1ea53d3-f77a-4d0f-880c-9af43a51a81c"},"vehicle_type_id":"4","last_reported":1701778429,"current_range_meters":30800,"station_id":"ce4bhmp2rcd13ifvqgog","pricing_plan_id":"free"},{"bike_id":"818b7971-a62f-4d0c-b4d6-ebcff5688a44","system_id":"levelo_inurba_marseille","lat":43.231562,"lon":5.436933,"is_reserved":false,"is_disabled":false,"rental_uris":{"android":"levelo://app?vid=818b7971-a62f-4d0c-b4d6-ebcff5688a44","ios":"levelo://app?vid=818b7971-a62f-4d0c-b4d6-ebcff5688a44"},"vehicle_type_id":"4","last_reported":1701778429,"current_range_meters":30400,"station_id":"ce4bhmp2rcd13ifvqgog","pricing_plan_id":"free"},{"bike_id":"fb57a19c-6052-4ad3-b116-cf7961d5d660","system_id":"levelo_inurba_marseille","lat":43.231562,"lon":5.436933,"is_reserved":false,"is_disabled":false,"rental_uris":{"android":"levelo://app?vid=fb57a19c-6052-4ad3-b116-cf7961d5d660","ios":"levelo://app?vid=fb57a19c-6052-4ad3-b116-cf7961d5d660"},"vehicle_type_id":"4","last_reported":1701778429,"current_range_meters":17200,"station_id":"ce4bhmp2rcd13ifvqgog","pricing_plan_id":"free"},{"bike_id":"b88a7beb-1507-4507-ad76-90e5fbe86117","system_id":"levelo_inurba_marseille","lat":43.231562,"lon":5.436933,"is_reserved":false,"is_disabled":false,"rental_uris":{"android":"levelo://app?vid=b88a7beb-1507-4507-ad76-90e5fbe86117","ios":"levelo://app?vid=b88a7beb-1507-4507-ad76-90e5fbe86117"},"vehicle_type_id":"4","last_reported":1701778429,"current_range_meters":15600,"station_id":"ce4bhmp2rcd13ifvqgog","pricing_plan_id":"free"},{"bike_id":"499f6839-de97-4b12-a005-76ce9f041c0f","system_id":"levelo_inurba_marseille","lat":43.23152,"lon":5.43719,"is_reserved":false,"is_disabled":false,"rental_uris":{"android":"levelo://app?vid=499f6839-de97-4b12-a005-76ce9f041c0f","ios":"levelo://app?vid=499f6839-de97-4b12-a005-76ce9f041c0f"},"vehicle_type_id":"4","last_reported":1701778429,"current_range_meters":21600,"station_id":"ce4bhmp2rcd13ifvqgog","pricing_plan_id":"free"},{"bike_id":"eb2c14b2-e332-47fe-992b-c25d14433af5","system_id":"levelo_inurba_marseille","lat":43.231562,"lon":5.436933,"is_reserved":false,"is_disabled":false,"rental_uris":{"android":"levelo://app?vid=eb2c14b2-e332-47fe-992b-c25d14433af5","ios":"levelo://app?vid=eb2c14b2-e332-47fe-992b-c25d14433af5"},"vehicle_type_id":"4","last_reported":1701778429,"current_range_meters":2000,"station_id":"ce4bhmp2rcd13ifvqgog","pricing_plan_id":"free"},{"bike_id":"bd1c9afa-c136-40b6-9ad4-c891fe6a0ae4","system_id":"levelo_inurba_marseille","lat":43.231562,"lon":5.436933,"is_reserved":false,"is_disabled":false,"rental_uris":{"android":"levelo://app?vid=bd1c9afa-c136-40b6-9ad4-c891fe6a0ae4","ios":"levelo://app?vid=bd1c9afa-c136-40b6-9ad4-c891fe6a0ae4"},"vehicle_type_id":"4","last_reported":1701778429,"current_range_meters":24000,"station_id":"ce4bhmp2rcd13ifvqgog","pricing_plan_id":"free"},{"bike_id":"f1f61720-9ba6-4659-bcf3-0c486f25507b","system_id":"levelo_inurba_marseille","lat":43.231562,"lon":5.436933,"is_reserved":false,"is_disabled":false,"rental_uris":{"android":"levelo://app?vid=f1f61720-9ba6-4659-bcf3-0c486f25507b","ios":"levelo://app?vid=f1f61720-9ba6-4659-bcf3-0c486f25507b"},"vehicle_type_id":"4","last_reported":1701778429,"current_range_meters":0,"station_id":"ce4bhmp2rcd13ifvqgog","pricing_plan_id":"free"},{"bike_id":"e1e260aa-9e11-47f3-bc85-67c6e8b56d68","system_id":"levelo_inurba_marseille","lat":43.231562,"lon":5.436933,"is_reserved":false,"is_disabled":false,"rental_uris":{"android":"levelo://app?vid=e1e260aa-9e11-47f3-bc85-67c6e8b56d68","ios":"levelo://app?vid=e1e260aa-9e11-47f3-bc85-67c6e8b56d68"},"vehicle_type_id":"4","last_reported":1701778429,"current_range_meters":29200,"station_id":"ce4bhmp2rcd13ifvqgog","pricing_plan_id":"free"},{"bike_id":"5acf437a-9bd4-4ab6-9a7c-1521245d7344","system_id":"levelo_inurba_marseille","lat":43.231562,"lon":5.436933,"is_reserved":false,"is_disabled":false,"rental_uris":{"android":"levelo://app?vid=5acf437a-9bd4-4ab6-9a7c-1521245d7344","ios":"levelo://app?vid=5acf437a-9bd4-4ab6-9a7c-1521245d7344"},"vehicle_type_id":"4","last_reported":1701778429,"current_range_meters":31600,"station_id":"ce4bhmp2rcd13ifvqgog","pricing_plan_id":"free"}]}}