{"last_updated":1735207753,"ttl":60,"version":"2.2","data":{"bikes":[{"bike_id":"5ebb1a0d-b940-42db-872d-a4e1cbd004a8","system_id":"levelo_inurba_marseille","lat":43.30444,"lon":5.3889,"is_reserved":false,"is_disabled":false,"rental_uris":{"android":"levelo://app?vid=5ebb1a0d-b940-42db-872d-a4e1cbd004a8","ios":"levelo://app?vid=5ebb1a0d-b940-42db-872d-a4e1cbd004a8"},"vehicle_type_id":"4","last_reported":1735207754,"current_range_meters":35200,"station_id":"ce4bgk12rcd13ifvqbi0","pricing_plan_id":"cebpf4jnsgd1na2vs0mg"},{"bike_id":"de3ad869-5f9e-489c-a409-ffd5a7ae8ada","system_id":"levelo_inurba_marseille","lat":43.29911,"lon":5.38143,"is_reserved":false,"is_disabled":false,"rental_uris":{"android":"levelo://app?vid=de3ad869-5f9e-489c-a409-ffd5a7ae8ada","ios":"levelo://app?vid=de3ad869-5f9e-489c-a409-ffd5a7ae8ada"},"vehicle_type_id":"4","last_reported":1735207754,"current_range_meters":24400,"station_id":"ce4bgj12rcd13ifvqbc0","pricing_plan_id":"cebpf4jnsgd1na2vs0mg"},{"bike_id":"7ace0ab7-afd4-498e-afbf-17c39c8f1a00","system_id":"levelo_inurba_marseille","lat":43.28724,"lon":5.36092,"is_reserved":false,"is_disabled":false,"rental_uris":{"android":"levelo://app?vid=7ace0ab7-afd4-498e-afbf-17c39c8f1a00","ios":"levelo://app?vid=7ace0ab7-afd4-498e-afbf-17c39c8f1a00"},"vehicle_type_id":"4","last_reported":1735207754,"current_range_meters":38800,"station_id":"cki0cbj6b192h4jlfktg","pricing_plan_id":"cebpf4jnsgd1na2vs0mg"},{"bike_id":"015f3506-0edf-4591-879e-490275f7a7d2","system_id":"levelo_inurba_marseille","lat":43.2396,"lon":5.36626,"is_reserved":false,"is_disabled":false,"rental_uris":{"android":"levelo://app?vid=015f3506-0edf-4591-879e-490275f7a7d2","ios":"levelo://app?vid=015f3506-0edf-4591-879e-490275f7a7d2"},"vehicle_type_id":"4","last_reported":1735207754,"current_range_meters":18800,"station_id":"ce4bhi12rcd13ifvqfp0","pricing_plan_id":"cebpf4jnsgd1na2vs0mg"},{"bike_id":"b055144e-d10b-49cc-8e36-02e1d52ebe8e","system_id":"levelo_inurba_marseille","lat":43.29185,"lon":5.39326,"is_reserved":false,"is_disabled":false,"rental_uris":{"android":"levelo://app?vid=b055144e-d10b-49cc-8e36-02e1d52ebe8e","ios":"levelo://app?vid=b055144e-d10b-49cc-8e36-02e1d52ebe8e"},"vehicle_type_id":"4","last_reported":1735207754,"current_range_meters":38800,"station_id":"ce4bh192rcd13ifvqdd0","pricing_plan_id":"cebpf4jnsgd1na2vs0mg"},{"bike_id":"e2b948f0-1bf9-412c-8c25-691885f957ba","system_id":"levelo_inurba_marseille","lat":43.28612,"lon":5.35105,"is_reserved":false,"is_disabled":false,"rental_uris":{"android":"levelo://app?vid=e2b948f0-1bf9-412c-8c25-691885f957ba","ios":"levelo://app?vid=e2b948f0-1bf9-412c-8c25-691885f957ba"},"vehicle_type_id":"4","last_reported":1735207754,"current_range_meters":4800,"station_id":"ce4bhch2rcd13ifvqeug","pricing_plan_id":"cebpf4jnsgd1na2vs0mg"},{"bike_id":"1f14806d-ae11-4061-998c-72dada3be529","system_id":"levelo_inurba_marseille","lat":43.28042,"lon":5.36945,"is_reserved":false,"is_disabled":false,"rental_uris":{"android":"levelo://app?vid=1f14806d-ae11-4061-998c-72dada3be529","ios":"levelo://app?vid=1f14806d-ae11-4061-998c-72dada3be529"},"vehicle_type_id":"4","last_reported":1735207754,"current_range_meters":38800,"station_id":"ce4bha12rcd13ifvqef0","pricing_plan_id":"cebpf4jnsgd1na2vs0mg"},{"bike_id":"e0499bd5-024b-42a2-a769-5781f06664e6","system_id":"levelo_inurba_marseille","lat":43.306443,"lon":5.40077,"is_reserved":false,"is_disabled":false,"rental_uris":{"android":"levelo://app?vid=e0499bd5-024b-42a2-a769-5781f06664e6","ios":"levelo://app?vid=e0499bd5-024b-42a2-a769-5781f06664e6"},"vehicle_type_id":"4","last_reported":1735207754,"current_range_meters":14400,"station_id":"ce4bh112rcd13ifvqda0","pricing_plan_id":"cebpf4jnsgd1na2vs0mg"},{"bike_id":"c4104ae7-6d71-4ed6-97ba-cf7a171100c7","system_id":"levelo_inurba_marseille","lat":43.309325,"lon":5.40171,"is_reserved":false,"is_disabled":false,"rental_uris":{"android":"levelo://app?vid=c4104ae7-6d71-4ed6-97ba-cf7a171100c7","ios":"levelo://app?vid=c4104ae7-6d71-4ed6-97ba-cf7a171100c7"},"vehicle_type_id":"4","last_reported":1735207754,"current_range_meters":26800,"station_id":"ce4bgvp2rcd13ifvqct0","pricing_plan_id":"cebpf4jnsgd1na2vs0mg"},{"bike_id":"e466eb3a-3291-451c-abf2-2b0e751b4651","system_id":"levelo_inurba_marseille","lat":43.33601,"lon":5.40959,"is_reserved":false,"is_disabled":false,"rental_uris":{"android":"levelo://app?vid=e466eb3a-3291-451c-abf2-2b0e751b4651","ios":"levelo://app?vid=e466eb3a-3291-451c-abf2-2b0e751b4651"},"vehicle_type_id":"4","last_reported":1735207754,"current_range_meters":38000,"station_id":"ce4bhqh2rcd13ifvqhmg","pricing_plan_id":"cebpf4jnsgd1na2vs0mg"},{"bike_id":"fb546e02-2e09-44f7-9ea2-612c74d3db5e","system_id":"levelo_inurba_marseille","lat":43.25489,"lon":5.37652,"is_reserved":false,"is_disabled":false,"rental_uris":{"android":"levelo://app?vid=fb546e02-2e09-44f7-9ea2-612c74d3db5e","ios":"levelo://app?vid=fb546e02-2e09-44f7-9ea2-612c74d3db5e"},"vehicle_type_id":"4","last_reported":1735207754,"current_range_meters":38800,"station_id":"ce4bhh12rcd13ifvqff0","pricing_plan_id":"cebpf4jnsgd1na2vs0mg"},{"bike_id":"fb83f742-e90f-4d0b-ba4a-f0317cadcdd0","system_id":"levelo_inurba_marseille","lat":43.246481,"lon":5.389031,"is_reserved":false,"is_disabled":false,"rental_uris":{"android":"levelo://app?vid=fb83f742-e90f-4d0b-ba4a-f0317cadcdd0","ios":"levelo://app?vid=fb83f742-e90f-4d0b-ba4a-f0317cadcdd0"},"vehicle_type_id":"4","last_reported":1735207754,"current_range_meters":35600,"station_id":"ce4bhg12rcd13ifvqf60","pricing_plan_id":"cebpf4jnsgd1na2vs0mg"},{"bike_id":"b90159e5-96c7-4cd1-b649-636d97fd24e0","system_id":"levelo_inurba_marseille","lat":43.23198,"lon":5.35553,"is_reserved":false,"is_disabled":false,"rental_uris":{"android":"levelo://app?vid=b90159e5-96c7-4cd1-b649-636d97fd24e0","ios":"levelo://app?vid=b90159e5-96c7-4cd1-b649-636d97fd24e0"},"vehicle_type_id":"4","last_reported":1735207754,"current_range_meters":8000,"station_id":"ce4bhu92rcd13ifvqi70","pricing_plan_id":"cebpf4jnsgd1na2vs0mg"},{"bike_id":"83013e65-9118-4f42-bb94-314490e91463","system_id":"levelo_inurba_marseille","lat":43.28102,"lon":5.37865,"is_reserved":false,"is_disabled":false,"rental_uris":{"android":"levelo://app?vid=83013e65-9118-4f42-bb94-314490e91463","ios":"levelo://app?vid=83013e65-9118-4f42-bb94-314490e91463"},"vehicle_type_id":"4","last_reported":1735207754,"current_range_meters":38800,"station_id":"ce4bha12rcd13ifvqee0","pricing_plan_id":"cebpf4jnsgd1na2vs0mg"},{"bike_id":"972f834f-b753-4fa5-b141-b248c58374dd","system_id":"levelo_inurba_marseille","lat":43.28088,"lon":5.37858,"is_reserved":false,"is_disabled":false,"rental_uris":{"android":"levelo://app?vid=972f834f-b753-4fa5-b141-b248c58374dd","ios":"levelo://app?vid=972f834f-b753-4fa5-b141-b248c58374dd"},"vehicle_type_id":"4","last_reported":1735207754,"current_range_meters":38000,"station_id":"ce4bha12rcd13ifvqee0","pricing_plan_id":"cebpf4jnsgd1na2vs0mg"},{"bike_id":"b9c83c83-cf96-4e57-b709-6459d0acaf9f","system_id":"levelo_inurba_marseille","lat":43.26802,"lon":5.40266,"is_reserved":false,"is_disabled":false,"rental_uris":{"android":"levelo://app?vid=b9c83c83-cf96-4e57-b709-6459d0acaf9f","ios":"levelo://app?vid=b9c83c83-cf96-4e57-b709-6459d0acaf9f"},"vehicle_type_id":"4","last_reported":1735207754,"current_range_meters":38800,"station_id":"ce501612rcd8frsf0b60","pricing_plan_id":"cebpf4jnsgd1na2vs0mg"},{"bike_id":"23267f0c-d6e2-43b6-8e8d-d55180155fcc","system_id":"levelo_inurba_marseille","lat":43.29924,"lon":5.37482,"is_reserved":false,"is_disabled":false,"rental_uris":{"android":"levelo://app?vid=23267f0c-d6e2-43b6-8e8d-d55180155fcc","ios":"levelo://app?vid=23267f0c-d6e2-43b6-8e8d-d55180155fcc"},"vehicle_type_id":"4","last_reported":1735207754,"current_range_meters":27600,"station_id":"ce4bgjh2rcd13ifvqbg0","pricing_plan_id":"cebpf4jnsgd1na2vs0mg"},{"bike_id":"b6ee9d6c-d1bd-4127-85e6-8d4ce3209754","system_id":"levelo_inurba_marseille","lat":43.313572,"lon":5.367154,"is_reserved":false,"is_disabled":false,"rental_uris":{"android":"levelo://app?vid=b6ee9d6c-d1bd-4127-85e6-8d4ce3209754","ios":"levelo://app?vid=b6ee9d6c-d1bd-4127-85e6-8d4ce3209754"},"vehicle_type_id":"4","last_reported":1735207754,"current_range_meters":38800,"station_id":"ce4bgr92rcd13ifvqc6g","pricing_plan_id":"cebpf4jnsgd1na2vs0mg"},{"bike_id":"d4663405-bee1-476b-a9e6-b188d9eda682","system_id":"levelo_inurba_marseille","lat":43.30536,"lon":5.36728,"is_reserved":false,"is_disabled":false,"rental_uris":{"android":"levelo://app?vid=d4663405-bee1-476b-a9e6-b188d9eda682","ios":"levelo://app?vid=d4663405-bee1-476b-a9e6-b188d9eda682"},"vehicle_type_id":"4","last_reported":1735207754,"current_range_meters":36800,"station_id":"ce4bgrp2rcd13ifvqc9g","pricing_plan_id":"cebpf4jnsgd1na2vs0mg"},{"bike_id":"b546119b-9c53-4f4a-98a1-96e9e54b99e4","system_id":"levelo_inurba_marseille","lat":43.28612,"lon":5.35103,"is_reserved":false,"is_disabled":false,"rental_uris":{"android":"levelo://app?vid=b546119b-9c53-4f4a-98a1-96e9e54b99e4","ios":"levelo://app?vid=b546119b-9c53-4f4a-98a1-96e9e54b99e4"},"vehicle_type_id":"4","last_reported":1735207754,"current_range_meters":36800,"station_id":"ce4bhch2rcd13ifvqeug","pricing_plan_id":"cebpf4jnsgd1na2vs0mg"},{"bike_id":"650c2a8d-6c54-42ca-a377-83a2906c3201","system_id":"levelo_inurba_marseille","lat":43.27976,"lon":5.38736,"is_reserved":false,"is_disabled":false,"rental_uris":{"android":"levelo://app?vid=650c2a8d-6c54-42ca-a377-83a2906c3201","ios":"levelo://app?vid=650c2a8d-6c54-42ca-a377-83a2906c3201"},"vehicle_type_id":"4","last_reported":1735207754,"current_range_meters":38000,"station_id":"ce4bhg12rcd13ifvqf80","pricing_plan_id":"cebpf4jnsgd1na2vs0mg"},{"bike_id":"86c790d9-7551-4ac7-a8b7-adf3b37d61d8","system_id":"levelo_inurba_marseille","lat":43.29785,"lon":5.3935,"is_reserved":false,"is_disabled":false,"rental_uris":{"android":"levelo://app?vid=86c790d9-7551-4ac7-a8b7-adf3b37d61d8","ios":"levelo://app?vid=86c790d9-7551-4ac7-a8b7-adf3b37d61d8"},"vehicle_type_id":"4","last_reported":1735207754,"current_range_meters":16400,"station_id":"chh1huq6cuj3fo74tm60","pricing_plan_id":"cebpf4jnsgd1na2vs0mg"},{"bike_id":"fae4ce0f-3f83-469f-8019-b63e7c084b20","system_id":"levelo_inurba_marseille","lat":43.3035,"lon":5.4188,"is_reserved":false,"is_disabled":false,"rental_uris":{"android":"levelo://app?vid=fae4ce0f-3f83-469f-8019-b63e7c084b20","ios":"levelo://app?vid=fae4ce0f-3f83-469f-8019-b63e7c084b20"},"vehicle_type_id":"4","last_reported":1735207754,"current_range_meters":39200,"station_id":"ce4bhop2rcd13ifvqh7g","pricing_plan_id":"cebpf4jnsgd1na2vs0mg"},{"bike_id":"7bf56867-f147-4165-89ee-4c8ea1ec9c93","system_id":"levelo_inurba_marseille","lat":43.29896,"lon":5.43669,"is_reserved":false,"is_disabled":false,"rental_uris":{"android":"levelo://app?vid=7bf56867-f147-4165-89ee-4c8ea1ec9c93","ios":"levelo://app?vid=7bf56867-f147-4165-89ee-4c8ea1ec9c93"},"vehicle_type_id":"4","last_reported":1735207754,"current_range_meters":38400,"station_id":"ce4bhpp2rcd13ifvqhfg","pricing_plan_id":"cebpf4jnsgd1na2vs0mg"},{"bike_id":"857344dd-6be1-4d34-90e7-6f62afbbef2e","system_id":"levelo_inurba_marseille","lat":43.32102,"lon":5.36775,"is_reserved":false,"is_disabled":false,"rental_uris":{"android":"levelo://app?vid=857344dd-6be1-4d34-90e7-6f62afbbef2e","ios":"levelo://app?vid=857344dd-6be1-4d34-90e7-6f62afbbef2e"},"vehicle_type_id":"4","last_reported":1735207754,"current_range_meters":11600,"station_id":"ce4bhrh2rcd13ifvqhug","pricing_plan_id":"cebpf4jnsgd1na2vs0mg"},{"bike_id":"745ce371-2ca1-4678-bf88-0c9996911240","system_id":"levelo_inurba_marseille","lat":43.290289,"lon":5.399856,"is_reserved":false,"is_disabled":false,"rental_uris":{"android":"levelo://app?vid=745ce371-2ca1-4678-bf88-0c9996911240","ios":"levelo://app?vid=745ce371-2ca1-4678-bf88-0c9996911240"},"vehicle_type_id":"4","last_reported":1735207754,"current_range_meters":38800,"station_id":"ce4bh392rcd13ifvqdm0","pricing_plan_id":"cebpf4jnsgd1na2vs0mg"},{"bike_id":"f773e386-c12e-4e9e-99c4-5a80f712c912","system_id":"levelo_inurba_marseille","lat":43.30531,"lon":5.36539,"is_reserved":false,"is_disabled":false,"rental_uris":{"android":"levelo://app?vid=f773e386-c12e-4e9e-99c4-5a80f712c912","ios":"levelo://app?vid=f773e386-c12e-4e9e-99c4-5a80f712c912"},"vehicle_type_id":"4","last_reported":1735207754,"current_range_meters":18800,"station_id":"ce4bgs12rcd13ifvqcag","pricing_plan_id":"cebpf4jnsgd1na2vs0mg"},{"bike_id":"86060846-e322-4105-bc52-2200896014b6","system_id":"levelo_inurba_marseille","lat":43.29545,"lon":5.37502,"is_reserved":false,"is_disabled":false,"rental_uris":{"android":"levelo://app?vid=86060846-e322-4105-bc52-2200896014b6","ios":"levelo://app?vid=86060846-e322-4105-bc52-2200896014b6"},"vehicle_type_id":"4","last_reported":1735207754,"current_range_meters":39200,"station_id":"ce4bgkp2rcd13ifvqbmg","pricing_plan_id":"cebpf4jnsgd1na2vs0mg"},{"bike_id":"7b937713-f03e-4c7d-991e-8f9ccabc7439","system_id":"levelo_inurba_marseille","lat":43.24163,"lon":5.36394,"is_reserved":false,"is_disabled":false,"rental_uris":{"android":"levelo://app?vid=7b937713-f03e-4c7d-991e-8f9ccabc7439","ios":"levelo://app?vid=7b937713-f03e-4c7d-991e-8f9ccabc7439"},"vehicle_type_id":"4","last_reported":1735207754,"current_range_meters":8400,"station_id":"cpo36qri1sfpv3e86is0","pricing_plan_id":"cebpf4jnsgd1na2vs0mg"},{"bike_id":"42d69e0f-677d-4c54-b003-b8dbc3ab5c0a","system_id":"levelo_inurba_marseille","lat":43.30354,"lon":5.41882,"is_reserved":false,"is_disabled":false,"rental_uris":{"android":"levelo://app?vid=42d69e0f-677d-4c54-b003-b8dbc3ab5c0a","ios":"levelo://app?vid=42d69e0f-677d-4c54-b003-b8dbc3ab5c0a"},"vehicle_type_id":"4","last_reported":1735207754,"current_range_meters":37600,"station_id":"ce4bhop2rcd13ifvqh7g","pricing_plan_id":"cebpf4jnsgd1na2vs0mg"},{"bike_id":"ad66ce9d-e2b2-4064-ae7f-fe87403c632b","system_id":"levelo_inurba_marseille","lat":43.23065,"lon":5.35495,"is_reserved":false,"is_disabled":false,"rental_uris":{"android":"levelo://app?vid=ad66ce9d-e2b2-4064-ae7f-fe87403c632b","ios":"levelo://app?vid=ad66ce9d-e2b2-4064-ae7f-fe87403c632b"},"vehicle_type_id":"4","last_reported":1735207754,"current_range_meters":29600,"station_id":"cpo3342slgdg3j2ifvpg","pricing_plan_id":"cebpf4jnsgd1na2vs0mg"},{"bike_id":"b76cea7e-5025-4e14-a8c7-eebf31292c4c","system_id":"levelo_inurba_marseille","lat":43.2607,"lon":5.39379,"is_reserved":false,"is_disabled":false,"rental_uris":{"android":"levelo://app?vid=b76cea7e-5025-4e14-a8c7-eebf31292c4c","ios":"levelo://app?vid=b76cea7e-5025-4e14-a8c7-eebf31292c4c"},"vehicle_type_id":"4","last_reported":1735207754,"current_range_meters":14800,"station_id":"ce4bhh92rcd13ifvqfj0","pricing_plan_id":"cebpf4jnsgd1na2vs0mg"},{"bike_id":"2eb6fc33-a13d-48fd-a922-9b89b632b88e","system_id":"levelo_inurba_marseille","lat":43.29924,"lon":5.37475,"is_reserved":false,"is_disabled":false,"rental_uris":{"android":"levelo://app?vid=2eb6fc33-a13d-48fd-a922-9b89b632b88e","ios":"levelo://app?vid=2eb6fc33-a13d-48fd-a922-9b89b632b88e"},"vehicle_type_id":"4","last_reported":1735207754,"current_range_meters":34800,"station_id":"ce4bgjh2rcd13ifvqbg0","pricing_plan_id":"cebpf4jnsgd1na2vs0mg"},{"bike_id":"85d789bc-1620-42d9-96a0-d409b4a85f5c","system_id":"levelo_inurba_marseille","lat":43.29578,"lon":5.4223,"is_reserved":false,"is_disabled":false,"rental_uris":{"android":"levelo://app?vid=85d789bc-1620-42d9-96a0-d409b4a85f5c","ios":"levelo://app?vid=85d789bc-1620-42d9-96a0-d409b4a85f5c"},"vehicle_type_id":"4","last_reported":1735207754,"current_range_meters":25200,"station_id":"ce4bhph2rcd13ifvqhdg","pricing_plan_id":"cebpf4jnsgd1na2vs0mg"},{"bike_id":"d0533ccb-11ce-46dc-9cca-daa9f7a4985a","system_id":"levelo_inurba_marseille","lat":43.29533,"lon":5.42238,"is_reserved":false,"is_disabled":false,"rental_uris":{"android":"levelo://app?vid=d0533ccb-11ce-46dc-9cca-daa9f7a4985a","ios":"levelo://app?vid=d0533ccb-11ce-46dc-9cca-daa9f7a4985a"},"vehicle_type_id":"4","last_reported":1735207754,"current_range_meters":38800,"station_id":"ce4bhph2rcd13ifvqhdg","pricing_plan_id":"cebpf4jnsgd1na2vs0mg"},{"bike_id":"d8442fe7-2d9f-4d85-8f0b-4d1ab2f749b5","system_id":"levelo_inurba_marseille","lat":43.30261,"lon":5.37707,"is_reserved":false,"is_disabled":false,"rental_uris":{"android":"levelo://app?vid=d8442fe7-2d9f-4d85-8f0b-4d1ab2f749b5","ios":"levelo://app?vid=d8442fe7-2d9f-4d85-8f0b-4d1ab2f749b5"},"vehicle_type_id":"4","last_reported":1735207754,"current_range_meters":24800,"station_id":"ce4bguh2rcd13ifvqcj0","pricing_plan_id":"cebpf4jnsgd1na2vs0mg"},{"bike_id":"cf518016-d1ce-4ace-8d0b-545e5b93f880","system_id":"levelo_inurba_marseille","lat":43.34141,"lon":5.4093,"is_reserved":false,"is_disabled":false,"rental_uris":{"android":"levelo://app?vid=cf518016-d1ce-4ace-8d0b-545e5b93f880","ios":"levelo://app?vid=cf518016-d1ce-4ace-8d0b-545e5b93f880"},"vehicle_type_id":"4","last_reported":1735207754,"current_range_meters":39200,"station_id":"ce4bhqh2rcd13ifvqhlg","pricing_plan_id":"cebpf4jnsgd1na2vs0mg"},{"bike_id":"5d29fc56-dbb2-4006-96bc-27e181f8d4f5","system_id":"levelo_inurba_marseille","lat":43.29848,"lon":5.36293,"is_reserved":false,"is_disabled":false,"rental_uris":{"android":"levelo://app?vid=5d29fc56-dbb2-4006-96bc-27e181f8d4f5","ios":"levelo://app?vid=5d29fc56-dbb2-4006-96bc-27e181f8d4f5"},"vehicle_type_id":"4","last_reported":1735207754,"current_range_meters":27200,"station_id":"ce4bgpp2rcd13ifvqc3g","pricing_plan_id":"cebpf4jnsgd1na2vs0mg"},{"bike_id":"b32fb18a-c8a8-4404-98aa-9a585746a89d","system_id":"levelo_inurba_marseille","lat":43.32057,"lon":5.41537,"is_reserved":false,"is_disabled":false,"rental_uris":{"android":"levelo://app?vid=b32fb18a-c8a8-4404-98aa-9a585746a89d","ios":"levelo://app?vid=b32fb18a-c8a8-4404-98aa-9a585746a89d"},"vehicle_type_id":"4","last_reported":1735207754,"current_range_meters":33200,"station_id":"ce4bhq92rcd13ifvqhkg","pricing_plan_id":"cebpf4jnsgd1na2vs0mg"},{"bike_id":"249ae69f-0c4d-44b5-a674-a80b1a677100","system_id":"levelo_inurba_marseille","lat":43.23185,"lon":5.39982,"is_reserved":false,"is_disabled":false,"rental_uris":{"android":"levelo://app?vid=249ae69f-0c4d-44b5-a674-a80b1a677100","ios":"levelo://app?vid=249ae69f-0c4d-44b5-a674-a80b1a677100"},"vehicle_type_id":"4","last_reported":1735207754,"current_range_meters":11200,"station_id":"ce4bhn12rcd13ifvqgqg","pricing_plan_id":"cebpf4jnsgd1na2vs0mg"},{"bike_id":"7ca2e3d6-4ca3-4d99-b34e-9fb53337dde8","system_id":"levelo_inurba_marseille","lat":43.24163,"lon":5.36404,"is_reserved":false,"is_disabled":false,"rental_uris":{"android":"levelo://app?vid=7ca2e3d6-4ca3-4d99-b34e-9fb53337dde8","ios":"levelo://app?vid=7ca2e3d6-4ca3-4d99-b34e-9fb53337dde8"},"vehicle_type_id":"4","last_reported":1735207754,"current_range_meters":12400,"station_id":"cpo36qri1sfpv3e86is0","pricing_plan_id":"cebpf4jnsgd1na2vs0mg"},{"bike_id":"61b6d437-e950-46a2-8cbf-76c4bc393d6f","system_id":"levelo_inurba_marseille","lat":43.27075,"lon":5.42281,"is_reserved":false,"is_disabled":false,"rental_uris":{"android":"levelo://app?vid=61b6d437-e950-46a2-8cbf-76c4bc393d6f","ios":"levelo://app?vid=61b6d437-e950-46a2-8cbf-76c4bc393d6f"},"vehicle_type_id":"4","last_reported":1735207754,"current_range_meters":10800,"station_id":"ce4bhk92rcd13ifvqgb0","pricing_plan_id":"cebpf4jnsgd1na2vs0mg"},{"bike_id":"ee09bb5a-418e-4e4b-aa9d-02cb6f33df58","system_id":"levelo_inurba_marseille","lat":43.30209,"lon":5.39469,"is_reserved":false,"is_disabled":false,"rental_uris":{"android":"levelo://app?vid=ee09bb5a-418e-4e4b-aa9d-02cb6f33df58","ios":"levelo://app?vid=ee09bb5a-418e-4e4b-aa9d-02cb6f33df58"},"vehicle_type_id":"4","last_reported":1735207754,"current_range_meters":38400,"station_id":"ce4bh0p2rcd13ifvqd70","pricing_plan_id":"cebpf4jnsgd1na2vs0mg"},{"bike_id":"7ec3319e-e8cc-404b-a9a7-29fe820e2e42","system_id":"levelo_inurba_marseille","lat":43.26206,"lon":5.37444,"is_reserved":false,"is_disabled":false,"rental_uris":{"android":"levelo://app?vid=7ec3319e-e8cc-404b-a9a7-29fe820e2e42","ios":"levelo://app?vid=7ec3319e-e8cc-404b-a9a7-29fe820e2e42"},"vehicle_type_id":"4","last_reported":1735207754,"current_range_meters":21600,"station_id":"ce4bhgp2rcd13ifvqfc0","pricing_plan_id":"cebpf4jnsgd1na2vs0mg"},{"bike_id":"23e25e04-dd29-4836-8ab5-f117edae0dca","system_id":"levelo_inurba_marseille","lat":43.30138,"lon":5.37413,"is_reserved":false,"is_disabled":false,"rental_uris":{"android":"levelo://app?vid=23e25e04-dd29-4836-8ab5-f117edae0dca","ios":"levelo://app?vid=23e25e04-dd29-4836-8ab5-f117edae0dca"},"vehicle_type_id":"4","last_reported":1735207754,"current_range_meters":38800,"station_id":"ce4bgs92rcd13ifvqcc0","pricing_plan_id":"cebpf4jnsgd1na2vs0mg"},{"bike_id":"2b32f2fd-c423-430c-8c50-af4c8ca4051b","system_id":"levelo_inurba_marseille","lat":43.30879,"lon":5.39641,"is_reserved":false,"is_disabled":false,"rental_uris":{"android":"levelo://app?vid=2b32f2fd-c423-430c-8c50-af4c8ca4051b","ios":"levelo://app?vid=2b32f2fd-c423-430c-8c50-af4c8ca4051b"},"vehicle_type_id":"4","last_reported":1735207754,"current_range_meters":27600,"station_id":"ce4bh012rcd13ifvqcv0","pricing_plan_id":"cebpf4jnsgd1na2vs0mg"},{"bike_id":"c97e8bb4-ad61-447a-855c-97d32844b185","system_id":"levelo_inurba_marseille","lat":43.28845,"lon":5.35852,"is_reserved":false,"is_disabled":false,"rental_uris":{"android":"levelo://app?vid=c97e8bb4-ad61-447a-855c-97d32844b185","ios":"levelo://app?vid=c97e8bb4-ad61-447a-855c-97d32844b185"},"vehicle_type_id":"4","last_reported":1735207754,"current_range_meters":35200,"station_id":"ce4bhb12rcd13ifvqem0","pricing_plan_id":"cebpf4jnsgd1na2vs0mg"},{"bike_id":"40c0bad0-8626-4c9b-b59b-9fad04a61df9","system_id":"levelo_inurba_marseille","lat":43.283686,"lon":5.386309,"is_reserved":false,"is_disabled":false,"rental_uris":{"android":"levelo://app?vid=40c0bad0-8626-4c9b-b59b-9fad04a61df9","ios":"levelo://app?vid=40c0bad0-8626-4c9b-b59b-9fad04a61df9"},"vehicle_type_id":"4","last_reported":1735207754,"current_range_meters":38800,"station_id":"ce4bh492rcd13ifvqdvg","pricing_plan_id":"cebpf4jnsgd1na2vs0mg"},{"bike_id":"e1be7342-8cfd-4d6c-ae72-66f762a2958f","system_id":"levelo_inurba_marseille","lat":43.30953,"lon":5.39051,"is_reserved":false,"is_disabled":false,"rental_uris":{"android":"levelo://app?vid=e1be7342-8cfd-4d6c-ae72-66f762a2958f","ios":"levelo://app?vid=e1be7342-8cfd-4d6c-ae72-66f762a2958f"},"vehicle_type_id":"4","last_reported":1735207754,"current_range_meters":38400,"station_id":"ce4bgup2rcd13ifvqco0","pricing_plan_id":"cebpf4jnsgd1na2vs0mg"},{"bike_id":"23f223a7-cc44-4227-b5c8-9b31a8c11b36","system_id":"levelo_inurba_marseille","lat":43.32035,"lon":5.41537,"is_reserved":false,"is_disabled":false,"rental_uris":{"android":"levelo://app?vid=23f223a7-cc44-4227-b5c8-9b31a8c11b36","ios":"levelo://app?vid=23f223a7-cc44-4227-b5c8-9b31a8c11b36"},"vehicle_type_id":"4","last_reported":1735207754,"current_range_meters":26800,"station_id":"ce4bhq92rcd13ifvqhkg","pricing_plan_id":"cebpf4jnsgd1na2vs0mg"},{"bike_id":"fee3cbd0-df5a-47f8-89c6-147e1b7d89ec","system_id":"levelo_inurba_marseille","lat":43.30462,"lon":5.37904,"is_reserved":false,"is_disabled":false,"rental_uris":{"android":"levelo://app?vid=fee3cbd0-df5a-47f8-89c6-147e1b7d89ec","ios":"levelo://app?vid=fee3cbd0-df5a-47f8-89c6-147e1b7d89ec"},"vehicle_type_id":"4","last_reported":1735207754,"current_range_meters":33600,"station_id":"ce4bgup2rcd13ifvqcn0","pricing_plan_id":"cebpf4jnsgd1na2vs0mg"},{"bike_id":"e0e900c2-54ec-4c86-b19c-6bdbedf2d726","system_id":"levelo_inurba_marseille","lat":43.28482,"lon":5.38567,"is_reserved":false,"is_disabled":false,"rental_uris":{"android":"levelo://app?vid=e0e900c2-54ec-4c86-b19c-6bdbedf2d726","ios":"levelo://app?vid=e0e900c2-54ec-4c86-b19c-6bdbedf2d726"},"vehicle_type_id":"4","last_reported":1735207754,"current_range_meters":20400,"station_id":"ce4bh8p2rcd13ifvqeb0","pricing_plan_id":"cebpf4jnsgd1na2vs0mg"},{"bike_id":"107293e0-c7be-43c0-af1a-6804e3613664","system_id":"levelo_inurba_marseille","lat":43.2407,"lon":5.37756,"is_reserved":false,"is_disabled":false,"rental_uris":{"android":"levelo://app?vid=107293e0-c7be-43c0-af1a-6804e3613664","ios":"levelo://app?vid=107293e0-c7be-43c0-af1a-6804e3613664"},"vehicle_type_id":"4","last_reported":1735207754,"current_range_meters":24400,"station_id":"ce4bhnp2rcd13ifvqgvg","pricing_plan_id":"cebpf4jnsgd1na2vs0mg"},{"bike_id":"fa7b6f51-07ff-4e1f-ba75-2880fb9ee1b2","system_id":"levelo_inurba_marseille","lat":43.241708,"lon":5.364091,"is_reserved":false,"is_disabled":false,"rental_uris":{"android":"levelo://app?vid=fa7b6f51-07ff-4e1f-ba75-2880fb9ee1b2","ios":"levelo://app?vid=fa7b6f51-07ff-4e1f-ba75-2880fb9ee1b2"},"vehicle_type_id":"4","last_reported":1735207754,"current_range_meters":27600,"station_id":"cpo36qri1sfpv3e86is0","pricing_plan_id":"cebpf4jnsgd1na2vs0mg"},{"bike_id":"9ff763ff-e414-4d0e-8bb9-b34d48217a3e","system_id":"levelo_inurba_marseille","lat":43.2318,"lon":5.39982,"is_reserved":false,"is_disabled":false,"rental_uris":{"android":"levelo://app?vid=9ff763ff-e414-4d0e-8bb9-b34d48217a3e","ios":"levelo://app?vid=9ff763ff-e414-4d0e-8bb9-b34d48217a3e"},"vehicle_type_id":"4","last_reported":1735207754,"current_range_meters":10000,"station_id":"ce4bhn12rcd13ifvqgqg","pricing_plan_id":"cebpf4jnsgd1na2vs0mg"},{"bike_id":"abf6aed0-7312-4258-9fba-e9bf27ab8a64","system_id":"levelo_inurba_marseille","lat":43.33019,"lon":5.39051,"is_reserved":false,"is_disabled":false,"rental_uris":{"android":"levelo://app?vid=abf6aed0-7312-4258-9fba-e9bf27ab8a64","ios":"levelo://app?vid=abf6aed0-7312-4258-9fba-e9bf27ab8a64"},"vehicle_type_id":"4","last_reported":1735207754,"current_range_meters":12800,"station_id":"ce4bhr92rcd13ifvqhrg","pricing_plan_id":"cebpf4jnsgd1na2vs0mg"},{"bike_id":"50f50bdd-bdce-4362-a157-c43af826c5ff","system_id":"levelo_inurba_marseille","lat":43.28077,"lon":5.3965,"is_reserved":false,"is_disabled":false,"rental_uris":{"android":"levelo://app?vid=50f50bdd-bdce-4362-a157-c43af826c5ff","ios":"levelo://app?vid=50f50bdd-bdce-4362-a157-c43af826c5ff"},"vehicle_type_id":"4","last_reported":1735207754,"current_range_meters":28400,"station_id":"ce4bho12rcd13ifvqh2g","pricing_plan_id":"cebpf4jnsgd1na2vs0mg"},{"bike_id":"f1db332f-331a-413b-83f5-1e408c396bff","system_id":"levelo_inurba_marseille","lat":43.23178,"lon":5.39989,"is_reserved":false,"is_disabled":false,"rental_uris":{"android":"levelo://app?vid=f1db332f-331a-413b-83f5-1e408c396bff","ios":"levelo://app?vid=f1db332f-331a-413b-83f5-1e408c396bff"},"vehicle_type_id":"4","last_reported":1735207754,"current_range_meters":6400,"station_id":"ce4bhn12rcd13ifvqgqg","pricing_plan_id":"cebpf4jnsgd1na2vs0mg"},{"bike_id":"9263ea23-6c08-4d3b-903e-d7dda2d151c0","system_id":"levelo_inurba_marseille","lat":43.29915,"lon":5.37475,"is_reserved":false,"is_disabled":false,"rental_uris":{"android":"levelo://app?vid=9263ea23-6c08-4d3b-903e-d7dda2d151c0","ios":"levelo://app?vid=9263ea23-6c08-4d3b-903e-d7dda2d151c0"},"vehicle_type_id":"4","last_reported":1735207754,"current_range_meters":28000,"station_id":"ce4bgjh2rcd13ifvqbg0","pricing_plan_id":"cebpf4jnsgd1na2vs0mg"},{"bike_id":"6158cb83-2d77-4dc9-bbd7-a123e9b17c67","system_id":"levelo_inurba_marseille","lat":43.28564,"lon":5.39496,"is_reserved":false,"is_disabled":false,"rental_uris":{"android":"levelo://app?vid=6158cb83-2d77-4dc9-bbd7-a123e9b17c67","ios":"levelo://app?vid=6158cb83-2d77-4dc9-bbd7-a123e9b17c67"},"vehicle_type_id":"4","last_reported":1735207754,"current_range_meters":38800,"station_id":"ce4bh292rcd13ifvqdg0","pricing_plan_id":"cebpf4jnsgd1na2vs0mg"},{"bike_id":"a75bbc23-aa3f-44bd-8bd9-1b76f294eba0","system_id":"levelo_inurba_marseille","lat":43.284876,"lon":5.385729,"is_reserved":false,"is_disabled":false,"rental_uris":{"android":"levelo://app?vid=a75bbc23-aa3f-44bd-8bd9-1b76f294eba0","ios":"levelo://app?vid=a75bbc23-aa3f-44bd-8bd9-1b76f294eba0"},"vehicle_type_id":"4","last_reported":1735207754,"current_range_meters":34000,"station_id":"ce4bh8p2rcd13ifvqeb0","pricing_plan_id":"cebpf4jnsgd1na2vs0mg"},{"bike_id":"1f9a219f-6771-4547-a412-3c103ad15f6d","system_id":"levelo_inurba_marseille","lat":43.29272,"lon":5.36848,"is_reserved":false,"is_disabled":false,"rental_uris":{"android":"levelo://app?vid=1f9a219f-6771-4547-a412-3c103ad15f6d","ios":"levelo://app?vid=1f9a219f-6771-4547-a412-3c103ad15f6d"},"vehicle_type_id":"4","last_reported":1735207754,"current_range_meters":38800,"station_id":"ce4bhbp2rcd13ifvqesg","pricing_plan_id":"cebpf4jnsgd1na2vs0mg"},{"bike_id":"21f1959c-9397-4e64-a030-86a94f9a2a3e","system_id":"levelo_inurba_marseille","lat":43.30099,"lon":5.39072,"is_reserved":false,"is_disabled":false,"rental_uris":{"android":"levelo://app?vid=21f1959c-9397-4e64-a030-86a94f9a2a3e","ios":"levelo://app?vid=21f1959c-9397-4e64-a030-86a94f9a2a3e"},"vehicle_type_id":"4","last_reported":1735207754,"current_range_meters":26000,"station_id":"ce4bh192rcd13ifvqdb0","pricing_plan_id":"cebpf4jnsgd1na2vs0mg"},{"bike_id":"fcaf1022-b8ca-4e5c-a198-375c8e01b7f0","system_id":"levelo_inurba_marseille","lat":43.29196,"lon":5.37155,"is_reserved":false,"is_disabled":false,"rental_uris":{"android":"levelo://app?vid=fcaf1022-b8ca-4e5c-a198-375c8e01b7f0","ios":"levelo://app?vid=fcaf1022-b8ca-4e5c-a198-375c8e01b7f0"},"vehicle_type_id":"4","last_reported":1735207754,"current_range_meters":38800,"station_id":"ce4bha92rcd13ifvqeh0","pricing_plan_id":"cebpf4jnsgd1na2vs0mg"},{"bike_id":"977db128-2203-4284-a9d6-0a0a767ce812","system_id":"levelo_inurba_marseille","lat":43.309513,"lon":5.39036,"is_reserved":false,"is_disabled":false,"rental_uris":{"android":"levelo://app?vid=977db128-2203-4284-a9d6-0a0a767ce812","ios":"levelo://app?vid=977db128-2203-4284-a9d6-0a0a767ce812"},"vehicle_type_id":"4","last_reported":1735207754,"current_range_meters":39200,"station_id":"ce4bgup2rcd13ifvqco0","pricing_plan_id":"cebpf4jnsgd1na2vs0mg"},{"bike_id":"3c079412-698a-4ad7-872c-5c56e449290c","system_id":"levelo_inurba_marseille","lat":43.23148,"lon":5.43725,"is_reserved":false,"is_disabled":false,"rental_uris":{"android":"levelo://app?vid=3c079412-698a-4ad7-872c-5c56e449290c","ios":"levelo://app?vid=3c079412-698a-4ad7-872c-5c56e449290c"},"vehicle_type_id":"4","last_reported":1735207754,"current_range_meters":28000,"station_id":"ce4bhmp2rcd13ifvqgog","pricing_plan_id":"cebpf4jnsgd1na2vs0mg"},{"bike_id":"86ae6257-84fd-4e32-b674-f23a136ab287","system_id":"levelo_inurba_marseille","lat":43.28942,"lon":5.39629,"is_reserved":false,"is_disabled":false,"rental_uris":{"android":"levelo://app?vid=86ae6257-84fd-4e32-b674-f23a136ab287","ios":"levelo://app?vid=86ae6257-84fd-4e32-b674-f23a136ab287"},"vehicle_type_id":"4","last_reported":1735207754,"current_range_meters":39200,"station_id":"ce4bh3h2rcd13ifvqdn0","pricing_plan_id":"cebpf4jnsgd1na2vs0mg"},{"bike_id":"09898dd2-84ad-4911-a21d-d1f0823964b3","system_id":"levelo_inurba_marseille","lat":43.29614,"lon":5.3773,"is_reserved":false,"is_disabled":false,"rental_uris":{"android":"levelo://app?vid=09898dd2-84ad-4911-a21d-d1f0823964b3","ios":"levelo://app?vid=09898dd2-84ad-4911-a21d-d1f0823964b3"},"vehicle_type_id":"4","last_reported":1735207754,"current_range_meters":38800,"station_id":"ce4bgi92rcd13ifvqb90","pricing_plan_id":"cebpf4jnsgd1na2vs0mg"},{"bike_id":"355b3870-831f-4fa3-9dc8-119fb1c69c93","system_id":"levelo_inurba_marseille","lat":43.31313,"lon":5.36825,"is_reserved":false,"is_disabled":false,"rental_uris":{"android":"levelo://app?vid=355b3870-831f-4fa3-9dc8-119fb1c69c93","ios":"levelo://app?vid=355b3870-831f-4fa3-9dc8-119fb1c69c93"},"vehicle_type_id":"4","last_reported":1735207754,"current_range_meters":38800,"station_id":"ce4bgr92rcd13ifvqc6g","pricing_plan_id":"cebpf4jnsgd1na2vs0mg"},{"bike_id":"a7fb1b05-a907-4263-aa4e-a736703543c8","system_id":"levelo_inurba_marseille","lat":43.28942,"lon":5.39641,"is_reserved":false,"is_disabled":false,"rental_uris":{"android":"levelo://app?vid=a7fb1b05-a907-4263-aa4e-a736703543c8","ios":"levelo://app?vid=a7fb1b05-a907-4263-aa4e-a736703543c8"},"vehicle_type_id":"4","last_reported":1735207754,"current_range_meters":30800,"station_id":"ce4bh3h2rcd13ifvqdn0","pricing_plan_id":"cebpf4jnsgd1na2vs0mg"},{"bike_id":"7608f1ad-6069-4760-9820-c5af492fd707","system_id":"levelo_inurba_marseille","lat":43.29575,"lon":5.36736,"is_reserved":false,"is_disabled":false,"rental_uris":{"android":"levelo://app?vid=7608f1ad-6069-4760-9820-c5af492fd707","ios":"levelo://app?vid=7608f1ad-6069-4760-9820-c5af492fd707"},"vehicle_type_id":"4","last_reported":1735207754,"current_range_meters":37600,"station_id":"ce4bgph2rcd13ifvqc2g","pricing_plan_id":"cebpf4jnsgd1na2vs0mg"},{"bike_id":"bb55ed15-f4dc-4fc3-94d7-a5f7f759a582","system_id":"levelo_inurba_marseille","lat":43.30298,"lon":5.39203,"is_reserved":false,"is_disabled":false,"rental_uris":{"android":"levelo://app?vid=bb55ed15-f4dc-4fc3-94d7-a5f7f759a582","ios":"levelo://app?vid=bb55ed15-f4dc-4fc3-94d7-a5f7f759a582"},"vehicle_type_id":"4","last_reported":1735207754,"current_range_meters":39200,"station_id":"ce4bgkh2rcd13ifvqbk0","pricing_plan_id":"cebpf4jnsgd1na2vs0mg"},{"bike_id":"36e821ea-900d-4b10-9ad9-6e6d3167874a","system_id":"levelo_inurba_marseille","lat":43.29374,"lon":5.3786,"is_reserved":false,"is_disabled":false,"rental_uris":{"android":"levelo://app?vid=36e821ea-900d-4b10-9ad9-6e6d3167874a","ios":"levelo://app?vid=36e821ea-900d-4b10-9ad9-6e6d3167874a"},"vehicle_type_id":"4","last_reported":1735207754,"current_range_meters":39200,"station_id":"ce4bgjh2rcd13ifvqbf0","pricing_plan_id":"cebpf4jnsgd1na2vs0mg"},{"bike_id":"2ed0c379-21a4-416f-95e6-c6a4adae152d","system_id":"levelo_inurba_marseille","lat":43.299043,"lon":5.381428,"is_reserved":false,"is_disabled":false,"rental_uris":{"android":"levelo://app?vid=2ed0c379-21a4-416f-95e6-c6a4adae152d","ios":"levelo://app?vid=2ed0c379-21a4-416f-95e6-c6a4adae152d"},"vehicle_type_id":"4","last_reported":1735207754,"current_range_meters":28000,"station_id":"ce4bgj12rcd13ifvqbc0","pricing_plan_id":"cebpf4jnsgd1na2vs0mg"},{"bike_id":"6fc39219-982d-4feb-9b3b-e1ba4db40afe","system_id":"levelo_inurba_marseille","lat":43.296011,"lon":5.380968,"is_reserved":false,"is_disabled":false,"rental_uris":{"android":"levelo://app?vid=6fc39219-982d-4feb-9b3b-e1ba4db40afe","ios":"levelo://app?vid=6fc39219-982d-4feb-9b3b-e1ba4db40afe"},"vehicle_type_id":"4","last_reported":1735207754,"current_range_meters":38800,"station_id":"ce4bgl12rcd13ifvqbo0","pricing_plan_id":"cebpf4jnsgd1na2vs0mg"},{"bike_id":"e73e6057-e6e9-407b-a17e-f4e119a96aba","system_id":"levelo_inurba_marseille","lat":43.32109,"lon":5.36777,"is_reserved":false,"is_disabled":false,"rental_uris":{"android":"levelo://app?vid=e73e6057-e6e9-407b-a17e-f4e119a96aba","ios":"levelo://app?vid=e73e6057-e6e9-407b-a17e-f4e119a96aba"},"vehicle_type_id":"4","last_reported":1735207754,"current_range_meters":27600,"station_id":"ce4bhrh2rcd13ifvqhug","pricing_plan_id":"cebpf4jnsgd1na2vs0mg"},{"bike_id":"565d5cd4-03a8-460c-93ea-b6f10798ede0","system_id":"levelo_inurba_marseille","lat":43.29843,"lon":5.36278,"is_reserved":false,"is_disabled":false,"rental_uris":{"android":"levelo://app?vid=565d5cd4-03a8-460c-93ea-b6f10798ede0","ios":"levelo://app?vid=565d5cd4-03a8-460c-93ea-b6f10798ede0"},"vehicle_type_id":"4","last_reported":1735207754,"current_range_meters":39200,"station_id":"ce4bgpp2rcd13ifvqc3g","pricing_plan_id":"cebpf4jnsgd1na2vs0mg"},{"bike_id":"b38f5328-d57f-49cc-9b62-2b2ec748a6c3","system_id":"levelo_inurba_marseille","lat":43.29531,"lon":5.37497,"is_reserved":false,"is_disabled":false,"rental_uris":{"android":"levelo://app?vid=b38f5328-d57f-49cc-9b62-2b2ec748a6c3","ios":"levelo://app?vid=b38f5328-d57f-49cc-9b62-2b2ec748a6c3"},"vehicle_type_id":"4","last_reported":1735207754,"current_range_meters":23200,"station_id":"ce4bgkp2rcd13ifvqbmg","pricing_plan_id":"cebpf4jnsgd1na2vs0mg"},{"bike_id":"f70026f2-7641-4c98-b134-4f1cb7b88972","system_id":"levelo_inurba_marseille","lat":43.29978,"lon":5.37188,"is_reserved":false,"is_disabled":false,"rental_uris":{"android":"levelo://app?vid=f70026f2-7641-4c98-b134-4f1cb7b88972","ios":"levelo://app?vid=f70026f2-7641-4c98-b134-4f1cb7b88972"},"vehicle_type_id":"4","last_reported":1735207754,"current_range_meters":34800,"station_id":"ce4bgr92rcd13ifvqc7g","pricing_plan_id":"cebpf4jnsgd1na2vs0mg"},{"bike_id":"76bdf9c0-a3eb-452e-a555-b96478b69568","system_id":"levelo_inurba_marseille","lat":43.2319,"lon":5.35554,"is_reserved":false,"is_disabled":false,"rental_uris":{"android":"levelo://app?vid=76bdf9c0-a3eb-452e-a555-b96478b69568","ios":"levelo://app?vid=76bdf9c0-a3eb-452e-a555-b96478b69568"},"vehicle_type_id":"4","last_reported":1735207754,"current_range_meters":6000,"station_id":"ce4bhu92rcd13ifvqi70","pricing_plan_id":"cebpf4jnsgd1na2vs0mg"},{"bike_id":"fa4aab2c-881d-426e-9895-68cab6a2f78f","system_id":"levelo_inurba_marseille","lat":43.32031,"lon":5.41557,"is_reserved":false,"is_disabled":false,"rental_uris":{"android":"levelo://app?vid=fa4aab2c-881d-426e-9895-68cab6a2f78f","ios":"levelo://app?vid=fa4aab2c-881d-426e-9895-68cab6a2f78f"},"vehicle_type_id":"4","last_reported":1735207754,"current_range_meters":36800,"station_id":"ce4bhq92rcd13ifvqhkg","pricing_plan_id":"cebpf4jnsgd1na2vs0mg"},{"bike_id":"65ad4242-af96-43bf-b487-817c5dd49f70","system_id":"levelo_inurba_marseille","lat":43.29361,"lon":5.37859,"is_reserved":false,"is_disabled":false,"rental_uris":{"android":"levelo://app?vid=65ad4242-af96-43bf-b487-817c5dd49f70","ios":"levelo://app?vid=65ad4242-af96-43bf-b487-817c5dd49f70"},"vehicle_type_id":"4","last_reported":1735207754,"current_range_meters":38800,"station_id":"ce4bgjh2rcd13ifvqbf0","pricing_plan_id":"cebpf4jnsgd1na2vs0mg"},{"bike_id":"e3055757-4e5c-471b-bc49-10de19223f16","system_id":"levelo_inurba_marseille","lat":43.32042,"lon":5.415676,"is_reserved":false,"is_disabled":false,"rental_uris":{"android":"levelo://app?vid=e3055757-4e5c-471b-bc49-10de19223f16","ios":"levelo://app?vid=e3055757-4e5c-471b-bc49-10de19223f16"},"vehicle_type_id":"4","last_reported":1735207754,"current_range_meters":39200,"station_id":"ce4bhq92rcd13ifvqhkg","pricing_plan_id":"cebpf4jnsgd1na2vs0mg"},{"bike_id":"2982268b-01aa-4533-a44c-f31fb83c217d","system_id":"levelo_inurba_marseille","lat":43.2794,"lon":5.41041,"is_reserved":false,"is_disabled":false,"rental_uris":{"android":"levelo://app?vid=2982268b-01aa-4533-a44c-f31fb83c217d","ios":"levelo://app?vid=2982268b-01aa-4533-a44c-f31fb83c217d"},"vehicle_type_id":"4","last_reported":1735207754,"current_range_meters":33200,"station_id":"ce4bhnp2rcd13ifvqh0g","pricing_plan_id":"cebpf4jnsgd1na2vs0mg"},{"bike_id":"11510c8c-8870-421c-8bf6-544e71e1852b","system_id":"levelo_inurba_marseille","lat":43.26957,"lon":5.38629,"is_reserved":false,"is_disabled":false,"rental_uris":{"android":"levelo://app?vid=11510c8c-8870-421c-8bf6-544e71e1852b","ios":"levelo://app?vid=11510c8c-8870-421c-8bf6-544e71e1852b"},"vehicle_type_id":"4","last_reported":1735207754,"current_range_meters":8000,"station_id":"ce4bhh92rcd13ifvqfh0","pricing_plan_id":"cebpf4jnsgd1na2vs0mg"},{"bike_id":"3a580331-9372-4bb5-b733-a8f2ad942a85","system_id":"levelo_inurba_marseille","lat":43.30192,"lon":5.39464,"is_reserved":false,"is_disabled":false,"rental_uris":{"android":"levelo://app?vid=3a580331-9372-4bb5-b733-a8f2ad942a85","ios":"levelo://app?vid=3a580331-9372-4bb5-b733-a8f2ad942a85"},"vehicle_type_id":"4","last_reported":1735207754,"current_range_meters":27200,"station_id":"ce4bh0p2rcd13ifvqd70","pricing_plan_id":"cebpf4jnsgd1na2vs0mg"},{"bike_id":"ccdd99ca-f8cb-4748-a6e0-bf4351600cd0","system_id":"levelo_inurba_marseille","lat":43.24999,"lon":5.38928,"is_reserved":false,"is_disabled":false,"rental_uris":{"android":"levelo://app?vid=ccdd99ca-f8cb-4748-a6e0-bf4351600cd0","ios":"levelo://app?vid=ccdd99ca-f8cb-4748-a6e0-bf4351600cd0"},"vehicle_type_id":"4","last_reported":1735207754,"current_range_meters":38800,"station_id":"ce4bhgp2rcd13ifvqfd0","pricing_plan_id":"cebpf4jnsgd1na2vs0mg"},{"bike_id":"50e9988d-8c66-43a7-82cb-9818dcb38114","system_id":"levelo_inurba_marseille","lat":43.30428,"lon":5.39752,"is_reserved":false,"is_disabled":false,"rental_uris":{"android":"levelo://app?vid=50e9988d-8c66-43a7-82cb-9818dcb38114","ios":"levelo://app?vid=50e9988d-8c66-43a7-82cb-9818dcb38114"},"vehicle_type_id":"4","last_reported":1735207754,"current_range_meters":38800,"station_id":"ce4bh092rcd13ifvqd20","pricing_plan_id":"cebpf4jnsgd1na2vs0mg"},{"bike_id":"81d311ee-1012-4ecf-9e82-f41d7cb34f2d","system_id":"levelo_inurba_marseille","lat":43.30315,"lon":5.36911,"is_reserved":false,"is_disabled":false,"rental_uris":{"android":"levelo://app?vid=81d311ee-1012-4ecf-9e82-f41d7cb34f2d","ios":"levelo://app?vid=81d311ee-1012-4ecf-9e82-f41d7cb34f2d"},"vehicle_type_id":"4","last_reported":1735207754,"current_range_meters":34800,"station_id":"ce4bgqh2rcd13ifvqc5g","pricing_plan_id":"cebpf4jnsgd1na2vs0mg"},{"bike_id":"15bbec24-7186-42cd-b0e0-aa9b8e89e04a","system_id":"levelo_inurba_marseille","lat":43.30312,"lon":5.36895,"is_reserved":false,"is_disabled":false,"rental_uris":{"android":"levelo://app?vid=15bbec24-7186-42cd-b0e0-aa9b8e89e04a","ios":"levelo://app?vid=15bbec24-7186-42cd-b0e0-aa9b8e89e04a"},"vehicle_type_id":"4","last_reported":1735207754,"current_range_meters":37600,"station_id":"ce4bgqh2rcd13ifvqc5g","pricing_plan_id":"cebpf4jnsgd1na2vs0mg"},{"bike_id":"dad6db58-f5bc-4da2-b0b4-3d5d1002166b","system_id":"levelo_inurba_marseille","lat":43.32109,"lon":5.36777,"is_reserved":false,"is_disabled":false,"rental_uris":{"android":"levelo://app?vid=dad6db58-f5bc-4da2-b0b4-3d5d1002166b","ios":"levelo://app?vid=dad6db58-f5bc-4da2-b0b4-3d5d1002166b"},"vehicle_type_id":"4","last_reported":1735207754,"current_range_meters":22800,"station_id":"ce4bhrh2rcd13ifvqhug","pricing_plan_id":"cebpf4jnsgd1na2vs0mg"},{"bike_id":"d215e6a3-2dbb-4240-82c4-dbdd5ce5595f","system_id":"levelo_inurba_marseille","lat":43.299047,"lon":5.381506,"is_reserved":false,"is_disabled":false,"rental_uris":{"android":"levelo://app?vid=d215e6a3-2dbb-4240-82c4-dbdd5ce5595f","ios":"levelo://app?vid=d215e6a3-2dbb-4240-82c4-dbdd5ce5595f"},"vehicle_type_id":"4","last_reported":1735207754,"current_range_meters":38400,"station_id":"ce4bgj12rcd13ifvqbc0","pricing_plan_id":"cebpf4jnsgd1na2vs0mg"},{"bike_id":"5288de5a-7b5d-49f6-a273-76e383ab7ff0","system_id":"levelo_inurba_marseille","lat":43.3033,"lon":5.39227,"is_reserved":false,"is_disabled":false,"rental_uris":{"android":"levelo://app?vid=5288de5a-7b5d-49f6-a273-76e383ab7ff0","ios":"levelo://app?vid=5288de5a-7b5d-49f6-a273-76e383ab7ff0"},"vehicle_type_id":"4","last_reported":1735207754,"current_range_meters":16800,"station_id":"ce4bgkh2rcd13ifvqbk0","pricing_plan_id":"cebpf4jnsgd1na2vs0mg"},{"bike_id":"45095e46-efd3-4bf4-a7bd-194de4098578","system_id":"levelo_inurba_marseille","lat":43.29037,"lon":5.39943,"is_reserved":false,"is_disabled":false,"rental_uris":{"android":"levelo://app?vid=45095e46-efd3-4bf4-a7bd-194de4098578","ios":"levelo://app?vid=45095e46-efd3-4bf4-a7bd-194de4098578"},"vehicle_type_id":"4","last_reported":1735207754,"current_range_meters":38800,"station_id":"ce4bh392rcd13ifvqdm0","pricing_plan_id":"cebpf4jnsgd1na2vs0mg"},{"bike_id":"c880705e-1b0a-4ec8-9ef6-ece26fe220cc","system_id":"levelo_inurba_marseille","lat":43.30885,"lon":5.37192,"is_reserved":false,"is_disabled":false,"rental_uris":{"android":"levelo://app?vid=c880705e-1b0a-4ec8-9ef6-ece26fe220cc","ios":"levelo://app?vid=c880705e-1b0a-4ec8-9ef6-ece26fe220cc"},"vehicle_type_id":"4","last_reported":1735207754,"current_range_meters":30800,"station_id":"ce4bguh2rcd13ifvqckg","pricing_plan_id":"cebpf4jnsgd1na2vs0mg"},{"bike_id":"4ffd7b60-3c47-45bc-8928-6a2fd1f7ad0e","system_id":"levelo_inurba_marseille","lat":43.29724,"lon":5.376963,"is_reserved":false,"is_disabled":false,"rental_uris":{"android":"levelo://app?vid=4ffd7b60-3c47-45bc-8928-6a2fd1f7ad0e","ios":"levelo://app?vid=4ffd7b60-3c47-45bc-8928-6a2fd1f7ad0e"},"vehicle_type_id":"4","last_reported":1735207754,"current_range_meters":38800,"station_id":"ce4bgkh2rcd13ifvqbl0","pricing_plan_id":"cebpf4jnsgd1na2vs0mg"},{"bike_id":"70e77732-0482-43a4-832f-71336a2c90da","system_id":"levelo_inurba_marseille","lat":43.29907,"lon":5.38145,"is_reserved":false,"is_disabled":false,"rental_uris":{"android":"levelo://app?vid=70e77732-0482-43a4-832f-71336a2c90da","ios":"levelo://app?vid=70e77732-0482-43a4-832f-71336a2c90da"},"vehicle_type_id":"4","last_reported":1735207754,"current_range_meters":37600,"station_id":"ce4bgj12rcd13ifvqbc0","pricing_plan_id":"cebpf4jnsgd1na2vs0mg"},{"bike_id":"b4f8ea40-9d65-4980-9e3e-cf39c479d414","system_id":"levelo_inurba_marseille","lat":43.31532,"lon":5.38035,"is_reserved":false,"is_disabled":false,"rental_uris":{"android":"levelo://app?vid=b4f8ea40-9d65-4980-9e3e-cf39c479d414","ios":"levelo://app?vid=b4f8ea40-9d65-4980-9e3e-cf39c479d414"},"vehicle_type_id":"4","last_reported":1735207754,"current_range_meters":38000,"station_id":"ce4bhsp2rcd13ifvqi50","pricing_plan_id":"cebpf4jnsgd1na2vs0mg"},{"bike_id":"d73ec0a9-d109-43b4-becb-9dca2330fd90","system_id":"levelo_inurba_marseille","lat":43.255769,"lon":5.382357,"is_reserved":false,"is_disabled":false,"rental_uris":{"android":"levelo://app?vid=d73ec0a9-d109-43b4-becb-9dca2330fd90","ios":"levelo://app?vid=d73ec0a9-d109-43b4-becb-9dca2330fd90"},"vehicle_type_id":"4","last_reported":1735207754,"current_range_meters":16400,"station_id":"ce4bhih2rcd13ifvqfs0","pricing_plan_id":"cebpf4jnsgd1na2vs0mg"},{"bike_id":"91238bbb-eea3-4270-bf51-ddf350b3ca13","system_id":"levelo_inurba_marseille","lat":43.28454,"lon":5.3854,"is_reserved":false,"is_disabled":false,"rental_uris":{"android":"levelo://app?vid=91238bbb-eea3-4270-bf51-ddf350b3ca13","ios":"levelo://app?vid=91238bbb-eea3-4270-bf51-ddf350b3ca13"},"vehicle_type_id":"4","last_reported":1735207754,"current_range_meters":32400,"station_id":"ce4bh8p2rcd13ifvqeb0","pricing_plan_id":"cebpf4jnsgd1na2vs0mg"},{"bike_id":"80ed026c-17f9-438b-be50-69d6a379e713","system_id":"levelo_inurba_marseille","lat":43.29565,"lon":5.37512,"is_reserved":false,"is_disabled":false,"rental_uris":{"android":"levelo://app?vid=80ed026c-17f9-438b-be50-69d6a379e713","ios":"levelo://app?vid=80ed026c-17f9-438b-be50-69d6a379e713"},"vehicle_type_id":"4","last_reported":1735207754,"current_range_meters":38400,"station_id":"ce4bgh92rcd13ifvqb50","pricing_plan_id":"cebpf4jnsgd1na2vs0mg"},{"bike_id":"1866340a-45b4-4bd2-ac73-392a4ecb2e72","system_id":"levelo_inurba_marseille","lat":43.29843,"lon":5.36269,"is_reserved":false,"is_disabled":false,"rental_uris":{"android":"levelo://app?vid=1866340a-45b4-4bd2-ac73-392a4ecb2e72","ios":"levelo://app?vid=1866340a-45b4-4bd2-ac73-392a4ecb2e72"},"vehicle_type_id":"4","last_reported":1735207754,"current_range_meters":39200,"station_id":"ce4bgpp2rcd13ifvqc3g","pricing_plan_id":"cebpf4jnsgd1na2vs0mg"},{"bike_id":"356fdf04-5389-4dea-9842-bb9771f47806","system_id":"levelo_inurba_marseille","lat":43.29613,"lon":5.37715,"is_reserved":false,"is_disabled":false,"rental_uris":{"android":"levelo://app?vid=356fdf04-5389-4dea-9842-bb9771f47806","ios":"levelo://app?vid=356fdf04-5389-4dea-9842-bb9771f47806"},"vehicle_type_id":"4","last_reported":1735207754,"current_range_meters":38800,"station_id":"ce4bgi92rcd13ifvqb90","pricing_plan_id":"cebpf4jnsgd1na2vs0mg"},{"bike_id":"962a1248-d96d-458f-903c-aae2784c1f8d","system_id":"levelo_inurba_marseille","lat":43.29909,"lon":5.38128,"is_reserved":false,"is_disabled":false,"rental_uris":{"android":"levelo://app?vid=962a1248-d96d-458f-903c-aae2784c1f8d","ios":"levelo://app?vid=962a1248-d96d-458f-903c-aae2784c1f8d"},"vehicle_type_id":"4","last_reported":1735207754,"current_range_meters":38800,"station_id":"","pricing_plan_id":"cebpf4jnsgd1na2vs0mg"},{"bike_id":"a4662aba-26fa-4360-9dcc-7f1d2500cd3b","system_id":"levelo_inurba_marseille","lat":43.29024,"lon":5.38638,"is_reserved":false,"is_disabled":false,"rental_uris":{"android":"levelo://app?vid=a4662aba-26fa-4360-9dcc-7f1d2500cd3b","ios":"levelo://app?vid=a4662aba-26fa-4360-9dcc-7f1d2500cd3b"},"vehicle_type_id":"4","last_reported":1735207754,"current_range_meters":38800,"station_id":"ce4bh4p2rcd13ifvqe0g","pricing_plan_id":"cebpf4jnsgd1na2vs0mg"},{"bike_id":"ff152d6a-b6bc-406b-998e-dbf3ad51a72e","system_id":"levelo_inurba_marseille","lat":43.25577,"lon":5.38238,"is_reserved":false,"is_disabled":false,"rental_uris":{"android":"levelo://app?vid=ff152d6a-b6bc-406b-998e-dbf3ad51a72e","ios":"levelo://app?vid=ff152d6a-b6bc-406b-998e-dbf3ad51a72e"},"vehicle_type_id":"4","last_reported":1735207754,"current_range_meters":36000,"station_id":"ce4bhih2rcd13ifvqfs0","pricing_plan_id":"cebpf4jnsgd1na2vs0mg"},{"bike_id":"836d944f-6d75-4c17-b70a-d071158594dd","system_id":"levelo_inurba_marseille","lat":43.27385,"lon":5.39421,"is_reserved":false,"is_disabled":false,"rental_uris":{"android":"levelo://app?vid=836d944f-6d75-4c17-b70a-d071158594dd","ios":"levelo://app?vid=836d944f-6d75-4c17-b70a-d071158594dd"},"vehicle_type_id":"4","last_reported":1735207754,"current_range_meters":26800,"station_id":"ce4bhdp2rcd13ifvqf20","pricing_plan_id":"cebpf4jnsgd1na2vs0mg"},{"bike_id":"c6834b76-82f1-466a-8b2d-118839d142cc","system_id":"levelo_inurba_marseille","lat":43.29897,"lon":5.43666,"is_reserved":false,"is_disabled":true,"rental_uris":{"android":"levelo://app?vid=c6834b76-82f1-466a-8b2d-118839d142cc","ios":"levelo://app?vid=c6834b76-82f1-466a-8b2d-118839d142cc"},"vehicle_type_id":"4","last_reported":1735207754,"current_range_meters":1200,"station_id":"ce4bhpp2rcd13ifvqhfg","pricing_plan_id":"cebpf4jnsgd1na2vs0mg"},{"bike_id":"13c39096-92de-47dd-a9ee-5b5cda0c5bbc","system_id":"levelo_inurba_marseille","lat":43.24653,"lon":5.3889,"is_reserved":false,"is_disabled":false,"rental_uris":{"android":"levelo://app?vid=13c39096-92de-47dd-a9ee-5b5cda0c5bbc","ios":"levelo://app?vid=13c39096-92de-47dd-a9ee-5b5cda0c5bbc"},"vehicle_type_id":"4","last_reported":1735207754,"current_range_meters":23200,"station_id":"ce4bhg12rcd13ifvqf60","pricing_plan_id":"cebpf4jnsgd1na2vs0mg"},{"bike_id":"1107b56a-98a5-4a01-8449-9eba086fee5a","system_id":"levelo_inurba_marseille","lat":43.290671,"lon":5.398827,"is_reserved":false,"is_disabled":false,"rental_uris":{"android":"levelo://app?vid=1107b56a-98a5-4a01-8449-9eba086fee5a","ios":"levelo://app?vid=1107b56a-98a5-4a01-8449-9eba086fee5a"},"vehicle_type_id":"4","last_reported":1735207754,"current_range_meters":22400,"station_id":"","pricing_plan_id":"cebpf4jnsgd1na2vs0mg"},{"bike_id":"4e4277ec-b79e-43a1-bae0-d0f951c20956","system_id":"levelo_inurba_marseille","lat":43.2979,"lon":5.39351,"is_reserved":false,"is_disabled":false,"rental_uris":{"android":"levelo://app?vid=4e4277ec-b79e-43a1-bae0-d0f951c20956","ios":"levelo://app?vid=4e4277ec-b79e-43a1-bae0-d0f951c20956"},"vehicle_type_id":"4","last_reported":1735207754,"current_range_meters":38800,"station_id":"chh1huq6cuj3fo74tm60","pricing_plan_id":"cebpf4jnsgd1na2vs0mg"},{"bike_id":"6f68edfd-fb24-4919-b968-971a44d10505","system_id":"levelo_inurba_marseille","lat":43.3373,"lon":5.39162,"is_reserved":false,"is_disabled":false,"rental_uris":{"android":"levelo://app?vid=6f68edfd-fb24-4919-b968-971a44d10505","ios":"levelo://app?vid=6f68edfd-fb24-4919-b968-971a44d10505"},"vehicle_type_id":"4","last_reported":1735207754,"current_range_meters":38000,"station_id":"ce4bhr92rcd13ifvqhsg","pricing_plan_id":"cebpf4jnsgd1na2vs0mg"},{"bike_id":"e0ffade0-0205-41ce-8b12-b338ee26f97a","system_id":"levelo_inurba_marseille","lat":43.30956,"lon":5.39046,"is_reserved":false,"is_disabled":false,"rental_uris":{"android":"levelo://app?vid=e0ffade0-0205-41ce-8b12-b338ee26f97a","ios":"levelo://app?vid=e0ffade0-0205-41ce-8b12-b338ee26f97a"},"vehicle_type_id":"4","last_reported":1735207754,"current_range_meters":36800,"station_id":"ce4bgup2rcd13ifvqco0","pricing_plan_id":"cebpf4jnsgd1na2vs0mg"},{"bike_id":"57f726b3-8020-4342-803d-80211cba2fe5","system_id":"levelo_inurba_marseille","lat":43.285643,"lon":5.394999,"is_reserved":false,"is_disabled":false,"rental_uris":{"android":"levelo://app?vid=57f726b3-8020-4342-803d-80211cba2fe5","ios":"levelo://app?vid=57f726b3-8020-4342-803d-80211cba2fe5"},"vehicle_type_id":"4","last_reported":1735207754,"current_range_meters":28800,"station_id":"ce4bh292rcd13ifvqdg0","pricing_plan_id":"cebpf4jnsgd1na2vs0mg"},{"bike_id":"081617f2-352d-433d-abf2-e1c0c70491b7","system_id":"levelo_inurba_marseille","lat":43.27327,"lon":5.39103,"is_reserved":false,"is_disabled":false,"rental_uris":{"android":"levelo://app?vid=081617f2-352d-433d-abf2-e1c0c70491b7","ios":"levelo://app?vid=081617f2-352d-433d-abf2-e1c0c70491b7"},"vehicle_type_id":"4","last_reported":1735207754,"current_range_meters":39200,"station_id":"ce4bhgp2rcd13ifvqfe0","pricing_plan_id":"cebpf4jnsgd1na2vs0mg"},{"bike_id":"5608df94-b66e-460e-9f45-682a8f36b500","system_id":"levelo_inurba_marseille","lat":43.269284,"lon":5.389215,"is_reserved":false,"is_disabled":false,"rental_uris":{"android":"levelo://app?vid=5608df94-b66e-460e-9f45-682a8f36b500","ios":"levelo://app?vid=5608df94-b66e-460e-9f45-682a8f36b500"},"vehicle_type_id":"4","last_reported":1735207754,"current_range_meters":38800,"station_id":"ce4bhhh2rcd13ifvqfl0","pricing_plan_id":"cebpf4jnsgd1na2vs0mg"},{"bike_id":"4e6d0ca2-6374-490a-b48e-6cba90785a4f","system_id":"levelo_inurba_marseille","lat":43.24649,"lon":5.38892,"is_reserved":false,"is_disabled":false,"rental_uris":{"android":"levelo://app?vid=4e6d0ca2-6374-490a-b48e-6cba90785a4f","ios":"levelo://app?vid=4e6d0ca2-6374-490a-b48e-6cba90785a4f"},"vehicle_type_id":"4","last_reported":1735207754,"current_range_meters":12000,"station_id":"ce4bhg12rcd13ifvqf60","pricing_plan_id":"cebpf4jnsgd1na2vs0mg"},{"bike_id":"75dc6cdf-6b2f-4555-98ab-c0d955ac6c33","system_id":"levelo_inurba_marseille","lat":43.29574,"lon":5.37512,"is_reserved":false,"is_disabled":false,"rental_uris":{"android":"levelo://app?vid=75dc6cdf-6b2f-4555-98ab-c0d955ac6c33","ios":"levelo://app?vid=75dc6cdf-6b2f-4555-98ab-c0d955ac6c33"},"vehicle_type_id":"4","last_reported":1735207754,"current_range_meters":16800,"station_id":"ce4bgh92rcd13ifvqb50","pricing_plan_id":"cebpf4jnsgd1na2vs0mg"},{"bike_id":"cffdb5d9-706d-4270-8144-29c891a5788a","system_id":"levelo_inurba_marseille","lat":43.26209,"lon":5.42137,"is_reserved":false,"is_disabled":false,"rental_uris":{"android":"levelo://app?vid=cffdb5d9-706d-4270-8144-29c891a5788a","ios":"levelo://app?vid=cffdb5d9-706d-4270-8144-29c891a5788a"},"vehicle_type_id":"4","last_reported":1735207754,"current_range_meters":4400,"station_id":"","pricing_plan_id":"cebpf4jnsgd1na2vs0mg"},{"bike_id":"963b50d8-757b-4c39-84ed-9fb9fa9d8d9e","system_id":"levelo_inurba_marseille","lat":43.2922,"lon":5.36064,"is_reserved":false,"is_disabled":false,"rental_uris":{"android":"levelo://app?vid=963b50d8-757b-4c39-84ed-9fb9fa9d8d9e","ios":"levelo://app?vid=963b50d8-757b-4c39-84ed-9fb9fa9d8d9e"},"vehicle_type_id":"4","last_reported":1735207754,"current_range_meters":28000,"station_id":"ce4bhbh2rcd13ifvqeqg","pricing_plan_id":"cebpf4jnsgd1na2vs0mg"},{"bike_id":"ea835989-8785-466f-8dc4-c0afff64b334","system_id":"levelo_inurba_marseille","lat":43.23154,"lon":5.43702,"is_reserved":false,"is_disabled":false,"rental_uris":{"android":"levelo://app?vid=ea835989-8785-466f-8dc4-c0afff64b334","ios":"levelo://app?vid=ea835989-8785-466f-8dc4-c0afff64b334"},"vehicle_type_id":"4","last_reported":1735207754,"current_range_meters":8400,"station_id":"ce4bhmp2rcd13ifvqgog","pricing_plan_id":"cebpf4jnsgd1na2vs0mg"},{"bike_id":"dacd740a-a9e6-4b26-b456-f9e4d5adf7ca","system_id":"levelo_inurba_marseille","lat":43.26937,"lon":5.40257,"is_reserved":false,"is_disabled":false,"rental_uris":{"android":"levelo://app?vid=dacd740a-a9e6-4b26-b456-f9e4d5adf7ca","ios":"levelo://app?vid=dacd740a-a9e6-4b26-b456-f9e4d5adf7ca"},"vehicle_type_id":"4","last_reported":1735207754,"current_range_meters":39200,"station_id":"cjm6bp8fraef2m0cb0m0","pricing_plan_id":"cebpf4jnsgd1na2vs0mg"},{"bike_id":"5ca093cb-437c-4e7d-bc7e-09c7ab1b0f93","system_id":"levelo_inurba_marseille","lat":43.299124,"lon":5.374711,"is_reserved":false,"is_disabled":false,"rental_uris":{"android":"levelo://app?vid=5ca093cb-437c-4e7d-bc7e-09c7ab1b0f93","ios":"levelo://app?vid=5ca093cb-437c-4e7d-bc7e-09c7ab1b0f93"},"vehicle_type_id":"4","last_reported":1735207754,"current_range_meters":37600,"station_id":"ce4bgjh2rcd13ifvqbg0","pricing_plan_id":"cebpf4jnsgd1na2vs0mg"},{"bike_id":"dcb87de2-ef9d-49cc-839c-62b44084804f","system_id":"levelo_inurba_marseille","lat":43.28149,"lon":5.42651,"is_reserved":false,"is_disabled":false,"rental_uris":{"android":"levelo://app?vid=dcb87de2-ef9d-49cc-839c-62b44084804f","ios":"levelo://app?vid=dcb87de2-ef9d-49cc-839c-62b44084804f"},"vehicle_type_id":"4","last_reported":1735207754,"current_range_meters":4000,"station_id":"ce4bhnh2rcd13ifvqgug","pricing_plan_id":"cebpf4jnsgd1na2vs0mg"},{"bike_id":"adeb9f24-5201-4746-a674-4bf30daf0224","system_id":"levelo_inurba_marseille","lat":43.29724,"lon":5.36608,"is_reserved":false,"is_disabled":false,"rental_uris":{"android":"levelo://app?vid=adeb9f24-5201-4746-a674-4bf30daf0224","ios":"levelo://app?vid=adeb9f24-5201-4746-a674-4bf30daf0224"},"vehicle_type_id":"4","last_reported":1735207754,"current_range_meters":38800,"station_id":"ce4bgn12rcd13ifvqbt0","pricing_plan_id":"cebpf4jnsgd1na2vs0mg"},{"bike_id":"5259df95-e7f7-4991-8a9f-c29c9264851b","system_id":"levelo_inurba_marseille","lat":43.260576,"lon":5.393969,"is_reserved":false,"is_disabled":false,"rental_uris":{"android":"levelo://app?vid=5259df95-e7f7-4991-8a9f-c29c9264851b","ios":"levelo://app?vid=5259df95-e7f7-4991-8a9f-c29c9264851b"},"vehicle_type_id":"4","last_reported":1735207754,"current_range_meters":35200,"station_id":"ce4bhh92rcd13ifvqfj0","pricing_plan_id":"cebpf4jnsgd1na2vs0mg"},{"bike_id":"6a8570d1-eb04-4587-aa7b-7e8a4cf28911","system_id":"levelo_inurba_marseille","lat":43.31326,"lon":5.39692,"is_reserved":false,"is_disabled":false,"rental_uris":{"android":"levelo://app?vid=6a8570d1-eb04-4587-aa7b-7e8a4cf28911","ios":"levelo://app?vid=6a8570d1-eb04-4587-aa7b-7e8a4cf28911"},"vehicle_type_id":"4","last_reported":1735207754,"current_range_meters":32800,"station_id":"ce4bgvp2rcd13ifvqcu0","pricing_plan_id":"cebpf4jnsgd1na2vs0mg"},{"bike_id":"4e04e3c8-bad8-47c2-a784-0c5eba8b5d4f","system_id":"levelo_inurba_marseille","lat":43.27076,"lon":5.42281,"is_reserved":false,"is_disabled":false,"rental_uris":{"android":"levelo://app?vid=4e04e3c8-bad8-47c2-a784-0c5eba8b5d4f","ios":"levelo://app?vid=4e04e3c8-bad8-47c2-a784-0c5eba8b5d4f"},"vehicle_type_id":"4","last_reported":1735207754,"current_range_meters":35600,"station_id":"ce4bhk92rcd13ifvqgb0","pricing_plan_id":"cebpf4jnsgd1na2vs0mg"},{"bike_id":"3964cc91-6b10-4fb9-9b4d-cbe3e8abef97","system_id":"levelo_inurba_marseille","lat":43.30086,"lon":5.39108,"is_reserved":false,"is_disabled":false,"rental_uris":{"android":"levelo://app?vid=3964cc91-6b10-4fb9-9b4d-cbe3e8abef97","ios":"levelo://app?vid=3964cc91-6b10-4fb9-9b4d-cbe3e8abef97"},"vehicle_type_id":"4","last_reported":1735207754,"current_range_meters":37600,"station_id":"ce4bh192rcd13ifvqdb0","pricing_plan_id":"cebpf4jnsgd1na2vs0mg"},{"bike_id":"6acd59a7-8f7c-4599-aa0b-64fd7d521194","system_id":"levelo_inurba_marseille","lat":43.30424,"lon":5.39751,"is_reserved":false,"is_disabled":false,"rental_uris":{"android":"levelo://app?vid=6acd59a7-8f7c-4599-aa0b-64fd7d521194","ios":"levelo://app?vid=6acd59a7-8f7c-4599-aa0b-64fd7d521194"},"vehicle_type_id":"4","last_reported":1735207754,"current_range_meters":38800,"station_id":"ce4bh092rcd13ifvqd20","pricing_plan_id":"cebpf4jnsgd1na2vs0mg"},{"bike_id":"440e3196-84f0-46ce-9f51-f1d77928123c","system_id":"levelo_inurba_marseille","lat":43.23193,"lon":5.39974,"is_reserved":false,"is_disabled":false,"rental_uris":{"android":"levelo://app?vid=440e3196-84f0-46ce-9f51-f1d77928123c","ios":"levelo://app?vid=440e3196-84f0-46ce-9f51-f1d77928123c"},"vehicle_type_id":"4","last_reported":1735207754,"current_range_meters":28400,"station_id":"ce4bhn12rcd13ifvqgqg","pricing_plan_id":"cebpf4jnsgd1na2vs0mg"},{"bike_id":"fb0e6359-3fe6-4009-9014-99d06d5c7222","system_id":"levelo_inurba_marseille","lat":43.2962,"lon":5.3715,"is_reserved":false,"is_disabled":false,"rental_uris":{"android":"levelo://app?vid=fb0e6359-3fe6-4009-9014-99d06d5c7222","ios":"levelo://app?vid=fb0e6359-3fe6-4009-9014-99d06d5c7222"},"vehicle_type_id":"4","last_reported":1735207754,"current_range_meters":33200,"station_id":"ce4bgnh2rcd13ifvqc0g","pricing_plan_id":"cebpf4jnsgd1na2vs0mg"},{"bike_id":"f949e99e-d030-4c70-b600-40a4a8569a0c","system_id":"levelo_inurba_marseille","lat":43.29616,"lon":5.37175,"is_reserved":false,"is_disabled":false,"rental_uris":{"android":"levelo://app?vid=f949e99e-d030-4c70-b600-40a4a8569a0c","ios":"levelo://app?vid=f949e99e-d030-4c70-b600-40a4a8569a0c"},"vehicle_type_id":"4","last_reported":1735207754,"current_range_meters":24400,"station_id":"ce4bgnh2rcd13ifvqc0g","pricing_plan_id":"cebpf4jnsgd1na2vs0mg"},{"bike_id":"1f40a696-38bb-4f6b-aa91-057a85650965","system_id":"levelo_inurba_marseille","lat":43.25576,"lon":5.38231,"is_reserved":false,"is_disabled":false,"rental_uris":{"android":"levelo://app?vid=1f40a696-38bb-4f6b-aa91-057a85650965","ios":"levelo://app?vid=1f40a696-38bb-4f6b-aa91-057a85650965"},"vehicle_type_id":"4","last_reported":1735207754,"current_range_meters":20400,"station_id":"ce4bhih2rcd13ifvqfs0","pricing_plan_id":"cebpf4jnsgd1na2vs0mg"},{"bike_id":"d5c65e19-a8e1-427f-9f35-b9a6f20c2203","system_id":"levelo_inurba_marseille","lat":43.26196,"lon":5.3745,"is_reserved":false,"is_disabled":true,"rental_uris":{"android":"levelo://app?vid=d5c65e19-a8e1-427f-9f35-b9a6f20c2203","ios":"levelo://app?vid=d5c65e19-a8e1-427f-9f35-b9a6f20c2203"},"vehicle_type_id":"4","last_reported":1735207754,"current_range_meters":0,"station_id":"ce4bhgp2rcd13ifvqfc0","pricing_plan_id":"cebpf4jnsgd1na2vs0mg"},{"bike_id":"f551551b-66de-49d6-950d-435610dd1201","system_id":"levelo_inurba_marseille","lat":43.2439,"lon":5.37048,"is_reserved":false,"is_disabled":false,"rental_uris":{"android":"levelo://app?vid=f551551b-66de-49d6-950d-435610dd1201","ios":"levelo://app?vid=f551551b-66de-49d6-950d-435610dd1201"},"vehicle_type_id":"4","last_reported":1735207754,"current_range_meters":37600,"station_id":"ce4bhhh2rcd13ifvqfk0","pricing_plan_id":"cebpf4jnsgd1na2vs0mg"},{"bike_id":"8c5da3bb-c2e6-43d4-b963-ad2d9b262d8f","system_id":"levelo_inurba_marseille","lat":43.27941,"lon":5.41041,"is_reserved":false,"is_disabled":false,"rental_uris":{"android":"levelo://app?vid=8c5da3bb-c2e6-43d4-b963-ad2d9b262d8f","ios":"levelo://app?vid=8c5da3bb-c2e6-43d4-b963-ad2d9b262d8f"},"vehicle_type_id":"4","last_reported":1735207754,"current_range_meters":37600,"station_id":"ce4bhnp2rcd13ifvqh0g","pricing_plan_id":"cebpf4jnsgd1na2vs0mg"},{"bike_id":"aa5d5d16-a2f6-4c81-8cd4-c9ee96949ae4","system_id":"levelo_inurba_marseille","lat":43.23179,"lon":5.39989,"is_reserved":false,"is_disabled":false,"rental_uris":{"android":"levelo://app?vid=aa5d5d16-a2f6-4c81-8cd4-c9ee96949ae4","ios":"levelo://app?vid=aa5d5d16-a2f6-4c81-8cd4-c9ee96949ae4"},"vehicle_type_id":"4","last_reported":1735207754,"current_range_meters":38800,"station_id":"ce4bhn12rcd13ifvqgqg","pricing_plan_id":"cebpf4jnsgd1na2vs0mg"},{"bike_id":"f12eb93c-d258-40bc-ba9f-19d77f84b7cd","system_id":"levelo_inurba_marseille","lat":43.302315,"lon":5.400715,"is_reserved":false,"is_disabled":false,"rental_uris":{"android":"levelo://app?vid=f12eb93c-d258-40bc-ba9f-19d77f84b7cd","ios":"levelo://app?vid=f12eb93c-d258-40bc-ba9f-19d77f84b7cd"},"vehicle_type_id":"4","last_reported":1735207754,"current_range_meters":37600,"station_id":"ce4bgvh2rcd13ifvqcs0","pricing_plan_id":"cebpf4jnsgd1na2vs0mg"},{"bike_id":"e3ef34f6-0bd5-4679-9355-cfd293dbf562","system_id":"levelo_inurba_marseille","lat":43.30106,"lon":5.39071,"is_reserved":false,"is_disabled":false,"rental_uris":{"android":"levelo://app?vid=e3ef34f6-0bd5-4679-9355-cfd293dbf562","ios":"levelo://app?vid=e3ef34f6-0bd5-4679-9355-cfd293dbf562"},"vehicle_type_id":"4","last_reported":1735207754,"current_range_meters":24800,"station_id":"ce4bh192rcd13ifvqdb0","pricing_plan_id":"cebpf4jnsgd1na2vs0mg"},{"bike_id":"509d6939-a055-4cab-b606-fdeee6645c66","system_id":"levelo_inurba_marseille","lat":43.26519,"lon":5.39569,"is_reserved":false,"is_disabled":false,"rental_uris":{"android":"levelo://app?vid=509d6939-a055-4cab-b606-fdeee6645c66","ios":"levelo://app?vid=509d6939-a055-4cab-b606-fdeee6645c66"},"vehicle_type_id":"4","last_reported":1735207754,"current_range_meters":27200,"station_id":"ce4bhi12rcd13ifvqfq0","pricing_plan_id":"cebpf4jnsgd1na2vs0mg"},{"bike_id":"77f15159-754b-4023-8cc8-4e7ade3d5955","system_id":"levelo_inurba_marseille","lat":43.23153,"lon":5.43713,"is_reserved":false,"is_disabled":false,"rental_uris":{"android":"levelo://app?vid=77f15159-754b-4023-8cc8-4e7ade3d5955","ios":"levelo://app?vid=77f15159-754b-4023-8cc8-4e7ade3d5955"},"vehicle_type_id":"4","last_reported":1735207754,"current_range_meters":38000,"station_id":"ce4bhmp2rcd13ifvqgog","pricing_plan_id":"cebpf4jnsgd1na2vs0mg"},{"bike_id":"360332b9-e614-4783-9874-93f13a5e8049","system_id":"levelo_inurba_marseille","lat":43.30805,"lon":5.38158,"is_reserved":false,"is_disabled":false,"rental_uris":{"android":"levelo://app?vid=360332b9-e614-4783-9874-93f13a5e8049","ios":"levelo://app?vid=360332b9-e614-4783-9874-93f13a5e8049"},"vehicle_type_id":"4","last_reported":1735207754,"current_range_meters":38000,"station_id":"ce4bgt12rcd13ifvqce0","pricing_plan_id":"cebpf4jnsgd1na2vs0mg"},{"bike_id":"673ed0fe-3027-4e1f-9efc-2804b0e32190","system_id":"levelo_inurba_marseille","lat":43.26687,"lon":5.38272,"is_reserved":false,"is_disabled":false,"rental_uris":{"android":"levelo://app?vid=673ed0fe-3027-4e1f-9efc-2804b0e32190","ios":"levelo://app?vid=673ed0fe-3027-4e1f-9efc-2804b0e32190"},"vehicle_type_id":"4","last_reported":1735207754,"current_range_meters":24800,"station_id":"ce4bhg92rcd13ifvqf90","pricing_plan_id":"cebpf4jnsgd1na2vs0mg"},{"bike_id":"bd5379fa-575f-4147-880f-27f6dc893dfd","system_id":"levelo_inurba_marseille","lat":43.30442,"lon":5.38929,"is_reserved":false,"is_disabled":false,"rental_uris":{"android":"levelo://app?vid=bd5379fa-575f-4147-880f-27f6dc893dfd","ios":"levelo://app?vid=bd5379fa-575f-4147-880f-27f6dc893dfd"},"vehicle_type_id":"4","last_reported":1735207754,"current_range_meters":28400,"station_id":"ce4bgk12rcd13ifvqbi0","pricing_plan_id":"cebpf4jnsgd1na2vs0mg"},{"bike_id":"2e48270a-c773-45cd-b6b6-1f931f6c2627","system_id":"levelo_inurba_marseille","lat":43.29873,"lon":5.38938,"is_reserved":false,"is_disabled":false,"rental_uris":{"android":"levelo://app?vid=2e48270a-c773-45cd-b6b6-1f931f6c2627","ios":"levelo://app?vid=2e48270a-c773-45cd-b6b6-1f931f6c2627"},"vehicle_type_id":"4","last_reported":1735207754,"current_range_meters":39200,"station_id":"ce4bh392rcd13ifvqdl0","pricing_plan_id":"cebpf4jnsgd1na2vs0mg"},{"bike_id":"02e8cf79-1a2b-4805-9b9c-ae2b5a954d14","system_id":"levelo_inurba_marseille","lat":43.27888,"lon":5.39612,"is_reserved":false,"is_disabled":false,"rental_uris":{"android":"levelo://app?vid=02e8cf79-1a2b-4805-9b9c-ae2b5a954d14","ios":"levelo://app?vid=02e8cf79-1a2b-4805-9b9c-ae2b5a954d14"},"vehicle_type_id":"4","last_reported":1735207754,"current_range_meters":37600,"station_id":"ce4bhf92rcd13ifvqf40","pricing_plan_id":"cebpf4jnsgd1na2vs0mg"},{"bike_id":"37d2f0ec-ac54-41ea-b402-0cacdcd6105b","system_id":"levelo_inurba_marseille","lat":43.29609,"lon":5.37722,"is_reserved":false,"is_disabled":false,"rental_uris":{"android":"levelo://app?vid=37d2f0ec-ac54-41ea-b402-0cacdcd6105b","ios":"levelo://app?vid=37d2f0ec-ac54-41ea-b402-0cacdcd6105b"},"vehicle_type_id":"4","last_reported":1735207754,"current_range_meters":24000,"station_id":"ce4bgi92rcd13ifvqb90","pricing_plan_id":"cebpf4jnsgd1na2vs0mg"},{"bike_id":"6f699b48-96de-41b7-8197-cd5ab9f03e09","system_id":"levelo_inurba_marseille","lat":43.27993,"lon":5.4166,"is_reserved":false,"is_disabled":false,"rental_uris":{"android":"levelo://app?vid=6f699b48-96de-41b7-8197-cd5ab9f03e09","ios":"levelo://app?vid=6f699b48-96de-41b7-8197-cd5ab9f03e09"},"vehicle_type_id":"4","last_reported":1735207754,"current_range_meters":38800,"station_id":"ce4bho12rcd13ifvqh1g","pricing_plan_id":"cebpf4jnsgd1na2vs0mg"},{"bike_id":"5cd3212e-fb06-478b-ae7c-d81ecf928d20","system_id":"levelo_inurba_marseille","lat":43.29572,"lon":5.37496,"is_reserved":false,"is_disabled":false,"rental_uris":{"android":"levelo://app?vid=5cd3212e-fb06-478b-ae7c-d81ecf928d20","ios":"levelo://app?vid=5cd3212e-fb06-478b-ae7c-d81ecf928d20"},"vehicle_type_id":"4","last_reported":1735207754,"current_range_meters":39200,"station_id":"ce4bgh92rcd13ifvqb50","pricing_plan_id":"cebpf4jnsgd1na2vs0mg"},{"bike_id":"a71c35f4-2efe-4724-8661-9e91e75f58a5","system_id":"levelo_inurba_marseille","lat":43.31996,"lon":5.38152,"is_reserved":false,"is_disabled":false,"rental_uris":{"android":"levelo://app?vid=a71c35f4-2efe-4724-8661-9e91e75f58a5","ios":"levelo://app?vid=a71c35f4-2efe-4724-8661-9e91e75f58a5"},"vehicle_type_id":"4","last_reported":1735207754,"current_range_meters":20000,"station_id":"ce4bhr12rcd13ifvqhpg","pricing_plan_id":"cebpf4jnsgd1na2vs0mg"},{"bike_id":"cf9ebf9c-f7cc-4de0-a198-b9838d585b70","system_id":"levelo_inurba_marseille","lat":43.2897,"lon":5.35619,"is_reserved":false,"is_disabled":true,"rental_uris":{"android":"levelo://app?vid=cf9ebf9c-f7cc-4de0-a198-b9838d585b70","ios":"levelo://app?vid=cf9ebf9c-f7cc-4de0-a198-b9838d585b70"},"vehicle_type_id":"4","last_reported":1735207754,"current_range_meters":0,"station_id":"ce4bhb92rcd13ifvqen0","pricing_plan_id":"cebpf4jnsgd1na2vs0mg"},{"bike_id":"9537f047-7765-4389-ba54-cede393d57fd","system_id":"levelo_inurba_marseille","lat":43.317,"lon":5.43713,"is_reserved":false,"is_disabled":false,"rental_uris":{"android":"levelo://app?vid=9537f047-7765-4389-ba54-cede393d57fd","ios":"levelo://app?vid=9537f047-7765-4389-ba54-cede393d57fd"},"vehicle_type_id":"4","last_reported":1735207754,"current_range_meters":35200,"station_id":"ce4bhp92rcd13ifvqhcg","pricing_plan_id":"cebpf4jnsgd1na2vs0mg"},{"bike_id":"82719b16-0394-44a1-963a-3161d6b762b8","system_id":"levelo_inurba_marseille","lat":43.296251,"lon":5.371505,"is_reserved":false,"is_disabled":false,"rental_uris":{"android":"levelo://app?vid=82719b16-0394-44a1-963a-3161d6b762b8","ios":"levelo://app?vid=82719b16-0394-44a1-963a-3161d6b762b8"},"vehicle_type_id":"4","last_reported":1735207754,"current_range_meters":32800,"station_id":"ce4bgnh2rcd13ifvqc0g","pricing_plan_id":"cebpf4jnsgd1na2vs0mg"},{"bike_id":"a5b95a5f-98a9-4995-beea-39b6756268a8","system_id":"levelo_inurba_marseille","lat":43.2706,"lon":5.42294,"is_reserved":false,"is_disabled":false,"rental_uris":{"android":"levelo://app?vid=a5b95a5f-98a9-4995-beea-39b6756268a8","ios":"levelo://app?vid=a5b95a5f-98a9-4995-beea-39b6756268a8"},"vehicle_type_id":"4","last_reported":1735207754,"current_range_meters":38400,"station_id":"ce4bhk92rcd13ifvqgb0","pricing_plan_id":"cebpf4jnsgd1na2vs0mg"},{"bike_id":"0089825d-bdd9-4c40-bf0e-57b3cbb36429","system_id":"levelo_inurba_marseille","lat":43.30527,"lon":5.36719,"is_reserved":false,"is_disabled":false,"rental_uris":{"android":"levelo://app?vid=0089825d-bdd9-4c40-bf0e-57b3cbb36429","ios":"levelo://app?vid=0089825d-bdd9-4c40-bf0e-57b3cbb36429"},"vehicle_type_id":"4","last_reported":1735207754,"current_range_meters":39200,"station_id":"ce4bgrp2rcd13ifvqc9g","pricing_plan_id":"cebpf4jnsgd1na2vs0mg"},{"bike_id":"dbe6a0e7-5d44-41eb-b0ab-6557395df924","system_id":"levelo_inurba_marseille","lat":43.2961,"lon":5.37718,"is_reserved":false,"is_disabled":false,"rental_uris":{"android":"levelo://app?vid=dbe6a0e7-5d44-41eb-b0ab-6557395df924","ios":"levelo://app?vid=dbe6a0e7-5d44-41eb-b0ab-6557395df924"},"vehicle_type_id":"4","last_reported":1735207754,"current_range_meters":17600,"station_id":"ce4bgi92rcd13ifvqb90","pricing_plan_id":"cebpf4jnsgd1na2vs0mg"},{"bike_id":"4dbac046-8f9a-4500-85b8-75203039eb07","system_id":"levelo_inurba_marseille","lat":43.280969,"lon":5.37853,"is_reserved":false,"is_disabled":false,"rental_uris":{"android":"levelo://app?vid=4dbac046-8f9a-4500-85b8-75203039eb07","ios":"levelo://app?vid=4dbac046-8f9a-4500-85b8-75203039eb07"},"vehicle_type_id":"4","last_reported":1735207754,"current_range_meters":37600,"station_id":"ce4bha12rcd13ifvqee0","pricing_plan_id":"cebpf4jnsgd1na2vs0mg"},{"bike_id":"9fe7e9d1-94e1-4140-a183-19a205a8e7df","system_id":"levelo_inurba_marseille","lat":43.27177,"lon":5.42871,"is_reserved":false,"is_disabled":true,"rental_uris":{"android":"levelo://app?vid=9fe7e9d1-94e1-4140-a183-19a205a8e7df","ios":"levelo://app?vid=9fe7e9d1-94e1-4140-a183-19a205a8e7df"},"vehicle_type_id":"4","last_reported":1735207754,"current_range_meters":0,"station_id":"","pricing_plan_id":"cebpf4jnsgd1na2vs0mg"},{"bike_id":"cb03cf66-d2b9-453d-8ff0-a05157d6006a","system_id":"levelo_inurba_marseille","lat":43.26938,"lon":5.389153,"is_reserved":false,"is_disabled":false,"rental_uris":{"android":"levelo://app?vid=cb03cf66-d2b9-453d-8ff0-a05157d6006a","ios":"levelo://app?vid=cb03cf66-d2b9-453d-8ff0-a05157d6006a"},"vehicle_type_id":"4","last_reported":1735207754,"current_range_meters":38800,"station_id":"ce4bhhh2rcd13ifvqfl0","pricing_plan_id":"cebpf4jnsgd1na2vs0mg"},{"bike_id":"4f5db02c-99f9-460e-a880-3ca7100df048","system_id":"levelo_inurba_marseille","lat":43.27388,"lon":5.39401,"is_reserved":false,"is_disabled":false,"rental_uris":{"android":"levelo://app?vid=4f5db02c-99f9-460e-a880-3ca7100df048","ios":"levelo://app?vid=4f5db02c-99f9-460e-a880-3ca7100df048"},"vehicle_type_id":"4","last_reported":1735207754,"current_range_meters":38000,"station_id":"ce4bhdp2rcd13ifvqf20","pricing_plan_id":"cebpf4jnsgd1na2vs0mg"},{"bike_id":"d92ce413-4a40-4ff0-95ab-ebe054e256bf","system_id":"levelo_inurba_marseille","lat":43.27936,"lon":5.41043,"is_reserved":false,"is_disabled":true,"rental_uris":{"android":"levelo://app?vid=d92ce413-4a40-4ff0-95ab-ebe054e256bf","ios":"levelo://app?vid=d92ce413-4a40-4ff0-95ab-ebe054e256bf"},"vehicle_type_id":"4","last_reported":1735207754,"current_range_meters":1600,"station_id":"ce4bhnp2rcd13ifvqh0g","pricing_plan_id":"cebpf4jnsgd1na2vs0mg"},{"bike_id":"22513807-c9e6-4543-9326-9e632d88e775","system_id":"levelo_inurba_marseille","lat":43.30302,"lon":5.36905,"is_reserved":false,"is_disabled":false,"rental_uris":{"android":"levelo://app?vid=22513807-c9e6-4543-9326-9e632d88e775","ios":"levelo://app?vid=22513807-c9e6-4543-9326-9e632d88e775"},"vehicle_type_id":"4","last_reported":1735207754,"current_range_meters":12000,"station_id":"ce4bgqh2rcd13ifvqc5g","pricing_plan_id":"cebpf4jnsgd1na2vs0mg"},{"bike_id":"b2c9ce57-2dc4-49aa-9988-425179a13ce1","system_id":"levelo_inurba_marseille","lat":43.29579,"lon":5.36743,"is_reserved":false,"is_disabled":false,"rental_uris":{"android":"levelo://app?vid=b2c9ce57-2dc4-49aa-9988-425179a13ce1","ios":"levelo://app?vid=b2c9ce57-2dc4-49aa-9988-425179a13ce1"},"vehicle_type_id":"4","last_reported":1735207754,"current_range_meters":15200,"station_id":"ce4bgph2rcd13ifvqc2g","pricing_plan_id":"cebpf4jnsgd1na2vs0mg"},{"bike_id":"dc5e7ea0-a412-4de9-92c3-6b61b2cc2423","system_id":"levelo_inurba_marseille","lat":43.30926,"lon":5.40156,"is_reserved":false,"is_disabled":false,"rental_uris":{"android":"levelo://app?vid=dc5e7ea0-a412-4de9-92c3-6b61b2cc2423","ios":"levelo://app?vid=dc5e7ea0-a412-4de9-92c3-6b61b2cc2423"},"vehicle_type_id":"4","last_reported":1735207754,"current_range_meters":38800,"station_id":"ce4bgvp2rcd13ifvqct0","pricing_plan_id":"cebpf4jnsgd1na2vs0mg"},{"bike_id":"6a8eeefc-8d5a-4d7b-a0f5-95af391a81de","system_id":"levelo_inurba_marseille","lat":43.29252,"lon":5.4091,"is_reserved":false,"is_disabled":true,"rental_uris":{"android":"levelo://app?vid=6a8eeefc-8d5a-4d7b-a0f5-95af391a81de","ios":"levelo://app?vid=6a8eeefc-8d5a-4d7b-a0f5-95af391a81de"},"vehicle_type_id":"4","last_reported":1735207754,"current_range_meters":36400,"station_id":"ce4bh192rcd13ifvqdc0","pricing_plan_id":"cebpf4jnsgd1na2vs0mg"},{"bike_id":"b07e0204-2c57-49d1-a1f7-320de8610e25","system_id":"levelo_inurba_marseille","lat":43.29402,"lon":5.37344,"is_reserved":false,"is_disabled":true,"rental_uris":{"android":"levelo://app?vid=b07e0204-2c57-49d1-a1f7-320de8610e25","ios":"levelo://app?vid=b07e0204-2c57-49d1-a1f7-320de8610e25"},"vehicle_type_id":"4","last_reported":1735207754,"current_range_meters":11200,"station_id":"","pricing_plan_id":"cebpf4jnsgd1na2vs0mg"},{"bike_id":"ca8ae58d-7cde-4450-9687-184913a7560e","system_id":"levelo_inurba_marseille","lat":43.30918,"lon":5.36827,"is_reserved":false,"is_disabled":false,"rental_uris":{"android":"levelo://app?vid=ca8ae58d-7cde-4450-9687-184913a7560e","ios":"levelo://app?vid=ca8ae58d-7cde-4450-9687-184913a7560e"},"vehicle_type_id":"4","last_reported":1735207754,"current_range_meters":38800,"station_id":"ce4bgn92rcd13ifvqbvg","pricing_plan_id":"cebpf4jnsgd1na2vs0mg"},{"bike_id":"f35cb0d1-d2b5-40c7-a3e0-e6e3f99ab249","system_id":"levelo_inurba_marseille","lat":43.29605,"lon":5.38108,"is_reserved":false,"is_disabled":false,"rental_uris":{"android":"levelo://app?vid=f35cb0d1-d2b5-40c7-a3e0-e6e3f99ab249","ios":"levelo://app?vid=f35cb0d1-d2b5-40c7-a3e0-e6e3f99ab249"},"vehicle_type_id":"4","last_reported":1735207754,"current_range_meters":31200,"station_id":"ce4bgl12rcd13ifvqbo0","pricing_plan_id":"cebpf4jnsgd1na2vs0mg"},{"bike_id":"416b9ac0-b983-483b-83d4-fcaecff4da1e","system_id":"levelo_inurba_marseille","lat":43.30136,"lon":5.3878,"is_reserved":false,"is_disabled":false,"rental_uris":{"android":"levelo://app?vid=416b9ac0-b983-483b-83d4-fcaecff4da1e","ios":"levelo://app?vid=416b9ac0-b983-483b-83d4-fcaecff4da1e"},"vehicle_type_id":"4","last_reported":1735207754,"current_range_meters":36000,"station_id":"ce4bhoh2rcd13ifvqh6g","pricing_plan_id":"cebpf4jnsgd1na2vs0mg"},{"bike_id":"d051bf13-7445-45ad-86d7-0bc2c858622c","system_id":"levelo_inurba_marseille","lat":43.29235,"lon":5.35832,"is_reserved":false,"is_disabled":false,"rental_uris":{"android":"levelo://app?vid=d051bf13-7445-45ad-86d7-0bc2c858622c","ios":"levelo://app?vid=d051bf13-7445-45ad-86d7-0bc2c858622c"},"vehicle_type_id":"4","last_reported":1735207754,"current_range_meters":28800,"station_id":"","pricing_plan_id":"cebpf4jnsgd1na2vs0mg"},{"bike_id":"6bf37fa6-c3eb-46d3-9bf0-e16bf1cc08b7","system_id":"levelo_inurba_marseille","lat":43.29526,"lon":5.37505,"is_reserved":false,"is_disabled":false,"rental_uris":{"android":"levelo://app?vid=6bf37fa6-c3eb-46d3-9bf0-e16bf1cc08b7","ios":"levelo://app?vid=6bf37fa6-c3eb-46d3-9bf0-e16bf1cc08b7"},"vehicle_type_id":"4","last_reported":1735207754,"current_range_meters":39200,"station_id":"ce4bgkp2rcd13ifvqbmg","pricing_plan_id":"cebpf4jnsgd1na2vs0mg"},{"bike_id":"a2df524c-2319-4584-88ea-4962bf3211f1","system_id":"levelo_inurba_marseille","lat":43.29266,"lon":5.40908,"is_reserved":false,"is_disabled":false,"rental_uris":{"android":"levelo://app?vid=a2df524c-2319-4584-88ea-4962bf3211f1","ios":"levelo://app?vid=a2df524c-2319-4584-88ea-4962bf3211f1"},"vehicle_type_id":"4","last_reported":1735207754,"current_range_meters":22800,"station_id":"ce4bh192rcd13ifvqdc0","pricing_plan_id":"cebpf4jnsgd1na2vs0mg"},{"bike_id":"6d4ed78f-6fd2-4452-87fa-0a236cb7ec15","system_id":"levelo_inurba_marseille","lat":43.27209,"lon":5.3918,"is_reserved":false,"is_disabled":false,"rental_uris":{"android":"levelo://app?vid=6d4ed78f-6fd2-4452-87fa-0a236cb7ec15","ios":"levelo://app?vid=6d4ed78f-6fd2-4452-87fa-0a236cb7ec15"},"vehicle_type_id":"4","last_reported":1735207754,"current_range_meters":9200,"station_id":"ce4bhhp2rcd13ifvqfm0","pricing_plan_id":"cebpf4jnsgd1na2vs0mg"},{"bike_id":"2ff14c8d-e17c-4f24-bcbe-f5f9542fe4f5","system_id":"levelo_inurba_marseille","lat":43.310157,"lon":5.390862,"is_reserved":false,"is_disabled":false,"rental_uris":{"android":"levelo://app?vid=2ff14c8d-e17c-4f24-bcbe-f5f9542fe4f5","ios":"levelo://app?vid=2ff14c8d-e17c-4f24-bcbe-f5f9542fe4f5"},"vehicle_type_id":"4","last_reported":1735207754,"current_range_meters":28400,"station_id":"ce4bgup2rcd13ifvqco0","pricing_plan_id":"cebpf4jnsgd1na2vs0mg"},{"bike_id":"d05e567c-c259-4bef-aaec-2b74975b96c4","system_id":"levelo_inurba_marseille","lat":43.28475,"lon":5.3841,"is_reserved":false,"is_disabled":false,"rental_uris":{"android":"levelo://app?vid=d05e567c-c259-4bef-aaec-2b74975b96c4","ios":"levelo://app?vid=d05e567c-c259-4bef-aaec-2b74975b96c4"},"vehicle_type_id":"4","last_reported":1735207754,"current_range_meters":38800,"station_id":"ce4bh512rcd13ifvqe3g","pricing_plan_id":"cebpf4jnsgd1na2vs0mg"},{"bike_id":"661c9c03-d158-4336-ab9c-5e12b162be7d","system_id":"levelo_inurba_marseille","lat":43.30449,"lon":5.38889,"is_reserved":false,"is_disabled":false,"rental_uris":{"android":"levelo://app?vid=661c9c03-d158-4336-ab9c-5e12b162be7d","ios":"levelo://app?vid=661c9c03-d158-4336-ab9c-5e12b162be7d"},"vehicle_type_id":"4","last_reported":1735207754,"current_range_meters":28400,"station_id":"ce4bgk12rcd13ifvqbi0","pricing_plan_id":"cebpf4jnsgd1na2vs0mg"},{"bike_id":"e87c3b99-5e71-4722-af07-f1b0e4f84d7a","system_id":"levelo_inurba_marseille","lat":43.29838,"lon":5.36268,"is_reserved":false,"is_disabled":false,"rental_uris":{"android":"levelo://app?vid=e87c3b99-5e71-4722-af07-f1b0e4f84d7a","ios":"levelo://app?vid=e87c3b99-5e71-4722-af07-f1b0e4f84d7a"},"vehicle_type_id":"4","last_reported":1735207754,"current_range_meters":12800,"station_id":"ce4bgpp2rcd13ifvqc3g","pricing_plan_id":"cebpf4jnsgd1na2vs0mg"},{"bike_id":"dda65ac8-8d64-45c8-923b-7c11f156fdc0","system_id":"levelo_inurba_marseille","lat":43.24178,"lon":5.39738,"is_reserved":false,"is_disabled":false,"rental_uris":{"android":"levelo://app?vid=dda65ac8-8d64-45c8-923b-7c11f156fdc0","ios":"levelo://app?vid=dda65ac8-8d64-45c8-923b-7c11f156fdc0"},"vehicle_type_id":"4","last_reported":1735207754,"current_range_meters":37600,"station_id":"ce4bhn12rcd13ifvqgpg","pricing_plan_id":"cebpf4jnsgd1na2vs0mg"},{"bike_id":"5758a74f-7a53-4d31-bd8e-c261dbb7346f","system_id":"levelo_inurba_marseille","lat":43.29107,"lon":5.3813,"is_reserved":false,"is_disabled":false,"rental_uris":{"android":"levelo://app?vid=5758a74f-7a53-4d31-bd8e-c261dbb7346f","ios":"levelo://app?vid=5758a74f-7a53-4d31-bd8e-c261dbb7346f"},"vehicle_type_id":"4","last_reported":1735207754,"current_range_meters":33200,"station_id":"ce4bh512rcd13ifvqe2g","pricing_plan_id":"cebpf4jnsgd1na2vs0mg"},{"bike_id":"022eb417-3899-4e9c-a3fa-64e526f93978","system_id":"levelo_inurba_marseille","lat":43.2961,"lon":5.377173,"is_reserved":false,"is_disabled":false,"rental_uris":{"android":"levelo://app?vid=022eb417-3899-4e9c-a3fa-64e526f93978","ios":"levelo://app?vid=022eb417-3899-4e9c-a3fa-64e526f93978"},"vehicle_type_id":"4","last_reported":1735207754,"current_range_meters":24400,"station_id":"ce4bgi92rcd13ifvqb90","pricing_plan_id":"cebpf4jnsgd1na2vs0mg"},{"bike_id":"c9751a8a-79d3-40c3-84a6-e2e10badf950","system_id":"levelo_inurba_marseille","lat":43.299064,"lon":5.381456,"is_reserved":false,"is_disabled":false,"rental_uris":{"android":"levelo://app?vid=c9751a8a-79d3-40c3-84a6-e2e10badf950","ios":"levelo://app?vid=c9751a8a-79d3-40c3-84a6-e2e10badf950"},"vehicle_type_id":"4","last_reported":1735207754,"current_range_meters":38800,"station_id":"ce4bgj12rcd13ifvqbc0","pricing_plan_id":"cebpf4jnsgd1na2vs0mg"},{"bike_id":"c4e11028-ec8b-49a6-b930-46560ebdf134","system_id":"levelo_inurba_marseille","lat":43.31488,"lon":5.37305,"is_reserved":false,"is_disabled":false,"rental_uris":{"android":"levelo://app?vid=c4e11028-ec8b-49a6-b930-46560ebdf134","ios":"levelo://app?vid=c4e11028-ec8b-49a6-b930-46560ebdf134"},"vehicle_type_id":"4","last_reported":1735207754,"current_range_meters":36400,"station_id":"ce4bgt12rcd13ifvqcd0","pricing_plan_id":"cebpf4jnsgd1na2vs0mg"},{"bike_id":"00f2299e-6e78-4b67-898f-d05e3c74d6f8","system_id":"levelo_inurba_marseille","lat":43.27424,"lon":5.39426,"is_reserved":false,"is_disabled":false,"rental_uris":{"android":"levelo://app?vid=00f2299e-6e78-4b67-898f-d05e3c74d6f8","ios":"levelo://app?vid=00f2299e-6e78-4b67-898f-d05e3c74d6f8"},"vehicle_type_id":"4","last_reported":1735207754,"current_range_meters":9200,"station_id":"ce4bhdp2rcd13ifvqf20","pricing_plan_id":"cebpf4jnsgd1na2vs0mg"},{"bike_id":"526c3b21-f659-466e-a14d-5675dcf072b5","system_id":"levelo_inurba_marseille","lat":43.27072,"lon":5.42275,"is_reserved":false,"is_disabled":false,"rental_uris":{"android":"levelo://app?vid=526c3b21-f659-466e-a14d-5675dcf072b5","ios":"levelo://app?vid=526c3b21-f659-466e-a14d-5675dcf072b5"},"vehicle_type_id":"4","last_reported":1735207754,"current_range_meters":31200,"station_id":"ce4bhk92rcd13ifvqgb0","pricing_plan_id":"cebpf4jnsgd1na2vs0mg"},{"bike_id":"6bca16b1-3eb4-4299-91bc-9740eea99592","system_id":"levelo_inurba_marseille","lat":43.29845,"lon":5.36271,"is_reserved":false,"is_disabled":false,"rental_uris":{"android":"levelo://app?vid=6bca16b1-3eb4-4299-91bc-9740eea99592","ios":"levelo://app?vid=6bca16b1-3eb4-4299-91bc-9740eea99592"},"vehicle_type_id":"4","last_reported":1735207754,"current_range_meters":39200,"station_id":"ce4bgpp2rcd13ifvqc3g","pricing_plan_id":"cebpf4jnsgd1na2vs0mg"},{"bike_id":"ad28af30-0133-4f2d-905e-747c774c723b","system_id":"levelo_inurba_marseille","lat":43.30516,"lon":5.36537,"is_reserved":false,"is_disabled":false,"rental_uris":{"android":"levelo://app?vid=ad28af30-0133-4f2d-905e-747c774c723b","ios":"levelo://app?vid=ad28af30-0133-4f2d-905e-747c774c723b"},"vehicle_type_id":"4","last_reported":1735207754,"current_range_meters":25200,"station_id":"ce4bgs12rcd13ifvqcag","pricing_plan_id":"cebpf4jnsgd1na2vs0mg"},{"bike_id":"611548fb-ec8b-4617-8c75-5c4beeea106b","system_id":"levelo_inurba_marseille","lat":43.27834,"lon":5.39217,"is_reserved":false,"is_disabled":false,"rental_uris":{"android":"levelo://app?vid=611548fb-ec8b-4617-8c75-5c4beeea106b","ios":"levelo://app?vid=611548fb-ec8b-4617-8c75-5c4beeea106b"},"vehicle_type_id":"4","last_reported":1735207754,"current_range_meters":38400,"station_id":"ce4bhjp2rcd13ifvqga0","pricing_plan_id":"cebpf4jnsgd1na2vs0mg"},{"bike_id":"abb6f3f1-c9e4-4600-bf62-12f84f815612","system_id":"levelo_inurba_marseille","lat":43.28359,"lon":5.38107,"is_reserved":false,"is_disabled":false,"rental_uris":{"android":"levelo://app?vid=abb6f3f1-c9e4-4600-bf62-12f84f815612","ios":"levelo://app?vid=abb6f3f1-c9e4-4600-bf62-12f84f815612"},"vehicle_type_id":"4","last_reported":1735207754,"current_range_meters":29600,"station_id":"ce4bh412rcd13ifvqdr0","pricing_plan_id":"cebpf4jnsgd1na2vs0mg"},{"bike_id":"4711e90b-6b19-4e60-ae2a-e3bc76845e6e","system_id":"levelo_inurba_marseille","lat":43.293455,"lon":5.374361,"is_reserved":false,"is_disabled":false,"rental_uris":{"android":"levelo://app?vid=4711e90b-6b19-4e60-ae2a-e3bc76845e6e","ios":"levelo://app?vid=4711e90b-6b19-4e60-ae2a-e3bc76845e6e"},"vehicle_type_id":"4","last_reported":1735207754,"current_range_meters":38000,"station_id":"ce4bgi12rcd13ifvqb70","pricing_plan_id":"cebpf4jnsgd1na2vs0mg"},{"bike_id":"1695f27a-9e40-44de-aae6-2b016129c621","system_id":"levelo_inurba_marseille","lat":43.32656,"lon":5.40992,"is_reserved":false,"is_disabled":false,"rental_uris":{"android":"levelo://app?vid=1695f27a-9e40-44de-aae6-2b016129c621","ios":"levelo://app?vid=1695f27a-9e40-44de-aae6-2b016129c621"},"vehicle_type_id":"4","last_reported":1735207754,"current_range_meters":38000,"station_id":"ce4bhpp2rcd13ifvqhgg","pricing_plan_id":"cebpf4jnsgd1na2vs0mg"},{"bike_id":"d603d9a8-30af-4a95-a9eb-2a2ca3a246b4","system_id":"levelo_inurba_marseille","lat":43.27036,"lon":5.40272,"is_reserved":false,"is_disabled":false,"rental_uris":{"android":"levelo://app?vid=d603d9a8-30af-4a95-a9eb-2a2ca3a246b4","ios":"levelo://app?vid=d603d9a8-30af-4a95-a9eb-2a2ca3a246b4"},"vehicle_type_id":"4","last_reported":1735207754,"current_range_meters":24800,"station_id":"ce4bhk92rcd13ifvqgc0","pricing_plan_id":"cebpf4jnsgd1na2vs0mg"},{"bike_id":"24d8041a-7437-43a0-ab7c-6a87c22cc63c","system_id":"levelo_inurba_marseille","lat":43.29305,"lon":5.37174,"is_reserved":false,"is_disabled":false,"rental_uris":{"android":"levelo://app?vid=24d8041a-7437-43a0-ab7c-6a87c22cc63c","ios":"levelo://app?vid=24d8041a-7437-43a0-ab7c-6a87c22cc63c"},"vehicle_type_id":"4","last_reported":1735207754,"current_range_meters":23200,"station_id":"ce4bgh92rcd13ifvqb40","pricing_plan_id":"cebpf4jnsgd1na2vs0mg"},{"bike_id":"8879d58d-570f-466c-bff6-20496b018051","system_id":"levelo_inurba_marseille","lat":43.30878,"lon":5.37201,"is_reserved":false,"is_disabled":false,"rental_uris":{"android":"levelo://app?vid=8879d58d-570f-466c-bff6-20496b018051","ios":"levelo://app?vid=8879d58d-570f-466c-bff6-20496b018051"},"vehicle_type_id":"4","last_reported":1735207754,"current_range_meters":38800,"station_id":"ce4bguh2rcd13ifvqckg","pricing_plan_id":"cebpf4jnsgd1na2vs0mg"},{"bike_id":"d24bcf9e-7df9-4fc0-9736-a88fb5d67669","system_id":"levelo_inurba_marseille","lat":43.311141,"lon":5.377631,"is_reserved":false,"is_disabled":false,"rental_uris":{"android":"levelo://app?vid=d24bcf9e-7df9-4fc0-9736-a88fb5d67669","ios":"levelo://app?vid=d24bcf9e-7df9-4fc0-9736-a88fb5d67669"},"vehicle_type_id":"4","last_reported":1735207754,"current_range_meters":19200,"station_id":"ce4bgt92rcd13ifvqcg0","pricing_plan_id":"cebpf4jnsgd1na2vs0mg"},{"bike_id":"4fc7f173-9887-4e37-abc9-94eaf6381eaf","system_id":"levelo_inurba_marseille","lat":43.2872,"lon":5.37936,"is_reserved":false,"is_disabled":false,"rental_uris":{"android":"levelo://app?vid=4fc7f173-9887-4e37-abc9-94eaf6381eaf","ios":"levelo://app?vid=4fc7f173-9887-4e37-abc9-94eaf6381eaf"},"vehicle_type_id":"4","last_reported":1735207754,"current_range_meters":22800,"station_id":"ce4bh9p2rcd13ifvqec0","pricing_plan_id":"cebpf4jnsgd1na2vs0mg"},{"bike_id":"eb94956d-a37a-47d9-bfab-17deeb9d48aa","system_id":"levelo_inurba_marseille","lat":43.28602,"lon":5.37064,"is_reserved":false,"is_disabled":false,"rental_uris":{"android":"levelo://app?vid=eb94956d-a37a-47d9-bfab-17deeb9d48aa","ios":"levelo://app?vid=eb94956d-a37a-47d9-bfab-17deeb9d48aa"},"vehicle_type_id":"4","last_reported":1735207754,"current_range_meters":38800,"station_id":"ce4bht12rcd13ifvqi60","pricing_plan_id":"cebpf4jnsgd1na2vs0mg"},{"bike_id":"5991145c-5e0e-4e64-83cf-1350c07ccc56","system_id":"levelo_inurba_marseille","lat":43.26492,"lon":5.39537,"is_reserved":false,"is_disabled":false,"rental_uris":{"android":"levelo://app?vid=5991145c-5e0e-4e64-83cf-1350c07ccc56","ios":"levelo://app?vid=5991145c-5e0e-4e64-83cf-1350c07ccc56"},"vehicle_type_id":"4","last_reported":1735207754,"current_range_meters":10000,"station_id":"ce4bhi12rcd13ifvqfq0","pricing_plan_id":"cebpf4jnsgd1na2vs0mg"},{"bike_id":"9da590cf-9e0b-4ae4-a009-5d750badc2c9","system_id":"levelo_inurba_marseille","lat":43.28033,"lon":5.36945,"is_reserved":false,"is_disabled":false,"rental_uris":{"android":"levelo://app?vid=9da590cf-9e0b-4ae4-a009-5d750badc2c9","ios":"levelo://app?vid=9da590cf-9e0b-4ae4-a009-5d750badc2c9"},"vehicle_type_id":"4","last_reported":1735207754,"current_range_meters":36400,"station_id":"ce4bha12rcd13ifvqef0","pricing_plan_id":"cebpf4jnsgd1na2vs0mg"},{"bike_id":"4e80fb69-89fc-4bc8-b1e4-f13a99f2e910","system_id":"levelo_inurba_marseille","lat":43.28493,"lon":5.3853,"is_reserved":false,"is_disabled":false,"rental_uris":{"android":"levelo://app?vid=4e80fb69-89fc-4bc8-b1e4-f13a99f2e910","ios":"levelo://app?vid=4e80fb69-89fc-4bc8-b1e4-f13a99f2e910"},"vehicle_type_id":"4","last_reported":1735207754,"current_range_meters":38000,"station_id":"ce4bh8p2rcd13ifvqeb0","pricing_plan_id":"cebpf4jnsgd1na2vs0mg"},{"bike_id":"ec3f8186-a764-4e8c-a21b-2f9464123659","system_id":"levelo_inurba_marseille","lat":43.2923,"lon":5.36057,"is_reserved":false,"is_disabled":false,"rental_uris":{"android":"levelo://app?vid=ec3f8186-a764-4e8c-a21b-2f9464123659","ios":"levelo://app?vid=ec3f8186-a764-4e8c-a21b-2f9464123659"},"vehicle_type_id":"4","last_reported":1735207754,"current_range_meters":12000,"station_id":"ce4bhbh2rcd13ifvqeqg","pricing_plan_id":"cebpf4jnsgd1na2vs0mg"},{"bike_id":"4f0978bb-2568-4421-9860-b196c4f6425f","system_id":"levelo_inurba_marseille","lat":43.29272,"lon":5.3685,"is_reserved":false,"is_disabled":false,"rental_uris":{"android":"levelo://app?vid=4f0978bb-2568-4421-9860-b196c4f6425f","ios":"levelo://app?vid=4f0978bb-2568-4421-9860-b196c4f6425f"},"vehicle_type_id":"4","last_reported":1735207754,"current_range_meters":26000,"station_id":"ce4bhbp2rcd13ifvqesg","pricing_plan_id":"cebpf4jnsgd1na2vs0mg"},{"bike_id":"f586f38f-76ff-488b-ae5a-d635823f2f7d","system_id":"levelo_inurba_marseille","lat":43.29038,"lon":5.39974,"is_reserved":false,"is_disabled":false,"rental_uris":{"android":"levelo://app?vid=f586f38f-76ff-488b-ae5a-d635823f2f7d","ios":"levelo://app?vid=f586f38f-76ff-488b-ae5a-d635823f2f7d"},"vehicle_type_id":"4","last_reported":1735207754,"current_range_meters":33600,"station_id":"ce4bh392rcd13ifvqdm0","pricing_plan_id":"cebpf4jnsgd1na2vs0mg"},{"bike_id":"24a0db75-7bed-41ff-96ec-1b27fea2acee","system_id":"levelo_inurba_marseille","lat":43.28946,"lon":5.36623,"is_reserved":false,"is_disabled":false,"rental_uris":{"android":"levelo://app?vid=24a0db75-7bed-41ff-96ec-1b27fea2acee","ios":"levelo://app?vid=24a0db75-7bed-41ff-96ec-1b27fea2acee"},"vehicle_type_id":"4","last_reported":1735207754,"current_range_meters":38800,"station_id":"ce4bhap2rcd13ifvqek0","pricing_plan_id":"cebpf4jnsgd1na2vs0mg"},{"bike_id":"0b377493-0204-4fd9-9814-244e449972b9","system_id":"levelo_inurba_marseille","lat":43.29189,"lon":5.35806,"is_reserved":false,"is_disabled":false,"rental_uris":{"android":"levelo://app?vid=0b377493-0204-4fd9-9814-244e449972b9","ios":"levelo://app?vid=0b377493-0204-4fd9-9814-244e449972b9"},"vehicle_type_id":"4","last_reported":1735207754,"current_range_meters":37600,"station_id":"ce4bhb12rcd13ifvqel0","pricing_plan_id":"cebpf4jnsgd1na2vs0mg"},{"bike_id":"730c5a7f-2181-4dfc-ac1e-bda49a5cba1c","system_id":"levelo_inurba_marseille","lat":43.269491,"lon":5.386373,"is_reserved":false,"is_disabled":false,"rental_uris":{"android":"levelo://app?vid=730c5a7f-2181-4dfc-ac1e-bda49a5cba1c","ios":"levelo://app?vid=730c5a7f-2181-4dfc-ac1e-bda49a5cba1c"},"vehicle_type_id":"4","last_reported":1735207754,"current_range_meters":38800,"station_id":"ce4bhh92rcd13ifvqfh0","pricing_plan_id":"cebpf4jnsgd1na2vs0mg"},{"bike_id":"89c31185-79e8-41ba-aeec-7ee23fd07219","system_id":"levelo_inurba_marseille","lat":43.26952,"lon":5.38616,"is_reserved":false,"is_disabled":false,"rental_uris":{"android":"levelo://app?vid=89c31185-79e8-41ba-aeec-7ee23fd07219","ios":"levelo://app?vid=89c31185-79e8-41ba-aeec-7ee23fd07219"},"vehicle_type_id":"4","last_reported":1735207754,"current_range_meters":33600,"station_id":"ce4bhh92rcd13ifvqfh0","pricing_plan_id":"cebpf4jnsgd1na2vs0mg"},{"bike_id":"520e5099-ef7a-4fd9-a1d1-e28589e8dc6e","system_id":"levelo_inurba_marseille","lat":43.272834,"lon":5.390911,"is_reserved":false,"is_disabled":false,"rental_uris":{"android":"levelo://app?vid=520e5099-ef7a-4fd9-a1d1-e28589e8dc6e","ios":"levelo://app?vid=520e5099-ef7a-4fd9-a1d1-e28589e8dc6e"},"vehicle_type_id":"4","last_reported":1735207754,"current_range_meters":33200,"station_id":"ce4bhgp2rcd13ifvqfe0","pricing_plan_id":"cebpf4jnsgd1na2vs0mg"},{"bike_id":"b0a18d06-1002-4baf-906d-b04071543c58","system_id":"levelo_inurba_marseille","lat":43.30601,"lon":5.37227,"is_reserved":false,"is_disabled":false,"rental_uris":{"android":"levelo://app?vid=b0a18d06-1002-4baf-906d-b04071543c58","ios":"levelo://app?vid=b0a18d06-1002-4baf-906d-b04071543c58"},"vehicle_type_id":"4","last_reported":1735207754,"current_range_meters":37600,"station_id":"ce4bgqh2rcd13ifvqc4g","pricing_plan_id":"cebpf4jnsgd1na2vs0mg"},{"bike_id":"e8c5ec79-d360-453e-a5a9-07904c439161","system_id":"levelo_inurba_marseille","lat":43.34152,"lon":5.40914,"is_reserved":false,"is_disabled":false,"rental_uris":{"android":"levelo://app?vid=e8c5ec79-d360-453e-a5a9-07904c439161","ios":"levelo://app?vid=e8c5ec79-d360-453e-a5a9-07904c439161"},"vehicle_type_id":"4","last_reported":1735207754,"current_range_meters":28800,"station_id":"ce4bhqh2rcd13ifvqhlg","pricing_plan_id":"cebpf4jnsgd1na2vs0mg"},{"bike_id":"dc9ec512-cf7e-4169-ab0a-62a57b1b5699","system_id":"levelo_inurba_marseille","lat":43.303,"lon":5.36917,"is_reserved":false,"is_disabled":false,"rental_uris":{"android":"levelo://app?vid=dc9ec512-cf7e-4169-ab0a-62a57b1b5699","ios":"levelo://app?vid=dc9ec512-cf7e-4169-ab0a-62a57b1b5699"},"vehicle_type_id":"4","last_reported":1735207754,"current_range_meters":38000,"station_id":"ce4bgqh2rcd13ifvqc5g","pricing_plan_id":"cebpf4jnsgd1na2vs0mg"},{"bike_id":"b7b9e881-5e89-4c85-ad2f-897b5fc75282","system_id":"levelo_inurba_marseille","lat":43.28476,"lon":5.38423,"is_reserved":false,"is_disabled":false,"rental_uris":{"android":"levelo://app?vid=b7b9e881-5e89-4c85-ad2f-897b5fc75282","ios":"levelo://app?vid=b7b9e881-5e89-4c85-ad2f-897b5fc75282"},"vehicle_type_id":"4","last_reported":1735207754,"current_range_meters":28800,"station_id":"ce4bh512rcd13ifvqe3g","pricing_plan_id":"cebpf4jnsgd1na2vs0mg"},{"bike_id":"441c8311-0c47-449c-9802-2d24792eb261","system_id":"levelo_inurba_marseille","lat":43.304301,"lon":5.397492,"is_reserved":false,"is_disabled":false,"rental_uris":{"android":"levelo://app?vid=441c8311-0c47-449c-9802-2d24792eb261","ios":"levelo://app?vid=441c8311-0c47-449c-9802-2d24792eb261"},"vehicle_type_id":"4","last_reported":1735207754,"current_range_meters":9600,"station_id":"ce4bh092rcd13ifvqd20","pricing_plan_id":"cebpf4jnsgd1na2vs0mg"},{"bike_id":"d44d1f78-454d-4d7b-a265-ac43e7720556","system_id":"levelo_inurba_marseille","lat":43.29263,"lon":5.384471,"is_reserved":false,"is_disabled":false,"rental_uris":{"android":"levelo://app?vid=d44d1f78-454d-4d7b-a265-ac43e7720556","ios":"levelo://app?vid=d44d1f78-454d-4d7b-a265-ac43e7720556"},"vehicle_type_id":"4","last_reported":1735207754,"current_range_meters":31200,"station_id":"ce4bh692rcd13ifvqea0","pricing_plan_id":"cebpf4jnsgd1na2vs0mg"},{"bike_id":"78d57c9c-f037-477c-8316-19d581a8aa2a","system_id":"levelo_inurba_marseille","lat":43.29036,"lon":5.39992,"is_reserved":false,"is_disabled":false,"rental_uris":{"android":"levelo://app?vid=78d57c9c-f037-477c-8316-19d581a8aa2a","ios":"levelo://app?vid=78d57c9c-f037-477c-8316-19d581a8aa2a"},"vehicle_type_id":"4","last_reported":1735207754,"current_range_meters":30400,"station_id":"ce4bh392rcd13ifvqdm0","pricing_plan_id":"cebpf4jnsgd1na2vs0mg"},{"bike_id":"c85bb4e7-e77d-4741-bec8-1bcd3860a1b0","system_id":"levelo_inurba_marseille","lat":43.29576,"lon":5.36735,"is_reserved":false,"is_disabled":false,"rental_uris":{"android":"levelo://app?vid=c85bb4e7-e77d-4741-bec8-1bcd3860a1b0","ios":"levelo://app?vid=c85bb4e7-e77d-4741-bec8-1bcd3860a1b0"},"vehicle_type_id":"4","last_reported":1735207754,"current_range_meters":35200,"station_id":"ce4bgph2rcd13ifvqc2g","pricing_plan_id":"cebpf4jnsgd1na2vs0mg"},{"bike_id":"491a606a-5a0e-411b-9789-9c74b8b5e4f2","system_id":"levelo_inurba_marseille","lat":43.25833,"lon":5.39417,"is_reserved":false,"is_disabled":false,"rental_uris":{"android":"levelo://app?vid=491a606a-5a0e-411b-9789-9c74b8b5e4f2","ios":"levelo://app?vid=491a606a-5a0e-411b-9789-9c74b8b5e4f2"},"vehicle_type_id":"4","last_reported":1735207754,"current_range_meters":38400,"station_id":"ce4bhip2rcd13ifvqft0","pricing_plan_id":"cebpf4jnsgd1na2vs0mg"},{"bike_id":"dac94ecf-3203-4c89-acc0-21c14e979588","system_id":"levelo_inurba_marseille","lat":43.26679,"lon":5.3829,"is_reserved":false,"is_disabled":false,"rental_uris":{"android":"levelo://app?vid=dac94ecf-3203-4c89-acc0-21c14e979588","ios":"levelo://app?vid=dac94ecf-3203-4c89-acc0-21c14e979588"},"vehicle_type_id":"4","last_reported":1735207754,"current_range_meters":6800,"station_id":"ce4bhg92rcd13ifvqf90","pricing_plan_id":"cebpf4jnsgd1na2vs0mg"},{"bike_id":"af5968c8-2785-4828-b61f-4da0ff5261dd","system_id":"levelo_inurba_marseille","lat":43.29033,"lon":5.37562,"is_reserved":false,"is_disabled":false,"rental_uris":{"android":"levelo://app?vid=af5968c8-2785-4828-b61f-4da0ff5261dd","ios":"levelo://app?vid=af5968c8-2785-4828-b61f-4da0ff5261dd"},