{"last_updated":1728724199,"ttl":60,"version":"2.2","data":{"bikes":[{"bike_id":"c1f74955-3289-4b68-adec-b56741d49e6e","system_id":"levelo_inurba_marseille","lat":43.24074,"lon":5.37754,"is_reserved":false,"is_disabled":false,"rental_uris":{"android":"levelo://app?vid=c1f74955-3289-4b68-adec-b56741d49e6e","ios":"levelo://app?vid=c1f74955-3289-4b68-adec-b56741d49e6e"},"vehicle_type_id":"4","last_reported":1728724199,"current_range_meters":25600,"station_id":"ce4bhnp2rcd13ifvqgvg","pricing_plan_id":"cebpf4jnsgd1na2vs0mg"},{"bike_id":"90252a86-9168-4e7e-8cdb-55f691622b28","system_id":"levelo_inurba_marseille","lat":43.27616,"lon":5.36102,"is_reserved":false,"is_disabled":false,"rental_uris":{"android":"levelo://app?vid=90252a86-9168-4e7e-8cdb-55f691622b28","ios":"levelo://app?vid=90252a86-9168-4e7e-8cdb-55f691622b28"},"vehicle_type_id":"4","last_reported":1728724199,"current_range_meters":9200,"station_id":"ce4bgj92rcd13ifvqbe0","pricing_plan_id":"cebpf4jnsgd1na2vs0mg"},{"bike_id":"942af4d4-a567-4f43-a02f-387da98d525a","system_id":"levelo_inurba_marseille","lat":43.29226,"lon":5.36058,"is_reserved":false,"is_disabled":false,"rental_uris":{"android":"levelo://app?vid=942af4d4-a567-4f43-a02f-387da98d525a","ios":"levelo://app?vid=942af4d4-a567-4f43-a02f-387da98d525a"},"vehicle_type_id":"4","last_reported":1728724199,"current_range_meters":38000,"station_id":"ce4bhbh2rcd13ifvqeqg","pricing_plan_id":"cebpf4jnsgd1na2vs0mg"},{"bike_id":"38eda0d1-5ce6-4010-9d58-af0c4b4806fc","system_id":"levelo_inurba_marseille","lat":43.27181,"lon":5.4099,"is_reserved":false,"is_disabled":false,"rental_uris":{"android":"levelo://app?vid=38eda0d1-5ce6-4010-9d58-af0c4b4806fc","ios":"levelo://app?vid=38eda0d1-5ce6-4010-9d58-af0c4b4806fc"},"vehicle_type_id":"4","last_reported":1728724199,"current_range_meters":38800,"station_id":"ce4bhl12rcd13ifvqgf0","pricing_plan_id":"cebpf4jnsgd1na2vs0mg"},{"bike_id":"4d9af922-8c79-4394-b957-d5834bf8e520","system_id":"levelo_inurba_marseille","lat":43.27672,"lon":5.38878,"is_reserved":false,"is_disabled":false,"rental_uris":{"android":"levelo://app?vid=4d9af922-8c79-4394-b957-d5834bf8e520","ios":"levelo://app?vid=4d9af922-8c79-4394-b957-d5834bf8e520"},"vehicle_type_id":"4","last_reported":1728724199,"current_range_meters":33600,"station_id":"ce4bhi12rcd13ifvqfo0","pricing_plan_id":"cebpf4jnsgd1na2vs0mg"},{"bike_id":"51dd5005-a195-4642-bd5f-8cbea71cb3b3","system_id":"levelo_inurba_marseille","lat":43.22929,"lon":5.35376,"is_reserved":false,"is_disabled":false,"rental_uris":{"android":"levelo://app?vid=51dd5005-a195-4642-bd5f-8cbea71cb3b3","ios":"levelo://app?vid=51dd5005-a195-4642-bd5f-8cbea71cb3b3"},"vehicle_type_id":"4","last_reported":1728724199,"current_range_meters":36800,"station_id":"cpo3532slgdg3j2ikp40","pricing_plan_id":"cebpf4jnsgd1na2vs0mg"},{"bike_id":"8ec598f6-6818-4de1-8f44-ba4f5f8a9cb0","system_id":"levelo_inurba_marseille","lat":43.31483,"lon":5.37304,"is_reserved":false,"is_disabled":false,"rental_uris":{"android":"levelo://app?vid=8ec598f6-6818-4de1-8f44-ba4f5f8a9cb0","ios":"levelo://app?vid=8ec598f6-6818-4de1-8f44-ba4f5f8a9cb0"},"vehicle_type_id":"4","last_reported":1728724199,"current_range_meters":22800,"station_id":"ce4bgt12rcd13ifvqcd0","pricing_plan_id":"cebpf4jnsgd1na2vs0mg"},{"bike_id":"0b00e452-018d-4e88-8ed8-30124b8f672d","system_id":"levelo_inurba_marseille","lat":43.30147,"lon":5.380836,"is_reserved":false,"is_disabled":false,"rental_uris":{"android":"levelo://app?vid=0b00e452-018d-4e88-8ed8-30124b8f672d","ios":"levelo://app?vid=0b00e452-018d-4e88-8ed8-30124b8f672d"},"vehicle_type_id":"4","last_reported":1728724199,"current_range_meters":8000,"station_id":"ce4bgjp2rcd13ifvqbh0","pricing_plan_id":"cebpf4jnsgd1na2vs0mg"},{"bike_id":"51b9555e-9940-483c-a759-ba55ff93d310","system_id":"levelo_inurba_marseille","lat":43.246678,"lon":5.381533,"is_reserved":false,"is_disabled":false,"rental_uris":{"android":"levelo://app?vid=51b9555e-9940-483c-a759-ba55ff93d310","ios":"levelo://app?vid=51b9555e-9940-483c-a759-ba55ff93d310"},"vehicle_type_id":"4","last_reported":1728724199,"current_range_meters":27600,"station_id":"ce4bhih2rcd13ifvqfr0","pricing_plan_id":"cebpf4jnsgd1na2vs0mg"},{"bike_id":"b474cc28-429d-4bf6-a453-cfd8e447da8a","system_id":"levelo_inurba_marseille","lat":43.33717,"lon":5.39179,"is_reserved":false,"is_disabled":false,"rental_uris":{"android":"levelo://app?vid=b474cc28-429d-4bf6-a453-cfd8e447da8a","ios":"levelo://app?vid=b474cc28-429d-4bf6-a453-cfd8e447da8a"},"vehicle_type_id":"4","last_reported":1728724199,"current_range_meters":37600,"station_id":"ce4bhr92rcd13ifvqhsg","pricing_plan_id":"cebpf4jnsgd1na2vs0mg"},{"bike_id":"8a3ea5a6-b0cd-48da-acf8-ccf7be6f48c6","system_id":"levelo_inurba_marseille","lat":43.34225,"lon":5.40084,"is_reserved":false,"is_disabled":false,"rental_uris":{"android":"levelo://app?vid=8a3ea5a6-b0cd-48da-acf8-ccf7be6f48c6","ios":"levelo://app?vid=8a3ea5a6-b0cd-48da-acf8-ccf7be6f48c6"},"vehicle_type_id":"4","last_reported":1728724199,"current_range_meters":8000,"station_id":"","pricing_plan_id":"cebpf4jnsgd1na2vs0mg"},{"bike_id":"4f1ac9db-36fd-4126-b3cc-b859636a6a29","system_id":"levelo_inurba_marseille","lat":43.22929,"lon":5.35377,"is_reserved":false,"is_disabled":false,"rental_uris":{"android":"levelo://app?vid=4f1ac9db-36fd-4126-b3cc-b859636a6a29","ios":"levelo://app?vid=4f1ac9db-36fd-4126-b3cc-b859636a6a29"},"vehicle_type_id":"4","last_reported":1728724199,"current_range_meters":37600,"station_id":"cpo3532slgdg3j2ikp40","pricing_plan_id":"cebpf4jnsgd1na2vs0mg"},{"bike_id":"61b1eb6b-6a62-4107-ae01-97ad89ff2cc6","system_id":"levelo_inurba_marseille","lat":43.29257,"lon":5.4091,"is_reserved":false,"is_disabled":false,"rental_uris":{"android":"levelo://app?vid=61b1eb6b-6a62-4107-ae01-97ad89ff2cc6","ios":"levelo://app?vid=61b1eb6b-6a62-4107-ae01-97ad89ff2cc6"},"vehicle_type_id":"4","last_reported":1728724199,"current_range_meters":30000,"station_id":"ce4bh192rcd13ifvqdc0","pricing_plan_id":"cebpf4jnsgd1na2vs0mg"},{"bike_id":"7d04ccd1-f699-4cf9-82c4-d134707ead9e","system_id":"levelo_inurba_marseille","lat":43.31489,"lon":5.37306,"is_reserved":false,"is_disabled":false,"rental_uris":{"android":"levelo://app?vid=7d04ccd1-f699-4cf9-82c4-d134707ead9e","ios":"levelo://app?vid=7d04ccd1-f699-4cf9-82c4-d134707ead9e"},"vehicle_type_id":"4","last_reported":1728724199,"current_range_meters":27600,"station_id":"ce4bgt12rcd13ifvqcd0","pricing_plan_id":"cebpf4jnsgd1na2vs0mg"},{"bike_id":"d6f3a95d-8bbf-4556-8f4e-4152ec793134","system_id":"levelo_inurba_marseille","lat":43.2694,"lon":5.40244,"is_reserved":false,"is_disabled":false,"rental_uris":{"android":"levelo://app?vid=d6f3a95d-8bbf-4556-8f4e-4152ec793134","ios":"levelo://app?vid=d6f3a95d-8bbf-4556-8f4e-4152ec793134"},"vehicle_type_id":"4","last_reported":1728724199,"current_range_meters":34000,"station_id":"cjm6bp8fraef2m0cb0m0","pricing_plan_id":"cebpf4jnsgd1na2vs0mg"},{"bike_id":"4f48289b-17e5-4365-b497-c3ee37f8ed6a","system_id":"levelo_inurba_marseille","lat":43.30319,"lon":5.40443,"is_reserved":false,"is_disabled":false,"rental_uris":{"android":"levelo://app?vid=4f48289b-17e5-4365-b497-c3ee37f8ed6a","ios":"levelo://app?vid=4f48289b-17e5-4365-b497-c3ee37f8ed6a"},"vehicle_type_id":"4","last_reported":1728724199,"current_range_meters":38800,"station_id":"ce4bh012rcd13ifvqd10","pricing_plan_id":"cebpf4jnsgd1na2vs0mg"},{"bike_id":"4c30f462-1182-4b12-958d-ffd6a66a7489","system_id":"levelo_inurba_marseille","lat":43.31071,"lon":5.38368,"is_reserved":false,"is_disabled":false,"rental_uris":{"android":"levelo://app?vid=4c30f462-1182-4b12-958d-ffd6a66a7489","ios":"levelo://app?vid=4c30f462-1182-4b12-958d-ffd6a66a7489"},"vehicle_type_id":"4","last_reported":1728724199,"current_range_meters":36400,"station_id":"ce4bgv92rcd13ifvqcr0","pricing_plan_id":"cebpf4jnsgd1na2vs0mg"},{"bike_id":"d522a82d-5638-4ca1-910b-2d42b991ee72","system_id":"levelo_inurba_marseille","lat":43.30135,"lon":5.37427,"is_reserved":false,"is_disabled":false,"rental_uris":{"android":"levelo://app?vid=d522a82d-5638-4ca1-910b-2d42b991ee72","ios":"levelo://app?vid=d522a82d-5638-4ca1-910b-2d42b991ee72"},"vehicle_type_id":"4","last_reported":1728724199,"current_range_meters":34000,"station_id":"ce4bgs92rcd13ifvqcc0","pricing_plan_id":"cebpf4jnsgd1na2vs0mg"},{"bike_id":"88716ed6-e48d-4fbc-adb2-afe50ee1043a","system_id":"levelo_inurba_marseille","lat":43.2695,"lon":5.38635,"is_reserved":false,"is_disabled":false,"rental_uris":{"android":"levelo://app?vid=88716ed6-e48d-4fbc-adb2-afe50ee1043a","ios":"levelo://app?vid=88716ed6-e48d-4fbc-adb2-afe50ee1043a"},"vehicle_type_id":"4","last_reported":1728724199,"current_range_meters":35200,"station_id":"ce4bhh92rcd13ifvqfh0","pricing_plan_id":"cebpf4jnsgd1na2vs0mg"},{"bike_id":"931d1f9c-4cb2-40a2-a856-914a1c55fcf3","system_id":"levelo_inurba_marseille","lat":43.24989,"lon":5.40446,"is_reserved":false,"is_disabled":false,"rental_uris":{"android":"levelo://app?vid=931d1f9c-4cb2-40a2-a856-914a1c55fcf3","ios":"levelo://app?vid=931d1f9c-4cb2-40a2-a856-914a1c55fcf3"},"vehicle_type_id":"4","last_reported":1728724199,"current_range_meters":6800,"station_id":"","pricing_plan_id":"cebpf4jnsgd1na2vs0mg"},{"bike_id":"2d913759-fe84-421c-a520-2d58aadf2d85","system_id":"levelo_inurba_marseille","lat":43.2922,"lon":5.36077,"is_reserved":false,"is_disabled":false,"rental_uris":{"android":"levelo://app?vid=2d913759-fe84-421c-a520-2d58aadf2d85","ios":"levelo://app?vid=2d913759-fe84-421c-a520-2d58aadf2d85"},"vehicle_type_id":"4","last_reported":1728724199,"current_range_meters":3600,"station_id":"ce4bhbh2rcd13ifvqeqg","pricing_plan_id":"cebpf4jnsgd1na2vs0mg"},{"bike_id":"59169465-c142-40a4-baaa-224bbca5179e","system_id":"levelo_inurba_marseille","lat":43.29619,"lon":5.37711,"is_reserved":false,"is_disabled":false,"rental_uris":{"android":"levelo://app?vid=59169465-c142-40a4-baaa-224bbca5179e","ios":"levelo://app?vid=59169465-c142-40a4-baaa-224bbca5179e"},"vehicle_type_id":"4","last_reported":1728724199,"current_range_meters":35200,"station_id":"ce4bgi92rcd13ifvqb90","pricing_plan_id":"cebpf4jnsgd1na2vs0mg"},{"bike_id":"3f8c60a0-ca9e-48b3-a9ce-2a1533906388","system_id":"levelo_inurba_marseille","lat":43.29906,"lon":5.37458,"is_reserved":false,"is_disabled":false,"rental_uris":{"android":"levelo://app?vid=3f8c60a0-ca9e-48b3-a9ce-2a1533906388","ios":"levelo://app?vid=3f8c60a0-ca9e-48b3-a9ce-2a1533906388"},"vehicle_type_id":"4","last_reported":1728724199,"current_range_meters":36800,"station_id":"ce4bgjh2rcd13ifvqbg0","pricing_plan_id":"cebpf4jnsgd1na2vs0mg"},{"bike_id":"acde84b9-95a7-4b94-9ad2-889a14984862","system_id":"levelo_inurba_marseille","lat":43.26949,"lon":5.38638,"is_reserved":false,"is_disabled":false,"rental_uris":{"android":"levelo://app?vid=acde84b9-95a7-4b94-9ad2-889a14984862","ios":"levelo://app?vid=acde84b9-95a7-4b94-9ad2-889a14984862"},"vehicle_type_id":"4","last_reported":1728724199,"current_range_meters":39200,"station_id":"ce4bhh92rcd13ifvqfh0","pricing_plan_id":"cebpf4jnsgd1na2vs0mg"},{"bike_id":"76646f84-b38a-43fe-b1b7-3dadf866e07c","system_id":"levelo_inurba_marseille","lat":43.23183,"lon":5.39983,"is_reserved":false,"is_disabled":false,"rental_uris":{"android":"levelo://app?vid=76646f84-b38a-43fe-b1b7-3dadf866e07c","ios":"levelo://app?vid=76646f84-b38a-43fe-b1b7-3dadf866e07c"},"vehicle_type_id":"4","last_reported":1728724199,"current_range_meters":30400,"station_id":"ce4bhn12rcd13ifvqgqg","pricing_plan_id":"cebpf4jnsgd1na2vs0mg"},{"bike_id":"22018cd7-02a1-418f-ba75-4dd5a1600620","system_id":"levelo_inurba_marseille","lat":43.29224,"lon":5.36062,"is_reserved":false,"is_disabled":false,"rental_uris":{"android":"levelo://app?vid=22018cd7-02a1-418f-ba75-4dd5a1600620","ios":"levelo://app?vid=22018cd7-02a1-418f-ba75-4dd5a1600620"},"vehicle_type_id":"4","last_reported":1728724199,"current_range_meters":6800,"station_id":"ce4bhbh2rcd13ifvqeqg","pricing_plan_id":"cebpf4jnsgd1na2vs0mg"},{"bike_id":"16451e5d-97d1-468f-b8f8-9f1bdd7b01c1","system_id":"levelo_inurba_marseille","lat":43.29847,"lon":5.36282,"is_reserved":false,"is_disabled":false,"rental_uris":{"android":"levelo://app?vid=16451e5d-97d1-468f-b8f8-9f1bdd7b01c1","ios":"levelo://app?vid=16451e5d-97d1-468f-b8f8-9f1bdd7b01c1"},"vehicle_type_id":"4","last_reported":1728724199,"current_range_meters":26800,"station_id":"ce4bgpp2rcd13ifvqc3g","pricing_plan_id":"cebpf4jnsgd1na2vs0mg"},{"bike_id":"afae0a5d-87b8-4fb0-b176-ad227ab7c7e7","system_id":"levelo_inurba_marseille","lat":43.30579,"lon":5.39346,"is_reserved":false,"is_disabled":false,"rental_uris":{"android":"levelo://app?vid=afae0a5d-87b8-4fb0-b176-ad227ab7c7e7","ios":"levelo://app?vid=afae0a5d-87b8-4fb0-b176-ad227ab7c7e7"},"vehicle_type_id":"4","last_reported":1728724199,"current_range_meters":38800,"station_id":"","pricing_plan_id":"cebpf4jnsgd1na2vs0mg"},{"bike_id":"d2c3010c-aa3c-4892-8f2c-ddf4bc7cb7d1","system_id":"levelo_inurba_marseille","lat":43.29502,"lon":5.37513,"is_reserved":false,"is_disabled":false,"rental_uris":{"android":"levelo://app?vid=d2c3010c-aa3c-4892-8f2c-ddf4bc7cb7d1","ios":"levelo://app?vid=d2c3010c-aa3c-4892-8f2c-ddf4bc7cb7d1"},"vehicle_type_id":"4","last_reported":1728724199,"current_range_meters":13600,"station_id":"ce4bgkp2rcd13ifvqbmg","pricing_plan_id":"cebpf4jnsgd1na2vs0mg"},{"bike_id":"631afeb3-ff24-4869-b570-0bf0c9ce47b0","system_id":"levelo_inurba_marseille","lat":43.31392,"lon":5.38687,"is_reserved":false,"is_disabled":false,"rental_uris":{"android":"levelo://app?vid=631afeb3-ff24-4869-b570-0bf0c9ce47b0","ios":"levelo://app?vid=631afeb3-ff24-4869-b570-0bf0c9ce47b0"},"vehicle_type_id":"4","last_reported":1728724199,"current_range_meters":19200,"station_id":"","pricing_plan_id":"cebpf4jnsgd1na2vs0mg"},{"bike_id":"a343ef2a-9dab-4dfa-aae7-81033db70aac","system_id":"levelo_inurba_marseille","lat":43.23179,"lon":5.39975,"is_reserved":false,"is_disabled":false,"rental_uris":{"android":"levelo://app?vid=a343ef2a-9dab-4dfa-aae7-81033db70aac","ios":"levelo://app?vid=a343ef2a-9dab-4dfa-aae7-81033db70aac"},"vehicle_type_id":"4","last_reported":1728724199,"current_range_meters":16400,"station_id":"ce4bhn12rcd13ifvqgqg","pricing_plan_id":"cebpf4jnsgd1na2vs0mg"},{"bike_id":"a59e7161-8d8e-4333-a439-9a929f6d2e2a","system_id":"levelo_inurba_marseille","lat":43.29519,"lon":5.39053,"is_reserved":false,"is_disabled":false,"rental_uris":{"android":"levelo://app?vid=a59e7161-8d8e-4333-a439-9a929f6d2e2a","ios":"levelo://app?vid=a59e7161-8d8e-4333-a439-9a929f6d2e2a"},"vehicle_type_id":"4","last_reported":1728724199,"current_range_meters":29600,"station_id":"ce4bh3p2rcd13ifvqdp0","pricing_plan_id":"cebpf4jnsgd1na2vs0mg"},{"bike_id":"0d2c7458-a712-49c4-8e14-30b970275649","system_id":"levelo_inurba_marseille","lat":43.3133,"lon":5.3969,"is_reserved":false,"is_disabled":false,"rental_uris":{"android":"levelo://app?vid=0d2c7458-a712-49c4-8e14-30b970275649","ios":"levelo://app?vid=0d2c7458-a712-49c4-8e14-30b970275649"},"vehicle_type_id":"4","last_reported":1728724199,"current_range_meters":36400,"station_id":"ce4bgvp2rcd13ifvqcu0","pricing_plan_id":"cebpf4jnsgd1na2vs0mg"},{"bike_id":"aa92e80d-177f-4523-9451-ffd9e2674c82","system_id":"levelo_inurba_marseille","lat":43.296236,"lon":5.377157,"is_reserved":false,"is_disabled":false,"rental_uris":{"android":"levelo://app?vid=aa92e80d-177f-4523-9451-ffd9e2674c82","ios":"levelo://app?vid=aa92e80d-177f-4523-9451-ffd9e2674c82"},"vehicle_type_id":"4","last_reported":1728724199,"current_range_meters":6800,"station_id":"ce4bgl92rcd13ifvqbq0","pricing_plan_id":"cebpf4jnsgd1na2vs0mg"},{"bike_id":"d9787943-12da-42fc-891f-0b247c20c2d5","system_id":"levelo_inurba_marseille","lat":43.26486,"lon":5.39544,"is_reserved":false,"is_disabled":false,"rental_uris":{"android":"levelo://app?vid=d9787943-12da-42fc-891f-0b247c20c2d5","ios":"levelo://app?vid=d9787943-12da-42fc-891f-0b247c20c2d5"},"vehicle_type_id":"4","last_reported":1728724199,"current_range_meters":4800,"station_id":"ce4bhi12rcd13ifvqfq0","pricing_plan_id":"cebpf4jnsgd1na2vs0mg"},{"bike_id":"225e01b2-3d0a-4d0b-944d-209bc854728c","system_id":"levelo_inurba_marseille","lat":43.29162,"lon":5.37151,"is_reserved":false,"is_disabled":false,"rental_uris":{"android":"levelo://app?vid=225e01b2-3d0a-4d0b-944d-209bc854728c","ios":"levelo://app?vid=225e01b2-3d0a-4d0b-944d-209bc854728c"},"vehicle_type_id":"4","last_reported":1728724199,"current_range_meters":38800,"station_id":"ce4bha92rcd13ifvqeh0","pricing_plan_id":"cebpf4jnsgd1na2vs0mg"},{"bike_id":"c7280123-5bd0-472f-9360-69b07089ad1f","system_id":"levelo_inurba_marseille","lat":43.24807,"lon":5.37455,"is_reserved":false,"is_disabled":false,"rental_uris":{"android":"levelo://app?vid=c7280123-5bd0-472f-9360-69b07089ad1f","ios":"levelo://app?vid=c7280123-5bd0-472f-9360-69b07089ad1f"},"vehicle_type_id":"4","last_reported":1728724199,"current_range_meters":38800,"station_id":"ce4bhgh2rcd13ifvqfb0","pricing_plan_id":"cebpf4jnsgd1na2vs0mg"},{"bike_id":"91aa0f0e-f007-4bc8-8e7f-28c28d61940c","system_id":"levelo_inurba_marseille","lat":43.31072,"lon":5.3835,"is_reserved":false,"is_disabled":false,"rental_uris":{"android":"levelo://app?vid=91aa0f0e-f007-4bc8-8e7f-28c28d61940c","ios":"levelo://app?vid=91aa0f0e-f007-4bc8-8e7f-28c28d61940c"},"vehicle_type_id":"4","last_reported":1728724199,"current_range_meters":38000,"station_id":"ce4bgv92rcd13ifvqcr0","pricing_plan_id":"cebpf4jnsgd1na2vs0mg"},{"bike_id":"35eb4c1c-05f0-4eb0-8f1c-9272d14abf2f","system_id":"levelo_inurba_marseille","lat":43.30542,"lon":5.36542,"is_reserved":false,"is_disabled":false,"rental_uris":{"android":"levelo://app?vid=35eb4c1c-05f0-4eb0-8f1c-9272d14abf2f","ios":"levelo://app?vid=35eb4c1c-05f0-4eb0-8f1c-9272d14abf2f"},"vehicle_type_id":"4","last_reported":1728724199,"current_range_meters":4400,"station_id":"ce4bgs12rcd13ifvqcag","pricing_plan_id":"cebpf4jnsgd1na2vs0mg"},{"bike_id":"5f9e9f13-0b7e-4590-a1da-ee59f0fb41f3","system_id":"levelo_inurba_marseille","lat":43.30588,"lon":5.39359,"is_reserved":false,"is_disabled":false,"rental_uris":{"android":"levelo://app?vid=5f9e9f13-0b7e-4590-a1da-ee59f0fb41f3","ios":"levelo://app?vid=5f9e9f13-0b7e-4590-a1da-ee59f0fb41f3"},"vehicle_type_id":"4","last_reported":1728724199,"current_range_meters":32400,"station_id":"ce4bh0p2rcd13ifvqd80","pricing_plan_id":"cebpf4jnsgd1na2vs0mg"},{"bike_id":"319cc317-4c35-4000-bb99-5d657785606e","system_id":"levelo_inurba_marseille","lat":43.27903,"lon":5.38001,"is_reserved":false,"is_disabled":false,"rental_uris":{"android":"levelo://app?vid=319cc317-4c35-4000-bb99-5d657785606e","ios":"levelo://app?vid=319cc317-4c35-4000-bb99-5d657785606e"},"vehicle_type_id":"4","last_reported":1728724199,"current_range_meters":38400,"station_id":"ce4bhf92rcd13ifvqf50","pricing_plan_id":"cebpf4jnsgd1na2vs0mg"},{"bike_id":"86851483-6460-4f2a-8d92-b3b47e5c55aa","system_id":"levelo_inurba_marseille","lat":43.239611,"lon":5.366301,"is_reserved":false,"is_disabled":false,"rental_uris":{"android":"levelo://app?vid=86851483-6460-4f2a-8d92-b3b47e5c55aa","ios":"levelo://app?vid=86851483-6460-4f2a-8d92-b3b47e5c55aa"},"vehicle_type_id":"4","last_reported":1728724199,"current_range_meters":39200,"station_id":"ce4bhi12rcd13ifvqfp0","pricing_plan_id":"cebpf4jnsgd1na2vs0mg"},{"bike_id":"a4e81d89-063a-43eb-a55f-1719e1ac79ed","system_id":"levelo_inurba_marseille","lat":43.2721,"lon":5.3918,"is_reserved":false,"is_disabled":false,"rental_uris":{"android":"levelo://app?vid=a4e81d89-063a-43eb-a55f-1719e1ac79ed","ios":"levelo://app?vid=a4e81d89-063a-43eb-a55f-1719e1ac79ed"},"vehicle_type_id":"4","last_reported":1728724199,"current_range_meters":38800,"station_id":"ce4bhhp2rcd13ifvqfm0","pricing_plan_id":"cebpf4jnsgd1na2vs0mg"},{"bike_id":"ee63cc21-d537-4cc7-bd0e-acf42e35182a","system_id":"levelo_inurba_marseille","lat":43.28154,"lon":5.42641,"is_reserved":false,"is_disabled":false,"rental_uris":{"android":"levelo://app?vid=ee63cc21-d537-4cc7-bd0e-acf42e35182a","ios":"levelo://app?vid=ee63cc21-d537-4cc7-bd0e-acf42e35182a"},"vehicle_type_id":"4","last_reported":1728724199,"current_range_meters":28800,"station_id":"ce4bhnh2rcd13ifvqgug","pricing_plan_id":"cebpf4jnsgd1na2vs0mg"},{"bike_id":"c279047e-1d70-4dd1-b2ee-b3555d0fddbe","system_id":"levelo_inurba_marseille","lat":43.33605,"lon":5.41018,"is_reserved":false,"is_disabled":false,"rental_uris":{"android":"levelo://app?vid=c279047e-1d70-4dd1-b2ee-b3555d0fddbe","ios":"levelo://app?vid=c279047e-1d70-4dd1-b2ee-b3555d0fddbe"},"vehicle_type_id":"4","last_reported":1728724199,"current_range_meters":10800,"station_id":"ce4bhqh2rcd13ifvqhmg","pricing_plan_id":"cebpf4jnsgd1na2vs0mg"},{"bike_id":"900d410e-a263-4441-80a1-af67345a66d2","system_id":"levelo_inurba_marseille","lat":43.2438,"lon":5.37064,"is_reserved":false,"is_disabled":false,"rental_uris":{"android":"levelo://app?vid=900d410e-a263-4441-80a1-af67345a66d2","ios":"levelo://app?vid=900d410e-a263-4441-80a1-af67345a66d2"},"vehicle_type_id":"4","last_reported":1728724199,"current_range_meters":25600,"station_id":"ce4bhhh2rcd13ifvqfk0","pricing_plan_id":"cebpf4jnsgd1na2vs0mg"},{"bike_id":"18e50b7c-f98f-46f1-90ae-1ebf8e17e6aa","system_id":"levelo_inurba_marseille","lat":43.27173,"lon":5.40982,"is_reserved":false,"is_disabled":false,"rental_uris":{"android":"levelo://app?vid=18e50b7c-f98f-46f1-90ae-1ebf8e17e6aa","ios":"levelo://app?vid=18e50b7c-f98f-46f1-90ae-1ebf8e17e6aa"},"vehicle_type_id":"4","last_reported":1728724199,"current_range_meters":26000,"station_id":"ce4bhl12rcd13ifvqgf0","pricing_plan_id":"cebpf4jnsgd1na2vs0mg"},{"bike_id":"93cf6e6a-b59b-4d63-9a00-c25bf3ea1f05","system_id":"levelo_inurba_marseille","lat":43.29894,"lon":5.43656,"is_reserved":false,"is_disabled":false,"rental_uris":{"android":"levelo://app?vid=93cf6e6a-b59b-4d63-9a00-c25bf3ea1f05","ios":"levelo://app?vid=93cf6e6a-b59b-4d63-9a00-c25bf3ea1f05"},"vehicle_type_id":"4","last_reported":1728724199,"current_range_meters":38800,"station_id":"ce4bhpp2rcd13ifvqhfg","pricing_plan_id":"cebpf4jnsgd1na2vs0mg"},{"bike_id":"2c9247fe-4e8e-489e-92e9-c159de481f4f","system_id":"levelo_inurba_marseille","lat":43.29566,"lon":5.3751,"is_reserved":false,"is_disabled":false,"rental_uris":{"android":"levelo://app?vid=2c9247fe-4e8e-489e-92e9-c159de481f4f","ios":"levelo://app?vid=2c9247fe-4e8e-489e-92e9-c159de481f4f"},"vehicle_type_id":"4","last_reported":1728724199,"current_range_meters":19200,"station_id":"ce4bgh92rcd13ifvqb50","pricing_plan_id":"cebpf4jnsgd1na2vs0mg"},{"bike_id":"c43b90fe-b1cf-4e98-956f-85ab60fd1421","system_id":"levelo_inurba_marseille","lat":43.24649,"lon":5.38895,"is_reserved":false,"is_disabled":false,"rental_uris":{"android":"levelo://app?vid=c43b90fe-b1cf-4e98-956f-85ab60fd1421","ios":"levelo://app?vid=c43b90fe-b1cf-4e98-956f-85ab60fd1421"},"vehicle_type_id":"4","last_reported":1728724199,"current_range_meters":17200,"station_id":"ce4bhg12rcd13ifvqf60","pricing_plan_id":"cebpf4jnsgd1na2vs0mg"},{"bike_id":"076476f9-1988-4652-9092-8c780b2b7f64","system_id":"levelo_inurba_marseille","lat":43.29574,"lon":5.37507,"is_reserved":false,"is_disabled":false,"rental_uris":{"android":"levelo://app?vid=076476f9-1988-4652-9092-8c780b2b7f64","ios":"levelo://app?vid=076476f9-1988-4652-9092-8c780b2b7f64"},"vehicle_type_id":"4","last_reported":1728724199,"current_range_meters":35600,"station_id":"ce4bgh92rcd13ifvqb50","pricing_plan_id":"cebpf4jnsgd1na2vs0mg"},{"bike_id":"b27220ce-643c-4cda-b1cf-ddebfd37a8aa","system_id":"levelo_inurba_marseille","lat":43.23178,"lon":5.39982,"is_reserved":false,"is_disabled":false,"rental_uris":{"android":"levelo://app?vid=b27220ce-643c-4cda-b1cf-ddebfd37a8aa","ios":"levelo://app?vid=b27220ce-643c-4cda-b1cf-ddebfd37a8aa"},"vehicle_type_id":"4","last_reported":1728724199,"current_range_meters":39200,"station_id":"ce4bhn12rcd13ifvqgqg","pricing_plan_id":"cebpf4jnsgd1na2vs0mg"},{"bike_id":"8e6d2ed6-a677-493d-a3e1-08d4eca6407e","system_id":"levelo_inurba_marseille","lat":43.27304,"lon":5.39105,"is_reserved":false,"is_disabled":false,"rental_uris":{"android":"levelo://app?vid=8e6d2ed6-a677-493d-a3e1-08d4eca6407e","ios":"levelo://app?vid=8e6d2ed6-a677-493d-a3e1-08d4eca6407e"},"vehicle_type_id":"4","last_reported":1728724199,"current_range_meters":36800,"station_id":"ce4bhgp2rcd13ifvqfe0","pricing_plan_id":"cebpf4jnsgd1na2vs0mg"},{"bike_id":"6b32da0f-8535-41b1-98ae-900e0f6f1d04","system_id":"levelo_inurba_marseille","lat":43.30411,"lon":5.41285,"is_reserved":false,"is_disabled":false,"rental_uris":{"android":"levelo://app?vid=6b32da0f-8535-41b1-98ae-900e0f6f1d04","ios":"levelo://app?vid=6b32da0f-8535-41b1-98ae-900e0f6f1d04"},"vehicle_type_id":"4","last_reported":1728724199,"current_range_meters":38000,"station_id":"ce4bhop2rcd13ifvqh8g","pricing_plan_id":"cebpf4jnsgd1na2vs0mg"},{"bike_id":"faeef220-4bf3-4eee-a3c1-b6ab7d7a9417","system_id":"levelo_inurba_marseille","lat":43.27615,"lon":5.36115,"is_reserved":false,"is_disabled":false,"rental_uris":{"android":"levelo://app?vid=faeef220-4bf3-4eee-a3c1-b6ab7d7a9417","ios":"levelo://app?vid=faeef220-4bf3-4eee-a3c1-b6ab7d7a9417"},"vehicle_type_id":"4","last_reported":1728724199,"current_range_meters":39200,"station_id":"ce4bgj92rcd13ifvqbe0","pricing_plan_id":"cebpf4jnsgd1na2vs0mg"},{"bike_id":"ec71d4de-66cb-4ec0-9573-3710e81e3431","system_id":"levelo_inurba_marseille","lat":43.23188,"lon":5.39977,"is_reserved":false,"is_disabled":false,"rental_uris":{"android":"levelo://app?vid=ec71d4de-66cb-4ec0-9573-3710e81e3431","ios":"levelo://app?vid=ec71d4de-66cb-4ec0-9573-3710e81e3431"},"vehicle_type_id":"4","last_reported":1728724199,"current_range_meters":18800,"station_id":"ce4bhn12rcd13ifvqgqg","pricing_plan_id":"cebpf4jnsgd1na2vs0mg"},{"bike_id":"aed2777a-4f8a-4d24-802a-93026f052e7d","system_id":"levelo_inurba_marseille","lat":43.255713,"lon":5.382274,"is_reserved":false,"is_disabled":false,"rental_uris":{"android":"levelo://app?vid=aed2777a-4f8a-4d24-802a-93026f052e7d","ios":"levelo://app?vid=aed2777a-4f8a-4d24-802a-93026f052e7d"},"vehicle_type_id":"4","last_reported":1728724199,"current_range_meters":29600,"station_id":"ce4bhih2rcd13ifvqfs0","pricing_plan_id":"cebpf4jnsgd1na2vs0mg"},{"bike_id":"b9d64164-0623-4ad7-8f88-dbb48fe9b2ef","system_id":"levelo_inurba_marseille","lat":43.26959,"lon":5.38631,"is_reserved":false,"is_disabled":false,"rental_uris":{"android":"levelo://app?vid=b9d64164-0623-4ad7-8f88-dbb48fe9b2ef","ios":"levelo://app?vid=b9d64164-0623-4ad7-8f88-dbb48fe9b2ef"},"vehicle_type_id":"4","last_reported":1728724199,"current_range_meters":38800,"station_id":"ce4bhh92rcd13ifvqfh0","pricing_plan_id":"cebpf4jnsgd1na2vs0mg"},{"bike_id":"c2709d8c-182c-4c66-9678-32143d413767","system_id":"levelo_inurba_marseille","lat":43.22934,"lon":5.35381,"is_reserved":false,"is_disabled":false,"rental_uris":{"android":"levelo://app?vid=c2709d8c-182c-4c66-9678-32143d413767","ios":"levelo://app?vid=c2709d8c-182c-4c66-9678-32143d413767"},"vehicle_type_id":"4","last_reported":1728724199,"current_range_meters":27200,"station_id":"cpo3532slgdg3j2ikp40","pricing_plan_id":"cebpf4jnsgd1na2vs0mg"},{"bike_id":"57213862-b739-4110-bda6-17d1437662ee","system_id":"levelo_inurba_marseille","lat":43.3014,"lon":5.38086,"is_reserved":false,"is_disabled":false,"rental_uris":{"android":"levelo://app?vid=57213862-b739-4110-bda6-17d1437662ee","ios":"levelo://app?vid=57213862-b739-4110-bda6-17d1437662ee"},"vehicle_type_id":"4","last_reported":1728724199,"current_range_meters":38400,"station_id":"ce4bgjp2rcd13ifvqbh0","pricing_plan_id":"cebpf4jnsgd1na2vs0mg"},{"bike_id":"e27b0b82-b24b-41e9-8b0f-b26174bd4210","system_id":"levelo_inurba_marseille","lat":43.29615,"lon":5.37729,"is_reserved":false,"is_disabled":false,"rental_uris":{"android":"levelo://app?vid=e27b0b82-b24b-41e9-8b0f-b26174bd4210","ios":"levelo://app?vid=e27b0b82-b24b-41e9-8b0f-b26174bd4210"},"vehicle_type_id":"4","last_reported":1728724199,"current_range_meters":38400,"station_id":"ce4bgi92rcd13ifvqb90","pricing_plan_id":"cebpf4jnsgd1na2vs0mg"},{"bike_id":"77c99e1d-c795-4d53-a9c7-d018849cb7a8","system_id":"levelo_inurba_marseille","lat":43.30475,"lon":5.37905,"is_reserved":false,"is_disabled":false,"rental_uris":{"android":"levelo://app?vid=77c99e1d-c795-4d53-a9c7-d018849cb7a8","ios":"levelo://app?vid=77c99e1d-c795-4d53-a9c7-d018849cb7a8"},"vehicle_type_id":"4","last_reported":1728724199,"current_range_meters":23200,"station_id":"ce4bgup2rcd13ifvqcn0","pricing_plan_id":"cebpf4jnsgd1na2vs0mg"},{"bike_id":"3886c2c8-48a1-4370-91d5-a66e6043c7a0","system_id":"levelo_inurba_marseille","lat":43.30958,"lon":5.39018,"is_reserved":false,"is_disabled":false,"rental_uris":{"android":"levelo://app?vid=3886c2c8-48a1-4370-91d5-a66e6043c7a0","ios":"levelo://app?vid=3886c2c8-48a1-4370-91d5-a66e6043c7a0"},"vehicle_type_id":"4","last_reported":1728724199,"current_range_meters":11200,"station_id":"ce4bgup2rcd13ifvqco0","pricing_plan_id":"cebpf4jnsgd1na2vs0mg"},{"bike_id":"b29107f3-b918-433c-948d-ee61dcb193a0","system_id":"levelo_inurba_marseille","lat":43.32038,"lon":5.41571,"is_reserved":false,"is_disabled":false,"rental_uris":{"android":"levelo://app?vid=b29107f3-b918-433c-948d-ee61dcb193a0","ios":"levelo://app?vid=b29107f3-b918-433c-948d-ee61dcb193a0"},"vehicle_type_id":"4","last_reported":1728724199,"current_range_meters":19600,"station_id":"ce4bhq92rcd13ifvqhkg","pricing_plan_id":"cebpf4jnsgd1na2vs0mg"},{"bike_id":"87eda303-0b90-4464-a879-690af3c5d9d7","system_id":"levelo_inurba_marseille","lat":43.266836,"lon":5.382717,"is_reserved":false,"is_disabled":false,"rental_uris":{"android":"levelo://app?vid=87eda303-0b90-4464-a879-690af3c5d9d7","ios":"levelo://app?vid=87eda303-0b90-4464-a879-690af3c5d9d7"},"vehicle_type_id":"4","last_reported":1728724199,"current_range_meters":32000,"station_id":"ce4bhg92rcd13ifvqf90","pricing_plan_id":"cebpf4jnsgd1na2vs0mg"},{"bike_id":"4cc4e90f-2fbc-42da-a386-02b30a3334f2","system_id":"levelo_inurba_marseille","lat":43.28403,"lon":5.37517,"is_reserved":false,"is_disabled":false,"rental_uris":{"android":"levelo://app?vid=4cc4e90f-2fbc-42da-a386-02b30a3334f2","ios":"levelo://app?vid=4cc4e90f-2fbc-42da-a386-02b30a3334f2"},"vehicle_type_id":"4","last_reported":1728724199,"current_range_meters":22800,"station_id":"ce4bh412rcd13ifvqds0","pricing_plan_id":"cebpf4jnsgd1na2vs0mg"},{"bike_id":"f3afd8c2-a68f-4cd3-a0f6-d035d6909afb","system_id":"levelo_inurba_marseille","lat":43.29511,"lon":5.39397,"is_reserved":false,"is_disabled":false,"rental_uris":{"android":"levelo://app?vid=f3afd8c2-a68f-4cd3-a0f6-d035d6909afb","ios":"levelo://app?vid=f3afd8c2-a68f-4cd3-a0f6-d035d6909afb"},"vehicle_type_id":"4","last_reported":1728724199,"current_range_meters":33200,"station_id":"ce4bh292rcd13ifvqdf0","pricing_plan_id":"cebpf4jnsgd1na2vs0mg"},{"bike_id":"e737a905-8f20-42fc-93e7-b45ecb95c043","system_id":"levelo_inurba_marseille","lat":43.26682,"lon":5.38263,"is_reserved":false,"is_disabled":false,"rental_uris":{"android":"levelo://app?vid=e737a905-8f20-42fc-93e7-b45ecb95c043","ios":"levelo://app?vid=e737a905-8f20-42fc-93e7-b45ecb95c043"},"vehicle_type_id":"4","last_reported":1728724199,"current_range_meters":37600,"station_id":"ce4bhg92rcd13ifvqf90","pricing_plan_id":"cebpf4jnsgd1na2vs0mg"},{"bike_id":"65ecdb47-6ce1-4b03-b02a-17a7a77482b1","system_id":"levelo_inurba_marseille","lat":43.23191,"lon":5.355511,"is_reserved":false,"is_disabled":false,"rental_uris":{"android":"levelo://app?vid=65ecdb47-6ce1-4b03-b02a-17a7a77482b1","ios":"levelo://app?vid=65ecdb47-6ce1-4b03-b02a-17a7a77482b1"},"vehicle_type_id":"4","last_reported":1728724199,"current_range_meters":28800,"station_id":"ce4bhu92rcd13ifvqi70","pricing_plan_id":"cebpf4jnsgd1na2vs0mg"},{"bike_id":"68bde495-88e9-4cfb-ada1-b35ecbd2d941","system_id":"levelo_inurba_marseille","lat":43.33024,"lon":5.39043,"is_reserved":false,"is_disabled":false,"rental_uris":{"android":"levelo://app?vid=68bde495-88e9-4cfb-ada1-b35ecbd2d941","ios":"levelo://app?vid=68bde495-88e9-4cfb-ada1-b35ecbd2d941"},"vehicle_type_id":"4","last_reported":1728724199,"current_range_meters":28400,"station_id":"ce4bhr92rcd13ifvqhrg","pricing_plan_id":"cebpf4jnsgd1na2vs0mg"},{"bike_id":"b5ebf581-ee83-4793-bd67-976719116a5b","system_id":"levelo_inurba_marseille","lat":43.26776,"lon":5.39425,"is_reserved":false,"is_disabled":false,"rental_uris":{"android":"levelo://app?vid=b5ebf581-ee83-4793-bd67-976719116a5b","ios":"levelo://app?vid=b5ebf581-ee83-4793-bd67-976719116a5b"},"vehicle_type_id":"4","last_reported":1728724199,"current_range_meters":18800,"station_id":"ce4bhh12rcd13ifvqfg0","pricing_plan_id":"cebpf4jnsgd1na2vs0mg"},{"bike_id":"6e7a10e9-4753-449c-96b2-ba97fd335861","system_id":"levelo_inurba_marseille","lat":43.30163,"lon":5.38084,"is_reserved":false,"is_disabled":false,"rental_uris":{"android":"levelo://app?vid=6e7a10e9-4753-449c-96b2-ba97fd335861","ios":"levelo://app?vid=6e7a10e9-4753-449c-96b2-ba97fd335861"},"vehicle_type_id":"4","last_reported":1728724199,"current_range_meters":24800,"station_id":"ce4bgjp2rcd13ifvqbh0","pricing_plan_id":"cebpf4jnsgd1na2vs0mg"},{"bike_id":"3cb719e0-27ba-4752-85a0-6ba32db9d5e9","system_id":"levelo_inurba_marseille","lat":43.29838,"lon":5.36271,"is_reserved":false,"is_disabled":false,"rental_uris":{"android":"levelo://app?vid=3cb719e0-27ba-4752-85a0-6ba32db9d5e9","ios":"levelo://app?vid=3cb719e0-27ba-4752-85a0-6ba32db9d5e9"},"vehicle_type_id":"4","last_reported":1728724199,"current_range_meters":35600,"station_id":"ce4bgpp2rcd13ifvqc3g","pricing_plan_id":"cebpf4jnsgd1na2vs0mg"},{"bike_id":"41669657-1d83-4702-a184-d85888fe3fde","system_id":"levelo_inurba_marseille","lat":43.25107,"lon":5.40317,"is_reserved":false,"is_disabled":false,"rental_uris":{"android":"levelo://app?vid=41669657-1d83-4702-a184-d85888fe3fde","ios":"levelo://app?vid=41669657-1d83-4702-a184-d85888fe3fde"},"vehicle_type_id":"4","last_reported":1728724199,"current_range_meters":4800,"station_id":"ce4bhlh2rcd13ifvqgig","pricing_plan_id":"cebpf4jnsgd1na2vs0mg"},{"bike_id":"fe499ee7-6375-4ecd-b57e-a932fe0f65cf","system_id":"levelo_inurba_marseille","lat":43.33723,"lon":5.39184,"is_reserved":false,"is_disabled":false,"rental_uris":{"android":"levelo://app?vid=fe499ee7-6375-4ecd-b57e-a932fe0f65cf","ios":"levelo://app?vid=fe499ee7-6375-4ecd-b57e-a932fe0f65cf"},"vehicle_type_id":"4","last_reported":1728724199,"current_range_meters":9200,"station_id":"ce4bhr92rcd13ifvqhsg","pricing_plan_id":"cebpf4jnsgd1na2vs0mg"},{"bike_id":"fbffa957-ac49-4590-b223-7d57f26e111b","system_id":"levelo_inurba_marseille","lat":43.32258,"lon":5.38271,"is_reserved":false,"is_disabled":false,"rental_uris":{"android":"levelo://app?vid=fbffa957-ac49-4590-b223-7d57f26e111b","ios":"levelo://app?vid=fbffa957-ac49-4590-b223-7d57f26e111b"},"vehicle_type_id":"4","last_reported":1728724199,"current_range_meters":29600,"station_id":"ce4bhr12rcd13ifvqhqg","pricing_plan_id":"cebpf4jnsgd1na2vs0mg"},{"bike_id":"133d6957-9b0d-4f80-900b-587219b83576","system_id":"levelo_inurba_marseille","lat":43.28651,"lon":5.38674,"is_reserved":false,"is_disabled":false,"rental_uris":{"android":"levelo://app?vid=133d6957-9b0d-4f80-900b-587219b83576","ios":"levelo://app?vid=133d6957-9b0d-4f80-900b-587219b83576"},"vehicle_type_id":"4","last_reported":1728724199,"current_range_meters":36400,"station_id":"ce4bh492rcd13ifvqdug","pricing_plan_id":"cebpf4jnsgd1na2vs0mg"},{"bike_id":"939f5c32-3fe0-49c7-9b65-f3cedfa40019","system_id":"levelo_inurba_marseille","lat":43.28858,"lon":5.35854,"is_reserved":false,"is_disabled":false,"rental_uris":{"android":"levelo://app?vid=939f5c32-3fe0-49c7-9b65-f3cedfa40019","ios":"levelo://app?vid=939f5c32-3fe0-49c7-9b65-f3cedfa40019"},"vehicle_type_id":"4","last_reported":1728724199,"current_range_meters":13600,"station_id":"ce4bhb12rcd13ifvqem0","pricing_plan_id":"cebpf4jnsgd1na2vs0mg"},{"bike_id":"66edde37-eed2-4a91-bd6e-93c82a22ea34","system_id":"levelo_inurba_marseille","lat":43.2952,"lon":5.37511,"is_reserved":false,"is_disabled":false,"rental_uris":{"android":"levelo://app?vid=66edde37-eed2-4a91-bd6e-93c82a22ea34","ios":"levelo://app?vid=66edde37-eed2-4a91-bd6e-93c82a22ea34"},"vehicle_type_id":"4","last_reported":1728724199,"current_range_meters":35600,"station_id":"ce4bgkp2rcd13ifvqbmg","pricing_plan_id":"cebpf4jnsgd1na2vs0mg"},{"bike_id":"26ad2f98-28e7-4ba6-817b-53c0d1cfc4da","system_id":"levelo_inurba_marseille","lat":43.25716,"lon":5.41113,"is_reserved":false,"is_disabled":false,"rental_uris":{"android":"levelo://app?vid=26ad2f98-28e7-4ba6-817b-53c0d1cfc4da","ios":"levelo://app?vid=26ad2f98-28e7-4ba6-817b-53c0d1cfc4da"},"vehicle_type_id":"4","last_reported":1728724199,"current_range_meters":38800,"station_id":"ce4bhkp2rcd13ifvqgd0","pricing_plan_id":"cebpf4jnsgd1na2vs0mg"},{"bike_id":"ad9508a3-6339-4b15-ad7f-7867f29affe1","system_id":"levelo_inurba_marseille","lat":43.2396,"lon":5.36635,"is_reserved":false,"is_disabled":false,"rental_uris":{"android":"levelo://app?vid=ad9508a3-6339-4b15-ad7f-7867f29affe1","ios":"levelo://app?vid=ad9508a3-6339-4b15-ad7f-7867f29affe1"},"vehicle_type_id":"4","last_reported":1728724199,"current_range_meters":30400,"station_id":"ce4bhi12rcd13ifvqfp0","pricing_plan_id":"cebpf4jnsgd1na2vs0mg"},{"bike_id":"f7bc084d-7fcf-4935-93b3-269b4f0019e0","system_id":"levelo_inurba_marseille","lat":43.28698,"lon":5.39983,"is_reserved":false,"is_disabled":false,"rental_uris":{"android":"levelo://app?vid=f7bc084d-7fcf-4935-93b3-269b4f0019e0","ios":"levelo://app?vid=f7bc084d-7fcf-4935-93b3-269b4f0019e0"},"vehicle_type_id":"4","last_reported":1728724199,"current_range_meters":37600,"station_id":"ce4bho92rcd13ifvqh3g","pricing_plan_id":"cebpf4jnsgd1na2vs0mg"},{"bike_id":"85a6762e-f262-429f-badd-3ed486cc3ab0","system_id":"levelo_inurba_marseille","lat":43.27617,"lon":5.36107,"is_reserved":false,"is_disabled":false,"rental_uris":{"android":"levelo://app?vid=85a6762e-f262-429f-badd-3ed486cc3ab0","ios":"levelo://app?vid=85a6762e-f262-429f-badd-3ed486cc3ab0"},"vehicle_type_id":"4","last_reported":1728724199,"current_range_meters":38800,"station_id":"ce4bgj92rcd13ifvqbe0","pricing_plan_id":"cebpf4jnsgd1na2vs0mg"},{"bike_id":"81116487-809d-4f42-a9f3-27b11eea1ba5","system_id":"levelo_inurba_marseille","lat":43.24072,"lon":5.37761,"is_reserved":false,"is_disabled":false,"rental_uris":{"android":"levelo://app?vid=81116487-809d-4f42-a9f3-27b11eea1ba5","ios":"levelo://app?vid=81116487-809d-4f42-a9f3-27b11eea1ba5"},"vehicle_type_id":"4","last_reported":1728724199,"current_range_meters":21600,"station_id":"ce4bhnp2rcd13ifvqgvg","pricing_plan_id":"cebpf4jnsgd1na2vs0mg"},{"bike_id":"6b10fb70-8928-448c-9332-a992ab5f585a","system_id":"levelo_inurba_marseille","lat":43.24989,"lon":5.38932,"is_reserved":false,"is_disabled":false,"rental_uris":{"android":"levelo://app?vid=6b10fb70-8928-448c-9332-a992ab5f585a","ios":"levelo://app?vid=6b10fb70-8928-448c-9332-a992ab5f585a"},"vehicle_type_id":"4","last_reported":1728724199,"current_range_meters":8800,"station_id":"ce4bhgp2rcd13ifvqfd0","pricing_plan_id":"cebpf4jnsgd1na2vs0mg"},{"bike_id":"822c9333-9143-484e-a8cd-017ce2d9e126","system_id":"levelo_inurba_marseille","lat":43.29604,"lon":5.37742,"is_reserved":false,"is_disabled":false,"rental_uris":{"android":"levelo://app?vid=822c9333-9143-484e-a8cd-017ce2d9e126","ios":"levelo://app?vid=822c9333-9143-484e-a8cd-017ce2d9e126"},"vehicle_type_id":"4","last_reported":1728724199,"current_range_meters":38800,"station_id":"ce4bgi92rcd13ifvqb90","pricing_plan_id":"cebpf4jnsgd1na2vs0mg"},{"bike_id":"5bc82fca-43af-4201-891c-b197527e32ad","system_id":"levelo_inurba_marseille","lat":43.23182,"lon":5.39984,"is_reserved":false,"is_disabled":false,"rental_uris":{"android":"levelo://app?vid=5bc82fca-43af-4201-891c-b197527e32ad","ios":"levelo://app?vid=5bc82fca-43af-4201-891c-b197527e32ad"},"vehicle_type_id":"4","last_reported":1728724199,"current_range_meters":8800,"station_id":"ce4bhn12rcd13ifvqgqg","pricing_plan_id":"cebpf4jnsgd1na2vs0mg"},{"bike_id":"7c84ba11-c20f-4c7e-901f-d514605a3973","system_id":"levelo_inurba_marseille","lat":43.30463,"lon":5.37899,"is_reserved":false,"is_disabled":false,"rental_uris":{"android":"levelo://app?vid=7c84ba11-c20f-4c7e-901f-d514605a3973","ios":"levelo://app?vid=7c84ba11-c20f-4c7e-901f-d514605a3973"},"vehicle_type_id":"4","last_reported":1728724199,"current_range_meters":38800,"station_id":"ce4bgup2rcd13ifvqcn0","pricing_plan_id":"cebpf4jnsgd1na2vs0mg"},{"bike_id":"628b70e0-70d2-4a50-bd81-f02589a5a65c","system_id":"levelo_inurba_marseille","lat":43.29215,"lon":5.37165,"is_reserved":false,"is_disabled":false,"rental_uris":{"android":"levelo://app?vid=628b70e0-70d2-4a50-bd81-f02589a5a65c","ios":"levelo://app?vid=628b70e0-70d2-4a50-bd81-f02589a5a65c"},"vehicle_type_id":"4","last_reported":1728724199,"current_range_meters":9200,"station_id":"ce4bha92rcd13ifvqeh0","pricing_plan_id":"cebpf4jnsgd1na2vs0mg"},{"bike_id":"b989858f-5272-4f3b-af50-55f777ed7e17","system_id":"levelo_inurba_marseille","lat":43.28266,"lon":5.35069,"is_reserved":false,"is_disabled":false,"rental_uris":{"android":"levelo://app?vid=b989858f-5272-4f3b-af50-55f777ed7e17","ios":"levelo://app?vid=b989858f-5272-4f3b-af50-55f777ed7e17"},"vehicle_type_id":"4","last_reported":1728724199,"current_range_meters":16800,"station_id":"ce4bhbp2rcd13ifvqerg","pricing_plan_id":"cebpf4jnsgd1na2vs0mg"},{"bike_id":"a49f0919-36fa-4eb4-8b1e-4f56526b00f7","system_id":"levelo_inurba_marseille","lat":43.27177,"lon":5.40991,"is_reserved":false,"is_disabled":false,"rental_uris":{"android":"levelo://app?vid=a49f0919-36fa-4eb4-8b1e-4f56526b00f7","ios":"levelo://app?vid=a49f0919-36fa-4eb4-8b1e-4f56526b00f7"},"vehicle_type_id":"4","last_reported":1728724199,"current_range_meters":39200,"station_id":"ce4bhl12rcd13ifvqgf0","pricing_plan_id":"cebpf4jnsgd1na2vs0mg"},{"bike_id":"37260897-2869-4b67-b68b-17af335d61b4","system_id":"levelo_inurba_marseille","lat":43.31708,"lon":5.43709,"is_reserved":false,"is_disabled":false,"rental_uris":{"android":"levelo://app?vid=37260897-2869-4b67-b68b-17af335d61b4","ios":"levelo://app?vid=37260897-2869-4b67-b68b-17af335d61b4"},"vehicle_type_id":"4","last_reported":1728724199,"current_range_meters":26800,"station_id":"ce4bhp92rcd13ifvqhcg","pricing_plan_id":"cebpf4jnsgd1na2vs0mg"},{"bike_id":"1bb6d8cf-8c8d-451c-aa1d-9441e5c3947c","system_id":"levelo_inurba_marseille","lat":43.29021,"lon":5.38631,"is_reserved":false,"is_disabled":false,"rental_uris":{"android":"levelo://app?vid=1bb6d8cf-8c8d-451c-aa1d-9441e5c3947c","ios":"levelo://app?vid=1bb6d8cf-8c8d-451c-aa1d-9441e5c3947c"},"vehicle_type_id":"4","last_reported":1728724199,"current_range_meters":10000,"station_id":"ce4bh4p2rcd13ifvqe0g","pricing_plan_id":"cebpf4jnsgd1na2vs0mg"},{"bike_id":"ffe862a6-77a6-423c-bde4-3fe07c3a7faf","system_id":"levelo_inurba_marseille","lat":43.29611,"lon":5.37727,"is_reserved":false,"is_disabled":false,"rental_uris":{"android":"levelo://app?vid=ffe862a6-77a6-423c-bde4-3fe07c3a7faf","ios":"levelo://app?vid=ffe862a6-77a6-423c-bde4-3fe07c3a7faf"},"vehicle_type_id":"4","last_reported":1728724199,"current_range_meters":38800,"station_id":"ce4bgi92rcd13ifvqb90","pricing_plan_id":"cebpf4jnsgd1na2vs0mg"},{"bike_id":"ef772543-6dcc-4917-a2bf-044cfc19e6bb","system_id":"levelo_inurba_marseille","lat":43.26678,"lon":5.38267,"is_reserved":false,"is_disabled":false,"rental_uris":{"android":"levelo://app?vid=ef772543-6dcc-4917-a2bf-044cfc19e6bb","ios":"levelo://app?vid=ef772543-6dcc-4917-a2bf-044cfc19e6bb"},"vehicle_type_id":"4","last_reported":1728724199,"current_range_meters":27200,"station_id":"ce4bhg92rcd13ifvqf90","pricing_plan_id":"cebpf4jnsgd1na2vs0mg"},{"bike_id":"2515bfbe-a2ce-4fb8-b8be-e12cd44e1783","system_id":"levelo_inurba_marseille","lat":43.29975,"lon":5.37176,"is_reserved":false,"is_disabled":false,"rental_uris":{"android":"levelo://app?vid=2515bfbe-a2ce-4fb8-b8be-e12cd44e1783","ios":"levelo://app?vid=2515bfbe-a2ce-4fb8-b8be-e12cd44e1783"},"vehicle_type_id":"4","last_reported":1728724199,"current_range_meters":24000,"station_id":"ce4bgr92rcd13ifvqc7g","pricing_plan_id":"cebpf4jnsgd1na2vs0mg"},{"bike_id":"82de1d58-db4a-4dc1-9fdf-8477c2a655ef","system_id":"levelo_inurba_marseille","lat":43.28039,"lon":5.36939,"is_reserved":false,"is_disabled":false,"rental_uris":{"android":"levelo://app?vid=82de1d58-db4a-4dc1-9fdf-8477c2a655ef","ios":"levelo://app?vid=82de1d58-db4a-4dc1-9fdf-8477c2a655ef"},"vehicle_type_id":"4","last_reported":1728724199,"current_range_meters":37600,"station_id":"ce4bha12rcd13ifvqef0","pricing_plan_id":"cebpf4jnsgd1na2vs0mg"},{"bike_id":"70e839ec-dbe4-45d9-9122-8066bb1fa687","system_id":"levelo_inurba_marseille","lat":43.30149,"lon":5.38085,"is_reserved":false,"is_disabled":false,"rental_uris":{"android":"levelo://app?vid=70e839ec-dbe4-45d9-9122-8066bb1fa687","ios":"levelo://app?vid=70e839ec-dbe4-45d9-9122-8066bb1fa687"},"vehicle_type_id":"4","last_reported":1728724199,"current_range_meters":2000,"station_id":"ce4bgjp2rcd13ifvqbh0","pricing_plan_id":"cebpf4jnsgd1na2vs0mg"},{"bike_id":"9379c18a-1c38-4ebd-b55e-09efbf75f62a","system_id":"levelo_inurba_marseille","lat":43.29935,"lon":5.36546,"is_reserved":false,"is_disabled":false,"rental_uris":{"android":"levelo://app?vid=9379c18a-1c38-4ebd-b55e-09efbf75f62a","ios":"levelo://app?vid=9379c18a-1c38-4ebd-b55e-09efbf75f62a"},"vehicle_type_id":"4","last_reported":1728724199,"current_range_meters":14000,"station_id":"ce4bgm92rcd13ifvqbr0","pricing_plan_id":"cebpf4jnsgd1na2vs0mg"},{"bike_id":"082f10e2-444b-4262-9777-2e9cacdb3880","system_id":"levelo_inurba_marseille","lat":43.32034,"lon":5.4156,"is_reserved":false,"is_disabled":false,"rental_uris":{"android":"levelo://app?vid=082f10e2-444b-4262-9777-2e9cacdb3880","ios":"levelo://app?vid=082f10e2-444b-4262-9777-2e9cacdb3880"},"vehicle_type_id":"4","last_reported":1728724199,"current_range_meters":16400,"station_id":"ce4bhq92rcd13ifvqhkg","pricing_plan_id":"cebpf4jnsgd1na2vs0mg"},{"bike_id":"b06ce030-e9cd-499c-afd0-d38cb36a2e69","system_id":"levelo_inurba_marseille","lat":43.27611,"lon":5.36119,"is_reserved":false,"is_disabled":false,"rental_uris":{"android":"levelo://app?vid=b06ce030-e9cd-499c-afd0-d38cb36a2e69","ios":"levelo://app?vid=b06ce030-e9cd-499c-afd0-d38cb36a2e69"},"vehicle_type_id":"4","last_reported":1728724199,"current_range_meters":22000,"station_id":"ce4bgj92rcd13ifvqbe0","pricing_plan_id":"cebpf4jnsgd1na2vs0mg"},{"bike_id":"c5f50b99-9f20-4103-b102-63bcf405bb36","system_id":"levelo_inurba_marseille","lat":43.29787,"lon":5.38087,"is_reserved":false,"is_disabled":false,"rental_uris":{"android":"levelo://app?vid=c5f50b99-9f20-4103-b102-63bcf405bb36","ios":"levelo://app?vid=c5f50b99-9f20-4103-b102-63bcf405bb36"},"vehicle_type_id":"4","last_reported":1728724199,"current_range_meters":34000,"station_id":"ce4bgip2rcd13ifvqbb0","pricing_plan_id":"cebpf4jnsgd1na2vs0mg"},{"bike_id":"fd301c4f-88d0-470b-8444-02e732c4a052","system_id":"levelo_inurba_marseille","lat":43.24966,"lon":5.38107,"is_reserved":false,"is_disabled":false,"rental_uris":{"android":"levelo://app?vid=fd301c4f-88d0-470b-8444-02e732c4a052","ios":"levelo://app?vid=fd301c4f-88d0-470b-8444-02e732c4a052"},"vehicle_type_id":"4","last_reported":1728724199,"current_range_meters":28800,"station_id":"","pricing_plan_id":"cebpf4jnsgd1na2vs0mg"},{"bike_id":"68652680-9514-4504-8e80-b3473c04bda8","system_id":"levelo_inurba_marseille","lat":43.33606,"lon":5.41015,"is_reserved":false,"is_disabled":false,"rental_uris":{"android":"levelo://app?vid=68652680-9514-4504-8e80-b3473c04bda8","ios":"levelo://app?vid=68652680-9514-4504-8e80-b3473c04bda8"},"vehicle_type_id":"4","last_reported":1728724199,"current_range_meters":38800,"station_id":"ce4bhqh2rcd13ifvqhmg","pricing_plan_id":"cebpf4jnsgd1na2vs0mg"},{"bike_id":"e82530db-9da0-4449-ae24-c84eebf2d6c2","system_id":"levelo_inurba_marseille","lat":43.30798,"lon":5.43521,"is_reserved":false,"is_disabled":false,"rental_uris":{"android":"levelo://app?vid=e82530db-9da0-4449-ae24-c84eebf2d6c2","ios":"levelo://app?vid=e82530db-9da0-4449-ae24-c84eebf2d6c2"},"vehicle_type_id":"4","last_reported":1728724199,"current_range_meters":38800,"station_id":"ce4bhph2rcd13ifvqheg","pricing_plan_id":"cebpf4jnsgd1na2vs0mg"},{"bike_id":"ff68b789-7173-415f-860f-fb58c1b9d01d","system_id":"levelo_inurba_marseille","lat":43.22928,"lon":5.35375,"is_reserved":false,"is_disabled":false,"rental_uris":{"android":"levelo://app?vid=ff68b789-7173-415f-860f-fb58c1b9d01d","ios":"levelo://app?vid=ff68b789-7173-415f-860f-fb58c1b9d01d"},"vehicle_type_id":"4","last_reported":1728724199,"current_range_meters":27200,"station_id":"cpo3532slgdg3j2ikp40","pricing_plan_id":"cebpf4jnsgd1na2vs0mg"},{"bike_id":"f2ec553b-f583-4634-bf60-a39b93078fc1","system_id":"levelo_inurba_marseille","lat":43.24389,"lon":5.37063,"is_reserved":false,"is_disabled":false,"rental_uris":{"android":"levelo://app?vid=f2ec553b-f583-4634-bf60-a39b93078fc1","ios":"levelo://app?vid=f2ec553b-f583-4634-bf60-a39b93078fc1"},"vehicle_type_id":"4","last_reported":1728724199,"current_range_meters":28800,"station_id":"ce4bhhh2rcd13ifvqfk0","pricing_plan_id":"cebpf4jnsgd1na2vs0mg"},{"bike_id":"92c1af36-5649-40f5-84ed-a7b062884571","system_id":"levelo_inurba_marseille","lat":43.239617,"lon":5.366373,"is_reserved":false,"is_disabled":false,"rental_uris":{"android":"levelo://app?vid=92c1af36-5649-40f5-84ed-a7b062884571","ios":"levelo://app?vid=92c1af36-5649-40f5-84ed-a7b062884571"},"vehicle_type_id":"4","last_reported":1728724199,"current_range_meters":35600,"station_id":"ce4bhi12rcd13ifvqfp0","pricing_plan_id":"cebpf4jnsgd1na2vs0mg"},{"bike_id":"5015777b-606d-4dba-8f12-da86a3863bb2","system_id":"levelo_inurba_marseille","lat":43.25112,"lon":5.40325,"is_reserved":false,"is_disabled":false,"rental_uris":{"android":"levelo://app?vid=5015777b-606d-4dba-8f12-da86a3863bb2","ios":"levelo://app?vid=5015777b-606d-4dba-8f12-da86a3863bb2"},"vehicle_type_id":"4","last_reported":1728724199,"current_range_meters":9200,"station_id":"ce4bhlh2rcd13ifvqgig","pricing_plan_id":"cebpf4jnsgd1na2vs0mg"},{"bike_id":"6cb5b02c-2401-484a-8b7d-b4d2106d6b08","system_id":"levelo_inurba_marseille","lat":43.23184,"lon":5.3555,"is_reserved":false,"is_disabled":false,"rental_uris":{"android":"levelo://app?vid=6cb5b02c-2401-484a-8b7d-b4d2106d6b08","ios":"levelo://app?vid=6cb5b02c-2401-484a-8b7d-b4d2106d6b08"},"vehicle_type_id":"4","last_reported":1728724199,"current_range_meters":32000,"station_id":"ce4bhu92rcd13ifvqi70","pricing_plan_id":"cebpf4jnsgd1na2vs0mg"},{"bike_id":"f8b017dd-c7af-4d11-bbee-0e573f011668","system_id":"levelo_inurba_marseille","lat":43.31756,"lon":5.39018,"is_reserved":false,"is_disabled":false,"rental_uris":{"android":"levelo://app?vid=f8b017dd-c7af-4d11-bbee-0e573f011668","ios":"levelo://app?vid=f8b017dd-c7af-4d11-bbee-0e573f011668"},"vehicle_type_id":"4","last_reported":1728724199,"current_range_meters":30800,"station_id":"ce4bhqp2rcd13ifvqhng","pricing_plan_id":"cebpf4jnsgd1na2vs0mg"},{"bike_id":"c88cdfb0-4bf9-4a8c-8ce2-b63c2598193b","system_id":"levelo_inurba_marseille","lat":43.29577,"lon":5.36739,"is_reserved":false,"is_disabled":false,"rental_uris":{"android":"levelo://app?vid=c88cdfb0-4bf9-4a8c-8ce2-b63c2598193b","ios":"levelo://app?vid=c88cdfb0-4bf9-4a8c-8ce2-b63c2598193b"},"vehicle_type_id":"4","last_reported":1728724199,"current_range_meters":37600,"station_id":"ce4bgph2rcd13ifvqc2g","pricing_plan_id":"cebpf4jnsgd1na2vs0mg"},{"bike_id":"2e123894-c425-49a2-9c5b-ab708b2a717c","system_id":"levelo_inurba_marseille","lat":43.29878,"lon":5.38902,"is_reserved":false,"is_disabled":false,"rental_uris":{"android":"levelo://app?vid=2e123894-c425-49a2-9c5b-ab708b2a717c","ios":"levelo://app?vid=2e123894-c425-49a2-9c5b-ab708b2a717c"},"vehicle_type_id":"4","last_reported":1728724199,"current_range_meters":27200,"station_id":"ce4bh392rcd13ifvqdl0","pricing_plan_id":"cebpf4jnsgd1na2vs0mg"},{"bike_id":"2a025fd1-00d6-4dd2-807a-92658b9e5670","system_id":"levelo_inurba_marseille","lat":43.29569,"lon":5.37499,"is_reserved":false,"is_disabled":false,"rental_uris":{"android":"levelo://app?vid=2a025fd1-00d6-4dd2-807a-92658b9e5670","ios":"levelo://app?vid=2a025fd1-00d6-4dd2-807a-92658b9e5670"},"vehicle_type_id":"4","last_reported":1728724199,"current_range_meters":13600,"station_id":"ce4bgh92rcd13ifvqb50","pricing_plan_id":"cebpf4jnsgd1na2vs0mg"},{"bike_id":"d9b0a8e3-f93a-49cc-9242-0a9de01fdf8e","system_id":"levelo_inurba_marseille","lat":43.337444,"lon":5.374475,"is_reserved":false,"is_disabled":false,"rental_uris":{"android":"levelo://app?vid=d9b0a8e3-f93a-49cc-9242-0a9de01fdf8e","ios":"levelo://app?vid=d9b0a8e3-f93a-49cc-9242-0a9de01fdf8e"},"vehicle_type_id":"4","last_reported":1728724199,"current_range_meters":20400,"station_id":"ce4bh392rcd13ifvqdl0","pricing_plan_id":"cebpf4jnsgd1na2vs0mg"},{"bike_id":"e0eb06fb-c00b-4df7-b209-89534309345b","system_id":"levelo_inurba_marseille","lat":43.297144,"lon":5.376885,"is_reserved":false,"is_disabled":false,"rental_uris":{"android":"levelo://app?vid=e0eb06fb-c00b-4df7-b209-89534309345b","ios":"levelo://app?vid=e0eb06fb-c00b-4df7-b209-89534309345b"},"vehicle_type_id":"4","last_reported":1728724199,"current_range_meters":39200,"station_id":"ce4bgkh2rcd13ifvqbl0","pricing_plan_id":"cebpf4jnsgd1na2vs0mg"},{"bike_id":"20d553c7-299e-4498-a682-91b80c579bc9","system_id":"levelo_inurba_marseille","lat":43.28612,"lon":5.35104,"is_reserved":false,"is_disabled":false,"rental_uris":{"android":"levelo://app?vid=20d553c7-299e-4498-a682-91b80c579bc9","ios":"levelo://app?vid=20d553c7-299e-4498-a682-91b80c579bc9"},"vehicle_type_id":"4","last_reported":1728724199,"current_range_meters":4000,"station_id":"ce4bhch2rcd13ifvqeug","pricing_plan_id":"cebpf4jnsgd1na2vs0mg"},{"bike_id":"eac4e8f1-ac84-4048-ad4c-5213afa836f2","system_id":"levelo_inurba_marseille","lat":43.27148,"lon":5.4002,"is_reserved":false,"is_disabled":false,"rental_uris":{"android":"levelo://app?vid=eac4e8f1-ac84-4048-ad4c-5213afa836f2","ios":"levelo://app?vid=eac4e8f1-ac84-4048-ad4c-5213afa836f2"},"vehicle_type_id":"4","last_reported":1728724199,"current_range_meters":26000,"station_id":"","pricing_plan_id":"cebpf4jnsgd1na2vs0mg"},{"bike_id":"1241951e-4d85-43a4-9b92-38a3f1a123db","system_id":"levelo_inurba_marseille","lat":43.30717,"lon":5.40157,"is_reserved":false,"is_disabled":false,"rental_uris":{"android":"levelo://app?vid=1241951e-4d85-43a4-9b92-38a3f1a123db","ios":"levelo://app?vid=1241951e-4d85-43a4-9b92-38a3f1a123db"},"vehicle_type_id":"4","last_reported":1728724199,"current_range_meters":18000,"station_id":"","pricing_plan_id":"cebpf4jnsgd1na2vs0mg"},{"bike_id":"602d4549-5834-4f3c-89c4-e86648681018","system_id":"levelo_inurba_marseille","lat":43.2861,"lon":5.351,"is_reserved":false,"is_disabled":false,"rental_uris":{"android":"levelo://app?vid=602d4549-5834-4f3c-89c4-e86648681018","ios":"levelo://app?vid=602d4549-5834-4f3c-89c4-e86648681018"},"vehicle_type_id":"4","last_reported":1728724199,"current_range_meters":38800,"station_id":"ce4bhch2rcd13ifvqeug","pricing_plan_id":"cebpf4jnsgd1na2vs0mg"},{"bike_id":"24a37029-3684-4a57-b871-03b8fe5127d3","system_id":"levelo_inurba_marseille","lat":43.29501,"lon":5.39396,"is_reserved":false,"is_disabled":false,"rental_uris":{"android":"levelo://app?vid=24a37029-3684-4a57-b871-03b8fe5127d3","ios":"levelo://app?vid=24a37029-3684-4a57-b871-03b8fe5127d3"},"vehicle_type_id":"4","last_reported":1728724199,"current_range_meters":6400,"station_id":"ce4bh292rcd13ifvqdf0","pricing_plan_id":"cebpf4jnsgd1na2vs0mg"},{"bike_id":"09358275-045f-467a-996b-d648d811f0ea","system_id":"levelo_inurba_marseille","lat":43.28616,"lon":5.35102,"is_reserved":false,"is_disabled":false,"rental_uris":{"android":"levelo://app?vid=09358275-045f-467a-996b-d648d811f0ea","ios":"levelo://app?vid=09358275-045f-467a-996b-d648d811f0ea"},"vehicle_type_id":"4","last_reported":1728724199,"current_range_meters":36800,"station_id":"ce4bhch2rcd13ifvqeug","pricing_plan_id":"cebpf4jnsgd1na2vs0mg"},{"bike_id":"264d2141-1e20-485f-a145-9f11d899c8da","system_id":"levelo_inurba_marseille","lat":43.3171,"lon":5.43703,"is_reserved":false,"is_disabled":false,"rental_uris":{"android":"levelo://app?vid=264d2141-1e20-485f-a145-9f11d899c8da","ios":"levelo://app?vid=264d2141-1e20-485f-a145-9f11d899c8da"},"vehicle_type_id":"4","last_reported":1728724199,"current_range_meters":11200,"station_id":"ce4bhp92rcd13ifvqhcg","pricing_plan_id":"cebpf4jnsgd1na2vs0mg"},{"bike_id":"51c79cef-3f8a-42ad-af24-c7b5dd38568f","system_id":"levelo_inurba_marseille","lat":43.301345,"lon":5.3878,"is_reserved":false,"is_disabled":false,"rental_uris":{"android":"levelo://app?vid=51c79cef-3f8a-42ad-af24-c7b5dd38568f","ios":"levelo://app?vid=51c79cef-3f8a-42ad-af24-c7b5dd38568f"},"vehicle_type_id":"4","last_reported":1728724199,"current_range_meters":30400,"station_id":"ce4bghh2rcd13ifvqb60","pricing_plan_id":"cebpf4jnsgd1na2vs0mg"},{"bike_id":"efaaf6e6-2b2d-4766-9700-a0a3b75e8357","system_id":"levelo_inurba_marseille","lat":43.28609,"lon":5.351,"is_reserved":false,"is_disabled":false,"rental_uris":{"android":"levelo://app?vid=efaaf6e6-2b2d-4766-9700-a0a3b75e8357","ios":"levelo://app?vid=efaaf6e6-2b2d-4766-9700-a0a3b75e8357"},"vehicle_type_id":"4","last_reported":1728724199,"current_range_meters":38800,"station_id":"ce4bhch2rcd13ifvqeug","pricing_plan_id":"cebpf4jnsgd1na2vs0mg"},{"bike_id":"e8b6e01d-f7f2-40df-a8a7-2c6b1d44a7fa","system_id":"levelo_inurba_marseille","lat":43.27818,"lon":5.40714,"is_reserved":false,"is_disabled":false,"rental_uris":{"android":"levelo://app?vid=e8b6e01d-f7f2-40df-a8a7-2c6b1d44a7fa","ios":"levelo://app?vid=e8b6e01d-f7f2-40df-a8a7-2c6b1d44a7fa"},"vehicle_type_id":"4","last_reported":1728724199,"current_range_meters":38800,"station_id":"ce4bhnh2rcd13ifvqgtg","pricing_plan_id":"cebpf4jnsgd1na2vs0mg"},{"bike_id":"4ad6fd42-f540-4a7c-95c1-6e20141307a7","system_id":"levelo_inurba_marseille","lat":43.29255,"lon":5.40909,"is_reserved":false,"is_disabled":false,"rental_uris":{"android":"levelo://app?vid=4ad6fd42-f540-4a7c-95c1-6e20141307a7","ios":"levelo://app?vid=4ad6fd42-f540-4a7c-95c1-6e20141307a7"},"vehicle_type_id":"4","last_reported":1728724199,"current_range_meters":12800,"station_id":"ce4bh192rcd13ifvqdc0","pricing_plan_id":"cebpf4jnsgd1na2vs0mg"},{"bike_id":"f7df3065-292a-4208-8b20-3491c3564ed0","system_id":"levelo_inurba_marseille","lat":43.27618,"lon":5.36114,"is_reserved":false,"is_disabled":false,"rental_uris":{"android":"levelo://app?vid=f7df3065-292a-4208-8b20-3491c3564ed0","ios":"levelo://app?vid=f7df3065-292a-4208-8b20-3491c3564ed0"},"vehicle_type_id":"4","last_reported":1728724199,"current_range_meters":4400,"station_id":"ce4bgj92rcd13ifvqbe0","pricing_plan_id":"cebpf4jnsgd1na2vs0mg"},{"bike_id":"51a405b6-b17e-4d49-abcb-c2fd26ff72eb","system_id":"levelo_inurba_marseille","lat":43.250035,"lon":5.389258,"is_reserved":false,"is_disabled":false,"rental_uris":{"android":"levelo://app?vid=51a405b6-b17e-4d49-abcb-c2fd26ff72eb","ios":"levelo://app?vid=51a405b6-b17e-4d49-abcb-c2fd26ff72eb"},"vehicle_type_id":"4","last_reported":1728724199,"current_range_meters":32000,"station_id":"ce4bhgp2rcd13ifvqfd0","pricing_plan_id":"cebpf4jnsgd1na2vs0mg"},{"bike_id":"b933402b-d1ca-49a8-bbf7-fb19281d941c","system_id":"levelo_inurba_marseille","lat":43.23188,"lon":5.35554,"is_reserved":false,"is_disabled":false,"rental_uris":{"android":"levelo://app?vid=b933402b-d1ca-49a8-bbf7-fb19281d941c","ios":"levelo://app?vid=b933402b-d1ca-49a8-bbf7-fb19281d941c"},"vehicle_type_id":"4","last_reported":1728724199,"current_range_meters":22400,"station_id":"ce4bhu92rcd13ifvqi70","pricing_plan_id":"cebpf4jnsgd1na2vs0mg"},{"bike_id":"3f6f67c3-f11f-4ff4-ba40-2cb1718ccc4f","system_id":"levelo_inurba_marseille","lat":43.246572,"lon":5.381672,"is_reserved":false,"is_disabled":false,"rental_uris":{"android":"levelo://app?vid=3f6f67c3-f11f-4ff4-ba40-2cb1718ccc4f","ios":"levelo://app?vid=3f6f67c3-f11f-4ff4-ba40-2cb1718ccc4f"},"vehicle_type_id":"4","last_reported":1728724199,"current_range_meters":38800,"station_id":"ce4bhih2rcd13ifvqfr0","pricing_plan_id":"cebpf4jnsgd1na2vs0mg"},{"bike_id":"f078ca98-cc3d-4d70-b363-763e513bcfdc","system_id":"levelo_inurba_marseille","lat":43.27321,"lon":5.39069,"is_reserved":false,"is_disabled":false,"rental_uris":{"android":"levelo://app?vid=f078ca98-cc3d-4d70-b363-763e513bcfdc","ios":"levelo://app?vid=f078ca98-cc3d-4d70-b363-763e513bcfdc"},"vehicle_type_id":"4","last_reported":1728724199,"current_range_meters":6400,"station_id":"ce4bhgp2rcd13ifvqfe0","pricing_plan_id":"cebpf4jnsgd1na2vs0mg"},{"bike_id":"68472001-1d03-4e34-8b3d-aa2667b89cfa","system_id":"levelo_inurba_marseille","lat":43.29709,"lon":5.36617,"is_reserved":false,"is_disabled":false,"rental_uris":{"android":"levelo://app?vid=68472001-1d03-4e34-8b3d-aa2667b89cfa","ios":"levelo://app?vid=68472001-1d03-4e34-8b3d-aa2667b89cfa"},"vehicle_type_id":"4","last_reported":1728724199,"current_range_meters":37600,"station_id":"ce4bgn12rcd13ifvqbt0","pricing_plan_id":"cebpf4jnsgd1na2vs0mg"},{"bike_id":"0db66df0-a352-45a7-b97a-79c2d6b8bb1d","system_id":"levelo_inurba_marseille","lat":43.27177,"lon":5.40989,"is_reserved":false,"is_disabled":false,"rental_uris":{"android":"levelo://app?vid=0db66df0-a352-45a7-b97a-79c2d6b8bb1d","ios":"levelo://app?vid=0db66df0-a352-45a7-b97a-79c2d6b8bb1d"},"vehicle_type_id":"4","last_reported":1728724199,"current_range_meters":39200,"station_id":"ce4bhl12rcd13ifvqgf0","pricing_plan_id":"cebpf4jnsgd1na2vs0mg"},{"bike_id":"80f6703b-2daa-4181-af98-ffe8f337374f","system_id":"levelo_inurba_marseille","lat":43.30553,"lon":5.36535,"is_reserved":false,"is_disabled":false,"rental_uris":{"android":"levelo://app?vid=80f6703b-2daa-4181-af98-ffe8f337374f","ios":"levelo://app?vid=80f6703b-2daa-4181-af98-ffe8f337374f"},"vehicle_type_id":"4","last_reported":1728724199,"current_range_meters":39200,"station_id":"ce4bgs12rcd13ifvqcag","pricing_plan_id":"cebpf4jnsgd1na2vs0mg"},{"bike_id":"f41f2bec-cd23-47ee-8d19-d81e0b3cd853","system_id":"levelo_inurba_marseille","lat":43.297685,"lon":5.384555,"is_reserved":false,"is_disabled":false,"rental_uris":{"android":"levelo://app?vid=f41f2bec-cd23-47ee-8d19-d81e0b3cd853","ios":"levelo://app?vid=f41f2bec-cd23-47ee-8d19-d81e0b3cd853"},"vehicle_type_id":"4","last_reported":1728724199,"current_range_meters":35600,"station_id":"","pricing_plan_id":"cebpf4jnsgd1na2vs0mg"},{"bike_id":"83b389f7-d8a2-4783-b9b3-f93ae8e3107d","system_id":"levelo_inurba_marseille","lat":43.30516,"lon":5.38436,"is_reserved":false,"is_disabled":false,"rental_uris":{"android":"levelo://app?vid=83b389f7-d8a2-4783-b9b3-f93ae8e3107d","ios":"levelo://app?vid=83b389f7-d8a2-4783-b9b3-f93ae8e3107d"},"vehicle_type_id":"4","last_reported":1728724199,"current_range_meters":38800,"station_id":"ce4bgg92rcd13ifvqb30","pricing_plan_id":"cebpf4jnsgd1na2vs0mg"},{"bike_id":"a8f19f9a-4059-4039-ac02-827e8e454ed9","system_id":"levelo_inurba_marseille","lat":43.295115,"lon":5.37516,"is_reserved":false,"is_disabled":false,"rental_uris":{"android":"levelo://app?vid=a8f19f9a-4059-4039-ac02-827e8e454ed9","ios":"levelo://app?vid=a8f19f9a-4059-4039-ac02-827e8e454ed9"},"vehicle_type_id":"4","last_reported":1728724199,"current_range_meters":35600,"station_id":"ce4bgkp2rcd13ifvqbmg","pricing_plan_id":"cebpf4jnsgd1na2vs0mg"},{"bike_id":"daf721dc-9fa7-4a75-b93a-97cf3a6dac10","system_id":"levelo_inurba_marseille","lat":43.2971,"lon":5.36609,"is_reserved":false,"is_disabled":false,"rental_uris":{"android":"levelo://app?vid=daf721dc-9fa7-4a75-b93a-97cf3a6dac10","ios":"levelo://app?vid=daf721dc-9fa7-4a75-b93a-97cf3a6dac10"},"vehicle_type_id":"4","last_reported":1728724199,"current_range_meters":38000,"station_id":"ce4bgn12rcd13ifvqbt0","pricing_plan_id":"cebpf4jnsgd1na2vs0mg"},{"bike_id":"75b2715b-0ea5-471c-9cb7-feb38ee478dc","system_id":"levelo_inurba_marseille","lat":43.23182,"lon":5.39994,"is_reserved":false,"is_disabled":false,"rental_uris":{"android":"levelo://app?vid=75b2715b-0ea5-471c-9cb7-feb38ee478dc","ios":"levelo://app?vid=75b2715b-0ea5-471c-9cb7-feb38ee478dc"},"vehicle_type_id":"4","last_reported":1728724199,"current_range_meters":24000,"station_id":"ce4bhn12rcd13ifvqgqg","pricing_plan_id":"cebpf4jnsgd1na2vs0mg"},{"bike_id":"acb286ac-aacd-4e2f-954e-578f023e2a58","system_id":"levelo_inurba_marseille","lat":43.29631,"lon":5.37721,"is_reserved":false,"is_disabled":false,"rental_uris":{"android":"levelo://app?vid=acb286ac-aacd-4e2f-954e-578f023e2a58","ios":"levelo://app?vid=acb286ac-aacd-4e2f-954e-578f023e2a58"},"vehicle_type_id":"4","last_reported":1728724199,"current_range_meters":38800,"station_id":"ce4bgi92rcd13ifvqb90","pricing_plan_id":"cebpf4jnsgd1na2vs0mg"},{"bike_id":"9fe7cebc-b48f-4189-81d1-3dd39f539e69","system_id":"levelo_inurba_marseille","lat":43.337444,"lon":5.374475,"is_reserved":false,"is_disabled":false,"rental_uris":{"android":"levelo://app?vid=9fe7cebc-b48f-4189-81d1-3dd39f539e69","ios":"levelo://app?vid=9fe7cebc-b48f-4189-81d1-3dd39f539e69"},"vehicle_type_id":"4","last_reported":1728724199,"current_range_meters":28800,"station_id":"","pricing_plan_id":"cebpf4jnsgd1na2vs0mg"},{"bike_id":"a4ab7447-2d23-4412-b94c-8b6ae3e3b436","system_id":"levelo_inurba_marseille","lat":43.27995,"lon":5.40013,"is_reserved":false,"is_disabled":false,"rental_uris":{"android":"levelo://app?vid=a4ab7447-2d23-4412-b94c-8b6ae3e3b436","ios":"levelo://app?vid=a4ab7447-2d23-4412-b94c-8b6ae3e3b436"},"vehicle_type_id":"4","last_reported":1728724199,"current_range_meters":36000,"station_id":"ce4bho92rcd13ifvqh4g","pricing_plan_id":"cebpf4jnsgd1na2vs0mg"},{"bike_id":"7fd37247-7e16-4c1d-a570-1c06ddb1484b","system_id":"levelo_inurba_marseille","lat":43.27551,"lon":5.38425,"is_reserved":false,"is_disabled":false,"rental_uris":{"android":"levelo://app?vid=7fd37247-7e16-4c1d-a570-1c06ddb1484b","ios":"levelo://app?vid=7fd37247-7e16-4c1d-a570-1c06ddb1484b"},"vehicle_type_id":"4","last_reported":1728724199,"current_range_meters":30400,"station_id":"ce4bhh92rcd13ifvqfi0","pricing_plan_id":"cebpf4jnsgd1na2vs0mg"},{"bike_id":"931b36f8-95f2-4e4a-bee3-7a4a6dfd9165","system_id":"levelo_inurba_marseille","lat":43.26931,"lon":5.40251,"is_reserved":false,"is_disabled":false,"rental_uris":{"android":"levelo://app?vid=931b36f8-95f2-4e4a-bee3-7a4a6dfd9165","ios":"levelo://app?vid=931b36f8-95f2-4e4a-bee3-7a4a6dfd9165"},"vehicle_type_id":"4","last_reported":1728724199,"current_range_meters":18800,"station_id":"cjm6bp8fraef2m0cb0m0","pricing_plan_id":"cebpf4jnsgd1na2vs0mg"},{"bike_id":"286baabf-b45b-4acd-805a-a7938257d24b","system_id":"levelo_inurba_marseille","lat":43.2648,"lon":5.39552,"is_reserved":false,"is_disabled":false,"rental_uris":{"android":"levelo://app?vid=286baabf-b45b-4acd-805a-a7938257d24b","ios":"levelo://app?vid=286baabf-b45b-4acd-805a-a7938257d24b"},"vehicle_type_id":"4","last_reported":1728724199,"current_range_meters":19600,"station_id":"ce4bhi12rcd13ifvqfq0","pricing_plan_id":"cebpf4jnsgd1na2vs0mg"},{"bike_id":"484a4c63-4ef1-4433-b27a-9a9ca5ad2f9a","system_id":"levelo_inurba_marseille","lat":43.22929,"lon":5.35378,"is_reserved":false,"is_disabled":false,"rental_uris":{"android":"levelo://app?vid=484a4c63-4ef1-4433-b27a-9a9ca5ad2f9a","ios":"levelo://app?vid=484a4c63-4ef1-4433-b27a-9a9ca5ad2f9a"},"vehicle_type_id":"4","last_reported":1728724199,"current_range_meters":10800,"station_id":"cpo3532slgdg3j2ikp40","pricing_plan_id":"cebpf4jnsgd1na2vs0mg"},{"bike_id":"d8644448-7698-4ba5-ba37-f6083176f920","system_id":"levelo_inurba_marseille","lat":43.25579,"lon":5.38238,"is_reserved":false,"is_disabled":false,"rental_uris":{"android":"levelo://app?vid=d8644448-7698-4ba5-ba37-f6083176f920","ios":"levelo://app?vid=d8644448-7698-4ba5-ba37-f6083176f920"},"vehicle_type_id":"4","last_reported":1728724199,"current_range_meters":27200,"station_id":"ce4bhih2rcd13ifvqfs0","pricing_plan_id":"cebpf4jnsgd1na2vs0mg"},{"bike_id":"8c6e5c01-bd51-4b79-95b6-ed2db322cd17","system_id":"levelo_inurba_marseille","lat":43.33022,"lon":5.39035,"is_reserved":false,"is_disabled":false,"rental_uris":{"android":"levelo://app?vid=8c6e5c01-bd51-4b79-95b6-ed2db322cd17","ios":"levelo://app?vid=8c6e5c01-bd51-4b79-95b6-ed2db322cd17"},"vehicle_type_id":"4","last_reported":1728724199,"current_range_meters":6400,"station_id":"ce4bhr92rcd13ifvqhrg","pricing_plan_id":"cebpf4jnsgd1na2vs0mg"},{"bike_id":"b43a37ee-db0c-4e2e-bf8d-f18619c472c1","system_id":"levelo_inurba_marseille","lat":43.30278,"lon":5.37708,"is_reserved":false,"is_disabled":false,"rental_uris":{"android":"levelo://app?vid=b43a37ee-db0c-4e2e-bf8d-f18619c472c1","ios":"levelo://app?vid=b43a37ee-db0c-4e2e-bf8d-f18619c472c1"},"vehicle_type_id":"4","last_reported":1728724199,"current_range_meters":24800,"station_id":"ce4bguh2rcd13ifvqcj0","pricing_plan_id":"cebpf4jnsgd1na2vs0mg"},{"bike_id":"e6336660-e5d0-4336-aab6-9e2081b4b551","system_id":"levelo_inurba_marseille","lat":43.337308,"lon":5.391965,"is_reserved":false,"is_disabled":false,"rental_uris":{"android":"levelo://app?vid=e6336660-e5d0-4336-aab6-9e2081b4b551","ios":"levelo://app?vid=e6336660-e5d0-4336-aab6-9e2081b4b551"},"vehicle_type_id":"4","last_reported":1728724199,"current_range_meters":24800,"station_id":"ce4bhr92rcd13ifvqhsg","pricing_plan_id":"cebpf4jnsgd1na2vs0mg"},{"bike_id":"ab47664c-0450-4138-b005-9b8e1b8810bd","system_id":"levelo_inurba_marseille","lat":43.29578,"lon":5.36739,"is_reserved":false,"is_disabled":false,"rental_uris":{"android":"levelo://app?vid=ab47664c-0450-4138-b005-9b8e1b8810bd","ios":"levelo://app?vid=ab47664c-0450-4138-b005-9b8e1b8810bd"},"vehicle_type_id":"4","last_reported":1728724199,"current_range_meters":31200,"station_id":"ce4bgph2rcd13ifvqc2g","pricing_plan_id":"cebpf4jnsgd1na2vs0mg"},{"bike_id":"efe82192-bd85-47ef-8a17-25dad9ec5e82","system_id":"levelo_inurba_marseille","lat":43.26199,"lon":5.37928,"is_reserved":false,"is_disabled":false,"rental_uris":{"android":"levelo://app?vid=efe82192-bd85-47ef-8a17-25dad9ec5e82","ios":"levelo://app?vid=efe82192-bd85-47ef-8a17-25dad9ec5e82"},"vehicle_type_id":"4","last_reported":1728724199,"current_range_meters":38000,"station_id":"ce4bhjp2rcd13ifvqg90","pricing_plan_id":"cebpf4jnsgd1na2vs0mg"},{"bike_id":"c7932ebc-40c2-41af-92e1-9d5f28b5738a","system_id":"levelo_inurba_marseille","lat":43.2319,"lon":5.39975,"is_reserved":false,"is_disabled":false,"rental_uris":{"android":"levelo://app?vid=c7932ebc-40c2-41af-92e1-9d5f28b5738a","ios":"levelo://app?vid=c7932ebc-40c2-41af-92e1-9d5f28b5738a"},"vehicle_type_id":"4","last_reported":1728724199,"current_range_meters":6800,"station_id":"ce4bhn12rcd13ifvqgqg","pricing_plan_id":"cebpf4jnsgd1na2vs0mg"},{"bike_id":"e4f8ce08-da9d-4c38-bbed-1703f7b9a4a8","system_id":"levelo_inurba_marseille","lat":43.2621,"lon":5.37439,"is_reserved":false,"is_disabled":false,"rental_uris":{"android":"levelo://app?vid=e4f8ce08-da9d-4c38-bbed-1703f7b9a4a8","ios":"levelo://app?vid=e4f8ce08-da9d-4c38-bbed-1703f7b9a4a8"},"vehicle_type_id":"4","last_reported":1728724199,"current_range_meters":26800,"station_id":"ce4bhgp2rcd13ifvqfc0","pricing_plan_id":"cebpf4jnsgd1na2vs0mg"},{"bike_id":"6931a5c8-778c-43cd-a35a-41a3a00f6ee2","system_id":"levelo_inurba_marseille","lat":43.2655,"lon":5.37286,"is_reserved":false,"is_disabled":false,"rental_uris":{"android":"levelo://app?vid=6931a5c8-778c-43cd-a35a-41a3a00f6ee2","ios":"levelo://app?vid=6931a5c8-778c-43cd-a35a-41a3a00f6ee2"},"vehicle_type_id":"4","last_reported":1728724199,"current_range_meters":32000,"station_id":"ce4bhg12rcd13ifvqf70","pricing_plan_id":"cebpf4jnsgd1na2vs0mg"},{"bike_id":"55582e1e-1cd8-4e96-933c-025471d1c473","system_id":"levelo_inurba_marseille","lat":43.26936,"lon":5.38915,"is_reserved":false,"is_disabled":false,"rental_uris":{"android":"levelo://app?vid=55582e1e-1cd8-4e96-933c-025471d1c473","ios":"levelo://app?vid=55582e1e-1cd8-4e96-933c-025471d1c473"},"vehicle_type_id":"4","last_reported":1728724199,"current_range_meters":12000,"station_id":"ce4bhhh2rcd13ifvqfl0","pricing_plan_id":"cebpf4jnsgd1na2vs0mg"},{"bike_id":"de886c87-3b40-4f52-9196-8c341bcc8520","system_id":"levelo_inurba_marseille","lat":43.26482,"lon":5.39544,"is_reserved":false,"is_disabled":false,"rental_uris":{"android":"levelo://app?vid=de886c87-3b40-4f52-9196-8c341bcc8520","ios":"levelo://app?vid=de886c87-3b40-4f52-9196-8c341bcc8520"},"vehicle_type_id":"4","last_reported":1728724199,"current_range_meters":19600,"station_id":"ce4bhi12rcd13ifvqfq0","pricing_plan_id":"cebpf4jnsgd1na2vs0mg"},{"bike_id":"5b9f2409-af94-4530-bdcb-ef3b7e257a37","system_id":"levelo_inurba_marseille","lat":43.31992,"lon":5.38144,"is_reserved":false,"is_disabled":false,"rental_uris":{"android":"levelo://app?vid=5b9f2409-af94-4530-bdcb-ef3b7e257a37","ios":"levelo://app?vid=5b9f2409-af94-4530-bdcb-ef3b7e257a37"},"vehicle_type_id":"4","last_reported":1728724199,"current_range_meters":37600,"station_id":"ce4bhr12rcd13ifvqhpg","pricing_plan_id":"cebpf4jnsgd1na2vs0mg"},{"bike_id":"4616abf0-d599-438c-a8f9-1568c49bd888","system_id":"levelo_inurba_marseille","lat":43.2944,"lon":5.3974,"is_reserved":false,"is_disabled":false,"rental_uris":{"android":"levelo://app?vid=4616abf0-d599-438c-a8f9-1568c49bd888","ios":"levelo://app?vid=4616abf0-d599-438c-a8f9-1568c49bd888"},"vehicle_type_id":"4","last_reported":1728724199,"current_range_meters":38400,"station_id":"ce4bh3h2rcd13ifvqdo0","pricing_plan_id":"cebpf4jnsgd1na2vs0mg"},{"bike_id":"50350b79-4482-47a6-bf7c-a323d7a3b974","system_id":"levelo_inurba_marseille","lat":43.30257,"lon":5.40037,"is_reserved":false,"is_disabled":false,"rental_uris":{"android":"levelo://app?vid=50350b79-4482-47a6-bf7c-a323d7a3b974","ios":"levelo://app?vid=50350b79-4482-47a6-bf7c-a323d7a3b974"},"vehicle_type_id":"4","last_reported":1728724199,"current_range_meters":36800,"station_id":"ce4bgvh2rcd13ifvqcs0","pricing_plan_id":"cebpf4jnsgd1na2vs0mg"},{"bike_id":"9420c6dc-b19d-4421-8c0c-72e39b809c6b","system_id":"levelo_inurba_marseille","lat":43.22922,"lon":5.35373,"is_reserved":false,"is_disabled":false,"rental_uris":{"android":"levelo://app?vid=9420c6dc-b19d-4421-8c0c-72e39b809c6b","ios":"levelo://app?vid=9420c6dc-b19d-4421-8c0c-72e39b809c6b"},"vehicle_type_id":"4","last_reported":1728724199,"current_range_meters":36800,"station_id":"cpo3532slgdg3j2ikp40","pricing_plan_id":"cebpf4jnsgd1na2vs0mg"},{"bike_id":"5a5649e8-a9bc-4d0f-be41-ed6fc56a9baf","system_id":"levelo_inurba_marseille","lat":43.22928,"lon":5.35374,"is_reserved":false,"is_disabled":false,"rental_uris":{"android":"levelo://app?vid=5a5649e8-a9bc-4d0f-be41-ed6fc56a9baf","ios":"levelo://app?vid=5a5649e8-a9bc-4d0f-be41-ed6fc56a9baf"},"vehicle_type_id":"4","last_reported":1728724199,"current_range_meters":32400,"station_id":"cpo3532slgdg3j2ikp40","pricing_plan_id":"cebpf4jnsgd1na2vs0mg"},{"bike_id":"b4f0e86f-2ef3-4da7-b76f-04024ea93eeb","system_id":"levelo_inurba_marseille","lat":43.30462,"lon":5.37907,"is_reserved":false,"is_disabled":false,"rental_uris":{"android":"levelo://app?vid=b4f0e86f-2ef3-4da7-b76f-04024ea93eeb","ios":"levelo://app?vid=b4f0e86f-2ef3-4da7-b76f-04024ea93eeb"},"vehicle_type_id":"4","last_reported":1728724199,"current_range_meters":36400,"station_id":"ce4bgup2rcd13ifvqcn0","pricing_plan_id":"cebpf4jnsgd1na2vs0mg"},{"bike_id":"e90e61a9-5c9b-41f2-8a9e-702e3571dbb5","system_id":"levelo_inurba_marseille","lat":43.29254,"lon":5.40899,"is_reserved":false,"is_disabled":false,"rental_uris":{"android":"levelo://app?vid=e90e61a9-5c9b-41f2-8a9e-702e3571dbb5","ios":"levelo://app?vid=e90e61a9-5c9b-41f2-8a9e-702e3571dbb5"},"vehicle_type_id":"4","last_reported":1728724199,"current_range_meters":30800,"station_id":"ce4bh192rcd13ifvqdc0","pricing_plan_id":"cebpf4jnsgd1na2vs0mg"},{"bike_id":"3e5a3962-c6be-4850-9d7f-9b5a4d5455ec","system_id":"levelo_inurba_marseille","lat":43.31996,"lon":5.38154,"is_reserved":false,"is_disabled":false,"rental_uris":{"android":"levelo://app?vid=3e5a3962-c6be-4850-9d7f-9b5a4d5455ec","ios":"levelo://app?vid=3e5a3962-c6be-4850-9d7f-9b5a4d5455ec"},"vehicle_type_id":"4","last_reported":1728724199,"current_range_meters":30400,"station_id":"ce4bhr12rcd13ifvqhpg","pricing_plan_id":"cebpf4jnsgd1na2vs0mg"},{"bike_id":"52dfa4e7-b4f5-4a62-867c-6957a54f71bd","system_id":"levelo_inurba_marseille","lat":43.27068,"lon":5.42273,"is_reserved":false,"is_disabled":false,"rental_uris":{"android":"levelo://app?vid=52dfa4e7-b4f5-4a62-867c-6957a54f71bd","ios":"levelo://app?vid=52dfa4e7-b4f5-4a62-867c-6957a54f71bd"},"vehicle_type_id":"4","last_reported":1728724199,"current_range_meters":36000,"station_id":"ce4bhk92rcd13ifvqgb0","pricing_plan_id":"cebpf4jnsgd1na2vs0mg"},{"bike_id":"4194d76e-8c20-415d-8ddf-fdf8836b5099","system_id":"levelo_inurba_marseille","lat":43.27985,"lon":5.41654,"is_reserved":false,"is_disabled":false,"rental_uris":{"android":"levelo://app?vid=4194d76e-8c20-415d-8ddf-fdf8836b5099","ios":"levelo://app?vid=4194d76e-8c20-415d-8ddf-fdf8836b5099"},"vehicle_type_id":"4","last_reported":1728724199,"current_range_meters":6000,"station_id":"ce4bho12rcd13ifvqh1g","pricing_plan_id":"cebpf4jnsgd1na2vs0mg"},{"bike_id":"dd5882fa-1f7a-4b2f-9f00-1636ac8aa2a0","system_id":"levelo_inurba_marseille","lat":43.26195,"lon":5.37928,"is_reserved":false,"is_disabled":false,"rental_uris":{"android":"levelo://app?vid=dd5882fa-1f7a-4b2f-9f00-1636ac8aa2a0","ios":"levelo://app?vid=dd5882fa-1f7a-4b2f-9f00-1636ac8aa2a0"},"vehicle_type_id":"4","last_reported":1728724199,"current_range_meters":30800,"station_id":"ce4bhjp2rcd13ifvqg90","pricing_plan_id":"cebpf4jnsgd1na2vs0mg"},{"bike_id":"d289279f-820f-4f5f-af0d-67984879432c","system_id":"levelo_inurba_marseille","lat":43.29512,"lon":5.3905,"is_reserved":false,"is_disabled":false,"rental_uris":{"android":"levelo://app?vid=d289279f-820f-4f5f-af0d-67984879432c","ios":"levelo://app?vid=d289279f-820f-4f5f-af0d-67984879432c"},"vehicle_type_id":"4","last_reported":1728724199,"current_range_meters":16400,"station_id":"ce4bh3p2rcd13ifvqdp0","pricing_plan_id":"cebpf4jnsgd1na2vs0mg"},{"bike_id":"e7b80a9d-8eab-4c55-afa3-0f8d67be8e22","system_id":"levelo_inurba_marseille","lat":43.2438,"lon":5.37045,"is_reserved":false,"is_disabled":false,"rental_uris":{"android":"levelo://app?vid=e7b80a9d-8eab-4c55-afa3-0f8d67be8e22","ios":"levelo://app?vid=e7b80a9d-8eab-4c55-afa3-0f8d67be8e22"},"vehicle_type_id":"4","last_reported":1728724199,"current_range_meters":39200,"station_id":"ce4bhhh2rcd13ifvqfk0","pricing_plan_id":"cebpf4jnsgd1na2vs0mg"},{"bike_id":"379d6363-9152-4e84-bd42-6ec02dd02b54","system_id":"levelo_inurba_marseille","lat":43.31992,"lon":5.38146,"is_reserved":false,"is_disabled":false,"rental_uris":{"android":"levelo://app?vid=379d6363-9152-4e84-bd42-6ec02dd02b54","ios":"levelo://app?vid=379d6363-9152-4e84-bd42-6ec02dd02b54"},"vehicle_type_id":"4","last_reported":1728724199,"current_range_meters":38000,"station_id":"ce4bhr12rcd13ifvqhpg","pricing_plan_id":"cebpf4jnsgd1na2vs0mg"},{"bike_id":"8fb2b431-bcb9-46ba-80fb-e26e84592fc5","system_id":"levelo_inurba_marseille","lat":43.23184,"lon":5.35554,"is_reserved":false,"is_disabled":false,"rental_uris":{"android":"levelo://app?vid=8fb2b431-bcb9-46ba-80fb-e26e84592fc5","ios":"levelo://app?vid=8fb2b431-bcb9-46ba-80fb-e26e84592fc5"},"vehicle_type_id":"4","last_reported":1728724199,"current_range_meters":32400,"station_id":"ce4bhu92rcd13ifvqi70","pricing_plan_id":"cebpf4jnsgd1na2vs0mg"},{"bike_id":"27ce91b1-019f-4f14-b09b-8fc9b2f9e1d4","system_id":"levelo_inurba_marseille","lat":43.29622,"lon":5.37719,"is_reserved":false,"is_disabled":false,"rental_uris":{"android":"levelo://app?vid=27ce91b1-019f-4f14-b09b-8fc9b2f9e1d4","ios":"levelo://app?vid=27ce91b1-019f-4f14-b09b-8fc9b2f9e1d4"},"vehicle_type_id":"4","last_reported":1728724199,"current_range_meters":9200,"station_id":"ce4bgi92rcd13ifvqb90","pricing_plan_id":"cebpf4jnsgd1na2vs0mg"},{"bike_id":"a0a8d7b9-dbdf-40a0-9e08-88bb28950992","system_id":"levelo_inurba_marseille","lat":43.30461,"lon":5.37896,"is_reserved":false,"is_disabled":false,"rental_uris":{"android":"levelo://app?vid=a0a8d7b9-dbdf-40a0-9e08-88bb28950992","ios":"levelo://app?vid=a0a8d7b9-dbdf-40a0-9e08-88bb28950992"},"vehicle_type_id":"4","last_reported":1728724199,"current_range_meters":36800,"station_id":"ce4bgup2rcd13ifvqcn0","pricing_plan_id":"cebpf4jnsgd1na2vs0mg"},{"bike_id":"a216c97e-7b65-4e95-8091-da8e526d9d64","system_id":"levelo_inurba_marseille","lat":43.297808,"lon":5.371165,"is_reserved":false,"is_disabled":false,"rental_uris":{"android":"levelo://app?vid=a216c97e-7b65-4e95-8091-da8e526d9d64","ios":"levelo://app?vid=a216c97e-7b65-4e95-8091-da8e526d9d64"},"vehicle_type_id":"4","last_reported":1728724199,"current_range_meters":39200,"station_id":"ce4bgop2rcd13ifvqc1g","pricing_plan_id":"cebpf4jnsgd1na2vs0mg"},{"bike_id":"e2f25126-29b7-4581-a4fe-9e458716fb1d","system_id":"levelo_inurba_marseille","lat":43.2396,"lon":5.36626,"is_reserved":false,"is_disabled":false,"rental_uris":{"android":"levelo://app?vid=e2f25126-29b7-4581-a4fe-9e458716fb1d","ios":"levelo://app?vid=e2f25126-29b7-4581-a4fe-9e458716fb1d"},"vehicle_type_id":"4","last_reported":1728724199,"current_range_meters":28800,"station_id":"ce4bhi12rcd13ifvqfp0","pricing_plan_id":"cebpf4jnsgd1na2vs0mg"},{"bike_id":"386afdab-5ca5-4bd2-984e-31a0a109f099","system_id":"levelo_inurba_marseille","lat":43.30133,"lon":5.3741,"is_reserved":false,"is_disabled":false,"rental_uris":{"android":"levelo://app?vid=386afdab-5ca5-4bd2-984e-31a0a109f099","ios":"levelo://app?vid=386afdab-5ca5-4bd2-984e-31a0a109f099"},"vehicle_type_id":"4","last_reported":1728724199,"current_range_meters":38800,"station_id":"ce4bgs92rcd13ifvqcc0","pricing_plan_id":"cebpf4jnsgd1na2vs0mg"},{"bike_id":"280cd2df-985c-4fec-bbd9-cc9089f4d20c","system_id":"levelo_inurba_marseille","lat":43.27979,"lon":5.38735,"is_reserved":false,"is_disabled":false,"rental_uris":{"android":"levelo://app?vid=280cd2df-985c-4fec-bbd9-cc9089f4d20c","ios":"levelo://app?vid=280cd2df-985c-4fec-bbd9-cc9089f4d20c"},"vehicle_type_id":"4","last_reported":1728724199,"current_range_meters":17600,"station_id":"ce4bhg12rcd13ifvqf80","pricing_plan_id":"cebpf4jnsgd1na2vs0mg"},{"bike_id":"8233b71b-891a-4e52-ba59-3fa8be51a63e","system_id":"levelo_inurba_marseille","lat":43.26795,"lon":5.39416,"is_reserved":false,"is_disabled":false,"rental_uris":{"android":"levelo://app?vid=8233b71b-891a-4e52-ba59-3fa8be51a63e","ios":"levelo://app?vid=8233b71b-891a-4e52-ba59-3fa8be51a63e"},"vehicle_type_id":"4","last_reported":1728724199,"current_range_meters":36400,"station_id":"ce4bhh12rcd13ifvqfg0","pricing_plan_id":"cebpf4jnsgd1na2vs0mg"},{"bike_id":"5557475d-2522-4324-9278-8680c1c6334a","system_id":"levelo_inurba_marseille","lat":43.22927,"lon":5.35371,"is_reserved":false,"is_disabled":false,"rental_uris":{"android":"levelo://app?vid=5557475d-2522-4324-9278-8680c1c6334a","ios":"levelo://app?vid=5557475d-2522-4324-9278-8680c1c6334a"},"vehicle_type_id":"4","last_reported":1728724199,"current_range_meters":10800,"station_id":"cpo3532slgdg3j2ikp40","pricing_plan_id":"cebpf4jnsgd1na2vs0mg"},{"bike_id":"ada7472e-6027-403a-a239-d414f24cd2e0","system_id":"levelo_inurba_marseille","lat":43.32331,"lon":5.40616,"is_reserved":false,"is_disabled":false,"rental_uris":{"android":"levelo://app?vid=ada7472e-6027-403a-a239-d414f24cd2e0","ios":"levelo://app?vid=ada7472e-6027-403a-a239-d414f24cd2e0"},"vehicle_type_id":"4","last_reported":1728724199,"current_range_meters":35200,"station_id":"ce4bhq92rcd13ifvqhjg","pricing_plan_id":"cebpf4jnsgd1na2vs0mg"},{"bike_id":"7e1ddba8-7450-4208-9e1f-1b36cd00e2bc","system_id":"levelo_inurba_marseille","lat":43.31883,"lon":5.40723,"is_reserved":false,"is_disabled":false,"rental_uris":{"android":"levelo://app?vid=7e1ddba8-7450-4208-9e1f-1b36cd00e2bc","ios":"levelo://app?vid=7e1ddba8-7450-4208-9e1f-1b36cd00e2bc"},"vehicle_type_id":"4","last_reported":1728724199,"current_range_meters":38800,"station_id":"ce4bhq12rcd13ifvqhig","pricing_plan_id":"cebpf4jnsgd1na2vs0mg"},{"bike_id":"b3b2de45-6e13-4551-8667-b0149c47447a","system_id":"levelo_inurba_marseille","lat":43.23147,"lon":5.43696,"is_reserved":false,"is_disabled":false,"rental_uris":{"android":"levelo://app?vid=b3b2de45-6e13-4551-8667-b0149c47447a","ios":"levelo://app?vid=b3b2de45-6e13-4551-8667-b0149c47447a"},"vehicle_type_id":"4","last_reported":1728724199,"current_range_meters":22400,"station_id":"ce4bhmp2rcd13ifvqgog","pricing_plan_id":"cebpf4jnsgd1na2vs0mg"},{"bike_id":"0e43f052-9c62-442f-8c97-ea23dd8be5d8","system_id":"levelo_inurba_marseille","lat":43.30143,"lon":5.38075,"is_reserved":false,"is_disabled":false,"rental_uris":{"android":"levelo://app?vid=0e43f052-9c62-442f-8c97-ea23dd8be5d8","ios":"levelo://app?vid=0e43f052-9c62-442f-8c97-ea23dd8be5d8"},"vehicle_type_id":"4","last_reported":1728724199,"current_range_meters":36800,"station_id":"ce4bgjp2rcd13ifvqbh0","pricing_plan_id":"cebpf4jnsgd1na2vs0mg"},{"bike_id":"a27554a6-a50a-485f-8f1f-4487a4aa2e01","system_id":"levelo_inurba_marseille","lat":43.30585,"lon":5.38093,"is_reserved":false,"is_disabled":false,"rental_uris":{"android":"levelo://app?vid=a27554a6-a50a-485f-8f1f-4487a4aa2e01","ios":"levelo://app?vid=a27554a6-a50a-485f-8f1f-4487a4aa2e01"},"vehicle_type_id":"4","last_reported":1728724199,"current_range_meters":27600,"station_id":"","pricing_plan_id":"cebpf4jnsgd1na2vs0mg"},{"bike_id":"b599cf41-f2c1-4761-9fab-51b9b2c49e97","system_id":"levelo_inurba_marseille","lat":43.28612,"lon":5.351,"is_reserved":false,"is_disabled":false,"rental_uris":{"android":"levelo://app?vid=b599cf41-f2c1-4761-9fab-51b9b2c49e97","ios":"levelo://app?vid=b599cf41-f2c1-4761-9fab-51b9b2c49e97"},"vehicle_type_id":"4","last_reported":1728724199,"current_range_meters":21600,"station_id":"ce4bhch2rcd13ifvqeug","pricing_plan_id":"cebpf4jnsgd1na2vs0mg"},{"bike_id":"644fc0fa-8af8-45a1-8485-f3c7a8315404","system_id":"levelo_inurba_marseille","lat":43.29903,"lon":5.38148,"is_reserved":false,"is_disabled":false,"rental_uris":{"android":"levelo://app?vid=644fc0fa-8af8-45a1-8485-f3c7a8315404","ios":"levelo://app?vid=644fc0fa-8af8-45a1-8485-f3c7a8315404"},"vehicle_type_id":"4","last_reported":1728724199,"current_range_meters":28000,"station_id":"ce4bgj12rcd13ifvqbc0","pricing_plan_id":"cebpf4jnsgd1na2vs0mg"},{"bike_id":"eb520385-7326-4a7e-8073-56168f6d2e95","system_id":"levelo_inurba_marseille","lat":43.29192,"lon":5.39317,"is_reserved":false,"is_disabled":false,"rental_uris":{"android":"levelo://app?vid=eb520385-7326-4a7e-8073-56168f6d2e95","ios":"levelo://app?vid=eb520385-7326-4a7e-8073-56168f6d2e95"},"vehicle_type_id":"4","last_reported":1728724199,"current_range_meters":36400,"station_id":"ce4bh192rcd13ifvqdd0","pricing_plan_id":"cebpf4jnsgd1na2vs0mg"},{"bike_id":"a4569b01-c24f-4cd3-b8fd-8bfd66cee430","system_id":"levelo_inurba_marseille","lat":43.27827,"lon":5.38795,"is_reserved":false,"is_disabled":false,"rental_uris":{"android":"levelo://app?vid=a4569b01-c24f-4cd3-b8fd-8bfd66cee430","ios":"levelo://app?vid=a4569b01-c24f-4cd3-b8fd-8bfd66cee430"},"vehicle_type_id":"4","last_reported":1728724199,"current_range_meters":38000,"station_id":"","pricing_plan_id":"cebpf4jnsgd1na2vs0mg"},{"bike_id":"e4e0c7d9-743e-4987-b12c-cc30909aebea","system_id":"levelo_inurba_marseille","lat":43.24644,"lon":5.38902,"is_reserved":false,"is_disabled":false,"rental_uris":{"android":"levelo://app?vid=e4e0c7d9-743e-4987-b12c-cc30909aebea","ios":"levelo://app?vid=e4e0c7d9-743e-4987-b12c-cc30909aebea"},"vehicle_type_id":"4","last_reported":1728724199,"current_range_meters":39200,"station_id":"ce4bhg12rcd13ifvqf60","pricing_plan_id":"cebpf4jnsgd1na2vs0mg"},{"bike_id":"424f03aa-3a83-44c9-9b9e-4044cc688e78","system_id":"levelo_inurba_marseille","lat":43.29784,"lon":5.38092,"is_reserved":false,"is_disabled":false,"rental_uris":{"android":"levelo://app?vid=424f03aa-3a83-44c9-9b9e-4044cc688e78","ios":"levelo://app?vid=424f03aa-3a83-44c9-9b9e-4044cc688e78"},"vehicle_type_id":"4","last_reported":1728724199,"current_range_meters":33200,"station_id":"ce4bgip2rcd13ifvqbb0","pricing_plan_id":"cebpf4jnsgd1na2vs0mg"},{"bike_id":"00afd36e-c6cb-459c-b71f-3d3069c5192b","system_id":"levelo_inurba_marseille","lat":43.29574,"lon":5.37502,"is_reserved":false,"is_disabled":false,"rental_uris":{"android":"levelo://app?vid=00afd36e-c6cb-459c-b71f-3d3069c5192b","ios":"levelo://app?vid=00afd36e-c6cb-459c-b71f-3d3069c5192b"},"vehicle_type_id":"4","last_reported":1728724199,"current_range_meters":38800,"station_id":"ce4bgh92rcd13ifvqb50","pricing_plan_id":"cebpf4jnsgd1na2vs0mg"},{"bike_id":"8c80cb23-a64e-4fe6-824b-143e5bb832fd","system_id":"levelo_inurba_marseille","lat":43.32286,"lon":5.3827,"is_reserved":false,"is_disabled":false,"rental_uris":{"android":"levelo://app?vid=8c80cb23-a64e-4fe6-824b-143e5bb832fd","ios":"levelo://app?vid=8c80cb23-a64e-4fe6-824b-143e5bb832fd"},"vehicle_type_id":"4","last_reported":1728724199,"current_range_meters":37600,"station_id":"ce4bhr12rcd13ifvqhqg","pricing_plan_id":"cebpf4jnsgd1na2vs0mg"},{"bike_id":"2d62089a-df90-4b4e-93eb-d117387ccf20","system_id":"levelo_inurba_marseille","lat":43.23178,"lon":5.39988,"is_reserved":false,"is_disabled":false,"rental_uris":{"android":"levelo://app?vid=2d62089a-df90-4b4e-93eb-d117387ccf20","ios":"levelo://app?vid=2d62089a-df90-4b4e-93eb-d117387ccf20"},"vehicle_type_id":"4","last_reported":1728724199,"current_range_meters":19200,"station_id":"ce4bhn12rcd13ifvqgqg","pricing_plan_id":"cebpf4jnsgd1na2vs0mg"},{"bike_id":"8d4fa04b-4062-460e-b516-8963625f5487","system_id":"levelo_inurba_marseille","lat":43.31077,"lon":5.42428,"is_reserved":false,"is_disabled":false,"rental_uris":{"android":"levelo://app?vid=8d4fa04b-4062-460e-b516-8963625f5487","ios":"levelo://app?vid=8d4fa04b-4062-460e-b516-8963625f5487"},"vehicle_type_id":"4","last_reported":1728724199,"current_range_meters":39200,"station_id":"ce4bhp92rcd13ifvqhag","pricing_plan_id":"cebpf4jnsgd1na2vs0mg"},{"bike_id":"71a59c21-a265-4f65-a81d-74a082fbf0a5","system_id":"levelo_inurba_marseille","lat":43.337538,"lon":5.374669,"is_reserved":false,"is_disabled":false,"rental_uris":{"android":"levelo://app?vid=71a59c21-a265-4f65-a81d-74a082fbf0a5","ios":"levelo://app?vid=71a59c21-a265-4f65-a81d-74a082fbf0a5"},"vehicle_type_id":"4","last_reported":1728724199,"current_range_meters":27600,"station_id":"","pricing_plan_id":"cebpf4jnsgd1na2vs0mg"},{"bike_id":"614c0dda-0498-4da1-86db-2335c15f407e","system_id":"levelo_inurba_marseille","lat":43.29877,"lon":5.38916,"is_reserved":false,"is_disabled":false,"rental_uris":{"android":"levelo://app?vid=614c0dda-0498-4da1-86db-2335c15f407e","ios":"levelo://app?vid=614c0dda-0498-4da1-86db-2335c15f407e"},"vehicle_type_id":"4","last_reported":1728724199,"current_range_meters":39200,"station_id":"ce4bh392rcd13ifvqdl0","pricing_plan_id":"cebpf4jnsgd1na2vs0mg"},{"bike_id":"6bbc398b-b545-4492-b6e4-d179d67e1805","system_id":"levelo_inurba_marseille","lat":43.25726,"lon":5.41102,"is_reserved":false,"is_disabled":false,"rental_uris":{"android":"levelo://app?vid=6bbc398b-b545-4492-b6e4-d179d67e1805","ios":"levelo://app?vid=6bbc398b-b545-4492-b6e4-d179d67e1805"},"vehicle_type_id":"4","last_reported":1728724199,"current_range_meters":8000,"station_id":"ce4bhkp2rcd13ifvqgd0","pricing_plan_id":"cebpf4jnsgd1na2vs0mg"},{"bike_id":"b9153fc9-6909-4ad9-a660-6cbd533c8305","system_id":"levelo_inurba_marseille","lat":43.24383,"lon":5.37052,"is_reserved":false,"is_disabled":false,"rental_uris":{"android":"levelo://app?vid=b9153fc9-6909-4ad9-a660-6cbd533c8305","ios":"levelo://app?vid=b9153fc9-6909-4ad9-a660-6cbd533c8305"},"vehicle_type_id":"4","last_reported":1728724199,"current_range_meters":30400,"station_id":"ce4bhhh2rcd13ifvqfk0","pricing_plan_id":"cebpf4jnsgd1na2vs0mg"},{"bike_id":"de368da8-cc67-41de-bf98-14855e4e33c8","system_id":"levelo_inurba_marseille","lat":43.25486,"lon":5.37651,"is_reserved":false,"is_disabled":false,"rental_uris":{"android":"levelo://app?vid=de368da8-cc67-41de-bf98-14855e4e33c8","ios":"levelo://app?vid=de368da8-cc67-41de-bf98-14855e4e33c8"},"vehicle_type_id":"4","last_reported":1728724199,"current_range_meters":26800,"station_id":"ce4bhh12rcd13ifvqff0","pricing_plan_id":"cebpf4jnsgd1na2vs0mg"},{"bike_id":"65922d76-1b80-44ea-8539-50eaf8dc31e8","system_id":"levelo_inurba_marseille","lat":43.29261,"lon":5.38445,"is_reserved":false,"is_disabled":false,"rental_uris":{"android":"levelo://app?vid=65922d76-1b80-44ea-8539-50eaf8dc31e8","ios":"levelo://app?vid=65922d76-1b80-44ea-8539-50eaf8dc31e8"},"vehicle_type_id":"4","last_reported":1728724199,"current_range_meters":18800,"station_id":"ce4bh692rcd13ifvqea0","pricing_plan_id":"cebpf4jnsgd1na2vs0mg"},{"bike_id":"1bea244f-3fc8-47b3-9c91-d662e9e4c4bd","system_id":"levelo_inurba_marseille","lat":43.30146,"lon":5.38088,"is_reserved":false,"is_disabled":false,"rental_uris":{"android":"levelo://app?vid=1bea244f-3fc8-47b3-9c91-d662e9e4c4bd","ios":"levelo://app?vid=1bea244f-3fc8-47b3-9c91-d662e9e4c4bd"},"vehicle_type_id":"4","last_reported":1728724199,"current_range_meters":39200,"station_id":"ce4bgjp2rcd13ifvqbh0","pricing_plan_id":"cebpf4jnsgd1na2vs0mg"},{"bike_id":"092b0836-7fc6-4398-a8ce-013142346652","system_id":"levelo_inurba_marseille","lat":43.29549,"lon":5.42283,"is_reserved":false,"is_disabled":false,"rental_uris":{"android":"levelo://app?vid=092b0836-7fc6-4398-a8ce-013142346652","ios":"levelo://app?vid=092b0836-7fc6-4398-a8ce-013142346652"},"vehicle_type_id":"4","last_reported":1728724199,"current_range_meters":17600,"station_id":"ce4bhph2rcd13ifvqhdg","pricing_plan_id":"cebpf4jnsgd1na2vs0mg"},{"bike_id":"bb8afb7b-2fb2-4f59-80e1-dd72ab288b00","system_id":"levelo_inurba_marseille","lat":43.30324,"lon":5.40437,"is_reserved":false,"is_disabled":false,"rental_uris":{"android":"levelo://app?vid=bb8afb7b-2fb2-4f59-80e1-dd72ab288b00","ios":"levelo://app?vid=bb8afb7b-2fb2-4f59-80e1-dd72ab288b00"},"vehicle_type_id":"4","last_reported":1728724199,"current_range_meters":38400,"station_id":"ce4bh012rcd13ifvqd10","pricing_plan_id":"cebpf4jnsgd1na2vs0mg"},{"bike_id":"df5fdba9-521a-4fd3-8e79-b0ea11c297f6","system_id":"levelo_inurba_marseille","lat":43.25716,"lon":5.41111,"is_reserved":false,"is_disabled":false,"rental_uris":{"android":"levelo://app?vid=df5fdba9-521a-4fd3-8e79-b0ea11c297f6","ios":"levelo://app?vid=df5fdba9-521a-4fd3-8e79-b0ea11c297f6"},"vehicle_type_id":"4","last_reported":1728724199,"current_range_meters":24000,"station_id":"ce4bhkp2rcd13ifvqgd0","pricing_plan_id":"cebpf4jnsgd1na2vs0mg"},{"bike_id":"9aff9168-c405-4fed-aaae-77cc8a74813f","system_id":"levelo_inurba_marseille","lat":43.29507,"lon":5.3798,"is_reserved":false,"is_disabled":false,"rental_uris":{"android":"levelo://app?vid=9aff9168-c405-4fed-aaae-77cc8a74813f","ios":"levelo://app?vid=9aff9168-c405-4fed-aaae-77cc8a74813f"},"vehicle_type_id":"4","last_reported":1728724199,"current_range_meters":17600,"station_id":"","pricing_plan_id":"cebpf4jnsgd1na2vs0mg"},{"bike_id":"8f5ac828-8925-4526-9cfa-f8205da27bb2","system_id":"levelo_inurba_marseille","lat":43.23197,"lon":5.35544,"is_reserved":false,"is_disabled":false,"rental_uris":{"android":"levelo://app?vid=8f5ac828-8925-4526-9cfa-f8205da27bb2","ios":"levelo://app?vid=8f5ac828-8925-4526-9cfa-f8205da27bb2"},"vehicle_type_id":"4","last_reported":1728724199,"current_range_meters":33600,"station_id":"ce4bhu92rcd13ifvqi70","pricing_plan_id":"cebpf4jnsgd1na2vs0mg"},{"bike_id":"4a409b39-0593-4a82-88bf-6e2bf103a1e7","system_id":"levelo_inurba_marseille","lat":43.23176,"lon":5.39989,"is_reserved":false,"is_disabled":false,"rental_uris":{"android":"levelo://app?vid=4a409b39-0593-4a82-88bf-6e2bf103a1e7","ios":"levelo://app?vid=4a409b39-0593-4a82-88bf-6e2bf103a1e7"},"vehicle_type_id":"4","last_reported":1728724199,"current_range_meters":18800,"station_id":"ce4bhn12rcd13ifvqgqg","pricing_plan_id":"cebpf4jnsgd1na2vs0mg"},{"bike_id":"9e75956e-b41c-4a75-9464-5e1cf49fcaab","system_id":"levelo_inurba_marseille","lat":43.32026,"lon":5.41554,"is_reserved":false,"is_disabled":false,"rental_uris":{"android":"levelo://app?vid=9e75956e-b41c-4a75-9464-5e1cf49fcaab","ios":"levelo://app?vid=9e75956e-b41c-4a75-9464-5e1cf49fcaab"},"vehicle_type_id":"4","last_reported":1728724199,"current_range_meters":17600,"station_id":"ce4bhq92rcd13ifvqhkg","pricing_plan_id":"cebpf4jnsgd1na2vs0mg"},{"bike_id":"02c1d441-a190-47ab-8505-bcc92b9636bd","system_id":"levelo_inurba_marseille","lat":43.27966,"lon":5.38723,"is_reserved":false,"is_disabled":false,"rental_uris":{"android":"levelo://app?vid=02c1d441-a190-47ab-8505-bcc92b9636bd","ios":"levelo://app?vid=02c1d441-a190-47ab-8505-bcc92b9636bd"},"vehicle_type_id":"4","last_reported":1728724199,"current_range_meters":32400,"station_id":"ce4bhg12rcd13ifvqf80","pricing_plan_id":"cebpf4jnsgd1na2vs0mg"},{"bike_id":"270a4027-4d3e-4baf-94a6-0168db04581b","system_id":"levelo_inurba_marseille","lat":43.26951,"lon":5.38634,"is_reserved":false,"is_disabled":false,"rental_uris":{"android":"levelo://app?vid=270a4027-4d3e-4baf-94a6-0168db04581b","ios":"levelo://app?vid=270a4027-4d3e-4baf-94a6-0168db04581b"},"vehicle_type_id":"4","last_reported":1728724199,"current_range_meters":36800,"station_id":"ce4bhh92rcd13ifvqfh0","pricing_plan_id":"cebpf4jnsgd1na2vs0mg"},{"bike_id":"9ec689bd-4191-4192-b432-b0b5ff92ccd1","system_id":"levelo_inurba_marseille","lat":43.24386,"lon":5.37052,"is_reserved":false,"is_disabled":false,"rental_uris":{"android":"levelo://app?vid=9ec689bd-4191-4192-b432-b0b5ff92ccd1","ios":"levelo://app?vid=9ec689bd-4191-4192-b432-b0b5ff92ccd1"},"vehicle_type_id":"4","last_reported":1728724199,"current_range_meters":25200,"station_id":"ce4bhhh2rcd13ifvqfk0","pricing_plan_id":"cebpf4jnsgd1na2vs0mg"},{"bike_id":"1f3d7a0f-a9e6-4fa5-8119-05eeb2b8db3b","system_id":"levelo_inurba_marseille","lat":43.28994,"lon":5.35615,"is_reserved":false,"is_disabled":false,"rental_uris":{"android":"levelo://app?vid=1f3d7a0f-a9e6-4fa5-8119-05eeb2b8db3b","ios":"levelo://app?vid=1f3d7a0f-a9e6-4fa5-8119-05eeb2b8db3b"},"vehicle_type_id":"4","last_reported":1728724199,"current_range_meters":38800,"station_id":"ce4bhb92rcd13ifvqen0","pricing_plan_id":"cebpf4jnsgd1na2vs0mg"},{"bike_id":"aad69708-28ac-43e6-945e-619f5a7c6bfd","system_id":"levelo_inurba_marseille","lat":43.33726,"lon":5.37468,"is_reserved":false,"is_disabled":false,"rental_uris":{"android":"levelo://app?vid=aad69708-28ac-43e6-945e-619f5a7c6bfd","ios":"levelo://app?vid=aad69708-28ac-43e6-945e-619f5a7c6bfd"},"vehicle_type_id":"4","last_reported":1728724199,"current_range_meters":38800,"station_id":"","pricing_plan_id":"cebpf4jnsgd1na2vs0mg"},{"bike_id":"f164dca9-a3f3-41e2-80cc-b9eb24b8038c","system_id":"levelo_inurba_marseille","lat":43.24806,"lon":5.37457,"is_reserved":false,"is_disabled":false,"rental_uris":{"android":"levelo://app?vid=f164dca9-a3f3-41e2-80cc-b9eb24b8038c","ios":"levelo://app?vid=f164dca9-a3f3-41e2-80cc-b9eb24b8038c"},"vehicle_type_id":"4","last_reported":1728724199,"current_range_meters":27600,"station_id":"ce4bhgh2rcd13ifvqfb0","pricing_plan_id":"cebpf4jnsgd1na2vs0mg"},{"bike_id":"61619f66-efc9-4bbd-bf98-a7bb70061f1d","system_id":"levelo_inurba_marseille","lat":43.22932,"lon":5.35376,"is_reserved":false,"is_disabled":false,"rental_uris":{"android":"levelo://app?vid=61619f66-efc9-4bbd-bf98-a7bb70061f1d","ios":"levelo://app?vid=61619f66-efc9-4bbd-bf98-a7bb70061f1d"},"vehicle_type_id":"4","last_reported":1728724199,"current_range_meters":29600,"station_id":"cpo3532slgdg3j2ikp40","pricing_plan_id":"cebpf4jnsgd1na2vs0mg"},{"bike_id":"6f24eae4-8a7c-4efc-921c-456520614093","system_id":"levelo_inurba_marseille","lat":43.23148,"lon":5.43717,"is_reserved":false,"is_disabled":false,"rental_uris":{"android":"levelo://app?vid=6f24eae4-8a7c-4efc-921c-456520614093","ios":"levelo://app?vid=6f24eae4-8a7c-4efc-921c-456520614093"},"vehicle_type_id":"4","last_reported":1728724199,"current_range_meters":13600,"station_id":"ce4bhmp2rcd13ifvqgog","pricing_plan_id":"cebpf4jnsgd1na2vs0mg"},{"bike_id":"76a2c896-72d5-417c-91a8-8b6a21eea5c0","system_id":"levelo_inurba_marseille","lat":43.29574,"lon":5.37504,"is_reserved":false,"is_disabled":false,"rental_uris":{"android":"levelo://app?vid=76a2c896-72d5-417c-91a8-8b6a21eea5c0","ios":"levelo://app?vid=76a2c896-72d5-417c-91a8-8b6a21eea5c0"},"vehicle_type_id":"4","last_reported":1728724199,"current_range_meters":13600,"station_id":"ce4bgh92rcd13ifvqb50","pricing_plan_id":"cebpf4jnsgd1na2vs0mg"},