{"last_updated":1746140971,"ttl":60,"version":"2.2","data":{"bikes":[{"bike_id":"98e592b3-5fa3-4a83-b8d7-4600d55d353f","system_id":"levelo_inurba_marseille","lat":43.24643,"lon":5.43635,"is_reserved":false,"is_disabled":false,"rental_uris":{"android":"levelo://app?vid=98e592b3-5fa3-4a83-b8d7-4600d55d353f","ios":"levelo://app?vid=98e592b3-5fa3-4a83-b8d7-4600d55d353f"},"vehicle_type_id":"4","last_reported":1746140972,"current_range_meters":2800,"station_id":"","pricing_plan_id":"cebpf4jnsgd1na2vs0mg"},{"bike_id":"c1c239ac-c26a-4d48-9c6e-672896f6304d","system_id":"levelo_inurba_marseille","lat":43.30244,"lon":5.40041,"is_reserved":false,"is_disabled":false,"rental_uris":{"android":"levelo://app?vid=c1c239ac-c26a-4d48-9c6e-672896f6304d","ios":"levelo://app?vid=c1c239ac-c26a-4d48-9c6e-672896f6304d"},"vehicle_type_id":"4","last_reported":1746140972,"current_range_meters":2800,"station_id":"ce4bgvh2rcd13ifvqcs0","pricing_plan_id":"cebpf4jnsgd1na2vs0mg"},{"bike_id":"b4d6464f-2c24-4f4a-87e3-4ae192332afd","system_id":"levelo_inurba_marseille","lat":43.3118,"lon":5.3868,"is_reserved":false,"is_disabled":true,"rental_uris":{"android":"levelo://app?vid=b4d6464f-2c24-4f4a-87e3-4ae192332afd","ios":"levelo://app?vid=b4d6464f-2c24-4f4a-87e3-4ae192332afd"},"vehicle_type_id":"4","last_reported":1746140972,"current_range_meters":2800,"station_id":"ce4bgv12rcd13ifvqcp0","pricing_plan_id":"cebpf4jnsgd1na2vs0mg"},{"bike_id":"9562061e-224c-4e17-a7f9-9fe02c04d01a","system_id":"levelo_inurba_marseille","lat":43.33609,"lon":5.41029,"is_reserved":false,"is_disabled":false,"rental_uris":{"android":"levelo://app?vid=9562061e-224c-4e17-a7f9-9fe02c04d01a","ios":"levelo://app?vid=9562061e-224c-4e17-a7f9-9fe02c04d01a"},"vehicle_type_id":"4","last_reported":1746140972,"current_range_meters":2800,"station_id":"ce4bhqh2rcd13ifvqhmg","pricing_plan_id":"cebpf4jnsgd1na2vs0mg"},{"bike_id":"b040c87c-26d7-487f-acd2-8d295b07e4e9","system_id":"levelo_inurba_marseille","lat":43.295295,"lon":5.385432,"is_reserved":false,"is_disabled":true,"rental_uris":{"android":"levelo://app?vid=b040c87c-26d7-487f-acd2-8d295b07e4e9","ios":"levelo://app?vid=b040c87c-26d7-487f-acd2-8d295b07e4e9"},"vehicle_type_id":"4","last_reported":1746140972,"current_range_meters":3200,"station_id":"ce4bgih2rcd13ifvqba0","pricing_plan_id":"cebpf4jnsgd1na2vs0mg"},{"bike_id":"644a933c-db49-4e5b-8960-0dcb83ef70b0","system_id":"levelo_inurba_marseille","lat":43.273733,"lon":5.362628,"is_reserved":false,"is_disabled":false,"rental_uris":{"android":"levelo://app?vid=644a933c-db49-4e5b-8960-0dcb83ef70b0","ios":"levelo://app?vid=644a933c-db49-4e5b-8960-0dcb83ef70b0"},"vehicle_type_id":"4","last_reported":1746140972,"current_range_meters":3200,"station_id":"ce4bhbh2rcd13ifvqeo0","pricing_plan_id":"cebpf4jnsgd1na2vs0mg"},{"bike_id":"de3cdd69-e35e-470d-9667-1c73f08b2fea","system_id":"levelo_inurba_marseille","lat":43.28956,"lon":5.39618,"is_reserved":false,"is_disabled":false,"rental_uris":{"android":"levelo://app?vid=de3cdd69-e35e-470d-9667-1c73f08b2fea","ios":"levelo://app?vid=de3cdd69-e35e-470d-9667-1c73f08b2fea"},"vehicle_type_id":"4","last_reported":1746140972,"current_range_meters":3600,"station_id":"ce4bh3h2rcd13ifvqdn0","pricing_plan_id":"cebpf4jnsgd1na2vs0mg"},{"bike_id":"ec7dffdd-b62b-4e82-bf9c-ee47eb7c1481","system_id":"levelo_inurba_marseille","lat":43.26209,"lon":5.37441,"is_reserved":false,"is_disabled":false,"rental_uris":{"android":"levelo://app?vid=ec7dffdd-b62b-4e82-bf9c-ee47eb7c1481","ios":"levelo://app?vid=ec7dffdd-b62b-4e82-bf9c-ee47eb7c1481"},"vehicle_type_id":"4","last_reported":1746140972,"current_range_meters":3200,"station_id":"ce4bhgp2rcd13ifvqfc0","pricing_plan_id":"cebpf4jnsgd1na2vs0mg"},{"bike_id":"65f290c9-60a1-4d3b-b06f-45bfc19d3f13","system_id":"levelo_inurba_marseille","lat":43.276671,"lon":5.389324,"is_reserved":false,"is_disabled":false,"rental_uris":{"android":"levelo://app?vid=65f290c9-60a1-4d3b-b06f-45bfc19d3f13","ios":"levelo://app?vid=65f290c9-60a1-4d3b-b06f-45bfc19d3f13"},"vehicle_type_id":"4","last_reported":1746140972,"current_range_meters":4400,"station_id":"ce4bhi12rcd13ifvqfo0","pricing_plan_id":"cebpf4jnsgd1na2vs0mg"},{"bike_id":"39ccc3a0-baae-41ad-bd60-2cf8edcfd4fa","system_id":"levelo_inurba_marseille","lat":43.260274,"lon":5.375567,"is_reserved":false,"is_disabled":true,"rental_uris":{"android":"levelo://app?vid=39ccc3a0-baae-41ad-bd60-2cf8edcfd4fa","ios":"levelo://app?vid=39ccc3a0-baae-41ad-bd60-2cf8edcfd4fa"},"vehicle_type_id":"4","last_reported":1746140972,"current_range_meters":4400,"station_id":"ce4bhgh2rcd13ifvqfa0","pricing_plan_id":"cebpf4jnsgd1na2vs0mg"},{"bike_id":"590c3182-b259-4323-807a-fe38f07e15f2","system_id":"levelo_inurba_marseille","lat":43.33609,"lon":5.410365,"is_reserved":false,"is_disabled":false,"rental_uris":{"android":"levelo://app?vid=590c3182-b259-4323-807a-fe38f07e15f2","ios":"levelo://app?vid=590c3182-b259-4323-807a-fe38f07e15f2"},"vehicle_type_id":"4","last_reported":1746140972,"current_range_meters":4400,"station_id":"ce4bhqh2rcd13ifvqhmg","pricing_plan_id":"cebpf4jnsgd1na2vs0mg"},{"bike_id":"ffafe023-f228-4f84-841e-4d8493b40269","system_id":"levelo_inurba_marseille","lat":43.30825,"lon":5.38159,"is_reserved":false,"is_disabled":false,"rental_uris":{"android":"levelo://app?vid=ffafe023-f228-4f84-841e-4d8493b40269","ios":"levelo://app?vid=ffafe023-f228-4f84-841e-4d8493b40269"},"vehicle_type_id":"4","last_reported":1746140972,"current_range_meters":4400,"station_id":"ce4bgt12rcd13ifvqce0","pricing_plan_id":"cebpf4jnsgd1na2vs0mg"},{"bike_id":"f5ac5c9f-9773-4a12-be6a-a2cc7e84e45b","system_id":"levelo_inurba_marseille","lat":43.2742,"lon":5.39414,"is_reserved":false,"is_disabled":false,"rental_uris":{"android":"levelo://app?vid=f5ac5c9f-9773-4a12-be6a-a2cc7e84e45b","ios":"levelo://app?vid=f5ac5c9f-9773-4a12-be6a-a2cc7e84e45b"},"vehicle_type_id":"4","last_reported":1746140972,"current_range_meters":4400,"station_id":"ce4bhdp2rcd13ifvqf20","pricing_plan_id":"cebpf4jnsgd1na2vs0mg"},{"bike_id":"9dd4b7f9-911d-4d29-ad84-72e031001402","system_id":"levelo_inurba_marseille","lat":43.29263,"lon":5.40911,"is_reserved":false,"is_disabled":false,"rental_uris":{"android":"levelo://app?vid=9dd4b7f9-911d-4d29-ad84-72e031001402","ios":"levelo://app?vid=9dd4b7f9-911d-4d29-ad84-72e031001402"},"vehicle_type_id":"4","last_reported":1746140972,"current_range_meters":4800,"station_id":"ce4bh192rcd13ifvqdc0","pricing_plan_id":"cebpf4jnsgd1na2vs0mg"},{"bike_id":"123e2a1e-8e80-4acb-9bf1-3836d4bf2f87","system_id":"levelo_inurba_marseille","lat":43.25117,"lon":5.4031,"is_reserved":false,"is_disabled":false,"rental_uris":{"android":"levelo://app?vid=123e2a1e-8e80-4acb-9bf1-3836d4bf2f87","ios":"levelo://app?vid=123e2a1e-8e80-4acb-9bf1-3836d4bf2f87"},"vehicle_type_id":"4","last_reported":1746140972,"current_range_meters":4800,"station_id":"ce4bhlh2rcd13ifvqgig","pricing_plan_id":"cebpf4jnsgd1na2vs0mg"},{"bike_id":"0683d66b-a209-4c9a-8a6e-884c4cd4abfa","system_id":"levelo_inurba_marseille","lat":43.29876,"lon":5.39727,"is_reserved":false,"is_disabled":false,"rental_uris":{"android":"levelo://app?vid=0683d66b-a209-4c9a-8a6e-884c4cd4abfa","ios":"levelo://app?vid=0683d66b-a209-4c9a-8a6e-884c4cd4abfa"},"vehicle_type_id":"4","last_reported":1746140972,"current_range_meters":4800,"station_id":"ce4bh0h2rcd13ifvqd50","pricing_plan_id":"cebpf4jnsgd1na2vs0mg"},{"bike_id":"5a46a972-f412-47bc-918e-2491313c9726","system_id":"levelo_inurba_marseille","lat":43.2909,"lon":5.400378,"is_reserved":false,"is_disabled":false,"rental_uris":{"android":"levelo://app?vid=5a46a972-f412-47bc-918e-2491313c9726","ios":"levelo://app?vid=5a46a972-f412-47bc-918e-2491313c9726"},"vehicle_type_id":"4","last_reported":1746140972,"current_range_meters":4800,"station_id":"","pricing_plan_id":"cebpf4jnsgd1na2vs0mg"},{"bike_id":"074b1fe1-0369-406a-b3fd-aff117360eba","system_id":"levelo_inurba_marseille","lat":43.2407,"lon":5.37752,"is_reserved":false,"is_disabled":false,"rental_uris":{"android":"levelo://app?vid=074b1fe1-0369-406a-b3fd-aff117360eba","ios":"levelo://app?vid=074b1fe1-0369-406a-b3fd-aff117360eba"},"vehicle_type_id":"4","last_reported":1746140972,"current_range_meters":4800,"station_id":"ce4bhnp2rcd13ifvqgvg","pricing_plan_id":"cebpf4jnsgd1na2vs0mg"},{"bike_id":"9993632a-4b57-4af1-b3f7-ae52baf8c31d","system_id":"levelo_inurba_marseille","lat":43.294195,"lon":5.386205,"is_reserved":false,"is_disabled":true,"rental_uris":{"android":"levelo://app?vid=9993632a-4b57-4af1-b3f7-ae52baf8c31d","ios":"levelo://app?vid=9993632a-4b57-4af1-b3f7-ae52baf8c31d"},"vehicle_type_id":"4","last_reported":1746140972,"current_range_meters":4800,"station_id":"ce4bh2h2rcd13ifvqdh0","pricing_plan_id":"cebpf4jnsgd1na2vs0mg"},{"bike_id":"2785f816-66b8-4b6f-bb79-42f49ec74d85","system_id":"levelo_inurba_marseille","lat":43.30421,"lon":5.39745,"is_reserved":false,"is_disabled":false,"rental_uris":{"android":"levelo://app?vid=2785f816-66b8-4b6f-bb79-42f49ec74d85","ios":"levelo://app?vid=2785f816-66b8-4b6f-bb79-42f49ec74d85"},"vehicle_type_id":"4","last_reported":1746140972,"current_range_meters":4800,"station_id":"ce4bh092rcd13ifvqd20","pricing_plan_id":"cebpf4jnsgd1na2vs0mg"},{"bike_id":"5d3b05a5-2bb8-4020-b7ec-e6c9888f170c","system_id":"levelo_inurba_marseille","lat":43.297064,"lon":5.39447,"is_reserved":false,"is_disabled":false,"rental_uris":{"android":"levelo://app?vid=5d3b05a5-2bb8-4020-b7ec-e6c9888f170c","ios":"levelo://app?vid=5d3b05a5-2bb8-4020-b7ec-e6c9888f170c"},"vehicle_type_id":"4","last_reported":1746140972,"current_range_meters":5600,"station_id":"","pricing_plan_id":"cebpf4jnsgd1na2vs0mg"},{"bike_id":"f565461d-5ade-454d-95fa-3afa3312979d","system_id":"levelo_inurba_marseille","lat":43.30636,"lon":5.40084,"is_reserved":false,"is_disabled":false,"rental_uris":{"android":"levelo://app?vid=f565461d-5ade-454d-95fa-3afa3312979d","ios":"levelo://app?vid=f565461d-5ade-454d-95fa-3afa3312979d"},"vehicle_type_id":"4","last_reported":1746140972,"current_range_meters":5600,"station_id":"ce4bh112rcd13ifvqda0","pricing_plan_id":"cebpf4jnsgd1na2vs0mg"},{"bike_id":"e7947e84-6058-42bf-a836-3c0caa5de93e","system_id":"levelo_inurba_marseille","lat":43.31712,"lon":5.37742,"is_reserved":false,"is_disabled":false,"rental_uris":{"android":"levelo://app?vid=e7947e84-6058-42bf-a836-3c0caa5de93e","ios":"levelo://app?vid=e7947e84-6058-42bf-a836-3c0caa5de93e"},"vehicle_type_id":"4","last_reported":1746140972,"current_range_meters":4800,"station_id":"ce4bgth2rcd13ifvqch0","pricing_plan_id":"cebpf4jnsgd1na2vs0mg"},{"bike_id":"53e2a6ba-f0b2-427d-bbf2-3607ce505fbb","system_id":"levelo_inurba_marseille","lat":43.279187,"lon":5.395775,"is_reserved":false,"is_disabled":false,"rental_uris":{"android":"levelo://app?vid=53e2a6ba-f0b2-427d-bbf2-3607ce505fbb","ios":"levelo://app?vid=53e2a6ba-f0b2-427d-bbf2-3607ce505fbb"},"vehicle_type_id":"4","last_reported":1746140972,"current_range_meters":6000,"station_id":"ce4bhf92rcd13ifvqf40","pricing_plan_id":"cebpf4jnsgd1na2vs0mg"},{"bike_id":"fa0847ce-f57a-49be-92cd-a84df065d5e9","system_id":"levelo_inurba_marseille","lat":43.33604,"lon":5.41028,"is_reserved":false,"is_disabled":false,"rental_uris":{"android":"levelo://app?vid=fa0847ce-f57a-49be-92cd-a84df065d5e9","ios":"levelo://app?vid=fa0847ce-f57a-49be-92cd-a84df065d5e9"},"vehicle_type_id":"4","last_reported":1746140972,"current_range_meters":6000,"station_id":"ce4bhqh2rcd13ifvqhmg","pricing_plan_id":"cebpf4jnsgd1na2vs0mg"},{"bike_id":"fd9a4832-7310-4a2d-b55c-eb7e681369f4","system_id":"levelo_inurba_marseille","lat":43.27993,"lon":5.44215,"is_reserved":false,"is_disabled":false,"rental_uris":{"android":"levelo://app?vid=fd9a4832-7310-4a2d-b55c-eb7e681369f4","ios":"levelo://app?vid=fd9a4832-7310-4a2d-b55c-eb7e681369f4"},"vehicle_type_id":"4","last_reported":1746140972,"current_range_meters":6000,"station_id":"","pricing_plan_id":"cebpf4jnsgd1na2vs0mg"},{"bike_id":"7f770ba9-2e48-47c9-8bb4-942855273bad","system_id":"levelo_inurba_marseille","lat":43.25314,"lon":5.4241,"is_reserved":false,"is_disabled":false,"rental_uris":{"android":"levelo://app?vid=7f770ba9-2e48-47c9-8bb4-942855273bad","ios":"levelo://app?vid=7f770ba9-2e48-47c9-8bb4-942855273bad"},"vehicle_type_id":"4","last_reported":1746140972,"current_range_meters":6000,"station_id":"","pricing_plan_id":"cebpf4jnsgd1na2vs0mg"},{"bike_id":"727a9e79-9eef-4d0d-8364-8cc93b121718","system_id":"levelo_inurba_marseille","lat":43.254993,"lon":5.37642,"is_reserved":false,"is_disabled":true,"rental_uris":{"android":"levelo://app?vid=727a9e79-9eef-4d0d-8364-8cc93b121718","ios":"levelo://app?vid=727a9e79-9eef-4d0d-8364-8cc93b121718"},"vehicle_type_id":"4","last_reported":1746140972,"current_range_meters":6000,"station_id":"ce4bhh12rcd13ifvqff0","pricing_plan_id":"cebpf4jnsgd1na2vs0mg"},{"bike_id":"5929c210-eb80-47f6-b67f-7d276e7fb810","system_id":"levelo_inurba_marseille","lat":43.298711,"lon":5.397326,"is_reserved":false,"is_disabled":false,"rental_uris":{"android":"levelo://app?vid=5929c210-eb80-47f6-b67f-7d276e7fb810","ios":"levelo://app?vid=5929c210-eb80-47f6-b67f-7d276e7fb810"},"vehicle_type_id":"4","last_reported":1746140972,"current_range_meters":6000,"station_id":"ce4bh0h2rcd13ifvqd50","pricing_plan_id":"cebpf4jnsgd1na2vs0mg"},{"bike_id":"d901647f-aef6-4e5f-b7ba-7cb0dfd0a264","system_id":"levelo_inurba_marseille","lat":43.30791,"lon":5.37657,"is_reserved":false,"is_disabled":true,"rental_uris":{"android":"levelo://app?vid=d901647f-aef6-4e5f-b7ba-7cb0dfd0a264","ios":"levelo://app?vid=d901647f-aef6-4e5f-b7ba-7cb0dfd0a264"},"vehicle_type_id":"4","last_reported":1746140972,"current_range_meters":6400,"station_id":"ce4bgv92rcd13ifvqcq0","pricing_plan_id":"cebpf4jnsgd1na2vs0mg"},{"bike_id":"080fea3a-f03b-4b78-b4ff-0c14bc158b80","system_id":"levelo_inurba_marseille","lat":43.28351,"lon":5.38105,"is_reserved":false,"is_disabled":false,"rental_uris":{"android":"levelo://app?vid=080fea3a-f03b-4b78-b4ff-0c14bc158b80","ios":"levelo://app?vid=080fea3a-f03b-4b78-b4ff-0c14bc158b80"},"vehicle_type_id":"4","last_reported":1746140972,"current_range_meters":6400,"station_id":"ce4bh412rcd13ifvqdr0","pricing_plan_id":"cebpf4jnsgd1na2vs0mg"},{"bike_id":"4af62b9a-7259-45f3-b15a-51fcc63c51c5","system_id":"levelo_inurba_marseille","lat":43.25722,"lon":5.41088,"is_reserved":false,"is_disabled":false,"rental_uris":{"android":"levelo://app?vid=4af62b9a-7259-45f3-b15a-51fcc63c51c5","ios":"levelo://app?vid=4af62b9a-7259-45f3-b15a-51fcc63c51c5"},"vehicle_type_id":"4","last_reported":1746140972,"current_range_meters":6800,"station_id":"ce4bhkp2rcd13ifvqgd0","pricing_plan_id":"cebpf4jnsgd1na2vs0mg"},{"bike_id":"c7da9ef9-1744-4e5e-a809-ff041badbe27","system_id":"levelo_inurba_marseille","lat":43.29044,"lon":5.39946,"is_reserved":false,"is_disabled":false,"rental_uris":{"android":"levelo://app?vid=c7da9ef9-1744-4e5e-a809-ff041badbe27","ios":"levelo://app?vid=c7da9ef9-1744-4e5e-a809-ff041badbe27"},"vehicle_type_id":"4","last_reported":1746140972,"current_range_meters":6800,"station_id":"ce4bh392rcd13ifvqdm0","pricing_plan_id":"cebpf4jnsgd1na2vs0mg"},{"bike_id":"0840f843-3a67-4e05-a048-29d3d9d53dba","system_id":"levelo_inurba_marseille","lat":43.25724,"lon":5.41116,"is_reserved":false,"is_disabled":false,"rental_uris":{"android":"levelo://app?vid=0840f843-3a67-4e05-a048-29d3d9d53dba","ios":"levelo://app?vid=0840f843-3a67-4e05-a048-29d3d9d53dba"},"vehicle_type_id":"4","last_reported":1746140972,"current_range_meters":6800,"station_id":"ce4bhkp2rcd13ifvqgd0","pricing_plan_id":"cebpf4jnsgd1na2vs0mg"},{"bike_id":"993993a4-ded2-4764-967d-7bb33e67fd38","system_id":"levelo_inurba_marseille","lat":43.279116,"lon":5.395827,"is_reserved":false,"is_disabled":false,"rental_uris":{"android":"levelo://app?vid=993993a4-ded2-4764-967d-7bb33e67fd38","ios":"levelo://app?vid=993993a4-ded2-4764-967d-7bb33e67fd38"},"vehicle_type_id":"4","last_reported":1746140972,"current_range_meters":6800,"station_id":"ce4bhf92rcd13ifvqf40","pricing_plan_id":"cebpf4jnsgd1na2vs0mg"},{"bike_id":"215bdf6f-59e9-4581-ab6a-3306c221d929","system_id":"levelo_inurba_marseille","lat":43.24569,"lon":5.39836,"is_reserved":false,"is_disabled":false,"rental_uris":{"android":"levelo://app?vid=215bdf6f-59e9-4581-ab6a-3306c221d929","ios":"levelo://app?vid=215bdf6f-59e9-4581-ab6a-3306c221d929"},"vehicle_type_id":"4","last_reported":1746140972,"current_range_meters":6800,"station_id":"","pricing_plan_id":"cebpf4jnsgd1na2vs0mg"},{"bike_id":"a9c243d0-02f4-49a0-85d6-9e32713170f4","system_id":"levelo_inurba_marseille","lat":43.30329,"lon":5.40431,"is_reserved":false,"is_disabled":false,"rental_uris":{"android":"levelo://app?vid=a9c243d0-02f4-49a0-85d6-9e32713170f4","ios":"levelo://app?vid=a9c243d0-02f4-49a0-85d6-9e32713170f4"},"vehicle_type_id":"4","last_reported":1746140972,"current_range_meters":6800,"station_id":"ce4bh012rcd13ifvqd10","pricing_plan_id":"cebpf4jnsgd1na2vs0mg"},{"bike_id":"450f74fc-4f74-4622-96cc-1f56b740d49b","system_id":"levelo_inurba_marseille","lat":43.31709,"lon":5.37736,"is_reserved":false,"is_disabled":false,"rental_uris":{"android":"levelo://app?vid=450f74fc-4f74-4622-96cc-1f56b740d49b","ios":"levelo://app?vid=450f74fc-4f74-4622-96cc-1f56b740d49b"},"vehicle_type_id":"4","last_reported":1746140972,"current_range_meters":6400,"station_id":"ce4bgth2rcd13ifvqch0","pricing_plan_id":"cebpf4jnsgd1na2vs0mg"},{"bike_id":"41acc274-b7a8-4128-a07b-11a2c934bc11","system_id":"levelo_inurba_marseille","lat":43.29297,"lon":5.37456,"is_reserved":false,"is_disabled":false,"rental_uris":{"android":"levelo://app?vid=41acc274-b7a8-4128-a07b-11a2c934bc11","ios":"levelo://app?vid=41acc274-b7a8-4128-a07b-11a2c934bc11"},"vehicle_type_id":"4","last_reported":1746140972,"current_range_meters":6400,"station_id":"ce4bgi12rcd13ifvqb70","pricing_plan_id":"cebpf4jnsgd1na2vs0mg"},{"bike_id":"f78e6e2a-8107-47fb-b969-25345ac001d6","system_id":"levelo_inurba_marseille","lat":43.30074,"lon":5.37798,"is_reserved":false,"is_disabled":false,"rental_uris":{"android":"levelo://app?vid=f78e6e2a-8107-47fb-b969-25345ac001d6","ios":"levelo://app?vid=f78e6e2a-8107-47fb-b969-25345ac001d6"},"vehicle_type_id":"4","last_reported":1746140972,"current_range_meters":6800,"station_id":"","pricing_plan_id":"cebpf4jnsgd1na2vs0mg"},{"bike_id":"22b63fd9-0aa0-48ea-a6c9-1e118b31619a","system_id":"levelo_inurba_marseille","lat":43.26936,"lon":5.38913,"is_reserved":false,"is_disabled":false,"rental_uris":{"android":"levelo://app?vid=22b63fd9-0aa0-48ea-a6c9-1e118b31619a","ios":"levelo://app?vid=22b63fd9-0aa0-48ea-a6c9-1e118b31619a"},"vehicle_type_id":"4","last_reported":1746140972,"current_range_meters":6800,"station_id":"ce4bhhh2rcd13ifvqfl0","pricing_plan_id":"cebpf4jnsgd1na2vs0mg"},{"bike_id":"8b8a7521-6380-408e-8650-f4890e8f6c38","system_id":"levelo_inurba_marseille","lat":43.296293,"lon":5.406003,"is_reserved":false,"is_disabled":false,"rental_uris":{"android":"levelo://app?vid=8b8a7521-6380-408e-8650-f4890e8f6c38","ios":"levelo://app?vid=8b8a7521-6380-408e-8650-f4890e8f6c38"},"vehicle_type_id":"4","last_reported":1746140972,"current_range_meters":6800,"station_id":"ce4bh0h2rcd13ifvqd60","pricing_plan_id":"cebpf4jnsgd1na2vs0mg"},{"bike_id":"2bc7685c-3ffa-492e-ac40-bca1c401b590","system_id":"levelo_inurba_marseille","lat":43.268152,"lon":5.402692,"is_reserved":false,"is_disabled":false,"rental_uris":{"android":"levelo://app?vid=2bc7685c-3ffa-492e-ac40-bca1c401b590","ios":"levelo://app?vid=2bc7685c-3ffa-492e-ac40-bca1c401b590"},"vehicle_type_id":"4","last_reported":1746140972,"current_range_meters":6800,"station_id":"ce501612rcd8frsf0b60","pricing_plan_id":"cebpf4jnsgd1na2vs0mg"},{"bike_id":"f4a1f7d2-110f-4bcd-a84b-ee847ee1e299","system_id":"levelo_inurba_marseille","lat":43.28569,"lon":5.39495,"is_reserved":false,"is_disabled":false,"rental_uris":{"android":"levelo://app?vid=f4a1f7d2-110f-4bcd-a84b-ee847ee1e299","ios":"levelo://app?vid=f4a1f7d2-110f-4bcd-a84b-ee847ee1e299"},"vehicle_type_id":"4","last_reported":1746140972,"current_range_meters":7200,"station_id":"ce4bh292rcd13ifvqdg0","pricing_plan_id":"cebpf4jnsgd1na2vs0mg"},{"bike_id":"fee7396b-8d6a-4ad5-8af7-947693171efd","system_id":"levelo_inurba_marseille","lat":43.27062,"lon":5.42261,"is_reserved":false,"is_disabled":false,"rental_uris":{"android":"levelo://app?vid=fee7396b-8d6a-4ad5-8af7-947693171efd","ios":"levelo://app?vid=fee7396b-8d6a-4ad5-8af7-947693171efd"},"vehicle_type_id":"4","last_reported":1746140972,"current_range_meters":7200,"station_id":"ce4bhk92rcd13ifvqgb0","pricing_plan_id":"cebpf4jnsgd1na2vs0mg"},{"bike_id":"a81055f7-1eff-48ba-88d3-ed4ea2495466","system_id":"levelo_inurba_marseille","lat":43.29874,"lon":5.39726,"is_reserved":false,"is_disabled":false,"rental_uris":{"android":"levelo://app?vid=a81055f7-1eff-48ba-88d3-ed4ea2495466","ios":"levelo://app?vid=a81055f7-1eff-48ba-88d3-ed4ea2495466"},"vehicle_type_id":"4","last_reported":1746140972,"current_range_meters":7200,"station_id":"ce4bh0h2rcd13ifvqd50","pricing_plan_id":"cebpf4jnsgd1na2vs0mg"},{"bike_id":"67fd2aef-8e49-4f36-806c-5355bf2a2b9d","system_id":"levelo_inurba_marseille","lat":43.30322,"lon":5.4043,"is_reserved":false,"is_disabled":false,"rental_uris":{"android":"levelo://app?vid=67fd2aef-8e49-4f36-806c-5355bf2a2b9d","ios":"levelo://app?vid=67fd2aef-8e49-4f36-806c-5355bf2a2b9d"},"vehicle_type_id":"4","last_reported":1746140972,"current_range_meters":7200,"station_id":"ce4bh012rcd13ifvqd10","pricing_plan_id":"cebpf4jnsgd1na2vs0mg"},{"bike_id":"47de6562-ba72-42e5-ace3-2d5a54c7c0d3","system_id":"levelo_inurba_marseille","lat":43.2793,"lon":5.4102,"is_reserved":false,"is_disabled":true,"rental_uris":{"android":"levelo://app?vid=47de6562-ba72-42e5-ace3-2d5a54c7c0d3","ios":"levelo://app?vid=47de6562-ba72-42e5-ace3-2d5a54c7c0d3"},"vehicle_type_id":"4","last_reported":1746140972,"current_range_meters":8000,"station_id":"ce4bhnp2rcd13ifvqh0g","pricing_plan_id":"cebpf4jnsgd1na2vs0mg"},{"bike_id":"89aedca7-be11-4ca7-ad34-246d9830cb48","system_id":"levelo_inurba_marseille","lat":43.231593,"lon":5.437013,"is_reserved":false,"is_disabled":false,"rental_uris":{"android":"levelo://app?vid=89aedca7-be11-4ca7-ad34-246d9830cb48","ios":"levelo://app?vid=89aedca7-be11-4ca7-ad34-246d9830cb48"},"vehicle_type_id":"4","last_reported":1746140972,"current_range_meters":8000,"station_id":"ce4bhmp2rcd13ifvqgog","pricing_plan_id":"cebpf4jnsgd1na2vs0mg"},{"bike_id":"f86d1595-bc23-43f0-b70b-4aabc8d8fddc","system_id":"levelo_inurba_marseille","lat":43.33603,"lon":5.41031,"is_reserved":false,"is_disabled":false,"rental_uris":{"android":"levelo://app?vid=f86d1595-bc23-43f0-b70b-4aabc8d8fddc","ios":"levelo://app?vid=f86d1595-bc23-43f0-b70b-4aabc8d8fddc"},"vehicle_type_id":"4","last_reported":1746140972,"current_range_meters":8000,"station_id":"ce4bhqh2rcd13ifvqhmg","pricing_plan_id":"cebpf4jnsgd1na2vs0mg"},{"bike_id":"cacd0fa5-b257-4272-badb-f83e7da00dcc","system_id":"levelo_inurba_marseille","lat":43.27183,"lon":5.40979,"is_reserved":false,"is_disabled":false,"rental_uris":{"android":"levelo://app?vid=cacd0fa5-b257-4272-badb-f83e7da00dcc","ios":"levelo://app?vid=cacd0fa5-b257-4272-badb-f83e7da00dcc"},"vehicle_type_id":"4","last_reported":1746140972,"current_range_meters":8000,"station_id":"ce4bhl12rcd13ifvqgf0","pricing_plan_id":"cebpf4jnsgd1na2vs0mg"},{"bike_id":"872f4be7-68c9-4597-bc89-7cee86b3da74","system_id":"levelo_inurba_marseille","lat":43.29288,"lon":5.40114,"is_reserved":false,"is_disabled":false,"rental_uris":{"android":"levelo://app?vid=872f4be7-68c9-4597-bc89-7cee86b3da74","ios":"levelo://app?vid=872f4be7-68c9-4597-bc89-7cee86b3da74"},"vehicle_type_id":"4","last_reported":1746140972,"current_range_meters":8000,"station_id":"ce4bh312rcd13ifvqdk0","pricing_plan_id":"cebpf4jnsgd1na2vs0mg"},{"bike_id":"45a897a0-8804-4925-8a62-c0e8fec569a8","system_id":"levelo_inurba_marseille","lat":43.23951,"lon":5.36643,"is_reserved":false,"is_disabled":true,"rental_uris":{"android":"levelo://app?vid=45a897a0-8804-4925-8a62-c0e8fec569a8","ios":"levelo://app?vid=45a897a0-8804-4925-8a62-c0e8fec569a8"},"vehicle_type_id":"4","last_reported":1746140972,"current_range_meters":8000,"station_id":"ce4bhi12rcd13ifvqfp0","pricing_plan_id":"cebpf4jnsgd1na2vs0mg"},{"bike_id":"8273f306-3c1f-4399-b7cd-5bd1010cf5af","system_id":"levelo_inurba_marseille","lat":43.292465,"lon":5.409005,"is_reserved":false,"is_disabled":false,"rental_uris":{"android":"levelo://app?vid=8273f306-3c1f-4399-b7cd-5bd1010cf5af","ios":"levelo://app?vid=8273f306-3c1f-4399-b7cd-5bd1010cf5af"},"vehicle_type_id":"4","last_reported":1746140972,"current_range_meters":8000,"station_id":"ce4bh192rcd13ifvqdc0","pricing_plan_id":"cebpf4jnsgd1na2vs0mg"},{"bike_id":"499d1cdf-2c67-45d2-84d4-85f13a0e2ba8","system_id":"levelo_inurba_marseille","lat":43.31995,"lon":5.38164,"is_reserved":false,"is_disabled":false,"rental_uris":{"android":"levelo://app?vid=499d1cdf-2c67-45d2-84d4-85f13a0e2ba8","ios":"levelo://app?vid=499d1cdf-2c67-45d2-84d4-85f13a0e2ba8"},"vehicle_type_id":"4","last_reported":1746140972,"current_range_meters":8000,"station_id":"ce4bhr12rcd13ifvqhpg","pricing_plan_id":"cebpf4jnsgd1na2vs0mg"},{"bike_id":"74528bab-13a3-4e83-afaf-fd0bdc05f01b","system_id":"levelo_inurba_marseille","lat":43.29872,"lon":5.39732,"is_reserved":false,"is_disabled":false,"rental_uris":{"android":"levelo://app?vid=74528bab-13a3-4e83-afaf-fd0bdc05f01b","ios":"levelo://app?vid=74528bab-13a3-4e83-afaf-fd0bdc05f01b"},"vehicle_type_id":"4","last_reported":1746140972,"current_range_meters":8400,"station_id":"ce4bh0h2rcd13ifvqd50","pricing_plan_id":"cebpf4jnsgd1na2vs0mg"},{"bike_id":"63444d82-07a1-422d-8ca7-9af964e7f40a","system_id":"levelo_inurba_marseille","lat":43.28724,"lon":5.39965,"is_reserved":false,"is_disabled":false,"rental_uris":{"android":"levelo://app?vid=63444d82-07a1-422d-8ca7-9af964e7f40a","ios":"levelo://app?vid=63444d82-07a1-422d-8ca7-9af964e7f40a"},"vehicle_type_id":"4","last_reported":1746140972,"current_range_meters":8400,"station_id":"ce4bho92rcd13ifvqh3g","pricing_plan_id":"cebpf4jnsgd1na2vs0mg"},{"bike_id":"1ea83f91-cead-42af-afdd-8d2cab331ff6","system_id":"levelo_inurba_marseille","lat":43.279968,"lon":5.400222,"is_reserved":false,"is_disabled":false,"rental_uris":{"android":"levelo://app?vid=1ea83f91-cead-42af-afdd-8d2cab331ff6","ios":"levelo://app?vid=1ea83f91-cead-42af-afdd-8d2cab331ff6"},"vehicle_type_id":"4","last_reported":1746140972,"current_range_meters":8400,"station_id":"ce4bho92rcd13ifvqh4g","pricing_plan_id":"cebpf4jnsgd1na2vs0mg"},{"bike_id":"2e5e7fab-f1e0-4b30-bf97-3890895a344d","system_id":"levelo_inurba_marseille","lat":43.298723,"lon":5.397286,"is_reserved":false,"is_disabled":false,"rental_uris":{"android":"levelo://app?vid=2e5e7fab-f1e0-4b30-bf97-3890895a344d","ios":"levelo://app?vid=2e5e7fab-f1e0-4b30-bf97-3890895a344d"},"vehicle_type_id":"4","last_reported":1746140972,"current_range_meters":8400,"station_id":"ce4bh0h2rcd13ifvqd50","pricing_plan_id":"cebpf4jnsgd1na2vs0mg"},{"bike_id":"08ae6229-5a47-4c4c-99ac-4ba6243e9cfe","system_id":"levelo_inurba_marseille","lat":43.23054,"lon":5.35486,"is_reserved":false,"is_disabled":true,"rental_uris":{"android":"levelo://app?vid=08ae6229-5a47-4c4c-99ac-4ba6243e9cfe","ios":"levelo://app?vid=08ae6229-5a47-4c4c-99ac-4ba6243e9cfe"},"vehicle_type_id":"4","last_reported":1746140972,"current_range_meters":8400,"station_id":"cpo3342slgdg3j2ifvpg","pricing_plan_id":"cebpf4jnsgd1na2vs0mg"},{"bike_id":"a34bf19e-c7f6-4370-8afa-d15d095d482c","system_id":"levelo_inurba_marseille","lat":43.279378,"lon":5.410283,"is_reserved":false,"is_disabled":false,"rental_uris":{"android":"levelo://app?vid=a34bf19e-c7f6-4370-8afa-d15d095d482c","ios":"levelo://app?vid=a34bf19e-c7f6-4370-8afa-d15d095d482c"},"vehicle_type_id":"4","last_reported":1746140972,"current_range_meters":8400,"station_id":"ce4bhnp2rcd13ifvqh0g","pricing_plan_id":"cebpf4jnsgd1na2vs0mg"},{"bike_id":"92c9c34a-2661-40c7-b42b-42a1687057dd","system_id":"levelo_inurba_marseille","lat":43.21197,"lon":5.35072,"is_reserved":false,"is_disabled":true,"rental_uris":{"android":"levelo://app?vid=92c9c34a-2661-40c7-b42b-42a1687057dd","ios":"levelo://app?vid=92c9c34a-2661-40c7-b42b-42a1687057dd"},"vehicle_type_id":"4","last_reported":1746140972,"current_range_meters":8800,"station_id":"st_cvj6sg6p6f1abm77japg","pricing_plan_id":"cebpf4jnsgd1na2vs0mg"},{"bike_id":"65a92264-a32d-4911-ad5e-307139719f38","system_id":"levelo_inurba_marseille","lat":43.30939,"lon":5.40133,"is_reserved":false,"is_disabled":false,"rental_uris":{"android":"levelo://app?vid=65a92264-a32d-4911-ad5e-307139719f38","ios":"levelo://app?vid=65a92264-a32d-4911-ad5e-307139719f38"},"vehicle_type_id":"4","last_reported":1746140972,"current_range_meters":8800,"station_id":"ce4bgvp2rcd13ifvqct0","pricing_plan_id":"cebpf4jnsgd1na2vs0mg"},{"bike_id":"f1875d39-6c28-4e0d-9f83-8822969bf67a","system_id":"levelo_inurba_marseille","lat":43.30787,"lon":5.37636,"is_reserved":false,"is_disabled":false,"rental_uris":{"android":"levelo://app?vid=f1875d39-6c28-4e0d-9f83-8822969bf67a","ios":"levelo://app?vid=f1875d39-6c28-4e0d-9f83-8822969bf67a"},"vehicle_type_id":"4","last_reported":1746140972,"current_range_meters":8800,"station_id":"ce4bgv92rcd13ifvqcq0","pricing_plan_id":"cebpf4jnsgd1na2vs0mg"},{"bike_id":"51ef9827-05d4-4f72-abc3-c6fec8c5a095","system_id":"levelo_inurba_marseille","lat":43.23174,"lon":5.43677,"is_reserved":false,"is_disabled":false,"rental_uris":{"android":"levelo://app?vid=51ef9827-05d4-4f72-abc3-c6fec8c5a095","ios":"levelo://app?vid=51ef9827-05d4-4f72-abc3-c6fec8c5a095"},"vehicle_type_id":"4","last_reported":1746140972,"current_range_meters":8800,"station_id":"ce4bhmp2rcd13ifvqgog","pricing_plan_id":"cebpf4jnsgd1na2vs0mg"},{"bike_id":"c0f71715-c248-4b04-ad9e-3755b23e005f","system_id":"levelo_inurba_marseille","lat":43.23146,"lon":5.43722,"is_reserved":false,"is_disabled":false,"rental_uris":{"android":"levelo://app?vid=c0f71715-c248-4b04-ad9e-3755b23e005f","ios":"levelo://app?vid=c0f71715-c248-4b04-ad9e-3755b23e005f"},"vehicle_type_id":"4","last_reported":1746140972,"current_range_meters":8800,"station_id":"ce4bhmp2rcd13ifvqgog","pricing_plan_id":"cebpf4jnsgd1na2vs0mg"},{"bike_id":"d90a9f6a-dcc7-4188-90fd-9982aa485cbb","system_id":"levelo_inurba_marseille","lat":43.24405,"lon":5.3706,"is_reserved":false,"is_disabled":true,"rental_uris":{"android":"levelo://app?vid=d90a9f6a-dcc7-4188-90fd-9982aa485cbb","ios":"levelo://app?vid=d90a9f6a-dcc7-4188-90fd-9982aa485cbb"},"vehicle_type_id":"4","last_reported":1746140972,"current_range_meters":8800,"station_id":"ce4bhhh2rcd13ifvqfk0","pricing_plan_id":"cebpf4jnsgd1na2vs0mg"},{"bike_id":"8c14a9dd-9596-4c54-9b10-cae5d57b4d1b","system_id":"levelo_inurba_marseille","lat":43.32406,"lon":5.39036,"is_reserved":false,"is_disabled":true,"rental_uris":{"android":"levelo://app?vid=8c14a9dd-9596-4c54-9b10-cae5d57b4d1b","ios":"levelo://app?vid=8c14a9dd-9596-4c54-9b10-cae5d57b4d1b"},"vehicle_type_id":"4","last_reported":1746140972,"current_range_meters":8800,"station_id":"","pricing_plan_id":"cebpf4jnsgd1na2vs0mg"},{"bike_id":"3feaa426-1b63-49b9-8277-2dd1cca318cf","system_id":"levelo_inurba_marseille","lat":43.30037,"lon":5.40094,"is_reserved":false,"is_disabled":false,"rental_uris":{"android":"levelo://app?vid=3feaa426-1b63-49b9-8277-2dd1cca318cf","ios":"levelo://app?vid=3feaa426-1b63-49b9-8277-2dd1cca318cf"},"vehicle_type_id":"4","last_reported":1746140972,"current_range_meters":8800,"station_id":"","pricing_plan_id":"cebpf4jnsgd1na2vs0mg"},{"bike_id":"aa07e13a-f799-4048-b53c-b18a15a16713","system_id":"levelo_inurba_marseille","lat":43.29036,"lon":5.40059,"is_reserved":false,"is_disabled":false,"rental_uris":{"android":"levelo://app?vid=aa07e13a-f799-4048-b53c-b18a15a16713","ios":"levelo://app?vid=aa07e13a-f799-4048-b53c-b18a15a16713"},"vehicle_type_id":"4","last_reported":1746140972,"current_range_meters":8800,"station_id":"","pricing_plan_id":"cebpf4jnsgd1na2vs0mg"},{"bike_id":"e581e9b6-daa5-4694-9593-656dd3395ad2","system_id":"levelo_inurba_marseille","lat":43.24385,"lon":5.37058,"is_reserved":false,"is_disabled":false,"rental_uris":{"android":"levelo://app?vid=e581e9b6-daa5-4694-9593-656dd3395ad2","ios":"levelo://app?vid=e581e9b6-daa5-4694-9593-656dd3395ad2"},"vehicle_type_id":"4","last_reported":1746140972,"current_range_meters":8800,"station_id":"ce4bhhh2rcd13ifvqfk0","pricing_plan_id":"cebpf4jnsgd1na2vs0mg"},{"bike_id":"4a8abe55-f3ba-477a-be7d-f8f6d523d6b7","system_id":"levelo_inurba_marseille","lat":43.26572,"lon":5.39004,"is_reserved":false,"is_disabled":false,"rental_uris":{"android":"levelo://app?vid=4a8abe55-f3ba-477a-be7d-f8f6d523d6b7","ios":"levelo://app?vid=4a8abe55-f3ba-477a-be7d-f8f6d523d6b7"},"vehicle_type_id":"4","last_reported":1746140972,"current_range_meters":8800,"station_id":"","pricing_plan_id":"cebpf4jnsgd1na2vs0mg"},{"bike_id":"93dad334-9f21-4a50-99cb-c86648baef08","system_id":"levelo_inurba_marseille","lat":43.31334,"lon":5.39687,"is_reserved":false,"is_disabled":false,"rental_uris":{"android":"levelo://app?vid=93dad334-9f21-4a50-99cb-c86648baef08","ios":"levelo://app?vid=93dad334-9f21-4a50-99cb-c86648baef08"},"vehicle_type_id":"4","last_reported":1746140972,"current_range_meters":9200,"station_id":"ce4bgvp2rcd13ifvqcu0","pricing_plan_id":"cebpf4jnsgd1na2vs0mg"},{"bike_id":"2fa76595-008d-4c0f-83c4-7d3eccff5cfc","system_id":"levelo_inurba_marseille","lat":43.28115,"lon":5.37846,"is_reserved":false,"is_disabled":false,"rental_uris":{"android":"levelo://app?vid=2fa76595-008d-4c0f-83c4-7d3eccff5cfc","ios":"levelo://app?vid=2fa76595-008d-4c0f-83c4-7d3eccff5cfc"},"vehicle_type_id":"4","last_reported":1746140972,"current_range_meters":9200,"station_id":"ce4bha12rcd13ifvqee0","pricing_plan_id":"cebpf4jnsgd1na2vs0mg"},{"bike_id":"be456527-6b15-4d45-9584-9f70290eb771","system_id":"levelo_inurba_marseille","lat":43.309364,"lon":5.401479,"is_reserved":false,"is_disabled":false,"rental_uris":{"android":"levelo://app?vid=be456527-6b15-4d45-9584-9f70290eb771","ios":"levelo://app?vid=be456527-6b15-4d45-9584-9f70290eb771"},"vehicle_type_id":"4","last_reported":1746140972,"current_range_meters":9200,"station_id":"ce4bgvp2rcd13ifvqct0","pricing_plan_id":"cebpf4jnsgd1na2vs0mg"},{"bike_id":"0585aee3-4fd2-4100-ace9-3ab20275013d","system_id":"levelo_inurba_marseille","lat":43.28718,"lon":5.39977,"is_reserved":false,"is_disabled":false,"rental_uris":{"android":"levelo://app?vid=0585aee3-4fd2-4100-ace9-3ab20275013d","ios":"levelo://app?vid=0585aee3-4fd2-4100-ace9-3ab20275013d"},"vehicle_type_id":"4","last_reported":1746140972,"current_range_meters":9200,"station_id":"ce4bho92rcd13ifvqh3g","pricing_plan_id":"cebpf4jnsgd1na2vs0mg"},{"bike_id":"d6a44c8a-00f2-43bd-8ad6-45ab7f30af70","system_id":"levelo_inurba_marseille","lat":43.28711,"lon":5.39978,"is_reserved":false,"is_disabled":false,"rental_uris":{"android":"levelo://app?vid=d6a44c8a-00f2-43bd-8ad6-45ab7f30af70","ios":"levelo://app?vid=d6a44c8a-00f2-43bd-8ad6-45ab7f30af70"},"vehicle_type_id":"4","last_reported":1746140972,"current_range_meters":9200,"station_id":"ce4bho92rcd13ifvqh3g","pricing_plan_id":"cebpf4jnsgd1na2vs0mg"},{"bike_id":"93d289ea-53ab-4021-98bf-9e6ca2063079","system_id":"levelo_inurba_marseille","lat":43.30436,"lon":5.39776,"is_reserved":false,"is_disabled":false,"rental_uris":{"android":"levelo://app?vid=93d289ea-53ab-4021-98bf-9e6ca2063079","ios":"levelo://app?vid=93d289ea-53ab-4021-98bf-9e6ca2063079"},"vehicle_type_id":"4","last_reported":1746140972,"current_range_meters":9200,"station_id":"ce4bh092rcd13ifvqd20","pricing_plan_id":"cebpf4jnsgd1na2vs0mg"},{"bike_id":"44137701-96fd-466c-876b-72e95bfc3ab1","system_id":"levelo_inurba_marseille","lat":43.28154,"lon":5.42639,"is_reserved":false,"is_disabled":false,"rental_uris":{"android":"levelo://app?vid=44137701-96fd-466c-876b-72e95bfc3ab1","ios":"levelo://app?vid=44137701-96fd-466c-876b-72e95bfc3ab1"},"vehicle_type_id":"4","last_reported":1746140972,"current_range_meters":9200,"station_id":"ce4bhnh2rcd13ifvqgug","pricing_plan_id":"cebpf4jnsgd1na2vs0mg"},{"bike_id":"68d44f0d-e8f4-4c59-9647-f88c98316d16","system_id":"levelo_inurba_marseille","lat":43.30643,"lon":5.40081,"is_reserved":false,"is_disabled":false,"rental_uris":{"android":"levelo://app?vid=68d44f0d-e8f4-4c59-9647-f88c98316d16","ios":"levelo://app?vid=68d44f0d-e8f4-4c59-9647-f88c98316d16"},"vehicle_type_id":"4","last_reported":1746140972,"current_range_meters":9200,"station_id":"ce4bh112rcd13ifvqda0","pricing_plan_id":"cebpf4jnsgd1na2vs0mg"},{"bike_id":"6ec79724-695f-4466-b4f4-7a3dea399050","system_id":"levelo_inurba_marseille","lat":43.270683,"lon":5.422771,"is_reserved":false,"is_disabled":false,"rental_uris":{"android":"levelo://app?vid=6ec79724-695f-4466-b4f4-7a3dea399050","ios":"levelo://app?vid=6ec79724-695f-4466-b4f4-7a3dea399050"},"vehicle_type_id":"4","last_reported":1746140972,"current_range_meters":9200,"station_id":"ce4bhk92rcd13ifvqgb0","pricing_plan_id":"cebpf4jnsgd1na2vs0mg"},{"bike_id":"f2476cf5-18ae-43ae-8380-39d39ed5971f","system_id":"levelo_inurba_marseille","lat":43.311387,"lon":5.377507,"is_reserved":false,"is_disabled":false,"rental_uris":{"android":"levelo://app?vid=f2476cf5-18ae-43ae-8380-39d39ed5971f","ios":"levelo://app?vid=f2476cf5-18ae-43ae-8380-39d39ed5971f"},"vehicle_type_id":"4","last_reported":1746140972,"current_range_meters":9200,"station_id":"ce4bgt92rcd13ifvqcg0","pricing_plan_id":"cebpf4jnsgd1na2vs0mg"},{"bike_id":"1a0e9be5-bd4f-4026-be47-4bf333aa540c","system_id":"levelo_inurba_marseille","lat":43.28439,"lon":5.39184,"is_reserved":false,"is_disabled":true,"rental_uris":{"android":"levelo://app?vid=1a0e9be5-bd4f-4026-be47-4bf333aa540c","ios":"levelo://app?vid=1a0e9be5-bd4f-4026-be47-4bf333aa540c"},"vehicle_type_id":"4","last_reported":1746140972,"current_range_meters":9200,"station_id":"ce4bhoh2rcd13ifvqh5g","pricing_plan_id":"cebpf4jnsgd1na2vs0mg"},{"bike_id":"5646eef8-71a4-4c6e-af3a-c51edb43f2a7","system_id":"levelo_inurba_marseille","lat":43.27991,"lon":5.41671,"is_reserved":false,"is_disabled":false,"rental_uris":{"android":"levelo://app?vid=5646eef8-71a4-4c6e-af3a-c51edb43f2a7","ios":"levelo://app?vid=5646eef8-71a4-4c6e-af3a-c51edb43f2a7"},"vehicle_type_id":"4","last_reported":1746140972,"current_range_meters":9600,"station_id":"ce4bho12rcd13ifvqh1g","pricing_plan_id":"cebpf4jnsgd1na2vs0mg"},{"bike_id":"3c92b329-9752-444f-a0f7-ffacbc896c0e","system_id":"levelo_inurba_marseille","lat":43.28706,"lon":5.39977,"is_reserved":false,"is_disabled":false,"rental_uris":{"android":"levelo://app?vid=3c92b329-9752-444f-a0f7-ffacbc896c0e","ios":"levelo://app?vid=3c92b329-9752-444f-a0f7-ffacbc896c0e"},"vehicle_type_id":"4","last_reported":1746140972,"current_range_meters":9600,"station_id":"ce4bho92rcd13ifvqh3g","pricing_plan_id":"cebpf4jnsgd1na2vs0mg"},{"bike_id":"ec15cf0c-8146-4bc1-844a-6eb9757e3d6b","system_id":"levelo_inurba_marseille","lat":43.29282,"lon":5.40153,"is_reserved":false,"is_disabled":false,"rental_uris":{"android":"levelo://app?vid=ec15cf0c-8146-4bc1-844a-6eb9757e3d6b","ios":"levelo://app?vid=ec15cf0c-8146-4bc1-844a-6eb9757e3d6b"},"vehicle_type_id":"4","last_reported":1746140972,"current_range_meters":9600,"station_id":"ce4bh312rcd13ifvqdk0","pricing_plan_id":"cebpf4jnsgd1na2vs0mg"},{"bike_id":"1cfbbc29-a306-4b8b-b2c5-a4954ed421f8","system_id":"levelo_inurba_marseille","lat":43.28853,"lon":5.39338,"is_reserved":false,"is_disabled":false,"rental_uris":{"android":"levelo://app?vid=1cfbbc29-a306-4b8b-b2c5-a4954ed421f8","ios":"levelo://app?vid=1cfbbc29-a306-4b8b-b2c5-a4954ed421f8"},"vehicle_type_id":"4","last_reported":1746140972,"current_range_meters":9200,"station_id":"ce4bh2p2rcd13ifvqdi0","pricing_plan_id":"cebpf4jnsgd1na2vs0mg"},{"bike_id":"018a7b84-7546-4764-b02b-6a24748ad734","system_id":"levelo_inurba_marseille","lat":43.27998,"lon":5.4001,"is_reserved":false,"is_disabled":false,"rental_uris":{"android":"levelo://app?vid=018a7b84-7546-4764-b02b-6a24748ad734","ios":"levelo://app?vid=018a7b84-7546-4764-b02b-6a24748ad734"},"vehicle_type_id":"4","last_reported":1746140972,"current_range_meters":9600,"station_id":"ce4bho92rcd13ifvqh4g","pricing_plan_id":"cebpf4jnsgd1na2vs0mg"},{"bike_id":"9ec970ff-6af0-4292-9f82-92592b9e4471","system_id":"levelo_inurba_marseille","lat":43.28411,"lon":5.37508,"is_reserved":false,"is_disabled":false,"rental_uris":{"android":"levelo://app?vid=9ec970ff-6af0-4292-9f82-92592b9e4471","ios":"levelo://app?vid=9ec970ff-6af0-4292-9f82-92592b9e4471"},"vehicle_type_id":"4","last_reported":1746140972,"current_range_meters":9600,"station_id":"ce4bh412rcd13ifvqds0","pricing_plan_id":"cebpf4jnsgd1na2vs0mg"},{"bike_id":"e0c69642-153a-4cdf-94dd-e50d7657b75d","system_id":"levelo_inurba_marseille","lat":43.31695,"lon":5.40475,"is_reserved":false,"is_disabled":false,"rental_uris":{"android":"levelo://app?vid=e0c69642-153a-4cdf-94dd-e50d7657b75d","ios":"levelo://app?vid=e0c69642-153a-4cdf-94dd-e50d7657b75d"},"vehicle_type_id":"4","last_reported":1746140972,"current_range_meters":9600,"station_id":"ce4bh012rcd13ifvqd00","pricing_plan_id":"cebpf4jnsgd1na2vs0mg"},{"bike_id":"eee52347-d889-4f66-a2a0-e8ba23120ae4","system_id":"levelo_inurba_marseille","lat":43.241815,"lon":5.39722,"is_reserved":false,"is_disabled":false,"rental_uris":{"android":"levelo://app?vid=eee52347-d889-4f66-a2a0-e8ba23120ae4","ios":"levelo://app?vid=eee52347-d889-4f66-a2a0-e8ba23120ae4"},"vehicle_type_id":"4","last_reported":1746140972,"current_range_meters":9600,"station_id":"ce4bhn12rcd13ifvqgpg","pricing_plan_id":"cebpf4jnsgd1na2vs0mg"},{"bike_id":"2df3c7e7-6f24-4b35-8876-4ea421331109","system_id":"levelo_inurba_marseille","lat":43.25146,"lon":5.40357,"is_reserved":false,"is_disabled":true,"rental_uris":{"android":"levelo://app?vid=2df3c7e7-6f24-4b35-8876-4ea421331109","ios":"levelo://app?vid=2df3c7e7-6f24-4b35-8876-4ea421331109"},"vehicle_type_id":"4","last_reported":1746140972,"current_range_meters":9600,"station_id":"","pricing_plan_id":"cebpf4jnsgd1na2vs0mg"},{"bike_id":"20677bec-f723-4a98-9582-28d71c43bf6e","system_id":"levelo_inurba_marseille","lat":43.23144,"lon":5.43713,"is_reserved":false,"is_disabled":false,"rental_uris":{"android":"levelo://app?vid=20677bec-f723-4a98-9582-28d71c43bf6e","ios":"levelo://app?vid=20677bec-f723-4a98-9582-28d71c43bf6e"},"vehicle_type_id":"4","last_reported":1746140972,"current_range_meters":9600,"station_id":"ce4bhmp2rcd13ifvqgog","pricing_plan_id":"cebpf4jnsgd1na2vs0mg"},{"bike_id":"e96c6114-6a4b-4332-a152-934cf511941a","system_id":"levelo_inurba_marseille","lat":43.27925,"lon":5.3957,"is_reserved":false,"is_disabled":false,"rental_uris":{"android":"levelo://app?vid=e96c6114-6a4b-4332-a152-934cf511941a","ios":"levelo://app?vid=e96c6114-6a4b-4332-a152-934cf511941a"},"vehicle_type_id":"4","last_reported":1746140972,"current_range_meters":9600,"station_id":"ce4bhf92rcd13ifvqf40","pricing_plan_id":"cebpf4jnsgd1na2vs0mg"},{"bike_id":"f7649288-9ca5-4ea3-8721-55824ad710ad","system_id":"levelo_inurba_marseille","lat":43.305627,"lon":5.38437,"is_reserved":false,"is_disabled":false,"rental_uris":{"android":"levelo://app?vid=f7649288-9ca5-4ea3-8721-55824ad710ad","ios":"levelo://app?vid=f7649288-9ca5-4ea3-8721-55824ad710ad"},"vehicle_type_id":"4","last_reported":1746140972,"current_range_meters":9600,"station_id":"ce4bgg92rcd13ifvqb30","pricing_plan_id":"cebpf4jnsgd1na2vs0mg"},{"bike_id":"1e63c5de-3c5a-4333-8936-ffe7ed3b92b1","system_id":"levelo_inurba_marseille","lat":43.30257,"lon":5.40066,"is_reserved":false,"is_disabled":false,"rental_uris":{"android":"levelo://app?vid=1e63c5de-3c5a-4333-8936-ffe7ed3b92b1","ios":"levelo://app?vid=1e63c5de-3c5a-4333-8936-ffe7ed3b92b1"},"vehicle_type_id":"4","last_reported":1746140972,"current_range_meters":9600,"station_id":"ce4bgvh2rcd13ifvqcs0","pricing_plan_id":"cebpf4jnsgd1na2vs0mg"},{"bike_id":"7971fe93-5f1d-4a59-8508-b415e64fcb18","system_id":"levelo_inurba_marseille","lat":43.30893,"lon":5.37425,"is_reserved":false,"is_disabled":false,"rental_uris":{"android":"levelo://app?vid=7971fe93-5f1d-4a59-8508-b415e64fcb18","ios":"levelo://app?vid=7971fe93-5f1d-4a59-8508-b415e64fcb18"},"vehicle_type_id":"4","last_reported":1746140972,"current_range_meters":9600,"station_id":"","pricing_plan_id":"cebpf4jnsgd1na2vs0mg"},{"bike_id":"050a2450-c485-4e12-8c11-e6df9701dce1","system_id":"levelo_inurba_marseille","lat":43.31526,"lon":5.38031,"is_reserved":false,"is_disabled":false,"rental_uris":{"android":"levelo://app?vid=050a2450-c485-4e12-8c11-e6df9701dce1","ios":"levelo://app?vid=050a2450-c485-4e12-8c11-e6df9701dce1"},"vehicle_type_id":"4","last_reported":1746140972,"current_range_meters":10000,"station_id":"ce4bhsp2rcd13ifvqi50","pricing_plan_id":"cebpf4jnsgd1na2vs0mg"},{"bike_id":"31c74a1c-33bb-491a-8ee1-a777fe94090b","system_id":"levelo_inurba_marseille","lat":43.28074,"lon":5.39639,"is_reserved":false,"is_disabled":false,"rental_uris":{"android":"levelo://app?vid=31c74a1c-33bb-491a-8ee1-a777fe94090b","ios":"levelo://app?vid=31c74a1c-33bb-491a-8ee1-a777fe94090b"},"vehicle_type_id":"4","last_reported":1746140972,"current_range_meters":10000,"station_id":"ce4bho12rcd13ifvqh2g","pricing_plan_id":"cebpf4jnsgd1na2vs0mg"},{"bike_id":"a35c3ffc-4e10-4f38-94fb-c7be8d2fb030","system_id":"levelo_inurba_marseille","lat":43.31674,"lon":5.39578,"is_reserved":false,"is_disabled":false,"rental_uris":{"android":"levelo://app?vid=a35c3ffc-4e10-4f38-94fb-c7be8d2fb030","ios":"levelo://app?vid=a35c3ffc-4e10-4f38-94fb-c7be8d2fb030"},"vehicle_type_id":"4","last_reported":1746140972,"current_range_meters":10000,"station_id":"","pricing_plan_id":"cebpf4jnsgd1na2vs0mg"},{"bike_id":"4a6851f9-34fb-48f6-8387-4b9c13325bed","system_id":"levelo_inurba_marseille","lat":43.319658,"lon":5.370706,"is_reserved":false,"is_disabled":false,"rental_uris":{"android":"levelo://app?vid=4a6851f9-34fb-48f6-8387-4b9c13325bed","ios":"levelo://app?vid=4a6851f9-34fb-48f6-8387-4b9c13325bed"},"vehicle_type_id":"4","last_reported":1746140972,"current_range_meters":10000,"station_id":"ce4bhrh2rcd13ifvqhug","pricing_plan_id":"cebpf4jnsgd1na2vs0mg"},{"bike_id":"4e06d3e6-2b20-4e7b-aea6-0ad1ac5e1edf","system_id":"levelo_inurba_marseille","lat":43.32536,"lon":5.41464,"is_reserved":false,"is_disabled":false,"rental_uris":{"android":"levelo://app?vid=4e06d3e6-2b20-4e7b-aea6-0ad1ac5e1edf","ios":"levelo://app?vid=4e06d3e6-2b20-4e7b-aea6-0ad1ac5e1edf"},"vehicle_type_id":"4","last_reported":1746140972,"current_range_meters":10000,"station_id":"ce4bhq12rcd13ifvqhhg","pricing_plan_id":"cebpf4jnsgd1na2vs0mg"},{"bike_id":"f3d36354-fb65-4d90-83eb-303e5363ade6","system_id":"levelo_inurba_marseille","lat":43.31312,"lon":5.40123,"is_reserved":false,"is_disabled":false,"rental_uris":{"android":"levelo://app?vid=f3d36354-fb65-4d90-83eb-303e5363ade6","ios":"levelo://app?vid=f3d36354-fb65-4d90-83eb-303e5363ade6"},"vehicle_type_id":"4","last_reported":1746140972,"current_range_meters":10000,"station_id":"ce4bh092rcd13ifvqd30","pricing_plan_id":"cebpf4jnsgd1na2vs0mg"},{"bike_id":"6c5a82b1-d8fb-4884-908f-31a2369ec978","system_id":"levelo_inurba_marseille","lat":43.2842,"lon":5.37505,"is_reserved":false,"is_disabled":false,"rental_uris":{"android":"levelo://app?vid=6c5a82b1-d8fb-4884-908f-31a2369ec978","ios":"levelo://app?vid=6c5a82b1-d8fb-4884-908f-31a2369ec978"},"vehicle_type_id":"4","last_reported":1746140972,"current_range_meters":10000,"station_id":"ce4bh412rcd13ifvqds0","pricing_plan_id":"cebpf4jnsgd1na2vs0mg"},{"bike_id":"c0a5ee56-6f43-441c-97c4-100fe7548229","system_id":"levelo_inurba_marseille","lat":43.31361,"lon":5.38501,"is_reserved":false,"is_disabled":true,"rental_uris":{"android":"levelo://app?vid=c0a5ee56-6f43-441c-97c4-100fe7548229","ios":"levelo://app?vid=c0a5ee56-6f43-441c-97c4-100fe7548229"},"vehicle_type_id":"4","last_reported":1746140972,"current_range_meters":10800,"station_id":"ce4bgt92rcd13ifvqcf0","pricing_plan_id":"cebpf4jnsgd1na2vs0mg"},{"bike_id":"404725f8-7faf-4dfd-9d40-71184698efe1","system_id":"levelo_inurba_marseille","lat":43.29522,"lon":5.39394,"is_reserved":false,"is_disabled":false,"rental_uris":{"android":"levelo://app?vid=404725f8-7faf-4dfd-9d40-71184698efe1","ios":"levelo://app?vid=404725f8-7faf-4dfd-9d40-71184698efe1"},"vehicle_type_id":"4","last_reported":1746140972,"current_range_meters":9600,"station_id":"ce4bh292rcd13ifvqdf0","pricing_plan_id":"cebpf4jnsgd1na2vs0mg"},{"bike_id":"563373b3-dbec-4166-b103-3e9216172026","system_id":"levelo_inurba_marseille","lat":43.29635,"lon":5.40597,"is_reserved":false,"is_disabled":false,"rental_uris":{"android":"levelo://app?vid=563373b3-dbec-4166-b103-3e9216172026","ios":"levelo://app?vid=563373b3-dbec-4166-b103-3e9216172026"},"vehicle_type_id":"4","last_reported":1746140972,"current_range_meters":10000,"station_id":"ce4bh0h2rcd13ifvqd60","pricing_plan_id":"cebpf4jnsgd1na2vs0mg"},{"bike_id":"322950a6-18c3-45a6-b4ce-aac5b35350d3","system_id":"levelo_inurba_marseille","lat":43.30602,"lon":5.3722,"is_reserved":false,"is_disabled":false,"rental_uris":{"android":"levelo://app?vid=322950a6-18c3-45a6-b4ce-aac5b35350d3","ios":"levelo://app?vid=322950a6-18c3-45a6-b4ce-aac5b35350d3"},"vehicle_type_id":"4","last_reported":1746140972,"current_range_meters":10000,"station_id":"ce4bgqh2rcd13ifvqc4g","pricing_plan_id":"cebpf4jnsgd1na2vs0mg"},{"bike_id":"7b6befc3-4833-44db-a59f-fce35f535509","system_id":"levelo_inurba_marseille","lat":43.30801,"lon":5.38166,"is_reserved":false,"is_disabled":false,"rental_uris":{"android":"levelo://app?vid=7b6befc3-4833-44db-a59f-fce35f535509","ios":"levelo://app?vid=7b6befc3-4833-44db-a59f-fce35f535509"},"vehicle_type_id":"4","last_reported":1746140972,"current_range_meters":10000,"station_id":"ce4bgt12rcd13ifvqce0","pricing_plan_id":"cebpf4jnsgd1na2vs0mg"},{"bike_id":"0275921f-ce6e-42c6-b9cc-724455ffabca","system_id":"levelo_inurba_marseille","lat":43.25717,"lon":5.41111,"is_reserved":false,"is_disabled":false,"rental_uris":{"android":"levelo://app?vid=0275921f-ce6e-42c6-b9cc-724455ffabca","ios":"levelo://app?vid=0275921f-ce6e-42c6-b9cc-724455ffabca"},"vehicle_type_id":"4","last_reported":1746140972,"current_range_meters":10000,"station_id":"ce4bhkp2rcd13ifvqgd0","pricing_plan_id":"cebpf4jnsgd1na2vs0mg"},{"bike_id":"3dda069f-efc1-4167-894b-c35218499c9b","system_id":"levelo_inurba_marseille","lat":43.28142,"lon":5.42639,"is_reserved":false,"is_disabled":false,"rental_uris":{"android":"levelo://app?vid=3dda069f-efc1-4167-894b-c35218499c9b","ios":"levelo://app?vid=3dda069f-efc1-4167-894b-c35218499c9b"},"vehicle_type_id":"4","last_reported":1746140972,"current_range_meters":10800,"station_id":"ce4bhnh2rcd13ifvqgug","pricing_plan_id":"cebpf4jnsgd1na2vs0mg"},{"bike_id":"6408a017-cb1d-4e23-9508-f49121914cfc","system_id":"levelo_inurba_marseille","lat":43.287021,"lon":5.399837,"is_reserved":false,"is_disabled":false,"rental_uris":{"android":"levelo://app?vid=6408a017-cb1d-4e23-9508-f49121914cfc","ios":"levelo://app?vid=6408a017-cb1d-4e23-9508-f49121914cfc"},"vehicle_type_id":"4","last_reported":1746140972,"current_range_meters":10800,"station_id":"ce4bho92rcd13ifvqh3g","pricing_plan_id":"cebpf4jnsgd1na2vs0mg"},{"bike_id":"41b15ddf-1454-4d83-8188-53d37f91586a","system_id":"levelo_inurba_marseille","lat":43.30318,"lon":5.40444,"is_reserved":false,"is_disabled":false,"rental_uris":{"android":"levelo://app?vid=41b15ddf-1454-4d83-8188-53d37f91586a","ios":"levelo://app?vid=41b15ddf-1454-4d83-8188-53d37f91586a"},"vehicle_type_id":"4","last_reported":1746140972,"current_range_meters":10800,"station_id":"ce4bh012rcd13ifvqd10","pricing_plan_id":"cebpf4jnsgd1na2vs0mg"},{"bike_id":"d2fd2180-e73e-4220-869a-026232ab3e8c","system_id":"levelo_inurba_marseille","lat":43.29268,"lon":5.40141,"is_reserved":false,"is_disabled":false,"rental_uris":{"android":"levelo://app?vid=d2fd2180-e73e-4220-869a-026232ab3e8c","ios":"levelo://app?vid=d2fd2180-e73e-4220-869a-026232ab3e8c"},"vehicle_type_id":"4","last_reported":1746140972,"current_range_meters":10800,"station_id":"ce4bh312rcd13ifvqdk0","pricing_plan_id":"cebpf4jnsgd1na2vs0mg"},{"bike_id":"48126050-7010-4ae8-aef3-3d72dc056a47","system_id":"levelo_inurba_marseille","lat":43.32327,"lon":5.40615,"is_reserved":false,"is_disabled":false,"rental_uris":{"android":"levelo://app?vid=48126050-7010-4ae8-aef3-3d72dc056a47","ios":"levelo://app?vid=48126050-7010-4ae8-aef3-3d72dc056a47"},"vehicle_type_id":"4","last_reported":1746140972,"current_range_meters":10800,"station_id":"ce4bhq92rcd13ifvqhjg","pricing_plan_id":"cebpf4jnsgd1na2vs0mg"},{"bike_id":"73de5af1-bf79-433a-a20c-6899488a09e7","system_id":"levelo_inurba_marseille","lat":43.293125,"lon":5.37181,"is_reserved":false,"is_disabled":true,"rental_uris":{"android":"levelo://app?vid=73de5af1-bf79-433a-a20c-6899488a09e7","ios":"levelo://app?vid=73de5af1-bf79-433a-a20c-6899488a09e7"},"vehicle_type_id":"4","last_reported":1746140972,"current_range_meters":10800,"station_id":"ce4bgh92rcd13ifvqb40","pricing_plan_id":"cebpf4jnsgd1na2vs0mg"},{"bike_id":"bf0ded13-567f-4376-9241-fab3660dc401","system_id":"levelo_inurba_marseille","lat":43.23155,"lon":5.437,"is_reserved":false,"is_disabled":false,"rental_uris":{"android":"levelo://app?vid=bf0ded13-567f-4376-9241-fab3660dc401","ios":"levelo://app?vid=bf0ded13-567f-4376-9241-fab3660dc401"},"vehicle_type_id":"4","last_reported":1746140972,"current_range_meters":10800,"station_id":"ce4bhmp2rcd13ifvqgog","pricing_plan_id":"cebpf4jnsgd1na2vs0mg"},{"bike_id":"180fa02a-9fce-4a21-a352-4618ee14fcbe","system_id":"levelo_inurba_marseille","lat":43.294489,"lon":5.397484,"is_reserved":false,"is_disabled":false,"rental_uris":{"android":"levelo://app?vid=180fa02a-9fce-4a21-a352-4618ee14fcbe","ios":"levelo://app?vid=180fa02a-9fce-4a21-a352-4618ee14fcbe"},"vehicle_type_id":"4","last_reported":1746140972,"current_range_meters":10000,"station_id":"ce4bh3h2rcd13ifvqdo0","pricing_plan_id":"cebpf4jnsgd1na2vs0mg"},{"bike_id":"7f3e5a55-eb17-449b-9a20-cc477d2084eb","system_id":"levelo_inurba_marseille","lat":43.306104,"lon":5.372112,"is_reserved":false,"is_disabled":false,"rental_uris":{"android":"levelo://app?vid=7f3e5a55-eb17-449b-9a20-cc477d2084eb","ios":"levelo://app?vid=7f3e5a55-eb17-449b-9a20-cc477d2084eb"},"vehicle_type_id":"4","last_reported":1746140972,"current_range_meters":10800,"station_id":"ce4bgqh2rcd13ifvqc4g","pricing_plan_id":"cebpf4jnsgd1na2vs0mg"},{"bike_id":"579f3ff0-5a5b-45cb-baa0-e568c1cd8ec3","system_id":"levelo_inurba_marseille","lat":43.29258,"lon":5.409048,"is_reserved":false,"is_disabled":false,"rental_uris":{"android":"levelo://app?vid=579f3ff0-5a5b-45cb-baa0-e568c1cd8ec3","ios":"levelo://app?vid=579f3ff0-5a5b-45cb-baa0-e568c1cd8ec3"},"vehicle_type_id":"4","last_reported":1746140972,"current_range_meters":11200,"station_id":"ce4bh192rcd13ifvqdc0","pricing_plan_id":"cebpf4jnsgd1na2vs0mg"},{"bike_id":"b4c6dcac-f892-4aa8-b0ef-5da31e4ea582","system_id":"levelo_inurba_marseille","lat":43.30631,"lon":5.40066,"is_reserved":false,"is_disabled":false,"rental_uris":{"android":"levelo://app?vid=b4c6dcac-f892-4aa8-b0ef-5da31e4ea582","ios":"levelo://app?vid=b4c6dcac-f892-4aa8-b0ef-5da31e4ea582"},"vehicle_type_id":"4","last_reported":1746140972,"current_range_meters":11200,"station_id":"ce4bh112rcd13ifvqda0","pricing_plan_id":"cebpf4jnsgd1na2vs0mg"},{"bike_id":"fd07a340-a32b-44cc-824b-9474cc171177","system_id":"levelo_inurba_marseille","lat":43.28158,"lon":5.42637,"is_reserved":false,"is_disabled":false,"rental_uris":{"android":"levelo://app?vid=fd07a340-a32b-44cc-824b-9474cc171177","ios":"levelo://app?vid=fd07a340-a32b-44cc-824b-9474cc171177"},"vehicle_type_id":"4","last_reported":1746140972,"current_range_meters":11200,"station_id":"ce4bhnh2rcd13ifvqgug","pricing_plan_id":"cebpf4jnsgd1na2vs0mg"},{"bike_id":"b8483375-9a4a-45b5-93fc-0f48e332203e","system_id":"levelo_inurba_marseille","lat":43.30881,"lon":5.37182,"is_reserved":false,"is_disabled":false,"rental_uris":{"android":"levelo://app?vid=b8483375-9a4a-45b5-93fc-0f48e332203e","ios":"levelo://app?vid=b8483375-9a4a-45b5-93fc-0f48e332203e"},"vehicle_type_id":"4","last_reported":1746140972,"current_range_meters":10800,"station_id":"ce4bguh2rcd13ifvqckg","pricing_plan_id":"cebpf4jnsgd1na2vs0mg"},{"bike_id":"0546a681-d863-4b1d-834c-14dcde1a214c","system_id":"levelo_inurba_marseille","lat":43.30235,"lon":5.39991,"is_reserved":false,"is_disabled":false,"rental_uris":{"android":"levelo://app?vid=0546a681-d863-4b1d-834c-14dcde1a214c","ios":"levelo://app?vid=0546a681-d863-4b1d-834c-14dcde1a214c"},"vehicle_type_id":"4","last_reported":1746140972,"current_range_meters":11200,"station_id":"ce4bgvh2rcd13ifvqcs0","pricing_plan_id":"cebpf4jnsgd1na2vs0mg"},{"bike_id":"5dfff884-afb2-498f-8cf3-92d2423e101f","system_id":"levelo_inurba_marseille","lat":43.306452,"lon":5.400978,"is_reserved":false,"is_disabled":false,"rental_uris":{"android":"levelo://app?vid=5dfff884-afb2-498f-8cf3-92d2423e101f","ios":"levelo://app?vid=5dfff884-afb2-498f-8cf3-92d2423e101f"},"vehicle_type_id":"4","last_reported":1746140972,"current_range_meters":11200,"station_id":"ce4bh112rcd13ifvqda0","pricing_plan_id":"cebpf4jnsgd1na2vs0mg"},{"bike_id":"cba93bf4-d818-454b-925b-1e93ec515284","system_id":"levelo_inurba_marseille","lat":43.29256,"lon":5.40194,"is_reserved":false,"is_disabled":false,"rental_uris":{"android":"levelo://app?vid=cba93bf4-d818-454b-925b-1e93ec515284","ios":"levelo://app?vid=cba93bf4-d818-454b-925b-1e93ec515284"},"vehicle_type_id":"4","last_reported":1746140972,"current_range_meters":11600,"station_id":"","pricing_plan_id":"cebpf4jnsgd1na2vs0mg"},{"bike_id":"3e43c125-5323-4099-ab30-27ea243fe9db","system_id":"levelo_inurba_marseille","lat":43.31073,"lon":5.38355,"is_reserved":false,"is_disabled":false,"rental_uris":{"android":"levelo://app?vid=3e43c125-5323-4099-ab30-27ea243fe9db","ios":"levelo://app?vid=3e43c125-5323-4099-ab30-27ea243fe9db"},"vehicle_type_id":"4","last_reported":1746140972,"current_range_meters":11600,"station_id":"ce4bgv92rcd13ifvqcr0","pricing_plan_id":"cebpf4jnsgd1na2vs0mg"},{"bike_id":"162c0f9f-25ea-4ec8-8f19-35a4fea68985","system_id":"levelo_inurba_marseille","lat":43.31272,"lon":5.40164,"is_reserved":false,"is_disabled":false,"rental_uris":{"android":"levelo://app?vid=162c0f9f-25ea-4ec8-8f19-35a4fea68985","ios":"levelo://app?vid=162c0f9f-25ea-4ec8-8f19-35a4fea68985"},"vehicle_type_id":"4","last_reported":1746140972,"current_range_meters":11200,"station_id":"ce4bh092rcd13ifvqd30","pricing_plan_id":"cebpf4jnsgd1na2vs0mg"},{"bike_id":"f0aaa783-5973-447c-a491-82a9df2d6a40","system_id":"levelo_inurba_marseille","lat":43.26226,"lon":5.40457,"is_reserved":false,"is_disabled":false,"rental_uris":{"android":"levelo://app?vid=f0aaa783-5973-447c-a491-82a9df2d6a40","ios":"levelo://app?vid=f0aaa783-5973-447c-a491-82a9df2d6a40"},"vehicle_type_id":"4","last_reported":1746140972,"current_range_meters":11600,"station_id":"ce4bhmh2rcd13ifvqgmg","pricing_plan_id":"cebpf4jnsgd1na2vs0mg"},{"bike_id":"954ba1ec-4a4d-47fb-80e1-de7b1c918619","system_id":"levelo_inurba_marseille","lat":43.280428,"lon":5.36939,"is_reserved":false,"is_disabled":false,"rental_uris":{"android":"levelo://app?vid=954ba1ec-4a4d-47fb-80e1-de7b1c918619","ios":"levelo://app?vid=954ba1ec-4a4d-47fb-80e1-de7b1c918619"},"vehicle_type_id":"4","last_reported":1746140972,"current_range_meters":11600,"station_id":"ce4bha12rcd13ifvqef0","pricing_plan_id":"cebpf4jnsgd1na2vs0mg"},{"bike_id":"5e783dca-e9bd-4f97-a67f-f3c52ee23fb9","system_id":"levelo_inurba_marseille","lat":43.296214,"lon":5.377067,"is_reserved":false,"is_disabled":true,"rental_uris":{"android":"levelo://app?vid=5e783dca-e9bd-4f97-a67f-f3c52ee23fb9","ios":"levelo://app?vid=5e783dca-e9bd-4f97-a67f-f3c52ee23fb9"},"vehicle_type_id":"4","last_reported":1746140972,"current_range_meters":12000,"station_id":"","pricing_plan_id":"cebpf4jnsgd1na2vs0mg"},{"bike_id":"c440f09b-0fd2-4ddf-94bc-65676d4467f1","system_id":"levelo_inurba_marseille","lat":43.23138,"lon":5.43702,"is_reserved":false,"is_disabled":false,"rental_uris":{"android":"levelo://app?vid=c440f09b-0fd2-4ddf-94bc-65676d4467f1","ios":"levelo://app?vid=c440f09b-0fd2-4ddf-94bc-65676d4467f1"},"vehicle_type_id":"4","last_reported":1746140972,"current_range_meters":12000,"station_id":"ce4bhmp2rcd13ifvqgog","pricing_plan_id":"cebpf4jnsgd1na2vs0mg"},{"bike_id":"c7c7a92b-c148-41bb-b985-b3d124e5c071","system_id":"levelo_inurba_marseille","lat":43.2481,"lon":5.37453,"is_reserved":false,"is_disabled":true,"rental_uris":{"android":"levelo://app?vid=c7c7a92b-c148-41bb-b985-b3d124e5c071","ios":"levelo://app?vid=c7c7a92b-c148-41bb-b985-b3d124e5c071"},"vehicle_type_id":"4","last_reported":1746140972,"current_range_meters":12000,"station_id":"ce4bhgh2rcd13ifvqfb0","pricing_plan_id":"cebpf4jnsgd1na2vs0mg"},{"bike_id":"d2917865-c7ed-418c-8e76-6cf228a7e046","system_id":"levelo_inurba_marseille","lat":43.30254,"lon":5.40075,"is_reserved":false,"is_disabled":false,"rental_uris":{"android":"levelo://app?vid=d2917865-c7ed-418c-8e76-6cf228a7e046","ios":"levelo://app?vid=d2917865-c7ed-418c-8e76-6cf228a7e046"},"vehicle_type_id":"4","last_reported":1746140972,"current_range_meters":12000,"station_id":"ce4bgvh2rcd13ifvqcs0","pricing_plan_id":"cebpf4jnsgd1na2vs0mg"},{"bike_id":"35b2ed04-1000-45a2-811b-21527953f742","system_id":"levelo_inurba_marseille","lat":43.28072,"lon":5.39644,"is_reserved":false,"is_disabled":false,"rental_uris":{"android":"levelo://app?vid=35b2ed04-1000-45a2-811b-21527953f742","ios":"levelo://app?vid=35b2ed04-1000-45a2-811b-21527953f742"},"vehicle_type_id":"4","last_reported":1746140972,"current_range_meters":12000,"station_id":"ce4bho12rcd13ifvqh2g","pricing_plan_id":"cebpf4jnsgd1na2vs0mg"},{"bike_id":"56f543c3-cb38-4272-a4e5-cab053dcc3e0","system_id":"levelo_inurba_marseille","lat":43.291966,"lon":5.392961,"is_reserved":false,"is_disabled":true,"rental_uris":{"android":"levelo://app?vid=56f543c3-cb38-4272-a4e5-cab053dcc3e0","ios":"levelo://app?vid=56f543c3-cb38-4272-a4e5-cab053dcc3e0"},"vehicle_type_id":"4","last_reported":1746140972,"current_range_meters":12000,"station_id":"ce4bhbh2rcd13ifvqeo0","pricing_plan_id":"cebpf4jnsgd1na2vs0mg"},{"bike_id":"3f8bea75-f1b7-42a9-9ff5-4986c0552272","system_id":"levelo_inurba_marseille","lat":43.217488,"lon":5.346067,"is_reserved":false,"is_disabled":true,"rental_uris":{"android":"levelo://app?vid=3f8bea75-f1b7-42a9-9ff5-4986c0552272","ios":"levelo://app?vid=3f8bea75-f1b7-42a9-9ff5-4986c0552272"},"vehicle_type_id":"4","last_reported":1746140972,"current_range_meters":12000,"station_id":"st_cvj6r9ubvosntc0bgbag","pricing_plan_id":"cebpf4jnsgd1na2vs0mg"},{"bike_id":"045b2767-67d3-41b7-8618-6d27646a5585","system_id":"levelo_inurba_marseille","lat":43.31326,"lon":5.39683,"is_reserved":false,"is_disabled":false,"rental_uris":{"android":"levelo://app?vid=045b2767-67d3-41b7-8618-6d27646a5585","ios":"levelo://app?vid=045b2767-67d3-41b7-8618-6d27646a5585"},"vehicle_type_id":"4","last_reported":1746140972,"current_range_meters":12000,"station_id":"ce4bgvp2rcd13ifvqcu0","pricing_plan_id":"cebpf4jnsgd1na2vs0mg"},{"bike_id":"f7a91b2e-c59c-4729-aa34-37788daada89","system_id":"levelo_inurba_marseille","lat":43.2927,"lon":5.40118,"is_reserved":false,"is_disabled":false,"rental_uris":{"android":"levelo://app?vid=f7a91b2e-c59c-4729-aa34-37788daada89","ios":"levelo://app?vid=f7a91b2e-c59c-4729-aa34-37788daada89"},"vehicle_type_id":"4","last_reported":1746140972,"current_range_meters":12000,"station_id":"ce4bh312rcd13ifvqdk0","pricing_plan_id":"cebpf4jnsgd1na2vs0mg"},{"bike_id":"c7d3ea31-dcc6-46ed-86ce-40d67db7f4b1","system_id":"levelo_inurba_marseille","lat":43.29266,"lon":5.38439,"is_reserved":false,"is_disabled":true,"rental_uris":{"android":"levelo://app?vid=c7d3ea31-dcc6-46ed-86ce-40d67db7f4b1","ios":"levelo://app?vid=c7d3ea31-dcc6-46ed-86ce-40d67db7f4b1"},"vehicle_type_id":"4","last_reported":1746140972,"current_range_meters":12400,"station_id":"ce4bh692rcd13ifvqea0","pricing_plan_id":"cebpf4jnsgd1na2vs0mg"},{"bike_id":"5ce5a92f-2072-4e8c-8483-5f453ebe476a","system_id":"levelo_inurba_marseille","lat":43.231486,"lon":5.437033,"is_reserved":false,"is_disabled":false,"rental_uris":{"android":"levelo://app?vid=5ce5a92f-2072-4e8c-8483-5f453ebe476a","ios":"levelo://app?vid=5ce5a92f-2072-4e8c-8483-5f453ebe476a"},"vehicle_type_id":"4","last_reported":1746140972,"current_range_meters":12400,"station_id":"ce4bhmp2rcd13ifvqgog","pricing_plan_id":"cebpf4jnsgd1na2vs0mg"},{"bike_id":"61bd96e4-a343-47cf-a9bb-dcf4820b5bf4","system_id":"levelo_inurba_marseille","lat":43.240738,"lon":5.377563,"is_reserved":false,"is_disabled":false,"rental_uris":{"android":"levelo://app?vid=61bd96e4-a343-47cf-a9bb-dcf4820b5bf4","ios":"levelo://app?vid=61bd96e4-a343-47cf-a9bb-dcf4820b5bf4"},"vehicle_type_id":"4","last_reported":1746140972,"current_range_meters":12400,"station_id":"ce4bhnp2rcd13ifvqgvg","pricing_plan_id":"cebpf4jnsgd1na2vs0mg"},{"bike_id":"581433ef-25dd-4609-b929-3092b05aaa82","system_id":"levelo_inurba_marseille","lat":43.30651,"lon":5.40079,"is_reserved":false,"is_disabled":false,"rental_uris":{"android":"levelo://app?vid=581433ef-25dd-4609-b929-3092b05aaa82","ios":"levelo://app?vid=581433ef-25dd-4609-b929-3092b05aaa82"},"vehicle_type_id":"4","last_reported":1746140972,"current_range_meters":12400,"station_id":"ce4bh112rcd13ifvqda0","pricing_plan_id":"cebpf4jnsgd1na2vs0mg"},{"bike_id":"c3e3fb16-e78b-4c92-ac45-9b12ee09bd02","system_id":"levelo_inurba_marseille","lat":43.31479,"lon":5.37302,"is_reserved":false,"is_disabled":false,"rental_uris":{"android":"levelo://app?vid=c3e3fb16-e78b-4c92-ac45-9b12ee09bd02","ios":"levelo://app?vid=c3e3fb16-e78b-4c92-ac45-9b12ee09bd02"},"vehicle_type_id":"4","last_reported":1746140972,"current_range_meters":12400,"station_id":"ce4bgt12rcd13ifvqcd0","pricing_plan_id":"cebpf4jnsgd1na2vs0mg"},{"bike_id":"4b699a03-25a4-458d-8ed0-c7a31170fe6d","system_id":"levelo_inurba_marseille","lat":43.28672,"lon":5.38668,"is_reserved":false,"is_disabled":false,"rental_uris":{"android":"levelo://app?vid=4b699a03-25a4-458d-8ed0-c7a31170fe6d","ios":"levelo://app?vid=4b699a03-25a4-458d-8ed0-c7a31170fe6d"},"vehicle_type_id":"4","last_reported":1746140972,"current_range_meters":12400,"station_id":"ce4bh492rcd13ifvqdug","pricing_plan_id":"cebpf4jnsgd1na2vs0mg"},{"bike_id":"2f5a8493-149a-40c5-a54a-fbd73e20e440","system_id":"levelo_inurba_marseille","lat":43.31529,"lon":5.38035,"is_reserved":false,"is_disabled":false,"rental_uris":{"android":"levelo://app?vid=2f5a8493-149a-40c5-a54a-fbd73e20e440","ios":"levelo://app?vid=2f5a8493-149a-40c5-a54a-fbd73e20e440"},"vehicle_type_id":"4","last_reported":1746140972,"current_range_meters":12400,"station_id":"ce4bhsp2rcd13ifvqi50","pricing_plan_id":"cebpf4jnsgd1na2vs0mg"},{"bike_id":"4a8a7892-f020-4f90-9f65-7825a77f6088","system_id":"levelo_inurba_marseille","lat":43.2867,"lon":5.38669,"is_reserved":false,"is_disabled":false,"rental_uris":{"android":"levelo://app?vid=4a8a7892-f020-4f90-9f65-7825a77f6088","ios":"levelo://app?vid=4a8a7892-f020-4f90-9f65-7825a77f6088"},"vehicle_type_id":"4","last_reported":1746140972,"current_range_meters":12000,"station_id":"ce4bh492rcd13ifvqdug","pricing_plan_id":"cebpf4jnsgd1na2vs0mg"},{"bike_id":"e6a66f58-616f-4e3f-bf01-bb741a85daca","system_id":"levelo_inurba_marseille","lat":43.30802,"lon":5.38151,"is_reserved":false,"is_disabled":false,"rental_uris":{"android":"levelo://app?vid=e6a66f58-616f-4e3f-bf01-bb741a85daca","ios":"levelo://app?vid=e6a66f58-616f-4e3f-bf01-bb741a85daca"},"vehicle_type_id":"4","last_reported":1746140972,"current_range_meters":12000,"station_id":"ce4bgt12rcd13ifvqce0","pricing_plan_id":"cebpf4jnsgd1na2vs0mg"},{"bike_id":"315aa944-5595-4b5e-98d8-177f739d8d53","system_id":"levelo_inurba_marseille","lat":43.23166,"lon":5.43711,"is_reserved":false,"is_disabled":false,"rental_uris":{"android":"levelo://app?vid=315aa944-5595-4b5e-98d8-177f739d8d53","ios":"levelo://app?vid=315aa944-5595-4b5e-98d8-177f739d8d53"},"vehicle_type_id":"4","last_reported":1746140972,"current_range_meters":12800,"station_id":"ce4bhmp2rcd13ifvqgog","pricing_plan_id":"cebpf4jnsgd1na2vs0mg"},{"bike_id":"af1a8bf0-afa9-477f-8fdb-edb6d2bce68a","system_id":"levelo_inurba_marseille","lat":43.31894,"lon":5.40732,"is_reserved":false,"is_disabled":false,"rental_uris":{"android":"levelo://app?vid=af1a8bf0-afa9-477f-8fdb-edb6d2bce68a","ios":"levelo://app?vid=af1a8bf0-afa9-477f-8fdb-edb6d2bce68a"},"vehicle_type_id":"4","last_reported":1746140972,"current_range_meters":12800,"station_id":"ce4bhq12rcd13ifvqhig","pricing_plan_id":"cebpf4jnsgd1na2vs0mg"},{"bike_id":"4cc2b011-81f2-4910-af9d-0052ec928815","system_id":"levelo_inurba_marseille","lat":43.303773,"lon":5.424774,"is_reserved":false,"is_disabled":false,"rental_uris":{"android":"levelo://app?vid=4cc2b011-81f2-4910-af9d-0052ec928815","ios":"levelo://app?vid=4cc2b011-81f2-4910-af9d-0052ec928815"},"vehicle_type_id":"4","last_reported":1746140972,"current_range_meters":12800,"station_id":"ce4bhoh2rcd13ifvqh6g","pricing_plan_id":"cebpf4jnsgd1na2vs0mg"},{"bike_id":"78e3a516-3b43-4a65-88ee-19e41444cd3f","system_id":"levelo_inurba_marseille","lat":43.26564,"lon":5.38999,"is_reserved":false,"is_disabled":false,"rental_uris":{"android":"levelo://app?vid=78e3a516-3b43-4a65-88ee-19e41444cd3f","ios":"levelo://app?vid=78e3a516-3b43-4a65-88ee-19e41444cd3f"},"vehicle_type_id":"4","last_reported":1746140972,"current_range_meters":12800,"station_id":"ce4bhe12rcd13ifvqf30","pricing_plan_id":"cebpf4jnsgd1na2vs0mg"},{"bike_id":"df869c6e-30aa-4a10-bddb-7cd36ccc4eae","system_id":"levelo_inurba_marseille","lat":43.29903,"lon":5.43646,"is_reserved":false,"is_disabled":false,"rental_uris":{"android":"levelo://app?vid=df869c6e-30aa-4a10-bddb-7cd36ccc4eae","ios":"levelo://app?vid=df869c6e-30aa-4a10-bddb-7cd36ccc4eae"},"vehicle_type_id":"4","last_reported":1746140972,"current_range_meters":13600,"station_id":"ce4bhpp2rcd13ifvqhfg","pricing_plan_id":"cebpf4jnsgd1na2vs0mg"},{"bike_id":"2ae39ac1-aa30-4096-aaf7-7bc2d7533749","system_id":"levelo_inurba_marseille","lat":43.323689,"lon":5.367553,"is_reserved":false,"is_disabled":false,"rental_uris":{"android":"levelo://app?vid=2ae39ac1-aa30-4096-aaf7-7bc2d7533749","ios":"levelo://app?vid=2ae39ac1-aa30-4096-aaf7-7bc2d7533749"},"vehicle_type_id":"4","last_reported":1746140972,"current_range_meters":13600,"station_id":"ce4bhsh2rcd13ifvqi2g","pricing_plan_id":"cebpf4jnsgd1na2vs0mg"},{"bike_id":"dd7aedfd-e3d8-4f73-8265-cc39385aff60","system_id":"levelo_inurba_marseille","lat":43.27945,"lon":5.41038,"is_reserved":false,"is_disabled":false,"rental_uris":{"android":"levelo://app?vid=dd7aedfd-e3d8-4f73-8265-cc39385aff60","ios":"levelo://app?vid=dd7aedfd-e3d8-4f73-8265-cc39385aff60"},"vehicle_type_id":"4","last_reported":1746140972,"current_range_meters":13600,"station_id":"ce4bhnp2rcd13ifvqh0g","pricing_plan_id":"cebpf4jnsgd1na2vs0mg"},{"bike_id":"29178bd1-bbfb-4989-b597-10a7746e7506","system_id":"levelo_inurba_marseille","lat":43.24651,"lon":5.38889,"is_reserved":false,"is_disabled":false,"rental_uris":{"android":"levelo://app?vid=29178bd1-bbfb-4989-b597-10a7746e7506","ios":"levelo://app?vid=29178bd1-bbfb-4989-b597-10a7746e7506"},"vehicle_type_id":"4","last_reported":1746140972,"current_range_meters":12800,"station_id":"ce4bhg12rcd13ifvqf60","pricing_plan_id":"cebpf4jnsgd1na2vs0mg"},{"bike_id":"90c438e8-e41c-434b-9a02-d0817efeffd8","system_id":"levelo_inurba_marseille","lat":43.285745,"lon":5.394887,"is_reserved":false,"is_disabled":false,"rental_uris":{"android":"levelo://app?vid=90c438e8-e41c-434b-9a02-d0817efeffd8","ios":"levelo://app?vid=90c438e8-e41c-434b-9a02-d0817efeffd8"},"vehicle_type_id":"4","last_reported":1746140972,"current_range_meters":14000,"station_id":"ce4bh292rcd13ifvqdg0","pricing_plan_id":"cebpf4jnsgd1na2vs0mg"},{"bike_id":"8d99e4fc-b9ea-4838-9fa3-38eac07b0ba0","system_id":"levelo_inurba_marseille","lat":43.28839,"lon":5.39311,"is_reserved":false,"is_disabled":false,"rental_uris":{"android":"levelo://app?vid=8d99e4fc-b9ea-4838-9fa3-38eac07b0ba0","ios":"levelo://app?vid=8d99e4fc-b9ea-4838-9fa3-38eac07b0ba0"},"vehicle_type_id":"4","last_reported":1746140972,"current_range_meters":14000,"station_id":"ce4bh2p2rcd13ifvqdi0","pricing_plan_id":"cebpf4jnsgd1na2vs0mg"},{"bike_id":"51c95771-a2d7-48dc-8a12-9ea2338fec3a","system_id":"levelo_inurba_marseille","lat":43.29311,"lon":5.40136,"is_reserved":false,"is_disabled":false,"rental_uris":{"android":"levelo://app?vid=51c95771-a2d7-48dc-8a12-9ea2338fec3a","ios":"levelo://app?vid=51c95771-a2d7-48dc-8a12-9ea2338fec3a"},"vehicle_type_id":"4","last_reported":1746140972,"current_range_meters":14000,"station_id":"ce4bh312rcd13ifvqdk0","pricing_plan_id":"cebpf4jnsgd1na2vs0mg"},{"bike_id":"f3461f56-cb0c-42a9-80e7-ed03659d4ee9","system_id":"levelo_inurba_marseille","lat":43.30651,"lon":5.401,"is_reserved":false,"is_disabled":false,"rental_uris":{"android":"levelo://app?vid=f3461f56-cb0c-42a9-80e7-ed03659d4ee9","ios":"levelo://app?vid=f3461f56-cb0c-42a9-80e7-ed03659d4ee9"},"vehicle_type_id":"4","last_reported":1746140972,"current_range_meters":14400,"station_id":"ce4bh112rcd13ifvqda0","pricing_plan_id":"cebpf4jnsgd1na2vs0mg"},{"bike_id":"0c9a8767-a71f-4ef0-b390-c3b7e9c632a8","system_id":"levelo_inurba_marseille","lat":43.21218,"lon":5.3507,"is_reserved":false,"is_disabled":true,"rental_uris":{"android":"levelo://app?vid=0c9a8767-a71f-4ef0-b390-c3b7e9c632a8","ios":"levelo://app?vid=0c9a8767-a71f-4ef0-b390-c3b7e9c632a8"},"vehicle_type_id":"4","last_reported":1746140972,"current_range_meters":14400,"station_id":"st_cvj6sg6p6f1abm77japg","pricing_plan_id":"cebpf4jnsgd1na2vs0mg"},{"bike_id":"f0db5fa2-ee3c-4f34-b509-0ff042a196f7","system_id":"levelo_inurba_marseille","lat":43.29271,"lon":5.40118,"is_reserved":false,"is_disabled":false,"rental_uris":{"android":"levelo://app?vid=f0db5fa2-ee3c-4f34-b509-0ff042a196f7","ios":"levelo://app?vid=f0db5fa2-ee3c-4f34-b509-0ff042a196f7"},"vehicle_type_id":"4","last_reported":1746140972,"current_range_meters":14400,"station_id":"ce4bh312rcd13ifvqdk0","pricing_plan_id":"cebpf4jnsgd1na2vs0mg"},{"bike_id":"dd4355cb-7475-46a3-b322-b9526ff11011","system_id":"levelo_inurba_marseille","lat":43.29043,"lon":5.35913,"is_reserved":false,"is_disabled":false,"rental_uris":{"android":"levelo://app?vid=dd4355cb-7475-46a3-b322-b9526ff11011","ios":"levelo://app?vid=dd4355cb-7475-46a3-b322-b9526ff11011"},"vehicle_type_id":"4","last_reported":1746140972,"current_range_meters":14400,"station_id":"ce4bha92rcd13ifvqeg0","pricing_plan_id":"cebpf4jnsgd1na2vs0mg"},{"bike_id":"469b865a-862f-4903-ab73-cf01e7bc02bb","system_id":"levelo_inurba_marseille","lat":43.31533,"lon":5.38022,"is_reserved":false,"is_disabled":false,"rental_uris":{"android":"levelo://app?vid=469b865a-862f-4903-ab73-cf01e7bc02bb","ios":"levelo://app?vid=469b865a-862f-4903-ab73-cf01e7bc02bb"},"vehicle_type_id":"4","last_reported":1746140972,"current_range_meters":14400,"station_id":"ce4bhsp2rcd13ifvqi50","pricing_plan_id":"cebpf4jnsgd1na2vs0mg"},{"bike_id":"1102c4c7-ce21-4dcb-870c-532f5d870782","system_id":"levelo_inurba_marseille","lat":43.3359,"lon":5.41027,"is_reserved":false,"is_disabled":false,"rental_uris":{"android":"levelo://app?vid=1102c4c7-ce21-4dcb-870c-532f5d870782","ios":"levelo://app?vid=1102c4c7-ce21-4dcb-870c-532f5d870782"},"vehicle_type_id":"4","last_reported":1746140972,"current_range_meters":14400,"station_id":"ce4bhqh2rcd13ifvqhmg","pricing_plan_id":"cebpf4jnsgd1na2vs0mg"},{"bike_id":"67058a6a-1199-4119-a8f8-bd3080f44de1","system_id":"levelo_inurba_marseille","lat":43.3027,"lon":5.40067,"is_reserved":false,"is_disabled":false,"rental_uris":{"android":"levelo://app?vid=67058a6a-1199-4119-a8f8-bd3080f44de1","ios":"levelo://app?vid=67058a6a-1199-4119-a8f8-bd3080f44de1"},"vehicle_type_id":"4","last_reported":1746140972,"current_range_meters":14800,"station_id":"ce4bgvh2rcd13ifvqcs0","pricing_plan_id":"cebpf4jnsgd1na2vs0mg"},{"bike_id":"bdb62c0b-901d-46ce-85fd-580b67287f87","system_id":"levelo_inurba_marseille","lat":43.25121,"lon":5.40315,"is_reserved":false,"is_disabled":false,"rental_uris":{"android":"levelo://app?vid=bdb62c0b-901d-46ce-85fd-580b67287f87","ios":"levelo://app?vid=bdb62c0b-901d-46ce-85fd-580b67287f87"},"vehicle_type_id":"4","last_reported":1746140972,"current_range_meters":14800,"station_id":"ce4bhlh2rcd13ifvqgig","pricing_plan_id":"cebpf4jnsgd1na2vs0mg"},{"bike_id":"8a0058ae-d47a-4696-afcc-53a66a14ba3f","system_id":"levelo_inurba_marseille","lat":43.29904,"lon":5.43658,"is_reserved":false,"is_disabled":false,"rental_uris":{"android":"levelo://app?vid=8a0058ae-d47a-4696-afcc-53a66a14ba3f","ios":"levelo://app?vid=8a0058ae-d47a-4696-afcc-53a66a14ba3f"},"vehicle_type_id":"4","last_reported":1746140972,"current_range_meters":15200,"station_id":"ce4bhpp2rcd13ifvqhfg","pricing_plan_id":"cebpf4jnsgd1na2vs0mg"},{"bike_id":"27ae44ab-4467-45ef-b0d1-8bfc33f0de73","system_id":"levelo_inurba_marseille","lat":43.28717,"lon":5.39982,"is_reserved":false,"is_disabled":false,"rental_uris":{"android":"levelo://app?vid=27ae44ab-4467-45ef-b0d1-8bfc33f0de73","ios":"levelo://app?vid=27ae44ab-4467-45ef-b0d1-8bfc33f0de73"},"vehicle_type_id":"4","last_reported":1746140972,"current_range_meters":15200,"station_id":"ce4bho92rcd13ifvqh3g","pricing_plan_id":"cebpf4jnsgd1na2vs0mg"},{"bike_id":"aaa7361e-2aed-4ab5-b86b-b5d18c767d33","system_id":"levelo_inurba_marseille","lat":43.29929,"lon":5.39457,"is_reserved":false,"is_disabled":true,"rental_uris":{"android":"levelo://app?vid=aaa7361e-2aed-4ab5-b86b-b5d18c767d33","ios":"levelo://app?vid=aaa7361e-2aed-4ab5-b86b-b5d18c767d33"},"vehicle_type_id":"4","last_reported":1746140972,"current_range_meters":15200,"station_id":"","pricing_plan_id":"cebpf4jnsgd1na2vs0mg"},{"bike_id":"f9eae9cb-3e30-4f98-9b5d-ec7d6955b1e9","system_id":"levelo_inurba_marseille","lat":43.317127,"lon":5.404343,"is_reserved":false,"is_disabled":false,"rental_uris":{"android":"levelo://app?vid=f9eae9cb-3e30-4f98-9b5d-ec7d6955b1e9","ios":"levelo://app?vid=f9eae9cb-3e30-4f98-9b5d-ec7d6955b1e9"},"vehicle_type_id":"4","last_reported":1746140972,"current_range_meters":15200,"station_id":"ce4bh012rcd13ifvqd00","pricing_plan_id":"cebpf4jnsgd1na2vs0mg"},{"bike_id":"b70d6dd7-db26-425e-af7f-d24732bf1da0","system_id":"levelo_inurba_marseille","lat":43.30645,"lon":5.40078,"is_reserved":false,"is_disabled":false,"rental_uris":{"android":"levelo://app?vid=b70d6dd7-db26-425e-af7f-d24732bf1da0","ios":"levelo://app?vid=b70d6dd7-db26-425e-af7f-d24732bf1da0"},"vehicle_type_id":"4","last_reported":1746140972,"current_range_meters":15200,"station_id":"ce4bh112rcd13ifvqda0","pricing_plan_id":"cebpf4jnsgd1na2vs0mg"},{"bike_id":"8a53bf42-acb8-4be5-ad1b-38650f6ba791","system_id":"levelo_inurba_marseille","lat":43.29956,"lon":5.3655,"is_reserved":false,"is_disabled":true,"rental_uris":{"android":"levelo://app?vid=8a53bf42-acb8-4be5-ad1b-38650f6ba791","ios":"levelo://app?vid=8a53bf42-acb8-4be5-ad1b-38650f6ba791"},"vehicle_type_id":"4","last_reported":1746140972,"current_range_meters":16000,"station_id":"ce4bgm92rcd13ifvqbr0","pricing_plan_id":"cebpf4jnsgd1na2vs0mg"},{"bike_id":"e70e6937-93f0-4736-a2bd-2815ca5c0c90","system_id":"levelo_inurba_marseille","lat":43.293053,"lon":5.371738,"is_reserved":false,"is_disabled":true,"rental_uris":{"android":"levelo://app?vid=e70e6937-93f0-4736-a2bd-2815ca5c0c90","ios":"levelo://app?vid=e70e6937-93f0-4736-a2bd-2815ca5c0c90"},"vehicle_type_id":"4","last_reported":1746140972,"current_range_meters":16000,"station_id":"ce4bgh92rcd13ifvqb40","pricing_plan_id":"cebpf4jnsgd1na2vs0mg"},{"bike_id":"03f5b910-d1d5-49c8-a7a4-67a333daaa2e","system_id":"levelo_inurba_marseille","lat":43.32541,"lon":5.41457,"is_reserved":false,"is_disabled":false,"rental_uris":{"android":"levelo://app?vid=03f5b910-d1d5-49c8-a7a4-67a333daaa2e","ios":"levelo://app?vid=03f5b910-d1d5-49c8-a7a4-67a333daaa2e"},"vehicle_type_id":"4","last_reported":1746140972,"current_range_meters":16000,"station_id":"ce4bhq12rcd13ifvqhhg","pricing_plan_id":"cebpf4jnsgd1na2vs0mg"},{"bike_id":"4c355f31-bbab-40c6-a093-ac50f3e75f95","system_id":"levelo_inurba_marseille","lat":43.26228,"lon":5.40451,"is_reserved":false,"is_disabled":false,"rental_uris":{"android":"levelo://app?vid=4c355f31-bbab-40c6-a093-ac50f3e75f95","ios":"levelo://app?vid=4c355f31-bbab-40c6-a093-ac50f3e75f95"},"vehicle_type_id":"4","last_reported":1746140972,"current_range_meters":16000,"station_id":"ce4bhmh2rcd13ifvqgmg","pricing_plan_id":"cebpf4jnsgd1na2vs0mg"},{"bike_id":"9d9a92a0-a52c-4fdc-8730-8ef98a3dc703","system_id":"levelo_inurba_marseille","lat":43.311281,"lon":5.377566,"is_reserved":false,"is_disabled":false,"rental_uris":{"android":"levelo://app?vid=9d9a92a0-a52c-4fdc-8730-8ef98a3dc703","ios":"levelo://app?vid=9d9a92a0-a52c-4fdc-8730-8ef98a3dc703"},"vehicle_type_id":"4","last_reported":1746140972,"current_range_meters":16000,"station_id":"ce4bgt92rcd13ifvqcg0","pricing_plan_id":"cebpf4jnsgd1na2vs0mg"},{"bike_id":"7bd7c79e-5190-4568-b102-e02604e33904","system_id":"levelo_inurba_marseille","lat":43.30244,"lon":5.40536,"is_reserved":false,"is_disabled":false,"rental_uris":{"android":"levelo://app?vid=7bd7c79e-5190-4568-b102-e02604e33904","ios":"levelo://app?vid=7bd7c79e-5190-4568-b102-e02604e33904"},"vehicle_type_id":"4","last_reported":1746140972,"current_range_meters":16000,"station_id":"","pricing_plan_id":"cebpf4jnsgd1na2vs0mg"},{"bike_id":"3c376cd3-a6e1-4153-b98d-ae36ec38c259","system_id":"levelo_inurba_marseille","lat":43.28695,"lon":5.399757,"is_reserved":false,"is_disabled":false,"rental_uris":{"android":"levelo://app?vid=3c376cd3-a6e1-4153-b98d-ae36ec38c259","ios":"levelo://app?vid=3c376cd3-a6e1-4153-b98d-ae36ec38c259"},"vehicle_type_id":"4","last_reported":1746140972,"current_range_meters":16000,"station_id":"ce4bho92rcd13ifvqh3g","pricing_plan_id":"cebpf4jnsgd1na2vs0mg"},{"bike_id":"846ba4ce-0b98-4d2a-b5e3-0d1b619e2327","system_id":"levelo_inurba_marseille","lat":43.3089,"lon":5.39635,"is_reserved":false,"is_disabled":false,"rental_uris":{"android":"levelo://app?vid=846ba4ce-0b98-4d2a-b5e3-0d1b619e2327","ios":"levelo://app?vid=846ba4ce-0b98-4d2a-b5e3-0d1b619e2327"},"vehicle_type_id":"4","last_reported":1746140972,"current_range_meters":16000,"station_id":"ce4bh012rcd13ifvqcv0","pricing_plan_id":"cebpf4jnsgd1na2vs0mg"},{"bike_id":"770e1bf5-9467-41ea-b8cd-86656563cdf6","system_id":"levelo_inurba_marseille","lat":43.27336,"lon":5.39094,"is_reserved":false,"is_disabled":false,"rental_uris":{"android":"levelo://app?vid=770e1bf5-9467-41ea-b8cd-86656563cdf6","ios":"levelo://app?vid=770e1bf5-9467-41ea-b8cd-86656563cdf6"},"vehicle_type_id":"4","last_reported":1746140972,"current_range_meters":16400,"station_id":"ce4bhgp2rcd13ifvqfe0","pricing_plan_id":"cebpf4jnsgd1na2vs0mg"},{"bike_id":"8a98d962-578d-444b-a5bb-91a62b69d98d","system_id":"levelo_inurba_marseille","lat":43.211921,"lon":5.350821,"is_reserved":false,"is_disabled":true,"rental_uris":{"android":"levelo://app?vid=8a98d962-578d-444b-a5bb-91a62b69d98d","ios":"levelo://app?vid=8a98d962-578d-444b-a5bb-91a62b69d98d"},"vehicle_type_id":"4","last_reported":1746140972,"current_range_meters":16400,"station_id":"st_cvj6sg6p6f1abm77japg","pricing_plan_id":"cebpf4jnsgd1na2vs0mg"},{"bike_id":"ac132c29-f819-4d62-974c-5c055342f4f0","system_id":"levelo_inurba_marseille","lat":43.217584,"lon":5.345999,"is_reserved":false,"is_disabled":true,"rental_uris":{"android":"levelo://app?vid=ac132c29-f819-4d62-974c-5c055342f4f0","ios":"levelo://app?vid=ac132c29-f819-4d62-974c-5c055342f4f0"},"vehicle_type_id":"4","last_reported":1746140972,"current_range_meters":16400,"station_id":"st_cvj6r9ubvosntc0bgbag","pricing_plan_id":"cebpf4jnsgd1na2vs0mg"},{"bike_id":"61ada823-7afc-4bae-8219-f47e25313745","system_id":"levelo_inurba_marseille","lat":43.25723,"lon":5.41795,"is_reserved":false,"is_disabled":false,"rental_uris":{"android":"levelo://app?vid=61ada823-7afc-4bae-8219-f47e25313745","ios":"levelo://app?vid=61ada823-7afc-4bae-8219-f47e25313745"},"vehicle_type_id":"4","last_reported":1746140972,"current_range_meters":16400,"station_id":"","pricing_plan_id":"cebpf4jnsgd1na2vs0mg"},{"bike_id":"2033c1c4-40c4-48b4-8076-35891725f3ad","system_id":"levelo_inurba_marseille","lat":43.298005,"lon":5.403937,"is_reserved":false,"is_disabled":false,"rental_uris":{"android":"levelo://app?vid=2033c1c4-40c4-48b4-8076-35891725f3ad","ios":"levelo://app?vid=2033c1c4-40c4-48b4-8076-35891725f3ad"},"vehicle_type_id":"4","last_reported":1746140972,"current_range_meters":16400,"station_id":"ce4bh112rcd13ifvqd90","pricing_plan_id":"cebpf4jnsgd1na2vs0mg"},{"bike_id":"c9892a14-219a-494b-ad6a-04d13e2c2524","system_id":"levelo_inurba_marseille","lat":43.30603,"lon":5.37187,"is_reserved":false,"is_disabled":false,"rental_uris":{"android":"levelo://app?vid=c9892a14-219a-494b-ad6a-04d13e2c2524","ios":"levelo://app?vid=c9892a14-219a-494b-ad6a-04d13e2c2524"},"vehicle_type_id":"4","last_reported":1746140972,"current_range_meters":16400,"station_id":"ce4bgqh2rcd13ifvqc4g","pricing_plan_id":"cebpf4jnsgd1na2vs0mg"},{"bike_id":"7fd80a67-7a4b-4131-aa61-22a40255ad15","system_id":"levelo_inurba_marseille","lat":43.31705,"lon":5.3781,"is_reserved":false,"is_disabled":true,"rental_uris":{"android":"levelo://app?vid=7fd80a67-7a4b-4131-aa61-22a40255ad15","ios":"levelo://app?vid=7fd80a67-7a4b-4131-aa61-22a40255ad15"},"vehicle_type_id":"4","last_reported":1746140972,"current_range_meters":16400,"station_id":"ce4bgth2rcd13ifvqch0","pricing_plan_id":"cebpf4jnsgd1na2vs0mg"},{"bike_id":"dea0cfb2-dc6f-4e03-84b4-8ee7ba9ad665","system_id":"levelo_inurba_marseille","lat":43.323658,"lon":5.388814,"is_reserved":false,"is_disabled":false,"rental_uris":{"android":"levelo://app?vid=dea0cfb2-dc6f-4e03-84b4-8ee7ba9ad665","ios":"levelo://app?vid=dea0cfb2-dc6f-4e03-84b4-8ee7ba9ad665"},"vehicle_type_id":"4","last_reported":1746140972,"current_range_meters":16400,"station_id":"ce4bhqp2rcd13ifvqhog","pricing_plan_id":"cebpf4jnsgd1na2vs0mg"},{"bike_id":"bbf9e4cc-b882-48f9-860d-7aefa48464b2","system_id":"levelo_inurba_marseille","lat":43.279057,"lon":5.38011,"is_reserved":false,"is_disabled":false,"rental_uris":{"android":"levelo://app?vid=bbf9e4cc-b882-48f9-860d-7aefa48464b2","ios":"levelo://app?vid=bbf9e4cc-b882-48f9-860d-7aefa48464b2"},"vehicle_type_id":"4","last_reported":1746140972,"current_range_meters":16400,"station_id":"ce4bhf92rcd13ifvqf50","pricing_plan_id":"cebpf4jnsgd1na2vs0mg"},{"bike_id":"2bbadc02-40b7-4b1b-b86d-d0f654fd8a3c","system_id":"levelo_inurba_marseille","lat":43.287,"lon":5.3998,"is_reserved":false,"is_disabled":false,"rental_uris":{"android":"levelo://app?vid=2bbadc02-40b7-4b1b-b86d-d0f654fd8a3c","ios":"levelo://app?vid=2bbadc02-40b7-4b1b-b86d-d0f654fd8a3c"},"vehicle_type_id":"4","last_reported":1746140972,"current_range_meters":16400,"station_id":"ce4bho92rcd13ifvqh3g","pricing_plan_id":"cebpf4jnsgd1na2vs0mg"},{"bike_id":"6623491d-b23e-494a-b8f5-05f0c8a0d399","system_id":"levelo_inurba_marseille","lat":43.303319,"lon":5.404343,"is_reserved":false,"is_disabled":false,"rental_uris":{"android":"levelo://app?vid=6623491d-b23e-494a-b8f5-05f0c8a0d399","ios":"levelo://app?vid=6623491d-b23e-494a-b8f5-05f0c8a0d399"},"vehicle_type_id":"4","last_reported":1746140972,"current_range_meters":16400,"station_id":"ce4bh012rcd13ifvqd10","pricing_plan_id":"cebpf4jnsgd1na2vs0mg"},{"bike_id":"a441347f-6d3e-4ecb-8bf6-73429dab05ee","system_id":"levelo_inurba_marseille","lat":43.30927,"lon":5.401523,"is_reserved":false,"is_disabled":false,"rental_uris":{"android":"levelo://app?vid=a441347f-6d3e-4ecb-8bf6-73429dab05ee","ios":"levelo://app?vid=a441347f-6d3e-4ecb-8bf6-73429dab05ee"},"vehicle_type_id":"4","last_reported":1746140972,"current_range_meters":16400,"station_id":"ce4bgvp2rcd13ifvqct0","pricing_plan_id":"cebpf4jnsgd1na2vs0mg"},{"bike_id":"062763ac-59eb-4dfb-aa76-de9f18d6d07c","system_id":"levelo_inurba_marseille","lat":43.323425,"lon":5.406246,"is_reserved":false,"is_disabled":false,"rental_uris":{"android":"levelo://app?vid=062763ac-59eb-4dfb-aa76-de9f18d6d07c","ios":"levelo://app?vid=062763ac-59eb-4dfb-aa76-de9f18d6d07c"},"vehicle_type_id":"4","last_reported":1746140972,"current_range_meters":16400,"station_id":"ce4bhq92rcd13ifvqhjg","pricing_plan_id":"cebpf4jnsgd1na2vs0mg"},{"bike_id":"7ba1e347-53f9-4287-8c46-a0071ddce2f8","system_id":"levelo_inurba_marseille","lat":43.302505,"lon":5.400255,"is_reserved":false,"is_disabled":false,"rental_uris":{"android":"levelo://app?vid=7ba1e347-53f9-4287-8c46-a0071ddce2f8","ios":"levelo://app?vid=7ba1e347-53f9-4287-8c46-a0071ddce2f8"},"vehicle_type_id":"4","last_reported":1746140972,"current_range_meters":16800,"station_id":"ce4bgvh2rcd13ifvqcs0","pricing_plan_id":"cebpf4jnsgd1na2vs0mg"},{"bike_id":"924ebe6f-d3da-412d-b51d-9e4065478efe","system_id":"levelo_inurba_marseille","lat":43.32559,"lon":5.41472,"is_reserved":false,"is_disabled":false,"rental_uris":{"android":"levelo://app?vid=924ebe6f-d3da-412d-b51d-9e4065478efe","ios":"levelo://app?vid=924ebe6f-d3da-412d-b51d-9e4065478efe"},"vehicle_type_id":"4","last_reported":1746140972,"current_range_meters":16800,"station_id":"ce4bhq12rcd13ifvqhhg","pricing_plan_id":"cebpf4jnsgd1na2vs0mg"},{"bike_id":"43570242-c8cc-43fc-a26a-28bd415865fa","system_id":"levelo_inurba_marseille","lat":43.324913,"lon":5.365573,"is_reserved":false,"is_disabled":false,"rental_uris":{"android":"levelo://app?vid=43570242-c8cc-43fc-a26a-28bd415865fa","ios":"levelo://app?vid=43570242-c8cc-43fc-a26a-28bd415865fa"},"vehicle_type_id":"4","last_reported":1746140972,"current_range_meters":16800,"station_id":"ce4bhs12rcd13ifvqhvg","pricing_plan_id":"cebpf4jnsgd1na2vs0mg"},{"bike_id":"5dbd3bc2-11e1-402a-b1d0-2ac3cfc7fdf9","system_id":"levelo_inurba_marseille","lat":43.31266,"lon":5.40163,"is_reserved":false,"is_disabled":false,"rental_uris":{"android":"levelo://app?vid=5dbd3bc2-11e1-402a-b1d0-2ac3cfc7fdf9","ios":"levelo://app?vid=5dbd3bc2-11e1-402a-b1d0-2ac3cfc7fdf9"},"vehicle_type_id":"4","last_reported":1746140972,"current_range_meters":16800,"station_id":"ce4bh092rcd13ifvqd30","pricing_plan_id":"cebpf4jnsgd1na2vs0mg"},{"bike_id":"885ebf4c-7013-4e58-b94d-f7c2f633c0e9","system_id":"levelo_inurba_marseille","lat":43.29897,"lon":5.43672,"is_reserved":false,"is_disabled":false,"rental_uris":{"android":"levelo://app?vid=885ebf4c-7013-4e58-b94d-f7c2f633c0e9","ios":"levelo://app?vid=885ebf4c-7013-4e58-b94d-f7c2f633c0e9"},"vehicle_type_id":"4","last_reported":1746140972,"current_range_meters":16800,"station_id":"ce4bhpp2rcd13ifvqhfg","pricing_plan_id":"cebpf4jnsgd1na2vs0mg"},{"bike_id":"e67b03f2-4a83-4778-bb82-411130436f27","system_id":"levelo_inurba_marseille","lat":43.278328,"lon":5.392124,"is_reserved":false,"is_disabled":false,"rental_uris":{"android":"levelo://app?vid=e67b03f2-4a83-4778-bb82-411130436f27","ios":"levelo://app?vid=e67b03f2-4a83-4778-bb82-411130436f27"},"vehicle_type_id":"4","last_reported":1746140972,"current_range_meters":17200,"station_id":"ce4bhjp2rcd13ifvqga0","pricing_plan_id":"cebpf4jnsgd1na2vs0mg"},{"bike_id":"fea90467-7b9b-451d-849d-003674ab8347","system_id":"levelo_inurba_marseille","lat":43.27203,"lon":5.392,"is_reserved":false,"is_disabled":true,"rental_uris":{"android":"levelo://app?vid=fea90467-7b9b-451d-849d-003674ab8347","ios":"levelo://app?vid=fea90467-7b9b-451d-849d-003674ab8347"},"vehicle_type_id":"4","last_reported":1746140972,"current_range_meters":17200,"station_id":"ce4bhhp2rcd13ifvqfm0","pricing_plan_id":"cebpf4jnsgd1na2vs0mg"},{"bike_id":"da658829-0fa2-41f3-ad48-9d30aae08333","system_id":"levelo_inurba_marseille","lat":43.30573,"lon":5.39938,"is_reserved":false,"is_disabled":false,"rental_uris":{"android":"levelo://app?vid=da658829-0fa2-41f3-ad48-9d30aae08333","ios":"levelo://app?vid=da658829-0fa2-41f3-ad48-9d30aae08333"},"vehicle_type_id":"4","last_reported":1746140972,"current_range_meters":17200,"station_id":"","pricing_plan_id":"cebpf4jnsgd1na2vs0mg"},{"bike_id":"cdb5c586-f81c-4772-a04f-234da526a0f6","system_id":"levelo_inurba_marseille","lat":43.281057,"lon":5.378377,"is_reserved":false,"is_disabled":false,"rental_uris":{"android":"levelo://app?vid=cdb5c586-f81c-4772-a04f-234da526a0f6","ios":"levelo://app?vid=cdb5c586-f81c-4772-a04f-234da526a0f6"},"vehicle_type_id":"4","last_reported":1746140972,"current_range_meters":17200,"station_id":"ce4bha12rcd13ifvqee0","pricing_plan_id":"cebpf4jnsgd1na2vs0mg"},{"bike_id":"b5f431d2-6627-435a-971a-a344e82f47c9","system_id":"levelo_inurba_marseille","lat":43.30917,"lon":5.40162,"is_reserved":false,"is_disabled":false,"rental_uris":{"android":"levelo://app?vid=b5f431d2-6627-435a-971a-a344e82f47c9","ios":"levelo://app?vid=b5f431d2-6627-435a-971a-a344e82f47c9"},"vehicle_type_id":"4","last_reported":1746140972,"current_range_meters":17200,"station_id":"ce4bgvp2rcd13ifvqct0","pricing_plan_id":"cebpf4jnsgd1na2vs0mg"},{"bike_id":"5df0f82b-f3fc-4428-8539-f9699aeaf67f","system_id":"levelo_inurba_marseille","lat":43.29278,"lon":5.40123,"is_reserved":false,"is_disabled":false,"rental_uris":{"android":"levelo://app?vid=5df0f82b-f3fc-4428-8539-f9699aeaf67f","ios":"levelo://app?vid=5df0f82b-f3fc-4428-8539-f9699aeaf67f"},"vehicle_type_id":"4","last_reported":1746140972,"current_range_meters":17200,"station_id":"ce4bh312rcd13ifvqdk0","pricing_plan_id":"cebpf4jnsgd1na2vs0mg"},{"bike_id":"cb5c903d-802e-4833-a504-baf4fa254555","system_id":"levelo_inurba_marseille","lat":43.27423,"lon":5.39426,"is_reserved":false,"is_disabled":false,"rental_uris":{"android":"levelo://app?vid=cb5c903d-802e-4833-a504-baf4fa254555","ios":"levelo://app?vid=cb5c903d-802e-4833-a504-baf4fa254555"},"vehicle_type_id":"4","last_reported":1746140972,"current_range_meters":17200,"station_id":"ce4bhdp2rcd13ifvqf20","pricing_plan_id":"cebpf4jnsgd1na2vs0mg"},{"bike_id":"38b512de-66ad-4824-8d38-f5b32115b646","system_id":"levelo_inurba_marseille","lat":43.30887,"lon":5.3963,"is_reserved":false,"is_disabled":false,"rental_uris":{"android":"levelo://app?vid=38b512de-66ad-4824-8d38-f5b32115b646","ios":"levelo://app?vid=38b512de-66ad-4824-8d38-f5b32115b646"},"vehicle_type_id":"4","last_reported":1746140972,"current_range_meters":17600,"station_id":"ce4bh012rcd13ifvqcv0","pricing_plan_id":"cebpf4jnsgd1na2vs0mg"},{"bike_id":"fc4c4e12-8bd1-4978-b004-eee184fc087d","system_id":"levelo_inurba_marseille","lat":43.316881,"lon":5.404707,"is_reserved":false,"is_disabled":false,"rental_uris":{"android":"levelo://app?vid=fc4c4e12-8bd1-4978-b004-eee184fc087d","ios":"levelo://app?vid=fc4c4e12-8bd1-4978-b004-eee184fc087d"},"vehicle_type_id":"4","last_reported":1746140972,"current_range_meters":17600,"station_id":"ce4bh012rcd13ifvqd00","pricing_plan_id":"cebpf4jnsgd1na2vs0mg"},{"bike_id":"ce95be70-9be6-4135-bbf9-03ec2dc887f0","system_id":"levelo_inurba_marseille","lat":43.32276,"lon":5.38292,"is_reserved":false,"is_disabled":false,"rental_uris":{"android":"levelo://app?vid=ce95be70-9be6-4135-bbf9-03ec2dc887f0","ios":"levelo://app?vid=ce95be70-9be6-4135-bbf9-03ec2dc887f0"},"vehicle_type_id":"4","last_reported":1746140972,"current_range_meters":17600,"station_id":"ce4bhr12rcd13ifvqhqg","pricing_plan_id":"cebpf4jnsgd1na2vs0mg"},{"bike_id":"2bc95b1b-bdcb-40d6-b304-8b84fb2bac92","system_id":"levelo_inurba_marseille","lat":43.30648,"lon":5.40066,"is_reserved":false,"is_disabled":false,"rental_uris":{"android":"levelo://app?vid=2bc95b1b-bdcb-40d6-b304-8b84fb2bac92","ios":"levelo://app?vid=2bc95b1b-bdcb-40d6-b304-8b84fb2bac92"},"vehicle_type_id":"4","last_reported":1746140972,"current_range_meters":17600,"station_id":"ce4bh112rcd13ifvqda0","pricing_plan_id":"cebpf4jnsgd1na2vs0mg"},{"bike_id":"d5b5fc88-15cf-47b2-89c6-38929084bc48","system_id":"levelo_inurba_marseille","lat":43.306,"lon":5.37207,"is_reserved":false,"is_disabled":false,"rental_uris":{"android":"levelo://app?vid=d5b5fc88-15cf-47b2-89c6-38929084bc48","ios":"levelo://app?vid=d5b5fc88-15cf-47b2-89c6-38929084bc48"},"vehicle_type_id":"4","last_reported":1746140972,"current_range_meters":18000,"station_id":"ce4bgqh2rcd13ifvqc4g","pricing_plan_id":"cebpf4jnsgd1na2vs0mg"},{"bike_id":"2df5fd02-87ab-45e1-835c-dba4ad09927e","system_id":"levelo_inurba_marseille","lat":43.28715,"lon":5.39987,"is_reserved":false,"is_disabled":false,"rental_uris":{"android":"levelo://app?vid=2df5fd02-87ab-45e1-835c-dba4ad09927e","ios":"levelo://app?vid=2df5fd02-87ab-45e1-835c-dba4ad09927e"},"vehicle_type_id":"4","last_reported":1746140972,"current_range_meters":18000,"station_id":"ce4bho92rcd13ifvqh3g","pricing_plan_id":"cebpf4jnsgd1na2vs0mg"},{"bike_id":"4b2069b6-a1e2-411d-a04c-bc77d00af722","system_id":"levelo_inurba_marseille","lat":43.28563,"lon":5.394907,"is_reserved":false,"is_disabled":false,"rental_uris":{"android":"levelo://app?vid=4b2069b6-a1e2-411d-a04c-bc77d00af722","ios":"levelo://app?vid=4b2069b6-a1e2-411d-a04c-bc77d00af722"},"vehicle_type_id":"4","last_reported":1746140972,"current_range_meters":18000,"station_id":"ce4bh292rcd13ifvqdg0","pricing_plan_id":"cebpf4jnsgd1na2vs0mg"},{"bike_id":"408d0f78-822b-459f-b640-c83ccd645bfe","system_id":"levelo_inurba_marseille","lat":43.31479,"lon":5.37308,"is_reserved":false,"is_disabled":false,"rental_uris":{"android":"levelo://app?vid=408d0f78-822b-459f-b640-c83ccd645bfe","ios":"levelo://app?vid=408d0f78-822b-459f-b640-c83ccd645bfe"},"vehicle_type_id":"4","last_reported":1746140972,"current_range_meters":18000,"station_id":"ce4bgt12rcd13ifvqcd0","pricing_plan_id":"cebpf4jnsgd1na2vs0mg"},{"bike_id":"1c94f752-ee7f-428e-bea8-26ff579422e0","system_id":"levelo_inurba_marseille","lat":43.287042,"lon":5.399869,"is_reserved":false,"is_disabled":false,"rental_uris":{"android":"levelo://app?vid=1c94f752-ee7f-428e-bea8-26ff579422e0","ios":"levelo://app?vid=1c94f752-ee7f-428e-bea8-26ff579422e0"},"vehicle_type_id":"4","last_reported":1746140972,"current_range_meters":18000,"station_id":"ce4bho92rcd13ifvqh3g","pricing_plan_id":"cebpf4jnsgd1na2vs0mg"},{"bike_id":"14498fc5-0949-4dab-96dd-86f8d2d8b6ad","system_id":"levelo_inurba_marseille","lat":43.310823,"lon":5.424224,"is_reserved":false,"is_disabled":false,"rental_uris":{"android":"levelo://app?vid=14498fc5-0949-4dab-96dd-86f8d2d8b6ad","ios":"levelo://app?vid=14498fc5-0949-4dab-96dd-86f8d2d8b6ad"},"vehicle_type_id":"4","last_reported":1746140972,"current_range_meters":18000,"station_id":"ce4bhp92rcd13ifvqhag","pricing_plan_id":"cebpf4jnsgd1na2vs0mg"},{"bike_id":"62fc1478-ce03-4adc-b678-8c16d589c336","system_id":"levelo_inurba_marseille","lat":43.31119,"lon":5.37746,"is_reserved":false,"is_disabled":false,"rental_uris":{"android":"levelo://app?vid=62fc1478-ce03-4adc-b678-8c16d589c336","ios":"levelo://app?vid=62fc1478-ce03-4adc-b678-8c16d589c336"},"vehicle_type_id":"4","last_reported":1746140972,"current_range_meters":18000,"station_id":"ce4bgt92rcd13ifvqcg0","pricing_plan_id":"cebpf4jnsgd1na2vs0mg"},{"bike_id":"145d0b24-35be-4a46-91fe-a8aa44de497b","system_id":"levelo_inurba_marseille","lat":43.25109,"lon":5.4032,"is_reserved":false,"is_disabled":false,"rental_uris":{"android":"levelo://app?vid=145d0b24-35be-4a46-91fe-a8aa44de497b","ios":"levelo://app?vid=145d0b24-35be-4a46-91fe-a8aa44de497b"},"vehicle_type_id":"4","last_reported":1746140972,"current_range_meters":18000,"station_id":"ce4bhlh2rcd13ifvqgig","pricing_plan_id":"cebpf4jnsgd1na2vs0mg"},{"bike_id":"121322ff-1b29-4a85-88c0-1ab0c6c2dfb6","system_id":"levelo_inurba_marseille","lat":43.32482,"lon":5.36576,"is_reserved":false,"is_disabled":false,"rental_uris":{"android":"levelo://app?vid=121322ff-1b29-4a85-88c0-1ab0c6c2dfb6","ios":"levelo://app?vid=121322ff-1b29-4a85-88c0-1ab0c6c2dfb6"},"vehicle_type_id":"4","last_reported":1746140972,"current_range_meters":18000,"station_id":"ce4bhs12rcd13ifvqhvg","pricing_plan_id":"cebpf4jnsgd1na2vs0mg"},{"bike_id":"da178549-fec5-41e6-a279-aab50a87d02c","system_id":"levelo_inurba_marseille","lat":43.30605,"lon":5.37231,"is_reserved":false,"is_disabled":true,"rental_uris":{"android":"levelo://app?vid=da178549-fec5-41e6-a279-aab50a87d02c","ios":"levelo://app?vid=da178549-fec5-41e6-a279-aab50a87d02c"},"vehicle_type_id":"4","last_reported":1746140972,"current_range_meters":18800,"station_id":"ce4bgqh2rcd13ifvqc4g","pricing_plan_id":"cebpf4jnsgd1na2vs0mg"},