{"last_updated":1745691155,"ttl":60,"version":"2.2","data":{"bikes":[{"bike_id":"8f1f84a8-8b3e-4367-aaae-24597a10a4b0","system_id":"levelo_inurba_marseille","lat":43.26822,"lon":5.4269,"is_reserved":false,"is_disabled":false,"rental_uris":{"android":"levelo://app?vid=8f1f84a8-8b3e-4367-aaae-24597a10a4b0","ios":"levelo://app?vid=8f1f84a8-8b3e-4367-aaae-24597a10a4b0"},"vehicle_type_id":"4","last_reported":1745691155,"current_range_meters":2800,"station_id":"","pricing_plan_id":"cebpf4jnsgd1na2vs0mg"},{"bike_id":"9de69f74-e703-4f11-ac28-aea62c2bad49","system_id":"levelo_inurba_marseille","lat":43.309479,"lon":5.39036,"is_reserved":false,"is_disabled":true,"rental_uris":{"android":"levelo://app?vid=9de69f74-e703-4f11-ac28-aea62c2bad49","ios":"levelo://app?vid=9de69f74-e703-4f11-ac28-aea62c2bad49"},"vehicle_type_id":"4","last_reported":1745691155,"current_range_meters":3200,"station_id":"ce4bgup2rcd13ifvqco0","pricing_plan_id":"cebpf4jnsgd1na2vs0mg"},{"bike_id":"9d695ebf-2227-48d6-9e07-c4274f7eb642","system_id":"levelo_inurba_marseille","lat":43.30978,"lon":5.38941,"is_reserved":false,"is_disabled":false,"rental_uris":{"android":"levelo://app?vid=9d695ebf-2227-48d6-9e07-c4274f7eb642","ios":"levelo://app?vid=9d695ebf-2227-48d6-9e07-c4274f7eb642"},"vehicle_type_id":"4","last_reported":1745691155,"current_range_meters":3200,"station_id":"","pricing_plan_id":"cebpf4jnsgd1na2vs0mg"},{"bike_id":"e99e6315-2751-4329-ad7b-f9d19f8ec3ef","system_id":"levelo_inurba_marseille","lat":43.28155,"lon":5.42648,"is_reserved":false,"is_disabled":false,"rental_uris":{"android":"levelo://app?vid=e99e6315-2751-4329-ad7b-f9d19f8ec3ef","ios":"levelo://app?vid=e99e6315-2751-4329-ad7b-f9d19f8ec3ef"},"vehicle_type_id":"4","last_reported":1745691155,"current_range_meters":3200,"station_id":"ce4bhnh2rcd13ifvqgug","pricing_plan_id":"cebpf4jnsgd1na2vs0mg"},{"bike_id":"06d048b7-7c5c-4a1c-a7e0-45ae5a720ca9","system_id":"levelo_inurba_marseille","lat":43.25871,"lon":5.39894,"is_reserved":false,"is_disabled":false,"rental_uris":{"android":"levelo://app?vid=06d048b7-7c5c-4a1c-a7e0-45ae5a720ca9","ios":"levelo://app?vid=06d048b7-7c5c-4a1c-a7e0-45ae5a720ca9"},"vehicle_type_id":"4","last_reported":1745691155,"current_range_meters":3600,"station_id":"ce4bhl92rcd13ifvqghg","pricing_plan_id":"cebpf4jnsgd1na2vs0mg"},{"bike_id":"aaf713ff-e5bf-498f-9851-046ca791c0e2","system_id":"levelo_inurba_marseille","lat":43.27185,"lon":5.40988,"is_reserved":false,"is_disabled":false,"rental_uris":{"android":"levelo://app?vid=aaf713ff-e5bf-498f-9851-046ca791c0e2","ios":"levelo://app?vid=aaf713ff-e5bf-498f-9851-046ca791c0e2"},"vehicle_type_id":"4","last_reported":1745691155,"current_range_meters":3600,"station_id":"ce4bhl12rcd13ifvqgf0","pricing_plan_id":"cebpf4jnsgd1na2vs0mg"},{"bike_id":"359d6bb3-6754-44a1-bf2d-5b2bdf5ec3a2","system_id":"levelo_inurba_marseille","lat":43.27968,"lon":5.38759,"is_reserved":false,"is_disabled":false,"rental_uris":{"android":"levelo://app?vid=359d6bb3-6754-44a1-bf2d-5b2bdf5ec3a2","ios":"levelo://app?vid=359d6bb3-6754-44a1-bf2d-5b2bdf5ec3a2"},"vehicle_type_id":"4","last_reported":1745691155,"current_range_meters":3600,"station_id":"ce4bhg12rcd13ifvqf80","pricing_plan_id":"cebpf4jnsgd1na2vs0mg"},{"bike_id":"4e7fa7b4-9dc4-4dbc-8757-9e9222105b4f","system_id":"levelo_inurba_marseille","lat":43.24818,"lon":5.37454,"is_reserved":false,"is_disabled":false,"rental_uris":{"android":"levelo://app?vid=4e7fa7b4-9dc4-4dbc-8757-9e9222105b4f","ios":"levelo://app?vid=4e7fa7b4-9dc4-4dbc-8757-9e9222105b4f"},"vehicle_type_id":"4","last_reported":1745691155,"current_range_meters":3600,"station_id":"ce4bhgh2rcd13ifvqfb0","pricing_plan_id":"cebpf4jnsgd1na2vs0mg"},{"bike_id":"f07486fd-1d7a-4601-9dee-970f35d7ac08","system_id":"levelo_inurba_marseille","lat":43.27946,"lon":5.41051,"is_reserved":false,"is_disabled":false,"rental_uris":{"android":"levelo://app?vid=f07486fd-1d7a-4601-9dee-970f35d7ac08","ios":"levelo://app?vid=f07486fd-1d7a-4601-9dee-970f35d7ac08"},"vehicle_type_id":"4","last_reported":1745691155,"current_range_meters":3600,"station_id":"ce4bhnp2rcd13ifvqh0g","pricing_plan_id":"cebpf4jnsgd1na2vs0mg"},{"bike_id":"327fa908-fafe-40ae-b97e-12862a152f1f","system_id":"levelo_inurba_marseille","lat":43.27628,"lon":5.39309,"is_reserved":false,"is_disabled":false,"rental_uris":{"android":"levelo://app?vid=327fa908-fafe-40ae-b97e-12862a152f1f","ios":"levelo://app?vid=327fa908-fafe-40ae-b97e-12862a152f1f"},"vehicle_type_id":"4","last_reported":1745691155,"current_range_meters":4400,"station_id":"","pricing_plan_id":"cebpf4jnsgd1na2vs0mg"},{"bike_id":"894983da-55ef-4bff-87ff-939a4641fa35","system_id":"levelo_inurba_marseille","lat":43.30609,"lon":5.39358,"is_reserved":false,"is_disabled":false,"rental_uris":{"android":"levelo://app?vid=894983da-55ef-4bff-87ff-939a4641fa35","ios":"levelo://app?vid=894983da-55ef-4bff-87ff-939a4641fa35"},"vehicle_type_id":"4","last_reported":1745691155,"current_range_meters":4000,"station_id":"ce4bh0p2rcd13ifvqd80","pricing_plan_id":"cebpf4jnsgd1na2vs0mg"},{"bike_id":"144232dc-fbfe-4f72-aba3-3450a87576a4","system_id":"levelo_inurba_marseille","lat":43.29835,"lon":5.38537,"is_reserved":false,"is_disabled":false,"rental_uris":{"android":"levelo://app?vid=144232dc-fbfe-4f72-aba3-3450a87576a4","ios":"levelo://app?vid=144232dc-fbfe-4f72-aba3-3450a87576a4"},"vehicle_type_id":"4","last_reported":1745691155,"current_range_meters":4000,"station_id":"","pricing_plan_id":"cebpf4jnsgd1na2vs0mg"},{"bike_id":"1746265e-27ad-4913-8a06-b6dc5372d844","system_id":"levelo_inurba_marseille","lat":43.2599,"lon":5.37519,"is_reserved":false,"is_disabled":false,"rental_uris":{"android":"levelo://app?vid=1746265e-27ad-4913-8a06-b6dc5372d844","ios":"levelo://app?vid=1746265e-27ad-4913-8a06-b6dc5372d844"},"vehicle_type_id":"4","last_reported":1745691155,"current_range_meters":4400,"station_id":"ce4bhgh2rcd13ifvqfa0","pricing_plan_id":"cebpf4jnsgd1na2vs0mg"},{"bike_id":"aca4a498-4a9f-4408-aedb-b86cd2716c20","system_id":"levelo_inurba_marseille","lat":43.33121,"lon":5.38656,"is_reserved":false,"is_disabled":false,"rental_uris":{"android":"levelo://app?vid=aca4a498-4a9f-4408-aedb-b86cd2716c20","ios":"levelo://app?vid=aca4a498-4a9f-4408-aedb-b86cd2716c20"},"vehicle_type_id":"4","last_reported":1745691155,"current_range_meters":4400,"station_id":"","pricing_plan_id":"cebpf4jnsgd1na2vs0mg"},{"bike_id":"a84dda67-2771-448f-9f2c-69a47019d774","system_id":"levelo_inurba_marseille","lat":43.33625,"lon":5.40997,"is_reserved":false,"is_disabled":true,"rental_uris":{"android":"levelo://app?vid=a84dda67-2771-448f-9f2c-69a47019d774","ios":"levelo://app?vid=a84dda67-2771-448f-9f2c-69a47019d774"},"vehicle_type_id":"4","last_reported":1745691155,"current_range_meters":4400,"station_id":"ce4bhqh2rcd13ifvqhmg","pricing_plan_id":"cebpf4jnsgd1na2vs0mg"},{"bike_id":"48fa50f9-2f97-4342-a5eb-e980a1f33b74","system_id":"levelo_inurba_marseille","lat":43.270532,"lon":5.402608,"is_reserved":false,"is_disabled":false,"rental_uris":{"android":"levelo://app?vid=48fa50f9-2f97-4342-a5eb-e980a1f33b74","ios":"levelo://app?vid=48fa50f9-2f97-4342-a5eb-e980a1f33b74"},"vehicle_type_id":"4","last_reported":1745691155,"current_range_meters":4400,"station_id":"ce4bhk92rcd13ifvqgc0","pricing_plan_id":"cebpf4jnsgd1na2vs0mg"},{"bike_id":"4eaa6337-d523-421b-a34b-989081745050","system_id":"levelo_inurba_marseille","lat":43.292,"lon":5.39323,"is_reserved":false,"is_disabled":false,"rental_uris":{"android":"levelo://app?vid=4eaa6337-d523-421b-a34b-989081745050","ios":"levelo://app?vid=4eaa6337-d523-421b-a34b-989081745050"},"vehicle_type_id":"4","last_reported":1745691155,"current_range_meters":4800,"station_id":"ce4bh192rcd13ifvqdd0","pricing_plan_id":"cebpf4jnsgd1na2vs0mg"},{"bike_id":"6d0a61fc-518d-48e6-b383-0cc8c0395f0a","system_id":"levelo_inurba_marseille","lat":43.24213,"lon":5.36394,"is_reserved":false,"is_disabled":false,"rental_uris":{"android":"levelo://app?vid=6d0a61fc-518d-48e6-b383-0cc8c0395f0a","ios":"levelo://app?vid=6d0a61fc-518d-48e6-b383-0cc8c0395f0a"},"vehicle_type_id":"4","last_reported":1745691155,"current_range_meters":4800,"station_id":"cpo36qri1sfpv3e86is0","pricing_plan_id":"cebpf4jnsgd1na2vs0mg"},{"bike_id":"17dc4660-118a-4b23-a492-9dfe862175ac","system_id":"levelo_inurba_marseille","lat":43.26202,"lon":5.37454,"is_reserved":false,"is_disabled":false,"rental_uris":{"android":"levelo://app?vid=17dc4660-118a-4b23-a492-9dfe862175ac","ios":"levelo://app?vid=17dc4660-118a-4b23-a492-9dfe862175ac"},"vehicle_type_id":"4","last_reported":1745691155,"current_range_meters":4800,"station_id":"ce4bhgp2rcd13ifvqfc0","pricing_plan_id":"cebpf4jnsgd1na2vs0mg"},{"bike_id":"ae1f32bd-dea3-4e8c-80dc-64ad55573aeb","system_id":"levelo_inurba_marseille","lat":43.30362,"lon":5.42382,"is_reserved":false,"is_disabled":false,"rental_uris":{"android":"levelo://app?vid=ae1f32bd-dea3-4e8c-80dc-64ad55573aeb","ios":"levelo://app?vid=ae1f32bd-dea3-4e8c-80dc-64ad55573aeb"},"vehicle_type_id":"4","last_reported":1745691155,"current_range_meters":4800,"station_id":"","pricing_plan_id":"cebpf4jnsgd1na2vs0mg"},{"bike_id":"bd67eacb-0331-414f-b537-036a9b78cc47","system_id":"levelo_inurba_marseille","lat":43.28571,"lon":5.39503,"is_reserved":false,"is_disabled":false,"rental_uris":{"android":"levelo://app?vid=bd67eacb-0331-414f-b537-036a9b78cc47","ios":"levelo://app?vid=bd67eacb-0331-414f-b537-036a9b78cc47"},"vehicle_type_id":"4","last_reported":1745691155,"current_range_meters":4800,"station_id":"ce4bh292rcd13ifvqdg0","pricing_plan_id":"cebpf4jnsgd1na2vs0mg"},{"bike_id":"524b28db-8c1d-4247-9197-cdccfa5ad4f6","system_id":"levelo_inurba_marseille","lat":43.27993,"lon":5.38751,"is_reserved":false,"is_disabled":false,"rental_uris":{"android":"levelo://app?vid=524b28db-8c1d-4247-9197-cdccfa5ad4f6","ios":"levelo://app?vid=524b28db-8c1d-4247-9197-cdccfa5ad4f6"},"vehicle_type_id":"4","last_reported":1745691155,"current_range_meters":4800,"station_id":"ce4bhg12rcd13ifvqf80","pricing_plan_id":"cebpf4jnsgd1na2vs0mg"},{"bike_id":"72ae67fc-0ff5-41d0-b65d-20a1832707ac","system_id":"levelo_inurba_marseille","lat":43.24806,"lon":5.37447,"is_reserved":false,"is_disabled":false,"rental_uris":{"android":"levelo://app?vid=72ae67fc-0ff5-41d0-b65d-20a1832707ac","ios":"levelo://app?vid=72ae67fc-0ff5-41d0-b65d-20a1832707ac"},"vehicle_type_id":"4","last_reported":1745691155,"current_range_meters":4800,"station_id":"ce4bhgh2rcd13ifvqfb0","pricing_plan_id":"cebpf4jnsgd1na2vs0mg"},{"bike_id":"84181c3d-0a54-4904-988b-3aa997f3cd71","system_id":"levelo_inurba_marseille","lat":43.26027,"lon":5.37554,"is_reserved":false,"is_disabled":false,"rental_uris":{"android":"levelo://app?vid=84181c3d-0a54-4904-988b-3aa997f3cd71","ios":"levelo://app?vid=84181c3d-0a54-4904-988b-3aa997f3cd71"},"vehicle_type_id":"4","last_reported":1745691155,"current_range_meters":4800,"station_id":"ce4bhgh2rcd13ifvqfa0","pricing_plan_id":"cebpf4jnsgd1na2vs0mg"},{"bike_id":"eaf025ec-3ee8-4684-a228-5103847cf3ac","system_id":"levelo_inurba_marseille","lat":43.27611,"lon":5.36114,"is_reserved":false,"is_disabled":false,"rental_uris":{"android":"levelo://app?vid=eaf025ec-3ee8-4684-a228-5103847cf3ac","ios":"levelo://app?vid=eaf025ec-3ee8-4684-a228-5103847cf3ac"},"vehicle_type_id":"4","last_reported":1745691155,"current_range_meters":4800,"station_id":"ce4bgj92rcd13ifvqbe0","pricing_plan_id":"cebpf4jnsgd1na2vs0mg"},{"bike_id":"2c4690b7-17cf-4937-86a4-423e9fd34a61","system_id":"levelo_inurba_marseille","lat":43.26224,"lon":5.40451,"is_reserved":false,"is_disabled":false,"rental_uris":{"android":"levelo://app?vid=2c4690b7-17cf-4937-86a4-423e9fd34a61","ios":"levelo://app?vid=2c4690b7-17cf-4937-86a4-423e9fd34a61"},"vehicle_type_id":"4","last_reported":1745691155,"current_range_meters":4800,"station_id":"ce4bhmh2rcd13ifvqgmg","pricing_plan_id":"cebpf4jnsgd1na2vs0mg"},{"bike_id":"2ed3acad-be2b-47bc-bb16-dd14b09ebd94","system_id":"levelo_inurba_marseille","lat":43.24532,"lon":5.39519,"is_reserved":false,"is_disabled":false,"rental_uris":{"android":"levelo://app?vid=2ed3acad-be2b-47bc-bb16-dd14b09ebd94","ios":"levelo://app?vid=2ed3acad-be2b-47bc-bb16-dd14b09ebd94"},"vehicle_type_id":"4","last_reported":1745691155,"current_range_meters":5600,"station_id":"ce4bhlp2rcd13ifvqgjg","pricing_plan_id":"cebpf4jnsgd1na2vs0mg"},{"bike_id":"8e1b7f9c-15cd-4196-9a56-b8c9c867228b","system_id":"levelo_inurba_marseille","lat":43.262193,"lon":5.37445,"is_reserved":false,"is_disabled":false,"rental_uris":{"android":"levelo://app?vid=8e1b7f9c-15cd-4196-9a56-b8c9c867228b","ios":"levelo://app?vid=8e1b7f9c-15cd-4196-9a56-b8c9c867228b"},"vehicle_type_id":"4","last_reported":1745691155,"current_range_meters":5600,"station_id":"ce4bhgp2rcd13ifvqfc0","pricing_plan_id":"cebpf4jnsgd1na2vs0mg"},{"bike_id":"fcddd32a-71f9-41b4-a1cc-f32582f63a00","system_id":"levelo_inurba_marseille","lat":43.30817,"lon":5.37663,"is_reserved":false,"is_disabled":false,"rental_uris":{"android":"levelo://app?vid=fcddd32a-71f9-41b4-a1cc-f32582f63a00","ios":"levelo://app?vid=fcddd32a-71f9-41b4-a1cc-f32582f63a00"},"vehicle_type_id":"4","last_reported":1745691155,"current_range_meters":5600,"station_id":"","pricing_plan_id":"cebpf4jnsgd1na2vs0mg"},{"bike_id":"6c275dc0-b70a-418e-b5e4-23ec9392b7d3","system_id":"levelo_inurba_marseille","lat":43.25821,"lon":5.3944,"is_reserved":false,"is_disabled":false,"rental_uris":{"android":"levelo://app?vid=6c275dc0-b70a-418e-b5e4-23ec9392b7d3","ios":"levelo://app?vid=6c275dc0-b70a-418e-b5e4-23ec9392b7d3"},"vehicle_type_id":"4","last_reported":1745691155,"current_range_meters":5600,"station_id":"ce4bhip2rcd13ifvqft0","pricing_plan_id":"cebpf4jnsgd1na2vs0mg"},{"bike_id":"6d91a8dc-ba91-4e59-90e6-05e9199e8291","system_id":"levelo_inurba_marseille","lat":43.26232,"lon":5.40456,"is_reserved":false,"is_disabled":false,"rental_uris":{"android":"levelo://app?vid=6d91a8dc-ba91-4e59-90e6-05e9199e8291","ios":"levelo://app?vid=6d91a8dc-ba91-4e59-90e6-05e9199e8291"},"vehicle_type_id":"4","last_reported":1745691155,"current_range_meters":5600,"station_id":"ce4bhmh2rcd13ifvqgmg","pricing_plan_id":"cebpf4jnsgd1na2vs0mg"},{"bike_id":"c8e93441-afed-44cf-861a-2b37b6fc0a03","system_id":"levelo_inurba_marseille","lat":43.29036,"lon":5.39959,"is_reserved":false,"is_disabled":false,"rental_uris":{"android":"levelo://app?vid=c8e93441-afed-44cf-861a-2b37b6fc0a03","ios":"levelo://app?vid=c8e93441-afed-44cf-861a-2b37b6fc0a03"},"vehicle_type_id":"4","last_reported":1745691155,"current_range_meters":5600,"station_id":"ce4bh392rcd13ifvqdm0","pricing_plan_id":"cebpf4jnsgd1na2vs0mg"},{"bike_id":"4beff9f3-b822-4696-9312-73bb1554a7be","system_id":"levelo_inurba_marseille","lat":43.29268,"lon":5.38425,"is_reserved":false,"is_disabled":false,"rental_uris":{"android":"levelo://app?vid=4beff9f3-b822-4696-9312-73bb1554a7be","ios":"levelo://app?vid=4beff9f3-b822-4696-9312-73bb1554a7be"},"vehicle_type_id":"4","last_reported":1745691155,"current_range_meters":6000,"station_id":"ce4bh692rcd13ifvqea0","pricing_plan_id":"cebpf4jnsgd1na2vs0mg"},{"bike_id":"85cf4e7d-97c4-43d0-a77d-04ca2207c941","system_id":"levelo_inurba_marseille","lat":43.22937,"lon":5.35376,"is_reserved":false,"is_disabled":false,"rental_uris":{"android":"levelo://app?vid=85cf4e7d-97c4-43d0-a77d-04ca2207c941","ios":"levelo://app?vid=85cf4e7d-97c4-43d0-a77d-04ca2207c941"},"vehicle_type_id":"4","last_reported":1745691155,"current_range_meters":6000,"station_id":"cpo3532slgdg3j2ikp40","pricing_plan_id":"cebpf4jnsgd1na2vs0mg"},{"bike_id":"74bf1832-a389-491d-9cf1-c0544e13bc20","system_id":"levelo_inurba_marseille","lat":43.274957,"lon":5.424395,"is_reserved":false,"is_disabled":false,"rental_uris":{"android":"levelo://app?vid=74bf1832-a389-491d-9cf1-c0544e13bc20","ios":"levelo://app?vid=74bf1832-a389-491d-9cf1-c0544e13bc20"},"vehicle_type_id":"4","last_reported":1745691155,"current_range_meters":6000,"station_id":"ce4bhn92rcd13ifvqgrg","pricing_plan_id":"cebpf4jnsgd1na2vs0mg"},{"bike_id":"e6e33fa4-7bb5-473b-9348-92f8b2e191f9","system_id":"levelo_inurba_marseille","lat":43.26782,"lon":5.39421,"is_reserved":false,"is_disabled":false,"rental_uris":{"android":"levelo://app?vid=e6e33fa4-7bb5-473b-9348-92f8b2e191f9","ios":"levelo://app?vid=e6e33fa4-7bb5-473b-9348-92f8b2e191f9"},"vehicle_type_id":"4","last_reported":1745691155,"current_range_meters":6000,"station_id":"ce4bhh12rcd13ifvqfg0","pricing_plan_id":"cebpf4jnsgd1na2vs0mg"},{"bike_id":"e93de144-e532-4548-a4ae-b83343a1da89","system_id":"levelo_inurba_marseille","lat":43.30598,"lon":5.39365,"is_reserved":false,"is_disabled":false,"rental_uris":{"android":"levelo://app?vid=e93de144-e532-4548-a4ae-b83343a1da89","ios":"levelo://app?vid=e93de144-e532-4548-a4ae-b83343a1da89"},"vehicle_type_id":"4","last_reported":1745691155,"current_range_meters":6000,"station_id":"ce4bh0p2rcd13ifvqd80","pricing_plan_id":"cebpf4jnsgd1na2vs0mg"},{"bike_id":"7ee6a28b-5100-4d29-bd09-20c89b9ddd53","system_id":"levelo_inurba_marseille","lat":43.29916,"lon":5.37471,"is_reserved":false,"is_disabled":false,"rental_uris":{"android":"levelo://app?vid=7ee6a28b-5100-4d29-bd09-20c89b9ddd53","ios":"levelo://app?vid=7ee6a28b-5100-4d29-bd09-20c89b9ddd53"},"vehicle_type_id":"4","last_reported":1745691155,"current_range_meters":6400,"station_id":"ce4bgjh2rcd13ifvqbg0","pricing_plan_id":"cebpf4jnsgd1na2vs0mg"},{"bike_id":"d1ff7e34-d25d-4063-9648-2bd4db47424f","system_id":"levelo_inurba_marseille","lat":43.32455,"lon":5.39145,"is_reserved":false,"is_disabled":false,"rental_uris":{"android":"levelo://app?vid=d1ff7e34-d25d-4063-9648-2bd4db47424f","ios":"levelo://app?vid=d1ff7e34-d25d-4063-9648-2bd4db47424f"},"vehicle_type_id":"4","last_reported":1745691155,"current_range_meters":6400,"station_id":"","pricing_plan_id":"cebpf4jnsgd1na2vs0mg"},{"bike_id":"422b5989-c8b6-43aa-b2b9-3bfeb2e1ddc0","system_id":"levelo_inurba_marseille","lat":43.24715,"lon":5.411735,"is_reserved":false,"is_disabled":false,"rental_uris":{"android":"levelo://app?vid=422b5989-c8b6-43aa-b2b9-3bfeb2e1ddc0","ios":"levelo://app?vid=422b5989-c8b6-43aa-b2b9-3bfeb2e1ddc0"},"vehicle_type_id":"4","last_reported":1745691155,"current_range_meters":6800,"station_id":"","pricing_plan_id":"cebpf4jnsgd1na2vs0mg"},{"bike_id":"6ef2f012-e326-402b-905b-b6af5ea1bbf3","system_id":"levelo_inurba_marseille","lat":43.28725,"lon":5.36091,"is_reserved":false,"is_disabled":false,"rental_uris":{"android":"levelo://app?vid=6ef2f012-e326-402b-905b-b6af5ea1bbf3","ios":"levelo://app?vid=6ef2f012-e326-402b-905b-b6af5ea1bbf3"},"vehicle_type_id":"4","last_reported":1745691155,"current_range_meters":6800,"station_id":"cki0cbj6b192h4jlfktg","pricing_plan_id":"cebpf4jnsgd1na2vs0mg"},{"bike_id":"cbd5e2b4-8894-4637-811e-563a03d1e5e0","system_id":"levelo_inurba_marseille","lat":43.24173,"lon":5.39729,"is_reserved":false,"is_disabled":false,"rental_uris":{"android":"levelo://app?vid=cbd5e2b4-8894-4637-811e-563a03d1e5e0","ios":"levelo://app?vid=cbd5e2b4-8894-4637-811e-563a03d1e5e0"},"vehicle_type_id":"4","last_reported":1745691155,"current_range_meters":6800,"station_id":"ce4bhn12rcd13ifvqgpg","pricing_plan_id":"cebpf4jnsgd1na2vs0mg"},{"bike_id":"0510ed08-e634-4528-97cc-a90cf39c7b36","system_id":"levelo_inurba_marseille","lat":43.27867,"lon":5.40658,"is_reserved":false,"is_disabled":false,"rental_uris":{"android":"levelo://app?vid=0510ed08-e634-4528-97cc-a90cf39c7b36","ios":"levelo://app?vid=0510ed08-e634-4528-97cc-a90cf39c7b36"},"vehicle_type_id":"4","last_reported":1745691155,"current_range_meters":6800,"station_id":"ce4bhnh2rcd13ifvqgtg","pricing_plan_id":"cebpf4jnsgd1na2vs0mg"},{"bike_id":"fdcb5323-5b99-4771-839c-b6ec9e4cb9d2","system_id":"levelo_inurba_marseille","lat":43.24161,"lon":5.39738,"is_reserved":false,"is_disabled":false,"rental_uris":{"android":"levelo://app?vid=fdcb5323-5b99-4771-839c-b6ec9e4cb9d2","ios":"levelo://app?vid=fdcb5323-5b99-4771-839c-b6ec9e4cb9d2"},"vehicle_type_id":"4","last_reported":1745691155,"current_range_meters":6800,"station_id":"ce4bhn12rcd13ifvqgpg","pricing_plan_id":"cebpf4jnsgd1na2vs0mg"},{"bike_id":"8e694d7d-e639-480e-8787-1b3982d5e165","system_id":"levelo_inurba_marseille","lat":43.24805,"lon":5.3746,"is_reserved":false,"is_disabled":false,"rental_uris":{"android":"levelo://app?vid=8e694d7d-e639-480e-8787-1b3982d5e165","ios":"levelo://app?vid=8e694d7d-e639-480e-8787-1b3982d5e165"},"vehicle_type_id":"4","last_reported":1745691155,"current_range_meters":6800,"station_id":"ce4bhgh2rcd13ifvqfb0","pricing_plan_id":"cebpf4jnsgd1na2vs0mg"},{"bike_id":"60855998-6b2e-4d70-a794-56eed31d4bc7","system_id":"levelo_inurba_marseille","lat":43.30608,"lon":5.37226,"is_reserved":false,"is_disabled":false,"rental_uris":{"android":"levelo://app?vid=60855998-6b2e-4d70-a794-56eed31d4bc7","ios":"levelo://app?vid=60855998-6b2e-4d70-a794-56eed31d4bc7"},"vehicle_type_id":"4","last_reported":1745691155,"current_range_meters":6800,"station_id":"ce4bgqh2rcd13ifvqc4g","pricing_plan_id":"cebpf4jnsgd1na2vs0mg"},{"bike_id":"f62a4552-ec40-438e-82bf-49608a81162e","system_id":"levelo_inurba_marseille","lat":43.2396,"lon":5.36637,"is_reserved":false,"is_disabled":false,"rental_uris":{"android":"levelo://app?vid=f62a4552-ec40-438e-82bf-49608a81162e","ios":"levelo://app?vid=f62a4552-ec40-438e-82bf-49608a81162e"},"vehicle_type_id":"4","last_reported":1745691155,"current_range_meters":7200,"station_id":"ce4bhi12rcd13ifvqfp0","pricing_plan_id":"cebpf4jnsgd1na2vs0mg"},{"bike_id":"75e95e4f-d3d7-4c6d-8eb7-ea7969e66638","system_id":"levelo_inurba_marseille","lat":43.323565,"lon":5.367403,"is_reserved":false,"is_disabled":false,"rental_uris":{"android":"levelo://app?vid=75e95e4f-d3d7-4c6d-8eb7-ea7969e66638","ios":"levelo://app?vid=75e95e4f-d3d7-4c6d-8eb7-ea7969e66638"},"vehicle_type_id":"4","last_reported":1745691155,"current_range_meters":7200,"station_id":"ce4bhsh2rcd13ifvqi2g","pricing_plan_id":"cebpf4jnsgd1na2vs0mg"},{"bike_id":"745f0ad1-b4f2-405e-b957-d4c68884b920","system_id":"levelo_inurba_marseille","lat":43.21196,"lon":5.35073,"is_reserved":false,"is_disabled":false,"rental_uris":{"android":"levelo://app?vid=745f0ad1-b4f2-405e-b957-d4c68884b920","ios":"levelo://app?vid=745f0ad1-b4f2-405e-b957-d4c68884b920"},"vehicle_type_id":"4","last_reported":1745691155,"current_range_meters":7200,"station_id":"st_cvj6sg6p6f1abm77japg","pricing_plan_id":"cebpf4jnsgd1na2vs0mg"},{"bike_id":"9a9ab76e-fa7d-44fb-8fd3-3ef93aa4ae5a","system_id":"levelo_inurba_marseille","lat":43.21192,"lon":5.35073,"is_reserved":false,"is_disabled":false,"rental_uris":{"android":"levelo://app?vid=9a9ab76e-fa7d-44fb-8fd3-3ef93aa4ae5a","ios":"levelo://app?vid=9a9ab76e-fa7d-44fb-8fd3-3ef93aa4ae5a"},"vehicle_type_id":"4","last_reported":1745691155,"current_range_meters":7200,"station_id":"st_cvj6sg6p6f1abm77japg","pricing_plan_id":"cebpf4jnsgd1na2vs0mg"},{"bike_id":"dad8af86-1e80-4f85-871e-45a043509b5a","system_id":"levelo_inurba_marseille","lat":43.32286,"lon":5.38263,"is_reserved":false,"is_disabled":false,"rental_uris":{"android":"levelo://app?vid=dad8af86-1e80-4f85-871e-45a043509b5a","ios":"levelo://app?vid=dad8af86-1e80-4f85-871e-45a043509b5a"},"vehicle_type_id":"4","last_reported":1745691155,"current_range_meters":7200,"station_id":"ce4bhr12rcd13ifvqhqg","pricing_plan_id":"cebpf4jnsgd1na2vs0mg"},{"bike_id":"2a44dd0f-f41d-403a-a655-f2144854b0da","system_id":"levelo_inurba_marseille","lat":43.2439,"lon":5.37059,"is_reserved":false,"is_disabled":false,"rental_uris":{"android":"levelo://app?vid=2a44dd0f-f41d-403a-a655-f2144854b0da","ios":"levelo://app?vid=2a44dd0f-f41d-403a-a655-f2144854b0da"},"vehicle_type_id":"4","last_reported":1745691155,"current_range_meters":7200,"station_id":"ce4bhhh2rcd13ifvqfk0","pricing_plan_id":"cebpf4jnsgd1na2vs0mg"},{"bike_id":"18ae1d78-8d9e-4697-bc48-a39d36035c1d","system_id":"levelo_inurba_marseille","lat":43.23977,"lon":5.36625,"is_reserved":false,"is_disabled":false,"rental_uris":{"android":"levelo://app?vid=18ae1d78-8d9e-4697-bc48-a39d36035c1d","ios":"levelo://app?vid=18ae1d78-8d9e-4697-bc48-a39d36035c1d"},"vehicle_type_id":"4","last_reported":1745691155,"current_range_meters":7200,"station_id":"ce4bhi12rcd13ifvqfp0","pricing_plan_id":"cebpf4jnsgd1na2vs0mg"},{"bike_id":"e3b08fef-0d07-41c5-83c1-e2b2fccfefb7","system_id":"levelo_inurba_marseille","lat":43.28073,"lon":5.39654,"is_reserved":false,"is_disabled":false,"rental_uris":{"android":"levelo://app?vid=e3b08fef-0d07-41c5-83c1-e2b2fccfefb7","ios":"levelo://app?vid=e3b08fef-0d07-41c5-83c1-e2b2fccfefb7"},"vehicle_type_id":"4","last_reported":1745691155,"current_range_meters":8000,"station_id":"ce4bho12rcd13ifvqh2g","pricing_plan_id":"cebpf4jnsgd1na2vs0mg"},{"bike_id":"554fe001-fd7c-4ce9-8b9f-fe24a3da343a","system_id":"levelo_inurba_marseille","lat":43.23201,"lon":5.35589,"is_reserved":false,"is_disabled":false,"rental_uris":{"android":"levelo://app?vid=554fe001-fd7c-4ce9-8b9f-fe24a3da343a","ios":"levelo://app?vid=554fe001-fd7c-4ce9-8b9f-fe24a3da343a"},"vehicle_type_id":"4","last_reported":1745691155,"current_range_meters":8000,"station_id":"ce4bhu92rcd13ifvqi70","pricing_plan_id":"cebpf4jnsgd1na2vs0mg"},{"bike_id":"3fb10e7d-00e1-476c-a14f-2837b73331eb","system_id":"levelo_inurba_marseille","lat":43.26192,"lon":5.37452,"is_reserved":false,"is_disabled":false,"rental_uris":{"android":"levelo://app?vid=3fb10e7d-00e1-476c-a14f-2837b73331eb","ios":"levelo://app?vid=3fb10e7d-00e1-476c-a14f-2837b73331eb"},"vehicle_type_id":"4","last_reported":1745691155,"current_range_meters":8000,"station_id":"ce4bhgp2rcd13ifvqfc0","pricing_plan_id":"cebpf4jnsgd1na2vs0mg"},{"bike_id":"51376682-930e-45ed-90e0-b53d931ddc33","system_id":"levelo_inurba_marseille","lat":43.27511,"lon":5.42457,"is_reserved":false,"is_disabled":false,"rental_uris":{"android":"levelo://app?vid=51376682-930e-45ed-90e0-b53d931ddc33","ios":"levelo://app?vid=51376682-930e-45ed-90e0-b53d931ddc33"},"vehicle_type_id":"4","last_reported":1745691155,"current_range_meters":8000,"station_id":"ce4bhn92rcd13ifvqgrg","pricing_plan_id":"cebpf4jnsgd1na2vs0mg"},{"bike_id":"5e048a63-8073-47ba-98c9-61f57a221362","system_id":"levelo_inurba_marseille","lat":43.309502,"lon":5.390318,"is_reserved":false,"is_disabled":false,"rental_uris":{"android":"levelo://app?vid=5e048a63-8073-47ba-98c9-61f57a221362","ios":"levelo://app?vid=5e048a63-8073-47ba-98c9-61f57a221362"},"vehicle_type_id":"4","last_reported":1745691155,"current_range_meters":8000,"station_id":"ce4bgup2rcd13ifvqco0","pricing_plan_id":"cebpf4jnsgd1na2vs0mg"},{"bike_id":"53094921-ea74-4215-bdf0-9e1c0cdded85","system_id":"levelo_inurba_marseille","lat":43.31085,"lon":5.38354,"is_reserved":false,"is_disabled":false,"rental_uris":{"android":"levelo://app?vid=53094921-ea74-4215-bdf0-9e1c0cdded85","ios":"levelo://app?vid=53094921-ea74-4215-bdf0-9e1c0cdded85"},"vehicle_type_id":"4","last_reported":1745691155,"current_range_meters":8000,"station_id":"ce4bgv92rcd13ifvqcr0","pricing_plan_id":"cebpf4jnsgd1na2vs0mg"},{"bike_id":"c6f50550-7084-4916-993d-378d1637b839","system_id":"levelo_inurba_marseille","lat":43.2835,"lon":5.3811,"is_reserved":false,"is_disabled":false,"rental_uris":{"android":"levelo://app?vid=c6f50550-7084-4916-993d-378d1637b839","ios":"levelo://app?vid=c6f50550-7084-4916-993d-378d1637b839"},"vehicle_type_id":"4","last_reported":1745691155,"current_range_meters":8000,"station_id":"ce4bh412rcd13ifvqdr0","pricing_plan_id":"cebpf4jnsgd1na2vs0mg"},{"bike_id":"1633ed64-e423-42e4-93c5-471c5c6b4f37","system_id":"levelo_inurba_marseille","lat":43.260666,"lon":5.393913,"is_reserved":false,"is_disabled":false,"rental_uris":{"android":"levelo://app?vid=1633ed64-e423-42e4-93c5-471c5c6b4f37","ios":"levelo://app?vid=1633ed64-e423-42e4-93c5-471c5c6b4f37"},"vehicle_type_id":"4","last_reported":1745691155,"current_range_meters":8000,"station_id":"ce4bhh92rcd13ifvqfj0","pricing_plan_id":"cebpf4jnsgd1na2vs0mg"},{"bike_id":"2743111f-6f05-405a-b992-7e5d8fae8924","system_id":"levelo_inurba_marseille","lat":43.229647,"lon":5.353923,"is_reserved":false,"is_disabled":false,"rental_uris":{"android":"levelo://app?vid=2743111f-6f05-405a-b992-7e5d8fae8924","ios":"levelo://app?vid=2743111f-6f05-405a-b992-7e5d8fae8924"},"vehicle_type_id":"4","last_reported":1745691155,"current_range_meters":8000,"station_id":"cpo3532slgdg3j2ikp40","pricing_plan_id":"cebpf4jnsgd1na2vs0mg"},{"bike_id":"3ec823f4-782d-4179-988e-546c4539463f","system_id":"levelo_inurba_marseille","lat":43.29284,"lon":5.40115,"is_reserved":false,"is_disabled":true,"rental_uris":{"android":"levelo://app?vid=3ec823f4-782d-4179-988e-546c4539463f","ios":"levelo://app?vid=3ec823f4-782d-4179-988e-546c4539463f"},"vehicle_type_id":"4","last_reported":1745691155,"current_range_meters":8400,"station_id":"ce4bh312rcd13ifvqdk0","pricing_plan_id":"cebpf4jnsgd1na2vs0mg"},{"bike_id":"372fe1c1-735c-47ea-afff-d92b28be85eb","system_id":"levelo_inurba_marseille","lat":43.29598,"lon":5.38083,"is_reserved":false,"is_disabled":false,"rental_uris":{"android":"levelo://app?vid=372fe1c1-735c-47ea-afff-d92b28be85eb","ios":"levelo://app?vid=372fe1c1-735c-47ea-afff-d92b28be85eb"},"vehicle_type_id":"4","last_reported":1745691155,"current_range_meters":8400,"station_id":"ce4bgl12rcd13ifvqbo0","pricing_plan_id":"cebpf4jnsgd1na2vs0mg"},{"bike_id":"5c70625e-b7a7-4cd3-908d-83cbe9ad8827","system_id":"levelo_inurba_marseille","lat":43.27177,"lon":5.40988,"is_reserved":false,"is_disabled":false,"rental_uris":{"android":"levelo://app?vid=5c70625e-b7a7-4cd3-908d-83cbe9ad8827","ios":"levelo://app?vid=5c70625e-b7a7-4cd3-908d-83cbe9ad8827"},"vehicle_type_id":"4","last_reported":1745691155,"current_range_meters":8400,"station_id":"ce4bhl12rcd13ifvqgf0","pricing_plan_id":"cebpf4jnsgd1na2vs0mg"},{"bike_id":"b25d821f-85f0-4e36-bfe6-db46d00f9763","system_id":"levelo_inurba_marseille","lat":43.29542,"lon":5.42267,"is_reserved":false,"is_disabled":false,"rental_uris":{"android":"levelo://app?vid=b25d821f-85f0-4e36-bfe6-db46d00f9763","ios":"levelo://app?vid=b25d821f-85f0-4e36-bfe6-db46d00f9763"},"vehicle_type_id":"4","last_reported":1745691155,"current_range_meters":8400,"station_id":"ce4bhph2rcd13ifvqhdg","pricing_plan_id":"cebpf4jnsgd1na2vs0mg"},{"bike_id":"63501481-6dd9-40c5-b7a9-d35c1ced381b","system_id":"levelo_inurba_marseille","lat":43.31064,"lon":5.38336,"is_reserved":false,"is_disabled":false,"rental_uris":{"android":"levelo://app?vid=63501481-6dd9-40c5-b7a9-d35c1ced381b","ios":"levelo://app?vid=63501481-6dd9-40c5-b7a9-d35c1ced381b"},"vehicle_type_id":"4","last_reported":1745691155,"current_range_meters":8400,"station_id":"ce4bgv92rcd13ifvqcr0","pricing_plan_id":"cebpf4jnsgd1na2vs0mg"},{"bike_id":"6104de1b-83a6-4912-bfa1-49d35364e6af","system_id":"levelo_inurba_marseille","lat":43.23959,"lon":5.36666,"is_reserved":false,"is_disabled":false,"rental_uris":{"android":"levelo://app?vid=6104de1b-83a6-4912-bfa1-49d35364e6af","ios":"levelo://app?vid=6104de1b-83a6-4912-bfa1-49d35364e6af"},"vehicle_type_id":"4","last_reported":1745691155,"current_range_meters":8400,"station_id":"ce4bhi12rcd13ifvqfp0","pricing_plan_id":"cebpf4jnsgd1na2vs0mg"},{"bike_id":"f7b77692-e0aa-4741-af33-a5add44dd757","system_id":"levelo_inurba_marseille","lat":43.2456,"lon":5.39514,"is_reserved":false,"is_disabled":false,"rental_uris":{"android":"levelo://app?vid=f7b77692-e0aa-4741-af33-a5add44dd757","ios":"levelo://app?vid=f7b77692-e0aa-4741-af33-a5add44dd757"},"vehicle_type_id":"4","last_reported":1745691155,"current_range_meters":8400,"station_id":"ce4bhlp2rcd13ifvqgjg","pricing_plan_id":"cebpf4jnsgd1na2vs0mg"},{"bike_id":"5d12c98e-aec6-4fe3-871b-5cd0780b8b0d","system_id":"levelo_inurba_marseille","lat":43.26495,"lon":5.39525,"is_reserved":false,"is_disabled":false,"rental_uris":{"android":"levelo://app?vid=5d12c98e-aec6-4fe3-871b-5cd0780b8b0d","ios":"levelo://app?vid=5d12c98e-aec6-4fe3-871b-5cd0780b8b0d"},"vehicle_type_id":"4","last_reported":1745691155,"current_range_meters":8400,"station_id":"ce4bhi12rcd13ifvqfq0","pricing_plan_id":"cebpf4jnsgd1na2vs0mg"},{"bike_id":"ce310d7b-4301-4811-93ad-13dd2d4dac84","system_id":"levelo_inurba_marseille","lat":43.33603,"lon":5.41036,"is_reserved":false,"is_disabled":false,"rental_uris":{"android":"levelo://app?vid=ce310d7b-4301-4811-93ad-13dd2d4dac84","ios":"levelo://app?vid=ce310d7b-4301-4811-93ad-13dd2d4dac84"},"vehicle_type_id":"4","last_reported":1745691155,"current_range_meters":8400,"station_id":"ce4bhqh2rcd13ifvqhmg","pricing_plan_id":"cebpf4jnsgd1na2vs0mg"},{"bike_id":"c53bc830-0a68-438e-a5d2-e046cc273bef","system_id":"levelo_inurba_marseille","lat":43.31068,"lon":5.38352,"is_reserved":false,"is_disabled":false,"rental_uris":{"android":"levelo://app?vid=c53bc830-0a68-438e-a5d2-e046cc273bef","ios":"levelo://app?vid=c53bc830-0a68-438e-a5d2-e046cc273bef"},"vehicle_type_id":"4","last_reported":1745691155,"current_range_meters":8800,"station_id":"ce4bgv92rcd13ifvqcr0","pricing_plan_id":"cebpf4jnsgd1na2vs0mg"},{"bike_id":"40e4ce47-c620-4346-9adf-fea985824d08","system_id":"levelo_inurba_marseille","lat":43.25494,"lon":5.37655,"is_reserved":false,"is_disabled":false,"rental_uris":{"android":"levelo://app?vid=40e4ce47-c620-4346-9adf-fea985824d08","ios":"levelo://app?vid=40e4ce47-c620-4346-9adf-fea985824d08"},"vehicle_type_id":"4","last_reported":1745691155,"current_range_meters":8800,"station_id":"ce4bhh12rcd13ifvqff0","pricing_plan_id":"cebpf4jnsgd1na2vs0mg"},{"bike_id":"681bf8df-a36b-4644-b3be-b417ca0a7f47","system_id":"levelo_inurba_marseille","lat":43.29287,"lon":5.36823,"is_reserved":false,"is_disabled":false,"rental_uris":{"android":"levelo://app?vid=681bf8df-a36b-4644-b3be-b417ca0a7f47","ios":"levelo://app?vid=681bf8df-a36b-4644-b3be-b417ca0a7f47"},"vehicle_type_id":"4","last_reported":1745691155,"current_range_meters":8800,"station_id":"ce4bhbp2rcd13ifvqesg","pricing_plan_id":"cebpf4jnsgd1na2vs0mg"},{"bike_id":"84de9c1d-4ee7-4ffa-865a-f2d564ed8bea","system_id":"levelo_inurba_marseille","lat":43.248067,"lon":5.374617,"is_reserved":false,"is_disabled":false,"rental_uris":{"android":"levelo://app?vid=84de9c1d-4ee7-4ffa-865a-f2d564ed8bea","ios":"levelo://app?vid=84de9c1d-4ee7-4ffa-865a-f2d564ed8bea"},"vehicle_type_id":"4","last_reported":1745691155,"current_range_meters":8800,"station_id":"ce4bhgh2rcd13ifvqfb0","pricing_plan_id":"cebpf4jnsgd1na2vs0mg"},{"bike_id":"2bc8df7e-4ad6-461e-8a48-f06e1e892861","system_id":"levelo_inurba_marseille","lat":43.29773,"lon":5.37099,"is_reserved":false,"is_disabled":false,"rental_uris":{"android":"levelo://app?vid=2bc8df7e-4ad6-461e-8a48-f06e1e892861","ios":"levelo://app?vid=2bc8df7e-4ad6-461e-8a48-f06e1e892861"},"vehicle_type_id":"4","last_reported":1745691155,"current_range_meters":8800,"station_id":"ce4bgop2rcd13ifvqc1g","pricing_plan_id":"cebpf4jnsgd1na2vs0mg"},{"bike_id":"4beba2b5-8aa4-4d02-9bfc-de49ce2e1d76","system_id":"levelo_inurba_marseille","lat":43.29784,"lon":5.39336,"is_reserved":false,"is_disabled":false,"rental_uris":{"android":"levelo://app?vid=4beba2b5-8aa4-4d02-9bfc-de49ce2e1d76","ios":"levelo://app?vid=4beba2b5-8aa4-4d02-9bfc-de49ce2e1d76"},"vehicle_type_id":"4","last_reported":1745691155,"current_range_meters":8800,"station_id":"chh1huq6cuj3fo74tm60","pricing_plan_id":"cebpf4jnsgd1na2vs0mg"},{"bike_id":"f5eb4ac5-5842-485b-b260-8c5e42c897be","system_id":"levelo_inurba_marseille","lat":43.29966,"lon":5.38501,"is_reserved":false,"is_disabled":false,"rental_uris":{"android":"levelo://app?vid=f5eb4ac5-5842-485b-b260-8c5e42c897be","ios":"levelo://app?vid=f5eb4ac5-5842-485b-b260-8c5e42c897be"},"vehicle_type_id":"4","last_reported":1745691155,"current_range_meters":8800,"station_id":"ce4bgj92rcd13ifvqbd0","pricing_plan_id":"cebpf4jnsgd1na2vs0mg"},{"bike_id":"1cd3a1a6-b3e4-45c8-b250-82fce74e3d94","system_id":"levelo_inurba_marseille","lat":43.289336,"lon":5.366486,"is_reserved":false,"is_disabled":false,"rental_uris":{"android":"levelo://app?vid=1cd3a1a6-b3e4-45c8-b250-82fce74e3d94","ios":"levelo://app?vid=1cd3a1a6-b3e4-45c8-b250-82fce74e3d94"},"vehicle_type_id":"4","last_reported":1745691155,"current_range_meters":8800,"station_id":"ce4bho12rcd13ifvqh2g","pricing_plan_id":"cebpf4jnsgd1na2vs0mg"},{"bike_id":"38dd1f37-e4aa-40c2-8a7b-0a79bbec6767","system_id":"levelo_inurba_marseille","lat":43.21186,"lon":5.35075,"is_reserved":false,"is_disabled":false,"rental_uris":{"android":"levelo://app?vid=38dd1f37-e4aa-40c2-8a7b-0a79bbec6767","ios":"levelo://app?vid=38dd1f37-e4aa-40c2-8a7b-0a79bbec6767"},"vehicle_type_id":"4","last_reported":1745691155,"current_range_meters":9200,"station_id":"st_cvj6sg6p6f1abm77japg","pricing_plan_id":"cebpf4jnsgd1na2vs0mg"},{"bike_id":"c1a99184-e58a-48fe-b3f9-ce62c9217649","system_id":"levelo_inurba_marseille","lat":43.27941,"lon":5.41056,"is_reserved":false,"is_disabled":false,"rental_uris":{"android":"levelo://app?vid=c1a99184-e58a-48fe-b3f9-ce62c9217649","ios":"levelo://app?vid=c1a99184-e58a-48fe-b3f9-ce62c9217649"},"vehicle_type_id":"4","last_reported":1745691155,"current_range_meters":9200,"station_id":"ce4bhnp2rcd13ifvqh0g","pricing_plan_id":"cebpf4jnsgd1na2vs0mg"},{"bike_id":"89492624-d1e1-448d-adb5-6a6b6e403af5","system_id":"levelo_inurba_marseille","lat":43.22932,"lon":5.3536,"is_reserved":false,"is_disabled":false,"rental_uris":{"android":"levelo://app?vid=89492624-d1e1-448d-adb5-6a6b6e403af5","ios":"levelo://app?vid=89492624-d1e1-448d-adb5-6a6b6e403af5"},"vehicle_type_id":"4","last_reported":1745691155,"current_range_meters":9200,"station_id":"cpo3532slgdg3j2ikp40","pricing_plan_id":"cebpf4jnsgd1na2vs0mg"},{"bike_id":"893d99cc-7b9d-430e-a782-f713b65fdcc9","system_id":"levelo_inurba_marseille","lat":43.31719,"lon":5.40429,"is_reserved":false,"is_disabled":false,"rental_uris":{"android":"levelo://app?vid=893d99cc-7b9d-430e-a782-f713b65fdcc9","ios":"levelo://app?vid=893d99cc-7b9d-430e-a782-f713b65fdcc9"},"vehicle_type_id":"4","last_reported":1745691155,"current_range_meters":9200,"station_id":"ce4bh012rcd13ifvqd00","pricing_plan_id":"cebpf4jnsgd1na2vs0mg"},{"bike_id":"c886bc95-a9f4-4b08-af93-286cc6dbd1ea","system_id":"levelo_inurba_marseille","lat":43.24169,"lon":5.36397,"is_reserved":false,"is_disabled":false,"rental_uris":{"android":"levelo://app?vid=c886bc95-a9f4-4b08-af93-286cc6dbd1ea","ios":"levelo://app?vid=c886bc95-a9f4-4b08-af93-286cc6dbd1ea"},"vehicle_type_id":"4","last_reported":1745691155,"current_range_meters":9200,"station_id":"cpo36qri1sfpv3e86is0","pricing_plan_id":"cebpf4jnsgd1na2vs0mg"},{"bike_id":"21c78ad9-c984-4ba4-910c-fc3fb08a010b","system_id":"levelo_inurba_marseille","lat":43.30922,"lon":5.40181,"is_reserved":false,"is_disabled":false,"rental_uris":{"android":"levelo://app?vid=21c78ad9-c984-4ba4-910c-fc3fb08a010b","ios":"levelo://app?vid=21c78ad9-c984-4ba4-910c-fc3fb08a010b"},"vehicle_type_id":"4","last_reported":1745691155,"current_range_meters":9600,"station_id":"ce4bgvp2rcd13ifvqct0","pricing_plan_id":"cebpf4jnsgd1na2vs0mg"},{"bike_id":"f71dda25-ec6f-426d-80c5-c62ff5e0c0c3","system_id":"levelo_inurba_marseille","lat":43.30946,"lon":5.39039,"is_reserved":false,"is_disabled":false,"rental_uris":{"android":"levelo://app?vid=f71dda25-ec6f-426d-80c5-c62ff5e0c0c3","ios":"levelo://app?vid=f71dda25-ec6f-426d-80c5-c62ff5e0c0c3"},"vehicle_type_id":"4","last_reported":1745691155,"current_range_meters":9600,"station_id":"ce4bgup2rcd13ifvqco0","pricing_plan_id":"cebpf4jnsgd1na2vs0mg"},{"bike_id":"46ff4bff-4f24-468c-b5f8-bbf958e109d4","system_id":"levelo_inurba_marseille","lat":43.27621,"lon":5.36126,"is_reserved":false,"is_disabled":false,"rental_uris":{"android":"levelo://app?vid=46ff4bff-4f24-468c-b5f8-bbf958e109d4","ios":"levelo://app?vid=46ff4bff-4f24-468c-b5f8-bbf958e109d4"},"vehicle_type_id":"4","last_reported":1745691155,"current_range_meters":9600,"station_id":"ce4bgj92rcd13ifvqbe0","pricing_plan_id":"cebpf4jnsgd1na2vs0mg"},{"bike_id":"cc451a9b-2103-4f70-9e38-222a3f72b606","system_id":"levelo_inurba_marseille","lat":43.30952,"lon":5.39037,"is_reserved":false,"is_disabled":false,"rental_uris":{"android":"levelo://app?vid=cc451a9b-2103-4f70-9e38-222a3f72b606","ios":"levelo://app?vid=cc451a9b-2103-4f70-9e38-222a3f72b606"},"vehicle_type_id":"4","last_reported":1745691155,"current_range_meters":9600,"station_id":"ce4bgup2rcd13ifvqco0","pricing_plan_id":"cebpf4jnsgd1na2vs0mg"},{"bike_id":"35d5c7fd-92cc-4b27-944e-c308d12060bc","system_id":"levelo_inurba_marseille","lat":43.2835,"lon":5.38109,"is_reserved":false,"is_disabled":false,"rental_uris":{"android":"levelo://app?vid=35d5c7fd-92cc-4b27-944e-c308d12060bc","ios":"levelo://app?vid=35d5c7fd-92cc-4b27-944e-c308d12060bc"},"vehicle_type_id":"4","last_reported":1745691155,"current_range_meters":9600,"station_id":"ce4bh412rcd13ifvqdr0","pricing_plan_id":"cebpf4jnsgd1na2vs0mg"},{"bike_id":"7c9be04d-f297-4c2a-8c4b-63e548ef0cd1","system_id":"levelo_inurba_marseille","lat":43.29562,"lon":5.39979,"is_reserved":false,"is_disabled":false,"rental_uris":{"android":"levelo://app?vid=7c9be04d-f297-4c2a-8c4b-63e548ef0cd1","ios":"levelo://app?vid=7c9be04d-f297-4c2a-8c4b-63e548ef0cd1"},"vehicle_type_id":"4","last_reported":1745691155,"current_range_meters":9200,"station_id":"ce4bh312rcd13ifvqdj0","pricing_plan_id":"cebpf4jnsgd1na2vs0mg"},{"bike_id":"7488ce3a-a7f6-4e3e-ac78-b019b94cb9b0","system_id":"levelo_inurba_marseille","lat":43.24386,"lon":5.37061,"is_reserved":false,"is_disabled":false,"rental_uris":{"android":"levelo://app?vid=7488ce3a-a7f6-4e3e-ac78-b019b94cb9b0","ios":"levelo://app?vid=7488ce3a-a7f6-4e3e-ac78-b019b94cb9b0"},"vehicle_type_id":"4","last_reported":1745691155,"current_range_meters":9600,"station_id":"ce4bhhh2rcd13ifvqfk0","pricing_plan_id":"cebpf4jnsgd1na2vs0mg"},{"bike_id":"dd1f484e-afbc-4327-914e-ee2f4d84e475","system_id":"levelo_inurba_marseille","lat":43.273847,"lon":5.362507,"is_reserved":false,"is_disabled":false,"rental_uris":{"android":"levelo://app?vid=dd1f484e-afbc-4327-914e-ee2f4d84e475","ios":"levelo://app?vid=dd1f484e-afbc-4327-914e-ee2f4d84e475"},"vehicle_type_id":"4","last_reported":1745691155,"current_range_meters":9600,"station_id":"ce4bhbh2rcd13ifvqeo0","pricing_plan_id":"cebpf4jnsgd1na2vs0mg"},{"bike_id":"ae8ec39f-bce8-495c-bfdf-47830ccbceb4","system_id":"levelo_inurba_marseille","lat":43.31352,"lon":5.3851,"is_reserved":false,"is_disabled":false,"rental_uris":{"android":"levelo://app?vid=ae8ec39f-bce8-495c-bfdf-47830ccbceb4","ios":"levelo://app?vid=ae8ec39f-bce8-495c-bfdf-47830ccbceb4"},"vehicle_type_id":"4","last_reported":1745691155,"current_range_meters":10000,"station_id":"ce4bgt92rcd13ifvqcf0","pricing_plan_id":"cebpf4jnsgd1na2vs0mg"},{"bike_id":"042a36cf-a68c-4f02-8fbe-a3d4f36fa492","system_id":"levelo_inurba_marseille","lat":43.21207,"lon":5.35063,"is_reserved":false,"is_disabled":false,"rental_uris":{"android":"levelo://app?vid=042a36cf-a68c-4f02-8fbe-a3d4f36fa492","ios":"levelo://app?vid=042a36cf-a68c-4f02-8fbe-a3d4f36fa492"},"vehicle_type_id":"4","last_reported":1745691155,"current_range_meters":10000,"station_id":"st_cvj6sg6p6f1abm77japg","pricing_plan_id":"cebpf4jnsgd1na2vs0mg"},{"bike_id":"dc563db4-3d66-4cb2-8ddd-0654d51c02b6","system_id":"levelo_inurba_marseille","lat":43.29534,"lon":5.38533,"is_reserved":false,"is_disabled":false,"rental_uris":{"android":"levelo://app?vid=dc563db4-3d66-4cb2-8ddd-0654d51c02b6","ios":"levelo://app?vid=dc563db4-3d66-4cb2-8ddd-0654d51c02b6"},"vehicle_type_id":"4","last_reported":1745691155,"current_range_meters":10000,"station_id":"ce4bgih2rcd13ifvqba0","pricing_plan_id":"cebpf4jnsgd1na2vs0mg"},{"bike_id":"ae2f8384-ab79-4241-aa7f-a13b45da22ce","system_id":"levelo_inurba_marseille","lat":43.26235,"lon":5.37419,"is_reserved":false,"is_disabled":false,"rental_uris":{"android":"levelo://app?vid=ae2f8384-ab79-4241-aa7f-a13b45da22ce","ios":"levelo://app?vid=ae2f8384-ab79-4241-aa7f-a13b45da22ce"},"vehicle_type_id":"4","last_reported":1745691155,"current_range_meters":10000,"station_id":"","pricing_plan_id":"cebpf4jnsgd1na2vs0mg"},{"bike_id":"6d7cc870-ccfd-4f48-96fb-e8c1f82a64cc","system_id":"levelo_inurba_marseille","lat":43.29759,"lon":5.37117,"is_reserved":false,"is_disabled":true,"rental_uris":{"android":"levelo://app?vid=6d7cc870-ccfd-4f48-96fb-e8c1f82a64cc","ios":"levelo://app?vid=6d7cc870-ccfd-4f48-96fb-e8c1f82a64cc"},"vehicle_type_id":"4","last_reported":1745691155,"current_range_meters":10800,"station_id":"ce4bgop2rcd13ifvqc1g","pricing_plan_id":"cebpf4jnsgd1na2vs0mg"},{"bike_id":"6e3579d9-292f-46ee-a812-23e3ed2512ca","system_id":"levelo_inurba_marseille","lat":43.33071,"lon":5.42717,"is_reserved":false,"is_disabled":true,"rental_uris":{"android":"levelo://app?vid=6e3579d9-292f-46ee-a812-23e3ed2512ca","ios":"levelo://app?vid=6e3579d9-292f-46ee-a812-23e3ed2512ca"},"vehicle_type_id":"4","last_reported":1745691155,"current_range_meters":10800,"station_id":"","pricing_plan_id":"cebpf4jnsgd1na2vs0mg"},{"bike_id":"dd3031e0-5272-497e-a41c-be7750e07327","system_id":"levelo_inurba_marseille","lat":43.30041,"lon":5.40226,"is_reserved":false,"is_disabled":false,"rental_uris":{"android":"levelo://app?vid=dd3031e0-5272-497e-a41c-be7750e07327","ios":"levelo://app?vid=dd3031e0-5272-497e-a41c-be7750e07327"},"vehicle_type_id":"4","last_reported":1745691155,"current_range_meters":10800,"station_id":"","pricing_plan_id":"cebpf4jnsgd1na2vs0mg"},{"bike_id":"aa7dd23a-c50c-4359-a4fa-3d29c4576751","system_id":"levelo_inurba_marseille","lat":43.24174,"lon":5.3643,"is_reserved":false,"is_disabled":false,"rental_uris":{"android":"levelo://app?vid=aa7dd23a-c50c-4359-a4fa-3d29c4576751","ios":"levelo://app?vid=aa7dd23a-c50c-4359-a4fa-3d29c4576751"},"vehicle_type_id":"4","last_reported":1745691155,"current_range_meters":10800,"station_id":"cpo36qri1sfpv3e86is0","pricing_plan_id":"cebpf4jnsgd1na2vs0mg"},{"bike_id":"788417a3-b970-4027-b820-5ee1e09b4fab","system_id":"levelo_inurba_marseille","lat":43.2656,"lon":5.37281,"is_reserved":false,"is_disabled":false,"rental_uris":{"android":"levelo://app?vid=788417a3-b970-4027-b820-5ee1e09b4fab","ios":"levelo://app?vid=788417a3-b970-4027-b820-5ee1e09b4fab"},"vehicle_type_id":"4","last_reported":1745691155,"current_range_meters":10800,"station_id":"ce4bhg12rcd13ifvqf70","pricing_plan_id":"cebpf4jnsgd1na2vs0mg"},{"bike_id":"418ddde9-ea0b-40cc-9094-9d4e59dafe8e","system_id":"levelo_inurba_marseille","lat":43.29592,"lon":5.38117,"is_reserved":false,"is_disabled":false,"rental_uris":{"android":"levelo://app?vid=418ddde9-ea0b-40cc-9094-9d4e59dafe8e","ios":"levelo://app?vid=418ddde9-ea0b-40cc-9094-9d4e59dafe8e"},"vehicle_type_id":"4","last_reported":1745691155,"current_range_meters":10800,"station_id":"ce4bgl12rcd13ifvqbo0","pricing_plan_id":"cebpf4jnsgd1na2vs0mg"},{"bike_id":"0429adbf-9996-4670-ae2d-bff8481dfd8d","system_id":"levelo_inurba_marseille","lat":43.30947,"lon":5.3905,"is_reserved":false,"is_disabled":false,"rental_uris":{"android":"levelo://app?vid=0429adbf-9996-4670-ae2d-bff8481dfd8d","ios":"levelo://app?vid=0429adbf-9996-4670-ae2d-bff8481dfd8d"},"vehicle_type_id":"4","last_reported":1745691155,"current_range_meters":10800,"station_id":"ce4bgup2rcd13ifvqco0","pricing_plan_id":"cebpf4jnsgd1na2vs0mg"},{"bike_id":"0cce7ea2-3151-4739-8e52-340c11e5c4e0","system_id":"levelo_inurba_marseille","lat":43.2469,"lon":5.38161,"is_reserved":false,"is_disabled":false,"rental_uris":{"android":"levelo://app?vid=0cce7ea2-3151-4739-8e52-340c11e5c4e0","ios":"levelo://app?vid=0cce7ea2-3151-4739-8e52-340c11e5c4e0"},"vehicle_type_id":"4","last_reported":1745691155,"current_range_meters":11200,"station_id":"ce4bhih2rcd13ifvqfr0","pricing_plan_id":"cebpf4jnsgd1na2vs0mg"},{"bike_id":"698e7a3a-9fbf-445c-ade2-a2818bcbc7f6","system_id":"levelo_inurba_marseille","lat":43.29155,"lon":5.37154,"is_reserved":false,"is_disabled":false,"rental_uris":{"android":"levelo://app?vid=698e7a3a-9fbf-445c-ade2-a2818bcbc7f6","ios":"levelo://app?vid=698e7a3a-9fbf-445c-ade2-a2818bcbc7f6"},"vehicle_type_id":"4","last_reported":1745691155,"current_range_meters":11200,"station_id":"ce4bha92rcd13ifvqeh0","pricing_plan_id":"cebpf4jnsgd1na2vs0mg"},{"bike_id":"3f8e74df-4b8a-4fe8-9f20-4fbe47605119","system_id":"levelo_inurba_marseille","lat":43.29031,"lon":5.37565,"is_reserved":false,"is_disabled":true,"rental_uris":{"android":"levelo://app?vid=3f8e74df-4b8a-4fe8-9f20-4fbe47605119","ios":"levelo://app?vid=3f8e74df-4b8a-4fe8-9f20-4fbe47605119"},"vehicle_type_id":"4","last_reported":1745691155,"current_range_meters":11600,"station_id":"ce4bh692rcd13ifvqe90","pricing_plan_id":"cebpf4jnsgd1na2vs0mg"},{"bike_id":"30ff3fbd-2c44-4214-91ba-59ec445f45ac","system_id":"levelo_inurba_marseille","lat":43.28421,"lon":5.34978,"is_reserved":false,"is_disabled":false,"rental_uris":{"android":"levelo://app?vid=30ff3fbd-2c44-4214-91ba-59ec445f45ac","ios":"levelo://app?vid=30ff3fbd-2c44-4214-91ba-59ec445f45ac"},"vehicle_type_id":"4","last_reported":1745691155,"current_range_meters":11600,"station_id":"ce4bhbh2rcd13ifvqepg","pricing_plan_id":"cebpf4jnsgd1na2vs0mg"},{"bike_id":"603d905c-6dd0-4256-baab-5c76eb5adbb6","system_id":"levelo_inurba_marseille","lat":43.30939,"lon":5.40149,"is_reserved":false,"is_disabled":false,"rental_uris":{"android":"levelo://app?vid=603d905c-6dd0-4256-baab-5c76eb5adbb6","ios":"levelo://app?vid=603d905c-6dd0-4256-baab-5c76eb5adbb6"},"vehicle_type_id":"4","last_reported":1745691155,"current_range_meters":11600,"station_id":"ce4bgvp2rcd13ifvqct0","pricing_plan_id":"cebpf4jnsgd1na2vs0mg"},{"bike_id":"552e61c6-f47e-4c8a-8818-15a77c26fe65","system_id":"levelo_inurba_marseille","lat":43.24078,"lon":5.37753,"is_reserved":false,"is_disabled":false,"rental_uris":{"android":"levelo://app?vid=552e61c6-f47e-4c8a-8818-15a77c26fe65","ios":"levelo://app?vid=552e61c6-f47e-4c8a-8818-15a77c26fe65"},"vehicle_type_id":"4","last_reported":1745691155,"current_range_meters":12000,"station_id":"ce4bhnp2rcd13ifvqgvg","pricing_plan_id":"cebpf4jnsgd1na2vs0mg"},{"bike_id":"c01fcc95-95ae-4e71-b345-61871d8af98d","system_id":"levelo_inurba_marseille","lat":43.26031,"lon":5.37538,"is_reserved":false,"is_disabled":false,"rental_uris":{"android":"levelo://app?vid=c01fcc95-95ae-4e71-b345-61871d8af98d","ios":"levelo://app?vid=c01fcc95-95ae-4e71-b345-61871d8af98d"},"vehicle_type_id":"4","last_reported":1745691155,"current_range_meters":12000,"station_id":"ce4bhgh2rcd13ifvqfa0","pricing_plan_id":"cebpf4jnsgd1na2vs0mg"},{"bike_id":"72c8ddf3-34e1-4091-a096-8fb6f523e568","system_id":"levelo_inurba_marseille","lat":43.27571,"lon":5.38436,"is_reserved":false,"is_disabled":false,"rental_uris":{"android":"levelo://app?vid=72c8ddf3-34e1-4091-a096-8fb6f523e568","ios":"levelo://app?vid=72c8ddf3-34e1-4091-a096-8fb6f523e568"},"vehicle_type_id":"4","last_reported":1745691155,"current_range_meters":12400,"station_id":"ce4bhh92rcd13ifvqfi0","pricing_plan_id":"cebpf4jnsgd1na2vs0mg"},{"bike_id":"a16bb2b3-41fd-4455-b0cf-ca6b221fd4e6","system_id":"levelo_inurba_marseille","lat":43.29213,"lon":5.35937,"is_reserved":false,"is_disabled":false,"rental_uris":{"android":"levelo://app?vid=a16bb2b3-41fd-4455-b0cf-ca6b221fd4e6","ios":"levelo://app?vid=a16bb2b3-41fd-4455-b0cf-ca6b221fd4e6"},"vehicle_type_id":"4","last_reported":1745691155,"current_range_meters":12400,"station_id":"","pricing_plan_id":"cebpf4jnsgd1na2vs0mg"},{"bike_id":"a9ec16c4-3641-41d7-a0d0-83b8325d5efd","system_id":"levelo_inurba_marseille","lat":43.26502,"lon":5.39532,"is_reserved":false,"is_disabled":false,"rental_uris":{"android":"levelo://app?vid=a9ec16c4-3641-41d7-a0d0-83b8325d5efd","ios":"levelo://app?vid=a9ec16c4-3641-41d7-a0d0-83b8325d5efd"},"vehicle_type_id":"4","last_reported":1745691155,"current_range_meters":12400,"station_id":"ce4bhi12rcd13ifvqfq0","pricing_plan_id":"cebpf4jnsgd1na2vs0mg"},{"bike_id":"a2849d3d-226c-47fe-8a15-d3f2ec59ed55","system_id":"levelo_inurba_marseille","lat":43.262114,"lon":5.374356,"is_reserved":false,"is_disabled":false,"rental_uris":{"android":"levelo://app?vid=a2849d3d-226c-47fe-8a15-d3f2ec59ed55","ios":"levelo://app?vid=a2849d3d-226c-47fe-8a15-d3f2ec59ed55"},"vehicle_type_id":"4","last_reported":1745691155,"current_range_meters":12400,"station_id":"ce4bh612rcd13ifvqe6g","pricing_plan_id":"cebpf4jnsgd1na2vs0mg"},{"bike_id":"38ad6ce0-1ba0-4d0f-a84b-b857ec47c739","system_id":"levelo_inurba_marseille","lat":43.3117,"lon":5.4278,"is_reserved":false,"is_disabled":true,"rental_uris":{"android":"levelo://app?vid=38ad6ce0-1ba0-4d0f-a84b-b857ec47c739","ios":"levelo://app?vid=38ad6ce0-1ba0-4d0f-a84b-b857ec47c739"},"vehicle_type_id":"4","last_reported":1745691155,"current_range_meters":12400,"station_id":"","pricing_plan_id":"cebpf4jnsgd1na2vs0mg"},{"bike_id":"736ee7d5-708e-48bd-8281-35bb85d0bc7d","system_id":"levelo_inurba_marseille","lat":43.29012,"lon":5.35607,"is_reserved":false,"is_disabled":true,"rental_uris":{"android":"levelo://app?vid=736ee7d5-708e-48bd-8281-35bb85d0bc7d","ios":"levelo://app?vid=736ee7d5-708e-48bd-8281-35bb85d0bc7d"},"vehicle_type_id":"4","last_reported":1745691155,"current_range_meters":12400,"station_id":"ce4bhb92rcd13ifvqen0","pricing_plan_id":"cebpf4jnsgd1na2vs0mg"},{"bike_id":"0a685a76-7d6b-422a-8083-973c89820d0b","system_id":"levelo_inurba_marseille","lat":43.30905,"lon":5.37189,"is_reserved":false,"is_disabled":false,"rental_uris":{"android":"levelo://app?vid=0a685a76-7d6b-422a-8083-973c89820d0b","ios":"levelo://app?vid=0a685a76-7d6b-422a-8083-973c89820d0b"},"vehicle_type_id":"4","last_reported":1745691155,"current_range_meters":12400,"station_id":"ce4bguh2rcd13ifvqckg","pricing_plan_id":"cebpf4jnsgd1na2vs0mg"},{"bike_id":"a65c04c4-dde7-4cf7-acfb-5fe2c1f889fd","system_id":"levelo_inurba_marseille","lat":43.26219,"lon":5.4045,"is_reserved":false,"is_disabled":false,"rental_uris":{"android":"levelo://app?vid=a65c04c4-dde7-4cf7-acfb-5fe2c1f889fd","ios":"levelo://app?vid=a65c04c4-dde7-4cf7-acfb-5fe2c1f889fd"},"vehicle_type_id":"4","last_reported":1745691155,"current_range_meters":12800,"station_id":"ce4bhmh2rcd13ifvqgmg","pricing_plan_id":"cebpf4jnsgd1na2vs0mg"},{"bike_id":"7518cf42-9f06-451a-a31d-70478f66183e","system_id":"levelo_inurba_marseille","lat":43.2928,"lon":5.36852,"is_reserved":false,"is_disabled":false,"rental_uris":{"android":"levelo://app?vid=7518cf42-9f06-451a-a31d-70478f66183e","ios":"levelo://app?vid=7518cf42-9f06-451a-a31d-70478f66183e"},"vehicle_type_id":"4","last_reported":1745691155,"current_range_meters":12800,"station_id":"ce4bhbp2rcd13ifvqesg","pricing_plan_id":"cebpf4jnsgd1na2vs0mg"},{"bike_id":"8a8b3113-1b29-4eb8-aeb2-995a941e7c57","system_id":"levelo_inurba_marseille","lat":43.29538,"lon":5.38545,"is_reserved":false,"is_disabled":false,"rental_uris":{"android":"levelo://app?vid=8a8b3113-1b29-4eb8-aeb2-995a941e7c57","ios":"levelo://app?vid=8a8b3113-1b29-4eb8-aeb2-995a941e7c57"},"vehicle_type_id":"4","last_reported":1745691155,"current_range_meters":12800,"station_id":"ce4bgih2rcd13ifvqba0","pricing_plan_id":"cebpf4jnsgd1na2vs0mg"},{"bike_id":"bf207ab8-dfef-451d-b918-01c7db48a5d8","system_id":"levelo_inurba_marseille","lat":43.30946,"lon":5.39041,"is_reserved":false,"is_disabled":false,"rental_uris":{"android":"levelo://app?vid=bf207ab8-dfef-451d-b918-01c7db48a5d8","ios":"levelo://app?vid=bf207ab8-dfef-451d-b918-01c7db48a5d8"},"vehicle_type_id":"4","last_reported":1745691155,"current_range_meters":12800,"station_id":"ce4bgup2rcd13ifvqco0","pricing_plan_id":"cebpf4jnsgd1na2vs0mg"},{"bike_id":"4046a82f-66e8-4b55-bd0a-356edea772d8","system_id":"levelo_inurba_marseille","lat":43.31098,"lon":5.37023,"is_reserved":false,"is_disabled":false,"rental_uris":{"android":"levelo://app?vid=4046a82f-66e8-4b55-bd0a-356edea772d8","ios":"levelo://app?vid=4046a82f-66e8-4b55-bd0a-356edea772d8"},"vehicle_type_id":"4","last_reported":1745691155,"current_range_meters":13600,"station_id":"","pricing_plan_id":"cebpf4jnsgd1na2vs0mg"},{"bike_id":"871ff321-985e-4ae5-a5b8-8d608bdff128","system_id":"levelo_inurba_marseille","lat":43.3095,"lon":5.3903,"is_reserved":false,"is_disabled":false,"rental_uris":{"android":"levelo://app?vid=871ff321-985e-4ae5-a5b8-8d608bdff128","ios":"levelo://app?vid=871ff321-985e-4ae5-a5b8-8d608bdff128"},"vehicle_type_id":"4","last_reported":1745691155,"current_range_meters":13600,"station_id":"ce4bgup2rcd13ifvqco0","pricing_plan_id":"cebpf4jnsgd1na2vs0mg"},{"bike_id":"2fac31c9-ecd4-4c07-9ea5-ab959ac9f813","system_id":"levelo_inurba_marseille","lat":43.24661,"lon":5.38187,"is_reserved":false,"is_disabled":true,"rental_uris":{"android":"levelo://app?vid=2fac31c9-ecd4-4c07-9ea5-ab959ac9f813","ios":"levelo://app?vid=2fac31c9-ecd4-4c07-9ea5-ab959ac9f813"},"vehicle_type_id":"4","last_reported":1745691155,"current_range_meters":13600,"station_id":"ce4bhih2rcd13ifvqfr0","pricing_plan_id":"cebpf4jnsgd1na2vs0mg"},{"bike_id":"f221d538-210f-4592-8777-5278f3cdfb7f","system_id":"levelo_inurba_marseille","lat":43.27564,"lon":5.38442,"is_reserved":false,"is_disabled":false,"rental_uris":{"android":"levelo://app?vid=f221d538-210f-4592-8777-5278f3cdfb7f","ios":"levelo://app?vid=f221d538-210f-4592-8777-5278f3cdfb7f"},"vehicle_type_id":"4","last_reported":1745691155,"current_range_meters":13600,"station_id":"ce4bhh92rcd13ifvqfi0","pricing_plan_id":"cebpf4jnsgd1na2vs0mg"},{"bike_id":"c97ed499-7b89-4eaa-a083-6c87142c7666","system_id":"levelo_inurba_marseille","lat":43.27907,"lon":5.39587,"is_reserved":false,"is_disabled":false,"rental_uris":{"android":"levelo://app?vid=c97ed499-7b89-4eaa-a083-6c87142c7666","ios":"levelo://app?vid=c97ed499-7b89-4eaa-a083-6c87142c7666"},"vehicle_type_id":"4","last_reported":1745691155,"current_range_meters":13600,"station_id":"ce4bhf92rcd13ifvqf40","pricing_plan_id":"cebpf4jnsgd1na2vs0mg"},{"bike_id":"7a3cef88-1d1f-4fbf-b209-6b6a09b3bdc4","system_id":"levelo_inurba_marseille","lat":43.29272,"lon":5.38424,"is_reserved":false,"is_disabled":false,"rental_uris":{"android":"levelo://app?vid=7a3cef88-1d1f-4fbf-b209-6b6a09b3bdc4","ios":"levelo://app?vid=7a3cef88-1d1f-4fbf-b209-6b6a09b3bdc4"},"vehicle_type_id":"4","last_reported":1745691155,"current_range_meters":14000,"station_id":"ce4bh692rcd13ifvqea0","pricing_plan_id":"cebpf4jnsgd1na2vs0mg"},{"bike_id":"1632a51b-4f8d-46ef-976e-a0fda3d23b5f","system_id":"levelo_inurba_marseille","lat":43.29539,"lon":5.38547,"is_reserved":false,"is_disabled":false,"rental_uris":{"android":"levelo://app?vid=1632a51b-4f8d-46ef-976e-a0fda3d23b5f","ios":"levelo://app?vid=1632a51b-4f8d-46ef-976e-a0fda3d23b5f"},"vehicle_type_id":"4","last_reported":1745691155,"current_range_meters":14000,"station_id":"ce4bgih2rcd13ifvqba0","pricing_plan_id":"cebpf4jnsgd1na2vs0mg"},{"bike_id":"3ee52dd6-ee76-4da1-bbf0-da3ef76cb155","system_id":"levelo_inurba_marseille","lat":43.34658,"lon":5.34718,"is_reserved":false,"is_disabled":false,"rental_uris":{"android":"levelo://app?vid=3ee52dd6-ee76-4da1-bbf0-da3ef76cb155","ios":"levelo://app?vid=3ee52dd6-ee76-4da1-bbf0-da3ef76cb155"},"vehicle_type_id":"4","last_reported":1745691155,"current_range_meters":14000,"station_id":"","pricing_plan_id":"cebpf4jnsgd1na2vs0mg"},{"bike_id":"8353e2e9-3ad3-4419-bbb9-6104467c77fb","system_id":"levelo_inurba_marseille","lat":43.23194,"lon":5.35557,"is_reserved":false,"is_disabled":false,"rental_uris":{"android":"levelo://app?vid=8353e2e9-3ad3-4419-bbb9-6104467c77fb","ios":"levelo://app?vid=8353e2e9-3ad3-4419-bbb9-6104467c77fb"},"vehicle_type_id":"4","last_reported":1745691155,"current_range_meters":14000,"station_id":"ce4bhu92rcd13ifvqi70","pricing_plan_id":"cebpf4jnsgd1na2vs0mg"},{"bike_id":"351a9fc9-840f-432e-a113-1f2b6482ae90","system_id":"levelo_inurba_marseille","lat":43.25721,"lon":5.41086,"is_reserved":false,"is_disabled":false,"rental_uris":{"android":"levelo://app?vid=351a9fc9-840f-432e-a113-1f2b6482ae90","ios":"levelo://app?vid=351a9fc9-840f-432e-a113-1f2b6482ae90"},"vehicle_type_id":"4","last_reported":1745691155,"current_range_meters":14000,"station_id":"ce4bhkp2rcd13ifvqgd0","pricing_plan_id":"cebpf4jnsgd1na2vs0mg"},{"bike_id":"1897af0c-1c90-4dd9-8264-d9627e47a7c9","system_id":"levelo_inurba_marseille","lat":43.28614,"lon":5.35104,"is_reserved":false,"is_disabled":false,"rental_uris":{"android":"levelo://app?vid=1897af0c-1c90-4dd9-8264-d9627e47a7c9","ios":"levelo://app?vid=1897af0c-1c90-4dd9-8264-d9627e47a7c9"},"vehicle_type_id":"4","last_reported":1745691155,"current_range_meters":14400,"station_id":"ce4bhch2rcd13ifvqeug","pricing_plan_id":"cebpf4jnsgd1na2vs0mg"},{"bike_id":"9724f7bb-132d-4c2e-862d-715061194568","system_id":"levelo_inurba_marseille","lat":43.28465,"lon":5.38428,"is_reserved":false,"is_disabled":false,"rental_uris":{"android":"levelo://app?vid=9724f7bb-132d-4c2e-862d-715061194568","ios":"levelo://app?vid=9724f7bb-132d-4c2e-862d-715061194568"},"vehicle_type_id":"4","last_reported":1745691155,"current_range_meters":14400,"station_id":"ce4bh512rcd13ifvqe3g","pricing_plan_id":"cebpf4jnsgd1na2vs0mg"},{"bike_id":"226012da-a4ff-4396-8e95-84a79b0c50a1","system_id":"levelo_inurba_marseille","lat":43.24667,"lon":5.38159,"is_reserved":false,"is_disabled":false,"rental_uris":{"android":"levelo://app?vid=226012da-a4ff-4396-8e95-84a79b0c50a1","ios":"levelo://app?vid=226012da-a4ff-4396-8e95-84a79b0c50a1"},"vehicle_type_id":"4","last_reported":1745691155,"current_range_meters":14400,"station_id":"ce4bhih2rcd13ifvqfr0","pricing_plan_id":"cebpf4jnsgd1na2vs0mg"},{"bike_id":"43751646-eeca-4626-9212-b13c8f362b11","system_id":"levelo_inurba_marseille","lat":43.31078,"lon":5.38359,"is_reserved":false,"is_disabled":false,"rental_uris":{"android":"levelo://app?vid=43751646-eeca-4626-9212-b13c8f362b11","ios":"levelo://app?vid=43751646-eeca-4626-9212-b13c8f362b11"},"vehicle_type_id":"4","last_reported":1745691155,"current_range_meters":14400,"station_id":"ce4bgv92rcd13ifvqcr0","pricing_plan_id":"cebpf4jnsgd1na2vs0mg"},{"bike_id":"d891b2e8-77ce-402e-bbdb-4ce27ae67e24","system_id":"levelo_inurba_marseille","lat":43.24659,"lon":5.38167,"is_reserved":false,"is_disabled":false,"rental_uris":{"android":"levelo://app?vid=d891b2e8-77ce-402e-bbdb-4ce27ae67e24","ios":"levelo://app?vid=d891b2e8-77ce-402e-bbdb-4ce27ae67e24"},"vehicle_type_id":"4","last_reported":1745691155,"current_range_meters":14400,"station_id":"ce4bhih2rcd13ifvqfr0","pricing_plan_id":"cebpf4jnsgd1na2vs0mg"},{"bike_id":"fdcaf338-d3e1-44ab-b996-4fd6eba29359","system_id":"levelo_inurba_marseille","lat":43.30938,"lon":5.39023,"is_reserved":false,"is_disabled":false,"rental_uris":{"android":"levelo://app?vid=fdcaf338-d3e1-44ab-b996-4fd6eba29359","ios":"levelo://app?vid=fdcaf338-d3e1-44ab-b996-4fd6eba29359"},"vehicle_type_id":"4","last_reported":1745691155,"current_range_meters":14400,"station_id":"ce4bgup2rcd13ifvqco0","pricing_plan_id":"cebpf4jnsgd1na2vs0mg"},{"bike_id":"66001854-f20b-4742-82cc-5d4a5e3fbb39","system_id":"levelo_inurba_marseille","lat":43.27813,"lon":5.40714,"is_reserved":false,"is_disabled":false,"rental_uris":{"android":"levelo://app?vid=66001854-f20b-4742-82cc-5d4a5e3fbb39","ios":"levelo://app?vid=66001854-f20b-4742-82cc-5d4a5e3fbb39"},"vehicle_type_id":"4","last_reported":1745691155,"current_range_meters":14400,"station_id":"ce4bhnh2rcd13ifvqgtg","pricing_plan_id":"cebpf4jnsgd1na2vs0mg"},{"bike_id":"6d85827c-440e-4101-bf4a-74801421310f","system_id":"levelo_inurba_marseille","lat":43.28077,"lon":5.39647,"is_reserved":false,"is_disabled":false,"rental_uris":{"android":"levelo://app?vid=6d85827c-440e-4101-bf4a-74801421310f","ios":"levelo://app?vid=6d85827c-440e-4101-bf4a-74801421310f"},"vehicle_type_id":"4","last_reported":1745691155,"current_range_meters":14400,"station_id":"ce4bho12rcd13ifvqh2g","pricing_plan_id":"cebpf4jnsgd1na2vs0mg"},{"bike_id":"d456638e-4ead-4e9e-b157-b0029b0a5c75","system_id":"levelo_inurba_marseille","lat":43.26499,"lon":5.39542,"is_reserved":false,"is_disabled":false,"rental_uris":{"android":"levelo://app?vid=d456638e-4ead-4e9e-b157-b0029b0a5c75","ios":"levelo://app?vid=d456638e-4ead-4e9e-b157-b0029b0a5c75"},"vehicle_type_id":"4","last_reported":1745691155,"current_range_meters":14800,"station_id":"ce4bhi12rcd13ifvqfq0","pricing_plan_id":"cebpf4jnsgd1na2vs0mg"},{"bike_id":"831a6a93-0e0a-4385-a7b6-6cfc5ae3cb35","system_id":"levelo_inurba_marseille","lat":43.30952,"lon":5.39058,"is_reserved":false,"is_disabled":false,"rental_uris":{"android":"levelo://app?vid=831a6a93-0e0a-4385-a7b6-6cfc5ae3cb35","ios":"levelo://app?vid=831a6a93-0e0a-4385-a7b6-6cfc5ae3cb35"},"vehicle_type_id":"4","last_reported":1745691155,"current_range_meters":14800,"station_id":"ce4bgup2rcd13ifvqco0","pricing_plan_id":"cebpf4jnsgd1na2vs0mg"},{"bike_id":"00f8bf4b-edcc-44ea-9f9a-126717db4173","system_id":"levelo_inurba_marseille","lat":43.29257,"lon":5.38442,"is_reserved":false,"is_disabled":false,"rental_uris":{"android":"levelo://app?vid=00f8bf4b-edcc-44ea-9f9a-126717db4173","ios":"levelo://app?vid=00f8bf4b-edcc-44ea-9f9a-126717db4173"},"vehicle_type_id":"4","last_reported":1745691155,"current_range_meters":14800,"station_id":"ce4bh692rcd13ifvqea0","pricing_plan_id":"cebpf4jnsgd1na2vs0mg"},{"bike_id":"328d57a3-2c92-4abd-b90f-99d968bc0df3","system_id":"levelo_inurba_marseille","lat":43.24802,"lon":5.37464,"is_reserved":false,"is_disabled":false,"rental_uris":{"android":"levelo://app?vid=328d57a3-2c92-4abd-b90f-99d968bc0df3","ios":"levelo://app?vid=328d57a3-2c92-4abd-b90f-99d968bc0df3"},"vehicle_type_id":"4","last_reported":1745691155,"current_range_meters":14800,"station_id":"ce4bhgh2rcd13ifvqfb0","pricing_plan_id":"cebpf4jnsgd1na2vs0mg"},{"bike_id":"224d8d4f-2f24-4c55-9b49-2fd2edb0384b","system_id":"levelo_inurba_marseille","lat":43.30943,"lon":5.39046,"is_reserved":false,"is_disabled":false,"rental_uris":{"android":"levelo://app?vid=224d8d4f-2f24-4c55-9b49-2fd2edb0384b","ios":"levelo://app?vid=224d8d4f-2f24-4c55-9b49-2fd2edb0384b"},"vehicle_type_id":"4","last_reported":1745691155,"current_range_meters":14800,"station_id":"ce4bgup2rcd13ifvqco0","pricing_plan_id":"cebpf4jnsgd1na2vs0mg"},{"bike_id":"8ceb83a1-dfe6-49f1-89c8-ea92a6799553","system_id":"levelo_inurba_marseille","lat":43.30933,"lon":5.39063,"is_reserved":false,"is_disabled":false,"rental_uris":{"android":"levelo://app?vid=8ceb83a1-dfe6-49f1-89c8-ea92a6799553","ios":"levelo://app?vid=8ceb83a1-dfe6-49f1-89c8-ea92a6799553"},"vehicle_type_id":"4","last_reported":1745691155,"current_range_meters":15200,"station_id":"ce4bgup2rcd13ifvqco0","pricing_plan_id":"cebpf4jnsgd1na2vs0mg"},{"bike_id":"356b76a1-af1a-4bef-951e-98e5b057a721","system_id":"levelo_inurba_marseille","lat":43.29255,"lon":5.38431,"is_reserved":false,"is_disabled":true,"rental_uris":{"android":"levelo://app?vid=356b76a1-af1a-4bef-951e-98e5b057a721","ios":"levelo://app?vid=356b76a1-af1a-4bef-951e-98e5b057a721"},"vehicle_type_id":"4","last_reported":1745691155,"current_range_meters":15200,"station_id":"ce4bh692rcd13ifvqea0","pricing_plan_id":"cebpf4jnsgd1na2vs0mg"},{"bike_id":"69d59dd8-109d-47b0-a954-8d18248cca08","system_id":"levelo_inurba_marseille","lat":43.29527,"lon":5.3854,"is_reserved":false,"is_disabled":false,"rental_uris":{"android":"levelo://app?vid=69d59dd8-109d-47b0-a954-8d18248cca08","ios":"levelo://app?vid=69d59dd8-109d-47b0-a954-8d18248cca08"},"vehicle_type_id":"4","last_reported":1745691155,"current_range_meters":14800,"station_id":"ce4bgih2rcd13ifvqba0","pricing_plan_id":"cebpf4jnsgd1na2vs0mg"},{"bike_id":"c17dbf40-6a99-4ad2-8c06-3ca98c92cba7","system_id":"levelo_inurba_marseille","lat":43.27998,"lon":5.41664,"is_reserved":false,"is_disabled":false,"rental_uris":{"android":"levelo://app?vid=c17dbf40-6a99-4ad2-8c06-3ca98c92cba7","ios":"levelo://app?vid=c17dbf40-6a99-4ad2-8c06-3ca98c92cba7"},"vehicle_type_id":"4","last_reported":1745691155,"current_range_meters":15200,"station_id":"ce4bho12rcd13ifvqh1g","pricing_plan_id":"cebpf4jnsgd1na2vs0mg"},{"bike_id":"ad5a560f-ee56-4304-a855-7744e821ca52","system_id":"levelo_inurba_marseille","lat":43.29265,"lon":5.40899,"is_reserved":false,"is_disabled":false,"rental_uris":{"android":"levelo://app?vid=ad5a560f-ee56-4304-a855-7744e821ca52","ios":"levelo://app?vid=ad5a560f-ee56-4304-a855-7744e821ca52"},"vehicle_type_id":"4","last_reported":1745691155,"current_range_meters":15200,"station_id":"ce4bh192rcd13ifvqdc0","pricing_plan_id":"cebpf4jnsgd1na2vs0mg"},{"bike_id":"05845e1b-575b-432f-930c-a9d8fe75dfe2","system_id":"levelo_inurba_marseille","lat":43.26213,"lon":5.37444,"is_reserved":false,"is_disabled":false,"rental_uris":{"android":"levelo://app?vid=05845e1b-575b-432f-930c-a9d8fe75dfe2","ios":"levelo://app?vid=05845e1b-575b-432f-930c-a9d8fe75dfe2"},"vehicle_type_id":"4","last_reported":1745691155,"current_range_meters":15200,"station_id":"ce4bhgp2rcd13ifvqfc0","pricing_plan_id":"cebpf4jnsgd1na2vs0mg"},{"bike_id":"0053b840-de47-4900-98aa-cc8575176b05","system_id":"levelo_inurba_marseille","lat":43.24169,"lon":5.36412,"is_reserved":false,"is_disabled":true,"rental_uris":{"android":"levelo://app?vid=0053b840-de47-4900-98aa-cc8575176b05","ios":"levelo://app?vid=0053b840-de47-4900-98aa-cc8575176b05"},"vehicle_type_id":"4","last_reported":1745691155,"current_range_meters":16000,"station_id":"cpo36qri1sfpv3e86is0","pricing_plan_id":"cebpf4jnsgd1na2vs0mg"},{"bike_id":"0cce0054-fdef-45ea-8297-138684f8acfc","system_id":"levelo_inurba_marseille","lat":43.28625,"lon":5.35067,"is_reserved":false,"is_disabled":false,"rental_uris":{"android":"levelo://app?vid=0cce0054-fdef-45ea-8297-138684f8acfc","ios":"levelo://app?vid=0cce0054-fdef-45ea-8297-138684f8acfc"},"vehicle_type_id":"4","last_reported":1745691155,"current_range_meters":16000,"station_id":"ce4bhch2rcd13ifvqeug","pricing_plan_id":"cebpf4jnsgd1na2vs0mg"},{"bike_id":"f712761d-5fc1-420a-8dda-368a90136292","system_id":"levelo_inurba_marseille","lat":43.28421,"lon":5.34999,"is_reserved":false,"is_disabled":false,"rental_uris":{"android":"levelo://app?vid=f712761d-5fc1-420a-8dda-368a90136292","ios":"levelo://app?vid=f712761d-5fc1-420a-8dda-368a90136292"},"vehicle_type_id":"4","last_reported":1745691155,"current_range_meters":16000,"station_id":"ce4bhbh2rcd13ifvqepg","pricing_plan_id":"cebpf4jnsgd1na2vs0mg"},{"bike_id":"3b452837-a0d1-48c9-81ce-eecdd90d03aa","system_id":"levelo_inurba_marseille","lat":43.29273,"lon":5.38445,"is_reserved":false,"is_disabled":false,"rental_uris":{"android":"levelo://app?vid=3b452837-a0d1-48c9-81ce-eecdd90d03aa","ios":"levelo://app?vid=3b452837-a0d1-48c9-81ce-eecdd90d03aa"},"vehicle_type_id":"4","last_reported":1745691155,"current_range_meters":16000,"station_id":"ce4bh692rcd13ifvqea0","pricing_plan_id":"cebpf4jnsgd1na2vs0mg"},{"bike_id":"0d3b0000-1b2a-461d-9ccf-0ea5e7278deb","system_id":"levelo_inurba_marseille","lat":43.30946,"lon":5.39037,"is_reserved":false,"is_disabled":false,"rental_uris":{"android":"levelo://app?vid=0d3b0000-1b2a-461d-9ccf-0ea5e7278deb","ios":"levelo://app?vid=0d3b0000-1b2a-461d-9ccf-0ea5e7278deb"},"vehicle_type_id":"4","last_reported":1745691155,"current_range_meters":16000,"station_id":"ce4bgup2rcd13ifvqco0","pricing_plan_id":"cebpf4jnsgd1na2vs0mg"},{"bike_id":"0ab6801c-0243-4fc0-bbf6-8366cb37d105","system_id":"levelo_inurba_marseille","lat":43.30945,"lon":5.39039,"is_reserved":false,"is_disabled":false,"rental_uris":{"android":"levelo://app?vid=0ab6801c-0243-4fc0-bbf6-8366cb37d105","ios":"levelo://app?vid=0ab6801c-0243-4fc0-bbf6-8366cb37d105"},"vehicle_type_id":"4","last_reported":1745691155,"current_range_meters":16000,"station_id":"ce4bgup2rcd13ifvqco0","pricing_plan_id":"cebpf4jnsgd1na2vs0mg"},{"bike_id":"af4a97e0-dded-4da0-9eba-7bcd01c44383","system_id":"levelo_inurba_marseille","lat":43.303,"lon":5.39198,"is_reserved":false,"is_disabled":true,"rental_uris":{"android":"levelo://app?vid=af4a97e0-dded-4da0-9eba-7bcd01c44383","ios":"levelo://app?vid=af4a97e0-dded-4da0-9eba-7bcd01c44383"},"vehicle_type_id":"4","last_reported":1745691155,"current_range_meters":16000,"station_id":"ce4bgkh2rcd13ifvqbk0","pricing_plan_id":"cebpf4jnsgd1na2vs0mg"},{"bike_id":"f8fbfab4-884a-46dd-bb39-5a903c4340c6","system_id":"levelo_inurba_marseille","lat":43.26207,"lon":5.3745,"is_reserved":false,"is_disabled":false,"rental_uris":{"android":"levelo://app?vid=f8fbfab4-884a-46dd-bb39-5a903c4340c6","ios":"levelo://app?vid=f8fbfab4-884a-46dd-bb39-5a903c4340c6"},"vehicle_type_id":"4","last_reported":1745691155,"current_range_meters":16000,"station_id":"ce4bhgp2rcd13ifvqfc0","pricing_plan_id":"cebpf4jnsgd1na2vs0mg"},{"bike_id":"ece03f62-431d-4e8a-947a-0426b21f5c89","system_id":"levelo_inurba_marseille","lat":43.267847,"lon":5.394165,"is_reserved":false,"is_disabled":false,"rental_uris":{"android":"levelo://app?vid=ece03f62-431d-4e8a-947a-0426b21f5c89","ios":"levelo://app?vid=ece03f62-431d-4e8a-947a-0426b21f5c89"},"vehicle_type_id":"4","last_reported":1745691155,"current_range_meters":16000,"station_id":"ce4bhh12rcd13ifvqfg0","pricing_plan_id":"cebpf4jnsgd1na2vs0mg"},{"bike_id":"91474842-32bf-45c2-856a-80fd91d22aa5","system_id":"levelo_inurba_marseille","lat":43.21182,"lon":5.35067,"is_reserved":false,"is_disabled":false,"rental_uris":{"android":"levelo://app?vid=91474842-32bf-45c2-856a-80fd91d22aa5","ios":"levelo://app?vid=91474842-32bf-45c2-856a-80fd91d22aa5"},"vehicle_type_id":"4","last_reported":1745691155,"current_range_meters":16000,"station_id":"st_cvj6sg6p6f1abm77japg","pricing_plan_id":"cebpf4jnsgd1na2vs0mg"},{"bike_id":"d7f1cc2b-619e-47a1-87f7-7d2b24200a67","system_id":"levelo_inurba_marseille","lat":43.292952,"lon":5.371293,"is_reserved":false,"is_disabled":false,"rental_uris":{"android":"levelo://app?vid=d7f1cc2b-619e-47a1-87f7-7d2b24200a67","ios":"levelo://app?vid=d7f1cc2b-619e-47a1-87f7-7d2b24200a67"},"vehicle_type_id":"4","last_reported":1745691155,"current_range_meters":16400,"station_id":"ce4bgh92rcd13ifvqb40","pricing_plan_id":"cebpf4jnsgd1na2vs0mg"},{"bike_id":"ae1d96a0-b0a2-41e1-be14-e78907f9338a","system_id":"levelo_inurba_marseille","lat":43.29515,"lon":5.39393,"is_reserved":false,"is_disabled":true,"rental_uris":{"android":"levelo://app?vid=ae1d96a0-b0a2-41e1-be14-e78907f9338a","ios":"levelo://app?vid=ae1d96a0-b0a2-41e1-be14-e78907f9338a"},"vehicle_type_id":"4","last_reported":1745691155,"current_range_meters":16400,"station_id":"ce4bh292rcd13ifvqdf0","pricing_plan_id":"cebpf4jnsgd1na2vs0mg"},{"bike_id":"47859ae8-4157-419a-a068-4625ada059ba","system_id":"levelo_inurba_marseille","lat":43.26234,"lon":5.40487,"is_reserved":false,"is_disabled":false,"rental_uris":{"android":"levelo://app?vid=47859ae8-4157-419a-a068-4625ada059ba","ios":"levelo://app?vid=47859ae8-4157-419a-a068-4625ada059ba"},"vehicle_type_id":"4","last_reported":1745691155,"current_range_meters":16400,"station_id":"ce4bhmh2rcd13ifvqgmg","pricing_plan_id":"cebpf4jnsgd1na2vs0mg"},{"bike_id":"0fa4fe73-0d60-4b12-a594-acb0470d4dad","system_id":"levelo_inurba_marseille","lat":43.30589,"lon":5.39349,"is_reserved":false,"is_disabled":false,"rental_uris":{"android":"levelo://app?vid=0fa4fe73-0d60-4b12-a594-acb0470d4dad","ios":"levelo://app?vid=0fa4fe73-0d60-4b12-a594-acb0470d4dad"},"vehicle_type_id":"4","last_reported":1745691155,"current_range_meters":16400,"station_id":"ce4bh0p2rcd13ifvqd80","pricing_plan_id":"cebpf4jnsgd1na2vs0mg"},{"bike_id":"9ee70cff-d276-4011-b3a0-335f214269e6","system_id":"levelo_inurba_marseille","lat":43.29031,"lon":5.39964,"is_reserved":false,"is_disabled":false,"rental_uris":{"android":"levelo://app?vid=9ee70cff-d276-4011-b3a0-335f214269e6","ios":"levelo://app?vid=9ee70cff-d276-4011-b3a0-335f214269e6"},"vehicle_type_id":"4","last_reported":1745691155,"current_range_meters":16400,"station_id":"ce4bh392rcd13ifvqdm0","pricing_plan_id":"cebpf4jnsgd1na2vs0mg"},{"bike_id":"93bc2b7c-3af0-40e8-9814-d9cd76b8a88d","system_id":"levelo_inurba_marseille","lat":43.2903,"lon":5.3865,"is_reserved":false,"is_disabled":false,"rental_uris":{"android":"levelo://app?vid=93bc2b7c-3af0-40e8-9814-d9cd76b8a88d","ios":"levelo://app?vid=93bc2b7c-3af0-40e8-9814-d9cd76b8a88d"},"vehicle_type_id":"4","last_reported":1745691155,"current_range_meters":16400,"station_id":"ce4bh4p2rcd13ifvqe0g","pricing_plan_id":"cebpf4jnsgd1na2vs0mg"},{"bike_id":"a08e6535-7d97-4f82-b424-5e6daf2d2362","system_id":"levelo_inurba_marseille","lat":43.29536,"lon":5.39398,"is_reserved":false,"is_disabled":true,"rental_uris":{"android":"levelo://app?vid=a08e6535-7d97-4f82-b424-5e6daf2d2362","ios":"levelo://app?vid=a08e6535-7d97-4f82-b424-5e6daf2d2362"},"vehicle_type_id":"4","last_reported":1745691155,"current_range_meters":16800,"station_id":"ce4bh292rcd13ifvqdf0","pricing_plan_id":"cebpf4jnsgd1na2vs0mg"},{"bike_id":"f8a3ba54-d48c-4880-a189-893783e00ca1","system_id":"levelo_inurba_marseille","lat":43.31372,"lon":5.385047,"is_reserved":false,"is_disabled":false,"rental_uris":{"android":"levelo://app?vid=f8a3ba54-d48c-4880-a189-893783e00ca1","ios":"levelo://app?vid=f8a3ba54-d48c-4880-a189-893783e00ca1"},"vehicle_type_id":"4","last_reported":1745691155,"current_range_meters":16400,"station_id":"ce4bgt92rcd13ifvqcf0","pricing_plan_id":"cebpf4jnsgd1na2vs0mg"},{"bike_id":"afd33670-82f7-4c5c-9029-2dc1c34e85e4","system_id":"levelo_inurba_marseille","lat":43.28758,"lon":5.39709,"is_reserved":false,"is_disabled":false,"rental_uris":{"android":"levelo://app?vid=afd33670-82f7-4c5c-9029-2dc1c34e85e4","ios":"levelo://app?vid=afd33670-82f7-4c5c-9029-2dc1c34e85e4"},"vehicle_type_id":"4","last_reported":1745691155,"current_range_meters":16800,"station_id":"","pricing_plan_id":"cebpf4jnsgd1na2vs0mg"},{"bike_id":"d11f8c40-3d75-42b6-ac3c-3b9a38641790","system_id":"levelo_inurba_marseille","lat":43.26198,"lon":5.37457,"is_reserved":false,"is_disabled":false,"rental_uris":{"android":"levelo://app?vid=d11f8c40-3d75-42b6-ac3c-3b9a38641790","ios":"levelo://app?vid=d11f8c40-3d75-42b6-ac3c-3b9a38641790"},"vehicle_type_id":"4","last_reported":1745691155,"current_range_meters":16800,"station_id":"ce4bhgp2rcd13ifvqfc0","pricing_plan_id":"cebpf4jnsgd1na2vs0mg"},{"bike_id":"ff955189-fb27-434e-9353-e739e77239f6","system_id":"levelo_inurba_marseille","lat":43.29281,"lon":5.36842,"is_reserved":false,"is_disabled":false,"rental_uris":{"android":"levelo://app?vid=ff955189-fb27-434e-9353-e739e77239f6","ios":"levelo://app?vid=ff955189-fb27-434e-9353-e739e77239f6"},"vehicle_type_id":"4","last_reported":1745691155,"current_range_meters":16800,"station_id":"ce4bhbp2rcd13ifvqesg","pricing_plan_id":"cebpf4jnsgd1na2vs0mg"},{"bike_id":"279d5cac-f4bc-45b2-a43b-0211a9ab4701","system_id":"levelo_inurba_marseille","lat":43.28943,"lon":5.36637,"is_reserved":false,"is_disabled":false,"rental_uris":{"android":"levelo://app?vid=279d5cac-f4bc-45b2-a43b-0211a9ab4701","ios":"levelo://app?vid=279d5cac-f4bc-45b2-a43b-0211a9ab4701"},"vehicle_type_id":"4","last_reported":1745691155,"current_range_meters":17200,"station_id":"ce4bhap2rcd13ifvqek0","pricing_plan_id":"cebpf4jnsgd1na2vs0mg"},{"bike_id":"7f9aea16-5abb-4b89-aa26-6704b3ee11ec","system_id":"levelo_inurba_marseille","lat":43.2693,"lon":5.38913,"is_reserved":false,"is_disabled":false,"rental_uris":{"android":"levelo://app?vid=7f9aea16-5abb-4b89-aa26-6704b3ee11ec","ios":"levelo://app?vid=7f9aea16-5abb-4b89-aa26-6704b3ee11ec"},"vehicle_type_id":"4","last_reported":1745691155,"current_range_meters":17200,"station_id":"ce4bhhh2rcd13ifvqfl0","pricing_plan_id":"cebpf4jnsgd1na2vs0mg"},{"bike_id":"560f12bb-1614-4d7c-b78e-ccf5bdec9ea6","system_id":"levelo_inurba_marseille","lat":43.28448,"lon":5.35882,"is_reserved":false,"is_disabled":true,"rental_uris":{"android":"levelo://app?vid=560f12bb-1614-4d7c-b78e-ccf5bdec9ea6","ios":"levelo://app?vid=560f12bb-1614-4d7c-b78e-ccf5bdec9ea6"},"vehicle_type_id":"4","last_reported":1745691155,"current_range_meters":17200,"station_id":"ce4bhah2rcd13ifvqei0","pricing_plan_id":"cebpf4jnsgd1na2vs0mg"},{"bike_id":"e289e8fb-7f4f-4a24-91cd-241de9351d47","system_id":"levelo_inurba_marseille","lat":43.30937,"lon":5.39041,"is_reserved":false,"is_disabled":false,"rental_uris":{"android":"levelo://app?vid=e289e8fb-7f4f-4a24-91cd-241de9351d47","ios":"levelo://app?vid=e289e8fb-7f4f-4a24-91cd-241de9351d47"},"vehicle_type_id":"4","last_reported":1745691155,"current_range_meters":17200,"station_id":"ce4bgup2rcd13ifvqco0","pricing_plan_id":"cebpf4jnsgd1na2vs0mg"},{"bike_id":"726ef72a-188f-4e5a-b178-46a621faf32b","system_id":"levelo_inurba_marseille","lat":43.27913,"lon":5.39591,"is_reserved":false,"is_disabled":false,"rental_uris":{"android":"levelo://app?vid=726ef72a-188f-4e5a-b178-46a621faf32b","ios":"levelo://app?vid=726ef72a-188f-4e5a-b178-46a621faf32b"},"vehicle_type_id":"4","last_reported":1745691155,"current_range_meters":17600,"station_id":"ce4bhf92rcd13ifvqf40","pricing_plan_id":"cebpf4jnsgd1na2vs0mg"},{"bike_id":"df4070e3-4f59-4a51-95c6-c4e23705b8e8","system_id":"levelo_inurba_marseille","lat":43.30947,"lon":5.39041,"is_reserved":false,"is_disabled":false,"rental_uris":{"android":"levelo://app?vid=df4070e3-4f59-4a51-95c6-c4e23705b8e8","ios":"levelo://app?vid=df4070e3-4f59-4a51-95c6-c4e23705b8e8"},"vehicle_type_id":"4","last_reported":1745691155,"current_range_meters":17600,"station_id":"ce4bgup2rcd13ifvqco0","pricing_plan_id":"cebpf4jnsgd1na2vs0mg"},{"bike_id":"068b248a-5adb-45eb-a641-c4fb47ca6f77","system_id":"levelo_inurba_marseille","lat":43.29274,"lon":5.36841,"is_reserved":false,"is_disabled":false,"rental_uris":{"android":"levelo://app?vid=068b248a-5adb-45eb-a641-c4fb47ca6f77","ios":"levelo://app?vid=068b248a-5adb-45eb-a641-c4fb47ca6f77"},"vehicle_type_id":"4","last_reported":1745691155,"current_range_meters":17600,"station_id":"ce4bhbp2rcd13ifvqesg","pricing_plan_id":"cebpf4jnsgd1na2vs0mg"},{"bike_id":"954197cd-b084-4e68-9ad4-df180d368935","system_id":"levelo_inurba_marseille","lat":43.30928,"lon":5.40141,"is_reserved":false,"is_disabled":false,"rental_uris":{"android":"levelo://app?vid=954197cd-b084-4e68-9ad4-df180d368935","ios":"levelo://app?vid=954197cd-b084-4e68-9ad4-df180d368935"},"vehicle_type_id":"4","last_reported":1745691155,"current_range_meters":17600,"station_id":"ce4bgvp2rcd13ifvqct0","pricing_plan_id":"cebpf4jnsgd1na2vs0mg"},{"bike_id":"9400eaf0-9994-4b35-85ce-22818c9143cc","system_id":"levelo_inurba_marseille","lat":43.241748,"lon":5.364023,"is_reserved":false,"is_disabled":false,"rental_uris":{"android":"levelo://app?vid=9400eaf0-9994-4b35-85ce-22818c9143cc","ios":"levelo://app?vid=9400eaf0-9994-4b35-85ce-22818c9143cc"},"vehicle_type_id":"4","last_reported":1745691155,"current_range_meters":17600,"station_id":"cpo36qri1sfpv3e86is0","pricing_plan_id":"cebpf4jnsgd1na2vs0mg"},{"bike_id":"c61c0a62-9878-4117-8472-39356d666690","system_id":"levelo_inurba_marseille","lat":43.30544,"lon":5.36559,"is_reserved":false,"is_disabled":false,"rental_uris":{"android":"levelo://app?vid=c61c0a62-9878-4117-8472-39356d666690","ios":"levelo://app?vid=c61c0a62-9878-4117-8472-39356d666690"},"vehicle_type_id":"4","last_reported":1745691155,"current_range_meters":17200,"station_id":"ce4bgs12rcd13ifvqcag","pricing_plan_id":"cebpf4jnsgd1na2vs0mg"},{"bike_id":"38a5787a-3504-47ba-8cd1-5eec7c840ad4","system_id":"levelo_inurba_marseille","lat":43.30945,"lon":5.39054,"is_reserved":false,"is_disabled":false,"rental_uris":{"android":"levelo://app?vid=38a5787a-3504-47ba-8cd1-5eec7c840ad4","ios":"levelo://app?vid=38a5787a-3504-47ba-8cd1-5eec7c840ad4"},"vehicle_type_id":"4","last_reported":1745691155,"current_range_meters":17600,"station_id":"ce4bgup2rcd13ifvqco0","pricing_plan_id":"cebpf4jnsgd1na2vs0mg"},{"bike_id":"c469e040-f373-4e85-80a0-a058f66146fc","system_id":"levelo_inurba_marseille","lat":43.24663,"lon":5.38171,"is_reserved":false,"is_disabled":false,"rental_uris":{"android":"levelo://app?vid=c469e040-f373-4e85-80a0-a058f66146fc","ios":"levelo://app?vid=c469e040-f373-4e85-80a0-a058f66146fc"},"vehicle_type_id":"4","last_reported":1745691155,"current_range_meters":17600,"station_id":"ce4bhih2rcd13ifvqfr0","pricing_plan_id":"cebpf4jnsgd1na2vs0mg"},{"bike_id":"ba855121-da96-430f-97ba-6b78ccb57ca3","system_id":"levelo_inurba_marseille","lat":43.29275,"lon":5.38433,"is_reserved":false,"is_disabled":false,"rental_uris":{"android":"levelo://app?vid=ba855121-da96-430f-97ba-6b78ccb57ca3","ios":"levelo://app?vid=ba855121-da96-430f-97ba-6b78ccb57ca3"},"vehicle_type_id":"4","last_reported":1745691155,"current_range_meters":17600,"station_id":"ce4bh692rcd13ifvqea0","pricing_plan_id":"cebpf4jnsgd1na2vs0mg"},{"bike_id":"f26cc71f-f634-459c-ba0d-8ad391a7021e","system_id":"levelo_inurba_marseille","lat":43.29417,"lon":5.38626,"is_reserved":false,"is_disabled":false,"rental_uris":{"android":"levelo://app?vid=f26cc71f-f634-459c-ba0d-8ad391a7021e","ios":"levelo://app?vid=f26cc71f-f634-459c-ba0d-8ad391a7021e"},"vehicle_type_id":"4","last_reported":1745691155,"current_range_meters":17600,"station_id":"ce4bh2h2rcd13ifvqdh0","pricing_plan_id":"cebpf4jnsgd1na2vs0mg"},{"bike_id":"4b37c09e-c6bb-4c2f-b35d-fe67a6722f02","system_id":"levelo_inurba_marseille","lat":43.27946,"lon":5.41049,"is_reserved":false,"is_disabled":false,"rental_uris":{"android":"levelo://app?vid=4b37c09e-c6bb-4c2f-b35d-fe67a6722f02","ios":"levelo://app?vid=4b37c09e-c6bb-4c2f-b35d-fe67a6722f02"},"vehicle_type_id":"4","last_reported":1745691155,"current_range_meters":17600,"station_id":"ce4bhnp2rcd13ifvqh0g","pricing_plan_id":"cebpf4jnsgd1na2vs0mg"},{"bike_id":"d78224a1-e611-426e-9f79-562b8578cfa4","system_id":"levelo_inurba_marseille","lat":43.30943,"lon":5.39041,"is_reserved":false,"is_disabled":false,"rental_uris":{"android":"levelo://app?vid=d78224a1-e611-426e-9f79-562b8578cfa4","ios":"levelo://app?vid=d78224a1-e611-426e-9f79-562b8578cfa4"},"vehicle_type_id":"4","last_reported":1745691155,"current_range_meters":18000,"station_id":"ce4bgup2rcd13ifvqco0","pricing_plan_id":"cebpf4jnsgd1na2vs0mg"},{"bike_id":"fc717150-06dc-47c4-9d68-49dce59ccdfd","system_id":"levelo_inurba_marseille","lat":43.31233,"lon":5.36876,"is_reserved":false,"is_disabled":false,"rental_uris":{"android":"levelo://app?vid=fc717150-06dc-47c4-9d68-49dce59ccdfd","ios":"levelo://app?vid=fc717150-06dc-47c4-9d68-49dce59ccdfd"},"vehicle_type_id":"4","last_reported":1745691155,"current_range_meters":18000,"station_id":"ce4bgl92rcd13ifvqbq0","pricing_plan_id":"cebpf4jnsgd1na2vs0mg"},{"bike_id":"57ebd52c-bbc8-4a4d-8d80-2da8f6250dbd","system_id":"levelo_inurba_marseille","lat":43.27816,"lon":5.40736,"is_reserved":false,"is_disabled":true,"rental_uris":{"android":"levelo://app?vid=57ebd52c-bbc8-4a4d-8d80-2da8f6250dbd","ios":"levelo://app?vid=57ebd52c-bbc8-4a4d-8d80-2da8f6250dbd"},"vehicle_type_id":"4","last_reported":1745691155,"current_range_meters":18000,"station_id":"ce4bhnh2rcd13ifvqgtg","pricing_plan_id":"cebpf4jnsgd1na2vs0mg"},{"bike_id":"f2459ddf-9293-43fc-b3f8-fcaea997b907","system_id":"levelo_inurba_marseille","lat":43.292653,"lon":5.38438,"is_reserved":false,"is_disabled":false,"rental_uris":{"android":"levelo://app?vid=f2459ddf-9293-43fc-b3f8-fcaea997b907","ios":"levelo://app?vid=f2459ddf-9293-43fc-b3f8-fcaea997b907"},"vehicle_type_id":"4","last_reported":1745691155,"current_range_meters":18000,"station_id":"ce4bh692rcd13ifvqea0","pricing_plan_id":"cebpf4jnsgd1na2vs0mg"},{"bike_id":"930a27ed-e332-4497-ae79-3616740ea6ae","system_id":"levelo_inurba_marseille","lat":43.28032,"lon":5.36953,"is_reserved":false,"is_disabled":false,"rental_uris":{"android":"levelo://app?vid=930a27ed-e332-4497-ae79-3616740ea6ae","ios":"levelo://app?vid=930a27ed-e332-4497-ae79-3616740ea6ae"},"vehicle_type_id":"4","last_reported":1745691155,"current_range_meters":18000,"station_id":"ce4bha12rcd13ifvqef0","pricing_plan_id":"cebpf4jnsgd1na2vs0mg"},{"bike_id":"dfc383dc-343b-438e-9a76-740f9df1fe81","system_id":"levelo_inurba_marseille","lat":43.30368,"lon":5.42367,"is_reserved":false,"is_disabled":false,"rental_uris":{"android":"levelo://app?vid=dfc383dc-343b-438e-9a76-740f9df1fe81","ios":"levelo://app?vid=dfc383dc-343b-438e-9a76-740f9df1fe81"},"vehicle_type_id":"4","last_reported":1745691155,"current_range_meters":18000,"station_id":"","pricing_plan_id":"cebpf4jnsgd1na2vs0mg"},{"bike_id":"18bb3dd5-5cbe-443a-90b6-1cbb99ab54d5","system_id":"levelo_inurba_marseille","lat":43.29267,"lon":5.38434,"is_reserved":false,"is_disabled":false,"rental_uris":{"android":"levelo://app?vid=18bb3dd5-5cbe-443a-90b6-1cbb99ab54d5","ios":"levelo://app?vid=18bb3dd5-5cbe-443a-90b6-1cbb99ab54d5"},"vehicle_type_id":"4","last_reported":1745691155,"current_range_meters":18800,"station_id":"ce4bh692rcd13ifvqea0","pricing_plan_id":"cebpf4jnsgd1na2vs0mg"},{"bike_id":"1dbcb4c5-f01c-4294-84dd-c4d9efd2fe74","system_id":"levelo_inurba_marseille","lat":43.26205,"lon":5.37928,"is_reserved":false,"is_disabled":false,"rental_uris":{"android":"levelo://app?vid=1dbcb4c5-f01c-4294-84dd-c4d9efd2fe74","ios":"levelo://app?vid=1dbcb4c5-f01c-4294-84dd-c4d9efd2fe74"},"vehicle_type_id":"4","last_reported":1745691155,"current_range_meters":18800,"station_id":"ce4bhjp2rcd13ifvqg90","pricing_plan_id":"cebpf4jnsgd1na2vs0mg"},{"bike_id":"732e8600-fef4-438f-88f6-771fab925da9","system_id":"levelo_inurba_marseille","lat":43.32112,"lon":5.36772,"is_reserved":false,"is_disabled":false,"rental_uris":{"android":"levelo://app?vid=732e8600-fef4-438f-88f6-771fab925da9","ios":"levelo://app?vid=732e8600-fef4-438f-88f6-771fab925da9"},"vehicle_type_id":"4","last_reported":1745691155,"current_range_meters":18800,"station_id":"ce4bhrh2rcd13ifvqhug","pricing_plan_id":"cebpf4jnsgd1na2vs0mg"},{"bike_id":"0d777af5-4166-475a-a6b9-6a0197032592","system_id":"levelo_inurba_marseille","lat":43.23259,"lon":5.35221,"is_reserved":false,"is_disabled":false,"rental_uris":{"android":"levelo://app?vid=0d777af5-4166-475a-a6b9-6a0197032592","ios":"levelo://app?vid=0d777af5-4166-475a-a6b9-6a0197032592"},"vehicle_type_id":"4","last_reported":1745691155,"current_range_meters":18800,"station_id":"","pricing_plan_id":"cebpf4jnsgd1na2vs0mg"},{"bike_id":"ac4c4173-35f2-480f-a156-1e96630b45e8","system_id":"levelo_inurba_marseille","lat":43.24067,"lon":5.37757,"is_reserved":false,"is_disabled":false,"rental_uris":{"android":"levelo://app?vid=ac4c4173-35f2-480f-a156-1e96630b45e8","ios":"levelo://app?vid=ac4c4173-35f2-480f-a156-1e96630b45e8"},"vehicle_type_id":"4","last_reported":1745691155,"current_range_meters":18800,"station_id":"ce4bhnp2rcd13ifvqgvg","pricing_plan_id":"cebpf4jnsgd1na2vs0mg"},{"bike_id":"62f632ff-2ca1-4a79-b749-b6c16003f226","system_id":"levelo_inurba_marseille","lat":43.29533,"lon":5.38534,"is_reserved":false,"is_disabled":false,"rental_uris":{"android":"levelo://app?vid=62f632ff-2ca1-4a79-b749-b6c16003f226","ios":"levelo://app?vid=62f632ff-2ca1-4a79-b749-b6c16003f226"},"vehicle_type_id":"4","last_reported":1745691155,"current_range_meters":18800,"station_id":"ce4bgih2rcd13ifvqba0","pricing_plan_id":"cebpf4jnsgd1na2vs0mg"},{"bike_id":"cf0d47bd-81d3-4c57-82db-02956e138e59","system_id":"levelo_inurba_marseille","lat":43.32344,"lon":5.38913,"is_reserved":false,"is_disabled":false,"rental_uris":{"android":"levelo://app?vid=cf0d47bd-81d3-4c57-82db-02956e138e59","ios":"levelo://app?vid=cf0d47bd-81d3-4c57-82db-02956e138e59"},"vehicle_type_id":"4","last_reported":1745691155,"current_range_meters":18800,"station_id":"ce4bhqp2rcd13ifvqhog","pricing_plan_id":"cebpf4jnsgd1na2vs0mg"},{"bike_id":"7093fcd7-af63-4c17-8ca4-d04a9de17049","system_id":"levelo_inurba_marseille","lat":43.21746,"lon":5.34607,"is_reserved":false,"is_disabled":false,"rental_uris":{"android":"levelo://app?vid=7093fcd7-af63-4c17-8ca4-d04a9de17049","ios":"levelo://app?vid=7093fcd7-af63-4c17-8ca4-d04a9de17049"},"vehicle_type_id":"4","last_reported":1745691155,"current_range_meters":18800,"station_id":"","pricing_plan_id":"cebpf4jnsgd1na2vs0mg"},{"bike_id":"79fed3c8-9a85-4f45-8955-0676ed125ab0","system_id":"levelo_inurba_marseille","lat":43.2927,"lon":5.36845,"is_reserved":false,"is_disabled":false,"rental_uris":{"android":"levelo://app?vid=79fed3c8-9a85-4f45-8955-0676ed125ab0","ios":"levelo://app?vid=79fed3c8-9a85-4f45-8955-0676ed125ab0"},"vehicle_type_id":"4","last_reported":1745691155,"current_range_meters":18800,"station_id":"ce4bhbp2rcd13ifvqesg","pricing_plan_id":"cebpf4jnsgd1na2vs0mg"},{"bike_id":"3ad35c25-d89f-4ea6-848b-393a00786d79","system_id":"levelo_inurba_marseille","lat":43.29873,"lon":5.42077,"is_reserved":false,"is_disabled":false,"rental_uris":{"android":"levelo://app?vid=3ad35c25-d89f-4ea6-848b-393a00786d79","ios":"levelo://app?vid=3ad35c25-d89f-4ea6-848b-393a00786d79"},"vehicle_type_id":"4","last_reported":1745691155,"current_range_meters":18800,"station_id":"","pricing_plan_id":"cebpf4jnsgd1na2vs0mg"},{"bike_id":"0dcd0f1b-dc4b-42eb-b9e4-7b6d79678197","system_id":"levelo_inurba_marseille","lat":43.32286,"lon":5.382797,"is_reserved":false,"is_disabled":false,"rental_uris":{"android":"levelo://app?vid=0dcd0f1b-dc4b-42eb-b9e4-7b6d79678197","ios":"levelo://app?vid=0dcd0f1b-dc4b-42eb-b9e4-7b6d79678197"},"vehicle_type_id":"4","last_reported":1745691155,"current_range_meters":18800,"station_id":"ce4bhr12rcd13ifvqhqg","pricing_plan_id":"cebpf4jnsgd1na2vs0mg"},{"bike_id":"b330c3b4-8203-49c9-a4bf-5485d09a1d2d","system_id":"levelo_inurba_marseille","lat":43.30219,"lon":5.39467,"is_reserved":false,"is_disabled":true,"rental_uris":{"android":"levelo://app?vid=b330c3b4-8203-49c9-a4bf-5485d09a1d2d","ios":"levelo://app?vid=b330c3b4-8203-49c9-a4bf-5485d09a1d2d"},"vehicle_type_id":"4","last_reported":1745691155,"current_range_meters":18800,"station_id":"ce4bh0p2rcd13ifvqd70","pricing_plan_id":"cebpf4jnsgd1na2vs0mg"},{"bike_id":"1904f6f3-db39-408d-943e-4a2b1b2dc843","system_id":"levelo_inurba_marseille","lat":43.28852,"lon":5.39315,"is_reserved":false,"is_disabled":false,"rental_uris":{"android":"levelo://app?vid=1904f6f3-db39-408d-943e-4a2b1b2dc843","ios":"levelo://app?vid=1904f6f3-db39-408d-943e-4a2b1b2dc843"},"vehicle_type_id":"4","last_reported":1745691155,"current_range_meters":18800,"station_id":"ce4bh2p2rcd13ifvqdi0","pricing_plan_id":"cebpf4jnsgd1na2vs0mg"},{"bike_id":"5f5d3524-b0f0-47c6-8eac-9ef084096f55","system_id":"levelo_inurba_marseille","lat":43.27408,"lon":5.39288,"is_reserved":false,"is_disabled":false,"rental_uris":{"android":"levelo://app?vid=5f5d3524-b0f0-47c6-8eac-9ef084096f55","ios":"levelo://app?vid=5f5d3524-b0f0-47c6-8eac-9ef084096f55"},"vehicle_type_id":"4","last_reported":1745691155,"current_range_meters":18800,"station_id":"ce4bhdp2rcd13ifvqf20","pricing_plan_id":"cebpf4jnsgd1na2vs0mg"},{"bike_id":"99be1414-58ff-4752-826b-d0dcc4401711","system_id":"levelo_inurba_marseille","lat":43.24828,"lon":5.37449,"is_reserved":false,"is_disabled":true,"rental_uris":{"android":"levelo://app?vid=99be1414-58ff-4752-826b-d0dcc4401711","ios":"levelo://app?vid=99be1414-58ff-4752-826b-d0dcc4401711"},"vehicle_type_id":"4","last_reported":1745691155,"current_range_meters":18800,"station_id":"ce4bhgh2rcd13ifvqfb0","pricing_plan_id":"cebpf4jnsgd1na2vs0mg"},{"bike_id":"ba35a09a-47fd-408d-abb3-3d091acfd017","system_id":"levelo_inurba_marseille","lat":43.34144,"lon":5.40908,"is_reserved":false,"is_disabled":false,"rental_uris":{"android":"levelo://app?vid=ba35a09a-47fd-408d-abb3-3d091acfd017","ios":"levelo://app?vid=ba35a09a-47fd-408d-abb3-3d091acfd017"},"vehicle_type_id":"4","last_reported":1745691155,"current_range_meters":19200,"station_id":"ce4bhqh2rcd13ifvqhlg","pricing_plan_id":"cebpf4jnsgd1na2vs0mg"},{"bike_id":"7575da37-888c-49e1-ae26-1fb5b6c4bf26","system_id":"levelo_inurba_marseille","lat":43.28652,"lon":5.35081,"is_reserved":false,"is_disabled":false,"rental_uris":{"android":"levelo://app?vid=7575da37-888c-49e1-ae26-1fb5b6c4bf26","ios":"levelo://app?vid=7575da37-888c-49e1-ae26-1fb5b6c4bf26"},"vehicle_type_id":"4","last_reported":1745691155,"current_range_meters":19200,"station_id":"ce4bhch2rcd13ifvqeug","pricing_plan_id":"cebpf4jnsgd1na2vs0mg"},{"bike_id":"63e87da0-f421-4d44-9460-33172dc0267c","system_id":"levelo_inurba_marseille","lat":43.32533,"lon":5.41459,"is_reserved":false,"is_disabled":false,"rental_uris":{"android":"levelo://app?vid=63e87da0-f421-4d44-9460-33172dc0267c","ios":"levelo://app?vid=63e87da0-f421-4d44-9460-33172dc0267c"},"vehicle_type_id":"4","last_reported":1745691155,"current_range_meters":19200,"station_id":"ce4bhq12rcd13ifvqhhg","pricing_plan_id":"cebpf4jnsgd1na2vs0mg"},{"bike_id":"3d934169-6946-46cc-87a4-ce5d03b77075","system_id":"levelo_inurba_marseille","lat":43.21753,"lon":5.34597,"is_reserved":false,"is_disabled":false,"rental_uris":{"android":"levelo://app?vid=3d934169-6946-46cc-87a4-ce5d03b77075","ios":"levelo://app?vid=3d934169-6946-46cc-87a4-ce5d03b77075"},"vehicle_type_id":"4","last_reported":1745691155,"current_range_meters":19200,"station_id":"","pricing_plan_id":"cebpf4jnsgd1na2vs0mg"},{"bike_id":"389fa13e-9fb8-4551-94cc-3437e858ed36","system_id":"levelo_inurba_marseille","lat":43.24169,"lon":5.364,"is_reserved":false,"is_disabled":false,"rental_uris":{"android":"levelo://app?vid=389fa13e-9fb8-4551-94cc-3437e858ed36","ios":"levelo://app?vid=389fa13e-9fb8-4551-94cc-3437e858ed36"},"vehicle_type_id":"4","last_reported":1745691155,"current_range_meters":19200,"station_id":"cpo36qri1sfpv3e86is0","pricing_plan_id":"cebpf4jnsgd1na2vs0mg"},{"bike_id":"b6172076-0a0b-4d11-b6c8-6da9a0a0f23e","system_id":"levelo_inurba_marseille","lat":43.29176,"lon":5.37152,"is_reserved":false,"is_disabled":false,"rental_uris":{"android":"levelo://app?vid=b6172076-0a0b-4d11-b6c8-6da9a0a0f23e","ios":"levelo://app?vid=b6172076-0a0b-4d11-b6c8-6da9a0a0f23e"},"vehicle_type_id":"4","last_reported":1745691155,"current_range_meters":19200,"station_id":"ce4bha92rcd13ifvqeh0","pricing_plan_id":"cebpf4jnsgd1na2vs0mg"},{"bike_id":"1111fa7a-e347-4b73-a1cd-bf646fb0fa33","system_id":"levelo_inurba_marseille","lat":43.25502,"lon":5.37653,"is_reserved":false,"is_disabled":false,"rental_uris":{"android":"levelo://app?vid=1111fa7a-e347-4b73-a1cd-bf646fb0fa33","ios":"levelo://app?vid=1111fa7a-e347-4b73-a1cd-bf646fb0fa33"},"vehicle_type_id":"4","last_reported":1745691155,"current_range_meters":19200,"station_id":"ce4bhh12rcd13ifvqff0","pricing_plan_id":"cebpf4jnsgd1na2vs0mg"},{"bike_id":"4b708987-7c56-4bf7-a1e9-1a32f6a0f031","system_id":"levelo_inurba_marseille","lat":43.26583,"lon":5.39084,"is_reserved":false,"is_disabled":false,"rental_uris":{"android":"levelo://app?vid=4b708987-7c56-4bf7-a1e9-1a32f6a0f031","ios":"levelo://app?vid=4b708987-7c56-4bf7-a1e9-1a32f6a0f031"},"vehicle_type_id":"4","last_reported":1745691155,"current_range_meters":19200,"station_id":"ce4bhe12rcd13ifvqf30","pricing_plan_id":"cebpf4jnsgd1na2vs0mg"},{"bike_id":"f5181ff8-3bea-459d-9bd7-848090e8ed24","system_id":"levelo_inurba_marseille","lat":43.26554,"lon":5.37294,"is_reserved":false,"is_disabled":false,"rental_uris":{"android":"levelo://app?vid=f5181ff8-3bea-459d-9bd7-848090e8ed24","ios":"levelo://app?vid=f5181ff8-3bea-459d-9bd7-848090e8ed24"},"vehicle_type_id":"4","last_reported":1745691155,"current_range_meters":19600,"station_id":"ce4bhg12rcd13ifvqf70","pricing_plan_id":"cebpf4jnsgd1na2vs0mg"},{"bike_id":"5ff3eb74-33a5-4f62-ae50-db28e13bfd26","system_id":"levelo_inurba_marseille","lat":43.28077,"lon":5.39657,"is_reserved":false,"is_disabled":false,"rental_uris":{"android":"levelo://app?vid=5ff3eb74-33a5-4f62-ae50-db28e13bfd26","ios":"levelo://app?vid=5ff3eb74-33a5-4f62-ae50-db28e13bfd26"},"vehicle_type_id":"4","last_reported":1745691155,"current_range_meters":19600,"station_id":"ce4bho12rcd13ifvqh2g","pricing_plan_id":"cebpf4jnsgd1na2vs0mg"},{"bike_id":"3b07c787-3281-4bef-bfaf-13d021c3a424","system_id":"levelo_inurba_marseille","lat":43.27375,"lon":5.36259,"is_reserved":false,"is_disabled":false,"rental_uris":{"android":"levelo://app?vid=3b07c787-3281-4bef-bfaf-13d021c3a424","ios":"levelo://app?vid=3b07c787-3281-4bef-bfaf-13d021c3a424"},"vehicle_type_id":"4","last_reported":1745691155,"current_range_meters":19600,"station_id":"ce4bhbh2rcd13ifvqeo0","pricing_plan_id":"cebpf4jnsgd1na2vs0mg"},{"bike_id":"b80b0aba-3a90-4f6b-a6f0-e8fefea0dcf3","system_id":"levelo_inurba_marseille","lat":43.29844,"lon":5.36273,"is_reserved":false,"is_disabled":false,"rental_uris":{"android":"levelo://app?vid=b80b0aba-3a90-4f6b-a6f0-e8fefea0dcf3","ios":"levelo://app?vid=b80b0aba-3a90-4f6b-a6f0-e8fefea0dcf3"},"vehicle_type_id":"4","last_reported":1745691155,"current_range_meters":19600,"station_id":"ce4bgpp2rcd13ifvqc3g","pricing_plan_id":"cebpf4jnsgd1na2vs0mg"},{"bike_id":"ced9933d-8b10-4c97-8329-fdea1a467d3b","system_id":"levelo_inurba_marseille","lat":43.29267,"lon":5.3844,"is_reserved":false,"is_disabled":false,"rental_uris":{"android":"levelo://app?vid=ced9933d-8b10-4c97-8329-fdea1a467d3b","ios":"levelo://app?vid=ced9933d-8b10-4c97-8329-fdea1a467d3b"},