{"last_updated":1738919360,"ttl":60,"version":"2.2","data":{"bikes":[{"bike_id":"7baf2fa6-2108-491c-932b-30477a4a9a93","system_id":"levelo_inurba_marseille","lat":43.28973,"lon":5.37854,"is_reserved":false,"is_disabled":false,"rental_uris":{"android":"levelo://app?vid=7baf2fa6-2108-491c-932b-30477a4a9a93","ios":"levelo://app?vid=7baf2fa6-2108-491c-932b-30477a4a9a93"},"vehicle_type_id":"4","last_reported":1738919361,"current_range_meters":39200,"station_id":"ce4bh9p2rcd13ifvqed0","pricing_plan_id":"cebpf4jnsgd1na2vs0mg"},{"bike_id":"1a0e67de-9597-4d47-8182-41732e9786f3","system_id":"levelo_inurba_marseille","lat":43.32475,"lon":5.36556,"is_reserved":false,"is_disabled":true,"rental_uris":{"android":"levelo://app?vid=1a0e67de-9597-4d47-8182-41732e9786f3","ios":"levelo://app?vid=1a0e67de-9597-4d47-8182-41732e9786f3"},"vehicle_type_id":"4","last_reported":1738919361,"current_range_meters":0,"station_id":"ce4bhs12rcd13ifvqhvg","pricing_plan_id":"cebpf4jnsgd1na2vs0mg"},{"bike_id":"e7fa4c94-bff4-4680-b6c0-06ddcf0d06ea","system_id":"levelo_inurba_marseille","lat":43.24986,"lon":5.38929,"is_reserved":false,"is_disabled":false,"rental_uris":{"android":"levelo://app?vid=e7fa4c94-bff4-4680-b6c0-06ddcf0d06ea","ios":"levelo://app?vid=e7fa4c94-bff4-4680-b6c0-06ddcf0d06ea"},"vehicle_type_id":"4","last_reported":1738919361,"current_range_meters":38800,"station_id":"ce4bhgp2rcd13ifvqfd0","pricing_plan_id":"cebpf4jnsgd1na2vs0mg"},{"bike_id":"dc0d8996-ffcf-4544-98ed-43b2e4ccf0cd","system_id":"levelo_inurba_marseille","lat":43.3256,"lon":5.41426,"is_reserved":false,"is_disabled":false,"rental_uris":{"android":"levelo://app?vid=dc0d8996-ffcf-4544-98ed-43b2e4ccf0cd","ios":"levelo://app?vid=dc0d8996-ffcf-4544-98ed-43b2e4ccf0cd"},"vehicle_type_id":"4","last_reported":1738919361,"current_range_meters":39200,"station_id":"ce4bhq12rcd13ifvqhhg","pricing_plan_id":"cebpf4jnsgd1na2vs0mg"},{"bike_id":"178b9a92-e21d-44c0-bf1c-3694afc2f50c","system_id":"levelo_inurba_marseille","lat":43.23149,"lon":5.43727,"is_reserved":false,"is_disabled":false,"rental_uris":{"android":"levelo://app?vid=178b9a92-e21d-44c0-bf1c-3694afc2f50c","ios":"levelo://app?vid=178b9a92-e21d-44c0-bf1c-3694afc2f50c"},"vehicle_type_id":"4","last_reported":1738919361,"current_range_meters":25600,"station_id":"ce4bhmp2rcd13ifvqgog","pricing_plan_id":"cebpf4jnsgd1na2vs0mg"},{"bike_id":"665ac7cf-15eb-4109-b67b-da3fa6c857ca","system_id":"levelo_inurba_marseille","lat":43.30534,"lon":5.36706,"is_reserved":false,"is_disabled":false,"rental_uris":{"android":"levelo://app?vid=665ac7cf-15eb-4109-b67b-da3fa6c857ca","ios":"levelo://app?vid=665ac7cf-15eb-4109-b67b-da3fa6c857ca"},"vehicle_type_id":"4","last_reported":1738919361,"current_range_meters":39200,"station_id":"ce4bgrp2rcd13ifvqc9g","pricing_plan_id":"cebpf4jnsgd1na2vs0mg"},{"bike_id":"ab892e41-9cc7-4b06-9f7e-c61761202cb3","system_id":"levelo_inurba_marseille","lat":43.28347,"lon":5.3812,"is_reserved":false,"is_disabled":false,"rental_uris":{"android":"levelo://app?vid=ab892e41-9cc7-4b06-9f7e-c61761202cb3","ios":"levelo://app?vid=ab892e41-9cc7-4b06-9f7e-c61761202cb3"},"vehicle_type_id":"4","last_reported":1738919361,"current_range_meters":2800,"station_id":"ce4bh412rcd13ifvqdr0","pricing_plan_id":"cebpf4jnsgd1na2vs0mg"},{"bike_id":"6f1b8212-3f5a-4978-864e-5e174cc6fd25","system_id":"levelo_inurba_marseille","lat":43.29553,"lon":5.42293,"is_reserved":false,"is_disabled":false,"rental_uris":{"android":"levelo://app?vid=6f1b8212-3f5a-4978-864e-5e174cc6fd25","ios":"levelo://app?vid=6f1b8212-3f5a-4978-864e-5e174cc6fd25"},"vehicle_type_id":"4","last_reported":1738919361,"current_range_meters":38400,"station_id":"ce4bhph2rcd13ifvqhdg","pricing_plan_id":"cebpf4jnsgd1na2vs0mg"},{"bike_id":"0b370460-2bdc-4346-a1f4-7aeb9dd2a707","system_id":"levelo_inurba_marseille","lat":43.28632,"lon":5.39138,"is_reserved":false,"is_disabled":true,"rental_uris":{"android":"levelo://app?vid=0b370460-2bdc-4346-a1f4-7aeb9dd2a707","ios":"levelo://app?vid=0b370460-2bdc-4346-a1f4-7aeb9dd2a707"},"vehicle_type_id":"4","last_reported":1738919361,"current_range_meters":15200,"station_id":"","pricing_plan_id":"cebpf4jnsgd1na2vs0mg"},{"bike_id":"9d31fb59-26e0-4e13-8364-dc44fa582ce7","system_id":"levelo_inurba_marseille","lat":43.28024,"lon":5.36947,"is_reserved":false,"is_disabled":false,"rental_uris":{"android":"levelo://app?vid=9d31fb59-26e0-4e13-8364-dc44fa582ce7","ios":"levelo://app?vid=9d31fb59-26e0-4e13-8364-dc44fa582ce7"},"vehicle_type_id":"4","last_reported":1738919361,"current_range_meters":38800,"station_id":"ce4bha12rcd13ifvqef0","pricing_plan_id":"cebpf4jnsgd1na2vs0mg"},{"bike_id":"c9cdb5e2-6331-40ad-bf40-96563397df39","system_id":"levelo_inurba_marseille","lat":43.29094,"lon":5.38146,"is_reserved":false,"is_disabled":false,"rental_uris":{"android":"levelo://app?vid=c9cdb5e2-6331-40ad-bf40-96563397df39","ios":"levelo://app?vid=c9cdb5e2-6331-40ad-bf40-96563397df39"},"vehicle_type_id":"4","last_reported":1738919361,"current_range_meters":35200,"station_id":"ce4bh512rcd13ifvqe2g","pricing_plan_id":"cebpf4jnsgd1na2vs0mg"},{"bike_id":"e0c5e844-cf3d-4c0a-a0f4-f0ded2743cff","system_id":"levelo_inurba_marseille","lat":43.29038,"lon":5.39942,"is_reserved":false,"is_disabled":false,"rental_uris":{"android":"levelo://app?vid=e0c5e844-cf3d-4c0a-a0f4-f0ded2743cff","ios":"levelo://app?vid=e0c5e844-cf3d-4c0a-a0f4-f0ded2743cff"},"vehicle_type_id":"4","last_reported":1738919361,"current_range_meters":38400,"station_id":"ce4bh392rcd13ifvqdm0","pricing_plan_id":"cebpf4jnsgd1na2vs0mg"},{"bike_id":"cdd38823-51c7-44f0-b54f-a9c4558b6ae9","system_id":"levelo_inurba_marseille","lat":43.24066,"lon":5.37765,"is_reserved":false,"is_disabled":false,"rental_uris":{"android":"levelo://app?vid=cdd38823-51c7-44f0-b54f-a9c4558b6ae9","ios":"levelo://app?vid=cdd38823-51c7-44f0-b54f-a9c4558b6ae9"},"vehicle_type_id":"4","last_reported":1738919361,"current_range_meters":36800,"station_id":"ce4bhnp2rcd13ifvqgvg","pricing_plan_id":"cebpf4jnsgd1na2vs0mg"},{"bike_id":"d1a6efa9-c1b4-4e9d-982a-5e40253d1c7d","system_id":"levelo_inurba_marseille","lat":43.28429,"lon":5.39201,"is_reserved":false,"is_disabled":true,"rental_uris":{"android":"levelo://app?vid=d1a6efa9-c1b4-4e9d-982a-5e40253d1c7d","ios":"levelo://app?vid=d1a6efa9-c1b4-4e9d-982a-5e40253d1c7d"},"vehicle_type_id":"4","last_reported":1738919361,"current_range_meters":2000,"station_id":"ce4bhoh2rcd13ifvqh5g","pricing_plan_id":"cebpf4jnsgd1na2vs0mg"},{"bike_id":"0f0967b4-1d54-4b6c-9905-1046537ac41b","system_id":"levelo_inurba_marseille","lat":43.30153,"lon":5.38081,"is_reserved":false,"is_disabled":false,"rental_uris":{"android":"levelo://app?vid=0f0967b4-1d54-4b6c-9905-1046537ac41b","ios":"levelo://app?vid=0f0967b4-1d54-4b6c-9905-1046537ac41b"},"vehicle_type_id":"4","last_reported":1738919361,"current_range_meters":34800,"station_id":"ce4bgjp2rcd13ifvqbh0","pricing_plan_id":"cebpf4jnsgd1na2vs0mg"},{"bike_id":"0a84bc02-c535-4ad2-bd8f-bafd16ec85e8","system_id":"levelo_inurba_marseille","lat":43.25934,"lon":5.40903,"is_reserved":false,"is_disabled":false,"rental_uris":{"android":"levelo://app?vid=0a84bc02-c535-4ad2-bd8f-bafd16ec85e8","ios":"levelo://app?vid=0a84bc02-c535-4ad2-bd8f-bafd16ec85e8"},"vehicle_type_id":"4","last_reported":1738919361,"current_range_meters":33200,"station_id":"ce4bhm92rcd13ifvqglg","pricing_plan_id":"cebpf4jnsgd1na2vs0mg"},{"bike_id":"0e3e205c-def0-409b-93d1-6bd9975a7ce8","system_id":"levelo_inurba_marseille","lat":43.337584,"lon":5.37439,"is_reserved":false,"is_disabled":false,"rental_uris":{"android":"levelo://app?vid=0e3e205c-def0-409b-93d1-6bd9975a7ce8","ios":"levelo://app?vid=0e3e205c-def0-409b-93d1-6bd9975a7ce8"},"vehicle_type_id":"4","last_reported":1738919361,"current_range_meters":7200,"station_id":"","pricing_plan_id":"cebpf4jnsgd1na2vs0mg"},{"bike_id":"8a4a91c0-e8e8-4ebc-981a-4129759c04c9","system_id":"levelo_inurba_marseille","lat":43.29931,"lon":5.38154,"is_reserved":false,"is_disabled":false,"rental_uris":{"android":"levelo://app?vid=8a4a91c0-e8e8-4ebc-981a-4129759c04c9","ios":"levelo://app?vid=8a4a91c0-e8e8-4ebc-981a-4129759c04c9"},"vehicle_type_id":"4","last_reported":1738919361,"current_range_meters":30400,"station_id":"ce4bgj12rcd13ifvqbc0","pricing_plan_id":"cebpf4jnsgd1na2vs0mg"},{"bike_id":"f1db5486-5535-43f9-871f-a7948532b780","system_id":"levelo_inurba_marseille","lat":43.30152,"lon":5.38097,"is_reserved":false,"is_disabled":false,"rental_uris":{"android":"levelo://app?vid=f1db5486-5535-43f9-871f-a7948532b780","ios":"levelo://app?vid=f1db5486-5535-43f9-871f-a7948532b780"},"vehicle_type_id":"4","last_reported":1738919361,"current_range_meters":28000,"station_id":"ce4bgjp2rcd13ifvqbh0","pricing_plan_id":"cebpf4jnsgd1na2vs0mg"},{"bike_id":"6bd15c5e-d6b2-43ab-8fc9-854cbe9e9385","system_id":"levelo_inurba_marseille","lat":43.26071,"lon":5.39393,"is_reserved":false,"is_disabled":false,"rental_uris":{"android":"levelo://app?vid=6bd15c5e-d6b2-43ab-8fc9-854cbe9e9385","ios":"levelo://app?vid=6bd15c5e-d6b2-43ab-8fc9-854cbe9e9385"},"vehicle_type_id":"4","last_reported":1738919361,"current_range_meters":38800,"station_id":"ce4bhh92rcd13ifvqfj0","pricing_plan_id":"cebpf4jnsgd1na2vs0mg"},{"bike_id":"5f2172a2-f883-4786-872c-dc0a5649ef78","system_id":"levelo_inurba_marseille","lat":43.25861,"lon":5.399,"is_reserved":false,"is_disabled":false,"rental_uris":{"android":"levelo://app?vid=5f2172a2-f883-4786-872c-dc0a5649ef78","ios":"levelo://app?vid=5f2172a2-f883-4786-872c-dc0a5649ef78"},"vehicle_type_id":"4","last_reported":1738919361,"current_range_meters":23200,"station_id":"ce4bhl92rcd13ifvqghg","pricing_plan_id":"cebpf4jnsgd1na2vs0mg"},{"bike_id":"86bcf1ed-d2c5-4727-99c4-b3a66163bb87","system_id":"levelo_inurba_marseille","lat":43.30958,"lon":5.39048,"is_reserved":false,"is_disabled":false,"rental_uris":{"android":"levelo://app?vid=86bcf1ed-d2c5-4727-99c4-b3a66163bb87","ios":"levelo://app?vid=86bcf1ed-d2c5-4727-99c4-b3a66163bb87"},"vehicle_type_id":"4","last_reported":1738919361,"current_range_meters":28000,"station_id":"ce4bgup2rcd13ifvqco0","pricing_plan_id":"cebpf4jnsgd1na2vs0mg"},{"bike_id":"3528aa62-06b4-44de-92de-1aa1318d56b7","system_id":"levelo_inurba_marseille","lat":43.26205,"lon":5.37434,"is_reserved":false,"is_disabled":false,"rental_uris":{"android":"levelo://app?vid=3528aa62-06b4-44de-92de-1aa1318d56b7","ios":"levelo://app?vid=3528aa62-06b4-44de-92de-1aa1318d56b7"},"vehicle_type_id":"4","last_reported":1738919361,"current_range_meters":36800,"station_id":"ce4bhgp2rcd13ifvqfc0","pricing_plan_id":"cebpf4jnsgd1na2vs0mg"},{"bike_id":"aa874f21-4899-4c94-ac56-d6c355723cbb","system_id":"levelo_inurba_marseille","lat":43.23193,"lon":5.39984,"is_reserved":false,"is_disabled":false,"rental_uris":{"android":"levelo://app?vid=aa874f21-4899-4c94-ac56-d6c355723cbb","ios":"levelo://app?vid=aa874f21-4899-4c94-ac56-d6c355723cbb"},"vehicle_type_id":"4","last_reported":1738919361,"current_range_meters":34000,"station_id":"ce4bhn12rcd13ifvqgqg","pricing_plan_id":"cebpf4jnsgd1na2vs0mg"},{"bike_id":"19b11498-b7da-498a-a065-c091cc335a9f","system_id":"levelo_inurba_marseille","lat":43.23187,"lon":5.39972,"is_reserved":false,"is_disabled":false,"rental_uris":{"android":"levelo://app?vid=19b11498-b7da-498a-a065-c091cc335a9f","ios":"levelo://app?vid=19b11498-b7da-498a-a065-c091cc335a9f"},"vehicle_type_id":"4","last_reported":1738919361,"current_range_meters":32000,"station_id":"ce4bhn12rcd13ifvqgqg","pricing_plan_id":"cebpf4jnsgd1na2vs0mg"},{"bike_id":"ff76c6e9-316d-475d-9f19-7e3b447f3b23","system_id":"levelo_inurba_marseille","lat":43.3031,"lon":5.3689,"is_reserved":false,"is_disabled":false,"rental_uris":{"android":"levelo://app?vid=ff76c6e9-316d-475d-9f19-7e3b447f3b23","ios":"levelo://app?vid=ff76c6e9-316d-475d-9f19-7e3b447f3b23"},"vehicle_type_id":"4","last_reported":1738919361,"current_range_meters":24800,"station_id":"ce4bgqh2rcd13ifvqc5g","pricing_plan_id":"cebpf4jnsgd1na2vs0mg"},{"bike_id":"79a50c87-77f6-4170-bc3e-48fd603b4b62","system_id":"levelo_inurba_marseille","lat":43.26682,"lon":5.38276,"is_reserved":false,"is_disabled":false,"rental_uris":{"android":"levelo://app?vid=79a50c87-77f6-4170-bc3e-48fd603b4b62","ios":"levelo://app?vid=79a50c87-77f6-4170-bc3e-48fd603b4b62"},"vehicle_type_id":"4","last_reported":1738919361,"current_range_meters":38800,"station_id":"ce4bhg92rcd13ifvqf90","pricing_plan_id":"cebpf4jnsgd1na2vs0mg"},{"bike_id":"9c237d69-0854-4218-90a2-eb9c09fc8013","system_id":"levelo_inurba_marseille","lat":43.27505,"lon":5.42448,"is_reserved":false,"is_disabled":false,"rental_uris":{"android":"levelo://app?vid=9c237d69-0854-4218-90a2-eb9c09fc8013","ios":"levelo://app?vid=9c237d69-0854-4218-90a2-eb9c09fc8013"},"vehicle_type_id":"4","last_reported":1738919361,"current_range_meters":32400,"station_id":"ce4bhn92rcd13ifvqgrg","pricing_plan_id":"cebpf4jnsgd1na2vs0mg"},{"bike_id":"33d0b924-36c8-4de1-a83a-0c6c8300d0b4","system_id":"levelo_inurba_marseille","lat":43.31326,"lon":5.39694,"is_reserved":false,"is_disabled":false,"rental_uris":{"android":"levelo://app?vid=33d0b924-36c8-4de1-a83a-0c6c8300d0b4","ios":"levelo://app?vid=33d0b924-36c8-4de1-a83a-0c6c8300d0b4"},"vehicle_type_id":"4","last_reported":1738919361,"current_range_meters":32800,"station_id":"ce4bgvp2rcd13ifvqcu0","pricing_plan_id":"cebpf4jnsgd1na2vs0mg"},{"bike_id":"422d1ae9-3f23-4c23-952d-112dc4aaa449","system_id":"levelo_inurba_marseille","lat":43.297635,"lon":5.380614,"is_reserved":false,"is_disabled":false,"rental_uris":{"android":"levelo://app?vid=422d1ae9-3f23-4c23-952d-112dc4aaa449","ios":"levelo://app?vid=422d1ae9-3f23-4c23-952d-112dc4aaa449"},"vehicle_type_id":"4","last_reported":1738919361,"current_range_meters":9600,"station_id":"","pricing_plan_id":"cebpf4jnsgd1na2vs0mg"},{"bike_id":"73040312-c166-43ba-a41a-fb3b6a2beca6","system_id":"levelo_inurba_marseille","lat":43.26193,"lon":5.37466,"is_reserved":false,"is_disabled":false,"rental_uris":{"android":"levelo://app?vid=73040312-c166-43ba-a41a-fb3b6a2beca6","ios":"levelo://app?vid=73040312-c166-43ba-a41a-fb3b6a2beca6"},"vehicle_type_id":"4","last_reported":1738919361,"current_range_meters":28800,"station_id":"ce4bhgp2rcd13ifvqfc0","pricing_plan_id":"cebpf4jnsgd1na2vs0mg"},{"bike_id":"a1341899-4f3a-4823-b10a-9027870c66dc","system_id":"levelo_inurba_marseille","lat":43.2979,"lon":5.3809,"is_reserved":false,"is_disabled":false,"rental_uris":{"android":"levelo://app?vid=a1341899-4f3a-4823-b10a-9027870c66dc","ios":"levelo://app?vid=a1341899-4f3a-4823-b10a-9027870c66dc"},"vehicle_type_id":"4","last_reported":1738919361,"current_range_meters":36400,"station_id":"ce4bgip2rcd13ifvqbb0","pricing_plan_id":"cebpf4jnsgd1na2vs0mg"},{"bike_id":"709cab50-6e23-4609-bb93-1ec975c30116","system_id":"levelo_inurba_marseille","lat":43.24073,"lon":5.37757,"is_reserved":false,"is_disabled":false,"rental_uris":{"android":"levelo://app?vid=709cab50-6e23-4609-bb93-1ec975c30116","ios":"levelo://app?vid=709cab50-6e23-4609-bb93-1ec975c30116"},"vehicle_type_id":"4","last_reported":1738919361,"current_range_meters":36400,"station_id":"ce4bhnp2rcd13ifvqgvg","pricing_plan_id":"cebpf4jnsgd1na2vs0mg"},{"bike_id":"098d220b-e449-43ea-8d6d-9fc78e0abad9","system_id":"levelo_inurba_marseille","lat":43.22933,"lon":5.35381,"is_reserved":false,"is_disabled":false,"rental_uris":{"android":"levelo://app?vid=098d220b-e449-43ea-8d6d-9fc78e0abad9","ios":"levelo://app?vid=098d220b-e449-43ea-8d6d-9fc78e0abad9"},"vehicle_type_id":"4","last_reported":1738919361,"current_range_meters":38800,"station_id":"cpo3532slgdg3j2ikp40","pricing_plan_id":"cebpf4jnsgd1na2vs0mg"},{"bike_id":"3de2a62f-ee8b-4633-8581-80f610f7d857","system_id":"levelo_inurba_marseille","lat":43.24542,"lon":5.39534,"is_reserved":false,"is_disabled":false,"rental_uris":{"android":"levelo://app?vid=3de2a62f-ee8b-4633-8581-80f610f7d857","ios":"levelo://app?vid=3de2a62f-ee8b-4633-8581-80f610f7d857"},"vehicle_type_id":"4","last_reported":1738919361,"current_range_meters":16000,"station_id":"ce4bhlp2rcd13ifvqgjg","pricing_plan_id":"cebpf4jnsgd1na2vs0mg"},{"bike_id":"c833eddb-9922-4231-8de9-3b5b20da4485","system_id":"levelo_inurba_marseille","lat":43.28967,"lon":5.37875,"is_reserved":false,"is_disabled":false,"rental_uris":{"android":"levelo://app?vid=c833eddb-9922-4231-8de9-3b5b20da4485","ios":"levelo://app?vid=c833eddb-9922-4231-8de9-3b5b20da4485"},"vehicle_type_id":"4","last_reported":1738919361,"current_range_meters":29600,"station_id":"ce4bh9p2rcd13ifvqed0","pricing_plan_id":"cebpf4jnsgd1na2vs0mg"},{"bike_id":"25265f47-6177-48e9-b4ee-d5d5e25bf867","system_id":"levelo_inurba_marseille","lat":43.2572,"lon":5.41112,"is_reserved":false,"is_disabled":false,"rental_uris":{"android":"levelo://app?vid=25265f47-6177-48e9-b4ee-d5d5e25bf867","ios":"levelo://app?vid=25265f47-6177-48e9-b4ee-d5d5e25bf867"},"vehicle_type_id":"4","last_reported":1738919361,"current_range_meters":19200,"station_id":"ce4bhkp2rcd13ifvqgd0","pricing_plan_id":"cebpf4jnsgd1na2vs0mg"},{"bike_id":"56397ef4-9289-43f5-afee-07a35a6d4649","system_id":"levelo_inurba_marseille","lat":43.2956,"lon":5.3752,"is_reserved":false,"is_disabled":false,"rental_uris":{"android":"levelo://app?vid=56397ef4-9289-43f5-afee-07a35a6d4649","ios":"levelo://app?vid=56397ef4-9289-43f5-afee-07a35a6d4649"},"vehicle_type_id":"4","last_reported":1738919361,"current_range_meters":8400,"station_id":"ce4bgh92rcd13ifvqb50","pricing_plan_id":"cebpf4jnsgd1na2vs0mg"},{"bike_id":"8134c42b-15c7-43df-91b1-9cea8c89299b","system_id":"levelo_inurba_marseille","lat":43.25851,"lon":5.39931,"is_reserved":false,"is_disabled":false,"rental_uris":{"android":"levelo://app?vid=8134c42b-15c7-43df-91b1-9cea8c89299b","ios":"levelo://app?vid=8134c42b-15c7-43df-91b1-9cea8c89299b"},"vehicle_type_id":"4","last_reported":1738919361,"current_range_meters":30000,"station_id":"ce4bhl92rcd13ifvqghg","pricing_plan_id":"cebpf4jnsgd1na2vs0mg"},{"bike_id":"e9df1a96-0b60-4398-89c0-1713b412f425","system_id":"levelo_inurba_marseille","lat":43.24074,"lon":5.37759,"is_reserved":false,"is_disabled":false,"rental_uris":{"android":"levelo://app?vid=e9df1a96-0b60-4398-89c0-1713b412f425","ios":"levelo://app?vid=e9df1a96-0b60-4398-89c0-1713b412f425"},"vehicle_type_id":"4","last_reported":1738919361,"current_range_meters":20800,"station_id":"ce4bhnp2rcd13ifvqgvg","pricing_plan_id":"cebpf4jnsgd1na2vs0mg"},{"bike_id":"2b63c631-0c86-4c30-9d9d-19707e195ae1","system_id":"levelo_inurba_marseille","lat":43.23148,"lon":5.43722,"is_reserved":false,"is_disabled":false,"rental_uris":{"android":"levelo://app?vid=2b63c631-0c86-4c30-9d9d-19707e195ae1","ios":"levelo://app?vid=2b63c631-0c86-4c30-9d9d-19707e195ae1"},"vehicle_type_id":"4","last_reported":1738919361,"current_range_meters":23200,"station_id":"ce4bhmp2rcd13ifvqgog","pricing_plan_id":"cebpf4jnsgd1na2vs0mg"},{"bike_id":"ce3ac314-5cc4-40ea-adf1-63e8f663e628","system_id":"levelo_inurba_marseille","lat":43.26958,"lon":5.38639,"is_reserved":false,"is_disabled":false,"rental_uris":{"android":"levelo://app?vid=ce3ac314-5cc4-40ea-adf1-63e8f663e628","ios":"levelo://app?vid=ce3ac314-5cc4-40ea-adf1-63e8f663e628"},"vehicle_type_id":"4","last_reported":1738919361,"current_range_meters":16400,"station_id":"ce4bhh92rcd13ifvqfh0","pricing_plan_id":"cebpf4jnsgd1na2vs0mg"},{"bike_id":"af40deb1-f640-4b70-95d2-0b44fe79a0b8","system_id":"levelo_inurba_marseille","lat":43.2319,"lon":5.399967,"is_reserved":false,"is_disabled":false,"rental_uris":{"android":"levelo://app?vid=af40deb1-f640-4b70-95d2-0b44fe79a0b8","ios":"levelo://app?vid=af40deb1-f640-4b70-95d2-0b44fe79a0b8"},"vehicle_type_id":"4","last_reported":1738919361,"current_range_meters":22400,"station_id":"ce4bhn12rcd13ifvqgqg","pricing_plan_id":"cebpf4jnsgd1na2vs0mg"},{"bike_id":"21b12264-f29d-4fca-845a-96ca913cc1a6","system_id":"levelo_inurba_marseille","lat":43.29576,"lon":5.36742,"is_reserved":false,"is_disabled":false,"rental_uris":{"android":"levelo://app?vid=21b12264-f29d-4fca-845a-96ca913cc1a6","ios":"levelo://app?vid=21b12264-f29d-4fca-845a-96ca913cc1a6"},"vehicle_type_id":"4","last_reported":1738919361,"current_range_meters":32400,"station_id":"ce4bgph2rcd13ifvqc2g","pricing_plan_id":"cebpf4jnsgd1na2vs0mg"},{"bike_id":"6850b23e-5e80-4fd6-856a-27e743c90765","system_id":"levelo_inurba_marseille","lat":43.29821,"lon":5.36268,"is_reserved":false,"is_disabled":false,"rental_uris":{"android":"levelo://app?vid=6850b23e-5e80-4fd6-856a-27e743c90765","ios":"levelo://app?vid=6850b23e-5e80-4fd6-856a-27e743c90765"},"vehicle_type_id":"4","last_reported":1738919361,"current_range_meters":38000,"station_id":"ce4bgpp2rcd13ifvqc3g","pricing_plan_id":"cebpf4jnsgd1na2vs0mg"},{"bike_id":"b850e4c1-db22-4686-94e4-7658941c19dd","system_id":"levelo_inurba_marseille","lat":43.30598,"lon":5.39357,"is_reserved":false,"is_disabled":false,"rental_uris":{"android":"levelo://app?vid=b850e4c1-db22-4686-94e4-7658941c19dd","ios":"levelo://app?vid=b850e4c1-db22-4686-94e4-7658941c19dd"},"vehicle_type_id":"4","last_reported":1738919361,"current_range_meters":16400,"station_id":"ce4bh0p2rcd13ifvqd80","pricing_plan_id":"cebpf4jnsgd1na2vs0mg"},{"bike_id":"3078e8ce-5d59-4082-8b1a-8d753b4f6935","system_id":"levelo_inurba_marseille","lat":43.23193,"lon":5.39974,"is_reserved":false,"is_disabled":false,"rental_uris":{"android":"levelo://app?vid=3078e8ce-5d59-4082-8b1a-8d753b4f6935","ios":"levelo://app?vid=3078e8ce-5d59-4082-8b1a-8d753b4f6935"},"vehicle_type_id":"4","last_reported":1738919361,"current_range_meters":39200,"station_id":"ce4bhn12rcd13ifvqgqg","pricing_plan_id":"cebpf4jnsgd1na2vs0mg"},{"bike_id":"64b38722-02f9-4578-9517-9b92ed5605c8","system_id":"levelo_inurba_marseille","lat":43.30091,"lon":5.39081,"is_reserved":false,"is_disabled":false,"rental_uris":{"android":"levelo://app?vid=64b38722-02f9-4578-9517-9b92ed5605c8","ios":"levelo://app?vid=64b38722-02f9-4578-9517-9b92ed5605c8"},"vehicle_type_id":"4","last_reported":1738919361,"current_range_meters":36400,"station_id":"ce4bh192rcd13ifvqdb0","pricing_plan_id":"cebpf4jnsgd1na2vs0mg"},{"bike_id":"d63dd219-1986-4b43-9904-d72ec9015c63","system_id":"levelo_inurba_marseille","lat":43.29839,"lon":5.36275,"is_reserved":false,"is_disabled":false,"rental_uris":{"android":"levelo://app?vid=d63dd219-1986-4b43-9904-d72ec9015c63","ios":"levelo://app?vid=d63dd219-1986-4b43-9904-d72ec9015c63"},"vehicle_type_id":"4","last_reported":1738919361,"current_range_meters":11600,"station_id":"ce4bgpp2rcd13ifvqc3g","pricing_plan_id":"cebpf4jnsgd1na2vs0mg"},{"bike_id":"5e9bcc01-b6dd-42e4-a066-d7d915379c07","system_id":"levelo_inurba_marseille","lat":43.30316,"lon":5.36898,"is_reserved":false,"is_disabled":false,"rental_uris":{"android":"levelo://app?vid=5e9bcc01-b6dd-42e4-a066-d7d915379c07","ios":"levelo://app?vid=5e9bcc01-b6dd-42e4-a066-d7d915379c07"},"vehicle_type_id":"4","last_reported":1738919361,"current_range_meters":6400,"station_id":"ce4bgqh2rcd13ifvqc5g","pricing_plan_id":"cebpf4jnsgd1na2vs0mg"},{"bike_id":"d9ab6823-bbd8-43e6-9a6b-b0e016f7c723","system_id":"levelo_inurba_marseille","lat":43.25907,"lon":5.40906,"is_reserved":false,"is_disabled":false,"rental_uris":{"android":"levelo://app?vid=d9ab6823-bbd8-43e6-9a6b-b0e016f7c723","ios":"levelo://app?vid=d9ab6823-bbd8-43e6-9a6b-b0e016f7c723"},"vehicle_type_id":"4","last_reported":1738919361,"current_range_meters":38800,"station_id":"ce4bhm92rcd13ifvqglg","pricing_plan_id":"cebpf4jnsgd1na2vs0mg"},{"bike_id":"c1a7df6c-1872-498d-9cb5-5f5c18ba5d2c","system_id":"levelo_inurba_marseille","lat":43.30443,"lon":5.37919,"is_reserved":false,"is_disabled":false,"rental_uris":{"android":"levelo://app?vid=c1a7df6c-1872-498d-9cb5-5f5c18ba5d2c","ios":"levelo://app?vid=c1a7df6c-1872-498d-9cb5-5f5c18ba5d2c"},"vehicle_type_id":"4","last_reported":1738919361,"current_range_meters":38800,"station_id":"ce4bgup2rcd13ifvqcn0","pricing_plan_id":"cebpf4jnsgd1na2vs0mg"},{"bike_id":"eaa9b364-119d-4647-ab82-b75e23b137a6","system_id":"levelo_inurba_marseille","lat":43.30593,"lon":5.39359,"is_reserved":false,"is_disabled":false,"rental_uris":{"android":"levelo://app?vid=eaa9b364-119d-4647-ab82-b75e23b137a6","ios":"levelo://app?vid=eaa9b364-119d-4647-ab82-b75e23b137a6"},"vehicle_type_id":"4","last_reported":1738919361,"current_range_meters":37600,"station_id":"ce4bh0p2rcd13ifvqd80","pricing_plan_id":"cebpf4jnsgd1na2vs0mg"},{"bike_id":"bebe8c20-6319-4764-a5b8-3de216df4503","system_id":"levelo_inurba_marseille","lat":43.25119,"lon":5.40321,"is_reserved":false,"is_disabled":false,"rental_uris":{"android":"levelo://app?vid=bebe8c20-6319-4764-a5b8-3de216df4503","ios":"levelo://app?vid=bebe8c20-6319-4764-a5b8-3de216df4503"},"vehicle_type_id":"4","last_reported":1738919361,"current_range_meters":12800,"station_id":"ce4bhlh2rcd13ifvqgig","pricing_plan_id":"cebpf4jnsgd1na2vs0mg"},{"bike_id":"846128a2-c79d-4f22-8b7e-bd8125590138","system_id":"levelo_inurba_marseille","lat":43.30132,"lon":5.37419,"is_reserved":false,"is_disabled":false,"rental_uris":{"android":"levelo://app?vid=846128a2-c79d-4f22-8b7e-bd8125590138","ios":"levelo://app?vid=846128a2-c79d-4f22-8b7e-bd8125590138"},"vehicle_type_id":"4","last_reported":1738919361,"current_range_meters":27600,"station_id":"ce4bgs92rcd13ifvqcc0","pricing_plan_id":"cebpf4jnsgd1na2vs0mg"},{"bike_id":"89912e32-c5f0-448f-82d2-e236e4d6d653","system_id":"levelo_inurba_marseille","lat":43.27794,"lon":5.39876,"is_reserved":false,"is_disabled":true,"rental_uris":{"android":"levelo://app?vid=89912e32-c5f0-448f-82d2-e236e4d6d653","ios":"levelo://app?vid=89912e32-c5f0-448f-82d2-e236e4d6d653"},"vehicle_type_id":"4","last_reported":1738919361,"current_range_meters":6000,"station_id":"","pricing_plan_id":"cebpf4jnsgd1na2vs0mg"},{"bike_id":"cca80919-b73f-431e-8d2d-b5618fa256de","system_id":"levelo_inurba_marseille","lat":43.26192,"lon":5.37934,"is_reserved":false,"is_disabled":false,"rental_uris":{"android":"levelo://app?vid=cca80919-b73f-431e-8d2d-b5618fa256de","ios":"levelo://app?vid=cca80919-b73f-431e-8d2d-b5618fa256de"},"vehicle_type_id":"4","last_reported":1738919361,"current_range_meters":18000,"station_id":"ce4bhjp2rcd13ifvqg90","pricing_plan_id":"cebpf4jnsgd1na2vs0mg"},{"bike_id":"542f46de-ec7c-476c-b5a5-101fe8b3cd87","system_id":"levelo_inurba_marseille","lat":43.29377,"lon":5.37835,"is_reserved":false,"is_disabled":false,"rental_uris":{"android":"levelo://app?vid=542f46de-ec7c-476c-b5a5-101fe8b3cd87","ios":"levelo://app?vid=542f46de-ec7c-476c-b5a5-101fe8b3cd87"},"vehicle_type_id":"4","last_reported":1738919361,"current_range_meters":19200,"station_id":"ce4bgjh2rcd13ifvqbf0","pricing_plan_id":"cebpf4jnsgd1na2vs0mg"},{"bike_id":"26883686-8096-471a-ae67-bf5a565acd76","system_id":"levelo_inurba_marseille","lat":43.28961,"lon":5.37836,"is_reserved":false,"is_disabled":false,"rental_uris":{"android":"levelo://app?vid=26883686-8096-471a-ae67-bf5a565acd76","ios":"levelo://app?vid=26883686-8096-471a-ae67-bf5a565acd76"},"vehicle_type_id":"4","last_reported":1738919361,"current_range_meters":35200,"station_id":"ce4bh9p2rcd13ifvqed0","pricing_plan_id":"cebpf4jnsgd1na2vs0mg"},{"bike_id":"23143502-ceee-44da-89f0-72f6c6ad3c2a","system_id":"levelo_inurba_marseille","lat":43.26679,"lon":5.3827,"is_reserved":false,"is_disabled":false,"rental_uris":{"android":"levelo://app?vid=23143502-ceee-44da-89f0-72f6c6ad3c2a","ios":"levelo://app?vid=23143502-ceee-44da-89f0-72f6c6ad3c2a"},"vehicle_type_id":"4","last_reported":1738919361,"current_range_meters":22800,"station_id":"ce4bhg92rcd13ifvqf90","pricing_plan_id":"cebpf4jnsgd1na2vs0mg"},{"bike_id":"fb5a704f-a51b-458c-a6e9-f5586a789b94","system_id":"levelo_inurba_marseille","lat":43.24169,"lon":5.36401,"is_reserved":false,"is_disabled":false,"rental_uris":{"android":"levelo://app?vid=fb5a704f-a51b-458c-a6e9-f5586a789b94","ios":"levelo://app?vid=fb5a704f-a51b-458c-a6e9-f5586a789b94"},"vehicle_type_id":"4","last_reported":1738919361,"current_range_meters":6400,"station_id":"cpo36qri1sfpv3e86is0","pricing_plan_id":"cebpf4jnsgd1na2vs0mg"},{"bike_id":"107b5376-262d-4bec-9e77-51815e2c0924","system_id":"levelo_inurba_marseille","lat":43.316927,"lon":5.404787,"is_reserved":false,"is_disabled":false,"rental_uris":{"android":"levelo://app?vid=107b5376-262d-4bec-9e77-51815e2c0924","ios":"levelo://app?vid=107b5376-262d-4bec-9e77-51815e2c0924"},"vehicle_type_id":"4","last_reported":1738919361,"current_range_meters":14400,"station_id":"ce4bh012rcd13ifvqd00","pricing_plan_id":"cebpf4jnsgd1na2vs0mg"},{"bike_id":"b73937ba-05e4-41c7-8959-6f24613e2797","system_id":"levelo_inurba_marseille","lat":43.2293,"lon":5.35381,"is_reserved":false,"is_disabled":false,"rental_uris":{"android":"levelo://app?vid=b73937ba-05e4-41c7-8959-6f24613e2797","ios":"levelo://app?vid=b73937ba-05e4-41c7-8959-6f24613e2797"},"vehicle_type_id":"4","last_reported":1738919361,"current_range_meters":35200,"station_id":"cpo3532slgdg3j2ikp40","pricing_plan_id":"cebpf4jnsgd1na2vs0mg"},{"bike_id":"57d2f359-aa56-45f0-bd2e-b5ed21f9da83","system_id":"levelo_inurba_marseille","lat":43.30303,"lon":5.369037,"is_reserved":false,"is_disabled":false,"rental_uris":{"android":"levelo://app?vid=57d2f359-aa56-45f0-bd2e-b5ed21f9da83","ios":"levelo://app?vid=57d2f359-aa56-45f0-bd2e-b5ed21f9da83"},"vehicle_type_id":"4","last_reported":1738919361,"current_range_meters":18000,"station_id":"ce4bgqh2rcd13ifvqc5g","pricing_plan_id":"cebpf4jnsgd1na2vs0mg"},{"bike_id":"9dbc66af-ff64-41a8-a57c-5ef86f5cb77a","system_id":"levelo_inurba_marseille","lat":43.26775,"lon":5.40289,"is_reserved":false,"is_disabled":true,"rental_uris":{"android":"levelo://app?vid=9dbc66af-ff64-41a8-a57c-5ef86f5cb77a","ios":"levelo://app?vid=9dbc66af-ff64-41a8-a57c-5ef86f5cb77a"},"vehicle_type_id":"4","last_reported":1738919361,"current_range_meters":38400,"station_id":"ce501612rcd8frsf0b60","pricing_plan_id":"cebpf4jnsgd1na2vs0mg"},{"bike_id":"ab54e2d0-4c2c-486a-84c7-811ed9008ddc","system_id":"levelo_inurba_marseille","lat":43.27853,"lon":5.42562,"is_reserved":false,"is_disabled":true,"rental_uris":{"android":"levelo://app?vid=ab54e2d0-4c2c-486a-84c7-811ed9008ddc","ios":"levelo://app?vid=ab54e2d0-4c2c-486a-84c7-811ed9008ddc"},"vehicle_type_id":"4","last_reported":1738919361,"current_range_meters":0,"station_id":"","pricing_plan_id":"cebpf4jnsgd1na2vs0mg"},{"bike_id":"f1e9399a-c62d-4210-bc5f-f431eced8b39","system_id":"levelo_inurba_marseille","lat":43.32342,"lon":5.36739,"is_reserved":false,"is_disabled":false,"rental_uris":{"android":"levelo://app?vid=f1e9399a-c62d-4210-bc5f-f431eced8b39","ios":"levelo://app?vid=f1e9399a-c62d-4210-bc5f-f431eced8b39"},"vehicle_type_id":"4","last_reported":1738919361,"current_range_meters":8000,"station_id":"ce4bhsh2rcd13ifvqi2g","pricing_plan_id":"cebpf4jnsgd1na2vs0mg"},{"bike_id":"254eef42-3fd5-433f-aac6-bb2fa01578a9","system_id":"levelo_inurba_marseille","lat":43.30142,"lon":5.37418,"is_reserved":false,"is_disabled":false,"rental_uris":{"android":"levelo://app?vid=254eef42-3fd5-433f-aac6-bb2fa01578a9","ios":"levelo://app?vid=254eef42-3fd5-433f-aac6-bb2fa01578a9"},"vehicle_type_id":"4","last_reported":1738919361,"current_range_meters":12800,"station_id":"ce4bgs92rcd13ifvqcc0","pricing_plan_id":"cebpf4jnsgd1na2vs0mg"},{"bike_id":"85423e3e-4144-454b-a03d-159c22f85bad","system_id":"levelo_inurba_marseille","lat":43.30132,"lon":5.37401,"is_reserved":false,"is_disabled":false,"rental_uris":{"android":"levelo://app?vid=85423e3e-4144-454b-a03d-159c22f85bad","ios":"levelo://app?vid=85423e3e-4144-454b-a03d-159c22f85bad"},"vehicle_type_id":"4","last_reported":1738919361,"current_range_meters":19200,"station_id":"ce4bgs92rcd13ifvqcc0","pricing_plan_id":"cebpf4jnsgd1na2vs0mg"},{"bike_id":"e539e183-c0f1-49ba-8dd6-c6872560b272","system_id":"levelo_inurba_marseille","lat":43.33599,"lon":5.41031,"is_reserved":false,"is_disabled":false,"rental_uris":{"android":"levelo://app?vid=e539e183-c0f1-49ba-8dd6-c6872560b272","ios":"levelo://app?vid=e539e183-c0f1-49ba-8dd6-c6872560b272"},"vehicle_type_id":"4","last_reported":1738919361,"current_range_meters":39200,"station_id":"ce4bhqh2rcd13ifvqhmg","pricing_plan_id":"cebpf4jnsgd1na2vs0mg"},{"bike_id":"56e7f5f1-2770-4107-8a2c-87a8a5a3d58d","system_id":"levelo_inurba_marseille","lat":43.28964,"lon":5.37849,"is_reserved":false,"is_disabled":false,"rental_uris":{"android":"levelo://app?vid=56e7f5f1-2770-4107-8a2c-87a8a5a3d58d","ios":"levelo://app?vid=56e7f5f1-2770-4107-8a2c-87a8a5a3d58d"},"vehicle_type_id":"4","last_reported":1738919361,"current_range_meters":36800,"station_id":"ce4bh9p2rcd13ifvqed0","pricing_plan_id":"cebpf4jnsgd1na2vs0mg"},{"bike_id":"24392016-8a9e-48fb-8327-45890cdb792a","system_id":"levelo_inurba_marseille","lat":43.29029,"lon":5.39964,"is_reserved":false,"is_disabled":false,"rental_uris":{"android":"levelo://app?vid=24392016-8a9e-48fb-8327-45890cdb792a","ios":"levelo://app?vid=24392016-8a9e-48fb-8327-45890cdb792a"},"vehicle_type_id":"4","last_reported":1738919361,"current_range_meters":38800,"station_id":"ce4bh392rcd13ifvqdm0","pricing_plan_id":"cebpf4jnsgd1na2vs0mg"},{"bike_id":"363f89dc-7a31-4716-bf7c-5e8b960f961f","system_id":"levelo_inurba_marseille","lat":43.31093,"lon":5.42411,"is_reserved":false,"is_disabled":false,"rental_uris":{"android":"levelo://app?vid=363f89dc-7a31-4716-bf7c-5e8b960f961f","ios":"levelo://app?vid=363f89dc-7a31-4716-bf7c-5e8b960f961f"},"vehicle_type_id":"4","last_reported":1738919361,"current_range_meters":38800,"station_id":"ce4bhp92rcd13ifvqhag","pricing_plan_id":"cebpf4jnsgd1na2vs0mg"},{"bike_id":"7f759bda-18b2-4322-a322-8baa6fac3a3e","system_id":"levelo_inurba_marseille","lat":43.26211,"lon":5.37439,"is_reserved":false,"is_disabled":false,"rental_uris":{"android":"levelo://app?vid=7f759bda-18b2-4322-a322-8baa6fac3a3e","ios":"levelo://app?vid=7f759bda-18b2-4322-a322-8baa6fac3a3e"},"vehicle_type_id":"4","last_reported":1738919361,"current_range_meters":25200,"station_id":"ce4bhgp2rcd13ifvqfc0","pricing_plan_id":"cebpf4jnsgd1na2vs0mg"},{"bike_id":"830d7107-636e-4156-9051-ab563c81092e","system_id":"levelo_inurba_marseille","lat":43.27013,"lon":5.42315,"is_reserved":false,"is_disabled":false,"rental_uris":{"android":"levelo://app?vid=830d7107-636e-4156-9051-ab563c81092e","ios":"levelo://app?vid=830d7107-636e-4156-9051-ab563c81092e"},"vehicle_type_id":"4","last_reported":1738919361,"current_range_meters":39200,"station_id":"ce4bhk92rcd13ifvqgb0","pricing_plan_id":"cebpf4jnsgd1na2vs0mg"},{"bike_id":"b8829ab2-1487-4b8c-ae59-08c14afad745","system_id":"levelo_inurba_marseille","lat":43.32358,"lon":5.38891,"is_reserved":false,"is_disabled":false,"rental_uris":{"android":"levelo://app?vid=b8829ab2-1487-4b8c-ae59-08c14afad745","ios":"levelo://app?vid=b8829ab2-1487-4b8c-ae59-08c14afad745"},"vehicle_type_id":"4","last_reported":1738919361,"current_range_meters":20400,"station_id":"ce4bhqp2rcd13ifvqhog","pricing_plan_id":"cebpf4jnsgd1na2vs0mg"},{"bike_id":"504915e8-ed4c-46bf-8848-616160935064","system_id":"levelo_inurba_marseille","lat":43.23148,"lon":5.43725,"is_reserved":false,"is_disabled":false,"rental_uris":{"android":"levelo://app?vid=504915e8-ed4c-46bf-8848-616160935064","ios":"levelo://app?vid=504915e8-ed4c-46bf-8848-616160935064"},"vehicle_type_id":"4","last_reported":1738919361,"current_range_meters":9600,"station_id":"ce4bhmp2rcd13ifvqgog","pricing_plan_id":"cebpf4jnsgd1na2vs0mg"},{"bike_id":"1aafd4aa-ba2a-4c94-bc8a-0a2b42d0be90","system_id":"levelo_inurba_marseille","lat":43.2781,"lon":5.40714,"is_reserved":false,"is_disabled":false,"rental_uris":{"android":"levelo://app?vid=1aafd4aa-ba2a-4c94-bc8a-0a2b42d0be90","ios":"levelo://app?vid=1aafd4aa-ba2a-4c94-bc8a-0a2b42d0be90"},"vehicle_type_id":"4","last_reported":1738919361,"current_range_meters":8800,"station_id":"ce4bhnh2rcd13ifvqgtg","pricing_plan_id":"cebpf4jnsgd1na2vs0mg"},{"bike_id":"99edfd39-ea2c-4152-9a67-579e3aa4a733","system_id":"levelo_inurba_marseille","lat":43.239644,"lon":5.366338,"is_reserved":false,"is_disabled":false,"rental_uris":{"android":"levelo://app?vid=99edfd39-ea2c-4152-9a67-579e3aa4a733","ios":"levelo://app?vid=99edfd39-ea2c-4152-9a67-579e3aa4a733"},"vehicle_type_id":"4","last_reported":1738919361,"current_range_meters":38400,"station_id":"ce4bhi12rcd13ifvqfp0","pricing_plan_id":"cebpf4jnsgd1na2vs0mg"},{"bike_id":"134b7d5f-18cf-4a5f-8b9e-60b9671db7fc","system_id":"levelo_inurba_marseille","lat":43.2979,"lon":5.38085,"is_reserved":false,"is_disabled":false,"rental_uris":{"android":"levelo://app?vid=134b7d5f-18cf-4a5f-8b9e-60b9671db7fc","ios":"levelo://app?vid=134b7d5f-18cf-4a5f-8b9e-60b9671db7fc"},"vehicle_type_id":"4","last_reported":1738919361,"current_range_meters":38800,"station_id":"ce4bgip2rcd13ifvqbb0","pricing_plan_id":"cebpf4jnsgd1na2vs0mg"},{"bike_id":"9c634dd9-1983-4331-aac4-81caafdedb2b","system_id":"levelo_inurba_marseille","lat":43.27318,"lon":5.39078,"is_reserved":false,"is_disabled":false,"rental_uris":{"android":"levelo://app?vid=9c634dd9-1983-4331-aac4-81caafdedb2b","ios":"levelo://app?vid=9c634dd9-1983-4331-aac4-81caafdedb2b"},"vehicle_type_id":"4","last_reported":1738919361,"current_range_meters":30800,"station_id":"ce4bhgp2rcd13ifvqfe0","pricing_plan_id":"cebpf4jnsgd1na2vs0mg"},{"bike_id":"48dd95a1-cb77-40df-8db7-fa70c0505132","system_id":"levelo_inurba_marseille","lat":43.30806,"lon":5.38139,"is_reserved":false,"is_disabled":false,"rental_uris":{"android":"levelo://app?vid=48dd95a1-cb77-40df-8db7-fa70c0505132","ios":"levelo://app?vid=48dd95a1-cb77-40df-8db7-fa70c0505132"},"vehicle_type_id":"4","last_reported":1738919361,"current_range_meters":39200,"station_id":"ce4bgt12rcd13ifvqce0","pricing_plan_id":"cebpf4jnsgd1na2vs0mg"},{"bike_id":"fca7ff50-9b37-4632-8fc1-883a64c093e9","system_id":"levelo_inurba_marseille","lat":43.30136,"lon":5.38801,"is_reserved":false,"is_disabled":false,"rental_uris":{"android":"levelo://app?vid=fca7ff50-9b37-4632-8fc1-883a64c093e9","ios":"levelo://app?vid=fca7ff50-9b37-4632-8fc1-883a64c093e9"},"vehicle_type_id":"4","last_reported":1738919361,"current_range_meters":23200,"station_id":"ce4bhoh2rcd13ifvqh6g","pricing_plan_id":"cebpf4jnsgd1na2vs0mg"},{"bike_id":"d094da60-0121-4672-b5b0-817285625761","system_id":"levelo_inurba_marseille","lat":43.30137,"lon":5.37423,"is_reserved":false,"is_disabled":false,"rental_uris":{"android":"levelo://app?vid=d094da60-0121-4672-b5b0-817285625761","ios":"levelo://app?vid=d094da60-0121-4672-b5b0-817285625761"},"vehicle_type_id":"4","last_reported":1738919361,"current_range_meters":27200,"station_id":"ce4bgs92rcd13ifvqcc0","pricing_plan_id":"cebpf4jnsgd1na2vs0mg"},{"bike_id":"4ccd7a71-f983-472a-bdc7-c6e21e34264c","system_id":"levelo_inurba_marseille","lat":43.29371,"lon":5.37838,"is_reserved":false,"is_disabled":false,"rental_uris":{"android":"levelo://app?vid=4ccd7a71-f983-472a-bdc7-c6e21e34264c","ios":"levelo://app?vid=4ccd7a71-f983-472a-bdc7-c6e21e34264c"},"vehicle_type_id":"4","last_reported":1738919361,"current_range_meters":39200,"station_id":"ce4bgjh2rcd13ifvqbf0","pricing_plan_id":"cebpf4jnsgd1na2vs0mg"},{"bike_id":"4b44671c-15f3-402b-89fc-7fed4cccabaf","system_id":"levelo_inurba_marseille","lat":43.30286,"lon":5.37687,"is_reserved":false,"is_disabled":false,"rental_uris":{"android":"levelo://app?vid=4b44671c-15f3-402b-89fc-7fed4cccabaf","ios":"levelo://app?vid=4b44671c-15f3-402b-89fc-7fed4cccabaf"},"vehicle_type_id":"4","last_reported":1738919361,"current_range_meters":26800,"station_id":"ce4bguh2rcd13ifvqcj0","pricing_plan_id":"cebpf4jnsgd1na2vs0mg"},{"bike_id":"aabe1f0b-89a1-4652-9d45-ac5bc92d0c24","system_id":"levelo_inurba_marseille","lat":43.30137,"lon":5.37426,"is_reserved":false,"is_disabled":false,"rental_uris":{"android":"levelo://app?vid=aabe1f0b-89a1-4652-9d45-ac5bc92d0c24","ios":"levelo://app?vid=aabe1f0b-89a1-4652-9d45-ac5bc92d0c24"},"vehicle_type_id":"4","last_reported":1738919361,"current_range_meters":9600,"station_id":"ce4bgs92rcd13ifvqcc0","pricing_plan_id":"cebpf4jnsgd1na2vs0mg"},{"bike_id":"7e33b631-2c72-4ce9-95d9-ad17f00376cb","system_id":"levelo_inurba_marseille","lat":43.30546,"lon":5.36708,"is_reserved":false,"is_disabled":false,"rental_uris":{"android":"levelo://app?vid=7e33b631-2c72-4ce9-95d9-ad17f00376cb","ios":"levelo://app?vid=7e33b631-2c72-4ce9-95d9-ad17f00376cb"},"vehicle_type_id":"4","last_reported":1738919361,"current_range_meters":39200,"station_id":"ce4bgrp2rcd13ifvqc9g","pricing_plan_id":"cebpf4jnsgd1na2vs0mg"},{"bike_id":"73525c1d-a4a8-43be-9032-5138cf9566c3","system_id":"levelo_inurba_marseille","lat":43.23152,"lon":5.43726,"is_reserved":false,"is_disabled":false,"rental_uris":{"android":"levelo://app?vid=73525c1d-a4a8-43be-9032-5138cf9566c3","ios":"levelo://app?vid=73525c1d-a4a8-43be-9032-5138cf9566c3"},"vehicle_type_id":"4","last_reported":1738919361,"current_range_meters":39200,"station_id":"ce4bhmp2rcd13ifvqgog","pricing_plan_id":"cebpf4jnsgd1na2vs0mg"},{"bike_id":"db322422-c517-446e-a70d-da6e38f4bd2f","system_id":"levelo_inurba_marseille","lat":43.24175,"lon":5.39724,"is_reserved":false,"is_disabled":false,"rental_uris":{"android":"levelo://app?vid=db322422-c517-446e-a70d-da6e38f4bd2f","ios":"levelo://app?vid=db322422-c517-446e-a70d-da6e38f4bd2f"},"vehicle_type_id":"4","last_reported":1738919361,"current_range_meters":32000,"station_id":"ce4bhn12rcd13ifvqgpg","pricing_plan_id":"cebpf4jnsgd1na2vs0mg"},{"bike_id":"30756525-4dc6-4b98-be38-af7c3a5a3250","system_id":"levelo_inurba_marseille","lat":43.29032,"lon":5.40005,"is_reserved":false,"is_disabled":false,"rental_uris":{"android":"levelo://app?vid=30756525-4dc6-4b98-be38-af7c3a5a3250","ios":"levelo://app?vid=30756525-4dc6-4b98-be38-af7c3a5a3250"},"vehicle_type_id":"4","last_reported":1738919361,"current_range_meters":38800,"station_id":"ce4bh392rcd13ifvqdm0","pricing_plan_id":"cebpf4jnsgd1na2vs0mg"},{"bike_id":"f67b7531-6c63-4f46-a9d4-4fdf588facb0","system_id":"levelo_inurba_marseille","lat":43.2787,"lon":5.406117,"is_reserved":false,"is_disabled":true,"rental_uris":{"android":"levelo://app?vid=f67b7531-6c63-4f46-a9d4-4fdf588facb0","ios":"levelo://app?vid=f67b7531-6c63-4f46-a9d4-4fdf588facb0"},"vehicle_type_id":"4","last_reported":1738919361,"current_range_meters":800,"station_id":"","pricing_plan_id":"cebpf4jnsgd1na2vs0mg"},{"bike_id":"d9eff926-2d4a-417c-9178-221575c14456","system_id":"levelo_inurba_marseille","lat":43.23164,"lon":5.43696,"is_reserved":false,"is_disabled":false,"rental_uris":{"android":"levelo://app?vid=d9eff926-2d4a-417c-9178-221575c14456","ios":"levelo://app?vid=d9eff926-2d4a-417c-9178-221575c14456"},"vehicle_type_id":"4","last_reported":1738919361,"current_range_meters":32000,"station_id":"ce4bhmp2rcd13ifvqgog","pricing_plan_id":"cebpf4jnsgd1na2vs0mg"},{"bike_id":"ccc0d99a-4f06-4847-88ea-bfbf26a9a708","system_id":"levelo_inurba_marseille","lat":43.2737,"lon":5.36263,"is_reserved":false,"is_disabled":false,"rental_uris":{"android":"levelo://app?vid=ccc0d99a-4f06-4847-88ea-bfbf26a9a708","ios":"levelo://app?vid=ccc0d99a-4f06-4847-88ea-bfbf26a9a708"},"vehicle_type_id":"4","last_reported":1738919361,"current_range_meters":38800,"station_id":"ce4bhbh2rcd13ifvqeo0","pricing_plan_id":"cebpf4jnsgd1na2vs0mg"},{"bike_id":"eb334662-88cc-4ee0-9692-5c72e540acea","system_id":"levelo_inurba_marseille","lat":43.30478,"lon":5.37911,"is_reserved":false,"is_disabled":false,"rental_uris":{"android":"levelo://app?vid=eb334662-88cc-4ee0-9692-5c72e540acea","ios":"levelo://app?vid=eb334662-88cc-4ee0-9692-5c72e540acea"},"vehicle_type_id":"4","last_reported":1738919361,"current_range_meters":38800,"station_id":"ce4bgup2rcd13ifvqcn0","pricing_plan_id":"cebpf4jnsgd1na2vs0mg"},{"bike_id":"d90800d2-0b28-4666-b04d-68e5f6c3e9ab","system_id":"levelo_inurba_marseille","lat":43.23158,"lon":5.40058,"is_reserved":false,"is_disabled":false,"rental_uris":{"android":"levelo://app?vid=d90800d2-0b28-4666-b04d-68e5f6c3e9ab","ios":"levelo://app?vid=d90800d2-0b28-4666-b04d-68e5f6c3e9ab"},"vehicle_type_id":"4","last_reported":1738919361,"current_range_meters":37600,"station_id":"ce4bhn12rcd13ifvqgqg","pricing_plan_id":"cebpf4jnsgd1na2vs0mg"},{"bike_id":"530d3cae-aa9a-4844-8494-c6334be27ce7","system_id":"levelo_inurba_marseille","lat":43.24176,"lon":5.39736,"is_reserved":false,"is_disabled":false,"rental_uris":{"android":"levelo://app?vid=530d3cae-aa9a-4844-8494-c6334be27ce7","ios":"levelo://app?vid=530d3cae-aa9a-4844-8494-c6334be27ce7"},"vehicle_type_id":"4","last_reported":1738919361,"current_range_meters":38800,"station_id":"ce4bhn12rcd13ifvqgpg","pricing_plan_id":"cebpf4jnsgd1na2vs0mg"},{"bike_id":"55c531ba-cb99-413a-81f9-84f3b3d5979e","system_id":"levelo_inurba_marseille","lat":43.229273,"lon":5.353804,"is_reserved":false,"is_disabled":false,"rental_uris":{"android":"levelo://app?vid=55c531ba-cb99-413a-81f9-84f3b3d5979e","ios":"levelo://app?vid=55c531ba-cb99-413a-81f9-84f3b3d5979e"},"vehicle_type_id":"4","last_reported":1738919361,"current_range_meters":25600,"station_id":"cpo3532slgdg3j2ikp40","pricing_plan_id":"cebpf4jnsgd1na2vs0mg"},{"bike_id":"698d3268-16b7-47fe-9486-e62d8c6e2ff9","system_id":"levelo_inurba_marseille","lat":43.30806,"lon":5.38141,"is_reserved":false,"is_disabled":false,"rental_uris":{"android":"levelo://app?vid=698d3268-16b7-47fe-9486-e62d8c6e2ff9","ios":"levelo://app?vid=698d3268-16b7-47fe-9486-e62d8c6e2ff9"},"vehicle_type_id":"4","last_reported":1738919361,"current_range_meters":38800,"station_id":"ce4bgt12rcd13ifvqce0","pricing_plan_id":"cebpf4jnsgd1na2vs0mg"},{"bike_id":"6a3ebbcf-ee39-47ea-b689-f3b066371aa9","system_id":"levelo_inurba_marseille","lat":43.29844,"lon":5.36273,"is_reserved":false,"is_disabled":false,"rental_uris":{"android":"levelo://app?vid=6a3ebbcf-ee39-47ea-b689-f3b066371aa9","ios":"levelo://app?vid=6a3ebbcf-ee39-47ea-b689-f3b066371aa9"},"vehicle_type_id":"4","last_reported":1738919361,"current_range_meters":16400,"station_id":"ce4bgpp2rcd13ifvqc3g","pricing_plan_id":"cebpf4jnsgd1na2vs0mg"},{"bike_id":"c3842c5d-66fd-424c-b9f9-2a0b519d57b3","system_id":"levelo_inurba_marseille","lat":43.24661,"lon":5.38171,"is_reserved":false,"is_disabled":false,"rental_uris":{"android":"levelo://app?vid=c3842c5d-66fd-424c-b9f9-2a0b519d57b3","ios":"levelo://app?vid=c3842c5d-66fd-424c-b9f9-2a0b519d57b3"},"vehicle_type_id":"4","last_reported":1738919361,"current_range_meters":35200,"station_id":"ce4bhih2rcd13ifvqfr0","pricing_plan_id":"cebpf4jnsgd1na2vs0mg"},{"bike_id":"3b6fc1a1-1e64-4698-a113-588a2563418f","system_id":"levelo_inurba_marseille","lat":43.28029,"lon":5.36953,"is_reserved":false,"is_disabled":false,"rental_uris":{"android":"levelo://app?vid=3b6fc1a1-1e64-4698-a113-588a2563418f","ios":"levelo://app?vid=3b6fc1a1-1e64-4698-a113-588a2563418f"},"vehicle_type_id":"4","last_reported":1738919361,"current_range_meters":38800,"station_id":"ce4bha12rcd13ifvqef0","pricing_plan_id":"cebpf4jnsgd1na2vs0mg"},{"bike_id":"42b00d6b-70d0-4750-bdd2-377deb18497e","system_id":"levelo_inurba_marseille","lat":43.229302,"lon":5.353871,"is_reserved":false,"is_disabled":false,"rental_uris":{"android":"levelo://app?vid=42b00d6b-70d0-4750-bdd2-377deb18497e","ios":"levelo://app?vid=42b00d6b-70d0-4750-bdd2-377deb18497e"},"vehicle_type_id":"4","last_reported":1738919361,"current_range_meters":28400,"station_id":"cpo3532slgdg3j2ikp40","pricing_plan_id":"cebpf4jnsgd1na2vs0mg"},{"bike_id":"e0dd7050-657b-435d-8e69-83dc339c6c06","system_id":"levelo_inurba_marseille","lat":43.28146,"lon":5.42651,"is_reserved":false,"is_disabled":false,"rental_uris":{"android":"levelo://app?vid=e0dd7050-657b-435d-8e69-83dc339c6c06","ios":"levelo://app?vid=e0dd7050-657b-435d-8e69-83dc339c6c06"},"vehicle_type_id":"4","last_reported":1738919361,"current_range_meters":25200,"station_id":"ce4bhnh2rcd13ifvqgug","pricing_plan_id":"cebpf4jnsgd1na2vs0mg"},{"bike_id":"6b522836-a8f5-4cc5-8b7b-63447e86fb52","system_id":"levelo_inurba_marseille","lat":43.2619,"lon":5.37451,"is_reserved":false,"is_disabled":false,"rental_uris":{"android":"levelo://app?vid=6b522836-a8f5-4cc5-8b7b-63447e86fb52","ios":"levelo://app?vid=6b522836-a8f5-4cc5-8b7b-63447e86fb52"},"vehicle_type_id":"4","last_reported":1738919361,"current_range_meters":16400,"station_id":"ce4bhgp2rcd13ifvqfc0","pricing_plan_id":"cebpf4jnsgd1na2vs0mg"},{"bike_id":"f1bbac45-5b32-4b97-b4ef-d7ee065546b1","system_id":"levelo_inurba_marseille","lat":43.26005,"lon":5.37573,"is_reserved":false,"is_disabled":false,"rental_uris":{"android":"levelo://app?vid=f1bbac45-5b32-4b97-b4ef-d7ee065546b1","ios":"levelo://app?vid=f1bbac45-5b32-4b97-b4ef-d7ee065546b1"},"vehicle_type_id":"4","last_reported":1738919361,"current_range_meters":38000,"station_id":"ce4bhgh2rcd13ifvqfa0","pricing_plan_id":"cebpf4jnsgd1na2vs0mg"},{"bike_id":"c13b2d87-e916-43c8-9263-5623ae56b872","system_id":"levelo_inurba_marseille","lat":43.28463,"lon":5.38435,"is_reserved":false,"is_disabled":false,"rental_uris":{"android":"levelo://app?vid=c13b2d87-e916-43c8-9263-5623ae56b872","ios":"levelo://app?vid=c13b2d87-e916-43c8-9263-5623ae56b872"},"vehicle_type_id":"4","last_reported":1738919361,"current_range_meters":20800,"station_id":"ce4bh512rcd13ifvqe3g","pricing_plan_id":"cebpf4jnsgd1na2vs0mg"},{"bike_id":"5eb997aa-ba06-470a-b7fd-cd40e9642b35","system_id":"levelo_inurba_marseille","lat":43.23201,"lon":5.39972,"is_reserved":false,"is_disabled":false,"rental_uris":{"android":"levelo://app?vid=5eb997aa-ba06-470a-b7fd-cd40e9642b35","ios":"levelo://app?vid=5eb997aa-ba06-470a-b7fd-cd40e9642b35"},"vehicle_type_id":"4","last_reported":1738919361,"current_range_meters":38400,"station_id":"ce4bhn12rcd13ifvqgqg","pricing_plan_id":"cebpf4jnsgd1na2vs0mg"},{"bike_id":"47eca90a-46a1-4eb9-993e-26870f20fb1c","system_id":"levelo_inurba_marseille","lat":43.24682,"lon":5.38133,"is_reserved":false,"is_disabled":false,"rental_uris":{"android":"levelo://app?vid=47eca90a-46a1-4eb9-993e-26870f20fb1c","ios":"levelo://app?vid=47eca90a-46a1-4eb9-993e-26870f20fb1c"},"vehicle_type_id":"4","last_reported":1738919361,"current_range_meters":34800,"station_id":"ce4bhih2rcd13ifvqfr0","pricing_plan_id":"cebpf4jnsgd1na2vs0mg"},{"bike_id":"74e03b58-092f-49df-8d5a-96d67891a646","system_id":"levelo_inurba_marseille","lat":43.29042,"lon":5.39918,"is_reserved":false,"is_disabled":false,"rental_uris":{"android":"levelo://app?vid=74e03b58-092f-49df-8d5a-96d67891a646","ios":"levelo://app?vid=74e03b58-092f-49df-8d5a-96d67891a646"},"vehicle_type_id":"4","last_reported":1738919361,"current_range_meters":20000,"station_id":"ce4bh392rcd13ifvqdm0","pricing_plan_id":"cebpf4jnsgd1na2vs0mg"},{"bike_id":"c6fc4b4a-5347-4905-8d96-67ea4d004656","system_id":"levelo_inurba_marseille","lat":43.232049,"lon":5.355384,"is_reserved":false,"is_disabled":false,"rental_uris":{"android":"levelo://app?vid=c6fc4b4a-5347-4905-8d96-67ea4d004656","ios":"levelo://app?vid=c6fc4b4a-5347-4905-8d96-67ea4d004656"},"vehicle_type_id":"4","last_reported":1738919361,"current_range_meters":11200,"station_id":"ce4bhu92rcd13ifvqi70","pricing_plan_id":"cebpf4jnsgd1na2vs0mg"},{"bike_id":"1da8b17b-ad28-4780-a711-431647c244ed","system_id":"levelo_inurba_marseille","lat":43.239559,"lon":5.366293,"is_reserved":false,"is_disabled":false,"rental_uris":{"android":"levelo://app?vid=1da8b17b-ad28-4780-a711-431647c244ed","ios":"levelo://app?vid=1da8b17b-ad28-4780-a711-431647c244ed"},"vehicle_type_id":"4","last_reported":1738919361,"current_range_meters":28800,"station_id":"ce4bhi12rcd13ifvqfp0","pricing_plan_id":"cebpf4jnsgd1na2vs0mg"},{"bike_id":"d0ecee38-6bfe-4129-8c37-08ec31b87aff","system_id":"levelo_inurba_marseille","lat":43.29029,"lon":5.39968,"is_reserved":false,"is_disabled":false,"rental_uris":{"android":"levelo://app?vid=d0ecee38-6bfe-4129-8c37-08ec31b87aff","ios":"levelo://app?vid=d0ecee38-6bfe-4129-8c37-08ec31b87aff"},"vehicle_type_id":"4","last_reported":1738919361,"current_range_meters":13600,"station_id":"ce4bh392rcd13ifvqdm0","pricing_plan_id":"cebpf4jnsgd1na2vs0mg"},{"bike_id":"54630ec0-92ce-4c84-ba54-45269fbd607e","system_id":"levelo_inurba_marseille","lat":43.30343,"lon":5.41888,"is_reserved":false,"is_disabled":false,"rental_uris":{"android":"levelo://app?vid=54630ec0-92ce-4c84-ba54-45269fbd607e","ios":"levelo://app?vid=54630ec0-92ce-4c84-ba54-45269fbd607e"},"vehicle_type_id":"4","last_reported":1738919361,"current_range_meters":38800,"station_id":"ce4bhop2rcd13ifvqh7g","pricing_plan_id":"cebpf4jnsgd1na2vs0mg"},{"bike_id":"b2557e44-f517-4fd5-ad27-e5f8af6b2e67","system_id":"levelo_inurba_marseille","lat":43.24381,"lon":5.37051,"is_reserved":false,"is_disabled":false,"rental_uris":{"android":"levelo://app?vid=b2557e44-f517-4fd5-ad27-e5f8af6b2e67","ios":"levelo://app?vid=b2557e44-f517-4fd5-ad27-e5f8af6b2e67"},"vehicle_type_id":"4","last_reported":1738919361,"current_range_meters":38400,"station_id":"ce4bhhh2rcd13ifvqfk0","pricing_plan_id":"cebpf4jnsgd1na2vs0mg"},{"bike_id":"b49e677c-3e48-4e1d-86b1-fa17f0e39ea8","system_id":"levelo_inurba_marseille","lat":43.26213,"lon":5.3745,"is_reserved":false,"is_disabled":false,"rental_uris":{"android":"levelo://app?vid=b49e677c-3e48-4e1d-86b1-fa17f0e39ea8","ios":"levelo://app?vid=b49e677c-3e48-4e1d-86b1-fa17f0e39ea8"},"vehicle_type_id":"4","last_reported":1738919361,"current_range_meters":35600,"station_id":"ce4bhgp2rcd13ifvqfc0","pricing_plan_id":"cebpf4jnsgd1na2vs0mg"},{"bike_id":"e408d721-1719-4f3b-bfb2-ee76b97560c7","system_id":"levelo_inurba_marseille","lat":43.24643,"lon":5.38882,"is_reserved":false,"is_disabled":true,"rental_uris":{"android":"levelo://app?vid=e408d721-1719-4f3b-bfb2-ee76b97560c7","ios":"levelo://app?vid=e408d721-1719-4f3b-bfb2-ee76b97560c7"},"vehicle_type_id":"4","last_reported":1738919361,"current_range_meters":38800,"station_id":"ce4bhg12rcd13ifvqf60","pricing_plan_id":"cebpf4jnsgd1na2vs0mg"},{"bike_id":"943eb673-c399-4501-9459-4e2f171a7665","system_id":"levelo_inurba_marseille","lat":43.30158,"lon":5.38098,"is_reserved":false,"is_disabled":false,"rental_uris":{"android":"levelo://app?vid=943eb673-c399-4501-9459-4e2f171a7665","ios":"levelo://app?vid=943eb673-c399-4501-9459-4e2f171a7665"},"vehicle_type_id":"4","last_reported":1738919361,"current_range_meters":39200,"station_id":"ce4bgjp2rcd13ifvqbh0","pricing_plan_id":"cebpf4jnsgd1na2vs0mg"},{"bike_id":"a1cf4082-a27a-41d6-bff1-336691c49132","system_id":"levelo_inurba_marseille","lat":43.30088,"lon":5.39073,"is_reserved":false,"is_disabled":false,"rental_uris":{"android":"levelo://app?vid=a1cf4082-a27a-41d6-bff1-336691c49132","ios":"levelo://app?vid=a1cf4082-a27a-41d6-bff1-336691c49132"},"vehicle_type_id":"4","last_reported":1738919361,"current_range_meters":36000,"station_id":"ce4bh192rcd13ifvqdb0","pricing_plan_id":"cebpf4jnsgd1na2vs0mg"},{"bike_id":"a7e2494c-4fcf-45ec-9d7e-c2e2256264e9","system_id":"levelo_inurba_marseille","lat":43.32539,"lon":5.4146,"is_reserved":false,"is_disabled":false,"rental_uris":{"android":"levelo://app?vid=a7e2494c-4fcf-45ec-9d7e-c2e2256264e9","ios":"levelo://app?vid=a7e2494c-4fcf-45ec-9d7e-c2e2256264e9"},"vehicle_type_id":"4","last_reported":1738919361,"current_range_meters":4000,"station_id":"ce4bhq12rcd13ifvqhhg","pricing_plan_id":"cebpf4jnsgd1na2vs0mg"},{"bike_id":"2b671ea3-0fd8-49ca-add6-64b6d7709dd0","system_id":"levelo_inurba_marseille","lat":43.313085,"lon":5.38535,"is_reserved":false,"is_disabled":false,"rental_uris":{"android":"levelo://app?vid=2b671ea3-0fd8-49ca-add6-64b6d7709dd0","ios":"levelo://app?vid=2b671ea3-0fd8-49ca-add6-64b6d7709dd0"},"vehicle_type_id":"4","last_reported":1738919361,"current_range_meters":4800,"station_id":"","pricing_plan_id":"cebpf4jnsgd1na2vs0mg"},{"bike_id":"d2243453-0fdd-44e2-b094-902ca8b1c6d1","system_id":"levelo_inurba_marseille","lat":43.27673,"lon":5.38923,"is_reserved":false,"is_disabled":false,"rental_uris":{"android":"levelo://app?vid=d2243453-0fdd-44e2-b094-902ca8b1c6d1","ios":"levelo://app?vid=d2243453-0fdd-44e2-b094-902ca8b1c6d1"},"vehicle_type_id":"4","last_reported":1738919361,"current_range_meters":39200,"station_id":"ce4bhi12rcd13ifvqfo0","pricing_plan_id":"cebpf4jnsgd1na2vs0mg"},{"bike_id":"921e8e41-d29a-46f3-9136-8ab416f52e4f","system_id":"levelo_inurba_marseille","lat":43.30144,"lon":5.37423,"is_reserved":false,"is_disabled":false,"rental_uris":{"android":"levelo://app?vid=921e8e41-d29a-46f3-9136-8ab416f52e4f","ios":"levelo://app?vid=921e8e41-d29a-46f3-9136-8ab416f52e4f"},"vehicle_type_id":"4","last_reported":1738919361,"current_range_meters":26000,"station_id":"ce4bgs92rcd13ifvqcc0","pricing_plan_id":"cebpf4jnsgd1na2vs0mg"},{"bike_id":"0831c67e-6d3e-41f8-8429-2cada861521c","system_id":"levelo_inurba_marseille","lat":43.29611,"lon":5.3773,"is_reserved":false,"is_disabled":false,"rental_uris":{"android":"levelo://app?vid=0831c67e-6d3e-41f8-8429-2cada861521c","ios":"levelo://app?vid=0831c67e-6d3e-41f8-8429-2cada861521c"},"vehicle_type_id":"4","last_reported":1738919361,"current_range_meters":38800,"station_id":"ce4bgi92rcd13ifvqb90","pricing_plan_id":"cebpf4jnsgd1na2vs0mg"},{"bike_id":"cd79f58f-9702-431d-ac37-95dcbfa35705","system_id":"levelo_inurba_marseille","lat":43.3248,"lon":5.36559,"is_reserved":false,"is_disabled":false,"rental_uris":{"android":"levelo://app?vid=cd79f58f-9702-431d-ac37-95dcbfa35705","ios":"levelo://app?vid=cd79f58f-9702-431d-ac37-95dcbfa35705"},"vehicle_type_id":"4","last_reported":1738919361,"current_range_meters":38400,"station_id":"ce4bhs12rcd13ifvqhvg","pricing_plan_id":"cebpf4jnsgd1na2vs0mg"},{"bike_id":"29b89577-5ba4-4a1c-a2ad-cff10e490f1a","system_id":"levelo_inurba_marseille","lat":43.24038,"lon":5.37722,"is_reserved":false,"is_disabled":false,"rental_uris":{"android":"levelo://app?vid=29b89577-5ba4-4a1c-a2ad-cff10e490f1a","ios":"levelo://app?vid=29b89577-5ba4-4a1c-a2ad-cff10e490f1a"},"vehicle_type_id":"4","last_reported":1738919361,"current_range_meters":21600,"station_id":"ce4bhnp2rcd13ifvqgvg","pricing_plan_id":"cebpf4jnsgd1na2vs0mg"},{"bike_id":"cfc6d84c-2030-49fa-bd57-83b6275518c2","system_id":"levelo_inurba_marseille","lat":43.240639,"lon":5.377261,"is_reserved":false,"is_disabled":false,"rental_uris":{"android":"levelo://app?vid=cfc6d84c-2030-49fa-bd57-83b6275518c2","ios":"levelo://app?vid=cfc6d84c-2030-49fa-bd57-83b6275518c2"},"vehicle_type_id":"4","last_reported":1738919361,"current_range_meters":16400,"station_id":"ce4bhnp2rcd13ifvqgvg","pricing_plan_id":"cebpf4jnsgd1na2vs0mg"},{"bike_id":"7ac1dc60-bca5-4aad-8c9a-936fb5992615","system_id":"levelo_inurba_marseille","lat":43.30423,"lon":5.38902,"is_reserved":false,"is_disabled":false,"rental_uris":{"android":"levelo://app?vid=7ac1dc60-bca5-4aad-8c9a-936fb5992615","ios":"levelo://app?vid=7ac1dc60-bca5-4aad-8c9a-936fb5992615"},"vehicle_type_id":"4","last_reported":1738919361,"current_range_meters":22800,"station_id":"ce4bgk12rcd13ifvqbi0","pricing_plan_id":"cebpf4jnsgd1na2vs0mg"},{"bike_id":"6964e144-0c20-439f-8e52-e9a10a7db7cf","system_id":"levelo_inurba_marseille","lat":43.30246,"lon":5.3774,"is_reserved":false,"is_disabled":false,"rental_uris":{"android":"levelo://app?vid=6964e144-0c20-439f-8e52-e9a10a7db7cf","ios":"levelo://app?vid=6964e144-0c20-439f-8e52-e9a10a7db7cf"},"vehicle_type_id":"4","last_reported":1738919361,"current_range_meters":32800,"station_id":"ce4bguh2rcd13ifvqcj0","pricing_plan_id":"cebpf4jnsgd1na2vs0mg"},{"bike_id":"0bc38e38-92c3-4ed1-b28d-79cb5f04f246","system_id":"levelo_inurba_marseille","lat":43.2667,"lon":5.38283,"is_reserved":false,"is_disabled":false,"rental_uris":{"android":"levelo://app?vid=0bc38e38-92c3-4ed1-b28d-79cb5f04f246","ios":"levelo://app?vid=0bc38e38-92c3-4ed1-b28d-79cb5f04f246"},"vehicle_type_id":"4","last_reported":1738919361,"current_range_meters":38000,"station_id":"ce4bhg92rcd13ifvqf90","pricing_plan_id":"cebpf4jnsgd1na2vs0mg"},{"bike_id":"da10d3b6-6e7d-4a1f-958a-0b25eceb1fc4","system_id":"levelo_inurba_marseille","lat":43.33014,"lon":5.39033,"is_reserved":false,"is_disabled":false,"rental_uris":{"android":"levelo://app?vid=da10d3b6-6e7d-4a1f-958a-0b25eceb1fc4","ios":"levelo://app?vid=da10d3b6-6e7d-4a1f-958a-0b25eceb1fc4"},"vehicle_type_id":"4","last_reported":1738919361,"current_range_meters":38800,"station_id":"ce4bhr92rcd13ifvqhrg","pricing_plan_id":"cebpf4jnsgd1na2vs0mg"},{"bike_id":"48e4415f-4bfa-4dd7-b8c6-72b96454ae71","system_id":"levelo_inurba_marseille","lat":43.26815,"lon":5.40248,"is_reserved":false,"is_disabled":false,"rental_uris":{"android":"levelo://app?vid=48e4415f-4bfa-4dd7-b8c6-72b96454ae71","ios":"levelo://app?vid=48e4415f-4bfa-4dd7-b8c6-72b96454ae71"},"vehicle_type_id":"4","last_reported":1738919361,"current_range_meters":29600,"station_id":"ce501612rcd8frsf0b60","pricing_plan_id":"cebpf4jnsgd1na2vs0mg"},{"bike_id":"921e3fac-428b-40ff-9224-c3f13b9034c3","system_id":"levelo_inurba_marseille","lat":43.29582,"lon":5.36733,"is_reserved":false,"is_disabled":false,"rental_uris":{"android":"levelo://app?vid=921e3fac-428b-40ff-9224-c3f13b9034c3","ios":"levelo://app?vid=921e3fac-428b-40ff-9224-c3f13b9034c3"},"vehicle_type_id":"4","last_reported":1738919361,"current_range_meters":36400,"station_id":"ce4bgph2rcd13ifvqc2g","pricing_plan_id":"cebpf4jnsgd1na2vs0mg"},{"bike_id":"ff367720-d345-4894-b2da-040da08574ca","system_id":"levelo_inurba_marseille","lat":43.30533,"lon":5.36711,"is_reserved":false,"is_disabled":false,"rental_uris":{"android":"levelo://app?vid=ff367720-d345-4894-b2da-040da08574ca","ios":"levelo://app?vid=ff367720-d345-4894-b2da-040da08574ca"},"vehicle_type_id":"4","last_reported":1738919361,"current_range_meters":27200,"station_id":"ce4bgrp2rcd13ifvqc9g","pricing_plan_id":"cebpf4jnsgd1na2vs0mg"},{"bike_id":"f6e36dd0-6e67-421a-9873-e68da406d5dc","system_id":"levelo_inurba_marseille","lat":43.27813,"lon":5.39209,"is_reserved":false,"is_disabled":false,"rental_uris":{"android":"levelo://app?vid=f6e36dd0-6e67-421a-9873-e68da406d5dc","ios":"levelo://app?vid=f6e36dd0-6e67-421a-9873-e68da406d5dc"},"vehicle_type_id":"4","last_reported":1738919361,"current_range_meters":38800,"station_id":"ce4bhjp2rcd13ifvqga0","pricing_plan_id":"cebpf4jnsgd1na2vs0mg"},{"bike_id":"664962be-acc7-4677-844a-5178817526eb","system_id":"levelo_inurba_marseille","lat":43.34152,"lon":5.40903,"is_reserved":false,"is_disabled":false,"rental_uris":{"android":"levelo://app?vid=664962be-acc7-4677-844a-5178817526eb","ios":"levelo://app?vid=664962be-acc7-4677-844a-5178817526eb"},"vehicle_type_id":"4","last_reported":1738919361,"current_range_meters":26000,"station_id":"ce4bhqh2rcd13ifvqhlg","pricing_plan_id":"cebpf4jnsgd1na2vs0mg"},{"bike_id":"0fc2b2ac-22e8-4906-aedc-cd11dcfd1df7","system_id":"levelo_inurba_marseille","lat":43.27498,"lon":5.42455,"is_reserved":false,"is_disabled":false,"rental_uris":{"android":"levelo://app?vid=0fc2b2ac-22e8-4906-aedc-cd11dcfd1df7","ios":"levelo://app?vid=0fc2b2ac-22e8-4906-aedc-cd11dcfd1df7"},"vehicle_type_id":"4","last_reported":1738919361,"current_range_meters":33200,"station_id":"ce4bhn92rcd13ifvqgrg","pricing_plan_id":"cebpf4jnsgd1na2vs0mg"},{"bike_id":"d24de62b-f43d-4ee9-8636-eae3f9e1d596","system_id":"levelo_inurba_marseille","lat":43.271791,"lon":5.409988,"is_reserved":false,"is_disabled":false,"rental_uris":{"android":"levelo://app?vid=d24de62b-f43d-4ee9-8636-eae3f9e1d596","ios":"levelo://app?vid=d24de62b-f43d-4ee9-8636-eae3f9e1d596"},"vehicle_type_id":"4","last_reported":1738919361,"current_range_meters":33600,"station_id":"ce4bhl12rcd13ifvqgf0","pricing_plan_id":"cebpf4jnsgd1na2vs0mg"},{"bike_id":"45a63924-d03f-4bba-a9a6-3edee7c97c94","system_id":"levelo_inurba_marseille","lat":43.30094,"lon":5.39081,"is_reserved":false,"is_disabled":false,"rental_uris":{"android":"levelo://app?vid=45a63924-d03f-4bba-a9a6-3edee7c97c94","ios":"levelo://app?vid=45a63924-d03f-4bba-a9a6-3edee7c97c94"},"vehicle_type_id":"4","last_reported":1738919361,"current_range_meters":23200,"station_id":"ce4bh192rcd13ifvqdb0","pricing_plan_id":"cebpf4jnsgd1na2vs0mg"},{"bike_id":"b0b2e4a5-cf7b-4a0d-bb9f-3bd141029616","system_id":"levelo_inurba_marseille","lat":43.3089,"lon":5.37195,"is_reserved":false,"is_disabled":false,"rental_uris":{"android":"levelo://app?vid=b0b2e4a5-cf7b-4a0d-bb9f-3bd141029616","ios":"levelo://app?vid=b0b2e4a5-cf7b-4a0d-bb9f-3bd141029616"},"vehicle_type_id":"4","last_reported":1738919361,"current_range_meters":38400,"station_id":"ce4bguh2rcd13ifvqckg","pricing_plan_id":"cebpf4jnsgd1na2vs0mg"},{"bike_id":"19780fea-eb01-4c15-ab82-e742a85898ab","system_id":"levelo_inurba_marseille","lat":43.32486,"lon":5.36561,"is_reserved":false,"is_disabled":false,"rental_uris":{"android":"levelo://app?vid=19780fea-eb01-4c15-ab82-e742a85898ab","ios":"levelo://app?vid=19780fea-eb01-4c15-ab82-e742a85898ab"},"vehicle_type_id":"4","last_reported":1738919361,"current_range_meters":36800,"station_id":"ce4bhs12rcd13ifvqhvg","pricing_plan_id":"cebpf4jnsgd1na2vs0mg"},{"bike_id":"2849b7f6-52af-4ac8-9db1-b17b0910ec1a","system_id":"levelo_inurba_marseille","lat":43.27836,"lon":5.39212,"is_reserved":false,"is_disabled":false,"rental_uris":{"android":"levelo://app?vid=2849b7f6-52af-4ac8-9db1-b17b0910ec1a","ios":"levelo://app?vid=2849b7f6-52af-4ac8-9db1-b17b0910ec1a"},"vehicle_type_id":"4","last_reported":1738919361,"current_range_meters":34000,"station_id":"ce4bhjp2rcd13ifvqga0","pricing_plan_id":"cebpf4jnsgd1na2vs0mg"},{"bike_id":"314e10ea-2ee6-4202-88b7-fd884625aaed","system_id":"levelo_inurba_marseille","lat":43.30585,"lon":5.37247,"is_reserved":false,"is_disabled":false,"rental_uris":{"android":"levelo://app?vid=314e10ea-2ee6-4202-88b7-fd884625aaed","ios":"levelo://app?vid=314e10ea-2ee6-4202-88b7-fd884625aaed"},"vehicle_type_id":"4","last_reported":1738919361,"current_range_meters":32000,"station_id":"ce4bgqh2rcd13ifvqc4g","pricing_plan_id":"cebpf4jnsgd1na2vs0mg"},{"bike_id":"775e7c57-7e2a-41a4-bb53-8e81069898dc","system_id":"levelo_inurba_marseille","lat":43.255774,"lon":5.382491,"is_reserved":false,"is_disabled":false,"rental_uris":{"android":"levelo://app?vid=775e7c57-7e2a-41a4-bb53-8e81069898dc","ios":"levelo://app?vid=775e7c57-7e2a-41a4-bb53-8e81069898dc"},"vehicle_type_id":"4","last_reported":1738919361,"current_range_meters":4800,"station_id":"ce4bhih2rcd13ifvqfs0","pricing_plan_id":"cebpf4jnsgd1na2vs0mg"},{"bike_id":"b7797d4f-31f2-436c-a839-e5bb000de077","system_id":"levelo_inurba_marseille","lat":43.31092,"lon":5.37792,"is_reserved":false,"is_disabled":false,"rental_uris":{"android":"levelo://app?vid=b7797d4f-31f2-436c-a839-e5bb000de077","ios":"levelo://app?vid=b7797d4f-31f2-436c-a839-e5bb000de077"},"vehicle_type_id":"4","last_reported":1738919361,"current_range_meters":4800,"station_id":"ce4bgt92rcd13ifvqcg0","pricing_plan_id":"cebpf4jnsgd1na2vs0mg"},{"bike_id":"e5303a04-91c7-4fb5-8a8d-548491569627","system_id":"levelo_inurba_marseille","lat":43.28717,"lon":5.37952,"is_reserved":false,"is_disabled":false,"rental_uris":{"android":"levelo://app?vid=e5303a04-91c7-4fb5-8a8d-548491569627","ios":"levelo://app?vid=e5303a04-91c7-4fb5-8a8d-548491569627"},"vehicle_type_id":"4","last_reported":1738919361,"current_range_meters":31200,"station_id":"ce4bh9p2rcd13ifvqec0","pricing_plan_id":"cebpf4jnsgd1na2vs0mg"},{"bike_id":"223095b3-c2e8-4b11-a7be-36f06c3b36a2","system_id":"levelo_inurba_marseille","lat":43.30538,"lon":5.36736,"is_reserved":false,"is_disabled":false,"rental_uris":{"android":"levelo://app?vid=223095b3-c2e8-4b11-a7be-36f06c3b36a2","ios":"levelo://app?vid=223095b3-c2e8-4b11-a7be-36f06c3b36a2"},"vehicle_type_id":"4","last_reported":1738919361,"current_range_meters":38400,"station_id":"ce4bgrp2rcd13ifvqc9g","pricing_plan_id":"cebpf4jnsgd1na2vs0mg"},{"bike_id":"f7f0bf94-1be0-4108-b11d-e45d809e804d","system_id":"levelo_inurba_marseille","lat":43.337444,"lon":5.374475,"is_reserved":false,"is_disabled":false,"rental_uris":{"android":"levelo://app?vid=f7f0bf94-1be0-4108-b11d-e45d809e804d","ios":"levelo://app?vid=f7f0bf94-1be0-4108-b11d-e45d809e804d"},"vehicle_type_id":"4","last_reported":1738919361,"current_range_meters":30000,"station_id":"","pricing_plan_id":"cebpf4jnsgd1na2vs0mg"},{"bike_id":"c5789181-d252-4c46-b75d-908f3a6a38fe","system_id":"levelo_inurba_marseille","lat":43.33723,"lon":5.39192,"is_reserved":false,"is_disabled":false,"rental_uris":{"android":"levelo://app?vid=c5789181-d252-4c46-b75d-908f3a6a38fe","ios":"levelo://app?vid=c5789181-d252-4c46-b75d-908f3a6a38fe"},"vehicle_type_id":"4","last_reported":1738919361,"current_range_meters":14000,"station_id":"ce4bhr92rcd13ifvqhsg","pricing_plan_id":"cebpf4jnsgd1na2vs0mg"},{"bike_id":"70680240-c0ce-4c00-ba26-bfa78895a67c","system_id":"levelo_inurba_marseille","lat":43.28606,"lon":5.37072,"is_reserved":false,"is_disabled":true,"rental_uris":{"android":"levelo://app?vid=70680240-c0ce-4c00-ba26-bfa78895a67c","ios":"levelo://app?vid=70680240-c0ce-4c00-ba26-bfa78895a67c"},"vehicle_type_id":"4","last_reported":1738919361,"current_range_meters":38800,"station_id":"ce4bht12rcd13ifvqi60","pricing_plan_id":"cebpf4jnsgd1na2vs0mg"},{"bike_id":"c0860f29-00a1-43bc-a59a-93baa2420893","system_id":"levelo_inurba_marseille","lat":43.29369,"lon":5.3784,"is_reserved":false,"is_disabled":false,"rental_uris":{"android":"levelo://app?vid=c0860f29-00a1-43bc-a59a-93baa2420893","ios":"levelo://app?vid=c0860f29-00a1-43bc-a59a-93baa2420893"},"vehicle_type_id":"4","last_reported":1738919361,"current_range_meters":32400,"station_id":"ce4bgjh2rcd13ifvqbf0","pricing_plan_id":"cebpf4jnsgd1na2vs0mg"},{"bike_id":"ef9b62b4-8d02-4e23-970e-3e7fcb88040b","system_id":"levelo_inurba_marseille","lat":43.26227,"lon":5.38832,"is_reserved":false,"is_disabled":false,"rental_uris":{"android":"levelo://app?vid=ef9b62b4-8d02-4e23-970e-3e7fcb88040b","ios":"levelo://app?vid=ef9b62b4-8d02-4e23-970e-3e7fcb88040b"},"vehicle_type_id":"4","last_reported":1738919361,"current_range_meters":11200,"station_id":"","pricing_plan_id":"cebpf4jnsgd1na2vs0mg"},{"bike_id":"e385d642-48aa-4e8d-9486-5f57838c0307","system_id":"levelo_inurba_marseille","lat":43.3037,"lon":5.41882,"is_reserved":false,"is_disabled":false,"rental_uris":{"android":"levelo://app?vid=e385d642-48aa-4e8d-9486-5f57838c0307","ios":"levelo://app?vid=e385d642-48aa-4e8d-9486-5f57838c0307"},"vehicle_type_id":"4","last_reported":1738919361,"current_range_meters":38800,"station_id":"ce4bhop2rcd13ifvqh7g","pricing_plan_id":"cebpf4jnsgd1na2vs0mg"},{"bike_id":"c36d5697-b0ce-42ba-a6ad-3875b078c9c6","system_id":"levelo_inurba_marseille","lat":43.27803,"lon":5.40723,"is_reserved":false,"is_disabled":false,"rental_uris":{"android":"levelo://app?vid=c36d5697-b0ce-42ba-a6ad-3875b078c9c6","ios":"levelo://app?vid=c36d5697-b0ce-42ba-a6ad-3875b078c9c6"},"vehicle_type_id":"4","last_reported":1738919361,"current_range_meters":38800,"station_id":"ce4bhnh2rcd13ifvqgtg","pricing_plan_id":"cebpf4jnsgd1na2vs0mg"},{"bike_id":"eb3fd904-badc-499a-a549-c5ec6801c1d1","system_id":"levelo_inurba_marseille","lat":43.30151,"lon":5.38084,"is_reserved":false,"is_disabled":false,"rental_uris":{"android":"levelo://app?vid=eb3fd904-badc-499a-a549-c5ec6801c1d1","ios":"levelo://app?vid=eb3fd904-badc-499a-a549-c5ec6801c1d1"},"vehicle_type_id":"4","last_reported":1738919361,"current_range_meters":39200,"station_id":"ce4bgjp2rcd13ifvqbh0","pricing_plan_id":"cebpf4jnsgd1na2vs0mg"},{"bike_id":"e0c0d5bd-2c3b-46d9-9a6c-42bde9a7c747","system_id":"levelo_inurba_marseille","lat":43.28145,"lon":5.42684,"is_reserved":false,"is_disabled":false,"rental_uris":{"android":"levelo://app?vid=e0c0d5bd-2c3b-46d9-9a6c-42bde9a7c747","ios":"levelo://app?vid=e0c0d5bd-2c3b-46d9-9a6c-42bde9a7c747"},"vehicle_type_id":"4","last_reported":1738919361,"current_range_meters":8800,"station_id":"ce4bhnh2rcd13ifvqgug","pricing_plan_id":"cebpf4jnsgd1na2vs0mg"},{"bike_id":"874fc294-66ab-4c5d-86ce-75402c8bd140","system_id":"levelo_inurba_marseille","lat":43.3122,"lon":5.36865,"is_reserved":false,"is_disabled":false,"rental_uris":{"android":"levelo://app?vid=874fc294-66ab-4c5d-86ce-75402c8bd140","ios":"levelo://app?vid=874fc294-66ab-4c5d-86ce-75402c8bd140"},"vehicle_type_id":"4","last_reported":1738919361,"current_range_meters":17200,"station_id":"ce4bgl92rcd13ifvqbq0","pricing_plan_id":"cebpf4jnsgd1na2vs0mg"},{"bike_id":"c204f03f-a67e-4bd0-a04c-f14ecf273ff1","system_id":"levelo_inurba_marseille","lat":43.26945,"lon":5.38641,"is_reserved":false,"is_disabled":false,"rental_uris":{"android":"levelo://app?vid=c204f03f-a67e-4bd0-a04c-f14ecf273ff1","ios":"levelo://app?vid=c204f03f-a67e-4bd0-a04c-f14ecf273ff1"},"vehicle_type_id":"4","last_reported":1738919361,"current_range_meters":16800,"station_id":"ce4bhh92rcd13ifvqfh0","pricing_plan_id":"cebpf4jnsgd1na2vs0mg"},{"bike_id":"33f37d6b-08fe-4642-b4da-79d2133e4243","system_id":"levelo_inurba_marseille","lat":43.27309,"lon":5.42327,"is_reserved":false,"is_disabled":true,"rental_uris":{"android":"levelo://app?vid=33f37d6b-08fe-4642-b4da-79d2133e4243","ios":"levelo://app?vid=33f37d6b-08fe-4642-b4da-79d2133e4243"},"vehicle_type_id":"4","last_reported":1738919361,"current_range_meters":1600,"station_id":"","pricing_plan_id":"cebpf4jnsgd1na2vs0mg"},{"bike_id":"61fa4b26-20c8-466a-9fd1-66899d5ff713","system_id":"levelo_inurba_marseille","lat":43.32347,"lon":5.40622,"is_reserved":false,"is_disabled":false,"rental_uris":{"android":"levelo://app?vid=61fa4b26-20c8-466a-9fd1-66899d5ff713","ios":"levelo://app?vid=61fa4b26-20c8-466a-9fd1-66899d5ff713"},"vehicle_type_id":"4","last_reported":1738919361,"current_range_meters":24400,"station_id":"ce4bhq92rcd13ifvqhjg","pricing_plan_id":"cebpf4jnsgd1na2vs0mg"},{"bike_id":"7bc2d4b6-7844-46be-a947-040b3c3e100d","system_id":"levelo_inurba_marseille","lat":43.279108,"lon":5.395822,"is_reserved":false,"is_disabled":false,"rental_uris":{"android":"levelo://app?vid=7bc2d4b6-7844-46be-a947-040b3c3e100d","ios":"levelo://app?vid=7bc2d4b6-7844-46be-a947-040b3c3e100d"},"vehicle_type_id":"4","last_reported":1738919361,"current_range_meters":37600,"station_id":"ce4bhf92rcd13ifvqf40","pricing_plan_id":"cebpf4jnsgd1na2vs0mg"},{"bike_id":"254048ed-538f-43db-8dbf-2f9d8ee68a52","system_id":"levelo_inurba_marseille","lat":43.2717,"lon":5.41027,"is_reserved":false,"is_disabled":false,"rental_uris":{"android":"levelo://app?vid=254048ed-538f-43db-8dbf-2f9d8ee68a52","ios":"levelo://app?vid=254048ed-538f-43db-8dbf-2f9d8ee68a52"},"vehicle_type_id":"4","last_reported":1738919361,"current_range_meters":35200,"station_id":"ce4bhl12rcd13ifvqgf0","pricing_plan_id":"cebpf4jnsgd1na2vs0mg"},{"bike_id":"570e43dd-e616-4888-9e3c-236fbdf74433","system_id":"levelo_inurba_marseille","lat":43.3032,"lon":5.41938,"is_reserved":false,"is_disabled":false,"rental_uris":{"android":"levelo://app?vid=570e43dd-e616-4888-9e3c-236fbdf74433","ios":"levelo://app?vid=570e43dd-e616-4888-9e3c-236fbdf74433"},"vehicle_type_id":"4","last_reported":1738919361,"current_range_meters":38800,"station_id":"ce4bhop2rcd13ifvqh7g","pricing_plan_id":"cebpf4jnsgd1na2vs0mg"},{"bike_id":"e42b0b06-9d95-4f22-a61f-62da46843893","system_id":"levelo_inurba_marseille","lat":43.28489,"lon":5.38417,"is_reserved":false,"is_disabled":false,"rental_uris":{"android":"levelo://app?vid=e42b0b06-9d95-4f22-a61f-62da46843893","ios":"levelo://app?vid=e42b0b06-9d95-4f22-a61f-62da46843893"},"vehicle_type_id":"4","last_reported":1738919361,"current_range_meters":19200,"station_id":"ce4bh512rcd13ifvqe3g","pricing_plan_id":"cebpf4jnsgd1na2vs0mg"},{"bike_id":"c8de6b0e-d38f-4aa5-b1f3-a3f87b8c1537","system_id":"levelo_inurba_marseille","lat":43.30151,"lon":5.38086,"is_reserved":false,"is_disabled":false,"rental_uris":{"android":"levelo://app?vid=c8de6b0e-d38f-4aa5-b1f3-a3f87b8c1537","ios":"levelo://app?vid=c8de6b0e-d38f-4aa5-b1f3-a3f87b8c1537"},"vehicle_type_id":"4","last_reported":1738919361,"current_range_meters":28000,"station_id":"ce4bgjp2rcd13ifvqbh0","pricing_plan_id":"cebpf4jnsgd1na2vs0mg"},{"bike_id":"43784e4c-7eca-4f32-934f-a5127e839b8a","system_id":"levelo_inurba_marseille","lat":43.27808,"lon":5.40713,"is_reserved":false,"is_disabled":false,"rental_uris":{"android":"levelo://app?vid=43784e4c-7eca-4f32-934f-a5127e839b8a","ios":"levelo://app?vid=43784e4c-7eca-4f32-934f-a5127e839b8a"},"vehicle_type_id":"4","last_reported":1738919361,"current_range_meters":22400,"station_id":"ce4bhnh2rcd13ifvqgtg","pricing_plan_id":"cebpf4jnsgd1na2vs0mg"},{"bike_id":"adea3fe0-0d5f-493f-bc7a-8db19cd779cc","system_id":"levelo_inurba_marseille","lat":43.26198,"lon":5.37937,"is_reserved":false,"is_disabled":false,"rental_uris":{"android":"levelo://app?vid=adea3fe0-0d5f-493f-bc7a-8db19cd779cc","ios":"levelo://app?vid=adea3fe0-0d5f-493f-bc7a-8db19cd779cc"},"vehicle_type_id":"4","last_reported":1738919361,"current_range_meters":36800,"station_id":"ce4bhjp2rcd13ifvqg90","pricing_plan_id":"cebpf4jnsgd1na2vs0mg"},{"bike_id":"a399fbde-6a19-48c8-9e8b-fa1033ce7027","system_id":"levelo_inurba_marseille","lat":43.28712,"lon":5.37936,"is_reserved":false,"is_disabled":false,"rental_uris":{"android":"levelo://app?vid=a399fbde-6a19-48c8-9e8b-fa1033ce7027","ios":"levelo://app?vid=a399fbde-6a19-48c8-9e8b-fa1033ce7027"},"vehicle_type_id":"4","last_reported":1738919361,"current_range_meters":17600,"station_id":"ce4bh9p2rcd13ifvqec0","pricing_plan_id":"cebpf4jnsgd1na2vs0mg"},{"bike_id":"07bbbb02-8103-472b-8e2d-b8e1fb21467e","system_id":"levelo_inurba_marseille","lat":43.26542,"lon":5.39042,"is_reserved":false,"is_disabled":false,"rental_uris":{"android":"levelo://app?vid=07bbbb02-8103-472b-8e2d-b8e1fb21467e","ios":"levelo://app?vid=07bbbb02-8103-472b-8e2d-b8e1fb21467e"},"vehicle_type_id":"4","last_reported":1738919361,"current_range_meters":20400,"station_id":"ce4bhe12rcd13ifvqf30","pricing_plan_id":"cebpf4jnsgd1na2vs0mg"},{"bike_id":"c24a0944-9686-4c99-bfcb-6448fb0e1bb6","system_id":"levelo_inurba_marseille","lat":43.24059,"lon":5.37718,"is_reserved":false,"is_disabled":false,"rental_uris":{"android":"levelo://app?vid=c24a0944-9686-4c99-bfcb-6448fb0e1bb6","ios":"levelo://app?vid=c24a0944-9686-4c99-bfcb-6448fb0e1bb6"},"vehicle_type_id":"4","last_reported":1738919361,"current_range_meters":28800,"station_id":"ce4bhnp2rcd13ifvqgvg","pricing_plan_id":"cebpf4jnsgd1na2vs0mg"},{"bike_id":"8b11bba1-d0cf-40c9-9463-3c4eba99b678","system_id":"levelo_inurba_marseille","lat":43.30152,"lon":5.38082,"is_reserved":false,"is_disabled":false,"rental_uris":{"android":"levelo://app?vid=8b11bba1-d0cf-40c9-9463-3c4eba99b678","ios":"levelo://app?vid=8b11bba1-d0cf-40c9-9463-3c4eba99b678"},"vehicle_type_id":"4","last_reported":1738919361,"current_range_meters":24800,"station_id":"ce4bgjp2rcd13ifvqbh0","pricing_plan_id":"cebpf4jnsgd1na2vs0mg"},{"bike_id":"0c7b73f6-06cf-4f30-a5b5-cc680ecfa71d","system_id":"levelo_inurba_marseille","lat":43.33597,"lon":5.41007,"is_reserved":false,"is_disabled":true,"rental_uris":{"android":"levelo://app?vid=0c7b73f6-06cf-4f30-a5b5-cc680ecfa71d","ios":"levelo://app?vid=0c7b73f6-06cf-4f30-a5b5-cc680ecfa71d"},"vehicle_type_id":"4","last_reported":1738919361,"current_range_meters":0,"station_id":"ce4bhqh2rcd13ifvqhmg","pricing_plan_id":"cebpf4jnsgd1na2vs0mg"},{"bike_id":"c75b89e0-59d2-46d2-be44-d415eca050e6","system_id":"levelo_inurba_marseille","lat":43.26788,"lon":5.39415,"is_reserved":false,"is_disabled":false,"rental_uris":{"android":"levelo://app?vid=c75b89e0-59d2-46d2-be44-d415eca050e6","ios":"levelo://app?vid=c75b89e0-59d2-46d2-be44-d415eca050e6"},"vehicle_type_id":"4","last_reported":1738919361,"current_range_meters":7200,"station_id":"ce4bhh12rcd13ifvqfg0","pricing_plan_id":"cebpf4jnsgd1na2vs0mg"},{"bike_id":"15c8ffa4-0d0b-4a1a-b4c5-f4440cea02f2","system_id":"levelo_inurba_marseille","lat":43.2315,"lon":5.43723,"is_reserved":false,"is_disabled":false,"rental_uris":{"android":"levelo://app?vid=15c8ffa4-0d0b-4a1a-b4c5-f4440cea02f2","ios":"levelo://app?vid=15c8ffa4-0d0b-4a1a-b4c5-f4440cea02f2"},"vehicle_type_id":"4","last_reported":1738919361,"current_range_meters":4400,"station_id":"ce4bhmp2rcd13ifvqgog","pricing_plan_id":"cebpf4jnsgd1na2vs0mg"},{"bike_id":"f2df57fd-48fb-42b4-9b53-5e639c9b06ad","system_id":"levelo_inurba_marseille","lat":43.32366,"lon":5.38887,"is_reserved":false,"is_disabled":false,"rental_uris":{"android":"levelo://app?vid=f2df57fd-48fb-42b4-9b53-5e639c9b06ad","ios":"levelo://app?vid=f2df57fd-48fb-42b4-9b53-5e639c9b06ad"},"vehicle_type_id":"4","last_reported":1738919361,"current_range_meters":38000,"station_id":"ce4bhqp2rcd13ifvqhog","pricing_plan_id":"cebpf4jnsgd1na2vs0mg"},{"bike_id":"1f817628-675a-46e7-8767-c97b0a6a2259","system_id":"levelo_inurba_marseille","lat":43.26787,"lon":5.39415,"is_reserved":false,"is_disabled":false,"rental_uris":{"android":"levelo://app?vid=1f817628-675a-46e7-8767-c97b0a6a2259","ios":"levelo://app?vid=1f817628-675a-46e7-8767-c97b0a6a2259"},"vehicle_type_id":"4","last_reported":1738919361,"current_range_meters":16400,"station_id":"ce4bhh12rcd13ifvqfg0","pricing_plan_id":"cebpf4jnsgd1na2vs0mg"},{"bike_id":"30848e21-3842-49e6-b9e8-e3d9163bf6f6","system_id":"levelo_inurba_marseille","lat":43.25931,"lon":5.40884,"is_reserved":false,"is_disabled":false,"rental_uris":{"android":"levelo://app?vid=30848e21-3842-49e6-b9e8-e3d9163bf6f6","ios":"levelo://app?vid=30848e21-3842-49e6-b9e8-e3d9163bf6f6"},"vehicle_type_id":"4","last_reported":1738919361,"current_range_meters":28400,"station_id":"ce4bhm92rcd13ifvqglg","pricing_plan_id":"cebpf4jnsgd1na2vs0mg"},{"bike_id":"59db9156-837c-4bef-bdf0-6cb05d00fb23","system_id":"levelo_inurba_marseille","lat":43.24168,"lon":5.36414,"is_reserved":false,"is_disabled":false,"rental_uris":{"android":"levelo://app?vid=59db9156-837c-4bef-bdf0-6cb05d00fb23","ios":"levelo://app?vid=59db9156-837c-4bef-bdf0-6cb05d00fb23"},"vehicle_type_id":"4","last_reported":1738919361,"current_range_meters":32000,"station_id":"cpo36qri1sfpv3e86is0","pricing_plan_id":"cebpf4jnsgd1na2vs0mg"},{"bike_id":"8a67da58-cf32-4163-a9c0-454a297e60c9","system_id":"levelo_inurba_marseille","lat":43.29554,"lon":5.42275,"is_reserved":false,"is_disabled":false,"rental_uris":{"android":"levelo://app?vid=8a67da58-cf32-4163-a9c0-454a297e60c9","ios":"levelo://app?vid=8a67da58-cf32-4163-a9c0-454a297e60c9"},"vehicle_type_id":"4","last_reported":1738919361,"current_range_meters":16000,"station_id":"ce4bhph2rcd13ifvqhdg","pricing_plan_id":"cebpf4jnsgd1na2vs0mg"},{"bike_id":"f4bb6310-503b-4031-bc2a-b8d2cc2fc4bd","system_id":"levelo_inurba_marseille","lat":43.27498,"lon":5.42456,"is_reserved":false,"is_disabled":false,"rental_uris":{"android":"levelo://app?vid=f4bb6310-503b-4031-bc2a-b8d2cc2fc4bd","ios":"levelo://app?vid=f4bb6310-503b-4031-bc2a-b8d2cc2fc4bd"},"vehicle_type_id":"4","last_reported":1738919361,"current_range_meters":6400,"station_id":"","pricing_plan_id":"cebpf4jnsgd1na2vs0mg"},{"bike_id":"19c91191-64ee-4803-94d7-14a4a66340df","system_id":"levelo_inurba_marseille","lat":43.317071,"lon":5.424089,"is_reserved":false,"is_disabled":true,"rental_uris":{"android":"levelo://app?vid=19c91191-64ee-4803-94d7-14a4a66340df","ios":"levelo://app?vid=19c91191-64ee-4803-94d7-14a4a66340df"},"vehicle_type_id":"4","last_reported":1738919361,"current_range_meters":0,"station_id":"ce4bhp92rcd13ifvqhbg","pricing_plan_id":"cebpf4jnsgd1na2vs0mg"},{"bike_id":"0a6a90a0-b9a1-4553-942b-9cc8f0c94f66","system_id":"levelo_inurba_marseille","lat":43.29255,"lon":5.40906,"is_reserved":false,"is_disabled":true,"rental_uris":{"android":"levelo://app?vid=0a6a90a0-b9a1-4553-942b-9cc8f0c94f66","ios":"levelo://app?vid=0a6a90a0-b9a1-4553-942b-9cc8f0c94f66"},"vehicle_type_id":"4","last_reported":1738919361,"current_range_meters":15200,"station_id":"ce4bh192rcd13ifvqdc0","pricing_plan_id":"cebpf4jnsgd1na2vs0mg"},{"bike_id":"8c695e9c-cbe7-4113-bccc-bc20b1379ba4","system_id":"levelo_inurba_marseille","lat":43.29368,"lon":5.37832,"is_reserved":false,"is_disabled":false,"rental_uris":{"android":"levelo://app?vid=8c695e9c-cbe7-4113-bccc-bc20b1379ba4","ios":"levelo://app?vid=8c695e9c-cbe7-4113-bccc-bc20b1379ba4"},"vehicle_type_id":"4","last_reported":1738919361,"current_range_meters":31200,"station_id":"ce4bgjh2rcd13ifvqbf0","pricing_plan_id":"cebpf4jnsgd1na2vs0mg"},{"bike_id":"fef1bd1d-2ad2-48f6-a1bb-d87aafe8c512","system_id":"levelo_inurba_marseille","lat":43.28943,"lon":5.36408,"is_reserved":false,"is_disabled":true,"rental_uris":{"android":"levelo://app?vid=fef1bd1d-2ad2-48f6-a1bb-d87aafe8c512","ios":"levelo://app?vid=fef1bd1d-2ad2-48f6-a1bb-d87aafe8c512"},"vehicle_type_id":"4","last_reported":1738919361,"current_range_meters":0,"station_id":"ce4bhc92rcd13ifvqetg","pricing_plan_id":"cebpf4jnsgd1na2vs0mg"},{"bike_id":"c071c905-2d2e-4349-b22a-a5268b411910","system_id":"levelo_inurba_marseille","lat":43.29093,"lon":5.38138,"is_reserved":false,"is_disabled":false,"rental_uris":{"android":"levelo://app?vid=c071c905-2d2e-4349-b22a-a5268b411910","ios":"levelo://app?vid=c071c905-2d2e-4349-b22a-a5268b411910"},"vehicle_type_id":"4","last_reported":1738919361,"current_range_meters":8000,"station_id":"ce4bh512rcd13ifvqe2g","pricing_plan_id":"cebpf4jnsgd1na2vs0mg"},{"bike_id":"c2254ed0-0838-424f-99f8-8eb5410c1ec3","system_id":"levelo_inurba_marseille","lat":43.2415,"lon":5.36438,"is_reserved":false,"is_disabled":false,"rental_uris":{"android":"levelo://app?vid=c2254ed0-0838-424f-99f8-8eb5410c1ec3","ios":"levelo://app?vid=c2254ed0-0838-424f-99f8-8eb5410c1ec3"},"vehicle_type_id":"4","last_reported":1738919361,"current_range_meters":30400,"station_id":"cpo36qri1sfpv3e86is0","pricing_plan_id":"cebpf4jnsgd1na2vs0mg"},{"bike_id":"63502e7d-71b3-44d6-b82d-6352b6e3809f","system_id":"levelo_inurba_marseille","lat":43.25821,"lon":5.39441,"is_reserved":false,"is_disabled":false,"rental_uris":{"android":"levelo://app?vid=63502e7d-71b3-44d6-b82d-6352b6e3809f","ios":"levelo://app?vid=63502e7d-71b3-44d6-b82d-6352b6e3809f"},"vehicle_type_id":"4","last_reported":1738919361,"current_range_meters":38000,"station_id":"ce4bhip2rcd13ifvqft0","pricing_plan_id":"cebpf4jnsgd1na2vs0mg"},{"bike_id":"1ee45343-9eb3-4093-af39-176108dbf5fc","system_id":"levelo_inurba_marseille","lat":43.32507,"lon":5.36562,"is_reserved":false,"is_disabled":false,"rental_uris":{"android":"levelo://app?vid=1ee45343-9eb3-4093-af39-176108dbf5fc","ios":"levelo://app?vid=1ee45343-9eb3-4093-af39-176108dbf5fc"},"vehicle_type_id":"4","last_reported":1738919361,"current_range_meters":36400,"station_id":"ce4bhs12rcd13ifvqhvg","pricing_plan_id":"cebpf4jnsgd1na2vs0mg"},{"bike_id":"744f4122-a65c-499d-80ba-7729a1ce92fe","system_id":"levelo_inurba_marseille","lat":43.28426,"lon":5.39216,"is_reserved":false,"is_disabled":true,"rental_uris":{"android":"levelo://app?vid=744f4122-a65c-499d-80ba-7729a1ce92fe","ios":"levelo://app?vid=744f4122-a65c-499d-80ba-7729a1ce92fe"},"vehicle_type_id":"4","last_reported":1738919361,"current_range_meters":36800,"station_id":"ce4bhoh2rcd13ifvqh5g","pricing_plan_id":"cebpf4jnsgd1na2vs0mg"},{"bike_id":"5d1dacf3-3fa1-40ba-8373-ce163dd2d283","system_id":"levelo_inurba_marseille","lat":43.26166,"lon":5.37961,"is_reserved":false,"is_disabled":false,"rental_uris":{"android":"levelo://app?vid=5d1dacf3-3fa1-40ba-8373-ce163dd2d283","ios":"levelo://app?vid=5d1dacf3-3fa1-40ba-8373-ce163dd2d283"},"vehicle_type_id":"4","last_reported":1738919361,"current_range_meters":39200,"station_id":"ce4bhjp2rcd13ifvqg90","pricing_plan_id":"cebpf4jnsgd1na2vs0mg"},{"bike_id":"060a4ff1-665e-4d86-8eef-d19188356a04","system_id":"levelo_inurba_marseille","lat":43.30536,"lon":5.36726,"is_reserved":false,"is_disabled":false,"rental_uris":{"android":"levelo://app?vid=060a4ff1-665e-4d86-8eef-d19188356a04","ios":"levelo://app?vid=060a4ff1-665e-4d86-8eef-d19188356a04"},"vehicle_type_id":"4","last_reported":1738919361,"current_range_meters":22800,"station_id":"ce4bgrp2rcd13ifvqc9g","pricing_plan_id":"cebpf4jnsgd1na2vs0mg"},{"bike_id":"e608cc64-2730-4a71-8ccf-956d2b8dc5e0","system_id":"levelo_inurba_marseille","lat":43.30909,"lon":5.36868,"is_reserved":false,"is_disabled":false,"rental_uris":{"android":"levelo://app?vid=e608cc64-2730-4a71-8ccf-956d2b8dc5e0","ios":"levelo://app?vid=e608cc64-2730-4a71-8ccf-956d2b8dc5e0"},"vehicle_type_id":"4","last_reported":1738919361,"current_range_meters":10000,"station_id":"ce4bgn92rcd13ifvqbvg","pricing_plan_id":"cebpf4jnsgd1na2vs0mg"},{"bike_id":"64cf464d-861a-4eff-8d80-fad6a393c463","system_id":"levelo_inurba_marseille","lat":43.30938,"lon":5.39038,"is_reserved":false,"is_disabled":false,"rental_uris":{"android":"levelo://app?vid=64cf464d-861a-4eff-8d80-fad6a393c463","ios":"levelo://app?vid=64cf464d-861a-4eff-8d80-fad6a393c463"},"vehicle_type_id":"4","last_reported":1738919361,"current_range_meters":32800,"station_id":"ce4bgup2rcd13ifvqco0","pricing_plan_id":"cebpf4jnsgd1na2vs0mg"},{"bike_id":"394fb33f-d9d4-4f64-9580-174995fc4b80","system_id":"levelo_inurba_marseille","lat":43.30547,"lon":5.36539,"is_reserved":false,"is_disabled":false,"rental_uris":{"android":"levelo://app?vid=394fb33f-d9d4-4f64-9580-174995fc4b80","ios":"levelo://app?vid=394fb33f-d9d4-4f64-9580-174995fc4b80"},"vehicle_type_id":"4","last_reported":1738919361,"current_range_meters":39200,"station_id":"ce4bgs12rcd13ifvqcag","pricing_plan_id":"cebpf4jnsgd1na2vs0mg"},{"bike_id":"77878ebe-fac7-4acf-beea-b400f4d95da7","system_id":"levelo_inurba_marseille","lat":43.27494,"lon":5.42467,"is_reserved":false,"is_disabled":false,"rental_uris":{"android":"levelo://app?vid=77878ebe-fac7-4acf-beea-b400f4d95da7","ios":"levelo://app?vid=77878ebe-fac7-4acf-beea-b400f4d95da7"},"vehicle_type_id":"4","last_reported":1738919361,"current_range_meters":25600,"station_id":"ce4bhn92rcd13ifvqgrg","pricing_plan_id":"cebpf4jnsgd1na2vs0mg"},{"bike_id":"1bd0ed6d-66a1-4d24-8429-2532d0103fd2","system_id":"levelo_inurba_marseille","lat":43.26214,"lon":5.37438,"is_reserved":false,"is_disabled":false,"rental_uris":{"android":"levelo://app?vid=1bd0ed6d-66a1-4d24-8429-2532d0103fd2","ios":"levelo://app?vid=1bd0ed6d-66a1-4d24-8429-2532d0103fd2"},"vehicle_type_id":"4","last_reported":1738919361,"current_range_meters":28000,"station_id":"ce4bhgp2rcd13ifvqfc0","pricing_plan_id":"cebpf4jnsgd1na2vs0mg"},{"bike_id":"09a9ac53-cd06-4438-9a55-77242cbf0611","system_id":"levelo_inurba_marseille","lat":43.24175,"lon":5.39716,"is_reserved":false,"is_disabled":false,"rental_uris":{"android":"levelo://app?vid=09a9ac53-cd06-4438-9a55-77242cbf0611","ios":"levelo://app?vid=09a9ac53-cd06-4438-9a55-77242cbf0611"},"vehicle_type_id":"4","last_reported":1738919361,"current_range_meters":38800,"station_id":"ce4bhn12rcd13ifvqgpg","pricing_plan_id":"cebpf4jnsgd1na2vs0mg"},{"bike_id":"0b0156c0-8ad5-4bc9-80aa-b71f0fbfbb2e","system_id":"levelo_inurba_marseille","lat":43.29586,"lon":5.3674,"is_reserved":false,"is_disabled":false,"rental_uris":{"android":"levelo://app?vid=0b0156c0-8ad5-4bc9-80aa-b71f0fbfbb2e","ios":"levelo://app?vid=0b0156c0-8ad5-4bc9-80aa-b71f0fbfbb2e"},"vehicle_type_id":"4","last_reported":1738919361,"current_range_meters":33200,"station_id":"ce4bgph2rcd13ifvqc2g","pricing_plan_id":"cebpf4jnsgd1na2vs0mg"},{"bike_id":"528241cb-7275-47c1-85e9-ff7a37a61cca","system_id":"levelo_inurba_marseille","lat":43.30439,"lon":5.37922,"is_reserved":false,"is_disabled":false,"rental_uris":{"android":"levelo://app?vid=528241cb-7275-47c1-85e9-ff7a37a61cca","ios":"levelo://app?vid=528241cb-7275-47c1-85e9-ff7a37a61cca"},"vehicle_type_id":"4","last_reported":1738919361,"current_range_meters":32400,"station_id":"ce4bgup2rcd13ifvqcn0","pricing_plan_id":"cebpf4jnsgd1na2vs0mg"},{"bike_id":"7f015044-497d-43f0-82a7-ccbcbe7df214","system_id":"levelo_inurba_marseille","lat":43.28717,"lon":5.37925,"is_reserved":false,"is_disabled":false,"rental_uris":{"android":"levelo://app?vid=7f015044-497d-43f0-82a7-ccbcbe7df214","ios":"levelo://app?vid=7f015044-497d-43f0-82a7-ccbcbe7df214"},"vehicle_type_id":"4","last_reported":1738919361,"current_range_meters":7200,"station_id":"ce4bh9p2rcd13ifvqec0","pricing_plan_id":"cebpf4jnsgd1na2vs0mg"},{"bike_id":"f0ae8042-9c93-49df-858b-a0f2df7c0604","system_id":"levelo_inurba_marseille","lat":43.29038,"lon":5.39972,"is_reserved":false,"is_disabled":true,"rental_uris":{"android":"levelo://app?vid=f0ae8042-9c93-49df-858b-a0f2df7c0604","ios":"levelo://app?vid=f0ae8042-9c93-49df-858b-a0f2df7c0604"},"vehicle_type_id":"4","last_reported":1738919361,"current_range_meters":36400,"station_id":"","pricing_plan_id":"cebpf4jnsgd1na2vs0mg"},{"bike_id":"ed7e7ad0-5cb0-46c0-b26f-7e6a29732a1c","system_id":"levelo_inurba_marseille","lat":43.29971,"lon":5.41318,"is_reserved":false,"is_disabled":false,"rental_uris":{"android":"levelo://app?vid=ed7e7ad0-5cb0-46c0-b26f-7e6a29732a1c","ios":"levelo://app?vid=ed7e7ad0-5cb0-46c0-b26f-7e6a29732a1c"},"vehicle_type_id":"4","last_reported":1738919361,"current_range_meters":38800,"station_id":"ce4bhp12rcd13ifvqh9g","pricing_plan_id":"cebpf4jnsgd1na2vs0mg"},{"bike_id":"04fd108b-ac27-4f4f-bb01-1a3a4f96b7e7","system_id":"levelo_inurba_marseille","lat":43.314863,"lon":5.372683,"is_reserved":false,"is_disabled":false,"rental_uris":{"android":"levelo://app?vid=04fd108b-ac27-4f4f-bb01-1a3a4f96b7e7","ios":"levelo://app?vid=04fd108b-ac27-4f4f-bb01-1a3a4f96b7e7"},"vehicle_type_id":"4","last_reported":1738919361,"current_range_meters":38800,"station_id":"ce4bgt12rcd13ifvqcd0","pricing_plan_id":"cebpf4jnsgd1na2vs0mg"},{"bike_id":"f8f56e4e-0d59-4f7d-8198-05b735cac00d","system_id":"levelo_inurba_marseille","lat":43.27212,"lon":5.39184,"is_reserved":false,"is_disabled":false,"rental_uris":{"android":"levelo://app?vid=f8f56e4e-0d59-4f7d-8198-05b735cac00d","ios":"levelo://app?vid=f8f56e4e-0d59-4f7d-8198-05b735cac00d"},"vehicle_type_id":"4","last_reported":1738919361,"current_range_meters":5600,"station_id":"ce4bhhp2rcd13ifvqfm0","pricing_plan_id":"cebpf4jnsgd1na2vs0mg"},{"bike_id":"fe146960-7d51-43a8-8d5f-97dd150b0e2d","system_id":"levelo_inurba_marseille","lat":43.26045,"lon":5.39425,"is_reserved":false,"is_disabled":false,"rental_uris":{"android":"levelo://app?vid=fe146960-7d51-43a8-8d5f-97dd150b0e2d","ios":"levelo://app?vid=fe146960-7d51-43a8-8d5f-97dd150b0e2d"},"vehicle_type_id":"4","last_reported":1738919361,"current_range_meters":38800,"station_id":"ce4bhh92rcd13ifvqfj0","pricing_plan_id":"cebpf4jnsgd1na2vs0mg"},{"bike_id":"20a0debd-d939-4c2a-b08f-6028cb9297fa","system_id":"levelo_inurba_marseille","lat":43.3014,"lon":5.38108,"is_reserved":false,"is_disabled":false,"rental_uris":{"android":"levelo://app?vid=20a0debd-d939-4c2a-b08f-6028cb9297fa","ios":"levelo://app?vid=20a0debd-d939-4c2a-b08f-6028cb9297fa"},"vehicle_type_id":"4","last_reported":1738919361,"current_range_meters":30400,"station_id":"ce4bgjp2rcd13ifvqbh0","pricing_plan_id":"cebpf4jnsgd1na2vs0mg"},{"bike_id":"79eab85b-411d-47b7-ba8c-c70679ea549f","system_id":"levelo_inurba_marseille","lat":43.23174,"lon":5.39977,"is_reserved":false,"is_disabled":false,"rental_uris":{"android":"levelo://app?vid=79eab85b-411d-47b7-ba8c-c70679ea549f","ios":"levelo://app?vid=79eab85b-411d-47b7-ba8c-c70679ea549f"},"vehicle_type_id":"4","last_reported":1738919361,"current_range_meters":38800,"station_id":"ce4bhn12rcd13ifvqgqg","pricing_plan_id":"cebpf4jnsgd1na2vs0mg"},{"bike_id":"bec99846-c6d9-4983-8a05-58ed5efc4a7e","system_id":"levelo_inurba_marseille","lat":43.30534,"lon":5.36717,"is_reserved":false,"is_disabled":false,"rental_uris":{"android":"levelo://app?vid=bec99846-c6d9-4983-8a05-58ed5efc4a7e","ios":"levelo://app?vid=bec99846-c6d9-4983-8a05-58ed5efc4a7e"},"vehicle_type_id":"4","last_reported":1738919361,"current_range_meters":39200,"station_id":"ce4bgrp2rcd13ifvqc9g","pricing_plan_id":"cebpf4jnsgd1na2vs0mg"},{"bike_id":"0b1868a8-af44-41b2-ad81-b59c1c92136a","system_id":"levelo_inurba_marseille","lat":43.30535,"lon":5.36535,"is_reserved":false,"is_disabled":false,"rental_uris":{"android":"levelo://app?vid=0b1868a8-af44-41b2-ad81-b59c1c92136a","ios":"levelo://app?vid=0b1868a8-af44-41b2-ad81-b59c1c92136a"},"vehicle_type_id":"4","last_reported":1738919361,"current_range_meters":30400,"station_id":"ce4bgs12rcd13ifvqcag","pricing_plan_id":"cebpf4jnsgd1na2vs0mg"},{"bike_id":"341067f4-d7ed-4f99-954f-691c64a92e97","system_id":"levelo_inurba_marseille","lat":43.23197,"lon":5.39977,"is_reserved":false,"is_disabled":false,"rental_uris":{"android":"levelo://app?vid=341067f4-d7ed-4f99-954f-691c64a92e97","ios":"levelo://app?vid=341067f4-d7ed-4f99-954f-691c64a92e97"},"vehicle_type_id":"4","last_reported":1738919361,"current_range_meters":14800,"station_id":"ce4bhn12rcd13ifvqgqg","pricing_plan_id":"cebpf4jnsgd1na2vs0mg"},{"bike_id":"248b8c36-84d5-41e0-9820-4a4f31f462bd","system_id":"levelo_inurba_marseille","lat":43.30952,"lon":5.39024,"is_reserved":false,"is_disabled":false,"rental_uris":{"android":"levelo://app?vid=248b8c36-84d5-41e0-9820-4a4f31f462bd","ios":"levelo://app?vid=248b8c36-84d5-41e0-9820-4a4f31f462bd"},"vehicle_type_id":"4","last_reported":1738919361,"current_range_meters":37600,"station_id":"ce4bgup2rcd13ifvqco0","pricing_plan_id":"cebpf4jnsgd1na2vs0mg"},{"bike_id":"af9c3a20-54ae-472f-9a0a-906102c5cfd0","system_id":"levelo_inurba_marseille","lat":43.32476,"lon":5.36563,"is_reserved":false,"is_disabled":false,"rental_uris":{"android":"levelo://app?vid=af9c3a20-54ae-472f-9a0a-906102c5cfd0","ios":"levelo://app?vid=af9c3a20-54ae-472f-9a0a-906102c5cfd0"},"vehicle_type_id":"4","last_reported":1738919361,"current_range_meters":10800,"station_id":"ce4bhs12rcd13ifvqhvg","pricing_plan_id":"cebpf4jnsgd1na2vs0mg"},{"bike_id":"9e1aad70-5c7d-4b09-82f0-976f7e5aefeb","system_id":"levelo_inurba_marseille","lat":43.30121,"lon":5.38096,"is_reserved":false,"is_disabled":false,"rental_uris":{"android":"levelo://app?vid=9e1aad70-5c7d-4b09-82f0-976f7e5aefeb","ios":"levelo://app?vid=9e1aad70-5c7d-4b09-82f0-976f7e5aefeb"},"vehicle_type_id":"4","last_reported":1738919361,"current_range_meters":11200,"station_id":"ce4bgjp2rcd13ifvqbh0","pricing_plan_id":"cebpf4jnsgd1na2vs0mg"},{"bike_id":"a95cf637-2c24-4b07-9685-7d2b46d8531a","system_id":"levelo_inurba_marseille","lat":43.30208,"lon":5.39472,"is_reserved":false,"is_disabled":true,"rental_uris":{"android":"levelo://app?vid=a95cf637-2c24-4b07-9685-7d2b46d8531a","ios":"levelo://app?vid=a95cf637-2c24-4b07-9685-7d2b46d8531a"},"vehicle_type_id":"4","last_reported":1738919361,"current_range_meters":1200,"station_id":"ce4bh0p2rcd13ifvqd70","pricing_plan_id":"cebpf4jnsgd1na2vs0mg"},{"bike_id":"9bfeb4ce-6f83-4b81-b160-30e2004f8eca","system_id":"levelo_inurba_marseille","lat":43.29306,"lon":5.37453,"is_reserved":false,"is_disabled":false,"rental_uris":{"android":"levelo://app?vid=9bfeb4ce-6f83-4b81-b160-30e2004f8eca","ios":"levelo://app?vid=9bfeb4ce-6f83-4b81-b160-30e2004f8eca"},"vehicle_type_id":"4","last_reported":1738919361,"current_range_meters":33200,"station_id":"ce4bgi12rcd13ifvqb70","pricing_plan_id":"cebpf4jnsgd1na2vs0mg"},{"bike_id":"d39a2685-ff1f-4a95-b7fe-802902b67914","system_id":"levelo_inurba_marseille","lat":43.320987,"lon":5.36803,"is_reserved":false,"is_disabled":false,"rental_uris":{"android":"levelo://app?vid=d39a2685-ff1f-4a95-b7fe-802902b67914","ios":"levelo://app?vid=d39a2685-ff1f-4a95-b7fe-802902b67914"},"vehicle_type_id":"4","last_reported":1738919361,"current_range_meters":25600,"station_id":"ce4bhrh2rcd13ifvqhug","pricing_plan_id":"cebpf4jnsgd1na2vs0mg"},{"bike_id":"bbf0701a-4b1a-4f1a-88cd-be3e8c2febd0","system_id":"levelo_inurba_marseille","lat":43.25929,"lon":5.40913,"is_reserved":false,"is_disabled":false,"rental_uris":{"android":"levelo://app?vid=bbf0701a-4b1a-4f1a-88cd-be3e8c2febd0","ios":"levelo://app?vid=bbf0701a-4b1a-4f1a-88cd-be3e8c2febd0"},"vehicle_type_id":"4","last_reported":1738919361,"current_range_meters":16800,"station_id":"ce4bhm92rcd13ifvqglg","pricing_plan_id":"cebpf4jnsgd1na2vs0mg"},{"bike_id":"0ab57b8a-d6ed-411e-8a39-e198fab37e1b","system_id":"levelo_inurba_marseille","lat":43.32255,"lon":5.38291,"is_reserved":false,"is_disabled":false,"rental_uris":{"android":"levelo://app?vid=0ab57b8a-d6ed-411e-8a39-e198fab37e1b","ios":"levelo://app?vid=0ab57b8a-d6ed-411e-8a39-e198fab37e1b"},"vehicle_type_id":"4","last_reported":1738919361,"current_range_meters":38800,"station_id":"ce4bhr12rcd13ifvqhqg","pricing_plan_id":"cebpf4jnsgd1na2vs0mg"},{"bike_id":"552ac4ac-6cc9-42ae-84ac-4c1533da5339","system_id":"levelo_inurba_marseille","lat":43.25492,"lon":5.37663,"is_reserved":false,"is_disabled":false,"rental_uris":{"android":"levelo://app?vid=552ac4ac-6cc9-42ae-84ac-4c1533da5339","ios":"levelo://app?vid=552ac4ac-6cc9-42ae-84ac-4c1533da5339"},"vehicle_type_id":"4","last_reported":1738919361,"current_range_meters":24800,"station_id":"ce4bhh12rcd13ifvqff0","pricing_plan_id":"cebpf4jnsgd1na2vs0mg"},