{"last_updated":1685790282,"ttl":30,"version":"2.2","data":{"bikes":[{"bike_id":"5dbea0c8-f220-4e34-9b7c-739eb90bf8bb","system_id":"levelo_inurba_marseille","lat":43.312239,"lon":5.368562,"is_reserved":false,"is_disabled":false,"rental_uris":{"android":"levelo://app?vid=5dbea0c8-f220-4e34-9b7c-739eb90bf8bb","ios":"levelo://app?vid=5dbea0c8-f220-4e34-9b7c-739eb90bf8bb"},"vehicle_type_id":"4","last_reported":1685790282,"current_range_meters":10800,"station_id":"ce4bgl92rcd13ifvqbq0","pricing_plan_id":"free"},{"bike_id":"74242de5-23ca-4ad0-ad6c-ffc4b86b79f2","system_id":"levelo_inurba_marseille","lat":43.312239,"lon":5.368562,"is_reserved":false,"is_disabled":false,"rental_uris":{"android":"levelo://app?vid=74242de5-23ca-4ad0-ad6c-ffc4b86b79f2","ios":"levelo://app?vid=74242de5-23ca-4ad0-ad6c-ffc4b86b79f2"},"vehicle_type_id":"4","last_reported":1685790282,"current_range_meters":22000,"station_id":"ce4bgl92rcd13ifvqbq0","pricing_plan_id":"free"},{"bike_id":"49eacc7b-7fee-4fe3-9da2-256e07f90097","system_id":"levelo_inurba_marseille","lat":43.308614,"lon":5.372098,"is_reserved":false,"is_disabled":false,"rental_uris":{"android":"levelo://app?vid=49eacc7b-7fee-4fe3-9da2-256e07f90097","ios":"levelo://app?vid=49eacc7b-7fee-4fe3-9da2-256e07f90097"},"vehicle_type_id":"4","last_reported":1685790282,"current_range_meters":22400,"station_id":"ce4bguh2rcd13ifvqckg","pricing_plan_id":"free"},{"bike_id":"dee0acd1-d4d6-4e1a-af16-465bfead0bb7","system_id":"levelo_inurba_marseille","lat":43.3068,"lon":5.36911,"is_reserved":false,"is_disabled":false,"rental_uris":{"android":"levelo://app?vid=dee0acd1-d4d6-4e1a-af16-465bfead0bb7","ios":"levelo://app?vid=dee0acd1-d4d6-4e1a-af16-465bfead0bb7"},"vehicle_type_id":"4","last_reported":1685790282,"current_range_meters":10400,"station_id":"","pricing_plan_id":"free"},{"bike_id":"4d43e892-ec90-4fce-8475-f727fed3851f","system_id":"levelo_inurba_marseille","lat":43.3198,"lon":5.36582,"is_reserved":false,"is_disabled":false,"rental_uris":{"android":"levelo://app?vid=4d43e892-ec90-4fce-8475-f727fed3851f","ios":"levelo://app?vid=4d43e892-ec90-4fce-8475-f727fed3851f"},"vehicle_type_id":"4","last_reported":1685790282,"current_range_meters":5600,"station_id":"","pricing_plan_id":"free"},{"bike_id":"890e93ac-4bac-484a-baff-b468d73fa7c8","system_id":"levelo_inurba_marseille","lat":43.31363,"lon":5.37668,"is_reserved":false,"is_disabled":false,"rental_uris":{"android":"levelo://app?vid=890e93ac-4bac-484a-baff-b468d73fa7c8","ios":"levelo://app?vid=890e93ac-4bac-484a-baff-b468d73fa7c8"},"vehicle_type_id":"4","last_reported":1685790282,"current_range_meters":12800,"station_id":"","pricing_plan_id":"free"},{"bike_id":"27622748-6d3d-412f-888f-3808ac8d1fdc","system_id":"levelo_inurba_marseille","lat":43.30536,"lon":5.36692,"is_reserved":false,"is_disabled":false,"rental_uris":{"android":"levelo://app?vid=27622748-6d3d-412f-888f-3808ac8d1fdc","ios":"levelo://app?vid=27622748-6d3d-412f-888f-3808ac8d1fdc"},"vehicle_type_id":"4","last_reported":1685790282,"current_range_meters":24400,"station_id":"","pricing_plan_id":"free"},{"bike_id":"b0c4b682-4818-476c-a3fd-d4b25271b9c6","system_id":"levelo_inurba_marseille","lat":43.305368,"lon":5.367343,"is_reserved":false,"is_disabled":false,"rental_uris":{"android":"levelo://app?vid=b0c4b682-4818-476c-a3fd-d4b25271b9c6","ios":"levelo://app?vid=b0c4b682-4818-476c-a3fd-d4b25271b9c6"},"vehicle_type_id":"4","last_reported":1685790282,"current_range_meters":11600,"station_id":"ce4bgrp2rcd13ifvqc9g","pricing_plan_id":"free"},{"bike_id":"85643605-fd24-4442-97e8-36eaa4d986b0","system_id":"levelo_inurba_marseille","lat":43.305706,"lon":5.365654,"is_reserved":false,"is_disabled":false,"rental_uris":{"android":"levelo://app?vid=85643605-fd24-4442-97e8-36eaa4d986b0","ios":"levelo://app?vid=85643605-fd24-4442-97e8-36eaa4d986b0"},"vehicle_type_id":"4","last_reported":1685790282,"current_range_meters":11600,"station_id":"ce4bgs12rcd13ifvqcag","pricing_plan_id":"free"},{"bike_id":"25a8dcab-ece4-42b7-a12a-a0dd7d71635f","system_id":"levelo_inurba_marseille","lat":43.30525,"lon":5.36593,"is_reserved":false,"is_disabled":false,"rental_uris":{"android":"levelo://app?vid=25a8dcab-ece4-42b7-a12a-a0dd7d71635f","ios":"levelo://app?vid=25a8dcab-ece4-42b7-a12a-a0dd7d71635f"},"vehicle_type_id":"4","last_reported":1685790282,"current_range_meters":10000,"station_id":"","pricing_plan_id":"free"},{"bike_id":"65554d33-b508-436a-aac9-544974e5f617","system_id":"levelo_inurba_marseille","lat":43.311175,"lon":5.377713,"is_reserved":false,"is_disabled":false,"rental_uris":{"android":"levelo://app?vid=65554d33-b508-436a-aac9-544974e5f617","ios":"levelo://app?vid=65554d33-b508-436a-aac9-544974e5f617"},"vehicle_type_id":"4","last_reported":1685790282,"current_range_meters":21600,"station_id":"","pricing_plan_id":"free"},{"bike_id":"aee71dc5-b985-4c7c-8eff-64d3ad9a06a1","system_id":"levelo_inurba_marseille","lat":43.311125,"lon":5.377624,"is_reserved":false,"is_disabled":false,"rental_uris":{"android":"levelo://app?vid=aee71dc5-b985-4c7c-8eff-64d3ad9a06a1","ios":"levelo://app?vid=aee71dc5-b985-4c7c-8eff-64d3ad9a06a1"},"vehicle_type_id":"4","last_reported":1685790282,"current_range_meters":15600,"station_id":"ce4bgt92rcd13ifvqcg0","pricing_plan_id":"free"},{"bike_id":"888161ca-b720-4c98-b260-b43f5186a9c2","system_id":"levelo_inurba_marseille","lat":43.317075,"lon":5.377367,"is_reserved":false,"is_disabled":false,"rental_uris":{"android":"levelo://app?vid=888161ca-b720-4c98-b260-b43f5186a9c2","ios":"levelo://app?vid=888161ca-b720-4c98-b260-b43f5186a9c2"},"vehicle_type_id":"4","last_reported":1685790282,"current_range_meters":22000,"station_id":"ce4bgth2rcd13ifvqch0","pricing_plan_id":"free"},{"bike_id":"56ae2f3c-bb32-4313-88ce-ffec4bcca0c4","system_id":"levelo_inurba_marseille","lat":43.30311,"lon":5.36894,"is_reserved":false,"is_disabled":false,"rental_uris":{"android":"levelo://app?vid=56ae2f3c-bb32-4313-88ce-ffec4bcca0c4","ios":"levelo://app?vid=56ae2f3c-bb32-4313-88ce-ffec4bcca0c4"},"vehicle_type_id":"4","last_reported":1685790282,"current_range_meters":31200,"station_id":"ce4bgqh2rcd13ifvqc5g","pricing_plan_id":"free"},{"bike_id":"af3bdc11-75fa-4ec6-b578-9d9b19fd34f2","system_id":"levelo_inurba_marseille","lat":43.303046,"lon":5.368981,"is_reserved":false,"is_disabled":false,"rental_uris":{"android":"levelo://app?vid=af3bdc11-75fa-4ec6-b578-9d9b19fd34f2","ios":"levelo://app?vid=af3bdc11-75fa-4ec6-b578-9d9b19fd34f2"},"vehicle_type_id":"4","last_reported":1685790282,"current_range_meters":4000,"station_id":"ce4bgqh2rcd13ifvqc5g","pricing_plan_id":"free"},{"bike_id":"2fd03dfd-1a7f-4140-82d6-8124668eaa5a","system_id":"levelo_inurba_marseille","lat":43.315293,"lon":5.380349,"is_reserved":false,"is_disabled":false,"rental_uris":{"android":"levelo://app?vid=2fd03dfd-1a7f-4140-82d6-8124668eaa5a","ios":"levelo://app?vid=2fd03dfd-1a7f-4140-82d6-8124668eaa5a"},"vehicle_type_id":"4","last_reported":1685790282,"current_range_meters":14400,"station_id":"ce4bhsp2rcd13ifvqi50","pricing_plan_id":"free"},{"bike_id":"b6af2cee-22c0-4696-a3cc-c5ab5878f58f","system_id":"levelo_inurba_marseille","lat":43.31997,"lon":5.38144,"is_reserved":false,"is_disabled":false,"rental_uris":{"android":"levelo://app?vid=b6af2cee-22c0-4696-a3cc-c5ab5878f58f","ios":"levelo://app?vid=b6af2cee-22c0-4696-a3cc-c5ab5878f58f"},"vehicle_type_id":"4","last_reported":1685790282,"current_range_meters":28000,"station_id":"ce4bhr12rcd13ifvqhpg","pricing_plan_id":"free"},{"bike_id":"bd90a920-213b-4067-9cbe-59ee10485f96","system_id":"levelo_inurba_marseille","lat":43.313571,"lon":5.384829,"is_reserved":false,"is_disabled":false,"rental_uris":{"android":"levelo://app?vid=bd90a920-213b-4067-9cbe-59ee10485f96","ios":"levelo://app?vid=bd90a920-213b-4067-9cbe-59ee10485f96"},"vehicle_type_id":"4","last_reported":1685790282,"current_range_meters":5200,"station_id":"ce4bgt92rcd13ifvqcf0","pricing_plan_id":"free"},{"bike_id":"f431f095-c584-458d-9dd6-8ddbbf764a7f","system_id":"levelo_inurba_marseille","lat":43.31363,"lon":5.38497,"is_reserved":false,"is_disabled":false,"rental_uris":{"android":"levelo://app?vid=f431f095-c584-458d-9dd6-8ddbbf764a7f","ios":"levelo://app?vid=f431f095-c584-458d-9dd6-8ddbbf764a7f"},"vehicle_type_id":"4","last_reported":1685790282,"current_range_meters":19600,"station_id":"ce4bgt92rcd13ifvqcf0","pricing_plan_id":"free"},{"bike_id":"b1f13541-a46e-40fb-ac06-093b05629c0a","system_id":"levelo_inurba_marseille","lat":43.299222,"lon":5.365554,"is_reserved":false,"is_disabled":false,"rental_uris":{"android":"levelo://app?vid=b1f13541-a46e-40fb-ac06-093b05629c0a","ios":"levelo://app?vid=b1f13541-a46e-40fb-ac06-093b05629c0a"},"vehicle_type_id":"4","last_reported":1685790282,"current_range_meters":18800,"station_id":"ce4bgm92rcd13ifvqbr0","pricing_plan_id":"free"},{"bike_id":"9b929396-3c44-452c-91f7-5e542ebcd7a0","system_id":"levelo_inurba_marseille","lat":43.299222,"lon":5.365554,"is_reserved":false,"is_disabled":false,"rental_uris":{"android":"levelo://app?vid=9b929396-3c44-452c-91f7-5e542ebcd7a0","ios":"levelo://app?vid=9b929396-3c44-452c-91f7-5e542ebcd7a0"},"vehicle_type_id":"4","last_reported":1685790282,"current_range_meters":1600,"station_id":"ce4bgm92rcd13ifvqbr0","pricing_plan_id":"free"},{"bike_id":"85b1087d-ea8e-409d-b6c4-06eefb15b54f","system_id":"levelo_inurba_marseille","lat":43.29939,"lon":5.36535,"is_reserved":false,"is_disabled":false,"rental_uris":{"android":"levelo://app?vid=85b1087d-ea8e-409d-b6c4-06eefb15b54f","ios":"levelo://app?vid=85b1087d-ea8e-409d-b6c4-06eefb15b54f"},"vehicle_type_id":"4","last_reported":1685790282,"current_range_meters":27600,"station_id":"","pricing_plan_id":"free"},{"bike_id":"cc6e8d20-80a4-4ebe-849f-1a75d32bfe65","system_id":"levelo_inurba_marseille","lat":43.299222,"lon":5.365554,"is_reserved":false,"is_disabled":false,"rental_uris":{"android":"levelo://app?vid=cc6e8d20-80a4-4ebe-849f-1a75d32bfe65","ios":"levelo://app?vid=cc6e8d20-80a4-4ebe-849f-1a75d32bfe65"},"vehicle_type_id":"4","last_reported":1685790282,"current_range_meters":19200,"station_id":"ce4bgm92rcd13ifvqbr0","pricing_plan_id":"free"},{"bike_id":"82279934-54a8-4af4-b9c8-ae9de6ef71ad","system_id":"levelo_inurba_marseille","lat":43.29853,"lon":5.36295,"is_reserved":false,"is_disabled":false,"rental_uris":{"android":"levelo://app?vid=82279934-54a8-4af4-b9c8-ae9de6ef71ad","ios":"levelo://app?vid=82279934-54a8-4af4-b9c8-ae9de6ef71ad"},"vehicle_type_id":"4","last_reported":1685790282,"current_range_meters":30800,"station_id":"ce4bgpp2rcd13ifvqc3g","pricing_plan_id":"free"},{"bike_id":"89b7859b-96ee-4283-949b-1c450a875f0e","system_id":"levelo_inurba_marseille","lat":43.29853,"lon":5.36283,"is_reserved":false,"is_disabled":false,"rental_uris":{"android":"levelo://app?vid=89b7859b-96ee-4283-949b-1c450a875f0e","ios":"levelo://app?vid=89b7859b-96ee-4283-949b-1c450a875f0e"},"vehicle_type_id":"4","last_reported":1685790282,"current_range_meters":28400,"station_id":"ce4bgpp2rcd13ifvqc3g","pricing_plan_id":"free"},{"bike_id":"f940a4b2-30d8-4186-b9de-c86d8a1c7e36","system_id":"levelo_inurba_marseille","lat":43.298433,"lon":5.362774,"is_reserved":false,"is_disabled":false,"rental_uris":{"android":"levelo://app?vid=f940a4b2-30d8-4186-b9de-c86d8a1c7e36","ios":"levelo://app?vid=f940a4b2-30d8-4186-b9de-c86d8a1c7e36"},"vehicle_type_id":"4","last_reported":1685790282,"current_range_meters":19600,"station_id":"ce4bgpp2rcd13ifvqc3g","pricing_plan_id":"free"},{"bike_id":"f75015e2-623a-40dd-b7f3-834983f50917","system_id":"levelo_inurba_marseille","lat":43.29849,"lon":5.36289,"is_reserved":false,"is_disabled":false,"rental_uris":{"android":"levelo://app?vid=f75015e2-623a-40dd-b7f3-834983f50917","ios":"levelo://app?vid=f75015e2-623a-40dd-b7f3-834983f50917"},"vehicle_type_id":"4","last_reported":1685790282,"current_range_meters":23200,"station_id":"ce4bgpp2rcd13ifvqc3g","pricing_plan_id":"free"},{"bike_id":"c2cfb580-9c22-4fac-abdf-17ed60e5d711","system_id":"levelo_inurba_marseille","lat":43.298433,"lon":5.362774,"is_reserved":false,"is_disabled":false,"rental_uris":{"android":"levelo://app?vid=c2cfb580-9c22-4fac-abdf-17ed60e5d711","ios":"levelo://app?vid=c2cfb580-9c22-4fac-abdf-17ed60e5d711"},"vehicle_type_id":"4","last_reported":1685790282,"current_range_meters":31200,"station_id":"ce4bgpp2rcd13ifvqc3g","pricing_plan_id":"free"},{"bike_id":"9cdc04c3-90c7-4796-9b24-d0710cd64295","system_id":"levelo_inurba_marseille","lat":43.311722,"lon":5.387247,"is_reserved":false,"is_disabled":false,"rental_uris":{"android":"levelo://app?vid=9cdc04c3-90c7-4796-9b24-d0710cd64295","ios":"levelo://app?vid=9cdc04c3-90c7-4796-9b24-d0710cd64295"},"vehicle_type_id":"4","last_reported":1685790282,"current_range_meters":20800,"station_id":"ce4bgv12rcd13ifvqcp0","pricing_plan_id":"free"},{"bike_id":"048d6a5e-97c9-4f67-bf89-16ecba2081b0","system_id":"levelo_inurba_marseille","lat":43.328371,"lon":5.366909,"is_reserved":false,"is_disabled":false,"rental_uris":{"android":"levelo://app?vid=048d6a5e-97c9-4f67-bf89-16ecba2081b0","ios":"levelo://app?vid=048d6a5e-97c9-4f67-bf89-16ecba2081b0"},"vehicle_type_id":"4","last_reported":1685790282,"current_range_meters":19600,"station_id":"ce4bhs92rcd13ifvqi0g","pricing_plan_id":"free"},{"bike_id":"3192aaa9-bdbe-44e1-80cb-9e5be1a6ef96","system_id":"levelo_inurba_marseille","lat":43.3283,"lon":5.36685,"is_reserved":false,"is_disabled":false,"rental_uris":{"android":"levelo://app?vid=3192aaa9-bdbe-44e1-80cb-9e5be1a6ef96","ios":"levelo://app?vid=3192aaa9-bdbe-44e1-80cb-9e5be1a6ef96"},"vehicle_type_id":"4","last_reported":1685790282,"current_range_meters":22800,"station_id":"ce4bhs92rcd13ifvqi0g","pricing_plan_id":"free"},{"bike_id":"e7b88331-d377-4ae0-87d5-cda731a35544","system_id":"levelo_inurba_marseille","lat":43.32831,"lon":5.36684,"is_reserved":false,"is_disabled":false,"rental_uris":{"android":"levelo://app?vid=e7b88331-d377-4ae0-87d5-cda731a35544","ios":"levelo://app?vid=e7b88331-d377-4ae0-87d5-cda731a35544"},"vehicle_type_id":"4","last_reported":1685790282,"current_range_meters":20800,"station_id":"ce4bhs92rcd13ifvqi0g","pricing_plan_id":"free"},{"bike_id":"6dab6eca-b352-49ea-add2-026ea7782376","system_id":"levelo_inurba_marseille","lat":43.328371,"lon":5.366909,"is_reserved":false,"is_disabled":false,"rental_uris":{"android":"levelo://app?vid=6dab6eca-b352-49ea-add2-026ea7782376","ios":"levelo://app?vid=6dab6eca-b352-49ea-add2-026ea7782376"},"vehicle_type_id":"4","last_reported":1685790282,"current_range_meters":30400,"station_id":"ce4bhs92rcd13ifvqi0g","pricing_plan_id":"free"},{"bike_id":"73358a4c-93c0-4eda-a88d-776a673cd973","system_id":"levelo_inurba_marseille","lat":43.328371,"lon":5.366909,"is_reserved":false,"is_disabled":false,"rental_uris":{"android":"levelo://app?vid=73358a4c-93c0-4eda-a88d-776a673cd973","ios":"levelo://app?vid=73358a4c-93c0-4eda-a88d-776a673cd973"},"vehicle_type_id":"4","last_reported":1685790282,"current_range_meters":28400,"station_id":"ce4bhs92rcd13ifvqi0g","pricing_plan_id":"free"},{"bike_id":"e4470367-a344-41a2-aaec-fff2283437ec","system_id":"levelo_inurba_marseille","lat":43.2968,"lon":5.37291,"is_reserved":false,"is_disabled":false,"rental_uris":{"android":"levelo://app?vid=e4470367-a344-41a2-aaec-fff2283437ec","ios":"levelo://app?vid=e4470367-a344-41a2-aaec-fff2283437ec"},"vehicle_type_id":"4","last_reported":1685790282,"current_range_meters":23600,"station_id":"ce4bgk12rcd13ifvqbj0","pricing_plan_id":"free"},{"bike_id":"0d757c8a-14e8-4256-a88f-be6b0fcb3f4a","system_id":"levelo_inurba_marseille","lat":43.29689,"lon":5.37303,"is_reserved":false,"is_disabled":false,"rental_uris":{"android":"levelo://app?vid=0d757c8a-14e8-4256-a88f-be6b0fcb3f4a","ios":"levelo://app?vid=0d757c8a-14e8-4256-a88f-be6b0fcb3f4a"},"vehicle_type_id":"4","last_reported":1685790282,"current_range_meters":18400,"station_id":"ce4bgk12rcd13ifvqbj0","pricing_plan_id":"free"},{"bike_id":"8dfadb08-248d-4188-ba53-40a5420784eb","system_id":"levelo_inurba_marseille","lat":43.29583,"lon":5.36753,"is_reserved":false,"is_disabled":false,"rental_uris":{"android":"levelo://app?vid=8dfadb08-248d-4188-ba53-40a5420784eb","ios":"levelo://app?vid=8dfadb08-248d-4188-ba53-40a5420784eb"},"vehicle_type_id":"4","last_reported":1685790282,"current_range_meters":8800,"station_id":"ce4bgph2rcd13ifvqc2g","pricing_plan_id":"free"},{"bike_id":"f4bad1c1-1d1a-4cd3-89e6-090e25bb5509","system_id":"levelo_inurba_marseille","lat":43.299028,"lon":5.381509,"is_reserved":false,"is_disabled":false,"rental_uris":{"android":"levelo://app?vid=f4bad1c1-1d1a-4cd3-89e6-090e25bb5509","ios":"levelo://app?vid=f4bad1c1-1d1a-4cd3-89e6-090e25bb5509"},"vehicle_type_id":"4","last_reported":1685790282,"current_range_meters":2400,"station_id":"ce4bgj12rcd13ifvqbc0","pricing_plan_id":"free"},{"bike_id":"6aa64471-abec-4df4-8f99-ba7b051c40f3","system_id":"levelo_inurba_marseille","lat":43.309589,"lon":5.390258,"is_reserved":false,"is_disabled":false,"rental_uris":{"android":"levelo://app?vid=6aa64471-abec-4df4-8f99-ba7b051c40f3","ios":"levelo://app?vid=6aa64471-abec-4df4-8f99-ba7b051c40f3"},"vehicle_type_id":"4","last_reported":1685790282,"current_range_meters":22800,"station_id":"ce4bgup2rcd13ifvqco0","pricing_plan_id":"free"},{"bike_id":"8142fb10-e6f0-4cbd-a950-3089a659608f","system_id":"levelo_inurba_marseille","lat":43.31758,"lon":5.3901,"is_reserved":false,"is_disabled":false,"rental_uris":{"android":"levelo://app?vid=8142fb10-e6f0-4cbd-a950-3089a659608f","ios":"levelo://app?vid=8142fb10-e6f0-4cbd-a950-3089a659608f"},"vehicle_type_id":"4","last_reported":1685790282,"current_range_meters":17200,"station_id":"ce4bhqp2rcd13ifvqhng","pricing_plan_id":"free"},{"bike_id":"ed74c8b3-75bd-41b3-a98e-c58228ce207f","system_id":"levelo_inurba_marseille","lat":43.299724,"lon":5.384848,"is_reserved":false,"is_disabled":false,"rental_uris":{"android":"levelo://app?vid=ed74c8b3-75bd-41b3-a98e-c58228ce207f","ios":"levelo://app?vid=ed74c8b3-75bd-41b3-a98e-c58228ce207f"},"vehicle_type_id":"4","last_reported":1685790282,"current_range_meters":29600,"station_id":"ce4bgj92rcd13ifvqbd0","pricing_plan_id":"free"},{"bike_id":"4d4d19e7-ce76-4e69-931a-346db86ff8f4","system_id":"levelo_inurba_marseille","lat":43.2997,"lon":5.38501,"is_reserved":false,"is_disabled":false,"rental_uris":{"android":"levelo://app?vid=4d4d19e7-ce76-4e69-931a-346db86ff8f4","ios":"levelo://app?vid=4d4d19e7-ce76-4e69-931a-346db86ff8f4"},"vehicle_type_id":"4","last_reported":1685790282,"current_range_meters":0,"station_id":"ce4bgj92rcd13ifvqbd0","pricing_plan_id":"free"},{"bike_id":"eb500a68-299c-4bfe-996b-c50aa893b955","system_id":"levelo_inurba_marseille","lat":43.32367,"lon":5.388836,"is_reserved":false,"is_disabled":false,"rental_uris":{"android":"levelo://app?vid=eb500a68-299c-4bfe-996b-c50aa893b955","ios":"levelo://app?vid=eb500a68-299c-4bfe-996b-c50aa893b955"},"vehicle_type_id":"4","last_reported":1685790282,"current_range_meters":31200,"station_id":"ce4bhqp2rcd13ifvqhog","pricing_plan_id":"free"},{"bike_id":"d9b3487e-4661-4b3b-a198-2212de300ca1","system_id":"levelo_inurba_marseille","lat":43.32363,"lon":5.38882,"is_reserved":false,"is_disabled":false,"rental_uris":{"android":"levelo://app?vid=d9b3487e-4661-4b3b-a198-2212de300ca1","ios":"levelo://app?vid=d9b3487e-4661-4b3b-a198-2212de300ca1"},"vehicle_type_id":"4","last_reported":1685790282,"current_range_meters":29200,"station_id":"ce4bhqp2rcd13ifvqhog","pricing_plan_id":"free"},{"bike_id":"0c7ce3fd-9fe0-458e-9687-20b832dfee04","system_id":"levelo_inurba_marseille","lat":43.32367,"lon":5.388836,"is_reserved":false,"is_disabled":false,"rental_uris":{"android":"levelo://app?vid=0c7ce3fd-9fe0-458e-9687-20b832dfee04","ios":"levelo://app?vid=0c7ce3fd-9fe0-458e-9687-20b832dfee04"},"vehicle_type_id":"4","last_reported":1685790282,"current_range_meters":31200,"station_id":"ce4bhqp2rcd13ifvqhog","pricing_plan_id":"free"},{"bike_id":"90bbfd03-d00c-4933-b38d-99b5da852988","system_id":"levelo_inurba_marseille","lat":43.32367,"lon":5.388836,"is_reserved":false,"is_disabled":false,"rental_uris":{"android":"levelo://app?vid=90bbfd03-d00c-4933-b38d-99b5da852988","ios":"levelo://app?vid=90bbfd03-d00c-4933-b38d-99b5da852988"},"vehicle_type_id":"4","last_reported":1685790282,"current_range_meters":30400,"station_id":"ce4bhqp2rcd13ifvqhog","pricing_plan_id":"free"},{"bike_id":"89de6b20-c43a-4dd8-89d0-68075829fe85","system_id":"levelo_inurba_marseille","lat":43.32367,"lon":5.38884,"is_reserved":false,"is_disabled":false,"rental_uris":{"android":"levelo://app?vid=89de6b20-c43a-4dd8-89d0-68075829fe85","ios":"levelo://app?vid=89de6b20-c43a-4dd8-89d0-68075829fe85"},"vehicle_type_id":"4","last_reported":1685790282,"current_range_meters":31200,"station_id":"ce4bhqp2rcd13ifvqhog","pricing_plan_id":"free"},{"bike_id":"678463e3-827b-429a-acea-b27b717133a7","system_id":"levelo_inurba_marseille","lat":43.32367,"lon":5.388836,"is_reserved":false,"is_disabled":false,"rental_uris":{"android":"levelo://app?vid=678463e3-827b-429a-acea-b27b717133a7","ios":"levelo://app?vid=678463e3-827b-429a-acea-b27b717133a7"},"vehicle_type_id":"4","last_reported":1685790282,"current_range_meters":4400,"station_id":"ce4bhqp2rcd13ifvqhog","pricing_plan_id":"free"},{"bike_id":"c07fe0f2-772a-435f-9629-10108908cbeb","system_id":"levelo_inurba_marseille","lat":43.32367,"lon":5.388836,"is_reserved":false,"is_disabled":false,"rental_uris":{"android":"levelo://app?vid=c07fe0f2-772a-435f-9629-10108908cbeb","ios":"levelo://app?vid=c07fe0f2-772a-435f-9629-10108908cbeb"},"vehicle_type_id":"4","last_reported":1685790282,"current_range_meters":28400,"station_id":"ce4bhqp2rcd13ifvqhog","pricing_plan_id":"free"},{"bike_id":"5d3e8e76-7018-4261-9158-4720b9fedf81","system_id":"levelo_inurba_marseille","lat":43.293249,"lon":5.371578,"is_reserved":false,"is_disabled":false,"rental_uris":{"android":"levelo://app?vid=5d3e8e76-7018-4261-9158-4720b9fedf81","ios":"levelo://app?vid=5d3e8e76-7018-4261-9158-4720b9fedf81"},"vehicle_type_id":"4","last_reported":1685790282,"current_range_meters":25200,"station_id":"ce4bgh92rcd13ifvqb40","pricing_plan_id":"free"},{"bike_id":"586123ba-9435-40e4-99a0-cc6ed2014e8c","system_id":"levelo_inurba_marseille","lat":43.309038,"lon":5.396546,"is_reserved":false,"is_disabled":false,"rental_uris":{"android":"levelo://app?vid=586123ba-9435-40e4-99a0-cc6ed2014e8c","ios":"levelo://app?vid=586123ba-9435-40e4-99a0-cc6ed2014e8c"},"vehicle_type_id":"4","last_reported":1685790282,"current_range_meters":16400,"station_id":"ce4bh012rcd13ifvqcv0","pricing_plan_id":"free"},{"bike_id":"003e2a5d-6f63-4697-9329-627a25826c00","system_id":"levelo_inurba_marseille","lat":43.313291,"lon":5.396838,"is_reserved":false,"is_disabled":false,"rental_uris":{"android":"levelo://app?vid=003e2a5d-6f63-4697-9329-627a25826c00","ios":"levelo://app?vid=003e2a5d-6f63-4697-9329-627a25826c00"},"vehicle_type_id":"4","last_reported":1685790282,"current_range_meters":13200,"station_id":"ce4bgvp2rcd13ifvqcu0","pricing_plan_id":"free"},{"bike_id":"a1d588f9-8125-4a8f-9f59-c1cf1bdc5430","system_id":"levelo_inurba_marseille","lat":43.32817,"lon":5.389,"is_reserved":false,"is_disabled":false,"rental_uris":{"android":"levelo://app?vid=a1d588f9-8125-4a8f-9f59-c1cf1bdc5430","ios":"levelo://app?vid=a1d588f9-8125-4a8f-9f59-c1cf1bdc5430"},"vehicle_type_id":"4","last_reported":1685790282,"current_range_meters":17200,"station_id":"","pricing_plan_id":"free"},{"bike_id":"10536125-e3de-4b22-b9e4-afcd0968d265","system_id":"levelo_inurba_marseille","lat":43.290631,"lon":5.359244,"is_reserved":false,"is_disabled":false,"rental_uris":{"android":"levelo://app?vid=10536125-e3de-4b22-b9e4-afcd0968d265","ios":"levelo://app?vid=10536125-e3de-4b22-b9e4-afcd0968d265"},"vehicle_type_id":"4","last_reported":1685790282,"current_range_meters":28800,"station_id":"ce4bha92rcd13ifvqeg0","pricing_plan_id":"free"},{"bike_id":"cf2b5bf1-586a-4b5c-8ade-2b33c9cc7b57","system_id":"levelo_inurba_marseille","lat":43.290327,"lon":5.375711,"is_reserved":false,"is_disabled":false,"rental_uris":{"android":"levelo://app?vid=cf2b5bf1-586a-4b5c-8ade-2b33c9cc7b57","ios":"levelo://app?vid=cf2b5bf1-586a-4b5c-8ade-2b33c9cc7b57"},"vehicle_type_id":"4","last_reported":1685790282,"current_range_meters":23200,"station_id":"ce4bh692rcd13ifvqe90","pricing_plan_id":"free"},{"bike_id":"ce3dbc9d-e72f-4be9-8151-f9b1a7ef0d70","system_id":"levelo_inurba_marseille","lat":43.292642,"lon":5.384254,"is_reserved":false,"is_disabled":false,"rental_uris":{"android":"levelo://app?vid=ce3dbc9d-e72f-4be9-8151-f9b1a7ef0d70","ios":"levelo://app?vid=ce3dbc9d-e72f-4be9-8151-f9b1a7ef0d70"},"vehicle_type_id":"4","last_reported":1685790282,"current_range_meters":4400,"station_id":"ce4bh692rcd13ifvqea0","pricing_plan_id":"free"},{"bike_id":"172d6aa0-3b2a-4fa5-9968-7134f0b9bf19","system_id":"levelo_inurba_marseille","lat":43.292732,"lon":5.384388,"is_reserved":false,"is_disabled":false,"rental_uris":{"android":"levelo://app?vid=172d6aa0-3b2a-4fa5-9968-7134f0b9bf19","ios":"levelo://app?vid=172d6aa0-3b2a-4fa5-9968-7134f0b9bf19"},"vehicle_type_id":"4","last_reported":1685790282,"current_range_meters":0,"station_id":"","pricing_plan_id":"free"},{"bike_id":"2baf6090-ab42-4152-a69a-90fd879a38b1","system_id":"levelo_inurba_marseille","lat":43.320045,"lon":5.415048,"is_reserved":false,"is_disabled":false,"rental_uris":{"android":"levelo://app?vid=2baf6090-ab42-4152-a69a-90fd879a38b1","ios":"levelo://app?vid=2baf6090-ab42-4152-a69a-90fd879a38b1"},"vehicle_type_id":"4","last_reported":1685790282,"current_range_meters":30000,"station_id":"ce4bhq92rcd13ifvqhkg","pricing_plan_id":"free"},{"bike_id":"5cbcf543-d288-404c-bac6-328ef38ba2d8","system_id":"levelo_inurba_marseille","lat":43.33039,"lon":5.3892,"is_reserved":false,"is_disabled":false,"rental_uris":{"android":"levelo://app?vid=5cbcf543-d288-404c-bac6-328ef38ba2d8","ios":"levelo://app?vid=5cbcf543-d288-404c-bac6-328ef38ba2d8"},"vehicle_type_id":"4","last_reported":1685790282,"current_range_meters":24000,"station_id":"ce4bhr92rcd13ifvqhrg","pricing_plan_id":"free"},{"bike_id":"05f1a2c7-d830-495c-86b8-292585194459","system_id":"levelo_inurba_marseille","lat":43.3304,"lon":5.38919,"is_reserved":false,"is_disabled":false,"rental_uris":{"android":"levelo://app?vid=05f1a2c7-d830-495c-86b8-292585194459","ios":"levelo://app?vid=05f1a2c7-d830-495c-86b8-292585194459"},"vehicle_type_id":"4","last_reported":1685790282,"current_range_meters":23200,"station_id":"ce4bhr92rcd13ifvqhrg","pricing_plan_id":"free"},{"bike_id":"2d37238d-c9df-4c7c-a8f7-fced896bdd84","system_id":"levelo_inurba_marseille","lat":43.33041,"lon":5.38921,"is_reserved":false,"is_disabled":false,"rental_uris":{"android":"levelo://app?vid=2d37238d-c9df-4c7c-a8f7-fced896bdd84","ios":"levelo://app?vid=2d37238d-c9df-4c7c-a8f7-fced896bdd84"},"vehicle_type_id":"4","last_reported":1685790282,"current_range_meters":26000,"station_id":"ce4bhr92rcd13ifvqhrg","pricing_plan_id":"free"},{"bike_id":"2364282a-cb9d-46e5-8a93-f3855a133753","system_id":"levelo_inurba_marseille","lat":43.330427,"lon":5.38921,"is_reserved":false,"is_disabled":false,"rental_uris":{"android":"levelo://app?vid=2364282a-cb9d-46e5-8a93-f3855a133753","ios":"levelo://app?vid=2364282a-cb9d-46e5-8a93-f3855a133753"},"vehicle_type_id":"4","last_reported":1685790282,"current_range_meters":20800,"station_id":"ce4bhr92rcd13ifvqhrg","pricing_plan_id":"free"},{"bike_id":"5d3d3dd0-30f0-4d60-af7e-fb793b837932","system_id":"levelo_inurba_marseille","lat":43.289732,"lon":5.378425,"is_reserved":false,"is_disabled":false,"rental_uris":{"android":"levelo://app?vid=5d3d3dd0-30f0-4d60-af7e-fb793b837932","ios":"levelo://app?vid=5d3d3dd0-30f0-4d60-af7e-fb793b837932"},"vehicle_type_id":"4","last_reported":1685790282,"current_range_meters":12400,"station_id":"ce4bh9p2rcd13ifvqed0","pricing_plan_id":"free"},{"bike_id":"0a8aba60-b51b-427d-be66-8709066b23d1","system_id":"levelo_inurba_marseille","lat":43.33127,"lon":5.38901,"is_reserved":false,"is_disabled":false,"rental_uris":{"android":"levelo://app?vid=0a8aba60-b51b-427d-be66-8709066b23d1","ios":"levelo://app?vid=0a8aba60-b51b-427d-be66-8709066b23d1"},"vehicle_type_id":"4","last_reported":1685790282,"current_range_meters":29600,"station_id":"","pricing_plan_id":"free"},{"bike_id":"e55f86f6-17bf-41fb-90df-86ba0269f447","system_id":"levelo_inurba_marseille","lat":43.33741,"lon":5.37461,"is_reserved":false,"is_disabled":false,"rental_uris":{"android":"levelo://app?vid=e55f86f6-17bf-41fb-90df-86ba0269f447","ios":"levelo://app?vid=e55f86f6-17bf-41fb-90df-86ba0269f447"},"vehicle_type_id":"4","last_reported":1685790282,"current_range_meters":29600,"station_id":"","pricing_plan_id":"free"},{"bike_id":"8f950625-af2d-4089-844d-37bd38107aa9","system_id":"levelo_inurba_marseille","lat":43.33748,"lon":5.37437,"is_reserved":false,"is_disabled":false,"rental_uris":{"android":"levelo://app?vid=8f950625-af2d-4089-844d-37bd38107aa9","ios":"levelo://app?vid=8f950625-af2d-4089-844d-37bd38107aa9"},"vehicle_type_id":"4","last_reported":1685790282,"current_range_meters":31200,"station_id":"","pricing_plan_id":"free"},{"bike_id":"09044982-2e58-4a53-993c-2701ccdb63d8","system_id":"levelo_inurba_marseille","lat":43.33749,"lon":5.37457,"is_reserved":false,"is_disabled":false,"rental_uris":{"android":"levelo://app?vid=09044982-2e58-4a53-993c-2701ccdb63d8","ios":"levelo://app?vid=09044982-2e58-4a53-993c-2701ccdb63d8"},"vehicle_type_id":"4","last_reported":1685790282,"current_range_meters":16400,"station_id":"","pricing_plan_id":"free"},{"bike_id":"e67f6ed1-7be3-4c6f-af7d-22195ab6d02c","system_id":"levelo_inurba_marseille","lat":43.337493,"lon":5.374644,"is_reserved":false,"is_disabled":false,"rental_uris":{"android":"levelo://app?vid=e67f6ed1-7be3-4c6f-af7d-22195ab6d02c","ios":"levelo://app?vid=e67f6ed1-7be3-4c6f-af7d-22195ab6d02c"},"vehicle_type_id":"4","last_reported":1685790282,"current_range_meters":31600,"station_id":"","pricing_plan_id":"free"},{"bike_id":"0113e38e-96e8-443e-8ffa-9a4f8c786a1e","system_id":"levelo_inurba_marseille","lat":43.33756,"lon":5.3743,"is_reserved":false,"is_disabled":false,"rental_uris":{"android":"levelo://app?vid=0113e38e-96e8-443e-8ffa-9a4f8c786a1e","ios":"levelo://app?vid=0113e38e-96e8-443e-8ffa-9a4f8c786a1e"},"vehicle_type_id":"4","last_reported":1685790282,"current_range_meters":21200,"station_id":"","pricing_plan_id":"free"},{"bike_id":"cf0caa37-cec8-408b-98f7-37211a80813c","system_id":"levelo_inurba_marseille","lat":43.33762,"lon":5.3743,"is_reserved":false,"is_disabled":false,"rental_uris":{"android":"levelo://app?vid=cf0caa37-cec8-408b-98f7-37211a80813c","ios":"levelo://app?vid=cf0caa37-cec8-408b-98f7-37211a80813c"},"vehicle_type_id":"4","last_reported":1685790282,"current_range_meters":25600,"station_id":"","pricing_plan_id":"free"},{"bike_id":"200b7507-3756-4db9-8286-881f0cd00d1a","system_id":"levelo_inurba_marseille","lat":43.301117,"lon":5.398795,"is_reserved":false,"is_disabled":false,"rental_uris":{"android":"levelo://app?vid=200b7507-3756-4db9-8286-881f0cd00d1a","ios":"levelo://app?vid=200b7507-3756-4db9-8286-881f0cd00d1a"},"vehicle_type_id":"4","last_reported":1685790282,"current_range_meters":21200,"station_id":"ce4bh0h2rcd13ifvqd40","pricing_plan_id":"free"},{"bike_id":"73a46448-0260-49b0-a18b-c8aca0b3d05a","system_id":"levelo_inurba_marseille","lat":43.295213,"lon":5.393962,"is_reserved":false,"is_disabled":false,"rental_uris":{"android":"levelo://app?vid=73a46448-0260-49b0-a18b-c8aca0b3d05a","ios":"levelo://app?vid=73a46448-0260-49b0-a18b-c8aca0b3d05a"},"vehicle_type_id":"4","last_reported":1685790282,"current_range_meters":0,"station_id":"ce4bh292rcd13ifvqdf0","pricing_plan_id":"free"},{"bike_id":"293e8f51-b273-415a-bd33-b084d8f0375e","system_id":"levelo_inurba_marseille","lat":43.316517,"lon":5.404375,"is_reserved":false,"is_disabled":false,"rental_uris":{"android":"levelo://app?vid=293e8f51-b273-415a-bd33-b084d8f0375e","ios":"levelo://app?vid=293e8f51-b273-415a-bd33-b084d8f0375e"},"vehicle_type_id":"4","last_reported":1685790282,"current_range_meters":10400,"station_id":"ce4bh012rcd13ifvqd00","pricing_plan_id":"free"},{"bike_id":"860da32d-0098-4ef9-bef1-077c300d7ffb","system_id":"levelo_inurba_marseille","lat":43.31648,"lon":5.40435,"is_reserved":false,"is_disabled":false,"rental_uris":{"android":"levelo://app?vid=860da32d-0098-4ef9-bef1-077c300d7ffb","ios":"levelo://app?vid=860da32d-0098-4ef9-bef1-077c300d7ffb"},"vehicle_type_id":"4","last_reported":1685790282,"current_range_meters":18400,"station_id":"ce4bh012rcd13ifvqd00","pricing_plan_id":"free"},{"bike_id":"a139a242-a8b7-4aea-a7fa-a7f120080f08","system_id":"levelo_inurba_marseille","lat":43.284534,"lon":5.358662,"is_reserved":false,"is_disabled":false,"rental_uris":{"android":"levelo://app?vid=a139a242-a8b7-4aea-a7fa-a7f120080f08","ios":"levelo://app?vid=a139a242-a8b7-4aea-a7fa-a7f120080f08"},"vehicle_type_id":"4","last_reported":1685790282,"current_range_meters":24800,"station_id":"ce4bhah2rcd13ifvqei0","pricing_plan_id":"free"},{"bike_id":"1e0b83be-a75a-4947-a0b2-df0173c2120e","system_id":"levelo_inurba_marseille","lat":43.285848,"lon":5.350787,"is_reserved":false,"is_disabled":false,"rental_uris":{"android":"levelo://app?vid=1e0b83be-a75a-4947-a0b2-df0173c2120e","ios":"levelo://app?vid=1e0b83be-a75a-4947-a0b2-df0173c2120e"},"vehicle_type_id":"4","last_reported":1685790282,"current_range_meters":3200,"station_id":"ce4bhch2rcd13ifvqeug","pricing_plan_id":"free"},{"bike_id":"53bc1329-7802-4454-b9ff-6e12737bf7b3","system_id":"levelo_inurba_marseille","lat":43.285848,"lon":5.350787,"is_reserved":false,"is_disabled":false,"rental_uris":{"android":"levelo://app?vid=53bc1329-7802-4454-b9ff-6e12737bf7b3","ios":"levelo://app?vid=53bc1329-7802-4454-b9ff-6e12737bf7b3"},"vehicle_type_id":"4","last_reported":1685790282,"current_range_meters":19600,"station_id":"ce4bhch2rcd13ifvqeug","pricing_plan_id":"free"},{"bike_id":"bda2dcbf-5e5b-4d11-b8cd-55a5a9648cd2","system_id":"levelo_inurba_marseille","lat":43.285848,"lon":5.350787,"is_reserved":false,"is_disabled":false,"rental_uris":{"android":"levelo://app?vid=bda2dcbf-5e5b-4d11-b8cd-55a5a9648cd2","ios":"levelo://app?vid=bda2dcbf-5e5b-4d11-b8cd-55a5a9648cd2"},"vehicle_type_id":"4","last_reported":1685790282,"current_range_meters":18400,"station_id":"ce4bhch2rcd13ifvqeug","pricing_plan_id":"free"},{"bike_id":"ad624e12-e913-4400-8b1c-d8be591294f7","system_id":"levelo_inurba_marseille","lat":43.285848,"lon":5.350787,"is_reserved":false,"is_disabled":false,"rental_uris":{"android":"levelo://app?vid=ad624e12-e913-4400-8b1c-d8be591294f7","ios":"levelo://app?vid=ad624e12-e913-4400-8b1c-d8be591294f7"},"vehicle_type_id":"4","last_reported":1685790282,"current_range_meters":30000,"station_id":"ce4bhch2rcd13ifvqeug","pricing_plan_id":"free"},{"bike_id":"f942940d-2614-45f1-862e-cfe811cc5fdd","system_id":"levelo_inurba_marseille","lat":43.285848,"lon":5.350787,"is_reserved":false,"is_disabled":false,"rental_uris":{"android":"levelo://app?vid=f942940d-2614-45f1-862e-cfe811cc5fdd","ios":"levelo://app?vid=f942940d-2614-45f1-862e-cfe811cc5fdd"},"vehicle_type_id":"4","last_reported":1685790282,"current_range_meters":30800,"station_id":"ce4bhch2rcd13ifvqeug","pricing_plan_id":"free"},{"bike_id":"fea3f320-bf0e-4eb9-a41c-05fca5a72d5b","system_id":"levelo_inurba_marseille","lat":43.285848,"lon":5.350787,"is_reserved":false,"is_disabled":false,"rental_uris":{"android":"levelo://app?vid=fea3f320-bf0e-4eb9-a41c-05fca5a72d5b","ios":"levelo://app?vid=fea3f320-bf0e-4eb9-a41c-05fca5a72d5b"},"vehicle_type_id":"4","last_reported":1685790282,"current_range_meters":29200,"station_id":"ce4bhch2rcd13ifvqeug","pricing_plan_id":"free"},{"bike_id":"1ca59d94-7d60-431d-863c-8397111a1fd5","system_id":"levelo_inurba_marseille","lat":43.285848,"lon":5.350787,"is_reserved":false,"is_disabled":false,"rental_uris":{"android":"levelo://app?vid=1ca59d94-7d60-431d-863c-8397111a1fd5","ios":"levelo://app?vid=1ca59d94-7d60-431d-863c-8397111a1fd5"},"vehicle_type_id":"4","last_reported":1685790282,"current_range_meters":26000,"station_id":"ce4bhch2rcd13ifvqeug","pricing_plan_id":"free"},{"bike_id":"e92f2b06-add5-4fbd-a0bd-f2cbce6c720e","system_id":"levelo_inurba_marseille","lat":43.286151,"lon":5.350985,"is_reserved":false,"is_disabled":false,"rental_uris":{"android":"levelo://app?vid=e92f2b06-add5-4fbd-a0bd-f2cbce6c720e","ios":"levelo://app?vid=e92f2b06-add5-4fbd-a0bd-f2cbce6c720e"},"vehicle_type_id":"4","last_reported":1685790282,"current_range_meters":21200,"station_id":"","pricing_plan_id":"free"},{"bike_id":"a726f329-788f-4458-bf39-e389a50529fa","system_id":"levelo_inurba_marseille","lat":43.28615,"lon":5.35097,"is_reserved":false,"is_disabled":false,"rental_uris":{"android":"levelo://app?vid=a726f329-788f-4458-bf39-e389a50529fa","ios":"levelo://app?vid=a726f329-788f-4458-bf39-e389a50529fa"},"vehicle_type_id":"4","last_reported":1685790282,"current_range_meters":6400,"station_id":"","pricing_plan_id":"free"},{"bike_id":"5f8b3cef-8de5-4c81-9442-d21218ef4b71","system_id":"levelo_inurba_marseille","lat":43.285848,"lon":5.350787,"is_reserved":false,"is_disabled":false,"rental_uris":{"android":"levelo://app?vid=5f8b3cef-8de5-4c81-9442-d21218ef4b71","ios":"levelo://app?vid=5f8b3cef-8de5-4c81-9442-d21218ef4b71"},"vehicle_type_id":"4","last_reported":1685790282,"current_range_meters":24000,"station_id":"ce4bhch2rcd13ifvqeug","pricing_plan_id":"free"},{"bike_id":"a8fcff3a-37a6-4d4d-8b90-aeb44cb11db0","system_id":"levelo_inurba_marseille","lat":43.286595,"lon":5.386795,"is_reserved":false,"is_disabled":false,"rental_uris":{"android":"levelo://app?vid=a8fcff3a-37a6-4d4d-8b90-aeb44cb11db0","ios":"levelo://app?vid=a8fcff3a-37a6-4d4d-8b90-aeb44cb11db0"},"vehicle_type_id":"4","last_reported":1685790282,"current_range_meters":23600,"station_id":"ce4bh492rcd13ifvqdug","pricing_plan_id":"free"},{"bike_id":"b205e703-9cc6-479d-b47b-dcec15459f4d","system_id":"levelo_inurba_marseille","lat":43.32705,"lon":5.40378,"is_reserved":false,"is_disabled":false,"rental_uris":{"android":"levelo://app?vid=b205e703-9cc6-479d-b47b-dcec15459f4d","ios":"levelo://app?vid=b205e703-9cc6-479d-b47b-dcec15459f4d"},"vehicle_type_id":"4","last_reported":1685790282,"current_range_meters":17600,"station_id":"","pricing_plan_id":"free"},{"bike_id":"ad1d5e82-6800-4527-b5fc-d74942c85715","system_id":"levelo_inurba_marseille","lat":43.28422,"lon":5.34984,"is_reserved":false,"is_disabled":false,"rental_uris":{"android":"levelo://app?vid=ad1d5e82-6800-4527-b5fc-d74942c85715","ios":"levelo://app?vid=ad1d5e82-6800-4527-b5fc-d74942c85715"},"vehicle_type_id":"4","last_reported":1685790282,"current_range_meters":29600,"station_id":"ce4bhbh2rcd13ifvqepg","pricing_plan_id":"free"},{"bike_id":"456ae588-b5ff-48e5-981b-49600924af6d","system_id":"levelo_inurba_marseille","lat":43.284219,"lon":5.3497,"is_reserved":false,"is_disabled":false,"rental_uris":{"android":"levelo://app?vid=456ae588-b5ff-48e5-981b-49600924af6d","ios":"levelo://app?vid=456ae588-b5ff-48e5-981b-49600924af6d"},"vehicle_type_id":"4","last_reported":1685790282,"current_range_meters":16800,"station_id":"ce4bhbh2rcd13ifvqepg","pricing_plan_id":"free"},{"bike_id":"ca63600c-bb31-4a7f-a702-2ed60e6f0199","system_id":"levelo_inurba_marseille","lat":43.284219,"lon":5.3497,"is_reserved":false,"is_disabled":false,"rental_uris":{"android":"levelo://app?vid=ca63600c-bb31-4a7f-a702-2ed60e6f0199","ios":"levelo://app?vid=ca63600c-bb31-4a7f-a702-2ed60e6f0199"},"vehicle_type_id":"4","last_reported":1685790282,"current_range_meters":20000,"station_id":"ce4bhbh2rcd13ifvqepg","pricing_plan_id":"free"},{"bike_id":"bfa5803a-60c1-4d27-8744-bcab9b20e932","system_id":"levelo_inurba_marseille","lat":43.284219,"lon":5.3497,"is_reserved":false,"is_disabled":false,"rental_uris":{"android":"levelo://app?vid=bfa5803a-60c1-4d27-8744-bcab9b20e932","ios":"levelo://app?vid=bfa5803a-60c1-4d27-8744-bcab9b20e932"},"vehicle_type_id":"4","last_reported":1685790282,"current_range_meters":28800,"station_id":"ce4bhbh2rcd13ifvqepg","pricing_plan_id":"free"},{"bike_id":"289ad4d2-234a-4e6e-a28b-e186271f648c","system_id":"levelo_inurba_marseille","lat":43.28414,"lon":5.34994,"is_reserved":false,"is_disabled":false,"rental_uris":{"android":"levelo://app?vid=289ad4d2-234a-4e6e-a28b-e186271f648c","ios":"levelo://app?vid=289ad4d2-234a-4e6e-a28b-e186271f648c"},"vehicle_type_id":"4","last_reported":1685790282,"current_range_meters":27200,"station_id":"ce4bhbh2rcd13ifvqepg","pricing_plan_id":"free"},{"bike_id":"a5a6503c-2eb0-4db7-8924-941c25f11b07","system_id":"levelo_inurba_marseille","lat":43.28419,"lon":5.34978,"is_reserved":false,"is_disabled":false,"rental_uris":{"android":"levelo://app?vid=a5a6503c-2eb0-4db7-8924-941c25f11b07","ios":"levelo://app?vid=a5a6503c-2eb0-4db7-8924-941c25f11b07"},"vehicle_type_id":"4","last_reported":1685790282,"current_range_meters":8400,"station_id":"ce4bhh12rcd13ifvqff0","pricing_plan_id":"free"},{"bike_id":"6b26d359-6b37-4b3d-8503-3149bec908dc","system_id":"levelo_inurba_marseille","lat":43.284217,"lon":5.349697,"is_reserved":false,"is_disabled":false,"rental_uris":{"android":"levelo://app?vid=6b26d359-6b37-4b3d-8503-3149bec908dc","ios":"levelo://app?vid=6b26d359-6b37-4b3d-8503-3149bec908dc"},"vehicle_type_id":"4","last_reported":1685790282,"current_range_meters":31200,"station_id":"ce4bhbh2rcd13ifvqepg","pricing_plan_id":"free"},{"bike_id":"116371d7-297f-4354-b067-2b57f496b55b","system_id":"levelo_inurba_marseille","lat":43.284217,"lon":5.349697,"is_reserved":false,"is_disabled":false,"rental_uris":{"android":"levelo://app?vid=116371d7-297f-4354-b067-2b57f496b55b","ios":"levelo://app?vid=116371d7-297f-4354-b067-2b57f496b55b"},"vehicle_type_id":"4","last_reported":1685790282,"current_range_meters":29600,"station_id":"ce4bhbh2rcd13ifvqepg","pricing_plan_id":"free"},{"bike_id":"fee7ee8b-9689-499f-bb2f-50348ebe565b","system_id":"levelo_inurba_marseille","lat":43.284187,"lon":5.34971,"is_reserved":false,"is_disabled":false,"rental_uris":{"android":"levelo://app?vid=fee7ee8b-9689-499f-bb2f-50348ebe565b","ios":"levelo://app?vid=fee7ee8b-9689-499f-bb2f-50348ebe565b"},"vehicle_type_id":"4","last_reported":1685790282,"current_range_meters":17600,"station_id":"ce4bhbh2rcd13ifvqepg","pricing_plan_id":"free"},{"bike_id":"441656f9-f308-4a77-86f6-febf90e487df","system_id":"levelo_inurba_marseille","lat":43.29254,"lon":5.39993,"is_reserved":false,"is_disabled":false,"rental_uris":{"android":"levelo://app?vid=441656f9-f308-4a77-86f6-febf90e487df","ios":"levelo://app?vid=441656f9-f308-4a77-86f6-febf90e487df"},"vehicle_type_id":"4","last_reported":1685790282,"current_range_meters":19200,"station_id":"","pricing_plan_id":"free"},{"bike_id":"62113825-e15b-46a6-a596-c7588b1c8197","system_id":"levelo_inurba_marseille","lat":43.282754,"lon":5.350519,"is_reserved":false,"is_disabled":false,"rental_uris":{"android":"levelo://app?vid=62113825-e15b-46a6-a596-c7588b1c8197","ios":"levelo://app?vid=62113825-e15b-46a6-a596-c7588b1c8197"},"vehicle_type_id":"4","last_reported":1685790282,"current_range_meters":17600,"station_id":"ce4bhbp2rcd13ifvqerg","pricing_plan_id":"free"},{"bike_id":"da128dca-d779-4a26-83a3-7b30955badda","system_id":"levelo_inurba_marseille","lat":43.28268,"lon":5.35078,"is_reserved":false,"is_disabled":false,"rental_uris":{"android":"levelo://app?vid=da128dca-d779-4a26-83a3-7b30955badda","ios":"levelo://app?vid=da128dca-d779-4a26-83a3-7b30955badda"},"vehicle_type_id":"4","last_reported":1685790282,"current_range_meters":29200,"station_id":"ce4bhbp2rcd13ifvqerg","pricing_plan_id":"free"},{"bike_id":"d49e7c3b-a12f-469c-9fab-a729727bc624","system_id":"levelo_inurba_marseille","lat":43.282754,"lon":5.350519,"is_reserved":false,"is_disabled":false,"rental_uris":{"android":"levelo://app?vid=d49e7c3b-a12f-469c-9fab-a729727bc624","ios":"levelo://app?vid=d49e7c3b-a12f-469c-9fab-a729727bc624"},"vehicle_type_id":"4","last_reported":1685790282,"current_range_meters":19200,"station_id":"ce4bhbp2rcd13ifvqerg","pricing_plan_id":"free"},{"bike_id":"0a07c7f6-e87e-49bb-b0ef-6fa188dfcdb1","system_id":"levelo_inurba_marseille","lat":43.282744,"lon":5.350533,"is_reserved":false,"is_disabled":false,"rental_uris":{"android":"levelo://app?vid=0a07c7f6-e87e-49bb-b0ef-6fa188dfcdb1","ios":"levelo://app?vid=0a07c7f6-e87e-49bb-b0ef-6fa188dfcdb1"},"vehicle_type_id":"4","last_reported":1685790282,"current_range_meters":21200,"station_id":"ce4bhbp2rcd13ifvqerg","pricing_plan_id":"free"},{"bike_id":"66493db3-110b-4e54-8bb5-1f1d66cb3fb0","system_id":"levelo_inurba_marseille","lat":43.282744,"lon":5.350533,"is_reserved":false,"is_disabled":false,"rental_uris":{"android":"levelo://app?vid=66493db3-110b-4e54-8bb5-1f1d66cb3fb0","ios":"levelo://app?vid=66493db3-110b-4e54-8bb5-1f1d66cb3fb0"},"vehicle_type_id":"4","last_reported":1685790282,"current_range_meters":25200,"station_id":"ce4bhbp2rcd13ifvqerg","pricing_plan_id":"free"},{"bike_id":"23e1e627-f3bf-403e-971c-8f5586e3e609","system_id":"levelo_inurba_marseille","lat":43.282754,"lon":5.350519,"is_reserved":false,"is_disabled":false,"rental_uris":{"android":"levelo://app?vid=23e1e627-f3bf-403e-971c-8f5586e3e609","ios":"levelo://app?vid=23e1e627-f3bf-403e-971c-8f5586e3e609"},"vehicle_type_id":"4","last_reported":1685790282,"current_range_meters":11200,"station_id":"ce4bhbp2rcd13ifvqerg","pricing_plan_id":"free"},{"bike_id":"1175a3a7-00e0-49cc-863e-77031d0c3fd0","system_id":"levelo_inurba_marseille","lat":43.28265,"lon":5.35068,"is_reserved":false,"is_disabled":false,"rental_uris":{"android":"levelo://app?vid=1175a3a7-00e0-49cc-863e-77031d0c3fd0","ios":"levelo://app?vid=1175a3a7-00e0-49cc-863e-77031d0c3fd0"},"vehicle_type_id":"4","last_reported":1685790282,"current_range_meters":24800,"station_id":"ce4bhbp2rcd13ifvqerg","pricing_plan_id":"free"},{"bike_id":"938d2ec9-32ba-44e7-a779-18d48b3d270d","system_id":"levelo_inurba_marseille","lat":43.282754,"lon":5.350519,"is_reserved":false,"is_disabled":false,"rental_uris":{"android":"levelo://app?vid=938d2ec9-32ba-44e7-a779-18d48b3d270d","ios":"levelo://app?vid=938d2ec9-32ba-44e7-a779-18d48b3d270d"},"vehicle_type_id":"4","last_reported":1685790282,"current_range_meters":5600,"station_id":"ce4bhbp2rcd13ifvqerg","pricing_plan_id":"free"},{"bike_id":"a0f2cb38-1088-4ba4-94b1-35c04d01d33b","system_id":"levelo_inurba_marseille","lat":43.282744,"lon":5.350533,"is_reserved":false,"is_disabled":false,"rental_uris":{"android":"levelo://app?vid=a0f2cb38-1088-4ba4-94b1-35c04d01d33b","ios":"levelo://app?vid=a0f2cb38-1088-4ba4-94b1-35c04d01d33b"},"vehicle_type_id":"4","last_reported":1685790282,"current_range_meters":4000,"station_id":"ce4bhbp2rcd13ifvqerg","pricing_plan_id":"free"},{"bike_id":"83882c6e-ba06-47f7-a064-c0740c45ad67","system_id":"levelo_inurba_marseille","lat":43.28263,"lon":5.3507,"is_reserved":false,"is_disabled":false,"rental_uris":{"android":"levelo://app?vid=83882c6e-ba06-47f7-a064-c0740c45ad67","ios":"levelo://app?vid=83882c6e-ba06-47f7-a064-c0740c45ad67"},"vehicle_type_id":"4","last_reported":1685790282,"current_range_meters":28000,"station_id":"ce4bhbp2rcd13ifvqerg","pricing_plan_id":"free"},{"bike_id":"cca706c1-aeda-4b16-8ecc-da9de5ccd333","system_id":"levelo_inurba_marseille","lat":43.282744,"lon":5.350533,"is_reserved":false,"is_disabled":false,"rental_uris":{"android":"levelo://app?vid=cca706c1-aeda-4b16-8ecc-da9de5ccd333","ios":"levelo://app?vid=cca706c1-aeda-4b16-8ecc-da9de5ccd333"},"vehicle_type_id":"4","last_reported":1685790282,"current_range_meters":19200,"station_id":"ce4bhbp2rcd13ifvqerg","pricing_plan_id":"free"},{"bike_id":"0254da47-99ea-4f28-b7c6-0e30ae274fe5","system_id":"levelo_inurba_marseille","lat":43.282744,"lon":5.350533,"is_reserved":false,"is_disabled":false,"rental_uris":{"android":"levelo://app?vid=0254da47-99ea-4f28-b7c6-0e30ae274fe5","ios":"levelo://app?vid=0254da47-99ea-4f28-b7c6-0e30ae274fe5"},"vehicle_type_id":"4","last_reported":1685790282,"current_range_meters":26800,"station_id":"ce4bhbp2rcd13ifvqerg","pricing_plan_id":"free"},{"bike_id":"9f4926fa-725f-471e-86ab-020ec40ec491","system_id":"levelo_inurba_marseille","lat":43.28039,"lon":5.369297,"is_reserved":false,"is_disabled":false,"rental_uris":{"android":"levelo://app?vid=9f4926fa-725f-471e-86ab-020ec40ec491","ios":"levelo://app?vid=9f4926fa-725f-471e-86ab-020ec40ec491"},"vehicle_type_id":"4","last_reported":1685790282,"current_range_meters":21200,"station_id":"ce4bha12rcd13ifvqef0","pricing_plan_id":"free"},{"bike_id":"a0ca22df-316c-4b64-a37c-593055867110","system_id":"levelo_inurba_marseille","lat":43.28039,"lon":5.369297,"is_reserved":false,"is_disabled":false,"rental_uris":{"android":"levelo://app?vid=a0ca22df-316c-4b64-a37c-593055867110","ios":"levelo://app?vid=a0ca22df-316c-4b64-a37c-593055867110"},"vehicle_type_id":"4","last_reported":1685790282,"current_range_meters":14400,"station_id":"ce4bha12rcd13ifvqef0","pricing_plan_id":"free"},{"bike_id":"25a3d96b-5952-4508-8266-62cb4a80cc88","system_id":"levelo_inurba_marseille","lat":43.282754,"lon":5.350519,"is_reserved":false,"is_disabled":false,"rental_uris":{"android":"levelo://app?vid=25a3d96b-5952-4508-8266-62cb4a80cc88","ios":"levelo://app?vid=25a3d96b-5952-4508-8266-62cb4a80cc88"},"vehicle_type_id":"4","last_reported":1685790282,"current_range_meters":16800,"station_id":"ce4bhbp2rcd13ifvqerg","pricing_plan_id":"free"},{"bike_id":"6674cdfe-6474-45db-b32e-9cd8597898e0","system_id":"levelo_inurba_marseille","lat":43.280382,"lon":5.369291,"is_reserved":false,"is_disabled":false,"rental_uris":{"android":"levelo://app?vid=6674cdfe-6474-45db-b32e-9cd8597898e0","ios":"levelo://app?vid=6674cdfe-6474-45db-b32e-9cd8597898e0"},"vehicle_type_id":"4","last_reported":1685790282,"current_range_meters":27600,"station_id":"ce4bha12rcd13ifvqef0","pricing_plan_id":"free"},{"bike_id":"1e66ca8a-571f-4092-b262-9219f8e745f7","system_id":"levelo_inurba_marseille","lat":43.27907,"lon":5.38013,"is_reserved":false,"is_disabled":false,"rental_uris":{"android":"levelo://app?vid=1e66ca8a-571f-4092-b262-9219f8e745f7","ios":"levelo://app?vid=1e66ca8a-571f-4092-b262-9219f8e745f7"},"vehicle_type_id":"4","last_reported":1685790282,"current_range_meters":20800,"station_id":"","pricing_plan_id":"free"},{"bike_id":"d16b894f-47a0-4a66-b90f-2895e6343798","system_id":"levelo_inurba_marseille","lat":43.27901,"lon":5.38006,"is_reserved":false,"is_disabled":false,"rental_uris":{"android":"levelo://app?vid=d16b894f-47a0-4a66-b90f-2895e6343798","ios":"levelo://app?vid=d16b894f-47a0-4a66-b90f-2895e6343798"},"vehicle_type_id":"4","last_reported":1685790282,"current_range_meters":17600,"station_id":"","pricing_plan_id":"free"},{"bike_id":"ecc99947-5ed1-4bd2-84ee-04505db5300d","system_id":"levelo_inurba_marseille","lat":43.27899,"lon":5.38021,"is_reserved":false,"is_disabled":false,"rental_uris":{"android":"levelo://app?vid=ecc99947-5ed1-4bd2-84ee-04505db5300d","ios":"levelo://app?vid=ecc99947-5ed1-4bd2-84ee-04505db5300d"},"vehicle_type_id":"4","last_reported":1685790282,"current_range_meters":1200,"station_id":"","pricing_plan_id":"free"},{"bike_id":"6352745e-55b4-47c1-9bd8-529139de2375","system_id":"levelo_inurba_marseille","lat":43.287154,"lon":5.399979,"is_reserved":false,"is_disabled":false,"rental_uris":{"android":"levelo://app?vid=6352745e-55b4-47c1-9bd8-529139de2375","ios":"levelo://app?vid=6352745e-55b4-47c1-9bd8-529139de2375"},"vehicle_type_id":"4","last_reported":1685790282,"current_range_meters":30000,"station_id":"ce4bho92rcd13ifvqh3g","pricing_plan_id":"free"},{"bike_id":"ac55249c-8ac5-42ee-8969-de13473adb5d","system_id":"levelo_inurba_marseille","lat":43.302008,"lon":5.394694,"is_reserved":false,"is_disabled":false,"rental_uris":{"android":"levelo://app?vid=ac55249c-8ac5-42ee-8969-de13473adb5d","ios":"levelo://app?vid=ac55249c-8ac5-42ee-8969-de13473adb5d"},"vehicle_type_id":"4","last_reported":1685790282,"current_range_meters":0,"station_id":"ce4bh0p2rcd13ifvqd70","pricing_plan_id":"free"},{"bike_id":"dbd59bb5-4546-46b0-a8dc-06c10e317f40","system_id":"levelo_inurba_marseille","lat":43.320045,"lon":5.415046,"is_reserved":false,"is_disabled":false,"rental_uris":{"android":"levelo://app?vid=dbd59bb5-4546-46b0-a8dc-06c10e317f40","ios":"levelo://app?vid=dbd59bb5-4546-46b0-a8dc-06c10e317f40"},"vehicle_type_id":"4","last_reported":1685790282,"current_range_meters":23200,"station_id":"ce4bhq92rcd13ifvqhkg","pricing_plan_id":"free"},{"bike_id":"a93aa331-25ec-4963-a25c-a7185eed5352","system_id":"levelo_inurba_marseille","lat":43.320045,"lon":5.415048,"is_reserved":false,"is_disabled":false,"rental_uris":{"android":"levelo://app?vid=a93aa331-25ec-4963-a25c-a7185eed5352","ios":"levelo://app?vid=a93aa331-25ec-4963-a25c-a7185eed5352"},"vehicle_type_id":"4","last_reported":1685790282,"current_range_meters":17200,"station_id":"ce4bhq92rcd13ifvqhkg","pricing_plan_id":"free"},{"bike_id":"28f1d5b0-1746-4d17-b680-743afb273d3b","system_id":"levelo_inurba_marseille","lat":43.320045,"lon":5.415048,"is_reserved":false,"is_disabled":false,"rental_uris":{"android":"levelo://app?vid=28f1d5b0-1746-4d17-b680-743afb273d3b","ios":"levelo://app?vid=28f1d5b0-1746-4d17-b680-743afb273d3b"},"vehicle_type_id":"4","last_reported":1685790282,"current_range_meters":30000,"station_id":"ce4bhq92rcd13ifvqhkg","pricing_plan_id":"free"},{"bike_id":"0f921170-929d-4b81-a8b2-3549653d2a44","system_id":"levelo_inurba_marseille","lat":43.320045,"lon":5.415048,"is_reserved":false,"is_disabled":false,"rental_uris":{"android":"levelo://app?vid=0f921170-929d-4b81-a8b2-3549653d2a44","ios":"levelo://app?vid=0f921170-929d-4b81-a8b2-3549653d2a44"},"vehicle_type_id":"4","last_reported":1685790282,"current_range_meters":31200,"station_id":"ce4bhq92rcd13ifvqhkg","pricing_plan_id":"free"},{"bike_id":"5356607e-b7fa-41f9-a4b1-e7147520a40e","system_id":"levelo_inurba_marseille","lat":43.320045,"lon":5.415048,"is_reserved":false,"is_disabled":false,"rental_uris":{"android":"levelo://app?vid=5356607e-b7fa-41f9-a4b1-e7147520a40e","ios":"levelo://app?vid=5356607e-b7fa-41f9-a4b1-e7147520a40e"},"vehicle_type_id":"4","last_reported":1685790282,"current_range_meters":29600,"station_id":"ce4bhq92rcd13ifvqhkg","pricing_plan_id":"free"},{"bike_id":"c4eb8084-6afb-41d2-ab97-47d64fa083cd","system_id":"levelo_inurba_marseille","lat":43.320045,"lon":5.415046,"is_reserved":false,"is_disabled":false,"rental_uris":{"android":"levelo://app?vid=c4eb8084-6afb-41d2-ab97-47d64fa083cd","ios":"levelo://app?vid=c4eb8084-6afb-41d2-ab97-47d64fa083cd"},"vehicle_type_id":"4","last_reported":1685790282,"current_range_meters":31200,"station_id":"ce4bhq92rcd13ifvqhkg","pricing_plan_id":"free"},{"bike_id":"627781b3-85b9-4b5a-a42d-73c01cf71b75","system_id":"levelo_inurba_marseille","lat":43.320045,"lon":5.415048,"is_reserved":false,"is_disabled":false,"rental_uris":{"android":"levelo://app?vid=627781b3-85b9-4b5a-a42d-73c01cf71b75","ios":"levelo://app?vid=627781b3-85b9-4b5a-a42d-73c01cf71b75"},"vehicle_type_id":"4","last_reported":1685790282,"current_range_meters":30000,"station_id":"ce4bhq92rcd13ifvqhkg","pricing_plan_id":"free"},{"bike_id":"f7c8ad79-38e0-4899-afb6-da48970f68a4","system_id":"levelo_inurba_marseille","lat":43.320045,"lon":5.415048,"is_reserved":false,"is_disabled":false,"rental_uris":{"android":"levelo://app?vid=f7c8ad79-38e0-4899-afb6-da48970f68a4","ios":"levelo://app?vid=f7c8ad79-38e0-4899-afb6-da48970f68a4"},"vehicle_type_id":"4","last_reported":1685790282,"current_range_meters":30000,"station_id":"ce4bhq92rcd13ifvqhkg","pricing_plan_id":"free"},{"bike_id":"97adafa0-a182-4540-aa86-5442f007b7d9","system_id":"levelo_inurba_marseille","lat":43.320045,"lon":5.415046,"is_reserved":false,"is_disabled":false,"rental_uris":{"android":"levelo://app?vid=97adafa0-a182-4540-aa86-5442f007b7d9","ios":"levelo://app?vid=97adafa0-a182-4540-aa86-5442f007b7d9"},"vehicle_type_id":"4","last_reported":1685790282,"current_range_meters":30000,"station_id":"ce4bhq92rcd13ifvqhkg","pricing_plan_id":"free"},{"bike_id":"7e2be5c0-1b61-491e-a5a5-af72dae69ef4","system_id":"levelo_inurba_marseille","lat":43.320045,"lon":5.415046,"is_reserved":false,"is_disabled":false,"rental_uris":{"android":"levelo://app?vid=7e2be5c0-1b61-491e-a5a5-af72dae69ef4","ios":"levelo://app?vid=7e2be5c0-1b61-491e-a5a5-af72dae69ef4"},"vehicle_type_id":"4","last_reported":1685790282,"current_range_meters":31200,"station_id":"ce4bhq92rcd13ifvqhkg","pricing_plan_id":"free"},{"bike_id":"ba668688-909a-447e-8e69-f57bc92a084e","system_id":"levelo_inurba_marseille","lat":43.320045,"lon":5.415046,"is_reserved":false,"is_disabled":false,"rental_uris":{"android":"levelo://app?vid=ba668688-909a-447e-8e69-f57bc92a084e","ios":"levelo://app?vid=ba668688-909a-447e-8e69-f57bc92a084e"},"vehicle_type_id":"4","last_reported":1685790282,"current_range_meters":29600,"station_id":"ce4bhq92rcd13ifvqhkg","pricing_plan_id":"free"},{"bike_id":"3d91b7eb-66d6-4fc3-9a94-40dd26b8fe80","system_id":"levelo_inurba_marseille","lat":43.320045,"lon":5.415046,"is_reserved":false,"is_disabled":false,"rental_uris":{"android":"levelo://app?vid=3d91b7eb-66d6-4fc3-9a94-40dd26b8fe80","ios":"levelo://app?vid=3d91b7eb-66d6-4fc3-9a94-40dd26b8fe80"},"vehicle_type_id":"4","last_reported":1685790282,"current_range_meters":28000,"station_id":"ce4bhq92rcd13ifvqhkg","pricing_plan_id":"free"},{"bike_id":"9a004789-ca18-4ab7-be4f-4ed518c2b6a2","system_id":"levelo_inurba_marseille","lat":43.325549,"lon":5.41417,"is_reserved":false,"is_disabled":false,"rental_uris":{"android":"levelo://app?vid=9a004789-ca18-4ab7-be4f-4ed518c2b6a2","ios":"levelo://app?vid=9a004789-ca18-4ab7-be4f-4ed518c2b6a2"},"vehicle_type_id":"4","last_reported":1685790282,"current_range_meters":24400,"station_id":"","pricing_plan_id":"free"},{"bike_id":"a2721c9b-6ce3-4053-b6bd-4df2e768b872","system_id":"levelo_inurba_marseille","lat":43.32541,"lon":5.41426,"is_reserved":false,"is_disabled":false,"rental_uris":{"android":"levelo://app?vid=a2721c9b-6ce3-4053-b6bd-4df2e768b872","ios":"levelo://app?vid=a2721c9b-6ce3-4053-b6bd-4df2e768b872"},"vehicle_type_id":"4","last_reported":1685790282,"current_range_meters":20000,"station_id":"ce4bhq12rcd13ifvqhhg","pricing_plan_id":"free"},{"bike_id":"6acd5374-0e06-47e1-a278-2880caab3e19","system_id":"levelo_inurba_marseille","lat":43.27618,"lon":5.361009,"is_reserved":false,"is_disabled":false,"rental_uris":{"android":"levelo://app?vid=6acd5374-0e06-47e1-a278-2880caab3e19","ios":"levelo://app?vid=6acd5374-0e06-47e1-a278-2880caab3e19"},"vehicle_type_id":"4","last_reported":1685790282,"current_range_meters":11600,"station_id":"ce4bgj92rcd13ifvqbe0","pricing_plan_id":"free"},{"bike_id":"864fd1e5-5a0b-46df-a0ce-3148b9668500","system_id":"levelo_inurba_marseille","lat":43.28078,"lon":5.3966,"is_reserved":false,"is_disabled":false,"rental_uris":{"android":"levelo://app?vid=864fd1e5-5a0b-46df-a0ce-3148b9668500","ios":"levelo://app?vid=864fd1e5-5a0b-46df-a0ce-3148b9668500"},"vehicle_type_id":"4","last_reported":1685790282,"current_range_meters":31200,"station_id":"ce4bho12rcd13ifvqh2g","pricing_plan_id":"free"},{"bike_id":"185cd24d-23f0-414f-b128-022ee91036b5","system_id":"levelo_inurba_marseille","lat":43.278401,"lon":5.392152,"is_reserved":false,"is_disabled":false,"rental_uris":{"android":"levelo://app?vid=185cd24d-23f0-414f-b128-022ee91036b5","ios":"levelo://app?vid=185cd24d-23f0-414f-b128-022ee91036b5"},"vehicle_type_id":"4","last_reported":1685790282,"current_range_meters":22800,"station_id":"ce4bhjp2rcd13ifvqga0","pricing_plan_id":"free"},{"bike_id":"b29d1e70-adf8-4d62-acdd-6feb8a6a2a5a","system_id":"levelo_inurba_marseille","lat":43.278401,"lon":5.392152,"is_reserved":false,"is_disabled":false,"rental_uris":{"android":"levelo://app?vid=b29d1e70-adf8-4d62-acdd-6feb8a6a2a5a","ios":"levelo://app?vid=b29d1e70-adf8-4d62-acdd-6feb8a6a2a5a"},"vehicle_type_id":"4","last_reported":1685790282,"current_range_meters":9200,"station_id":"ce4bhjp2rcd13ifvqga0","pricing_plan_id":"free"},{"bike_id":"06538980-c887-4f73-a2df-b6985c28bed8","system_id":"levelo_inurba_marseille","lat":43.27373,"lon":5.36261,"is_reserved":false,"is_disabled":false,"rental_uris":{"android":"levelo://app?vid=06538980-c887-4f73-a2df-b6985c28bed8","ios":"levelo://app?vid=06538980-c887-4f73-a2df-b6985c28bed8"},"vehicle_type_id":"4","last_reported":1685790282,"current_range_meters":20400,"station_id":"ce4bhbh2rcd13ifvqeo0","pricing_plan_id":"free"},{"bike_id":"1acfe285-9c4f-460f-ab70-7c5b5f9d387e","system_id":"levelo_inurba_marseille","lat":43.27372,"lon":5.36262,"is_reserved":false,"is_disabled":false,"rental_uris":{"android":"levelo://app?vid=1acfe285-9c4f-460f-ab70-7c5b5f9d387e","ios":"levelo://app?vid=1acfe285-9c4f-460f-ab70-7c5b5f9d387e"},"vehicle_type_id":"4","last_reported":1685790282,"current_range_meters":20800,"station_id":"ce4bhbh2rcd13ifvqeo0","pricing_plan_id":"free"},{"bike_id":"426ea675-c1a1-460f-93c5-41b23d446fdd","system_id":"levelo_inurba_marseille","lat":43.27372,"lon":5.36261,"is_reserved":false,"is_disabled":false,"rental_uris":{"android":"levelo://app?vid=426ea675-c1a1-460f-93c5-41b23d446fdd","ios":"levelo://app?vid=426ea675-c1a1-460f-93c5-41b23d446fdd"},"vehicle_type_id":"4","last_reported":1685790282,"current_range_meters":28400,"station_id":"ce4bhbh2rcd13ifvqeo0","pricing_plan_id":"free"},{"bike_id":"8cd701cf-1da4-478d-babb-3fcd1a55f390","system_id":"levelo_inurba_marseille","lat":43.273613,"lon":5.362705,"is_reserved":false,"is_disabled":false,"rental_uris":{"android":"levelo://app?vid=8cd701cf-1da4-478d-babb-3fcd1a55f390","ios":"levelo://app?vid=8cd701cf-1da4-478d-babb-3fcd1a55f390"},"vehicle_type_id":"4","last_reported":1685790282,"current_range_meters":25600,"station_id":"ce4bhbh2rcd13ifvqeo0","pricing_plan_id":"free"},{"bike_id":"070107d1-c0b8-46e3-9c12-ea004bb2c0a2","system_id":"levelo_inurba_marseille","lat":43.276771,"lon":5.388799,"is_reserved":false,"is_disabled":false,"rental_uris":{"android":"levelo://app?vid=070107d1-c0b8-46e3-9c12-ea004bb2c0a2","ios":"levelo://app?vid=070107d1-c0b8-46e3-9c12-ea004bb2c0a2"},"vehicle_type_id":"4","last_reported":1685790282,"current_range_meters":21600,"station_id":"ce4bhi12rcd13ifvqfo0","pricing_plan_id":"free"},{"bike_id":"3f2d0e1b-78f3-4481-a48e-41fa5412d825","system_id":"levelo_inurba_marseille","lat":43.317121,"lon":5.423936,"is_reserved":false,"is_disabled":false,"rental_uris":{"android":"levelo://app?vid=3f2d0e1b-78f3-4481-a48e-41fa5412d825","ios":"levelo://app?vid=3f2d0e1b-78f3-4481-a48e-41fa5412d825"},"vehicle_type_id":"4","last_reported":1685790282,"current_range_meters":28800,"station_id":"ce4bhp92rcd13ifvqhbg","pricing_plan_id":"free"},{"bike_id":"9db9545d-f63d-42be-a674-9c25625f916b","system_id":"levelo_inurba_marseille","lat":43.29395,"lon":5.41918,"is_reserved":false,"is_disabled":false,"rental_uris":{"android":"levelo://app?vid=9db9545d-f63d-42be-a674-9c25625f916b","ios":"levelo://app?vid=9db9545d-f63d-42be-a674-9c25625f916b"},"vehicle_type_id":"4","last_reported":1685790282,"current_range_meters":12800,"station_id":"","pricing_plan_id":"free"},{"bike_id":"833ab6f0-1c6a-4517-b3cd-121e4e4af0ad","system_id":"levelo_inurba_marseille","lat":43.273129,"lon":5.390725,"is_reserved":false,"is_disabled":false,"rental_uris":{"android":"levelo://app?vid=833ab6f0-1c6a-4517-b3cd-121e4e4af0ad","ios":"levelo://app?vid=833ab6f0-1c6a-4517-b3cd-121e4e4af0ad"},"vehicle_type_id":"4","last_reported":1685790282,"current_range_meters":10400,"station_id":"ce4bhgp2rcd13ifvqfe0","pricing_plan_id":"free"},{"bike_id":"382af0fb-5eb9-4879-ac9c-476da2f871ce","system_id":"levelo_inurba_marseille","lat":43.273129,"lon":5.390725,"is_reserved":false,"is_disabled":false,"rental_uris":{"android":"levelo://app?vid=382af0fb-5eb9-4879-ac9c-476da2f871ce","ios":"levelo://app?vid=382af0fb-5eb9-4879-ac9c-476da2f871ce"},"vehicle_type_id":"4","last_reported":1685790282,"current_range_meters":10400,"station_id":"ce4bhgp2rcd13ifvqfe0","pricing_plan_id":"free"},{"bike_id":"382e20b3-84eb-46ab-955e-3a7e360c0028","system_id":"levelo_inurba_marseille","lat":43.304096,"lon":5.425385,"is_reserved":false,"is_disabled":false,"rental_uris":{"android":"levelo://app?vid=382e20b3-84eb-46ab-955e-3a7e360c0028","ios":"levelo://app?vid=382e20b3-84eb-46ab-955e-3a7e360c0028"},"vehicle_type_id":"4","last_reported":1685790282,"current_range_meters":13200,"station_id":"ce4bhoh2rcd13ifvqh6g","pricing_plan_id":"free"},{"bike_id":"08eb76b4-3cbd-487c-878e-a508aa9bab8b","system_id":"levelo_inurba_marseille","lat":43.304096,"lon":5.425385,"is_reserved":false,"is_disabled":false,"rental_uris":{"android":"levelo://app?vid=08eb76b4-3cbd-487c-878e-a508aa9bab8b","ios":"levelo://app?vid=08eb76b4-3cbd-487c-878e-a508aa9bab8b"},"vehicle_type_id":"4","last_reported":1685790282,"current_range_meters":24000,"station_id":"ce4bhoh2rcd13ifvqh6g","pricing_plan_id":"free"},{"bike_id":"91a4b6f9-e55e-41e1-8851-839f96666dea","system_id":"levelo_inurba_marseille","lat":43.304096,"lon":5.425385,"is_reserved":false,"is_disabled":false,"rental_uris":{"android":"levelo://app?vid=91a4b6f9-e55e-41e1-8851-839f96666dea","ios":"levelo://app?vid=91a4b6f9-e55e-41e1-8851-839f96666dea"},"vehicle_type_id":"4","last_reported":1685790282,"current_range_meters":31200,"station_id":"ce4bhoh2rcd13ifvqh6g","pricing_plan_id":"free"},{"bike_id":"ab57ae0b-649d-493a-9a20-8cc6a940b1ae","system_id":"levelo_inurba_marseille","lat":43.295523,"lon":5.422926,"is_reserved":false,"is_disabled":false,"rental_uris":{"android":"levelo://app?vid=ab57ae0b-649d-493a-9a20-8cc6a940b1ae","ios":"levelo://app?vid=ab57ae0b-649d-493a-9a20-8cc6a940b1ae"},"vehicle_type_id":"4","last_reported":1685790282,"current_range_meters":22000,"station_id":"ce4bhph2rcd13ifvqhdg","pricing_plan_id":"free"},{"bike_id":"fba9ec8b-9f07-439a-a38e-a7fec1a281a7","system_id":"levelo_inurba_marseille","lat":43.295523,"lon":5.422926,"is_reserved":false,"is_disabled":false,"rental_uris":{"android":"levelo://app?vid=fba9ec8b-9f07-439a-a38e-a7fec1a281a7","ios":"levelo://app?vid=fba9ec8b-9f07-439a-a38e-a7fec1a281a7"},"vehicle_type_id":"4","last_reported":1685790282,"current_range_meters":15600,"station_id":"ce4bhph2rcd13ifvqhdg","pricing_plan_id":"free"},{"bike_id":"9562676e-89b1-4660-ba78-654b7379626d","system_id":"levelo_inurba_marseille","lat":43.2693,"lon":5.38917,"is_reserved":false,"is_disabled":false,"rental_uris":{"android":"levelo://app?vid=9562676e-89b1-4660-ba78-654b7379626d","ios":"levelo://app?vid=9562676e-89b1-4660-ba78-654b7379626d"},"vehicle_type_id":"4","last_reported":1685790282,"current_range_meters":12400,"station_id":"ce4bhhh2rcd13ifvqfl0","pricing_plan_id":"free"},{"bike_id":"603b0ab3-d8f3-41ac-98c0-4d261da05af0","system_id":"levelo_inurba_marseille","lat":43.265714,"lon":5.372891,"is_reserved":false,"is_disabled":false,"rental_uris":{"android":"levelo://app?vid=603b0ab3-d8f3-41ac-98c0-4d261da05af0","ios":"levelo://app?vid=603b0ab3-d8f3-41ac-98c0-4d261da05af0"},"vehicle_type_id":"4","last_reported":1685790282,"current_range_meters":7600,"station_id":"ce4bhg12rcd13ifvqf70","pricing_plan_id":"free"},{"bike_id":"13c5750c-ab02-4b84-aaaf-438240a826ea","system_id":"levelo_inurba_marseille","lat":43.265714,"lon":5.372891,"is_reserved":false,"is_disabled":false,"rental_uris":{"android":"levelo://app?vid=13c5750c-ab02-4b84-aaaf-438240a826ea","ios":"levelo://app?vid=13c5750c-ab02-4b84-aaaf-438240a826ea"},"vehicle_type_id":"4","last_reported":1685790282,"current_range_meters":28400,"station_id":"ce4bhg12rcd13ifvqf70","pricing_plan_id":"free"},{"bike_id":"f72dd824-2076-4fd6-abe0-1e8d34bffee2","system_id":"levelo_inurba_marseille","lat":43.265714,"lon":5.372891,"is_reserved":false,"is_disabled":false,"rental_uris":{"android":"levelo://app?vid=f72dd824-2076-4fd6-abe0-1e8d34bffee2","ios":"levelo://app?vid=f72dd824-2076-4fd6-abe0-1e8d34bffee2"},"vehicle_type_id":"4","last_reported":1685790282,"current_range_meters":1600,"station_id":"ce4bhg12rcd13ifvqf70","pricing_plan_id":"free"},{"bike_id":"823b21ee-310e-448e-ab34-3e6075947ad4","system_id":"levelo_inurba_marseille","lat":43.265714,"lon":5.372891,"is_reserved":false,"is_disabled":false,"rental_uris":{"android":"levelo://app?vid=823b21ee-310e-448e-ab34-3e6075947ad4","ios":"levelo://app?vid=823b21ee-310e-448e-ab34-3e6075947ad4"},"vehicle_type_id":"4","last_reported":1685790282,"current_range_meters":12000,"station_id":"ce4bhg12rcd13ifvqf70","pricing_plan_id":"free"},{"bike_id":"74e0eff9-31f4-4073-96fa-fee0f9694c20","system_id":"levelo_inurba_marseille","lat":43.26554,"lon":5.37283,"is_reserved":false,"is_disabled":false,"rental_uris":{"android":"levelo://app?vid=74e0eff9-31f4-4073-96fa-fee0f9694c20","ios":"levelo://app?vid=74e0eff9-31f4-4073-96fa-fee0f9694c20"},"vehicle_type_id":"4","last_reported":1685790282,"current_range_meters":8000,"station_id":"","pricing_plan_id":"free"},{"bike_id":"1364b133-d459-404e-a27a-d5a600f187e9","system_id":"levelo_inurba_marseille","lat":43.265714,"lon":5.372891,"is_reserved":false,"is_disabled":false,"rental_uris":{"android":"levelo://app?vid=1364b133-d459-404e-a27a-d5a600f187e9","ios":"levelo://app?vid=1364b133-d459-404e-a27a-d5a600f187e9"},"vehicle_type_id":"4","last_reported":1685790282,"current_range_meters":9200,"station_id":"ce4bhg12rcd13ifvqf70","pricing_plan_id":"free"},{"bike_id":"477c9b24-a1bd-4af2-9e3a-7a10b9af13d1","system_id":"levelo_inurba_marseille","lat":43.31716,"lon":5.43308,"is_reserved":false,"is_disabled":false,"rental_uris":{"android":"levelo://app?vid=477c9b24-a1bd-4af2-9e3a-7a10b9af13d1","ios":"levelo://app?vid=477c9b24-a1bd-4af2-9e3a-7a10b9af13d1"},"vehicle_type_id":"4","last_reported":1685790282,"current_range_meters":0,"station_id":"","pricing_plan_id":"free"},{"bike_id":"0320316a-d28c-4622-b2b6-4537320022f9","system_id":"levelo_inurba_marseille","lat":43.27996,"lon":5.416624,"is_reserved":false,"is_disabled":false,"rental_uris":{"android":"levelo://app?vid=0320316a-d28c-4622-b2b6-4537320022f9","ios":"levelo://app?vid=0320316a-d28c-4622-b2b6-4537320022f9"},"vehicle_type_id":"4","last_reported":1685790282,"current_range_meters":15600,"station_id":"ce4bho12rcd13ifvqh1g","pricing_plan_id":"free"},{"bike_id":"5331bc0e-ac4f-48b2-b87b-d185d402bcc8","system_id":"levelo_inurba_marseille","lat":43.27996,"lon":5.416624,"is_reserved":false,"is_disabled":false,"rental_uris":{"android":"levelo://app?vid=5331bc0e-ac4f-48b2-b87b-d185d402bcc8","ios":"levelo://app?vid=5331bc0e-ac4f-48b2-b87b-d185d402bcc8"},"vehicle_type_id":"4","last_reported":1685790282,"current_range_meters":20400,"station_id":"ce4bho12rcd13ifvqh1g","pricing_plan_id":"free"},{"bike_id":"26e1ac57-a65a-48de-b4e4-bcfc0b364a7a","system_id":"levelo_inurba_marseille","lat":43.30796,"lon":5.43527,"is_reserved":false,"is_disabled":false,"rental_uris":{"android":"levelo://app?vid=26e1ac57-a65a-48de-b4e4-bcfc0b364a7a","ios":"levelo://app?vid=26e1ac57-a65a-48de-b4e4-bcfc0b364a7a"},"vehicle_type_id":"4","last_reported":1685790282,"current_range_meters":3200,"station_id":"","pricing_plan_id":"free"},{"bike_id":"fd27159c-7901-4770-9eba-5d197e12fa1a","system_id":"levelo_inurba_marseille","lat":43.261782,"lon":5.374515,"is_reserved":false,"is_disabled":false,"rental_uris":{"android":"levelo://app?vid=fd27159c-7901-4770-9eba-5d197e12fa1a","ios":"levelo://app?vid=fd27159c-7901-4770-9eba-5d197e12fa1a"},"vehicle_type_id":"4","last_reported":1685790282,"current_range_meters":22800,"station_id":"ce4bhgp2rcd13ifvqfc0","pricing_plan_id":"free"},{"bike_id":"5bdf6106-b90f-4c9f-9545-b2a83a708576","system_id":"levelo_inurba_marseille","lat":43.261782,"lon":5.374515,"is_reserved":false,"is_disabled":false,"rental_uris":{"android":"levelo://app?vid=5bdf6106-b90f-4c9f-9545-b2a83a708576","ios":"levelo://app?vid=5bdf6106-b90f-4c9f-9545-b2a83a708576"},"vehicle_type_id":"4","last_reported":1685790282,"current_range_meters":22400,"station_id":"ce4bhgp2rcd13ifvqfc0","pricing_plan_id":"free"},{"bike_id":"2d194742-f1c2-43b8-a5c6-1b4605dad31a","system_id":"levelo_inurba_marseille","lat":43.26189,"lon":5.37434,"is_reserved":false,"is_disabled":false,"rental_uris":{"android":"levelo://app?vid=2d194742-f1c2-43b8-a5c6-1b4605dad31a","ios":"levelo://app?vid=2d194742-f1c2-43b8-a5c6-1b4605dad31a"},"vehicle_type_id":"4","last_reported":1685790282,"current_range_meters":31200,"station_id":"ce4bhgp2rcd13ifvqfc0","pricing_plan_id":"free"},{"bike_id":"530ae0ba-8d25-4894-86e0-ae4d63f92857","system_id":"levelo_inurba_marseille","lat":43.261782,"lon":5.374515,"is_reserved":false,"is_disabled":false,"rental_uris":{"android":"levelo://app?vid=530ae0ba-8d25-4894-86e0-ae4d63f92857","ios":"levelo://app?vid=530ae0ba-8d25-4894-86e0-ae4d63f92857"},"vehicle_type_id":"4","last_reported":1685790282,"current_range_meters":20400,"station_id":"ce4bhgp2rcd13ifvqfc0","pricing_plan_id":"free"},{"bike_id":"a83e2618-0e6d-43b8-baf4-c7930c686ab3","system_id":"levelo_inurba_marseille","lat":43.26189,"lon":5.37451,"is_reserved":false,"is_disabled":false,"rental_uris":{"android":"levelo://app?vid=a83e2618-0e6d-43b8-baf4-c7930c686ab3","ios":"levelo://app?vid=a83e2618-0e6d-43b8-baf4-c7930c686ab3"},"vehicle_type_id":"4","last_reported":1685790282,"current_range_meters":16000,"station_id":"","pricing_plan_id":"free"},{"bike_id":"eccae3b2-bdf7-4c97-b786-93ee7e43adeb","system_id":"levelo_inurba_marseille","lat":43.261782,"lon":5.374515,"is_reserved":false,"is_disabled":false,"rental_uris":{"android":"levelo://app?vid=eccae3b2-bdf7-4c97-b786-93ee7e43adeb","ios":"levelo://app?vid=eccae3b2-bdf7-4c97-b786-93ee7e43adeb"},"vehicle_type_id":"4","last_reported":1685790282,"current_range_meters":31200,"station_id":"ce4bhgp2rcd13ifvqfc0","pricing_plan_id":"free"},{"bike_id":"70649199-dcf2-47bb-8802-0a80307f5d19","system_id":"levelo_inurba_marseille","lat":43.31713,"lon":5.43706,"is_reserved":false,"is_disabled":false,"rental_uris":{"android":"levelo://app?vid=70649199-dcf2-47bb-8802-0a80307f5d19","ios":"levelo://app?vid=70649199-dcf2-47bb-8802-0a80307f5d19"},"vehicle_type_id":"4","last_reported":1685790282,"current_range_meters":16000,"station_id":"ce4bhp92rcd13ifvqhcg","pricing_plan_id":"free"},{"bike_id":"a63916e6-8335-4b25-9de7-f48ab4c7e668","system_id":"levelo_inurba_marseille","lat":43.262012,"lon":5.379307,"is_reserved":false,"is_disabled":false,"rental_uris":{"android":"levelo://app?vid=a63916e6-8335-4b25-9de7-f48ab4c7e668","ios":"levelo://app?vid=a63916e6-8335-4b25-9de7-f48ab4c7e668"},"vehicle_type_id":"4","last_reported":1685790282,"current_range_meters":29200,"station_id":"ce4bhjp2rcd13ifvqg90","pricing_plan_id":"free"},{"bike_id":"dd7ed2a8-67f8-419d-aca2-9a84156eea61","system_id":"levelo_inurba_marseille","lat":43.262012,"lon":5.379307,"is_reserved":false,"is_disabled":false,"rental_uris":{"android":"levelo://app?vid=dd7ed2a8-67f8-419d-aca2-9a84156eea61","ios":"levelo://app?vid=dd7ed2a8-67f8-419d-aca2-9a84156eea61"},"vehicle_type_id":"4","last_reported":1685790282,"current_range_meters":15200,"station_id":"ce4bhjp2rcd13ifvqg90","pricing_plan_id":"free"},{"bike_id":"b5727203-5352-4e9b-a189-6e709b764b99","system_id":"levelo_inurba_marseille","lat":43.262012,"lon":5.379307,"is_reserved":false,"is_disabled":false,"rental_uris":{"android":"levelo://app?vid=b5727203-5352-4e9b-a189-6e709b764b99","ios":"levelo://app?vid=b5727203-5352-4e9b-a189-6e709b764b99"},"vehicle_type_id":"4","last_reported":1685790282,"current_range_meters":31200,"station_id":"ce4bhjp2rcd13ifvqg90","pricing_plan_id":"free"},{"bike_id":"9be81cd2-b292-44aa-b5c9-712e6b97a755","system_id":"levelo_inurba_marseille","lat":43.267959,"lon":5.402687,"is_reserved":false,"is_disabled":false,"rental_uris":{"android":"levelo://app?vid=9be81cd2-b292-44aa-b5c9-712e6b97a755","ios":"levelo://app?vid=9be81cd2-b292-44aa-b5c9-712e6b97a755"},"vehicle_type_id":"4","last_reported":1685790282,"current_range_meters":26400,"station_id":"ce501612rcd8frsf0b60","pricing_plan_id":"free"},{"bike_id":"15e30c05-4798-4a6d-b319-7170a55d4c7d","system_id":"levelo_inurba_marseille","lat":43.267959,"lon":5.402685,"is_reserved":false,"is_disabled":false,"rental_uris":{"android":"levelo://app?vid=15e30c05-4798-4a6d-b319-7170a55d4c7d","ios":"levelo://app?vid=15e30c05-4798-4a6d-b319-7170a55d4c7d"},"vehicle_type_id":"4","last_reported":1685790282,"current_range_meters":26000,"station_id":"ce501612rcd8frsf0b60","pricing_plan_id":"free"},{"bike_id":"38dff19e-f67e-473e-a844-22e5e662f998","system_id":"levelo_inurba_marseille","lat":43.260225,"lon":5.375455,"is_reserved":false,"is_disabled":false,"rental_uris":{"android":"levelo://app?vid=38dff19e-f67e-473e-a844-22e5e662f998","ios":"levelo://app?vid=38dff19e-f67e-473e-a844-22e5e662f998"},"vehicle_type_id":"4","last_reported":1685790282,"current_range_meters":22400,"station_id":"ce4bhgh2rcd13ifvqfa0","pricing_plan_id":"free"},{"bike_id":"2d08ea6e-4c65-4f7e-8e95-bc64a28391ae","system_id":"levelo_inurba_marseille","lat":43.2607,"lon":5.393983,"is_reserved":false,"is_disabled":false,"rental_uris":{"android":"levelo://app?vid=2d08ea6e-4c65-4f7e-8e95-bc64a28391ae","ios":"levelo://app?vid=2d08ea6e-4c65-4f7e-8e95-bc64a28391ae"},"vehicle_type_id":"4","last_reported":1685790282,"current_range_meters":800,"station_id":"ce4bhh92rcd13ifvqfj0","pricing_plan_id":"free"},{"bike_id":"83a4dd56-920b-4ff0-bfc1-95492ef971fd","system_id":"levelo_inurba_marseille","lat":43.2607,"lon":5.393983,"is_reserved":false,"is_disabled":false,"rental_uris":{"android":"levelo://app?vid=83a4dd56-920b-4ff0-bfc1-95492ef971fd","ios":"levelo://app?vid=83a4dd56-920b-4ff0-bfc1-95492ef971fd"},"vehicle_type_id":"4","last_reported":1685790282,"current_range_meters":9600,"station_id":"ce4bhh92rcd13ifvqfj0","pricing_plan_id":"free"},{"bike_id":"0eec2cab-1003-4b17-9d8e-c496bab99fac","system_id":"levelo_inurba_marseille","lat":43.2607,"lon":5.393983,"is_reserved":false,"is_disabled":false,"rental_uris":{"android":"levelo://app?vid=0eec2cab-1003-4b17-9d8e-c496bab99fac","ios":"levelo://app?vid=0eec2cab-1003-4b17-9d8e-c496bab99fac"},"vehicle_type_id":"4","last_reported":1685790282,"current_range_meters":22000,"station_id":"ce4bhh92rcd13ifvqfj0","pricing_plan_id":"free"},{"bike_id":"a19855ef-13bc-4c58-a180-125ee5e8dad7","system_id":"levelo_inurba_marseille","lat":43.2607,"lon":5.393983,"is_reserved":false,"is_disabled":false,"rental_uris":{"android":"levelo://app?vid=a19855ef-13bc-4c58-a180-125ee5e8dad7","ios":"levelo://app?vid=a19855ef-13bc-4c58-a180-125ee5e8dad7"},"vehicle_type_id":"4","last_reported":1685790282,"current_range_meters":22400,"station_id":"ce4bhh92rcd13ifvqfj0","pricing_plan_id":"free"},{"bike_id":"cb46d453-5c1b-4b83-b7cb-45f1a7565a46","system_id":"levelo_inurba_marseille","lat":43.2607,"lon":5.393983,"is_reserved":false,"is_disabled":false,"rental_uris":{"android":"levelo://app?vid=cb46d453-5c1b-4b83-b7cb-45f1a7565a46","ios":"levelo://app?vid=cb46d453-5c1b-4b83-b7cb-45f1a7565a46"},"vehicle_type_id":"4","last_reported":1685790282,"current_range_meters":31200,"station_id":"ce4bhh92rcd13ifvqfj0","pricing_plan_id":"free"},{"bike_id":"b7dfbe55-9256-43cb-9671-9796b989511b","system_id":"levelo_inurba_marseille","lat":43.2607,"lon":5.393983,"is_reserved":false,"is_disabled":false,"rental_uris":{"android":"levelo://app?vid=b7dfbe55-9256-43cb-9671-9796b989511b","ios":"levelo://app?vid=b7dfbe55-9256-43cb-9671-9796b989511b"},"vehicle_type_id":"4","last_reported":1685790282,"current_range_meters":29200,"station_id":"ce4bhh92rcd13ifvqfj0","pricing_plan_id":"free"},{"bike_id":"7d0db5e0-f19e-449e-a76b-99f25c68c38b","system_id":"levelo_inurba_marseille","lat":43.26076,"lon":5.39765,"is_reserved":false,"is_disabled":false,"rental_uris":{"android":"levelo://app?vid=7d0db5e0-f19e-449e-a76b-99f25c68c38b","ios":"levelo://app?vid=7d0db5e0-f19e-449e-a76b-99f25c68c38b"},"vehicle_type_id":"4","last_reported":1685790282,"current_range_meters":22800,"station_id":"ce4bhi12rcd13ifvqfq0","pricing_plan_id":"free"},{"bike_id":"0bf10381-360c-4acc-b538-8de72db9063f","system_id":"levelo_inurba_marseille","lat":43.25587,"lon":5.38214,"is_reserved":false,"is_disabled":false,"rental_uris":{"android":"levelo://app?vid=0bf10381-360c-4acc-b538-8de72db9063f","ios":"levelo://app?vid=0bf10381-360c-4acc-b538-8de72db9063f"},"vehicle_type_id":"4","last_reported":1685790282,"current_range_meters":26800,"station_id":"ce4bhih2rcd13ifvqfs0","pricing_plan_id":"free"},{"bike_id":"41ff6922-8186-4518-ae22-d14911e04c6c","system_id":"levelo_inurba_marseille","lat":43.255756,"lon":5.382303,"is_reserved":false,"is_disabled":false,"rental_uris":{"android":"levelo://app?vid=41ff6922-8186-4518-ae22-d14911e04c6c","ios":"levelo://app?vid=41ff6922-8186-4518-ae22-d14911e04c6c"},"vehicle_type_id":"4","last_reported":1685790282,"current_range_meters":16800,"station_id":"ce4bhih2rcd13ifvqfs0","pricing_plan_id":"free"},{"bike_id":"a923b380-4dbd-40a5-9327-6637f449d152","system_id":"levelo_inurba_marseille","lat":43.25577,"lon":5.38229,"is_reserved":false,"is_disabled":false,"rental_uris":{"android":"levelo://app?vid=a923b380-4dbd-40a5-9327-6637f449d152","ios":"levelo://app?vid=a923b380-4dbd-40a5-9327-6637f449d152"},"vehicle_type_id":"4","last_reported":1685790282,"current_range_meters":13600,"station_id":"ce4bhih2rcd13ifvqfs0","pricing_plan_id":"free"},{"bike_id":"1e036898-c9f1-4845-a355-0f25e5154a04","system_id":"levelo_inurba_marseille","lat":43.254947,"lon":5.376454,"is_reserved":false,"is_disabled":false,"rental_uris":{"android":"levelo://app?vid=1e036898-c9f1-4845-a355-0f25e5154a04","ios":"levelo://app?vid=1e036898-c9f1-4845-a355-0f25e5154a04"},"vehicle_type_id":"4","last_reported":1685790282,"current_range_meters":28000,"station_id":"ce4bhh12rcd13ifvqff0","pricing_plan_id":"free"},{"bike_id":"b071d950-8b7d-4e11-83a6-d038362f1918","system_id":"levelo_inurba_marseille","lat":43.254947,"lon":5.376454,"is_reserved":false,"is_disabled":false,"rental_uris":{"android":"levelo://app?vid=b071d950-8b7d-4e11-83a6-d038362f1918","ios":"levelo://app?vid=b071d950-8b7d-4e11-83a6-d038362f1918"},"vehicle_type_id":"4","last_reported":1685790282,"current_range_meters":400,"station_id":"ce4bhh12rcd13ifvqff0","pricing_plan_id":"free"},{"bike_id":"ccb659ca-d258-46c7-a80c-e030d7d10f16","system_id":"levelo_inurba_marseille","lat":43.254947,"lon":5.376454,"is_reserved":false,"is_disabled":false,"rental_uris":{"android":"levelo://app?vid=ccb659ca-d258-46c7-a80c-e030d7d10f16","ios":"levelo://app?vid=ccb659ca-d258-46c7-a80c-e030d7d10f16"},"vehicle_type_id":"4","last_reported":1685790282,"current_range_meters":25200,"station_id":"ce4bhh12rcd13ifvqff0","pricing_plan_id":"free"},{"bike_id":"dad2bcfc-eb50-4588-a1dd-ae9990604018","system_id":"levelo_inurba_marseille","lat":43.25498,"lon":5.37641,"is_reserved":false,"is_disabled":false,"rental_uris":{"android":"levelo://app?vid=dad2bcfc-eb50-4588-a1dd-ae9990604018","ios":"levelo://app?vid=dad2bcfc-eb50-4588-a1dd-ae9990604018"},"vehicle_type_id":"4","last_reported":1685790282,"current_range_meters":31200,"station_id":"ce4bhh12rcd13ifvqff0","pricing_plan_id":"free"},{"bike_id":"aceaab0b-3f02-4b8e-bf5a-50a73974bac9","system_id":"levelo_inurba_marseille","lat":43.25498,"lon":5.3765,"is_reserved":false,"is_disabled":false,"rental_uris":{"android":"levelo://app?vid=aceaab0b-3f02-4b8e-bf5a-50a73974bac9","ios":"levelo://app?vid=aceaab0b-3f02-4b8e-bf5a-50a73974bac9"},"vehicle_type_id":"4","last_reported":1685790282,"current_range_meters":31200,"station_id":"ce4bhh12rcd13ifvqff0","pricing_plan_id":"free"},{"bike_id":"d1e9680c-6093-425b-a218-57328e672993","system_id":"levelo_inurba_marseille","lat":43.25495,"lon":5.37644,"is_reserved":false,"is_disabled":false,"rental_uris":{"android":"levelo://app?vid=d1e9680c-6093-425b-a218-57328e672993","ios":"levelo://app?vid=d1e9680c-6093-425b-a218-57328e672993"},"vehicle_type_id":"4","last_reported":1685790282,"current_range_meters":15200,"station_id":"ce4bhh12rcd13ifvqff0","pricing_plan_id":"free"},{"bike_id":"5d413320-2d93-47df-9016-dd82954c80b5","system_id":"levelo_inurba_marseille","lat":43.25494,"lon":5.37649,"is_reserved":false,"is_disabled":false,"rental_uris":{"android":"levelo://app?vid=5d413320-2d93-47df-9016-dd82954c80b5","ios":"levelo://app?vid=5d413320-2d93-47df-9016-dd82954c80b5"},"vehicle_type_id":"4","last_reported":1685790282,"current_range_meters":28800,"station_id":"ce4bhh12rcd13ifvqff0","pricing_plan_id":"free"},{"bike_id":"f397ccce-b9ca-4ff1-a62c-b86c74ac9e11","system_id":"levelo_inurba_marseille","lat":43.25492,"lon":5.37649,"is_reserved":false,"is_disabled":false,"rental_uris":{"android":"levelo://app?vid=f397ccce-b9ca-4ff1-a62c-b86c74ac9e11","ios":"levelo://app?vid=f397ccce-b9ca-4ff1-a62c-b86c74ac9e11"},"vehicle_type_id":"4","last_reported":1685790282,"current_range_meters":31200,"station_id":"ce4bhh12rcd13ifvqff0","pricing_plan_id":"free"},{"bike_id":"3d37b66c-e401-403a-96fa-6fec70ad7f01","system_id":"levelo_inurba_marseille","lat":43.2549,"lon":5.37646,"is_reserved":false,"is_disabled":false,"rental_uris":{"android":"levelo://app?vid=3d37b66c-e401-403a-96fa-6fec70ad7f01","ios":"levelo://app?vid=3d37b66c-e401-403a-96fa-6fec70ad7f01"},"vehicle_type_id":"4","last_reported":1685790282,"current_range_meters":23600,"station_id":"ce4bhh12rcd13ifvqff0","pricing_plan_id":"free"},{"bike_id":"3c11a2e3-394a-4b6e-a639-1f10f54de409","system_id":"levelo_inurba_marseille","lat":43.27066,"lon":5.42277,"is_reserved":false,"is_disabled":false,"rental_uris":{"android":"levelo://app?vid=3c11a2e3-394a-4b6e-a639-1f10f54de409","ios":"levelo://app?vid=3c11a2e3-394a-4b6e-a639-1f10f54de409"},"vehicle_type_id":"4","last_reported":1685790282,"current_range_meters":28800,"station_id":"ce4bhk92rcd13ifvqgb0","pricing_plan_id":"free"},{"bike_id":"747e20c2-e111-474c-af82-d11dcc9fbff1","system_id":"levelo_inurba_marseille","lat":43.258658,"lon":5.398935,"is_reserved":false,"is_disabled":false,"rental_uris":{"android":"levelo://app?vid=747e20c2-e111-474c-af82-d11dcc9fbff1","ios":"levelo://app?vid=747e20c2-e111-474c-af82-d11dcc9fbff1"},"vehicle_type_id":"4","last_reported":1685790282,"current_range_meters":27600,"station_id":"ce4bhl92rcd13ifvqghg","pricing_plan_id":"free"},{"bike_id":"41c2590e-164d-41e9-b96b-588d43dd2f8b","system_id":"levelo_inurba_marseille","lat":43.28602,"lon":5.44209,"is_reserved":false,"is_disabled":false,"rental_uris":{"android":"levelo://app?vid=41c2590e-164d-41e9-b96b-588d43dd2f8b","ios":"levelo://app?vid=41c2590e-164d-41e9-b96b-588d43dd2f8b"},"vehicle_type_id":"4","last_reported":1685790282,"current_range_meters":8400,"station_id":"","pricing_plan_id":"free"},{"bike_id":"18664811-f316-44b3-9f62-08645d35df20","system_id":"levelo_inurba_marseille","lat":43.24812,"lon":5.37458,"is_reserved":false,"is_disabled":false,"rental_uris":{"android":"levelo://app?vid=18664811-f316-44b3-9f62-08645d35df20","ios":"levelo://app?vid=18664811-f316-44b3-9f62-08645d35df20"},"vehicle_type_id":"4","last_reported":1685790282,"current_range_meters":16400,"station_id":"ce4bhgh2rcd13ifvqfb0","pricing_plan_id":"free"},{"bike_id":"1c4648e0-3752-4f21-8235-4ff377d719cc","system_id":"levelo_inurba_marseille","lat":43.24811,"lon":5.37452,"is_reserved":false,"is_disabled":false,"rental_uris":{"android":"levelo://app?vid=1c4648e0-3752-4f21-8235-4ff377d719cc","ios":"levelo://app?vid=1c4648e0-3752-4f21-8235-4ff377d719cc"},"vehicle_type_id":"4","last_reported":1685790282,"current_range_meters":18800,"station_id":"ce4bhgh2rcd13ifvqfb0","pricing_plan_id":"free"},{"bike_id":"22701ec8-f4b6-4c58-9f19-92b833e9868e","system_id":"levelo_inurba_marseille","lat":43.24811,"lon":5.37455,"is_reserved":false,"is_disabled":false,"rental_uris":{"android":"levelo://app?vid=22701ec8-f4b6-4c58-9f19-92b833e9868e","ios":"levelo://app?vid=22701ec8-f4b6-4c58-9f19-92b833e9868e"},"vehicle_type_id":"4","last_reported":1685790282,"current_range_meters":4000,"station_id":"ce4bhgh2rcd13ifvqfb0","pricing_plan_id":"free"},{"bike_id":"a7eb5d95-9ece-4df9-b697-b471cb8c951d","system_id":"levelo_inurba_marseille","lat":43.24811,"lon":5.37462,"is_reserved":false,"is_disabled":false,"rental_uris":{"android":"levelo://app?vid=a7eb5d95-9ece-4df9-b697-b471cb8c951d","ios":"levelo://app?vid=a7eb5d95-9ece-4df9-b697-b471cb8c951d"},"vehicle_type_id":"4","last_reported":1685790282,"current_range_meters":25600,"station_id":"ce4bhgh2rcd13ifvqfb0","pricing_plan_id":"free"},{"bike_id":"4a227253-37fe-4db1-89d4-5c1a89148410","system_id":"levelo_inurba_marseille","lat":43.2479,"lon":5.374457,"is_reserved":false,"is_disabled":false,"rental_uris":{"android":"levelo://app?vid=4a227253-37fe-4db1-89d4-5c1a89148410","ios":"levelo://app?vid=4a227253-37fe-4db1-89d4-5c1a89148410"},"vehicle_type_id":"4","last_reported":1685790282,"current_range_meters":27600,"station_id":"ce4bhgh2rcd13ifvqfb0","pricing_plan_id":"free"},{"bike_id":"13e62143-d10e-4c13-9b2b-0c85e88da1a3","system_id":"levelo_inurba_marseille","lat":43.24808,"lon":5.37455,"is_reserved":false,"is_disabled":false,"rental_uris":{"android":"levelo://app?vid=13e62143-d10e-4c13-9b2b-0c85e88da1a3","ios":"levelo://app?vid=13e62143-d10e-4c13-9b2b-0c85e88da1a3"},"vehicle_type_id":"4","last_reported":1685790282,"current_range_meters":31200,"station_id":"ce4bhgh2rcd13ifvqfb0","pricing_plan_id":"free"},{"bike_id":"4705276d-e58a-4dd0-bb6d-8c6477d3670c","system_id":"levelo_inurba_marseille","lat":43.24807,"lon":5.3746,"is_reserved":false,"is_disabled":false,"rental_uris":{"android":"levelo://app?vid=4705276d-e58a-4dd0-bb6d-8c6477d3670c","ios":"levelo://app?vid=4705276d-e58a-4dd0-bb6d-8c6477d3670c"},"vehicle_type_id":"4","last_reported":1685790282,"current_range_meters":20800,"station_id":"ce4bhgh2rcd13ifvqfb0","pricing_plan_id":"free"},{"bike_id":"e9bc4b79-4be0-4fbc-a08d-149592dcbd43","system_id":"levelo_inurba_marseille","lat":43.24807,"lon":5.37461,"is_reserved":false,"is_disabled":false,"rental_uris":{"android":"levelo://app?vid=e9bc4b79-4be0-4fbc-a08d-149592dcbd43","ios":"levelo://app?vid=e9bc4b79-4be0-4fbc-a08d-149592dcbd43"},"vehicle_type_id":"4","last_reported":1685790282,"current_range_meters":14800,"station_id":"ce4bhgh2rcd13ifvqfb0","pricing_plan_id":"free"},{"bike_id":"e7d26445-7395-458b-ae8a-8015ed909bd8","system_id":"levelo_inurba_marseille","lat":43.2479,"lon":5.374457,"is_reserved":false,"is_disabled":false,"rental_uris":{"android":"levelo://app?vid=e7d26445-7395-458b-ae8a-8015ed909bd8","ios":"levelo://app?vid=e7d26445-7395-458b-ae8a-8015ed909bd8"},"vehicle_type_id":"4","last_reported":1685790282,"current_range_meters":12400,"station_id":"ce4bhgh2rcd13ifvqfb0","pricing_plan_id":"free"},{"bike_id":"8ee78d6a-2f8d-4898-a536-1f095cef5b20","system_id":"levelo_inurba_marseille","lat":43.2479,"lon":5.374457,"is_reserved":false,"is_disabled":false,"rental_uris":{"android":"levelo://app?vid=8ee78d6a-2f8d-4898-a536-1f095cef5b20","ios":"levelo://app?vid=8ee78d6a-2f8d-4898-a536-1f095cef5b20"},"vehicle_type_id":"4","last_reported":1685790282,"current_range_meters":19600,"station_id":"ce4bhgh2rcd13ifvqfb0","pricing_plan_id":"free"},{"bike_id":"e22f2e2f-13fd-4657-8d64-53819bcaa5fc","system_id":"levelo_inurba_marseille","lat":43.24806,"lon":5.3746,"is_reserved":false,"is_disabled":false,"rental_uris":{"android":"levelo://app?vid=e22f2e2f-13fd-4657-8d64-53819bcaa5fc","ios":"levelo://app?vid=e22f2e2f-13fd-4657-8d64-53819bcaa5fc"},"vehicle_type_id":"4","last_reported":1685790282,"current_range_meters":20800,"station_id":"ce4bhgh2rcd13ifvqfb0","pricing_plan_id":"free"},{"bike_id":"20327b7d-0716-4411-89de-f147e056857b","system_id":"levelo_inurba_marseille","lat":43.2479,"lon":5.374457,"is_reserved":false,"is_disabled":false,"rental_uris":{"android":"levelo://app?vid=20327b7d-0716-4411-89de-f147e056857b","ios":"levelo://app?vid=20327b7d-0716-4411-89de-f147e056857b"},"vehicle_type_id":"4","last_reported":1685790282,"current_range_meters":16000,"station_id":"ce4bhgh2rcd13ifvqfb0","pricing_plan_id":"free"},{"bike_id":"34cf4440-1b9f-433d-9734-09f665e2e4c2","system_id":"levelo_inurba_marseille","lat":43.2479,"lon":5.374457,"is_reserved":false,"is_disabled":false,"rental_uris":{"android":"levelo://app?vid=34cf4440-1b9f-433d-9734-09f665e2e4c2","ios":"levelo://app?vid=34cf4440-1b9f-433d-9734-09f665e2e4c2"},"vehicle_type_id":"4","last_reported":1685790282,"current_range_meters":31600,"station_id":"ce4bhgh2rcd13ifvqfb0","pricing_plan_id":"free"},{"bike_id":"5f5bb7c1-3908-4ade-8ed3-98fae7003389","system_id":"levelo_inurba_marseille","lat":43.2479,"lon":5.374457,"is_reserved":false,"is_disabled":false,"rental_uris":{"android":"levelo://app?vid=5f5bb7c1-3908-4ade-8ed3-98fae7003389","ios":"levelo://app?vid=5f5bb7c1-3908-4ade-8ed3-98fae7003389"},"vehicle_type_id":"4","last_reported":1685790282,"current_range_meters":20800,"station_id":"ce4bhgh2rcd13ifvqfb0","pricing_plan_id":"free"},{"bike_id":"ce1e7ae1-ddf7-45b5-ab7d-b1ee4b6d903e","system_id":"levelo_inurba_marseille","lat":43.24803,"lon":5.3745,"is_reserved":false,"is_disabled":false,"rental_uris":{"android":"levelo://app?vid=ce1e7ae1-ddf7-45b5-ab7d-b1ee4b6d903e","ios":"levelo://app?vid=ce1e7ae1-ddf7-45b5-ab7d-b1ee4b6d903e"},"vehicle_type_id":"4","last_reported":1685790282,"current_range_meters":26400,"station_id":"ce4bhgh2rcd13ifvqfb0","pricing_plan_id":"free"},{"bike_id":"aef77826-1634-40f2-bae2-1eded94fb058","system_id":"levelo_inurba_marseille","lat":43.2479,"lon":5.374457,"is_reserved":false,"is_disabled":false,"rental_uris":{"android":"levelo://app?vid=aef77826-1634-40f2-bae2-1eded94fb058","ios":"levelo://app?vid=aef77826-1634-40f2-bae2-1eded94fb058"},"vehicle_type_id":"4","last_reported":1685790282,"current_range_meters":23200,"station_id":"ce4bhgh2rcd13ifvqfb0","pricing_plan_id":"free"},{"bike_id":"e8623c74-1255-4680-98f9-da6484c494b6","system_id":"levelo_inurba_marseille","lat":43.2479,"lon":5.374457,"is_reserved":false,"is_disabled":false,"rental_uris":{"android":"levelo://app?vid=e8623c74-1255-4680-98f9-da6484c494b6","ios":"levelo://app?vid=e8623c74-1255-4680-98f9-da6484c494b6"},"vehicle_type_id":"4","last_reported":1685790282,"current_range_meters":29200,"station_id":"ce4bhgh2rcd13ifvqfb0","pricing_plan_id":"free"},{"bike_id":"62191012-a7e2-422a-9b6b-2c7b7e43e3f5","system_id":"levelo_inurba_marseille","lat":43.250966,"lon":5.395186,"is_reserved":false,"is_disabled":false,"rental_uris":{"android":"levelo://app?vid=62191012-a7e2-422a-9b6b-2c7b7e43e3f5","ios":"levelo://app?vid=62191012-a7e2-422a-9b6b-2c7b7e43e3f5"},"vehicle_type_id":"4","last_reported":1685790282,"current_range_meters":10800,"station_id":"ce4bhm12rcd13ifvqgkg","pricing_plan_id":"free"},{"bike_id":"d59cbc84-c3db-41fe-9be0-5d95a0882aed","system_id":"levelo_inurba_marseille","lat":43.250966,"lon":5.395186,"is_reserved":false,"is_disabled":false,"rental_uris":{"android":"levelo://app?vid=d59cbc84-c3db-41fe-9be0-5d95a0882aed","ios":"levelo://app?vid=d59cbc84-c3db-41fe-9be0-5d95a0882aed"},"vehicle_type_id":"4","last_reported":1685790282,"current_range_meters":31200,"station_id":"ce4bhm12rcd13ifvqgkg","pricing_plan_id":"free"},{"bike_id":"e26e50a7-5307-48d9-aa55-d4d812feb3ab","system_id":"levelo_inurba_marseille","lat":43.2479,"lon":5.374457,"is_reserved":false,"is_disabled":false,"rental_uris":{"android":"levelo://app?vid=e26e50a7-5307-48d9-aa55-d4d812feb3ab","ios":"levelo://app?vid=e26e50a7-5307-48d9-aa55-d4d812feb3ab"},"vehicle_type_id":"4","last_reported":1685790282,"current_range_meters":25200,"station_id":"ce4bhgh2rcd13ifvqfb0","pricing_plan_id":"free"},{"bike_id":"11e49ed9-d1c2-434e-a9d1-5deb6fe6567d","system_id":"levelo_inurba_marseille","lat":43.25102,"lon":5.403214,"is_reserved":false,"is_disabled":false,"rental_uris":{"android":"levelo://app?vid=11e49ed9-d1c2-434e-a9d1-5deb6fe6567d","ios":"levelo://app?vid=11e49ed9-d1c2-434e-a9d1-5deb6fe6567d"},"vehicle_type_id":"4","last_reported":1685790282,"current_range_meters":31200,"station_id":"ce4bhlh2rcd13ifvqgig","pricing_plan_id":"free"},{"bike_id":"7c41042d-6e8f-4be7-a36d-8637caa37d91","system_id":"levelo_inurba_marseille","lat":43.25102,"lon":5.403214,"is_reserved":false,"is_disabled":false,"rental_uris":{"android":"levelo://app?vid=7c41042d-6e8f-4be7-a36d-8637caa37d91","ios":"levelo://app?vid=7c41042d-6e8f-4be7-a36d-8637caa37d91"},"vehicle_type_id":"4","last_reported":1685790282,"current_range_meters":30400,"station_id":"ce4bhlh2rcd13ifvqgig","pricing_plan_id":"free"},{"bike_id":"0971b4bf-5fde-4c80-a867-3035a32429ea","system_id":"levelo_inurba_marseille","lat":43.25102,"lon":5.403214,"is_reserved":false,"is_disabled":false,"rental_uris":{"android":"levelo://app?vid=0971b4bf-5fde-4c80-a867-3035a32429ea","ios":"levelo://app?vid=0971b4bf-5fde-4c80-a867-3035a32429ea"},"vehicle_type_id":"4","last_reported":1685790282,"current_range_meters":20400,"station_id":"ce4bhlh2rcd13ifvqgig","pricing_plan_id":"free"},{"bike_id":"b0257db9-e2a1-4bd1-916a-41989d2f8f8e","system_id":"levelo_inurba_marseille","lat":43.25102,"lon":5.403214,"is_reserved":false,"is_disabled":false,"rental_uris":{"android":"levelo://app?vid=b0257db9-e2a1-4bd1-916a-41989d2f8f8e","ios":"levelo://app?vid=b0257db9-e2a1-4bd1-916a-41989d2f8f8e"},"vehicle_type_id":"4","last_reported":1685790282,"current_range_meters":31200,"station_id":"ce4bhlh2rcd13ifvqgig","pricing_plan_id":"free"},{"bike_id":"53702d69-b6d7-4a9e-a7d2-0f9bef37703b","system_id":"levelo_inurba_marseille","lat":43.25102,"lon":5.403214,"is_reserved":false,"is_disabled":false,"rental_uris":{"android":"levelo://app?vid=53702d69-b6d7-4a9e-a7d2-0f9bef37703b","ios":"levelo://app?vid=53702d69-b6d7-4a9e-a7d2-0f9bef37703b"},"vehicle_type_id":"4","last_reported":1685790282,"current_range_meters":31600,"station_id":"ce4bhlh2rcd13ifvqgig","pricing_plan_id":"free"},{"bike_id":"121d223b-86c3-419b-a060-e3f7a7afd231","system_id":"levelo_inurba_marseille","lat":43.25102,"lon":5.403214,"is_reserved":false,"is_disabled":false,"rental_uris":{"android":"levelo://app?vid=121d223b-86c3-419b-a060-e3f7a7afd231","ios":"levelo://app?vid=121d223b-86c3-419b-a060-e3f7a7afd231"},"vehicle_type_id":"4","last_reported":1685790282,"current_range_meters":31200,"station_id":"ce4bhlh2rcd13ifvqgig","pricing_plan_id":"free"},{"bike_id":"872ac5f0-31f9-4d22-86f5-59b79361f527","system_id":"levelo_inurba_marseille","lat":43.24652,"lon":5.38885,"is_reserved":false,"is_disabled":false,"rental_uris":{"android":"levelo://app?vid=872ac5f0-31f9-4d22-86f5-59b79361f527","ios":"levelo://app?vid=872ac5f0-31f9-4d22-86f5-59b79361f527"},"vehicle_type_id":"4","last_reported":1685790282,"current_range_meters":30400,"station_id":"ce4bhg12rcd13ifvqf60","pricing_plan_id":"free"},{"bike_id":"63dbc015-f08e-49e6-8a38-c617429fd1a3","system_id":"levelo_inurba_marseille","lat":43.24647,"lon":5.38886,"is_reserved":false,"is_disabled":false,"rental_uris":{"android":"levelo://app?vid=63dbc015-f08e-49e6-8a38-c617429fd1a3","ios":"levelo://app?vid=63dbc015-f08e-49e6-8a38-c617429fd1a3"},"vehicle_type_id":"4","last_reported":1685790282,"current_range_meters":24800,"station_id":"ce4bhg12rcd13ifvqf60","pricing_plan_id":"free"},{"bike_id":"e322b8c7-95ac-4538-b59e-7ecb14175fd5","system_id":"levelo_inurba_marseille","lat":43.24645,"lon":5.38892,"is_reserved":false,"is_disabled":false,"rental_uris":{"android":"levelo://app?vid=e322b8c7-95ac-4538-b59e-7ecb14175fd5","ios":"levelo://app?vid=e322b8c7-95ac-4538-b59e-7ecb14175fd5"},"vehicle_type_id":"4","last_reported":1685790282,"current_range_meters":26400,"station_id":"ce4bhg12rcd13ifvqf60","pricing_plan_id":"free"},{"bike_id":"90ec6158-08ad-4670-8a96-0a5e300cb0d7","system_id":"levelo_inurba_marseille","lat":43.24668,"lon":5.39177,"is_reserved":false,"is_disabled":false,"rental_uris":{"android":"levelo://app?vid=90ec6158-08ad-4670-8a96-0a5e300cb0d7","ios":"levelo://app?vid=90ec6158-08ad-4670-8a96-0a5e300cb0d7"},"vehicle_type_id":"4","last_reported":1685790282,"current_range_meters":11600,"station_id":"","pricing_plan_id":"free"},{"bike_id":"bec6f788-d5db-40e3-829f-1de87c95d4ea","system_id":"levelo_inurba_marseille","lat":43.24393,"lon":5.370609,"is_reserved":false,"is_disabled":false,"rental_uris":{"android":"levelo://app?vid=bec6f788-d5db-40e3-829f-1de87c95d4ea","ios":"levelo://app?vid=bec6f788-d5db-40e3-829f-1de87c95d4ea"},"vehicle_type_id":"4","last_reported":1685790282,"current_range_meters":30000,"station_id":"","pricing_plan_id":"free"},