{"last_updated":1770144109,"ttl":60,"version":"2.2","data":{"bikes":[{"bike_id":"ce52ad41-17ad-45b4-bd04-83c8a4be51dc","system_id":"levelo_inurba_marseille","lat":43.2619,"lon":5.37449,"is_reserved":false,"is_disabled":false,"rental_uris":{"android":"levelo://app?vid=ce52ad41-17ad-45b4-bd04-83c8a4be51dc","ios":"levelo://app?vid=ce52ad41-17ad-45b4-bd04-83c8a4be51dc"},"vehicle_type_id":"4","last_reported":1770144110,"current_range_meters":2800,"station_id":"ce4bhgp2rcd13ifvqfc0","pricing_plan_id":"cebpf4jnsgd1na2vs0mg"},{"bike_id":"624d5bee-f2c3-40d0-b588-40e5088533ae","system_id":"levelo_inurba_marseille","lat":43.27065,"lon":5.38304,"is_reserved":false,"is_disabled":false,"rental_uris":{"android":"levelo://app?vid=624d5bee-f2c3-40d0-b588-40e5088533ae","ios":"levelo://app?vid=624d5bee-f2c3-40d0-b588-40e5088533ae"},"vehicle_type_id":"4","last_reported":1770144110,"current_range_meters":2800,"station_id":"st_d3n2fo6cfp8s73cte1j0","pricing_plan_id":"cebpf4jnsgd1na2vs0mg"},{"bike_id":"dbfdf8a7-c189-49d0-8fdf-1fd513c9ac09","system_id":"levelo_inurba_marseille","lat":43.27057,"lon":5.38274,"is_reserved":false,"is_disabled":false,"rental_uris":{"android":"levelo://app?vid=dbfdf8a7-c189-49d0-8fdf-1fd513c9ac09","ios":"levelo://app?vid=dbfdf8a7-c189-49d0-8fdf-1fd513c9ac09"},"vehicle_type_id":"4","last_reported":1770144110,"current_range_meters":2800,"station_id":"st_d3n2fo6cfp8s73cte1j0","pricing_plan_id":"cebpf4jnsgd1na2vs0mg"},{"bike_id":"b3a2704d-aaad-4660-8a47-e6d5c434b1d4","system_id":"levelo_inurba_marseille","lat":43.301392,"lon":5.387843,"is_reserved":false,"is_disabled":false,"rental_uris":{"android":"levelo://app?vid=b3a2704d-aaad-4660-8a47-e6d5c434b1d4","ios":"levelo://app?vid=b3a2704d-aaad-4660-8a47-e6d5c434b1d4"},"vehicle_type_id":"4","last_reported":1770144110,"current_range_meters":2800,"station_id":"ce4bghh2rcd13ifvqb60","pricing_plan_id":"cebpf4jnsgd1na2vs0mg"},{"bike_id":"ee3c8b1e-97ff-406d-a180-fc586e84600e","system_id":"levelo_inurba_marseille","lat":43.26913,"lon":5.40243,"is_reserved":false,"is_disabled":false,"rental_uris":{"android":"levelo://app?vid=ee3c8b1e-97ff-406d-a180-fc586e84600e","ios":"levelo://app?vid=ee3c8b1e-97ff-406d-a180-fc586e84600e"},"vehicle_type_id":"4","last_reported":1770144110,"current_range_meters":2800,"station_id":"cjm6bp8fraef2m0cb0m0","pricing_plan_id":"cebpf4jnsgd1na2vs0mg"},{"bike_id":"7bed41f3-831e-4b17-9b1a-f4085fb99d5b","system_id":"levelo_inurba_marseille","lat":43.240833,"lon":5.37749,"is_reserved":false,"is_disabled":false,"rental_uris":{"android":"levelo://app?vid=7bed41f3-831e-4b17-9b1a-f4085fb99d5b","ios":"levelo://app?vid=7bed41f3-831e-4b17-9b1a-f4085fb99d5b"},"vehicle_type_id":"4","last_reported":1770144110,"current_range_meters":2800,"station_id":"ce4bhnp2rcd13ifvqgvg","pricing_plan_id":"cebpf4jnsgd1na2vs0mg"},{"bike_id":"c262c6f2-e7dc-4de6-822c-b1f7fa93288a","system_id":"levelo_inurba_marseille","lat":43.28277,"lon":5.35069,"is_reserved":false,"is_disabled":false,"rental_uris":{"android":"levelo://app?vid=c262c6f2-e7dc-4de6-822c-b1f7fa93288a","ios":"levelo://app?vid=c262c6f2-e7dc-4de6-822c-b1f7fa93288a"},"vehicle_type_id":"4","last_reported":1770144110,"current_range_meters":2800,"station_id":"ce4bhbp2rcd13ifvqerg","pricing_plan_id":"cebpf4jnsgd1na2vs0mg"},{"bike_id":"75324496-5325-4305-ba90-79b1a83a9485","system_id":"levelo_inurba_marseille","lat":43.24676,"lon":5.3813,"is_reserved":false,"is_disabled":false,"rental_uris":{"android":"levelo://app?vid=75324496-5325-4305-ba90-79b1a83a9485","ios":"levelo://app?vid=75324496-5325-4305-ba90-79b1a83a9485"},"vehicle_type_id":"4","last_reported":1770144110,"current_range_meters":2800,"station_id":"ce4bhih2rcd13ifvqfr0","pricing_plan_id":"cebpf4jnsgd1na2vs0mg"},{"bike_id":"225e9d09-83ee-4f1c-a930-a97429c83cb7","system_id":"levelo_inurba_marseille","lat":43.23187,"lon":5.3554,"is_reserved":false,"is_disabled":false,"rental_uris":{"android":"levelo://app?vid=225e9d09-83ee-4f1c-a930-a97429c83cb7","ios":"levelo://app?vid=225e9d09-83ee-4f1c-a930-a97429c83cb7"},"vehicle_type_id":"4","last_reported":1770144110,"current_range_meters":2800,"station_id":"ce4bhu92rcd13ifvqi70","pricing_plan_id":"cebpf4jnsgd1na2vs0mg"},{"bike_id":"6a131f0d-6128-445c-99a5-319bcf3a622a","system_id":"levelo_inurba_marseille","lat":43.2848,"lon":5.48406,"is_reserved":false,"is_disabled":false,"rental_uris":{"android":"levelo://app?vid=6a131f0d-6128-445c-99a5-319bcf3a622a","ios":"levelo://app?vid=6a131f0d-6128-445c-99a5-319bcf3a622a"},"vehicle_type_id":"4","last_reported":1770144110,"current_range_meters":2800,"station_id":"st_d3svhcjqgbts73a3dn0g","pricing_plan_id":"cebpf4jnsgd1na2vs0mg"},{"bike_id":"91604460-68c0-4492-894c-a238619d1f72","system_id":"levelo_inurba_marseille","lat":43.23198,"lon":5.35552,"is_reserved":false,"is_disabled":false,"rental_uris":{"android":"levelo://app?vid=91604460-68c0-4492-894c-a238619d1f72","ios":"levelo://app?vid=91604460-68c0-4492-894c-a238619d1f72"},"vehicle_type_id":"4","last_reported":1770144110,"current_range_meters":2800,"station_id":"ce4bhu92rcd13ifvqi70","pricing_plan_id":"cebpf4jnsgd1na2vs0mg"},{"bike_id":"186a1326-d130-487e-8f4a-1615df6cd0ab","system_id":"levelo_inurba_marseille","lat":43.27621,"lon":5.36102,"is_reserved":false,"is_disabled":false,"rental_uris":{"android":"levelo://app?vid=186a1326-d130-487e-8f4a-1615df6cd0ab","ios":"levelo://app?vid=186a1326-d130-487e-8f4a-1615df6cd0ab"},"vehicle_type_id":"4","last_reported":1770144110,"current_range_meters":2800,"station_id":"ce4bgj92rcd13ifvqbe0","pricing_plan_id":"cebpf4jnsgd1na2vs0mg"},{"bike_id":"af07bab7-e70f-4712-813a-d80d7647f558","system_id":"levelo_inurba_marseille","lat":43.24671,"lon":5.38149,"is_reserved":false,"is_disabled":false,"rental_uris":{"android":"levelo://app?vid=af07bab7-e70f-4712-813a-d80d7647f558","ios":"levelo://app?vid=af07bab7-e70f-4712-813a-d80d7647f558"},"vehicle_type_id":"4","last_reported":1770144110,"current_range_meters":3200,"station_id":"ce4bhih2rcd13ifvqfr0","pricing_plan_id":"cebpf4jnsgd1na2vs0mg"},{"bike_id":"ef8bc943-7429-4533-8603-fbd416ce18c0","system_id":"levelo_inurba_marseille","lat":43.30588,"lon":5.39354,"is_reserved":false,"is_disabled":false,"rental_uris":{"android":"levelo://app?vid=ef8bc943-7429-4533-8603-fbd416ce18c0","ios":"levelo://app?vid=ef8bc943-7429-4533-8603-fbd416ce18c0"},"vehicle_type_id":"4","last_reported":1770144110,"current_range_meters":3200,"station_id":"ce4bh0p2rcd13ifvqd80","pricing_plan_id":"cebpf4jnsgd1na2vs0mg"},{"bike_id":"8fc65fb1-9081-468b-b988-8f1c0039a5c9","system_id":"levelo_inurba_marseille","lat":43.28156,"lon":5.42636,"is_reserved":false,"is_disabled":false,"rental_uris":{"android":"levelo://app?vid=8fc65fb1-9081-468b-b988-8f1c0039a5c9","ios":"levelo://app?vid=8fc65fb1-9081-468b-b988-8f1c0039a5c9"},"vehicle_type_id":"4","last_reported":1770144110,"current_range_meters":3200,"station_id":"ce4bhnh2rcd13ifvqgug","pricing_plan_id":"cebpf4jnsgd1na2vs0mg"},{"bike_id":"40c5ac33-3eef-4c44-a016-78e58240094d","system_id":"levelo_inurba_marseille","lat":43.24677,"lon":5.38137,"is_reserved":false,"is_disabled":false,"rental_uris":{"android":"levelo://app?vid=40c5ac33-3eef-4c44-a016-78e58240094d","ios":"levelo://app?vid=40c5ac33-3eef-4c44-a016-78e58240094d"},"vehicle_type_id":"4","last_reported":1770144110,"current_range_meters":3200,"station_id":"ce4bhih2rcd13ifvqfr0","pricing_plan_id":"cebpf4jnsgd1na2vs0mg"},{"bike_id":"b22fe20e-b31a-45b3-85d7-e7226f45b2bd","system_id":"levelo_inurba_marseille","lat":43.21183,"lon":5.35085,"is_reserved":false,"is_disabled":false,"rental_uris":{"android":"levelo://app?vid=b22fe20e-b31a-45b3-85d7-e7226f45b2bd","ios":"levelo://app?vid=b22fe20e-b31a-45b3-85d7-e7226f45b2bd"},"vehicle_type_id":"4","last_reported":1770144110,"current_range_meters":3200,"station_id":"st_cvj6sg6p6f1abm77japg","pricing_plan_id":"cebpf4jnsgd1na2vs0mg"},{"bike_id":"ef88915d-adfc-4abc-8e44-7a2cf9256e5b","system_id":"levelo_inurba_marseille","lat":43.27955,"lon":5.4104,"is_reserved":false,"is_disabled":false,"rental_uris":{"android":"levelo://app?vid=ef88915d-adfc-4abc-8e44-7a2cf9256e5b","ios":"levelo://app?vid=ef88915d-adfc-4abc-8e44-7a2cf9256e5b"},"vehicle_type_id":"4","last_reported":1770144110,"current_range_meters":3200,"station_id":"ce4bhnp2rcd13ifvqh0g","pricing_plan_id":"cebpf4jnsgd1na2vs0mg"},{"bike_id":"965fe77e-2880-48ae-9b04-83329f901992","system_id":"levelo_inurba_marseille","lat":43.258663,"lon":5.398977,"is_reserved":false,"is_disabled":false,"rental_uris":{"android":"levelo://app?vid=965fe77e-2880-48ae-9b04-83329f901992","ios":"levelo://app?vid=965fe77e-2880-48ae-9b04-83329f901992"},"vehicle_type_id":"4","last_reported":1770144110,"current_range_meters":3200,"station_id":"ce4bhl92rcd13ifvqghg","pricing_plan_id":"cebpf4jnsgd1na2vs0mg"},{"bike_id":"5d686448-27cb-4c67-b413-49c4aaff83da","system_id":"levelo_inurba_marseille","lat":43.24953,"lon":5.40485,"is_reserved":false,"is_disabled":false,"rental_uris":{"android":"levelo://app?vid=5d686448-27cb-4c67-b413-49c4aaff83da","ios":"levelo://app?vid=5d686448-27cb-4c67-b413-49c4aaff83da"},"vehicle_type_id":"4","last_reported":1770144110,"current_range_meters":3200,"station_id":"st_d2ngiaodas8pm72gd1h0","pricing_plan_id":"cebpf4jnsgd1na2vs0mg"},{"bike_id":"8729bf9e-6474-42de-9275-d8a55b8a2074","system_id":"levelo_inurba_marseille","lat":43.26694,"lon":5.38262,"is_reserved":false,"is_disabled":false,"rental_uris":{"android":"levelo://app?vid=8729bf9e-6474-42de-9275-d8a55b8a2074","ios":"levelo://app?vid=8729bf9e-6474-42de-9275-d8a55b8a2074"},"vehicle_type_id":"4","last_reported":1770144110,"current_range_meters":3200,"station_id":"ce4bhg92rcd13ifvqf90","pricing_plan_id":"cebpf4jnsgd1na2vs0mg"},{"bike_id":"db58093f-19a7-4ba5-ba2e-e07ec475f4a4","system_id":"levelo_inurba_marseille","lat":43.30893,"lon":5.39652,"is_reserved":false,"is_disabled":false,"rental_uris":{"android":"levelo://app?vid=db58093f-19a7-4ba5-ba2e-e07ec475f4a4","ios":"levelo://app?vid=db58093f-19a7-4ba5-ba2e-e07ec475f4a4"},"vehicle_type_id":"4","last_reported":1770144110,"current_range_meters":3200,"station_id":"ce4bh012rcd13ifvqcv0","pricing_plan_id":"cebpf4jnsgd1na2vs0mg"},{"bike_id":"d3d23936-00fd-4b73-878c-fc355ef53982","system_id":"levelo_inurba_marseille","lat":43.30256,"lon":5.40082,"is_reserved":false,"is_disabled":false,"rental_uris":{"android":"levelo://app?vid=d3d23936-00fd-4b73-878c-fc355ef53982","ios":"levelo://app?vid=d3d23936-00fd-4b73-878c-fc355ef53982"},"vehicle_type_id":"4","last_reported":1770144110,"current_range_meters":3600,"station_id":"ce4bgvh2rcd13ifvqcs0","pricing_plan_id":"cebpf4jnsgd1na2vs0mg"},{"bike_id":"20d25b81-9c9e-4d69-b10b-5fd780f1ac06","system_id":"levelo_inurba_marseille","lat":43.23143,"lon":5.43701,"is_reserved":false,"is_disabled":false,"rental_uris":{"android":"levelo://app?vid=20d25b81-9c9e-4d69-b10b-5fd780f1ac06","ios":"levelo://app?vid=20d25b81-9c9e-4d69-b10b-5fd780f1ac06"},"vehicle_type_id":"4","last_reported":1770144110,"current_range_meters":3600,"station_id":"ce4bhmp2rcd13ifvqgog","pricing_plan_id":"cebpf4jnsgd1na2vs0mg"},{"bike_id":"47b77c99-28ab-408c-9369-7690d3b51990","system_id":"levelo_inurba_marseille","lat":43.23152,"lon":5.43715,"is_reserved":false,"is_disabled":false,"rental_uris":{"android":"levelo://app?vid=47b77c99-28ab-408c-9369-7690d3b51990","ios":"levelo://app?vid=47b77c99-28ab-408c-9369-7690d3b51990"},"vehicle_type_id":"4","last_reported":1770144110,"current_range_meters":3600,"station_id":"ce4bhmp2rcd13ifvqgog","pricing_plan_id":"cebpf4jnsgd1na2vs0mg"},{"bike_id":"c5132404-8c0d-452e-aae5-9a7307b1b403","system_id":"levelo_inurba_marseille","lat":43.28476,"lon":5.38452,"is_reserved":false,"is_disabled":false,"rental_uris":{"android":"levelo://app?vid=c5132404-8c0d-452e-aae5-9a7307b1b403","ios":"levelo://app?vid=c5132404-8c0d-452e-aae5-9a7307b1b403"},"vehicle_type_id":"4","last_reported":1770144110,"current_range_meters":3600,"station_id":"ce4bh512rcd13ifvqe3g","pricing_plan_id":"cebpf4jnsgd1na2vs0mg"},{"bike_id":"ce24aee7-35fa-4a11-bc8f-4e8ab67f92b4","system_id":"levelo_inurba_marseille","lat":43.31482,"lon":5.37308,"is_reserved":false,"is_disabled":false,"rental_uris":{"android":"levelo://app?vid=ce24aee7-35fa-4a11-bc8f-4e8ab67f92b4","ios":"levelo://app?vid=ce24aee7-35fa-4a11-bc8f-4e8ab67f92b4"},"vehicle_type_id":"4","last_reported":1770144110,"current_range_meters":3600,"station_id":"ce4bgt12rcd13ifvqcd0","pricing_plan_id":"cebpf4jnsgd1na2vs0mg"},{"bike_id":"eda11006-539d-4ac5-b351-07bd6d27fd10","system_id":"levelo_inurba_marseille","lat":43.27931,"lon":5.39577,"is_reserved":false,"is_disabled":false,"rental_uris":{"android":"levelo://app?vid=eda11006-539d-4ac5-b351-07bd6d27fd10","ios":"levelo://app?vid=eda11006-539d-4ac5-b351-07bd6d27fd10"},"vehicle_type_id":"4","last_reported":1770144110,"current_range_meters":3600,"station_id":"ce4bhf92rcd13ifvqf40","pricing_plan_id":"cebpf4jnsgd1na2vs0mg"},{"bike_id":"93df8620-07dc-4f74-9a2d-b7cef98415cf","system_id":"levelo_inurba_marseille","lat":43.26208,"lon":5.37933,"is_reserved":false,"is_disabled":false,"rental_uris":{"android":"levelo://app?vid=93df8620-07dc-4f74-9a2d-b7cef98415cf","ios":"levelo://app?vid=93df8620-07dc-4f74-9a2d-b7cef98415cf"},"vehicle_type_id":"4","last_reported":1770144110,"current_range_meters":3600,"station_id":"ce4bhjp2rcd13ifvqg90","pricing_plan_id":"cebpf4jnsgd1na2vs0mg"},{"bike_id":"75d6e842-cbda-4b63-9ab8-49199bf74e6e","system_id":"levelo_inurba_marseille","lat":43.24681,"lon":5.38144,"is_reserved":false,"is_disabled":false,"rental_uris":{"android":"levelo://app?vid=75d6e842-cbda-4b63-9ab8-49199bf74e6e","ios":"levelo://app?vid=75d6e842-cbda-4b63-9ab8-49199bf74e6e"},"vehicle_type_id":"4","last_reported":1770144110,"current_range_meters":3600,"station_id":"ce4bhih2rcd13ifvqfr0","pricing_plan_id":"cebpf4jnsgd1na2vs0mg"},{"bike_id":"d96109ec-1e26-40f5-a839-61c24e224835","system_id":"levelo_inurba_marseille","lat":43.2694,"lon":5.40251,"is_reserved":false,"is_disabled":false,"rental_uris":{"android":"levelo://app?vid=d96109ec-1e26-40f5-a839-61c24e224835","ios":"levelo://app?vid=d96109ec-1e26-40f5-a839-61c24e224835"},"vehicle_type_id":"4","last_reported":1770144110,"current_range_meters":4000,"station_id":"cjm6bp8fraef2m0cb0m0","pricing_plan_id":"cebpf4jnsgd1na2vs0mg"},{"bike_id":"76154380-766b-4767-81b3-83dc44f40b7b","system_id":"levelo_inurba_marseille","lat":43.33543,"lon":5.37472,"is_reserved":false,"is_disabled":false,"rental_uris":{"android":"levelo://app?vid=76154380-766b-4767-81b3-83dc44f40b7b","ios":"levelo://app?vid=76154380-766b-4767-81b3-83dc44f40b7b"},"vehicle_type_id":"4","last_reported":1770144110,"current_range_meters":4000,"station_id":"","pricing_plan_id":"cebpf4jnsgd1na2vs0mg"},{"bike_id":"d709c60c-8cf9-4df8-8ca5-62381d83bfab","system_id":"levelo_inurba_marseille","lat":43.26488,"lon":5.39546,"is_reserved":false,"is_disabled":false,"rental_uris":{"android":"levelo://app?vid=d709c60c-8cf9-4df8-8ca5-62381d83bfab","ios":"levelo://app?vid=d709c60c-8cf9-4df8-8ca5-62381d83bfab"},"vehicle_type_id":"4","last_reported":1770144110,"current_range_meters":4000,"station_id":"ce4bhi12rcd13ifvqfq0","pricing_plan_id":"cebpf4jnsgd1na2vs0mg"},{"bike_id":"33155caa-8021-4913-a666-e828c4426fe1","system_id":"levelo_inurba_marseille","lat":43.23206,"lon":5.35541,"is_reserved":false,"is_disabled":false,"rental_uris":{"android":"levelo://app?vid=33155caa-8021-4913-a666-e828c4426fe1","ios":"levelo://app?vid=33155caa-8021-4913-a666-e828c4426fe1"},"vehicle_type_id":"4","last_reported":1770144110,"current_range_meters":4000,"station_id":"ce4bhu92rcd13ifvqi70","pricing_plan_id":"cebpf4jnsgd1na2vs0mg"},{"bike_id":"dbba41a6-2e1f-4f83-b029-a040004d944d","system_id":"levelo_inurba_marseille","lat":43.28611,"lon":5.35096,"is_reserved":false,"is_disabled":false,"rental_uris":{"android":"levelo://app?vid=dbba41a6-2e1f-4f83-b029-a040004d944d","ios":"levelo://app?vid=dbba41a6-2e1f-4f83-b029-a040004d944d"},"vehicle_type_id":"4","last_reported":1770144110,"current_range_meters":4000,"station_id":"ce4bhch2rcd13ifvqeug","pricing_plan_id":"cebpf4jnsgd1na2vs0mg"},{"bike_id":"71406b05-8557-4ffb-9eac-d1c86c84b1c5","system_id":"levelo_inurba_marseille","lat":43.30251,"lon":5.40071,"is_reserved":false,"is_disabled":false,"rental_uris":{"android":"levelo://app?vid=71406b05-8557-4ffb-9eac-d1c86c84b1c5","ios":"levelo://app?vid=71406b05-8557-4ffb-9eac-d1c86c84b1c5"},"vehicle_type_id":"4","last_reported":1770144110,"current_range_meters":4000,"station_id":"ce4bgvh2rcd13ifvqcs0","pricing_plan_id":"cebpf4jnsgd1na2vs0mg"},{"bike_id":"9205b891-ee66-4882-bfec-3785668d7c2d","system_id":"levelo_inurba_marseille","lat":43.26027,"lon":5.37547,"is_reserved":false,"is_disabled":false,"rental_uris":{"android":"levelo://app?vid=9205b891-ee66-4882-bfec-3785668d7c2d","ios":"levelo://app?vid=9205b891-ee66-4882-bfec-3785668d7c2d"},"vehicle_type_id":"4","last_reported":1770144110,"current_range_meters":4000,"station_id":"ce4bhgh2rcd13ifvqfa0","pricing_plan_id":"cebpf4jnsgd1na2vs0mg"},{"bike_id":"4beaefea-e629-42d0-aec6-3778323ddf11","system_id":"levelo_inurba_marseille","lat":43.2467,"lon":5.38129,"is_reserved":false,"is_disabled":false,"rental_uris":{"android":"levelo://app?vid=4beaefea-e629-42d0-aec6-3778323ddf11","ios":"levelo://app?vid=4beaefea-e629-42d0-aec6-3778323ddf11"},"vehicle_type_id":"4","last_reported":1770144110,"current_range_meters":4000,"station_id":"ce4bhih2rcd13ifvqfr0","pricing_plan_id":"cebpf4jnsgd1na2vs0mg"},{"bike_id":"0a6292f7-50dd-43c2-b393-e08dde080051","system_id":"levelo_inurba_marseille","lat":43.26602,"lon":5.38993,"is_reserved":false,"is_disabled":false,"rental_uris":{"android":"levelo://app?vid=0a6292f7-50dd-43c2-b393-e08dde080051","ios":"levelo://app?vid=0a6292f7-50dd-43c2-b393-e08dde080051"},"vehicle_type_id":"4","last_reported":1770144110,"current_range_meters":4000,"station_id":"","pricing_plan_id":"cebpf4jnsgd1na2vs0mg"},{"bike_id":"c04d02e9-4522-4664-80d1-72f19e30f66b","system_id":"levelo_inurba_marseille","lat":43.253,"lon":5.38582,"is_reserved":false,"is_disabled":false,"rental_uris":{"android":"levelo://app?vid=c04d02e9-4522-4664-80d1-72f19e30f66b","ios":"levelo://app?vid=c04d02e9-4522-4664-80d1-72f19e30f66b"},"vehicle_type_id":"4","last_reported":1770144110,"current_range_meters":4000,"station_id":"","pricing_plan_id":"cebpf4jnsgd1na2vs0mg"},{"bike_id":"4dd6841e-e470-4207-bb73-65a47c0e81c5","system_id":"levelo_inurba_marseille","lat":43.31163,"lon":5.38012,"is_reserved":false,"is_disabled":false,"rental_uris":{"android":"levelo://app?vid=4dd6841e-e470-4207-bb73-65a47c0e81c5","ios":"levelo://app?vid=4dd6841e-e470-4207-bb73-65a47c0e81c5"},"vehicle_type_id":"4","last_reported":1770144110,"current_range_meters":4000,"station_id":"","pricing_plan_id":"cebpf4jnsgd1na2vs0mg"},{"bike_id":"5dae8e7a-771c-417a-921b-2f019b85b891","system_id":"levelo_inurba_marseille","lat":43.29894,"lon":5.43652,"is_reserved":false,"is_disabled":false,"rental_uris":{"android":"levelo://app?vid=5dae8e7a-771c-417a-921b-2f019b85b891","ios":"levelo://app?vid=5dae8e7a-771c-417a-921b-2f019b85b891"},"vehicle_type_id":"4","last_reported":1770144110,"current_range_meters":4000,"station_id":"ce4bhpp2rcd13ifvqhfg","pricing_plan_id":"cebpf4jnsgd1na2vs0mg"},{"bike_id":"9507fa88-b2b3-4ab7-a45c-4c86ed644dfa","system_id":"levelo_inurba_marseille","lat":43.229296,"lon":5.353777,"is_reserved":false,"is_disabled":false,"rental_uris":{"android":"levelo://app?vid=9507fa88-b2b3-4ab7-a45c-4c86ed644dfa","ios":"levelo://app?vid=9507fa88-b2b3-4ab7-a45c-4c86ed644dfa"},"vehicle_type_id":"4","last_reported":1770144110,"current_range_meters":4400,"station_id":"cpo3532slgdg3j2ikp40","pricing_plan_id":"cebpf4jnsgd1na2vs0mg"},{"bike_id":"3188355f-6083-4464-859b-9ed5b4f3cf11","system_id":"levelo_inurba_marseille","lat":43.25392,"lon":5.38367,"is_reserved":false,"is_disabled":false,"rental_uris":{"android":"levelo://app?vid=3188355f-6083-4464-859b-9ed5b4f3cf11","ios":"levelo://app?vid=3188355f-6083-4464-859b-9ed5b4f3cf11"},"vehicle_type_id":"4","last_reported":1770144110,"current_range_meters":4400,"station_id":"","pricing_plan_id":"cebpf4jnsgd1na2vs0mg"},{"bike_id":"153f8283-9f52-4291-b2ba-1c1ec7b3d105","system_id":"levelo_inurba_marseille","lat":43.28732,"lon":5.36073,"is_reserved":false,"is_disabled":false,"rental_uris":{"android":"levelo://app?vid=153f8283-9f52-4291-b2ba-1c1ec7b3d105","ios":"levelo://app?vid=153f8283-9f52-4291-b2ba-1c1ec7b3d105"},"vehicle_type_id":"4","last_reported":1770144110,"current_range_meters":4400,"station_id":"cki0cbj6b192h4jlfktg","pricing_plan_id":"cebpf4jnsgd1na2vs0mg"},{"bike_id":"6cdb97f9-4a54-41e2-9596-d9c3353beca2","system_id":"levelo_inurba_marseille","lat":43.29275,"lon":5.36844,"is_reserved":false,"is_disabled":false,"rental_uris":{"android":"levelo://app?vid=6cdb97f9-4a54-41e2-9596-d9c3353beca2","ios":"levelo://app?vid=6cdb97f9-4a54-41e2-9596-d9c3353beca2"},"vehicle_type_id":"4","last_reported":1770144110,"current_range_meters":4800,"station_id":"ce4bhbp2rcd13ifvqesg","pricing_plan_id":"cebpf4jnsgd1na2vs0mg"},{"bike_id":"eee54609-a6c8-4bc7-a936-6a1b442519d3","system_id":"levelo_inurba_marseille","lat":43.31049,"lon":5.37161,"is_reserved":false,"is_disabled":false,"rental_uris":{"android":"levelo://app?vid=eee54609-a6c8-4bc7-a936-6a1b442519d3","ios":"levelo://app?vid=eee54609-a6c8-4bc7-a936-6a1b442519d3"},"vehicle_type_id":"4","last_reported":1770144110,"current_range_meters":4800,"station_id":"st_d4kl2rp97mjs73e7tdfg","pricing_plan_id":"cebpf4jnsgd1na2vs0mg"},{"bike_id":"eb1b2124-84d2-467d-b1f5-56516dcfd958","system_id":"levelo_inurba_marseille","lat":43.211954,"lon":5.350721,"is_reserved":false,"is_disabled":false,"rental_uris":{"android":"levelo://app?vid=eb1b2124-84d2-467d-b1f5-56516dcfd958","ios":"levelo://app?vid=eb1b2124-84d2-467d-b1f5-56516dcfd958"},"vehicle_type_id":"4","last_reported":1770144110,"current_range_meters":4800,"station_id":"","pricing_plan_id":"cebpf4jnsgd1na2vs0mg"},{"bike_id":"02b06200-6f0c-4fbe-a288-f34e85c983a1","system_id":"levelo_inurba_marseille","lat":43.23787,"lon":5.36616,"is_reserved":false,"is_disabled":false,"rental_uris":{"android":"levelo://app?vid=02b06200-6f0c-4fbe-a288-f34e85c983a1","ios":"levelo://app?vid=02b06200-6f0c-4fbe-a288-f34e85c983a1"},"vehicle_type_id":"4","last_reported":1770144110,"current_range_meters":4800,"station_id":"st_d3nk18o9ro0c73en2l3g","pricing_plan_id":"cebpf4jnsgd1na2vs0mg"},{"bike_id":"3dccfbc0-21a3-4f00-9a17-1cc5f408fc31","system_id":"levelo_inurba_marseille","lat":43.26937,"lon":5.40247,"is_reserved":false,"is_disabled":false,"rental_uris":{"android":"levelo://app?vid=3dccfbc0-21a3-4f00-9a17-1cc5f408fc31","ios":"levelo://app?vid=3dccfbc0-21a3-4f00-9a17-1cc5f408fc31"},"vehicle_type_id":"4","last_reported":1770144110,"current_range_meters":4800,"station_id":"cjm6bp8fraef2m0cb0m0","pricing_plan_id":"cebpf4jnsgd1na2vs0mg"},{"bike_id":"126696a3-0466-41ed-b6fa-6582d3ec5fad","system_id":"levelo_inurba_marseille","lat":43.29003,"lon":5.35609,"is_reserved":false,"is_disabled":false,"rental_uris":{"android":"levelo://app?vid=126696a3-0466-41ed-b6fa-6582d3ec5fad","ios":"levelo://app?vid=126696a3-0466-41ed-b6fa-6582d3ec5fad"},"vehicle_type_id":"4","last_reported":1770144110,"current_range_meters":4800,"station_id":"ce4bhb92rcd13ifvqen0","pricing_plan_id":"cebpf4jnsgd1na2vs0mg"},{"bike_id":"dddf6b43-6dec-4443-9fbc-dca743a3d571","system_id":"levelo_inurba_marseille","lat":43.29171,"lon":5.37155,"is_reserved":false,"is_disabled":false,"rental_uris":{"android":"levelo://app?vid=dddf6b43-6dec-4443-9fbc-dca743a3d571","ios":"levelo://app?vid=dddf6b43-6dec-4443-9fbc-dca743a3d571"},"vehicle_type_id":"4","last_reported":1770144110,"current_range_meters":4800,"station_id":"ce4bha92rcd13ifvqeh0","pricing_plan_id":"cebpf4jnsgd1na2vs0mg"},{"bike_id":"8ecbe328-808d-4817-ac8a-1abd51911561","system_id":"levelo_inurba_marseille","lat":43.29261,"lon":5.36852,"is_reserved":false,"is_disabled":false,"rental_uris":{"android":"levelo://app?vid=8ecbe328-808d-4817-ac8a-1abd51911561","ios":"levelo://app?vid=8ecbe328-808d-4817-ac8a-1abd51911561"},"vehicle_type_id":"4","last_reported":1770144110,"current_range_meters":4800,"station_id":"ce4bhbp2rcd13ifvqesg","pricing_plan_id":"cebpf4jnsgd1na2vs0mg"},{"bike_id":"2ccce929-95a7-42ec-84b9-1fc8efbe658b","system_id":"levelo_inurba_marseille","lat":43.2696,"lon":5.386183,"is_reserved":false,"is_disabled":false,"rental_uris":{"android":"levelo://app?vid=2ccce929-95a7-42ec-84b9-1fc8efbe658b","ios":"levelo://app?vid=2ccce929-95a7-42ec-84b9-1fc8efbe658b"},"vehicle_type_id":"4","last_reported":1770144110,"current_range_meters":4800,"station_id":"ce4bhh92rcd13ifvqfh0","pricing_plan_id":"cebpf4jnsgd1na2vs0mg"},{"bike_id":"56e0dd43-db59-4a14-ac0c-d950e7030a9a","system_id":"levelo_inurba_marseille","lat":43.33347,"lon":5.4108,"is_reserved":false,"is_disabled":false,"rental_uris":{"android":"levelo://app?vid=56e0dd43-db59-4a14-ac0c-d950e7030a9a","ios":"levelo://app?vid=56e0dd43-db59-4a14-ac0c-d950e7030a9a"},"vehicle_type_id":"4","last_reported":1770144110,"current_range_meters":4800,"station_id":"","pricing_plan_id":"cebpf4jnsgd1na2vs0mg"},{"bike_id":"9a3b8e40-230b-4af8-bb6c-46b914bd1153","system_id":"levelo_inurba_marseille","lat":43.24397,"lon":5.37065,"is_reserved":false,"is_disabled":false,"rental_uris":{"android":"levelo://app?vid=9a3b8e40-230b-4af8-bb6c-46b914bd1153","ios":"levelo://app?vid=9a3b8e40-230b-4af8-bb6c-46b914bd1153"},"vehicle_type_id":"4","last_reported":1770144110,"current_range_meters":4800,"station_id":"ce4bhhh2rcd13ifvqfk0","pricing_plan_id":"cebpf4jnsgd1na2vs0mg"},{"bike_id":"62393bef-3a20-4c4b-9a55-6ad7e3b93507","system_id":"levelo_inurba_marseille","lat":43.24073,"lon":5.37755,"is_reserved":false,"is_disabled":false,"rental_uris":{"android":"levelo://app?vid=62393bef-3a20-4c4b-9a55-6ad7e3b93507","ios":"levelo://app?vid=62393bef-3a20-4c4b-9a55-6ad7e3b93507"},"vehicle_type_id":"4","last_reported":1770144110,"current_range_meters":4800,"station_id":"ce4bhnp2rcd13ifvqgvg","pricing_plan_id":"cebpf4jnsgd1na2vs0mg"},{"bike_id":"7f62c33b-7891-4f4a-8eaa-f654babe6969","system_id":"levelo_inurba_marseille","lat":43.299095,"lon":5.381529,"is_reserved":false,"is_disabled":false,"rental_uris":{"android":"levelo://app?vid=7f62c33b-7891-4f4a-8eaa-f654babe6969","ios":"levelo://app?vid=7f62c33b-7891-4f4a-8eaa-f654babe6969"},"vehicle_type_id":"4","last_reported":1770144110,"current_range_meters":4800,"station_id":"ce4bgj12rcd13ifvqbc0","pricing_plan_id":"cebpf4jnsgd1na2vs0mg"},{"bike_id":"c5cba592-c8ea-4299-867c-e35aceae73bc","system_id":"levelo_inurba_marseille","lat":43.31763,"lon":5.39021,"is_reserved":false,"is_disabled":false,"rental_uris":{"android":"levelo://app?vid=c5cba592-c8ea-4299-867c-e35aceae73bc","ios":"levelo://app?vid=c5cba592-c8ea-4299-867c-e35aceae73bc"},"vehicle_type_id":"4","last_reported":1770144110,"current_range_meters":4800,"station_id":"ce4bhqp2rcd13ifvqhng","pricing_plan_id":"cebpf4jnsgd1na2vs0mg"},{"bike_id":"37efd0a4-f92f-48f6-8c63-84553350d9a1","system_id":"levelo_inurba_marseille","lat":43.33535,"lon":5.37466,"is_reserved":false,"is_disabled":false,"rental_uris":{"android":"levelo://app?vid=37efd0a4-f92f-48f6-8c63-84553350d9a1","ios":"levelo://app?vid=37efd0a4-f92f-48f6-8c63-84553350d9a1"},"vehicle_type_id":"4","last_reported":1770144110,"current_range_meters":4800,"station_id":"st_d46tts09ee8s73dlu43g","pricing_plan_id":"cebpf4jnsgd1na2vs0mg"},{"bike_id":"b4750724-c359-4e52-af25-68f3bc9ec2db","system_id":"levelo_inurba_marseille","lat":43.28149,"lon":5.42638,"is_reserved":false,"is_disabled":false,"rental_uris":{"android":"levelo://app?vid=b4750724-c359-4e52-af25-68f3bc9ec2db","ios":"levelo://app?vid=b4750724-c359-4e52-af25-68f3bc9ec2db"},"vehicle_type_id":"4","last_reported":1770144110,"current_range_meters":4800,"station_id":"ce4bhnh2rcd13ifvqgug","pricing_plan_id":"cebpf4jnsgd1na2vs0mg"},{"bike_id":"cc7d6a58-2c60-4246-b3ec-60b87c8871b8","system_id":"levelo_inurba_marseille","lat":43.28413,"lon":5.37511,"is_reserved":false,"is_disabled":true,"rental_uris":{"android":"levelo://app?vid=cc7d6a58-2c60-4246-b3ec-60b87c8871b8","ios":"levelo://app?vid=cc7d6a58-2c60-4246-b3ec-60b87c8871b8"},"vehicle_type_id":"4","last_reported":1770144110,"current_range_meters":4800,"station_id":"ce4bh412rcd13ifvqds0","pricing_plan_id":"cebpf4jnsgd1na2vs0mg"},{"bike_id":"cb819ca6-20a6-42e4-a547-d642d44cc3d2","system_id":"levelo_inurba_marseille","lat":43.272274,"lon":5.391035,"is_reserved":false,"is_disabled":false,"rental_uris":{"android":"levelo://app?vid=cb819ca6-20a6-42e4-a547-d642d44cc3d2","ios":"levelo://app?vid=cb819ca6-20a6-42e4-a547-d642d44cc3d2"},"vehicle_type_id":"4","last_reported":1770144110,"current_range_meters":4800,"station_id":"ce4bhhp2rcd13ifvqfm0","pricing_plan_id":"cebpf4jnsgd1na2vs0mg"},{"bike_id":"e0f77648-8b34-47e6-9dd6-31c59c82e13a","system_id":"levelo_inurba_marseille","lat":43.24167,"lon":5.3639,"is_reserved":false,"is_disabled":false,"rental_uris":{"android":"levelo://app?vid=e0f77648-8b34-47e6-9dd6-31c59c82e13a","ios":"levelo://app?vid=e0f77648-8b34-47e6-9dd6-31c59c82e13a"},"vehicle_type_id":"4","last_reported":1770144110,"current_range_meters":4800,"station_id":"cpo36qri1sfpv3e86is0","pricing_plan_id":"cebpf4jnsgd1na2vs0mg"},{"bike_id":"04f2b816-4fdb-416c-8cd6-0321ddea7cc1","system_id":"levelo_inurba_marseille","lat":43.26279,"lon":5.39859,"is_reserved":false,"is_disabled":false,"rental_uris":{"android":"levelo://app?vid=04f2b816-4fdb-416c-8cd6-0321ddea7cc1","ios":"levelo://app?vid=04f2b816-4fdb-416c-8cd6-0321ddea7cc1"},"vehicle_type_id":"4","last_reported":1770144110,"current_range_meters":5600,"station_id":"ce4bgs12rcd13ifvqcag","pricing_plan_id":"cebpf4jnsgd1na2vs0mg"},{"bike_id":"9be83605-06b6-4fa3-bc81-238881a58afc","system_id":"levelo_inurba_marseille","lat":43.29292,"lon":5.40111,"is_reserved":false,"is_disabled":false,"rental_uris":{"android":"levelo://app?vid=9be83605-06b6-4fa3-bc81-238881a58afc","ios":"levelo://app?vid=9be83605-06b6-4fa3-bc81-238881a58afc"},"vehicle_type_id":"4","last_reported":1770144110,"current_range_meters":5600,"station_id":"ce4bh312rcd13ifvqdk0","pricing_plan_id":"cebpf4jnsgd1na2vs0mg"},{"bike_id":"7138ff16-d3b3-4c09-8f19-882de0b12983","system_id":"levelo_inurba_marseille","lat":43.28447,"lon":5.38402,"is_reserved":false,"is_disabled":false,"rental_uris":{"android":"levelo://app?vid=7138ff16-d3b3-4c09-8f19-882de0b12983","ios":"levelo://app?vid=7138ff16-d3b3-4c09-8f19-882de0b12983"},"vehicle_type_id":"4","last_reported":1770144110,"current_range_meters":5600,"station_id":"ce4bh512rcd13ifvqe3g","pricing_plan_id":"cebpf4jnsgd1na2vs0mg"},{"bike_id":"7830c5a0-6716-49ce-9fb9-030a83055837","system_id":"levelo_inurba_marseille","lat":43.30327,"lon":5.3691,"is_reserved":false,"is_disabled":true,"rental_uris":{"android":"levelo://app?vid=7830c5a0-6716-49ce-9fb9-030a83055837","ios":"levelo://app?vid=7830c5a0-6716-49ce-9fb9-030a83055837"},"vehicle_type_id":"4","last_reported":1770144110,"current_range_meters":5600,"station_id":"ce4bgqh2rcd13ifvqc5g","pricing_plan_id":"cebpf4jnsgd1na2vs0mg"},{"bike_id":"fd274abb-68c8-4973-bab7-edafdd8949c3","system_id":"levelo_inurba_marseille","lat":43.28158,"lon":5.42643,"is_reserved":false,"is_disabled":false,"rental_uris":{"android":"levelo://app?vid=fd274abb-68c8-4973-bab7-edafdd8949c3","ios":"levelo://app?vid=fd274abb-68c8-4973-bab7-edafdd8949c3"},"vehicle_type_id":"4","last_reported":1770144110,"current_range_meters":5600,"station_id":"ce4bhnh2rcd13ifvqgug","pricing_plan_id":"cebpf4jnsgd1na2vs0mg"},{"bike_id":"6ddf7e79-fc33-436a-9f2e-0297899e5607","system_id":"levelo_inurba_marseille","lat":43.2848,"lon":5.48382,"is_reserved":false,"is_disabled":false,"rental_uris":{"android":"levelo://app?vid=6ddf7e79-fc33-436a-9f2e-0297899e5607","ios":"levelo://app?vid=6ddf7e79-fc33-436a-9f2e-0297899e5607"},"vehicle_type_id":"4","last_reported":1770144110,"current_range_meters":5600,"station_id":"","pricing_plan_id":"cebpf4jnsgd1na2vs0mg"},{"bike_id":"03cfe8ff-bad7-4324-a169-164f68b4c260","system_id":"levelo_inurba_marseille","lat":43.337444,"lon":5.374475,"is_reserved":false,"is_disabled":false,"rental_uris":{"android":"levelo://app?vid=03cfe8ff-bad7-4324-a169-164f68b4c260","ios":"levelo://app?vid=03cfe8ff-bad7-4324-a169-164f68b4c260"},"vehicle_type_id":"4","last_reported":1770144110,"current_range_meters":5600,"station_id":"","pricing_plan_id":"cebpf4jnsgd1na2vs0mg"},{"bike_id":"9e057795-08d0-428c-a4d6-14e223435515","system_id":"levelo_inurba_marseille","lat":43.24586,"lon":5.3733,"is_reserved":false,"is_disabled":false,"rental_uris":{"android":"levelo://app?vid=9e057795-08d0-428c-a4d6-14e223435515","ios":"levelo://app?vid=9e057795-08d0-428c-a4d6-14e223435515"},"vehicle_type_id":"4","last_reported":1770144110,"current_range_meters":5600,"station_id":"","pricing_plan_id":"cebpf4jnsgd1na2vs0mg"},{"bike_id":"77ee2386-41ea-476e-b76b-f435873f6247","system_id":"levelo_inurba_marseille","lat":43.243876,"lon":5.370565,"is_reserved":false,"is_disabled":false,"rental_uris":{"android":"levelo://app?vid=77ee2386-41ea-476e-b76b-f435873f6247","ios":"levelo://app?vid=77ee2386-41ea-476e-b76b-f435873f6247"},"vehicle_type_id":"4","last_reported":1770144110,"current_range_meters":5600,"station_id":"ce4bhhh2rcd13ifvqfk0","pricing_plan_id":"cebpf4jnsgd1na2vs0mg"},{"bike_id":"f1c6a959-67a6-4e9f-b9a0-b504dce9c99b","system_id":"levelo_inurba_marseille","lat":43.28461,"lon":5.35889,"is_reserved":false,"is_disabled":false,"rental_uris":{"android":"levelo://app?vid=f1c6a959-67a6-4e9f-b9a0-b504dce9c99b","ios":"levelo://app?vid=f1c6a959-67a6-4e9f-b9a0-b504dce9c99b"},"vehicle_type_id":"4","last_reported":1770144110,"current_range_meters":5600,"station_id":"ce4bhah2rcd13ifvqei0","pricing_plan_id":"cebpf4jnsgd1na2vs0mg"},{"bike_id":"8c558914-8464-4b54-9356-37419c15c45d","system_id":"levelo_inurba_marseille","lat":43.31718,"lon":5.42391,"is_reserved":false,"is_disabled":false,"rental_uris":{"android":"levelo://app?vid=8c558914-8464-4b54-9356-37419c15c45d","ios":"levelo://app?vid=8c558914-8464-4b54-9356-37419c15c45d"},"vehicle_type_id":"4","last_reported":1770144110,"current_range_meters":5600,"station_id":"ce4bhp92rcd13ifvqhbg","pricing_plan_id":"cebpf4jnsgd1na2vs0mg"},{"bike_id":"315f0f65-5d8b-49fe-9a96-c109a0784838","system_id":"levelo_inurba_marseille","lat":43.26799,"lon":5.39404,"is_reserved":false,"is_disabled":false,"rental_uris":{"android":"levelo://app?vid=315f0f65-5d8b-49fe-9a96-c109a0784838","ios":"levelo://app?vid=315f0f65-5d8b-49fe-9a96-c109a0784838"},"vehicle_type_id":"4","last_reported":1770144110,"current_range_meters":5600,"station_id":"ce4bhh12rcd13ifvqfg0","pricing_plan_id":"cebpf4jnsgd1na2vs0mg"},{"bike_id":"2c870f16-3bbe-4541-9128-096498e2a031","system_id":"levelo_inurba_marseille","lat":43.29272,"lon":5.36847,"is_reserved":false,"is_disabled":false,"rental_uris":{"android":"levelo://app?vid=2c870f16-3bbe-4541-9128-096498e2a031","ios":"levelo://app?vid=2c870f16-3bbe-4541-9128-096498e2a031"},"vehicle_type_id":"4","last_reported":1770144110,"current_range_meters":5600,"station_id":"ce4bhbp2rcd13ifvqesg","pricing_plan_id":"cebpf4jnsgd1na2vs0mg"},{"bike_id":"7ca83133-8918-4ca6-88d8-c5bdca144b76","system_id":"levelo_inurba_marseille","lat":43.26221,"lon":5.37436,"is_reserved":false,"is_disabled":false,"rental_uris":{"android":"levelo://app?vid=7ca83133-8918-4ca6-88d8-c5bdca144b76","ios":"levelo://app?vid=7ca83133-8918-4ca6-88d8-c5bdca144b76"},"vehicle_type_id":"4","last_reported":1770144110,"current_range_meters":5600,"station_id":"ce4bhgp2rcd13ifvqfc0","pricing_plan_id":"cebpf4jnsgd1na2vs0mg"},{"bike_id":"be46ce80-8c17-4c34-9b74-4fe08fdf6cd5","system_id":"levelo_inurba_marseille","lat":43.30936,"lon":5.40137,"is_reserved":false,"is_disabled":false,"rental_uris":{"android":"levelo://app?vid=be46ce80-8c17-4c34-9b74-4fe08fdf6cd5","ios":"levelo://app?vid=be46ce80-8c17-4c34-9b74-4fe08fdf6cd5"},"vehicle_type_id":"4","last_reported":1770144110,"current_range_meters":6000,"station_id":"ce4bgvp2rcd13ifvqct0","pricing_plan_id":"cebpf4jnsgd1na2vs0mg"},{"bike_id":"58cf7831-a3c1-4ead-849e-d08540cb9777","system_id":"levelo_inurba_marseille","lat":43.29532,"lon":5.38545,"is_reserved":false,"is_disabled":false,"rental_uris":{"android":"levelo://app?vid=58cf7831-a3c1-4ead-849e-d08540cb9777","ios":"levelo://app?vid=58cf7831-a3c1-4ead-849e-d08540cb9777"},"vehicle_type_id":"4","last_reported":1770144110,"current_range_meters":6000,"station_id":"ce4bgih2rcd13ifvqba0","pricing_plan_id":"cebpf4jnsgd1na2vs0mg"},{"bike_id":"59d22411-f372-43da-a2ac-d95b37b8122f","system_id":"levelo_inurba_marseille","lat":43.27332,"lon":5.39109,"is_reserved":false,"is_disabled":false,"rental_uris":{"android":"levelo://app?vid=59d22411-f372-43da-a2ac-d95b37b8122f","ios":"levelo://app?vid=59d22411-f372-43da-a2ac-d95b37b8122f"},"vehicle_type_id":"4","last_reported":1770144110,"current_range_meters":6000,"station_id":"ce4bhgp2rcd13ifvqfe0","pricing_plan_id":"cebpf4jnsgd1na2vs0mg"},{"bike_id":"01677d43-8d3b-4e50-98cd-bf5219044119","system_id":"levelo_inurba_marseille","lat":43.28471,"lon":5.35886,"is_reserved":false,"is_disabled":false,"rental_uris":{"android":"levelo://app?vid=01677d43-8d3b-4e50-98cd-bf5219044119","ios":"levelo://app?vid=01677d43-8d3b-4e50-98cd-bf5219044119"},"vehicle_type_id":"4","last_reported":1770144110,"current_range_meters":6000,"station_id":"ce4bhah2rcd13ifvqei0","pricing_plan_id":"cebpf4jnsgd1na2vs0mg"},{"bike_id":"7de714e1-e1e3-4cef-a665-bf94e4caea8c","system_id":"levelo_inurba_marseille","lat":43.2257,"lon":5.41625,"is_reserved":false,"is_disabled":false,"rental_uris":{"android":"levelo://app?vid=7de714e1-e1e3-4cef-a665-bf94e4caea8c","ios":"levelo://app?vid=7de714e1-e1e3-4cef-a665-bf94e4caea8c"},"vehicle_type_id":"4","last_reported":1770144110,"current_range_meters":6000,"station_id":"st_d2o4gvlbi1j2169b742g","pricing_plan_id":"cebpf4jnsgd1na2vs0mg"},{"bike_id":"d46ff533-0eee-4665-b81c-0e20854ee49c","system_id":"levelo_inurba_marseille","lat":43.29932,"lon":5.36541,"is_reserved":false,"is_disabled":false,"rental_uris":{"android":"levelo://app?vid=d46ff533-0eee-4665-b81c-0e20854ee49c","ios":"levelo://app?vid=d46ff533-0eee-4665-b81c-0e20854ee49c"},"vehicle_type_id":"4","last_reported":1770144110,"current_range_meters":6000,"station_id":"ce4bgm92rcd13ifvqbr0","pricing_plan_id":"cebpf4jnsgd1na2vs0mg"},{"bike_id":"d96b5276-ddb9-4dda-bf61-4ae90512437d","system_id":"levelo_inurba_marseille","lat":43.24162,"lon":5.36389,"is_reserved":false,"is_disabled":false,"rental_uris":{"android":"levelo://app?vid=d96b5276-ddb9-4dda-bf61-4ae90512437d","ios":"levelo://app?vid=d96b5276-ddb9-4dda-bf61-4ae90512437d"},"vehicle_type_id":"4","last_reported":1770144110,"current_range_meters":6000,"station_id":"cpo36qri1sfpv3e86is0","pricing_plan_id":"cebpf4jnsgd1na2vs0mg"},{"bike_id":"141bd124-c814-48f9-b2f7-d0b84fea7cf1","system_id":"levelo_inurba_marseille","lat":43.24813,"lon":5.37445,"is_reserved":false,"is_disabled":false,"rental_uris":{"android":"levelo://app?vid=141bd124-c814-48f9-b2f7-d0b84fea7cf1","ios":"levelo://app?vid=141bd124-c814-48f9-b2f7-d0b84fea7cf1"},"vehicle_type_id":"4","last_reported":1770144110,"current_range_meters":6000,"station_id":"ce4bhgh2rcd13ifvqfb0","pricing_plan_id":"cebpf4jnsgd1na2vs0mg"},{"bike_id":"d1356280-c92f-416a-bd39-454bafe09deb","system_id":"levelo_inurba_marseille","lat":43.25118,"lon":5.40326,"is_reserved":false,"is_disabled":false,"rental_uris":{"android":"levelo://app?vid=d1356280-c92f-416a-bd39-454bafe09deb","ios":"levelo://app?vid=d1356280-c92f-416a-bd39-454bafe09deb"},"vehicle_type_id":"4","last_reported":1770144110,"current_range_meters":6000,"station_id":"ce4bhlh2rcd13ifvqgig","pricing_plan_id":"cebpf4jnsgd1na2vs0mg"},{"bike_id":"549d637b-91c5-48ec-83fa-865a463b6a4b","system_id":"levelo_inurba_marseille","lat":43.23194,"lon":5.35553,"is_reserved":false,"is_disabled":false,"rental_uris":{"android":"levelo://app?vid=549d637b-91c5-48ec-83fa-865a463b6a4b","ios":"levelo://app?vid=549d637b-91c5-48ec-83fa-865a463b6a4b"},"vehicle_type_id":"4","last_reported":1770144110,"current_range_meters":6000,"station_id":"ce4bhu92rcd13ifvqi70","pricing_plan_id":"cebpf4jnsgd1na2vs0mg"},{"bike_id":"e38f544f-f996-477c-b7d2-6313026ffb89","system_id":"levelo_inurba_marseille","lat":43.24813,"lon":5.37459,"is_reserved":false,"is_disabled":false,"rental_uris":{"android":"levelo://app?vid=e38f544f-f996-477c-b7d2-6313026ffb89","ios":"levelo://app?vid=e38f544f-f996-477c-b7d2-6313026ffb89"},"vehicle_type_id":"4","last_reported":1770144110,"current_range_meters":6000,"station_id":"ce4bhgh2rcd13ifvqfb0","pricing_plan_id":"cebpf4jnsgd1na2vs0mg"},{"bike_id":"9895bb8c-cb87-48e9-9a6a-4c0604a5d416","system_id":"levelo_inurba_marseille","lat":43.24467,"lon":5.42537,"is_reserved":false,"is_disabled":false,"rental_uris":{"android":"levelo://app?vid=9895bb8c-cb87-48e9-9a6a-4c0604a5d416","ios":"levelo://app?vid=9895bb8c-cb87-48e9-9a6a-4c0604a5d416"},"vehicle_type_id":"4","last_reported":1770144110,"current_range_meters":6000,"station_id":"st_d4a3vfp97mjs738cd8kg","pricing_plan_id":"cebpf4jnsgd1na2vs0mg"},{"bike_id":"a3d3a949-e6a8-49ab-9f8a-4cfb992af1b3","system_id":"levelo_inurba_marseille","lat":43.2121,"lon":5.34979,"is_reserved":false,"is_disabled":false,"rental_uris":{"android":"levelo://app?vid=a3d3a949-e6a8-49ab-9f8a-4cfb992af1b3","ios":"levelo://app?vid=a3d3a949-e6a8-49ab-9f8a-4cfb992af1b3"},"vehicle_type_id":"4","last_reported":1770144110,"current_range_meters":6000,"station_id":"","pricing_plan_id":"cebpf4jnsgd1na2vs0mg"},{"bike_id":"1edde584-1771-4346-b78d-ffc44ace470a","system_id":"levelo_inurba_marseille","lat":43.26501,"lon":5.39535,"is_reserved":false,"is_disabled":false,"rental_uris":{"android":"levelo://app?vid=1edde584-1771-4346-b78d-ffc44ace470a","ios":"levelo://app?vid=1edde584-1771-4346-b78d-ffc44ace470a"},"vehicle_type_id":"4","last_reported":1770144110,"current_range_meters":6000,"station_id":"ce4bhi12rcd13ifvqfq0","pricing_plan_id":"cebpf4jnsgd1na2vs0mg"},{"bike_id":"cbde49ad-888e-4e26-bb8f-e1fe71f70a0e","system_id":"levelo_inurba_marseille","lat":43.30098,"lon":5.39068,"is_reserved":false,"is_disabled":false,"rental_uris":{"android":"levelo://app?vid=cbde49ad-888e-4e26-bb8f-e1fe71f70a0e","ios":"levelo://app?vid=cbde49ad-888e-4e26-bb8f-e1fe71f70a0e"},"vehicle_type_id":"4","last_reported":1770144110,"current_range_meters":6000,"station_id":"ce4bh192rcd13ifvqdb0","pricing_plan_id":"cebpf4jnsgd1na2vs0mg"},{"bike_id":"f8e7e4d9-f87a-42a2-9144-b6886b943f25","system_id":"levelo_inurba_marseille","lat":43.24999,"lon":5.38931,"is_reserved":false,"is_disabled":false,"rental_uris":{"android":"levelo://app?vid=f8e7e4d9-f87a-42a2-9144-b6886b943f25","ios":"levelo://app?vid=f8e7e4d9-f87a-42a2-9144-b6886b943f25"},"vehicle_type_id":"4","last_reported":1770144110,"current_range_meters":6400,"station_id":"ce4bhgp2rcd13ifvqfd0","pricing_plan_id":"cebpf4jnsgd1na2vs0mg"},{"bike_id":"78b6a908-abd9-43ee-866d-e94c6e847ad4","system_id":"levelo_inurba_marseille","lat":43.23194,"lon":5.3997,"is_reserved":false,"is_disabled":false,"rental_uris":{"android":"levelo://app?vid=78b6a908-abd9-43ee-866d-e94c6e847ad4","ios":"levelo://app?vid=78b6a908-abd9-43ee-866d-e94c6e847ad4"},"vehicle_type_id":"4","last_reported":1770144110,"current_range_meters":6400,"station_id":"ce4bhn12rcd13ifvqgqg","pricing_plan_id":"cebpf4jnsgd1na2vs0mg"},{"bike_id":"d0b59fd4-6758-4158-b731-7b62c9fb06fe","system_id":"levelo_inurba_marseille","lat":43.28854,"lon":5.35858,"is_reserved":false,"is_disabled":false,"rental_uris":{"android":"levelo://app?vid=d0b59fd4-6758-4158-b731-7b62c9fb06fe","ios":"levelo://app?vid=d0b59fd4-6758-4158-b731-7b62c9fb06fe"},"vehicle_type_id":"4","last_reported":1770144110,"current_range_meters":6400,"station_id":"ce4bhb12rcd13ifvqem0","pricing_plan_id":"cebpf4jnsgd1na2vs0mg"},{"bike_id":"ab5b4f9f-ad6f-4b21-896b-3d7e4bb28591","system_id":"levelo_inurba_marseille","lat":43.26188,"lon":5.37443,"is_reserved":false,"is_disabled":false,"rental_uris":{"android":"levelo://app?vid=ab5b4f9f-ad6f-4b21-896b-3d7e4bb28591","ios":"levelo://app?vid=ab5b4f9f-ad6f-4b21-896b-3d7e4bb28591"},"vehicle_type_id":"4","last_reported":1770144110,"current_range_meters":6400,"station_id":"ce4bhgp2rcd13ifvqfc0","pricing_plan_id":"cebpf4jnsgd1na2vs0mg"},{"bike_id":"151047fe-b117-41cf-9416-4f91d0d3c1a9","system_id":"levelo_inurba_marseille","lat":43.31856,"lon":5.36908,"is_reserved":false,"is_disabled":false,"rental_uris":{"android":"levelo://app?vid=151047fe-b117-41cf-9416-4f91d0d3c1a9","ios":"levelo://app?vid=151047fe-b117-41cf-9416-4f91d0d3c1a9"},"vehicle_type_id":"4","last_reported":1770144110,"current_range_meters":6400,"station_id":"","pricing_plan_id":"cebpf4jnsgd1na2vs0mg"},{"bike_id":"fd4003f9-ae57-43d9-af54-09e855d38b22","system_id":"levelo_inurba_marseille","lat":43.2851,"lon":5.44083,"is_reserved":false,"is_disabled":false,"rental_uris":{"android":"levelo://app?vid=fd4003f9-ae57-43d9-af54-09e855d38b22","ios":"levelo://app?vid=fd4003f9-ae57-43d9-af54-09e855d38b22"},"vehicle_type_id":"4","last_reported":1770144110,"current_range_meters":6400,"station_id":"st_d3j3df2ikq2c7380ej80","pricing_plan_id":"cebpf4jnsgd1na2vs0mg"},{"bike_id":"67949cb0-ad73-42aa-8494-c2a7d6735f87","system_id":"levelo_inurba_marseille","lat":43.312368,"lon":5.368656,"is_reserved":false,"is_disabled":false,"rental_uris":{"android":"levelo://app?vid=67949cb0-ad73-42aa-8494-c2a7d6735f87","ios":"levelo://app?vid=67949cb0-ad73-42aa-8494-c2a7d6735f87"},"vehicle_type_id":"4","last_reported":1770144110,"current_range_meters":6400,"station_id":"ce4bgl92rcd13ifvqbq0","pricing_plan_id":"cebpf4jnsgd1na2vs0mg"},{"bike_id":"c42f2b39-ad01-446e-8300-846276cf6895","system_id":"levelo_inurba_marseille","lat":43.3051,"lon":5.36531,"is_reserved":false,"is_disabled":false,"rental_uris":{"android":"levelo://app?vid=c42f2b39-ad01-446e-8300-846276cf6895","ios":"levelo://app?vid=c42f2b39-ad01-446e-8300-846276cf6895"},"vehicle_type_id":"4","last_reported":1770144110,"current_range_meters":6400,"station_id":"","pricing_plan_id":"cebpf4jnsgd1na2vs0mg"},{"bike_id":"bcec4f6c-e07c-44d5-955d-2402cc53b633","system_id":"levelo_inurba_marseille","lat":43.29527,"lon":5.39036,"is_reserved":false,"is_disabled":false,"rental_uris":{"android":"levelo://app?vid=bcec4f6c-e07c-44d5-955d-2402cc53b633","ios":"levelo://app?vid=bcec4f6c-e07c-44d5-955d-2402cc53b633"},"vehicle_type_id":"4","last_reported":1770144110,"current_range_meters":6400,"station_id":"ce4bh3p2rcd13ifvqdp0","pricing_plan_id":"cebpf4jnsgd1na2vs0mg"},{"bike_id":"a322ccd3-bb44-49ac-857e-79bd04584eac","system_id":"levelo_inurba_marseille","lat":43.29531,"lon":5.39037,"is_reserved":false,"is_disabled":false,"rental_uris":{"android":"levelo://app?vid=a322ccd3-bb44-49ac-857e-79bd04584eac","ios":"levelo://app?vid=a322ccd3-bb44-49ac-857e-79bd04584eac"},"vehicle_type_id":"4","last_reported":1770144110,"current_range_meters":6400,"station_id":"ce4bh3p2rcd13ifvqdp0","pricing_plan_id":"cebpf4jnsgd1na2vs0mg"},{"bike_id":"5d2a7df9-4ddf-4885-8075-b7755ef05fb8","system_id":"levelo_inurba_marseille","lat":43.23038,"lon":5.40294,"is_reserved":false,"is_disabled":false,"rental_uris":{"android":"levelo://app?vid=5d2a7df9-4ddf-4885-8075-b7755ef05fb8","ios":"levelo://app?vid=5d2a7df9-4ddf-4885-8075-b7755ef05fb8"},"vehicle_type_id":"4","last_reported":1770144110,"current_range_meters":6400,"station_id":"","pricing_plan_id":"cebpf4jnsgd1na2vs0mg"},{"bike_id":"30018880-defb-4e1d-b4b9-524f673acfb8","system_id":"levelo_inurba_marseille","lat":43.29765,"lon":5.42782,"is_reserved":false,"is_disabled":false,"rental_uris":{"android":"levelo://app?vid=30018880-defb-4e1d-b4b9-524f673acfb8","ios":"levelo://app?vid=30018880-defb-4e1d-b4b9-524f673acfb8"},"vehicle_type_id":"4","last_reported":1770144110,"current_range_meters":6400,"station_id":"st_d3md5207bmas73dh9klg","pricing_plan_id":"cebpf4jnsgd1na2vs0mg"},{"bike_id":"413ca1e5-515a-4601-b78b-8729f8f0fbfd","system_id":"levelo_inurba_marseille","lat":43.30116,"lon":5.43123,"is_reserved":false,"is_disabled":false,"rental_uris":{"android":"levelo://app?vid=413ca1e5-515a-4601-b78b-8729f8f0fbfd","ios":"levelo://app?vid=413ca1e5-515a-4601-b78b-8729f8f0fbfd"},"vehicle_type_id":"4","last_reported":1770144110,"current_range_meters":6400,"station_id":"st_d3js3co5814s73ftftug","pricing_plan_id":"cebpf4jnsgd1na2vs0mg"},{"bike_id":"6ac82671-eb55-4f6e-81d0-63587b155509","system_id":"levelo_inurba_marseille","lat":43.285587,"lon":5.394082,"is_reserved":false,"is_disabled":false,"rental_uris":{"android":"levelo://app?vid=6ac82671-eb55-4f6e-81d0-63587b155509","ios":"levelo://app?vid=6ac82671-eb55-4f6e-81d0-63587b155509"},"vehicle_type_id":"4","last_reported":1770144110,"current_range_meters":6400,"station_id":"ce4bh292rcd13ifvqdg0","pricing_plan_id":"cebpf4jnsgd1na2vs0mg"},{"bike_id":"e6410eee-d5c1-4559-a519-96e3518c7163","system_id":"levelo_inurba_marseille","lat":43.26795,"lon":5.3941,"is_reserved":false,"is_disabled":false,"rental_uris":{"android":"levelo://app?vid=e6410eee-d5c1-4559-a519-96e3518c7163","ios":"levelo://app?vid=e6410eee-d5c1-4559-a519-96e3518c7163"},"vehicle_type_id":"4","last_reported":1770144110,"current_range_meters":6400,"station_id":"ce4bhh12rcd13ifvqfg0","pricing_plan_id":"cebpf4jnsgd1na2vs0mg"},{"bike_id":"34e4497e-004e-4d33-b563-df43c3f1dff0","system_id":"levelo_inurba_marseille","lat":43.29159,"lon":5.38845,"is_reserved":false,"is_disabled":false,"rental_uris":{"android":"levelo://app?vid=34e4497e-004e-4d33-b563-df43c3f1dff0","ios":"levelo://app?vid=34e4497e-004e-4d33-b563-df43c3f1dff0"},"vehicle_type_id":"4","last_reported":1770144110,"current_range_meters":6400,"station_id":"ce4bh4p2rcd13ifvqe0g","pricing_plan_id":"cebpf4jnsgd1na2vs0mg"},{"bike_id":"ae829aa0-a378-4f8e-8bdb-39cf39c29d8a","system_id":"levelo_inurba_marseille","lat":43.27353,"lon":5.39083,"is_reserved":false,"is_disabled":false,"rental_uris":{"android":"levelo://app?vid=ae829aa0-a378-4f8e-8bdb-39cf39c29d8a","ios":"levelo://app?vid=ae829aa0-a378-4f8e-8bdb-39cf39c29d8a"},"vehicle_type_id":"4","last_reported":1770144110,"current_range_meters":6400,"station_id":"ce4bhgp2rcd13ifvqfe0","pricing_plan_id":"cebpf4jnsgd1na2vs0mg"},{"bike_id":"fe1ff661-c73e-4d40-82f4-d79ba766b135","system_id":"levelo_inurba_marseille","lat":43.29621,"lon":5.37719,"is_reserved":false,"is_disabled":false,"rental_uris":{"android":"levelo://app?vid=fe1ff661-c73e-4d40-82f4-d79ba766b135","ios":"levelo://app?vid=fe1ff661-c73e-4d40-82f4-d79ba766b135"},"vehicle_type_id":"4","last_reported":1770144110,"current_range_meters":6400,"station_id":"ce4bgi92rcd13ifvqb90","pricing_plan_id":"cebpf4jnsgd1na2vs0mg"},{"bike_id":"deb9e4eb-a481-4dbd-9838-7e21c4114a77","system_id":"levelo_inurba_marseille","lat":43.24656,"lon":5.3888,"is_reserved":false,"is_disabled":false,"rental_uris":{"android":"levelo://app?vid=deb9e4eb-a481-4dbd-9838-7e21c4114a77","ios":"levelo://app?vid=deb9e4eb-a481-4dbd-9838-7e21c4114a77"},"vehicle_type_id":"4","last_reported":1770144110,"current_range_meters":6400,"station_id":"ce4bhg12rcd13ifvqf60","pricing_plan_id":"cebpf4jnsgd1na2vs0mg"},{"bike_id":"26e2dbb7-466a-42a8-964a-0557cc18613b","system_id":"levelo_inurba_marseille","lat":43.273261,"lon":5.390794,"is_reserved":false,"is_disabled":false,"rental_uris":{"android":"levelo://app?vid=26e2dbb7-466a-42a8-964a-0557cc18613b","ios":"levelo://app?vid=26e2dbb7-466a-42a8-964a-0557cc18613b"},"vehicle_type_id":"4","last_reported":1770144110,"current_range_meters":6400,"station_id":"ce4bgip2rcd13ifvqbb0","pricing_plan_id":"cebpf4jnsgd1na2vs0mg"},{"bike_id":"40c4bd28-bd00-4ad6-9a95-78f147c53e6a","system_id":"levelo_inurba_marseille","lat":43.27435,"lon":5.39411,"is_reserved":false,"is_disabled":false,"rental_uris":{"android":"levelo://app?vid=40c4bd28-bd00-4ad6-9a95-78f147c53e6a","ios":"levelo://app?vid=40c4bd28-bd00-4ad6-9a95-78f147c53e6a"},"vehicle_type_id":"4","last_reported":1770144110,"current_range_meters":6400,"station_id":"ce4bhdp2rcd13ifvqf20","pricing_plan_id":"cebpf4jnsgd1na2vs0mg"},{"bike_id":"c269eff6-7414-4fb8-b35a-8132e5c63b79","system_id":"levelo_inurba_marseille","lat":43.25021,"lon":5.38888,"is_reserved":false,"is_disabled":false,"rental_uris":{"android":"levelo://app?vid=c269eff6-7414-4fb8-b35a-8132e5c63b79","ios":"levelo://app?vid=c269eff6-7414-4fb8-b35a-8132e5c63b79"},"vehicle_type_id":"4","last_reported":1770144110,"current_range_meters":6400,"station_id":"ce4bhgp2rcd13ifvqfd0","pricing_plan_id":"cebpf4jnsgd1na2vs0mg"},{"bike_id":"38e3e07b-adce-40ab-bc41-3d9f50c90e39","system_id":"levelo_inurba_marseille","lat":43.312806,"lon":5.401746,"is_reserved":false,"is_disabled":false,"rental_uris":{"android":"levelo://app?vid=38e3e07b-adce-40ab-bc41-3d9f50c90e39","ios":"levelo://app?vid=38e3e07b-adce-40ab-bc41-3d9f50c90e39"},"vehicle_type_id":"4","last_reported":1770144110,"current_range_meters":6800,"station_id":"ce4bh092rcd13ifvqd30","pricing_plan_id":"cebpf4jnsgd1na2vs0mg"},{"bike_id":"6ad1b432-c72d-471d-935d-c96c1e61441f","system_id":"levelo_inurba_marseille","lat":43.27061,"lon":5.40255,"is_reserved":false,"is_disabled":false,"rental_uris":{"android":"levelo://app?vid=6ad1b432-c72d-471d-935d-c96c1e61441f","ios":"levelo://app?vid=6ad1b432-c72d-471d-935d-c96c1e61441f"},"vehicle_type_id":"4","last_reported":1770144110,"current_range_meters":6800,"station_id":"ce4bhk92rcd13ifvqgc0","pricing_plan_id":"cebpf4jnsgd1na2vs0mg"},{"bike_id":"51a5c4c8-0bea-42dd-80d0-887c29d0356c","system_id":"levelo_inurba_marseille","lat":43.275682,"lon":5.384142,"is_reserved":false,"is_disabled":false,"rental_uris":{"android":"levelo://app?vid=51a5c4c8-0bea-42dd-80d0-887c29d0356c","ios":"levelo://app?vid=51a5c4c8-0bea-42dd-80d0-887c29d0356c"},"vehicle_type_id":"4","last_reported":1770144110,"current_range_meters":6800,"station_id":"ce4bhh92rcd13ifvqfi0","pricing_plan_id":"cebpf4jnsgd1na2vs0mg"},{"bike_id":"c3ba0fed-3d29-4191-b8a3-c899b1e9e5ad","system_id":"levelo_inurba_marseille","lat":43.25571,"lon":5.38224,"is_reserved":false,"is_disabled":false,"rental_uris":{"android":"levelo://app?vid=c3ba0fed-3d29-4191-b8a3-c899b1e9e5ad","ios":"levelo://app?vid=c3ba0fed-3d29-4191-b8a3-c899b1e9e5ad"},"vehicle_type_id":"4","last_reported":1770144110,"current_range_meters":6800,"station_id":"ce4bhih2rcd13ifvqfs0","pricing_plan_id":"cebpf4jnsgd1na2vs0mg"},{"bike_id":"2bf19671-0061-46e9-83e3-55d71bb70148","system_id":"levelo_inurba_marseille","lat":43.22935,"lon":5.3537,"is_reserved":false,"is_disabled":false,"rental_uris":{"android":"levelo://app?vid=2bf19671-0061-46e9-83e3-55d71bb70148","ios":"levelo://app?vid=2bf19671-0061-46e9-83e3-55d71bb70148"},"vehicle_type_id":"4","last_reported":1770144110,"current_range_meters":6800,"station_id":"cpo3532slgdg3j2ikp40","pricing_plan_id":"cebpf4jnsgd1na2vs0mg"},{"bike_id":"06b145f4-075a-413e-b19c-227c25eace67","system_id":"levelo_inurba_marseille","lat":43.2768,"lon":5.38863,"is_reserved":false,"is_disabled":false,"rental_uris":{"android":"levelo://app?vid=06b145f4-075a-413e-b19c-227c25eace67","ios":"levelo://app?vid=06b145f4-075a-413e-b19c-227c25eace67"},"vehicle_type_id":"4","last_reported":1770144110,"current_range_meters":6800,"station_id":"ce4bhi12rcd13ifvqfo0","pricing_plan_id":"cebpf4jnsgd1na2vs0mg"},{"bike_id":"530b3fec-7af4-45eb-bf12-cc02b58eae44","system_id":"levelo_inurba_marseille","lat":43.246653,"lon":5.381531,"is_reserved":false,"is_disabled":false,"rental_uris":{"android":"levelo://app?vid=530b3fec-7af4-45eb-bf12-cc02b58eae44","ios":"levelo://app?vid=530b3fec-7af4-45eb-bf12-cc02b58eae44"},"vehicle_type_id":"4","last_reported":1770144110,"current_range_meters":6800,"station_id":"ce4bhih2rcd13ifvqfr0","pricing_plan_id":"cebpf4jnsgd1na2vs0mg"},{"bike_id":"9603d6ad-6836-471d-b714-25df8fe511f9","system_id":"levelo_inurba_marseille","lat":43.29535,"lon":5.37498,"is_reserved":false,"is_disabled":false,"rental_uris":{"android":"levelo://app?vid=9603d6ad-6836-471d-b714-25df8fe511f9","ios":"levelo://app?vid=9603d6ad-6836-471d-b714-25df8fe511f9"},"vehicle_type_id":"4","last_reported":1770144110,"current_range_meters":6800,"station_id":"ce4bgkp2rcd13ifvqbmg","pricing_plan_id":"cebpf4jnsgd1na2vs0mg"},{"bike_id":"edcb87a3-89fd-4c81-b16f-a9efdb1bc6b7","system_id":"levelo_inurba_marseille","lat":43.27263,"lon":5.38286,"is_reserved":false,"is_disabled":true,"rental_uris":{"android":"levelo://app?vid=edcb87a3-89fd-4c81-b16f-a9efdb1bc6b7","ios":"levelo://app?vid=edcb87a3-89fd-4c81-b16f-a9efdb1bc6b7"},"vehicle_type_id":"4","last_reported":1770144110,"current_range_meters":6800,"station_id":"","pricing_plan_id":"cebpf4jnsgd1na2vs0mg"},{"bike_id":"7dd10985-704d-4665-9810-e2ed829fe22a","system_id":"levelo_inurba_marseille","lat":43.29266,"lon":5.3843,"is_reserved":false,"is_disabled":false,"rental_uris":{"android":"levelo://app?vid=7dd10985-704d-4665-9810-e2ed829fe22a","ios":"levelo://app?vid=7dd10985-704d-4665-9810-e2ed829fe22a"},"vehicle_type_id":"4","last_reported":1770144110,"current_range_meters":6800,"station_id":"ce4bh692rcd13ifvqea0","pricing_plan_id":"cebpf4jnsgd1na2vs0mg"},{"bike_id":"73ab5421-ca7f-4040-91f5-55c62910632e","system_id":"levelo_inurba_marseille","lat":43.26226,"lon":5.40422,"is_reserved":false,"is_disabled":false,"rental_uris":{"android":"levelo://app?vid=73ab5421-ca7f-4040-91f5-55c62910632e","ios":"levelo://app?vid=73ab5421-ca7f-4040-91f5-55c62910632e"},"vehicle_type_id":"4","last_reported":1770144110,"current_range_meters":6800,"station_id":"ce4bhmh2rcd13ifvqgmg","pricing_plan_id":"cebpf4jnsgd1na2vs0mg"},{"bike_id":"40954e61-dd73-4b29-8cc4-cc138532c8aa","system_id":"levelo_inurba_marseille","lat":43.29228,"lon":5.42519,"is_reserved":false,"is_disabled":false,"rental_uris":{"android":"levelo://app?vid=40954e61-dd73-4b29-8cc4-cc138532c8aa","ios":"levelo://app?vid=40954e61-dd73-4b29-8cc4-cc138532c8aa"},"vehicle_type_id":"4","last_reported":1770144110,"current_range_meters":6800,"station_id":"","pricing_plan_id":"cebpf4jnsgd1na2vs0mg"},{"bike_id":"59478ad0-ef06-4d45-a331-ea0b47465c2c","system_id":"levelo_inurba_marseille","lat":43.27976,"lon":5.38733,"is_reserved":false,"is_disabled":false,"rental_uris":{"android":"levelo://app?vid=59478ad0-ef06-4d45-a331-ea0b47465c2c","ios":"levelo://app?vid=59478ad0-ef06-4d45-a331-ea0b47465c2c"},"vehicle_type_id":"4","last_reported":1770144110,"current_range_meters":6800,"station_id":"ce4bhg12rcd13ifvqf80","pricing_plan_id":"cebpf4jnsgd1na2vs0mg"},{"bike_id":"bfec0d79-485a-4bd0-9d67-db1ad8521994","system_id":"levelo_inurba_marseille","lat":43.24814,"lon":5.37466,"is_reserved":false,"is_disabled":false,"rental_uris":{"android":"levelo://app?vid=bfec0d79-485a-4bd0-9d67-db1ad8521994","ios":"levelo://app?vid=bfec0d79-485a-4bd0-9d67-db1ad8521994"},"vehicle_type_id":"4","last_reported":1770144110,"current_range_meters":6800,"station_id":"ce4bhgh2rcd13ifvqfb0","pricing_plan_id":"cebpf4jnsgd1na2vs0mg"},{"bike_id":"fa1f7efd-3de1-4b9c-a86c-84e989dae929","system_id":"levelo_inurba_marseille","lat":43.2657,"lon":5.3901,"is_reserved":false,"is_disabled":false,"rental_uris":{"android":"levelo://app?vid=fa1f7efd-3de1-4b9c-a86c-84e989dae929","ios":"levelo://app?vid=fa1f7efd-3de1-4b9c-a86c-84e989dae929"},"vehicle_type_id":"4","last_reported":1770144110,"current_range_meters":6800,"station_id":"ce4bhe12rcd13ifvqf30","pricing_plan_id":"cebpf4jnsgd1na2vs0mg"},{"bike_id":"d6be30b0-4a27-49b9-ae98-4481692184c6","system_id":"levelo_inurba_marseille","lat":43.26573,"lon":5.39055,"is_reserved":false,"is_disabled":false,"rental_uris":{"android":"levelo://app?vid=d6be30b0-4a27-49b9-ae98-4481692184c6","ios":"levelo://app?vid=d6be30b0-4a27-49b9-ae98-4481692184c6"},"vehicle_type_id":"4","last_reported":1770144110,"current_range_meters":6800,"station_id":"ce4bhe12rcd13ifvqf30","pricing_plan_id":"cebpf4jnsgd1na2vs0mg"},{"bike_id":"4651bd72-2cc4-46af-9f28-98a50310723a","system_id":"levelo_inurba_marseille","lat":43.31614,"lon":5.39439,"is_reserved":false,"is_disabled":false,"rental_uris":{"android":"levelo://app?vid=4651bd72-2cc4-46af-9f28-98a50310723a","ios":"levelo://app?vid=4651bd72-2cc4-46af-9f28-98a50310723a"},"vehicle_type_id":"4","last_reported":1770144110,"current_range_meters":6800,"station_id":"","pricing_plan_id":"cebpf4jnsgd1na2vs0mg"},{"bike_id":"5396fda1-c3a0-4d51-8ba0-cfe497a166d7","system_id":"levelo_inurba_marseille","lat":43.26557,"lon":5.38986,"is_reserved":false,"is_disabled":false,"rental_uris":{"android":"levelo://app?vid=5396fda1-c3a0-4d51-8ba0-cfe497a166d7","ios":"levelo://app?vid=5396fda1-c3a0-4d51-8ba0-cfe497a166d7"},"vehicle_type_id":"4","last_reported":1770144110,"current_range_meters":6800,"station_id":"ce4bhe12rcd13ifvqf30","pricing_plan_id":"cebpf4jnsgd1na2vs0mg"},{"bike_id":"08b3fcc3-e46c-4920-8ade-a7290ca7f14c","system_id":"levelo_inurba_marseille","lat":43.301426,"lon":5.374144,"is_reserved":false,"is_disabled":false,"rental_uris":{"android":"levelo://app?vid=08b3fcc3-e46c-4920-8ade-a7290ca7f14c","ios":"levelo://app?vid=08b3fcc3-e46c-4920-8ade-a7290ca7f14c"},"vehicle_type_id":"4","last_reported":1770144110,"current_range_meters":6800,"station_id":"ce4bgs92rcd13ifvqcc0","pricing_plan_id":"cebpf4jnsgd1na2vs0mg"},{"bike_id":"63b02aee-1d6a-499d-9cb5-6efa2ebf1a07","system_id":"levelo_inurba_marseille","lat":43.30341,"lon":5.41876,"is_reserved":false,"is_disabled":false,"rental_uris":{"android":"levelo://app?vid=63b02aee-1d6a-499d-9cb5-6efa2ebf1a07","ios":"levelo://app?vid=63b02aee-1d6a-499d-9cb5-6efa2ebf1a07"},"vehicle_type_id":"4","last_reported":1770144110,"current_range_meters":7200,"station_id":"ce4bhop2rcd13ifvqh7g","pricing_plan_id":"cebpf4jnsgd1na2vs0mg"},{"bike_id":"dcaa4a8f-eeeb-4a65-b90b-db85565e00da","system_id":"levelo_inurba_marseille","lat":43.24174,"lon":5.36385,"is_reserved":false,"is_disabled":false,"rental_uris":{"android":"levelo://app?vid=dcaa4a8f-eeeb-4a65-b90b-db85565e00da","ios":"levelo://app?vid=dcaa4a8f-eeeb-4a65-b90b-db85565e00da"},"vehicle_type_id":"4","last_reported":1770144110,"current_range_meters":7200,"station_id":"cpo36qri1sfpv3e86is0","pricing_plan_id":"cebpf4jnsgd1na2vs0mg"},{"bike_id":"769b1aef-e83b-4ade-90c2-2928eabc23b1","system_id":"levelo_inurba_marseille","lat":43.28478,"lon":5.38415,"is_reserved":false,"is_disabled":false,"rental_uris":{"android":"levelo://app?vid=769b1aef-e83b-4ade-90c2-2928eabc23b1","ios":"levelo://app?vid=769b1aef-e83b-4ade-90c2-2928eabc23b1"},"vehicle_type_id":"4","last_reported":1770144110,"current_range_meters":7200,"station_id":"ce4bh512rcd13ifvqe3g","pricing_plan_id":"cebpf4jnsgd1na2vs0mg"},{"bike_id":"490f6b95-6c14-40f1-8933-acccb3e85a72","system_id":"levelo_inurba_marseille","lat":43.30455,"lon":5.38887,"is_reserved":false,"is_disabled":false,"rental_uris":{"android":"levelo://app?vid=490f6b95-6c14-40f1-8933-acccb3e85a72","ios":"levelo://app?vid=490f6b95-6c14-40f1-8933-acccb3e85a72"},"vehicle_type_id":"4","last_reported":1770144110,"current_range_meters":7200,"station_id":"ce4bgk12rcd13ifvqbi0","pricing_plan_id":"cebpf4jnsgd1na2vs0mg"},{"bike_id":"d0242e5c-0183-4272-a3e7-75cd0bff3484","system_id":"levelo_inurba_marseille","lat":43.27662,"lon":5.38911,"is_reserved":false,"is_disabled":false,"rental_uris":{"android":"levelo://app?vid=d0242e5c-0183-4272-a3e7-75cd0bff3484","ios":"levelo://app?vid=d0242e5c-0183-4272-a3e7-75cd0bff3484"},"vehicle_type_id":"4","last_reported":1770144110,"current_range_meters":7200,"station_id":"ce4bhi12rcd13ifvqfo0","pricing_plan_id":"cebpf4jnsgd1na2vs0mg"},{"bike_id":"56a1b9ba-7d3b-4d4d-816d-8ff70d14355a","system_id":"levelo_inurba_marseille","lat":43.24661,"lon":5.38163,"is_reserved":false,"is_disabled":false,"rental_uris":{"android":"levelo://app?vid=56a1b9ba-7d3b-4d4d-816d-8ff70d14355a","ios":"levelo://app?vid=56a1b9ba-7d3b-4d4d-816d-8ff70d14355a"},"vehicle_type_id":"4","last_reported":1770144110,"current_range_meters":7200,"station_id":"ce4bhih2rcd13ifvqfr0","pricing_plan_id":"cebpf4jnsgd1na2vs0mg"},{"bike_id":"b2bfdd12-7196-4a48-b60c-02aba3b26ee4","system_id":"levelo_inurba_marseille","lat":43.30952,"lon":5.39024,"is_reserved":false,"is_disabled":false,"rental_uris":{"android":"levelo://app?vid=b2bfdd12-7196-4a48-b60c-02aba3b26ee4","ios":"levelo://app?vid=b2bfdd12-7196-4a48-b60c-02aba3b26ee4"},"vehicle_type_id":"4","last_reported":1770144110,"current_range_meters":7200,"station_id":"ce4bgup2rcd13ifvqco0","pricing_plan_id":"cebpf4jnsgd1na2vs0mg"},{"bike_id":"ec12566a-9d48-438d-80ed-97edb63a2c03","system_id":"levelo_inurba_marseille","lat":43.244671,"lon":5.425282,"is_reserved":false,"is_disabled":false,"rental_uris":{"android":"levelo://app?vid=ec12566a-9d48-438d-80ed-97edb63a2c03","ios":"levelo://app?vid=ec12566a-9d48-438d-80ed-97edb63a2c03"},"vehicle_type_id":"4","last_reported":1770144110,"current_range_meters":7200,"station_id":"st_d4a3vfp97mjs738cd8kg","pricing_plan_id":"cebpf4jnsgd1na2vs0mg"},{"bike_id":"aaf22886-8931-43f5-890d-fc99243945fc","system_id":"levelo_inurba_marseille","lat":43.24184,"lon":5.39717,"is_reserved":false,"is_disabled":false,"rental_uris":{"android":"levelo://app?vid=aaf22886-8931-43f5-890d-fc99243945fc","ios":"levelo://app?vid=aaf22886-8931-43f5-890d-fc99243945fc"},"vehicle_type_id":"4","last_reported":1770144110,"current_range_meters":7200,"station_id":"ce4bhn12rcd13ifvqgpg","pricing_plan_id":"cebpf4jnsgd1na2vs0mg"},{"bike_id":"e1b3cad6-dccc-4f80-892b-59b83fe43b75","system_id":"levelo_inurba_marseille","lat":43.29572,"lon":5.36721,"is_reserved":false,"is_disabled":false,"rental_uris":{"android":"levelo://app?vid=e1b3cad6-dccc-4f80-892b-59b83fe43b75","ios":"levelo://app?vid=e1b3cad6-dccc-4f80-892b-59b83fe43b75"},"vehicle_type_id":"4","last_reported":1770144110,"current_range_meters":7200,"station_id":"ce4bgph2rcd13ifvqc2g","pricing_plan_id":"cebpf4jnsgd1na2vs0mg"},{"bike_id":"659b2fe8-8a06-4a27-93de-c9d7bd01e359","system_id":"levelo_inurba_marseille","lat":43.29682,"lon":5.37643,"is_reserved":false,"is_disabled":false,"rental_uris":{"android":"levelo://app?vid=659b2fe8-8a06-4a27-93de-c9d7bd01e359","ios":"levelo://app?vid=659b2fe8-8a06-4a27-93de-c9d7bd01e359"},"vehicle_type_id":"4","last_reported":1770144110,"current_range_meters":7200,"station_id":"ce4bgkh2rcd13ifvqbl0","pricing_plan_id":"cebpf4jnsgd1na2vs0mg"},{"bike_id":"7f77f6a6-911c-44cf-97f5-71224b3633e0","system_id":"levelo_inurba_marseille","lat":43.25227,"lon":5.38027,"is_reserved":false,"is_disabled":false,"rental_uris":{"android":"levelo://app?vid=7f77f6a6-911c-44cf-97f5-71224b3633e0","ios":"levelo://app?vid=7f77f6a6-911c-44cf-97f5-71224b3633e0"},"vehicle_type_id":"4","last_reported":1770144110,"current_range_meters":7200,"station_id":"","pricing_plan_id":"cebpf4jnsgd1na2vs0mg"},{"bike_id":"3492d7e4-2dea-4cd5-b457-298b87f5c159","system_id":"levelo_inurba_marseille","lat":43.24469,"lon":5.42536,"is_reserved":false,"is_disabled":false,"rental_uris":{"android":"levelo://app?vid=3492d7e4-2dea-4cd5-b457-298b87f5c159","ios":"levelo://app?vid=3492d7e4-2dea-4cd5-b457-298b87f5c159"},"vehicle_type_id":"4","last_reported":1770144110,"current_range_meters":7200,"station_id":"st_d4a3vfp97mjs738cd8kg","pricing_plan_id":"cebpf4jnsgd1na2vs0mg"},{"bike_id":"33b4983b-12f9-44d8-b800-0a8b8c975eef","system_id":"levelo_inurba_marseille","lat":43.2815,"lon":5.42638,"is_reserved":false,"is_disabled":false,"rental_uris":{"android":"levelo://app?vid=33b4983b-12f9-44d8-b800-0a8b8c975eef","ios":"levelo://app?vid=33b4983b-12f9-44d8-b800-0a8b8c975eef"},"vehicle_type_id":"4","last_reported":1770144110,"current_range_meters":7200,"station_id":"ce4bhnh2rcd13ifvqgug","pricing_plan_id":"cebpf4jnsgd1na2vs0mg"},{"bike_id":"bcbaa8a6-886f-4091-ae26-8ec7b68ef274","system_id":"levelo_inurba_marseille","lat":43.23847,"lon":5.36504,"is_reserved":false,"is_disabled":false,"rental_uris":{"android":"levelo://app?vid=bcbaa8a6-886f-4091-ae26-8ec7b68ef274","ios":"levelo://app?vid=bcbaa8a6-886f-4091-ae26-8ec7b68ef274"},"vehicle_type_id":"4","last_reported":1770144110,"current_range_meters":7200,"station_id":"st_d3nk18o9ro0c73en2l3g","pricing_plan_id":"cebpf4jnsgd1na2vs0mg"},{"bike_id":"547a8271-9762-419e-8b48-b8d7df1d1ac8","system_id":"levelo_inurba_marseille","lat":43.2732,"lon":5.39092,"is_reserved":false,"is_disabled":false,"rental_uris":{"android":"levelo://app?vid=547a8271-9762-419e-8b48-b8d7df1d1ac8","ios":"levelo://app?vid=547a8271-9762-419e-8b48-b8d7df1d1ac8"},"vehicle_type_id":"4","last_reported":1770144110,"current_range_meters":7200,"station_id":"ce4bhgp2rcd13ifvqfe0","pricing_plan_id":"cebpf4jnsgd1na2vs0mg"},{"bike_id":"5b3811ef-5681-4c18-aac4-a62920f9a85c","system_id":"levelo_inurba_marseille","lat":43.28456,"lon":5.51485,"is_reserved":false,"is_disabled":false,"rental_uris":{"android":"levelo://app?vid=5b3811ef-5681-4c18-aac4-a62920f9a85c","ios":"levelo://app?vid=5b3811ef-5681-4c18-aac4-a62920f9a85c"},"vehicle_type_id":"4","last_reported":1770144110,"current_range_meters":7200,"station_id":"","pricing_plan_id":"cebpf4jnsgd1na2vs0mg"},{"bike_id":"5206eedc-908d-4fe2-bdc4-a2088b39b241","system_id":"levelo_inurba_marseille","lat":43.24457,"lon":5.42535,"is_reserved":false,"is_disabled":false,"rental_uris":{"android":"levelo://app?vid=5206eedc-908d-4fe2-bdc4-a2088b39b241","ios":"levelo://app?vid=5206eedc-908d-4fe2-bdc4-a2088b39b241"},"vehicle_type_id":"4","last_reported":1770144110,"current_range_meters":7200,"station_id":"st_d4a3vfp97mjs738cd8kg","pricing_plan_id":"cebpf4jnsgd1na2vs0mg"},{"bike_id":"7619b0b4-d99a-4e63-9be1-0c70d7a1f4da","system_id":"levelo_inurba_marseille","lat":43.27207,"lon":5.39181,"is_reserved":false,"is_disabled":false,"rental_uris":{"android":"levelo://app?vid=7619b0b4-d99a-4e63-9be1-0c70d7a1f4da","ios":"levelo://app?vid=7619b0b4-d99a-4e63-9be1-0c70d7a1f4da"},"vehicle_type_id":"4","last_reported":1770144110,"current_range_meters":7200,"station_id":"ce4bhhp2rcd13ifvqfm0","pricing_plan_id":"cebpf4jnsgd1na2vs0mg"},{"bike_id":"ad52d447-970d-4312-b8b7-a96aeb82b8c4","system_id":"levelo_inurba_marseille","lat":43.29535,"lon":5.39398,"is_reserved":false,"is_disabled":false,"rental_uris":{"android":"levelo://app?vid=ad52d447-970d-4312-b8b7-a96aeb82b8c4","ios":"levelo://app?vid=ad52d447-970d-4312-b8b7-a96aeb82b8c4"},"vehicle_type_id":"4","last_reported":1770144110,"current_range_meters":7200,"station_id":"ce4bh292rcd13ifvqdf0","pricing_plan_id":"cebpf4jnsgd1na2vs0mg"},{"bike_id":"6648b726-248a-4235-8962-e02d3f57c3f3","system_id":"levelo_inurba_marseille","lat":43.25003,"lon":5.38932,"is_reserved":false,"is_disabled":false,"rental_uris":{"android":"levelo://app?vid=6648b726-248a-4235-8962-e02d3f57c3f3","ios":"levelo://app?vid=6648b726-248a-4235-8962-e02d3f57c3f3"},"vehicle_type_id":"4","last_reported":1770144110,"current_range_meters":7200,"station_id":"ce4bhgp2rcd13ifvqfd0","pricing_plan_id":"cebpf4jnsgd1na2vs0mg"},{"bike_id":"b0de10e1-c8dd-4794-bb07-685c2b13619b","system_id":"levelo_inurba_marseille","lat":43.24953,"lon":5.40483,"is_reserved":false,"is_disabled":false,"rental_uris":{"android":"levelo://app?vid=b0de10e1-c8dd-4794-bb07-685c2b13619b","ios":"levelo://app?vid=b0de10e1-c8dd-4794-bb07-685c2b13619b"},"vehicle_type_id":"4","last_reported":1770144110,"current_range_meters":7200,"station_id":"st_d2ngiaodas8pm72gd1h0","pricing_plan_id":"cebpf4jnsgd1na2vs0mg"},{"bike_id":"25496584-5c32-47bc-8f81-85d656015f1e","system_id":"levelo_inurba_marseille","lat":43.27208,"lon":5.39177,"is_reserved":false,"is_disabled":false,"rental_uris":{"android":"levelo://app?vid=25496584-5c32-47bc-8f81-85d656015f1e","ios":"levelo://app?vid=25496584-5c32-47bc-8f81-85d656015f1e"},"vehicle_type_id":"4","last_reported":1770144110,"current_range_meters":7200,"station_id":"ce4bhhp2rcd13ifvqfm0","pricing_plan_id":"cebpf4jnsgd1na2vs0mg"},{"bike_id":"2f9410d4-dca3-481a-ade2-11d88417d88f","system_id":"levelo_inurba_marseille","lat":43.318832,"lon":5.407405,"is_reserved":false,"is_disabled":false,"rental_uris":{"android":"levelo://app?vid=2f9410d4-dca3-481a-ade2-11d88417d88f","ios":"levelo://app?vid=2f9410d4-dca3-481a-ade2-11d88417d88f"},"vehicle_type_id":"4","last_reported":1770144110,"current_range_meters":7200,"station_id":"","pricing_plan_id":"cebpf4jnsgd1na2vs0mg"},{"bike_id":"8b9edea9-0208-410f-9c23-417b427446ac","system_id":"levelo_inurba_marseille","lat":43.27899,"lon":5.38,"is_reserved":false,"is_disabled":false,"rental_uris":{"android":"levelo://app?vid=8b9edea9-0208-410f-9c23-417b427446ac","ios":"levelo://app?vid=8b9edea9-0208-410f-9c23-417b427446ac"},"vehicle_type_id":"4","last_reported":1770144110,"current_range_meters":8000,"station_id":"ce4bhf92rcd13ifvqf50","pricing_plan_id":"cebpf4jnsgd1na2vs0mg"},{"bike_id":"3496e3d5-ade9-4ef3-89c7-6224a9796381","system_id":"levelo_inurba_marseille","lat":43.23196,"lon":5.3555,"is_reserved":false,"is_disabled":false,"rental_uris":{"android":"levelo://app?vid=3496e3d5-ade9-4ef3-89c7-6224a9796381","ios":"levelo://app?vid=3496e3d5-ade9-4ef3-89c7-6224a9796381"},"vehicle_type_id":"4","last_reported":1770144110,"current_range_meters":8000,"station_id":"ce4bhu92rcd13ifvqi70","pricing_plan_id":"cebpf4jnsgd1na2vs0mg"},{"bike_id":"6a084483-afc7-4f5b-8d7b-e9afa3908823","system_id":"levelo_inurba_marseille","lat":43.30297,"lon":5.36882,"is_reserved":false,"is_disabled":false,"rental_uris":{"android":"levelo://app?vid=6a084483-afc7-4f5b-8d7b-e9afa3908823","ios":"levelo://app?vid=6a084483-afc7-4f5b-8d7b-e9afa3908823"},"vehicle_type_id":"4","last_reported":1770144110,"current_range_meters":8000,"station_id":"ce4bgqh2rcd13ifvqc5g","pricing_plan_id":"cebpf4jnsgd1na2vs0mg"},{"bike_id":"81f974fe-76a7-4b0a-927b-0f80730a75ae","system_id":"levelo_inurba_marseille","lat":43.29551,"lon":5.38003,"is_reserved":false,"is_disabled":false,"rental_uris":{"android":"levelo://app?vid=81f974fe-76a7-4b0a-927b-0f80730a75ae","ios":"levelo://app?vid=81f974fe-76a7-4b0a-927b-0f80730a75ae"},"vehicle_type_id":"4","last_reported":1770144110,"current_range_meters":8000,"station_id":"","pricing_plan_id":"cebpf4jnsgd1na2vs0mg"},{"bike_id":"cc54aa06-ecc9-429c-bcde-9011049137ff","system_id":"levelo_inurba_marseille","lat":43.279,"lon":5.38007,"is_reserved":false,"is_disabled":false,"rental_uris":{"android":"levelo://app?vid=cc54aa06-ecc9-429c-bcde-9011049137ff","ios":"levelo://app?vid=cc54aa06-ecc9-429c-bcde-9011049137ff"},"vehicle_type_id":"4","last_reported":1770144110,"current_range_meters":8000,"station_id":"ce4bhf92rcd13ifvqf50","pricing_plan_id":"cebpf4jnsgd1na2vs0mg"},{"bike_id":"5268a57b-c5c9-446a-87ff-ede823dc6bfa","system_id":"levelo_inurba_marseille","lat":43.28565,"lon":5.39492,"is_reserved":false,"is_disabled":false,"rental_uris":{"android":"levelo://app?vid=5268a57b-c5c9-446a-87ff-ede823dc6bfa","ios":"levelo://app?vid=5268a57b-c5c9-446a-87ff-ede823dc6bfa"},"vehicle_type_id":"4","last_reported":1770144110,"current_range_meters":8000,"station_id":"ce4bh292rcd13ifvqdg0","pricing_plan_id":"cebpf4jnsgd1na2vs0mg"},{"bike_id":"e7456f87-5ddc-404c-a698-18f11e78a2cf","system_id":"levelo_inurba_marseille","lat":43.28572,"lon":5.39494,"is_reserved":false,"is_disabled":false,"rental_uris":{"android":"levelo://app?vid=e7456f87-5ddc-404c-a698-18f11e78a2cf","ios":"levelo://app?vid=e7456f87-5ddc-404c-a698-18f11e78a2cf"},"vehicle_type_id":"4","last_reported":1770144110,"current_range_meters":8000,"station_id":"ce4bh292rcd13ifvqdg0","pricing_plan_id":"cebpf4jnsgd1na2vs0mg"},{"bike_id":"191a99ed-49ff-4737-8f82-7264bf56cc6c","system_id":"levelo_inurba_marseille","lat":43.24998,"lon":5.38927,"is_reserved":false,"is_disabled":false,"rental_uris":{"android":"levelo://app?vid=191a99ed-49ff-4737-8f82-7264bf56cc6c","ios":"levelo://app?vid=191a99ed-49ff-4737-8f82-7264bf56cc6c"},"vehicle_type_id":"4","last_reported":1770144110,"current_range_meters":8000,"station_id":"ce4bhgp2rcd13ifvqfd0","pricing_plan_id":"cebpf4jnsgd1na2vs0mg"},{"bike_id":"5de5e604-6504-4a1a-966a-dc6c49a789b3","system_id":"levelo_inurba_marseille","lat":43.29603,"lon":5.36731,"is_reserved":false,"is_disabled":false,"rental_uris":{"android":"levelo://app?vid=5de5e604-6504-4a1a-966a-dc6c49a789b3","ios":"levelo://app?vid=5de5e604-6504-4a1a-966a-dc6c49a789b3"},"vehicle_type_id":"4","last_reported":1770144110,"current_range_meters":8000,"station_id":"ce4bgph2rcd13ifvqc2g","pricing_plan_id":"cebpf4jnsgd1na2vs0mg"},{"bike_id":"14b296f1-3ee3-4a0b-acce-8bd34a8bc3e5","system_id":"levelo_inurba_marseille","lat":43.29798,"lon":5.38104,"is_reserved":false,"is_disabled":false,"rental_uris":{"android":"levelo://app?vid=14b296f1-3ee3-4a0b-acce-8bd34a8bc3e5","ios":"levelo://app?vid=14b296f1-3ee3-4a0b-acce-8bd34a8bc3e5"},"vehicle_type_id":"4","last_reported":1770144110,"current_range_meters":8000,"station_id":"ce4bgip2rcd13ifvqbb0","pricing_plan_id":"cebpf4jnsgd1na2vs0mg"},{"bike_id":"fba83296-cf08-4ba9-8267-d1dc13133a44","system_id":"levelo_inurba_marseille","lat":43.26245,"lon":5.40487,"is_reserved":false,"is_disabled":false,"rental_uris":{"android":"levelo://app?vid=fba83296-cf08-4ba9-8267-d1dc13133a44","ios":"levelo://app?vid=fba83296-cf08-4ba9-8267-d1dc13133a44"},"vehicle_type_id":"4","last_reported":1770144110,"current_range_meters":8000,"station_id":"ce4bhmh2rcd13ifvqgmg","pricing_plan_id":"cebpf4jnsgd1na2vs0mg"},{"bike_id":"1b5a9ce0-a712-4e6e-83a1-5b3d08083ec7","system_id":"levelo_inurba_marseille","lat":43.23203,"lon":5.35546,"is_reserved":false,"is_disabled":false,"rental_uris":{"android":"levelo://app?vid=1b5a9ce0-a712-4e6e-83a1-5b3d08083ec7","ios":"levelo://app?vid=1b5a9ce0-a712-4e6e-83a1-5b3d08083ec7"},"vehicle_type_id":"4","last_reported":1770144110,"current_range_meters":8000,"station_id":"ce4bhu92rcd13ifvqi70","pricing_plan_id":"cebpf4jnsgd1na2vs0mg"},{"bike_id":"ccad5bb8-727e-4e27-b0cc-7b2f496ea109","system_id":"levelo_inurba_marseille","lat":43.29548,"lon":5.42279,"is_reserved":false,"is_disabled":false,"rental_uris":{"android":"levelo://app?vid=ccad5bb8-727e-4e27-b0cc-7b2f496ea109","ios":"levelo://app?vid=ccad5bb8-727e-4e27-b0cc-7b2f496ea109"},"vehicle_type_id":"4","last_reported":1770144110,"current_range_meters":8000,"station_id":"ce4bhph2rcd13ifvqhdg","pricing_plan_id":"cebpf4jnsgd1na2vs0mg"},{"bike_id":"b76b0812-c1ce-4144-9b78-716e1fd3e796","system_id":"levelo_inurba_marseille","lat":43.28642,"lon":5.35085,"is_reserved":false,"is_disabled":false,"rental_uris":{"android":"levelo://app?vid=b76b0812-c1ce-4144-9b78-716e1fd3e796","ios":"levelo://app?vid=b76b0812-c1ce-4144-9b78-716e1fd3e796"},"vehicle_type_id":"4","last_reported":1770144110,"current_range_meters":8000,"station_id":"ce4bhch2rcd13ifvqeug","pricing_plan_id":"cebpf4jnsgd1na2vs0mg"},{"bike_id":"ebb15815-1365-488d-a98b-a0d234ebb784","system_id":"levelo_inurba_marseille","lat":43.29545,"lon":5.38541,"is_reserved":false,"is_disabled":false,"rental_uris":{"android":"levelo://app?vid=ebb15815-1365-488d-a98b-a0d234ebb784","ios":"levelo://app?vid=ebb15815-1365-488d-a98b-a0d234ebb784"},"vehicle_type_id":"4","last_reported":1770144110,"current_range_meters":8000,"station_id":"ce4bgih2rcd13ifvqba0","pricing_plan_id":"cebpf4jnsgd1na2vs0mg"},{"bike_id":"e6fe5b1f-c861-4edc-882d-3c4720418d29","system_id":"levelo_inurba_marseille","lat":43.28415,"lon":5.34996,"is_reserved":false,"is_disabled":false,"rental_uris":{"android":"levelo://app?vid=e6fe5b1f-c861-4edc-882d-3c4720418d29","ios":"levelo://app?vid=e6fe5b1f-c861-4edc-882d-3c4720418d29"},"vehicle_type_id":"4","last_reported":1770144110,"current_range_meters":8000,"station_id":"ce4bhbh2rcd13ifvqepg","pricing_plan_id":"cebpf4jnsgd1na2vs0mg"},{"bike_id":"6af4a512-b870-4208-8e6e-886e0c2e6be0","system_id":"levelo_inurba_marseille","lat":43.29879,"lon":5.39725,"is_reserved":false,"is_disabled":false,"rental_uris":{"android":"levelo://app?vid=6af4a512-b870-4208-8e6e-886e0c2e6be0","ios":"levelo://app?vid=6af4a512-b870-4208-8e6e-886e0c2e6be0"},"vehicle_type_id":"4","last_reported":1770144110,"current_range_meters":8000,"station_id":"ce4bh0h2rcd13ifvqd50","pricing_plan_id":"cebpf4jnsgd1na2vs0mg"},{"bike_id":"69cee04c-a87b-4f70-a6c8-b651de79778e","system_id":"levelo_inurba_marseille","lat":43.27427,"lon":5.39409,"is_reserved":false,"is_disabled":false,"rental_uris":{"android":"levelo://app?vid=69cee04c-a87b-4f70-a6c8-b651de79778e","ios":"levelo://app?vid=69cee04c-a87b-4f70-a6c8-b651de79778e"},"vehicle_type_id":"4","last_reported":1770144110,"current_range_meters":8000,"station_id":"ce4bhdp2rcd13ifvqf20","pricing_plan_id":"cebpf4jnsgd1na2vs0mg"},{"bike_id":"10f7a738-c950-4147-bce6-61a9962a70b5","system_id":"levelo_inurba_marseille","lat":43.25069,"lon":5.39517,"is_reserved":false,"is_disabled":false,"rental_uris":{"android":"levelo://app?vid=10f7a738-c950-4147-bce6-61a9962a70b5","ios":"levelo://app?vid=10f7a738-c950-4147-bce6-61a9962a70b5"},"vehicle_type_id":"4","last_reported":1770144110,"current_range_meters":8000,"station_id":"ce4bhm12rcd13ifvqgkg","pricing_plan_id":"cebpf4jnsgd1na2vs0mg"},{"bike_id":"c8fbb1c4-b8cb-4f51-bdc8-8cd932cab449","system_id":"levelo_inurba_marseille","lat":43.283759,"lon":5.386389,"is_reserved":false,"is_disabled":false,"rental_uris":{"android":"levelo://app?vid=c8fbb1c4-b8cb-4f51-bdc8-8cd932cab449","ios":"levelo://app?vid=c8fbb1c4-b8cb-4f51-bdc8-8cd932cab449"},"vehicle_type_id":"4","last_reported":1770144110,"current_range_meters":8000,"station_id":"ce4bh492rcd13ifvqdvg","pricing_plan_id":"cebpf4jnsgd1na2vs0mg"},{"bike_id":"8e312380-e745-433d-90b9-ff07a309073d","system_id":"levelo_inurba_marseille","lat":43.24809,"lon":5.37443,"is_reserved":false,"is_disabled":false,"rental_uris":{"android":"levelo://app?vid=8e312380-e745-433d-90b9-ff07a309073d","ios":"levelo://app?vid=8e312380-e745-433d-90b9-ff07a309073d"},"vehicle_type_id":"4","last_reported":1770144110,"current_range_meters":8400,"station_id":"ce4bhgh2rcd13ifvqfb0","pricing_plan_id":"cebpf4jnsgd1na2vs0mg"},{"bike_id":"c056efdd-bfd4-4d90-a2c4-30f136ba140c","system_id":"levelo_inurba_marseille","lat":43.335045,"lon":5.374825,"is_reserved":false,"is_disabled":false,"rental_uris":{"android":"levelo://app?vid=c056efdd-bfd4-4d90-a2c4-30f136ba140c","ios":"levelo://app?vid=c056efdd-bfd4-4d90-a2c4-30f136ba140c"},"vehicle_type_id":"4","last_reported":1770144110,"current_range_meters":8400,"station_id":"","pricing_plan_id":"cebpf4jnsgd1na2vs0mg"},{"bike_id":"7b6e6cb4-2205-41a4-8d00-220c9fa75080","system_id":"levelo_inurba_marseille","lat":43.28492,"lon":5.38429,"is_reserved":false,"is_disabled":false,"rental_uris":{"android":"levelo://app?vid=7b6e6cb4-2205-41a4-8d00-220c9fa75080","ios":"levelo://app?vid=7b6e6cb4-2205-41a4-8d00-220c9fa75080"},"vehicle_type_id":"4","last_reported":1770144110,"current_range_meters":8400,"station_id":"ce4bh512rcd13ifvqe3g","pricing_plan_id":"cebpf4jnsgd1na2vs0mg"},{"bike_id":"3798994f-c3e0-43ca-8ea5-f7db8f79a26d","system_id":"levelo_inurba_marseille","lat":43.30643,"lon":5.40073,"is_reserved":false,"is_disabled":false,"rental_uris":{"android":"levelo://app?vid=3798994f-c3e0-43ca-8ea5-f7db8f79a26d","ios":"levelo://app?vid=3798994f-c3e0-43ca-8ea5-f7db8f79a26d"},"vehicle_type_id":"4","last_reported":1770144110,"current_range_meters":8400,"station_id":"ce4bh112rcd13ifvqda0","pricing_plan_id":"cebpf4jnsgd1na2vs0mg"},{"bike_id":"574b46f0-3f1e-4de0-961b-a840353bfcf3","system_id":"levelo_inurba_marseille","lat":43.23787,"lon":5.36607,"is_reserved":false,"is_disabled":false,"rental_uris":{"android":"levelo://app?vid=574b46f0-3f1e-4de0-961b-a840353bfcf3","ios":"levelo://app?vid=574b46f0-3f1e-4de0-961b-a840353bfcf3"},"vehicle_type_id":"4","last_reported":1770144110,"current_range_meters":8400,"station_id":"st_d3nk18o9ro0c73en2l3g","pricing_plan_id":"cebpf4jnsgd1na2vs0mg"},{"bike_id":"85abf2ca-c23c-4f48-b10d-5858680e2422","system_id":"levelo_inurba_marseille","lat":43.26206,"lon":5.37926,"is_reserved":false,"is_disabled":false,"rental_uris":{"android":"levelo://app?vid=85abf2ca-c23c-4f48-b10d-5858680e2422","ios":"levelo://app?vid=85abf2ca-c23c-4f48-b10d-5858680e2422"},"vehicle_type_id":"4","last_reported":1770144110,"current_range_meters":8400,"station_id":"ce4bhjp2rcd13ifvqg90","pricing_plan_id":"cebpf4jnsgd1na2vs0mg"},{"bike_id":"ba3390f5-14ed-4160-abcf-8bea19885613","system_id":"levelo_inurba_marseille","lat":43.28474,"lon":5.48385,"is_reserved":false,"is_disabled":false,"rental_uris":{"android":"levelo://app?vid=ba3390f5-14ed-4160-abcf-8bea19885613","ios":"levelo://app?vid=ba3390f5-14ed-4160-abcf-8bea19885613"},"vehicle_type_id":"4","last_reported":1770144110,"current_range_meters":8400,"station_id":"st_d3svhcjqgbts73a3dn0g","pricing_plan_id":"cebpf4jnsgd1na2vs0mg"},{"bike_id":"02cb8e6d-d72c-4447-a724-d8f35492fa92","system_id":"levelo_inurba_marseille","lat":43.30856,"lon":5.36859,"is_reserved":false,"is_disabled":false,"rental_uris":{"android":"levelo://app?vid=02cb8e6d-d72c-4447-a724-d8f35492fa92","ios":"levelo://app?vid=02cb8e6d-d72c-4447-a724-d8f35492fa92"},"vehicle_type_id":"4","last_reported":1770144110,"current_range_meters":8400,"station_id":"","pricing_plan_id":"cebpf4jnsgd1na2vs0mg"},{"bike_id":"3dec85eb-9031-4c59-8266-8b7afe586ce2","system_id":"levelo_inurba_marseille","lat":43.28857,"lon":5.35845,"is_reserved":false,"is_disabled":false,"rental_uris":{"android":"levelo://app?vid=3dec85eb-9031-4c59-8266-8b7afe586ce2","ios":"levelo://app?vid=3dec85eb-9031-4c59-8266-8b7afe586ce2"},"vehicle_type_id":"4","last_reported":1770144110,"current_range_meters":8400,"station_id":"ce4bhb12rcd13ifvqem0","pricing_plan_id":"cebpf4jnsgd1na2vs0mg"},{"bike_id":"b886faeb-2ae5-4849-a4c7-c906741f8bf1","system_id":"levelo_inurba_marseille","lat":43.26577,"lon":5.40317,"is_reserved":false,"is_disabled":false,"rental_uris":{"android":"levelo://app?vid=b886faeb-2ae5-4849-a4c7-c906741f8bf1","ios":"levelo://app?vid=b886faeb-2ae5-4849-a4c7-c906741f8bf1"},"vehicle_type_id":"4","last_reported":1770144110,"current_range_meters":8400,"station_id":"ce4bhmp2rcd13ifvqgng","pricing_plan_id":"cebpf4jnsgd1na2vs0mg"},{"bike_id":"068098b6-2917-46c3-bbcd-2f4568f90c7b","system_id":"levelo_inurba_marseille","lat":43.28617,"lon":5.35096,"is_reserved":false,"is_disabled":true,"rental_uris":{"android":"levelo://app?vid=068098b6-2917-46c3-bbcd-2f4568f90c7b","ios":"levelo://app?vid=068098b6-2917-46c3-bbcd-2f4568f90c7b"},"vehicle_type_id":"4","last_reported":1770144110,"current_range_meters":8400,"station_id":"","pricing_plan_id":"cebpf4jnsgd1na2vs0mg"},{"bike_id":"03957cd6-ee2d-47d1-948d-c3da3284d226","system_id":"levelo_inurba_marseille","lat":43.28964,"lon":5.36412,"is_reserved":false,"is_disabled":true,"rental_uris":{"android":"levelo://app?vid=03957cd6-ee2d-47d1-948d-c3da3284d226","ios":"levelo://app?vid=03957cd6-ee2d-47d1-948d-c3da3284d226"},"vehicle_type_id":"4","last_reported":1770144110,"current_range_meters":8400,"station_id":"ce4bhc92rcd13ifvqetg","pricing_plan_id":"cebpf4jnsgd1na2vs0mg"},{"bike_id":"27eb5eca-1ec5-48c0-939e-193c1aa4edc9","system_id":"levelo_inurba_marseille","lat":43.2533,"lon":5.42177,"is_reserved":false,"is_disabled":false,"rental_uris":{"android":"levelo://app?vid=27eb5eca-1ec5-48c0-939e-193c1aa4edc9","ios":"levelo://app?vid=27eb5eca-1ec5-48c0-939e-193c1aa4edc9"},"vehicle_type_id":"4","last_reported":1770144110,"current_range_meters":8400,"station_id":"st_d2m65c5bi1j21697t3ng","pricing_plan_id":"cebpf4jnsgd1na2vs0mg"},{"bike_id":"f73d32b1-e540-4c16-ab8a-5605b59fa301","system_id":"levelo_inurba_marseille","lat":43.31336,"lon":5.39691,"is_reserved":false,"is_disabled":false,"rental_uris":{"android":"levelo://app?vid=f73d32b1-e540-4c16-ab8a-5605b59fa301","ios":"levelo://app?vid=f73d32b1-e540-4c16-ab8a-5605b59fa301"},"vehicle_type_id":"4","last_reported":1770144110,"current_range_meters":8400,"station_id":"ce4bgvp2rcd13ifvqcu0","pricing_plan_id":"cebpf4jnsgd1na2vs0mg"},{"bike_id":"a1d40264-31fa-4368-a92c-3f50c8a64b96","system_id":"levelo_inurba_marseille","lat":43.231555,"lon":5.437038,"is_reserved":false,"is_disabled":false,"rental_uris":{"android":"levelo://app?vid=a1d40264-31fa-4368-a92c-3f50c8a64b96","ios":"levelo://app?vid=a1d40264-31fa-4368-a92c-3f50c8a64b96"},"vehicle_type_id":"4","last_reported":1770144110,"current_range_meters":8400,"station_id":"ce4bhmp2rcd13ifvqgog","pricing_plan_id":"cebpf4jnsgd1na2vs0mg"},{"bike_id":"efea85db-b1c8-46f7-b3e0-9fa246910aa6","system_id":"levelo_inurba_marseille","lat":43.23201,"lon":5.39967,"is_reserved":false,"is_disabled":false,"rental_uris":{"android":"levelo://app?vid=efea85db-b1c8-46f7-b3e0-9fa246910aa6","ios":"levelo://app?vid=efea85db-b1c8-46f7-b3e0-9fa246910aa6"},"vehicle_type_id":"4","last_reported":1770144110,"current_range_meters":8400,"station_id":"ce4bhn12rcd13ifvqgqg","pricing_plan_id":"cebpf4jnsgd1na2vs0mg"},{"bike_id":"f007ea2b-155b-4f20-8602-b8d6dc843d05","system_id":"levelo_inurba_marseille","lat":43.2947,"lon":5.39608,"is_reserved":false,"is_disabled":false,"rental_uris":{"android":"levelo://app?vid=f007ea2b-155b-4f20-8602-b8d6dc843d05","ios":"levelo://app?vid=f007ea2b-155b-4f20-8602-b8d6dc843d05"},"vehicle_type_id":"4","last_reported":1770144110,"current_range_meters":8400,"station_id":"","pricing_plan_id":"cebpf4jnsgd1na2vs0mg"},{"bike_id":"f1510834-4f72-4738-aa6c-02f6ddaa6ac3","system_id":"levelo_inurba_marseille","lat":43.24818,"lon":5.37451,"is_reserved":false,"is_disabled":false,"rental_uris":{"android":"levelo://app?vid=f1510834-4f72-4738-aa6c-02f6ddaa6ac3","ios":"levelo://app?vid=f1510834-4f72-4738-aa6c-02f6ddaa6ac3"},"vehicle_type_id":"4","last_reported":1770144110,"current_range_meters":8400,"station_id":"ce4bhgh2rcd13ifvqfb0","pricing_plan_id":"cebpf4jnsgd1na2vs0mg"},{"bike_id":"53b07945-9359-4899-a192-4a422bcdeae9","system_id":"levelo_inurba_marseille","lat":43.28275,"lon":5.35072,"is_reserved":false,"is_disabled":false,"rental_uris":{"android":"levelo://app?vid=53b07945-9359-4899-a192-4a422bcdeae9","ios":"levelo://app?vid=53b07945-9359-4899-a192-4a422bcdeae9"},"vehicle_type_id":"4","last_reported":1770144110,"current_range_meters":8400,"station_id":"ce4bhbp2rcd13ifvqerg","pricing_plan_id":"cebpf4jnsgd1na2vs0mg"},{"bike_id":"d25c30ce-208a-4865-aa8f-61a37bd60365","system_id":"levelo_inurba_marseille","lat":43.29567,"lon":5.38157,"is_reserved":false,"is_disabled":false,"rental_uris":{"android":"levelo://app?vid=d25c30ce-208a-4865-aa8f-61a37bd60365","ios":"levelo://app?vid=d25c30ce-208a-4865-aa8f-61a37bd60365"},"vehicle_type_id":"4","last_reported":1770144110,"current_range_meters":8400,"station_id":"ce4bgl12rcd13ifvqbo0","pricing_plan_id":"cebpf4jnsgd1na2vs0mg"},{"bike_id":"a465db31-7c0b-44c0-9628-47573ee49f28","system_id":"levelo_inurba_marseille","lat":43.24671,"lon":5.38155,"is_reserved":false,"is_disabled":false,"rental_uris":{"android":"levelo://app?vid=a465db31-7c0b-44c0-9628-47573ee49f28","ios":"levelo://app?vid=a465db31-7c0b-44c0-9628-47573ee49f28"},"vehicle_type_id":"4","last_reported":1770144110,"current_range_meters":8400,"station_id":"ce4bhih2rcd13ifvqfr0","pricing_plan_id":"cebpf4jnsgd1na2vs0mg"},{"bike_id":"b3a54eab-b946-460c-8d1b-dbc0ce5bc3c5","system_id":"levelo_inurba_marseille","lat":43.28153,"lon":5.42636,"is_reserved":false,"is_disabled":false,"rental_uris":{"android":"levelo://app?vid=b3a54eab-b946-460c-8d1b-dbc0ce5bc3c5","ios":"levelo://app?vid=b3a54eab-b946-460c-8d1b-dbc0ce5bc3c5"},"vehicle_type_id":"4","last_reported":1770144110,"current_range_meters":8400,"station_id":"ce4bhnh2rcd13ifvqgug","pricing_plan_id":"cebpf4jnsgd1na2vs0mg"},{"bike_id":"b400d0d1-16a3-415c-aed7-795b02fab862","system_id":"levelo_inurba_marseille","lat":43.30544,"lon":5.36549,"is_reserved":false,"is_disabled":false,"rental_uris":{"android":"levelo://app?vid=b400d0d1-16a3-415c-aed7-795b02fab862","ios":"levelo://app?vid=b400d0d1-16a3-415c-aed7-795b02fab862"},"vehicle_type_id":"4","last_reported":1770144110,"current_range_meters":8400,"station_id":"ce4bgs12rcd13ifvqcag","pricing_plan_id":"cebpf4jnsgd1na2vs0mg"},{"bike_id":"5db40262-c973-4b13-b2a9-ee1639ccf6b3","system_id":"levelo_inurba_marseille","lat":43.24773,"lon":5.37447,"is_reserved":false,"is_disabled":false,"rental_uris":{"android":"levelo://app?vid=5db40262-c973-4b13-b2a9-ee1639ccf6b3","ios":"levelo://app?vid=5db40262-c973-4b13-b2a9-ee1639ccf6b3"},"vehicle_type_id":"4","last_reported":1770144110,"current_range_meters":8800,"station_id":"ce4bhgh2rcd13ifvqfb0","pricing_plan_id":"cebpf4jnsgd1na2vs0mg"},{"bike_id":"48d0f5f5-2f02-4b7d-b8d5-1caa14083d04","system_id":"levelo_inurba_marseille","lat":43.26191,"lon":5.37437,"is_reserved":false,"is_disabled":false,"rental_uris":{"android":"levelo://app?vid=48d0f5f5-2f02-4b7d-b8d5-1caa14083d04","ios":"levelo://app?vid=48d0f5f5-2f02-4b7d-b8d5-1caa14083d04"},"vehicle_type_id":"4","last_reported":1770144110,"current_range_meters":8800,"station_id":"ce4bhgp2rcd13ifvqfc0","pricing_plan_id":"cebpf4jnsgd1na2vs0mg"},{"bike_id":"25ed47fc-271f-4de7-a2a6-6e589391bb92","system_id":"levelo_inurba_marseille","lat":43.28417,"lon":5.34985,"is_reserved":false,"is_disabled":false,"rental_uris":{"android":"levelo://app?vid=25ed47fc-271f-4de7-a2a6-6e589391bb92","ios":"levelo://app?vid=25ed47fc-271f-4de7-a2a6-6e589391bb92"},"vehicle_type_id":"4","last_reported":1770144110,"current_range_meters":8800,"station_id":"ce4bhbh2rcd13ifvqepg","pricing_plan_id":"cebpf4jnsgd1na2vs0mg"},{"bike_id":"30a564fc-cc84-4416-a8a0-217a2d812352","system_id":"levelo_inurba_marseille","lat":43.31718,"lon":5.4047,"is_reserved":false,"is_disabled":false,"rental_uris":{"android":"levelo://app?vid=30a564fc-cc84-4416-a8a0-217a2d812352","ios":"levelo://app?vid=30a564fc-cc84-4416-a8a0-217a2d812352"},"vehicle_type_id":"4","last_reported":1770144110,"current_range_meters":8800,"station_id":"ce4bh012rcd13ifvqd00","pricing_plan_id":"cebpf4jnsgd1na2vs0mg"},{"bike_id":"5892fc85-7848-4ac6-9041-3115ffbc60b4","system_id":"levelo_inurba_marseille","lat":43.24684,"lon":5.38201,"is_reserved":false,"is_disabled":false,"rental_uris":{"android":"levelo://app?vid=5892fc85-7848-4ac6-9041-3115ffbc60b4","ios":"levelo://app?vid=5892fc85-7848-4ac6-9041-3115ffbc60b4"},"vehicle_type_id":"4","last_reported":1770144110,"current_range_meters":8800,"station_id":"ce4bhih2rcd13ifvqfr0","pricing_plan_id":"cebpf4jnsgd1na2vs0mg"},{"bike_id":"242256f5-f0bd-4204-9565-2087ceacdda5","system_id":"levelo_inurba_marseille","lat":43.22561,"lon":5.41621,"is_reserved":false,"is_disabled":false,"rental_uris":{"android":"levelo://app?vid=242256f5-f0bd-4204-9565-2087ceacdda5","ios":"levelo://app?vid=242256f5-f0bd-4204-9565-2087ceacdda5"},"vehicle_type_id":"4","last_reported":1770144110,"current_range_meters":8800,"station_id":"st_d2o4gvlbi1j2169b742g","pricing_plan_id":"cebpf4jnsgd1na2vs0mg"},{"bike_id":"96e49849-f2c5-4ac0-be4d-c561f8c3542f","system_id":"levelo_inurba_marseille","lat":43.27066,"lon":5.40247,"is_reserved":false,"is_disabled":false,"rental_uris":{"android":"levelo://app?vid=96e49849-f2c5-4ac0-be4d-c561f8c3542f","ios":"levelo://app?vid=96e49849-f2c5-4ac0-be4d-c561f8c3542f"},"vehicle_type_id":"4","last_reported":1770144110,"current_range_meters":8800,"station_id":"ce4bhk92rcd13ifvqgc0","pricing_plan_id":"cebpf4jnsgd1na2vs0mg"},{"bike_id":"6d453c1b-279e-4ffc-96bb-7c16ec125e0c","system_id":"levelo_inurba_marseille","lat":43.26228,"lon":5.4046,"is_reserved":false,"is_disabled":false,"rental_uris":{"android":"levelo://app?vid=6d453c1b-279e-4ffc-96bb-7c16ec125e0c","ios":"levelo://app?vid=6d453c1b-279e-4ffc-96bb-7c16ec125e0c"},"vehicle_type_id":"4","last_reported":1770144110,"current_range_meters":8800,"station_id":"ce4bhmh2rcd13ifvqgmg","pricing_plan_id":"cebpf4jnsgd1na2vs0mg"},{"bike_id":"d1714153-902a-4cd2-991a-603c63295488","system_id":"levelo_inurba_marseille","lat":43.29193,"lon":5.38956,"is_reserved":false,"is_disabled":false,"rental_uris":{"android":"levelo://app?vid=d1714153-902a-4cd2-991a-603c63295488","ios":"levelo://app?vid=d1714153-902a-4cd2-991a-603c63295488"},"vehicle_type_id":"4","last_reported":1770144110,"current_range_meters":8800,"station_id":"","pricing_plan_id":"cebpf4jnsgd1na2vs0mg"},{"bike_id":"ef30bb24-f45f-400c-9967-a2a3b2da1488","system_id":"levelo_inurba_marseille","lat":43.28303,"lon":5.39433,"is_reserved":false,"is_disabled":false,"rental_uris":{"android":"levelo://app?vid=ef30bb24-f45f-400c-9967-a2a3b2da1488","ios":"levelo://app?vid=ef30bb24-f45f-400c-9967-a2a3b2da1488"},"vehicle_type_id":"4","last_reported":1770144110,"current_range_meters":8800,"station_id":"","pricing_plan_id":"cebpf4jnsgd1na2vs0mg"},{"bike_id":"9b9dcb74-136d-4633-ad54-6acfb0f78f42","system_id":"levelo_inurba_marseille","lat":43.26943,"lon":5.40243,"is_reserved":false,"is_disabled":false,"rental_uris":{"android":"levelo://app?vid=9b9dcb74-136d-4633-ad54-6acfb0f78f42","ios":"levelo://app?vid=9b9dcb74-136d-4633-ad54-6acfb0f78f42"},"vehicle_type_id":"4","last_reported":1770144110,"current_range_meters":8800,"station_id":"cjm6bp8fraef2m0cb0m0","pricing_plan_id":"cebpf4jnsgd1na2vs0mg"},{"bike_id":"fdc74734-8708-4513-9519-5478f60a2254","system_id":"levelo_inurba_marseille","lat":43.24813,"lon":5.37281,"is_reserved":false,"is_disabled":false,"rental_uris":{"android":"levelo://app?vid=fdc74734-8708-4513-9519-5478f60a2254","ios":"levelo://app?vid=fdc74734-8708-4513-9519-5478f60a2254"},"vehicle_type_id":"4","last_reported":1770144110,"current_range_meters":8800,"station_id":"ce4bhgh2rcd13ifvqfb0","pricing_plan_id":"cebpf4jnsgd1na2vs0mg"},{"bike_id":"33da5716-f5d5-42ce-8e2b-8f5ad6002090","system_id":"levelo_inurba_marseille","lat":43.30591,"lon":5.39354,"is_reserved":false,"is_disabled":false,"rental_uris":{"android":"levelo://app?vid=33da5716-f5d5-42ce-8e2b-8f5ad6002090","ios":"levelo://app?vid=33da5716-f5d5-42ce-8e2b-8f5ad6002090"},"vehicle_type_id":"4","last_reported":1770144110,"current_range_meters":8800,"station_id":"ce4bh0p2rcd13ifvqd80","pricing_plan_id":"cebpf4jnsgd1na2vs0mg"},{"bike_id":"04ab4868-a773-4da8-b9a9-f5fedd6e47ae","system_id":"levelo_inurba_marseille","lat":43.25716,"lon":5.4109,"is_reserved":false,"is_disabled":false,"rental_uris":{"android":"levelo://app?vid=04ab4868-a773-4da8-b9a9-f5fedd6e47ae","ios":"levelo://app?vid=04ab4868-a773-4da8-b9a9-f5fedd6e47ae"},"vehicle_type_id":"4","last_reported":1770144110,"current_range_meters":8800,"station_id":"ce4bhkp2rcd13ifvqgd0","pricing_plan_id":"cebpf4jnsgd1na2vs0mg"},{"bike_id":"ef4aafd7-31d8-4f9b-97f1-b8af2e53c15d","system_id":"levelo_inurba_marseille","lat":43.29883,"lon":5.43669,"is_reserved":false,"is_disabled":false,"rental_uris":{"android":"levelo://app?vid=ef4aafd7-31d8-4f9b-97f1-b8af2e53c15d","ios":"levelo://app?vid=ef4aafd7-31d8-4f9b-97f1-b8af2e53c15d"},"vehicle_type_id":"4","last_reported":1770144110,"current_range_meters":8800,"station_id":"ce4bhpp2rcd13ifvqhfg","pricing_plan_id":"cebpf4jnsgd1na2vs0mg"},{"bike_id":"9f6eacd2-76b8-4ec9-bde8-9882651e84bf","system_id":"levelo_inurba_marseille","lat":43.29267,"lon":5.38452,"is_reserved":false,"is_disabled":false,"rental_uris":{"android":"levelo://app?vid=9f6eacd2-76b8-4ec9-bde8-9882651e84bf","ios":"levelo://app?vid=9f6eacd2-76b8-4ec9-bde8-9882651e84bf"},"vehicle_type_id":"4","last_reported":1770144110,"current_range_meters":8800,"station_id":"ce4bh692rcd13ifvqea0","pricing_plan_id":"cebpf4jnsgd1na2vs0mg"},{"bike_id":"8946fb67-d5d7-4d31-82e5-b121f211a17d","system_id":"levelo_inurba_marseille","lat":43.30145,"lon":5.38056,"is_reserved":false,"is_disabled":false,"rental_uris":{"android":"levelo://app?vid=8946fb67-d5d7-4d31-82e5-b121f211a17d","ios":"levelo://app?vid=8946fb67-d5d7-4d31-82e5-b121f211a17d"},"vehicle_type_id":"4","last_reported":1770144110,"current_range_meters":8800,"station_id":"ce4bgjp2rcd13ifvqbh0","pricing_plan_id":"cebpf4jnsgd1na2vs0mg"},{"bike_id":"95a88ac7-978a-44d5-a852-40196205ab53","system_id":"levelo_inurba_marseille","lat":43.27059,"lon":5.40256,"is_reserved":false,"is_disabled":false,"rental_uris":{"android":"levelo://app?vid=95a88ac7-978a-44d5-a852-40196205ab53","ios":"levelo://app?vid=95a88ac7-978a-44d5-a852-40196205ab53"},"vehicle_type_id":"4","last_reported":1770144110,"current_range_meters":8800,"station_id":"ce4bhk92rcd13ifvqgc0","pricing_plan_id":"cebpf4jnsgd1na2vs0mg"},{"bike_id":"d4d04fe6-644e-4e9e-b6d2-1aad5cffa50d","system_id":"levelo_inurba_marseille","lat":43.30751,"lon":5.42454,"is_reserved":false,"is_disabled":false,"rental_uris":{"android":"levelo://app?vid=d4d04fe6-644e-4e9e-b6d2-1aad5cffa50d","ios":"levelo://app?vid=d4d04fe6-644e-4e9e-b6d2-1aad5cffa50d"},"vehicle_type_id":"4","last_reported":1770144110,"current_range_meters":8800,"station_id":"st_cvj6ca6bvosntc0bfgr0","pricing_plan_id":"cebpf4jnsgd1na2vs0mg"},