{"last_updated":1766243410,"ttl":60,"version":"2.2","data":{"bikes":[{"bike_id":"9b82ef7c-dba3-4b2c-b4ec-03cbc3ca1bdf","system_id":"levelo_inurba_marseille","lat":43.24724,"lon":5.38979,"is_reserved":false,"is_disabled":false,"rental_uris":{"android":"levelo://app?vid=9b82ef7c-dba3-4b2c-b4ec-03cbc3ca1bdf","ios":"levelo://app?vid=9b82ef7c-dba3-4b2c-b4ec-03cbc3ca1bdf"},"vehicle_type_id":"4","last_reported":1766243410,"current_range_meters":2800,"station_id":"","pricing_plan_id":"cebpf4jnsgd1na2vs0mg"},{"bike_id":"5e82d9d0-c0e6-4314-a155-15d859b235af","system_id":"levelo_inurba_marseille","lat":43.29294,"lon":5.37443,"is_reserved":false,"is_disabled":false,"rental_uris":{"android":"levelo://app?vid=5e82d9d0-c0e6-4314-a155-15d859b235af","ios":"levelo://app?vid=5e82d9d0-c0e6-4314-a155-15d859b235af"},"vehicle_type_id":"4","last_reported":1766243410,"current_range_meters":2800,"station_id":"ce4bgi12rcd13ifvqb70","pricing_plan_id":"cebpf4jnsgd1na2vs0mg"},{"bike_id":"f920df8f-2edf-4d2a-91be-52bb4a6474b0","system_id":"levelo_inurba_marseille","lat":43.283506,"lon":5.380994,"is_reserved":false,"is_disabled":false,"rental_uris":{"android":"levelo://app?vid=f920df8f-2edf-4d2a-91be-52bb4a6474b0","ios":"levelo://app?vid=f920df8f-2edf-4d2a-91be-52bb4a6474b0"},"vehicle_type_id":"4","last_reported":1766243410,"current_range_meters":2800,"station_id":"ce4bh412rcd13ifvqdr0","pricing_plan_id":"cebpf4jnsgd1na2vs0mg"},{"bike_id":"2774eca9-c878-4033-8514-2330fd47f167","system_id":"levelo_inurba_marseille","lat":43.28473,"lon":5.48393,"is_reserved":false,"is_disabled":false,"rental_uris":{"android":"levelo://app?vid=2774eca9-c878-4033-8514-2330fd47f167","ios":"levelo://app?vid=2774eca9-c878-4033-8514-2330fd47f167"},"vehicle_type_id":"4","last_reported":1766243410,"current_range_meters":2800,"station_id":"","pricing_plan_id":"cebpf4jnsgd1na2vs0mg"},{"bike_id":"fc3035b7-74e8-4018-b0f1-2ed60b1d2339","system_id":"levelo_inurba_marseille","lat":43.26492,"lon":5.39552,"is_reserved":false,"is_disabled":false,"rental_uris":{"android":"levelo://app?vid=fc3035b7-74e8-4018-b0f1-2ed60b1d2339","ios":"levelo://app?vid=fc3035b7-74e8-4018-b0f1-2ed60b1d2339"},"vehicle_type_id":"4","last_reported":1766243410,"current_range_meters":2800,"station_id":"ce4bhi12rcd13ifvqfq0","pricing_plan_id":"cebpf4jnsgd1na2vs0mg"},{"bike_id":"81283165-43ee-4c40-a1ca-a206a889bf20","system_id":"levelo_inurba_marseille","lat":43.25585,"lon":5.38238,"is_reserved":false,"is_disabled":false,"rental_uris":{"android":"levelo://app?vid=81283165-43ee-4c40-a1ca-a206a889bf20","ios":"levelo://app?vid=81283165-43ee-4c40-a1ca-a206a889bf20"},"vehicle_type_id":"4","last_reported":1766243410,"current_range_meters":3200,"station_id":"ce4bhih2rcd13ifvqfs0","pricing_plan_id":"cebpf4jnsgd1na2vs0mg"},{"bike_id":"89756c06-0681-4f7b-a419-2fe2621485f7","system_id":"levelo_inurba_marseille","lat":43.27656,"lon":5.39931,"is_reserved":false,"is_disabled":false,"rental_uris":{"android":"levelo://app?vid=89756c06-0681-4f7b-a419-2fe2621485f7","ios":"levelo://app?vid=89756c06-0681-4f7b-a419-2fe2621485f7"},"vehicle_type_id":"4","last_reported":1766243410,"current_range_meters":3200,"station_id":"","pricing_plan_id":"cebpf4jnsgd1na2vs0mg"},{"bike_id":"436e467e-3ef8-4484-b12e-82fd46509f97","system_id":"levelo_inurba_marseille","lat":43.23306,"lon":5.44415,"is_reserved":false,"is_disabled":false,"rental_uris":{"android":"levelo://app?vid=436e467e-3ef8-4484-b12e-82fd46509f97","ios":"levelo://app?vid=436e467e-3ef8-4484-b12e-82fd46509f97"},"vehicle_type_id":"4","last_reported":1766243410,"current_range_meters":3600,"station_id":"","pricing_plan_id":"cebpf4jnsgd1na2vs0mg"},{"bike_id":"4a614ce4-d61c-499d-8955-0569e02f377b","system_id":"levelo_inurba_marseille","lat":43.2752,"lon":5.37276,"is_reserved":false,"is_disabled":false,"rental_uris":{"android":"levelo://app?vid=4a614ce4-d61c-499d-8955-0569e02f377b","ios":"levelo://app?vid=4a614ce4-d61c-499d-8955-0569e02f377b"},"vehicle_type_id":"4","last_reported":1766243410,"current_range_meters":3600,"station_id":"","pricing_plan_id":"cebpf4jnsgd1na2vs0mg"},{"bike_id":"90fd9f8e-1f79-48ca-88f0-30b5a3adb4ad","system_id":"levelo_inurba_marseille","lat":43.3089,"lon":5.39649,"is_reserved":false,"is_disabled":false,"rental_uris":{"android":"levelo://app?vid=90fd9f8e-1f79-48ca-88f0-30b5a3adb4ad","ios":"levelo://app?vid=90fd9f8e-1f79-48ca-88f0-30b5a3adb4ad"},"vehicle_type_id":"4","last_reported":1766243410,"current_range_meters":3600,"station_id":"ce4bh012rcd13ifvqcv0","pricing_plan_id":"cebpf4jnsgd1na2vs0mg"},{"bike_id":"5ea2a388-c0e8-474b-8802-c8de8918800f","system_id":"levelo_inurba_marseille","lat":43.28416,"lon":5.34973,"is_reserved":false,"is_disabled":false,"rental_uris":{"android":"levelo://app?vid=5ea2a388-c0e8-474b-8802-c8de8918800f","ios":"levelo://app?vid=5ea2a388-c0e8-474b-8802-c8de8918800f"},"vehicle_type_id":"4","last_reported":1766243410,"current_range_meters":3600,"station_id":"ce4bhbh2rcd13ifvqepg","pricing_plan_id":"cebpf4jnsgd1na2vs0mg"},{"bike_id":"17a28dc4-0f43-4384-b4cb-4d54c6c4eac9","system_id":"levelo_inurba_marseille","lat":43.27424,"lon":5.39399,"is_reserved":false,"is_disabled":false,"rental_uris":{"android":"levelo://app?vid=17a28dc4-0f43-4384-b4cb-4d54c6c4eac9","ios":"levelo://app?vid=17a28dc4-0f43-4384-b4cb-4d54c6c4eac9"},"vehicle_type_id":"4","last_reported":1766243410,"current_range_meters":4000,"station_id":"ce4bhdp2rcd13ifvqf20","pricing_plan_id":"cebpf4jnsgd1na2vs0mg"},{"bike_id":"4ac6388b-d697-47fb-9906-8759a851dcc0","system_id":"levelo_inurba_marseille","lat":43.29359,"lon":5.37855,"is_reserved":false,"is_disabled":false,"rental_uris":{"android":"levelo://app?vid=4ac6388b-d697-47fb-9906-8759a851dcc0","ios":"levelo://app?vid=4ac6388b-d697-47fb-9906-8759a851dcc0"},"vehicle_type_id":"4","last_reported":1766243410,"current_range_meters":4000,"station_id":"ce4bgjh2rcd13ifvqbf0","pricing_plan_id":"cebpf4jnsgd1na2vs0mg"},{"bike_id":"5c82aa5d-e9af-478b-9ffa-e9de9eb19a05","system_id":"levelo_inurba_marseille","lat":43.24814,"lon":5.37456,"is_reserved":false,"is_disabled":true,"rental_uris":{"android":"levelo://app?vid=5c82aa5d-e9af-478b-9ffa-e9de9eb19a05","ios":"levelo://app?vid=5c82aa5d-e9af-478b-9ffa-e9de9eb19a05"},"vehicle_type_id":"4","last_reported":1766243410,"current_range_meters":4000,"station_id":"ce4bhgh2rcd13ifvqfb0","pricing_plan_id":"cebpf4jnsgd1na2vs0mg"},{"bike_id":"fb696364-fea8-48e9-8e1f-9f945a78aa14","system_id":"levelo_inurba_marseille","lat":43.31479,"lon":5.37311,"is_reserved":false,"is_disabled":false,"rental_uris":{"android":"levelo://app?vid=fb696364-fea8-48e9-8e1f-9f945a78aa14","ios":"levelo://app?vid=fb696364-fea8-48e9-8e1f-9f945a78aa14"},"vehicle_type_id":"4","last_reported":1766243410,"current_range_meters":4400,"station_id":"ce4bgt12rcd13ifvqcd0","pricing_plan_id":"cebpf4jnsgd1na2vs0mg"},{"bike_id":"c5365846-c619-4f12-8c92-97c9f9725a15","system_id":"levelo_inurba_marseille","lat":43.29515,"lon":5.37939,"is_reserved":false,"is_disabled":false,"rental_uris":{"android":"levelo://app?vid=c5365846-c619-4f12-8c92-97c9f9725a15","ios":"levelo://app?vid=c5365846-c619-4f12-8c92-97c9f9725a15"},"vehicle_type_id":"4","last_reported":1766243410,"current_range_meters":4400,"station_id":"","pricing_plan_id":"cebpf4jnsgd1na2vs0mg"},{"bike_id":"a152401e-ab8a-4635-bc25-1c34f61e06a1","system_id":"levelo_inurba_marseille","lat":43.26788,"lon":5.39409,"is_reserved":false,"is_disabled":false,"rental_uris":{"android":"levelo://app?vid=a152401e-ab8a-4635-bc25-1c34f61e06a1","ios":"levelo://app?vid=a152401e-ab8a-4635-bc25-1c34f61e06a1"},"vehicle_type_id":"4","last_reported":1766243410,"current_range_meters":4400,"station_id":"ce4bhh12rcd13ifvqfg0","pricing_plan_id":"cebpf4jnsgd1na2vs0mg"},{"bike_id":"4cc604bc-1b61-475c-ad5b-4895b1b4108c","system_id":"levelo_inurba_marseille","lat":43.29572,"lon":5.37764,"is_reserved":false,"is_disabled":false,"rental_uris":{"android":"levelo://app?vid=4cc604bc-1b61-475c-ad5b-4895b1b4108c","ios":"levelo://app?vid=4cc604bc-1b61-475c-ad5b-4895b1b4108c"},"vehicle_type_id":"4","last_reported":1766243410,"current_range_meters":4800,"station_id":"ce4bgi92rcd13ifvqb90","pricing_plan_id":"cebpf4jnsgd1na2vs0mg"},{"bike_id":"f3a4c2fd-c27a-4ca6-bbe5-3949d2a88808","system_id":"levelo_inurba_marseille","lat":43.28579,"lon":5.43004,"is_reserved":false,"is_disabled":false,"rental_uris":{"android":"levelo://app?vid=f3a4c2fd-c27a-4ca6-bbe5-3949d2a88808","ios":"levelo://app?vid=f3a4c2fd-c27a-4ca6-bbe5-3949d2a88808"},"vehicle_type_id":"4","last_reported":1766243410,"current_range_meters":4800,"station_id":"","pricing_plan_id":"cebpf4jnsgd1na2vs0mg"},{"bike_id":"ab136bff-785c-41c1-a3b2-41b3bd44a031","system_id":"levelo_inurba_marseille","lat":43.29361,"lon":5.37837,"is_reserved":false,"is_disabled":false,"rental_uris":{"android":"levelo://app?vid=ab136bff-785c-41c1-a3b2-41b3bd44a031","ios":"levelo://app?vid=ab136bff-785c-41c1-a3b2-41b3bd44a031"},"vehicle_type_id":"4","last_reported":1766243410,"current_range_meters":5600,"station_id":"ce4bgjh2rcd13ifvqbf0","pricing_plan_id":"cebpf4jnsgd1na2vs0mg"},{"bike_id":"d88e931f-8603-4b5f-b1e5-a4bd37faf8b5","system_id":"levelo_inurba_marseille","lat":43.24388,"lon":5.37067,"is_reserved":false,"is_disabled":false,"rental_uris":{"android":"levelo://app?vid=d88e931f-8603-4b5f-b1e5-a4bd37faf8b5","ios":"levelo://app?vid=d88e931f-8603-4b5f-b1e5-a4bd37faf8b5"},"vehicle_type_id":"4","last_reported":1766243410,"current_range_meters":5600,"station_id":"ce4bhhh2rcd13ifvqfk0","pricing_plan_id":"cebpf4jnsgd1na2vs0mg"},{"bike_id":"f430c8ef-af9d-4e5c-9395-77bb061dc294","system_id":"levelo_inurba_marseille","lat":43.26087,"lon":5.37257,"is_reserved":false,"is_disabled":false,"rental_uris":{"android":"levelo://app?vid=f430c8ef-af9d-4e5c-9395-77bb061dc294","ios":"levelo://app?vid=f430c8ef-af9d-4e5c-9395-77bb061dc294"},"vehicle_type_id":"4","last_reported":1766243410,"current_range_meters":5600,"station_id":"","pricing_plan_id":"cebpf4jnsgd1na2vs0mg"},{"bike_id":"c989796d-dcc1-4fc7-b147-6dbca1d74de3","system_id":"levelo_inurba_marseille","lat":43.2815,"lon":5.38333,"is_reserved":false,"is_disabled":false,"rental_uris":{"android":"levelo://app?vid=c989796d-dcc1-4fc7-b147-6dbca1d74de3","ios":"levelo://app?vid=c989796d-dcc1-4fc7-b147-6dbca1d74de3"},"vehicle_type_id":"4","last_reported":1766243410,"current_range_meters":5600,"station_id":"","pricing_plan_id":"cebpf4jnsgd1na2vs0mg"},{"bike_id":"e22c59bd-95c8-43fe-844e-7bfe4f49a571","system_id":"levelo_inurba_marseille","lat":43.26684,"lon":5.38266,"is_reserved":false,"is_disabled":false,"rental_uris":{"android":"levelo://app?vid=e22c59bd-95c8-43fe-844e-7bfe4f49a571","ios":"levelo://app?vid=e22c59bd-95c8-43fe-844e-7bfe4f49a571"},"vehicle_type_id":"4","last_reported":1766243410,"current_range_meters":5600,"station_id":"ce4bhg92rcd13ifvqf90","pricing_plan_id":"cebpf4jnsgd1na2vs0mg"},{"bike_id":"ba396a5d-aa81-4c08-94b7-9a98258be6b5","system_id":"levelo_inurba_marseille","lat":43.24385,"lon":5.37053,"is_reserved":false,"is_disabled":false,"rental_uris":{"android":"levelo://app?vid=ba396a5d-aa81-4c08-94b7-9a98258be6b5","ios":"levelo://app?vid=ba396a5d-aa81-4c08-94b7-9a98258be6b5"},"vehicle_type_id":"4","last_reported":1766243410,"current_range_meters":6000,"station_id":"ce4bhhh2rcd13ifvqfk0","pricing_plan_id":"cebpf4jnsgd1na2vs0mg"},{"bike_id":"f2b92965-be71-4f68-a460-c3c171f2fc30","system_id":"levelo_inurba_marseille","lat":43.29005,"lon":5.3561,"is_reserved":false,"is_disabled":false,"rental_uris":{"android":"levelo://app?vid=f2b92965-be71-4f68-a460-c3c171f2fc30","ios":"levelo://app?vid=f2b92965-be71-4f68-a460-c3c171f2fc30"},"vehicle_type_id":"4","last_reported":1766243410,"current_range_meters":6000,"station_id":"ce4bhb92rcd13ifvqen0","pricing_plan_id":"cebpf4jnsgd1na2vs0mg"},{"bike_id":"07c19b63-628c-4281-a58e-fd2b199d5f51","system_id":"levelo_inurba_marseille","lat":43.287682,"lon":5.379247,"is_reserved":false,"is_disabled":false,"rental_uris":{"android":"levelo://app?vid=07c19b63-628c-4281-a58e-fd2b199d5f51","ios":"levelo://app?vid=07c19b63-628c-4281-a58e-fd2b199d5f51"},"vehicle_type_id":"4","last_reported":1766243410,"current_range_meters":6000,"station_id":"ce4bh9p2rcd13ifvqec0","pricing_plan_id":"cebpf4jnsgd1na2vs0mg"},{"bike_id":"48e30a46-3a61-4ed5-93c8-2b0ee8661bac","system_id":"levelo_inurba_marseille","lat":43.29817,"lon":5.37788,"is_reserved":false,"is_disabled":false,"rental_uris":{"android":"levelo://app?vid=48e30a46-3a61-4ed5-93c8-2b0ee8661bac","ios":"levelo://app?vid=48e30a46-3a61-4ed5-93c8-2b0ee8661bac"},"vehicle_type_id":"4","last_reported":1766243410,"current_range_meters":6000,"station_id":"","pricing_plan_id":"cebpf4jnsgd1na2vs0mg"},{"bike_id":"7bb97a44-f1f3-459a-a7c0-525ead5168f8","system_id":"levelo_inurba_marseille","lat":43.28939,"lon":5.36631,"is_reserved":false,"is_disabled":false,"rental_uris":{"android":"levelo://app?vid=7bb97a44-f1f3-459a-a7c0-525ead5168f8","ios":"levelo://app?vid=7bb97a44-f1f3-459a-a7c0-525ead5168f8"},"vehicle_type_id":"4","last_reported":1766243410,"current_range_meters":6000,"station_id":"ce4bhap2rcd13ifvqek0","pricing_plan_id":"cebpf4jnsgd1na2vs0mg"},{"bike_id":"731dd299-8877-49e1-a5a8-864a87a784f5","system_id":"levelo_inurba_marseille","lat":43.29913,"lon":5.38154,"is_reserved":false,"is_disabled":false,"rental_uris":{"android":"levelo://app?vid=731dd299-8877-49e1-a5a8-864a87a784f5","ios":"levelo://app?vid=731dd299-8877-49e1-a5a8-864a87a784f5"},"vehicle_type_id":"4","last_reported":1766243410,"current_range_meters":6000,"station_id":"ce4bgj12rcd13ifvqbc0","pricing_plan_id":"cebpf4jnsgd1na2vs0mg"},{"bike_id":"35a097a7-89d1-40d3-9783-9d3d9a5a97f8","system_id":"levelo_inurba_marseille","lat":43.29593,"lon":5.37727,"is_reserved":false,"is_disabled":true,"rental_uris":{"android":"levelo://app?vid=35a097a7-89d1-40d3-9783-9d3d9a5a97f8","ios":"levelo://app?vid=35a097a7-89d1-40d3-9783-9d3d9a5a97f8"},"vehicle_type_id":"4","last_reported":1766243410,"current_range_meters":6400,"station_id":"ce4bgi92rcd13ifvqb90","pricing_plan_id":"cebpf4jnsgd1na2vs0mg"},{"bike_id":"e2e9f29c-b1ed-466d-8eb4-05f29db04712","system_id":"levelo_inurba_marseille","lat":43.286207,"lon":5.351169,"is_reserved":false,"is_disabled":false,"rental_uris":{"android":"levelo://app?vid=e2e9f29c-b1ed-466d-8eb4-05f29db04712","ios":"levelo://app?vid=e2e9f29c-b1ed-466d-8eb4-05f29db04712"},"vehicle_type_id":"4","last_reported":1766243410,"current_range_meters":6400,"station_id":"ce4bhch2rcd13ifvqeug","pricing_plan_id":"cebpf4jnsgd1na2vs0mg"},{"bike_id":"cde75731-be94-4954-af76-b79651b240b9","system_id":"levelo_inurba_marseille","lat":43.29917,"lon":5.39393,"is_reserved":false,"is_disabled":false,"rental_uris":{"android":"levelo://app?vid=cde75731-be94-4954-af76-b79651b240b9","ios":"levelo://app?vid=cde75731-be94-4954-af76-b79651b240b9"},"vehicle_type_id":"4","last_reported":1766243410,"current_range_meters":6400,"station_id":"","pricing_plan_id":"cebpf4jnsgd1na2vs0mg"},{"bike_id":"8e8337af-3391-4799-9876-ab86a7c3147f","system_id":"levelo_inurba_marseille","lat":43.28995,"lon":5.35606,"is_reserved":false,"is_disabled":false,"rental_uris":{"android":"levelo://app?vid=8e8337af-3391-4799-9876-ab86a7c3147f","ios":"levelo://app?vid=8e8337af-3391-4799-9876-ab86a7c3147f"},"vehicle_type_id":"4","last_reported":1766243410,"current_range_meters":6400,"station_id":"ce4bhb92rcd13ifvqen0","pricing_plan_id":"cebpf4jnsgd1na2vs0mg"},{"bike_id":"040b8b6c-7ba4-46ab-a2d1-cc5eeed0997c","system_id":"levelo_inurba_marseille","lat":43.31322,"lon":5.38672,"is_reserved":false,"is_disabled":false,"rental_uris":{"android":"levelo://app?vid=040b8b6c-7ba4-46ab-a2d1-cc5eeed0997c","ios":"levelo://app?vid=040b8b6c-7ba4-46ab-a2d1-cc5eeed0997c"},"vehicle_type_id":"4","last_reported":1766243410,"current_range_meters":6400,"station_id":"","pricing_plan_id":"cebpf4jnsgd1na2vs0mg"},{"bike_id":"e5208f4f-f241-46d0-9d69-8a44bcdeec33","system_id":"levelo_inurba_marseille","lat":43.305578,"lon":5.365526,"is_reserved":false,"is_disabled":false,"rental_uris":{"android":"levelo://app?vid=e5208f4f-f241-46d0-9d69-8a44bcdeec33","ios":"levelo://app?vid=e5208f4f-f241-46d0-9d69-8a44bcdeec33"},"vehicle_type_id":"4","last_reported":1766243410,"current_range_meters":6400,"station_id":"ce4bgs12rcd13ifvqcag","pricing_plan_id":"cebpf4jnsgd1na2vs0mg"},{"bike_id":"36bfc5fa-d2a5-4087-b030-fe280568b19e","system_id":"levelo_inurba_marseille","lat":43.29035,"lon":5.38631,"is_reserved":false,"is_disabled":false,"rental_uris":{"android":"levelo://app?vid=36bfc5fa-d2a5-4087-b030-fe280568b19e","ios":"levelo://app?vid=36bfc5fa-d2a5-4087-b030-fe280568b19e"},"vehicle_type_id":"4","last_reported":1766243410,"current_range_meters":6400,"station_id":"ce4bh4p2rcd13ifvqe0g","pricing_plan_id":"cebpf4jnsgd1na2vs0mg"},{"bike_id":"700442f5-a082-454e-8bc7-ab3bbb77bfce","system_id":"levelo_inurba_marseille","lat":43.26665,"lon":5.37434,"is_reserved":false,"is_disabled":false,"rental_uris":{"android":"levelo://app?vid=700442f5-a082-454e-8bc7-ab3bbb77bfce","ios":"levelo://app?vid=700442f5-a082-454e-8bc7-ab3bbb77bfce"},"vehicle_type_id":"4","last_reported":1766243410,"current_range_meters":6400,"station_id":"","pricing_plan_id":"cebpf4jnsgd1na2vs0mg"},{"bike_id":"679710ee-47b7-4790-b591-8eaf52a3db5a","system_id":"levelo_inurba_marseille","lat":43.25006,"lon":5.38912,"is_reserved":false,"is_disabled":false,"rental_uris":{"android":"levelo://app?vid=679710ee-47b7-4790-b591-8eaf52a3db5a","ios":"levelo://app?vid=679710ee-47b7-4790-b591-8eaf52a3db5a"},"vehicle_type_id":"4","last_reported":1766243410,"current_range_meters":6800,"station_id":"ce4bhgp2rcd13ifvqfd0","pricing_plan_id":"cebpf4jnsgd1na2vs0mg"},{"bike_id":"3439b193-4e56-4ee6-bb14-de9acc8fd4f0","system_id":"levelo_inurba_marseille","lat":43.32041,"lon":5.41557,"is_reserved":false,"is_disabled":false,"rental_uris":{"android":"levelo://app?vid=3439b193-4e56-4ee6-bb14-de9acc8fd4f0","ios":"levelo://app?vid=3439b193-4e56-4ee6-bb14-de9acc8fd4f0"},"vehicle_type_id":"4","last_reported":1766243410,"current_range_meters":6800,"station_id":"ce4bhq92rcd13ifvqhkg","pricing_plan_id":"cebpf4jnsgd1na2vs0mg"},{"bike_id":"7bc8d603-102d-4033-b3a6-87238067bcbb","system_id":"levelo_inurba_marseille","lat":43.281237,"lon":5.378623,"is_reserved":false,"is_disabled":false,"rental_uris":{"android":"levelo://app?vid=7bc8d603-102d-4033-b3a6-87238067bcbb","ios":"levelo://app?vid=7bc8d603-102d-4033-b3a6-87238067bcbb"},"vehicle_type_id":"4","last_reported":1766243410,"current_range_meters":6800,"station_id":"","pricing_plan_id":"cebpf4jnsgd1na2vs0mg"},{"bike_id":"e2d3127d-672d-4f83-9e6f-79602b418505","system_id":"levelo_inurba_marseille","lat":43.28694,"lon":5.37402,"is_reserved":false,"is_disabled":false,"rental_uris":{"android":"levelo://app?vid=e2d3127d-672d-4f83-9e6f-79602b418505","ios":"levelo://app?vid=e2d3127d-672d-4f83-9e6f-79602b418505"},"vehicle_type_id":"4","last_reported":1766243410,"current_range_meters":7200,"station_id":"ce4bh3p2rcd13ifvqdq0","pricing_plan_id":"cebpf4jnsgd1na2vs0mg"},{"bike_id":"6e010156-d423-4d55-8102-1857eb9c0a98","system_id":"levelo_inurba_marseille","lat":43.29078,"lon":5.3814,"is_reserved":false,"is_disabled":false,"rental_uris":{"android":"levelo://app?vid=6e010156-d423-4d55-8102-1857eb9c0a98","ios":"levelo://app?vid=6e010156-d423-4d55-8102-1857eb9c0a98"},"vehicle_type_id":"4","last_reported":1766243410,"current_range_meters":7200,"station_id":"ce4bh512rcd13ifvqe2g","pricing_plan_id":"cebpf4jnsgd1na2vs0mg"},{"bike_id":"6c320778-6ca4-4c6a-b354-744ff97f4f55","system_id":"levelo_inurba_marseille","lat":43.22933,"lon":5.35377,"is_reserved":false,"is_disabled":false,"rental_uris":{"android":"levelo://app?vid=6c320778-6ca4-4c6a-b354-744ff97f4f55","ios":"levelo://app?vid=6c320778-6ca4-4c6a-b354-744ff97f4f55"},"vehicle_type_id":"4","last_reported":1766243410,"current_range_meters":7200,"station_id":"cpo3532slgdg3j2ikp40","pricing_plan_id":"cebpf4jnsgd1na2vs0mg"},{"bike_id":"6dbe290b-e5a2-43ed-927f-ef6cafadb124","system_id":"levelo_inurba_marseille","lat":43.24664,"lon":5.38165,"is_reserved":false,"is_disabled":false,"rental_uris":{"android":"levelo://app?vid=6dbe290b-e5a2-43ed-927f-ef6cafadb124","ios":"levelo://app?vid=6dbe290b-e5a2-43ed-927f-ef6cafadb124"},"vehicle_type_id":"4","last_reported":1766243410,"current_range_meters":7200,"station_id":"ce4bhih2rcd13ifvqfr0","pricing_plan_id":"cebpf4jnsgd1na2vs0mg"},{"bike_id":"388441cc-8a49-4650-b270-834bf604b21a","system_id":"levelo_inurba_marseille","lat":43.29584,"lon":5.37512,"is_reserved":false,"is_disabled":false,"rental_uris":{"android":"levelo://app?vid=388441cc-8a49-4650-b270-834bf604b21a","ios":"levelo://app?vid=388441cc-8a49-4650-b270-834bf604b21a"},"vehicle_type_id":"4","last_reported":1766243410,"current_range_meters":8000,"station_id":"ce4bgh92rcd13ifvqb50","pricing_plan_id":"cebpf4jnsgd1na2vs0mg"},{"bike_id":"fcd75001-1344-42ec-a013-2f4c6240ace8","system_id":"levelo_inurba_marseille","lat":43.29806,"lon":5.38659,"is_reserved":false,"is_disabled":false,"rental_uris":{"android":"levelo://app?vid=fcd75001-1344-42ec-a013-2f4c6240ace8","ios":"levelo://app?vid=fcd75001-1344-42ec-a013-2f4c6240ace8"},"vehicle_type_id":"4","last_reported":1766243410,"current_range_meters":8000,"station_id":"","pricing_plan_id":"cebpf4jnsgd1na2vs0mg"},{"bike_id":"128f68df-e6c8-471d-bf6e-3a9c347712de","system_id":"levelo_inurba_marseille","lat":43.29234,"lon":5.40898,"is_reserved":false,"is_disabled":false,"rental_uris":{"android":"levelo://app?vid=128f68df-e6c8-471d-bf6e-3a9c347712de","ios":"levelo://app?vid=128f68df-e6c8-471d-bf6e-3a9c347712de"},"vehicle_type_id":"4","last_reported":1766243410,"current_range_meters":8000,"station_id":"ce4bh192rcd13ifvqdc0","pricing_plan_id":"cebpf4jnsgd1na2vs0mg"},{"bike_id":"1c79eb29-135e-40c1-8651-901759d4aaa6","system_id":"levelo_inurba_marseille","lat":43.28566,"lon":5.353033,"is_reserved":false,"is_disabled":false,"rental_uris":{"android":"levelo://app?vid=1c79eb29-135e-40c1-8651-901759d4aaa6","ios":"levelo://app?vid=1c79eb29-135e-40c1-8651-901759d4aaa6"},"vehicle_type_id":"4","last_reported":1766243410,"current_range_meters":8000,"station_id":"","pricing_plan_id":"cebpf4jnsgd1na2vs0mg"},{"bike_id":"7e68525c-fa3b-4acd-8c83-8a4563730a53","system_id":"levelo_inurba_marseille","lat":43.24177,"lon":5.3973,"is_reserved":false,"is_disabled":false,"rental_uris":{"android":"levelo://app?vid=7e68525c-fa3b-4acd-8c83-8a4563730a53","ios":"levelo://app?vid=7e68525c-fa3b-4acd-8c83-8a4563730a53"},"vehicle_type_id":"4","last_reported":1766243410,"current_range_meters":8000,"station_id":"ce4bhn12rcd13ifvqgpg","pricing_plan_id":"cebpf4jnsgd1na2vs0mg"},{"bike_id":"a5e3a2d4-0891-4f3c-bc35-b1564f72c8de","system_id":"levelo_inurba_marseille","lat":43.31488,"lon":5.37308,"is_reserved":false,"is_disabled":false,"rental_uris":{"android":"levelo://app?vid=a5e3a2d4-0891-4f3c-bc35-b1564f72c8de","ios":"levelo://app?vid=a5e3a2d4-0891-4f3c-bc35-b1564f72c8de"},"vehicle_type_id":"4","last_reported":1766243410,"current_range_meters":8000,"station_id":"ce4bgt12rcd13ifvqcd0","pricing_plan_id":"cebpf4jnsgd1na2vs0mg"},{"bike_id":"2389b131-177d-4aab-b2fd-ae60741ce556","system_id":"levelo_inurba_marseille","lat":43.28411,"lon":5.37519,"is_reserved":false,"is_disabled":false,"rental_uris":{"android":"levelo://app?vid=2389b131-177d-4aab-b2fd-ae60741ce556","ios":"levelo://app?vid=2389b131-177d-4aab-b2fd-ae60741ce556"},"vehicle_type_id":"4","last_reported":1766243410,"current_range_meters":8000,"station_id":"ce4bh412rcd13ifvqds0","pricing_plan_id":"cebpf4jnsgd1na2vs0mg"},{"bike_id":"54f8b1f2-75f3-4800-a000-60dab9568e75","system_id":"levelo_inurba_marseille","lat":43.295693,"lon":5.375137,"is_reserved":false,"is_disabled":false,"rental_uris":{"android":"levelo://app?vid=54f8b1f2-75f3-4800-a000-60dab9568e75","ios":"levelo://app?vid=54f8b1f2-75f3-4800-a000-60dab9568e75"},"vehicle_type_id":"4","last_reported":1766243410,"current_range_meters":8400,"station_id":"ce4bgh92rcd13ifvqb50","pricing_plan_id":"cebpf4jnsgd1na2vs0mg"},{"bike_id":"c1ff4b72-3b62-482f-9082-6b303948df7c","system_id":"levelo_inurba_marseille","lat":43.29579,"lon":5.375149,"is_reserved":false,"is_disabled":false,"rental_uris":{"android":"levelo://app?vid=c1ff4b72-3b62-482f-9082-6b303948df7c","ios":"levelo://app?vid=c1ff4b72-3b62-482f-9082-6b303948df7c"},"vehicle_type_id":"4","last_reported":1766243410,"current_range_meters":8400,"station_id":"ce4bgh92rcd13ifvqb50","pricing_plan_id":"cebpf4jnsgd1na2vs0mg"},{"bike_id":"6ec9a6be-eed9-4adb-a34f-9a64c85ea37b","system_id":"levelo_inurba_marseille","lat":43.30635,"lon":5.37569,"is_reserved":false,"is_disabled":false,"rental_uris":{"android":"levelo://app?vid=6ec9a6be-eed9-4adb-a34f-9a64c85ea37b","ios":"levelo://app?vid=6ec9a6be-eed9-4adb-a34f-9a64c85ea37b"},"vehicle_type_id":"4","last_reported":1766243410,"current_range_meters":8400,"station_id":"","pricing_plan_id":"cebpf4jnsgd1na2vs0mg"},{"bike_id":"642882d0-370c-4b5c-8536-dea54811417c","system_id":"levelo_inurba_marseille","lat":43.29687,"lon":5.36602,"is_reserved":false,"is_disabled":false,"rental_uris":{"android":"levelo://app?vid=642882d0-370c-4b5c-8536-dea54811417c","ios":"levelo://app?vid=642882d0-370c-4b5c-8536-dea54811417c"},"vehicle_type_id":"4","last_reported":1766243410,"current_range_meters":8400,"station_id":"ce4bgn12rcd13ifvqbt0","pricing_plan_id":"cebpf4jnsgd1na2vs0mg"},{"bike_id":"fd1b404b-d0cb-4d47-985d-a3e8dac1dfbe","system_id":"levelo_inurba_marseille","lat":43.26503,"lon":5.39549,"is_reserved":false,"is_disabled":false,"rental_uris":{"android":"levelo://app?vid=fd1b404b-d0cb-4d47-985d-a3e8dac1dfbe","ios":"levelo://app?vid=fd1b404b-d0cb-4d47-985d-a3e8dac1dfbe"},"vehicle_type_id":"4","last_reported":1766243410,"current_range_meters":8800,"station_id":"ce4bhi12rcd13ifvqfq0","pricing_plan_id":"cebpf4jnsgd1na2vs0mg"},{"bike_id":"7718c4c3-4a64-4259-80fd-d9b5d8ab616e","system_id":"levelo_inurba_marseille","lat":43.27668,"lon":5.3887,"is_reserved":false,"is_disabled":false,"rental_uris":{"android":"levelo://app?vid=7718c4c3-4a64-4259-80fd-d9b5d8ab616e","ios":"levelo://app?vid=7718c4c3-4a64-4259-80fd-d9b5d8ab616e"},"vehicle_type_id":"4","last_reported":1766243410,"current_range_meters":8800,"station_id":"ce4bhi12rcd13ifvqfo0","pricing_plan_id":"cebpf4jnsgd1na2vs0mg"},{"bike_id":"02b81a50-01e3-449d-8a15-d478efea96be","system_id":"levelo_inurba_marseille","lat":43.27908,"lon":5.38005,"is_reserved":false,"is_disabled":false,"rental_uris":{"android":"levelo://app?vid=02b81a50-01e3-449d-8a15-d478efea96be","ios":"levelo://app?vid=02b81a50-01e3-449d-8a15-d478efea96be"},"vehicle_type_id":"4","last_reported":1766243410,"current_range_meters":8800,"station_id":"ce4bhf92rcd13ifvqf50","pricing_plan_id":"cebpf4jnsgd1na2vs0mg"},{"bike_id":"207776d7-b88e-48a6-b74f-2b1aae5e54c7","system_id":"levelo_inurba_marseille","lat":43.268961,"lon":5.387159,"is_reserved":false,"is_disabled":true,"rental_uris":{"android":"levelo://app?vid=207776d7-b88e-48a6-b74f-2b1aae5e54c7","ios":"levelo://app?vid=207776d7-b88e-48a6-b74f-2b1aae5e54c7"},"vehicle_type_id":"4","last_reported":1766243410,"current_range_meters":8800,"station_id":"","pricing_plan_id":"cebpf4jnsgd1na2vs0mg"},{"bike_id":"342f1aab-f383-4095-9af9-476f39ec27e6","system_id":"levelo_inurba_marseille","lat":43.22563,"lon":5.41627,"is_reserved":false,"is_disabled":false,"rental_uris":{"android":"levelo://app?vid=342f1aab-f383-4095-9af9-476f39ec27e6","ios":"levelo://app?vid=342f1aab-f383-4095-9af9-476f39ec27e6"},"vehicle_type_id":"4","last_reported":1766243410,"current_range_meters":8800,"station_id":"st_d2o4gvlbi1j2169b742g","pricing_plan_id":"cebpf4jnsgd1na2vs0mg"},{"bike_id":"e473bd1d-bff8-4fb5-a794-d58a75d9821a","system_id":"levelo_inurba_marseille","lat":43.25346,"lon":5.42171,"is_reserved":false,"is_disabled":true,"rental_uris":{"android":"levelo://app?vid=e473bd1d-bff8-4fb5-a794-d58a75d9821a","ios":"levelo://app?vid=e473bd1d-bff8-4fb5-a794-d58a75d9821a"},"vehicle_type_id":"4","last_reported":1766243410,"current_range_meters":8800,"station_id":"st_d2m65c5bi1j21697t3ng","pricing_plan_id":"cebpf4jnsgd1na2vs0mg"},{"bike_id":"657677ff-bd0f-45b9-a985-0cee09b5fde2","system_id":"levelo_inurba_marseille","lat":43.31732,"lon":5.43703,"is_reserved":false,"is_disabled":false,"rental_uris":{"android":"levelo://app?vid=657677ff-bd0f-45b9-a985-0cee09b5fde2","ios":"levelo://app?vid=657677ff-bd0f-45b9-a985-0cee09b5fde2"},"vehicle_type_id":"4","last_reported":1766243410,"current_range_meters":8800,"station_id":"ce4bhp92rcd13ifvqhcg","pricing_plan_id":"cebpf4jnsgd1na2vs0mg"},{"bike_id":"5b0e730c-da97-4939-8816-81125587fcb1","system_id":"levelo_inurba_marseille","lat":43.23199,"lon":5.35551,"is_reserved":false,"is_disabled":false,"rental_uris":{"android":"levelo://app?vid=5b0e730c-da97-4939-8816-81125587fcb1","ios":"levelo://app?vid=5b0e730c-da97-4939-8816-81125587fcb1"},"vehicle_type_id":"4","last_reported":1766243410,"current_range_meters":8800,"station_id":"ce4bhu92rcd13ifvqi70","pricing_plan_id":"cebpf4jnsgd1na2vs0mg"},{"bike_id":"ffd6bd98-b404-4a83-84ff-5c1e0d540148","system_id":"levelo_inurba_marseille","lat":43.26939,"lon":5.40257,"is_reserved":false,"is_disabled":false,"rental_uris":{"android":"levelo://app?vid=ffd6bd98-b404-4a83-84ff-5c1e0d540148","ios":"levelo://app?vid=ffd6bd98-b404-4a83-84ff-5c1e0d540148"},"vehicle_type_id":"4","last_reported":1766243410,"current_range_meters":8800,"station_id":"cjm6bp8fraef2m0cb0m0","pricing_plan_id":"cebpf4jnsgd1na2vs0mg"},{"bike_id":"d5c2d554-5edd-4b1f-8bbf-acce17eb866f","system_id":"levelo_inurba_marseille","lat":43.29322,"lon":5.37572,"is_reserved":false,"is_disabled":true,"rental_uris":{"android":"levelo://app?vid=d5c2d554-5edd-4b1f-8bbf-acce17eb866f","ios":"levelo://app?vid=d5c2d554-5edd-4b1f-8bbf-acce17eb866f"},"vehicle_type_id":"4","last_reported":1766243410,"current_range_meters":9200,"station_id":"","pricing_plan_id":"cebpf4jnsgd1na2vs0mg"},{"bike_id":"c83d1f55-848c-49d2-a645-18db8b752e41","system_id":"levelo_inurba_marseille","lat":43.28001,"lon":5.41657,"is_reserved":false,"is_disabled":false,"rental_uris":{"android":"levelo://app?vid=c83d1f55-848c-49d2-a645-18db8b752e41","ios":"levelo://app?vid=c83d1f55-848c-49d2-a645-18db8b752e41"},"vehicle_type_id":"4","last_reported":1766243410,"current_range_meters":9200,"station_id":"ce4bho12rcd13ifvqh1g","pricing_plan_id":"cebpf4jnsgd1na2vs0mg"},{"bike_id":"eac662a6-a4e6-4b95-8504-89b532b3182e","system_id":"levelo_inurba_marseille","lat":43.28356,"lon":5.38101,"is_reserved":false,"is_disabled":false,"rental_uris":{"android":"levelo://app?vid=eac662a6-a4e6-4b95-8504-89b532b3182e","ios":"levelo://app?vid=eac662a6-a4e6-4b95-8504-89b532b3182e"},"vehicle_type_id":"4","last_reported":1766243410,"current_range_meters":9200,"station_id":"ce4bh412rcd13ifvqdr0","pricing_plan_id":"cebpf4jnsgd1na2vs0mg"},{"bike_id":"8ddf5f0b-8638-4227-b0ee-efe27c023df6","system_id":"levelo_inurba_marseille","lat":43.308014,"lon":5.381433,"is_reserved":false,"is_disabled":true,"rental_uris":{"android":"levelo://app?vid=8ddf5f0b-8638-4227-b0ee-efe27c023df6","ios":"levelo://app?vid=8ddf5f0b-8638-4227-b0ee-efe27c023df6"},"vehicle_type_id":"4","last_reported":1766243410,"current_range_meters":9200,"station_id":"ce4bgjp2rcd13ifvqbh0","pricing_plan_id":"cebpf4jnsgd1na2vs0mg"},{"bike_id":"342831ac-e927-49d6-8b43-22fa72e5bef8","system_id":"levelo_inurba_marseille","lat":43.28014,"lon":5.38693,"is_reserved":false,"is_disabled":false,"rental_uris":{"android":"levelo://app?vid=342831ac-e927-49d6-8b43-22fa72e5bef8","ios":"levelo://app?vid=342831ac-e927-49d6-8b43-22fa72e5bef8"},"vehicle_type_id":"4","last_reported":1766243410,"current_range_meters":9200,"station_id":"","pricing_plan_id":"cebpf4jnsgd1na2vs0mg"},{"bike_id":"f577692b-beb9-462c-a948-ba15765380b7","system_id":"levelo_inurba_marseille","lat":43.29919,"lon":5.37844,"is_reserved":false,"is_disabled":false,"rental_uris":{"android":"levelo://app?vid=f577692b-beb9-462c-a948-ba15765380b7","ios":"levelo://app?vid=f577692b-beb9-462c-a948-ba15765380b7"},"vehicle_type_id":"4","last_reported":1766243410,"current_range_meters":9200,"station_id":"ce4bghh2rcd13ifvqb60","pricing_plan_id":"cebpf4jnsgd1na2vs0mg"},{"bike_id":"c4030fd7-d853-404a-bb5c-e0a192fd7e50","system_id":"levelo_inurba_marseille","lat":43.301415,"lon":5.374229,"is_reserved":false,"is_disabled":false,"rental_uris":{"android":"levelo://app?vid=c4030fd7-d853-404a-bb5c-e0a192fd7e50","ios":"levelo://app?vid=c4030fd7-d853-404a-bb5c-e0a192fd7e50"},"vehicle_type_id":"4","last_reported":1766243410,"current_range_meters":9200,"station_id":"ce4bgs92rcd13ifvqcc0","pricing_plan_id":"cebpf4jnsgd1na2vs0mg"},{"bike_id":"e87c8a7c-d617-4837-9565-095ee5b56e73","system_id":"levelo_inurba_marseille","lat":43.33033,"lon":5.39059,"is_reserved":false,"is_disabled":false,"rental_uris":{"android":"levelo://app?vid=e87c8a7c-d617-4837-9565-095ee5b56e73","ios":"levelo://app?vid=e87c8a7c-d617-4837-9565-095ee5b56e73"},"vehicle_type_id":"4","last_reported":1766243410,"current_range_meters":9200,"station_id":"ce4bhr92rcd13ifvqhrg","pricing_plan_id":"cebpf4jnsgd1na2vs0mg"},{"bike_id":"0f9cf49a-a542-457b-9bb8-7dbdc79e4286","system_id":"levelo_inurba_marseille","lat":43.28383,"lon":5.3863,"is_reserved":false,"is_disabled":false,"rental_uris":{"android":"levelo://app?vid=0f9cf49a-a542-457b-9bb8-7dbdc79e4286","ios":"levelo://app?vid=0f9cf49a-a542-457b-9bb8-7dbdc79e4286"},"vehicle_type_id":"4","last_reported":1766243410,"current_range_meters":9600,"station_id":"ce4bh492rcd13ifvqdvg","pricing_plan_id":"cebpf4jnsgd1na2vs0mg"},{"bike_id":"bbe6d64f-2cb1-409d-ba24-ff27de876e43","system_id":"levelo_inurba_marseille","lat":43.28522,"lon":5.4412,"is_reserved":false,"is_disabled":false,"rental_uris":{"android":"levelo://app?vid=bbe6d64f-2cb1-409d-ba24-ff27de876e43","ios":"levelo://app?vid=bbe6d64f-2cb1-409d-ba24-ff27de876e43"},"vehicle_type_id":"4","last_reported":1766243410,"current_range_meters":9600,"station_id":"st_d3j3df2ikq2c7380ej80","pricing_plan_id":"cebpf4jnsgd1na2vs0mg"},{"bike_id":"f1c6ef30-df40-4531-b632-19b3b8de3f93","system_id":"levelo_inurba_marseille","lat":43.337444,"lon":5.374475,"is_reserved":false,"is_disabled":false,"rental_uris":{"android":"levelo://app?vid=f1c6ef30-df40-4531-b632-19b3b8de3f93","ios":"levelo://app?vid=f1c6ef30-df40-4531-b632-19b3b8de3f93"},"vehicle_type_id":"4","last_reported":1766243410,"current_range_meters":9600,"station_id":"","pricing_plan_id":"cebpf4jnsgd1na2vs0mg"},{"bike_id":"1418e695-a338-4389-b406-48af5766732a","system_id":"levelo_inurba_marseille","lat":43.29307,"lon":5.37103,"is_reserved":false,"is_disabled":false,"rental_uris":{"android":"levelo://app?vid=1418e695-a338-4389-b406-48af5766732a","ios":"levelo://app?vid=1418e695-a338-4389-b406-48af5766732a"},"vehicle_type_id":"4","last_reported":1766243410,"current_range_meters":9600,"station_id":"","pricing_plan_id":"cebpf4jnsgd1na2vs0mg"},{"bike_id":"e42ac7ed-f66a-44b4-b394-3418e57e1ec0","system_id":"levelo_inurba_marseille","lat":43.21193,"lon":5.35079,"is_reserved":false,"is_disabled":true,"rental_uris":{"android":"levelo://app?vid=e42ac7ed-f66a-44b4-b394-3418e57e1ec0","ios":"levelo://app?vid=e42ac7ed-f66a-44b4-b394-3418e57e1ec0"},"vehicle_type_id":"4","last_reported":1766243410,"current_range_meters":9600,"station_id":"st_cvj6sg6p6f1abm77japg","pricing_plan_id":"cebpf4jnsgd1na2vs0mg"},{"bike_id":"26c78947-38c8-4fe2-9c04-b54c7806b0ba","system_id":"levelo_inurba_marseille","lat":43.27377,"lon":5.36256,"is_reserved":false,"is_disabled":true,"rental_uris":{"android":"levelo://app?vid=26c78947-38c8-4fe2-9c04-b54c7806b0ba","ios":"levelo://app?vid=26c78947-38c8-4fe2-9c04-b54c7806b0ba"},"vehicle_type_id":"4","last_reported":1766243410,"current_range_meters":9600,"station_id":"ce4bhbh2rcd13ifvqeo0","pricing_plan_id":"cebpf4jnsgd1na2vs0mg"},{"bike_id":"bcb638ec-1f7a-45bb-913f-62a7a0a453a1","system_id":"levelo_inurba_marseille","lat":43.29835,"lon":5.38574,"is_reserved":false,"is_disabled":false,"rental_uris":{"android":"levelo://app?vid=bcb638ec-1f7a-45bb-913f-62a7a0a453a1","ios":"levelo://app?vid=bcb638ec-1f7a-45bb-913f-62a7a0a453a1"},"vehicle_type_id":"4","last_reported":1766243410,"current_range_meters":9600,"station_id":"","pricing_plan_id":"cebpf4jnsgd1na2vs0mg"},{"bike_id":"3d8062de-4bd0-49c7-86a6-7bf3b5df4845","system_id":"levelo_inurba_marseille","lat":43.28472,"lon":5.48403,"is_reserved":false,"is_disabled":false,"rental_uris":{"android":"levelo://app?vid=3d8062de-4bd0-49c7-86a6-7bf3b5df4845","ios":"levelo://app?vid=3d8062de-4bd0-49c7-86a6-7bf3b5df4845"},"vehicle_type_id":"4","last_reported":1766243410,"current_range_meters":9600,"station_id":"st_d3svhcjqgbts73a3dn0g","pricing_plan_id":"cebpf4jnsgd1na2vs0mg"},{"bike_id":"a155df3e-4b60-4af2-bb99-ef9672812592","system_id":"levelo_inurba_marseille","lat":43.31204,"lon":5.38174,"is_reserved":false,"is_disabled":false,"rental_uris":{"android":"levelo://app?vid=a155df3e-4b60-4af2-bb99-ef9672812592","ios":"levelo://app?vid=a155df3e-4b60-4af2-bb99-ef9672812592"},"vehicle_type_id":"4","last_reported":1766243410,"current_range_meters":9600,"station_id":"","pricing_plan_id":"cebpf4jnsgd1na2vs0mg"},{"bike_id":"a38114bb-f09d-4ae4-a7a1-1e9744c94a1d","system_id":"levelo_inurba_marseille","lat":43.2761,"lon":5.36106,"is_reserved":false,"is_disabled":false,"rental_uris":{"android":"levelo://app?vid=a38114bb-f09d-4ae4-a7a1-1e9744c94a1d","ios":"levelo://app?vid=a38114bb-f09d-4ae4-a7a1-1e9744c94a1d"},"vehicle_type_id":"4","last_reported":1766243410,"current_range_meters":9600,"station_id":"ce4bgj92rcd13ifvqbe0","pricing_plan_id":"cebpf4jnsgd1na2vs0mg"},{"bike_id":"025bcf3c-9127-4e0c-b7ed-8709d35ce958","system_id":"levelo_inurba_marseille","lat":43.31746,"lon":5.37214,"is_reserved":false,"is_disabled":false,"rental_uris":{"android":"levelo://app?vid=025bcf3c-9127-4e0c-b7ed-8709d35ce958","ios":"levelo://app?vid=025bcf3c-9127-4e0c-b7ed-8709d35ce958"},"vehicle_type_id":"4","last_reported":1766243410,"current_range_meters":10000,"station_id":"","pricing_plan_id":"cebpf4jnsgd1na2vs0mg"},{"bike_id":"960000b9-5f6a-4874-8ba2-61bf0329fc25","system_id":"levelo_inurba_marseille","lat":43.30634,"lon":5.4102,"is_reserved":false,"is_disabled":false,"rental_uris":{"android":"levelo://app?vid=960000b9-5f6a-4874-8ba2-61bf0329fc25","ios":"levelo://app?vid=960000b9-5f6a-4874-8ba2-61bf0329fc25"},"vehicle_type_id":"4","last_reported":1766243410,"current_range_meters":10000,"station_id":"","pricing_plan_id":"cebpf4jnsgd1na2vs0mg"},{"bike_id":"7d9afea3-1ffc-4f7e-9459-7af008c22fc9","system_id":"levelo_inurba_marseille","lat":43.30776,"lon":5.37648,"is_reserved":false,"is_disabled":false,"rental_uris":{"android":"levelo://app?vid=7d9afea3-1ffc-4f7e-9459-7af008c22fc9","ios":"levelo://app?vid=7d9afea3-1ffc-4f7e-9459-7af008c22fc9"},"vehicle_type_id":"4","last_reported":1766243410,"current_range_meters":10000,"station_id":"ce4bgv92rcd13ifvqcq0","pricing_plan_id":"cebpf4jnsgd1na2vs0mg"},{"bike_id":"99ad97c1-5a83-4b1c-9cf1-08492f7d7210","system_id":"levelo_inurba_marseille","lat":43.29249,"lon":5.409,"is_reserved":false,"is_disabled":false,"rental_uris":{"android":"levelo://app?vid=99ad97c1-5a83-4b1c-9cf1-08492f7d7210","ios":"levelo://app?vid=99ad97c1-5a83-4b1c-9cf1-08492f7d7210"},"vehicle_type_id":"4","last_reported":1766243410,"current_range_meters":10000,"station_id":"ce4bh192rcd13ifvqdc0","pricing_plan_id":"cebpf4jnsgd1na2vs0mg"},{"bike_id":"a3c76b09-e895-4624-8c69-8504d0719aa7","system_id":"levelo_inurba_marseille","lat":43.2987,"lon":5.38902,"is_reserved":false,"is_disabled":false,"rental_uris":{"android":"levelo://app?vid=a3c76b09-e895-4624-8c69-8504d0719aa7","ios":"levelo://app?vid=a3c76b09-e895-4624-8c69-8504d0719aa7"},"vehicle_type_id":"4","last_reported":1766243410,"current_range_meters":10000,"station_id":"ce4bh392rcd13ifvqdl0","pricing_plan_id":"cebpf4jnsgd1na2vs0mg"},{"bike_id":"0c1f6896-cbd5-4c55-b68a-3cd9b92201dc","system_id":"levelo_inurba_marseille","lat":43.29895,"lon":5.43666,"is_reserved":false,"is_disabled":false,"rental_uris":{"android":"levelo://app?vid=0c1f6896-cbd5-4c55-b68a-3cd9b92201dc","ios":"levelo://app?vid=0c1f6896-cbd5-4c55-b68a-3cd9b92201dc"},"vehicle_type_id":"4","last_reported":1766243410,"current_range_meters":10000,"station_id":"ce4bhpp2rcd13ifvqhfg","pricing_plan_id":"cebpf4jnsgd1na2vs0mg"},{"bike_id":"156e61f2-3d75-4260-9924-a8b3ec92c21b","system_id":"levelo_inurba_marseille","lat":43.2256,"lon":5.41635,"is_reserved":false,"is_disabled":true,"rental_uris":{"android":"levelo://app?vid=156e61f2-3d75-4260-9924-a8b3ec92c21b","ios":"levelo://app?vid=156e61f2-3d75-4260-9924-a8b3ec92c21b"},"vehicle_type_id":"4","last_reported":1766243410,"current_range_meters":10000,"station_id":"st_d2o4gvlbi1j2169b742g","pricing_plan_id":"cebpf4jnsgd1na2vs0mg"},{"bike_id":"ff400a14-182c-4479-9723-f211d61c81db","system_id":"levelo_inurba_marseille","lat":43.31988,"lon":5.40381,"is_reserved":false,"is_disabled":false,"rental_uris":{"android":"levelo://app?vid=ff400a14-182c-4479-9723-f211d61c81db","ios":"levelo://app?vid=ff400a14-182c-4479-9723-f211d61c81db"},"vehicle_type_id":"4","last_reported":1766243410,"current_range_meters":10000,"station_id":"","pricing_plan_id":"cebpf4jnsgd1na2vs0mg"},{"bike_id":"1dbd35cb-b640-4a99-b93c-73df700bdbf1","system_id":"levelo_inurba_marseille","lat":43.2119,"lon":5.35078,"is_reserved":false,"is_disabled":false,"rental_uris":{"android":"levelo://app?vid=1dbd35cb-b640-4a99-b93c-73df700bdbf1","ios":"levelo://app?vid=1dbd35cb-b640-4a99-b93c-73df700bdbf1"},"vehicle_type_id":"4","last_reported":1766243410,"current_range_meters":10000,"station_id":"st_cvj6sg6p6f1abm77japg","pricing_plan_id":"cebpf4jnsgd1na2vs0mg"},{"bike_id":"e18d88c4-447f-4613-ac8f-5a6e3bb9a21c","system_id":"levelo_inurba_marseille","lat":43.29814,"lon":5.44072,"is_reserved":false,"is_disabled":false,"rental_uris":{"android":"levelo://app?vid=e18d88c4-447f-4613-ac8f-5a6e3bb9a21c","ios":"levelo://app?vid=e18d88c4-447f-4613-ac8f-5a6e3bb9a21c"},"vehicle_type_id":"4","last_reported":1766243410,"current_range_meters":10000,"station_id":"st_d3jp68qikq2c7381ktn0","pricing_plan_id":"cebpf4jnsgd1na2vs0mg"},{"bike_id":"af1f9193-90aa-4f34-b2c4-fb0bbaea183c","system_id":"levelo_inurba_marseille","lat":43.28476,"lon":5.48396,"is_reserved":false,"is_disabled":false,"rental_uris":{"android":"levelo://app?vid=af1f9193-90aa-4f34-b2c4-fb0bbaea183c","ios":"levelo://app?vid=af1f9193-90aa-4f34-b2c4-fb0bbaea183c"},"vehicle_type_id":"4","last_reported":1766243410,"current_range_meters":10000,"station_id":"st_d3svhcjqgbts73a3dn0g","pricing_plan_id":"cebpf4jnsgd1na2vs0mg"},{"bike_id":"82a22c69-4528-497e-a34e-a79f9053706d","system_id":"levelo_inurba_marseille","lat":43.21191,"lon":5.35074,"is_reserved":false,"is_disabled":false,"rental_uris":{"android":"levelo://app?vid=82a22c69-4528-497e-a34e-a79f9053706d","ios":"levelo://app?vid=82a22c69-4528-497e-a34e-a79f9053706d"},"vehicle_type_id":"4","last_reported":1766243410,"current_range_meters":10800,"station_id":"","pricing_plan_id":"cebpf4jnsgd1na2vs0mg"},{"bike_id":"5d50fa13-d19c-4a66-9a21-607ef836f9b8","system_id":"levelo_inurba_marseille","lat":43.305412,"lon":5.367003,"is_reserved":false,"is_disabled":false,"rental_uris":{"android":"levelo://app?vid=5d50fa13-d19c-4a66-9a21-607ef836f9b8","ios":"levelo://app?vid=5d50fa13-d19c-4a66-9a21-607ef836f9b8"},"vehicle_type_id":"4","last_reported":1766243410,"current_range_meters":10800,"station_id":"ce4bgrp2rcd13ifvqc9g","pricing_plan_id":"cebpf4jnsgd1na2vs0mg"},{"bike_id":"51362f73-0376-48b4-ab18-b0c3808c7d8c","system_id":"levelo_inurba_marseille","lat":43.28968,"lon":5.37833,"is_reserved":false,"is_disabled":false,"rental_uris":{"android":"levelo://app?vid=51362f73-0376-48b4-ab18-b0c3808c7d8c","ios":"levelo://app?vid=51362f73-0376-48b4-ab18-b0c3808c7d8c"},"vehicle_type_id":"4","last_reported":1766243410,"current_range_meters":10800,"station_id":"ce4bh9p2rcd13ifvqed0","pricing_plan_id":"cebpf4jnsgd1na2vs0mg"},{"bike_id":"13510b18-4a9b-47d0-a954-6d7cdc2c118c","system_id":"levelo_inurba_marseille","lat":43.28481,"lon":5.48389,"is_reserved":false,"is_disabled":false,"rental_uris":{"android":"levelo://app?vid=13510b18-4a9b-47d0-a954-6d7cdc2c118c","ios":"levelo://app?vid=13510b18-4a9b-47d0-a954-6d7cdc2c118c"},"vehicle_type_id":"4","last_reported":1766243410,"current_range_meters":10800,"station_id":"","pricing_plan_id":"cebpf4jnsgd1na2vs0mg"},{"bike_id":"19f83498-9c2c-438c-9319-9c90e9928c89","system_id":"levelo_inurba_marseille","lat":43.303057,"lon":5.377117,"is_reserved":false,"is_disabled":false,"rental_uris":{"android":"levelo://app?vid=19f83498-9c2c-438c-9319-9c90e9928c89","ios":"levelo://app?vid=19f83498-9c2c-438c-9319-9c90e9928c89"},"vehicle_type_id":"4","last_reported":1766243410,"current_range_meters":10800,"station_id":"ce4bguh2rcd13ifvqcj0","pricing_plan_id":"cebpf4jnsgd1na2vs0mg"},{"bike_id":"25bb9f75-6a2b-4e8a-ac86-da229677c917","system_id":"levelo_inurba_marseille","lat":43.29522,"lon":5.38545,"is_reserved":false,"is_disabled":false,"rental_uris":{"android":"levelo://app?vid=25bb9f75-6a2b-4e8a-ac86-da229677c917","ios":"levelo://app?vid=25bb9f75-6a2b-4e8a-ac86-da229677c917"},"vehicle_type_id":"4","last_reported":1766243410,"current_range_meters":10800,"station_id":"ce4bgih2rcd13ifvqba0","pricing_plan_id":"cebpf4jnsgd1na2vs0mg"},{"bike_id":"0d215912-fa63-4c93-86ac-1c5d3c84d6b0","system_id":"levelo_inurba_marseille","lat":43.330342,"lon":5.390879,"is_reserved":false,"is_disabled":false,"rental_uris":{"android":"levelo://app?vid=0d215912-fa63-4c93-86ac-1c5d3c84d6b0","ios":"levelo://app?vid=0d215912-fa63-4c93-86ac-1c5d3c84d6b0"},"vehicle_type_id":"4","last_reported":1766243410,"current_range_meters":10800,"station_id":"ce4bhr92rcd13ifvqhrg","pricing_plan_id":"cebpf4jnsgd1na2vs0mg"},{"bike_id":"20e9dd8e-ed66-4bff-9188-35cbfde59a24","system_id":"levelo_inurba_marseille","lat":43.32323,"lon":5.39369,"is_reserved":false,"is_disabled":true,"rental_uris":{"android":"levelo://app?vid=20e9dd8e-ed66-4bff-9188-35cbfde59a24","ios":"levelo://app?vid=20e9dd8e-ed66-4bff-9188-35cbfde59a24"},"vehicle_type_id":"4","last_reported":1766243410,"current_range_meters":10800,"station_id":"","pricing_plan_id":"cebpf4jnsgd1na2vs0mg"},{"bike_id":"28d36d66-e4d6-4e13-a6c5-33e9d81e47d2","system_id":"levelo_inurba_marseille","lat":43.29625,"lon":5.37731,"is_reserved":false,"is_disabled":false,"rental_uris":{"android":"levelo://app?vid=28d36d66-e4d6-4e13-a6c5-33e9d81e47d2","ios":"levelo://app?vid=28d36d66-e4d6-4e13-a6c5-33e9d81e47d2"},"vehicle_type_id":"4","last_reported":1766243410,"current_range_meters":11200,"station_id":"ce4bgi92rcd13ifvqb90","pricing_plan_id":"cebpf4jnsgd1na2vs0mg"},{"bike_id":"d333f5c5-54f8-4cf5-940a-bb6a2ed8e5fd","system_id":"levelo_inurba_marseille","lat":43.3055,"lon":5.37581,"is_reserved":false,"is_disabled":false,"rental_uris":{"android":"levelo://app?vid=d333f5c5-54f8-4cf5-940a-bb6a2ed8e5fd","ios":"levelo://app?vid=d333f5c5-54f8-4cf5-940a-bb6a2ed8e5fd"},"vehicle_type_id":"4","last_reported":1766243410,"current_range_meters":11200,"station_id":"","pricing_plan_id":"cebpf4jnsgd1na2vs0mg"},{"bike_id":"715d9561-8fa5-47bb-9c01-bb5405ae1ea0","system_id":"levelo_inurba_marseille","lat":43.29549,"lon":5.37491,"is_reserved":false,"is_disabled":false,"rental_uris":{"android":"levelo://app?vid=715d9561-8fa5-47bb-9c01-bb5405ae1ea0","ios":"levelo://app?vid=715d9561-8fa5-47bb-9c01-bb5405ae1ea0"},"vehicle_type_id":"4","last_reported":1766243410,"current_range_meters":11200,"station_id":"ce4bgkp2rcd13ifvqbmg","pricing_plan_id":"cebpf4jnsgd1na2vs0mg"},{"bike_id":"0a878f81-014a-4418-8c17-c944e0044104","system_id":"levelo_inurba_marseille","lat":43.2862,"lon":5.35102,"is_reserved":false,"is_disabled":false,"rental_uris":{"android":"levelo://app?vid=0a878f81-014a-4418-8c17-c944e0044104","ios":"levelo://app?vid=0a878f81-014a-4418-8c17-c944e0044104"},"vehicle_type_id":"4","last_reported":1766243410,"current_range_meters":11200,"station_id":"ce4bhch2rcd13ifvqeug","pricing_plan_id":"cebpf4jnsgd1na2vs0mg"},{"bike_id":"70909471-9259-4221-ac11-981076f2bde6","system_id":"levelo_inurba_marseille","lat":43.26195,"lon":5.37452,"is_reserved":false,"is_disabled":false,"rental_uris":{"android":"levelo://app?vid=70909471-9259-4221-ac11-981076f2bde6","ios":"levelo://app?vid=70909471-9259-4221-ac11-981076f2bde6"},"vehicle_type_id":"4","last_reported":1766243410,"current_range_meters":11200,"station_id":"ce4bhgp2rcd13ifvqfc0","pricing_plan_id":"cebpf4jnsgd1na2vs0mg"},{"bike_id":"c365b196-4204-4b64-ac7c-fd7c163d0abd","system_id":"levelo_inurba_marseille","lat":43.312753,"lon":5.401803,"is_reserved":false,"is_disabled":false,"rental_uris":{"android":"levelo://app?vid=c365b196-4204-4b64-ac7c-fd7c163d0abd","ios":"levelo://app?vid=c365b196-4204-4b64-ac7c-fd7c163d0abd"},"vehicle_type_id":"4","last_reported":1766243410,"current_range_meters":11200,"station_id":"","pricing_plan_id":"cebpf4jnsgd1na2vs0mg"},{"bike_id":"9ed2abc5-3eb4-46ee-9006-c9e3411abb84","system_id":"levelo_inurba_marseille","lat":43.2636,"lon":5.39928,"is_reserved":false,"is_disabled":false,"rental_uris":{"android":"levelo://app?vid=9ed2abc5-3eb4-46ee-9006-c9e3411abb84","ios":"levelo://app?vid=9ed2abc5-3eb4-46ee-9006-c9e3411abb84"},"vehicle_type_id":"4","last_reported":1766243410,"current_range_meters":11200,"station_id":"","pricing_plan_id":"cebpf4jnsgd1na2vs0mg"},{"bike_id":"e690c867-6f92-4878-bff7-a3243322d024","system_id":"levelo_inurba_marseille","lat":43.29465,"lon":5.42738,"is_reserved":false,"is_disabled":false,"rental_uris":{"android":"levelo://app?vid=e690c867-6f92-4878-bff7-a3243322d024","ios":"levelo://app?vid=e690c867-6f92-4878-bff7-a3243322d024"},"vehicle_type_id":"4","last_reported":1766243410,"current_range_meters":11200,"station_id":"","pricing_plan_id":"cebpf4jnsgd1na2vs0mg"},{"bike_id":"2988621f-d487-493d-a4f5-bbade97b528b","system_id":"levelo_inurba_marseille","lat":43.298747,"lon":5.388109,"is_reserved":false,"is_disabled":false,"rental_uris":{"android":"levelo://app?vid=2988621f-d487-493d-a4f5-bbade97b528b","ios":"levelo://app?vid=2988621f-d487-493d-a4f5-bbade97b528b"},"vehicle_type_id":"4","last_reported":1766243410,"current_range_meters":11200,"station_id":"ce4bgt12rcd13ifvqce0","pricing_plan_id":"cebpf4jnsgd1na2vs0mg"},{"bike_id":"4f2bc6c6-d63f-4e59-bdbf-91760def261d","system_id":"levelo_inurba_marseille","lat":43.2853,"lon":5.44096,"is_reserved":false,"is_disabled":false,"rental_uris":{"android":"levelo://app?vid=4f2bc6c6-d63f-4e59-bdbf-91760def261d","ios":"levelo://app?vid=4f2bc6c6-d63f-4e59-bdbf-91760def261d"},"vehicle_type_id":"4","last_reported":1766243410,"current_range_meters":11200,"station_id":"st_d3j3df2ikq2c7380ej80","pricing_plan_id":"cebpf4jnsgd1na2vs0mg"},{"bike_id":"822443fb-9d29-4eb0-ae18-e922a564cf9e","system_id":"levelo_inurba_marseille","lat":43.23783,"lon":5.36632,"is_reserved":false,"is_disabled":false,"rental_uris":{"android":"levelo://app?vid=822443fb-9d29-4eb0-ae18-e922a564cf9e","ios":"levelo://app?vid=822443fb-9d29-4eb0-ae18-e922a564cf9e"},"vehicle_type_id":"4","last_reported":1766243410,"current_range_meters":11200,"station_id":"st_d3nk18o9ro0c73en2l3g","pricing_plan_id":"cebpf4jnsgd1na2vs0mg"},{"bike_id":"8eb30b91-3cf1-4507-b361-be5214bebabb","system_id":"levelo_inurba_marseille","lat":43.29558,"lon":5.37504,"is_reserved":false,"is_disabled":false,"rental_uris":{"android":"levelo://app?vid=8eb30b91-3cf1-4507-b361-be5214bebabb","ios":"levelo://app?vid=8eb30b91-3cf1-4507-b361-be5214bebabb"},"vehicle_type_id":"4","last_reported":1766243410,"current_range_meters":11600,"station_id":"ce4bgh92rcd13ifvqb50","pricing_plan_id":"cebpf4jnsgd1na2vs0mg"},{"bike_id":"19c498c3-8b89-4901-8ea2-a541e1730ba2","system_id":"levelo_inurba_marseille","lat":43.28716,"lon":5.40008,"is_reserved":false,"is_disabled":false,"rental_uris":{"android":"levelo://app?vid=19c498c3-8b89-4901-8ea2-a541e1730ba2","ios":"levelo://app?vid=19c498c3-8b89-4901-8ea2-a541e1730ba2"},"vehicle_type_id":"4","last_reported":1766243410,"current_range_meters":11600,"station_id":"ce4bho92rcd13ifvqh3g","pricing_plan_id":"cebpf4jnsgd1na2vs0mg"},{"bike_id":"a1ed1ea4-0914-441d-94b5-fce68564349d","system_id":"levelo_inurba_marseille","lat":43.27996,"lon":5.41672,"is_reserved":false,"is_disabled":false,"rental_uris":{"android":"levelo://app?vid=a1ed1ea4-0914-441d-94b5-fce68564349d","ios":"levelo://app?vid=a1ed1ea4-0914-441d-94b5-fce68564349d"},"vehicle_type_id":"4","last_reported":1766243410,"current_range_meters":11600,"station_id":"ce4bho12rcd13ifvqh1g","pricing_plan_id":"cebpf4jnsgd1na2vs0mg"},{"bike_id":"18e7b3b5-1443-4f52-8ee1-547905b17251","system_id":"levelo_inurba_marseille","lat":43.28857,"lon":5.35849,"is_reserved":false,"is_disabled":false,"rental_uris":{"android":"levelo://app?vid=18e7b3b5-1443-4f52-8ee1-547905b17251","ios":"levelo://app?vid=18e7b3b5-1443-4f52-8ee1-547905b17251"},"vehicle_type_id":"4","last_reported":1766243410,"current_range_meters":11600,"station_id":"ce4bhb12rcd13ifvqem0","pricing_plan_id":"cebpf4jnsgd1na2vs0mg"},{"bike_id":"0e874bd3-463b-431b-b702-2d4a5f1235f1","system_id":"levelo_inurba_marseille","lat":43.26211,"lon":5.37939,"is_reserved":false,"is_disabled":false,"rental_uris":{"android":"levelo://app?vid=0e874bd3-463b-431b-b702-2d4a5f1235f1","ios":"levelo://app?vid=0e874bd3-463b-431b-b702-2d4a5f1235f1"},"vehicle_type_id":"4","last_reported":1766243410,"current_range_meters":11600,"station_id":"ce4bhjp2rcd13ifvqg90","pricing_plan_id":"cebpf4jnsgd1na2vs0mg"},{"bike_id":"c84b8e47-5802-4c21-b1cc-1df47c4f26c2","system_id":"levelo_inurba_marseille","lat":43.2848,"lon":5.48395,"is_reserved":false,"is_disabled":false,"rental_uris":{"android":"levelo://app?vid=c84b8e47-5802-4c21-b1cc-1df47c4f26c2","ios":"levelo://app?vid=c84b8e47-5802-4c21-b1cc-1df47c4f26c2"},"vehicle_type_id":"4","last_reported":1766243410,"current_range_meters":11600,"station_id":"","pricing_plan_id":"cebpf4jnsgd1na2vs0mg"},{"bike_id":"60104876-cfb4-4c08-831d-06fdc216973b","system_id":"levelo_inurba_marseille","lat":43.29954,"lon":5.38562,"is_reserved":false,"is_disabled":true,"rental_uris":{"android":"levelo://app?vid=60104876-cfb4-4c08-831d-06fdc216973b","ios":"levelo://app?vid=60104876-cfb4-4c08-831d-06fdc216973b"},"vehicle_type_id":"4","last_reported":1766243410,"current_range_meters":11600,"station_id":"","pricing_plan_id":"cebpf4jnsgd1na2vs0mg"},{"bike_id":"90dac6f2-4e58-4623-b929-4f8d06ec1c31","system_id":"levelo_inurba_marseille","lat":43.28506,"lon":5.42543,"is_reserved":false,"is_disabled":false,"rental_uris":{"android":"levelo://app?vid=90dac6f2-4e58-4623-b929-4f8d06ec1c31","ios":"levelo://app?vid=90dac6f2-4e58-4623-b929-4f8d06ec1c31"},"vehicle_type_id":"4","last_reported":1766243410,"current_range_meters":12000,"station_id":"","pricing_plan_id":"cebpf4jnsgd1na2vs0mg"},{"bike_id":"3fbe86d6-50aa-4dbb-b535-cf846f212f8d","system_id":"levelo_inurba_marseille","lat":43.21192,"lon":5.35075,"is_reserved":false,"is_disabled":true,"rental_uris":{"android":"levelo://app?vid=3fbe86d6-50aa-4dbb-b535-cf846f212f8d","ios":"levelo://app?vid=3fbe86d6-50aa-4dbb-b535-cf846f212f8d"},"vehicle_type_id":"4","last_reported":1766243410,"current_range_meters":12000,"station_id":"","pricing_plan_id":"cebpf4jnsgd1na2vs0mg"},{"bike_id":"40d73e8d-0c27-4119-afd6-7fe731b3c8a2","system_id":"levelo_inurba_marseille","lat":43.23199,"lon":5.35546,"is_reserved":false,"is_disabled":false,"rental_uris":{"android":"levelo://app?vid=40d73e8d-0c27-4119-afd6-7fe731b3c8a2","ios":"levelo://app?vid=40d73e8d-0c27-4119-afd6-7fe731b3c8a2"},"vehicle_type_id":"4","last_reported":1766243410,"current_range_meters":12000,"station_id":"ce4bhu92rcd13ifvqi70","pricing_plan_id":"cebpf4jnsgd1na2vs0mg"},{"bike_id":"5cdf0c26-71fe-4230-ab4f-b50d47db508a","system_id":"levelo_inurba_marseille","lat":43.30157,"lon":5.39743,"is_reserved":false,"is_disabled":false,"rental_uris":{"android":"levelo://app?vid=5cdf0c26-71fe-4230-ab4f-b50d47db508a","ios":"levelo://app?vid=5cdf0c26-71fe-4230-ab4f-b50d47db508a"},"vehicle_type_id":"4","last_reported":1766243410,"current_range_meters":12000,"station_id":"","pricing_plan_id":"cebpf4jnsgd1na2vs0mg"},{"bike_id":"f2c2f21a-2643-40c9-a83e-5a52788ba994","system_id":"levelo_inurba_marseille","lat":43.237837,"lon":5.36629,"is_reserved":false,"is_disabled":false,"rental_uris":{"android":"levelo://app?vid=f2c2f21a-2643-40c9-a83e-5a52788ba994","ios":"levelo://app?vid=f2c2f21a-2643-40c9-a83e-5a52788ba994"},"vehicle_type_id":"4","last_reported":1766243410,"current_range_meters":12000,"station_id":"st_d3nk18o9ro0c73en2l3g","pricing_plan_id":"cebpf4jnsgd1na2vs0mg"},{"bike_id":"f3718731-22e8-48f9-bdc9-85867161b03f","system_id":"levelo_inurba_marseille","lat":43.309968,"lon":5.403254,"is_reserved":false,"is_disabled":false,"rental_uris":{"android":"levelo://app?vid=f3718731-22e8-48f9-bdc9-85867161b03f","ios":"levelo://app?vid=f3718731-22e8-48f9-bdc9-85867161b03f"},"vehicle_type_id":"4","last_reported":1766243410,"current_range_meters":12000,"station_id":"","pricing_plan_id":"cebpf4jnsgd1na2vs0mg"},{"bike_id":"cdf3202c-fd49-4f86-836a-843cb59136f2","system_id":"levelo_inurba_marseille","lat":43.29593,"lon":5.37736,"is_reserved":false,"is_disabled":false,"rental_uris":{"android":"levelo://app?vid=cdf3202c-fd49-4f86-836a-843cb59136f2","ios":"levelo://app?vid=cdf3202c-fd49-4f86-836a-843cb59136f2"},"vehicle_type_id":"4","last_reported":1766243410,"current_range_meters":12000,"station_id":"ce4bgi92rcd13ifvqb90","pricing_plan_id":"cebpf4jnsgd1na2vs0mg"},{"bike_id":"98c040ff-ac12-4358-bded-c79cb9358db9","system_id":"levelo_inurba_marseille","lat":43.31721,"lon":5.42397,"is_reserved":false,"is_disabled":false,"rental_uris":{"android":"levelo://app?vid=98c040ff-ac12-4358-bded-c79cb9358db9","ios":"levelo://app?vid=98c040ff-ac12-4358-bded-c79cb9358db9"},"vehicle_type_id":"4","last_reported":1766243410,"current_range_meters":12000,"station_id":"ce4bhp92rcd13ifvqhbg","pricing_plan_id":"cebpf4jnsgd1na2vs0mg"},{"bike_id":"015569b4-d80f-45ed-886a-997c75c7d59e","system_id":"levelo_inurba_marseille","lat":43.231552,"lon":5.437317,"is_reserved":false,"is_disabled":false,"rental_uris":{"android":"levelo://app?vid=015569b4-d80f-45ed-886a-997c75c7d59e","ios":"levelo://app?vid=015569b4-d80f-45ed-886a-997c75c7d59e"},"vehicle_type_id":"4","last_reported":1766243410,"current_range_meters":12000,"station_id":"ce4bhmp2rcd13ifvqgog","pricing_plan_id":"cebpf4jnsgd1na2vs0mg"},{"bike_id":"693daa65-f98e-49a9-8cb7-de40b16ccdc7","system_id":"levelo_inurba_marseille","lat":43.22566,"lon":5.41609,"is_reserved":false,"is_disabled":false,"rental_uris":{"android":"levelo://app?vid=693daa65-f98e-49a9-8cb7-de40b16ccdc7","ios":"levelo://app?vid=693daa65-f98e-49a9-8cb7-de40b16ccdc7"},"vehicle_type_id":"4","last_reported":1766243410,"current_range_meters":12000,"station_id":"st_d2o4gvlbi1j2169b742g","pricing_plan_id":"cebpf4jnsgd1na2vs0mg"},{"bike_id":"2a0b8521-e8c2-435f-ac2a-f305f0065e9f","system_id":"levelo_inurba_marseille","lat":43.2119,"lon":5.35074,"is_reserved":false,"is_disabled":false,"rental_uris":{"android":"levelo://app?vid=2a0b8521-e8c2-435f-ac2a-f305f0065e9f","ios":"levelo://app?vid=2a0b8521-e8c2-435f-ac2a-f305f0065e9f"},"vehicle_type_id":"4","last_reported":1766243410,"current_range_meters":12400,"station_id":"st_cvj6sg6p6f1abm77japg","pricing_plan_id":"cebpf4jnsgd1na2vs0mg"},{"bike_id":"a9a96932-de2d-40ef-81dc-9e768481359e","system_id":"levelo_inurba_marseille","lat":43.29179,"lon":5.35803,"is_reserved":false,"is_disabled":false,"rental_uris":{"android":"levelo://app?vid=a9a96932-de2d-40ef-81dc-9e768481359e","ios":"levelo://app?vid=a9a96932-de2d-40ef-81dc-9e768481359e"},"vehicle_type_id":"4","last_reported":1766243410,"current_range_meters":12400,"station_id":"ce4bhb12rcd13ifvqel0","pricing_plan_id":"cebpf4jnsgd1na2vs0mg"},{"bike_id":"1a399a16-62ed-47ae-ba1c-654e7762c033","system_id":"levelo_inurba_marseille","lat":43.30037,"lon":5.38012,"is_reserved":false,"is_disabled":false,"rental_uris":{"android":"levelo://app?vid=1a399a16-62ed-47ae-ba1c-654e7762c033","ios":"levelo://app?vid=1a399a16-62ed-47ae-ba1c-654e7762c033"},"vehicle_type_id":"4","last_reported":1766243410,"current_range_meters":12400,"station_id":"","pricing_plan_id":"cebpf4jnsgd1na2vs0mg"},{"bike_id":"ac69310b-48fc-4542-b776-5797f9034e72","system_id":"levelo_inurba_marseille","lat":43.29819,"lon":5.44066,"is_reserved":false,"is_disabled":false,"rental_uris":{"android":"levelo://app?vid=ac69310b-48fc-4542-b776-5797f9034e72","ios":"levelo://app?vid=ac69310b-48fc-4542-b776-5797f9034e72"},"vehicle_type_id":"4","last_reported":1766243410,"current_range_meters":12400,"station_id":"st_d3jp68qikq2c7381ktn0","pricing_plan_id":"cebpf4jnsgd1na2vs0mg"},{"bike_id":"628a75f3-7312-4f05-a812-11eaca59fded","system_id":"levelo_inurba_marseille","lat":43.28496,"lon":5.38559,"is_reserved":false,"is_disabled":false,"rental_uris":{"android":"levelo://app?vid=628a75f3-7312-4f05-a812-11eaca59fded","ios":"levelo://app?vid=628a75f3-7312-4f05-a812-11eaca59fded"},"vehicle_type_id":"4","last_reported":1766243410,"current_range_meters":12400,"station_id":"ce4bh8p2rcd13ifvqeb0","pricing_plan_id":"cebpf4jnsgd1na2vs0mg"},{"bike_id":"3d621038-3d00-4ace-aaaf-a98cada18bac","system_id":"levelo_inurba_marseille","lat":43.29556,"lon":5.37521,"is_reserved":false,"is_disabled":false,"rental_uris":{"android":"levelo://app?vid=3d621038-3d00-4ace-aaaf-a98cada18bac","ios":"levelo://app?vid=3d621038-3d00-4ace-aaaf-a98cada18bac"},"vehicle_type_id":"4","last_reported":1766243410,"current_range_meters":12400,"station_id":"ce4bgh92rcd13ifvqb50","pricing_plan_id":"cebpf4jnsgd1na2vs0mg"},{"bike_id":"e9d9572b-ddba-424a-8878-decd1227ae70","system_id":"levelo_inurba_marseille","lat":43.29152,"lon":5.36677,"is_reserved":false,"is_disabled":true,"rental_uris":{"android":"levelo://app?vid=e9d9572b-ddba-424a-8878-decd1227ae70","ios":"levelo://app?vid=e9d9572b-ddba-424a-8878-decd1227ae70"},"vehicle_type_id":"4","last_reported":1766243410,"current_range_meters":12400,"station_id":"","pricing_plan_id":"cebpf4jnsgd1na2vs0mg"},{"bike_id":"0de674bc-b280-43fb-ae35-4e3448ca31e2","system_id":"levelo_inurba_marseille","lat":43.31712,"lon":5.37751,"is_reserved":false,"is_disabled":false,"rental_uris":{"android":"levelo://app?vid=0de674bc-b280-43fb-ae35-4e3448ca31e2","ios":"levelo://app?vid=0de674bc-b280-43fb-ae35-4e3448ca31e2"},"vehicle_type_id":"4","last_reported":1766243410,"current_range_meters":12400,"station_id":"ce4bgth2rcd13ifvqch0","pricing_plan_id":"cebpf4jnsgd1na2vs0mg"},{"bike_id":"6682e79b-6b3d-439e-b71b-bda1cffb85c8","system_id":"levelo_inurba_marseille","lat":43.27216,"lon":5.39182,"is_reserved":false,"is_disabled":false,"rental_uris":{"android":"levelo://app?vid=6682e79b-6b3d-439e-b71b-bda1cffb85c8","ios":"levelo://app?vid=6682e79b-6b3d-439e-b71b-bda1cffb85c8"},"vehicle_type_id":"4","last_reported":1766243410,"current_range_meters":12400,"station_id":"ce4bhhp2rcd13ifvqfm0","pricing_plan_id":"cebpf4jnsgd1na2vs0mg"},{"bike_id":"f247771e-2838-4c74-9387-68cb8feccb4e","system_id":"levelo_inurba_marseille","lat":43.28567,"lon":5.40456,"is_reserved":false,"is_disabled":false,"rental_uris":{"android":"levelo://app?vid=f247771e-2838-4c74-9387-68cb8feccb4e","ios":"levelo://app?vid=f247771e-2838-4c74-9387-68cb8feccb4e"},"vehicle_type_id":"4","last_reported":1766243410,"current_range_meters":12400,"station_id":"","pricing_plan_id":"cebpf4jnsgd1na2vs0mg"},{"bike_id":"167ff5eb-f7ec-4a9a-a389-047000be67d8","system_id":"levelo_inurba_marseille","lat":43.28159,"lon":5.42641,"is_reserved":false,"is_disabled":false,"rental_uris":{"android":"levelo://app?vid=167ff5eb-f7ec-4a9a-a389-047000be67d8","ios":"levelo://app?vid=167ff5eb-f7ec-4a9a-a389-047000be67d8"},"vehicle_type_id":"4","last_reported":1766243410,"current_range_meters":12800,"station_id":"ce4bhnh2rcd13ifvqgug","pricing_plan_id":"cebpf4jnsgd1na2vs0mg"},{"bike_id":"00a29bb1-88ca-440d-9219-07d673c689ed","system_id":"levelo_inurba_marseille","lat":43.30481,"lon":5.36669,"is_reserved":false,"is_disabled":false,"rental_uris":{"android":"levelo://app?vid=00a29bb1-88ca-440d-9219-07d673c689ed","ios":"levelo://app?vid=00a29bb1-88ca-440d-9219-07d673c689ed"},"vehicle_type_id":"4","last_reported":1766243410,"current_range_meters":12800,"station_id":"","pricing_plan_id":"cebpf4jnsgd1na2vs0mg"},{"bike_id":"6321fe57-59f4-4d15-83e3-f64320476ab2","system_id":"levelo_inurba_marseille","lat":43.21189,"lon":5.35069,"is_reserved":false,"is_disabled":false,"rental_uris":{"android":"levelo://app?vid=6321fe57-59f4-4d15-83e3-f64320476ab2","ios":"levelo://app?vid=6321fe57-59f4-4d15-83e3-f64320476ab2"},"vehicle_type_id":"4","last_reported":1766243410,"current_range_meters":12800,"station_id":"st_cvj6sg6p6f1abm77japg","pricing_plan_id":"cebpf4jnsgd1na2vs0mg"},{"bike_id":"50b8d03a-86ed-4938-93de-772d12cbc21e","system_id":"levelo_inurba_marseille","lat":43.31253,"lon":5.36884,"is_reserved":false,"is_disabled":false,"rental_uris":{"android":"levelo://app?vid=50b8d03a-86ed-4938-93de-772d12cbc21e","ios":"levelo://app?vid=50b8d03a-86ed-4938-93de-772d12cbc21e"},"vehicle_type_id":"4","last_reported":1766243410,"current_range_meters":12800,"station_id":"ce4bgl92rcd13ifvqbq0","pricing_plan_id":"cebpf4jnsgd1na2vs0mg"},{"bike_id":"46923b44-1cd9-4a42-8ffe-58eec609cb63","system_id":"levelo_inurba_marseille","lat":43.25511,"lon":5.37653,"is_reserved":false,"is_disabled":false,"rental_uris":{"android":"levelo://app?vid=46923b44-1cd9-4a42-8ffe-58eec609cb63","ios":"levelo://app?vid=46923b44-1cd9-4a42-8ffe-58eec609cb63"},"vehicle_type_id":"4","last_reported":1766243410,"current_range_meters":12800,"station_id":"ce4bhh12rcd13ifvqff0","pricing_plan_id":"cebpf4jnsgd1na2vs0mg"},{"bike_id":"ae977d6c-e9ef-41f7-b804-ef0e4fe2355a","system_id":"levelo_inurba_marseille","lat":43.27188,"lon":5.39152,"is_reserved":false,"is_disabled":false,"rental_uris":{"android":"levelo://app?vid=ae977d6c-e9ef-41f7-b804-ef0e4fe2355a","ios":"levelo://app?vid=ae977d6c-e9ef-41f7-b804-ef0e4fe2355a"},"vehicle_type_id":"4","last_reported":1766243410,"current_range_meters":12800,"station_id":"ce4bhhp2rcd13ifvqfm0","pricing_plan_id":"cebpf4jnsgd1na2vs0mg"},{"bike_id":"557219c7-dbe3-46a5-bb7a-56fe63a5b7c8","system_id":"levelo_inurba_marseille","lat":43.25509,"lon":5.37655,"is_reserved":false,"is_disabled":false,"rental_uris":{"android":"levelo://app?vid=557219c7-dbe3-46a5-bb7a-56fe63a5b7c8","ios":"levelo://app?vid=557219c7-dbe3-46a5-bb7a-56fe63a5b7c8"},"vehicle_type_id":"4","last_reported":1766243410,"current_range_meters":12800,"station_id":"ce4bhh12rcd13ifvqff0","pricing_plan_id":"cebpf4jnsgd1na2vs0mg"},{"bike_id":"ddcad479-46b8-4f51-a23e-87b889534baf","system_id":"levelo_inurba_marseille","lat":43.261911,"lon":5.374483,"is_reserved":false,"is_disabled":false,"rental_uris":{"android":"levelo://app?vid=ddcad479-46b8-4f51-a23e-87b889534baf","ios":"levelo://app?vid=ddcad479-46b8-4f51-a23e-87b889534baf"},"vehicle_type_id":"4","last_reported":1766243410,"current_range_meters":12800,"station_id":"ce4bhgp2rcd13ifvqfc0","pricing_plan_id":"cebpf4jnsgd1na2vs0mg"},{"bike_id":"8c1ab11e-9e0c-4d16-a145-c73e6f57ea67","system_id":"levelo_inurba_marseille","lat":43.30141,"lon":5.37417,"is_reserved":false,"is_disabled":false,"rental_uris":{"android":"levelo://app?vid=8c1ab11e-9e0c-4d16-a145-c73e6f57ea67","ios":"levelo://app?vid=8c1ab11e-9e0c-4d16-a145-c73e6f57ea67"},"vehicle_type_id":"4","last_reported":1766243410,"current_range_meters":12800,"station_id":"ce4bgs92rcd13ifvqcc0","pricing_plan_id":"cebpf4jnsgd1na2vs0mg"},{"bike_id":"de4957ca-9c93-409a-ae9b-9b8d86479fcf","system_id":"levelo_inurba_marseille","lat":43.29558,"lon":5.37499,"is_reserved":false,"is_disabled":true,"rental_uris":{"android":"levelo://app?vid=de4957ca-9c93-409a-ae9b-9b8d86479fcf","ios":"levelo://app?vid=de4957ca-9c93-409a-ae9b-9b8d86479fcf"},"vehicle_type_id":"4","last_reported":1766243410,"current_range_meters":13600,"station_id":"ce4bgh92rcd13ifvqb50","pricing_plan_id":"cebpf4jnsgd1na2vs0mg"},{"bike_id":"28ad1a9a-391c-435e-96a8-1e7f1aea86aa","system_id":"levelo_inurba_marseille","lat":43.30098,"lon":5.43133,"is_reserved":false,"is_disabled":false,"rental_uris":{"android":"levelo://app?vid=28ad1a9a-391c-435e-96a8-1e7f1aea86aa","ios":"levelo://app?vid=28ad1a9a-391c-435e-96a8-1e7f1aea86aa"},"vehicle_type_id":"4","last_reported":1766243410,"current_range_meters":13600,"station_id":"st_d3js3co5814s73ftftug","pricing_plan_id":"cebpf4jnsgd1na2vs0mg"},{"bike_id":"2964d339-565e-4966-a8d5-dd5de314e6fd","system_id":"levelo_inurba_marseille","lat":43.32367,"lon":5.36737,"is_reserved":false,"is_disabled":false,"rental_uris":{"android":"levelo://app?vid=2964d339-565e-4966-a8d5-dd5de314e6fd","ios":"levelo://app?vid=2964d339-565e-4966-a8d5-dd5de314e6fd"},"vehicle_type_id":"4","last_reported":1766243410,"current_range_meters":13600,"station_id":"ce4bhsh2rcd13ifvqi2g","pricing_plan_id":"cebpf4jnsgd1na2vs0mg"},{"bike_id":"cf01deac-2376-4d88-bc76-849623b1c99e","system_id":"levelo_inurba_marseille","lat":43.30771,"lon":5.37653,"is_reserved":false,"is_disabled":false,"rental_uris":{"android":"levelo://app?vid=cf01deac-2376-4d88-bc76-849623b1c99e","ios":"levelo://app?vid=cf01deac-2376-4d88-bc76-849623b1c99e"},"vehicle_type_id":"4","last_reported":1766243410,"current_range_meters":13600,"station_id":"ce4bgv92rcd13ifvqcq0","pricing_plan_id":"cebpf4jnsgd1na2vs0mg"},{"bike_id":"b4c06ecc-7a46-4aca-a09e-6e605e584bbd","system_id":"levelo_inurba_marseille","lat":43.29842,"lon":5.4405,"is_reserved":false,"is_disabled":false,"rental_uris":{"android":"levelo://app?vid=b4c06ecc-7a46-4aca-a09e-6e605e584bbd","ios":"levelo://app?vid=b4c06ecc-7a46-4aca-a09e-6e605e584bbd"},"vehicle_type_id":"4","last_reported":1766243410,"current_range_meters":13600,"station_id":"","pricing_plan_id":"cebpf4jnsgd1na2vs0mg"},{"bike_id":"ba5fe198-5ac3-4bd7-8649-5b6193db5395","system_id":"levelo_inurba_marseille","lat":43.3183,"lon":5.38959,"is_reserved":false,"is_disabled":false,"rental_uris":{"android":"levelo://app?vid=ba5fe198-5ac3-4bd7-8649-5b6193db5395","ios":"levelo://app?vid=ba5fe198-5ac3-4bd7-8649-5b6193db5395"},"vehicle_type_id":"4","last_reported":1766243410,"current_range_meters":13600,"station_id":"","pricing_plan_id":"cebpf4jnsgd1na2vs0mg"},{"bike_id":"7003f313-702d-4b1e-9579-528ba4d56198","system_id":"levelo_inurba_marseille","lat":43.30153,"lon":5.3808,"is_reserved":false,"is_disabled":false,"rental_uris":{"android":"levelo://app?vid=7003f313-702d-4b1e-9579-528ba4d56198","ios":"levelo://app?vid=7003f313-702d-4b1e-9579-528ba4d56198"},"vehicle_type_id":"4","last_reported":1766243410,"current_range_meters":13600,"station_id":"ce4bgjp2rcd13ifvqbh0","pricing_plan_id":"cebpf4jnsgd1na2vs0mg"},{"bike_id":"c9efb63e-b0f0-47bc-9979-73e35fef1fe0","system_id":"levelo_inurba_marseille","lat":43.21762,"lon":5.34598,"is_reserved":false,"is_disabled":false,"rental_uris":{"android":"levelo://app?vid=c9efb63e-b0f0-47bc-9979-73e35fef1fe0","ios":"levelo://app?vid=c9efb63e-b0f0-47bc-9979-73e35fef1fe0"},"vehicle_type_id":"4","last_reported":1766243410,"current_range_meters":13600,"station_id":"st_cvj6r9ubvosntc0bgbag","pricing_plan_id":"cebpf4jnsgd1na2vs0mg"},{"bike_id":"c68cd317-586e-444b-8663-5f96860bb04a","system_id":"levelo_inurba_marseille","lat":43.3018,"lon":5.38075,"is_reserved":false,"is_disabled":false,"rental_uris":{"android":"levelo://app?vid=c68cd317-586e-444b-8663-5f96860bb04a","ios":"levelo://app?vid=c68cd317-586e-444b-8663-5f96860bb04a"},"vehicle_type_id":"4","last_reported":1766243410,"current_range_meters":13600,"station_id":"ce4bgjp2rcd13ifvqbh0","pricing_plan_id":"cebpf4jnsgd1na2vs0mg"},{"bike_id":"f1a91494-4ea9-498a-8b4d-c2877ea07d2f","system_id":"levelo_inurba_marseille","lat":43.33555,"lon":5.37465,"is_reserved":false,"is_disabled":false,"rental_uris":{"android":"levelo://app?vid=f1a91494-4ea9-498a-8b4d-c2877ea07d2f","ios":"levelo://app?vid=f1a91494-4ea9-498a-8b4d-c2877ea07d2f"},"vehicle_type_id":"4","last_reported":1766243410,"current_range_meters":13600,"station_id":"st_d46tts09ee8s73dlu43g","pricing_plan_id":"cebpf4jnsgd1na2vs0mg"},{"bike_id":"a8848b83-4516-4b82-bd01-22d44a0d2599","system_id":"levelo_inurba_marseille","lat":43.29019,"lon":5.38124,"is_reserved":false,"is_disabled":false,"rental_uris":{"android":"levelo://app?vid=a8848b83-4516-4b82-bd01-22d44a0d2599","ios":"levelo://app?vid=a8848b83-4516-4b82-bd01-22d44a0d2599"},"vehicle_type_id":"4","last_reported":1766243410,"current_range_meters":13600,"station_id":"ce4bh4p2rcd13ifvqe1g","pricing_plan_id":"cebpf4jnsgd1na2vs0mg"},{"bike_id":"c0fb8cc1-ebe9-4001-a3ec-0d3fc87db3d9","system_id":"levelo_inurba_marseille","lat":43.3436,"lon":5.35481,"is_reserved":false,"is_disabled":false,"rental_uris":{"android":"levelo://app?vid=c0fb8cc1-ebe9-4001-a3ec-0d3fc87db3d9","ios":"levelo://app?vid=c0fb8cc1-ebe9-4001-a3ec-0d3fc87db3d9"},"vehicle_type_id":"4","last_reported":1766243410,"current_range_meters":13600,"station_id":"","pricing_plan_id":"cebpf4jnsgd1na2vs0mg"},{"bike_id":"e671f1d4-b90a-4118-a0e0-f3258ae33872","system_id":"levelo_inurba_marseille","lat":43.29598,"lon":5.37732,"is_reserved":false,"is_disabled":false,"rental_uris":{"android":"levelo://app?vid=e671f1d4-b90a-4118-a0e0-f3258ae33872","ios":"levelo://app?vid=e671f1d4-b90a-4118-a0e0-f3258ae33872"},"vehicle_type_id":"4","last_reported":1766243410,"current_range_meters":13600,"station_id":"ce4bgi92rcd13ifvqb90","pricing_plan_id":"cebpf4jnsgd1na2vs0mg"},{"bike_id":"a4557094-a3c8-45e6-827f-f9e6413c684c","system_id":"levelo_inurba_marseille","lat":43.24393,"lon":5.37068,"is_reserved":false,"is_disabled":false,"rental_uris":{"android":"levelo://app?vid=a4557094-a3c8-45e6-827f-f9e6413c684c","ios":"levelo://app?vid=a4557094-a3c8-45e6-827f-f9e6413c684c"},"vehicle_type_id":"4","last_reported":1766243410,"current_range_meters":13600,"station_id":"ce4bhhh2rcd13ifvqfk0","pricing_plan_id":"cebpf4jnsgd1na2vs0mg"},{"bike_id":"a72f3ab9-aabf-4db4-8fa1-68b0fde6cd26","system_id":"levelo_inurba_marseille","lat":43.29149,"lon":5.37456,"is_reserved":false,"is_disabled":false,"rental_uris":{"android":"levelo://app?vid=a72f3ab9-aabf-4db4-8fa1-68b0fde6cd26","ios":"levelo://app?vid=a72f3ab9-aabf-4db4-8fa1-68b0fde6cd26"},"vehicle_type_id":"4","last_reported":1766243410,"current_range_meters":13600,"station_id":"","pricing_plan_id":"cebpf4jnsgd1na2vs0mg"},{"bike_id":"9d21dcb0-ce26-48db-a303-317550439f40","system_id":"levelo_inurba_marseille","lat":43.2848,"lon":5.4839,"is_reserved":false,"is_disabled":false,"rental_uris":{"android":"levelo://app?vid=9d21dcb0-ce26-48db-a303-317550439f40","ios":"levelo://app?vid=9d21dcb0-ce26-48db-a303-317550439f40"},"vehicle_type_id":"4","last_reported":1766243410,"current_range_meters":13600,"station_id":"st_d3svhcjqgbts73a3dn0g","pricing_plan_id":"cebpf4jnsgd1na2vs0mg"},{"bike_id":"85f80c36-b01d-4148-8a0f-5ed00798dda8","system_id":"levelo_inurba_marseille","lat":43.301036,"lon":5.365135,"is_reserved":false,"is_disabled":false,"rental_uris":{"android":"levelo://app?vid=85f80c36-b01d-4148-8a0f-5ed00798dda8","ios":"levelo://app?vid=85f80c36-b01d-4148-8a0f-5ed00798dda8"},"vehicle_type_id":"4","last_reported":1766243410,"current_range_meters":13600,"station_id":"","pricing_plan_id":"cebpf4jnsgd1na2vs0mg"},{"bike_id":"0f10ec58-8147-4ffd-a203-6f4c9aabb4dc","system_id":"levelo_inurba_marseille","lat":43.29641,"lon":5.405722,"is_reserved":false,"is_disabled":false,"rental_uris":{"android":"levelo://app?vid=0f10ec58-8147-4ffd-a203-6f4c9aabb4dc","ios":"levelo://app?vid=0f10ec58-8147-4ffd-a203-6f4c9aabb4dc"},"vehicle_type_id":"4","last_reported":1766243410,"current_range_meters":13600,"station_id":"ce4bh0h2rcd13ifvqd60","pricing_plan_id":"cebpf4jnsgd1na2vs0mg"},{"bike_id":"eb80139b-deab-459f-8633-935f1056b6f6","system_id":"levelo_inurba_marseille","lat":43.295135,"lon":5.395824,"is_reserved":false,"is_disabled":false,"rental_uris":{"android":"levelo://app?vid=eb80139b-deab-459f-8633-935f1056b6f6","ios":"levelo://app?vid=eb80139b-deab-459f-8633-935f1056b6f6"},"vehicle_type_id":"4","last_reported":1766243410,"current_range_meters":13600,"station_id":"ce4bh112rcd13ifvqd90","pricing_plan_id":"cebpf4jnsgd1na2vs0mg"},{"bike_id":"fa3e9959-85f3-42eb-a9d7-d33e1c76df39","system_id":"levelo_inurba_marseille","lat":43.302698,"lon":5.395989,"is_reserved":false,"is_disabled":false,"rental_uris":{"android":"levelo://app?vid=fa3e9959-85f3-42eb-a9d7-d33e1c76df39","ios":"levelo://app?vid=fa3e9959-85f3-42eb-a9d7-d33e1c76df39"},"vehicle_type_id":"4","last_reported":1766243410,"current_range_meters":13600,"station_id":"ce4bh0h2rcd13ifvqd40","pricing_plan_id":"cebpf4jnsgd1na2vs0mg"},{"bike_id":"f9df09a0-3737-4582-8136-0e0c747a0f9b","system_id":"levelo_inurba_marseille","lat":43.32354,"lon":5.36746,"is_reserved":false,"is_disabled":false,"rental_uris":{"android":"levelo://app?vid=f9df09a0-3737-4582-8136-0e0c747a0f9b","ios":"levelo://app?vid=f9df09a0-3737-4582-8136-0e0c747a0f9b"},"vehicle_type_id":"4","last_reported":1766243410,"current_range_meters":13600,"station_id":"ce4bhsh2rcd13ifvqi2g","pricing_plan_id":"cebpf4jnsgd1na2vs0mg"},{"bike_id":"9a932122-700f-4099-b127-769edfc61208","system_id":"levelo_inurba_marseille","lat":43.25485,"lon":5.37652,"is_reserved":false,"is_disabled":false,"rental_uris":{"android":"levelo://app?vid=9a932122-700f-4099-b127-769edfc61208","ios":"levelo://app?vid=9a932122-700f-4099-b127-769edfc61208"},"vehicle_type_id":"4","last_reported":1766243410,"current_range_meters":13600,"station_id":"ce4bhh12rcd13ifvqff0","pricing_plan_id":"cebpf4jnsgd1na2vs0mg"},{"bike_id":"2154a936-f819-49ae-b7ae-2734365f2c42","system_id":"levelo_inurba_marseille","lat":43.335436,"lon":5.374693,"is_reserved":false,"is_disabled":false,"rental_uris":{"android":"levelo://app?vid=2154a936-f819-49ae-b7ae-2734365f2c42","ios":"levelo://app?vid=2154a936-f819-49ae-b7ae-2734365f2c42"},"vehicle_type_id":"4","last_reported":1766243410,"current_range_meters":14000,"station_id":"st_d46tts09ee8s73dlu43g","pricing_plan_id":"cebpf4jnsgd1na2vs0mg"},{"bike_id":"2bbc71c7-bd58-41dd-b1bc-322a7159a69f","system_id":"levelo_inurba_marseille","lat":43.30148,"lon":5.38078,"is_reserved":false,"is_disabled":false,"rental_uris":{"android":"levelo://app?vid=2bbc71c7-bd58-41dd-b1bc-322a7159a69f","ios":"levelo://app?vid=2bbc71c7-bd58-41dd-b1bc-322a7159a69f"},"vehicle_type_id":"4","last_reported":1766243410,"current_range_meters":14000,"station_id":"ce4bgjp2rcd13ifvqbh0","pricing_plan_id":"cebpf4jnsgd1na2vs0mg"},{"bike_id":"1297d7d4-6788-43a1-ac73-4fb6d116076e","system_id":"levelo_inurba_marseille","lat":43.29557,"lon":5.37505,"is_reserved":false,"is_disabled":true,"rental_uris":{"android":"levelo://app?vid=1297d7d4-6788-43a1-ac73-4fb6d116076e","ios":"levelo://app?vid=1297d7d4-6788-43a1-ac73-4fb6d116076e"},"vehicle_type_id":"4","last_reported":1766243410,"current_range_meters":14000,"station_id":"ce4bgh92rcd13ifvqb50","pricing_plan_id":"cebpf4jnsgd1na2vs0mg"},{"bike_id":"7f478d9d-8544-4f38-80df-a6ce41f5ff74","system_id":"levelo_inurba_marseille","lat":43.28453,"lon":5.39199,"is_reserved":false,"is_disabled":false,"rental_uris":{"android":"levelo://app?vid=7f478d9d-8544-4f38-80df-a6ce41f5ff74","ios":"levelo://app?vid=7f478d9d-8544-4f38-80df-a6ce41f5ff74"},"vehicle_type_id":"4","last_reported":1766243410,"current_range_meters":14000,"station_id":"ce4bhoh2rcd13ifvqh5g","pricing_plan_id":"cebpf4jnsgd1na2vs0mg"},{"bike_id":"49b32667-a5b9-4886-84eb-14582b80721d","system_id":"levelo_inurba_marseille","lat":43.29772,"lon":5.37728,"is_reserved":false,"is_disabled":false,"rental_uris":{"android":"levelo://app?vid=49b32667-a5b9-4886-84eb-14582b80721d","ios":"levelo://app?vid=49b32667-a5b9-4886-84eb-14582b80721d"},"vehicle_type_id":"4","last_reported":1766243410,"current_range_meters":14000,"station_id":"","pricing_plan_id":"cebpf4jnsgd1na2vs0mg"},{"bike_id":"1686839b-0972-4d66-a949-1eae098c6a90","system_id":"levelo_inurba_marseille","lat":43.33538,"lon":5.37469,"is_reserved":false,"is_disabled":false,"rental_uris":{"android":"levelo://app?vid=1686839b-0972-4d66-a949-1eae098c6a90","ios":"levelo://app?vid=1686839b-0972-4d66-a949-1eae098c6a90"},"vehicle_type_id":"4","last_reported":1766243410,"current_range_meters":14000,"station_id":"st_d46tts09ee8s73dlu43g","pricing_plan_id":"cebpf4jnsgd1na2vs0mg"},{"bike_id":"f05b1d45-099e-428c-8304-1aeb2bda8a9a","system_id":"levelo_inurba_marseille","lat":43.231893,"lon":5.355693,"is_reserved":false,"is_disabled":true,"rental_uris":{"android":"levelo://app?vid=f05b1d45-099e-428c-8304-1aeb2bda8a9a","ios":"levelo://app?vid=f05b1d45-099e-428c-8304-1aeb2bda8a9a"},"vehicle_type_id":"4","last_reported":1766243410,"current_range_meters":14400,"station_id":"ce4bhu92rcd13ifvqi70","pricing_plan_id":"cebpf4jnsgd1na2vs0mg"},{"bike_id":"e1c33e10-fc81-451e-9eff-2a5de4c6bb0f","system_id":"levelo_inurba_marseille","lat":43.29846,"lon":5.3628,"is_reserved":false,"is_disabled":false,"rental_uris":{"android":"levelo://app?vid=e1c33e10-fc81-451e-9eff-2a5de4c6bb0f","ios":"levelo://app?vid=e1c33e10-fc81-451e-9eff-2a5de4c6bb0f"},"vehicle_type_id":"4","last_reported":1766243410,"current_range_meters":14400,"station_id":"ce4bgpp2rcd13ifvqc3g","pricing_plan_id":"cebpf4jnsgd1na2vs0mg"},{"bike_id":"9bace714-42cd-41e4-9aa6-82a8c1875c2b","system_id":"levelo_inurba_marseille","lat":43.29227,"lon":5.36113,"is_reserved":false,"is_disabled":false,"rental_uris":{"android":"levelo://app?vid=9bace714-42cd-41e4-9aa6-82a8c1875c2b","ios":"levelo://app?vid=9bace714-42cd-41e4-9aa6-82a8c1875c2b"},"vehicle_type_id":"4","last_reported":1766243410,"current_range_meters":14400,"station_id":"","pricing_plan_id":"cebpf4jnsgd1na2vs0mg"},{"bike_id":"d4e12687-73c4-4f9e-bbf6-f4cb62632c79","system_id":"levelo_inurba_marseille","lat":43.27954,"lon":5.41043,"is_reserved":false,"is_disabled":false,"rental_uris":{"android":"levelo://app?vid=d4e12687-73c4-4f9e-bbf6-f4cb62632c79","ios":"levelo://app?vid=d4e12687-73c4-4f9e-bbf6-f4cb62632c79"},"vehicle_type_id":"4","last_reported":1766243410,"current_range_meters":14400,"station_id":"ce4bhnp2rcd13ifvqh0g","pricing_plan_id":"cebpf4jnsgd1na2vs0mg"},{"bike_id":"ad96ab35-147e-4b00-8b43-b29c4d85a4c0","system_id":"levelo_inurba_marseille","lat":43.29163,"lon":5.35668,"is_reserved":false,"is_disabled":false,"rental_uris":{"android":"levelo://app?vid=ad96ab35-147e-4b00-8b43-b29c4d85a4c0","ios":"levelo://app?vid=ad96ab35-147e-4b00-8b43-b29c4d85a4c0"},"vehicle_type_id":"4","last_reported":1766243410,"current_range_meters":14400,"station_id":"","pricing_plan_id":"cebpf4jnsgd1na2vs0mg"},{"bike_id":"698032aa-e78c-409e-bed4-f8f4309f7e0c","system_id":"levelo_inurba_marseille","lat":43.294513,"lon":5.396208,"is_reserved":false,"is_disabled":false,"rental_uris":{"android":"levelo://app?vid=698032aa-e78c-409e-bed4-f8f4309f7e0c","ios":"levelo://app?vid=698032aa-e78c-409e-bed4-f8f4309f7e0c"},"vehicle_type_id":"4","last_reported":1766243410,"current_range_meters":14400,"station_id":"","pricing_plan_id":"cebpf4jnsgd1na2vs0mg"},{"bike_id":"447328e0-3eeb-4392-81d6-dc183f792a45","system_id":"levelo_inurba_marseille","lat":43.26586,"lon":5.39029,"is_reserved":false,"is_disabled":false,"rental_uris":{"android":"levelo://app?vid=447328e0-3eeb-4392-81d6-dc183f792a45","ios":"levelo://app?vid=447328e0-3eeb-4392-81d6-dc183f792a45"},"vehicle_type_id":"4","last_reported":1766243410,"current_range_meters":14400,"station_id":"ce4bhe12rcd13ifvqf30","pricing_plan_id":"cebpf4jnsgd1na2vs0mg"},{"bike_id":"f86781ed-742e-44ae-a740-41a7e6e17f13","system_id":"levelo_inurba_marseille","lat":43.26514,"lon":5.39547,"is_reserved":false,"is_disabled":false,"rental_uris":{"android":"levelo://app?vid=f86781ed-742e-44ae-a740-41a7e6e17f13","ios":"levelo://app?vid=f86781ed-742e-44ae-a740-41a7e6e17f13"},"vehicle_type_id":"4","last_reported":1766243410,"current_range_meters":14400,"station_id":"ce4bhi12rcd13ifvqfq0","pricing_plan_id":"cebpf4jnsgd1na2vs0mg"},{"bike_id":"855d16cb-a0fd-4e07-9270-f8edf3ac4bcb","system_id":"levelo_inurba_marseille","lat":43.27988,"lon":5.41657,"is_reserved":false,"is_disabled":false,"rental_uris":{"android":"levelo://app?vid=855d16cb-a0fd-4e07-9270-f8edf3ac4bcb","ios":"levelo://app?vid=855d16cb-a0fd-4e07-9270-f8edf3ac4bcb"},"vehicle_type_id":"4","last_reported":1766243410,"current_range_meters":14400,"station_id":"ce4bho12rcd13ifvqh1g","pricing_plan_id":"cebpf4jnsgd1na2vs0mg"},{"bike_id":"c4ea2de9-c63f-4cae-ad07-fb0430eb0ea1","system_id":"levelo_inurba_marseille","lat":43.233453,"lon":5.399516,"is_reserved":false,"is_disabled":false,"rental_uris":{"android":"levelo://app?vid=c4ea2de9-c63f-4cae-ad07-fb0430eb0ea1","ios":"levelo://app?vid=c4ea2de9-c63f-4cae-ad07-fb0430eb0ea1"},"vehicle_type_id":"4","last_reported":1766243410,"current_range_meters":14400,"station_id":"ce4bhn12rcd13ifvqgqg","pricing_plan_id":"cebpf4jnsgd1na2vs0mg"},{"bike_id":"f3fdb73c-e2e3-4dd3-a99d-4f3e3986936b","system_id":"levelo_inurba_marseille","lat":43.22563,"lon":5.41631,"is_reserved":false,"is_disabled":false,"rental_uris":{"android":"levelo://app?vid=f3fdb73c-e2e3-4dd3-a99d-4f3e3986936b","ios":"levelo://app?vid=f3fdb73c-e2e3-4dd3-a99d-4f3e3986936b"},"vehicle_type_id":"4","last_reported":1766243410,"current_range_meters":14400,"station_id":"st_d2o4gvlbi1j2169b742g","pricing_plan_id":"cebpf4jnsgd1na2vs0mg"},{"bike_id":"4c78dd1f-142e-4678-9ed9-4be39e68c023","system_id":"levelo_inurba_marseille","lat":43.30546,"lon":5.3654,"is_reserved":false,"is_disabled":false,"rental_uris":{"android":"levelo://app?vid=4c78dd1f-142e-4678-9ed9-4be39e68c023","ios":"levelo://app?vid=4c78dd1f-142e-4678-9ed9-4be39e68c023"},"vehicle_type_id":"4","last_reported":1766243410,"current_range_meters":14400,"station_id":"ce4bgs12rcd13ifvqcag","pricing_plan_id":"cebpf4jnsgd1na2vs0mg"},{"bike_id":"a516ce71-740b-43b0-a57d-e49ede3f322e","system_id":"levelo_inurba_marseille","lat":43.27378,"lon":5.39113,"is_reserved":false,"is_disabled":false,"rental_uris":{"android":"levelo://app?vid=a516ce71-740b-43b0-a57d-e49ede3f322e","ios":"levelo://app?vid=a516ce71-740b-43b0-a57d-e49ede3f322e"},"vehicle_type_id":"4","last_reported":1766243410,"current_range_meters":14800,"station_id":"ce4bhgp2rcd13ifvqfe0","pricing_plan_id":"cebpf4jnsgd1na2vs0mg"},{"bike_id":"27c6cab6-027c-4350-9b9c-20490c10cfe9","system_id":"levelo_inurba_marseille","lat":43.32513,"lon":5.38302,"is_reserved":false,"is_disabled":false,"rental_uris":{"android":"levelo://app?vid=27c6cab6-027c-4350-9b9c-20490c10cfe9","ios":"levelo://app?vid=27c6cab6-027c-4350-9b9c-20490c10cfe9"},"vehicle_type_id":"4","last_reported":1766243410,"current_range_meters":14800,"station_id":"st_d4asgbiv49dc73anf9m0","pricing_plan_id":"cebpf4jnsgd1na2vs0mg"},{"bike_id":"5046e52c-2d03-4dab-83b5-0d9b216c15bd","system_id":"levelo_inurba_marseille","lat":43.30801,"lon":5.36971,"is_reserved":false,"is_disabled":false,"rental_uris":{"android":"levelo://app?vid=5046e52c-2d03-4dab-83b5-0d9b216c15bd","ios":"levelo://app?vid=5046e52c-2d03-4dab-83b5-0d9b216c15bd"},"vehicle_type_id":"4","last_reported":1766243410,"current_range_meters":14800,"station_id":"","pricing_plan_id":"cebpf4jnsgd1na2vs0mg"},{"bike_id":"7a2810d9-a7a2-4f55-a626-e3338912c6bf","system_id":"levelo_inurba_marseille","lat":43.337421,"lon":5.375,"is_reserved":false,"is_disabled":false,"rental_uris":{"android":"levelo://app?vid=7a2810d9-a7a2-4f55-a626-e3338912c6bf","ios":"levelo://app?vid=7a2810d9-a7a2-4f55-a626-e3338912c6bf"},"vehicle_type_id":"4","last_reported":1766243410,"current_range_meters":14800,"station_id":"","pricing_plan_id":"cebpf4jnsgd1na2vs0mg"},{"bike_id":"9f3dfe54-3798-46ca-bdee-0507af88ac0a","system_id":"levelo_inurba_marseille","lat":43.30908,"lon":5.36856,"is_reserved":false,"is_disabled":false,"rental_uris":{"android":"levelo://app?vid=9f3dfe54-3798-46ca-bdee-0507af88ac0a","ios":"levelo://app?vid=9f3dfe54-3798-46ca-bdee-0507af88ac0a"},"vehicle_type_id":"4","last_reported":1766243410,"current_range_meters":14800,"station_id":"ce4bgn92rcd13ifvqbvg","pricing_plan_id":"cebpf4jnsgd1na2vs0mg"},{"bike_id":"894b07af-2d2b-4e6f-add6-20e2189c2168","system_id":"levelo_inurba_marseille","lat":43.26948,"lon":5.38633,"is_reserved":false,"is_disabled":false,"rental_uris":{"android":"levelo://app?vid=894b07af-2d2b-4e6f-add6-20e2189c2168","ios":"levelo://app?vid=894b07af-2d2b-4e6f-add6-20e2189c2168"},"vehicle_type_id":"4","last_reported":1766243410,"current_range_meters":14800,"station_id":"ce4bhh92rcd13ifvqfh0","pricing_plan_id":"cebpf4jnsgd1na2vs0mg"},{"bike_id":"69c3bf49-dc0b-4726-91ee-b4e37e9a81d0","system_id":"levelo_inurba_marseille","lat":43.22923,"lon":5.35375,"is_reserved":false,"is_disabled":false,"rental_uris":{"android":"levelo://app?vid=69c3bf49-dc0b-4726-91ee-b4e37e9a81d0","ios":"levelo://app?vid=69c3bf49-dc0b-4726-91ee-b4e37e9a81d0"},"vehicle_type_id":"4","last_reported":1766243410,"current_range_meters":14800,"station_id":"cpo3532slgdg3j2ikp40","pricing_plan_id":"cebpf4jnsgd1na2vs0mg"},{"bike_id":"91a28041-87af-408c-b43b-c9e9e3d27e0a","system_id":"levelo_inurba_marseille","lat":43.29982,"lon":5.37188,"is_reserved":false,"is_disabled":false,"rental_uris":{"android":"levelo://app?vid=91a28041-87af-408c-b43b-c9e9e3d27e0a","ios":"levelo://app?vid=91a28041-87af-408c-b43b-c9e9e3d27e0a"},"vehicle_type_id":"4","last_reported":1766243410,"current_range_meters":14800,"station_id":"ce4bgr92rcd13ifvqc7g","pricing_plan_id":"cebpf4jnsgd1na2vs0mg"},{"bike_id":"611bb42d-81f1-42fc-b832-157e5dfb6bb7","system_id":"levelo_inurba_marseille","lat":43.2856,"lon":5.44102,"is_reserved":false,"is_disabled":false,"rental_uris":{"android":"levelo://app?vid=611bb42d-81f1-42fc-b832-157e5dfb6bb7","ios":"levelo://app?vid=611bb42d-81f1-42fc-b832-157e5dfb6bb7"},"vehicle_type_id":"4","last_reported":1766243410,"current_range_meters":14800,"station_id":"st_d3j3df2ikq2c7380ej80","pricing_plan_id":"cebpf4jnsgd1na2vs0mg"},{"bike_id":"8b51e427-7c13-4b57-9cd5-bf603542e006","system_id":"levelo_inurba_marseille","lat":43.237854,"lon":5.366293,"is_reserved":false,"is_disabled":false,"rental_uris":{"android":"levelo://app?vid=8b51e427-7c13-4b57-9cd5-bf603542e006","ios":"levelo://app?vid=8b51e427-7c13-4b57-9cd5-bf603542e006"},"vehicle_type_id":"4","last_reported":1766243410,"current_range_meters":14800,"station_id":"st_d3nk18o9ro0c73en2l3g","pricing_plan_id":"cebpf4jnsgd1na2vs0mg"},{"bike_id":"6cb32061-abd9-4acf-b050-46a7d66b8826","system_id":"levelo_inurba_marseille","lat":43.239624,"lon":5.36633,"is_reserved":false,"is_disabled":false,"rental_uris":{"android":"levelo://app?vid=6cb32061-abd9-4acf-b050-46a7d66b8826","ios":"levelo://app?vid=6cb32061-abd9-4acf-b050-46a7d66b8826"},"vehicle_type_id":"4","last_reported":1766243410,"current_range_meters":14800,"station_id":"ce4bhi12rcd13ifvqfp0","pricing_plan_id":"cebpf4jnsgd1na2vs0mg"},{"bike_id":"bb1bac4a-f6e1-44d2-8446-b9ba9901e546","system_id":"levelo_inurba_marseille","lat":43.29595,"lon":5.37733,"is_reserved":false,"is_disabled":false,"rental_uris":{"android":"levelo://app?vid=bb1bac4a-f6e1-44d2-8446-b9ba9901e546","ios":"levelo://app?vid=bb1bac4a-f6e1-44d2-8446-b9ba9901e546"},"vehicle_type_id":"4","last_reported":1766243410,"current_range_meters":15200,"station_id":"ce4bgi92rcd13ifvqb90","pricing_plan_id":"cebpf4jnsgd1na2vs0mg"},{"bike_id":"e1e0c5d5-d1ff-4328-abce-0032e41eb0b8","system_id":"levelo_inurba_marseille","lat":43.24625,"lon":5.43152,"is_reserved":false,"is_disabled":false,"rental_uris":{"android":"levelo://app?vid=e1e0c5d5-d1ff-4328-abce-0032e41eb0b8","ios":"levelo://app?vid=e1e0c5d5-d1ff-4328-abce-0032e41eb0b8"},"vehicle_type_id":"4","last_reported":1766243410,"current_range_meters":15200,"station_id":"st_d2m6c4gdas8pm72e190g","pricing_plan_id":"cebpf4jnsgd1na2vs0mg"},{"bike_id":"f20fe560-1d4b-4a2a-b6af-4e27366be2c7","system_id":"levelo_inurba_marseille","lat":43.29028,"lon":5.38131,"is_reserved":false,"is_disabled":false,"rental_uris":{"android":"levelo://app?vid=f20fe560-1d4b-4a2a-b6af-4e27366be2c7","ios":"levelo://app?vid=f20fe560-1d4b-4a2a-b6af-4e27366be2c7"},"vehicle_type_id":"4","last_reported":1766243410,"current_range_meters":15200,"station_id":"ce4bh4p2rcd13ifvqe1g","pricing_plan_id":"cebpf4jnsgd1na2vs0mg"},{"bike_id":"c6cf1517-85d4-4e83-bf95-930b35bfeb6b","system_id":"levelo_inurba_marseille","lat":43.29524,"lon":5.3751,"is_reserved":false,"is_disabled":false,"rental_uris":{"android":"levelo://app?vid=c6cf1517-85d4-4e83-bf95-930b35bfeb6b","ios":"levelo://app?vid=c6cf1517-85d4-4e83-bf95-930b35bfeb6b"},"vehicle_type_id":"4","last_reported":1766243410,"current_range_meters":15200,"station_id":"ce4bgkp2rcd13ifvqbmg","pricing_plan_id":"cebpf4jnsgd1na2vs0mg"},{"bike_id":"cd9f0e07-9a0e-4c6e-b2ba-ead454bb2246","system_id":"levelo_inurba_marseille","lat":43.297965,"lon":5.404067,"is_reserved":false,"is_disabled":false,"rental_uris":{"android":"levelo://app?vid=cd9f0e07-9a0e-4c6e-b2ba-ead454bb2246","ios":"levelo://app?vid=cd9f0e07-9a0e-4c6e-b2ba-ead454bb2246"},"vehicle_type_id":"4","last_reported":1766243410,"current_range_meters":15200,"station_id":"ce4bh112rcd13ifvqd90","pricing_plan_id":"cebpf4jnsgd1na2vs0mg"},{"bike_id":"c7bfa78c-d4a6-4a4b-9068-b881ca978367","system_id":"levelo_inurba_marseille","lat":43.30252,"lon":5.40063,"is_reserved":false,"is_disabled":false,"rental_uris":{"android":"levelo://app?vid=c7bfa78c-d4a6-4a4b-9068-b881ca978367","ios":"levelo://app?vid=c7bfa78c-d4a6-4a4b-9068-b881ca978367"},"vehicle_type_id":"4","last_reported":1766243410,"current_range_meters":15200,"station_id":"ce4bgvh2rcd13ifvqcs0","pricing_plan_id":"cebpf4jnsgd1na2vs0mg"},{"bike_id":"be6edca5-cbaf-425d-ba3c-7981181dd2c6","system_id":"levelo_inurba_marseille","lat":43.283626,"lon":5.386419,"is_reserved":false,"is_disabled":true,"rental_uris":{"android":"levelo://app?vid=be6edca5-cbaf-425d-ba3c-7981181dd2c6","ios":"levelo://app?vid=be6edca5-cbaf-425d-ba3c-7981181dd2c6"},"vehicle_type_id":"4","last_reported":1766243410,"current_range_meters":15200,"station_id":"ce4bhi12rcd13ifvqfo0","pricing_plan_id":"cebpf4jnsgd1na2vs0mg"},{"bike_id":"5549c5d4-40ee-4672-8eb6-d9e741467e36","system_id":"levelo_inurba_marseille","lat":43.29929,"lon":5.37455,"is_reserved":false,"is_disabled":true,"rental_uris":{"android":"levelo://app?vid=5549c5d4-40ee-4672-8eb6-d9e741467e36","ios":"levelo://app?vid=5549c5d4-40ee-4672-8eb6-d9e741467e36"},"vehicle_type_id":"4","last_reported":1766243410,"current_range_meters":15200,"station_id":"ce4bgjh2rcd13ifvqbg0","pricing_plan_id":"cebpf4jnsgd1na2vs0mg"},{"bike_id":"ae6c1aeb-ea56-4930-8ca5-97f00c057268","system_id":"levelo_inurba_marseille","lat":43.24996,"lon":5.38972,"is_reserved":false,"is_disabled":false,"rental_uris":{"android":"levelo://app?vid=ae6c1aeb-ea56-4930-8ca5-97f00c057268","ios":"levelo://app?vid=ae6c1aeb-ea56-4930-8ca5-97f00c057268"},"vehicle_type_id":"4","last_reported":1766243410,"current_range_meters":15200,"station_id":"ce4bhgp2rcd13ifvqfd0","pricing_plan_id":"cebpf4jnsgd1na2vs0mg"},{"bike_id":"1db0db8a-631c-4b4e-8a5c-315f8a7567ae","system_id":"levelo_inurba_marseille","lat":43.30599,"lon":5.3724,"is_reserved":false,"is_disabled":false,"rental_uris":{"android":"levelo://app?vid=1db0db8a-631c-4b4e-8a5c-315f8a7567ae","ios":"levelo://app?vid=1db0db8a-631c-4b4e-8a5c-315f8a7567ae"},"vehicle_type_id":"4","last_reported":1766243410,"current_range_meters":15200,"station_id":"ce4bgqh2rcd13ifvqc4g","pricing_plan_id":"cebpf4jnsgd1na2vs0mg"},{"bike_id":"785156da-0593-4b75-94f6-e2ccbbaee3ef","system_id":"levelo_inurba_marseille","lat":43.27445,"lon":5.39369,"is_reserved":false,"is_disabled":false,"rental_uris":{"android":"levelo://app?vid=785156da-0593-4b75-94f6-e2ccbbaee3ef","ios":"levelo://app?vid=785156da-0593-4b75-94f6-e2ccbbaee3ef"},"vehicle_type_id":"4","last_reported":1766243410,"current_range_meters":15200,"station_id":"ce4bhdp2rcd13ifvqf20","pricing_plan_id":"cebpf4jnsgd1na2vs0mg"},{"bike_id":"17bd9bcf-5e3b-4aca-9694-8c335f1de462","system_id":"levelo_inurba_marseille","lat":43.3013,"lon":5.43111,"is_reserved":false,"is_disabled":false,"rental_uris":{"android":"levelo://app?vid=17bd9bcf-5e3b-4aca-9694-8c335f1de462","ios":"levelo://app?vid=17bd9bcf-5e3b-4aca-9694-8c335f1de462"},"vehicle_type_id":"4","last_reported":1766243410,"current_range_meters":15200,"station_id":"st_d3js3co5814s73ftftug","pricing_plan_id":"cebpf4jnsgd1na2vs0mg"},{"bike_id":"6c82c1ec-12c0-4853-8f0e-c86b5bef3983","system_id":"levelo_inurba_marseille","lat":43.26216,"lon":5.37441,"is_reserved":false,"is_disabled":false,"rental_uris":{"android":"levelo://app?vid=6c82c1ec-12c0-4853-8f0e-c86b5bef3983","ios":"levelo://app?vid=6c82c1ec-12c0-4853-8f0e-c86b5bef3983"},"vehicle_type_id":"4","last_reported":1766243410,"current_range_meters":15200,"station_id":"ce4bhgp2rcd13ifvqfc0","pricing_plan_id":"cebpf4jnsgd1na2vs0mg"},{"bike_id":"1a80cb1e-f6c4-464e-b7b2-c93856f1b02c","system_id":"levelo_inurba_marseille","lat":43.290235,"lon":5.381273,"is_reserved":false,"is_disabled":false,"rental_uris":{"android":"levelo://app?vid=1a80cb1e-f6c4-464e-b7b2-c93856f1b02c","ios":"levelo://app?vid=1a80cb1e-f6c4-464e-b7b2-c93856f1b02c"},"vehicle_type_id":"4","last_reported":1766243410,"current_range_meters":15200,"station_id":"ce4bh4p2rcd13ifvqe1g","pricing_plan_id":"cebpf4jnsgd1na2vs0mg"},{"bike_id":"4c0d6fce-33ab-431d-b903-8bcf563c13d6","system_id":"levelo_inurba_marseille","lat":43.27181,"lon":5.39154,"is_reserved":false,"is_disabled":false,"rental_uris":{"android":"levelo://app?vid=4c0d6fce-33ab-431d-b903-8bcf563c13d6","ios":"levelo://app?vid=4c0d6fce-33ab-431d-b903-8bcf563c13d6"},"vehicle_type_id":"4","last_reported":1766243410,"current_range_meters":15200,"station_id":"ce4bhhp2rcd13ifvqfm0","pricing_plan_id":"cebpf4jnsgd1na2vs0mg"},{"bike_id":"b0eb95b9-79ce-4691-a99c-e8e830cecad7","system_id":"levelo_inurba_marseille","lat":43.30375,"lon":5.42488,"is_reserved":false,"is_disabled":false,"rental_uris":{"android":"levelo://app?vid=b0eb95b9-79ce-4691-a99c-e8e830cecad7","ios":"levelo://app?vid=b0eb95b9-79ce-4691-a99c-e8e830cecad7"},"vehicle_type_id":"4","last_reported":1766243410,"current_range_meters":15200,"station_id":"ce4bhoh2rcd13ifvqh6g","pricing_plan_id":"cebpf4jnsgd1na2vs0mg"},{"bike_id":"2bede430-4250-4bb5-9cc1-2011ee04070d","system_id":"levelo_inurba_marseille","lat":43.28477,"lon":5.48397,"is_reserved":false,"is_disabled":false,"rental_uris":{"android":"levelo://app?vid=2bede430-4250-4bb5-9cc1-2011ee04070d","ios":"levelo://app?vid=2bede430-4250-4bb5-9cc1-2011ee04070d"},"vehicle_type_id":"4","last_reported":1766243410,"current_range_meters":16000,"station_id":"","pricing_plan_id":"cebpf4jnsgd1na2vs0mg"},{"bike_id":"674911cf-1cfd-40f1-9e5e-f3941e7b6fc6","system_id":"levelo_inurba_marseille","lat":43.337444,"lon":5.374475,"is_reserved":false,"is_disabled":false,"rental_uris":{"android":"levelo://app?vid=674911cf-1cfd-40f1-9e5e-f3941e7b6fc6","ios":"levelo://app?vid=674911cf-1cfd-40f1-9e5e-f3941e7b6fc6"},"vehicle_type_id":"4","last_reported":1766243410,"current_range_meters":16000,"station_id":"","pricing_plan_id":"cebpf4jnsgd1na2vs0mg"},{"bike_id":"77d8122b-9197-4725-9acc-fee2bbcc8507","system_id":"levelo_inurba_marseille","lat":43.29802,"lon":5.40411,"is_reserved":false,"is_disabled":false,"rental_uris":{"android":"levelo://app?vid=77d8122b-9197-4725-9acc-fee2bbcc8507","ios":"levelo://app?vid=77d8122b-9197-4725-9acc-fee2bbcc8507"},"vehicle_type_id":"4","last_reported":1766243410,"current_range_meters":16000,"station_id":"ce4bh112rcd13ifvqd90","pricing_plan_id":"cebpf4jnsgd1na2vs0mg"},{"bike_id":"ca88ecc5-a948-45b8-9f6d-48d3854c0624","system_id":"levelo_inurba_marseille","lat":43.29459,"lon":5.38643,"is_reserved":false,"is_disabled":false,"rental_uris":{"android":"levelo://app?vid=ca88ecc5-a948-45b8-9f6d-48d3854c0624","ios":"levelo://app?vid=ca88ecc5-a948-45b8-9f6d-48d3854c0624"},"vehicle_type_id":"4","last_reported":1766243410,"current_range_meters":16000,"station_id":"","pricing_plan_id":"cebpf4jnsgd1na2vs0mg"},{"bike_id":"9745f09e-8140-436c-bda6-319de7840c6f","system_id":"levelo_inurba_marseille","lat":43.32338,"lon":5.38496,"is_reserved":false,"is_disabled":false,"rental_uris":{"android":"levelo://app?vid=9745f09e-8140-436c-bda6-319de7840c6f","ios":"levelo://app?vid=9745f09e-8140-436c-bda6-319de7840c6f"},"vehicle_type_id":"4","last_reported":1766243410,"current_range_meters":16000,"station_id":"st_d45171o9ee8s73djdqug","pricing_plan_id":"cebpf4jnsgd1na2vs0mg"},