{"last_updated":1750497000,"ttl":60,"version":"2.2","data":{"bikes":[{"bike_id":"3da29fb8-fc97-44c6-b9ac-31dd456b2fd4","system_id":"levelo_inurba_marseille","lat":43.33771,"lon":5.37424,"is_reserved":false,"is_disabled":true,"rental_uris":{"android":"levelo://app?vid=3da29fb8-fc97-44c6-b9ac-31dd456b2fd4","ios":"levelo://app?vid=3da29fb8-fc97-44c6-b9ac-31dd456b2fd4"},"vehicle_type_id":"4","last_reported":1750497000,"current_range_meters":0,"station_id":"","pricing_plan_id":"cebpf4jnsgd1na2vs0mg"},{"bike_id":"01861ad8-a8d7-4be6-816e-651927c87584","system_id":"levelo_inurba_marseille","lat":43.33751,"lon":5.37456,"is_reserved":false,"is_disabled":true,"rental_uris":{"android":"levelo://app?vid=01861ad8-a8d7-4be6-816e-651927c87584","ios":"levelo://app?vid=01861ad8-a8d7-4be6-816e-651927c87584"},"vehicle_type_id":"4","last_reported":1750497000,"current_range_meters":0,"station_id":"","pricing_plan_id":"cebpf4jnsgd1na2vs0mg"},{"bike_id":"7bcccf35-e344-4f00-9a7f-199c76d3c58d","system_id":"levelo_inurba_marseille","lat":43.29148,"lon":5.41664,"is_reserved":false,"is_disabled":true,"rental_uris":{"android":"levelo://app?vid=7bcccf35-e344-4f00-9a7f-199c76d3c58d","ios":"levelo://app?vid=7bcccf35-e344-4f00-9a7f-199c76d3c58d"},"vehicle_type_id":"4","last_reported":1750497000,"current_range_meters":0,"station_id":"","pricing_plan_id":"cebpf4jnsgd1na2vs0mg"},{"bike_id":"62a493c7-4534-4419-ad43-0582de34a72a","system_id":"levelo_inurba_marseille","lat":43.21366,"lon":5.355183,"is_reserved":false,"is_disabled":true,"rental_uris":{"android":"levelo://app?vid=62a493c7-4534-4419-ad43-0582de34a72a","ios":"levelo://app?vid=62a493c7-4534-4419-ad43-0582de34a72a"},"vehicle_type_id":"4","last_reported":1750497000,"current_range_meters":0,"station_id":"","pricing_plan_id":"cebpf4jnsgd1na2vs0mg"},{"bike_id":"d6609b4f-333b-43c1-9ebe-8726f5e76e88","system_id":"levelo_inurba_marseille","lat":43.337444,"lon":5.374475,"is_reserved":false,"is_disabled":true,"rental_uris":{"android":"levelo://app?vid=d6609b4f-333b-43c1-9ebe-8726f5e76e88","ios":"levelo://app?vid=d6609b4f-333b-43c1-9ebe-8726f5e76e88"},"vehicle_type_id":"4","last_reported":1750497000,"current_range_meters":0,"station_id":"","pricing_plan_id":"cebpf4jnsgd1na2vs0mg"},{"bike_id":"11e13553-c475-421d-a348-bac5f0dccdd0","system_id":"levelo_inurba_marseille","lat":43.273169,"lon":5.399483,"is_reserved":false,"is_disabled":true,"rental_uris":{"android":"levelo://app?vid=11e13553-c475-421d-a348-bac5f0dccdd0","ios":"levelo://app?vid=11e13553-c475-421d-a348-bac5f0dccdd0"},"vehicle_type_id":"4","last_reported":1750497000,"current_range_meters":0,"station_id":"","pricing_plan_id":"cebpf4jnsgd1na2vs0mg"},{"bike_id":"45bbf0a9-fb71-4554-b265-a4213254df71","system_id":"levelo_inurba_marseille","lat":43.291958,"lon":5.357966,"is_reserved":false,"is_disabled":true,"rental_uris":{"android":"levelo://app?vid=45bbf0a9-fb71-4554-b265-a4213254df71","ios":"levelo://app?vid=45bbf0a9-fb71-4554-b265-a4213254df71"},"vehicle_type_id":"4","last_reported":1750497000,"current_range_meters":0,"station_id":"ce4bgip2rcd13ifvqbb0","pricing_plan_id":"cebpf4jnsgd1na2vs0mg"},{"bike_id":"1931f0a6-dae7-4384-962b-1abe31f395a6","system_id":"levelo_inurba_marseille","lat":43.31117,"lon":5.37774,"is_reserved":false,"is_disabled":true,"rental_uris":{"android":"levelo://app?vid=1931f0a6-dae7-4384-962b-1abe31f395a6","ios":"levelo://app?vid=1931f0a6-dae7-4384-962b-1abe31f395a6"},"vehicle_type_id":"4","last_reported":1750497000,"current_range_meters":0,"station_id":"ce4bgt92rcd13ifvqcg0","pricing_plan_id":"cebpf4jnsgd1na2vs0mg"},{"bike_id":"2049a15f-8275-45de-8415-8952bb4be634","system_id":"levelo_inurba_marseille","lat":43.28697,"lon":5.37385,"is_reserved":false,"is_disabled":true,"rental_uris":{"android":"levelo://app?vid=2049a15f-8275-45de-8415-8952bb4be634","ios":"levelo://app?vid=2049a15f-8275-45de-8415-8952bb4be634"},"vehicle_type_id":"4","last_reported":1750497000,"current_range_meters":0,"station_id":"ce4bh3p2rcd13ifvqdq0","pricing_plan_id":"cebpf4jnsgd1na2vs0mg"},{"bike_id":"19e25e12-46ff-4402-91b1-69fe60af316d","system_id":"levelo_inurba_marseille","lat":43.27916,"lon":5.39572,"is_reserved":false,"is_disabled":true,"rental_uris":{"android":"levelo://app?vid=19e25e12-46ff-4402-91b1-69fe60af316d","ios":"levelo://app?vid=19e25e12-46ff-4402-91b1-69fe60af316d"},"vehicle_type_id":"4","last_reported":1750497000,"current_range_meters":0,"station_id":"ce4bhf92rcd13ifvqf40","pricing_plan_id":"cebpf4jnsgd1na2vs0mg"},{"bike_id":"0cb83704-6128-43cd-be34-0a95c201a7d9","system_id":"levelo_inurba_marseille","lat":43.27897,"lon":5.38007,"is_reserved":false,"is_disabled":true,"rental_uris":{"android":"levelo://app?vid=0cb83704-6128-43cd-be34-0a95c201a7d9","ios":"levelo://app?vid=0cb83704-6128-43cd-be34-0a95c201a7d9"},"vehicle_type_id":"4","last_reported":1750497000,"current_range_meters":0,"station_id":"ce4bhf92rcd13ifvqf50","pricing_plan_id":"cebpf4jnsgd1na2vs0mg"},{"bike_id":"e551cf74-3876-4b6b-8bb0-91d39b510740","system_id":"levelo_inurba_marseille","lat":43.26031,"lon":5.37545,"is_reserved":false,"is_disabled":true,"rental_uris":{"android":"levelo://app?vid=e551cf74-3876-4b6b-8bb0-91d39b510740","ios":"levelo://app?vid=e551cf74-3876-4b6b-8bb0-91d39b510740"},"vehicle_type_id":"4","last_reported":1750497000,"current_range_meters":0,"station_id":"ce4bhgh2rcd13ifvqfa0","pricing_plan_id":"cebpf4jnsgd1na2vs0mg"},{"bike_id":"1ebde0cb-d0f4-4cf4-931e-a6898247ab43","system_id":"levelo_inurba_marseille","lat":43.2315,"lon":5.43722,"is_reserved":false,"is_disabled":true,"rental_uris":{"android":"levelo://app?vid=1ebde0cb-d0f4-4cf4-931e-a6898247ab43","ios":"levelo://app?vid=1ebde0cb-d0f4-4cf4-931e-a6898247ab43"},"vehicle_type_id":"4","last_reported":1750497000,"current_range_meters":0,"station_id":"ce4bhmp2rcd13ifvqgog","pricing_plan_id":"cebpf4jnsgd1na2vs0mg"},{"bike_id":"22fc0cd4-03e6-4046-9be9-b0065f0e0d6d","system_id":"levelo_inurba_marseille","lat":43.231825,"lon":5.399875,"is_reserved":false,"is_disabled":true,"rental_uris":{"android":"levelo://app?vid=22fc0cd4-03e6-4046-9be9-b0065f0e0d6d","ios":"levelo://app?vid=22fc0cd4-03e6-4046-9be9-b0065f0e0d6d"},"vehicle_type_id":"4","last_reported":1750497000,"current_range_meters":0,"station_id":"ce4bhn12rcd13ifvqgqg","pricing_plan_id":"cebpf4jnsgd1na2vs0mg"},{"bike_id":"d7634968-62bf-4317-b3c7-34a7404b7f24","system_id":"levelo_inurba_marseille","lat":43.23191,"lon":5.35555,"is_reserved":false,"is_disabled":true,"rental_uris":{"android":"levelo://app?vid=d7634968-62bf-4317-b3c7-34a7404b7f24","ios":"levelo://app?vid=d7634968-62bf-4317-b3c7-34a7404b7f24"},"vehicle_type_id":"4","last_reported":1750497000,"current_range_meters":0,"station_id":"ce4bhu92rcd13ifvqi70","pricing_plan_id":"cebpf4jnsgd1na2vs0mg"},{"bike_id":"4ed6540b-1750-472b-996b-233d46510f7a","system_id":"levelo_inurba_marseille","lat":43.24157,"lon":5.36404,"is_reserved":false,"is_disabled":true,"rental_uris":{"android":"levelo://app?vid=4ed6540b-1750-472b-996b-233d46510f7a","ios":"levelo://app?vid=4ed6540b-1750-472b-996b-233d46510f7a"},"vehicle_type_id":"4","last_reported":1750497000,"current_range_meters":0,"station_id":"cpo36qri1sfpv3e86is0","pricing_plan_id":"cebpf4jnsgd1na2vs0mg"},{"bike_id":"24466bb8-ea46-418f-a473-cce465177766","system_id":"levelo_inurba_marseille","lat":43.21743,"lon":5.34588,"is_reserved":false,"is_disabled":true,"rental_uris":{"android":"levelo://app?vid=24466bb8-ea46-418f-a473-cce465177766","ios":"levelo://app?vid=24466bb8-ea46-418f-a473-cce465177766"},"vehicle_type_id":"4","last_reported":1750497000,"current_range_meters":0,"station_id":"st_cvj6r9ubvosntc0bgbag","pricing_plan_id":"cebpf4jnsgd1na2vs0mg"},{"bike_id":"adf3c381-3ee6-4d52-9946-c8bdb25b221c","system_id":"levelo_inurba_marseille","lat":43.21186,"lon":5.35072,"is_reserved":false,"is_disabled":true,"rental_uris":{"android":"levelo://app?vid=adf3c381-3ee6-4d52-9946-c8bdb25b221c","ios":"levelo://app?vid=adf3c381-3ee6-4d52-9946-c8bdb25b221c"},"vehicle_type_id":"4","last_reported":1750497000,"current_range_meters":0,"station_id":"st_cvj6sg6p6f1abm77japg","pricing_plan_id":"cebpf4jnsgd1na2vs0mg"},{"bike_id":"c9040045-be59-4aae-9590-5c3c37a93cc9","system_id":"levelo_inurba_marseille","lat":43.21193,"lon":5.35069,"is_reserved":false,"is_disabled":true,"rental_uris":{"android":"levelo://app?vid=c9040045-be59-4aae-9590-5c3c37a93cc9","ios":"levelo://app?vid=c9040045-be59-4aae-9590-5c3c37a93cc9"},"vehicle_type_id":"4","last_reported":1750497000,"current_range_meters":0,"station_id":"st_cvj6sg6p6f1abm77japg","pricing_plan_id":"cebpf4jnsgd1na2vs0mg"},{"bike_id":"cf2f0cfd-9739-4c39-ac26-d480331a8c9c","system_id":"levelo_inurba_marseille","lat":43.23197,"lon":5.35549,"is_reserved":false,"is_disabled":true,"rental_uris":{"android":"levelo://app?vid=cf2f0cfd-9739-4c39-ac26-d480331a8c9c","ios":"levelo://app?vid=cf2f0cfd-9739-4c39-ac26-d480331a8c9c"},"vehicle_type_id":"4","last_reported":1750497000,"current_range_meters":400,"station_id":"ce4bhu92rcd13ifvqi70","pricing_plan_id":"cebpf4jnsgd1na2vs0mg"},{"bike_id":"beee863f-0f30-4ff8-b29b-418baa2a1bd4","system_id":"levelo_inurba_marseille","lat":43.28268,"lon":5.35059,"is_reserved":false,"is_disabled":true,"rental_uris":{"android":"levelo://app?vid=beee863f-0f30-4ff8-b29b-418baa2a1bd4","ios":"levelo://app?vid=beee863f-0f30-4ff8-b29b-418baa2a1bd4"},"vehicle_type_id":"4","last_reported":1750497000,"current_range_meters":800,"station_id":"ce4bhbp2rcd13ifvqerg","pricing_plan_id":"cebpf4jnsgd1na2vs0mg"},{"bike_id":"a1e02539-5601-41d6-94bb-5ca7dc81cca3","system_id":"levelo_inurba_marseille","lat":43.24168,"lon":5.36396,"is_reserved":false,"is_disabled":true,"rental_uris":{"android":"levelo://app?vid=a1e02539-5601-41d6-94bb-5ca7dc81cca3","ios":"levelo://app?vid=a1e02539-5601-41d6-94bb-5ca7dc81cca3"},"vehicle_type_id":"4","last_reported":1750497000,"current_range_meters":800,"station_id":"cpo36qri1sfpv3e86is0","pricing_plan_id":"cebpf4jnsgd1na2vs0mg"},{"bike_id":"156717d9-5d82-4226-a389-e52555e7069b","system_id":"levelo_inurba_marseille","lat":43.30614,"lon":5.37638,"is_reserved":false,"is_disabled":true,"rental_uris":{"android":"levelo://app?vid=156717d9-5d82-4226-a389-e52555e7069b","ios":"levelo://app?vid=156717d9-5d82-4226-a389-e52555e7069b"},"vehicle_type_id":"4","last_reported":1750497000,"current_range_meters":1200,"station_id":"","pricing_plan_id":"cebpf4jnsgd1na2vs0mg"},{"bike_id":"44812dfd-accc-44cd-99a1-733d9e3dc0b5","system_id":"levelo_inurba_marseille","lat":43.23958,"lon":5.36629,"is_reserved":false,"is_disabled":true,"rental_uris":{"android":"levelo://app?vid=44812dfd-accc-44cd-99a1-733d9e3dc0b5","ios":"levelo://app?vid=44812dfd-accc-44cd-99a1-733d9e3dc0b5"},"vehicle_type_id":"4","last_reported":1750497000,"current_range_meters":1600,"station_id":"ce4bhi12rcd13ifvqfp0","pricing_plan_id":"cebpf4jnsgd1na2vs0mg"},{"bike_id":"d2f559d2-141d-428d-bcd1-553e58bd71e4","system_id":"levelo_inurba_marseille","lat":43.29033,"lon":5.38124,"is_reserved":false,"is_disabled":false,"rental_uris":{"android":"levelo://app?vid=d2f559d2-141d-428d-bcd1-553e58bd71e4","ios":"levelo://app?vid=d2f559d2-141d-428d-bcd1-553e58bd71e4"},"vehicle_type_id":"4","last_reported":1750497000,"current_range_meters":2000,"station_id":"ce4bh4p2rcd13ifvqe1g","pricing_plan_id":"cebpf4jnsgd1na2vs0mg"},{"bike_id":"769d1b59-0dde-418c-a967-5b1d19857941","system_id":"levelo_inurba_marseille","lat":43.21192,"lon":5.35072,"is_reserved":false,"is_disabled":false,"rental_uris":{"android":"levelo://app?vid=769d1b59-0dde-418c-a967-5b1d19857941","ios":"levelo://app?vid=769d1b59-0dde-418c-a967-5b1d19857941"},"vehicle_type_id":"4","last_reported":1750497000,"current_range_meters":2800,"station_id":"st_cvj6sg6p6f1abm77japg","pricing_plan_id":"cebpf4jnsgd1na2vs0mg"},{"bike_id":"9f9df872-115c-4a50-90b1-2c9b182d9be2","system_id":"levelo_inurba_marseille","lat":43.21757,"lon":5.34594,"is_reserved":false,"is_disabled":false,"rental_uris":{"android":"levelo://app?vid=9f9df872-115c-4a50-90b1-2c9b182d9be2","ios":"levelo://app?vid=9f9df872-115c-4a50-90b1-2c9b182d9be2"},"vehicle_type_id":"4","last_reported":1750497000,"current_range_meters":3200,"station_id":"","pricing_plan_id":"cebpf4jnsgd1na2vs0mg"},{"bike_id":"e8b2899a-4211-4f31-b803-6ec5b4d26202","system_id":"levelo_inurba_marseille","lat":43.27598,"lon":5.39669,"is_reserved":false,"is_disabled":false,"rental_uris":{"android":"levelo://app?vid=e8b2899a-4211-4f31-b803-6ec5b4d26202","ios":"levelo://app?vid=e8b2899a-4211-4f31-b803-6ec5b4d26202"},"vehicle_type_id":"4","last_reported":1750497000,"current_range_meters":3600,"station_id":"","pricing_plan_id":"cebpf4jnsgd1na2vs0mg"},{"bike_id":"5861156b-f863-4fe9-9c7d-30b64095912b","system_id":"levelo_inurba_marseille","lat":43.27204,"lon":5.39172,"is_reserved":false,"is_disabled":false,"rental_uris":{"android":"levelo://app?vid=5861156b-f863-4fe9-9c7d-30b64095912b","ios":"levelo://app?vid=5861156b-f863-4fe9-9c7d-30b64095912b"},"vehicle_type_id":"4","last_reported":1750497000,"current_range_meters":3600,"station_id":"ce4bhhp2rcd13ifvqfm0","pricing_plan_id":"cebpf4jnsgd1na2vs0mg"},{"bike_id":"dd45b830-666c-4c76-b06e-9938bffa2cad","system_id":"levelo_inurba_marseille","lat":43.31975,"lon":5.37528,"is_reserved":false,"is_disabled":false,"rental_uris":{"android":"levelo://app?vid=dd45b830-666c-4c76-b06e-9938bffa2cad","ios":"levelo://app?vid=dd45b830-666c-4c76-b06e-9938bffa2cad"},"vehicle_type_id":"4","last_reported":1750497000,"current_range_meters":4000,"station_id":"","pricing_plan_id":"cebpf4jnsgd1na2vs0mg"},{"bike_id":"4ec683c7-3609-4c96-b132-c9f78837a309","system_id":"levelo_inurba_marseille","lat":43.28024,"lon":5.36953,"is_reserved":false,"is_disabled":false,"rental_uris":{"android":"levelo://app?vid=4ec683c7-3609-4c96-b132-c9f78837a309","ios":"levelo://app?vid=4ec683c7-3609-4c96-b132-c9f78837a309"},"vehicle_type_id":"4","last_reported":1750497000,"current_range_meters":4000,"station_id":"ce4bha12rcd13ifvqef0","pricing_plan_id":"cebpf4jnsgd1na2vs0mg"},{"bike_id":"df735c88-ae0a-4f8e-9723-d29eb27d80b9","system_id":"levelo_inurba_marseille","lat":43.29922,"lon":5.37603,"is_reserved":false,"is_disabled":false,"rental_uris":{"android":"levelo://app?vid=df735c88-ae0a-4f8e-9723-d29eb27d80b9","ios":"levelo://app?vid=df735c88-ae0a-4f8e-9723-d29eb27d80b9"},"vehicle_type_id":"4","last_reported":1750497000,"current_range_meters":4400,"station_id":"","pricing_plan_id":"cebpf4jnsgd1na2vs0mg"},{"bike_id":"e737f46a-172b-4ff3-a1b6-2286848bbf58","system_id":"levelo_inurba_marseille","lat":43.261989,"lon":5.37932,"is_reserved":false,"is_disabled":false,"rental_uris":{"android":"levelo://app?vid=e737f46a-172b-4ff3-a1b6-2286848bbf58","ios":"levelo://app?vid=e737f46a-172b-4ff3-a1b6-2286848bbf58"},"vehicle_type_id":"4","last_reported":1750497000,"current_range_meters":4400,"station_id":"ce4bhjp2rcd13ifvqg90","pricing_plan_id":"cebpf4jnsgd1na2vs0mg"},{"bike_id":"f025e0b0-8595-426c-b214-cb9b74c5fcfd","system_id":"levelo_inurba_marseille","lat":43.32206,"lon":5.40573,"is_reserved":false,"is_disabled":false,"rental_uris":{"android":"levelo://app?vid=f025e0b0-8595-426c-b214-cb9b74c5fcfd","ios":"levelo://app?vid=f025e0b0-8595-426c-b214-cb9b74c5fcfd"},"vehicle_type_id":"4","last_reported":1750497000,"current_range_meters":4800,"station_id":"","pricing_plan_id":"cebpf4jnsgd1na2vs0mg"},{"bike_id":"1eb17692-cc4f-49ee-ad93-4a6bd3c49e08","system_id":"levelo_inurba_marseille","lat":43.29301,"lon":5.371547,"is_reserved":false,"is_disabled":false,"rental_uris":{"android":"levelo://app?vid=1eb17692-cc4f-49ee-ad93-4a6bd3c49e08","ios":"levelo://app?vid=1eb17692-cc4f-49ee-ad93-4a6bd3c49e08"},"vehicle_type_id":"4","last_reported":1750497000,"current_range_meters":4800,"station_id":"ce4bgh92rcd13ifvqb40","pricing_plan_id":"cebpf4jnsgd1na2vs0mg"},{"bike_id":"3127698f-2578-4e40-af1d-5020f03f3241","system_id":"levelo_inurba_marseille","lat":43.293121,"lon":5.371777,"is_reserved":false,"is_disabled":false,"rental_uris":{"android":"levelo://app?vid=3127698f-2578-4e40-af1d-5020f03f3241","ios":"levelo://app?vid=3127698f-2578-4e40-af1d-5020f03f3241"},"vehicle_type_id":"4","last_reported":1750497000,"current_range_meters":4800,"station_id":"ce4bgh92rcd13ifvqb40","pricing_plan_id":"cebpf4jnsgd1na2vs0mg"},{"bike_id":"53aeb623-f14c-45ba-b3b7-1681f2e88216","system_id":"levelo_inurba_marseille","lat":43.23971,"lon":5.36654,"is_reserved":false,"is_disabled":false,"rental_uris":{"android":"levelo://app?vid=53aeb623-f14c-45ba-b3b7-1681f2e88216","ios":"levelo://app?vid=53aeb623-f14c-45ba-b3b7-1681f2e88216"},"vehicle_type_id":"4","last_reported":1750497000,"current_range_meters":4800,"station_id":"ce4bhi12rcd13ifvqfp0","pricing_plan_id":"cebpf4jnsgd1na2vs0mg"},{"bike_id":"903ca471-d5b4-4007-8e1b-88ccdb3a1359","system_id":"levelo_inurba_marseille","lat":43.23161,"lon":5.43693,"is_reserved":false,"is_disabled":false,"rental_uris":{"android":"levelo://app?vid=903ca471-d5b4-4007-8e1b-88ccdb3a1359","ios":"levelo://app?vid=903ca471-d5b4-4007-8e1b-88ccdb3a1359"},"vehicle_type_id":"4","last_reported":1750497000,"current_range_meters":4800,"station_id":"ce4bhmp2rcd13ifvqgog","pricing_plan_id":"cebpf4jnsgd1na2vs0mg"},{"bike_id":"0ae0a5e2-4172-42fc-b67e-dcb70ad4d289","system_id":"levelo_inurba_marseille","lat":43.26726,"lon":5.42213,"is_reserved":false,"is_disabled":false,"rental_uris":{"android":"levelo://app?vid=0ae0a5e2-4172-42fc-b67e-dcb70ad4d289","ios":"levelo://app?vid=0ae0a5e2-4172-42fc-b67e-dcb70ad4d289"},"vehicle_type_id":"4","last_reported":1750497000,"current_range_meters":5600,"station_id":"","pricing_plan_id":"cebpf4jnsgd1na2vs0mg"},{"bike_id":"73521383-be10-4e11-87d9-5858a5a26f0a","system_id":"levelo_inurba_marseille","lat":43.337444,"lon":5.374475,"is_reserved":false,"is_disabled":false,"rental_uris":{"android":"levelo://app?vid=73521383-be10-4e11-87d9-5858a5a26f0a","ios":"levelo://app?vid=73521383-be10-4e11-87d9-5858a5a26f0a"},"vehicle_type_id":"4","last_reported":1750497000,"current_range_meters":5600,"station_id":"","pricing_plan_id":"cebpf4jnsgd1na2vs0mg"},{"bike_id":"73190b84-2273-4cae-88b1-95fc4e2bf89a","system_id":"levelo_inurba_marseille","lat":43.30583,"lon":5.36699,"is_reserved":false,"is_disabled":false,"rental_uris":{"android":"levelo://app?vid=73190b84-2273-4cae-88b1-95fc4e2bf89a","ios":"levelo://app?vid=73190b84-2273-4cae-88b1-95fc4e2bf89a"},"vehicle_type_id":"4","last_reported":1750497000,"current_range_meters":5600,"station_id":"ce4bgrp2rcd13ifvqc9g","pricing_plan_id":"cebpf4jnsgd1na2vs0mg"},{"bike_id":"67d4d5b6-1e91-4073-aac6-f74d4b06cc00","system_id":"levelo_inurba_marseille","lat":43.25112,"lon":5.40316,"is_reserved":false,"is_disabled":false,"rental_uris":{"android":"levelo://app?vid=67d4d5b6-1e91-4073-aac6-f74d4b06cc00","ios":"levelo://app?vid=67d4d5b6-1e91-4073-aac6-f74d4b06cc00"},"vehicle_type_id":"4","last_reported":1750497000,"current_range_meters":5600,"station_id":"ce4bhlh2rcd13ifvqgig","pricing_plan_id":"cebpf4jnsgd1na2vs0mg"},{"bike_id":"29ad955b-1a94-4237-bf63-f67c4b3126c8","system_id":"levelo_inurba_marseille","lat":43.31716,"lon":5.42411,"is_reserved":false,"is_disabled":false,"rental_uris":{"android":"levelo://app?vid=29ad955b-1a94-4237-bf63-f67c4b3126c8","ios":"levelo://app?vid=29ad955b-1a94-4237-bf63-f67c4b3126c8"},"vehicle_type_id":"4","last_reported":1750497000,"current_range_meters":5600,"station_id":"ce4bhp92rcd13ifvqhbg","pricing_plan_id":"cebpf4jnsgd1na2vs0mg"},{"bike_id":"2d9cd306-f0e6-4b47-9011-26d7fa79b2a5","system_id":"levelo_inurba_marseille","lat":43.249981,"lon":5.389269,"is_reserved":false,"is_disabled":false,"rental_uris":{"android":"levelo://app?vid=2d9cd306-f0e6-4b47-9011-26d7fa79b2a5","ios":"levelo://app?vid=2d9cd306-f0e6-4b47-9011-26d7fa79b2a5"},"vehicle_type_id":"4","last_reported":1750497000,"current_range_meters":6000,"station_id":"ce4bhgp2rcd13ifvqfd0","pricing_plan_id":"cebpf4jnsgd1na2vs0mg"},{"bike_id":"db7f7512-c361-460d-984a-c7320754ec1a","system_id":"levelo_inurba_marseille","lat":43.308,"lon":5.43528,"is_reserved":false,"is_disabled":false,"rental_uris":{"android":"levelo://app?vid=db7f7512-c361-460d-984a-c7320754ec1a","ios":"levelo://app?vid=db7f7512-c361-460d-984a-c7320754ec1a"},"vehicle_type_id":"4","last_reported":1750497000,"current_range_meters":6000,"station_id":"ce4bhph2rcd13ifvqheg","pricing_plan_id":"cebpf4jnsgd1na2vs0mg"},{"bike_id":"59692da9-5274-42cc-aeaa-48d8fd38fd90","system_id":"levelo_inurba_marseille","lat":43.321079,"lon":5.367864,"is_reserved":false,"is_disabled":false,"rental_uris":{"android":"levelo://app?vid=59692da9-5274-42cc-aeaa-48d8fd38fd90","ios":"levelo://app?vid=59692da9-5274-42cc-aeaa-48d8fd38fd90"},"vehicle_type_id":"4","last_reported":1750497000,"current_range_meters":6400,"station_id":"ce4bhrh2rcd13ifvqhug","pricing_plan_id":"cebpf4jnsgd1na2vs0mg"},{"bike_id":"55ff0caa-22b9-47ac-9c56-51bc6959d208","system_id":"levelo_inurba_marseille","lat":43.28725,"lon":5.36092,"is_reserved":false,"is_disabled":false,"rental_uris":{"android":"levelo://app?vid=55ff0caa-22b9-47ac-9c56-51bc6959d208","ios":"levelo://app?vid=55ff0caa-22b9-47ac-9c56-51bc6959d208"},"vehicle_type_id":"4","last_reported":1750497000,"current_range_meters":6400,"station_id":"cki0cbj6b192h4jlfktg","pricing_plan_id":"cebpf4jnsgd1na2vs0mg"},{"bike_id":"f2169430-8ab5-4f68-846f-87f05b34d076","system_id":"levelo_inurba_marseille","lat":43.211929,"lon":5.350667,"is_reserved":false,"is_disabled":false,"rental_uris":{"android":"levelo://app?vid=f2169430-8ab5-4f68-846f-87f05b34d076","ios":"levelo://app?vid=f2169430-8ab5-4f68-846f-87f05b34d076"},"vehicle_type_id":"4","last_reported":1750497000,"current_range_meters":6400,"station_id":"st_cvj6sg6p6f1abm77japg","pricing_plan_id":"cebpf4jnsgd1na2vs0mg"},{"bike_id":"33893335-fbcb-43e3-9e2f-95cb467b1bcb","system_id":"levelo_inurba_marseille","lat":43.30624,"lon":5.37618,"is_reserved":false,"is_disabled":false,"rental_uris":{"android":"levelo://app?vid=33893335-fbcb-43e3-9e2f-95cb467b1bcb","ios":"levelo://app?vid=33893335-fbcb-43e3-9e2f-95cb467b1bcb"},"vehicle_type_id":"4","last_reported":1750497000,"current_range_meters":6800,"station_id":"","pricing_plan_id":"cebpf4jnsgd1na2vs0mg"},{"bike_id":"fbe532e7-2f52-46dc-822c-1466686be8c5","system_id":"levelo_inurba_marseille","lat":43.30093,"lon":5.40536,"is_reserved":false,"is_disabled":false,"rental_uris":{"android":"levelo://app?vid=fbe532e7-2f52-46dc-822c-1466686be8c5","ios":"levelo://app?vid=fbe532e7-2f52-46dc-822c-1466686be8c5"},"vehicle_type_id":"4","last_reported":1750497000,"current_range_meters":6800,"station_id":"","pricing_plan_id":"cebpf4jnsgd1na2vs0mg"},{"bike_id":"51543da0-ae3d-4250-835e-31cda64d8a8c","system_id":"levelo_inurba_marseille","lat":43.309211,"lon":5.368406,"is_reserved":false,"is_disabled":false,"rental_uris":{"android":"levelo://app?vid=51543da0-ae3d-4250-835e-31cda64d8a8c","ios":"levelo://app?vid=51543da0-ae3d-4250-835e-31cda64d8a8c"},"vehicle_type_id":"4","last_reported":1750497000,"current_range_meters":7200,"station_id":"ce4bgn92rcd13ifvqbvg","pricing_plan_id":"cebpf4jnsgd1na2vs0mg"},{"bike_id":"c9d57546-c5a4-4523-9dc5-1202b230bdb5","system_id":"levelo_inurba_marseille","lat":43.29036,"lon":5.39961,"is_reserved":false,"is_disabled":false,"rental_uris":{"android":"levelo://app?vid=c9d57546-c5a4-4523-9dc5-1202b230bdb5","ios":"levelo://app?vid=c9d57546-c5a4-4523-9dc5-1202b230bdb5"},"vehicle_type_id":"4","last_reported":1750497000,"current_range_meters":7200,"station_id":"ce4bh392rcd13ifvqdm0","pricing_plan_id":"cebpf4jnsgd1na2vs0mg"},{"bike_id":"fdabb8d1-0555-47ec-83ae-fd6f54b6286f","system_id":"levelo_inurba_marseille","lat":43.243874,"lon":5.370529,"is_reserved":false,"is_disabled":false,"rental_uris":{"android":"levelo://app?vid=fdabb8d1-0555-47ec-83ae-fd6f54b6286f","ios":"levelo://app?vid=fdabb8d1-0555-47ec-83ae-fd6f54b6286f"},"vehicle_type_id":"4","last_reported":1750497000,"current_range_meters":7200,"station_id":"ce4bhhh2rcd13ifvqfk0","pricing_plan_id":"cebpf4jnsgd1na2vs0mg"},{"bike_id":"382f7823-6bed-4460-9275-50ae6d0d937d","system_id":"levelo_inurba_marseille","lat":43.24165,"lon":5.36389,"is_reserved":false,"is_disabled":false,"rental_uris":{"android":"levelo://app?vid=382f7823-6bed-4460-9275-50ae6d0d937d","ios":"levelo://app?vid=382f7823-6bed-4460-9275-50ae6d0d937d"},"vehicle_type_id":"4","last_reported":1750497000,"current_range_meters":7200,"station_id":"cpo36qri1sfpv3e86is0","pricing_plan_id":"cebpf4jnsgd1na2vs0mg"},{"bike_id":"c1d2924e-bc9e-4002-9b6b-15250c02ffc2","system_id":"levelo_inurba_marseille","lat":43.29837,"lon":5.36267,"is_reserved":false,"is_disabled":false,"rental_uris":{"android":"levelo://app?vid=c1d2924e-bc9e-4002-9b6b-15250c02ffc2","ios":"levelo://app?vid=c1d2924e-bc9e-4002-9b6b-15250c02ffc2"},"vehicle_type_id":"4","last_reported":1750497000,"current_range_meters":8000,"station_id":"ce4bgpp2rcd13ifvqc3g","pricing_plan_id":"cebpf4jnsgd1na2vs0mg"},{"bike_id":"7ad80183-98f3-4d60-b27d-027b08ba931e","system_id":"levelo_inurba_marseille","lat":43.29282,"lon":5.40166,"is_reserved":false,"is_disabled":false,"rental_uris":{"android":"levelo://app?vid=7ad80183-98f3-4d60-b27d-027b08ba931e","ios":"levelo://app?vid=7ad80183-98f3-4d60-b27d-027b08ba931e"},"vehicle_type_id":"4","last_reported":1750497000,"current_range_meters":8000,"station_id":"ce4bh312rcd13ifvqdk0","pricing_plan_id":"cebpf4jnsgd1na2vs0mg"},{"bike_id":"178fea52-5c46-4383-9a8d-cae388a2eff0","system_id":"levelo_inurba_marseille","lat":43.32109,"lon":5.36766,"is_reserved":false,"is_disabled":false,"rental_uris":{"android":"levelo://app?vid=178fea52-5c46-4383-9a8d-cae388a2eff0","ios":"levelo://app?vid=178fea52-5c46-4383-9a8d-cae388a2eff0"},"vehicle_type_id":"4","last_reported":1750497000,"current_range_meters":8000,"station_id":"ce4bhrh2rcd13ifvqhug","pricing_plan_id":"cebpf4jnsgd1na2vs0mg"},{"bike_id":"03e7430c-c45c-475f-b8e0-968e6f2010a9","system_id":"levelo_inurba_marseille","lat":43.24388,"lon":5.37058,"is_reserved":false,"is_disabled":false,"rental_uris":{"android":"levelo://app?vid=03e7430c-c45c-475f-b8e0-968e6f2010a9","ios":"levelo://app?vid=03e7430c-c45c-475f-b8e0-968e6f2010a9"},"vehicle_type_id":"4","last_reported":1750497000,"current_range_meters":8400,"station_id":"ce4bhhh2rcd13ifvqfk0","pricing_plan_id":"cebpf4jnsgd1na2vs0mg"},{"bike_id":"040977a8-13c0-45f8-878b-41dbebdc1a7e","system_id":"levelo_inurba_marseille","lat":43.299006,"lon":5.436563,"is_reserved":false,"is_disabled":false,"rental_uris":{"android":"levelo://app?vid=040977a8-13c0-45f8-878b-41dbebdc1a7e","ios":"levelo://app?vid=040977a8-13c0-45f8-878b-41dbebdc1a7e"},"vehicle_type_id":"4","last_reported":1750497000,"current_range_meters":8400,"station_id":"ce4bhpp2rcd13ifvqhfg","pricing_plan_id":"cebpf4jnsgd1na2vs0mg"},{"bike_id":"3301fbae-14e8-42c9-b679-2ffe0d728d66","system_id":"levelo_inurba_marseille","lat":43.21191,"lon":5.35072,"is_reserved":false,"is_disabled":false,"rental_uris":{"android":"levelo://app?vid=3301fbae-14e8-42c9-b679-2ffe0d728d66","ios":"levelo://app?vid=3301fbae-14e8-42c9-b679-2ffe0d728d66"},"vehicle_type_id":"4","last_reported":1750497000,"current_range_meters":8400,"station_id":"st_cvj6sg6p6f1abm77japg","pricing_plan_id":"cebpf4jnsgd1na2vs0mg"},{"bike_id":"c595d0e1-c778-4abe-9c79-a9dd74f54e27","system_id":"levelo_inurba_marseille","lat":43.24465,"lon":5.37226,"is_reserved":false,"is_disabled":false,"rental_uris":{"android":"levelo://app?vid=c595d0e1-c778-4abe-9c79-a9dd74f54e27","ios":"levelo://app?vid=c595d0e1-c778-4abe-9c79-a9dd74f54e27"},"vehicle_type_id":"4","last_reported":1750497000,"current_range_meters":8800,"station_id":"","pricing_plan_id":"cebpf4jnsgd1na2vs0mg"},{"bike_id":"bc803a69-4d26-4d33-b83a-b73e2f1ada02","system_id":"levelo_inurba_marseille","lat":43.29966,"lon":5.38494,"is_reserved":false,"is_disabled":false,"rental_uris":{"android":"levelo://app?vid=bc803a69-4d26-4d33-b83a-b73e2f1ada02","ios":"levelo://app?vid=bc803a69-4d26-4d33-b83a-b73e2f1ada02"},"vehicle_type_id":"4","last_reported":1750497000,"current_range_meters":8800,"station_id":"ce4bgj92rcd13ifvqbd0","pricing_plan_id":"cebpf4jnsgd1na2vs0mg"},{"bike_id":"16967bbf-d622-4ac5-86f0-4604527523fa","system_id":"levelo_inurba_marseille","lat":43.24164,"lon":5.39715,"is_reserved":false,"is_disabled":false,"rental_uris":{"android":"levelo://app?vid=16967bbf-d622-4ac5-86f0-4604527523fa","ios":"levelo://app?vid=16967bbf-d622-4ac5-86f0-4604527523fa"},"vehicle_type_id":"4","last_reported":1750497000,"current_range_meters":8800,"station_id":"ce4bhn12rcd13ifvqgpg","pricing_plan_id":"cebpf4jnsgd1na2vs0mg"},{"bike_id":"cc554f2f-8737-4971-881e-eff8120e96eb","system_id":"levelo_inurba_marseille","lat":43.323584,"lon":5.367577,"is_reserved":false,"is_disabled":false,"rental_uris":{"android":"levelo://app?vid=cc554f2f-8737-4971-881e-eff8120e96eb","ios":"levelo://app?vid=cc554f2f-8737-4971-881e-eff8120e96eb"},"vehicle_type_id":"4","last_reported":1750497000,"current_range_meters":8800,"station_id":"ce4bhsh2rcd13ifvqi2g","pricing_plan_id":"cebpf4jnsgd1na2vs0mg"},{"bike_id":"b50ed994-fd88-4dd1-8846-dc2bf2666662","system_id":"levelo_inurba_marseille","lat":43.30565,"lon":5.40097,"is_reserved":false,"is_disabled":false,"rental_uris":{"android":"levelo://app?vid=b50ed994-fd88-4dd1-8846-dc2bf2666662","ios":"levelo://app?vid=b50ed994-fd88-4dd1-8846-dc2bf2666662"},"vehicle_type_id":"4","last_reported":1750497000,"current_range_meters":9200,"station_id":"","pricing_plan_id":"cebpf4jnsgd1na2vs0mg"},{"bike_id":"e577bcd4-90a9-4386-95fa-e0e63f5d44fe","system_id":"levelo_inurba_marseille","lat":43.23959,"lon":5.36633,"is_reserved":false,"is_disabled":false,"rental_uris":{"android":"levelo://app?vid=e577bcd4-90a9-4386-95fa-e0e63f5d44fe","ios":"levelo://app?vid=e577bcd4-90a9-4386-95fa-e0e63f5d44fe"},"vehicle_type_id":"4","last_reported":1750497000,"current_range_meters":9200,"station_id":"ce4bhi12rcd13ifvqfp0","pricing_plan_id":"cebpf4jnsgd1na2vs0mg"},{"bike_id":"bfb5813c-f2a6-4c90-8fc7-5ca0e4b24ddc","system_id":"levelo_inurba_marseille","lat":43.23154,"lon":5.43716,"is_reserved":false,"is_disabled":false,"rental_uris":{"android":"levelo://app?vid=bfb5813c-f2a6-4c90-8fc7-5ca0e4b24ddc","ios":"levelo://app?vid=bfb5813c-f2a6-4c90-8fc7-5ca0e4b24ddc"},"vehicle_type_id":"4","last_reported":1750497000,"current_range_meters":9200,"station_id":"ce4bhmp2rcd13ifvqgog","pricing_plan_id":"cebpf4jnsgd1na2vs0mg"},{"bike_id":"1ce0e88e-d695-4fa0-a417-7b99c428309c","system_id":"levelo_inurba_marseille","lat":43.31889,"lon":5.407347,"is_reserved":false,"is_disabled":false,"rental_uris":{"android":"levelo://app?vid=1ce0e88e-d695-4fa0-a417-7b99c428309c","ios":"levelo://app?vid=1ce0e88e-d695-4fa0-a417-7b99c428309c"},"vehicle_type_id":"4","last_reported":1750497000,"current_range_meters":9200,"station_id":"ce4bhq12rcd13ifvqhig","pricing_plan_id":"cebpf4jnsgd1na2vs0mg"},{"bike_id":"199c2831-e081-4bc0-9b94-19503817091d","system_id":"levelo_inurba_marseille","lat":43.248987,"lon":5.406661,"is_reserved":false,"is_disabled":false,"rental_uris":{"android":"levelo://app?vid=199c2831-e081-4bc0-9b94-19503817091d","ios":"levelo://app?vid=199c2831-e081-4bc0-9b94-19503817091d"},"vehicle_type_id":"4","last_reported":1750497000,"current_range_meters":9600,"station_id":"","pricing_plan_id":"cebpf4jnsgd1na2vs0mg"},{"bike_id":"69880a08-8607-4455-93ef-65dfe3aacaad","system_id":"levelo_inurba_marseille","lat":43.3171,"lon":5.37729,"is_reserved":false,"is_disabled":false,"rental_uris":{"android":"levelo://app?vid=69880a08-8607-4455-93ef-65dfe3aacaad","ios":"levelo://app?vid=69880a08-8607-4455-93ef-65dfe3aacaad"},"vehicle_type_id":"4","last_reported":1750497000,"current_range_meters":9600,"station_id":"ce4bgth2rcd13ifvqch0","pricing_plan_id":"cebpf4jnsgd1na2vs0mg"},{"bike_id":"a91667c8-9d9b-4267-80b6-c6c85a0895dc","system_id":"levelo_inurba_marseille","lat":43.32338,"lon":5.40611,"is_reserved":false,"is_disabled":false,"rental_uris":{"android":"levelo://app?vid=a91667c8-9d9b-4267-80b6-c6c85a0895dc","ios":"levelo://app?vid=a91667c8-9d9b-4267-80b6-c6c85a0895dc"},"vehicle_type_id":"4","last_reported":1750497000,"current_range_meters":9600,"station_id":"ce4bhq92rcd13ifvqhjg","pricing_plan_id":"cebpf4jnsgd1na2vs0mg"},{"bike_id":"8300812b-c3f4-4460-a462-0c10590e5460","system_id":"levelo_inurba_marseille","lat":43.32972,"lon":5.40553,"is_reserved":false,"is_disabled":false,"rental_uris":{"android":"levelo://app?vid=8300812b-c3f4-4460-a462-0c10590e5460","ios":"levelo://app?vid=8300812b-c3f4-4460-a462-0c10590e5460"},"vehicle_type_id":"4","last_reported":1750497000,"current_range_meters":10000,"station_id":"","pricing_plan_id":"cebpf4jnsgd1na2vs0mg"},{"bike_id":"05f69300-23b4-44be-a7e1-398a0efe81a4","system_id":"levelo_inurba_marseille","lat":43.31687,"lon":5.40459,"is_reserved":false,"is_disabled":false,"rental_uris":{"android":"levelo://app?vid=05f69300-23b4-44be-a7e1-398a0efe81a4","ios":"levelo://app?vid=05f69300-23b4-44be-a7e1-398a0efe81a4"},"vehicle_type_id":"4","last_reported":1750497000,"current_range_meters":10000,"station_id":"ce4bh012rcd13ifvqd00","pricing_plan_id":"cebpf4jnsgd1na2vs0mg"},{"bike_id":"7ad405b4-644a-4fe1-afb8-829ea3cc1850","system_id":"levelo_inurba_marseille","lat":43.233842,"lon":5.4001,"is_reserved":false,"is_disabled":false,"rental_uris":{"android":"levelo://app?vid=7ad405b4-644a-4fe1-afb8-829ea3cc1850","ios":"levelo://app?vid=7ad405b4-644a-4fe1-afb8-829ea3cc1850"},"vehicle_type_id":"4","last_reported":1750497000,"current_range_meters":10000,"station_id":"ce4bhn12rcd13ifvqgqg","pricing_plan_id":"cebpf4jnsgd1na2vs0mg"},{"bike_id":"193ef74f-8949-49ee-acaf-d72c06669666","system_id":"levelo_inurba_marseille","lat":43.27935,"lon":5.41046,"is_reserved":false,"is_disabled":false,"rental_uris":{"android":"levelo://app?vid=193ef74f-8949-49ee-acaf-d72c06669666","ios":"levelo://app?vid=193ef74f-8949-49ee-acaf-d72c06669666"},"vehicle_type_id":"4","last_reported":1750497000,"current_range_meters":10000,"station_id":"ce4bhnp2rcd13ifvqh0g","pricing_plan_id":"cebpf4jnsgd1na2vs0mg"},{"bike_id":"ee762a49-83ad-4fcd-811f-1fa20f226852","system_id":"levelo_inurba_marseille","lat":43.30359,"lon":5.42471,"is_reserved":false,"is_disabled":false,"rental_uris":{"android":"levelo://app?vid=ee762a49-83ad-4fcd-811f-1fa20f226852","ios":"levelo://app?vid=ee762a49-83ad-4fcd-811f-1fa20f226852"},"vehicle_type_id":"4","last_reported":1750497000,"current_range_meters":10000,"station_id":"ce4bhoh2rcd13ifvqh6g","pricing_plan_id":"cebpf4jnsgd1na2vs0mg"},{"bike_id":"f43ed071-4712-4c14-925a-97671c7fbd21","system_id":"levelo_inurba_marseille","lat":43.24389,"lon":5.37066,"is_reserved":false,"is_disabled":false,"rental_uris":{"android":"levelo://app?vid=f43ed071-4712-4c14-925a-97671c7fbd21","ios":"levelo://app?vid=f43ed071-4712-4c14-925a-97671c7fbd21"},"vehicle_type_id":"4","last_reported":1750497000,"current_range_meters":10800,"station_id":"ce4bhhh2rcd13ifvqfk0","pricing_plan_id":"cebpf4jnsgd1na2vs0mg"},{"bike_id":"0c3c1a1e-accc-48fd-8dff-9e6a62eb7e59","system_id":"levelo_inurba_marseille","lat":43.32309,"lon":5.40629,"is_reserved":false,"is_disabled":false,"rental_uris":{"android":"levelo://app?vid=0c3c1a1e-accc-48fd-8dff-9e6a62eb7e59","ios":"levelo://app?vid=0c3c1a1e-accc-48fd-8dff-9e6a62eb7e59"},"vehicle_type_id":"4","last_reported":1750497000,"current_range_meters":10800,"station_id":"ce4bhq92rcd13ifvqhjg","pricing_plan_id":"cebpf4jnsgd1na2vs0mg"},{"bike_id":"bd27fe72-6fbc-453f-8b77-bee10ab3b13c","system_id":"levelo_inurba_marseille","lat":43.29519,"lon":5.42355,"is_reserved":false,"is_disabled":false,"rental_uris":{"android":"levelo://app?vid=bd27fe72-6fbc-453f-8b77-bee10ab3b13c","ios":"levelo://app?vid=bd27fe72-6fbc-453f-8b77-bee10ab3b13c"},"vehicle_type_id":"4","last_reported":1750497000,"current_range_meters":11200,"station_id":"","pricing_plan_id":"cebpf4jnsgd1na2vs0mg"},{"bike_id":"ff562e59-2a56-41e8-9f36-3a9a20a0cc07","system_id":"levelo_inurba_marseille","lat":43.31755,"lon":5.39014,"is_reserved":false,"is_disabled":false,"rental_uris":{"android":"levelo://app?vid=ff562e59-2a56-41e8-9f36-3a9a20a0cc07","ios":"levelo://app?vid=ff562e59-2a56-41e8-9f36-3a9a20a0cc07"},"vehicle_type_id":"4","last_reported":1750497000,"current_range_meters":11200,"station_id":"ce4bhqp2rcd13ifvqhng","pricing_plan_id":"cebpf4jnsgd1na2vs0mg"},{"bike_id":"dc540ba2-fb63-45eb-b83a-1826fb3d30b7","system_id":"levelo_inurba_marseille","lat":43.24598,"lon":5.39241,"is_reserved":false,"is_disabled":false,"rental_uris":{"android":"levelo://app?vid=dc540ba2-fb63-45eb-b83a-1826fb3d30b7","ios":"levelo://app?vid=dc540ba2-fb63-45eb-b83a-1826fb3d30b7"},"vehicle_type_id":"4","last_reported":1750497000,"current_range_meters":11600,"station_id":"","pricing_plan_id":"cebpf4jnsgd1na2vs0mg"},{"bike_id":"ebc2f48a-0f44-4165-b6ab-1ebc515adb07","system_id":"levelo_inurba_marseille","lat":43.30941,"lon":5.40135,"is_reserved":false,"is_disabled":false,"rental_uris":{"android":"levelo://app?vid=ebc2f48a-0f44-4165-b6ab-1ebc515adb07","ios":"levelo://app?vid=ebc2f48a-0f44-4165-b6ab-1ebc515adb07"},"vehicle_type_id":"4","last_reported":1750497000,"current_range_meters":11600,"station_id":"ce4bgvp2rcd13ifvqct0","pricing_plan_id":"cebpf4jnsgd1na2vs0mg"},{"bike_id":"ee5d2cdc-e2ff-49ec-8e36-80f0cfaf7d2b","system_id":"levelo_inurba_marseille","lat":43.26789,"lon":5.39407,"is_reserved":false,"is_disabled":false,"rental_uris":{"android":"levelo://app?vid=ee5d2cdc-e2ff-49ec-8e36-80f0cfaf7d2b","ios":"levelo://app?vid=ee5d2cdc-e2ff-49ec-8e36-80f0cfaf7d2b"},"vehicle_type_id":"4","last_reported":1750497000,"current_range_meters":11600,"station_id":"ce4bhh12rcd13ifvqfg0","pricing_plan_id":"cebpf4jnsgd1na2vs0mg"},{"bike_id":"3e54e356-2f5d-40c4-b179-61ba03300df2","system_id":"levelo_inurba_marseille","lat":43.30036,"lon":5.40078,"is_reserved":false,"is_disabled":false,"rental_uris":{"android":"levelo://app?vid=3e54e356-2f5d-40c4-b179-61ba03300df2","ios":"levelo://app?vid=3e54e356-2f5d-40c4-b179-61ba03300df2"},"vehicle_type_id":"4","last_reported":1750497000,"current_range_meters":12000,"station_id":"","pricing_plan_id":"cebpf4jnsgd1na2vs0mg"},{"bike_id":"8d5eeb77-60a3-4d69-9687-b8e6b551b11c","system_id":"levelo_inurba_marseille","lat":43.2782,"lon":5.41445,"is_reserved":false,"is_disabled":false,"rental_uris":{"android":"levelo://app?vid=8d5eeb77-60a3-4d69-9687-b8e6b551b11c","ios":"levelo://app?vid=8d5eeb77-60a3-4d69-9687-b8e6b551b11c"},"vehicle_type_id":"4","last_reported":1750497000,"current_range_meters":12000,"station_id":"","pricing_plan_id":"cebpf4jnsgd1na2vs0mg"},{"bike_id":"8ef11a45-504d-45b0-a2b5-97fef9594218","system_id":"levelo_inurba_marseille","lat":43.295675,"lon":5.381432,"is_reserved":false,"is_disabled":false,"rental_uris":{"android":"levelo://app?vid=8ef11a45-504d-45b0-a2b5-97fef9594218","ios":"levelo://app?vid=8ef11a45-504d-45b0-a2b5-97fef9594218"},"vehicle_type_id":"4","last_reported":1750497000,"current_range_meters":12000,"station_id":"ce4bgl12rcd13ifvqbo0","pricing_plan_id":"cebpf4jnsgd1na2vs0mg"},{"bike_id":"69891fff-2066-411a-a069-078b92a90b0f","system_id":"levelo_inurba_marseille","lat":43.30324,"lon":5.40429,"is_reserved":false,"is_disabled":false,"rental_uris":{"android":"levelo://app?vid=69891fff-2066-411a-a069-078b92a90b0f","ios":"levelo://app?vid=69891fff-2066-411a-a069-078b92a90b0f"},"vehicle_type_id":"4","last_reported":1750497000,"current_range_meters":12000,"station_id":"ce4bh012rcd13ifvqd10","pricing_plan_id":"cebpf4jnsgd1na2vs0mg"},{"bike_id":"1af8cc20-b4be-40a0-952b-b9221d26e0d7","system_id":"levelo_inurba_marseille","lat":43.287257,"lon":5.379486,"is_reserved":false,"is_disabled":false,"rental_uris":{"android":"levelo://app?vid=1af8cc20-b4be-40a0-952b-b9221d26e0d7","ios":"levelo://app?vid=1af8cc20-b4be-40a0-952b-b9221d26e0d7"},"vehicle_type_id":"4","last_reported":1750497000,"current_range_meters":12000,"station_id":"ce4bh9p2rcd13ifvqec0","pricing_plan_id":"cebpf4jnsgd1na2vs0mg"},{"bike_id":"5f91e688-16fe-48a6-82b7-78d151b9ca64","system_id":"levelo_inurba_marseille","lat":43.26193,"lon":5.37446,"is_reserved":false,"is_disabled":false,"rental_uris":{"android":"levelo://app?vid=5f91e688-16fe-48a6-82b7-78d151b9ca64","ios":"levelo://app?vid=5f91e688-16fe-48a6-82b7-78d151b9ca64"},"vehicle_type_id":"4","last_reported":1750497000,"current_range_meters":12000,"station_id":"ce4bhgp2rcd13ifvqfc0","pricing_plan_id":"cebpf4jnsgd1na2vs0mg"},{"bike_id":"959f0c62-9761-4a35-9c23-557e23ca2679","system_id":"levelo_inurba_marseille","lat":43.24676,"lon":5.38144,"is_reserved":false,"is_disabled":false,"rental_uris":{"android":"levelo://app?vid=959f0c62-9761-4a35-9c23-557e23ca2679","ios":"levelo://app?vid=959f0c62-9761-4a35-9c23-557e23ca2679"},"vehicle_type_id":"4","last_reported":1750497000,"current_range_meters":12000,"station_id":"ce4bhih2rcd13ifvqfr0","pricing_plan_id":"cebpf4jnsgd1na2vs0mg"},{"bike_id":"abceba19-e745-4f82-92a0-8622ebef8e8f","system_id":"levelo_inurba_marseille","lat":43.23176,"lon":5.39983,"is_reserved":false,"is_disabled":false,"rental_uris":{"android":"levelo://app?vid=abceba19-e745-4f82-92a0-8622ebef8e8f","ios":"levelo://app?vid=abceba19-e745-4f82-92a0-8622ebef8e8f"},"vehicle_type_id":"4","last_reported":1750497000,"current_range_meters":12000,"station_id":"ce4bhn12rcd13ifvqgqg","pricing_plan_id":"cebpf4jnsgd1na2vs0mg"},{"bike_id":"8fd94bfe-b0a3-4509-a3c9-0f6e3f8eed78","system_id":"levelo_inurba_marseille","lat":43.24169,"lon":5.36391,"is_reserved":false,"is_disabled":false,"rental_uris":{"android":"levelo://app?vid=8fd94bfe-b0a3-4509-a3c9-0f6e3f8eed78","ios":"levelo://app?vid=8fd94bfe-b0a3-4509-a3c9-0f6e3f8eed78"},"vehicle_type_id":"4","last_reported":1750497000,"current_range_meters":12000,"station_id":"cpo36qri1sfpv3e86is0","pricing_plan_id":"cebpf4jnsgd1na2vs0mg"},{"bike_id":"d40af265-11b5-43a6-9bb6-f910f57901ba","system_id":"levelo_inurba_marseille","lat":43.32969,"lon":5.38085,"is_reserved":false,"is_disabled":false,"rental_uris":{"android":"levelo://app?vid=d40af265-11b5-43a6-9bb6-f910f57901ba","ios":"levelo://app?vid=d40af265-11b5-43a6-9bb6-f910f57901ba"},"vehicle_type_id":"4","last_reported":1750497000,"current_range_meters":12400,"station_id":"","pricing_plan_id":"cebpf4jnsgd1na2vs0mg"},{"bike_id":"0d1e8285-6a18-4b41-9452-cd035dd6d50b","system_id":"levelo_inurba_marseille","lat":43.26192,"lon":5.37446,"is_reserved":false,"is_disabled":false,"rental_uris":{"android":"levelo://app?vid=0d1e8285-6a18-4b41-9452-cd035dd6d50b","ios":"levelo://app?vid=0d1e8285-6a18-4b41-9452-cd035dd6d50b"},"vehicle_type_id":"4","last_reported":1750497000,"current_range_meters":12400,"station_id":"ce4bhgp2rcd13ifvqfc0","pricing_plan_id":"cebpf4jnsgd1na2vs0mg"},{"bike_id":"b32d2a7c-0626-47e7-8ec9-e60a81f779b1","system_id":"levelo_inurba_marseille","lat":43.24169,"lon":5.36389,"is_reserved":false,"is_disabled":false,"rental_uris":{"android":"levelo://app?vid=b32d2a7c-0626-47e7-8ec9-e60a81f779b1","ios":"levelo://app?vid=b32d2a7c-0626-47e7-8ec9-e60a81f779b1"},"vehicle_type_id":"4","last_reported":1750497000,"current_range_meters":12400,"station_id":"cpo36qri1sfpv3e86is0","pricing_plan_id":"cebpf4jnsgd1na2vs0mg"},{"bike_id":"59a8db53-c9d2-4aaf-b9c3-839ad9e46549","system_id":"levelo_inurba_marseille","lat":43.216827,"lon":5.345579,"is_reserved":false,"is_disabled":false,"rental_uris":{"android":"levelo://app?vid=59a8db53-c9d2-4aaf-b9c3-839ad9e46549","ios":"levelo://app?vid=59a8db53-c9d2-4aaf-b9c3-839ad9e46549"},"vehicle_type_id":"4","last_reported":1750497000,"current_range_meters":12400,"station_id":"st_cvj6r9ubvosntc0bgbag","pricing_plan_id":"cebpf4jnsgd1na2vs0mg"},{"bike_id":"bb5e8cfe-ffcf-4275-8796-019fb987ef2b","system_id":"levelo_inurba_marseille","lat":43.29557,"lon":5.42279,"is_reserved":false,"is_disabled":false,"rental_uris":{"android":"levelo://app?vid=bb5e8cfe-ffcf-4275-8796-019fb987ef2b","ios":"levelo://app?vid=bb5e8cfe-ffcf-4275-8796-019fb987ef2b"},"vehicle_type_id":"4","last_reported":1750497000,"current_range_meters":12800,"station_id":"ce4bhph2rcd13ifvqhdg","pricing_plan_id":"cebpf4jnsgd1na2vs0mg"},{"bike_id":"bda78705-c772-44c4-bf59-dd2ddfc242f4","system_id":"levelo_inurba_marseille","lat":43.30799,"lon":5.43527,"is_reserved":false,"is_disabled":false,"rental_uris":{"android":"levelo://app?vid=bda78705-c772-44c4-bf59-dd2ddfc242f4","ios":"levelo://app?vid=bda78705-c772-44c4-bf59-dd2ddfc242f4"},"vehicle_type_id":"4","last_reported":1750497000,"current_range_meters":12800,"station_id":"ce4bhph2rcd13ifvqheg","pricing_plan_id":"cebpf4jnsgd1na2vs0mg"},{"bike_id":"4643bc90-1bac-4c4b-98b1-e2d500830573","system_id":"levelo_inurba_marseille","lat":43.31336,"lon":5.37711,"is_reserved":false,"is_disabled":false,"rental_uris":{"android":"levelo://app?vid=4643bc90-1bac-4c4b-98b1-e2d500830573","ios":"levelo://app?vid=4643bc90-1bac-4c4b-98b1-e2d500830573"},"vehicle_type_id":"4","last_reported":1750497000,"current_range_meters":13600,"station_id":"","pricing_plan_id":"cebpf4jnsgd1na2vs0mg"},{"bike_id":"a22aa312-0025-4f42-88e2-b1e95e79340f","system_id":"levelo_inurba_marseille","lat":43.31663,"lon":5.38369,"is_reserved":false,"is_disabled":false,"rental_uris":{"android":"levelo://app?vid=a22aa312-0025-4f42-88e2-b1e95e79340f","ios":"levelo://app?vid=a22aa312-0025-4f42-88e2-b1e95e79340f"},"vehicle_type_id":"4","last_reported":1750497000,"current_range_meters":13600,"station_id":"","pricing_plan_id":"cebpf4jnsgd1na2vs0mg"},{"bike_id":"3b1f0045-b567-432b-917c-9a1a27d47ebe","system_id":"levelo_inurba_marseille","lat":43.29258,"lon":5.37622,"is_reserved":false,"is_disabled":false,"rental_uris":{"android":"levelo://app?vid=3b1f0045-b567-432b-917c-9a1a27d47ebe","ios":"levelo://app?vid=3b1f0045-b567-432b-917c-9a1a27d47ebe"},"vehicle_type_id":"4","last_reported":1750497000,"current_range_meters":13600,"station_id":"ce4bgi12rcd13ifvqb80","pricing_plan_id":"cebpf4jnsgd1na2vs0mg"},{"bike_id":"1d3f4a8c-e7ae-43d9-bde7-a8b9b2e230a1","system_id":"levelo_inurba_marseille","lat":43.31508,"lon":5.37293,"is_reserved":false,"is_disabled":false,"rental_uris":{"android":"levelo://app?vid=1d3f4a8c-e7ae-43d9-bde7-a8b9b2e230a1","ios":"levelo://app?vid=1d3f4a8c-e7ae-43d9-bde7-a8b9b2e230a1"},"vehicle_type_id":"4","last_reported":1750497000,"current_range_meters":13600,"station_id":"ce4bgt12rcd13ifvqcd0","pricing_plan_id":"cebpf4jnsgd1na2vs0mg"},{"bike_id":"b59a0b97-fc0e-47a3-adac-42c7460c6fe0","system_id":"levelo_inurba_marseille","lat":43.27496,"lon":5.42447,"is_reserved":false,"is_disabled":false,"rental_uris":{"android":"levelo://app?vid=b59a0b97-fc0e-47a3-adac-42c7460c6fe0","ios":"levelo://app?vid=b59a0b97-fc0e-47a3-adac-42c7460c6fe0"},"vehicle_type_id":"4","last_reported":1750497000,"current_range_meters":13600,"station_id":"ce4bhn92rcd13ifvqgrg","pricing_plan_id":"cebpf4jnsgd1na2vs0mg"},{"bike_id":"4bd65802-c772-484d-8438-e87dd3437103","system_id":"levelo_inurba_marseille","lat":43.24069,"lon":5.37764,"is_reserved":false,"is_disabled":false,"rental_uris":{"android":"levelo://app?vid=4bd65802-c772-484d-8438-e87dd3437103","ios":"levelo://app?vid=4bd65802-c772-484d-8438-e87dd3437103"},"vehicle_type_id":"4","last_reported":1750497000,"current_range_meters":13600,"station_id":"ce4bhnp2rcd13ifvqgvg","pricing_plan_id":"cebpf4jnsgd1na2vs0mg"},{"bike_id":"db271b3d-33bd-47a5-b4ad-a862b19a1c7d","system_id":"levelo_inurba_marseille","lat":43.22934,"lon":5.35373,"is_reserved":false,"is_disabled":false,"rental_uris":{"android":"levelo://app?vid=db271b3d-33bd-47a5-b4ad-a862b19a1c7d","ios":"levelo://app?vid=db271b3d-33bd-47a5-b4ad-a862b19a1c7d"},"vehicle_type_id":"4","last_reported":1750497000,"current_range_meters":13600,"station_id":"cpo3532slgdg3j2ikp40","pricing_plan_id":"cebpf4jnsgd1na2vs0mg"},{"bike_id":"057da24a-0f9d-4b17-8473-a483706d72c2","system_id":"levelo_inurba_marseille","lat":43.298247,"lon":5.363035,"is_reserved":false,"is_disabled":false,"rental_uris":{"android":"levelo://app?vid=057da24a-0f9d-4b17-8473-a483706d72c2","ios":"levelo://app?vid=057da24a-0f9d-4b17-8473-a483706d72c2"},"vehicle_type_id":"4","last_reported":1750497000,"current_range_meters":14000,"station_id":"ce4bgpp2rcd13ifvqc3g","pricing_plan_id":"cebpf4jnsgd1na2vs0mg"},{"bike_id":"26def3cd-ad7f-4565-b0b7-36fad84dfb0f","system_id":"levelo_inurba_marseille","lat":43.29839,"lon":5.36269,"is_reserved":false,"is_disabled":false,"rental_uris":{"android":"levelo://app?vid=26def3cd-ad7f-4565-b0b7-36fad84dfb0f","ios":"levelo://app?vid=26def3cd-ad7f-4565-b0b7-36fad84dfb0f"},"vehicle_type_id":"4","last_reported":1750497000,"current_range_meters":14000,"station_id":"ce4bgpp2rcd13ifvqc3g","pricing_plan_id":"cebpf4jnsgd1na2vs0mg"},{"bike_id":"5a01a987-f989-4da6-b035-8c3000259e08","system_id":"levelo_inurba_marseille","lat":43.279116,"lon":5.395813,"is_reserved":false,"is_disabled":false,"rental_uris":{"android":"levelo://app?vid=5a01a987-f989-4da6-b035-8c3000259e08","ios":"levelo://app?vid=5a01a987-f989-4da6-b035-8c3000259e08"},"vehicle_type_id":"4","last_reported":1750497000,"current_range_meters":14000,"station_id":"ce4bhf92rcd13ifvqf40","pricing_plan_id":"cebpf4jnsgd1na2vs0mg"},{"bike_id":"ef119b9f-74f5-4323-bd7b-10725bc86e56","system_id":"levelo_inurba_marseille","lat":43.2417,"lon":5.36393,"is_reserved":false,"is_disabled":false,"rental_uris":{"android":"levelo://app?vid=ef119b9f-74f5-4323-bd7b-10725bc86e56","ios":"levelo://app?vid=ef119b9f-74f5-4323-bd7b-10725bc86e56"},"vehicle_type_id":"4","last_reported":1750497000,"current_range_meters":14000,"station_id":"cpo36qri1sfpv3e86is0","pricing_plan_id":"cebpf4jnsgd1na2vs0mg"},{"bike_id":"9ec17fc8-5dfd-41af-a491-787994afcc36","system_id":"levelo_inurba_marseille","lat":43.29848,"lon":5.36282,"is_reserved":false,"is_disabled":false,"rental_uris":{"android":"levelo://app?vid=9ec17fc8-5dfd-41af-a491-787994afcc36","ios":"levelo://app?vid=9ec17fc8-5dfd-41af-a491-787994afcc36"},"vehicle_type_id":"4","last_reported":1750497000,"current_range_meters":14400,"station_id":"ce4bgpp2rcd13ifvqc3g","pricing_plan_id":"cebpf4jnsgd1na2vs0mg"},{"bike_id":"19d28c8f-5421-4087-a03c-a21f0650d31f","system_id":"levelo_inurba_marseille","lat":43.29865,"lon":5.36267,"is_reserved":false,"is_disabled":false,"rental_uris":{"android":"levelo://app?vid=19d28c8f-5421-4087-a03c-a21f0650d31f","ios":"levelo://app?vid=19d28c8f-5421-4087-a03c-a21f0650d31f"},"vehicle_type_id":"4","last_reported":1750497000,"current_range_meters":14400,"station_id":"ce4bgpp2rcd13ifvqc3g","pricing_plan_id":"cebpf4jnsgd1na2vs0mg"},{"bike_id":"66318a12-b0a2-4f7a-a80a-7a5ef798756b","system_id":"levelo_inurba_marseille","lat":43.26209,"lon":5.3744,"is_reserved":false,"is_disabled":false,"rental_uris":{"android":"levelo://app?vid=66318a12-b0a2-4f7a-a80a-7a5ef798756b","ios":"levelo://app?vid=66318a12-b0a2-4f7a-a80a-7a5ef798756b"},"vehicle_type_id":"4","last_reported":1750497000,"current_range_meters":14400,"station_id":"ce4bhgp2rcd13ifvqfc0","pricing_plan_id":"cebpf4jnsgd1na2vs0mg"},{"bike_id":"19267c63-bfb8-4e4b-a2b6-3c766dbbe094","system_id":"levelo_inurba_marseille","lat":43.29238,"lon":5.40888,"is_reserved":false,"is_disabled":false,"rental_uris":{"android":"levelo://app?vid=19267c63-bfb8-4e4b-a2b6-3c766dbbe094","ios":"levelo://app?vid=19267c63-bfb8-4e4b-a2b6-3c766dbbe094"},"vehicle_type_id":"4","last_reported":1750497000,"current_range_meters":14800,"station_id":"ce4bh192rcd13ifvqdc0","pricing_plan_id":"cebpf4jnsgd1na2vs0mg"},{"bike_id":"3744ec58-6e62-4ffd-b0a6-3ac5b27ecfa0","system_id":"levelo_inurba_marseille","lat":43.28971,"lon":5.36646,"is_reserved":false,"is_disabled":false,"rental_uris":{"android":"levelo://app?vid=3744ec58-6e62-4ffd-b0a6-3ac5b27ecfa0","ios":"levelo://app?vid=3744ec58-6e62-4ffd-b0a6-3ac5b27ecfa0"},"vehicle_type_id":"4","last_reported":1750497000,"current_range_meters":14800,"station_id":"ce4bhap2rcd13ifvqek0","pricing_plan_id":"cebpf4jnsgd1na2vs0mg"},{"bike_id":"1ec8e7f8-f431-474c-8b7a-e596ab76884c","system_id":"levelo_inurba_marseille","lat":43.28416,"lon":5.34983,"is_reserved":false,"is_disabled":false,"rental_uris":{"android":"levelo://app?vid=1ec8e7f8-f431-474c-8b7a-e596ab76884c","ios":"levelo://app?vid=1ec8e7f8-f431-474c-8b7a-e596ab76884c"},"vehicle_type_id":"4","last_reported":1750497000,"current_range_meters":14800,"station_id":"ce4bhbh2rcd13ifvqepg","pricing_plan_id":"cebpf4jnsgd1na2vs0mg"},{"bike_id":"e7258c6f-ddc4-412e-ab27-d85a4e6495db","system_id":"levelo_inurba_marseille","lat":43.29278,"lon":5.36832,"is_reserved":false,"is_disabled":false,"rental_uris":{"android":"levelo://app?vid=e7258c6f-ddc4-412e-ab27-d85a4e6495db","ios":"levelo://app?vid=e7258c6f-ddc4-412e-ab27-d85a4e6495db"},"vehicle_type_id":"4","last_reported":1750497000,"current_range_meters":14800,"station_id":"ce4bhbp2rcd13ifvqesg","pricing_plan_id":"cebpf4jnsgd1na2vs0mg"},{"bike_id":"922bc024-83d8-486d-8c0f-78b3f8d8472c","system_id":"levelo_inurba_marseille","lat":43.31488,"lon":5.37307,"is_reserved":false,"is_disabled":false,"rental_uris":{"android":"levelo://app?vid=922bc024-83d8-486d-8c0f-78b3f8d8472c","ios":"levelo://app?vid=922bc024-83d8-486d-8c0f-78b3f8d8472c"},"vehicle_type_id":"4","last_reported":1750497000,"current_range_meters":15200,"station_id":"ce4bgt12rcd13ifvqcd0","pricing_plan_id":"cebpf4jnsgd1na2vs0mg"},{"bike_id":"9436b3f7-e71d-4814-81fe-95d1af5df695","system_id":"levelo_inurba_marseille","lat":43.2119,"lon":5.35064,"is_reserved":false,"is_disabled":false,"rental_uris":{"android":"levelo://app?vid=9436b3f7-e71d-4814-81fe-95d1af5df695","ios":"levelo://app?vid=9436b3f7-e71d-4814-81fe-95d1af5df695"},"vehicle_type_id":"4","last_reported":1750497000,"current_range_meters":15200,"station_id":"st_cvj6sg6p6f1abm77japg","pricing_plan_id":"cebpf4jnsgd1na2vs0mg"},{"bike_id":"b5826738-818a-4c47-930a-9b762018aeaf","system_id":"levelo_inurba_marseille","lat":43.3203,"lon":5.40817,"is_reserved":false,"is_disabled":false,"rental_uris":{"android":"levelo://app?vid=b5826738-818a-4c47-930a-9b762018aeaf","ios":"levelo://app?vid=b5826738-818a-4c47-930a-9b762018aeaf"},"vehicle_type_id":"4","last_reported":1750497000,"current_range_meters":16000,"station_id":"","pricing_plan_id":"cebpf4jnsgd1na2vs0mg"},{"bike_id":"2a0e16d5-55d2-4c16-a4c9-b0b86c57f985","system_id":"levelo_inurba_marseille","lat":43.30153,"lon":5.380796,"is_reserved":false,"is_disabled":false,"rental_uris":{"android":"levelo://app?vid=2a0e16d5-55d2-4c16-a4c9-b0b86c57f985","ios":"levelo://app?vid=2a0e16d5-55d2-4c16-a4c9-b0b86c57f985"},"vehicle_type_id":"4","last_reported":1750497000,"current_range_meters":16000,"station_id":"ce4bgjp2rcd13ifvqbh0","pricing_plan_id":"cebpf4jnsgd1na2vs0mg"},{"bike_id":"8a080f39-62d6-4fb5-8fad-8c4f8ea968be","system_id":"levelo_inurba_marseille","lat":43.29293,"lon":5.40112,"is_reserved":false,"is_disabled":false,"rental_uris":{"android":"levelo://app?vid=8a080f39-62d6-4fb5-8fad-8c4f8ea968be","ios":"levelo://app?vid=8a080f39-62d6-4fb5-8fad-8c4f8ea968be"},"vehicle_type_id":"4","last_reported":1750497000,"current_range_meters":16000,"station_id":"ce4bh312rcd13ifvqdk0","pricing_plan_id":"cebpf4jnsgd1na2vs0mg"},{"bike_id":"4bb92994-eddf-4191-8c44-a77b62530957","system_id":"levelo_inurba_marseille","lat":43.280343,"lon":5.369551,"is_reserved":false,"is_disabled":false,"rental_uris":{"android":"levelo://app?vid=4bb92994-eddf-4191-8c44-a77b62530957","ios":"levelo://app?vid=4bb92994-eddf-4191-8c44-a77b62530957"},"vehicle_type_id":"4","last_reported":1750497000,"current_range_meters":16000,"station_id":"ce4bha12rcd13ifvqef0","pricing_plan_id":"cebpf4jnsgd1na2vs0mg"},{"bike_id":"d8b2f8d4-5b3b-4ba1-905e-3d59d08e8b06","system_id":"levelo_inurba_marseille","lat":43.24651,"lon":5.38891,"is_reserved":false,"is_disabled":false,"rental_uris":{"android":"levelo://app?vid=d8b2f8d4-5b3b-4ba1-905e-3d59d08e8b06","ios":"levelo://app?vid=d8b2f8d4-5b3b-4ba1-905e-3d59d08e8b06"},"vehicle_type_id":"4","last_reported":1750497000,"current_range_meters":16000,"station_id":"ce4bhg12rcd13ifvqf60","pricing_plan_id":"cebpf4jnsgd1na2vs0mg"},{"bike_id":"c3949640-595f-42df-8c03-c9185a47962b","system_id":"levelo_inurba_marseille","lat":43.23966,"lon":5.36633,"is_reserved":false,"is_disabled":false,"rental_uris":{"android":"levelo://app?vid=c3949640-595f-42df-8c03-c9185a47962b","ios":"levelo://app?vid=c3949640-595f-42df-8c03-c9185a47962b"},"vehicle_type_id":"4","last_reported":1750497000,"current_range_meters":16000,"station_id":"ce4bhi12rcd13ifvqfp0","pricing_plan_id":"cebpf4jnsgd1na2vs0mg"},{"bike_id":"f8b269da-f453-49d4-96d3-4c19244008c4","system_id":"levelo_inurba_marseille","lat":43.2512,"lon":5.40321,"is_reserved":false,"is_disabled":false,"rental_uris":{"android":"levelo://app?vid=f8b269da-f453-49d4-96d3-4c19244008c4","ios":"levelo://app?vid=f8b269da-f453-49d4-96d3-4c19244008c4"},"vehicle_type_id":"4","last_reported":1750497000,"current_range_meters":16000,"station_id":"ce4bhlh2rcd13ifvqgig","pricing_plan_id":"cebpf4jnsgd1na2vs0mg"},{"bike_id":"9d8cea9e-5dc3-4979-89db-1e9a7449f475","system_id":"levelo_inurba_marseille","lat":43.23147,"lon":5.43722,"is_reserved":false,"is_disabled":false,"rental_uris":{"android":"levelo://app?vid=9d8cea9e-5dc3-4979-89db-1e9a7449f475","ios":"levelo://app?vid=9d8cea9e-5dc3-4979-89db-1e9a7449f475"},"vehicle_type_id":"4","last_reported":1750497000,"current_range_meters":16000,"station_id":"ce4bhmp2rcd13ifvqgog","pricing_plan_id":"cebpf4jnsgd1na2vs0mg"},{"bike_id":"399f1953-2bea-49fa-99d4-dce45aabeeb9","system_id":"levelo_inurba_marseille","lat":43.31678,"lon":5.40471,"is_reserved":false,"is_disabled":false,"rental_uris":{"android":"levelo://app?vid=399f1953-2bea-49fa-99d4-dce45aabeeb9","ios":"levelo://app?vid=399f1953-2bea-49fa-99d4-dce45aabeeb9"},"vehicle_type_id":"4","last_reported":1750497000,"current_range_meters":16400,"station_id":"ce4bh012rcd13ifvqd00","pricing_plan_id":"cebpf4jnsgd1na2vs0mg"},{"bike_id":"4c811e0c-d0b3-4ce3-b3a9-608517601a88","system_id":"levelo_inurba_marseille","lat":43.29271,"lon":5.36837,"is_reserved":false,"is_disabled":false,"rental_uris":{"android":"levelo://app?vid=4c811e0c-d0b3-4ce3-b3a9-608517601a88","ios":"levelo://app?vid=4c811e0c-d0b3-4ce3-b3a9-608517601a88"},"vehicle_type_id":"4","last_reported":1750497000,"current_range_meters":16400,"station_id":"ce4bhbp2rcd13ifvqesg","pricing_plan_id":"cebpf4jnsgd1na2vs0mg"},{"bike_id":"5f42f629-91e9-467b-ac2c-49ebd77a7195","system_id":"levelo_inurba_marseille","lat":43.24174,"lon":5.397187,"is_reserved":false,"is_disabled":false,"rental_uris":{"android":"levelo://app?vid=5f42f629-91e9-467b-ac2c-49ebd77a7195","ios":"levelo://app?vid=5f42f629-91e9-467b-ac2c-49ebd77a7195"},"vehicle_type_id":"4","last_reported":1750497000,"current_range_meters":16400,"station_id":"ce4bhn12rcd13ifvqgpg","pricing_plan_id":"cebpf4jnsgd1na2vs0mg"},{"bike_id":"55faab8b-166c-40fa-a212-715724d79d7d","system_id":"levelo_inurba_marseille","lat":43.27944,"lon":5.41053,"is_reserved":false,"is_disabled":false,"rental_uris":{"android":"levelo://app?vid=55faab8b-166c-40fa-a212-715724d79d7d","ios":"levelo://app?vid=55faab8b-166c-40fa-a212-715724d79d7d"},"vehicle_type_id":"4","last_reported":1750497000,"current_range_meters":16400,"station_id":"ce4bhnp2rcd13ifvqh0g","pricing_plan_id":"cebpf4jnsgd1na2vs0mg"},{"bike_id":"3d2d6044-6185-4c45-8ef2-14dfc8377c45","system_id":"levelo_inurba_marseille","lat":43.32131,"lon":5.36768,"is_reserved":false,"is_disabled":false,"rental_uris":{"android":"levelo://app?vid=3d2d6044-6185-4c45-8ef2-14dfc8377c45","ios":"levelo://app?vid=3d2d6044-6185-4c45-8ef2-14dfc8377c45"},"vehicle_type_id":"4","last_reported":1750497000,"current_range_meters":16400,"station_id":"ce4bhrh2rcd13ifvqhug","pricing_plan_id":"cebpf4jnsgd1na2vs0mg"},{"bike_id":"b4b9f165-9b30-462c-875b-bb8dde06fcb2","system_id":"levelo_inurba_marseille","lat":43.21745,"lon":5.34597,"is_reserved":false,"is_disabled":false,"rental_uris":{"android":"levelo://app?vid=b4b9f165-9b30-462c-875b-bb8dde06fcb2","ios":"levelo://app?vid=b4b9f165-9b30-462c-875b-bb8dde06fcb2"},"vehicle_type_id":"4","last_reported":1750497000,"current_range_meters":16400,"station_id":"st_cvj6r9ubvosntc0bgbag","pricing_plan_id":"cebpf4jnsgd1na2vs0mg"},{"bike_id":"38b4578b-d322-4ae7-86ef-2a7e9839b4fd","system_id":"levelo_inurba_marseille","lat":43.212111,"lon":5.350463,"is_reserved":false,"is_disabled":false,"rental_uris":{"android":"levelo://app?vid=38b4578b-d322-4ae7-86ef-2a7e9839b4fd","ios":"levelo://app?vid=38b4578b-d322-4ae7-86ef-2a7e9839b4fd"},"vehicle_type_id":"4","last_reported":1750497000,"current_range_meters":16400,"station_id":"st_cvj6sg6p6f1abm77japg","pricing_plan_id":"cebpf4jnsgd1na2vs0mg"},{"bike_id":"25a5f057-8423-444c-b815-db4bccfa34d7","system_id":"levelo_inurba_marseille","lat":43.28614,"lon":5.35108,"is_reserved":false,"is_disabled":false,"rental_uris":{"android":"levelo://app?vid=25a5f057-8423-444c-b815-db4bccfa34d7","ios":"levelo://app?vid=25a5f057-8423-444c-b815-db4bccfa34d7"},"vehicle_type_id":"4","last_reported":1750497000,"current_range_meters":16800,"station_id":"ce4bhch2rcd13ifvqeug","pricing_plan_id":"cebpf4jnsgd1na2vs0mg"},{"bike_id":"45d778e6-aa0b-40ba-a4de-a6c941762022","system_id":"levelo_inurba_marseille","lat":43.24388,"lon":5.3705,"is_reserved":false,"is_disabled":false,"rental_uris":{"android":"levelo://app?vid=45d778e6-aa0b-40ba-a4de-a6c941762022","ios":"levelo://app?vid=45d778e6-aa0b-40ba-a4de-a6c941762022"},"vehicle_type_id":"4","last_reported":1750497000,"current_range_meters":16800,"station_id":"ce4bhhh2rcd13ifvqfk0","pricing_plan_id":"cebpf4jnsgd1na2vs0mg"},{"bike_id":"6c947f54-1f02-43e4-9e06-dc26fbd0d9ea","system_id":"levelo_inurba_marseille","lat":43.24384,"lon":5.37049,"is_reserved":false,"is_disabled":false,"rental_uris":{"android":"levelo://app?vid=6c947f54-1f02-43e4-9e06-dc26fbd0d9ea","ios":"levelo://app?vid=6c947f54-1f02-43e4-9e06-dc26fbd0d9ea"},"vehicle_type_id":"4","last_reported":1750497000,"current_range_meters":16800,"station_id":"ce4bhhh2rcd13ifvqfk0","pricing_plan_id":"cebpf4jnsgd1na2vs0mg"},{"bike_id":"6a4b59b0-64b7-4950-ae73-2324ba55dcce","system_id":"levelo_inurba_marseille","lat":43.33015,"lon":5.381493,"is_reserved":false,"is_disabled":false,"rental_uris":{"android":"levelo://app?vid=6a4b59b0-64b7-4950-ae73-2324ba55dcce","ios":"levelo://app?vid=6a4b59b0-64b7-4950-ae73-2324ba55dcce"},"vehicle_type_id":"4","last_reported":1750497000,"current_range_meters":17200,"station_id":"","pricing_plan_id":"cebpf4jnsgd1na2vs0mg"},{"bike_id":"f6069a5d-a2bc-44cc-bc6f-f26f79591d92","system_id":"levelo_inurba_marseille","lat":43.30771,"lon":5.37373,"is_reserved":false,"is_disabled":false,"rental_uris":{"android":"levelo://app?vid=f6069a5d-a2bc-44cc-bc6f-f26f79591d92","ios":"levelo://app?vid=f6069a5d-a2bc-44cc-bc6f-f26f79591d92"},"vehicle_type_id":"4","last_reported":1750497000,"current_range_meters":17200,"station_id":"","pricing_plan_id":"cebpf4jnsgd1na2vs0mg"},{"bike_id":"2b61d59f-a015-44d2-94f2-b3f4e4edbae6","system_id":"levelo_inurba_marseille","lat":43.27609,"lon":5.36111,"is_reserved":false,"is_disabled":false,"rental_uris":{"android":"levelo://app?vid=2b61d59f-a015-44d2-94f2-b3f4e4edbae6","ios":"levelo://app?vid=2b61d59f-a015-44d2-94f2-b3f4e4edbae6"},"vehicle_type_id":"4","last_reported":1750497000,"current_range_meters":17200,"station_id":"ce4bgj92rcd13ifvqbe0","pricing_plan_id":"cebpf4jnsgd1na2vs0mg"},{"bike_id":"e027c74d-1962-483a-84e7-7fc299e599a5","system_id":"levelo_inurba_marseille","lat":43.30304,"lon":5.40079,"is_reserved":false,"is_disabled":false,"rental_uris":{"android":"levelo://app?vid=e027c74d-1962-483a-84e7-7fc299e599a5","ios":"levelo://app?vid=e027c74d-1962-483a-84e7-7fc299e599a5"},"vehicle_type_id":"4","last_reported":1750497000,"current_range_meters":17200,"station_id":"ce4bgvh2rcd13ifvqcs0","pricing_plan_id":"cebpf4jnsgd1na2vs0mg"},{"bike_id":"51924496-d375-43d1-9f3c-2086be022a83","system_id":"levelo_inurba_marseille","lat":43.26028,"lon":5.38726,"is_reserved":false,"is_disabled":false,"rental_uris":{"android":"levelo://app?vid=51924496-d375-43d1-9f3c-2086be022a83","ios":"levelo://app?vid=51924496-d375-43d1-9f3c-2086be022a83"},"vehicle_type_id":"4","last_reported":1750497000,"current_range_meters":17600,"station_id":"","pricing_plan_id":"cebpf4jnsgd1na2vs0mg"},{"bike_id":"ef0f7d2c-a318-4ab7-b330-5d5a1cd3e9dd","system_id":"levelo_inurba_marseille","lat":43.280386,"lon":5.369543,"is_reserved":false,"is_disabled":false,"rental_uris":{"android":"levelo://app?vid=ef0f7d2c-a318-4ab7-b330-5d5a1cd3e9dd","ios":"levelo://app?vid=ef0f7d2c-a318-4ab7-b330-5d5a1cd3e9dd"},"vehicle_type_id":"4","last_reported":1750497000,"current_range_meters":17600,"station_id":"ce4bha12rcd13ifvqef0","pricing_plan_id":"cebpf4jnsgd1na2vs0mg"},{"bike_id":"da1072d3-51da-40cd-8307-151ea67b533b","system_id":"levelo_inurba_marseille","lat":43.28613,"lon":5.35104,"is_reserved":false,"is_disabled":false,"rental_uris":{"android":"levelo://app?vid=da1072d3-51da-40cd-8307-151ea67b533b","ios":"levelo://app?vid=da1072d3-51da-40cd-8307-151ea67b533b"},"vehicle_type_id":"4","last_reported":1750497000,"current_range_meters":17600,"station_id":"ce4bhch2rcd13ifvqeug","pricing_plan_id":"cebpf4jnsgd1na2vs0mg"},{"bike_id":"269c3bdf-af5e-4656-89f5-602080b8a3e4","system_id":"levelo_inurba_marseille","lat":43.23973,"lon":5.36611,"is_reserved":false,"is_disabled":false,"rental_uris":{"android":"levelo://app?vid=269c3bdf-af5e-4656-89f5-602080b8a3e4","ios":"levelo://app?vid=269c3bdf-af5e-4656-89f5-602080b8a3e4"},"vehicle_type_id":"4","last_reported":1750497000,"current_range_meters":17600,"station_id":"ce4bhi12rcd13ifvqfp0","pricing_plan_id":"cebpf4jnsgd1na2vs0mg"},{"bike_id":"82b609eb-4bb1-412b-8dd3-ab5548ecab23","system_id":"levelo_inurba_marseille","lat":43.270664,"lon":5.422808,"is_reserved":false,"is_disabled":false,"rental_uris":{"android":"levelo://app?vid=82b609eb-4bb1-412b-8dd3-ab5548ecab23","ios":"levelo://app?vid=82b609eb-4bb1-412b-8dd3-ab5548ecab23"},"vehicle_type_id":"4","last_reported":1750497000,"current_range_meters":17600,"station_id":"ce4bhk92rcd13ifvqgb0","pricing_plan_id":"cebpf4jnsgd1na2vs0mg"},{"bike_id":"cf077cfc-8295-4c86-b208-4d8963e12e17","system_id":"levelo_inurba_marseille","lat":43.270647,"lon":5.42279,"is_reserved":false,"is_disabled":false,"rental_uris":{"android":"levelo://app?vid=cf077cfc-8295-4c86-b208-4d8963e12e17","ios":"levelo://app?vid=cf077cfc-8295-4c86-b208-4d8963e12e17"},"vehicle_type_id":"4","last_reported":1750497000,"current_range_meters":17600,"station_id":"ce4bhk92rcd13ifvqgb0","pricing_plan_id":"cebpf4jnsgd1na2vs0mg"},{"bike_id":"e8ca4ab0-6d6d-40bf-8a25-0e9ed9ae981c","system_id":"levelo_inurba_marseille","lat":43.23149,"lon":5.43722,"is_reserved":false,"is_disabled":false,"rental_uris":{"android":"levelo://app?vid=e8ca4ab0-6d6d-40bf-8a25-0e9ed9ae981c","ios":"levelo://app?vid=e8ca4ab0-6d6d-40bf-8a25-0e9ed9ae981c"},"vehicle_type_id":"4","last_reported":1750497000,"current_range_meters":17600,"station_id":"ce4bhmp2rcd13ifvqgog","pricing_plan_id":"cebpf4jnsgd1na2vs0mg"},{"bike_id":"9140ee3e-3bf6-4e99-9e49-500aebc61051","system_id":"levelo_inurba_marseille","lat":43.317117,"lon":5.437112,"is_reserved":false,"is_disabled":false,"rental_uris":{"android":"levelo://app?vid=9140ee3e-3bf6-4e99-9e49-500aebc61051","ios":"levelo://app?vid=9140ee3e-3bf6-4e99-9e49-500aebc61051"},"vehicle_type_id":"4","last_reported":1750497000,"current_range_meters":17600,"station_id":"ce4bhp92rcd13ifvqhcg","pricing_plan_id":"cebpf4jnsgd1na2vs0mg"},{"bike_id":"1c6eee43-889f-4cff-bc8c-307447a31830","system_id":"levelo_inurba_marseille","lat":43.30795,"lon":5.43523,"is_reserved":false,"is_disabled":false,"rental_uris":{"android":"levelo://app?vid=1c6eee43-889f-4cff-bc8c-307447a31830","ios":"levelo://app?vid=1c6eee43-889f-4cff-bc8c-307447a31830"},"vehicle_type_id":"4","last_reported":1750497000,"current_range_meters":17600,"station_id":"ce4bhph2rcd13ifvqheg","pricing_plan_id":"cebpf4jnsgd1na2vs0mg"},{"bike_id":"a91efed8-9487-4fff-b034-7c44507950e7","system_id":"levelo_inurba_marseille","lat":43.34142,"lon":5.40895,"is_reserved":false,"is_disabled":false,"rental_uris":{"android":"levelo://app?vid=a91efed8-9487-4fff-b034-7c44507950e7","ios":"levelo://app?vid=a91efed8-9487-4fff-b034-7c44507950e7"},"vehicle_type_id":"4","last_reported":1750497000,"current_range_meters":17600,"station_id":"ce4bhqh2rcd13ifvqhlg","pricing_plan_id":"cebpf4jnsgd1na2vs0mg"},{"bike_id":"4d80d21e-3dc9-4004-a3c0-eb7b371a8ccf","system_id":"levelo_inurba_marseille","lat":43.33035,"lon":5.39436,"is_reserved":false,"is_disabled":false,"rental_uris":{"android":"levelo://app?vid=4d80d21e-3dc9-4004-a3c0-eb7b371a8ccf","ios":"levelo://app?vid=4d80d21e-3dc9-4004-a3c0-eb7b371a8ccf"},"vehicle_type_id":"4","last_reported":1750497000,"current_range_meters":18000,"station_id":"","pricing_plan_id":"cebpf4jnsgd1na2vs0mg"},{"bike_id":"ffbb0c22-3f4e-4cdb-a0e5-79e3b9f3e1a2","system_id":"levelo_inurba_marseille","lat":43.33769,"lon":5.37469,"is_reserved":false,"is_disabled":false,"rental_uris":{"android":"levelo://app?vid=ffbb0c22-3f4e-4cdb-a0e5-79e3b9f3e1a2","ios":"levelo://app?vid=ffbb0c22-3f4e-4cdb-a0e5-79e3b9f3e1a2"},"vehicle_type_id":"4","last_reported":1750497000,"current_range_meters":18000,"station_id":"","pricing_plan_id":"cebpf4jnsgd1na2vs0mg"},{"bike_id":"813b3fc9-439b-44fd-89ae-cfceeca95c02","system_id":"levelo_inurba_marseille","lat":43.3016,"lon":5.38092,"is_reserved":false,"is_disabled":false,"rental_uris":{"android":"levelo://app?vid=813b3fc9-439b-44fd-89ae-cfceeca95c02","ios":"levelo://app?vid=813b3fc9-439b-44fd-89ae-cfceeca95c02"},"vehicle_type_id":"4","last_reported":1750497000,"current_range_meters":18000,"station_id":"ce4bgjp2rcd13ifvqbh0","pricing_plan_id":"cebpf4jnsgd1na2vs0mg"},{"bike_id":"e1923973-da41-4df0-b8a8-20981ae5e691","system_id":"levelo_inurba_marseille","lat":43.29033,"lon":5.39945,"is_reserved":false,"is_disabled":false,"rental_uris":{"android":"levelo://app?vid=e1923973-da41-4df0-b8a8-20981ae5e691","ios":"levelo://app?vid=e1923973-da41-4df0-b8a8-20981ae5e691"},"vehicle_type_id":"4","last_reported":1750497000,"current_range_meters":18000,"station_id":"ce4bh392rcd13ifvqdm0","pricing_plan_id":"cebpf4jnsgd1na2vs0mg"},{"bike_id":"14f70ca7-5487-4048-bd1e-b3d79e4d712e","system_id":"levelo_inurba_marseille","lat":43.292715,"lon":5.3685,"is_reserved":false,"is_disabled":false,"rental_uris":{"android":"levelo://app?vid=14f70ca7-5487-4048-bd1e-b3d79e4d712e","ios":"levelo://app?vid=14f70ca7-5487-4048-bd1e-b3d79e4d712e"},"vehicle_type_id":"4","last_reported":1750497000,"current_range_meters":18000,"station_id":"ce4bhbp2rcd13ifvqesg","pricing_plan_id":"cebpf4jnsgd1na2vs0mg"},{"bike_id":"5660b7b9-0cc2-4f70-b1e7-99d8b2917cc8","system_id":"levelo_inurba_marseille","lat":43.26181,"lon":5.37452,"is_reserved":false,"is_disabled":false,"rental_uris":{"android":"levelo://app?vid=5660b7b9-0cc2-4f70-b1e7-99d8b2917cc8","ios":"levelo://app?vid=5660b7b9-0cc2-4f70-b1e7-99d8b2917cc8"},"vehicle_type_id":"4","last_reported":1750497000,"current_range_meters":18000,"station_id":"ce4bhgp2rcd13ifvqfc0","pricing_plan_id":"cebpf4jnsgd1na2vs0mg"},{"bike_id":"1e394239-d873-46d7-806d-fa98483a8220","system_id":"levelo_inurba_marseille","lat":43.26218,"lon":5.40439,"is_reserved":false,"is_disabled":false,"rental_uris":{"android":"levelo://app?vid=1e394239-d873-46d7-806d-fa98483a8220","ios":"levelo://app?vid=1e394239-d873-46d7-806d-fa98483a8220"},"vehicle_type_id":"4","last_reported":1750497000,"current_range_meters":18000,"station_id":"ce4bhmh2rcd13ifvqgmg","pricing_plan_id":"cebpf4jnsgd1na2vs0mg"},{"bike_id":"4d4df371-4a07-4078-b66c-0646e04ad4bf","system_id":"levelo_inurba_marseille","lat":43.29894,"lon":5.43646,"is_reserved":false,"is_disabled":false,"rental_uris":{"android":"levelo://app?vid=4d4df371-4a07-4078-b66c-0646e04ad4bf","ios":"levelo://app?vid=4d4df371-4a07-4078-b66c-0646e04ad4bf"},"vehicle_type_id":"4","last_reported":1750497000,"current_range_meters":18000,"station_id":"ce4bhpp2rcd13ifvqhfg","pricing_plan_id":"cebpf4jnsgd1na2vs0mg"},{"bike_id":"dc1db63d-5468-44d8-958f-b819dd58751d","system_id":"levelo_inurba_marseille","lat":43.32345,"lon":5.40592,"is_reserved":false,"is_disabled":false,"rental_uris":{"android":"levelo://app?vid=dc1db63d-5468-44d8-958f-b819dd58751d","ios":"levelo://app?vid=dc1db63d-5468-44d8-958f-b819dd58751d"},"vehicle_type_id":"4","last_reported":1750497000,"current_range_meters":18000,"station_id":"ce4bhq92rcd13ifvqhjg","pricing_plan_id":"cebpf4jnsgd1na2vs0mg"},{"bike_id":"51a10ac8-4a7d-4bb7-aa46-ee1fc97a585c","system_id":"levelo_inurba_marseille","lat":43.21744,"lon":5.34588,"is_reserved":false,"is_disabled":false,"rental_uris":{"android":"levelo://app?vid=51a10ac8-4a7d-4bb7-aa46-ee1fc97a585c","ios":"levelo://app?vid=51a10ac8-4a7d-4bb7-aa46-ee1fc97a585c"},"vehicle_type_id":"4","last_reported":1750497000,"current_range_meters":18000,"station_id":"st_cvj6r9ubvosntc0bgbag","pricing_plan_id":"cebpf4jnsgd1na2vs0mg"},{"bike_id":"1978b1d0-d88d-443f-bfda-8ee66410adcb","system_id":"levelo_inurba_marseille","lat":43.29804,"lon":5.40419,"is_reserved":false,"is_disabled":false,"rental_uris":{"android":"levelo://app?vid=1978b1d0-d88d-443f-bfda-8ee66410adcb","ios":"levelo://app?vid=1978b1d0-d88d-443f-bfda-8ee66410adcb"},"vehicle_type_id":"4","last_reported":1750497000,"current_range_meters":18800,"station_id":"ce4bh112rcd13ifvqd90","pricing_plan_id":"cebpf4jnsgd1na2vs0mg"},{"bike_id":"c8b308e1-bd18-4c17-92e7-f5918af66970","system_id":"levelo_inurba_marseille","lat":43.3064,"lon":5.40076,"is_reserved":false,"is_disabled":false,"rental_uris":{"android":"levelo://app?vid=c8b308e1-bd18-4c17-92e7-f5918af66970","ios":"levelo://app?vid=c8b308e1-bd18-4c17-92e7-f5918af66970"},"vehicle_type_id":"4","last_reported":1750497000,"current_range_meters":18800,"station_id":"ce4bh112rcd13ifvqda0","pricing_plan_id":"cebpf4jnsgd1na2vs0mg"},{"bike_id":"569cba6f-6767-430a-ae76-1fa7fe580a74","system_id":"levelo_inurba_marseille","lat":43.28411,"lon":5.3499,"is_reserved":false,"is_disabled":false,"rental_uris":{"android":"levelo://app?vid=569cba6f-6767-430a-ae76-1fa7fe580a74","ios":"levelo://app?vid=569cba6f-6767-430a-ae76-1fa7fe580a74"},"vehicle_type_id":"4","last_reported":1750497000,"current_range_meters":18800,"station_id":"ce4bhbh2rcd13ifvqepg","pricing_plan_id":"cebpf4jnsgd1na2vs0mg"},{"bike_id":"af5b12d7-0905-4de0-a573-1d3a18c8db80","system_id":"levelo_inurba_marseille","lat":43.2842,"lon":5.34985,"is_reserved":false,"is_disabled":false,"rental_uris":{"android":"levelo://app?vid=af5b12d7-0905-4de0-a573-1d3a18c8db80","ios":"levelo://app?vid=af5b12d7-0905-4de0-a573-1d3a18c8db80"},"vehicle_type_id":"4","last_reported":1750497000,"current_range_meters":18800,"station_id":"ce4bhbh2rcd13ifvqepg","pricing_plan_id":"cebpf4jnsgd1na2vs0mg"},{"bike_id":"6b4edd1f-2b9f-40fa-afbd-2006b70529df","system_id":"levelo_inurba_marseille","lat":43.25498,"lon":5.37641,"is_reserved":false,"is_disabled":false,"rental_uris":{"android":"levelo://app?vid=6b4edd1f-2b9f-40fa-afbd-2006b70529df","ios":"levelo://app?vid=6b4edd1f-2b9f-40fa-afbd-2006b70529df"},"vehicle_type_id":"4","last_reported":1750497000,"current_range_meters":18800,"station_id":"ce4bhh12rcd13ifvqff0","pricing_plan_id":"cebpf4jnsgd1na2vs0mg"},{"bike_id":"fe03136a-a05c-4542-b1d6-f7f11a4e82d8","system_id":"levelo_inurba_marseille","lat":43.24387,"lon":5.3706,"is_reserved":false,"is_disabled":false,"rental_uris":{"android":"levelo://app?vid=fe03136a-a05c-4542-b1d6-f7f11a4e82d8","ios":"levelo://app?vid=fe03136a-a05c-4542-b1d6-f7f11a4e82d8"},"vehicle_type_id":"4","last_reported":1750497000,"current_range_meters":18800,"station_id":"ce4bhhh2rcd13ifvqfk0","pricing_plan_id":"cebpf4jnsgd1na2vs0mg"},{"bike_id":"cce77e4b-ed87-4804-b0da-339bcdd11b0d","system_id":"levelo_inurba_marseille","lat":43.2762,"lon":5.36107,"is_reserved":false,"is_disabled":false,"rental_uris":{"android":"levelo://app?vid=cce77e4b-ed87-4804-b0da-339bcdd11b0d","ios":"levelo://app?vid=cce77e4b-ed87-4804-b0da-339bcdd11b0d"},"vehicle_type_id":"4","last_reported":1750497000,"current_range_meters":19200,"station_id":"ce4bgj92rcd13ifvqbe0","pricing_plan_id":"cebpf4jnsgd1na2vs0mg"},{"bike_id":"4fc2dd41-8f2a-4025-bc60-306230907e24","system_id":"levelo_inurba_marseille","lat":43.29686,"lon":5.37287,"is_reserved":false,"is_disabled":false,"rental_uris":{"android":"levelo://app?vid=4fc2dd41-8f2a-4025-bc60-306230907e24","ios":"levelo://app?vid=4fc2dd41-8f2a-4025-bc60-306230907e24"},"vehicle_type_id":"4","last_reported":1750497000,"current_range_meters":19200,"station_id":"ce4bgk12rcd13ifvqbj0","pricing_plan_id":"cebpf4jnsgd1na2vs0mg"},{"bike_id":"51976791-1944-4bc2-bb15-560c17653b4c","system_id":"levelo_inurba_marseille","lat":43.28267,"lon":5.3506,"is_reserved":false,"is_disabled":false,"rental_uris":{"android":"levelo://app?vid=51976791-1944-4bc2-bb15-560c17653b4c","ios":"levelo://app?vid=51976791-1944-4bc2-bb15-560c17653b4c"},"vehicle_type_id":"4","last_reported":1750497000,"current_range_meters":19200,"station_id":"ce4bhbp2rcd13ifvqerg","pricing_plan_id":"cebpf4jnsgd1na2vs0mg"},{"bike_id":"e9eb657c-400f-41ee-97de-58790aa5151d","system_id":"levelo_inurba_marseille","lat":43.26214,"lon":5.40457,"is_reserved":false,"is_disabled":false,"rental_uris":{"android":"levelo://app?vid=e9eb657c-400f-41ee-97de-58790aa5151d","ios":"levelo://app?vid=e9eb657c-400f-41ee-97de-58790aa5151d"},"vehicle_type_id":"4","last_reported":1750497000,"current_range_meters":19200,"station_id":"ce4bhmh2rcd13ifvqgmg","pricing_plan_id":"cebpf4jnsgd1na2vs0mg"},{"bike_id":"920dc83e-8696-4e96-a7a5-fa7cc74e4e7b","system_id":"levelo_inurba_marseille","lat":43.291793,"lon":5.384913,"is_reserved":false,"is_disabled":false,"rental_uris":{"android":"levelo://app?vid=920dc83e-8696-4e96-a7a5-fa7cc74e4e7b","ios":"levelo://app?vid=920dc83e-8696-4e96-a7a5-fa7cc74e4e7b"},"vehicle_type_id":"4","last_reported":1750497000,"current_range_meters":19600,"station_id":"","pricing_plan_id":"cebpf4jnsgd1na2vs0mg"},{"bike_id":"26700d21-f1f4-4d76-95c4-7ebc842e3bfd","system_id":"levelo_inurba_marseille","lat":43.29683,"lon":5.37276,"is_reserved":false,"is_disabled":false,"rental_uris":{"android":"levelo://app?vid=26700d21-f1f4-4d76-95c4-7ebc842e3bfd","ios":"levelo://app?vid=26700d21-f1f4-4d76-95c4-7ebc842e3bfd"},"vehicle_type_id":"4","last_reported":1750497000,"current_range_meters":19600,"station_id":"ce4bgk12rcd13ifvqbj0","pricing_plan_id":"cebpf4jnsgd1na2vs0mg"},{"bike_id":"3c2a209e-dc37-457f-9bb6-db294dc6ef40","system_id":"levelo_inurba_marseille","lat":43.280386,"lon":5.369492,"is_reserved":false,"is_disabled":false,"rental_uris":{"android":"levelo://app?vid=3c2a209e-dc37-457f-9bb6-db294dc6ef40","ios":"levelo://app?vid=3c2a209e-dc37-457f-9bb6-db294dc6ef40"},"vehicle_type_id":"4","last_reported":1750497000,"current_range_meters":19600,"station_id":"ce4bha12rcd13ifvqef0","pricing_plan_id":"cebpf4jnsgd1na2vs0mg"},{"bike_id":"2d3a9151-be24-42b7-be6c-073a14c24856","system_id":"levelo_inurba_marseille","lat":43.25479,"lon":5.37658,"is_reserved":false,"is_disabled":false,"rental_uris":{"android":"levelo://app?vid=2d3a9151-be24-42b7-be6c-073a14c24856","ios":"levelo://app?vid=2d3a9151-be24-42b7-be6c-073a14c24856"},"vehicle_type_id":"4","last_reported":1750497000,"current_range_meters":19600,"station_id":"ce4bhh12rcd13ifvqff0","pricing_plan_id":"cebpf4jnsgd1na2vs0mg"},{"bike_id":"e9e34d80-2f67-4aa6-ba88-1b07fc44405a","system_id":"levelo_inurba_marseille","lat":43.23965,"lon":5.3663,"is_reserved":false,"is_disabled":false,"rental_uris":{"android":"levelo://app?vid=e9e34d80-2f67-4aa6-ba88-1b07fc44405a","ios":"levelo://app?vid=e9e34d80-2f67-4aa6-ba88-1b07fc44405a"},"vehicle_type_id":"4","last_reported":1750497000,"current_range_meters":19600,"station_id":"ce4bhi12rcd13ifvqfp0","pricing_plan_id":"cebpf4jnsgd1na2vs0mg"},{"bike_id":"c6e5dc42-b9e0-41cc-84a8-4f5fb9329a28","system_id":"levelo_inurba_marseille","lat":43.25818,"lon":5.39436,"is_reserved":false,"is_disabled":false,"rental_uris":{"android":"levelo://app?vid=c6e5dc42-b9e0-41cc-84a8-4f5fb9329a28","ios":"levelo://app?vid=c6e5dc42-b9e0-41cc-84a8-4f5fb9329a28"},"vehicle_type_id":"4","last_reported":1750497000,"current_range_meters":19600,"station_id":"ce4bhip2rcd13ifvqft0","pricing_plan_id":"cebpf4jnsgd1na2vs0mg"},{"bike_id":"ff245b77-bc9f-4cfd-ad80-e76392da4d18","system_id":"levelo_inurba_marseille","lat":43.231438,"lon":5.43703,"is_reserved":false,"is_disabled":false,"rental_uris":{"android":"levelo://app?vid=ff245b77-bc9f-4cfd-ad80-e76392da4d18","ios":"levelo://app?vid=ff245b77-bc9f-4cfd-ad80-e76392da4d18"},"vehicle_type_id":"4","last_reported":1750497000,"current_range_meters":19600,"station_id":"ce4bhmp2rcd13ifvqgog","pricing_plan_id":"cebpf4jnsgd1na2vs0mg"},{"bike_id":"5e372528-2077-476b-a84f-f2201c11536d","system_id":"levelo_inurba_marseille","lat":43.2815,"lon":5.42629,"is_reserved":false,"is_disabled":false,"rental_uris":{"android":"levelo://app?vid=5e372528-2077-476b-a84f-f2201c11536d","ios":"levelo://app?vid=5e372528-2077-476b-a84f-f2201c11536d"},"vehicle_type_id":"4","last_reported":1750497000,"current_range_meters":19600,"station_id":"ce4bhnh2rcd13ifvqgug","pricing_plan_id":"cebpf4jnsgd1na2vs0mg"},{"bike_id":"44f91d9d-a072-4666-b130-0587846c0cfd","system_id":"levelo_inurba_marseille","lat":43.318883,"lon":5.407276,"is_reserved":false,"is_disabled":false,"rental_uris":{"android":"levelo://app?vid=44f91d9d-a072-4666-b130-0587846c0cfd","ios":"levelo://app?vid=44f91d9d-a072-4666-b130-0587846c0cfd"},"vehicle_type_id":"4","last_reported":1750497000,"current_range_meters":19600,"station_id":"ce4bhq12rcd13ifvqhig","pricing_plan_id":"cebpf4jnsgd1na2vs0mg"},{"bike_id":"348caee6-3db3-4b3a-a689-66d52af6e9a6","system_id":"levelo_inurba_marseille","lat":43.23189,"lon":5.35567,"is_reserved":false,"is_disabled":false,"rental_uris":{"android":"levelo://app?vid=348caee6-3db3-4b3a-a689-66d52af6e9a6","ios":"levelo://app?vid=348caee6-3db3-4b3a-a689-66d52af6e9a6"},"vehicle_type_id":"4","last_reported":1750497000,"current_range_meters":19600,"station_id":"ce4bhu92rcd13ifvqi70","pricing_plan_id":"cebpf4jnsgd1na2vs0mg"},{"bike_id":"b954ad20-8866-4808-9736-0e481591598c","system_id":"levelo_inurba_marseille","lat":43.325996,"lon":5.377607,"is_reserved":false,"is_disabled":false,"rental_uris":{"android":"levelo://app?vid=b954ad20-8866-4808-9736-0e481591598c","ios":"levelo://app?vid=b954ad20-8866-4808-9736-0e481591598c"},"vehicle_type_id":"4","last_reported":1750497000,"current_range_meters":20000,"station_id":"","pricing_plan_id":"cebpf4jnsgd1na2vs0mg"},{"bike_id":"df1d884e-cdba-4b58-aa3c-95110e039af2","system_id":"levelo_inurba_marseille","lat":43.29814,"lon":5.37114,"is_reserved":false,"is_disabled":false,"rental_uris":{"android":"levelo://app?vid=df1d884e-cdba-4b58-aa3c-95110e039af2","ios":"levelo://app?vid=df1d884e-cdba-4b58-aa3c-95110e039af2"},"vehicle_type_id":"4","last_reported":1750497000,"current_range_meters":20000,"station_id":"ce4bgop2rcd13ifvqc1g","pricing_plan_id":"cebpf4jnsgd1na2vs0mg"},{"bike_id":"fe7ff49d-f73c-4d4a-b369-9bc703c18401","system_id":"levelo_inurba_marseille","lat":43.24406,"lon":5.37041,"is_reserved":false,"is_disabled":false,"rental_uris":{"android":"levelo://app?vid=fe7ff49d-f73c-4d4a-b369-9bc703c18401","ios":"levelo://app?vid=fe7ff49d-f73c-4d4a-b369-9bc703c18401"},"vehicle_type_id":"4","last_reported":1750497000,"current_range_meters":20000,"station_id":"ce4bhhh2rcd13ifvqfk0","pricing_plan_id":"cebpf4jnsgd1na2vs0mg"},{"bike_id":"37967699-9626-41b5-a5f9-8419eeae5de5","system_id":"levelo_inurba_marseille","lat":43.24179,"lon":5.39723,"is_reserved":false,"is_disabled":false,"rental_uris":{"android":"levelo://app?vid=37967699-9626-41b5-a5f9-8419eeae5de5","ios":"levelo://app?vid=37967699-9626-41b5-a5f9-8419eeae5de5"},"vehicle_type_id":"4","last_reported":1750497000,"current_range_meters":20000,"station_id":"ce4bhn12rcd13ifvqgpg","pricing_plan_id":"cebpf4jnsgd1na2vs0mg"},{"bike_id":"b15d48be-15ba-4f8b-b711-e317e1fa43b5","system_id":"levelo_inurba_marseille","lat":43.22931,"lon":5.35374,"is_reserved":false,"is_disabled":false,"rental_uris":{"android":"levelo://app?vid=b15d48be-15ba-4f8b-b711-e317e1fa43b5","ios":"levelo://app?vid=b15d48be-15ba-4f8b-b711-e317e1fa43b5"},"vehicle_type_id":"4","last_reported":1750497000,"current_range_meters":20000,"station_id":"cpo3532slgdg3j2ikp40","pricing_plan_id":"cebpf4jnsgd1na2vs0mg"},{"bike_id":"0ddbcc5f-ca25-473e-8264-8a85e24b7b0a","system_id":"levelo_inurba_marseille","lat":43.21751,"lon":5.34601,"is_reserved":false,"is_disabled":false,"rental_uris":{"android":"levelo://app?vid=0ddbcc5f-ca25-473e-8264-8a85e24b7b0a","ios":"levelo://app?vid=0ddbcc5f-ca25-473e-8264-8a85e24b7b0a"},"vehicle_type_id":"4","last_reported":1750497000,"current_range_meters":20000,"station_id":"st_cvj6r9ubvosntc0bgbag","pricing_plan_id":"cebpf4jnsgd1na2vs0mg"},{"bike_id":"377ec864-6a07-4987-8844-392b5fb8234b","system_id":"levelo_inurba_marseille","lat":43.317703,"lon":5.387949,"is_reserved":false,"is_disabled":false,"rental_uris":{"android":"levelo://app?vid=377ec864-6a07-4987-8844-392b5fb8234b","ios":"levelo://app?vid=377ec864-6a07-4987-8844-392b5fb8234b"},"vehicle_type_id":"4","last_reported":1750497000,"current_range_meters":20400,"station_id":"","pricing_plan_id":"cebpf4jnsgd1na2vs0mg"},{"bike_id":"e28751b8-20d7-41a8-bc4f-8041ab781c15","system_id":"levelo_inurba_marseille","lat":43.29915,"lon":5.38145,"is_reserved":false,"is_disabled":false,"rental_uris":{"android":"levelo://app?vid=e28751b8-20d7-41a8-bc4f-8041ab781c15","ios":"levelo://app?vid=e28751b8-20d7-41a8-bc4f-8041ab781c15"},"vehicle_type_id":"4","last_reported":1750497000,"current_range_meters":20400,"station_id":"ce4bgj12rcd13ifvqbc0","pricing_plan_id":"cebpf4jnsgd1na2vs0mg"},{"bike_id":"4c631a91-7d1b-4978-866e-4ea8c4c73989","system_id":"levelo_inurba_marseille","lat":43.28264,"lon":5.35064,"is_reserved":false,"is_disabled":false,"rental_uris":{"android":"levelo://app?vid=4c631a91-7d1b-4978-866e-4ea8c4c73989","ios":"levelo://app?vid=4c631a91-7d1b-4978-866e-4ea8c4c73989"},"vehicle_type_id":"4","last_reported":1750497000,"current_range_meters":20400,"station_id":"ce4bhbp2rcd13ifvqerg","pricing_plan_id":"cebpf4jnsgd1na2vs0mg"},{"bike_id":"00ebd79f-219a-4fcc-be59-2a40faedf3fc","system_id":"levelo_inurba_marseille","lat":43.26214,"lon":5.37442,"is_reserved":false,"is_disabled":false,"rental_uris":{"android":"levelo://app?vid=00ebd79f-219a-4fcc-be59-2a40faedf3fc","ios":"levelo://app?vid=00ebd79f-219a-4fcc-be59-2a40faedf3fc"},"vehicle_type_id":"4","last_reported":1750497000,"current_range_meters":20400,"station_id":"ce4bhgp2rcd13ifvqfc0","pricing_plan_id":"cebpf4jnsgd1na2vs0mg"},{"bike_id":"d5d4ea08-5286-42f6-8cc4-138a5180b07c","system_id":"levelo_inurba_marseille","lat":43.250204,"lon":5.389076,"is_reserved":false,"is_disabled":false,"rental_uris":{"android":"levelo://app?vid=d5d4ea08-5286-42f6-8cc4-138a5180b07c","ios":"levelo://app?vid=d5d4ea08-5286-42f6-8cc4-138a5180b07c"},"vehicle_type_id":"4","last_reported":1750497000,"current_range_meters":20400,"station_id":"ce4bhgp2rcd13ifvqfd0","pricing_plan_id":"cebpf4jnsgd1na2vs0mg"},{"bike_id":"9e38d277-5c68-497e-a46f-8f0c017ccf9c","system_id":"levelo_inurba_marseille","lat":43.25503,"lon":5.37646,"is_reserved":false,"is_disabled":false,"rental_uris":{"android":"levelo://app?vid=9e38d277-5c68-497e-a46f-8f0c017ccf9c","ios":"levelo://app?vid=9e38d277-5c68-497e-a46f-8f0c017ccf9c"},"vehicle_type_id":"4","last_reported":1750497000,"current_range_meters":20400,"station_id":"ce4bhh12rcd13ifvqff0","pricing_plan_id":"cebpf4jnsgd1na2vs0mg"},{"bike_id":"d17dfa65-3223-4d45-807a-c0a52bb205ee","system_id":"levelo_inurba_marseille","lat":43.23964,"lon":5.36625,"is_reserved":false,"is_disabled":false,"rental_uris":{"android":"levelo://app?vid=d17dfa65-3223-4d45-807a-c0a52bb205ee","ios":"levelo://app?vid=d17dfa65-3223-4d45-807a-c0a52bb205ee"},"vehicle_type_id":"4","last_reported":1750497000,"current_range_meters":20400,"station_id":"ce4bhi12rcd13ifvqfp0","pricing_plan_id":"cebpf4jnsgd1na2vs0mg"},{"bike_id":"a07df7fb-558a-462f-91c1-d02e30607ad0","system_id":"levelo_inurba_marseille","lat":43.25584,"lon":5.382287,"is_reserved":false,"is_disabled":false,"rental_uris":{"android":"levelo://app?vid=a07df7fb-558a-462f-91c1-d02e30607ad0","ios":"levelo://app?vid=a07df7fb-558a-462f-91c1-d02e30607ad0"},"vehicle_type_id":"4","last_reported":1750497000,"current_range_meters":20400,"station_id":"ce4bhih2rcd13ifvqfs0","pricing_plan_id":"cebpf4jnsgd1na2vs0mg"},{"bike_id":"9133bd38-9834-4bf5-aead-c4f396f165ac","system_id":"levelo_inurba_marseille","lat":43.2119,"lon":5.350698,"is_reserved":false,"is_disabled":false,"rental_uris":{"android":"levelo://app?vid=9133bd38-9834-4bf5-aead-c4f396f165ac","ios":"levelo://app?vid=9133bd38-9834-4bf5-aead-c4f396f165ac"},"vehicle_type_id":"4","last_reported":1750497000,"current_range_meters":20400,"station_id":"st_cvj6sg6p6f1abm77japg","pricing_plan_id":"cebpf4jnsgd1na2vs0mg"},{"bike_id":"56ae7983-8a3b-4349-b166-789921242c31","system_id":"levelo_inurba_marseille","lat":43.211924,"lon":5.350744,"is_reserved":false,"is_disabled":false,"rental_uris":{"android":"levelo://app?vid=56ae7983-8a3b-4349-b166-789921242c31","ios":"levelo://app?vid=56ae7983-8a3b-4349-b166-789921242c31"},"vehicle_type_id":"4","last_reported":1750497000,"current_range_meters":20800,"station_id":"","pricing_plan_id":"cebpf4jnsgd1na2vs0mg"},{"bike_id":"c1bfe059-dc8b-4a59-9d74-d550781388b9","system_id":"levelo_inurba_marseille","lat":43.295313,"lon":5.385461,"is_reserved":false,"is_disabled":false,"rental_uris":{"android":"levelo://app?vid=c1bfe059-dc8b-4a59-9d74-d550781388b9","ios":"levelo://app?vid=c1bfe059-dc8b-4a59-9d74-d550781388b9"},"vehicle_type_id":"4","last_reported":1750497000,"current_range_meters":20800,"station_id":"","pricing_plan_id":"cebpf4jnsgd1na2vs0mg"},{"bike_id":"a3ad56e7-7a91-4aa3-ab02-df0b7f94c034","system_id":"levelo_inurba_marseille","lat":43.29128,"lon":5.3558,"is_reserved":false,"is_disabled":false,"rental_uris":{"android":"levelo://app?vid=a3ad56e7-7a91-4aa3-ab02-df0b7f94c034","ios":"levelo://app?vid=a3ad56e7-7a91-4aa3-ab02-df0b7f94c034"},"vehicle_type_id":"4","last_reported":1750497000,"current_range_meters":20800,"station_id":"","pricing_plan_id":"cebpf4jnsgd1na2vs0mg"},{"bike_id":"2c3aedd0-390d-4b16-8ae5-4fe5b9b4022d","system_id":"levelo_inurba_marseille","lat":43.29835,"lon":5.36266,"is_reserved":false,"is_disabled":false,"rental_uris":{"android":"levelo://app?vid=2c3aedd0-390d-4b16-8ae5-4fe5b9b4022d","ios":"levelo://app?vid=2c3aedd0-390d-4b16-8ae5-4fe5b9b4022d"},"vehicle_type_id":"4","last_reported":1750497000,"current_range_meters":20800,"station_id":"ce4bgpp2rcd13ifvqc3g","pricing_plan_id":"cebpf4jnsgd1na2vs0mg"},{"bike_id":"926a25af-a814-4fe1-85aa-3fb0b4d15a54","system_id":"levelo_inurba_marseille","lat":43.28849,"lon":5.35844,"is_reserved":false,"is_disabled":false,"rental_uris":{"android":"levelo://app?vid=926a25af-a814-4fe1-85aa-3fb0b4d15a54","ios":"levelo://app?vid=926a25af-a814-4fe1-85aa-3fb0b4d15a54"},"vehicle_type_id":"4","last_reported":1750497000,"current_range_meters":20800,"station_id":"ce4bhb12rcd13ifvqem0","pricing_plan_id":"cebpf4jnsgd1na2vs0mg"},{"bike_id":"be7a6693-ccf2-4d60-8e5c-710b4cb64f3a","system_id":"levelo_inurba_marseille","lat":43.2862,"lon":5.35099,"is_reserved":false,"is_disabled":false,"rental_uris":{"android":"levelo://app?vid=be7a6693-ccf2-4d60-8e5c-710b4cb64f3a","ios":"levelo://app?vid=be7a6693-ccf2-4d60-8e5c-710b4cb64f3a"},"vehicle_type_id":"4","last_reported":1750497000,"current_range_meters":20800,"station_id":"ce4bhch2rcd13ifvqeug","pricing_plan_id":"cebpf4jnsgd1na2vs0mg"},{"bike_id":"4fff9f4c-f2b3-4c8a-a1c5-e903e72180bd","system_id":"levelo_inurba_marseille","lat":43.26216,"lon":5.37442,"is_reserved":false,"is_disabled":false,"rental_uris":{"android":"levelo://app?vid=4fff9f4c-f2b3-4c8a-a1c5-e903e72180bd","ios":"levelo://app?vid=4fff9f4c-f2b3-4c8a-a1c5-e903e72180bd"},"vehicle_type_id":"4","last_reported":1750497000,"current_range_meters":20800,"station_id":"ce4bhgp2rcd13ifvqfc0","pricing_plan_id":"cebpf4jnsgd1na2vs0mg"},{"bike_id":"e3e3f500-479f-408a-a7f0-0204a533e0b9","system_id":"levelo_inurba_marseille","lat":43.245484,"lon":5.395407,"is_reserved":false,"is_disabled":false,"rental_uris":{"android":"levelo://app?vid=e3e3f500-479f-408a-a7f0-0204a533e0b9","ios":"levelo://app?vid=e3e3f500-479f-408a-a7f0-0204a533e0b9"},"vehicle_type_id":"4","last_reported":1750497000,"current_range_meters":20800,"station_id":"ce4bhlp2rcd13ifvqgjg","pricing_plan_id":"cebpf4jnsgd1na2vs0mg"},{"bike_id":"5c117c66-286b-49d6-92e3-323695dfcb61","system_id":"levelo_inurba_marseille","lat":43.245478,"lon":5.395202,"is_reserved":false,"is_disabled":false,"rental_uris":{"android":"levelo://app?vid=5c117c66-286b-49d6-92e3-323695dfcb61","ios":"levelo://app?vid=5c117c66-286b-49d6-92e3-323695dfcb61"},"vehicle_type_id":"4","last_reported":1750497000,"current_range_meters":20800,"station_id":"ce4bhlp2rcd13ifvqgjg","pricing_plan_id":"cebpf4jnsgd1na2vs0mg"},{"bike_id":"b10476c2-2e64-4a41-a4df-6fd21c65643b","system_id":"levelo_inurba_marseille","lat":43.29693,"lon":5.37794,"is_reserved":false,"is_disabled":false,"rental_uris":{"android":"levelo://app?vid=b10476c2-2e64-4a41-a4df-6fd21c65643b","ios":"levelo://app?vid=b10476c2-2e64-4a41-a4df-6fd21c65643b"},"vehicle_type_id":"4","last_reported":1750497000,"current_range_meters":21600,"station_id":"","pricing_plan_id":"cebpf4jnsgd1na2vs0mg"},{"bike_id":"1c1ab546-6740-4886-919d-b1145d69ceac","system_id":"levelo_inurba_marseille","lat":43.28441,"lon":5.34987,"is_reserved":false,"is_disabled":false,"rental_uris":{"android":"levelo://app?vid=1c1ab546-6740-4886-919d-b1145d69ceac","ios":"levelo://app?vid=1c1ab546-6740-4886-919d-b1145d69ceac"},"vehicle_type_id":"4","last_reported":1750497000,"current_range_meters":21600,"station_id":"ce4bhbh2rcd13ifvqepg","pricing_plan_id":"cebpf4jnsgd1na2vs0mg"},{"bike_id":"c9829428-d7eb-4735-9bb5-df29488923ae","system_id":"levelo_inurba_marseille","lat":43.27316,"lon":5.39094,"is_reserved":false,"is_disabled":false,"rental_uris":{"android":"levelo://app?vid=c9829428-d7eb-4735-9bb5-df29488923ae","ios":"levelo://app?vid=c9829428-d7eb-4735-9bb5-df29488923ae"},"vehicle_type_id":"4","last_reported":1750497000,"current_range_meters":21600,"station_id":"ce4bhgp2rcd13ifvqfe0","pricing_plan_id":"cebpf4jnsgd1na2vs0mg"},{"bike_id":"87ba8e5f-64d5-4dd6-981f-4ec868a6b61f","system_id":"levelo_inurba_marseille","lat":43.24392,"lon":5.37049,"is_reserved":false,"is_disabled":false,"rental_uris":{"android":"levelo://app?vid=87ba8e5f-64d5-4dd6-981f-4ec868a6b61f","ios":"levelo://app?vid=87ba8e5f-64d5-4dd6-981f-4ec868a6b61f"},"vehicle_type_id":"4","last_reported":1750497000,"current_range_meters":21600,"station_id":"ce4bhhh2rcd13ifvqfk0","pricing_plan_id":"cebpf4jnsgd1na2vs0mg"},{"bike_id":"c4c63e38-72b1-4298-9967-abd9d2a284c0","system_id":"levelo_inurba_marseille","lat":43.259354,"lon":5.408965,"is_reserved":false,"is_disabled":false,"rental_uris":{"android":"levelo://app?vid=c4c63e38-72b1-4298-9967-abd9d2a284c0","ios":"levelo://app?vid=c4c63e38-72b1-4298-9967-abd9d2a284c0"},"vehicle_type_id":"4","last_reported":1750497000,"current_range_meters":21600,"station_id":"ce4bhm92rcd13ifvqglg","pricing_plan_id":"cebpf4jnsgd1na2vs0mg"},{"bike_id":"ce4e955a-4a07-4c8d-8378-ca4bcc12bb75","system_id":"levelo_inurba_marseille","lat":43.21202,"lon":5.3507,"is_reserved":false,"is_disabled":false,"rental_uris":{"android":"levelo://app?vid=ce4e955a-4a07-4c8d-8378-ca4bcc12bb75","ios":"levelo://app?vid=ce4e955a-4a07-4c8d-8378-ca4bcc12bb75"},"vehicle_type_id":"4","last_reported":1750497000,"current_range_meters":21600,"station_id":"st_cvj6sg6p6f1abm77japg","pricing_plan_id":"cebpf4jnsgd1na2vs0mg"},{"bike_id":"c6cbae16-3ce5-4d77-8942-2ad6d6b3c555","system_id":"levelo_inurba_marseille","lat":43.29429,"lon":5.38138,"is_reserved":false,"is_disabled":false,"rental_uris":{"android":"levelo://app?vid=c6cbae16-3ce5-4d77-8942-2ad6d6b3c555","ios":"levelo://app?vid=c6cbae16-3ce5-4d77-8942-2ad6d6b3c555"},"vehicle_type_id":"4","last_reported":1750497000,"current_range_meters":22000,"station_id":"","pricing_plan_id":"cebpf4jnsgd1na2vs0mg"},{"bike_id":"af760fd1-fa84-488b-b018-69b9b494ad54","system_id":"levelo_inurba_marseille","lat":43.276147,"lon":5.361052,"is_reserved":false,"is_disabled":false,"rental_uris":{"android":"levelo://app?vid=af760fd1-fa84-488b-b018-69b9b494ad54","ios":"levelo://app?vid=af760fd1-fa84-488b-b018-69b9b494ad54"},"vehicle_type_id":"4","last_reported":1750497000,"current_range_meters":22000,"station_id":"ce4bgj92rcd13ifvqbe0","pricing_plan_id":"cebpf4jnsgd1na2vs0mg"},{"bike_id":"55100b4b-67da-436b-a182-e42bdfd51862","system_id":"levelo_inurba_marseille","lat":43.30544,"lon":5.36723,"is_reserved":false,"is_disabled":false,"rental_uris":{"android":"levelo://app?vid=55100b4b-67da-436b-a182-e42bdfd51862","ios":"levelo://app?vid=55100b4b-67da-436b-a182-e42bdfd51862"},"vehicle_type_id":"4","last_reported":1750497000,"current_range_meters":22000,"station_id":"ce4bgrp2rcd13ifvqc9g","pricing_plan_id":"cebpf4jnsgd1na2vs0mg"},{"bike_id":"e931bf13-629b-4e79-9c9b-c9f8380b4aab","system_id":"levelo_inurba_marseille","lat":43.2926,"lon":5.40898,"is_reserved":false,"is_disabled":false,"rental_uris":{"android":"levelo://app?vid=e931bf13-629b-4e79-9c9b-c9f8380b4aab","ios":"levelo://app?vid=e931bf13-629b-4e79-9c9b-c9f8380b4aab"},"vehicle_type_id":"4","last_reported":1750497000,"current_range_meters":22000,"station_id":"ce4bh192rcd13ifvqdc0","pricing_plan_id":"cebpf4jnsgd1na2vs0mg"},{"bike_id":"2c156a4c-5e73-44ac-b97e-4a5d5755f586","system_id":"levelo_inurba_marseille","lat":43.25497,"lon":5.37646,"is_reserved":false,"is_disabled":false,"rental_uris":{"android":"levelo://app?vid=2c156a4c-5e73-44ac-b97e-4a5d5755f586","ios":"levelo://app?vid=2c156a4c-5e73-44ac-b97e-4a5d5755f586"},"vehicle_type_id":"4","last_reported":1750497000,"current_range_meters":22000,"station_id":"ce4bhh12rcd13ifvqff0","pricing_plan_id":"cebpf4jnsgd1na2vs0mg"},{"bike_id":"72c2ea63-e2ec-4de0-8ee1-ce5f166644c4","system_id":"levelo_inurba_marseille","lat":43.25588,"lon":5.38229,"is_reserved":false,"is_disabled":false,"rental_uris":{"android":"levelo://app?vid=72c2ea63-e2ec-4de0-8ee1-ce5f166644c4","ios":"levelo://app?vid=72c2ea63-e2ec-4de0-8ee1-ce5f166644c4"},"vehicle_type_id":"4","last_reported":1750497000,"current_range_meters":22000,"station_id":"ce4bhih2rcd13ifvqfs0","pricing_plan_id":"cebpf4jnsgd1na2vs0mg"},{"bike_id":"ee3026d9-e826-4f6d-afda-d2f4bce88d52","system_id":"levelo_inurba_marseille","lat":43.22501,"lon":5.348,"is_reserved":false,"is_disabled":false,"rental_uris":{"android":"levelo://app?vid=ee3026d9-e826-4f6d-afda-d2f4bce88d52","ios":"levelo://app?vid=ee3026d9-e826-4f6d-afda-d2f4bce88d52"},"vehicle_type_id":"4","last_reported":1750497000,"current_range_meters":22000,"station_id":"st_cvj5dfep6f1abm77gieg","pricing_plan_id":"cebpf4jnsgd1na2vs0mg"},{"bike_id":"fadfa916-b9d5-4ae1-b59f-52466e78cc86","system_id":"levelo_inurba_marseille","lat":43.28278,"lon":5.3506,"is_reserved":false,"is_disabled":false,"rental_uris":{"android":"levelo://app?vid=fadfa916-b9d5-4ae1-b59f-52466e78cc86","ios":"levelo://app?vid=fadfa916-b9d5-4ae1-b59f-52466e78cc86"},"vehicle_type_id":"4","last_reported":1750497000,"current_range_meters":22400,"station_id":"ce4bhbp2rcd13ifvqerg","pricing_plan_id":"cebpf4jnsgd1na2vs0mg"},{"bike_id":"fc7f9797-2367-43b7-8629-cbed43a0c5b7","system_id":"levelo_inurba_marseille","lat":43.239585,"lon":5.366303,"is_reserved":false,"is_disabled":false,"rental_uris":{"android":"levelo://app?vid=fc7f9797-2367-43b7-8629-cbed43a0c5b7","ios":"levelo://app?vid=fc7f9797-2367-43b7-8629-cbed43a0c5b7"},"vehicle_type_id":"4","last_reported":1750497000,"current_range_meters":22400,"station_id":"ce4bhi12rcd13ifvqfp0","pricing_plan_id":"cebpf4jnsgd1na2vs0mg"},{"bike_id":"d5cc24c0-37bd-4edd-b829-e40c1b3f5263","system_id":"levelo_inurba_marseille","lat":43.32477,"lon":5.36566,"is_reserved":false,"is_disabled":false,"rental_uris":{"android":"levelo://app?vid=d5cc24c0-37bd-4edd-b829-e40c1b3f5263","ios":"levelo://app?vid=d5cc24c0-37bd-4edd-b829-e40c1b3f5263"},"vehicle_type_id":"4","last_reported":1750497000,"current_range_meters":22400,"station_id":"ce4bhs12rcd13ifvqhvg","pricing_plan_id":"cebpf4jnsgd1na2vs0mg"},