{"last_updated":1700510876,"ttl":30,"version":"2.2","data":{"bikes":[{"bike_id":"f874da3e-b17e-47f0-a499-90fd16b42a65","system_id":"levelo_inurba_marseille","lat":43.311579,"lon":5.368864,"is_reserved":false,"is_disabled":false,"rental_uris":{"android":"levelo://app?vid=f874da3e-b17e-47f0-a499-90fd16b42a65","ios":"levelo://app?vid=f874da3e-b17e-47f0-a499-90fd16b42a65"},"vehicle_type_id":"4","last_reported":1700510876,"current_range_meters":0,"station_id":"","pricing_plan_id":"free"},{"bike_id":"fc17d1df-19ec-4a9c-acf7-fdc43b73a0bc","system_id":"levelo_inurba_marseille","lat":43.308437,"lon":5.36891,"is_reserved":false,"is_disabled":false,"rental_uris":{"android":"levelo://app?vid=fc17d1df-19ec-4a9c-acf7-fdc43b73a0bc","ios":"levelo://app?vid=fc17d1df-19ec-4a9c-acf7-fdc43b73a0bc"},"vehicle_type_id":"4","last_reported":1700510876,"current_range_meters":20800,"station_id":"","pricing_plan_id":"free"},{"bike_id":"61a8a4c5-a2f8-4b60-8914-c3d4c4b6a935","system_id":"levelo_inurba_marseille","lat":43.315003,"lon":5.373048,"is_reserved":false,"is_disabled":false,"rental_uris":{"android":"levelo://app?vid=61a8a4c5-a2f8-4b60-8914-c3d4c4b6a935","ios":"levelo://app?vid=61a8a4c5-a2f8-4b60-8914-c3d4c4b6a935"},"vehicle_type_id":"4","last_reported":1700510876,"current_range_meters":0,"station_id":"ce4bgt12rcd13ifvqcd0","pricing_plan_id":"free"},{"bike_id":"f398eddb-44a4-484b-acf1-6f8766e94a46","system_id":"levelo_inurba_marseille","lat":43.315734,"lon":5.372501,"is_reserved":false,"is_disabled":false,"rental_uris":{"android":"levelo://app?vid=f398eddb-44a4-484b-acf1-6f8766e94a46","ios":"levelo://app?vid=f398eddb-44a4-484b-acf1-6f8766e94a46"},"vehicle_type_id":"4","last_reported":1700510876,"current_range_meters":15200,"station_id":"","pricing_plan_id":"free"},{"bike_id":"c111ac6e-75f2-4026-9cd8-e6dacb5f45e4","system_id":"levelo_inurba_marseille","lat":43.309034,"lon":5.371783,"is_reserved":false,"is_disabled":false,"rental_uris":{"android":"levelo://app?vid=c111ac6e-75f2-4026-9cd8-e6dacb5f45e4","ios":"levelo://app?vid=c111ac6e-75f2-4026-9cd8-e6dacb5f45e4"},"vehicle_type_id":"4","last_reported":1700510876,"current_range_meters":0,"station_id":"ce4bguh2rcd13ifvqckg","pricing_plan_id":"free"},{"bike_id":"3475d204-43b6-43d9-b615-ca1d0d58200e","system_id":"levelo_inurba_marseille","lat":43.30679,"lon":5.3679,"is_reserved":false,"is_disabled":false,"rental_uris":{"android":"levelo://app?vid=3475d204-43b6-43d9-b615-ca1d0d58200e","ios":"levelo://app?vid=3475d204-43b6-43d9-b615-ca1d0d58200e"},"vehicle_type_id":"4","last_reported":1700510876,"current_range_meters":6000,"station_id":"","pricing_plan_id":"free"},{"bike_id":"1b65e363-c4af-48cc-826d-939bc181fa5e","system_id":"levelo_inurba_marseille","lat":43.305428,"lon":5.367004,"is_reserved":false,"is_disabled":false,"rental_uris":{"android":"levelo://app?vid=1b65e363-c4af-48cc-826d-939bc181fa5e","ios":"levelo://app?vid=1b65e363-c4af-48cc-826d-939bc181fa5e"},"vehicle_type_id":"4","last_reported":1700510876,"current_range_meters":0,"station_id":"ce4bgrp2rcd13ifvqc9g","pricing_plan_id":"free"},{"bike_id":"2181378b-4d92-47ec-8a6a-b4147268100a","system_id":"levelo_inurba_marseille","lat":43.305989,"lon":5.37225,"is_reserved":false,"is_disabled":false,"rental_uris":{"android":"levelo://app?vid=2181378b-4d92-47ec-8a6a-b4147268100a","ios":"levelo://app?vid=2181378b-4d92-47ec-8a6a-b4147268100a"},"vehicle_type_id":"4","last_reported":1700510876,"current_range_meters":5200,"station_id":"ce4bgqh2rcd13ifvqc4g","pricing_plan_id":"free"},{"bike_id":"d62a2a14-8875-41a1-97ff-c9324269ac98","system_id":"levelo_inurba_marseille","lat":43.311125,"lon":5.377624,"is_reserved":false,"is_disabled":false,"rental_uris":{"android":"levelo://app?vid=d62a2a14-8875-41a1-97ff-c9324269ac98","ios":"levelo://app?vid=d62a2a14-8875-41a1-97ff-c9324269ac98"},"vehicle_type_id":"4","last_reported":1700510876,"current_range_meters":24000,"station_id":"ce4bgt92rcd13ifvqcg0","pricing_plan_id":"free"},{"bike_id":"4f3a32ad-5b32-40f9-b872-8d4c4cbd4a0f","system_id":"levelo_inurba_marseille","lat":43.303083,"lon":5.369073,"is_reserved":false,"is_disabled":false,"rental_uris":{"android":"levelo://app?vid=4f3a32ad-5b32-40f9-b872-8d4c4cbd4a0f","ios":"levelo://app?vid=4f3a32ad-5b32-40f9-b872-8d4c4cbd4a0f"},"vehicle_type_id":"4","last_reported":1700510876,"current_range_meters":0,"station_id":"ce4bgqh2rcd13ifvqc5g","pricing_plan_id":"free"},{"bike_id":"3b6d6bb4-c74b-45d6-a179-86884ae46556","system_id":"levelo_inurba_marseille","lat":43.30195,"lon":5.36619,"is_reserved":false,"is_disabled":false,"rental_uris":{"android":"levelo://app?vid=3b6d6bb4-c74b-45d6-a179-86884ae46556","ios":"levelo://app?vid=3b6d6bb4-c74b-45d6-a179-86884ae46556"},"vehicle_type_id":"4","last_reported":1700510876,"current_range_meters":0,"station_id":"ce4bgrh2rcd13ifvqc8g","pricing_plan_id":"free"},{"bike_id":"5a32f85e-685b-4d98-9c48-bb38ad61b730","system_id":"levelo_inurba_marseille","lat":43.30194,"lon":5.36612,"is_reserved":false,"is_disabled":false,"rental_uris":{"android":"levelo://app?vid=5a32f85e-685b-4d98-9c48-bb38ad61b730","ios":"levelo://app?vid=5a32f85e-685b-4d98-9c48-bb38ad61b730"},"vehicle_type_id":"4","last_reported":1700510876,"current_range_meters":0,"station_id":"ce4bgrh2rcd13ifvqc8g","pricing_plan_id":"free"},{"bike_id":"e06f0bb7-d029-43af-8c93-2af8a6467c13","system_id":"levelo_inurba_marseille","lat":43.302784,"lon":5.377158,"is_reserved":false,"is_disabled":false,"rental_uris":{"android":"levelo://app?vid=e06f0bb7-d029-43af-8c93-2af8a6467c13","ios":"levelo://app?vid=e06f0bb7-d029-43af-8c93-2af8a6467c13"},"vehicle_type_id":"4","last_reported":1700510876,"current_range_meters":25200,"station_id":"ce4bguh2rcd13ifvqcj0","pricing_plan_id":"free"},{"bike_id":"1c41d00c-0020-44fa-a381-0cae9a595e39","system_id":"levelo_inurba_marseille","lat":43.313571,"lon":5.384829,"is_reserved":false,"is_disabled":false,"rental_uris":{"android":"levelo://app?vid=1c41d00c-0020-44fa-a381-0cae9a595e39","ios":"levelo://app?vid=1c41d00c-0020-44fa-a381-0cae9a595e39"},"vehicle_type_id":"4","last_reported":1700510876,"current_range_meters":8800,"station_id":"ce4bgt92rcd13ifvqcf0","pricing_plan_id":"free"},{"bike_id":"0e3fc419-1b1f-413a-84bc-72f172c7ed46","system_id":"levelo_inurba_marseille","lat":43.313571,"lon":5.384829,"is_reserved":false,"is_disabled":false,"rental_uris":{"android":"levelo://app?vid=0e3fc419-1b1f-413a-84bc-72f172c7ed46","ios":"levelo://app?vid=0e3fc419-1b1f-413a-84bc-72f172c7ed46"},"vehicle_type_id":"4","last_reported":1700510876,"current_range_meters":4400,"station_id":"ce4bgt92rcd13ifvqcf0","pricing_plan_id":"free"},{"bike_id":"428fc46c-ee24-4693-862b-8cc4de2f65dc","system_id":"levelo_inurba_marseille","lat":43.299724,"lon":5.371829,"is_reserved":false,"is_disabled":false,"rental_uris":{"android":"levelo://app?vid=428fc46c-ee24-4693-862b-8cc4de2f65dc","ios":"levelo://app?vid=428fc46c-ee24-4693-862b-8cc4de2f65dc"},"vehicle_type_id":"4","last_reported":1700510876,"current_range_meters":4800,"station_id":"ce4bgr92rcd13ifvqc7g","pricing_plan_id":"free"},{"bike_id":"3698ea04-493c-4e2e-84fe-6fbe5672d404","system_id":"levelo_inurba_marseille","lat":43.299724,"lon":5.371829,"is_reserved":false,"is_disabled":false,"rental_uris":{"android":"levelo://app?vid=3698ea04-493c-4e2e-84fe-6fbe5672d404","ios":"levelo://app?vid=3698ea04-493c-4e2e-84fe-6fbe5672d404"},"vehicle_type_id":"4","last_reported":1700510876,"current_range_meters":14400,"station_id":"ce4bgr92rcd13ifvqc7g","pricing_plan_id":"free"},{"bike_id":"c0c3787c-1b52-4e2f-b341-7a63a88e76db","system_id":"levelo_inurba_marseille","lat":43.299724,"lon":5.371829,"is_reserved":false,"is_disabled":false,"rental_uris":{"android":"levelo://app?vid=c0c3787c-1b52-4e2f-b341-7a63a88e76db","ios":"levelo://app?vid=c0c3787c-1b52-4e2f-b341-7a63a88e76db"},"vehicle_type_id":"4","last_reported":1700510876,"current_range_meters":12800,"station_id":"ce4bgr92rcd13ifvqc7g","pricing_plan_id":"free"},{"bike_id":"4470365c-82e5-423a-a4d4-1bb0773f2a7e","system_id":"levelo_inurba_marseille","lat":43.298433,"lon":5.362774,"is_reserved":false,"is_disabled":false,"rental_uris":{"android":"levelo://app?vid=4470365c-82e5-423a-a4d4-1bb0773f2a7e","ios":"levelo://app?vid=4470365c-82e5-423a-a4d4-1bb0773f2a7e"},"vehicle_type_id":"4","last_reported":1700510876,"current_range_meters":6000,"station_id":"ce4bgpp2rcd13ifvqc3g","pricing_plan_id":"free"},{"bike_id":"8d7a70de-2632-412a-9db4-b923d0d940b3","system_id":"levelo_inurba_marseille","lat":43.298433,"lon":5.362774,"is_reserved":false,"is_disabled":false,"rental_uris":{"android":"levelo://app?vid=8d7a70de-2632-412a-9db4-b923d0d940b3","ios":"levelo://app?vid=8d7a70de-2632-412a-9db4-b923d0d940b3"},"vehicle_type_id":"4","last_reported":1700510876,"current_range_meters":0,"station_id":"ce4bgpp2rcd13ifvqc3g","pricing_plan_id":"free"},{"bike_id":"bc669a6b-6dd7-475b-ab5d-53ecab206603","system_id":"levelo_inurba_marseille","lat":43.311722,"lon":5.387247,"is_reserved":false,"is_disabled":false,"rental_uris":{"android":"levelo://app?vid=bc669a6b-6dd7-475b-ab5d-53ecab206603","ios":"levelo://app?vid=bc669a6b-6dd7-475b-ab5d-53ecab206603"},"vehicle_type_id":"4","last_reported":1700510876,"current_range_meters":11200,"station_id":"ce4bgv12rcd13ifvqcp0","pricing_plan_id":"free"},{"bike_id":"0d303a6d-b0eb-4f6b-86e6-4062168d0eaf","system_id":"levelo_inurba_marseille","lat":43.311722,"lon":5.387247,"is_reserved":false,"is_disabled":false,"rental_uris":{"android":"levelo://app?vid=0d303a6d-b0eb-4f6b-86e6-4062168d0eaf","ios":"levelo://app?vid=0d303a6d-b0eb-4f6b-86e6-4062168d0eaf"},"vehicle_type_id":"4","last_reported":1700510876,"current_range_meters":800,"station_id":"ce4bgv12rcd13ifvqcp0","pricing_plan_id":"free"},{"bike_id":"f08b0271-ae73-492f-9a89-b8d51dfdbf59","system_id":"levelo_inurba_marseille","lat":43.29811,"lon":5.37099,"is_reserved":false,"is_disabled":false,"rental_uris":{"android":"levelo://app?vid=f08b0271-ae73-492f-9a89-b8d51dfdbf59","ios":"levelo://app?vid=f08b0271-ae73-492f-9a89-b8d51dfdbf59"},"vehicle_type_id":"4","last_reported":1700510876,"current_range_meters":18800,"station_id":"ce4bgop2rcd13ifvqc1g","pricing_plan_id":"free"},{"bike_id":"163157fd-493b-4747-9dab-79c0b8fa118e","system_id":"levelo_inurba_marseille","lat":43.322872,"lon":5.382756,"is_reserved":false,"is_disabled":false,"rental_uris":{"android":"levelo://app?vid=163157fd-493b-4747-9dab-79c0b8fa118e","ios":"levelo://app?vid=163157fd-493b-4747-9dab-79c0b8fa118e"},"vehicle_type_id":"4","last_reported":1700510876,"current_range_meters":5200,"station_id":"ce4bhr12rcd13ifvqhqg","pricing_plan_id":"free"},{"bike_id":"95f7a8be-3dc6-4b12-8685-93dc23878d16","system_id":"levelo_inurba_marseille","lat":43.322872,"lon":5.382756,"is_reserved":false,"is_disabled":false,"rental_uris":{"android":"levelo://app?vid=95f7a8be-3dc6-4b12-8685-93dc23878d16","ios":"levelo://app?vid=95f7a8be-3dc6-4b12-8685-93dc23878d16"},"vehicle_type_id":"4","last_reported":1700510876,"current_range_meters":28000,"station_id":"ce4bhr12rcd13ifvqhqg","pricing_plan_id":"free"},{"bike_id":"4877c1bd-6c5b-4748-a29f-20d769f45293","system_id":"levelo_inurba_marseille","lat":43.322872,"lon":5.382756,"is_reserved":false,"is_disabled":false,"rental_uris":{"android":"levelo://app?vid=4877c1bd-6c5b-4748-a29f-20d769f45293","ios":"levelo://app?vid=4877c1bd-6c5b-4748-a29f-20d769f45293"},"vehicle_type_id":"4","last_reported":1700510876,"current_range_meters":7200,"station_id":"ce4bhr12rcd13ifvqhqg","pricing_plan_id":"free"},{"bike_id":"af1d5b43-c1f3-4f49-a6bc-4e530f32c442","system_id":"levelo_inurba_marseille","lat":43.322872,"lon":5.382756,"is_reserved":false,"is_disabled":false,"rental_uris":{"android":"levelo://app?vid=af1d5b43-c1f3-4f49-a6bc-4e530f32c442","ios":"levelo://app?vid=af1d5b43-c1f3-4f49-a6bc-4e530f32c442"},"vehicle_type_id":"4","last_reported":1700510876,"current_range_meters":24400,"station_id":"ce4bhr12rcd13ifvqhqg","pricing_plan_id":"free"},{"bike_id":"89ddf81a-3cac-4431-ae1e-29a70abce71c","system_id":"levelo_inurba_marseille","lat":43.32831,"lon":5.36693,"is_reserved":false,"is_disabled":false,"rental_uris":{"android":"levelo://app?vid=89ddf81a-3cac-4431-ae1e-29a70abce71c","ios":"levelo://app?vid=89ddf81a-3cac-4431-ae1e-29a70abce71c"},"vehicle_type_id":"4","last_reported":1700510876,"current_range_meters":4800,"station_id":"ce4bhs92rcd13ifvqi0g","pricing_plan_id":"free"},{"bike_id":"995986c1-6e15-456c-a41c-7fb4d7786f92","system_id":"levelo_inurba_marseille","lat":43.32831,"lon":5.36686,"is_reserved":false,"is_disabled":false,"rental_uris":{"android":"levelo://app?vid=995986c1-6e15-456c-a41c-7fb4d7786f92","ios":"levelo://app?vid=995986c1-6e15-456c-a41c-7fb4d7786f92"},"vehicle_type_id":"4","last_reported":1700510876,"current_range_meters":6800,"station_id":"ce4bhs92rcd13ifvqi0g","pricing_plan_id":"free"},{"bike_id":"b9018680-58c6-43f9-a48e-e23aca4544e2","system_id":"levelo_inurba_marseille","lat":43.297163,"lon":5.365866,"is_reserved":false,"is_disabled":false,"rental_uris":{"android":"levelo://app?vid=b9018680-58c6-43f9-a48e-e23aca4544e2","ios":"levelo://app?vid=b9018680-58c6-43f9-a48e-e23aca4544e2"},"vehicle_type_id":"4","last_reported":1700510876,"current_range_meters":31200,"station_id":"ce4bgn12rcd13ifvqbt0","pricing_plan_id":"free"},{"bike_id":"a4fc4f1f-b4cb-4447-9650-54a96ed51e29","system_id":"levelo_inurba_marseille","lat":43.32149,"lon":5.38683,"is_reserved":false,"is_disabled":false,"rental_uris":{"android":"levelo://app?vid=a4fc4f1f-b4cb-4447-9650-54a96ed51e29","ios":"levelo://app?vid=a4fc4f1f-b4cb-4447-9650-54a96ed51e29"},"vehicle_type_id":"4","last_reported":1700510876,"current_range_meters":0,"station_id":"","pricing_plan_id":"free"},{"bike_id":"7bc66427-2fce-4f72-afd2-f639dcab6bc3","system_id":"levelo_inurba_marseille","lat":43.29714,"lon":5.377,"is_reserved":false,"is_disabled":false,"rental_uris":{"android":"levelo://app?vid=7bc66427-2fce-4f72-afd2-f639dcab6bc3","ios":"levelo://app?vid=7bc66427-2fce-4f72-afd2-f639dcab6bc3"},"vehicle_type_id":"4","last_reported":1700510876,"current_range_meters":12400,"station_id":"ce4bgkh2rcd13ifvqbl0","pricing_plan_id":"free"},{"bike_id":"f73e4b62-db53-41c8-9427-31b1dc519812","system_id":"levelo_inurba_marseille","lat":43.296935,"lon":5.376544,"is_reserved":false,"is_disabled":false,"rental_uris":{"android":"levelo://app?vid=f73e4b62-db53-41c8-9427-31b1dc519812","ios":"levelo://app?vid=f73e4b62-db53-41c8-9427-31b1dc519812"},"vehicle_type_id":"4","last_reported":1700510876,"current_range_meters":24000,"station_id":"ce4bgkh2rcd13ifvqbl0","pricing_plan_id":"free"},{"bike_id":"40703649-84db-4836-b1cb-1ac7fa6c53bd","system_id":"levelo_inurba_marseille","lat":43.317557,"lon":5.390173,"is_reserved":false,"is_disabled":false,"rental_uris":{"android":"levelo://app?vid=40703649-84db-4836-b1cb-1ac7fa6c53bd","ios":"levelo://app?vid=40703649-84db-4836-b1cb-1ac7fa6c53bd"},"vehicle_type_id":"4","last_reported":1700510876,"current_range_meters":8000,"station_id":"ce4bhqp2rcd13ifvqhng","pricing_plan_id":"free"},{"bike_id":"c8c6a0ef-27bd-47a1-9708-6361c9c4e009","system_id":"levelo_inurba_marseille","lat":43.317557,"lon":5.390173,"is_reserved":false,"is_disabled":false,"rental_uris":{"android":"levelo://app?vid=c8c6a0ef-27bd-47a1-9708-6361c9c4e009","ios":"levelo://app?vid=c8c6a0ef-27bd-47a1-9708-6361c9c4e009"},"vehicle_type_id":"4","last_reported":1700510876,"current_range_meters":0,"station_id":"ce4bhqp2rcd13ifvqhng","pricing_plan_id":"free"},{"bike_id":"59e6e6d3-fe45-46d6-a0b6-acc54a14158a","system_id":"levelo_inurba_marseille","lat":43.314618,"lon":5.391138,"is_reserved":false,"is_disabled":false,"rental_uris":{"android":"levelo://app?vid=59e6e6d3-fe45-46d6-a0b6-acc54a14158a","ios":"levelo://app?vid=59e6e6d3-fe45-46d6-a0b6-acc54a14158a"},"vehicle_type_id":"4","last_reported":1700510876,"current_range_meters":14000,"station_id":"","pricing_plan_id":"free"},{"bike_id":"67ffd28a-0325-489b-a10f-d90500122751","system_id":"levelo_inurba_marseille","lat":43.295748,"lon":5.37522,"is_reserved":false,"is_disabled":false,"rental_uris":{"android":"levelo://app?vid=67ffd28a-0325-489b-a10f-d90500122751","ios":"levelo://app?vid=67ffd28a-0325-489b-a10f-d90500122751"},"vehicle_type_id":"4","last_reported":1700510876,"current_range_meters":31200,"station_id":"ce4bgh92rcd13ifvqb50","pricing_plan_id":"free"},{"bike_id":"d2cd79f3-2c03-4600-98d4-4412906c31c3","system_id":"levelo_inurba_marseille","lat":43.304278,"lon":5.388868,"is_reserved":false,"is_disabled":false,"rental_uris":{"android":"levelo://app?vid=d2cd79f3-2c03-4600-98d4-4412906c31c3","ios":"levelo://app?vid=d2cd79f3-2c03-4600-98d4-4412906c31c3"},"vehicle_type_id":"4","last_reported":1700510876,"current_range_meters":9200,"station_id":"ce4bgk12rcd13ifvqbi0","pricing_plan_id":"free"},{"bike_id":"dfd3e97c-f9a2-492d-9d7e-79b39865a3be","system_id":"levelo_inurba_marseille","lat":43.295748,"lon":5.37522,"is_reserved":false,"is_disabled":false,"rental_uris":{"android":"levelo://app?vid=dfd3e97c-f9a2-492d-9d7e-79b39865a3be","ios":"levelo://app?vid=dfd3e97c-f9a2-492d-9d7e-79b39865a3be"},"vehicle_type_id":"4","last_reported":1700510876,"current_range_meters":5600,"station_id":"ce4bgh92rcd13ifvqb50","pricing_plan_id":"free"},{"bike_id":"6c60dfc3-1d78-42d5-8746-07c7006aef51","system_id":"levelo_inurba_marseille","lat":43.296263,"lon":5.377094,"is_reserved":false,"is_disabled":false,"rental_uris":{"android":"levelo://app?vid=6c60dfc3-1d78-42d5-8746-07c7006aef51","ios":"levelo://app?vid=6c60dfc3-1d78-42d5-8746-07c7006aef51"},"vehicle_type_id":"4","last_reported":1700510876,"current_range_meters":16800,"station_id":"ce4bgi92rcd13ifvqb90","pricing_plan_id":"free"},{"bike_id":"3e3e92fe-39b7-4933-99ff-3747b28b5d69","system_id":"levelo_inurba_marseille","lat":43.328154,"lon":5.380034,"is_reserved":false,"is_disabled":false,"rental_uris":{"android":"levelo://app?vid=3e3e92fe-39b7-4933-99ff-3747b28b5d69","ios":"levelo://app?vid=3e3e92fe-39b7-4933-99ff-3747b28b5d69"},"vehicle_type_id":"4","last_reported":1700510876,"current_range_meters":1200,"station_id":"","pricing_plan_id":"free"},{"bike_id":"81052406-a800-4306-8251-fb1aa6bcf187","system_id":"levelo_inurba_marseille","lat":43.304278,"lon":5.388868,"is_reserved":false,"is_disabled":false,"rental_uris":{"android":"levelo://app?vid=81052406-a800-4306-8251-fb1aa6bcf187","ios":"levelo://app?vid=81052406-a800-4306-8251-fb1aa6bcf187"},"vehicle_type_id":"4","last_reported":1700510876,"current_range_meters":3200,"station_id":"ce4bgk12rcd13ifvqbi0","pricing_plan_id":"free"},{"bike_id":"9030a6b7-5308-4b59-844e-3cceeae84e8f","system_id":"levelo_inurba_marseille","lat":43.296263,"lon":5.377094,"is_reserved":false,"is_disabled":false,"rental_uris":{"android":"levelo://app?vid=9030a6b7-5308-4b59-844e-3cceeae84e8f","ios":"levelo://app?vid=9030a6b7-5308-4b59-844e-3cceeae84e8f"},"vehicle_type_id":"4","last_reported":1700510876,"current_range_meters":5600,"station_id":"ce4bgi92rcd13ifvqb90","pricing_plan_id":"free"},{"bike_id":"a091ef21-7434-4308-96d7-78321920700a","system_id":"levelo_inurba_marseille","lat":43.311722,"lon":5.387247,"is_reserved":false,"is_disabled":false,"rental_uris":{"android":"levelo://app?vid=a091ef21-7434-4308-96d7-78321920700a","ios":"levelo://app?vid=a091ef21-7434-4308-96d7-78321920700a"},"vehicle_type_id":"4","last_reported":1700510876,"current_range_meters":7200,"station_id":"ce4bgv12rcd13ifvqcp0","pricing_plan_id":"free"},{"bike_id":"e145a3f7-00ac-4f8f-bfe5-435bc38ccaf7","system_id":"levelo_inurba_marseille","lat":43.293801,"lon":5.363066,"is_reserved":false,"is_disabled":false,"rental_uris":{"android":"levelo://app?vid=e145a3f7-00ac-4f8f-bfe5-435bc38ccaf7","ios":"levelo://app?vid=e145a3f7-00ac-4f8f-bfe5-435bc38ccaf7"},"vehicle_type_id":"4","last_reported":1700510876,"current_range_meters":18800,"station_id":"","pricing_plan_id":"free"},{"bike_id":"6b2b7a07-e129-44bc-97c2-4948a203b3d7","system_id":"levelo_inurba_marseille","lat":43.32367,"lon":5.388836,"is_reserved":false,"is_disabled":false,"rental_uris":{"android":"levelo://app?vid=6b2b7a07-e129-44bc-97c2-4948a203b3d7","ios":"levelo://app?vid=6b2b7a07-e129-44bc-97c2-4948a203b3d7"},"vehicle_type_id":"4","last_reported":1700510876,"current_range_meters":3200,"station_id":"ce4bhqp2rcd13ifvqhog","pricing_plan_id":"free"},{"bike_id":"457267b3-9390-4309-8307-42319d1e300c","system_id":"levelo_inurba_marseille","lat":43.32363,"lon":5.38891,"is_reserved":false,"is_disabled":false,"rental_uris":{"android":"levelo://app?vid=457267b3-9390-4309-8307-42319d1e300c","ios":"levelo://app?vid=457267b3-9390-4309-8307-42319d1e300c"},"vehicle_type_id":"4","last_reported":1700510876,"current_range_meters":18800,"station_id":"ce4bhqp2rcd13ifvqhog","pricing_plan_id":"free"},{"bike_id":"3cb8c185-c31b-4eef-a7c6-7f786fc47019","system_id":"levelo_inurba_marseille","lat":43.32363,"lon":5.38894,"is_reserved":false,"is_disabled":false,"rental_uris":{"android":"levelo://app?vid=3cb8c185-c31b-4eef-a7c6-7f786fc47019","ios":"levelo://app?vid=3cb8c185-c31b-4eef-a7c6-7f786fc47019"},"vehicle_type_id":"4","last_reported":1700510876,"current_range_meters":10000,"station_id":"ce4bhqp2rcd13ifvqhog","pricing_plan_id":"free"},{"bike_id":"d88069d9-2bca-4d23-b465-881ad0d94c4d","system_id":"levelo_inurba_marseille","lat":43.29601,"lon":5.381084,"is_reserved":false,"is_disabled":false,"rental_uris":{"android":"levelo://app?vid=d88069d9-2bca-4d23-b465-881ad0d94c4d","ios":"levelo://app?vid=d88069d9-2bca-4d23-b465-881ad0d94c4d"},"vehicle_type_id":"4","last_reported":1700510876,"current_range_meters":2400,"station_id":"ce4bgl12rcd13ifvqbo0","pricing_plan_id":"free"},{"bike_id":"04c62577-f6f4-42bf-a2cb-49840fad24d9","system_id":"levelo_inurba_marseille","lat":43.330543,"lon":5.378928,"is_reserved":false,"is_disabled":false,"rental_uris":{"android":"levelo://app?vid=04c62577-f6f4-42bf-a2cb-49840fad24d9","ios":"levelo://app?vid=04c62577-f6f4-42bf-a2cb-49840fad24d9"},"vehicle_type_id":"4","last_reported":1700510876,"current_range_meters":4800,"station_id":"","pricing_plan_id":"free"},{"bike_id":"02cdcacf-2fc6-4a2a-87e1-f5e4b88181b2","system_id":"levelo_inurba_marseille","lat":43.293259,"lon":5.371586,"is_reserved":false,"is_disabled":false,"rental_uris":{"android":"levelo://app?vid=02cdcacf-2fc6-4a2a-87e1-f5e4b88181b2","ios":"levelo://app?vid=02cdcacf-2fc6-4a2a-87e1-f5e4b88181b2"},"vehicle_type_id":"4","last_reported":1700510876,"current_range_meters":31600,"station_id":"ce4bgh92rcd13ifvqb40","pricing_plan_id":"free"},{"bike_id":"a700e2f9-2276-4771-bf63-878feb37cd3d","system_id":"levelo_inurba_marseille","lat":43.293009,"lon":5.374584,"is_reserved":false,"is_disabled":false,"rental_uris":{"android":"levelo://app?vid=a700e2f9-2276-4771-bf63-878feb37cd3d","ios":"levelo://app?vid=a700e2f9-2276-4771-bf63-878feb37cd3d"},"vehicle_type_id":"4","last_reported":1700510876,"current_range_meters":28400,"station_id":"ce4bgi12rcd13ifvqb70","pricing_plan_id":"free"},{"bike_id":"6f4b630e-793e-4cb8-81ef-34b1cd0b5ef9","system_id":"levelo_inurba_marseille","lat":43.306263,"lon":5.393727,"is_reserved":false,"is_disabled":false,"rental_uris":{"android":"levelo://app?vid=6f4b630e-793e-4cb8-81ef-34b1cd0b5ef9","ios":"levelo://app?vid=6f4b630e-793e-4cb8-81ef-34b1cd0b5ef9"},"vehicle_type_id":"4","last_reported":1700510876,"current_range_meters":26000,"station_id":"","pricing_plan_id":"free"},{"bike_id":"a6875165-580d-40f9-8f48-8a12b8ea87ad","system_id":"levelo_inurba_marseille","lat":43.302992,"lon":5.392136,"is_reserved":false,"is_disabled":false,"rental_uris":{"android":"levelo://app?vid=a6875165-580d-40f9-8f48-8a12b8ea87ad","ios":"levelo://app?vid=a6875165-580d-40f9-8f48-8a12b8ea87ad"},"vehicle_type_id":"4","last_reported":1700510876,"current_range_meters":800,"station_id":"ce4bgkh2rcd13ifvqbk0","pricing_plan_id":"free"},{"bike_id":"19e8c808-b6fb-4bc6-9049-6915847115dd","system_id":"levelo_inurba_marseille","lat":43.292311,"lon":5.360731,"is_reserved":false,"is_disabled":false,"rental_uris":{"android":"levelo://app?vid=19e8c808-b6fb-4bc6-9049-6915847115dd","ios":"levelo://app?vid=19e8c808-b6fb-4bc6-9049-6915847115dd"},"vehicle_type_id":"4","last_reported":1700510876,"current_range_meters":2400,"station_id":"ce4bhbh2rcd13ifvqeqg","pricing_plan_id":"free"},{"bike_id":"067f2884-1843-4dad-a3cf-d1b9315badc1","system_id":"levelo_inurba_marseille","lat":43.291649,"lon":5.371473,"is_reserved":false,"is_disabled":false,"rental_uris":{"android":"levelo://app?vid=067f2884-1843-4dad-a3cf-d1b9315badc1","ios":"levelo://app?vid=067f2884-1843-4dad-a3cf-d1b9315badc1"},"vehicle_type_id":"4","last_reported":1700510876,"current_range_meters":0,"station_id":"ce4bha92rcd13ifvqeh0","pricing_plan_id":"free"},{"bike_id":"f4d9ba90-4234-47b6-987a-11052c8f491b","system_id":"levelo_inurba_marseille","lat":43.292,"lon":5.358,"is_reserved":false,"is_disabled":false,"rental_uris":{"android":"levelo://app?vid=f4d9ba90-4234-47b6-987a-11052c8f491b","ios":"levelo://app?vid=f4d9ba90-4234-47b6-987a-11052c8f491b"},"vehicle_type_id":"4","last_reported":1700510876,"current_range_meters":5200,"station_id":"ce4bhb12rcd13ifvqel0","pricing_plan_id":"free"},{"bike_id":"3c3b8a77-f77d-4deb-9aa4-869565c72625","system_id":"levelo_inurba_marseille","lat":43.309038,"lon":5.396546,"is_reserved":false,"is_disabled":false,"rental_uris":{"android":"levelo://app?vid=3c3b8a77-f77d-4deb-9aa4-869565c72625","ios":"levelo://app?vid=3c3b8a77-f77d-4deb-9aa4-869565c72625"},"vehicle_type_id":"4","last_reported":1700510876,"current_range_meters":11200,"station_id":"ce4bh012rcd13ifvqcv0","pricing_plan_id":"free"},{"bike_id":"9b46873c-e533-4268-b014-b118103df12d","system_id":"levelo_inurba_marseille","lat":43.313276,"lon":5.396876,"is_reserved":false,"is_disabled":false,"rental_uris":{"android":"levelo://app?vid=9b46873c-e533-4268-b014-b118103df12d","ios":"levelo://app?vid=9b46873c-e533-4268-b014-b118103df12d"},"vehicle_type_id":"4","last_reported":1700510876,"current_range_meters":10800,"station_id":"","pricing_plan_id":"free"},{"bike_id":"78727411-dbed-47b1-ba11-24257a8076b0","system_id":"levelo_inurba_marseille","lat":43.313291,"lon":5.396838,"is_reserved":false,"is_disabled":false,"rental_uris":{"android":"levelo://app?vid=78727411-dbed-47b1-ba11-24257a8076b0","ios":"levelo://app?vid=78727411-dbed-47b1-ba11-24257a8076b0"},"vehicle_type_id":"4","last_reported":1700510876,"current_range_meters":0,"station_id":"ce4bgvp2rcd13ifvqcu0","pricing_plan_id":"free"},{"bike_id":"b3b94c7a-1e70-46f1-9014-b0093c17c8e9","system_id":"levelo_inurba_marseille","lat":43.313293,"lon":5.39688,"is_reserved":false,"is_disabled":false,"rental_uris":{"android":"levelo://app?vid=b3b94c7a-1e70-46f1-9014-b0093c17c8e9","ios":"levelo://app?vid=b3b94c7a-1e70-46f1-9014-b0093c17c8e9"},"vehicle_type_id":"4","last_reported":1700510876,"current_range_meters":0,"station_id":"ce4bgvp2rcd13ifvqcu0","pricing_plan_id":"free"},{"bike_id":"57b3a308-ada7-4381-8f83-941c6ce0a062","system_id":"levelo_inurba_marseille","lat":43.31332,"lon":5.39691,"is_reserved":false,"is_disabled":false,"rental_uris":{"android":"levelo://app?vid=57b3a308-ada7-4381-8f83-941c6ce0a062","ios":"levelo://app?vid=57b3a308-ada7-4381-8f83-941c6ce0a062"},"vehicle_type_id":"4","last_reported":1700510876,"current_range_meters":14400,"station_id":"ce4bgvp2rcd13ifvqcu0","pricing_plan_id":"free"},{"bike_id":"207bf48a-8d17-4c37-ba4d-03768cf570cc","system_id":"levelo_inurba_marseille","lat":43.309047,"lon":5.396551,"is_reserved":false,"is_disabled":false,"rental_uris":{"android":"levelo://app?vid=207bf48a-8d17-4c37-ba4d-03768cf570cc","ios":"levelo://app?vid=207bf48a-8d17-4c37-ba4d-03768cf570cc"},"vehicle_type_id":"4","last_reported":1700510876,"current_range_meters":17600,"station_id":"ce4bh012rcd13ifvqcv0","pricing_plan_id":"free"},{"bike_id":"ce051eff-165d-4f75-b778-1c0df5f35b40","system_id":"levelo_inurba_marseille","lat":43.313278,"lon":5.396959,"is_reserved":false,"is_disabled":false,"rental_uris":{"android":"levelo://app?vid=ce051eff-165d-4f75-b778-1c0df5f35b40","ios":"levelo://app?vid=ce051eff-165d-4f75-b778-1c0df5f35b40"},"vehicle_type_id":"4","last_reported":1700510876,"current_range_meters":16400,"station_id":"ce4bgvp2rcd13ifvqcu0","pricing_plan_id":"free"},{"bike_id":"5e2df123-d933-4169-a934-01acce82c9f3","system_id":"levelo_inurba_marseille","lat":43.313291,"lon":5.396838,"is_reserved":false,"is_disabled":false,"rental_uris":{"android":"levelo://app?vid=5e2df123-d933-4169-a934-01acce82c9f3","ios":"levelo://app?vid=5e2df123-d933-4169-a934-01acce82c9f3"},"vehicle_type_id":"4","last_reported":1700510876,"current_range_meters":22800,"station_id":"ce4bgvp2rcd13ifvqcu0","pricing_plan_id":"free"},{"bike_id":"98aa03dc-e2da-495e-8e32-de58a61e91d2","system_id":"levelo_inurba_marseille","lat":43.31327,"lon":5.39698,"is_reserved":false,"is_disabled":false,"rental_uris":{"android":"levelo://app?vid=98aa03dc-e2da-495e-8e32-de58a61e91d2","ios":"levelo://app?vid=98aa03dc-e2da-495e-8e32-de58a61e91d2"},"vehicle_type_id":"4","last_reported":1700510876,"current_range_meters":28400,"station_id":"ce4bgvp2rcd13ifvqcu0","pricing_plan_id":"free"},{"bike_id":"9efc6cfe-ba86-4c0e-9109-65e2a434ce4f","system_id":"levelo_inurba_marseille","lat":43.309047,"lon":5.396551,"is_reserved":false,"is_disabled":false,"rental_uris":{"android":"levelo://app?vid=9efc6cfe-ba86-4c0e-9109-65e2a434ce4f","ios":"levelo://app?vid=9efc6cfe-ba86-4c0e-9109-65e2a434ce4f"},"vehicle_type_id":"4","last_reported":1700510876,"current_range_meters":31600,"station_id":"ce4bh012rcd13ifvqcv0","pricing_plan_id":"free"},{"bike_id":"bb6b3fd7-9f96-416d-8842-846900f3401b","system_id":"levelo_inurba_marseille","lat":43.29529,"lon":5.385581,"is_reserved":false,"is_disabled":false,"rental_uris":{"android":"levelo://app?vid=bb6b3fd7-9f96-416d-8842-846900f3401b","ios":"levelo://app?vid=bb6b3fd7-9f96-416d-8842-846900f3401b"},"vehicle_type_id":"4","last_reported":1700510876,"current_range_meters":20400,"station_id":"ce4bgih2rcd13ifvqba0","pricing_plan_id":"free"},{"bike_id":"bc66c312-4885-4e17-9fca-091e8861da7c","system_id":"levelo_inurba_marseille","lat":43.309047,"lon":5.396551,"is_reserved":false,"is_disabled":false,"rental_uris":{"android":"levelo://app?vid=bc66c312-4885-4e17-9fca-091e8861da7c","ios":"levelo://app?vid=bc66c312-4885-4e17-9fca-091e8861da7c"},"vehicle_type_id":"4","last_reported":1700510876,"current_range_meters":7600,"station_id":"ce4bh012rcd13ifvqcv0","pricing_plan_id":"free"},{"bike_id":"568a7e8c-0cfc-470f-ba53-d124433b6f66","system_id":"levelo_inurba_marseille","lat":43.29529,"lon":5.385581,"is_reserved":false,"is_disabled":false,"rental_uris":{"android":"levelo://app?vid=568a7e8c-0cfc-470f-ba53-d124433b6f66","ios":"levelo://app?vid=568a7e8c-0cfc-470f-ba53-d124433b6f66"},"vehicle_type_id":"4","last_reported":1700510876,"current_range_meters":2400,"station_id":"ce4bgih2rcd13ifvqba0","pricing_plan_id":"free"},{"bike_id":"70a19f7f-7ffb-4385-8431-357e74c0e498","system_id":"levelo_inurba_marseille","lat":43.290779,"lon":5.371482,"is_reserved":false,"is_disabled":false,"rental_uris":{"android":"levelo://app?vid=70a19f7f-7ffb-4385-8431-357e74c0e498","ios":"levelo://app?vid=70a19f7f-7ffb-4385-8431-357e74c0e498"},"vehicle_type_id":"4","last_reported":1700510876,"current_range_meters":25600,"station_id":"ce4bh5p2rcd13ifvqe4g","pricing_plan_id":"free"},{"bike_id":"eb006d20-b5c9-49f9-aeb4-8a9d13762dd5","system_id":"levelo_inurba_marseille","lat":43.28951,"lon":5.36407,"is_reserved":false,"is_disabled":false,"rental_uris":{"android":"levelo://app?vid=eb006d20-b5c9-49f9-aeb4-8a9d13762dd5","ios":"levelo://app?vid=eb006d20-b5c9-49f9-aeb4-8a9d13762dd5"},"vehicle_type_id":"4","last_reported":1700510876,"current_range_meters":800,"station_id":"","pricing_plan_id":"free"},{"bike_id":"85787ba3-b335-4609-a9e5-d84649a4d3a0","system_id":"levelo_inurba_marseille","lat":43.29023,"lon":5.37565,"is_reserved":false,"is_disabled":false,"rental_uris":{"android":"levelo://app?vid=85787ba3-b335-4609-a9e5-d84649a4d3a0","ios":"levelo://app?vid=85787ba3-b335-4609-a9e5-d84649a4d3a0"},"vehicle_type_id":"4","last_reported":1700510876,"current_range_meters":6800,"station_id":"ce4bh692rcd13ifvqe90","pricing_plan_id":"free"},{"bike_id":"8459b507-e97b-4ba6-bc7c-8127c2e0db8a","system_id":"levelo_inurba_marseille","lat":43.289468,"lon":5.363719,"is_reserved":false,"is_disabled":false,"rental_uris":{"android":"levelo://app?vid=8459b507-e97b-4ba6-bc7c-8127c2e0db8a","ios":"levelo://app?vid=8459b507-e97b-4ba6-bc7c-8127c2e0db8a"},"vehicle_type_id":"4","last_reported":1700510876,"current_range_meters":3200,"station_id":"ce4bhc92rcd13ifvqetg","pricing_plan_id":"free"},{"bike_id":"db0bfc97-e02e-4d4e-8916-ca7243959049","system_id":"levelo_inurba_marseille","lat":43.290631,"lon":5.359244,"is_reserved":false,"is_disabled":false,"rental_uris":{"android":"levelo://app?vid=db0bfc97-e02e-4d4e-8916-ca7243959049","ios":"levelo://app?vid=db0bfc97-e02e-4d4e-8916-ca7243959049"},"vehicle_type_id":"4","last_reported":1700510876,"current_range_meters":31200,"station_id":"ce4bha92rcd13ifvqeg0","pricing_plan_id":"free"},{"bike_id":"132aba4c-5ae8-40e1-8742-2e82508abc6e","system_id":"levelo_inurba_marseille","lat":43.28926,"lon":5.3639,"is_reserved":false,"is_disabled":false,"rental_uris":{"android":"levelo://app?vid=132aba4c-5ae8-40e1-8742-2e82508abc6e","ios":"levelo://app?vid=132aba4c-5ae8-40e1-8742-2e82508abc6e"},"vehicle_type_id":"4","last_reported":1700510876,"current_range_meters":28400,"station_id":"ce4bhc92rcd13ifvqetg","pricing_plan_id":"free"},{"bike_id":"e776d9e7-9107-4e7e-b73c-5eb8768a3314","system_id":"levelo_inurba_marseille","lat":43.292642,"lon":5.384254,"is_reserved":false,"is_disabled":false,"rental_uris":{"android":"levelo://app?vid=e776d9e7-9107-4e7e-b73c-5eb8768a3314","ios":"levelo://app?vid=e776d9e7-9107-4e7e-b73c-5eb8768a3314"},"vehicle_type_id":"4","last_reported":1700510876,"current_range_meters":3200,"station_id":"ce4bh692rcd13ifvqea0","pricing_plan_id":"free"},{"bike_id":"31bae75e-1269-418a-8c83-b2397cf40272","system_id":"levelo_inurba_marseille","lat":43.292642,"lon":5.384254,"is_reserved":false,"is_disabled":false,"rental_uris":{"android":"levelo://app?vid=31bae75e-1269-418a-8c83-b2397cf40272","ios":"levelo://app?vid=31bae75e-1269-418a-8c83-b2397cf40272"},"vehicle_type_id":"4","last_reported":1700510876,"current_range_meters":22800,"station_id":"ce4bh692rcd13ifvqea0","pricing_plan_id":"free"},{"bike_id":"6c3f86c9-9c97-4389-947e-4acabddb9d98","system_id":"levelo_inurba_marseille","lat":43.33041,"lon":5.38921,"is_reserved":false,"is_disabled":false,"rental_uris":{"android":"levelo://app?vid=6c3f86c9-9c97-4389-947e-4acabddb9d98","ios":"levelo://app?vid=6c3f86c9-9c97-4389-947e-4acabddb9d98"},"vehicle_type_id":"4","last_reported":1700510876,"current_range_meters":22000,"station_id":"ce4bhr92rcd13ifvqhrg","pricing_plan_id":"free"},{"bike_id":"58180374-f06e-4b90-834d-fae491697cd0","system_id":"levelo_inurba_marseille","lat":43.33045,"lon":5.38916,"is_reserved":false,"is_disabled":false,"rental_uris":{"android":"levelo://app?vid=58180374-f06e-4b90-834d-fae491697cd0","ios":"levelo://app?vid=58180374-f06e-4b90-834d-fae491697cd0"},"vehicle_type_id":"4","last_reported":1700510876,"current_range_meters":400,"station_id":"ce4bhr92rcd13ifvqhrg","pricing_plan_id":"free"},{"bike_id":"b04804cf-5e01-4a00-a221-33ce71eafa30","system_id":"levelo_inurba_marseille","lat":43.330442,"lon":5.389148,"is_reserved":false,"is_disabled":false,"rental_uris":{"android":"levelo://app?vid=b04804cf-5e01-4a00-a221-33ce71eafa30","ios":"levelo://app?vid=b04804cf-5e01-4a00-a221-33ce71eafa30"},"vehicle_type_id":"4","last_reported":1700510876,"current_range_meters":12400,"station_id":"ce4bhr92rcd13ifvqhrg","pricing_plan_id":"free"},{"bike_id":"25f2f82c-eb04-4b79-ba19-5ef0e6134874","system_id":"levelo_inurba_marseille","lat":43.330442,"lon":5.389148,"is_reserved":false,"is_disabled":false,"rental_uris":{"android":"levelo://app?vid=25f2f82c-eb04-4b79-ba19-5ef0e6134874","ios":"levelo://app?vid=25f2f82c-eb04-4b79-ba19-5ef0e6134874"},"vehicle_type_id":"4","last_reported":1700510876,"current_range_meters":22000,"station_id":"ce4bhr92rcd13ifvqhrg","pricing_plan_id":"free"},{"bike_id":"24edf582-9678-43b9-bdef-467d8cbf50aa","system_id":"levelo_inurba_marseille","lat":43.298025,"lon":5.393424,"is_reserved":false,"is_disabled":false,"rental_uris":{"android":"levelo://app?vid=24edf582-9678-43b9-bdef-467d8cbf50aa","ios":"levelo://app?vid=24edf582-9678-43b9-bdef-467d8cbf50aa"},"vehicle_type_id":"4","last_reported":1700510876,"current_range_meters":16000,"station_id":"","pricing_plan_id":"free"},{"bike_id":"572d481d-1fc6-4803-a81c-2f8055fb8a73","system_id":"levelo_inurba_marseille","lat":43.29788,"lon":5.39339,"is_reserved":false,"is_disabled":false,"rental_uris":{"android":"levelo://app?vid=572d481d-1fc6-4803-a81c-2f8055fb8a73","ios":"levelo://app?vid=572d481d-1fc6-4803-a81c-2f8055fb8a73"},"vehicle_type_id":"4","last_reported":1700510876,"current_range_meters":18400,"station_id":"chh1huq6cuj3fo74tm60","pricing_plan_id":"free"},{"bike_id":"3a4e4fd7-d2ec-407c-b8e7-f0ba8faa1325","system_id":"levelo_inurba_marseille","lat":43.29779,"lon":5.39352,"is_reserved":false,"is_disabled":false,"rental_uris":{"android":"levelo://app?vid=3a4e4fd7-d2ec-407c-b8e7-f0ba8faa1325","ios":"levelo://app?vid=3a4e4fd7-d2ec-407c-b8e7-f0ba8faa1325"},"vehicle_type_id":"4","last_reported":1700510876,"current_range_meters":21600,"station_id":"chh1huq6cuj3fo74tm60","pricing_plan_id":"free"},{"bike_id":"07202f70-50d7-46f0-a5bd-59712659d6a0","system_id":"levelo_inurba_marseille","lat":43.31251,"lon":5.40162,"is_reserved":false,"is_disabled":false,"rental_uris":{"android":"levelo://app?vid=07202f70-50d7-46f0-a5bd-59712659d6a0","ios":"levelo://app?vid=07202f70-50d7-46f0-a5bd-59712659d6a0"},"vehicle_type_id":"4","last_reported":1700510876,"current_range_meters":6000,"station_id":"","pricing_plan_id":"free"},{"bike_id":"6a01914c-8698-4f48-b494-37501834332a","system_id":"levelo_inurba_marseille","lat":43.312609,"lon":5.401662,"is_reserved":false,"is_disabled":false,"rental_uris":{"android":"levelo://app?vid=6a01914c-8698-4f48-b494-37501834332a","ios":"levelo://app?vid=6a01914c-8698-4f48-b494-37501834332a"},"vehicle_type_id":"4","last_reported":1700510876,"current_range_meters":4800,"station_id":"ce4bh092rcd13ifvqd30","pricing_plan_id":"free"},{"bike_id":"9d76eca6-e85e-49d7-809a-4e0ac58db9fa","system_id":"levelo_inurba_marseille","lat":43.312823,"lon":5.401732,"is_reserved":false,"is_disabled":false,"rental_uris":{"android":"levelo://app?vid=9d76eca6-e85e-49d7-809a-4e0ac58db9fa","ios":"levelo://app?vid=9d76eca6-e85e-49d7-809a-4e0ac58db9fa"},"vehicle_type_id":"4","last_reported":1700510876,"current_range_meters":30400,"station_id":"ce4bh092rcd13ifvqd30","pricing_plan_id":"free"},{"bike_id":"d5007cd5-ae02-43a7-8284-60107adb6236","system_id":"levelo_inurba_marseille","lat":43.33747,"lon":5.37459,"is_reserved":false,"is_disabled":false,"rental_uris":{"android":"levelo://app?vid=d5007cd5-ae02-43a7-8284-60107adb6236","ios":"levelo://app?vid=d5007cd5-ae02-43a7-8284-60107adb6236"},"vehicle_type_id":"4","last_reported":1700510876,"current_range_meters":24400,"station_id":"","pricing_plan_id":"free"},{"bike_id":"32c3052d-6284-4959-86ad-ab46f267ce26","system_id":"levelo_inurba_marseille","lat":43.33746,"lon":5.37466,"is_reserved":false,"is_disabled":false,"rental_uris":{"android":"levelo://app?vid=32c3052d-6284-4959-86ad-ab46f267ce26","ios":"levelo://app?vid=32c3052d-6284-4959-86ad-ab46f267ce26"},"vehicle_type_id":"4","last_reported":1700510876,"current_range_meters":23600,"station_id":"","pricing_plan_id":"free"},{"bike_id":"8b886d5e-a5b7-4885-93a9-86b8fb60103f","system_id":"levelo_inurba_marseille","lat":43.33753,"lon":5.37455,"is_reserved":false,"is_disabled":false,"rental_uris":{"android":"levelo://app?vid=8b886d5e-a5b7-4885-93a9-86b8fb60103f","ios":"levelo://app?vid=8b886d5e-a5b7-4885-93a9-86b8fb60103f"},"vehicle_type_id":"4","last_reported":1700510876,"current_range_meters":20800,"station_id":"","pricing_plan_id":"free"},{"bike_id":"84b9d05f-3d7e-4742-8deb-25bbb4b79fa5","system_id":"levelo_inurba_marseille","lat":43.30642,"lon":5.401031,"is_reserved":false,"is_disabled":false,"rental_uris":{"android":"levelo://app?vid=84b9d05f-3d7e-4742-8deb-25bbb4b79fa5","ios":"levelo://app?vid=84b9d05f-3d7e-4742-8deb-25bbb4b79fa5"},"vehicle_type_id":"4","last_reported":1700510876,"current_range_meters":9200,"station_id":"ce4bh112rcd13ifvqda0","pricing_plan_id":"free"},{"bike_id":"7d1b648a-c616-4e16-9ce5-054be0c1527d","system_id":"levelo_inurba_marseille","lat":43.33758,"lon":5.37493,"is_reserved":false,"is_disabled":false,"rental_uris":{"android":"levelo://app?vid=7d1b648a-c616-4e16-9ce5-054be0c1527d","ios":"levelo://app?vid=7d1b648a-c616-4e16-9ce5-054be0c1527d"},"vehicle_type_id":"4","last_reported":1700510876,"current_range_meters":29600,"station_id":"","pricing_plan_id":"free"},{"bike_id":"c48f6377-84c7-42e1-b2f0-d899bdcf3dd0","system_id":"levelo_inurba_marseille","lat":43.30642,"lon":5.401031,"is_reserved":false,"is_disabled":false,"rental_uris":{"android":"levelo://app?vid=c48f6377-84c7-42e1-b2f0-d899bdcf3dd0","ios":"levelo://app?vid=c48f6377-84c7-42e1-b2f0-d899bdcf3dd0"},"vehicle_type_id":"4","last_reported":1700510876,"current_range_meters":11600,"station_id":"ce4bh112rcd13ifvqda0","pricing_plan_id":"free"},{"bike_id":"1d8efbac-cdba-42e5-bd33-18d5b1532753","system_id":"levelo_inurba_marseille","lat":43.33776,"lon":5.37439,"is_reserved":false,"is_disabled":false,"rental_uris":{"android":"levelo://app?vid=1d8efbac-cdba-42e5-bd33-18d5b1532753","ios":"levelo://app?vid=1d8efbac-cdba-42e5-bd33-18d5b1532753"},"vehicle_type_id":"4","last_reported":1700510876,"current_range_meters":22800,"station_id":"","pricing_plan_id":"free"},{"bike_id":"2400a2d1-1f01-4fc5-8c2b-199596767b2d","system_id":"levelo_inurba_marseille","lat":43.28727,"lon":5.36078,"is_reserved":false,"is_disabled":false,"rental_uris":{"android":"levelo://app?vid=2400a2d1-1f01-4fc5-8c2b-199596767b2d","ios":"levelo://app?vid=2400a2d1-1f01-4fc5-8c2b-199596767b2d"},"vehicle_type_id":"4","last_reported":1700510876,"current_range_meters":28000,"station_id":"cki0cbj6b192h4jlfktg","pricing_plan_id":"free"},{"bike_id":"fbbfb7de-c6f3-442e-b997-562ae2d572be","system_id":"levelo_inurba_marseille","lat":43.28727,"lon":5.36078,"is_reserved":false,"is_disabled":false,"rental_uris":{"android":"levelo://app?vid=fbbfb7de-c6f3-442e-b997-562ae2d572be","ios":"levelo://app?vid=fbbfb7de-c6f3-442e-b997-562ae2d572be"},"vehicle_type_id":"4","last_reported":1700510876,"current_range_meters":1200,"station_id":"cki0cbj6b192h4jlfktg","pricing_plan_id":"free"},{"bike_id":"6996037b-a616-4f65-8299-0ffd885315f4","system_id":"levelo_inurba_marseille","lat":43.28727,"lon":5.36078,"is_reserved":false,"is_disabled":false,"rental_uris":{"android":"levelo://app?vid=6996037b-a616-4f65-8299-0ffd885315f4","ios":"levelo://app?vid=6996037b-a616-4f65-8299-0ffd885315f4"},"vehicle_type_id":"4","last_reported":1700510876,"current_range_meters":19600,"station_id":"cki0cbj6b192h4jlfktg","pricing_plan_id":"free"},{"bike_id":"1b8120c1-e38f-4da9-b932-a710eafc6aa8","system_id":"levelo_inurba_marseille","lat":43.28727,"lon":5.36078,"is_reserved":false,"is_disabled":false,"rental_uris":{"android":"levelo://app?vid=1b8120c1-e38f-4da9-b932-a710eafc6aa8","ios":"levelo://app?vid=1b8120c1-e38f-4da9-b932-a710eafc6aa8"},"vehicle_type_id":"4","last_reported":1700510876,"current_range_meters":31600,"station_id":"cki0cbj6b192h4jlfktg","pricing_plan_id":"free"},{"bike_id":"d936aa3a-3f56-4584-9d6b-21ba8034ff8c","system_id":"levelo_inurba_marseille","lat":43.286591,"lon":5.363346,"is_reserved":false,"is_disabled":false,"rental_uris":{"android":"levelo://app?vid=d936aa3a-3f56-4584-9d6b-21ba8034ff8c","ios":"levelo://app?vid=d936aa3a-3f56-4584-9d6b-21ba8034ff8c"},"vehicle_type_id":"4","last_reported":1700510876,"current_range_meters":9600,"station_id":"ce4bhah2rcd13ifvqej0","pricing_plan_id":"free"},{"bike_id":"aa9b077d-d219-4378-9e01-91758d2fbb68","system_id":"levelo_inurba_marseille","lat":43.28706,"lon":5.37392,"is_reserved":false,"is_disabled":false,"rental_uris":{"android":"levelo://app?vid=aa9b077d-d219-4378-9e01-91758d2fbb68","ios":"levelo://app?vid=aa9b077d-d219-4378-9e01-91758d2fbb68"},"vehicle_type_id":"4","last_reported":1700510876,"current_range_meters":4000,"station_id":"ce4bh3p2rcd13ifvqdq0","pricing_plan_id":"free"},{"bike_id":"9e7d0baf-987e-47b4-b51b-0dc305406150","system_id":"levelo_inurba_marseille","lat":43.286593,"lon":5.363346,"is_reserved":false,"is_disabled":false,"rental_uris":{"android":"levelo://app?vid=9e7d0baf-987e-47b4-b51b-0dc305406150","ios":"levelo://app?vid=9e7d0baf-987e-47b4-b51b-0dc305406150"},"vehicle_type_id":"4","last_reported":1700510876,"current_range_meters":18800,"station_id":"ce4bhah2rcd13ifvqej0","pricing_plan_id":"free"},{"bike_id":"fd071807-5630-4e68-8c3a-d3d2ec739fe5","system_id":"levelo_inurba_marseille","lat":43.286961,"lon":5.373785,"is_reserved":false,"is_disabled":false,"rental_uris":{"android":"levelo://app?vid=fd071807-5630-4e68-8c3a-d3d2ec739fe5","ios":"levelo://app?vid=fd071807-5630-4e68-8c3a-d3d2ec739fe5"},"vehicle_type_id":"4","last_reported":1700510876,"current_range_meters":19200,"station_id":"ce4bh3p2rcd13ifvqdq0","pricing_plan_id":"free"},{"bike_id":"f3d184cf-3568-4e5b-b716-fa51b21e219c","system_id":"levelo_inurba_marseille","lat":43.286593,"lon":5.363346,"is_reserved":false,"is_disabled":false,"rental_uris":{"android":"levelo://app?vid=f3d184cf-3568-4e5b-b716-fa51b21e219c","ios":"levelo://app?vid=f3d184cf-3568-4e5b-b716-fa51b21e219c"},"vehicle_type_id":"4","last_reported":1700510876,"current_range_meters":12400,"station_id":"ce4bhah2rcd13ifvqej0","pricing_plan_id":"free"},{"bike_id":"ead06aea-3d88-4fe9-b690-eebb85803736","system_id":"levelo_inurba_marseille","lat":43.28932,"lon":5.38398,"is_reserved":false,"is_disabled":false,"rental_uris":{"android":"levelo://app?vid=ead06aea-3d88-4fe9-b690-eebb85803736","ios":"levelo://app?vid=ead06aea-3d88-4fe9-b690-eebb85803736"},"vehicle_type_id":"4","last_reported":1700510876,"current_range_meters":14800,"station_id":"ce4bh612rcd13ifvqe6g","pricing_plan_id":"free"},{"bike_id":"ee9424ba-547b-4eb8-9f9f-3b1f2a4a918e","system_id":"levelo_inurba_marseille","lat":43.28926,"lon":5.38398,"is_reserved":false,"is_disabled":false,"rental_uris":{"android":"levelo://app?vid=ee9424ba-547b-4eb8-9f9f-3b1f2a4a918e","ios":"levelo://app?vid=ee9424ba-547b-4eb8-9f9f-3b1f2a4a918e"},"vehicle_type_id":"4","last_reported":1700510876,"current_range_meters":0,"station_id":"ce4bh612rcd13ifvqe6g","pricing_plan_id":"free"},{"bike_id":"a113bbe3-7232-4627-ae8c-65cecab94117","system_id":"levelo_inurba_marseille","lat":43.302759,"lon":5.400793,"is_reserved":false,"is_disabled":false,"rental_uris":{"android":"levelo://app?vid=a113bbe3-7232-4627-ae8c-65cecab94117","ios":"levelo://app?vid=a113bbe3-7232-4627-ae8c-65cecab94117"},"vehicle_type_id":"4","last_reported":1700510876,"current_range_meters":1200,"station_id":"ce4bgvh2rcd13ifvqcs0","pricing_plan_id":"free"},{"bike_id":"727ede4f-f9de-44a7-b7eb-73899052bd32","system_id":"levelo_inurba_marseille","lat":43.302759,"lon":5.400793,"is_reserved":false,"is_disabled":false,"rental_uris":{"android":"levelo://app?vid=727ede4f-f9de-44a7-b7eb-73899052bd32","ios":"levelo://app?vid=727ede4f-f9de-44a7-b7eb-73899052bd32"},"vehicle_type_id":"4","last_reported":1700510876,"current_range_meters":22800,"station_id":"ce4bgvh2rcd13ifvqcs0","pricing_plan_id":"free"},{"bike_id":"8dc84969-5fa3-43d2-bba1-efd84a18a7a1","system_id":"levelo_inurba_marseille","lat":43.302759,"lon":5.400793,"is_reserved":false,"is_disabled":false,"rental_uris":{"android":"levelo://app?vid=8dc84969-5fa3-43d2-bba1-efd84a18a7a1","ios":"levelo://app?vid=8dc84969-5fa3-43d2-bba1-efd84a18a7a1"},"vehicle_type_id":"4","last_reported":1700510876,"current_range_meters":24400,"station_id":"ce4bgvh2rcd13ifvqcs0","pricing_plan_id":"free"},{"bike_id":"e8b7c949-15c0-4c3d-bafc-4d9889bc6869","system_id":"levelo_inurba_marseille","lat":43.286039,"lon":5.370681,"is_reserved":false,"is_disabled":false,"rental_uris":{"android":"levelo://app?vid=e8b7c949-15c0-4c3d-bafc-4d9889bc6869","ios":"levelo://app?vid=e8b7c949-15c0-4c3d-bafc-4d9889bc6869"},"vehicle_type_id":"4","last_reported":1700510876,"current_range_meters":25200,"station_id":"ce4bht12rcd13ifvqi60","pricing_plan_id":"free"},{"bike_id":"40b594dc-ddda-41de-9bdf-8a560fca7208","system_id":"levelo_inurba_marseille","lat":43.286039,"lon":5.370679,"is_reserved":false,"is_disabled":false,"rental_uris":{"android":"levelo://app?vid=40b594dc-ddda-41de-9bdf-8a560fca7208","ios":"levelo://app?vid=40b594dc-ddda-41de-9bdf-8a560fca7208"},"vehicle_type_id":"4","last_reported":1700510876,"current_range_meters":28800,"station_id":"ce4bht12rcd13ifvqi60","pricing_plan_id":"free"},{"bike_id":"47a9d677-3148-47f7-8b8f-f82fe9a287ba","system_id":"levelo_inurba_marseille","lat":43.287184,"lon":5.37937,"is_reserved":false,"is_disabled":false,"rental_uris":{"android":"levelo://app?vid=47a9d677-3148-47f7-8b8f-f82fe9a287ba","ios":"levelo://app?vid=47a9d677-3148-47f7-8b8f-f82fe9a287ba"},"vehicle_type_id":"4","last_reported":1700510876,"current_range_meters":23600,"station_id":"ce4bh9p2rcd13ifvqec0","pricing_plan_id":"free"},{"bike_id":"06f2b101-1fe5-41d1-a37b-f9152f1c6b71","system_id":"levelo_inurba_marseille","lat":43.316517,"lon":5.404375,"is_reserved":false,"is_disabled":false,"rental_uris":{"android":"levelo://app?vid=06f2b101-1fe5-41d1-a37b-f9152f1c6b71","ios":"levelo://app?vid=06f2b101-1fe5-41d1-a37b-f9152f1c6b71"},"vehicle_type_id":"4","last_reported":1700510876,"current_range_meters":15600,"station_id":"ce4bh012rcd13ifvqd00","pricing_plan_id":"free"},{"bike_id":"22364c07-f1f5-4a48-8177-b598af57518a","system_id":"levelo_inurba_marseille","lat":43.29203,"lon":5.39309,"is_reserved":false,"is_disabled":false,"rental_uris":{"android":"levelo://app?vid=22364c07-f1f5-4a48-8177-b598af57518a","ios":"levelo://app?vid=22364c07-f1f5-4a48-8177-b598af57518a"},"vehicle_type_id":"4","last_reported":1700510876,"current_range_meters":21600,"station_id":"ce4bh192rcd13ifvqdd0","pricing_plan_id":"free"},{"bike_id":"79b87a2b-a9da-4bb2-8b49-a06bdb320def","system_id":"levelo_inurba_marseille","lat":43.291994,"lon":5.392907,"is_reserved":false,"is_disabled":false,"rental_uris":{"android":"levelo://app?vid=79b87a2b-a9da-4bb2-8b49-a06bdb320def","ios":"levelo://app?vid=79b87a2b-a9da-4bb2-8b49-a06bdb320def"},"vehicle_type_id":"4","last_reported":1700510876,"current_range_meters":0,"station_id":"ce4bh192rcd13ifvqdd0","pricing_plan_id":"free"},{"bike_id":"7cc466d6-b29a-443d-9604-bb9d516db90d","system_id":"levelo_inurba_marseille","lat":43.291994,"lon":5.392907,"is_reserved":false,"is_disabled":false,"rental_uris":{"android":"levelo://app?vid=7cc466d6-b29a-443d-9604-bb9d516db90d","ios":"levelo://app?vid=7cc466d6-b29a-443d-9604-bb9d516db90d"},"vehicle_type_id":"4","last_reported":1700510876,"current_range_meters":14000,"station_id":"ce4bh192rcd13ifvqdd0","pricing_plan_id":"free"},{"bike_id":"eda63b73-b14f-4905-8fc9-6d3ef4d62438","system_id":"levelo_inurba_marseille","lat":43.28467,"lon":5.35888,"is_reserved":false,"is_disabled":false,"rental_uris":{"android":"levelo://app?vid=eda63b73-b14f-4905-8fc9-6d3ef4d62438","ios":"levelo://app?vid=eda63b73-b14f-4905-8fc9-6d3ef4d62438"},"vehicle_type_id":"4","last_reported":1700510876,"current_range_meters":11600,"station_id":"ce4bhah2rcd13ifvqei0","pricing_plan_id":"free"},{"bike_id":"2cfa7852-fa37-4ce1-93c3-2b7e78b639fc","system_id":"levelo_inurba_marseille","lat":43.28464,"lon":5.35886,"is_reserved":false,"is_disabled":false,"rental_uris":{"android":"levelo://app?vid=2cfa7852-fa37-4ce1-93c3-2b7e78b639fc","ios":"levelo://app?vid=2cfa7852-fa37-4ce1-93c3-2b7e78b639fc"},"vehicle_type_id":"4","last_reported":1700510876,"current_range_meters":25600,"station_id":"ce4bhah2rcd13ifvqei0","pricing_plan_id":"free"},{"bike_id":"77c3e609-337f-4c81-be80-01f1e9aab04c","system_id":"levelo_inurba_marseille","lat":43.284538,"lon":5.358657,"is_reserved":false,"is_disabled":false,"rental_uris":{"android":"levelo://app?vid=77c3e609-337f-4c81-be80-01f1e9aab04c","ios":"levelo://app?vid=77c3e609-337f-4c81-be80-01f1e9aab04c"},"vehicle_type_id":"4","last_reported":1700510876,"current_range_meters":4800,"station_id":"ce4bhah2rcd13ifvqei0","pricing_plan_id":"free"},{"bike_id":"f9a26521-226c-4f5b-b44e-d41bf7a4562c","system_id":"levelo_inurba_marseille","lat":43.284538,"lon":5.358657,"is_reserved":false,"is_disabled":false,"rental_uris":{"android":"levelo://app?vid=f9a26521-226c-4f5b-b44e-d41bf7a4562c","ios":"levelo://app?vid=f9a26521-226c-4f5b-b44e-d41bf7a4562c"},"vehicle_type_id":"4","last_reported":1700510876,"current_range_meters":4000,"station_id":"ce4bhah2rcd13ifvqei0","pricing_plan_id":"free"},{"bike_id":"9732ab80-e62c-46fa-b562-b0e0c192b55a","system_id":"levelo_inurba_marseille","lat":43.284538,"lon":5.358657,"is_reserved":false,"is_disabled":false,"rental_uris":{"android":"levelo://app?vid=9732ab80-e62c-46fa-b562-b0e0c192b55a","ios":"levelo://app?vid=9732ab80-e62c-46fa-b562-b0e0c192b55a"},"vehicle_type_id":"4","last_reported":1700510876,"current_range_meters":26400,"station_id":"ce4bhah2rcd13ifvqei0","pricing_plan_id":"free"},{"bike_id":"3b76308c-89df-428b-9ed9-ff417fd447a6","system_id":"levelo_inurba_marseille","lat":43.2846,"lon":5.35893,"is_reserved":false,"is_disabled":false,"rental_uris":{"android":"levelo://app?vid=3b76308c-89df-428b-9ed9-ff417fd447a6","ios":"levelo://app?vid=3b76308c-89df-428b-9ed9-ff417fd447a6"},"vehicle_type_id":"4","last_reported":1700510876,"current_range_meters":30800,"station_id":"ce4bhah2rcd13ifvqei0","pricing_plan_id":"free"},{"bike_id":"ae1a042e-5400-4acc-b6fc-670f4baa06e6","system_id":"levelo_inurba_marseille","lat":43.2846,"lon":5.35884,"is_reserved":false,"is_disabled":false,"rental_uris":{"android":"levelo://app?vid=ae1a042e-5400-4acc-b6fc-670f4baa06e6","ios":"levelo://app?vid=ae1a042e-5400-4acc-b6fc-670f4baa06e6"},"vehicle_type_id":"4","last_reported":1700510876,"current_range_meters":17200,"station_id":"ce4bhah2rcd13ifvqei0","pricing_plan_id":"free"},{"bike_id":"288666b6-2bca-40b3-9e5b-0556cd143ccc","system_id":"levelo_inurba_marseille","lat":43.284538,"lon":5.358657,"is_reserved":false,"is_disabled":false,"rental_uris":{"android":"levelo://app?vid=288666b6-2bca-40b3-9e5b-0556cd143ccc","ios":"levelo://app?vid=288666b6-2bca-40b3-9e5b-0556cd143ccc"},"vehicle_type_id":"4","last_reported":1700510876,"current_range_meters":0,"station_id":"ce4bhah2rcd13ifvqei0","pricing_plan_id":"free"},{"bike_id":"58b4b7cf-48a5-446b-936a-877a03d27593","system_id":"levelo_inurba_marseille","lat":43.28458,"lon":5.35888,"is_reserved":false,"is_disabled":false,"rental_uris":{"android":"levelo://app?vid=58b4b7cf-48a5-446b-936a-877a03d27593","ios":"levelo://app?vid=58b4b7cf-48a5-446b-936a-877a03d27593"},"vehicle_type_id":"4","last_reported":1700510876,"current_range_meters":13200,"station_id":"ce4bhah2rcd13ifvqei0","pricing_plan_id":"free"},{"bike_id":"c1f38e34-3ecd-49fe-ba70-3b9c23bc5a1c","system_id":"levelo_inurba_marseille","lat":43.284534,"lon":5.358662,"is_reserved":false,"is_disabled":false,"rental_uris":{"android":"levelo://app?vid=c1f38e34-3ecd-49fe-ba70-3b9c23bc5a1c","ios":"levelo://app?vid=c1f38e34-3ecd-49fe-ba70-3b9c23bc5a1c"},"vehicle_type_id":"4","last_reported":1700510876,"current_range_meters":9600,"station_id":"ce4bhah2rcd13ifvqei0","pricing_plan_id":"free"},{"bike_id":"35006318-c5cf-402e-b6ab-83a12564ebaf","system_id":"levelo_inurba_marseille","lat":43.284538,"lon":5.358657,"is_reserved":false,"is_disabled":false,"rental_uris":{"android":"levelo://app?vid=35006318-c5cf-402e-b6ab-83a12564ebaf","ios":"levelo://app?vid=35006318-c5cf-402e-b6ab-83a12564ebaf"},"vehicle_type_id":"4","last_reported":1700510876,"current_range_meters":0,"station_id":"ce4bhah2rcd13ifvqei0","pricing_plan_id":"free"},{"bike_id":"a03bc167-3f90-4afe-89f0-2334b5872e81","system_id":"levelo_inurba_marseille","lat":43.284538,"lon":5.358657,"is_reserved":false,"is_disabled":false,"rental_uris":{"android":"levelo://app?vid=a03bc167-3f90-4afe-89f0-2334b5872e81","ios":"levelo://app?vid=a03bc167-3f90-4afe-89f0-2334b5872e81"},"vehicle_type_id":"4","last_reported":1700510876,"current_range_meters":28000,"station_id":"ce4bhah2rcd13ifvqei0","pricing_plan_id":"free"},{"bike_id":"90fbeaaa-7656-4325-9663-f8ffd2cad7c8","system_id":"levelo_inurba_marseille","lat":43.28452,"lon":5.35883,"is_reserved":false,"is_disabled":false,"rental_uris":{"android":"levelo://app?vid=90fbeaaa-7656-4325-9663-f8ffd2cad7c8","ios":"levelo://app?vid=90fbeaaa-7656-4325-9663-f8ffd2cad7c8"},"vehicle_type_id":"4","last_reported":1700510876,"current_range_meters":22000,"station_id":"ce4bhah2rcd13ifvqei0","pricing_plan_id":"free"},{"bike_id":"231587a4-7ef8-4c06-9d0a-445e7f82dfba","system_id":"levelo_inurba_marseille","lat":43.294314,"lon":5.397498,"is_reserved":false,"is_disabled":false,"rental_uris":{"android":"levelo://app?vid=231587a4-7ef8-4c06-9d0a-445e7f82dfba","ios":"levelo://app?vid=231587a4-7ef8-4c06-9d0a-445e7f82dfba"},"vehicle_type_id":"4","last_reported":1700510876,"current_range_meters":15600,"station_id":"ce4bh3h2rcd13ifvqdo0","pricing_plan_id":"free"},{"bike_id":"390730f2-24a2-47cd-aadd-b7140a08f7f5","system_id":"levelo_inurba_marseille","lat":43.294314,"lon":5.397498,"is_reserved":false,"is_disabled":false,"rental_uris":{"android":"levelo://app?vid=390730f2-24a2-47cd-aadd-b7140a08f7f5","ios":"levelo://app?vid=390730f2-24a2-47cd-aadd-b7140a08f7f5"},"vehicle_type_id":"4","last_reported":1700510876,"current_range_meters":20800,"station_id":"ce4bh3h2rcd13ifvqdo0","pricing_plan_id":"free"},{"bike_id":"92b8e850-ba70-477a-85c3-96cef3a83d46","system_id":"levelo_inurba_marseille","lat":43.28617,"lon":5.35111,"is_reserved":false,"is_disabled":false,"rental_uris":{"android":"levelo://app?vid=92b8e850-ba70-477a-85c3-96cef3a83d46","ios":"levelo://app?vid=92b8e850-ba70-477a-85c3-96cef3a83d46"},"vehicle_type_id":"4","last_reported":1700510876,"current_range_meters":0,"station_id":"ce4bhch2rcd13ifvqeug","pricing_plan_id":"free"},{"bike_id":"b99b0cff-ade6-4996-a075-0f70ee649462","system_id":"levelo_inurba_marseille","lat":43.28618,"lon":5.35106,"is_reserved":false,"is_disabled":false,"rental_uris":{"android":"levelo://app?vid=b99b0cff-ade6-4996-a075-0f70ee649462","ios":"levelo://app?vid=b99b0cff-ade6-4996-a075-0f70ee649462"},"vehicle_type_id":"4","last_reported":1700510876,"current_range_meters":17600,"station_id":"ce4bhch2rcd13ifvqeug","pricing_plan_id":"free"},{"bike_id":"8da1c804-0ac1-4329-a888-e848960a0891","system_id":"levelo_inurba_marseille","lat":43.283998,"lon":5.375062,"is_reserved":false,"is_disabled":false,"rental_uris":{"android":"levelo://app?vid=8da1c804-0ac1-4329-a888-e848960a0891","ios":"levelo://app?vid=8da1c804-0ac1-4329-a888-e848960a0891"},"vehicle_type_id":"4","last_reported":1700510876,"current_range_meters":4000,"station_id":"ce4bh412rcd13ifvqds0","pricing_plan_id":"free"},{"bike_id":"cddb43b8-a68e-4edc-b9df-3af535a16df1","system_id":"levelo_inurba_marseille","lat":43.283998,"lon":5.375062,"is_reserved":false,"is_disabled":false,"rental_uris":{"android":"levelo://app?vid=cddb43b8-a68e-4edc-b9df-3af535a16df1","ios":"levelo://app?vid=cddb43b8-a68e-4edc-b9df-3af535a16df1"},"vehicle_type_id":"4","last_reported":1700510876,"current_range_meters":0,"station_id":"ce4bh412rcd13ifvqds0","pricing_plan_id":"free"},{"bike_id":"e2888d54-4cde-4cd1-a872-e6c664296037","system_id":"levelo_inurba_marseille","lat":43.286238,"lon":5.383954,"is_reserved":false,"is_disabled":false,"rental_uris":{"android":"levelo://app?vid=e2888d54-4cde-4cd1-a872-e6c664296037","ios":"levelo://app?vid=e2888d54-4cde-4cd1-a872-e6c664296037"},"vehicle_type_id":"4","last_reported":1700510876,"current_range_meters":0,"station_id":"","pricing_plan_id":"free"},{"bike_id":"df557a1d-d4de-4c82-9bf4-37a9eec7c85f","system_id":"levelo_inurba_marseille","lat":43.283998,"lon":5.375062,"is_reserved":false,"is_disabled":false,"rental_uris":{"android":"levelo://app?vid=df557a1d-d4de-4c82-9bf4-37a9eec7c85f","ios":"levelo://app?vid=df557a1d-d4de-4c82-9bf4-37a9eec7c85f"},"vehicle_type_id":"4","last_reported":1700510876,"current_range_meters":9600,"station_id":"ce4bh412rcd13ifvqds0","pricing_plan_id":"free"},{"bike_id":"a3ce85a1-d967-48b8-937c-d28e0152541f","system_id":"levelo_inurba_marseille","lat":43.295713,"lon":5.399639,"is_reserved":false,"is_disabled":false,"rental_uris":{"android":"levelo://app?vid=a3ce85a1-d967-48b8-937c-d28e0152541f","ios":"levelo://app?vid=a3ce85a1-d967-48b8-937c-d28e0152541f"},"vehicle_type_id":"4","last_reported":1700510876,"current_range_meters":4400,"station_id":"ce4bh312rcd13ifvqdj0","pricing_plan_id":"free"},{"bike_id":"97b9ed28-5719-4513-a5fd-f31cc952f309","system_id":"levelo_inurba_marseille","lat":43.295713,"lon":5.399639,"is_reserved":false,"is_disabled":false,"rental_uris":{"android":"levelo://app?vid=97b9ed28-5719-4513-a5fd-f31cc952f309","ios":"levelo://app?vid=97b9ed28-5719-4513-a5fd-f31cc952f309"},"vehicle_type_id":"4","last_reported":1700510876,"current_range_meters":23200,"station_id":"ce4bh312rcd13ifvqdj0","pricing_plan_id":"free"},{"bike_id":"1df67d05-d0bd-4de2-b0ba-25cd51fb2a0a","system_id":"levelo_inurba_marseille","lat":43.295713,"lon":5.399639,"is_reserved":false,"is_disabled":false,"rental_uris":{"android":"levelo://app?vid=1df67d05-d0bd-4de2-b0ba-25cd51fb2a0a","ios":"levelo://app?vid=1df67d05-d0bd-4de2-b0ba-25cd51fb2a0a"},"vehicle_type_id":"4","last_reported":1700510876,"current_range_meters":21600,"station_id":"ce4bh312rcd13ifvqdj0","pricing_plan_id":"free"},{"bike_id":"68f186b5-f296-4fa6-b768-0bdd60ec4eb4","system_id":"levelo_inurba_marseille","lat":43.295713,"lon":5.399639,"is_reserved":false,"is_disabled":false,"rental_uris":{"android":"levelo://app?vid=68f186b5-f296-4fa6-b768-0bdd60ec4eb4","ios":"levelo://app?vid=68f186b5-f296-4fa6-b768-0bdd60ec4eb4"},"vehicle_type_id":"4","last_reported":1700510876,"current_range_meters":28800,"station_id":"ce4bh312rcd13ifvqdj0","pricing_plan_id":"free"},{"bike_id":"7fca6a8c-d6d0-4347-afca-cee4899803ec","system_id":"levelo_inurba_marseille","lat":43.318839,"lon":5.407358,"is_reserved":false,"is_disabled":false,"rental_uris":{"android":"levelo://app?vid=7fca6a8c-d6d0-4347-afca-cee4899803ec","ios":"levelo://app?vid=7fca6a8c-d6d0-4347-afca-cee4899803ec"},"vehicle_type_id":"4","last_reported":1700510876,"current_range_meters":15200,"station_id":"ce4bhq12rcd13ifvqhig","pricing_plan_id":"free"},{"bike_id":"a9216171-5cbd-4a31-bdd0-1dfdb7ac1b89","system_id":"levelo_inurba_marseille","lat":43.319179,"lon":5.407725,"is_reserved":false,"is_disabled":false,"rental_uris":{"android":"levelo://app?vid=a9216171-5cbd-4a31-bdd0-1dfdb7ac1b89","ios":"levelo://app?vid=a9216171-5cbd-4a31-bdd0-1dfdb7ac1b89"},"vehicle_type_id":"4","last_reported":1700510876,"current_range_meters":9200,"station_id":"ce4bhq12rcd13ifvqhig","pricing_plan_id":"free"},{"bike_id":"7ee32f59-0a04-4793-bacb-e238dfbe3a09","system_id":"levelo_inurba_marseille","lat":43.319179,"lon":5.407725,"is_reserved":false,"is_disabled":false,"rental_uris":{"android":"levelo://app?vid=7ee32f59-0a04-4793-bacb-e238dfbe3a09","ios":"levelo://app?vid=7ee32f59-0a04-4793-bacb-e238dfbe3a09"},"vehicle_type_id":"4","last_reported":1700510876,"current_range_meters":30800,"station_id":"ce4bhq12rcd13ifvqhig","pricing_plan_id":"free"},{"bike_id":"5974ad3b-da81-42ca-a08b-1b3632a47afa","system_id":"levelo_inurba_marseille","lat":43.33237,"lon":5.3985,"is_reserved":false,"is_disabled":false,"rental_uris":{"android":"levelo://app?vid=5974ad3b-da81-42ca-a08b-1b3632a47afa","ios":"levelo://app?vid=5974ad3b-da81-42ca-a08b-1b3632a47afa"},"vehicle_type_id":"4","last_reported":1700510876,"current_range_meters":0,"station_id":"","pricing_plan_id":"free"},{"bike_id":"4fbed95d-7196-4444-a845-d6b81cf0e641","system_id":"levelo_inurba_marseille","lat":43.323464,"lon":5.406297,"is_reserved":false,"is_disabled":false,"rental_uris":{"android":"levelo://app?vid=4fbed95d-7196-4444-a845-d6b81cf0e641","ios":"levelo://app?vid=4fbed95d-7196-4444-a845-d6b81cf0e641"},"vehicle_type_id":"4","last_reported":1700510876,"current_range_meters":18800,"station_id":"ce4bhq92rcd13ifvqhjg","pricing_plan_id":"free"},{"bike_id":"aa9ed338-993c-4944-bb3b-8ec82246a8bd","system_id":"levelo_inurba_marseille","lat":43.323464,"lon":5.406297,"is_reserved":false,"is_disabled":false,"rental_uris":{"android":"levelo://app?vid=aa9ed338-993c-4944-bb3b-8ec82246a8bd","ios":"levelo://app?vid=aa9ed338-993c-4944-bb3b-8ec82246a8bd"},"vehicle_type_id":"4","last_reported":1700510876,"current_range_meters":20800,"station_id":"ce4bhq92rcd13ifvqhjg","pricing_plan_id":"free"},{"bike_id":"93d0469d-7f7c-4223-8709-b9ae3b48f340","system_id":"levelo_inurba_marseille","lat":43.28482,"lon":5.38431,"is_reserved":false,"is_disabled":false,"rental_uris":{"android":"levelo://app?vid=93d0469d-7f7c-4223-8709-b9ae3b48f340","ios":"levelo://app?vid=93d0469d-7f7c-4223-8709-b9ae3b48f340"},"vehicle_type_id":"4","last_reported":1700510876,"current_range_meters":0,"station_id":"ce4bh512rcd13ifvqe3g","pricing_plan_id":"free"},{"bike_id":"a9e147c9-52ce-46fc-8e8f-faabb1ce17f4","system_id":"levelo_inurba_marseille","lat":43.28466,"lon":5.38405,"is_reserved":false,"is_disabled":false,"rental_uris":{"android":"levelo://app?vid=a9e147c9-52ce-46fc-8e8f-faabb1ce17f4","ios":"levelo://app?vid=a9e147c9-52ce-46fc-8e8f-faabb1ce17f4"},"vehicle_type_id":"4","last_reported":1700510876,"current_range_meters":0,"station_id":"ce4bh512rcd13ifvqe3g","pricing_plan_id":"free"},{"bike_id":"d8a15fd1-6143-4d82-8039-3d58646d03a5","system_id":"levelo_inurba_marseille","lat":43.283494,"lon":5.380945,"is_reserved":false,"is_disabled":false,"rental_uris":{"android":"levelo://app?vid=d8a15fd1-6143-4d82-8039-3d58646d03a5","ios":"levelo://app?vid=d8a15fd1-6143-4d82-8039-3d58646d03a5"},"vehicle_type_id":"4","last_reported":1700510876,"current_range_meters":15200,"station_id":"ce4bh412rcd13ifvqdr0","pricing_plan_id":"free"},{"bike_id":"e7e0b2f9-07e5-44bb-8cb7-3cbcf24d9a14","system_id":"levelo_inurba_marseille","lat":43.283498,"lon":5.380948,"is_reserved":false,"is_disabled":false,"rental_uris":{"android":"levelo://app?vid=e7e0b2f9-07e5-44bb-8cb7-3cbcf24d9a14","ios":"levelo://app?vid=e7e0b2f9-07e5-44bb-8cb7-3cbcf24d9a14"},"vehicle_type_id":"4","last_reported":1700510876,"current_range_meters":4800,"station_id":"ce4bh412rcd13ifvqdr0","pricing_plan_id":"free"},{"bike_id":"cac7e3e3-9bdf-4d13-9212-61f6e4b2d16e","system_id":"levelo_inurba_marseille","lat":43.284219,"lon":5.3497,"is_reserved":false,"is_disabled":false,"rental_uris":{"android":"levelo://app?vid=cac7e3e3-9bdf-4d13-9212-61f6e4b2d16e","ios":"levelo://app?vid=cac7e3e3-9bdf-4d13-9212-61f6e4b2d16e"},"vehicle_type_id":"4","last_reported":1700510876,"current_range_meters":21600,"station_id":"ce4bhbh2rcd13ifvqepg","pricing_plan_id":"free"},{"bike_id":"b63e38aa-962e-4b21-ba12-9926fc20fda1","system_id":"levelo_inurba_marseille","lat":43.283498,"lon":5.380948,"is_reserved":false,"is_disabled":false,"rental_uris":{"android":"levelo://app?vid=b63e38aa-962e-4b21-ba12-9926fc20fda1","ios":"levelo://app?vid=b63e38aa-962e-4b21-ba12-9926fc20fda1"},"vehicle_type_id":"4","last_reported":1700510876,"current_range_meters":4000,"station_id":"ce4bh412rcd13ifvqdr0","pricing_plan_id":"free"},{"bike_id":"679fd7d2-de05-4189-b6ae-02c15f2e8b05","system_id":"levelo_inurba_marseille","lat":43.284219,"lon":5.3497,"is_reserved":false,"is_disabled":false,"rental_uris":{"android":"levelo://app?vid=679fd7d2-de05-4189-b6ae-02c15f2e8b05","ios":"levelo://app?vid=679fd7d2-de05-4189-b6ae-02c15f2e8b05"},"vehicle_type_id":"4","last_reported":1700510876,"current_range_meters":31200,"station_id":"ce4bhbh2rcd13ifvqepg","pricing_plan_id":"free"},{"bike_id":"118e2126-2788-4d82-83a8-767f8d86c3d7","system_id":"levelo_inurba_marseille","lat":43.284219,"lon":5.3497,"is_reserved":false,"is_disabled":false,"rental_uris":{"android":"levelo://app?vid=118e2126-2788-4d82-83a8-767f8d86c3d7","ios":"levelo://app?vid=118e2126-2788-4d82-83a8-767f8d86c3d7"},"vehicle_type_id":"4","last_reported":1700510876,"current_range_meters":25600,"station_id":"ce4bhbh2rcd13ifvqepg","pricing_plan_id":"free"},{"bike_id":"26eacea1-0b7b-4105-9234-5a75e70bb1dc","system_id":"levelo_inurba_marseille","lat":43.284096,"lon":5.349874,"is_reserved":false,"is_disabled":false,"rental_uris":{"android":"levelo://app?vid=26eacea1-0b7b-4105-9234-5a75e70bb1dc","ios":"levelo://app?vid=26eacea1-0b7b-4105-9234-5a75e70bb1dc"},"vehicle_type_id":"4","last_reported":1700510876,"current_range_meters":26000,"station_id":"ce4bhbh2rcd13ifvqepg","pricing_plan_id":"free"},{"bike_id":"b3293347-8008-4bc1-b803-dc3524d87e24","system_id":"levelo_inurba_marseille","lat":43.292724,"lon":5.401131,"is_reserved":false,"is_disabled":false,"rental_uris":{"android":"levelo://app?vid=b3293347-8008-4bc1-b803-dc3524d87e24","ios":"levelo://app?vid=b3293347-8008-4bc1-b803-dc3524d87e24"},"vehicle_type_id":"4","last_reported":1700510876,"current_range_meters":16400,"station_id":"ce4bh312rcd13ifvqdk0","pricing_plan_id":"free"},{"bike_id":"9c2d02f0-ea7c-40f3-ba9c-5cbee0704b1f","system_id":"levelo_inurba_marseille","lat":43.282754,"lon":5.350519,"is_reserved":false,"is_disabled":false,"rental_uris":{"android":"levelo://app?vid=9c2d02f0-ea7c-40f3-ba9c-5cbee0704b1f","ios":"levelo://app?vid=9c2d02f0-ea7c-40f3-ba9c-5cbee0704b1f"},"vehicle_type_id":"4","last_reported":1700510876,"current_range_meters":13200,"station_id":"ce4bhbp2rcd13ifvqerg","pricing_plan_id":"free"},{"bike_id":"083a72a4-c264-41ca-9cbc-b5a0b3c2f24b","system_id":"levelo_inurba_marseille","lat":43.282744,"lon":5.350533,"is_reserved":false,"is_disabled":false,"rental_uris":{"android":"levelo://app?vid=083a72a4-c264-41ca-9cbc-b5a0b3c2f24b","ios":"levelo://app?vid=083a72a4-c264-41ca-9cbc-b5a0b3c2f24b"},"vehicle_type_id":"4","last_reported":1700510876,"current_range_meters":16800,"station_id":"ce4bhbp2rcd13ifvqerg","pricing_plan_id":"free"},{"bike_id":"0f3640a2-ad01-4760-9e09-ddd92fef4a58","system_id":"levelo_inurba_marseille","lat":43.282744,"lon":5.350533,"is_reserved":false,"is_disabled":false,"rental_uris":{"android":"levelo://app?vid=0f3640a2-ad01-4760-9e09-ddd92fef4a58","ios":"levelo://app?vid=0f3640a2-ad01-4760-9e09-ddd92fef4a58"},"vehicle_type_id":"4","last_reported":1700510876,"current_range_meters":31600,"station_id":"ce4bhbp2rcd13ifvqerg","pricing_plan_id":"free"},{"bike_id":"60781c61-9b2c-4fa1-b6f9-16b19af6c5fe","system_id":"levelo_inurba_marseille","lat":43.282744,"lon":5.350533,"is_reserved":false,"is_disabled":false,"rental_uris":{"android":"levelo://app?vid=60781c61-9b2c-4fa1-b6f9-16b19af6c5fe","ios":"levelo://app?vid=60781c61-9b2c-4fa1-b6f9-16b19af6c5fe"},"vehicle_type_id":"4","last_reported":1700510876,"current_range_meters":800,"station_id":"ce4bhbp2rcd13ifvqerg","pricing_plan_id":"free"},{"bike_id":"466a8a1e-53f8-4c9a-b6f2-17ee2f45acab","system_id":"levelo_inurba_marseille","lat":43.283502,"lon":5.386471,"is_reserved":false,"is_disabled":false,"rental_uris":{"android":"levelo://app?vid=466a8a1e-53f8-4c9a-b6f2-17ee2f45acab","ios":"levelo://app?vid=466a8a1e-53f8-4c9a-b6f2-17ee2f45acab"},"vehicle_type_id":"4","last_reported":1700510876,"current_range_meters":0,"station_id":"ce4bh492rcd13ifvqdvg","pricing_plan_id":"free"},{"bike_id":"2f4d2a1f-2e75-44cc-abd2-ea2d4f049787","system_id":"levelo_inurba_marseille","lat":43.282754,"lon":5.350519,"is_reserved":false,"is_disabled":false,"rental_uris":{"android":"levelo://app?vid=2f4d2a1f-2e75-44cc-abd2-ea2d4f049787","ios":"levelo://app?vid=2f4d2a1f-2e75-44cc-abd2-ea2d4f049787"},"vehicle_type_id":"4","last_reported":1700510876,"current_range_meters":2400,"station_id":"ce4bhbp2rcd13ifvqerg","pricing_plan_id":"free"},{"bike_id":"e5625dab-e7e6-4c95-a889-3e65c36b7747","system_id":"levelo_inurba_marseille","lat":43.282754,"lon":5.350519,"is_reserved":false,"is_disabled":false,"rental_uris":{"android":"levelo://app?vid=e5625dab-e7e6-4c95-a889-3e65c36b7747","ios":"levelo://app?vid=e5625dab-e7e6-4c95-a889-3e65c36b7747"},"vehicle_type_id":"4","last_reported":1700510876,"current_range_meters":800,"station_id":"ce4bhbp2rcd13ifvqerg","pricing_plan_id":"free"},{"bike_id":"bc52672a-372f-4789-bf00-c446a84efba6","system_id":"levelo_inurba_marseille","lat":43.28039,"lon":5.369297,"is_reserved":false,"is_disabled":false,"rental_uris":{"android":"levelo://app?vid=bc52672a-372f-4789-bf00-c446a84efba6","ios":"levelo://app?vid=bc52672a-372f-4789-bf00-c446a84efba6"},"vehicle_type_id":"4","last_reported":1700510876,"current_range_meters":5600,"station_id":"ce4bha12rcd13ifvqef0","pricing_plan_id":"free"},{"bike_id":"dd9c0ed6-2e9e-4937-8a71-5a5543051bf6","system_id":"levelo_inurba_marseille","lat":43.28039,"lon":5.369297,"is_reserved":false,"is_disabled":false,"rental_uris":{"android":"levelo://app?vid=dd9c0ed6-2e9e-4937-8a71-5a5543051bf6","ios":"levelo://app?vid=dd9c0ed6-2e9e-4937-8a71-5a5543051bf6"},"vehicle_type_id":"4","last_reported":1700510876,"current_range_meters":9600,"station_id":"ce4bha12rcd13ifvqef0","pricing_plan_id":"free"},{"bike_id":"d91a4321-33cb-4444-ae0a-360a0804a435","system_id":"levelo_inurba_marseille","lat":43.28039,"lon":5.369297,"is_reserved":false,"is_disabled":false,"rental_uris":{"android":"levelo://app?vid=d91a4321-33cb-4444-ae0a-360a0804a435","ios":"levelo://app?vid=d91a4321-33cb-4444-ae0a-360a0804a435"},"vehicle_type_id":"4","last_reported":1700510876,"current_range_meters":32000,"station_id":"ce4bha12rcd13ifvqef0","pricing_plan_id":"free"},{"bike_id":"6875e9d7-c282-41b7-9569-7ba666485be7","system_id":"levelo_inurba_marseille","lat":43.28039,"lon":5.369297,"is_reserved":false,"is_disabled":false,"rental_uris":{"android":"levelo://app?vid=6875e9d7-c282-41b7-9569-7ba666485be7","ios":"levelo://app?vid=6875e9d7-c282-41b7-9569-7ba666485be7"},"vehicle_type_id":"4","last_reported":1700510876,"current_range_meters":800,"station_id":"ce4bha12rcd13ifvqef0","pricing_plan_id":"free"},{"bike_id":"2e6c79c0-6e68-4ac8-a76f-130ecfe2427c","system_id":"levelo_inurba_marseille","lat":43.28039,"lon":5.369297,"is_reserved":false,"is_disabled":false,"rental_uris":{"android":"levelo://app?vid=2e6c79c0-6e68-4ac8-a76f-130ecfe2427c","ios":"levelo://app?vid=2e6c79c0-6e68-4ac8-a76f-130ecfe2427c"},"vehicle_type_id":"4","last_reported":1700510876,"current_range_meters":16000,"station_id":"ce4bha12rcd13ifvqef0","pricing_plan_id":"free"},{"bike_id":"0ab20927-7b9e-47eb-94fd-8d9b8eb83a93","system_id":"levelo_inurba_marseille","lat":43.296263,"lon":5.40601,"is_reserved":false,"is_disabled":false,"rental_uris":{"android":"levelo://app?vid=0ab20927-7b9e-47eb-94fd-8d9b8eb83a93","ios":"levelo://app?vid=0ab20927-7b9e-47eb-94fd-8d9b8eb83a93"},"vehicle_type_id":"4","last_reported":1700510876,"current_range_meters":17600,"station_id":"ce4bh0h2rcd13ifvqd60","pricing_plan_id":"free"},{"bike_id":"af6a20f1-6ae5-479b-b6bb-b176247be045","system_id":"levelo_inurba_marseille","lat":43.296263,"lon":5.40601,"is_reserved":false,"is_disabled":false,"rental_uris":{"android":"levelo://app?vid=af6a20f1-6ae5-479b-b6bb-b176247be045","ios":"levelo://app?vid=af6a20f1-6ae5-479b-b6bb-b176247be045"},"vehicle_type_id":"4","last_reported":1700510876,"current_range_meters":28800,"station_id":"ce4bh0h2rcd13ifvqd60","pricing_plan_id":"free"},{"bike_id":"72938841-88d7-46f5-b09f-6af48ae82c0d","system_id":"levelo_inurba_marseille","lat":43.296263,"lon":5.40601,"is_reserved":false,"is_disabled":false,"rental_uris":{"android":"levelo://app?vid=72938841-88d7-46f5-b09f-6af48ae82c0d","ios":"levelo://app?vid=72938841-88d7-46f5-b09f-6af48ae82c0d"},"vehicle_type_id":"4","last_reported":1700510876,"current_range_meters":30400,"station_id":"ce4bh0h2rcd13ifvqd60","pricing_plan_id":"free"},{"bike_id":"37d127e1-e117-4124-bc09-84e063e62112","system_id":"levelo_inurba_marseille","lat":43.296263,"lon":5.40601,"is_reserved":false,"is_disabled":false,"rental_uris":{"android":"levelo://app?vid=37d127e1-e117-4124-bc09-84e063e62112","ios":"levelo://app?vid=37d127e1-e117-4124-bc09-84e063e62112"},"vehicle_type_id":"4","last_reported":1700510876,"current_range_meters":8400,"station_id":"ce4bh0h2rcd13ifvqd60","pricing_plan_id":"free"},{"bike_id":"ccf9b17e-2fb6-47d5-b5cb-73ea08fcb6e5","system_id":"levelo_inurba_marseille","lat":43.28575,"lon":5.39498,"is_reserved":false,"is_disabled":false,"rental_uris":{"android":"levelo://app?vid=ccf9b17e-2fb6-47d5-b5cb-73ea08fcb6e5","ios":"levelo://app?vid=ccf9b17e-2fb6-47d5-b5cb-73ea08fcb6e5"},"vehicle_type_id":"4","last_reported":1700510876,"current_range_meters":0,"station_id":"ce4bh292rcd13ifvqdg0","pricing_plan_id":"free"},{"bike_id":"dcd2405c-bf1d-408b-a59e-ae8b07a380f9","system_id":"levelo_inurba_marseille","lat":43.34542,"lon":5.35449,"is_reserved":false,"is_disabled":false,"rental_uris":{"android":"levelo://app?vid=dcd2405c-bf1d-408b-a59e-ae8b07a380f9","ios":"levelo://app?vid=dcd2405c-bf1d-408b-a59e-ae8b07a380f9"},"vehicle_type_id":"4","last_reported":1700510876,"current_range_meters":24400,"station_id":"","pricing_plan_id":"free"},{"bike_id":"3d342f3c-6911-4fb9-9cad-e3afe51194f9","system_id":"levelo_inurba_marseille","lat":43.34543,"lon":5.35448,"is_reserved":false,"is_disabled":false,"rental_uris":{"android":"levelo://app?vid=3d342f3c-6911-4fb9-9cad-e3afe51194f9","ios":"levelo://app?vid=3d342f3c-6911-4fb9-9cad-e3afe51194f9"},"vehicle_type_id":"4","last_reported":1700510876,"current_range_meters":22800,"station_id":"","pricing_plan_id":"free"},{"bike_id":"20bea938-6fbd-4452-8899-c9f2c364bd4d","system_id":"levelo_inurba_marseille","lat":43.326605,"lon":5.409903,"is_reserved":false,"is_disabled":false,"rental_uris":{"android":"levelo://app?vid=20bea938-6fbd-4452-8899-c9f2c364bd4d","ios":"levelo://app?vid=20bea938-6fbd-4452-8899-c9f2c364bd4d"},"vehicle_type_id":"4","last_reported":1700510876,"current_range_meters":16800,"station_id":"ce4bhpp2rcd13ifvqhgg","pricing_plan_id":"free"},{"bike_id":"5cc71858-168e-4f27-a50f-c2ad738ddeab","system_id":"levelo_inurba_marseille","lat":43.304188,"lon":5.412904,"is_reserved":false,"is_disabled":false,"rental_uris":{"android":"levelo://app?vid=5cc71858-168e-4f27-a50f-c2ad738ddeab","ios":"levelo://app?vid=5cc71858-168e-4f27-a50f-c2ad738ddeab"},"vehicle_type_id":"4","last_reported":1700510876,"current_range_meters":16000,"station_id":"ce4bhop2rcd13ifvqh8g","pricing_plan_id":"free"},{"bike_id":"9246ff32-54f7-4c5e-8fc5-df00fd6d65b0","system_id":"levelo_inurba_marseille","lat":43.304188,"lon":5.412904,"is_reserved":false,"is_disabled":false,"rental_uris":{"android":"levelo://app?vid=9246ff32-54f7-4c5e-8fc5-df00fd6d65b0","ios":"levelo://app?vid=9246ff32-54f7-4c5e-8fc5-df00fd6d65b0"},"vehicle_type_id":"4","last_reported":1700510876,"current_range_meters":4400,"station_id":"ce4bhop2rcd13ifvqh8g","pricing_plan_id":"free"},{"bike_id":"544baf0b-0ef2-4e44-8642-17e6ca320acb","system_id":"levelo_inurba_marseille","lat":43.304188,"lon":5.412904,"is_reserved":false,"is_disabled":false,"rental_uris":{"android":"levelo://app?vid=544baf0b-0ef2-4e44-8642-17e6ca320acb","ios":"levelo://app?vid=544baf0b-0ef2-4e44-8642-17e6ca320acb"},"vehicle_type_id":"4","last_reported":1700510876,"current_range_meters":6400,"station_id":"ce4bhop2rcd13ifvqh8g","pricing_plan_id":"free"},{"bike_id":"24eca922-3587-47e4-a445-4cb426ad2b8b","system_id":"levelo_inurba_marseille","lat":43.304188,"lon":5.412904,"is_reserved":false,"is_disabled":false,"rental_uris":{"android":"levelo://app?vid=24eca922-3587-47e4-a445-4cb426ad2b8b","ios":"levelo://app?vid=24eca922-3587-47e4-a445-4cb426ad2b8b"},"vehicle_type_id":"4","last_reported":1700510876,"current_range_meters":24800,"station_id":"ce4bhop2rcd13ifvqh8g","pricing_plan_id":"free"},{"bike_id":"1aa76ac8-ccaf-41d2-8fb5-033e7c180f10","system_id":"levelo_inurba_marseille","lat":43.304188,"lon":5.412904,"is_reserved":false,"is_disabled":false,"rental_uris":{"android":"levelo://app?vid=1aa76ac8-ccaf-41d2-8fb5-033e7c180f10","ios":"levelo://app?vid=1aa76ac8-ccaf-41d2-8fb5-033e7c180f10"},"vehicle_type_id":"4","last_reported":1700510876,"current_range_meters":3200,"station_id":"ce4bhop2rcd13ifvqh8g","pricing_plan_id":"free"},{"bike_id":"6a1240e3-6bcc-4cf2-9ca3-b73679069a9a","system_id":"levelo_inurba_marseille","lat":43.279087,"lon":5.380114,"is_reserved":false,"is_disabled":false,"rental_uris":{"android":"levelo://app?vid=6a1240e3-6bcc-4cf2-9ca3-b73679069a9a","ios":"levelo://app?vid=6a1240e3-6bcc-4cf2-9ca3-b73679069a9a"},"vehicle_type_id":"4","last_reported":1700510876,"current_range_meters":23200,"station_id":"ce4bhf92rcd13ifvqf50","pricing_plan_id":"free"},{"bike_id":"4ce0475c-475f-43fa-9857-1f87b626494a","system_id":"levelo_inurba_marseille","lat":43.28705,"lon":5.39992,"is_reserved":false,"is_disabled":false,"rental_uris":{"android":"levelo://app?vid=4ce0475c-475f-43fa-9857-1f87b626494a","ios":"levelo://app?vid=4ce0475c-475f-43fa-9857-1f87b626494a"},"vehicle_type_id":"4","last_reported":1700510876,"current_range_meters":0,"station_id":"ce4bho92rcd13ifvqh3g","pricing_plan_id":"free"},{"bike_id":"a8042c1f-67a1-49f3-aeb5-f014a4d3b575","system_id":"levelo_inurba_marseille","lat":43.320045,"lon":5.415048,"is_reserved":false,"is_disabled":false,"rental_uris":{"android":"levelo://app?vid=a8042c1f-67a1-49f3-aeb5-f014a4d3b575","ios":"levelo://app?vid=a8042c1f-67a1-49f3-aeb5-f014a4d3b575"},"vehicle_type_id":"4","last_reported":1700510876,"current_range_meters":0,"station_id":"ce4bhq92rcd13ifvqhkg","pricing_plan_id":"free"},{"bike_id":"115d0e60-41d5-4567-9a97-2ccb1c200c09","system_id":"levelo_inurba_marseille","lat":43.27963,"lon":5.38702,"is_reserved":false,"is_disabled":false,"rental_uris":{"android":"levelo://app?vid=115d0e60-41d5-4567-9a97-2ccb1c200c09","ios":"levelo://app?vid=115d0e60-41d5-4567-9a97-2ccb1c200c09"},"vehicle_type_id":"4","last_reported":1700510876,"current_range_meters":0,"station_id":"ce4bhg12rcd13ifvqf80","pricing_plan_id":"free"},{"bike_id":"6bd66b5f-6c19-422c-bd88-00b7f11a930e","system_id":"levelo_inurba_marseille","lat":43.29259,"lon":5.40902,"is_reserved":false,"is_disabled":false,"rental_uris":{"android":"levelo://app?vid=6bd66b5f-6c19-422c-bd88-00b7f11a930e","ios":"levelo://app?vid=6bd66b5f-6c19-422c-bd88-00b7f11a930e"},"vehicle_type_id":"4","last_reported":1700510876,"current_range_meters":800,"station_id":"ce4bh192rcd13ifvqdc0","pricing_plan_id":"free"},{"bike_id":"e306716e-2e26-48ea-81fc-2efdad2b4da6","system_id":"levelo_inurba_marseille","lat":43.292571,"lon":5.409107,"is_reserved":false,"is_disabled":false,"rental_uris":{"android":"levelo://app?vid=e306716e-2e26-48ea-81fc-2efdad2b4da6","ios":"levelo://app?vid=e306716e-2e26-48ea-81fc-2efdad2b4da6"},"vehicle_type_id":"4","last_reported":1700510876,"current_range_meters":20800,"station_id":"ce4bh192rcd13ifvqdc0","pricing_plan_id":"free"},{"bike_id":"54d83bdb-854d-4ada-827b-6f0754351f02","system_id":"levelo_inurba_marseille","lat":43.276207,"lon":5.361183,"is_reserved":false,"is_disabled":false,"rental_uris":{"android":"levelo://app?vid=54d83bdb-854d-4ada-827b-6f0754351f02","ios":"levelo://app?vid=54d83bdb-854d-4ada-827b-6f0754351f02"},"vehicle_type_id":"4","last_reported":1700510876,"current_range_meters":29200,"station_id":"ce4bgj92rcd13ifvqbe0","pricing_plan_id":"free"},{"bike_id":"a3eecf47-4e5b-45a1-89d7-ee051971ee97","system_id":"levelo_inurba_marseille","lat":43.292569,"lon":5.409107,"is_reserved":false,"is_disabled":false,"rental_uris":{"android":"levelo://app?vid=a3eecf47-4e5b-45a1-89d7-ee051971ee97","ios":"levelo://app?vid=a3eecf47-4e5b-45a1-89d7-ee051971ee97"},"vehicle_type_id":"4","last_reported":1700510876,"current_range_meters":11600,"station_id":"ce4bh192rcd13ifvqdc0","pricing_plan_id":"free"},{"bike_id":"a20985a8-f5f7-4a42-a1b3-196f66bfe5bf","system_id":"levelo_inurba_marseille","lat":43.325233,"lon":5.414318,"is_reserved":false,"is_disabled":false,"rental_uris":{"android":"levelo://app?vid=a20985a8-f5f7-4a42-a1b3-196f66bfe5bf","ios":"levelo://app?vid=a20985a8-f5f7-4a42-a1b3-196f66bfe5bf"},"vehicle_type_id":"4","last_reported":1700510876,"current_range_meters":26000,"station_id":"ce4bhq12rcd13ifvqhhg","pricing_plan_id":"free"},{"bike_id":"2cd80375-1b12-4261-83aa-29b34641f3de","system_id":"levelo_inurba_marseille","lat":43.2925,"lon":5.40915,"is_reserved":false,"is_disabled":false,"rental_uris":{"android":"levelo://app?vid=2cd80375-1b12-4261-83aa-29b34641f3de","ios":"levelo://app?vid=2cd80375-1b12-4261-83aa-29b34641f3de"},"vehicle_type_id":"4","last_reported":1700510876,"current_range_meters":14000,"station_id":"ce4bh192rcd13ifvqdc0","pricing_plan_id":"free"},{"bike_id":"f91eeb3c-69ad-4653-b479-bf02928f8fef","system_id":"levelo_inurba_marseille","lat":43.276179,"lon":5.361009,"is_reserved":false,"is_disabled":false,"rental_uris":{"android":"levelo://app?vid=f91eeb3c-69ad-4653-b479-bf02928f8fef","ios":"levelo://app?vid=f91eeb3c-69ad-4653-b479-bf02928f8fef"},"vehicle_type_id":"4","last_reported":1700510876,"current_range_meters":3200,"station_id":"ce4bgj92rcd13ifvqbe0","pricing_plan_id":"free"},{"bike_id":"1ec53fc5-b8e3-4edc-85bf-09f89af93265","system_id":"levelo_inurba_marseille","lat":43.276159,"lon":5.361199,"is_reserved":false,"is_disabled":false,"rental_uris":{"android":"levelo://app?vid=1ec53fc5-b8e3-4edc-85bf-09f89af93265","ios":"levelo://app?vid=1ec53fc5-b8e3-4edc-85bf-09f89af93265"},"vehicle_type_id":"4","last_reported":1700510876,"current_range_meters":14400,"station_id":"ce4bgj92rcd13ifvqbe0","pricing_plan_id":"free"},{"bike_id":"664dd67f-5692-428a-87dd-097c33c2959d","system_id":"levelo_inurba_marseille","lat":43.27615,"lon":5.36117,"is_reserved":false,"is_disabled":false,"rental_uris":{"android":"levelo://app?vid=664dd67f-5692-428a-87dd-097c33c2959d","ios":"levelo://app?vid=664dd67f-5692-428a-87dd-097c33c2959d"},"vehicle_type_id":"4","last_reported":1700510876,"current_range_meters":26400,"station_id":"ce4bgj92rcd13ifvqbe0","pricing_plan_id":"free"},{"bike_id":"4f1a6b35-6778-477c-bad5-109b7f667c51","system_id":"levelo_inurba_marseille","lat":43.276179,"lon":5.361009,"is_reserved":false,"is_disabled":false,"rental_uris":{"android":"levelo://app?vid=4f1a6b35-6778-477c-bad5-109b7f667c51","ios":"levelo://app?vid=4f1a6b35-6778-477c-bad5-109b7f667c51"},"vehicle_type_id":"4","last_reported":1700510876,"current_range_meters":18800,"station_id":"ce4bgj92rcd13ifvqbe0","pricing_plan_id":"free"},{"bike_id":"5d9e0f61-3ef2-46bf-80cd-8b1cc5acf214","system_id":"levelo_inurba_marseille","lat":43.27612,"lon":5.36114,"is_reserved":false,"is_disabled":false,"rental_uris":{"android":"levelo://app?vid=5d9e0f61-3ef2-46bf-80cd-8b1cc5acf214","ios":"levelo://app?vid=5d9e0f61-3ef2-46bf-80cd-8b1cc5acf214"},"vehicle_type_id":"4","last_reported":1700510876,"current_range_meters":30800,"station_id":"ce4bgj92rcd13ifvqbe0","pricing_plan_id":"free"},{"bike_id":"18ce2666-79bd-47fe-a6be-b07ac06673c9","system_id":"levelo_inurba_marseille","lat":43.280784,"lon":5.396622,"is_reserved":false,"is_disabled":false,"rental_uris":{"android":"levelo://app?vid=18ce2666-79bd-47fe-a6be-b07ac06673c9","ios":"levelo://app?vid=18ce2666-79bd-47fe-a6be-b07ac06673c9"},"vehicle_type_id":"4","last_reported":1700510876,"current_range_meters":22800,"station_id":"ce4bho12rcd13ifvqh2g","pricing_plan_id":"free"},{"bike_id":"1af95056-9e31-48a7-b18e-a8986fbcc63a","system_id":"levelo_inurba_marseille","lat":43.278399,"lon":5.392139,"is_reserved":false,"is_disabled":false,"rental_uris":{"android":"levelo://app?vid=1af95056-9e31-48a7-b18e-a8986fbcc63a","ios":"levelo://app?vid=1af95056-9e31-48a7-b18e-a8986fbcc63a"},"vehicle_type_id":"4","last_reported":1700510876,"current_range_meters":14800,"station_id":"ce4bhjp2rcd13ifvqga0","pricing_plan_id":"free"},{"bike_id":"05d1461f-cfc1-451c-aa4a-0c932a14ef63","system_id":"levelo_inurba_marseille","lat":43.2783,"lon":5.39208,"is_reserved":false,"is_disabled":false,"rental_uris":{"android":"levelo://app?vid=05d1461f-cfc1-451c-aa4a-0c932a14ef63","ios":"levelo://app?vid=05d1461f-cfc1-451c-aa4a-0c932a14ef63"},"vehicle_type_id":"4","last_reported":1700510876,"current_range_meters":3600,"station_id":"ce4bhjp2rcd13ifvqga0","pricing_plan_id":"free"},{"bike_id":"dac3841c-dd28-4b80-86a7-2f7676001767","system_id":"levelo_inurba_marseille","lat":43.27825,"lon":5.39202,"is_reserved":false,"is_disabled":false,"rental_uris":{"android":"levelo://app?vid=dac3841c-dd28-4b80-86a7-2f7676001767","ios":"levelo://app?vid=dac3841c-dd28-4b80-86a7-2f7676001767"},"vehicle_type_id":"4","last_reported":1700510876,"current_range_meters":0,"station_id":"ce4bhjp2rcd13ifvqga0","pricing_plan_id":"free"},{"bike_id":"14491e89-76d4-4f00-805c-e48bf0203f90","system_id":"levelo_inurba_marseille","lat":43.273815,"lon":5.36257,"is_reserved":false,"is_disabled":false,"rental_uris":{"android":"levelo://app?vid=14491e89-76d4-4f00-805c-e48bf0203f90","ios":"levelo://app?vid=14491e89-76d4-4f00-805c-e48bf0203f90"},"vehicle_type_id":"4","last_reported":1700510876,"current_range_meters":24400,"station_id":"ce4bhbh2rcd13ifvqeo0","pricing_plan_id":"free"},{"bike_id":"6d985181-6d41-4cfb-9663-379346399c44","system_id":"levelo_inurba_marseille","lat":43.336,"lon":5.41035,"is_reserved":false,"is_disabled":false,"rental_uris":{"android":"levelo://app?vid=6d985181-6d41-4cfb-9663-379346399c44","ios":"levelo://app?vid=6d985181-6d41-4cfb-9663-379346399c44"},"vehicle_type_id":"4","last_reported":1700510876,"current_range_meters":400,"station_id":"ce4bhqh2rcd13ifvqhmg","pricing_plan_id":"free"},{"bike_id":"a462ad5e-bea9-41c4-ab74-c8f536700599","system_id":"levelo_inurba_marseille","lat":43.279952,"lon":5.400085,"is_reserved":false,"is_disabled":false,"rental_uris":{"android":"levelo://app?vid=a462ad5e-bea9-41c4-ab74-c8f536700599","ios":"levelo://app?vid=a462ad5e-bea9-41c4-ab74-c8f536700599"},"vehicle_type_id":"4","last_reported":1700510876,"current_range_meters":31600,"station_id":"ce4bho92rcd13ifvqh4g","pricing_plan_id":"free"},{"bike_id":"d4762b2a-32f7-403a-8eab-7a1f1418e95c","system_id":"levelo_inurba_marseille","lat":43.28,"lon":5.400137,"is_reserved":false,"is_disabled":false,"rental_uris":{"android":"levelo://app?vid=d4762b2a-32f7-403a-8eab-7a1f1418e95c","ios":"levelo://app?vid=d4762b2a-32f7-403a-8eab-7a1f1418e95c"},"vehicle_type_id":"4","last_reported":1700510876,"current_range_meters":800,"station_id":"ce4bho92rcd13ifvqh4g","pricing_plan_id":"free"},{"bike_id":"879c9f55-adb4-41eb-93d5-282bdbd63bbf","system_id":"levelo_inurba_marseille","lat":43.27996,"lon":5.40013,"is_reserved":false,"is_disabled":false,"rental_uris":{"android":"levelo://app?vid=879c9f55-adb4-41eb-93d5-282bdbd63bbf","ios":"levelo://app?vid=879c9f55-adb4-41eb-93d5-282bdbd63bbf"},"vehicle_type_id":"4","last_reported":1700510876,"current_range_meters":5600,"station_id":"ce4bho92rcd13ifvqh4g","pricing_plan_id":"free"},{"bike_id":"24eb3593-996e-46a8-8fd4-f0e91d60bad6","system_id":"levelo_inurba_marseille","lat":43.279952,"lon":5.400085,"is_reserved":false,"is_disabled":false,"rental_uris":{"android":"levelo://app?vid=24eb3593-996e-46a8-8fd4-f0e91d60bad6","ios":"levelo://app?vid=24eb3593-996e-46a8-8fd4-f0e91d60bad6"},"vehicle_type_id":"4","last_reported":1700510876,"current_range_meters":15200,"station_id":"ce4bho92rcd13ifvqh4g","pricing_plan_id":"free"},{"bike_id":"0fff839f-0351-4a12-9b81-3e794e577e79","system_id":"levelo_inurba_marseille","lat":43.31716,"lon":5.42396,"is_reserved":false,"is_disabled":false,"rental_uris":{"android":"levelo://app?vid=0fff839f-0351-4a12-9b81-3e794e577e79","ios":"levelo://app?vid=0fff839f-0351-4a12-9b81-3e794e577e79"},"vehicle_type_id":"4","last_reported":1700510876,"current_range_meters":18800,"station_id":"ce4bhp92rcd13ifvqhbg","pricing_plan_id":"free"},{"bike_id":"d2884e01-f1e9-45e3-821d-0c8b215dfb8c","system_id":"levelo_inurba_marseille","lat":43.273129,"lon":5.390725,"is_reserved":false,"is_disabled":false,"rental_uris":{"android":"levelo://app?vid=d2884e01-f1e9-45e3-821d-0c8b215dfb8c","ios":"levelo://app?vid=d2884e01-f1e9-45e3-821d-0c8b215dfb8c"},"vehicle_type_id":"4","last_reported":1700510876,"current_range_meters":4400,"station_id":"ce4bhgp2rcd13ifvqfe0","pricing_plan_id":"free"},{"bike_id":"35e3a58d-7bee-4493-a4a1-3e756e43c24e","system_id":"levelo_inurba_marseille","lat":43.274103,"lon":5.394016,"is_reserved":false,"is_disabled":false,"rental_uris":{"android":"levelo://app?vid=35e3a58d-7bee-4493-a4a1-3e756e43c24e","ios":"levelo://app?vid=35e3a58d-7bee-4493-a4a1-3e756e43c24e"},"vehicle_type_id":"4","last_reported":1700510876,"current_range_meters":14400,"station_id":"ce4bhdp2rcd13ifvqf20","pricing_plan_id":"free"},{"bike_id":"e4a173db-cca9-4da5-b4bb-fe391bb34195","system_id":"levelo_inurba_marseille","lat":43.30415,"lon":5.42538,"is_reserved":false,"is_disabled":false,"rental_uris":{"android":"levelo://app?vid=e4a173db-cca9-4da5-b4bb-fe391bb34195","ios":"levelo://app?vid=e4a173db-cca9-4da5-b4bb-fe391bb34195"},"vehicle_type_id":"4","last_reported":1700510876,"current_range_meters":9600,"station_id":"ce4bhoh2rcd13ifvqh6g","pricing_plan_id":"free"},{"bike_id":"62795268-6228-4ab9-a2a1-d237ecb5526e","system_id":"levelo_inurba_marseille","lat":43.325298,"lon":5.424806,"is_reserved":false,"is_disabled":false,"rental_uris":{"android":"levelo://app?vid=62795268-6228-4ab9-a2a1-d237ecb5526e","ios":"levelo://app?vid=62795268-6228-4ab9-a2a1-d237ecb5526e"},"vehicle_type_id":"4","last_reported":1700510876,"current_range_meters":24000,"station_id":"","pricing_plan_id":"free"},{"bike_id":"0b9e8e4c-c189-4cdb-ab34-64fc9a5eb264","system_id":"levelo_inurba_marseille","lat":43.295523,"lon":5.422926,"is_reserved":false,"is_disabled":false,"rental_uris":{"android":"levelo://app?vid=0b9e8e4c-c189-4cdb-ab34-64fc9a5eb264","ios":"levelo://app?vid=0b9e8e4c-c189-4cdb-ab34-64fc9a5eb264"},"vehicle_type_id":"4","last_reported":1700510876,"current_range_meters":21200,"station_id":"ce4bhph2rcd13ifvqhdg","pricing_plan_id":"free"},{"bike_id":"f15df866-8232-45bd-9a7b-91c496aebe7e","system_id":"levelo_inurba_marseille","lat":43.295523,"lon":5.422926,"is_reserved":false,"is_disabled":false,"rental_uris":{"android":"levelo://app?vid=f15df866-8232-45bd-9a7b-91c496aebe7e","ios":"levelo://app?vid=f15df866-8232-45bd-9a7b-91c496aebe7e"},"vehicle_type_id":"4","last_reported":1700510876,"current_range_meters":18000,"station_id":"ce4bhph2rcd13ifvqhdg","pricing_plan_id":"free"},{"bike_id":"e7999838-2e8b-4b2f-b4ea-a7f990a0764b","system_id":"levelo_inurba_marseille","lat":43.295511,"lon":5.422926,"is_reserved":false,"is_disabled":false,"rental_uris":{"android":"levelo://app?vid=e7999838-2e8b-4b2f-b4ea-a7f990a0764b","ios":"levelo://app?vid=e7999838-2e8b-4b2f-b4ea-a7f990a0764b"},"vehicle_type_id":"4","last_reported":1700510876,"current_range_meters":18800,"station_id":"ce4bhph2rcd13ifvqhdg","pricing_plan_id":"free"},{"bike_id":"903918ca-e4e2-4f26-99fa-669684523fea","system_id":"levelo_inurba_marseille","lat":43.295523,"lon":5.422926,"is_reserved":false,"is_disabled":false,"rental_uris":{"android":"levelo://app?vid=903918ca-e4e2-4f26-99fa-669684523fea","ios":"levelo://app?vid=903918ca-e4e2-4f26-99fa-669684523fea"},"vehicle_type_id":"4","last_reported":1700510876,"current_range_meters":2800,"station_id":"ce4bhph2rcd13ifvqhdg","pricing_plan_id":"free"},{"bike_id":"f8f5619a-a183-461d-b100-453fb972fcd4","system_id":"levelo_inurba_marseille","lat":43.272118,"lon":5.391758,"is_reserved":false,"is_disabled":false,"rental_uris":{"android":"levelo://app?vid=f8f5619a-a183-461d-b100-453fb972fcd4","ios":"levelo://app?vid=f8f5619a-a183-461d-b100-453fb972fcd4"},"vehicle_type_id":"4","last_reported":1700510876,"current_range_meters":8800,"station_id":"ce4bhhp2rcd13ifvqfm0","pricing_plan_id":"free"},{"bike_id":"0c3c91a0-2760-436d-8134-9f5da30b513e","system_id":"levelo_inurba_marseille","lat":43.271936,"lon":5.392415,"is_reserved":false,"is_disabled":false,"rental_uris":{"android":"levelo://app?vid=0c3c91a0-2760-436d-8134-9f5da30b513e","ios":"levelo://app?vid=0c3c91a0-2760-436d-8134-9f5da30b513e"},"vehicle_type_id":"4","last_reported":1700510876,"current_range_meters":7200,"station_id":"","pricing_plan_id":"free"},{"bike_id":"f0ed4531-078e-42fb-a007-3ed80505eb54","system_id":"levelo_inurba_marseille","lat":43.271891,"lon":5.392412,"is_reserved":false,"is_disabled":false,"rental_uris":{"android":"levelo://app?vid=f0ed4531-078e-42fb-a007-3ed80505eb54","ios":"levelo://app?vid=f0ed4531-078e-42fb-a007-3ed80505eb54"},"vehicle_type_id":"4","last_reported":1700510876,"current_range_meters":0,"station_id":"","pricing_plan_id":"free"},{"bike_id":"7d70d288-f59f-4813-8ea2-5bc97e24fa8e","system_id":"levelo_inurba_marseille","lat":43.26948,"lon":5.38629,"is_reserved":false,"is_disabled":false,"rental_uris":{"android":"levelo://app?vid=7d70d288-f59f-4813-8ea2-5bc97e24fa8e","ios":"levelo://app?vid=7d70d288-f59f-4813-8ea2-5bc97e24fa8e"},"vehicle_type_id":"4","last_reported":1700510876,"current_range_meters":20800,"station_id":"ce4bhh92rcd13ifvqfh0","pricing_plan_id":"free"},{"bike_id":"074d868c-f5b6-48a8-a2dc-f6355a644030","system_id":"levelo_inurba_marseille","lat":43.32413,"lon":5.427797,"is_reserved":false,"is_disabled":false,"rental_uris":{"android":"levelo://app?vid=074d868c-f5b6-48a8-a2dc-f6355a644030","ios":"levelo://app?vid=074d868c-f5b6-48a8-a2dc-f6355a644030"},"vehicle_type_id":"4","last_reported":1700510876,"current_range_meters":0,"station_id":"","pricing_plan_id":"free"},{"bike_id":"05d7a7d9-a4c6-4437-9afc-25d937de5c80","system_id":"levelo_inurba_marseille","lat":43.27942,"lon":5.41042,"is_reserved":false,"is_disabled":false,"rental_uris":{"android":"levelo://app?vid=05d7a7d9-a4c6-4437-9afc-25d937de5c80","ios":"levelo://app?vid=05d7a7d9-a4c6-4437-9afc-25d937de5c80"},"vehicle_type_id":"4","last_reported":1700510876,"current_range_meters":0,"station_id":"ce4bhnp2rcd13ifvqh0g","pricing_plan_id":"free"},{"bike_id":"f44524d9-d731-4963-9431-556d93ffb950","system_id":"levelo_inurba_marseille","lat":43.26689,"lon":5.38273,"is_reserved":false,"is_disabled":false,"rental_uris":{"android":"levelo://app?vid=f44524d9-d731-4963-9431-556d93ffb950","ios":"levelo://app?vid=f44524d9-d731-4963-9431-556d93ffb950"},"vehicle_type_id":"4","last_reported":1700510876,"current_range_meters":0,"station_id":"ce4bhg92rcd13ifvqf90","pricing_plan_id":"free"},{"bike_id":"641adf1b-d978-4d44-a7f2-38e2f8e6203e","system_id":"levelo_inurba_marseille","lat":43.26681,"lon":5.382694,"is_reserved":false,"is_disabled":false,"rental_uris":{"android":"levelo://app?vid=641adf1b-d978-4d44-a7f2-38e2f8e6203e","ios":"levelo://app?vid=641adf1b-d978-4d44-a7f2-38e2f8e6203e"},"vehicle_type_id":"4","last_reported":1700510876,"current_range_meters":16000,"station_id":"ce4bhg92rcd13ifvqf90","pricing_plan_id":"free"},{"bike_id":"c7758cb2-2a45-4f89-aa5c-0e391d845c76","system_id":"levelo_inurba_marseille","lat":43.326053,"lon":5.429943,"is_reserved":false,"is_disabled":false,"rental_uris":{"android":"levelo://app?vid=c7758cb2-2a45-4f89-aa5c-0e391d845c76","ios":"levelo://app?vid=c7758cb2-2a45-4f89-aa5c-0e391d845c76"},"vehicle_type_id":"4","last_reported":1700510876,"current_range_meters":0,"station_id":"","pricing_plan_id":"free"},{"bike_id":"42871d3b-8c03-490f-baf1-f4b57c44a331","system_id":"levelo_inurba_marseille","lat":43.326174,"lon":5.430584,"is_reserved":false,"is_disabled":false,"rental_uris":{"android":"levelo://app?vid=42871d3b-8c03-490f-baf1-f4b57c44a331","ios":"levelo://app?vid=42871d3b-8c03-490f-baf1-f4b57c44a331"},"vehicle_type_id":"4","last_reported":1700510876,"current_range_meters":13200,"station_id":"","pricing_plan_id":"free"},{"bike_id":"a7024a7d-3bf5-4b10-9da0-18d93752a67c","system_id":"levelo_inurba_marseille","lat":43.308051,"lon":5.43527,"is_reserved":false,"is_disabled":false,"rental_uris":{"android":"levelo://app?vid=a7024a7d-3bf5-4b10-9da0-18d93752a67c","ios":"levelo://app?vid=a7024a7d-3bf5-4b10-9da0-18d93752a67c"},"vehicle_type_id":"4","last_reported":1700510876,"current_range_meters":15600,"station_id":"ce4bhph2rcd13ifvqheg","pricing_plan_id":"free"},{"bike_id":"b2c14fc1-7ad1-45ee-8f05-a044f4db70c3","system_id":"levelo_inurba_marseille","lat":43.30798,"lon":5.43523,"is_reserved":false,"is_disabled":false,"rental_uris":{"android":"levelo://app?vid=b2c14fc1-7ad1-45ee-8f05-a044f4db70c3","ios":"levelo://app?vid=b2c14fc1-7ad1-45ee-8f05-a044f4db70c3"},