{"last_updated":1750148092,"ttl":60,"version":"2.2","data":{"bikes":[{"bike_id":"3da29fb8-fc97-44c6-b9ac-31dd456b2fd4","system_id":"levelo_inurba_marseille","lat":43.33771,"lon":5.37424,"is_reserved":false,"is_disabled":true,"rental_uris":{"android":"levelo://app?vid=3da29fb8-fc97-44c6-b9ac-31dd456b2fd4","ios":"levelo://app?vid=3da29fb8-fc97-44c6-b9ac-31dd456b2fd4"},"vehicle_type_id":"4","last_reported":1750148092,"current_range_meters":0,"station_id":"","pricing_plan_id":"cebpf4jnsgd1na2vs0mg"},{"bike_id":"01861ad8-a8d7-4be6-816e-651927c87584","system_id":"levelo_inurba_marseille","lat":43.33751,"lon":5.37456,"is_reserved":false,"is_disabled":true,"rental_uris":{"android":"levelo://app?vid=01861ad8-a8d7-4be6-816e-651927c87584","ios":"levelo://app?vid=01861ad8-a8d7-4be6-816e-651927c87584"},"vehicle_type_id":"4","last_reported":1750148092,"current_range_meters":0,"station_id":"","pricing_plan_id":"cebpf4jnsgd1na2vs0mg"},{"bike_id":"b81ba2bd-624d-43c3-b702-6c0cdad38ab2","system_id":"levelo_inurba_marseille","lat":43.31132,"lon":5.39344,"is_reserved":false,"is_disabled":true,"rental_uris":{"android":"levelo://app?vid=b81ba2bd-624d-43c3-b702-6c0cdad38ab2","ios":"levelo://app?vid=b81ba2bd-624d-43c3-b702-6c0cdad38ab2"},"vehicle_type_id":"4","last_reported":1750148092,"current_range_meters":0,"station_id":"","pricing_plan_id":"cebpf4jnsgd1na2vs0mg"},{"bike_id":"d2bd57c8-6b64-48db-ad24-5398eb3fd9d6","system_id":"levelo_inurba_marseille","lat":43.337444,"lon":5.374475,"is_reserved":false,"is_disabled":true,"rental_uris":{"android":"levelo://app?vid=d2bd57c8-6b64-48db-ad24-5398eb3fd9d6","ios":"levelo://app?vid=d2bd57c8-6b64-48db-ad24-5398eb3fd9d6"},"vehicle_type_id":"4","last_reported":1750148092,"current_range_meters":0,"station_id":"","pricing_plan_id":"cebpf4jnsgd1na2vs0mg"},{"bike_id":"62a493c7-4534-4419-ad43-0582de34a72a","system_id":"levelo_inurba_marseille","lat":43.21366,"lon":5.355183,"is_reserved":false,"is_disabled":true,"rental_uris":{"android":"levelo://app?vid=62a493c7-4534-4419-ad43-0582de34a72a","ios":"levelo://app?vid=62a493c7-4534-4419-ad43-0582de34a72a"},"vehicle_type_id":"4","last_reported":1750148092,"current_range_meters":0,"station_id":"","pricing_plan_id":"cebpf4jnsgd1na2vs0mg"},{"bike_id":"93af304b-67b5-47b8-a3fd-e0775f7cde8c","system_id":"levelo_inurba_marseille","lat":43.215346,"lon":5.347419,"is_reserved":false,"is_disabled":true,"rental_uris":{"android":"levelo://app?vid=93af304b-67b5-47b8-a3fd-e0775f7cde8c","ios":"levelo://app?vid=93af304b-67b5-47b8-a3fd-e0775f7cde8c"},"vehicle_type_id":"4","last_reported":1750148092,"current_range_meters":0,"station_id":"","pricing_plan_id":"cebpf4jnsgd1na2vs0mg"},{"bike_id":"d6609b4f-333b-43c1-9ebe-8726f5e76e88","system_id":"levelo_inurba_marseille","lat":43.337444,"lon":5.374475,"is_reserved":false,"is_disabled":true,"rental_uris":{"android":"levelo://app?vid=d6609b4f-333b-43c1-9ebe-8726f5e76e88","ios":"levelo://app?vid=d6609b4f-333b-43c1-9ebe-8726f5e76e88"},"vehicle_type_id":"4","last_reported":1750148092,"current_range_meters":0,"station_id":"","pricing_plan_id":"cebpf4jnsgd1na2vs0mg"},{"bike_id":"7c6fdbaa-49a0-4e5c-bca1-a07989fcd59f","system_id":"levelo_inurba_marseille","lat":43.31258,"lon":5.38632,"is_reserved":false,"is_disabled":true,"rental_uris":{"android":"levelo://app?vid=7c6fdbaa-49a0-4e5c-bca1-a07989fcd59f","ios":"levelo://app?vid=7c6fdbaa-49a0-4e5c-bca1-a07989fcd59f"},"vehicle_type_id":"4","last_reported":1750148092,"current_range_meters":0,"station_id":"","pricing_plan_id":"cebpf4jnsgd1na2vs0mg"},{"bike_id":"92ff4638-91a6-45e9-a23f-68bc927c0316","system_id":"levelo_inurba_marseille","lat":43.29919,"lon":5.37472,"is_reserved":false,"is_disabled":true,"rental_uris":{"android":"levelo://app?vid=92ff4638-91a6-45e9-a23f-68bc927c0316","ios":"levelo://app?vid=92ff4638-91a6-45e9-a23f-68bc927c0316"},"vehicle_type_id":"4","last_reported":1750148092,"current_range_meters":0,"station_id":"ce4bgjh2rcd13ifvqbg0","pricing_plan_id":"cebpf4jnsgd1na2vs0mg"},{"bike_id":"847b7937-2e44-484f-ab16-3c8e0ccd8830","system_id":"levelo_inurba_marseille","lat":43.31365,"lon":5.38487,"is_reserved":false,"is_disabled":true,"rental_uris":{"android":"levelo://app?vid=847b7937-2e44-484f-ab16-3c8e0ccd8830","ios":"levelo://app?vid=847b7937-2e44-484f-ab16-3c8e0ccd8830"},"vehicle_type_id":"4","last_reported":1750148092,"current_range_meters":0,"station_id":"ce4bgt92rcd13ifvqcf0","pricing_plan_id":"cebpf4jnsgd1na2vs0mg"},{"bike_id":"8ee7d802-1625-4cdd-bd91-fabb8eb988be","system_id":"levelo_inurba_marseille","lat":43.30952,"lon":5.39035,"is_reserved":false,"is_disabled":true,"rental_uris":{"android":"levelo://app?vid=8ee7d802-1625-4cdd-bd91-fabb8eb988be","ios":"levelo://app?vid=8ee7d802-1625-4cdd-bd91-fabb8eb988be"},"vehicle_type_id":"4","last_reported":1750148092,"current_range_meters":0,"station_id":"ce4bgup2rcd13ifvqco0","pricing_plan_id":"cebpf4jnsgd1na2vs0mg"},{"bike_id":"c35ce775-9a64-4526-9987-e8626ee01eb5","system_id":"levelo_inurba_marseille","lat":43.309372,"lon":5.401373,"is_reserved":false,"is_disabled":true,"rental_uris":{"android":"levelo://app?vid=c35ce775-9a64-4526-9987-e8626ee01eb5","ios":"levelo://app?vid=c35ce775-9a64-4526-9987-e8626ee01eb5"},"vehicle_type_id":"4","last_reported":1750148092,"current_range_meters":0,"station_id":"ce4bgvp2rcd13ifvqct0","pricing_plan_id":"cebpf4jnsgd1na2vs0mg"},{"bike_id":"15b900c1-f8b8-43f5-88a2-4308dcc83803","system_id":"levelo_inurba_marseille","lat":43.251168,"lon":5.403144,"is_reserved":false,"is_disabled":true,"rental_uris":{"android":"levelo://app?vid=15b900c1-f8b8-43f5-88a2-4308dcc83803","ios":"levelo://app?vid=15b900c1-f8b8-43f5-88a2-4308dcc83803"},"vehicle_type_id":"4","last_reported":1750148092,"current_range_meters":0,"station_id":"ce4bhlh2rcd13ifvqgig","pricing_plan_id":"cebpf4jnsgd1na2vs0mg"},{"bike_id":"dddd8c07-8ca3-467c-b3b1-7dc2980251ca","system_id":"levelo_inurba_marseille","lat":43.25108,"lon":5.40325,"is_reserved":false,"is_disabled":true,"rental_uris":{"android":"levelo://app?vid=dddd8c07-8ca3-467c-b3b1-7dc2980251ca","ios":"levelo://app?vid=dddd8c07-8ca3-467c-b3b1-7dc2980251ca"},"vehicle_type_id":"4","last_reported":1750148092,"current_range_meters":0,"station_id":"ce4bhlh2rcd13ifvqgig","pricing_plan_id":"cebpf4jnsgd1na2vs0mg"},{"bike_id":"ce8379c9-1877-4b53-8daf-0dadeb476dcd","system_id":"levelo_inurba_marseille","lat":43.31225,"lon":5.3687,"is_reserved":false,"is_disabled":true,"rental_uris":{"android":"levelo://app?vid=ce8379c9-1877-4b53-8daf-0dadeb476dcd","ios":"levelo://app?vid=ce8379c9-1877-4b53-8daf-0dadeb476dcd"},"vehicle_type_id":"4","last_reported":1750148092,"current_range_meters":800,"station_id":"ce4bgl92rcd13ifvqbq0","pricing_plan_id":"cebpf4jnsgd1na2vs0mg"},{"bike_id":"04276415-42b1-4736-aa9f-2d33227b99de","system_id":"levelo_inurba_marseille","lat":43.30936,"lon":5.40165,"is_reserved":false,"is_disabled":true,"rental_uris":{"android":"levelo://app?vid=04276415-42b1-4736-aa9f-2d33227b99de","ios":"levelo://app?vid=04276415-42b1-4736-aa9f-2d33227b99de"},"vehicle_type_id":"4","last_reported":1750148092,"current_range_meters":800,"station_id":"ce4bgvp2rcd13ifvqct0","pricing_plan_id":"cebpf4jnsgd1na2vs0mg"},{"bike_id":"e0f8782b-9b4e-410e-9616-cae95fba3622","system_id":"levelo_inurba_marseille","lat":43.28621,"lon":5.35095,"is_reserved":false,"is_disabled":true,"rental_uris":{"android":"levelo://app?vid=e0f8782b-9b4e-410e-9616-cae95fba3622","ios":"levelo://app?vid=e0f8782b-9b4e-410e-9616-cae95fba3622"},"vehicle_type_id":"4","last_reported":1750148092,"current_range_meters":800,"station_id":"ce4bhch2rcd13ifvqeug","pricing_plan_id":"cebpf4jnsgd1na2vs0mg"},{"bike_id":"db16bf96-25d9-4ac3-919f-a5052f86098e","system_id":"levelo_inurba_marseille","lat":43.32124,"lon":5.36765,"is_reserved":false,"is_disabled":true,"rental_uris":{"android":"levelo://app?vid=db16bf96-25d9-4ac3-919f-a5052f86098e","ios":"levelo://app?vid=db16bf96-25d9-4ac3-919f-a5052f86098e"},"vehicle_type_id":"4","last_reported":1750148092,"current_range_meters":800,"station_id":"ce4bhrh2rcd13ifvqhug","pricing_plan_id":"cebpf4jnsgd1na2vs0mg"},{"bike_id":"16d68f95-fb5b-4ba3-9ef5-8e4bba56f279","system_id":"levelo_inurba_marseille","lat":43.31363,"lon":5.38492,"is_reserved":false,"is_disabled":true,"rental_uris":{"android":"levelo://app?vid=16d68f95-fb5b-4ba3-9ef5-8e4bba56f279","ios":"levelo://app?vid=16d68f95-fb5b-4ba3-9ef5-8e4bba56f279"},"vehicle_type_id":"4","last_reported":1750148092,"current_range_meters":1200,"station_id":"ce4bgt92rcd13ifvqcf0","pricing_plan_id":"cebpf4jnsgd1na2vs0mg"},{"bike_id":"1d7dc2d6-5290-4ee0-84ff-a3f5bc5198b4","system_id":"levelo_inurba_marseille","lat":43.27912,"lon":5.39583,"is_reserved":false,"is_disabled":true,"rental_uris":{"android":"levelo://app?vid=1d7dc2d6-5290-4ee0-84ff-a3f5bc5198b4","ios":"levelo://app?vid=1d7dc2d6-5290-4ee0-84ff-a3f5bc5198b4"},"vehicle_type_id":"4","last_reported":1750148092,"current_range_meters":1200,"station_id":"ce4bhf92rcd13ifvqf40","pricing_plan_id":"cebpf4jnsgd1na2vs0mg"},{"bike_id":"1bdeab2b-8a5c-4d0a-a74c-8ffa3e6ce050","system_id":"levelo_inurba_marseille","lat":43.3075,"lon":5.42443,"is_reserved":false,"is_disabled":true,"rental_uris":{"android":"levelo://app?vid=1bdeab2b-8a5c-4d0a-a74c-8ffa3e6ce050","ios":"levelo://app?vid=1bdeab2b-8a5c-4d0a-a74c-8ffa3e6ce050"},"vehicle_type_id":"4","last_reported":1750148092,"current_range_meters":1200,"station_id":"st_cvj6ca6bvosntc0bfgr0","pricing_plan_id":"cebpf4jnsgd1na2vs0mg"},{"bike_id":"dbfce7a3-3423-4296-b193-a177dea644ac","system_id":"levelo_inurba_marseille","lat":43.27283,"lon":5.41611,"is_reserved":false,"is_disabled":true,"rental_uris":{"android":"levelo://app?vid=dbfce7a3-3423-4296-b193-a177dea644ac","ios":"levelo://app?vid=dbfce7a3-3423-4296-b193-a177dea644ac"},"vehicle_type_id":"4","last_reported":1750148092,"current_range_meters":1600,"station_id":"","pricing_plan_id":"cebpf4jnsgd1na2vs0mg"},{"bike_id":"ea3b21e9-155b-4735-b03f-b702f372cd7b","system_id":"levelo_inurba_marseille","lat":43.29965,"lon":5.38506,"is_reserved":false,"is_disabled":true,"rental_uris":{"android":"levelo://app?vid=ea3b21e9-155b-4735-b03f-b702f372cd7b","ios":"levelo://app?vid=ea3b21e9-155b-4735-b03f-b702f372cd7b"},"vehicle_type_id":"4","last_reported":1750148092,"current_range_meters":1600,"station_id":"ce4bgj92rcd13ifvqbd0","pricing_plan_id":"cebpf4jnsgd1na2vs0mg"},{"bike_id":"11e1cf9a-1d31-4b7e-85b7-96ca547e8c86","system_id":"levelo_inurba_marseille","lat":43.280003,"lon":5.400113,"is_reserved":false,"is_disabled":true,"rental_uris":{"android":"levelo://app?vid=11e1cf9a-1d31-4b7e-85b7-96ca547e8c86","ios":"levelo://app?vid=11e1cf9a-1d31-4b7e-85b7-96ca547e8c86"},"vehicle_type_id":"4","last_reported":1750148092,"current_range_meters":1600,"station_id":"ce4bho92rcd13ifvqh4g","pricing_plan_id":"cebpf4jnsgd1na2vs0mg"},{"bike_id":"aac0fc11-191e-42ff-91e6-143cca72b34b","system_id":"levelo_inurba_marseille","lat":43.231918,"lon":5.355507,"is_reserved":false,"is_disabled":true,"rental_uris":{"android":"levelo://app?vid=aac0fc11-191e-42ff-91e6-143cca72b34b","ios":"levelo://app?vid=aac0fc11-191e-42ff-91e6-143cca72b34b"},"vehicle_type_id":"4","last_reported":1750148092,"current_range_meters":1600,"station_id":"ce4bhu92rcd13ifvqi70","pricing_plan_id":"cebpf4jnsgd1na2vs0mg"},{"bike_id":"f16a5698-ddc2-4e59-97f5-5526424b5a60","system_id":"levelo_inurba_marseille","lat":43.2119,"lon":5.35068,"is_reserved":false,"is_disabled":true,"rental_uris":{"android":"levelo://app?vid=f16a5698-ddc2-4e59-97f5-5526424b5a60","ios":"levelo://app?vid=f16a5698-ddc2-4e59-97f5-5526424b5a60"},"vehicle_type_id":"4","last_reported":1750148092,"current_range_meters":1600,"station_id":"st_cvj6sg6p6f1abm77japg","pricing_plan_id":"cebpf4jnsgd1na2vs0mg"},{"bike_id":"559c1354-5115-4d30-96cc-f9ae70264137","system_id":"levelo_inurba_marseille","lat":43.316914,"lon":5.404827,"is_reserved":false,"is_disabled":true,"rental_uris":{"android":"levelo://app?vid=559c1354-5115-4d30-96cc-f9ae70264137","ios":"levelo://app?vid=559c1354-5115-4d30-96cc-f9ae70264137"},"vehicle_type_id":"4","last_reported":1750148092,"current_range_meters":2000,"station_id":"ce4bh012rcd13ifvqd00","pricing_plan_id":"cebpf4jnsgd1na2vs0mg"},{"bike_id":"1816532c-b4dc-4d22-ae48-cf974901f16b","system_id":"levelo_inurba_marseille","lat":43.24188,"lon":5.39741,"is_reserved":false,"is_disabled":true,"rental_uris":{"android":"levelo://app?vid=1816532c-b4dc-4d22-ae48-cf974901f16b","ios":"levelo://app?vid=1816532c-b4dc-4d22-ae48-cf974901f16b"},"vehicle_type_id":"4","last_reported":1750148092,"current_range_meters":2000,"station_id":"ce4bhn12rcd13ifvqgpg","pricing_plan_id":"cebpf4jnsgd1na2vs0mg"},{"bike_id":"ab5d5029-121e-42bd-9101-e37498ef2143","system_id":"levelo_inurba_marseille","lat":43.26765,"lon":5.39464,"is_reserved":false,"is_disabled":false,"rental_uris":{"android":"levelo://app?vid=ab5d5029-121e-42bd-9101-e37498ef2143","ios":"levelo://app?vid=ab5d5029-121e-42bd-9101-e37498ef2143"},"vehicle_type_id":"4","last_reported":1750148092,"current_range_meters":2800,"station_id":"","pricing_plan_id":"cebpf4jnsgd1na2vs0mg"},{"bike_id":"3d5feb78-8d68-4d76-8037-62f72dabc61a","system_id":"levelo_inurba_marseille","lat":43.29014,"lon":5.35602,"is_reserved":false,"is_disabled":false,"rental_uris":{"android":"levelo://app?vid=3d5feb78-8d68-4d76-8037-62f72dabc61a","ios":"levelo://app?vid=3d5feb78-8d68-4d76-8037-62f72dabc61a"},"vehicle_type_id":"4","last_reported":1750148092,"current_range_meters":2800,"station_id":"ce4bhb92rcd13ifvqen0","pricing_plan_id":"cebpf4jnsgd1na2vs0mg"},{"bike_id":"b9e37238-9abe-4b8b-b932-edaee33a7e59","system_id":"levelo_inurba_marseille","lat":43.27497,"lon":5.39001,"is_reserved":false,"is_disabled":false,"rental_uris":{"android":"levelo://app?vid=b9e37238-9abe-4b8b-b932-edaee33a7e59","ios":"levelo://app?vid=b9e37238-9abe-4b8b-b932-edaee33a7e59"},"vehicle_type_id":"4","last_reported":1750148092,"current_range_meters":3200,"station_id":"","pricing_plan_id":"cebpf4jnsgd1na2vs0mg"},{"bike_id":"30d2478a-41bc-41df-805b-1ff1eef62078","system_id":"levelo_inurba_marseille","lat":43.32573,"lon":5.43065,"is_reserved":false,"is_disabled":false,"rental_uris":{"android":"levelo://app?vid=30d2478a-41bc-41df-805b-1ff1eef62078","ios":"levelo://app?vid=30d2478a-41bc-41df-805b-1ff1eef62078"},"vehicle_type_id":"4","last_reported":1750148092,"current_range_meters":3200,"station_id":"","pricing_plan_id":"cebpf4jnsgd1na2vs0mg"},{"bike_id":"3cb81aeb-babf-447a-955a-434f626d14b3","system_id":"levelo_inurba_marseille","lat":43.26779,"lon":5.39419,"is_reserved":false,"is_disabled":false,"rental_uris":{"android":"levelo://app?vid=3cb81aeb-babf-447a-955a-434f626d14b3","ios":"levelo://app?vid=3cb81aeb-babf-447a-955a-434f626d14b3"},"vehicle_type_id":"4","last_reported":1750148092,"current_range_meters":3200,"station_id":"ce4bhh12rcd13ifvqfg0","pricing_plan_id":"cebpf4jnsgd1na2vs0mg"},{"bike_id":"650a0df7-5039-4f0e-b2cb-89836c693f5c","system_id":"levelo_inurba_marseille","lat":43.301558,"lon":5.373271,"is_reserved":false,"is_disabled":false,"rental_uris":{"android":"levelo://app?vid=650a0df7-5039-4f0e-b2cb-89836c693f5c","ios":"levelo://app?vid=650a0df7-5039-4f0e-b2cb-89836c693f5c"},"vehicle_type_id":"4","last_reported":1750148092,"current_range_meters":3600,"station_id":"","pricing_plan_id":"cebpf4jnsgd1na2vs0mg"},{"bike_id":"feeb0f9d-5b77-47ff-84d1-431a92406679","system_id":"levelo_inurba_marseille","lat":43.29038,"lon":5.37565,"is_reserved":false,"is_disabled":false,"rental_uris":{"android":"levelo://app?vid=feeb0f9d-5b77-47ff-84d1-431a92406679","ios":"levelo://app?vid=feeb0f9d-5b77-47ff-84d1-431a92406679"},"vehicle_type_id":"4","last_reported":1750148092,"current_range_meters":3600,"station_id":"ce4bh692rcd13ifvqe90","pricing_plan_id":"cebpf4jnsgd1na2vs0mg"},{"bike_id":"8ffc029a-078a-477c-b863-e6abe91cbbac","system_id":"levelo_inurba_marseille","lat":43.29698,"lon":5.37696,"is_reserved":false,"is_disabled":false,"rental_uris":{"android":"levelo://app?vid=8ffc029a-078a-477c-b863-e6abe91cbbac","ios":"levelo://app?vid=8ffc029a-078a-477c-b863-e6abe91cbbac"},"vehicle_type_id":"4","last_reported":1750148092,"current_range_meters":4000,"station_id":"ce4bgkh2rcd13ifvqbl0","pricing_plan_id":"cebpf4jnsgd1na2vs0mg"},{"bike_id":"2ebf4a8b-41f8-44e2-8fe8-74f3a4836789","system_id":"levelo_inurba_marseille","lat":43.255,"lon":5.3765,"is_reserved":false,"is_disabled":false,"rental_uris":{"android":"levelo://app?vid=2ebf4a8b-41f8-44e2-8fe8-74f3a4836789","ios":"levelo://app?vid=2ebf4a8b-41f8-44e2-8fe8-74f3a4836789"},"vehicle_type_id":"4","last_reported":1750148092,"current_range_meters":4000,"station_id":"ce4bhh12rcd13ifvqff0","pricing_plan_id":"cebpf4jnsgd1na2vs0mg"},{"bike_id":"4d2d1c20-832b-4f46-bd8c-4e11afe9af03","system_id":"levelo_inurba_marseille","lat":43.262,"lon":5.37925,"is_reserved":false,"is_disabled":false,"rental_uris":{"android":"levelo://app?vid=4d2d1c20-832b-4f46-bd8c-4e11afe9af03","ios":"levelo://app?vid=4d2d1c20-832b-4f46-bd8c-4e11afe9af03"},"vehicle_type_id":"4","last_reported":1750148092,"current_range_meters":4000,"station_id":"ce4bhjp2rcd13ifvqg90","pricing_plan_id":"cebpf4jnsgd1na2vs0mg"},{"bike_id":"8d297b38-f666-4a46-9dee-0132f800019c","system_id":"levelo_inurba_marseille","lat":43.32208,"lon":5.38591,"is_reserved":false,"is_disabled":false,"rental_uris":{"android":"levelo://app?vid=8d297b38-f666-4a46-9dee-0132f800019c","ios":"levelo://app?vid=8d297b38-f666-4a46-9dee-0132f800019c"},"vehicle_type_id":"4","last_reported":1750148092,"current_range_meters":4400,"station_id":"","pricing_plan_id":"cebpf4jnsgd1na2vs0mg"},{"bike_id":"11676678-4879-4160-b14e-0b53d033b791","system_id":"levelo_inurba_marseille","lat":43.30148,"lon":5.38079,"is_reserved":false,"is_disabled":false,"rental_uris":{"android":"levelo://app?vid=11676678-4879-4160-b14e-0b53d033b791","ios":"levelo://app?vid=11676678-4879-4160-b14e-0b53d033b791"},"vehicle_type_id":"4","last_reported":1750148092,"current_range_meters":4400,"station_id":"ce4bgjp2rcd13ifvqbh0","pricing_plan_id":"cebpf4jnsgd1na2vs0mg"},{"bike_id":"1ff32c8a-ecf6-4a80-8064-0e18ffb619fa","system_id":"levelo_inurba_marseille","lat":43.2558,"lon":5.3823,"is_reserved":false,"is_disabled":false,"rental_uris":{"android":"levelo://app?vid=1ff32c8a-ecf6-4a80-8064-0e18ffb619fa","ios":"levelo://app?vid=1ff32c8a-ecf6-4a80-8064-0e18ffb619fa"},"vehicle_type_id":"4","last_reported":1750148092,"current_range_meters":4400,"station_id":"ce4bhih2rcd13ifvqfs0","pricing_plan_id":"cebpf4jnsgd1na2vs0mg"},{"bike_id":"c7adae38-a7cd-44ca-b1c6-abbe8813cbd3","system_id":"levelo_inurba_marseille","lat":43.29969,"lon":5.38504,"is_reserved":false,"is_disabled":false,"rental_uris":{"android":"levelo://app?vid=c7adae38-a7cd-44ca-b1c6-abbe8813cbd3","ios":"levelo://app?vid=c7adae38-a7cd-44ca-b1c6-abbe8813cbd3"},"vehicle_type_id":"4","last_reported":1750148092,"current_range_meters":4800,"station_id":"ce4bgj92rcd13ifvqbd0","pricing_plan_id":"cebpf4jnsgd1na2vs0mg"},{"bike_id":"f9925679-a7c8-409d-8382-c7500f76e8c8","system_id":"levelo_inurba_marseille","lat":43.29055,"lon":5.37167,"is_reserved":false,"is_disabled":false,"rental_uris":{"android":"levelo://app?vid=f9925679-a7c8-409d-8382-c7500f76e8c8","ios":"levelo://app?vid=f9925679-a7c8-409d-8382-c7500f76e8c8"},"vehicle_type_id":"4","last_reported":1750148092,"current_range_meters":4800,"station_id":"ce4bh5p2rcd13ifvqe4g","pricing_plan_id":"cebpf4jnsgd1na2vs0mg"},{"bike_id":"4167b3fe-24d9-4be6-acd7-ecd8e6bd7026","system_id":"levelo_inurba_marseille","lat":43.32484,"lon":5.36763,"is_reserved":false,"is_disabled":false,"rental_uris":{"android":"levelo://app?vid=4167b3fe-24d9-4be6-acd7-ecd8e6bd7026","ios":"levelo://app?vid=4167b3fe-24d9-4be6-acd7-ecd8e6bd7026"},"vehicle_type_id":"4","last_reported":1750148092,"current_range_meters":5600,"station_id":"","pricing_plan_id":"cebpf4jnsgd1na2vs0mg"},{"bike_id":"355d33db-d830-4abb-a2f9-34e06aea68bc","system_id":"levelo_inurba_marseille","lat":43.32209,"lon":5.3813,"is_reserved":false,"is_disabled":false,"rental_uris":{"android":"levelo://app?vid=355d33db-d830-4abb-a2f9-34e06aea68bc","ios":"levelo://app?vid=355d33db-d830-4abb-a2f9-34e06aea68bc"},"vehicle_type_id":"4","last_reported":1750148092,"current_range_meters":5600,"station_id":"","pricing_plan_id":"cebpf4jnsgd1na2vs0mg"},{"bike_id":"dc8b53c0-dc31-42ac-ad40-e07ee56fd907","system_id":"levelo_inurba_marseille","lat":43.2977,"lon":5.37101,"is_reserved":false,"is_disabled":false,"rental_uris":{"android":"levelo://app?vid=dc8b53c0-dc31-42ac-ad40-e07ee56fd907","ios":"levelo://app?vid=dc8b53c0-dc31-42ac-ad40-e07ee56fd907"},"vehicle_type_id":"4","last_reported":1750148092,"current_range_meters":5600,"station_id":"ce4bgop2rcd13ifvqc1g","pricing_plan_id":"cebpf4jnsgd1na2vs0mg"},{"bike_id":"c95122cd-b69e-4580-be29-7b1b627ba1ac","system_id":"levelo_inurba_marseille","lat":43.29,"lon":5.35593,"is_reserved":false,"is_disabled":false,"rental_uris":{"android":"levelo://app?vid=c95122cd-b69e-4580-be29-7b1b627ba1ac","ios":"levelo://app?vid=c95122cd-b69e-4580-be29-7b1b627ba1ac"},"vehicle_type_id":"4","last_reported":1750148092,"current_range_meters":5600,"station_id":"ce4bhb92rcd13ifvqen0","pricing_plan_id":"cebpf4jnsgd1na2vs0mg"},{"bike_id":"f03501b3-7634-4444-9a22-7f996a732b4a","system_id":"levelo_inurba_marseille","lat":43.3136,"lon":5.36719,"is_reserved":false,"is_disabled":false,"rental_uris":{"android":"levelo://app?vid=f03501b3-7634-4444-9a22-7f996a732b4a","ios":"levelo://app?vid=f03501b3-7634-4444-9a22-7f996a732b4a"},"vehicle_type_id":"4","last_reported":1750148092,"current_range_meters":6000,"station_id":"ce4bgr92rcd13ifvqc6g","pricing_plan_id":"cebpf4jnsgd1na2vs0mg"},{"bike_id":"58677656-03e7-4413-b8eb-91be8f66e885","system_id":"levelo_inurba_marseille","lat":43.28272,"lon":5.35062,"is_reserved":false,"is_disabled":false,"rental_uris":{"android":"levelo://app?vid=58677656-03e7-4413-b8eb-91be8f66e885","ios":"levelo://app?vid=58677656-03e7-4413-b8eb-91be8f66e885"},"vehicle_type_id":"4","last_reported":1750148092,"current_range_meters":6000,"station_id":"ce4bhbp2rcd13ifvqerg","pricing_plan_id":"cebpf4jnsgd1na2vs0mg"},{"bike_id":"79eeb666-d8d8-469a-94d3-68222c812a1d","system_id":"levelo_inurba_marseille","lat":43.31792,"lon":5.37482,"is_reserved":false,"is_disabled":false,"rental_uris":{"android":"levelo://app?vid=79eeb666-d8d8-469a-94d3-68222c812a1d","ios":"levelo://app?vid=79eeb666-d8d8-469a-94d3-68222c812a1d"},"vehicle_type_id":"4","last_reported":1750148092,"current_range_meters":6400,"station_id":"","pricing_plan_id":"cebpf4jnsgd1na2vs0mg"},{"bike_id":"8c6e3f5c-fbd9-4abe-a7be-ece848b4fc54","system_id":"levelo_inurba_marseille","lat":43.32571,"lon":5.43069,"is_reserved":false,"is_disabled":false,"rental_uris":{"android":"levelo://app?vid=8c6e3f5c-fbd9-4abe-a7be-ece848b4fc54","ios":"levelo://app?vid=8c6e3f5c-fbd9-4abe-a7be-ece848b4fc54"},"vehicle_type_id":"4","last_reported":1750148092,"current_range_meters":6400,"station_id":"","pricing_plan_id":"cebpf4jnsgd1na2vs0mg"},{"bike_id":"808ee353-17f1-4059-9816-8c42979e4455","system_id":"levelo_inurba_marseille","lat":43.325333,"lon":5.41455,"is_reserved":false,"is_disabled":false,"rental_uris":{"android":"levelo://app?vid=808ee353-17f1-4059-9816-8c42979e4455","ios":"levelo://app?vid=808ee353-17f1-4059-9816-8c42979e4455"},"vehicle_type_id":"4","last_reported":1750148092,"current_range_meters":6400,"station_id":"ce4bhq12rcd13ifvqhhg","pricing_plan_id":"cebpf4jnsgd1na2vs0mg"},{"bike_id":"dcb87a9a-18f8-41c6-9134-949f31e21b42","system_id":"levelo_inurba_marseille","lat":43.27011,"lon":5.39939,"is_reserved":false,"is_disabled":false,"rental_uris":{"android":"levelo://app?vid=dcb87a9a-18f8-41c6-9134-949f31e21b42","ios":"levelo://app?vid=dcb87a9a-18f8-41c6-9134-949f31e21b42"},"vehicle_type_id":"4","last_reported":1750148092,"current_range_meters":6800,"station_id":"","pricing_plan_id":"cebpf4jnsgd1na2vs0mg"},{"bike_id":"10d8703f-8168-48d3-b44c-9eaaf686e239","system_id":"levelo_inurba_marseille","lat":43.30591,"lon":5.37235,"is_reserved":false,"is_disabled":false,"rental_uris":{"android":"levelo://app?vid=10d8703f-8168-48d3-b44c-9eaaf686e239","ios":"levelo://app?vid=10d8703f-8168-48d3-b44c-9eaaf686e239"},"vehicle_type_id":"4","last_reported":1750148092,"current_range_meters":6800,"station_id":"ce4bgqh2rcd13ifvqc4g","pricing_plan_id":"cebpf4jnsgd1na2vs0mg"},{"bike_id":"7e177b9a-58c9-4252-85bd-9160c25bf961","system_id":"levelo_inurba_marseille","lat":43.29788,"lon":5.393505,"is_reserved":false,"is_disabled":false,"rental_uris":{"android":"levelo://app?vid=7e177b9a-58c9-4252-85bd-9160c25bf961","ios":"levelo://app?vid=7e177b9a-58c9-4252-85bd-9160c25bf961"},"vehicle_type_id":"4","last_reported":1750148092,"current_range_meters":6800,"station_id":"chh1huq6cuj3fo74tm60","pricing_plan_id":"cebpf4jnsgd1na2vs0mg"},{"bike_id":"3042c9e5-c5a5-4a11-94d1-8e536b5e25f7","system_id":"levelo_inurba_marseille","lat":43.21189,"lon":5.35078,"is_reserved":false,"is_disabled":false,"rental_uris":{"android":"levelo://app?vid=3042c9e5-c5a5-4a11-94d1-8e536b5e25f7","ios":"levelo://app?vid=3042c9e5-c5a5-4a11-94d1-8e536b5e25f7"},"vehicle_type_id":"4","last_reported":1750148092,"current_range_meters":7200,"station_id":"st_cvj6sg6p6f1abm77japg","pricing_plan_id":"cebpf4jnsgd1na2vs0mg"},{"bike_id":"26a09134-8508-4070-aaff-ae574614f5c0","system_id":"levelo_inurba_marseille","lat":43.3123,"lon":5.36859,"is_reserved":false,"is_disabled":false,"rental_uris":{"android":"levelo://app?vid=26a09134-8508-4070-aaff-ae574614f5c0","ios":"levelo://app?vid=26a09134-8508-4070-aaff-ae574614f5c0"},"vehicle_type_id":"4","last_reported":1750148092,"current_range_meters":8000,"station_id":"ce4bgl92rcd13ifvqbq0","pricing_plan_id":"cebpf4jnsgd1na2vs0mg"},{"bike_id":"7d8647da-5a19-4374-9e57-788f0b38886a","system_id":"levelo_inurba_marseille","lat":43.290131,"lon":5.379396,"is_reserved":false,"is_disabled":false,"rental_uris":{"android":"levelo://app?vid=7d8647da-5a19-4374-9e57-788f0b38886a","ios":"levelo://app?vid=7d8647da-5a19-4374-9e57-788f0b38886a"},"vehicle_type_id":"4","last_reported":1750148092,"current_range_meters":8000,"station_id":"ce4bgop2rcd13ifvqc1g","pricing_plan_id":"cebpf4jnsgd1na2vs0mg"},{"bike_id":"cfc82a10-8d52-42f6-94f0-8ed715236c6e","system_id":"levelo_inurba_marseille","lat":43.30954,"lon":5.39044,"is_reserved":false,"is_disabled":false,"rental_uris":{"android":"levelo://app?vid=cfc82a10-8d52-42f6-94f0-8ed715236c6e","ios":"levelo://app?vid=cfc82a10-8d52-42f6-94f0-8ed715236c6e"},"vehicle_type_id":"4","last_reported":1750148092,"current_range_meters":8000,"station_id":"ce4bgup2rcd13ifvqco0","pricing_plan_id":"cebpf4jnsgd1na2vs0mg"},{"bike_id":"1915c3e4-8e96-439d-bd85-8d0629a7e242","system_id":"levelo_inurba_marseille","lat":43.29265,"lon":5.36853,"is_reserved":false,"is_disabled":false,"rental_uris":{"android":"levelo://app?vid=1915c3e4-8e96-439d-bd85-8d0629a7e242","ios":"levelo://app?vid=1915c3e4-8e96-439d-bd85-8d0629a7e242"},"vehicle_type_id":"4","last_reported":1750148092,"current_range_meters":8000,"station_id":"ce4bhbp2rcd13ifvqesg","pricing_plan_id":"cebpf4jnsgd1na2vs0mg"},{"bike_id":"40c55ce5-29f7-40ed-9705-7045f4c43e94","system_id":"levelo_inurba_marseille","lat":43.26685,"lon":5.38278,"is_reserved":false,"is_disabled":false,"rental_uris":{"android":"levelo://app?vid=40c55ce5-29f7-40ed-9705-7045f4c43e94","ios":"levelo://app?vid=40c55ce5-29f7-40ed-9705-7045f4c43e94"},"vehicle_type_id":"4","last_reported":1750148092,"current_range_meters":8000,"station_id":"ce4bhg92rcd13ifvqf90","pricing_plan_id":"cebpf4jnsgd1na2vs0mg"},{"bike_id":"adbb8bb9-bfdd-4cca-aa22-9d75ec7abd3a","system_id":"levelo_inurba_marseille","lat":43.29298,"lon":5.37453,"is_reserved":false,"is_disabled":false,"rental_uris":{"android":"levelo://app?vid=adbb8bb9-bfdd-4cca-aa22-9d75ec7abd3a","ios":"levelo://app?vid=adbb8bb9-bfdd-4cca-aa22-9d75ec7abd3a"},"vehicle_type_id":"4","last_reported":1750148092,"current_range_meters":8400,"station_id":"ce4bgi12rcd13ifvqb70","pricing_plan_id":"cebpf4jnsgd1na2vs0mg"},{"bike_id":"6afc644c-08c3-42de-8619-3f94e2ba41cd","system_id":"levelo_inurba_marseille","lat":43.299133,"lon":5.436639,"is_reserved":false,"is_disabled":false,"rental_uris":{"android":"levelo://app?vid=6afc644c-08c3-42de-8619-3f94e2ba41cd","ios":"levelo://app?vid=6afc644c-08c3-42de-8619-3f94e2ba41cd"},"vehicle_type_id":"4","last_reported":1750148092,"current_range_meters":8400,"station_id":"ce4bhpp2rcd13ifvqhfg","pricing_plan_id":"cebpf4jnsgd1na2vs0mg"},{"bike_id":"26464f4b-1e3b-4f18-b2a2-99ce7626ffd3","system_id":"levelo_inurba_marseille","lat":43.295877,"lon":5.368488,"is_reserved":false,"is_disabled":false,"rental_uris":{"android":"levelo://app?vid=26464f4b-1e3b-4f18-b2a2-99ce7626ffd3","ios":"levelo://app?vid=26464f4b-1e3b-4f18-b2a2-99ce7626ffd3"},"vehicle_type_id":"4","last_reported":1750148092,"current_range_meters":8800,"station_id":"ce4bgph2rcd13ifvqc2g","pricing_plan_id":"cebpf4jnsgd1na2vs0mg"},{"bike_id":"32d8ae12-ba2c-45ca-ad56-21f314ab8f61","system_id":"levelo_inurba_marseille","lat":43.29167,"lon":5.37154,"is_reserved":false,"is_disabled":false,"rental_uris":{"android":"levelo://app?vid=32d8ae12-ba2c-45ca-ad56-21f314ab8f61","ios":"levelo://app?vid=32d8ae12-ba2c-45ca-ad56-21f314ab8f61"},"vehicle_type_id":"4","last_reported":1750148092,"current_range_meters":8800,"station_id":"ce4bha92rcd13ifvqeh0","pricing_plan_id":"cebpf4jnsgd1na2vs0mg"},{"bike_id":"182c65c7-af40-4a1d-bafe-4d377c0ca446","system_id":"levelo_inurba_marseille","lat":43.26553,"lon":5.37283,"is_reserved":false,"is_disabled":false,"rental_uris":{"android":"levelo://app?vid=182c65c7-af40-4a1d-bafe-4d377c0ca446","ios":"levelo://app?vid=182c65c7-af40-4a1d-bafe-4d377c0ca446"},"vehicle_type_id":"4","last_reported":1750148092,"current_range_meters":8800,"station_id":"ce4bhg12rcd13ifvqf70","pricing_plan_id":"cebpf4jnsgd1na2vs0mg"},{"bike_id":"33b08a16-92cb-4184-b77a-c97be12ab3bc","system_id":"levelo_inurba_marseille","lat":43.23965,"lon":5.36637,"is_reserved":false,"is_disabled":false,"rental_uris":{"android":"levelo://app?vid=33b08a16-92cb-4184-b77a-c97be12ab3bc","ios":"levelo://app?vid=33b08a16-92cb-4184-b77a-c97be12ab3bc"},"vehicle_type_id":"4","last_reported":1750148092,"current_range_meters":8800,"station_id":"ce4bhi12rcd13ifvqfp0","pricing_plan_id":"cebpf4jnsgd1na2vs0mg"},{"bike_id":"496841ab-3b9a-4114-81ee-c1ecccd0bd7c","system_id":"levelo_inurba_marseille","lat":43.29791,"lon":5.37105,"is_reserved":false,"is_disabled":false,"rental_uris":{"android":"levelo://app?vid=496841ab-3b9a-4114-81ee-c1ecccd0bd7c","ios":"levelo://app?vid=496841ab-3b9a-4114-81ee-c1ecccd0bd7c"},"vehicle_type_id":"4","last_reported":1750148092,"current_range_meters":9200,"station_id":"ce4bgop2rcd13ifvqc1g","pricing_plan_id":"cebpf4jnsgd1na2vs0mg"},{"bike_id":"b9e6904e-19e9-45b5-9ac1-b029114d6544","system_id":"levelo_inurba_marseille","lat":43.31342,"lon":5.36727,"is_reserved":false,"is_disabled":false,"rental_uris":{"android":"levelo://app?vid=b9e6904e-19e9-45b5-9ac1-b029114d6544","ios":"levelo://app?vid=b9e6904e-19e9-45b5-9ac1-b029114d6544"},"vehicle_type_id":"4","last_reported":1750148092,"current_range_meters":9200,"station_id":"ce4bgr92rcd13ifvqc6g","pricing_plan_id":"cebpf4jnsgd1na2vs0mg"},{"bike_id":"7db2dafb-5c52-41eb-95fb-ee667194c9d2","system_id":"levelo_inurba_marseille","lat":43.30949,"lon":5.39029,"is_reserved":false,"is_disabled":false,"rental_uris":{"android":"levelo://app?vid=7db2dafb-5c52-41eb-95fb-ee667194c9d2","ios":"levelo://app?vid=7db2dafb-5c52-41eb-95fb-ee667194c9d2"},"vehicle_type_id":"4","last_reported":1750148092,"current_range_meters":9200,"station_id":"ce4bgup2rcd13ifvqco0","pricing_plan_id":"cebpf4jnsgd1na2vs0mg"},{"bike_id":"163eb2cf-70a7-4f4c-aa60-696f0c9d161d","system_id":"levelo_inurba_marseille","lat":43.29167,"lon":5.37163,"is_reserved":false,"is_disabled":false,"rental_uris":{"android":"levelo://app?vid=163eb2cf-70a7-4f4c-aa60-696f0c9d161d","ios":"levelo://app?vid=163eb2cf-70a7-4f4c-aa60-696f0c9d161d"},"vehicle_type_id":"4","last_reported":1750148092,"current_range_meters":9200,"station_id":"ce4bha92rcd13ifvqeh0","pricing_plan_id":"cebpf4jnsgd1na2vs0mg"},{"bike_id":"caf6f3e2-bc1e-413d-8e76-c9f27e19c5f2","system_id":"levelo_inurba_marseille","lat":43.26553,"lon":5.37292,"is_reserved":false,"is_disabled":false,"rental_uris":{"android":"levelo://app?vid=caf6f3e2-bc1e-413d-8e76-c9f27e19c5f2","ios":"levelo://app?vid=caf6f3e2-bc1e-413d-8e76-c9f27e19c5f2"},"vehicle_type_id":"4","last_reported":1750148092,"current_range_meters":9200,"station_id":"ce4bhg12rcd13ifvqf70","pricing_plan_id":"cebpf4jnsgd1na2vs0mg"},{"bike_id":"865ec628-0f51-463e-a384-6e3ca00f4a84","system_id":"levelo_inurba_marseille","lat":43.231489,"lon":5.437011,"is_reserved":false,"is_disabled":false,"rental_uris":{"android":"levelo://app?vid=865ec628-0f51-463e-a384-6e3ca00f4a84","ios":"levelo://app?vid=865ec628-0f51-463e-a384-6e3ca00f4a84"},"vehicle_type_id":"4","last_reported":1750148092,"current_range_meters":9200,"station_id":"ce4bhmp2rcd13ifvqgog","pricing_plan_id":"cebpf4jnsgd1na2vs0mg"},{"bike_id":"a66728c4-f2e7-428e-b872-e7406fb70732","system_id":"levelo_inurba_marseille","lat":43.212027,"lon":5.350741,"is_reserved":false,"is_disabled":false,"rental_uris":{"android":"levelo://app?vid=a66728c4-f2e7-428e-b872-e7406fb70732","ios":"levelo://app?vid=a66728c4-f2e7-428e-b872-e7406fb70732"},"vehicle_type_id":"4","last_reported":1750148092,"current_range_meters":9200,"station_id":"st_cvj6sg6p6f1abm77japg","pricing_plan_id":"cebpf4jnsgd1na2vs0mg"},{"bike_id":"da3e1724-606c-4f9a-9130-d56dd48e22e0","system_id":"levelo_inurba_marseille","lat":43.329654,"lon":5.405981,"is_reserved":false,"is_disabled":false,"rental_uris":{"android":"levelo://app?vid=da3e1724-606c-4f9a-9130-d56dd48e22e0","ios":"levelo://app?vid=da3e1724-606c-4f9a-9130-d56dd48e22e0"},"vehicle_type_id":"4","last_reported":1750148092,"current_range_meters":9600,"station_id":"","pricing_plan_id":"cebpf4jnsgd1na2vs0mg"},{"bike_id":"64c6d212-acc6-47e3-9e04-fbaf04a7ed4e","system_id":"levelo_inurba_marseille","lat":43.2697,"lon":5.38781,"is_reserved":false,"is_disabled":false,"rental_uris":{"android":"levelo://app?vid=64c6d212-acc6-47e3-9e04-fbaf04a7ed4e","ios":"levelo://app?vid=64c6d212-acc6-47e3-9e04-fbaf04a7ed4e"},"vehicle_type_id":"4","last_reported":1750148092,"current_range_meters":9600,"station_id":"","pricing_plan_id":"cebpf4jnsgd1na2vs0mg"},{"bike_id":"ebfb692b-f013-40a4-b271-1cca54572bce","system_id":"levelo_inurba_marseille","lat":43.31373,"lon":5.36685,"is_reserved":false,"is_disabled":false,"rental_uris":{"android":"levelo://app?vid=ebfb692b-f013-40a4-b271-1cca54572bce","ios":"levelo://app?vid=ebfb692b-f013-40a4-b271-1cca54572bce"},"vehicle_type_id":"4","last_reported":1750148092,"current_range_meters":9600,"station_id":"ce4bgr92rcd13ifvqc6g","pricing_plan_id":"cebpf4jnsgd1na2vs0mg"},{"bike_id":"2df58c42-df86-4aea-b8a2-5d38854f1c64","system_id":"levelo_inurba_marseille","lat":43.30568,"lon":5.36539,"is_reserved":false,"is_disabled":false,"rental_uris":{"android":"levelo://app?vid=2df58c42-df86-4aea-b8a2-5d38854f1c64","ios":"levelo://app?vid=2df58c42-df86-4aea-b8a2-5d38854f1c64"},"vehicle_type_id":"4","last_reported":1750148092,"current_range_meters":9600,"station_id":"ce4bgs12rcd13ifvqcag","pricing_plan_id":"cebpf4jnsgd1na2vs0mg"},{"bike_id":"0626f844-851d-46f7-b927-0098a85ccedf","system_id":"levelo_inurba_marseille","lat":43.301323,"lon":5.374227,"is_reserved":false,"is_disabled":false,"rental_uris":{"android":"levelo://app?vid=0626f844-851d-46f7-b927-0098a85ccedf","ios":"levelo://app?vid=0626f844-851d-46f7-b927-0098a85ccedf"},"vehicle_type_id":"4","last_reported":1750148092,"current_range_meters":9600,"station_id":"ce4bgs92rcd13ifvqcc0","pricing_plan_id":"cebpf4jnsgd1na2vs0mg"},{"bike_id":"508fd1d5-464f-447c-b6cf-cfaa3ce05e3f","system_id":"levelo_inurba_marseille","lat":43.30371,"lon":5.42451,"is_reserved":false,"is_disabled":false,"rental_uris":{"android":"levelo://app?vid=508fd1d5-464f-447c-b6cf-cfaa3ce05e3f","ios":"levelo://app?vid=508fd1d5-464f-447c-b6cf-cfaa3ce05e3f"},"vehicle_type_id":"4","last_reported":1750148092,"current_range_meters":9600,"station_id":"ce4bhoh2rcd13ifvqh6g","pricing_plan_id":"cebpf4jnsgd1na2vs0mg"},{"bike_id":"16d1eb4f-e479-477d-b2cb-5fd8838c33e7","system_id":"levelo_inurba_marseille","lat":43.22937,"lon":5.35362,"is_reserved":false,"is_disabled":false,"rental_uris":{"android":"levelo://app?vid=16d1eb4f-e479-477d-b2cb-5fd8838c33e7","ios":"levelo://app?vid=16d1eb4f-e479-477d-b2cb-5fd8838c33e7"},"vehicle_type_id":"4","last_reported":1750148092,"current_range_meters":9600,"station_id":"cpo3532slgdg3j2ikp40","pricing_plan_id":"cebpf4jnsgd1na2vs0mg"},{"bike_id":"356258c8-0ad6-493b-b5a4-77e865070f65","system_id":"levelo_inurba_marseille","lat":43.32614,"lon":5.41968,"is_reserved":false,"is_disabled":false,"rental_uris":{"android":"levelo://app?vid=356258c8-0ad6-493b-b5a4-77e865070f65","ios":"levelo://app?vid=356258c8-0ad6-493b-b5a4-77e865070f65"},"vehicle_type_id":"4","last_reported":1750148092,"current_range_meters":10000,"station_id":"","pricing_plan_id":"cebpf4jnsgd1na2vs0mg"},{"bike_id":"6a9e261d-8f49-4b8c-b291-d5400f395389","system_id":"levelo_inurba_marseille","lat":43.30548,"lon":5.36711,"is_reserved":false,"is_disabled":false,"rental_uris":{"android":"levelo://app?vid=6a9e261d-8f49-4b8c-b291-d5400f395389","ios":"levelo://app?vid=6a9e261d-8f49-4b8c-b291-d5400f395389"},"vehicle_type_id":"4","last_reported":1750148092,"current_range_meters":10000,"station_id":"ce4bgrp2rcd13ifvqc9g","pricing_plan_id":"cebpf4jnsgd1na2vs0mg"},{"bike_id":"b6fc5fc1-7959-4d60-b6be-4099b36f6d92","system_id":"levelo_inurba_marseille","lat":43.29439,"lon":5.397521,"is_reserved":false,"is_disabled":false,"rental_uris":{"android":"levelo://app?vid=b6fc5fc1-7959-4d60-b6be-4099b36f6d92","ios":"levelo://app?vid=b6fc5fc1-7959-4d60-b6be-4099b36f6d92"},"vehicle_type_id":"4","last_reported":1750148092,"current_range_meters":10000,"station_id":"ce4bh3h2rcd13ifvqdo0","pricing_plan_id":"cebpf4jnsgd1na2vs0mg"},{"bike_id":"ef1fa343-8b0c-4998-a055-72ea6ddfc7d7","system_id":"levelo_inurba_marseille","lat":43.28934,"lon":5.38379,"is_reserved":false,"is_disabled":false,"rental_uris":{"android":"levelo://app?vid=ef1fa343-8b0c-4998-a055-72ea6ddfc7d7","ios":"levelo://app?vid=ef1fa343-8b0c-4998-a055-72ea6ddfc7d7"},"vehicle_type_id":"4","last_reported":1750148092,"current_range_meters":10000,"station_id":"ce4bh612rcd13ifvqe6g","pricing_plan_id":"cebpf4jnsgd1na2vs0mg"},{"bike_id":"cf0b7e8f-23ce-4844-b6f6-bc3fe4b9236b","system_id":"levelo_inurba_marseille","lat":43.23152,"lon":5.43716,"is_reserved":false,"is_disabled":false,"rental_uris":{"android":"levelo://app?vid=cf0b7e8f-23ce-4844-b6f6-bc3fe4b9236b","ios":"levelo://app?vid=cf0b7e8f-23ce-4844-b6f6-bc3fe4b9236b"},"vehicle_type_id":"4","last_reported":1750148092,"current_range_meters":10000,"station_id":"ce4bhmp2rcd13ifvqgog","pricing_plan_id":"cebpf4jnsgd1na2vs0mg"},{"bike_id":"34b6440e-c7b5-48b2-937e-919737aa21ee","system_id":"levelo_inurba_marseille","lat":43.241722,"lon":5.397298,"is_reserved":false,"is_disabled":false,"rental_uris":{"android":"levelo://app?vid=34b6440e-c7b5-48b2-937e-919737aa21ee","ios":"levelo://app?vid=34b6440e-c7b5-48b2-937e-919737aa21ee"},"vehicle_type_id":"4","last_reported":1750148092,"current_range_meters":10000,"station_id":"ce4bhn12rcd13ifvqgpg","pricing_plan_id":"cebpf4jnsgd1na2vs0mg"},{"bike_id":"495ed5a6-10f8-4ae0-9798-3eec6b4ecf2c","system_id":"levelo_inurba_marseille","lat":43.26238,"lon":5.39327,"is_reserved":false,"is_disabled":false,"rental_uris":{"android":"levelo://app?vid=495ed5a6-10f8-4ae0-9798-3eec6b4ecf2c","ios":"levelo://app?vid=495ed5a6-10f8-4ae0-9798-3eec6b4ecf2c"},"vehicle_type_id":"4","last_reported":1750148092,"current_range_meters":10800,"station_id":"","pricing_plan_id":"cebpf4jnsgd1na2vs0mg"},{"bike_id":"b35914ae-da38-46fc-9230-b3564743afac","system_id":"levelo_inurba_marseille","lat":43.31699,"lon":5.40465,"is_reserved":false,"is_disabled":false,"rental_uris":{"android":"levelo://app?vid=b35914ae-da38-46fc-9230-b3564743afac","ios":"levelo://app?vid=b35914ae-da38-46fc-9230-b3564743afac"},"vehicle_type_id":"4","last_reported":1750148092,"current_range_meters":10800,"station_id":"ce4bh012rcd13ifvqd00","pricing_plan_id":"cebpf4jnsgd1na2vs0mg"},{"bike_id":"60aee3e5-ddf8-4600-a663-08cc0004499c","system_id":"levelo_inurba_marseille","lat":43.28031,"lon":5.36949,"is_reserved":false,"is_disabled":false,"rental_uris":{"android":"levelo://app?vid=60aee3e5-ddf8-4600-a663-08cc0004499c","ios":"levelo://app?vid=60aee3e5-ddf8-4600-a663-08cc0004499c"},"vehicle_type_id":"4","last_reported":1750148092,"current_range_meters":10800,"station_id":"ce4bha12rcd13ifvqef0","pricing_plan_id":"cebpf4jnsgd1na2vs0mg"},{"bike_id":"a71d6554-b76e-45cb-bbdb-f22b0e98760b","system_id":"levelo_inurba_marseille","lat":43.24804,"lon":5.37454,"is_reserved":false,"is_disabled":false,"rental_uris":{"android":"levelo://app?vid=a71d6554-b76e-45cb-bbdb-f22b0e98760b","ios":"levelo://app?vid=a71d6554-b76e-45cb-bbdb-f22b0e98760b"},"vehicle_type_id":"4","last_reported":1750148092,"current_range_meters":10800,"station_id":"ce4bhgh2rcd13ifvqfb0","pricing_plan_id":"cebpf4jnsgd1na2vs0mg"},{"bike_id":"1dc4c493-fd50-4b2b-ba20-0c82ec46f928","system_id":"levelo_inurba_marseille","lat":43.26189,"lon":5.37454,"is_reserved":false,"is_disabled":false,"rental_uris":{"android":"levelo://app?vid=1dc4c493-fd50-4b2b-ba20-0c82ec46f928","ios":"levelo://app?vid=1dc4c493-fd50-4b2b-ba20-0c82ec46f928"},"vehicle_type_id":"4","last_reported":1750148092,"current_range_meters":10800,"station_id":"ce4bhgp2rcd13ifvqfc0","pricing_plan_id":"cebpf4jnsgd1na2vs0mg"},{"bike_id":"95be4f8d-01df-406f-8e42-3407556b2269","system_id":"levelo_inurba_marseille","lat":43.2594,"lon":5.40909,"is_reserved":false,"is_disabled":false,"rental_uris":{"android":"levelo://app?vid=95be4f8d-01df-406f-8e42-3407556b2269","ios":"levelo://app?vid=95be4f8d-01df-406f-8e42-3407556b2269"},"vehicle_type_id":"4","last_reported":1750148092,"current_range_meters":10800,"station_id":"ce4bhm92rcd13ifvqglg","pricing_plan_id":"cebpf4jnsgd1na2vs0mg"},{"bike_id":"5d2d102b-7735-4bcd-977d-09e87a0d4a61","system_id":"levelo_inurba_marseille","lat":43.24182,"lon":5.39737,"is_reserved":false,"is_disabled":false,"rental_uris":{"android":"levelo://app?vid=5d2d102b-7735-4bcd-977d-09e87a0d4a61","ios":"levelo://app?vid=5d2d102b-7735-4bcd-977d-09e87a0d4a61"},"vehicle_type_id":"4","last_reported":1750148092,"current_range_meters":10800,"station_id":"ce4bhn12rcd13ifvqgpg","pricing_plan_id":"cebpf4jnsgd1na2vs0mg"},{"bike_id":"15f22fb8-4214-4ac3-8734-1a91803656b6","system_id":"levelo_inurba_marseille","lat":43.318893,"lon":5.407463,"is_reserved":false,"is_disabled":false,"rental_uris":{"android":"levelo://app?vid=15f22fb8-4214-4ac3-8734-1a91803656b6","ios":"levelo://app?vid=15f22fb8-4214-4ac3-8734-1a91803656b6"},"vehicle_type_id":"4","last_reported":1750148092,"current_range_meters":10800,"station_id":"ce4bhq12rcd13ifvqhig","pricing_plan_id":"cebpf4jnsgd1na2vs0mg"},{"bike_id":"d2868572-6fee-4690-8a81-283adbeec80c","system_id":"levelo_inurba_marseille","lat":43.2118,"lon":5.35065,"is_reserved":false,"is_disabled":false,"rental_uris":{"android":"levelo://app?vid=d2868572-6fee-4690-8a81-283adbeec80c","ios":"levelo://app?vid=d2868572-6fee-4690-8a81-283adbeec80c"},"vehicle_type_id":"4","last_reported":1750148092,"current_range_meters":10800,"station_id":"st_cvj6sg6p6f1abm77japg","pricing_plan_id":"cebpf4jnsgd1na2vs0mg"},{"bike_id":"6b75a80e-12fa-4bd0-b8db-b509b9abce19","system_id":"levelo_inurba_marseille","lat":43.21197,"lon":5.35077,"is_reserved":false,"is_disabled":false,"rental_uris":{"android":"levelo://app?vid=6b75a80e-12fa-4bd0-b8db-b509b9abce19","ios":"levelo://app?vid=6b75a80e-12fa-4bd0-b8db-b509b9abce19"},"vehicle_type_id":"4","last_reported":1750148092,"current_range_meters":10800,"station_id":"st_cvj6sg6p6f1abm77japg","pricing_plan_id":"cebpf4jnsgd1na2vs0mg"},{"bike_id":"d247f4ab-211a-407b-9290-4f185f6cd66a","system_id":"levelo_inurba_marseille","lat":43.2123,"lon":5.35119,"is_reserved":false,"is_disabled":false,"rental_uris":{"android":"levelo://app?vid=d247f4ab-211a-407b-9290-4f185f6cd66a","ios":"levelo://app?vid=d247f4ab-211a-407b-9290-4f185f6cd66a"},"vehicle_type_id":"4","last_reported":1750148092,"current_range_meters":11200,"station_id":"","pricing_plan_id":"cebpf4jnsgd1na2vs0mg"},{"bike_id":"08ac4abd-a447-481b-9b73-07be2e562c59","system_id":"levelo_inurba_marseille","lat":43.31214,"lon":5.36854,"is_reserved":false,"is_disabled":false,"rental_uris":{"android":"levelo://app?vid=08ac4abd-a447-481b-9b73-07be2e562c59","ios":"levelo://app?vid=08ac4abd-a447-481b-9b73-07be2e562c59"},"vehicle_type_id":"4","last_reported":1750148092,"current_range_meters":11200,"station_id":"ce4bgl92rcd13ifvqbq0","pricing_plan_id":"cebpf4jnsgd1na2vs0mg"},{"bike_id":"d8b6dd4e-7acd-47f2-abf9-b42c3835000e","system_id":"levelo_inurba_marseille","lat":43.26213,"lon":5.37445,"is_reserved":false,"is_disabled":false,"rental_uris":{"android":"levelo://app?vid=d8b6dd4e-7acd-47f2-abf9-b42c3835000e","ios":"levelo://app?vid=d8b6dd4e-7acd-47f2-abf9-b42c3835000e"},"vehicle_type_id":"4","last_reported":1750148092,"current_range_meters":11200,"station_id":"ce4bhgp2rcd13ifvqfc0","pricing_plan_id":"cebpf4jnsgd1na2vs0mg"},{"bike_id":"3b136301-d892-4bf1-aa15-695ec30464ca","system_id":"levelo_inurba_marseille","lat":43.32086,"lon":5.3677,"is_reserved":false,"is_disabled":false,"rental_uris":{"android":"levelo://app?vid=3b136301-d892-4bf1-aa15-695ec30464ca","ios":"levelo://app?vid=3b136301-d892-4bf1-aa15-695ec30464ca"},"vehicle_type_id":"4","last_reported":1750148092,"current_range_meters":11200,"station_id":"ce4bhrh2rcd13ifvqhug","pricing_plan_id":"cebpf4jnsgd1na2vs0mg"},{"bike_id":"55c44349-8703-4804-9fe0-2468fad9d1ba","system_id":"levelo_inurba_marseille","lat":43.31354,"lon":5.36727,"is_reserved":false,"is_disabled":false,"rental_uris":{"android":"levelo://app?vid=55c44349-8703-4804-9fe0-2468fad9d1ba","ios":"levelo://app?vid=55c44349-8703-4804-9fe0-2468fad9d1ba"},"vehicle_type_id":"4","last_reported":1750148092,"current_range_meters":11600,"station_id":"ce4bgr92rcd13ifvqc6g","pricing_plan_id":"cebpf4jnsgd1na2vs0mg"},{"bike_id":"12cc7d03-4d5c-44c9-a885-615b78149fb6","system_id":"levelo_inurba_marseille","lat":43.30464,"lon":5.379,"is_reserved":false,"is_disabled":false,"rental_uris":{"android":"levelo://app?vid=12cc7d03-4d5c-44c9-a885-615b78149fb6","ios":"levelo://app?vid=12cc7d03-4d5c-44c9-a885-615b78149fb6"},"vehicle_type_id":"4","last_reported":1750148092,"current_range_meters":11600,"station_id":"ce4bgup2rcd13ifvqcn0","pricing_plan_id":"cebpf4jnsgd1na2vs0mg"},{"bike_id":"2de785da-3ba4-46dc-bbd6-a55810035192","system_id":"levelo_inurba_marseille","lat":43.24074,"lon":5.37754,"is_reserved":false,"is_disabled":false,"rental_uris":{"android":"levelo://app?vid=2de785da-3ba4-46dc-bbd6-a55810035192","ios":"levelo://app?vid=2de785da-3ba4-46dc-bbd6-a55810035192"},"vehicle_type_id":"4","last_reported":1750148092,"current_range_meters":11600,"station_id":"ce4bhnp2rcd13ifvqgvg","pricing_plan_id":"cebpf4jnsgd1na2vs0mg"},{"bike_id":"25960fd9-8509-4555-9b23-fa4fae1e21d0","system_id":"levelo_inurba_marseille","lat":43.29002,"lon":5.38196,"is_reserved":false,"is_disabled":false,"rental_uris":{"android":"levelo://app?vid=25960fd9-8509-4555-9b23-fa4fae1e21d0","ios":"levelo://app?vid=25960fd9-8509-4555-9b23-fa4fae1e21d0"},"vehicle_type_id":"4","last_reported":1750148092,"current_range_meters":12000,"station_id":"","pricing_plan_id":"cebpf4jnsgd1na2vs0mg"},{"bike_id":"93dc68e7-0fd4-4009-9fba-8c4db0be5e10","system_id":"levelo_inurba_marseille","lat":43.294121,"lon":5.3987,"is_reserved":false,"is_disabled":false,"rental_uris":{"android":"levelo://app?vid=93dc68e7-0fd4-4009-9fba-8c4db0be5e10","ios":"levelo://app?vid=93dc68e7-0fd4-4009-9fba-8c4db0be5e10"},"vehicle_type_id":"4","last_reported":1750148092,"current_range_meters":12000,"station_id":"ce4bh3h2rcd13ifvqdo0","pricing_plan_id":"cebpf4jnsgd1na2vs0mg"},{"bike_id":"9656837e-6ded-455f-a089-a2ad65574a5f","system_id":"levelo_inurba_marseille","lat":43.28342,"lon":5.38098,"is_reserved":false,"is_disabled":false,"rental_uris":{"android":"levelo://app?vid=9656837e-6ded-455f-a089-a2ad65574a5f","ios":"levelo://app?vid=9656837e-6ded-455f-a089-a2ad65574a5f"},"vehicle_type_id":"4","last_reported":1750148092,"current_range_meters":12000,"station_id":"ce4bh412rcd13ifvqdr0","pricing_plan_id":"cebpf4jnsgd1na2vs0mg"},{"bike_id":"3d073f3b-913d-4417-9778-b86838d8eee4","system_id":"levelo_inurba_marseille","lat":43.25584,"lon":5.3823,"is_reserved":false,"is_disabled":false,"rental_uris":{"android":"levelo://app?vid=3d073f3b-913d-4417-9778-b86838d8eee4","ios":"levelo://app?vid=3d073f3b-913d-4417-9778-b86838d8eee4"},"vehicle_type_id":"4","last_reported":1750148092,"current_range_meters":12000,"station_id":"ce4bhih2rcd13ifvqfs0","pricing_plan_id":"cebpf4jnsgd1na2vs0mg"},{"bike_id":"222abc74-91c7-44a6-88b6-c71afabef20f","system_id":"levelo_inurba_marseille","lat":43.32491,"lon":5.36558,"is_reserved":false,"is_disabled":false,"rental_uris":{"android":"levelo://app?vid=222abc74-91c7-44a6-88b6-c71afabef20f","ios":"levelo://app?vid=222abc74-91c7-44a6-88b6-c71afabef20f"},"vehicle_type_id":"4","last_reported":1750148092,"current_range_meters":12000,"station_id":"ce4bhs12rcd13ifvqhvg","pricing_plan_id":"cebpf4jnsgd1na2vs0mg"},{"bike_id":"a923dd1b-641e-414c-b3c0-53a69f6800aa","system_id":"levelo_inurba_marseille","lat":43.29373,"lon":5.3785,"is_reserved":false,"is_disabled":false,"rental_uris":{"android":"levelo://app?vid=a923dd1b-641e-414c-b3c0-53a69f6800aa","ios":"levelo://app?vid=a923dd1b-641e-414c-b3c0-53a69f6800aa"},"vehicle_type_id":"4","last_reported":1750148092,"current_range_meters":12400,"station_id":"ce4bgjh2rcd13ifvqbf0","pricing_plan_id":"cebpf4jnsgd1na2vs0mg"},{"bike_id":"22cf017d-1434-4f23-b2bd-e75d03dad59f","system_id":"levelo_inurba_marseille","lat":43.30545,"lon":5.36558,"is_reserved":false,"is_disabled":false,"rental_uris":{"android":"levelo://app?vid=22cf017d-1434-4f23-b2bd-e75d03dad59f","ios":"levelo://app?vid=22cf017d-1434-4f23-b2bd-e75d03dad59f"},"vehicle_type_id":"4","last_reported":1750148092,"current_range_meters":12400,"station_id":"ce4bgs12rcd13ifvqcag","pricing_plan_id":"cebpf4jnsgd1na2vs0mg"},{"bike_id":"9bfb787e-1f19-42b4-842a-23ba1d186bb1","system_id":"levelo_inurba_marseille","lat":43.30549,"lon":5.36527,"is_reserved":false,"is_disabled":false,"rental_uris":{"android":"levelo://app?vid=9bfb787e-1f19-42b4-842a-23ba1d186bb1","ios":"levelo://app?vid=9bfb787e-1f19-42b4-842a-23ba1d186bb1"},"vehicle_type_id":"4","last_reported":1750148092,"current_range_meters":12400,"station_id":"ce4bgs12rcd13ifvqcag","pricing_plan_id":"cebpf4jnsgd1na2vs0mg"},{"bike_id":"3e7b8491-a9fe-4853-89ef-e89057246ce7","system_id":"levelo_inurba_marseille","lat":43.30552,"lon":5.36556,"is_reserved":false,"is_disabled":false,"rental_uris":{"android":"levelo://app?vid=3e7b8491-a9fe-4853-89ef-e89057246ce7","ios":"levelo://app?vid=3e7b8491-a9fe-4853-89ef-e89057246ce7"},"vehicle_type_id":"4","last_reported":1750148092,"current_range_meters":12400,"station_id":"ce4bgs12rcd13ifvqcag","pricing_plan_id":"cebpf4jnsgd1na2vs0mg"},{"bike_id":"cf284577-5c10-485f-822d-787805988478","system_id":"levelo_inurba_marseille","lat":43.28699,"lon":5.37383,"is_reserved":false,"is_disabled":false,"rental_uris":{"android":"levelo://app?vid=cf284577-5c10-485f-822d-787805988478","ios":"levelo://app?vid=cf284577-5c10-485f-822d-787805988478"},"vehicle_type_id":"4","last_reported":1750148092,"current_range_meters":12400,"station_id":"ce4bh3p2rcd13ifvqdq0","pricing_plan_id":"cebpf4jnsgd1na2vs0mg"},{"bike_id":"91872c4e-fe73-4e35-96d3-1c0fa6a102a7","system_id":"levelo_inurba_marseille","lat":43.337444,"lon":5.374475,"is_reserved":false,"is_disabled":false,"rental_uris":{"android":"levelo://app?vid=91872c4e-fe73-4e35-96d3-1c0fa6a102a7","ios":"levelo://app?vid=91872c4e-fe73-4e35-96d3-1c0fa6a102a7"},"vehicle_type_id":"4","last_reported":1750148092,"current_range_meters":12400,"station_id":"ce4bhg92rcd13ifvqf90","pricing_plan_id":"cebpf4jnsgd1na2vs0mg"},{"bike_id":"a9c91c9b-f825-4f00-bda1-6aedd343474d","system_id":"levelo_inurba_marseille","lat":43.231773,"lon":5.399862,"is_reserved":false,"is_disabled":false,"rental_uris":{"android":"levelo://app?vid=a9c91c9b-f825-4f00-bda1-6aedd343474d","ios":"levelo://app?vid=a9c91c9b-f825-4f00-bda1-6aedd343474d"},"vehicle_type_id":"4","last_reported":1750148092,"current_range_meters":12400,"station_id":"ce4bhn12rcd13ifvqgqg","pricing_plan_id":"cebpf4jnsgd1na2vs0mg"},{"bike_id":"22bb4219-1113-4018-bc48-214e822df766","system_id":"levelo_inurba_marseille","lat":43.2406,"lon":5.37763,"is_reserved":false,"is_disabled":false,"rental_uris":{"android":"levelo://app?vid=22bb4219-1113-4018-bc48-214e822df766","ios":"levelo://app?vid=22bb4219-1113-4018-bc48-214e822df766"},"vehicle_type_id":"4","last_reported":1750148092,"current_range_meters":12400,"station_id":"ce4bhnp2rcd13ifvqgvg","pricing_plan_id":"cebpf4jnsgd1na2vs0mg"},{"bike_id":"1e373418-986e-4d3c-9ff7-c37dd7c7a214","system_id":"levelo_inurba_marseille","lat":43.29898,"lon":5.43648,"is_reserved":false,"is_disabled":false,"rental_uris":{"android":"levelo://app?vid=1e373418-986e-4d3c-9ff7-c37dd7c7a214","ios":"levelo://app?vid=1e373418-986e-4d3c-9ff7-c37dd7c7a214"},"vehicle_type_id":"4","last_reported":1750148092,"current_range_meters":12400,"station_id":"ce4bhpp2rcd13ifvqhfg","pricing_plan_id":"cebpf4jnsgd1na2vs0mg"},{"bike_id":"853aaefa-1c6a-41b1-8640-2f9b7e9e3f3f","system_id":"levelo_inurba_marseille","lat":43.33607,"lon":5.41037,"is_reserved":false,"is_disabled":false,"rental_uris":{"android":"levelo://app?vid=853aaefa-1c6a-41b1-8640-2f9b7e9e3f3f","ios":"levelo://app?vid=853aaefa-1c6a-41b1-8640-2f9b7e9e3f3f"},"vehicle_type_id":"4","last_reported":1750148092,"current_range_meters":12400,"station_id":"ce4bhqh2rcd13ifvqhmg","pricing_plan_id":"cebpf4jnsgd1na2vs0mg"},{"bike_id":"25be301b-e50b-4f31-a209-462aec1b4ce5","system_id":"levelo_inurba_marseille","lat":43.211899,"lon":5.350742,"is_reserved":false,"is_disabled":false,"rental_uris":{"android":"levelo://app?vid=25be301b-e50b-4f31-a209-462aec1b4ce5","ios":"levelo://app?vid=25be301b-e50b-4f31-a209-462aec1b4ce5"},"vehicle_type_id":"4","last_reported":1750148092,"current_range_meters":12400,"station_id":"st_cvj6sg6p6f1abm77japg","pricing_plan_id":"cebpf4jnsgd1na2vs0mg"},{"bike_id":"d15e97b3-501f-458f-810d-aadce744705f","system_id":"levelo_inurba_marseille","lat":43.3123,"lon":5.36866,"is_reserved":false,"is_disabled":false,"rental_uris":{"android":"levelo://app?vid=d15e97b3-501f-458f-810d-aadce744705f","ios":"levelo://app?vid=d15e97b3-501f-458f-810d-aadce744705f"},"vehicle_type_id":"4","last_reported":1750148092,"current_range_meters":12800,"station_id":"ce4bgl92rcd13ifvqbq0","pricing_plan_id":"cebpf4jnsgd1na2vs0mg"},{"bike_id":"14058406-455c-42a9-8f09-158f90d5f1e4","system_id":"levelo_inurba_marseille","lat":43.31119,"lon":5.37782,"is_reserved":false,"is_disabled":false,"rental_uris":{"android":"levelo://app?vid=14058406-455c-42a9-8f09-158f90d5f1e4","ios":"levelo://app?vid=14058406-455c-42a9-8f09-158f90d5f1e4"},"vehicle_type_id":"4","last_reported":1750148092,"current_range_meters":12800,"station_id":"ce4bgt92rcd13ifvqcg0","pricing_plan_id":"cebpf4jnsgd1na2vs0mg"},{"bike_id":"fecb1707-00a5-41d4-8e5a-64177f296127","system_id":"levelo_inurba_marseille","lat":43.25941,"lon":5.4089,"is_reserved":false,"is_disabled":false,"rental_uris":{"android":"levelo://app?vid=fecb1707-00a5-41d4-8e5a-64177f296127","ios":"levelo://app?vid=fecb1707-00a5-41d4-8e5a-64177f296127"},"vehicle_type_id":"4","last_reported":1750148092,"current_range_meters":12800,"station_id":"ce4bhm92rcd13ifvqglg","pricing_plan_id":"cebpf4jnsgd1na2vs0mg"},{"bike_id":"30cd9817-86b6-4a45-8951-a1ef254a09b6","system_id":"levelo_inurba_marseille","lat":43.25937,"lon":5.40908,"is_reserved":false,"is_disabled":false,"rental_uris":{"android":"levelo://app?vid=30cd9817-86b6-4a45-8951-a1ef254a09b6","ios":"levelo://app?vid=30cd9817-86b6-4a45-8951-a1ef254a09b6"},"vehicle_type_id":"4","last_reported":1750148092,"current_range_meters":12800,"station_id":"ce4bhm92rcd13ifvqglg","pricing_plan_id":"cebpf4jnsgd1na2vs0mg"},{"bike_id":"b3369c69-29c4-4e85-ad4f-70286a116369","system_id":"levelo_inurba_marseille","lat":43.3188,"lon":5.40732,"is_reserved":false,"is_disabled":false,"rental_uris":{"android":"levelo://app?vid=b3369c69-29c4-4e85-ad4f-70286a116369","ios":"levelo://app?vid=b3369c69-29c4-4e85-ad4f-70286a116369"},"vehicle_type_id":"4","last_reported":1750148092,"current_range_meters":12800,"station_id":"ce4bhq12rcd13ifvqhig","pricing_plan_id":"cebpf4jnsgd1na2vs0mg"},{"bike_id":"7696af42-38fc-4b07-9fab-113899479dae","system_id":"levelo_inurba_marseille","lat":43.24172,"lon":5.36396,"is_reserved":false,"is_disabled":false,"rental_uris":{"android":"levelo://app?vid=7696af42-38fc-4b07-9fab-113899479dae","ios":"levelo://app?vid=7696af42-38fc-4b07-9fab-113899479dae"},"vehicle_type_id":"4","last_reported":1750148092,"current_range_meters":12800,"station_id":"cpo36qri1sfpv3e86is0","pricing_plan_id":"cebpf4jnsgd1na2vs0mg"},{"bike_id":"e2c07613-17cd-4cc8-a057-7b684d218510","system_id":"levelo_inurba_marseille","lat":43.30568,"lon":5.36524,"is_reserved":false,"is_disabled":false,"rental_uris":{"android":"levelo://app?vid=e2c07613-17cd-4cc8-a057-7b684d218510","ios":"levelo://app?vid=e2c07613-17cd-4cc8-a057-7b684d218510"},"vehicle_type_id":"4","last_reported":1750148092,"current_range_meters":13600,"station_id":"ce4bgs12rcd13ifvqcag","pricing_plan_id":"cebpf4jnsgd1na2vs0mg"},{"bike_id":"8d8216b7-70be-4e0e-b02f-ed276d5ecd5f","system_id":"levelo_inurba_marseille","lat":43.23067,"lon":5.35485,"is_reserved":false,"is_disabled":false,"rental_uris":{"android":"levelo://app?vid=8d8216b7-70be-4e0e-b02f-ed276d5ecd5f","ios":"levelo://app?vid=8d8216b7-70be-4e0e-b02f-ed276d5ecd5f"},"vehicle_type_id":"4","last_reported":1750148092,"current_range_meters":13600,"station_id":"cpo3342slgdg3j2ifvpg","pricing_plan_id":"cebpf4jnsgd1na2vs0mg"},{"bike_id":"0e27dafc-21df-4fb1-bd36-2450a7866702","system_id":"levelo_inurba_marseille","lat":43.27167,"lon":5.40008,"is_reserved":false,"is_disabled":false,"rental_uris":{"android":"levelo://app?vid=0e27dafc-21df-4fb1-bd36-2450a7866702","ios":"levelo://app?vid=0e27dafc-21df-4fb1-bd36-2450a7866702"},"vehicle_type_id":"4","last_reported":1750148092,"current_range_meters":14000,"station_id":"","pricing_plan_id":"cebpf4jnsgd1na2vs0mg"},{"bike_id":"6fad1b9b-f237-41b5-b8e7-d4365887ea99","system_id":"levelo_inurba_marseille","lat":43.24389,"lon":5.37055,"is_reserved":false,"is_disabled":false,"rental_uris":{"android":"levelo://app?vid=6fad1b9b-f237-41b5-b8e7-d4365887ea99","ios":"levelo://app?vid=6fad1b9b-f237-41b5-b8e7-d4365887ea99"},"vehicle_type_id":"4","last_reported":1750148092,"current_range_meters":14000,"station_id":"ce4bhhh2rcd13ifvqfk0","pricing_plan_id":"cebpf4jnsgd1na2vs0mg"},{"bike_id":"99063c5c-7a62-4dd8-b35f-eea924f59c0a","system_id":"levelo_inurba_marseille","lat":43.23147,"lon":5.43718,"is_reserved":false,"is_disabled":false,"rental_uris":{"android":"levelo://app?vid=99063c5c-7a62-4dd8-b35f-eea924f59c0a","ios":"levelo://app?vid=99063c5c-7a62-4dd8-b35f-eea924f59c0a"},"vehicle_type_id":"4","last_reported":1750148092,"current_range_meters":14000,"station_id":"ce4bhmp2rcd13ifvqgog","pricing_plan_id":"cebpf4jnsgd1na2vs0mg"},{"bike_id":"d9f9fc8e-3b15-44a5-92d4-7997253009ca","system_id":"levelo_inurba_marseille","lat":43.23189,"lon":5.39987,"is_reserved":false,"is_disabled":false,"rental_uris":{"android":"levelo://app?vid=d9f9fc8e-3b15-44a5-92d4-7997253009ca","ios":"levelo://app?vid=d9f9fc8e-3b15-44a5-92d4-7997253009ca"},"vehicle_type_id":"4","last_reported":1750148092,"current_range_meters":14000,"station_id":"ce4bhn12rcd13ifvqgqg","pricing_plan_id":"cebpf4jnsgd1na2vs0mg"},{"bike_id":"dd5951ba-d1db-451c-8038-c90177b7c2e5","system_id":"levelo_inurba_marseille","lat":43.29301,"lon":5.37172,"is_reserved":false,"is_disabled":false,"rental_uris":{"android":"levelo://app?vid=dd5951ba-d1db-451c-8038-c90177b7c2e5","ios":"levelo://app?vid=dd5951ba-d1db-451c-8038-c90177b7c2e5"},"vehicle_type_id":"4","last_reported":1750148092,"current_range_meters":14400,"station_id":"ce4bgh92rcd13ifvqb40","pricing_plan_id":"cebpf4jnsgd1na2vs0mg"},{"bike_id":"7371f90f-9b55-495c-80ca-ced193a8a445","system_id":"levelo_inurba_marseille","lat":43.2558,"lon":5.38232,"is_reserved":false,"is_disabled":false,"rental_uris":{"android":"levelo://app?vid=7371f90f-9b55-495c-80ca-ced193a8a445","ios":"levelo://app?vid=7371f90f-9b55-495c-80ca-ced193a8a445"},"vehicle_type_id":"4","last_reported":1750148092,"current_range_meters":14400,"station_id":"ce4bhih2rcd13ifvqfs0","pricing_plan_id":"cebpf4jnsgd1na2vs0mg"},{"bike_id":"eca25bd6-1b44-4388-a7b0-074a85a4f502","system_id":"levelo_inurba_marseille","lat":43.31097,"lon":5.39745,"is_reserved":false,"is_disabled":false,"rental_uris":{"android":"levelo://app?vid=eca25bd6-1b44-4388-a7b0-074a85a4f502","ios":"levelo://app?vid=eca25bd6-1b44-4388-a7b0-074a85a4f502"},"vehicle_type_id":"4","last_reported":1750148092,"current_range_meters":14800,"station_id":"","pricing_plan_id":"cebpf4jnsgd1na2vs0mg"},{"bike_id":"74c0b4ca-a0a5-4b38-9644-fb008924b5e9","system_id":"levelo_inurba_marseille","lat":43.30971,"lon":5.39057,"is_reserved":false,"is_disabled":false,"rental_uris":{"android":"levelo://app?vid=74c0b4ca-a0a5-4b38-9644-fb008924b5e9","ios":"levelo://app?vid=74c0b4ca-a0a5-4b38-9644-fb008924b5e9"},"vehicle_type_id":"4","last_reported":1750148092,"current_range_meters":14800,"station_id":"ce4bgup2rcd13ifvqco0","pricing_plan_id":"cebpf4jnsgd1na2vs0mg"},{"bike_id":"340be65c-b1c6-4c4d-9220-0a4ce317397f","system_id":"levelo_inurba_marseille","lat":43.30953,"lon":5.39029,"is_reserved":false,"is_disabled":false,"rental_uris":{"android":"levelo://app?vid=340be65c-b1c6-4c4d-9220-0a4ce317397f","ios":"levelo://app?vid=340be65c-b1c6-4c4d-9220-0a4ce317397f"},"vehicle_type_id":"4","last_reported":1750148092,"current_range_meters":14800,"station_id":"ce4bgup2rcd13ifvqco0","pricing_plan_id":"cebpf4jnsgd1na2vs0mg"},{"bike_id":"da673152-9896-4ca2-b97e-e91498f03642","system_id":"levelo_inurba_marseille","lat":43.309212,"lon":5.389979,"is_reserved":false,"is_disabled":false,"rental_uris":{"android":"levelo://app?vid=da673152-9896-4ca2-b97e-e91498f03642","ios":"levelo://app?vid=da673152-9896-4ca2-b97e-e91498f03642"},"vehicle_type_id":"4","last_reported":1750148092,"current_range_meters":14800,"station_id":"ce4bgup2rcd13ifvqco0","pricing_plan_id":"cebpf4jnsgd1na2vs0mg"},{"bike_id":"d9a5456a-cffb-405e-b782-eb28391b8bae","system_id":"levelo_inurba_marseille","lat":43.28707,"lon":5.37957,"is_reserved":false,"is_disabled":false,"rental_uris":{"android":"levelo://app?vid=d9a5456a-cffb-405e-b782-eb28391b8bae","ios":"levelo://app?vid=d9a5456a-cffb-405e-b782-eb28391b8bae"},"vehicle_type_id":"4","last_reported":1750148092,"current_range_meters":14800,"station_id":"ce4bh9p2rcd13ifvqec0","pricing_plan_id":"cebpf4jnsgd1na2vs0mg"},{"bike_id":"4d360684-9abc-47d6-baa6-4a6f5c930f12","system_id":"levelo_inurba_marseille","lat":43.25001,"lon":5.38937,"is_reserved":false,"is_disabled":false,"rental_uris":{"android":"levelo://app?vid=4d360684-9abc-47d6-baa6-4a6f5c930f12","ios":"levelo://app?vid=4d360684-9abc-47d6-baa6-4a6f5c930f12"},"vehicle_type_id":"4","last_reported":1750148092,"current_range_meters":14800,"station_id":"ce4bhgp2rcd13ifvqfd0","pricing_plan_id":"cebpf4jnsgd1na2vs0mg"},{"bike_id":"9857fb97-9c28-4ce4-94c5-ebcc0e2bde28","system_id":"levelo_inurba_marseille","lat":43.25931,"lon":5.40905,"is_reserved":false,"is_disabled":false,"rental_uris":{"android":"levelo://app?vid=9857fb97-9c28-4ce4-94c5-ebcc0e2bde28","ios":"levelo://app?vid=9857fb97-9c28-4ce4-94c5-ebcc0e2bde28"},"vehicle_type_id":"4","last_reported":1750148092,"current_range_meters":14800,"station_id":"ce4bhm92rcd13ifvqglg","pricing_plan_id":"cebpf4jnsgd1na2vs0mg"},{"bike_id":"63d8f8de-6fb5-461e-8196-70d15c64a587","system_id":"levelo_inurba_marseille","lat":43.211923,"lon":5.350701,"is_reserved":false,"is_disabled":false,"rental_uris":{"android":"levelo://app?vid=63d8f8de-6fb5-461e-8196-70d15c64a587","ios":"levelo://app?vid=63d8f8de-6fb5-461e-8196-70d15c64a587"},"vehicle_type_id":"4","last_reported":1750148092,"current_range_meters":14800,"station_id":"st_cvj6sg6p6f1abm77japg","pricing_plan_id":"cebpf4jnsgd1na2vs0mg"},{"bike_id":"8496696f-71b0-4612-aba2-4a6584e6cc13","system_id":"levelo_inurba_marseille","lat":43.30543,"lon":5.36704,"is_reserved":false,"is_disabled":false,"rental_uris":{"android":"levelo://app?vid=8496696f-71b0-4612-aba2-4a6584e6cc13","ios":"levelo://app?vid=8496696f-71b0-4612-aba2-4a6584e6cc13"},"vehicle_type_id":"4","last_reported":1750148092,"current_range_meters":15200,"station_id":"ce4bgrp2rcd13ifvqc9g","pricing_plan_id":"cebpf4jnsgd1na2vs0mg"},{"bike_id":"381bd0ad-ce73-4a4f-b643-1e1c87957c84","system_id":"levelo_inurba_marseille","lat":43.24072,"lon":5.37752,"is_reserved":false,"is_disabled":false,"rental_uris":{"android":"levelo://app?vid=381bd0ad-ce73-4a4f-b643-1e1c87957c84","ios":"levelo://app?vid=381bd0ad-ce73-4a4f-b643-1e1c87957c84"},"vehicle_type_id":"4","last_reported":1750148092,"current_range_meters":15200,"station_id":"ce4bhnp2rcd13ifvqgvg","pricing_plan_id":"cebpf4jnsgd1na2vs0mg"},{"bike_id":"6d392914-420e-49a0-9a62-e1c19d840639","system_id":"levelo_inurba_marseille","lat":43.30394,"lon":5.42502,"is_reserved":false,"is_disabled":false,"rental_uris":{"android":"levelo://app?vid=6d392914-420e-49a0-9a62-e1c19d840639","ios":"levelo://app?vid=6d392914-420e-49a0-9a62-e1c19d840639"},"vehicle_type_id":"4","last_reported":1750148092,"current_range_meters":15200,"station_id":"ce4bhoh2rcd13ifvqh6g","pricing_plan_id":"cebpf4jnsgd1na2vs0mg"},{"bike_id":"8f3ce912-d888-4d21-b0ae-50b62344cd42","system_id":"levelo_inurba_marseille","lat":43.24179,"lon":5.36384,"is_reserved":false,"is_disabled":false,"rental_uris":{"android":"levelo://app?vid=8f3ce912-d888-4d21-b0ae-50b62344cd42","ios":"levelo://app?vid=8f3ce912-d888-4d21-b0ae-50b62344cd42"},"vehicle_type_id":"4","last_reported":1750148092,"current_range_meters":15200,"station_id":"cpo36qri1sfpv3e86is0","pricing_plan_id":"cebpf4jnsgd1na2vs0mg"},{"bike_id":"83cfee7d-980d-496a-98c8-745c7e44c68d","system_id":"levelo_inurba_marseille","lat":43.32887,"lon":5.39075,"is_reserved":false,"is_disabled":false,"rental_uris":{"android":"levelo://app?vid=83cfee7d-980d-496a-98c8-745c7e44c68d","ios":"levelo://app?vid=83cfee7d-980d-496a-98c8-745c7e44c68d"},"vehicle_type_id":"4","last_reported":1750148092,"current_range_meters":16000,"station_id":"","pricing_plan_id":"cebpf4jnsgd1na2vs0mg"},{"bike_id":"76a46d21-a92c-4901-b4e4-7d445d5abe18","system_id":"levelo_inurba_marseille","lat":43.31361,"lon":5.36684,"is_reserved":false,"is_disabled":false,"rental_uris":{"android":"levelo://app?vid=76a46d21-a92c-4901-b4e4-7d445d5abe18","ios":"levelo://app?vid=76a46d21-a92c-4901-b4e4-7d445d5abe18"},"vehicle_type_id":"4","last_reported":1750148092,"current_range_meters":16000,"station_id":"ce4bgr92rcd13ifvqc6g","pricing_plan_id":"cebpf4jnsgd1na2vs0mg"},{"bike_id":"28afc698-506e-444a-a9c2-0c6102156f88","system_id":"levelo_inurba_marseille","lat":43.30129,"lon":5.37424,"is_reserved":false,"is_disabled":false,"rental_uris":{"android":"levelo://app?vid=28afc698-506e-444a-a9c2-0c6102156f88","ios":"levelo://app?vid=28afc698-506e-444a-a9c2-0c6102156f88"},"vehicle_type_id":"4","last_reported":1750148092,"current_range_meters":16000,"station_id":"ce4bgs92rcd13ifvqcc0","pricing_plan_id":"cebpf4jnsgd1na2vs0mg"},{"bike_id":"819aa901-cd25-4f87-8ada-faa6e708ebd8","system_id":"levelo_inurba_marseille","lat":43.30141,"lon":5.37423,"is_reserved":false,"is_disabled":false,"rental_uris":{"android":"levelo://app?vid=819aa901-cd25-4f87-8ada-faa6e708ebd8","ios":"levelo://app?vid=819aa901-cd25-4f87-8ada-faa6e708ebd8"},"vehicle_type_id":"4","last_reported":1750148092,"current_range_meters":16000,"station_id":"ce4bgs92rcd13ifvqcc0","pricing_plan_id":"cebpf4jnsgd1na2vs0mg"},{"bike_id":"dae87834-0c61-4232-8c60-bb1fc649c9a6","system_id":"levelo_inurba_marseille","lat":43.31372,"lon":5.38515,"is_reserved":false,"is_disabled":false,"rental_uris":{"android":"levelo://app?vid=dae87834-0c61-4232-8c60-bb1fc649c9a6","ios":"levelo://app?vid=dae87834-0c61-4232-8c60-bb1fc649c9a6"},"vehicle_type_id":"4","last_reported":1750148092,"current_range_meters":16000,"station_id":"ce4bgt92rcd13ifvqcf0","pricing_plan_id":"cebpf4jnsgd1na2vs0mg"},{"bike_id":"0de56168-fdc4-4659-b373-054a1a8539d5","system_id":"levelo_inurba_marseille","lat":43.31374,"lon":5.38492,"is_reserved":false,"is_disabled":false,"rental_uris":{"android":"levelo://app?vid=0de56168-fdc4-4659-b373-054a1a8539d5","ios":"levelo://app?vid=0de56168-fdc4-4659-b373-054a1a8539d5"},"vehicle_type_id":"4","last_reported":1750148092,"current_range_meters":16000,"station_id":"ce4bgt92rcd13ifvqcf0","pricing_plan_id":"cebpf4jnsgd1na2vs0mg"},{"bike_id":"c6f71bf6-25f3-4378-a216-af78f348d873","system_id":"levelo_inurba_marseille","lat":43.284745,"lon":5.391691,"is_reserved":false,"is_disabled":false,"rental_uris":{"android":"levelo://app?vid=c6f71bf6-25f3-4378-a216-af78f348d873","ios":"levelo://app?vid=c6f71bf6-25f3-4378-a216-af78f348d873"},"vehicle_type_id":"4","last_reported":1750148092,"current_range_meters":16000,"station_id":"ce4bh292rcd13ifvqdg0","pricing_plan_id":"cebpf4jnsgd1na2vs0mg"},{"bike_id":"675ba28e-d230-4f78-89cd-e8c81d8da15f","system_id":"levelo_inurba_marseille","lat":43.211903,"lon":5.350513,"is_reserved":false,"is_disabled":false,"rental_uris":{"android":"levelo://app?vid=675ba28e-d230-4f78-89cd-e8c81d8da15f","ios":"levelo://app?vid=675ba28e-d230-4f78-89cd-e8c81d8da15f"},"vehicle_type_id":"4","last_reported":1750148092,"current_range_meters":16000,"station_id":"st_cvj6sg6p6f1abm77japg","pricing_plan_id":"cebpf4jnsgd1na2vs0mg"},{"bike_id":"2090556a-ebe6-4fcd-b60b-df67d7c8e4f7","system_id":"levelo_inurba_marseille","lat":43.29907,"lon":5.43641,"is_reserved":false,"is_disabled":false,"rental_uris":{"android":"levelo://app?vid=2090556a-ebe6-4fcd-b60b-df67d7c8e4f7","ios":"levelo://app?vid=2090556a-ebe6-4fcd-b60b-df67d7c8e4f7"},"vehicle_type_id":"4","last_reported":1750148092,"current_range_meters":16400,"station_id":"ce4bhpp2rcd13ifvqhfg","pricing_plan_id":"cebpf4jnsgd1na2vs0mg"},{"bike_id":"2258d9d1-a8be-4ffb-a567-c6edc5f3b5b6","system_id":"levelo_inurba_marseille","lat":43.29275,"lon":5.36847,"is_reserved":false,"is_disabled":false,"rental_uris":{"android":"levelo://app?vid=2258d9d1-a8be-4ffb-a567-c6edc5f3b5b6","ios":"levelo://app?vid=2258d9d1-a8be-4ffb-a567-c6edc5f3b5b6"},"vehicle_type_id":"4","last_reported":1750148092,"current_range_meters":16800,"station_id":"ce4bhbp2rcd13ifvqesg","pricing_plan_id":"cebpf4jnsgd1na2vs0mg"},{"bike_id":"3518210a-6d90-482f-a11b-11cb7c94acd1","system_id":"levelo_inurba_marseille","lat":43.26462,"lon":5.3921,"is_reserved":false,"is_disabled":false,"rental_uris":{"android":"levelo://app?vid=3518210a-6d90-482f-a11b-11cb7c94acd1","ios":"levelo://app?vid=3518210a-6d90-482f-a11b-11cb7c94acd1"},"vehicle_type_id":"4","last_reported":1750148092,"current_range_meters":17200,"station_id":"","pricing_plan_id":"cebpf4jnsgd1na2vs0mg"},{"bike_id":"de0f7c2b-5974-4035-a240-8ed367c0e3f3","system_id":"levelo_inurba_marseille","lat":43.31975,"lon":5.37619,"is_reserved":false,"is_disabled":false,"rental_uris":{"android":"levelo://app?vid=de0f7c2b-5974-4035-a240-8ed367c0e3f3","ios":"levelo://app?vid=de0f7c2b-5974-4035-a240-8ed367c0e3f3"},"vehicle_type_id":"4","last_reported":1750148092,"current_range_meters":17200,"station_id":"","pricing_plan_id":"cebpf4jnsgd1na2vs0mg"},{"bike_id":"7bab1357-0955-44b8-b824-f7514e893fad","system_id":"levelo_inurba_marseille","lat":43.29569,"lon":5.37525,"is_reserved":false,"is_disabled":false,"rental_uris":{"android":"levelo://app?vid=7bab1357-0955-44b8-b824-f7514e893fad","ios":"levelo://app?vid=7bab1357-0955-44b8-b824-f7514e893fad"},"vehicle_type_id":"4","last_reported":1750148092,"current_range_meters":17200,"station_id":"ce4bgh92rcd13ifvqb50","pricing_plan_id":"cebpf4jnsgd1na2vs0mg"},{"bike_id":"5817d98a-07c5-4db4-a1aa-ea7c0e467992","system_id":"levelo_inurba_marseille","lat":43.30871,"lon":5.36832,"is_reserved":false,"is_disabled":false,"rental_uris":{"android":"levelo://app?vid=5817d98a-07c5-4db4-a1aa-ea7c0e467992","ios":"levelo://app?vid=5817d98a-07c5-4db4-a1aa-ea7c0e467992"},"vehicle_type_id":"4","last_reported":1750148092,"current_range_meters":17200,"station_id":"ce4bgn92rcd13ifvqbvg","pricing_plan_id":"cebpf4jnsgd1na2vs0mg"},{"bike_id":"aeed0c48-0dc7-4b60-9302-9f9ae3196241","system_id":"levelo_inurba_marseille","lat":43.30178,"lon":5.3665,"is_reserved":false,"is_disabled":false,"rental_uris":{"android":"levelo://app?vid=aeed0c48-0dc7-4b60-9302-9f9ae3196241","ios":"levelo://app?vid=aeed0c48-0dc7-4b60-9302-9f9ae3196241"},"vehicle_type_id":"4","last_reported":1750148092,"current_range_meters":17200,"station_id":"ce4bgrh2rcd13ifvqc8g","pricing_plan_id":"cebpf4jnsgd1na2vs0mg"},{"bike_id":"b2efe958-c75f-4907-8aab-2a929dd7b2e4","system_id":"levelo_inurba_marseille","lat":43.30964,"lon":5.39046,"is_reserved":false,"is_disabled":false,"rental_uris":{"android":"levelo://app?vid=b2efe958-c75f-4907-8aab-2a929dd7b2e4","ios":"levelo://app?vid=b2efe958-c75f-4907-8aab-2a929dd7b2e4"},"vehicle_type_id":"4","last_reported":1750148092,"current_range_meters":17200,"station_id":"ce4bgup2rcd13ifvqco0","pricing_plan_id":"cebpf4jnsgd1na2vs0mg"},{"bike_id":"c5c45ee3-5c72-48d3-81ea-26d6715fc77a","system_id":"levelo_inurba_marseille","lat":43.295043,"lon":5.394131,"is_reserved":false,"is_disabled":false,"rental_uris":{"android":"levelo://app?vid=c5c45ee3-5c72-48d3-81ea-26d6715fc77a","ios":"levelo://app?vid=c5c45ee3-5c72-48d3-81ea-26d6715fc77a"},"vehicle_type_id":"4","last_reported":1750148092,"current_range_meters":17200,"station_id":"ce4bh292rcd13ifvqdf0","pricing_plan_id":"cebpf4jnsgd1na2vs0mg"},{"bike_id":"07be6c80-08ca-4d4b-821b-23def8938f25","system_id":"levelo_inurba_marseille","lat":43.28854,"lon":5.35869,"is_reserved":false,"is_disabled":false,"rental_uris":{"android":"levelo://app?vid=07be6c80-08ca-4d4b-821b-23def8938f25","ios":"levelo://app?vid=07be6c80-08ca-4d4b-821b-23def8938f25"},"vehicle_type_id":"4","last_reported":1750148092,"current_range_meters":17200,"station_id":"ce4bhb12rcd13ifvqem0","pricing_plan_id":"cebpf4jnsgd1na2vs0mg"},{"bike_id":"1dca189b-e58d-407e-91a0-5d0b482c7bd9","system_id":"levelo_inurba_marseille","lat":43.28266,"lon":5.35062,"is_reserved":false,"is_disabled":false,"rental_uris":{"android":"levelo://app?vid=1dca189b-e58d-407e-91a0-5d0b482c7bd9","ios":"levelo://app?vid=1dca189b-e58d-407e-91a0-5d0b482c7bd9"},"vehicle_type_id":"4","last_reported":1750148092,"current_range_meters":17200,"station_id":"ce4bhbp2rcd13ifvqerg","pricing_plan_id":"cebpf4jnsgd1na2vs0mg"},{"bike_id":"36524040-5ddc-46d3-9046-b6da01071eae","system_id":"levelo_inurba_marseille","lat":43.25932,"lon":5.40909,"is_reserved":false,"is_disabled":false,"rental_uris":{"android":"levelo://app?vid=36524040-5ddc-46d3-9046-b6da01071eae","ios":"levelo://app?vid=36524040-5ddc-46d3-9046-b6da01071eae"},"vehicle_type_id":"4","last_reported":1750148092,"current_range_meters":17200,"station_id":"ce4bhm92rcd13ifvqglg","pricing_plan_id":"cebpf4jnsgd1na2vs0mg"},{"bike_id":"31ac1c6c-b608-4f86-8941-e01ea9ffa527","system_id":"levelo_inurba_marseille","lat":43.259246,"lon":5.408835,"is_reserved":false,"is_disabled":false,"rental_uris":{"android":"levelo://app?vid=31ac1c6c-b608-4f86-8941-e01ea9ffa527","ios":"levelo://app?vid=31ac1c6c-b608-4f86-8941-e01ea9ffa527"},"vehicle_type_id":"4","last_reported":1750148092,"current_range_meters":17200,"station_id":"ce4bhm92rcd13ifvqglg","pricing_plan_id":"cebpf4jnsgd1na2vs0mg"},{"bike_id":"dab6fb6d-3e6d-412b-a0e1-f672326dbd00","system_id":"levelo_inurba_marseille","lat":43.24186,"lon":5.3969,"is_reserved":false,"is_disabled":false,"rental_uris":{"android":"levelo://app?vid=dab6fb6d-3e6d-412b-a0e1-f672326dbd00","ios":"levelo://app?vid=dab6fb6d-3e6d-412b-a0e1-f672326dbd00"},"vehicle_type_id":"4","last_reported":1750148092,"current_range_meters":17200,"station_id":"ce4bhn12rcd13ifvqgpg","pricing_plan_id":"cebpf4jnsgd1na2vs0mg"},{"bike_id":"68b69c32-2076-4a85-9793-aa4899be2f55","system_id":"levelo_inurba_marseille","lat":43.21188,"lon":5.35068,"is_reserved":false,"is_disabled":false,"rental_uris":{"android":"levelo://app?vid=68b69c32-2076-4a85-9793-aa4899be2f55","ios":"levelo://app?vid=68b69c32-2076-4a85-9793-aa4899be2f55"},"vehicle_type_id":"4","last_reported":1750148092,"current_range_meters":17200,"station_id":"st_cvj6sg6p6f1abm77japg","pricing_plan_id":"cebpf4jnsgd1na2vs0mg"},{"bike_id":"8147594e-7ae7-415c-9eba-dbba76c21b49","system_id":"levelo_inurba_marseille","lat":43.30902,"lon":5.36844,"is_reserved":false,"is_disabled":false,"rental_uris":{"android":"levelo://app?vid=8147594e-7ae7-415c-9eba-dbba76c21b49","ios":"levelo://app?vid=8147594e-7ae7-415c-9eba-dbba76c21b49"},"vehicle_type_id":"4","last_reported":1750148092,"current_range_meters":17600,"station_id":"ce4bgn92rcd13ifvqbvg","pricing_plan_id":"cebpf4jnsgd1na2vs0mg"},{"bike_id":"d938709e-1e21-427c-b2c2-53c66838c574","system_id":"levelo_inurba_marseille","lat":43.30545,"lon":5.36557,"is_reserved":false,"is_disabled":false,"rental_uris":{"android":"levelo://app?vid=d938709e-1e21-427c-b2c2-53c66838c574","ios":"levelo://app?vid=d938709e-1e21-427c-b2c2-53c66838c574"},"vehicle_type_id":"4","last_reported":1750148092,"current_range_meters":17600,"station_id":"ce4bgs12rcd13ifvqcag","pricing_plan_id":"cebpf4jnsgd1na2vs0mg"},{"bike_id":"59f7ee1e-cb39-4b14-9a4e-63f9f5b5d4e4","system_id":"levelo_inurba_marseille","lat":43.23155,"lon":5.43709,"is_reserved":false,"is_disabled":false,"rental_uris":{"android":"levelo://app?vid=59f7ee1e-cb39-4b14-9a4e-63f9f5b5d4e4","ios":"levelo://app?vid=59f7ee1e-cb39-4b14-9a4e-63f9f5b5d4e4"},"vehicle_type_id":"4","last_reported":1750148092,"current_range_meters":17600,"station_id":"ce4bhmp2rcd13ifvqgog","pricing_plan_id":"cebpf4jnsgd1na2vs0mg"},{"bike_id":"b89c3aec-2510-4675-9a1b-780cb964a0f1","system_id":"levelo_inurba_marseille","lat":43.28154,"lon":5.42652,"is_reserved":false,"is_disabled":false,"rental_uris":{"android":"levelo://app?vid=b89c3aec-2510-4675-9a1b-780cb964a0f1","ios":"levelo://app?vid=b89c3aec-2510-4675-9a1b-780cb964a0f1"},"vehicle_type_id":"4","last_reported":1750148092,"current_range_meters":17600,"station_id":"ce4bhnh2rcd13ifvqgug","pricing_plan_id":"cebpf4jnsgd1na2vs0mg"},{"bike_id":"6fb9eb53-4009-4a7d-afc2-085c87fcfb5b","system_id":"levelo_inurba_marseille","lat":43.28148,"lon":5.42656,"is_reserved":false,"is_disabled":false,"rental_uris":{"android":"levelo://app?vid=6fb9eb53-4009-4a7d-afc2-085c87fcfb5b","ios":"levelo://app?vid=6fb9eb53-4009-4a7d-afc2-085c87fcfb5b"},"vehicle_type_id":"4","last_reported":1750148092,"current_range_meters":17600,"station_id":"ce4bhnh2rcd13ifvqgug","pricing_plan_id":"cebpf4jnsgd1na2vs0mg"},{"bike_id":"5025638e-63a1-4609-b022-b4bda8dc8035","system_id":"levelo_inurba_marseille","lat":43.298,"lon":5.39343,"is_reserved":false,"is_disabled":false,"rental_uris":{"android":"levelo://app?vid=5025638e-63a1-4609-b022-b4bda8dc8035","ios":"levelo://app?vid=5025638e-63a1-4609-b022-b4bda8dc8035"},"vehicle_type_id":"4","last_reported":1750148092,"current_range_meters":17600,"station_id":"chh1huq6cuj3fo74tm60","pricing_plan_id":"cebpf4jnsgd1na2vs0mg"},{"bike_id":"2f0f7865-53e4-4955-8eb9-1bb98bf95595","system_id":"levelo_inurba_marseille","lat":43.31739,"lon":5.37588,"is_reserved":false,"is_disabled":false,"rental_uris":{"android":"levelo://app?vid=2f0f7865-53e4-4955-8eb9-1bb98bf95595","ios":"levelo://app?vid=2f0f7865-53e4-4955-8eb9-1bb98bf95595"},"vehicle_type_id":"4","last_reported":1750148092,"current_range_meters":18000,"station_id":"","pricing_plan_id":"cebpf4jnsgd1na2vs0mg"},{"bike_id":"28da8b92-f209-4378-9080-73750680ec6e","system_id":"levelo_inurba_marseille","lat":43.231282,"lon":5.355102,"is_reserved":false,"is_disabled":false,"rental_uris":{"android":"levelo://app?vid=28da8b92-f209-4378-9080-73750680ec6e","ios":"levelo://app?vid=28da8b92-f209-4378-9080-73750680ec6e"},"vehicle_type_id":"4","last_reported":1750148092,"current_range_meters":18000,"station_id":"","pricing_plan_id":"cebpf4jnsgd1na2vs0mg"},{"bike_id":"de0bda34-41a6-4231-8ed4-c93e07fc3176","system_id":"levelo_inurba_marseille","lat":43.32654,"lon":5.37522,"is_reserved":false,"is_disabled":false,"rental_uris":{"android":"levelo://app?vid=de0bda34-41a6-4231-8ed4-c93e07fc3176","ios":"levelo://app?vid=de0bda34-41a6-4231-8ed4-c93e07fc3176"},"vehicle_type_id":"4","last_reported":1750148092,"current_range_meters":18000,"station_id":"","pricing_plan_id":"cebpf4jnsgd1na2vs0mg"},{"bike_id":"0dfe7f39-53be-40ca-8806-96f86976f518","system_id":"levelo_inurba_marseille","lat":43.29569,"lon":5.37136,"is_reserved":false,"is_disabled":false,"rental_uris":{"android":"levelo://app?vid=0dfe7f39-53be-40ca-8806-96f86976f518","ios":"levelo://app?vid=0dfe7f39-53be-40ca-8806-96f86976f518"},"vehicle_type_id":"4","last_reported":1750148092,"current_range_meters":18000,"station_id":"ce4bgnh2rcd13ifvqc0g","pricing_plan_id":"cebpf4jnsgd1na2vs0mg"},{"bike_id":"c9742b3e-1a99-4797-b975-b285c1ce2f0e","system_id":"levelo_inurba_marseille","lat":43.31373,"lon":5.36695,"is_reserved":false,"is_disabled":false,"rental_uris":{"android":"levelo://app?vid=c9742b3e-1a99-4797-b975-b285c1ce2f0e","ios":"levelo://app?vid=c9742b3e-1a99-4797-b975-b285c1ce2f0e"},"vehicle_type_id":"4","last_reported":1750148092,"current_range_meters":18000,"station_id":"ce4bgr92rcd13ifvqc6g","pricing_plan_id":"cebpf4jnsgd1na2vs0mg"},{"bike_id":"f575afff-5c88-43ce-a578-e027ac46cb65","system_id":"levelo_inurba_marseille","lat":43.31067,"lon":5.38344,"is_reserved":false,"is_disabled":false,"rental_uris":{"android":"levelo://app?vid=f575afff-5c88-43ce-a578-e027ac46cb65","ios":"levelo://app?vid=f575afff-5c88-43ce-a578-e027ac46cb65"},"vehicle_type_id":"4","last_reported":1750148092,"current_range_meters":18000,"station_id":"ce4bgv92rcd13ifvqcr0","pricing_plan_id":"cebpf4jnsgd1na2vs0mg"},{"bike_id":"80927306-d20e-4708-bfac-4bceb1a09ad3","system_id":"levelo_inurba_marseille","lat":43.28267,"lon":5.35066,"is_reserved":false,"is_disabled":false,"rental_uris":{"android":"levelo://app?vid=80927306-d20e-4708-bfac-4bceb1a09ad3","ios":"levelo://app?vid=80927306-d20e-4708-bfac-4bceb1a09ad3"},"vehicle_type_id":"4","last_reported":1750148092,"current_range_meters":18000,"station_id":"ce4bhbp2rcd13ifvqerg","pricing_plan_id":"cebpf4jnsgd1na2vs0mg"},{"bike_id":"c419c83a-832b-4e39-a76a-0865703e717e","system_id":"levelo_inurba_marseille","lat":43.24387,"lon":5.37057,"is_reserved":false,"is_disabled":false,"rental_uris":{"android":"levelo://app?vid=c419c83a-832b-4e39-a76a-0865703e717e","ios":"levelo://app?vid=c419c83a-832b-4e39-a76a-0865703e717e"},"vehicle_type_id":"4","last_reported":1750148092,"current_range_meters":18000,"station_id":"ce4bhhh2rcd13ifvqfk0","pricing_plan_id":"cebpf4jnsgd1na2vs0mg"},{"bike_id":"7effa1d6-6762-4d51-b05b-edbcec45e3c4","system_id":"levelo_inurba_marseille","lat":43.257265,"lon":5.410976,"is_reserved":false,"is_disabled":false,"rental_uris":{"android":"levelo://app?vid=7effa1d6-6762-4d51-b05b-edbcec45e3c4","ios":"levelo://app?vid=7effa1d6-6762-4d51-b05b-edbcec45e3c4"},"vehicle_type_id":"4","last_reported":1750148092,"current_range_meters":18000,"station_id":"ce4bhkp2rcd13ifvqgd0","pricing_plan_id":"cebpf4jnsgd1na2vs0mg"},{"bike_id":"51490275-adbe-42c8-8c02-8d0998bae051","system_id":"levelo_inurba_marseille","lat":43.2572,"lon":5.41112,"is_reserved":false,"is_disabled":false,"rental_uris":{"android":"levelo://app?vid=51490275-adbe-42c8-8c02-8d0998bae051","ios":"levelo://app?vid=51490275-adbe-42c8-8c02-8d0998bae051"},"vehicle_type_id":"4","last_reported":1750148092,"current_range_meters":18000,"station_id":"ce4bhkp2rcd13ifvqgd0","pricing_plan_id":"cebpf4jnsgd1na2vs0mg"},{"bike_id":"50fca2fe-45b9-41cc-b8e8-16133d6a87b1","system_id":"levelo_inurba_marseille","lat":43.26233,"lon":5.40456,"is_reserved":false,"is_disabled":false,"rental_uris":{"android":"levelo://app?vid=50fca2fe-45b9-41cc-b8e8-16133d6a87b1","ios":"levelo://app?vid=50fca2fe-45b9-41cc-b8e8-16133d6a87b1"},"vehicle_type_id":"4","last_reported":1750148092,"current_range_meters":18000,"station_id":"ce4bhmh2rcd13ifvqgmg","pricing_plan_id":"cebpf4jnsgd1na2vs0mg"},{"bike_id":"d8cca091-a0fe-4f51-8c26-021946b118f8","system_id":"levelo_inurba_marseille","lat":43.2418,"lon":5.39729,"is_reserved":false,"is_disabled":false,"rental_uris":{"android":"levelo://app?vid=d8cca091-a0fe-4f51-8c26-021946b118f8","ios":"levelo://app?vid=d8cca091-a0fe-4f51-8c26-021946b118f8"},"vehicle_type_id":"4","last_reported":1750148092,"current_range_meters":18000,"station_id":"ce4bhn12rcd13ifvqgpg","pricing_plan_id":"cebpf4jnsgd1na2vs0mg"},{"bike_id":"ec64fd9e-999f-4ed8-ab92-dfb233527ccf","system_id":"levelo_inurba_marseille","lat":43.30539,"lon":5.36549,"is_reserved":false,"is_disabled":false,"rental_uris":{"android":"levelo://app?vid=ec64fd9e-999f-4ed8-ab92-dfb233527ccf","ios":"levelo://app?vid=ec64fd9e-999f-4ed8-ab92-dfb233527ccf"},"vehicle_type_id":"4","last_reported":1750148092,"current_range_meters":18800,"station_id":"ce4bgs12rcd13ifvqcag","pricing_plan_id":"cebpf4jnsgd1na2vs0mg"},{"bike_id":"5f003e86-543d-45ac-a7bd-e0c9b874396e","system_id":"levelo_inurba_marseille","lat":43.30563,"lon":5.36552,"is_reserved":false,"is_disabled":false,"rental_uris":{"android":"levelo://app?vid=5f003e86-543d-45ac-a7bd-e0c9b874396e","ios":"levelo://app?vid=5f003e86-543d-45ac-a7bd-e0c9b874396e"},"vehicle_type_id":"4","last_reported":1750148092,"current_range_meters":18800,"station_id":"ce4bgs12rcd13ifvqcag","pricing_plan_id":"cebpf4jnsgd1na2vs0mg"},{"bike_id":"9353f201-9ea2-4308-9fd8-7a27f94fc263","system_id":"levelo_inurba_marseille","lat":43.2655,"lon":5.3729,"is_reserved":false,"is_disabled":false,"rental_uris":{"android":"levelo://app?vid=9353f201-9ea2-4308-9fd8-7a27f94fc263","ios":"levelo://app?vid=9353f201-9ea2-4308-9fd8-7a27f94fc263"},"vehicle_type_id":"4","last_reported":1750148092,"current_range_meters":18800,"station_id":"ce4bhg12rcd13ifvqf70","pricing_plan_id":"cebpf4jnsgd1na2vs0mg"},{"bike_id":"66273f39-1489-4656-b223-5a14c3f81d47","system_id":"levelo_inurba_marseille","lat":43.23966,"lon":5.36637,"is_reserved":false,"is_disabled":false,"rental_uris":{"android":"levelo://app?vid=66273f39-1489-4656-b223-5a14c3f81d47","ios":"levelo://app?vid=66273f39-1489-4656-b223-5a14c3f81d47"},"vehicle_type_id":"4","last_reported":1750148092,"current_range_meters":18800,"station_id":"ce4bhi12rcd13ifvqfp0","pricing_plan_id":"cebpf4jnsgd1na2vs0mg"},{"bike_id":"842add14-2b6c-4ee1-89f1-b50d8d622e8d","system_id":"levelo_inurba_marseille","lat":43.25873,"lon":5.39904,"is_reserved":false,"is_disabled":false,"rental_uris":{"android":"levelo://app?vid=842add14-2b6c-4ee1-89f1-b50d8d622e8d","ios":"levelo://app?vid=842add14-2b6c-4ee1-89f1-b50d8d622e8d"},"vehicle_type_id":"4","last_reported":1750148092,"current_range_meters":18800,"station_id":"ce4bhl92rcd13ifvqghg","pricing_plan_id":"cebpf4jnsgd1na2vs0mg"},{"bike_id":"86c8add5-dacd-4853-a11e-3a0b5f14c6ee","system_id":"levelo_inurba_marseille","lat":43.25929,"lon":5.4091,"is_reserved":false,"is_disabled":false,"rental_uris":{"android":"levelo://app?vid=86c8add5-dacd-4853-a11e-3a0b5f14c6ee","ios":"levelo://app?vid=86c8add5-dacd-4853-a11e-3a0b5f14c6ee"},"vehicle_type_id":"4","last_reported":1750148092,"current_range_meters":18800,"station_id":"ce4bhm92rcd13ifvqglg","pricing_plan_id":"cebpf4jnsgd1na2vs0mg"},{"bike_id":"1f0680af-85b2-439a-8100-db9dfb614a98","system_id":"levelo_inurba_marseille","lat":43.25936,"lon":5.40905,"is_reserved":false,"is_disabled":false,"rental_uris":{"android":"levelo://app?vid=1f0680af-85b2-439a-8100-db9dfb614a98","ios":"levelo://app?vid=1f0680af-85b2-439a-8100-db9dfb614a98"},"vehicle_type_id":"4","last_reported":1750148092,"current_range_meters":18800,"station_id":"ce4bhm92rcd13ifvqglg","pricing_plan_id":"cebpf4jnsgd1na2vs0mg"},{"bike_id":"4cda9327-46c6-426e-87dd-c291d5dc5ff7","system_id":"levelo_inurba_marseille","lat":43.21193,"lon":5.35072,"is_reserved":false,"is_disabled":false,"rental_uris":{"android":"levelo://app?vid=4cda9327-46c6-426e-87dd-c291d5dc5ff7","ios":"levelo://app?vid=4cda9327-46c6-426e-87dd-c291d5dc5ff7"},"vehicle_type_id":"4","last_reported":1750148092,"current_range_meters":18800,"station_id":"st_cvj6sg6p6f1abm77japg","pricing_plan_id":"cebpf4jnsgd1na2vs0mg"},{"bike_id":"2bcdbebc-789a-4460-923a-20ef9246776d","system_id":"levelo_inurba_marseille","lat":43.21187,"lon":5.35073,"is_reserved":false,"is_disabled":false,"rental_uris":{"android":"levelo://app?vid=2bcdbebc-789a-4460-923a-20ef9246776d","ios":"levelo://app?vid=2bcdbebc-789a-4460-923a-20ef9246776d"},"vehicle_type_id":"4","last_reported":1750148092,"current_range_meters":18800,"station_id":"st_cvj6sg6p6f1abm77japg","pricing_plan_id":"cebpf4jnsgd1na2vs0mg"},{"bike_id":"4b8da722-ee9e-48a4-a5e5-3a8a10364708","system_id":"levelo_inurba_marseille","lat":43.31213,"lon":5.37802,"is_reserved":false,"is_disabled":false,"rental_uris":{"android":"levelo://app?vid=4b8da722-ee9e-48a4-a5e5-3a8a10364708","ios":"levelo://app?vid=4b8da722-ee9e-48a4-a5e5-3a8a10364708"},"vehicle_type_id":"4","last_reported":1750148092,"current_range_meters":19200,"station_id":"","pricing_plan_id":"cebpf4jnsgd1na2vs0mg"},{"bike_id":"4ce5b165-f22d-40cf-abd3-1cb294861955","system_id":"levelo_inurba_marseille","lat":43.21205,"lon":5.3508,"is_reserved":false,"is_disabled":false,"rental_uris":{"android":"levelo://app?vid=4ce5b165-f22d-40cf-abd3-1cb294861955","ios":"levelo://app?vid=4ce5b165-f22d-40cf-abd3-1cb294861955"},"vehicle_type_id":"4","last_reported":1750148092,"current_range_meters":19200,"station_id":"","pricing_plan_id":"cebpf4jnsgd1na2vs0mg"},{"bike_id":"92e6d730-8a16-4e47-a46b-4f9adceb8d18","system_id":"levelo_inurba_marseille","lat":43.29303,"lon":5.37467,"is_reserved":false,"is_disabled":false,"rental_uris":{"android":"levelo://app?vid=92e6d730-8a16-4e47-a46b-4f9adceb8d18","ios":"levelo://app?vid=92e6d730-8a16-4e47-a46b-4f9adceb8d18"},"vehicle_type_id":"4","last_reported":1750148092,"current_range_meters":19200,"station_id":"ce4bgi12rcd13ifvqb70","pricing_plan_id":"cebpf4jnsgd1na2vs0mg"},{"bike_id":"67f01a5f-5bb9-4f09-b9e8-fa8a19e1088a","system_id":"levelo_inurba_marseille","lat":43.30919,"lon":5.40144,"is_reserved":false,"is_disabled":false,"rental_uris":{"android":"levelo://app?vid=67f01a5f-5bb9-4f09-b9e8-fa8a19e1088a","ios":"levelo://app?vid=67f01a5f-5bb9-4f09-b9e8-fa8a19e1088a"},"vehicle_type_id":"4","last_reported":1750148092,"current_range_meters":19200,"station_id":"ce4bgvp2rcd13ifvqct0","pricing_plan_id":"cebpf4jnsgd1na2vs0mg"},{"bike_id":"09484911-30b4-4250-9f69-0b4fb1aed78a","system_id":"levelo_inurba_marseille","lat":43.29878,"lon":5.38908,"is_reserved":false,"is_disabled":false,"rental_uris":{"android":"levelo://app?vid=09484911-30b4-4250-9f69-0b4fb1aed78a","ios":"levelo://app?vid=09484911-30b4-4250-9f69-0b4fb1aed78a"},"vehicle_type_id":"4","last_reported":1750148092,"current_range_meters":19200,"station_id":"ce4bh392rcd13ifvqdl0","pricing_plan_id":"cebpf4jnsgd1na2vs0mg"},{"bike_id":"85259d65-aa25-43a6-8f90-656e570a6167","system_id":"levelo_inurba_marseille","lat":43.25502,"lon":5.37653,"is_reserved":false,"is_disabled":false,"rental_uris":{"android":"levelo://app?vid=85259d65-aa25-43a6-8f90-656e570a6167","ios":"levelo://app?vid=85259d65-aa25-43a6-8f90-656e570a6167"},"vehicle_type_id":"4","last_reported":1750148092,"current_range_meters":19200,"station_id":"ce4bhh12rcd13ifvqff0","pricing_plan_id":"cebpf4jnsgd1na2vs0mg"},{"bike_id":"5cbdd979-131e-4b0a-a5c9-96ef156802c9","system_id":"levelo_inurba_marseille","lat":43.28462,"lon":5.39251,"is_reserved":false,"is_disabled":false,"rental_uris":{"android":"levelo://app?vid=5cbdd979-131e-4b0a-a5c9-96ef156802c9","ios":"levelo://app?vid=5cbdd979-131e-4b0a-a5c9-96ef156802c9"},"vehicle_type_id":"4","last_reported":1750148092,"current_range_meters":19200,"station_id":"ce4bhoh2rcd13ifvqh5g","pricing_plan_id":"cebpf4jnsgd1na2vs0mg"},{"bike_id":"cc8086c3-023b-4662-b7ba-91199240f1a1","system_id":"levelo_inurba_marseille","lat":43.23044,"lon":5.35504,"is_reserved":false,"is_disabled":false,"rental_uris":{"android":"levelo://app?vid=cc8086c3-023b-4662-b7ba-91199240f1a1","ios":"levelo://app?vid=cc8086c3-023b-4662-b7ba-91199240f1a1"},"vehicle_type_id":"4","last_reported":1750148092,"current_range_meters":19200,"station_id":"cpo3342slgdg3j2ifvpg","pricing_plan_id":"cebpf4jnsgd1na2vs0mg"},{"bike_id":"653a05d9-205d-420f-b0c9-a638667f0917","system_id":"levelo_inurba_marseille","lat":43.211896,"lon":5.350738,"is_reserved":false,"is_disabled":false,"rental_uris":{"android":"levelo://app?vid=653a05d9-205d-420f-b0c9-a638667f0917","ios":"levelo://app?vid=653a05d9-205d-420f-b0c9-a638667f0917"},"vehicle_type_id":"4","last_reported":1750148092,"current_range_meters":19200,"station_id":"st_cvj6sg6p6f1abm77japg","pricing_plan_id":"cebpf4jnsgd1na2vs0mg"},{"bike_id":"778bfcea-25e5-406c-8cbe-c80ec7c3b00f","system_id":"levelo_inurba_marseille","lat":43.3375,"lon":5.35601,"is_reserved":false,"is_disabled":false,"rental_uris":{"android":"levelo://app?vid=778bfcea-25e5-406c-8cbe-c80ec7c3b00f","ios":"levelo://app?vid=778bfcea-25e5-406c-8cbe-c80ec7c3b00f"},"vehicle_type_id":"4","last_reported":1750148092,"current_range_meters":19600,"station_id":"","pricing_plan_id":"cebpf4jnsgd1na2vs0mg"},{"bike_id":"1ab5c792-fd2c-4b22-816a-3f6dad045301","system_id":"levelo_inurba_marseille","lat":43.30905,"lon":5.36842,"is_reserved":false,"is_disabled":false,"rental_uris":{"android":"levelo://app?vid=1ab5c792-fd2c-4b22-816a-3f6dad045301","ios":"levelo://app?vid=1ab5c792-fd2c-4b22-816a-3f6dad045301"},"vehicle_type_id":"4","last_reported":1750148092,"current_range_meters":19600,"station_id":"ce4bgn92rcd13ifvqbvg","pricing_plan_id":"cebpf4jnsgd1na2vs0mg"},{"bike_id":"c85eedfa-48b9-4839-a461-3c8c329eabc6","system_id":"levelo_inurba_marseille","lat":43.30535,"lon":5.36535,"is_reserved":false,"is_disabled":false,"rental_uris":{"android":"levelo://app?vid=c85eedfa-48b9-4839-a461-3c8c329eabc6","ios":"levelo://app?vid=c85eedfa-48b9-4839-a461-3c8c329eabc6"},"vehicle_type_id":"4","last_reported":1750148092,"current_range_meters":19600,"station_id":"ce4bgs12rcd13ifvqcag","pricing_plan_id":"cebpf4jnsgd1na2vs0mg"},{"bike_id":"3a3c0798-67af-41c2-8611-325c0b3cd12d","system_id":"levelo_inurba_marseille","lat":43.316994,"lon":5.404577,"is_reserved":false,"is_disabled":false,"rental_uris":{"android":"levelo://app?vid=3a3c0798-67af-41c2-8611-325c0b3cd12d","ios":"levelo://app?vid=3a3c0798-67af-41c2-8611-325c0b3cd12d"},"vehicle_type_id":"4","last_reported":1750148092,"current_range_meters":19600,"station_id":"ce4bh012rcd13ifvqd00","pricing_plan_id":"cebpf4jnsgd1na2vs0mg"},{"bike_id":"ae1a1e4b-b44a-4b7f-bf60-016a7fa91655","system_id":"levelo_inurba_marseille","lat":43.25718,"lon":5.41112,"is_reserved":false,"is_disabled":false,"rental_uris":{"android":"levelo://app?vid=ae1a1e4b-b44a-4b7f-bf60-016a7fa91655","ios":"levelo://app?vid=ae1a1e4b-b44a-4b7f-bf60-016a7fa91655"},"vehicle_type_id":"4","last_reported":1750148092,"current_range_meters":19600,"station_id":"ce4bhkp2rcd13ifvqgd0","pricing_plan_id":"cebpf4jnsgd1na2vs0mg"},{"bike_id":"7082ce08-7338-4852-ab4b-f8200f619ccf","system_id":"levelo_inurba_marseille","lat":43.32657,"lon":5.40996,"is_reserved":false,"is_disabled":false,"rental_uris":{"android":"levelo://app?vid=7082ce08-7338-4852-ab4b-f8200f619ccf","ios":"levelo://app?vid=7082ce08-7338-4852-ab4b-f8200f619ccf"},"vehicle_type_id":"4","last_reported":1750148092,"current_range_meters":19600,"station_id":"ce4bhpp2rcd13ifvqhgg","pricing_plan_id":"cebpf4jnsgd1na2vs0mg"},{"bike_id":"aa625279-4526-4e2f-9d28-7b6e40657a4c","system_id":"levelo_inurba_marseille","lat":43.29788,"lon":5.39357,"is_reserved":false,"is_disabled":false,"rental_uris":{"android":"levelo://app?vid=aa625279-4526-4e2f-9d28-7b6e40657a4c","ios":"levelo://app?vid=aa625279-4526-4e2f-9d28-7b6e40657a4c"},"vehicle_type_id":"4","last_reported":1750148092,"current_range_meters":19600,"station_id":"chh1huq6cuj3fo74tm60","pricing_plan_id":"cebpf4jnsgd1na2vs0mg"},{"bike_id":"268aafb4-1331-426c-97bc-a7d6564caeb6","system_id":"levelo_inurba_marseille","lat":43.32901,"lon":5.37939,"is_reserved":false,"is_disabled":false,"rental_uris":{"android":"levelo://app?vid=268aafb4-1331-426c-97bc-a7d6564caeb6","ios":"levelo://app?vid=268aafb4-1331-426c-97bc-a7d6564caeb6"},"vehicle_type_id":"4","last_reported":1750148092,"current_range_meters":20000,"station_id":"","pricing_plan_id":"cebpf4jnsgd1na2vs0mg"},{"bike_id":"15c8ae02-8e99-4704-aa0b-0b411ebbfdc4","system_id":"levelo_inurba_marseille","lat":43.30537,"lon":5.36537,"is_reserved":false,"is_disabled":false,"rental_uris":{"android":"levelo://app?vid=15c8ae02-8e99-4704-aa0b-0b411ebbfdc4","ios":"levelo://app?vid=15c8ae02-8e99-4704-aa0b-0b411ebbfdc4"},"vehicle_type_id":"4","last_reported":1750148092,"current_range_meters":20000,"station_id":"ce4bgs12rcd13ifvqcag","pricing_plan_id":"cebpf4jnsgd1na2vs0mg"},{"bike_id":"b5df771f-0292-4acc-afde-88c7e4fb1865","system_id":"levelo_inurba_marseille","lat":43.24178,"lon":5.39724,"is_reserved":false,"is_disabled":false,"rental_uris":{"android":"levelo://app?vid=b5df771f-0292-4acc-afde-88c7e4fb1865","ios":"levelo://app?vid=b5df771f-0292-4acc-afde-88c7e4fb1865"},"vehicle_type_id":"4","last_reported":1750148092,"current_range_meters":20000,"station_id":"ce4bhn12rcd13ifvqgpg","pricing_plan_id":"cebpf4jnsgd1na2vs0mg"},{"bike_id":"3eaf5d76-7bdb-454a-8e3f-54f986b432e6","system_id":"levelo_inurba_marseille","lat":43.31441,"lon":5.36749,"is_reserved":false,"is_disabled":false,"rental_uris":{"android":"levelo://app?vid=3eaf5d76-7bdb-454a-8e3f-54f986b432e6","ios":"levelo://app?vid=3eaf5d76-7bdb-454a-8e3f-54f986b432e6"},"vehicle_type_id":"4","last_reported":1750148092,"current_range_meters":20400,"station_id":"","pricing_plan_id":"cebpf4jnsgd1na2vs0mg"},{"bike_id":"5fb7b4e5-2ace-4b45-9e53-e5cc821d5b15","system_id":"levelo_inurba_marseille","lat":43.30524,"lon":5.36713,"is_reserved":false,"is_disabled":false,"rental_uris":{"android":"levelo://app?vid=5fb7b4e5-2ace-4b45-9e53-e5cc821d5b15","ios":"levelo://app?vid=5fb7b4e5-2ace-4b45-9e53-e5cc821d5b15"},"vehicle_type_id":"4","last_reported":1750148092,"current_range_meters":20400,"station_id":"ce4bgrp2rcd13ifvqc9g","pricing_plan_id":"cebpf4jnsgd1na2vs0mg"},{"bike_id":"8ad1413f-a14c-45a6-8cea-a0b8a878f8c7","system_id":"levelo_inurba_marseille","lat":43.30543,"lon":5.36541,"is_reserved":false,"is_disabled":false,"rental_uris":{"android":"levelo://app?vid=8ad1413f-a14c-45a6-8cea-a0b8a878f8c7","ios":"levelo://app?vid=8ad1413f-a14c-45a6-8cea-a0b8a878f8c7"},"vehicle_type_id":"4","last_reported":1750148092,"current_range_meters":20400,"station_id":"ce4bgs12rcd13ifvqcag","pricing_plan_id":"cebpf4jnsgd1na2vs0mg"},{"bike_id":"ca36c242-b02b-486e-8219-7d60039f80ad","system_id":"levelo_inurba_marseille","lat":43.284811,"lon":5.385615,"is_reserved":false,"is_disabled":false,"rental_uris":{"android":"levelo://app?vid=ca36c242-b02b-486e-8219-7d60039f80ad","ios":"levelo://app?vid=ca36c242-b02b-486e-8219-7d60039f80ad"},"vehicle_type_id":"4","last_reported":1750148092,"current_range_meters":20400,"station_id":"ce4bh8p2rcd13ifvqeb0","pricing_plan_id":"cebpf4jnsgd1na2vs0mg"},{"bike_id":"d94b8ebd-d85f-4178-a007-a120009de472","system_id":"levelo_inurba_marseille","lat":43.27054,"lon":5.40263,"is_reserved":false,"is_disabled":false,"rental_uris":{"android":"levelo://app?vid=d94b8ebd-d85f-4178-a007-a120009de472","ios":"levelo://app?vid=d94b8ebd-d85f-4178-a007-a120009de472"},"vehicle_type_id":"4","last_reported":1750148092,"current_range_meters":20400,"station_id":"ce4bhk92rcd13ifvqgc0","pricing_plan_id":"cebpf4jnsgd1na2vs0mg"},