{"last_updated":1751667020,"ttl":60,"version":"2.2","data":{"bikes":[{"bike_id":"3da29fb8-fc97-44c6-b9ac-31dd456b2fd4","system_id":"levelo_inurba_marseille","lat":43.33771,"lon":5.37424,"is_reserved":false,"is_disabled":true,"rental_uris":{"android":"levelo://app?vid=3da29fb8-fc97-44c6-b9ac-31dd456b2fd4","ios":"levelo://app?vid=3da29fb8-fc97-44c6-b9ac-31dd456b2fd4"},"vehicle_type_id":"4","last_reported":1751667020,"current_range_meters":0,"station_id":"","pricing_plan_id":"cebpf4jnsgd1na2vs0mg"},{"bike_id":"01861ad8-a8d7-4be6-816e-651927c87584","system_id":"levelo_inurba_marseille","lat":43.33751,"lon":5.37456,"is_reserved":false,"is_disabled":true,"rental_uris":{"android":"levelo://app?vid=01861ad8-a8d7-4be6-816e-651927c87584","ios":"levelo://app?vid=01861ad8-a8d7-4be6-816e-651927c87584"},"vehicle_type_id":"4","last_reported":1751667020,"current_range_meters":0,"station_id":"","pricing_plan_id":"cebpf4jnsgd1na2vs0mg"},{"bike_id":"eb2a50ca-506b-4e80-b379-08adc8ae9a82","system_id":"levelo_inurba_marseille","lat":43.25396,"lon":5.37511,"is_reserved":false,"is_disabled":true,"rental_uris":{"android":"levelo://app?vid=eb2a50ca-506b-4e80-b379-08adc8ae9a82","ios":"levelo://app?vid=eb2a50ca-506b-4e80-b379-08adc8ae9a82"},"vehicle_type_id":"4","last_reported":1751667020,"current_range_meters":0,"station_id":"","pricing_plan_id":"cebpf4jnsgd1na2vs0mg"},{"bike_id":"f600ad09-4b91-404a-82f3-016a5269da22","system_id":"levelo_inurba_marseille","lat":43.30319,"lon":5.40438,"is_reserved":false,"is_disabled":true,"rental_uris":{"android":"levelo://app?vid=f600ad09-4b91-404a-82f3-016a5269da22","ios":"levelo://app?vid=f600ad09-4b91-404a-82f3-016a5269da22"},"vehicle_type_id":"4","last_reported":1751667020,"current_range_meters":0,"station_id":"ce4bh012rcd13ifvqd10","pricing_plan_id":"cebpf4jnsgd1na2vs0mg"},{"bike_id":"f3c67891-eec1-4cbf-8022-5b4905ff2417","system_id":"levelo_inurba_marseille","lat":43.28616,"lon":5.35105,"is_reserved":false,"is_disabled":true,"rental_uris":{"android":"levelo://app?vid=f3c67891-eec1-4cbf-8022-5b4905ff2417","ios":"levelo://app?vid=f3c67891-eec1-4cbf-8022-5b4905ff2417"},"vehicle_type_id":"4","last_reported":1751667020,"current_range_meters":0,"station_id":"ce4bhch2rcd13ifvqeug","pricing_plan_id":"cebpf4jnsgd1na2vs0mg"},{"bike_id":"3b23e3ee-2744-4d89-a328-4eb804b910dd","system_id":"levelo_inurba_marseille","lat":43.26959,"lon":5.38631,"is_reserved":false,"is_disabled":true,"rental_uris":{"android":"levelo://app?vid=3b23e3ee-2744-4d89-a328-4eb804b910dd","ios":"levelo://app?vid=3b23e3ee-2744-4d89-a328-4eb804b910dd"},"vehicle_type_id":"4","last_reported":1751667020,"current_range_meters":0,"station_id":"ce4bhh92rcd13ifvqfh0","pricing_plan_id":"cebpf4jnsgd1na2vs0mg"},{"bike_id":"fc45637f-0d3f-4541-a951-0a63add791e4","system_id":"levelo_inurba_marseille","lat":43.24178,"lon":5.3974,"is_reserved":false,"is_disabled":true,"rental_uris":{"android":"levelo://app?vid=fc45637f-0d3f-4541-a951-0a63add791e4","ios":"levelo://app?vid=fc45637f-0d3f-4541-a951-0a63add791e4"},"vehicle_type_id":"4","last_reported":1751667020,"current_range_meters":0,"station_id":"ce4bhn12rcd13ifvqgpg","pricing_plan_id":"cebpf4jnsgd1na2vs0mg"},{"bike_id":"7542f4cf-8ee6-4f04-baee-fe356aeaee6c","system_id":"levelo_inurba_marseille","lat":43.23181,"lon":5.39993,"is_reserved":false,"is_disabled":true,"rental_uris":{"android":"levelo://app?vid=7542f4cf-8ee6-4f04-baee-fe356aeaee6c","ios":"levelo://app?vid=7542f4cf-8ee6-4f04-baee-fe356aeaee6c"},"vehicle_type_id":"4","last_reported":1751667020,"current_range_meters":0,"station_id":"ce4bhn12rcd13ifvqgqg","pricing_plan_id":"cebpf4jnsgd1na2vs0mg"},{"bike_id":"a73cc6b7-d169-4c02-a251-875fdca7f0fc","system_id":"levelo_inurba_marseille","lat":43.29555,"lon":5.42294,"is_reserved":false,"is_disabled":true,"rental_uris":{"android":"levelo://app?vid=a73cc6b7-d169-4c02-a251-875fdca7f0fc","ios":"levelo://app?vid=a73cc6b7-d169-4c02-a251-875fdca7f0fc"},"vehicle_type_id":"4","last_reported":1751667020,"current_range_meters":0,"station_id":"ce4bhph2rcd13ifvqhdg","pricing_plan_id":"cebpf4jnsgd1na2vs0mg"},{"bike_id":"d617aa56-0975-4d71-a7af-99e9711279f4","system_id":"levelo_inurba_marseille","lat":43.32057,"lon":5.415465,"is_reserved":false,"is_disabled":true,"rental_uris":{"android":"levelo://app?vid=d617aa56-0975-4d71-a7af-99e9711279f4","ios":"levelo://app?vid=d617aa56-0975-4d71-a7af-99e9711279f4"},"vehicle_type_id":"4","last_reported":1751667020,"current_range_meters":0,"station_id":"ce4bhq92rcd13ifvqhkg","pricing_plan_id":"cebpf4jnsgd1na2vs0mg"},{"bike_id":"fb7eaa34-3090-467a-bc3a-a4c2c7cd510d","system_id":"levelo_inurba_marseille","lat":43.21749,"lon":5.34656,"is_reserved":false,"is_disabled":true,"rental_uris":{"android":"levelo://app?vid=fb7eaa34-3090-467a-bc3a-a4c2c7cd510d","ios":"levelo://app?vid=fb7eaa34-3090-467a-bc3a-a4c2c7cd510d"},"vehicle_type_id":"4","last_reported":1751667020,"current_range_meters":0,"station_id":"st_cvj6r9ubvosntc0bgbag","pricing_plan_id":"cebpf4jnsgd1na2vs0mg"},{"bike_id":"2db7de25-6c57-447b-bff5-ea01c3753780","system_id":"levelo_inurba_marseille","lat":43.21753,"lon":5.34621,"is_reserved":false,"is_disabled":true,"rental_uris":{"android":"levelo://app?vid=2db7de25-6c57-447b-bff5-ea01c3753780","ios":"levelo://app?vid=2db7de25-6c57-447b-bff5-ea01c3753780"},"vehicle_type_id":"4","last_reported":1751667020,"current_range_meters":0,"station_id":"st_cvj6r9ubvosntc0bgbag","pricing_plan_id":"cebpf4jnsgd1na2vs0mg"},{"bike_id":"5e8830ec-34e5-4f0f-b607-434b2954d153","system_id":"levelo_inurba_marseille","lat":43.21196,"lon":5.35098,"is_reserved":false,"is_disabled":true,"rental_uris":{"android":"levelo://app?vid=5e8830ec-34e5-4f0f-b607-434b2954d153","ios":"levelo://app?vid=5e8830ec-34e5-4f0f-b607-434b2954d153"},"vehicle_type_id":"4","last_reported":1751667020,"current_range_meters":0,"station_id":"st_cvj6sg6p6f1abm77japg","pricing_plan_id":"cebpf4jnsgd1na2vs0mg"},{"bike_id":"cee0b5b6-9b90-457a-85f4-540287a23b84","system_id":"levelo_inurba_marseille","lat":43.21191,"lon":5.35071,"is_reserved":false,"is_disabled":true,"rental_uris":{"android":"levelo://app?vid=cee0b5b6-9b90-457a-85f4-540287a23b84","ios":"levelo://app?vid=cee0b5b6-9b90-457a-85f4-540287a23b84"},"vehicle_type_id":"4","last_reported":1751667020,"current_range_meters":0,"station_id":"st_cvj6sg6p6f1abm77japg","pricing_plan_id":"cebpf4jnsgd1na2vs0mg"},{"bike_id":"cd2a3af2-854b-4519-92e5-1eaf70ba8a37","system_id":"levelo_inurba_marseille","lat":43.21188,"lon":5.35117,"is_reserved":false,"is_disabled":true,"rental_uris":{"android":"levelo://app?vid=cd2a3af2-854b-4519-92e5-1eaf70ba8a37","ios":"levelo://app?vid=cd2a3af2-854b-4519-92e5-1eaf70ba8a37"},"vehicle_type_id":"4","last_reported":1751667020,"current_range_meters":0,"station_id":"st_cvj6sg6p6f1abm77japg","pricing_plan_id":"cebpf4jnsgd1na2vs0mg"},{"bike_id":"6cd3d47e-a0d1-4ea2-acca-488f8d1b58ba","system_id":"levelo_inurba_marseille","lat":43.30594,"lon":5.37242,"is_reserved":false,"is_disabled":true,"rental_uris":{"android":"levelo://app?vid=6cd3d47e-a0d1-4ea2-acca-488f8d1b58ba","ios":"levelo://app?vid=6cd3d47e-a0d1-4ea2-acca-488f8d1b58ba"},"vehicle_type_id":"4","last_reported":1751667020,"current_range_meters":400,"station_id":"ce4bgqh2rcd13ifvqc4g","pricing_plan_id":"cebpf4jnsgd1na2vs0mg"},{"bike_id":"e8c09dcf-c1f2-44d7-af5b-024356851ed4","system_id":"levelo_inurba_marseille","lat":43.29972,"lon":5.37173,"is_reserved":false,"is_disabled":true,"rental_uris":{"android":"levelo://app?vid=e8c09dcf-c1f2-44d7-af5b-024356851ed4","ios":"levelo://app?vid=e8c09dcf-c1f2-44d7-af5b-024356851ed4"},"vehicle_type_id":"4","last_reported":1751667020,"current_range_meters":400,"station_id":"ce4bgr92rcd13ifvqc7g","pricing_plan_id":"cebpf4jnsgd1na2vs0mg"},{"bike_id":"ec6522ab-d8ef-4d6c-bbd8-7bf07fb8bf83","system_id":"levelo_inurba_marseille","lat":43.30329,"lon":5.40439,"is_reserved":false,"is_disabled":true,"rental_uris":{"android":"levelo://app?vid=ec6522ab-d8ef-4d6c-bbd8-7bf07fb8bf83","ios":"levelo://app?vid=ec6522ab-d8ef-4d6c-bbd8-7bf07fb8bf83"},"vehicle_type_id":"4","last_reported":1751667020,"current_range_meters":400,"station_id":"ce4bh012rcd13ifvqd10","pricing_plan_id":"cebpf4jnsgd1na2vs0mg"},{"bike_id":"31242902-7d1e-43d7-8f0e-5048bfa963fa","system_id":"levelo_inurba_marseille","lat":43.29269,"lon":5.38448,"is_reserved":false,"is_disabled":true,"rental_uris":{"android":"levelo://app?vid=31242902-7d1e-43d7-8f0e-5048bfa963fa","ios":"levelo://app?vid=31242902-7d1e-43d7-8f0e-5048bfa963fa"},"vehicle_type_id":"4","last_reported":1751667020,"current_range_meters":400,"station_id":"ce4bh692rcd13ifvqea0","pricing_plan_id":"cebpf4jnsgd1na2vs0mg"},{"bike_id":"bc0e39d4-1284-4c82-abde-a2b76eb0aadf","system_id":"levelo_inurba_marseille","lat":43.2955,"lon":5.42283,"is_reserved":false,"is_disabled":true,"rental_uris":{"android":"levelo://app?vid=bc0e39d4-1284-4c82-abde-a2b76eb0aadf","ios":"levelo://app?vid=bc0e39d4-1284-4c82-abde-a2b76eb0aadf"},"vehicle_type_id":"4","last_reported":1751667020,"current_range_meters":400,"station_id":"ce4bhph2rcd13ifvqhdg","pricing_plan_id":"cebpf4jnsgd1na2vs0mg"},{"bike_id":"232c7599-afff-41a5-b0d2-0bcec5f48bb6","system_id":"levelo_inurba_marseille","lat":43.217428,"lon":5.346008,"is_reserved":false,"is_disabled":true,"rental_uris":{"android":"levelo://app?vid=232c7599-afff-41a5-b0d2-0bcec5f48bb6","ios":"levelo://app?vid=232c7599-afff-41a5-b0d2-0bcec5f48bb6"},"vehicle_type_id":"4","last_reported":1751667020,"current_range_meters":800,"station_id":"st_cvj6r9ubvosntc0bgbag","pricing_plan_id":"cebpf4jnsgd1na2vs0mg"},{"bike_id":"d52317ec-9d8e-4e5d-a5ef-563eb0952a26","system_id":"levelo_inurba_marseille","lat":43.31752,"lon":5.39019,"is_reserved":false,"is_disabled":true,"rental_uris":{"android":"levelo://app?vid=d52317ec-9d8e-4e5d-a5ef-563eb0952a26","ios":"levelo://app?vid=d52317ec-9d8e-4e5d-a5ef-563eb0952a26"},"vehicle_type_id":"4","last_reported":1751667020,"current_range_meters":1200,"station_id":"ce4bhqp2rcd13ifvqhng","pricing_plan_id":"cebpf4jnsgd1na2vs0mg"},{"bike_id":"11e7b8be-6254-46c8-a705-c6941c346d56","system_id":"levelo_inurba_marseille","lat":43.301383,"lon":5.37729,"is_reserved":false,"is_disabled":true,"rental_uris":{"android":"levelo://app?vid=11e7b8be-6254-46c8-a705-c6941c346d56","ios":"levelo://app?vid=11e7b8be-6254-46c8-a705-c6941c346d56"},"vehicle_type_id":"4","last_reported":1751667020,"current_range_meters":1600,"station_id":"","pricing_plan_id":"cebpf4jnsgd1na2vs0mg"},{"bike_id":"fd2a2c8a-4772-49a5-8175-cf4ece43f7ca","system_id":"levelo_inurba_marseille","lat":43.24181,"lon":5.39735,"is_reserved":false,"is_disabled":true,"rental_uris":{"android":"levelo://app?vid=fd2a2c8a-4772-49a5-8175-cf4ece43f7ca","ios":"levelo://app?vid=fd2a2c8a-4772-49a5-8175-cf4ece43f7ca"},"vehicle_type_id":"4","last_reported":1751667020,"current_range_meters":1600,"station_id":"ce4bhn12rcd13ifvqgpg","pricing_plan_id":"cebpf4jnsgd1na2vs0mg"},{"bike_id":"352d8a89-6713-4965-ab20-5cd0b5dd88e0","system_id":"levelo_inurba_marseille","lat":43.28696,"lon":5.39982,"is_reserved":false,"is_disabled":true,"rental_uris":{"android":"levelo://app?vid=352d8a89-6713-4965-ab20-5cd0b5dd88e0","ios":"levelo://app?vid=352d8a89-6713-4965-ab20-5cd0b5dd88e0"},"vehicle_type_id":"4","last_reported":1751667020,"current_range_meters":1600,"station_id":"ce4bho92rcd13ifvqh3g","pricing_plan_id":"cebpf4jnsgd1na2vs0mg"},{"bike_id":"d5d50a9f-0a62-4c78-bb81-4fe52c7dd896","system_id":"levelo_inurba_marseille","lat":43.29556,"lon":5.42296,"is_reserved":false,"is_disabled":true,"rental_uris":{"android":"levelo://app?vid=d5d50a9f-0a62-4c78-bb81-4fe52c7dd896","ios":"levelo://app?vid=d5d50a9f-0a62-4c78-bb81-4fe52c7dd896"},"vehicle_type_id":"4","last_reported":1751667020,"current_range_meters":1600,"station_id":"ce4bhph2rcd13ifvqhdg","pricing_plan_id":"cebpf4jnsgd1na2vs0mg"},{"bike_id":"d327be43-34d8-4169-bd67-4fdf2983e6de","system_id":"levelo_inurba_marseille","lat":43.31761,"lon":5.39013,"is_reserved":false,"is_disabled":true,"rental_uris":{"android":"levelo://app?vid=d327be43-34d8-4169-bd67-4fdf2983e6de","ios":"levelo://app?vid=d327be43-34d8-4169-bd67-4fdf2983e6de"},"vehicle_type_id":"4","last_reported":1751667020,"current_range_meters":1600,"station_id":"ce4bhqp2rcd13ifvqhng","pricing_plan_id":"cebpf4jnsgd1na2vs0mg"},{"bike_id":"79a6080f-946b-4f6c-a16a-b2bd6b2e96d3","system_id":"levelo_inurba_marseille","lat":43.31076,"lon":5.38357,"is_reserved":false,"is_disabled":true,"rental_uris":{"android":"levelo://app?vid=79a6080f-946b-4f6c-a16a-b2bd6b2e96d3","ios":"levelo://app?vid=79a6080f-946b-4f6c-a16a-b2bd6b2e96d3"},"vehicle_type_id":"4","last_reported":1751667020,"current_range_meters":2000,"station_id":"ce4bgv92rcd13ifvqcr0","pricing_plan_id":"cebpf4jnsgd1na2vs0mg"},{"bike_id":"8e9b7d8d-7308-4968-96a6-f7d2d215940d","system_id":"levelo_inurba_marseille","lat":43.25719,"lon":5.41117,"is_reserved":false,"is_disabled":false,"rental_uris":{"android":"levelo://app?vid=8e9b7d8d-7308-4968-96a6-f7d2d215940d","ios":"levelo://app?vid=8e9b7d8d-7308-4968-96a6-f7d2d215940d"},"vehicle_type_id":"4","last_reported":1751667020,"current_range_meters":2800,"station_id":"ce4bhkp2rcd13ifvqgd0","pricing_plan_id":"cebpf4jnsgd1na2vs0mg"},{"bike_id":"f56c4fd7-02ba-45d7-9f67-fd5846fc39e6","system_id":"levelo_inurba_marseille","lat":43.29273,"lon":5.40115,"is_reserved":false,"is_disabled":false,"rental_uris":{"android":"levelo://app?vid=f56c4fd7-02ba-45d7-9f67-fd5846fc39e6","ios":"levelo://app?vid=f56c4fd7-02ba-45d7-9f67-fd5846fc39e6"},"vehicle_type_id":"4","last_reported":1751667020,"current_range_meters":3600,"station_id":"ce4bh312rcd13ifvqdk0","pricing_plan_id":"cebpf4jnsgd1na2vs0mg"},{"bike_id":"8afa7640-ebe8-4025-983a-c83f3912a2dd","system_id":"levelo_inurba_marseille","lat":43.21181,"lon":5.35106,"is_reserved":false,"is_disabled":false,"rental_uris":{"android":"levelo://app?vid=8afa7640-ebe8-4025-983a-c83f3912a2dd","ios":"levelo://app?vid=8afa7640-ebe8-4025-983a-c83f3912a2dd"},"vehicle_type_id":"4","last_reported":1751667020,"current_range_meters":3600,"station_id":"st_cvj6sg6p6f1abm77japg","pricing_plan_id":"cebpf4jnsgd1na2vs0mg"},{"bike_id":"f4d7166d-1d03-4ac1-a9d3-d15c3dffc716","system_id":"levelo_inurba_marseille","lat":43.30552,"lon":5.38429,"is_reserved":false,"is_disabled":false,"rental_uris":{"android":"levelo://app?vid=f4d7166d-1d03-4ac1-a9d3-d15c3dffc716","ios":"levelo://app?vid=f4d7166d-1d03-4ac1-a9d3-d15c3dffc716"},"vehicle_type_id":"4","last_reported":1751667020,"current_range_meters":4000,"station_id":"ce4bgg92rcd13ifvqb30","pricing_plan_id":"cebpf4jnsgd1na2vs0mg"},{"bike_id":"d492a286-9b9b-4790-b0b5-29a9f152c663","system_id":"levelo_inurba_marseille","lat":43.28079,"lon":5.39663,"is_reserved":false,"is_disabled":false,"rental_uris":{"android":"levelo://app?vid=d492a286-9b9b-4790-b0b5-29a9f152c663","ios":"levelo://app?vid=d492a286-9b9b-4790-b0b5-29a9f152c663"},"vehicle_type_id":"4","last_reported":1751667020,"current_range_meters":4000,"station_id":"ce4bho12rcd13ifvqh2g","pricing_plan_id":"cebpf4jnsgd1na2vs0mg"},{"bike_id":"e26ba497-efc7-4420-b8c5-9fa5e27f2ce4","system_id":"levelo_inurba_marseille","lat":43.31367,"lon":5.37087,"is_reserved":false,"is_disabled":false,"rental_uris":{"android":"levelo://app?vid=e26ba497-efc7-4420-b8c5-9fa5e27f2ce4","ios":"levelo://app?vid=e26ba497-efc7-4420-b8c5-9fa5e27f2ce4"},"vehicle_type_id":"4","last_reported":1751667020,"current_range_meters":4400,"station_id":"","pricing_plan_id":"cebpf4jnsgd1na2vs0mg"},{"bike_id":"0b8871a4-12d3-4ca5-88a6-da15eddbc2e4","system_id":"levelo_inurba_marseille","lat":43.29273,"lon":5.38435,"is_reserved":false,"is_disabled":false,"rental_uris":{"android":"levelo://app?vid=0b8871a4-12d3-4ca5-88a6-da15eddbc2e4","ios":"levelo://app?vid=0b8871a4-12d3-4ca5-88a6-da15eddbc2e4"},"vehicle_type_id":"4","last_reported":1751667020,"current_range_meters":4400,"station_id":"ce4bh692rcd13ifvqea0","pricing_plan_id":"cebpf4jnsgd1na2vs0mg"},{"bike_id":"d826d342-8205-4712-a3c0-c11b7cae5d0b","system_id":"levelo_inurba_marseille","lat":43.29273,"lon":5.38438,"is_reserved":false,"is_disabled":false,"rental_uris":{"android":"levelo://app?vid=d826d342-8205-4712-a3c0-c11b7cae5d0b","ios":"levelo://app?vid=d826d342-8205-4712-a3c0-c11b7cae5d0b"},"vehicle_type_id":"4","last_reported":1751667020,"current_range_meters":4800,"station_id":"ce4bh692rcd13ifvqea0","pricing_plan_id":"cebpf4jnsgd1na2vs0mg"},{"bike_id":"8ab6460b-3eae-4f7c-80f6-eca771f2db22","system_id":"levelo_inurba_marseille","lat":43.301543,"lon":5.392894,"is_reserved":false,"is_disabled":false,"rental_uris":{"android":"levelo://app?vid=8ab6460b-3eae-4f7c-80f6-eca771f2db22","ios":"levelo://app?vid=8ab6460b-3eae-4f7c-80f6-eca771f2db22"},"vehicle_type_id":"4","last_reported":1751667020,"current_range_meters":5600,"station_id":"ce4bh192rcd13ifvqdb0","pricing_plan_id":"cebpf4jnsgd1na2vs0mg"},{"bike_id":"458f960c-9c0c-42a0-977b-a8232f235b81","system_id":"levelo_inurba_marseille","lat":43.29042,"lon":5.39967,"is_reserved":false,"is_disabled":false,"rental_uris":{"android":"levelo://app?vid=458f960c-9c0c-42a0-977b-a8232f235b81","ios":"levelo://app?vid=458f960c-9c0c-42a0-977b-a8232f235b81"},"vehicle_type_id":"4","last_reported":1751667020,"current_range_meters":5600,"station_id":"ce4bh392rcd13ifvqdm0","pricing_plan_id":"cebpf4jnsgd1na2vs0mg"},{"bike_id":"98956bae-471e-4ca6-9b72-66531fd22284","system_id":"levelo_inurba_marseille","lat":43.289245,"lon":5.394992,"is_reserved":false,"is_disabled":false,"rental_uris":{"android":"levelo://app?vid=98956bae-471e-4ca6-9b72-66531fd22284","ios":"levelo://app?vid=98956bae-471e-4ca6-9b72-66531fd22284"},"vehicle_type_id":"4","last_reported":1751667020,"current_range_meters":5600,"station_id":"ce4bh3h2rcd13ifvqdn0","pricing_plan_id":"cebpf4jnsgd1na2vs0mg"},{"bike_id":"0f6e54a7-e47c-46a3-9755-ec2879fdad27","system_id":"levelo_inurba_marseille","lat":43.31248,"lon":5.36913,"is_reserved":false,"is_disabled":false,"rental_uris":{"android":"levelo://app?vid=0f6e54a7-e47c-46a3-9755-ec2879fdad27","ios":"levelo://app?vid=0f6e54a7-e47c-46a3-9755-ec2879fdad27"},"vehicle_type_id":"4","last_reported":1751667020,"current_range_meters":6000,"station_id":"","pricing_plan_id":"cebpf4jnsgd1na2vs0mg"},{"bike_id":"c3ae91a3-84a1-49e1-b302-b2dd0c68bce6","system_id":"levelo_inurba_marseille","lat":43.28317,"lon":5.43234,"is_reserved":false,"is_disabled":false,"rental_uris":{"android":"levelo://app?vid=c3ae91a3-84a1-49e1-b302-b2dd0c68bce6","ios":"levelo://app?vid=c3ae91a3-84a1-49e1-b302-b2dd0c68bce6"},"vehicle_type_id":"4","last_reported":1751667020,"current_range_meters":6000,"station_id":"","pricing_plan_id":"cebpf4jnsgd1na2vs0mg"},{"bike_id":"6bdf4b9b-12e4-451e-ba66-ea577b4656ad","system_id":"levelo_inurba_marseille","lat":43.279457,"lon":5.410568,"is_reserved":false,"is_disabled":false,"rental_uris":{"android":"levelo://app?vid=6bdf4b9b-12e4-451e-ba66-ea577b4656ad","ios":"levelo://app?vid=6bdf4b9b-12e4-451e-ba66-ea577b4656ad"},"vehicle_type_id":"4","last_reported":1751667020,"current_range_meters":6000,"station_id":"ce4bhnp2rcd13ifvqh0g","pricing_plan_id":"cebpf4jnsgd1na2vs0mg"},{"bike_id":"5ab87275-5433-4e21-8b68-cd13b9c2a0d5","system_id":"levelo_inurba_marseille","lat":43.29554,"lon":5.42301,"is_reserved":false,"is_disabled":false,"rental_uris":{"android":"levelo://app?vid=5ab87275-5433-4e21-8b68-cd13b9c2a0d5","ios":"levelo://app?vid=5ab87275-5433-4e21-8b68-cd13b9c2a0d5"},"vehicle_type_id":"4","last_reported":1751667020,"current_range_meters":6000,"station_id":"ce4bhph2rcd13ifvqhdg","pricing_plan_id":"cebpf4jnsgd1na2vs0mg"},{"bike_id":"2ccda80a-95de-496f-8bfb-33e4f4d1704c","system_id":"levelo_inurba_marseille","lat":43.28944,"lon":5.36399,"is_reserved":false,"is_disabled":false,"rental_uris":{"android":"levelo://app?vid=2ccda80a-95de-496f-8bfb-33e4f4d1704c","ios":"levelo://app?vid=2ccda80a-95de-496f-8bfb-33e4f4d1704c"},"vehicle_type_id":"4","last_reported":1751667020,"current_range_meters":6400,"station_id":"ce4bhc92rcd13ifvqetg","pricing_plan_id":"cebpf4jnsgd1na2vs0mg"},{"bike_id":"2f538d7c-0199-4f15-8063-5b9cf3785943","system_id":"levelo_inurba_marseille","lat":43.28855,"lon":5.3883,"is_reserved":false,"is_disabled":false,"rental_uris":{"android":"levelo://app?vid=2f538d7c-0199-4f15-8063-5b9cf3785943","ios":"levelo://app?vid=2f538d7c-0199-4f15-8063-5b9cf3785943"},"vehicle_type_id":"4","last_reported":1751667020,"current_range_meters":6800,"station_id":"","pricing_plan_id":"cebpf4jnsgd1na2vs0mg"},{"bike_id":"cc451587-22b3-409b-b05d-96590a9ac879","system_id":"levelo_inurba_marseille","lat":43.29528,"lon":5.38535,"is_reserved":false,"is_disabled":false,"rental_uris":{"android":"levelo://app?vid=cc451587-22b3-409b-b05d-96590a9ac879","ios":"levelo://app?vid=cc451587-22b3-409b-b05d-96590a9ac879"},"vehicle_type_id":"4","last_reported":1751667020,"current_range_meters":6800,"station_id":"ce4bgih2rcd13ifvqba0","pricing_plan_id":"cebpf4jnsgd1na2vs0mg"},{"bike_id":"0b7e3772-9d94-415c-9ea2-d442065df3ca","system_id":"levelo_inurba_marseille","lat":43.29255,"lon":5.40911,"is_reserved":false,"is_disabled":false,"rental_uris":{"android":"levelo://app?vid=0b7e3772-9d94-415c-9ea2-d442065df3ca","ios":"levelo://app?vid=0b7e3772-9d94-415c-9ea2-d442065df3ca"},"vehicle_type_id":"4","last_reported":1751667020,"current_range_meters":6800,"station_id":"ce4bh192rcd13ifvqdc0","pricing_plan_id":"cebpf4jnsgd1na2vs0mg"},{"bike_id":"c4827449-f468-426e-8882-e731f40abb52","system_id":"levelo_inurba_marseille","lat":43.2885,"lon":5.39307,"is_reserved":false,"is_disabled":false,"rental_uris":{"android":"levelo://app?vid=c4827449-f468-426e-8882-e731f40abb52","ios":"levelo://app?vid=c4827449-f468-426e-8882-e731f40abb52"},"vehicle_type_id":"4","last_reported":1751667020,"current_range_meters":6800,"station_id":"ce4bh2p2rcd13ifvqdi0","pricing_plan_id":"cebpf4jnsgd1na2vs0mg"},{"bike_id":"5b583570-d9bc-44a0-867f-9f5d59e90de7","system_id":"levelo_inurba_marseille","lat":43.29092,"lon":5.38146,"is_reserved":false,"is_disabled":false,"rental_uris":{"android":"levelo://app?vid=5b583570-d9bc-44a0-867f-9f5d59e90de7","ios":"levelo://app?vid=5b583570-d9bc-44a0-867f-9f5d59e90de7"},"vehicle_type_id":"4","last_reported":1751667020,"current_range_meters":6800,"station_id":"ce4bh512rcd13ifvqe2g","pricing_plan_id":"cebpf4jnsgd1na2vs0mg"},{"bike_id":"9bfc7d3d-4e60-4f8a-9c32-ef3d0e77ec5b","system_id":"levelo_inurba_marseille","lat":43.21199,"lon":5.35117,"is_reserved":false,"is_disabled":false,"rental_uris":{"android":"levelo://app?vid=9bfc7d3d-4e60-4f8a-9c32-ef3d0e77ec5b","ios":"levelo://app?vid=9bfc7d3d-4e60-4f8a-9c32-ef3d0e77ec5b"},"vehicle_type_id":"4","last_reported":1751667020,"current_range_meters":6800,"station_id":"st_cvj6sg6p6f1abm77japg","pricing_plan_id":"cebpf4jnsgd1na2vs0mg"},{"bike_id":"be4e2ba2-f83c-4be6-923a-932d435bb5ce","system_id":"levelo_inurba_marseille","lat":43.2825,"lon":5.40472,"is_reserved":false,"is_disabled":false,"rental_uris":{"android":"levelo://app?vid=be4e2ba2-f83c-4be6-923a-932d435bb5ce","ios":"levelo://app?vid=be4e2ba2-f83c-4be6-923a-932d435bb5ce"},"vehicle_type_id":"4","last_reported":1751667020,"current_range_meters":7200,"station_id":"","pricing_plan_id":"cebpf4jnsgd1na2vs0mg"},{"bike_id":"e0906abc-4702-40c9-9822-09d445f81566","system_id":"levelo_inurba_marseille","lat":43.295336,"lon":5.385334,"is_reserved":false,"is_disabled":false,"rental_uris":{"android":"levelo://app?vid=e0906abc-4702-40c9-9822-09d445f81566","ios":"levelo://app?vid=e0906abc-4702-40c9-9822-09d445f81566"},"vehicle_type_id":"4","last_reported":1751667020,"current_range_meters":7200,"station_id":"ce4bgih2rcd13ifvqba0","pricing_plan_id":"cebpf4jnsgd1na2vs0mg"},{"bike_id":"35b871df-a6af-4f15-b092-1ff5e67da3e4","system_id":"levelo_inurba_marseille","lat":43.2942,"lon":5.38611,"is_reserved":false,"is_disabled":false,"rental_uris":{"android":"levelo://app?vid=35b871df-a6af-4f15-b092-1ff5e67da3e4","ios":"levelo://app?vid=35b871df-a6af-4f15-b092-1ff5e67da3e4"},"vehicle_type_id":"4","last_reported":1751667020,"current_range_meters":7200,"station_id":"ce4bh2h2rcd13ifvqdh0","pricing_plan_id":"cebpf4jnsgd1na2vs0mg"},{"bike_id":"8a7a2fc2-fa42-46f3-9d5b-621db296de2b","system_id":"levelo_inurba_marseille","lat":43.27499,"lon":5.42452,"is_reserved":false,"is_disabled":false,"rental_uris":{"android":"levelo://app?vid=8a7a2fc2-fa42-46f3-9d5b-621db296de2b","ios":"levelo://app?vid=8a7a2fc2-fa42-46f3-9d5b-621db296de2b"},"vehicle_type_id":"4","last_reported":1751667020,"current_range_meters":7200,"station_id":"ce4bhn92rcd13ifvqgrg","pricing_plan_id":"cebpf4jnsgd1na2vs0mg"},{"bike_id":"37041179-6712-4893-832c-80719560134f","system_id":"levelo_inurba_marseille","lat":43.31486,"lon":5.37307,"is_reserved":false,"is_disabled":false,"rental_uris":{"android":"levelo://app?vid=37041179-6712-4893-832c-80719560134f","ios":"levelo://app?vid=37041179-6712-4893-832c-80719560134f"},"vehicle_type_id":"4","last_reported":1751667020,"current_range_meters":8000,"station_id":"ce4bgt12rcd13ifvqcd0","pricing_plan_id":"cebpf4jnsgd1na2vs0mg"},{"bike_id":"a0281713-6ea2-4e4c-ac32-cec32935416f","system_id":"levelo_inurba_marseille","lat":43.2837,"lon":5.38645,"is_reserved":false,"is_disabled":false,"rental_uris":{"android":"levelo://app?vid=a0281713-6ea2-4e4c-ac32-cec32935416f","ios":"levelo://app?vid=a0281713-6ea2-4e4c-ac32-cec32935416f"},"vehicle_type_id":"4","last_reported":1751667020,"current_range_meters":8000,"station_id":"ce4bh492rcd13ifvqdvg","pricing_plan_id":"cebpf4jnsgd1na2vs0mg"},{"bike_id":"7b02ffd4-5cb8-4574-85d9-84e709c9801b","system_id":"levelo_inurba_marseille","lat":43.2926,"lon":5.38439,"is_reserved":false,"is_disabled":false,"rental_uris":{"android":"levelo://app?vid=7b02ffd4-5cb8-4574-85d9-84e709c9801b","ios":"levelo://app?vid=7b02ffd4-5cb8-4574-85d9-84e709c9801b"},"vehicle_type_id":"4","last_reported":1751667020,"current_range_meters":8000,"station_id":"ce4bh692rcd13ifvqea0","pricing_plan_id":"cebpf4jnsgd1na2vs0mg"},{"bike_id":"980bf51a-4e38-4141-b6a5-bcf51641501f","system_id":"levelo_inurba_marseille","lat":43.2657,"lon":5.40346,"is_reserved":false,"is_disabled":false,"rental_uris":{"android":"levelo://app?vid=980bf51a-4e38-4141-b6a5-bcf51641501f","ios":"levelo://app?vid=980bf51a-4e38-4141-b6a5-bcf51641501f"},"vehicle_type_id":"4","last_reported":1751667020,"current_range_meters":8400,"station_id":"","pricing_plan_id":"cebpf4jnsgd1na2vs0mg"},{"bike_id":"d799b321-3a7d-4201-b46e-ffe2ad124f19","system_id":"levelo_inurba_marseille","lat":43.32885,"lon":5.38403,"is_reserved":false,"is_disabled":false,"rental_uris":{"android":"levelo://app?vid=d799b321-3a7d-4201-b46e-ffe2ad124f19","ios":"levelo://app?vid=d799b321-3a7d-4201-b46e-ffe2ad124f19"},"vehicle_type_id":"4","last_reported":1751667020,"current_range_meters":8400,"station_id":"","pricing_plan_id":"cebpf4jnsgd1na2vs0mg"},{"bike_id":"aae1a3ab-7f77-4cae-a515-0e32f1c9e1bf","system_id":"levelo_inurba_marseille","lat":43.3149,"lon":5.37312,"is_reserved":false,"is_disabled":false,"rental_uris":{"android":"levelo://app?vid=aae1a3ab-7f77-4cae-a515-0e32f1c9e1bf","ios":"levelo://app?vid=aae1a3ab-7f77-4cae-a515-0e32f1c9e1bf"},"vehicle_type_id":"4","last_reported":1751667020,"current_range_meters":8400,"station_id":"ce4bgt12rcd13ifvqcd0","pricing_plan_id":"cebpf4jnsgd1na2vs0mg"},{"bike_id":"ff733a57-9da9-4f5c-8167-1de9c2be51f0","system_id":"levelo_inurba_marseille","lat":43.30323,"lon":5.40447,"is_reserved":false,"is_disabled":false,"rental_uris":{"android":"levelo://app?vid=ff733a57-9da9-4f5c-8167-1de9c2be51f0","ios":"levelo://app?vid=ff733a57-9da9-4f5c-8167-1de9c2be51f0"},"vehicle_type_id":"4","last_reported":1751667020,"current_range_meters":8400,"station_id":"ce4bh012rcd13ifvqd10","pricing_plan_id":"cebpf4jnsgd1na2vs0mg"},{"bike_id":"3a774683-5ad0-4be1-911b-97270fe3de8c","system_id":"levelo_inurba_marseille","lat":43.28952,"lon":5.36399,"is_reserved":false,"is_disabled":false,"rental_uris":{"android":"levelo://app?vid=3a774683-5ad0-4be1-911b-97270fe3de8c","ios":"levelo://app?vid=3a774683-5ad0-4be1-911b-97270fe3de8c"},"vehicle_type_id":"4","last_reported":1751667020,"current_range_meters":8400,"station_id":"ce4bhc92rcd13ifvqetg","pricing_plan_id":"cebpf4jnsgd1na2vs0mg"},{"bike_id":"ffc98ed0-4733-459e-949d-99aa8fb39a97","system_id":"levelo_inurba_marseille","lat":43.35026,"lon":5.35892,"is_reserved":false,"is_disabled":false,"rental_uris":{"android":"levelo://app?vid=ffc98ed0-4733-459e-949d-99aa8fb39a97","ios":"levelo://app?vid=ffc98ed0-4733-459e-949d-99aa8fb39a97"},"vehicle_type_id":"4","last_reported":1751667020,"current_range_meters":8800,"station_id":"","pricing_plan_id":"cebpf4jnsgd1na2vs0mg"},{"bike_id":"dfa1c380-e619-4d58-9700-e366787f15f4","system_id":"levelo_inurba_marseille","lat":43.31078,"lon":5.3837,"is_reserved":false,"is_disabled":false,"rental_uris":{"android":"levelo://app?vid=dfa1c380-e619-4d58-9700-e366787f15f4","ios":"levelo://app?vid=dfa1c380-e619-4d58-9700-e366787f15f4"},"vehicle_type_id":"4","last_reported":1751667020,"current_range_meters":8800,"station_id":"ce4bgv92rcd13ifvqcr0","pricing_plan_id":"cebpf4jnsgd1na2vs0mg"},{"bike_id":"b2644adc-5f71-44a1-9212-e48e985920c0","system_id":"levelo_inurba_marseille","lat":43.24808,"lon":5.37461,"is_reserved":false,"is_disabled":false,"rental_uris":{"android":"levelo://app?vid=b2644adc-5f71-44a1-9212-e48e985920c0","ios":"levelo://app?vid=b2644adc-5f71-44a1-9212-e48e985920c0"},"vehicle_type_id":"4","last_reported":1751667020,"current_range_meters":8800,"station_id":"ce4bhgh2rcd13ifvqfb0","pricing_plan_id":"cebpf4jnsgd1na2vs0mg"},{"bike_id":"e3822c24-4fb4-45b7-8cd2-6e1079eeff65","system_id":"levelo_inurba_marseille","lat":43.31085,"lon":5.42428,"is_reserved":false,"is_disabled":false,"rental_uris":{"android":"levelo://app?vid=e3822c24-4fb4-45b7-8cd2-6e1079eeff65","ios":"levelo://app?vid=e3822c24-4fb4-45b7-8cd2-6e1079eeff65"},"vehicle_type_id":"4","last_reported":1751667020,"current_range_meters":8800,"station_id":"ce4bhp92rcd13ifvqhag","pricing_plan_id":"cebpf4jnsgd1na2vs0mg"},{"bike_id":"c76381fd-b6b9-4d02-a8a4-fd4e6891e706","system_id":"levelo_inurba_marseille","lat":43.30236,"lon":5.39061,"is_reserved":false,"is_disabled":false,"rental_uris":{"android":"levelo://app?vid=c76381fd-b6b9-4d02-a8a4-fd4e6891e706","ios":"levelo://app?vid=c76381fd-b6b9-4d02-a8a4-fd4e6891e706"},"vehicle_type_id":"4","last_reported":1751667020,"current_range_meters":9200,"station_id":"","pricing_plan_id":"cebpf4jnsgd1na2vs0mg"},{"bike_id":"1bef66f5-89b4-42c8-9c48-10086c89ce7f","system_id":"levelo_inurba_marseille","lat":43.31165,"lon":5.38722,"is_reserved":false,"is_disabled":false,"rental_uris":{"android":"levelo://app?vid=1bef66f5-89b4-42c8-9c48-10086c89ce7f","ios":"levelo://app?vid=1bef66f5-89b4-42c8-9c48-10086c89ce7f"},"vehicle_type_id":"4","last_reported":1751667020,"current_range_meters":9200,"station_id":"ce4bgv12rcd13ifvqcp0","pricing_plan_id":"cebpf4jnsgd1na2vs0mg"},{"bike_id":"be23e8ff-cc55-4f66-9d55-7ec75372b8fa","system_id":"levelo_inurba_marseille","lat":43.31529,"lon":5.38039,"is_reserved":false,"is_disabled":false,"rental_uris":{"android":"levelo://app?vid=be23e8ff-cc55-4f66-9d55-7ec75372b8fa","ios":"levelo://app?vid=be23e8ff-cc55-4f66-9d55-7ec75372b8fa"},"vehicle_type_id":"4","last_reported":1751667020,"current_range_meters":9200,"station_id":"ce4bhsp2rcd13ifvqi50","pricing_plan_id":"cebpf4jnsgd1na2vs0mg"},{"bike_id":"78353043-138a-4ff4-9028-08c8649e81d3","system_id":"levelo_inurba_marseille","lat":43.23195,"lon":5.35556,"is_reserved":false,"is_disabled":false,"rental_uris":{"android":"levelo://app?vid=78353043-138a-4ff4-9028-08c8649e81d3","ios":"levelo://app?vid=78353043-138a-4ff4-9028-08c8649e81d3"},"vehicle_type_id":"4","last_reported":1751667020,"current_range_meters":9200,"station_id":"ce4bhu92rcd13ifvqi70","pricing_plan_id":"cebpf4jnsgd1na2vs0mg"},{"bike_id":"9f1f6042-7e07-4b00-9dc1-8f0343d9174e","system_id":"levelo_inurba_marseille","lat":43.211884,"lon":5.350959,"is_reserved":false,"is_disabled":false,"rental_uris":{"android":"levelo://app?vid=9f1f6042-7e07-4b00-9dc1-8f0343d9174e","ios":"levelo://app?vid=9f1f6042-7e07-4b00-9dc1-8f0343d9174e"},"vehicle_type_id":"4","last_reported":1751667020,"current_range_meters":9200,"station_id":"st_cvj6sg6p6f1abm77japg","pricing_plan_id":"cebpf4jnsgd1na2vs0mg"},{"bike_id":"ba154a12-11bd-42a5-958a-5992f5d043d1","system_id":"levelo_inurba_marseille","lat":43.30503,"lon":5.370998,"is_reserved":false,"is_disabled":false,"rental_uris":{"android":"levelo://app?vid=ba154a12-11bd-42a5-958a-5992f5d043d1","ios":"levelo://app?vid=ba154a12-11bd-42a5-958a-5992f5d043d1"},"vehicle_type_id":"4","last_reported":1751667020,"current_range_meters":9600,"station_id":"","pricing_plan_id":"cebpf4jnsgd1na2vs0mg"},{"bike_id":"dbde0d81-068a-4fa4-a92a-5f5e4289de54","system_id":"levelo_inurba_marseille","lat":43.28424,"lon":5.34985,"is_reserved":false,"is_disabled":false,"rental_uris":{"android":"levelo://app?vid=dbde0d81-068a-4fa4-a92a-5f5e4289de54","ios":"levelo://app?vid=dbde0d81-068a-4fa4-a92a-5f5e4289de54"},"vehicle_type_id":"4","last_reported":1751667020,"current_range_meters":9600,"station_id":"","pricing_plan_id":"cebpf4jnsgd1na2vs0mg"},{"bike_id":"46ce309d-443e-4280-a8e1-c999bdfd4a0e","system_id":"levelo_inurba_marseille","lat":43.30887,"lon":5.39657,"is_reserved":false,"is_disabled":false,"rental_uris":{"android":"levelo://app?vid=46ce309d-443e-4280-a8e1-c999bdfd4a0e","ios":"levelo://app?vid=46ce309d-443e-4280-a8e1-c999bdfd4a0e"},"vehicle_type_id":"4","last_reported":1751667020,"current_range_meters":9600,"station_id":"ce4bh012rcd13ifvqcv0","pricing_plan_id":"cebpf4jnsgd1na2vs0mg"},{"bike_id":"9324abff-6b93-413e-8180-4eb54d14f7b4","system_id":"levelo_inurba_marseille","lat":43.29035,"lon":5.3997,"is_reserved":false,"is_disabled":false,"rental_uris":{"android":"levelo://app?vid=9324abff-6b93-413e-8180-4eb54d14f7b4","ios":"levelo://app?vid=9324abff-6b93-413e-8180-4eb54d14f7b4"},"vehicle_type_id":"4","last_reported":1751667020,"current_range_meters":9600,"station_id":"ce4bh392rcd13ifvqdm0","pricing_plan_id":"cebpf4jnsgd1na2vs0mg"},{"bike_id":"c91124a5-0b8b-45fc-b344-6f6c4476c193","system_id":"levelo_inurba_marseille","lat":43.29264,"lon":5.38425,"is_reserved":false,"is_disabled":false,"rental_uris":{"android":"levelo://app?vid=c91124a5-0b8b-45fc-b344-6f6c4476c193","ios":"levelo://app?vid=c91124a5-0b8b-45fc-b344-6f6c4476c193"},"vehicle_type_id":"4","last_reported":1751667020,"current_range_meters":9600,"station_id":"ce4bh692rcd13ifvqea0","pricing_plan_id":"cebpf4jnsgd1na2vs0mg"},{"bike_id":"dd8fd3fe-2f8a-4e99-9e7d-3bcc33cfcf4f","system_id":"levelo_inurba_marseille","lat":43.25511,"lon":5.37644,"is_reserved":false,"is_disabled":false,"rental_uris":{"android":"levelo://app?vid=dd8fd3fe-2f8a-4e99-9e7d-3bcc33cfcf4f","ios":"levelo://app?vid=dd8fd3fe-2f8a-4e99-9e7d-3bcc33cfcf4f"},"vehicle_type_id":"4","last_reported":1751667020,"current_range_meters":9600,"station_id":"ce4bhh12rcd13ifvqff0","pricing_plan_id":"cebpf4jnsgd1na2vs0mg"},{"bike_id":"cce4f4ea-4004-4f38-9126-bbdc3113a7ef","system_id":"levelo_inurba_marseille","lat":43.257175,"lon":5.410978,"is_reserved":false,"is_disabled":false,"rental_uris":{"android":"levelo://app?vid=cce4f4ea-4004-4f38-9126-bbdc3113a7ef","ios":"levelo://app?vid=cce4f4ea-4004-4f38-9126-bbdc3113a7ef"},"vehicle_type_id":"4","last_reported":1751667020,"current_range_meters":9600,"station_id":"ce4bhkp2rcd13ifvqgd0","pricing_plan_id":"cebpf4jnsgd1na2vs0mg"},{"bike_id":"ff6e91ec-d001-4098-bf3d-3a8890cf5786","system_id":"levelo_inurba_marseille","lat":43.28154,"lon":5.42652,"is_reserved":false,"is_disabled":false,"rental_uris":{"android":"levelo://app?vid=ff6e91ec-d001-4098-bf3d-3a8890cf5786","ios":"levelo://app?vid=ff6e91ec-d001-4098-bf3d-3a8890cf5786"},"vehicle_type_id":"4","last_reported":1751667020,"current_range_meters":9600,"station_id":"ce4bhnh2rcd13ifvqgug","pricing_plan_id":"cebpf4jnsgd1na2vs0mg"},{"bike_id":"f0915967-c658-45fb-a4e0-034ed706cc31","system_id":"levelo_inurba_marseille","lat":43.2844,"lon":5.39175,"is_reserved":false,"is_disabled":false,"rental_uris":{"android":"levelo://app?vid=f0915967-c658-45fb-a4e0-034ed706cc31","ios":"levelo://app?vid=f0915967-c658-45fb-a4e0-034ed706cc31"},"vehicle_type_id":"4","last_reported":1751667020,"current_range_meters":9600,"station_id":"ce4bhoh2rcd13ifvqh5g","pricing_plan_id":"cebpf4jnsgd1na2vs0mg"},{"bike_id":"0c4b7fdb-b39e-49b3-a2b0-ae3d0f43e89d","system_id":"levelo_inurba_marseille","lat":43.32905,"lon":5.40563,"is_reserved":false,"is_disabled":false,"rental_uris":{"android":"levelo://app?vid=0c4b7fdb-b39e-49b3-a2b0-ae3d0f43e89d","ios":"levelo://app?vid=0c4b7fdb-b39e-49b3-a2b0-ae3d0f43e89d"},"vehicle_type_id":"4","last_reported":1751667020,"current_range_meters":10000,"station_id":"","pricing_plan_id":"cebpf4jnsgd1na2vs0mg"},{"bike_id":"175513bb-dce2-48e2-83c8-1e9f1cb23cd0","system_id":"levelo_inurba_marseille","lat":43.286255,"lon":5.412651,"is_reserved":false,"is_disabled":false,"rental_uris":{"android":"levelo://app?vid=175513bb-dce2-48e2-83c8-1e9f1cb23cd0","ios":"levelo://app?vid=175513bb-dce2-48e2-83c8-1e9f1cb23cd0"},"vehicle_type_id":"4","last_reported":1751667020,"current_range_meters":10000,"station_id":"","pricing_plan_id":"cebpf4jnsgd1na2vs0mg"},{"bike_id":"806dab9c-0b61-44af-9e1d-dee086eea46c","system_id":"levelo_inurba_marseille","lat":43.313561,"lon":5.384994,"is_reserved":false,"is_disabled":false,"rental_uris":{"android":"levelo://app?vid=806dab9c-0b61-44af-9e1d-dee086eea46c","ios":"levelo://app?vid=806dab9c-0b61-44af-9e1d-dee086eea46c"},"vehicle_type_id":"4","last_reported":1751667020,"current_range_meters":10000,"station_id":"ce4bgt92rcd13ifvqcf0","pricing_plan_id":"cebpf4jnsgd1na2vs0mg"},{"bike_id":"7bfb39bc-f7be-4b16-ad0a-1ca8a5a42be5","system_id":"levelo_inurba_marseille","lat":43.30204,"lon":5.3947,"is_reserved":false,"is_disabled":false,"rental_uris":{"android":"levelo://app?vid=7bfb39bc-f7be-4b16-ad0a-1ca8a5a42be5","ios":"levelo://app?vid=7bfb39bc-f7be-4b16-ad0a-1ca8a5a42be5"},"vehicle_type_id":"4","last_reported":1751667020,"current_range_meters":10000,"station_id":"ce4bh0p2rcd13ifvqd70","pricing_plan_id":"cebpf4jnsgd1na2vs0mg"},{"bike_id":"c34f2d1a-ca85-42af-95e4-29307d258198","system_id":"levelo_inurba_marseille","lat":43.24807,"lon":5.37461,"is_reserved":false,"is_disabled":false,"rental_uris":{"android":"levelo://app?vid=c34f2d1a-ca85-42af-95e4-29307d258198","ios":"levelo://app?vid=c34f2d1a-ca85-42af-95e4-29307d258198"},"vehicle_type_id":"4","last_reported":1751667020,"current_range_meters":10000,"station_id":"ce4bhgh2rcd13ifvqfb0","pricing_plan_id":"cebpf4jnsgd1na2vs0mg"},{"bike_id":"97de0065-3604-43c2-8c35-f3c481cf0347","system_id":"levelo_inurba_marseille","lat":43.32368,"lon":5.38899,"is_reserved":false,"is_disabled":false,"rental_uris":{"android":"levelo://app?vid=97de0065-3604-43c2-8c35-f3c481cf0347","ios":"levelo://app?vid=97de0065-3604-43c2-8c35-f3c481cf0347"},"vehicle_type_id":"4","last_reported":1751667020,"current_range_meters":10000,"station_id":"ce4bhqp2rcd13ifvqhog","pricing_plan_id":"cebpf4jnsgd1na2vs0mg"},{"bike_id":"b9aa0b00-2092-42ee-bef4-651e875ed8b5","system_id":"levelo_inurba_marseille","lat":43.21186,"lon":5.35075,"is_reserved":false,"is_disabled":false,"rental_uris":{"android":"levelo://app?vid=b9aa0b00-2092-42ee-bef4-651e875ed8b5","ios":"levelo://app?vid=b9aa0b00-2092-42ee-bef4-651e875ed8b5"},"vehicle_type_id":"4","last_reported":1751667020,"current_range_meters":10000,"station_id":"st_cvj6sg6p6f1abm77japg","pricing_plan_id":"cebpf4jnsgd1na2vs0mg"},{"bike_id":"aa9d3fde-b45f-44aa-b2e5-01093045bc6c","system_id":"levelo_inurba_marseille","lat":43.29517,"lon":5.38554,"is_reserved":false,"is_disabled":false,"rental_uris":{"android":"levelo://app?vid=aa9d3fde-b45f-44aa-b2e5-01093045bc6c","ios":"levelo://app?vid=aa9d3fde-b45f-44aa-b2e5-01093045bc6c"},"vehicle_type_id":"4","last_reported":1751667020,"current_range_meters":10800,"station_id":"ce4bgih2rcd13ifvqba0","pricing_plan_id":"cebpf4jnsgd1na2vs0mg"},{"bike_id":"5aac6af4-509f-4c8d-80dd-c62c83ad9018","system_id":"levelo_inurba_marseille","lat":43.312702,"lon":5.401692,"is_reserved":false,"is_disabled":false,"rental_uris":{"android":"levelo://app?vid=5aac6af4-509f-4c8d-80dd-c62c83ad9018","ios":"levelo://app?vid=5aac6af4-509f-4c8d-80dd-c62c83ad9018"},"vehicle_type_id":"4","last_reported":1751667020,"current_range_meters":10800,"station_id":"ce4bh092rcd13ifvqd30","pricing_plan_id":"cebpf4jnsgd1na2vs0mg"},{"bike_id":"1b28c0e1-2149-471c-b68c-af20b24ca0b9","system_id":"levelo_inurba_marseille","lat":43.29415,"lon":5.38617,"is_reserved":false,"is_disabled":false,"rental_uris":{"android":"levelo://app?vid=1b28c0e1-2149-471c-b68c-af20b24ca0b9","ios":"levelo://app?vid=1b28c0e1-2149-471c-b68c-af20b24ca0b9"},"vehicle_type_id":"4","last_reported":1751667020,"current_range_meters":10800,"station_id":"ce4bh2h2rcd13ifvqdh0","pricing_plan_id":"cebpf4jnsgd1na2vs0mg"},{"bike_id":"ae24afed-9b65-470f-a222-1ef8c2ea0d91","system_id":"levelo_inurba_marseille","lat":43.29413,"lon":5.38615,"is_reserved":false,"is_disabled":false,"rental_uris":{"android":"levelo://app?vid=ae24afed-9b65-470f-a222-1ef8c2ea0d91","ios":"levelo://app?vid=ae24afed-9b65-470f-a222-1ef8c2ea0d91"},"vehicle_type_id":"4","last_reported":1751667020,"current_range_meters":10800,"station_id":"ce4bh2h2rcd13ifvqdh0","pricing_plan_id":"cebpf4jnsgd1na2vs0mg"},{"bike_id":"8d9b73e1-848f-44c4-bcf1-e92b11b87fc0","system_id":"levelo_inurba_marseille","lat":43.28713,"lon":5.3739,"is_reserved":false,"is_disabled":false,"rental_uris":{"android":"levelo://app?vid=8d9b73e1-848f-44c4-bcf1-e92b11b87fc0","ios":"levelo://app?vid=8d9b73e1-848f-44c4-bcf1-e92b11b87fc0"},"vehicle_type_id":"4","last_reported":1751667020,"current_range_meters":10800,"station_id":"ce4bh3p2rcd13ifvqdq0","pricing_plan_id":"cebpf4jnsgd1na2vs0mg"},{"bike_id":"41540ecc-5711-40e5-8c9d-7252c226efc8","system_id":"levelo_inurba_marseille","lat":43.28152,"lon":5.426535,"is_reserved":false,"is_disabled":false,"rental_uris":{"android":"levelo://app?vid=41540ecc-5711-40e5-8c9d-7252c226efc8","ios":"levelo://app?vid=41540ecc-5711-40e5-8c9d-7252c226efc8"},"vehicle_type_id":"4","last_reported":1751667020,"current_range_meters":10800,"station_id":"ce4bhnh2rcd13ifvqgug","pricing_plan_id":"cebpf4jnsgd1na2vs0mg"},{"bike_id":"5e197122-e8ec-4f01-b370-6bbfc10c6950","system_id":"levelo_inurba_marseille","lat":43.21205,"lon":5.35072,"is_reserved":false,"is_disabled":false,"rental_uris":{"android":"levelo://app?vid=5e197122-e8ec-4f01-b370-6bbfc10c6950","ios":"levelo://app?vid=5e197122-e8ec-4f01-b370-6bbfc10c6950"},"vehicle_type_id":"4","last_reported":1751667020,"current_range_meters":10800,"station_id":"st_cvj6sg6p6f1abm77japg","pricing_plan_id":"cebpf4jnsgd1na2vs0mg"},{"bike_id":"c3d73448-04e6-473c-a769-2a35998887c2","system_id":"levelo_inurba_marseille","lat":43.337444,"lon":5.374475,"is_reserved":false,"is_disabled":false,"rental_uris":{"android":"levelo://app?vid=c3d73448-04e6-473c-a769-2a35998887c2","ios":"levelo://app?vid=c3d73448-04e6-473c-a769-2a35998887c2"},"vehicle_type_id":"4","last_reported":1751667020,"current_range_meters":11200,"station_id":"","pricing_plan_id":"cebpf4jnsgd1na2vs0mg"},{"bike_id":"7c60bedf-2ecd-475b-a018-4048df765cb2","system_id":"levelo_inurba_marseille","lat":43.31274,"lon":5.37752,"is_reserved":false,"is_disabled":false,"rental_uris":{"android":"levelo://app?vid=7c60bedf-2ecd-475b-a018-4048df765cb2","ios":"levelo://app?vid=7c60bedf-2ecd-475b-a018-4048df765cb2"},"vehicle_type_id":"4","last_reported":1751667020,"current_range_meters":11200,"station_id":"","pricing_plan_id":"cebpf4jnsgd1na2vs0mg"},{"bike_id":"3a016e00-5ec4-4750-9085-1070ae91e566","system_id":"levelo_inurba_marseille","lat":43.29041,"lon":5.39975,"is_reserved":false,"is_disabled":false,"rental_uris":{"android":"levelo://app?vid=3a016e00-5ec4-4750-9085-1070ae91e566","ios":"levelo://app?vid=3a016e00-5ec4-4750-9085-1070ae91e566"},"vehicle_type_id":"4","last_reported":1751667020,"current_range_meters":11200,"station_id":"ce4bh392rcd13ifvqdm0","pricing_plan_id":"cebpf4jnsgd1na2vs0mg"},{"bike_id":"08363369-6a09-4635-a456-5eadb185ea82","system_id":"levelo_inurba_marseille","lat":43.28148,"lon":5.42637,"is_reserved":false,"is_disabled":false,"rental_uris":{"android":"levelo://app?vid=08363369-6a09-4635-a456-5eadb185ea82","ios":"levelo://app?vid=08363369-6a09-4635-a456-5eadb185ea82"},"vehicle_type_id":"4","last_reported":1751667020,"current_range_meters":11200,"station_id":"ce4bhnh2rcd13ifvqgug","pricing_plan_id":"cebpf4jnsgd1na2vs0mg"},{"bike_id":"43b8b648-960e-46ea-bfad-839bb09cb576","system_id":"levelo_inurba_marseille","lat":43.26214,"lon":5.37041,"is_reserved":false,"is_disabled":false,"rental_uris":{"android":"levelo://app?vid=43b8b648-960e-46ea-bfad-839bb09cb576","ios":"levelo://app?vid=43b8b648-960e-46ea-bfad-839bb09cb576"},"vehicle_type_id":"4","last_reported":1751667020,"current_range_meters":11600,"station_id":"","pricing_plan_id":"cebpf4jnsgd1na2vs0mg"},{"bike_id":"c4998155-7b32-4f28-8c37-f014ebe83040","system_id":"levelo_inurba_marseille","lat":43.30329,"lon":5.40435,"is_reserved":false,"is_disabled":false,"rental_uris":{"android":"levelo://app?vid=c4998155-7b32-4f28-8c37-f014ebe83040","ios":"levelo://app?vid=c4998155-7b32-4f28-8c37-f014ebe83040"},"vehicle_type_id":"4","last_reported":1751667020,"current_range_meters":11600,"station_id":"ce4bh012rcd13ifvqd10","pricing_plan_id":"cebpf4jnsgd1na2vs0mg"},{"bike_id":"587ccca7-1b88-4b29-97ad-fbf6420feef8","system_id":"levelo_inurba_marseille","lat":43.2928,"lon":5.38446,"is_reserved":false,"is_disabled":false,"rental_uris":{"android":"levelo://app?vid=587ccca7-1b88-4b29-97ad-fbf6420feef8","ios":"levelo://app?vid=587ccca7-1b88-4b29-97ad-fbf6420feef8"},"vehicle_type_id":"4","last_reported":1751667020,"current_range_meters":11600,"station_id":"ce4bh692rcd13ifvqea0","pricing_plan_id":"cebpf4jnsgd1na2vs0mg"},{"bike_id":"670ed5a7-b093-47a7-9f6c-93ab16d94169","system_id":"levelo_inurba_marseille","lat":43.25719,"lon":5.41114,"is_reserved":false,"is_disabled":false,"rental_uris":{"android":"levelo://app?vid=670ed5a7-b093-47a7-9f6c-93ab16d94169","ios":"levelo://app?vid=670ed5a7-b093-47a7-9f6c-93ab16d94169"},"vehicle_type_id":"4","last_reported":1751667020,"current_range_meters":11600,"station_id":"ce4bhkp2rcd13ifvqgd0","pricing_plan_id":"cebpf4jnsgd1na2vs0mg"},{"bike_id":"27b3b26f-62cb-45ea-a54c-6078366a412e","system_id":"levelo_inurba_marseille","lat":43.31487,"lon":5.37311,"is_reserved":false,"is_disabled":false,"rental_uris":{"android":"levelo://app?vid=27b3b26f-62cb-45ea-a54c-6078366a412e","ios":"levelo://app?vid=27b3b26f-62cb-45ea-a54c-6078366a412e"},"vehicle_type_id":"4","last_reported":1751667020,"current_range_meters":12000,"station_id":"ce4bgt12rcd13ifvqcd0","pricing_plan_id":"cebpf4jnsgd1na2vs0mg"},{"bike_id":"c37ba7fa-fbd8-4395-8ffe-f8ec4e8254b3","system_id":"levelo_inurba_marseille","lat":43.314903,"lon":5.373097,"is_reserved":false,"is_disabled":false,"rental_uris":{"android":"levelo://app?vid=c37ba7fa-fbd8-4395-8ffe-f8ec4e8254b3","ios":"levelo://app?vid=c37ba7fa-fbd8-4395-8ffe-f8ec4e8254b3"},"vehicle_type_id":"4","last_reported":1751667020,"current_range_meters":12000,"station_id":"ce4bgt12rcd13ifvqcd0","pricing_plan_id":"cebpf4jnsgd1na2vs0mg"},{"bike_id":"fadf6b38-6317-413a-8801-268c0084efa6","system_id":"levelo_inurba_marseille","lat":43.31071,"lon":5.3835,"is_reserved":false,"is_disabled":false,"rental_uris":{"android":"levelo://app?vid=fadf6b38-6317-413a-8801-268c0084efa6","ios":"levelo://app?vid=fadf6b38-6317-413a-8801-268c0084efa6"},"vehicle_type_id":"4","last_reported":1751667020,"current_range_meters":12000,"station_id":"ce4bgv92rcd13ifvqcr0","pricing_plan_id":"cebpf4jnsgd1na2vs0mg"},{"bike_id":"6f854acc-df2a-4d06-8f39-46010fd4354e","system_id":"levelo_inurba_marseille","lat":43.27909,"lon":5.38011,"is_reserved":false,"is_disabled":false,"rental_uris":{"android":"levelo://app?vid=6f854acc-df2a-4d06-8f39-46010fd4354e","ios":"levelo://app?vid=6f854acc-df2a-4d06-8f39-46010fd4354e"},"vehicle_type_id":"4","last_reported":1751667020,"current_range_meters":12000,"station_id":"ce4bhf92rcd13ifvqf50","pricing_plan_id":"cebpf4jnsgd1na2vs0mg"},{"bike_id":"1c8ab180-05fd-405f-9922-b2b2c2d5142f","system_id":"levelo_inurba_marseille","lat":43.33787,"lon":5.38128,"is_reserved":false,"is_disabled":false,"rental_uris":{"android":"levelo://app?vid=1c8ab180-05fd-405f-9922-b2b2c2d5142f","ios":"levelo://app?vid=1c8ab180-05fd-405f-9922-b2b2c2d5142f"},"vehicle_type_id":"4","last_reported":1751667020,"current_range_meters":12400,"station_id":"","pricing_plan_id":"cebpf4jnsgd1na2vs0mg"},{"bike_id":"76537ac4-b1ab-4dbb-a058-0485a931fac9","system_id":"levelo_inurba_marseille","lat":43.30628,"lon":5.3658,"is_reserved":false,"is_disabled":false,"rental_uris":{"android":"levelo://app?vid=76537ac4-b1ab-4dbb-a058-0485a931fac9","ios":"levelo://app?vid=76537ac4-b1ab-4dbb-a058-0485a931fac9"},"vehicle_type_id":"4","last_reported":1751667020,"current_range_meters":12400,"station_id":"","pricing_plan_id":"cebpf4jnsgd1na2vs0mg"},{"bike_id":"2b6a7da6-52a5-4587-a2a8-020896164131","system_id":"levelo_inurba_marseille","lat":43.29545,"lon":5.38547,"is_reserved":false,"is_disabled":false,"rental_uris":{"android":"levelo://app?vid=2b6a7da6-52a5-4587-a2a8-020896164131","ios":"levelo://app?vid=2b6a7da6-52a5-4587-a2a8-020896164131"},"vehicle_type_id":"4","last_reported":1751667020,"current_range_meters":12400,"station_id":"ce4bgih2rcd13ifvqba0","pricing_plan_id":"cebpf4jnsgd1na2vs0mg"},{"bike_id":"0a0c8224-44bf-455d-af32-3c9052d480a3","system_id":"levelo_inurba_marseille","lat":43.30428,"lon":5.3975,"is_reserved":false,"is_disabled":false,"rental_uris":{"android":"levelo://app?vid=0a0c8224-44bf-455d-af32-3c9052d480a3","ios":"levelo://app?vid=0a0c8224-44bf-455d-af32-3c9052d480a3"},"vehicle_type_id":"4","last_reported":1751667020,"current_range_meters":12400,"station_id":"ce4bh092rcd13ifvqd20","pricing_plan_id":"cebpf4jnsgd1na2vs0mg"},{"bike_id":"c4783f0c-3b26-4f98-a2ba-c785fce3256c","system_id":"levelo_inurba_marseille","lat":43.26568,"lon":5.39015,"is_reserved":false,"is_disabled":false,"rental_uris":{"android":"levelo://app?vid=c4783f0c-3b26-4f98-a2ba-c785fce3256c","ios":"levelo://app?vid=c4783f0c-3b26-4f98-a2ba-c785fce3256c"},"vehicle_type_id":"4","last_reported":1751667020,"current_range_meters":12400,"station_id":"ce4bhe12rcd13ifvqf30","pricing_plan_id":"cebpf4jnsgd1na2vs0mg"},{"bike_id":"bf16840f-2e0f-47eb-8d30-3dc4199df254","system_id":"levelo_inurba_marseille","lat":43.317593,"lon":5.390027,"is_reserved":false,"is_disabled":false,"rental_uris":{"android":"levelo://app?vid=bf16840f-2e0f-47eb-8d30-3dc4199df254","ios":"levelo://app?vid=bf16840f-2e0f-47eb-8d30-3dc4199df254"},"vehicle_type_id":"4","last_reported":1751667020,"current_range_meters":12400,"station_id":"ce4bhqp2rcd13ifvqhng","pricing_plan_id":"cebpf4jnsgd1na2vs0mg"},{"bike_id":"b26fae72-751e-4090-a9c4-76ff5de1ad66","system_id":"levelo_inurba_marseille","lat":43.33258,"lon":5.38056,"is_reserved":false,"is_disabled":false,"rental_uris":{"android":"levelo://app?vid=b26fae72-751e-4090-a9c4-76ff5de1ad66","ios":"levelo://app?vid=b26fae72-751e-4090-a9c4-76ff5de1ad66"},"vehicle_type_id":"4","last_reported":1751667020,"current_range_meters":12800,"station_id":"","pricing_plan_id":"cebpf4jnsgd1na2vs0mg"},{"bike_id":"ac5b215e-ddcb-415d-9ea5-6be020847cd5","system_id":"levelo_inurba_marseille","lat":43.28374,"lon":5.38102,"is_reserved":false,"is_disabled":false,"rental_uris":{"android":"levelo://app?vid=ac5b215e-ddcb-415d-9ea5-6be020847cd5","ios":"levelo://app?vid=ac5b215e-ddcb-415d-9ea5-6be020847cd5"},"vehicle_type_id":"4","last_reported":1751667020,"current_range_meters":12800,"station_id":"ce4bh412rcd13ifvqdr0","pricing_plan_id":"cebpf4jnsgd1na2vs0mg"},{"bike_id":"e8a29ff3-a4a2-4805-9fa5-fa75367f7885","system_id":"levelo_inurba_marseille","lat":43.25719,"lon":5.41115,"is_reserved":false,"is_disabled":false,"rental_uris":{"android":"levelo://app?vid=e8a29ff3-a4a2-4805-9fa5-fa75367f7885","ios":"levelo://app?vid=e8a29ff3-a4a2-4805-9fa5-fa75367f7885"},"vehicle_type_id":"4","last_reported":1751667020,"current_range_meters":12800,"station_id":"ce4bhkp2rcd13ifvqgd0","pricing_plan_id":"cebpf4jnsgd1na2vs0mg"},{"bike_id":"93e2c185-94a7-49be-9568-77639b8867b2","system_id":"levelo_inurba_marseille","lat":43.28081,"lon":5.39667,"is_reserved":false,"is_disabled":false,"rental_uris":{"android":"levelo://app?vid=93e2c185-94a7-49be-9568-77639b8867b2","ios":"levelo://app?vid=93e2c185-94a7-49be-9568-77639b8867b2"},"vehicle_type_id":"4","last_reported":1751667020,"current_range_meters":12800,"station_id":"ce4bho12rcd13ifvqh2g","pricing_plan_id":"cebpf4jnsgd1na2vs0mg"},{"bike_id":"76d127a6-3385-47a2-9e3a-490d1d976c59","system_id":"levelo_inurba_marseille","lat":43.3118,"lon":5.3826,"is_reserved":false,"is_disabled":false,"rental_uris":{"android":"levelo://app?vid=76d127a6-3385-47a2-9e3a-490d1d976c59","ios":"levelo://app?vid=76d127a6-3385-47a2-9e3a-490d1d976c59"},"vehicle_type_id":"4","last_reported":1751667020,"current_range_meters":13600,"station_id":"","pricing_plan_id":"cebpf4jnsgd1na2vs0mg"},{"bike_id":"4c20f81b-1a2a-4b54-b1f1-ac371666a6a9","system_id":"levelo_inurba_marseille","lat":43.29546,"lon":5.38542,"is_reserved":false,"is_disabled":false,"rental_uris":{"android":"levelo://app?vid=4c20f81b-1a2a-4b54-b1f1-ac371666a6a9","ios":"levelo://app?vid=4c20f81b-1a2a-4b54-b1f1-ac371666a6a9"},"vehicle_type_id":"4","last_reported":1751667020,"current_range_meters":13600,"station_id":"ce4bgih2rcd13ifvqba0","pricing_plan_id":"cebpf4jnsgd1na2vs0mg"},{"bike_id":"e27c7871-15e7-4a17-abda-a097ea97849c","system_id":"levelo_inurba_marseille","lat":43.30308,"lon":5.36894,"is_reserved":false,"is_disabled":false,"rental_uris":{"android":"levelo://app?vid=e27c7871-15e7-4a17-abda-a097ea97849c","ios":"levelo://app?vid=e27c7871-15e7-4a17-abda-a097ea97849c"},"vehicle_type_id":"4","last_reported":1751667020,"current_range_meters":13600,"station_id":"ce4bgqh2rcd13ifvqc5g","pricing_plan_id":"cebpf4jnsgd1na2vs0mg"},{"bike_id":"aafb8ce6-e3e9-4062-8cc4-aece91a6105d","system_id":"levelo_inurba_marseille","lat":43.3149,"lon":5.37316,"is_reserved":false,"is_disabled":false,"rental_uris":{"android":"levelo://app?vid=aafb8ce6-e3e9-4062-8cc4-aece91a6105d","ios":"levelo://app?vid=aafb8ce6-e3e9-4062-8cc4-aece91a6105d"},"vehicle_type_id":"4","last_reported":1751667020,"current_range_meters":13600,"station_id":"ce4bgt12rcd13ifvqcd0","pricing_plan_id":"cebpf4jnsgd1na2vs0mg"},{"bike_id":"f1704fa8-e85e-4151-8d37-92d9f01651c5","system_id":"levelo_inurba_marseille","lat":43.29046,"lon":5.39973,"is_reserved":false,"is_disabled":false,"rental_uris":{"android":"levelo://app?vid=f1704fa8-e85e-4151-8d37-92d9f01651c5","ios":"levelo://app?vid=f1704fa8-e85e-4151-8d37-92d9f01651c5"},"vehicle_type_id":"4","last_reported":1751667020,"current_range_meters":13600,"station_id":"ce4bh392rcd13ifvqdm0","pricing_plan_id":"cebpf4jnsgd1na2vs0mg"},{"bike_id":"ccb25166-74e4-4350-9122-f52eb262ac09","system_id":"levelo_inurba_marseille","lat":43.28675,"lon":5.38675,"is_reserved":false,"is_disabled":false,"rental_uris":{"android":"levelo://app?vid=ccb25166-74e4-4350-9122-f52eb262ac09","ios":"levelo://app?vid=ccb25166-74e4-4350-9122-f52eb262ac09"},"vehicle_type_id":"4","last_reported":1751667020,"current_range_meters":13600,"station_id":"ce4bh492rcd13ifvqdug","pricing_plan_id":"cebpf4jnsgd1na2vs0mg"},{"bike_id":"750fe987-38b7-4e4b-81eb-d7ee436e948a","system_id":"levelo_inurba_marseille","lat":43.29275,"lon":5.38447,"is_reserved":false,"is_disabled":false,"rental_uris":{"android":"levelo://app?vid=750fe987-38b7-4e4b-81eb-d7ee436e948a","ios":"levelo://app?vid=750fe987-38b7-4e4b-81eb-d7ee436e948a"},"vehicle_type_id":"4","last_reported":1751667020,"current_range_meters":13600,"station_id":"ce4bh692rcd13ifvqea0","pricing_plan_id":"cebpf4jnsgd1na2vs0mg"},{"bike_id":"4384bffb-285d-46df-b097-c7a91b6c9fb0","system_id":"levelo_inurba_marseille","lat":43.25859,"lon":5.39897,"is_reserved":false,"is_disabled":false,"rental_uris":{"android":"levelo://app?vid=4384bffb-285d-46df-b097-c7a91b6c9fb0","ios":"levelo://app?vid=4384bffb-285d-46df-b097-c7a91b6c9fb0"},"vehicle_type_id":"4","last_reported":1751667020,"current_range_meters":13600,"station_id":"ce4bhl92rcd13ifvqghg","pricing_plan_id":"cebpf4jnsgd1na2vs0mg"},{"bike_id":"69c2280d-9883-47db-99f2-c073a6babae6","system_id":"levelo_inurba_marseille","lat":43.30874,"lon":5.3711,"is_reserved":false,"is_disabled":false,"rental_uris":{"android":"levelo://app?vid=69c2280d-9883-47db-99f2-c073a6babae6","ios":"levelo://app?vid=69c2280d-9883-47db-99f2-c073a6babae6"},"vehicle_type_id":"4","last_reported":1751667020,"current_range_meters":14000,"station_id":"","pricing_plan_id":"cebpf4jnsgd1na2vs0mg"},{"bike_id":"0f501d80-c859-4b66-9095-c4132a67bf1e","system_id":"levelo_inurba_marseille","lat":43.29528,"lon":5.38534,"is_reserved":false,"is_disabled":false,"rental_uris":{"android":"levelo://app?vid=0f501d80-c859-4b66-9095-c4132a67bf1e","ios":"levelo://app?vid=0f501d80-c859-4b66-9095-c4132a67bf1e"},"vehicle_type_id":"4","last_reported":1751667020,"current_range_meters":14000,"station_id":"ce4bgih2rcd13ifvqba0","pricing_plan_id":"cebpf4jnsgd1na2vs0mg"},{"bike_id":"4c5a3de5-5d51-4be2-867a-1ec801bcc945","system_id":"levelo_inurba_marseille","lat":43.313573,"lon":5.384912,"is_reserved":false,"is_disabled":false,"rental_uris":{"android":"levelo://app?vid=4c5a3de5-5d51-4be2-867a-1ec801bcc945","ios":"levelo://app?vid=4c5a3de5-5d51-4be2-867a-1ec801bcc945"},"vehicle_type_id":"4","last_reported":1751667020,"current_range_meters":14000,"station_id":"ce4bgt92rcd13ifvqcf0","pricing_plan_id":"cebpf4jnsgd1na2vs0mg"},{"bike_id":"b687bf77-8266-4001-a988-38b1640a8354","system_id":"levelo_inurba_marseille","lat":43.29418,"lon":5.38615,"is_reserved":false,"is_disabled":false,"rental_uris":{"android":"levelo://app?vid=b687bf77-8266-4001-a988-38b1640a8354","ios":"levelo://app?vid=b687bf77-8266-4001-a988-38b1640a8354"},"vehicle_type_id":"4","last_reported":1751667020,"current_range_meters":14000,"station_id":"ce4bh2h2rcd13ifvqdh0","pricing_plan_id":"cebpf4jnsgd1na2vs0mg"},{"bike_id":"2a241f65-8c0f-4994-b428-7f267bed3702","system_id":"levelo_inurba_marseille","lat":43.29786,"lon":5.39335,"is_reserved":false,"is_disabled":false,"rental_uris":{"android":"levelo://app?vid=2a241f65-8c0f-4994-b428-7f267bed3702","ios":"levelo://app?vid=2a241f65-8c0f-4994-b428-7f267bed3702"},"vehicle_type_id":"4","last_reported":1751667020,"current_range_meters":14000,"station_id":"chh1huq6cuj3fo74tm60","pricing_plan_id":"cebpf4jnsgd1na2vs0mg"},{"bike_id":"4b8da722-ee9e-48a4-a5e5-3a8a10364708","system_id":"levelo_inurba_marseille","lat":43.31231,"lon":5.37817,"is_reserved":false,"is_disabled":false,"rental_uris":{"android":"levelo://app?vid=4b8da722-ee9e-48a4-a5e5-3a8a10364708","ios":"levelo://app?vid=4b8da722-ee9e-48a4-a5e5-3a8a10364708"},"vehicle_type_id":"4","last_reported":1751667020,"current_range_meters":14400,"station_id":"","pricing_plan_id":"cebpf4jnsgd1na2vs0mg"},{"bike_id":"3587d5e5-83fe-4d49-bd25-3fe8e79c4212","system_id":"levelo_inurba_marseille","lat":43.29532,"lon":5.38543,"is_reserved":false,"is_disabled":false,"rental_uris":{"android":"levelo://app?vid=3587d5e5-83fe-4d49-bd25-3fe8e79c4212","ios":"levelo://app?vid=3587d5e5-83fe-4d49-bd25-3fe8e79c4212"},"vehicle_type_id":"4","last_reported":1751667020,"current_range_meters":14400,"station_id":"ce4bgih2rcd13ifvqba0","pricing_plan_id":"cebpf4jnsgd1na2vs0mg"},{"bike_id":"daa9f197-00e0-4b62-b735-a5061ceb7b2f","system_id":"levelo_inurba_marseille","lat":43.301713,"lon":5.393313,"is_reserved":false,"is_disabled":false,"rental_uris":{"android":"levelo://app?vid=daa9f197-00e0-4b62-b735-a5061ceb7b2f","ios":"levelo://app?vid=daa9f197-00e0-4b62-b735-a5061ceb7b2f"},"vehicle_type_id":"4","last_reported":1751667020,"current_range_meters":14400,"station_id":"ce4bh0p2rcd13ifvqd70","pricing_plan_id":"cebpf4jnsgd1na2vs0mg"},{"bike_id":"f78e4216-3e64-4bca-b699-17a288e2d90f","system_id":"levelo_inurba_marseille","lat":43.29283,"lon":5.40127,"is_reserved":false,"is_disabled":false,"rental_uris":{"android":"levelo://app?vid=f78e4216-3e64-4bca-b699-17a288e2d90f","ios":"levelo://app?vid=f78e4216-3e64-4bca-b699-17a288e2d90f"},"vehicle_type_id":"4","last_reported":1751667020,"current_range_meters":14400,"station_id":"ce4bh312rcd13ifvqdk0","pricing_plan_id":"cebpf4jnsgd1na2vs0mg"},{"bike_id":"8f06ddb9-437a-45af-bf8c-7800f496f5d8","system_id":"levelo_inurba_marseille","lat":43.283542,"lon":5.386505,"is_reserved":false,"is_disabled":false,"rental_uris":{"android":"levelo://app?vid=8f06ddb9-437a-45af-bf8c-7800f496f5d8","ios":"levelo://app?vid=8f06ddb9-437a-45af-bf8c-7800f496f5d8"},"vehicle_type_id":"4","last_reported":1751667020,"current_range_meters":14400,"station_id":"ce4bh492rcd13ifvqdvg","pricing_plan_id":"cebpf4jnsgd1na2vs0mg"},{"bike_id":"9b9acaaf-a574-4a8e-9bbf-43cec55b092f","system_id":"levelo_inurba_marseille","lat":43.29573,"lon":5.39984,"is_reserved":false,"is_disabled":false,"rental_uris":{"android":"levelo://app?vid=9b9acaaf-a574-4a8e-9bbf-43cec55b092f","ios":"levelo://app?vid=9b9acaaf-a574-4a8e-9bbf-43cec55b092f"},"vehicle_type_id":"4","last_reported":1751667020,"current_range_meters":14800,"station_id":"ce4bh312rcd13ifvqdj0","pricing_plan_id":"cebpf4jnsgd1na2vs0mg"},{"bike_id":"672912fc-6959-4cba-8dcf-1c70ad2a488a","system_id":"levelo_inurba_marseille","lat":43.28414,"lon":5.37521,"is_reserved":false,"is_disabled":false,"rental_uris":{"android":"levelo://app?vid=672912fc-6959-4cba-8dcf-1c70ad2a488a","ios":"levelo://app?vid=672912fc-6959-4cba-8dcf-1c70ad2a488a"},"vehicle_type_id":"4","last_reported":1751667020,"current_range_meters":14800,"station_id":"ce4bh412rcd13ifvqds0","pricing_plan_id":"cebpf4jnsgd1na2vs0mg"},{"bike_id":"fc15d0e2-3ad9-4fb7-8bd5-ba03d333db05","system_id":"levelo_inurba_marseille","lat":43.24666,"lon":5.38169,"is_reserved":false,"is_disabled":false,"rental_uris":{"android":"levelo://app?vid=fc15d0e2-3ad9-4fb7-8bd5-ba03d333db05","ios":"levelo://app?vid=fc15d0e2-3ad9-4fb7-8bd5-ba03d333db05"},"vehicle_type_id":"4","last_reported":1751667020,"current_range_meters":14800,"station_id":"ce4bhih2rcd13ifvqfr0","pricing_plan_id":"cebpf4jnsgd1na2vs0mg"},{"bike_id":"4db45513-e520-4598-82fa-5809d80d4f3d","system_id":"levelo_inurba_marseille","lat":43.28102,"lon":5.35499,"is_reserved":false,"is_disabled":false,"rental_uris":{"android":"levelo://app?vid=4db45513-e520-4598-82fa-5809d80d4f3d","ios":"levelo://app?vid=4db45513-e520-4598-82fa-5809d80d4f3d"},"vehicle_type_id":"4","last_reported":1751667020,"current_range_meters":15200,"station_id":"","pricing_plan_id":"cebpf4jnsgd1na2vs0mg"},{"bike_id":"21f519fe-a719-4139-ab91-7b7dd5b74d00","system_id":"levelo_inurba_marseille","lat":43.30316,"lon":5.36902,"is_reserved":false,"is_disabled":false,"rental_uris":{"android":"levelo://app?vid=21f519fe-a719-4139-ab91-7b7dd5b74d00","ios":"levelo://app?vid=21f519fe-a719-4139-ab91-7b7dd5b74d00"},"vehicle_type_id":"4","last_reported":1751667020,"current_range_meters":15200,"station_id":"ce4bgqh2rcd13ifvqc5g","pricing_plan_id":"cebpf4jnsgd1na2vs0mg"},{"bike_id":"8c7b5457-b790-4ceb-8535-d321af702702","system_id":"levelo_inurba_marseille","lat":43.31284,"lon":5.40169,"is_reserved":false,"is_disabled":false,"rental_uris":{"android":"levelo://app?vid=8c7b5457-b790-4ceb-8535-d321af702702","ios":"levelo://app?vid=8c7b5457-b790-4ceb-8535-d321af702702"},"vehicle_type_id":"4","last_reported":1751667020,"current_range_meters":15200,"station_id":"ce4bh092rcd13ifvqd30","pricing_plan_id":"cebpf4jnsgd1na2vs0mg"},{"bike_id":"5623b533-8d89-4a1c-ba31-86a046ee05f4","system_id":"levelo_inurba_marseille","lat":43.28081,"lon":5.39662,"is_reserved":false,"is_disabled":false,"rental_uris":{"android":"levelo://app?vid=5623b533-8d89-4a1c-ba31-86a046ee05f4","ios":"levelo://app?vid=5623b533-8d89-4a1c-ba31-86a046ee05f4"},"vehicle_type_id":"4","last_reported":1751667020,"current_range_meters":15200,"station_id":"ce4bho12rcd13ifvqh2g","pricing_plan_id":"cebpf4jnsgd1na2vs0mg"},{"bike_id":"3843d112-928f-4232-bedc-cd2cf25b1511","system_id":"levelo_inurba_marseille","lat":43.28076,"lon":5.39655,"is_reserved":false,"is_disabled":false,"rental_uris":{"android":"levelo://app?vid=3843d112-928f-4232-bedc-cd2cf25b1511","ios":"levelo://app?vid=3843d112-928f-4232-bedc-cd2cf25b1511"},"vehicle_type_id":"4","last_reported":1751667020,"current_range_meters":15200,"station_id":"ce4bho12rcd13ifvqh2g","pricing_plan_id":"cebpf4jnsgd1na2vs0mg"},{"bike_id":"a29b2a57-b38c-4848-a0fe-426648358a6d","system_id":"levelo_inurba_marseille","lat":43.28445,"lon":5.39198,"is_reserved":false,"is_disabled":false,"rental_uris":{"android":"levelo://app?vid=a29b2a57-b38c-4848-a0fe-426648358a6d","ios":"levelo://app?vid=a29b2a57-b38c-4848-a0fe-426648358a6d"},"vehicle_type_id":"4","last_reported":1751667020,"current_range_meters":15200,"station_id":"ce4bhoh2rcd13ifvqh5g","pricing_plan_id":"cebpf4jnsgd1na2vs0mg"},{"bike_id":"3847022a-5187-4521-af78-80f88fe96595","system_id":"levelo_inurba_marseille","lat":43.211874,"lon":5.350737,"is_reserved":false,"is_disabled":false,"rental_uris":{"android":"levelo://app?vid=3847022a-5187-4521-af78-80f88fe96595","ios":"levelo://app?vid=3847022a-5187-4521-af78-80f88fe96595"},"vehicle_type_id":"4","last_reported":1751667020,"current_range_meters":15200,"station_id":"st_cvj6sg6p6f1abm77japg","pricing_plan_id":"cebpf4jnsgd1na2vs0mg"},{"bike_id":"4bfb979f-5f1f-4d4f-9bc2-62863e748cdf","system_id":"levelo_inurba_marseille","lat":43.32378,"lon":5.36745,"is_reserved":false,"is_disabled":false,"rental_uris":{"android":"levelo://app?vid=4bfb979f-5f1f-4d4f-9bc2-62863e748cdf","ios":"levelo://app?vid=4bfb979f-5f1f-4d4f-9bc2-62863e748cdf"},"vehicle_type_id":"4","last_reported":1751667020,"current_range_meters":16000,"station_id":"","pricing_plan_id":"cebpf4jnsgd1na2vs0mg"},{"bike_id":"db6caee7-8736-4156-8959-1cbc7ccb72c8","system_id":"levelo_inurba_marseille","lat":43.28849,"lon":5.38439,"is_reserved":false,"is_disabled":false,"rental_uris":{"android":"levelo://app?vid=db6caee7-8736-4156-8959-1cbc7ccb72c8","ios":"levelo://app?vid=db6caee7-8736-4156-8959-1cbc7ccb72c8"},"vehicle_type_id":"4","last_reported":1751667020,"current_range_meters":16000,"station_id":"","pricing_plan_id":"cebpf4jnsgd1na2vs0mg"},{"bike_id":"ba02322b-42c6-4f39-aab9-cb5c29c99255","system_id":"levelo_inurba_marseille","lat":43.30122,"lon":5.39882,"is_reserved":false,"is_disabled":false,"rental_uris":{"android":"levelo://app?vid=ba02322b-42c6-4f39-aab9-cb5c29c99255","ios":"levelo://app?vid=ba02322b-42c6-4f39-aab9-cb5c29c99255"},"vehicle_type_id":"4","last_reported":1751667020,"current_range_meters":16000,"station_id":"ce4bh0h2rcd13ifvqd40","pricing_plan_id":"cebpf4jnsgd1na2vs0mg"},{"bike_id":"e53e1db5-4cd7-4913-a97d-b1d07a1c7fd6","system_id":"levelo_inurba_marseille","lat":43.29413,"lon":5.38615,"is_reserved":false,"is_disabled":false,"rental_uris":{"android":"levelo://app?vid=e53e1db5-4cd7-4913-a97d-b1d07a1c7fd6","ios":"levelo://app?vid=e53e1db5-4cd7-4913-a97d-b1d07a1c7fd6"},"vehicle_type_id":"4","last_reported":1751667020,"current_range_meters":16000,"station_id":"ce4bh2h2rcd13ifvqdh0","pricing_plan_id":"cebpf4jnsgd1na2vs0mg"},{"bike_id":"f1753d26-8935-4f4b-9e83-1a8f6f412606","system_id":"levelo_inurba_marseille","lat":43.24661,"lon":5.38172,"is_reserved":false,"is_disabled":false,"rental_uris":{"android":"levelo://app?vid=f1753d26-8935-4f4b-9e83-1a8f6f412606","ios":"levelo://app?vid=f1753d26-8935-4f4b-9e83-1a8f6f412606"},"vehicle_type_id":"4","last_reported":1751667020,"current_range_meters":16000,"station_id":"ce4bhih2rcd13ifvqfr0","pricing_plan_id":"cebpf4jnsgd1na2vs0mg"},{"bike_id":"c3fae141-3322-46bb-976b-c85803ceeb5f","system_id":"levelo_inurba_marseille","lat":43.2955,"lon":5.42294,"is_reserved":false,"is_disabled":false,"rental_uris":{"android":"levelo://app?vid=c3fae141-3322-46bb-976b-c85803ceeb5f","ios":"levelo://app?vid=c3fae141-3322-46bb-976b-c85803ceeb5f"},"vehicle_type_id":"4","last_reported":1751667020,"current_range_meters":16000,"station_id":"ce4bhph2rcd13ifvqhdg","pricing_plan_id":"cebpf4jnsgd1na2vs0mg"},{"bike_id":"ca19b8f1-8bbb-465b-a2e2-e87739be69b1","system_id":"levelo_inurba_marseille","lat":43.32003,"lon":5.38158,"is_reserved":false,"is_disabled":false,"rental_uris":{"android":"levelo://app?vid=ca19b8f1-8bbb-465b-a2e2-e87739be69b1","ios":"levelo://app?vid=ca19b8f1-8bbb-465b-a2e2-e87739be69b1"},"vehicle_type_id":"4","last_reported":1751667020,"current_range_meters":16000,"station_id":"ce4bhr12rcd13ifvqhpg","pricing_plan_id":"cebpf4jnsgd1na2vs0mg"},{"bike_id":"08c0efbb-bb4e-4551-ad72-2cd0748c23eb","system_id":"levelo_inurba_marseille","lat":43.30214,"lon":5.39464,"is_reserved":false,"is_disabled":false,"rental_uris":{"android":"levelo://app?vid=08c0efbb-bb4e-4551-ad72-2cd0748c23eb","ios":"levelo://app?vid=08c0efbb-bb4e-4551-ad72-2cd0748c23eb"},"vehicle_type_id":"4","last_reported":1751667020,"current_range_meters":16400,"station_id":"ce4bh0p2rcd13ifvqd70","pricing_plan_id":"cebpf4jnsgd1na2vs0mg"},{"bike_id":"6486e142-ca76-4b7f-83a7-accbb19cbe42","system_id":"levelo_inurba_marseille","lat":43.298017,"lon":5.4041,"is_reserved":false,"is_disabled":false,"rental_uris":{"android":"levelo://app?vid=6486e142-ca76-4b7f-83a7-accbb19cbe42","ios":"levelo://app?vid=6486e142-ca76-4b7f-83a7-accbb19cbe42"},"vehicle_type_id":"4","last_reported":1751667020,"current_range_meters":16400,"station_id":"ce4bh112rcd13ifvqd90","pricing_plan_id":"cebpf4jnsgd1na2vs0mg"},{"bike_id":"2b5bd97c-55d1-4ac4-935a-2e08f1f39caa","system_id":"levelo_inurba_marseille","lat":43.28409,"lon":5.37509,"is_reserved":false,"is_disabled":false,"rental_uris":{"android":"levelo://app?vid=2b5bd97c-55d1-4ac4-935a-2e08f1f39caa","ios":"levelo://app?vid=2b5bd97c-55d1-4ac4-935a-2e08f1f39caa"},"vehicle_type_id":"4","last_reported":1751667020,"current_range_meters":16400,"station_id":"ce4bh412rcd13ifvqds0","pricing_plan_id":"cebpf4jnsgd1na2vs0mg"},{"bike_id":"26dc8365-9e5b-44ad-b380-654f888d2ccd","system_id":"levelo_inurba_marseille","lat":43.28406,"lon":5.37527,"is_reserved":false,"is_disabled":false,"rental_uris":{"android":"levelo://app?vid=26dc8365-9e5b-44ad-b380-654f888d2ccd","ios":"levelo://app?vid=26dc8365-9e5b-44ad-b380-654f888d2ccd"},"vehicle_type_id":"4","last_reported":1751667020,"current_range_meters":16400,"station_id":"ce4bh412rcd13ifvqds0","pricing_plan_id":"cebpf4jnsgd1na2vs0mg"},{"bike_id":"d23662ac-9065-4b6f-a860-91290a80e030","system_id":"levelo_inurba_marseille","lat":43.29062,"lon":5.3717,"is_reserved":false,"is_disabled":false,"rental_uris":{"android":"levelo://app?vid=d23662ac-9065-4b6f-a860-91290a80e030","ios":"levelo://app?vid=d23662ac-9065-4b6f-a860-91290a80e030"},"vehicle_type_id":"4","last_reported":1751667020,"current_range_meters":16400,"station_id":"ce4bh5p2rcd13ifvqe4g","pricing_plan_id":"cebpf4jnsgd1na2vs0mg"},{"bike_id":"b931697d-a84c-41e0-a6a6-0fb45b425721","system_id":"levelo_inurba_marseille","lat":43.30364,"lon":5.42488,"is_reserved":false,"is_disabled":false,"rental_uris":{"android":"levelo://app?vid=b931697d-a84c-41e0-a6a6-0fb45b425721","ios":"levelo://app?vid=b931697d-a84c-41e0-a6a6-0fb45b425721"},"vehicle_type_id":"4","last_reported":1751667020,"current_range_meters":16400,"station_id":"ce4bhoh2rcd13ifvqh6g","pricing_plan_id":"cebpf4jnsgd1na2vs0mg"},{"bike_id":"ef9eddda-05ba-4ac6-be29-01558ec718f5","system_id":"levelo_inurba_marseille","lat":43.30416,"lon":5.41292,"is_reserved":false,"is_disabled":false,"rental_uris":{"android":"levelo://app?vid=ef9eddda-05ba-4ac6-be29-01558ec718f5","ios":"levelo://app?vid=ef9eddda-05ba-4ac6-be29-01558ec718f5"},"vehicle_type_id":"4","last_reported":1751667020,"current_range_meters":16400,"station_id":"ce4bhop2rcd13ifvqh8g","pricing_plan_id":"cebpf4jnsgd1na2vs0mg"},{"bike_id":"29b19e99-4845-4ee3-b1ee-35721cd36dc7","system_id":"levelo_inurba_marseille","lat":43.2319,"lon":5.35555,"is_reserved":false,"is_disabled":false,"rental_uris":{"android":"levelo://app?vid=29b19e99-4845-4ee3-b1ee-35721cd36dc7","ios":"levelo://app?vid=29b19e99-4845-4ee3-b1ee-35721cd36dc7"},"vehicle_type_id":"4","last_reported":1751667020,"current_range_meters":16400,"station_id":"ce4bhu92rcd13ifvqi70","pricing_plan_id":"cebpf4jnsgd1na2vs0mg"},{"bike_id":"5f470112-8139-4343-b082-08a74e0b7074","system_id":"levelo_inurba_marseille","lat":43.21189,"lon":5.3513,"is_reserved":false,"is_disabled":false,"rental_uris":{"android":"levelo://app?vid=5f470112-8139-4343-b082-08a74e0b7074","ios":"levelo://app?vid=5f470112-8139-4343-b082-08a74e0b7074"},"vehicle_type_id":"4","last_reported":1751667020,"current_range_meters":16400,"station_id":"st_cvj6sg6p6f1abm77japg","pricing_plan_id":"cebpf4jnsgd1na2vs0mg"},{"bike_id":"b1d40197-e49c-4962-8cd8-0babe05d31a6","system_id":"levelo_inurba_marseille","lat":43.21253,"lon":5.35284,"is_reserved":false,"is_disabled":false,"rental_uris":{"android":"levelo://app?vid=b1d40197-e49c-4962-8cd8-0babe05d31a6","ios":"levelo://app?vid=b1d40197-e49c-4962-8cd8-0babe05d31a6"},"vehicle_type_id":"4","last_reported":1751667020,"current_range_meters":16800,"station_id":"","pricing_plan_id":"cebpf4jnsgd1na2vs0mg"},{"bike_id":"f37760c6-ab8b-450e-9ddc-f3de596404e2","system_id":"levelo_inurba_marseille","lat":43.30313,"lon":5.37899,"is_reserved":false,"is_disabled":false,"rental_uris":{"android":"levelo://app?vid=f37760c6-ab8b-450e-9ddc-f3de596404e2","ios":"levelo://app?vid=f37760c6-ab8b-450e-9ddc-f3de596404e2"},"vehicle_type_id":"4","last_reported":1751667020,"current_range_meters":16800,"station_id":"","pricing_plan_id":"cebpf4jnsgd1na2vs0mg"},{"bike_id":"a06cd697-9b1d-4139-b391-7ac7a1c6a64f","system_id":"levelo_inurba_marseille","lat":43.29523,"lon":5.38543,"is_reserved":false,"is_disabled":false,"rental_uris":{"android":"levelo://app?vid=a06cd697-9b1d-4139-b391-7ac7a1c6a64f","ios":"levelo://app?vid=a06cd697-9b1d-4139-b391-7ac7a1c6a64f"},"vehicle_type_id":"4","last_reported":1751667020,"current_range_meters":16800,"station_id":"ce4bgih2rcd13ifvqba0","pricing_plan_id":"cebpf4jnsgd1na2vs0mg"},{"bike_id":"3401f30a-7158-492a-ad7e-a1d38e9a0c9b","system_id":"levelo_inurba_marseille","lat":43.29877,"lon":5.39737,"is_reserved":false,"is_disabled":false,"rental_uris":{"android":"levelo://app?vid=3401f30a-7158-492a-ad7e-a1d38e9a0c9b","ios":"levelo://app?vid=3401f30a-7158-492a-ad7e-a1d38e9a0c9b"},"vehicle_type_id":"4","last_reported":1751667020,"current_range_meters":16800,"station_id":"ce4bh0h2rcd13ifvqd50","pricing_plan_id":"cebpf4jnsgd1na2vs0mg"},{"bike_id":"87027081-03de-45df-8249-32caef51571e","system_id":"levelo_inurba_marseille","lat":43.29561,"lon":5.39967,"is_reserved":false,"is_disabled":false,"rental_uris":{"android":"levelo://app?vid=87027081-03de-45df-8249-32caef51571e","ios":"levelo://app?vid=87027081-03de-45df-8249-32caef51571e"},"vehicle_type_id":"4","last_reported":1751667020,"current_range_meters":16800,"station_id":"ce4bh312rcd13ifvqdj0","pricing_plan_id":"cebpf4jnsgd1na2vs0mg"},{"bike_id":"8fc9b011-44cc-406e-a8ac-58986f7944fb","system_id":"levelo_inurba_marseille","lat":43.28951,"lon":5.36407,"is_reserved":false,"is_disabled":false,"rental_uris":{"android":"levelo://app?vid=8fc9b011-44cc-406e-a8ac-58986f7944fb","ios":"levelo://app?vid=8fc9b011-44cc-406e-a8ac-58986f7944fb"},"vehicle_type_id":"4","last_reported":1751667020,"current_range_meters":16800,"station_id":"ce4bhc92rcd13ifvqetg","pricing_plan_id":"cebpf4jnsgd1na2vs0mg"},{"bike_id":"f0edd72c-79b7-4d46-ab18-1780629011ec","system_id":"levelo_inurba_marseille","lat":43.24808,"lon":5.3746,"is_reserved":false,"is_disabled":false,"rental_uris":{"android":"levelo://app?vid=f0edd72c-79b7-4d46-ab18-1780629011ec","ios":"levelo://app?vid=f0edd72c-79b7-4d46-ab18-1780629011ec"},"vehicle_type_id":"4","last_reported":1751667020,"current_range_meters":16800,"station_id":"ce4bhgh2rcd13ifvqfb0","pricing_plan_id":"cebpf4jnsgd1na2vs0mg"},{"bike_id":"bfd442a7-2742-451e-9ad9-c8352560f603","system_id":"levelo_inurba_marseille","lat":43.28145,"lon":5.42643,"is_reserved":false,"is_disabled":false,"rental_uris":{"android":"levelo://app?vid=bfd442a7-2742-451e-9ad9-c8352560f603","ios":"levelo://app?vid=bfd442a7-2742-451e-9ad9-c8352560f603"},"vehicle_type_id":"4","last_reported":1751667020,"current_range_meters":16800,"station_id":"ce4bhnh2rcd13ifvqgug","pricing_plan_id":"cebpf4jnsgd1na2vs0mg"},{"bike_id":"11400a77-2e9c-43cd-8a26-0f71b1fc1feb","system_id":"levelo_inurba_marseille","lat":43.28437,"lon":5.3919,"is_reserved":false,"is_disabled":false,"rental_uris":{"android":"levelo://app?vid=11400a77-2e9c-43cd-8a26-0f71b1fc1feb","ios":"levelo://app?vid=11400a77-2e9c-43cd-8a26-0f71b1fc1feb"},"vehicle_type_id":"4","last_reported":1751667020,"current_range_meters":16800,"station_id":"ce4bhoh2rcd13ifvqh5g","pricing_plan_id":"cebpf4jnsgd1na2vs0mg"},{"bike_id":"833dcaf2-4903-410f-af44-06dc9eae5be9","system_id":"levelo_inurba_marseille","lat":43.3207,"lon":5.41547,"is_reserved":false,"is_disabled":false,"rental_uris":{"android":"levelo://app?vid=833dcaf2-4903-410f-af44-06dc9eae5be9","ios":"levelo://app?vid=833dcaf2-4903-410f-af44-06dc9eae5be9"},"vehicle_type_id":"4","last_reported":1751667020,"current_range_meters":16800,"station_id":"ce4bhq92rcd13ifvqhkg","pricing_plan_id":"cebpf4jnsgd1na2vs0mg"},{"bike_id":"89c4c171-fa34-44ee-8818-b4f1de745083","system_id":"levelo_inurba_marseille","lat":43.2319,"lon":5.35556,"is_reserved":false,"is_disabled":false,"rental_uris":{"android":"levelo://app?vid=89c4c171-fa34-44ee-8818-b4f1de745083","ios":"levelo://app?vid=89c4c171-fa34-44ee-8818-b4f1de745083"},"vehicle_type_id":"4","last_reported":1751667020,"current_range_meters":16800,"station_id":"ce4bhu92rcd13ifvqi70","pricing_plan_id":"cebpf4jnsgd1na2vs0mg"},{"bike_id":"ef26d274-58a7-40bc-9cf0-6287718684d4","system_id":"levelo_inurba_marseille","lat":43.307328,"lon":5.424479,"is_reserved":false,"is_disabled":false,"rental_uris":{"android":"levelo://app?vid=ef26d274-58a7-40bc-9cf0-6287718684d4","ios":"levelo://app?vid=ef26d274-58a7-40bc-9cf0-6287718684d4"},"vehicle_type_id":"4","last_reported":1751667020,"current_range_meters":16800,"station_id":"st_cvj6ca6bvosntc0bfgr0","pricing_plan_id":"cebpf4jnsgd1na2vs0mg"},{"bike_id":"25d65b54-2483-49ad-9e8c-b4102ded682f","system_id":"levelo_inurba_marseille","lat":43.21181,"lon":5.35082,"is_reserved":false,"is_disabled":false,"rental_uris":{"android":"levelo://app?vid=25d65b54-2483-49ad-9e8c-b4102ded682f","ios":"levelo://app?vid=25d65b54-2483-49ad-9e8c-b4102ded682f"},"vehicle_type_id":"4","last_reported":1751667020,"current_range_meters":16800,"station_id":"st_cvj6sg6p6f1abm77japg","pricing_plan_id":"cebpf4jnsgd1na2vs0mg"},{"bike_id":"090258be-1c40-4896-8364-f8cfc8f34e03","system_id":"levelo_inurba_marseille","lat":43.29531,"lon":5.38546,"is_reserved":false,"is_disabled":false,"rental_uris":{"android":"levelo://app?vid=090258be-1c40-4896-8364-f8cfc8f34e03","ios":"levelo://app?vid=090258be-1c40-4896-8364-f8cfc8f34e03"},"vehicle_type_id":"4","last_reported":1751667020,"current_range_meters":17200,"station_id":"ce4bgih2rcd13ifvqba0","pricing_plan_id":"cebpf4jnsgd1na2vs0mg"},{"bike_id":"9ce4937e-f70c-40c5-8304-a6e4aa82f427","system_id":"levelo_inurba_marseille","lat":43.30325,"lon":5.40425,"is_reserved":false,"is_disabled":false,"rental_uris":{"android":"levelo://app?vid=9ce4937e-f70c-40c5-8304-a6e4aa82f427","ios":"levelo://app?vid=9ce4937e-f70c-40c5-8304-a6e4aa82f427"},"vehicle_type_id":"4","last_reported":1751667020,"current_range_meters":17200,"station_id":"ce4bh012rcd13ifvqd10","pricing_plan_id":"cebpf4jnsgd1na2vs0mg"},{"bike_id":"70167b12-3fbd-4b58-bf53-e11cba6d3195","system_id":"levelo_inurba_marseille","lat":43.29515,"lon":5.3904,"is_reserved":false,"is_disabled":false,"rental_uris":{"android":"levelo://app?vid=70167b12-3fbd-4b58-bf53-e11cba6d3195","ios":"levelo://app?vid=70167b12-3fbd-4b58-bf53-e11cba6d3195"},"vehicle_type_id":"4","last_reported":1751667020,"current_range_meters":17200,"station_id":"ce4bh3p2rcd13ifvqdp0","pricing_plan_id":"cebpf4jnsgd1na2vs0mg"},{"bike_id":"712ee5d4-a19e-492d-bbf7-e0848fa7819d","system_id":"levelo_inurba_marseille","lat":43.23179,"lon":5.39991,"is_reserved":false,"is_disabled":false,"rental_uris":{"android":"levelo://app?vid=712ee5d4-a19e-492d-bbf7-e0848fa7819d","ios":"levelo://app?vid=712ee5d4-a19e-492d-bbf7-e0848fa7819d"},"vehicle_type_id":"4","last_reported":1751667020,"current_range_meters":17200,"station_id":"ce4bhn12rcd13ifvqgqg","pricing_plan_id":"cebpf4jnsgd1na2vs0mg"},{"bike_id":"22d14d69-5644-4045-a907-e8ff2fe5b950","system_id":"levelo_inurba_marseille","lat":43.28152,"lon":5.42643,"is_reserved":false,"is_disabled":false,"rental_uris":{"android":"levelo://app?vid=22d14d69-5644-4045-a907-e8ff2fe5b950","ios":"levelo://app?vid=22d14d69-5644-4045-a907-e8ff2fe5b950"},"vehicle_type_id":"4","last_reported":1751667020,"current_range_meters":17200,"station_id":"ce4bhnh2rcd13ifvqgug","pricing_plan_id":"cebpf4jnsgd1na2vs0mg"},{"bike_id":"f9f77461-f8ab-4c0c-aec0-f464dbeb4eee","system_id":"levelo_inurba_marseille","lat":43.33726,"lon":5.39187,"is_reserved":false,"is_disabled":false,"rental_uris":{"android":"levelo://app?vid=f9f77461-f8ab-4c0c-aec0-f464dbeb4eee","ios":"levelo://app?vid=f9f77461-f8ab-4c0c-aec0-f464dbeb4eee"},"vehicle_type_id":"4","last_reported":1751667020,"current_range_meters":17200,"station_id":"ce4bhr92rcd13ifvqhsg","pricing_plan_id":"cebpf4jnsgd1na2vs0mg"},{"bike_id":"85e59ae2-b351-4789-8c40-11e04c4e6808","system_id":"levelo_inurba_marseille","lat":43.23194,"lon":5.35548,"is_reserved":false,"is_disabled":false,"rental_uris":{"android":"levelo://app?vid=85e59ae2-b351-4789-8c40-11e04c4e6808","ios":"levelo://app?vid=85e59ae2-b351-4789-8c40-11e04c4e6808"},"vehicle_type_id":"4","last_reported":1751667020,"current_range_meters":17200,"station_id":"ce4bhu92rcd13ifvqi70","pricing_plan_id":"cebpf4jnsgd1na2vs0mg"},{"bike_id":"8501c7f1-4540-433a-9226-9677bd87b71a","system_id":"levelo_inurba_marseille","lat":43.21168,"lon":5.351,"is_reserved":false,"is_disabled":false,"rental_uris":{"android":"levelo://app?vid=8501c7f1-4540-433a-9226-9677bd87b71a","ios":"levelo://app?vid=8501c7f1-4540-433a-9226-9677bd87b71a"},"vehicle_type_id":"4","last_reported":1751667020,"current_range_meters":17200,"station_id":"st_cvj6sg6p6f1abm77japg","pricing_plan_id":"cebpf4jnsgd1na2vs0mg"},{"bike_id":"b67e3de7-3a98-48a8-ada1-6072073e6e54","system_id":"levelo_inurba_marseille","lat":43.24554,"lon":5.37385,"is_reserved":false,"is_disabled":false,"rental_uris":{"android":"levelo://app?vid=b67e3de7-3a98-48a8-ada1-6072073e6e54","ios":"levelo://app?vid=b67e3de7-3a98-48a8-ada1-6072073e6e54"},"vehicle_type_id":"4","last_reported":1751667020,"current_range_meters":17600,"station_id":"","pricing_plan_id":"cebpf4jnsgd1na2vs0mg"},{"bike_id":"02b71ffd-98ec-4faa-a4ff-9c4f0856d9be","system_id":"levelo_inurba_marseille","lat":43.30928,"lon":5.40145,"is_reserved":false,"is_disabled":false,"rental_uris":{"android":"levelo://app?vid=02b71ffd-98ec-4faa-a4ff-9c4f0856d9be","ios":"levelo://app?vid=02b71ffd-98ec-4faa-a4ff-9c4f0856d9be"},"vehicle_type_id":"4","last_reported":1751667020,"current_range_meters":17600,"station_id":"ce4bgvp2rcd13ifvqct0","pricing_plan_id":"cebpf4jnsgd1na2vs0mg"},{"bike_id":"00b5ddf9-7f95-47f1-856b-add17b1fb910","system_id":"levelo_inurba_marseille","lat":43.29798,"lon":5.40397,"is_reserved":false,"is_disabled":false,"rental_uris":{"android":"levelo://app?vid=00b5ddf9-7f95-47f1-856b-add17b1fb910","ios":"levelo://app?vid=00b5ddf9-7f95-47f1-856b-add17b1fb910"},"vehicle_type_id":"4","last_reported":1751667020,"current_range_meters":17600,"station_id":"ce4bh112rcd13ifvqd90","pricing_plan_id":"cebpf4jnsgd1na2vs0mg"},{"bike_id":"1a3c7ad7-bdc4-4611-bcdf-5d3435a2a482","system_id":"levelo_inurba_marseille","lat":43.292551,"lon":5.409021,"is_reserved":false,"is_disabled":false,"rental_uris":{"android":"levelo://app?vid=1a3c7ad7-bdc4-4611-bcdf-5d3435a2a482","ios":"levelo://app?vid=1a3c7ad7-bdc4-4611-bcdf-5d3435a2a482"},"vehicle_type_id":"4","last_reported":1751667020,"current_range_meters":17600,"station_id":"ce4bh192rcd13ifvqdc0","pricing_plan_id":"cebpf4jnsgd1na2vs0mg"},{"bike_id":"7b61cf6f-e890-4468-8ff4-2cc6696fc64e","system_id":"levelo_inurba_marseille","lat":43.29517,"lon":5.39041,"is_reserved":false,"is_disabled":false,"rental_uris":{"android":"levelo://app?vid=7b61cf6f-e890-4468-8ff4-2cc6696fc64e","ios":"levelo://app?vid=7b61cf6f-e890-4468-8ff4-2cc6696fc64e"},"vehicle_type_id":"4","last_reported":1751667020,"current_range_meters":17600,"station_id":"ce4bh3p2rcd13ifvqdp0","pricing_plan_id":"cebpf4jnsgd1na2vs0mg"},{"bike_id":"64c2a9d0-155c-4f26-ba45-c0a267071026","system_id":"levelo_inurba_marseille","lat":43.31084,"lon":5.42434,"is_reserved":false,"is_disabled":false,"rental_uris":{"android":"levelo://app?vid=64c2a9d0-155c-4f26-ba45-c0a267071026","ios":"levelo://app?vid=64c2a9d0-155c-4f26-ba45-c0a267071026"},"vehicle_type_id":"4","last_reported":1751667020,"current_range_meters":17600,"station_id":"ce4bhp92rcd13ifvqhag","pricing_plan_id":"cebpf4jnsgd1na2vs0mg"},{"bike_id":"eee40584-a53a-46c2-94a4-491b77e8d9d1","system_id":"levelo_inurba_marseille","lat":43.21738,"lon":5.34629,"is_reserved":false,"is_disabled":false,"rental_uris":{"android":"levelo://app?vid=eee40584-a53a-46c2-94a4-491b77e8d9d1","ios":"levelo://app?vid=eee40584-a53a-46c2-94a4-491b77e8d9d1"},"vehicle_type_id":"4","last_reported":1751667020,"current_range_meters":17600,"station_id":"st_cvj6r9ubvosntc0bgbag","pricing_plan_id":"cebpf4jnsgd1na2vs0mg"},{"bike_id":"134a6fd1-cb8b-4ade-a0c2-0b22bf7dca76","system_id":"levelo_inurba_marseille","lat":43.211854,"lon":5.350744,"is_reserved":false,"is_disabled":false,"rental_uris":{"android":"levelo://app?vid=134a6fd1-cb8b-4ade-a0c2-0b22bf7dca76","ios":"levelo://app?vid=134a6fd1-cb8b-4ade-a0c2-0b22bf7dca76"},"vehicle_type_id":"4","last_reported":1751667020,"current_range_meters":17600,"station_id":"st_cvj6sg6p6f1abm77japg","pricing_plan_id":"cebpf4jnsgd1na2vs0mg"},{"bike_id":"adf1d38d-1f03-40cf-9b57-0a8f15f62b2d","system_id":"levelo_inurba_marseille","lat":43.32976,"lon":5.36407,"is_reserved":false,"is_disabled":false,"rental_uris":{"android":"levelo://app?vid=adf1d38d-1f03-40cf-9b57-0a8f15f62b2d","ios":"levelo://app?vid=adf1d38d-1f03-40cf-9b57-0a8f15f62b2d"},"vehicle_type_id":"4","last_reported":1751667020,"current_range_meters":18000,"station_id":"","pricing_plan_id":"cebpf4jnsgd1na2vs0mg"},{"bike_id":"49cdc6d1-c04d-4952-8f8b-d43b23f6027f","system_id":"levelo_inurba_marseille","lat":43.29551,"lon":5.38547,"is_reserved":false,"is_disabled":false,"rental_uris":{"android":"levelo://app?vid=49cdc6d1-c04d-4952-8f8b-d43b23f6027f","ios":"levelo://app?vid=49cdc6d1-c04d-4952-8f8b-d43b23f6027f"},"vehicle_type_id":"4","last_reported":1751667020,"current_range_meters":18000,"station_id":"ce4bgih2rcd13ifvqba0","pricing_plan_id":"cebpf4jnsgd1na2vs0mg"},{"bike_id":"c9bc9f98-0f31-4750-aeef-b141822a4a4f","system_id":"levelo_inurba_marseille","lat":43.28363,"lon":5.38639,"is_reserved":false,"is_disabled":false,"rental_uris":{"android":"levelo://app?vid=c9bc9f98-0f31-4750-aeef-b141822a4a4f","ios":"levelo://app?vid=c9bc9f98-0f31-4750-aeef-b141822a4a4f"},"vehicle_type_id":"4","last_reported":1751667020,"current_range_meters":18000,"station_id":"ce4bh492rcd13ifvqdvg","pricing_plan_id":"cebpf4jnsgd1na2vs0mg"},{"bike_id":"0bb68c0d-c57a-4485-8fc7-3e1dbfd51f5e","system_id":"levelo_inurba_marseille","lat":43.28103,"lon":5.37848,"is_reserved":false,"is_disabled":false,"rental_uris":{"android":"levelo://app?vid=0bb68c0d-c57a-4485-8fc7-3e1dbfd51f5e","ios":"levelo://app?vid=0bb68c0d-c57a-4485-8fc7-3e1dbfd51f5e"},"vehicle_type_id":"4","last_reported":1751667020,"current_range_meters":18000,"station_id":"ce4bha12rcd13ifvqee0","pricing_plan_id":"cebpf4jnsgd1na2vs0mg"},{"bike_id":"9898e142-28b3-4650-b81a-822e59221a52","system_id":"levelo_inurba_marseille","lat":43.27078,"lon":5.42256,"is_reserved":false,"is_disabled":false,"rental_uris":{"android":"levelo://app?vid=9898e142-28b3-4650-b81a-822e59221a52","ios":"levelo://app?vid=9898e142-28b3-4650-b81a-822e59221a52"},"vehicle_type_id":"4","last_reported":1751667020,"current_range_meters":18000,"station_id":"ce4bhk92rcd13ifvqgb0","pricing_plan_id":"cebpf4jnsgd1na2vs0mg"},{"bike_id":"d5ef0079-0d6c-4f4a-a0a4-716e83743ac2","system_id":"levelo_inurba_marseille","lat":43.27175,"lon":5.40999,"is_reserved":false,"is_disabled":false,"rental_uris":{"android":"levelo://app?vid=d5ef0079-0d6c-4f4a-a0a4-716e83743ac2","ios":"levelo://app?vid=d5ef0079-0d6c-4f4a-a0a4-716e83743ac2"},"vehicle_type_id":"4","last_reported":1751667020,"current_range_meters":18000,"station_id":"ce4bhl12rcd13ifvqgf0","pricing_plan_id":"cebpf4jnsgd1na2vs0mg"},{"bike_id":"d6e3a3d1-2ccf-495a-a88e-ccfb80e84230","system_id":"levelo_inurba_marseille","lat":43.28448,"lon":5.39209,"is_reserved":false,"is_disabled":false,"rental_uris":{"android":"levelo://app?vid=d6e3a3d1-2ccf-495a-a88e-ccfb80e84230","ios":"levelo://app?vid=d6e3a3d1-2ccf-495a-a88e-ccfb80e84230"},"vehicle_type_id":"4","last_reported":1751667020,"current_range_meters":18000,"station_id":"ce4bhoh2rcd13ifvqh5g","pricing_plan_id":"cebpf4jnsgd1na2vs0mg"},{"bike_id":"fe8ee84c-fdfc-40aa-a1c2-6e36409c0740","system_id":"levelo_inurba_marseille","lat":43.26812,"lon":5.390656,"is_reserved":false,"is_disabled":false,"rental_uris":{"android":"levelo://app?vid=fe8ee84c-fdfc-40aa-a1c2-6e36409c0740","ios":"levelo://app?vid=fe8ee84c-fdfc-40aa-a1c2-6e36409c0740"},"vehicle_type_id":"4","last_reported":1751667020,"current_range_meters":18800,"station_id":"","pricing_plan_id":"cebpf4jnsgd1na2vs0mg"},{"bike_id":"6917bed5-c21f-48c3-870d-5408dab99803","system_id":"levelo_inurba_marseille","lat":43.30622,"lon":5.36578,"is_reserved":false,"is_disabled":false,"rental_uris":{"android":"levelo://app?vid=6917bed5-c21f-48c3-870d-5408dab99803","ios":"levelo://app?vid=6917bed5-c21f-48c3-870d-5408dab99803"},"vehicle_type_id":"4","last_reported":1751667020,"current_range_meters":18800,"station_id":"","pricing_plan_id":"cebpf4jnsgd1na2vs0mg"},{"bike_id":"3fc62123-78f7-4bfd-9645-67a7412e0768","system_id":"levelo_inurba_marseille","lat":43.2573,"lon":5.41107,"is_reserved":false,"is_disabled":false,"rental_uris":{"android":"levelo://app?vid=3fc62123-78f7-4bfd-9645-67a7412e0768","ios":"levelo://app?vid=3fc62123-78f7-4bfd-9645-67a7412e0768"},"vehicle_type_id":"4","last_reported":1751667020,"current_range_meters":18800,"station_id":"","pricing_plan_id":"cebpf4jnsgd1na2vs0mg"},{"bike_id":"ed404beb-27d2-4951-b0c7-b56cf2d96909","system_id":"levelo_inurba_marseille","lat":43.29532,"lon":5.38541,"is_reserved":false,"is_disabled":false,"rental_uris":{"android":"levelo://app?vid=ed404beb-27d2-4951-b0c7-b56cf2d96909","ios":"levelo://app?vid=ed404beb-27d2-4951-b0c7-b56cf2d96909"},"vehicle_type_id":"4","last_reported":1751667020,"current_range_meters":18800,"station_id":"ce4bgih2rcd13ifvqba0","pricing_plan_id":"cebpf4jnsgd1na2vs0mg"},{"bike_id":"a4b43b62-9f1d-46b1-88f3-a80a4a741090","system_id":"levelo_inurba_marseille","lat":43.30428,"lon":5.38894,"is_reserved":false,"is_disabled":false,"rental_uris":{"android":"levelo://app?vid=a4b43b62-9f1d-46b1-88f3-a80a4a741090","ios":"levelo://app?vid=a4b43b62-9f1d-46b1-88f3-a80a4a741090"},"vehicle_type_id":"4","last_reported":1751667020,"current_range_meters":18800,"station_id":"ce4bgk12rcd13ifvqbi0","pricing_plan_id":"cebpf4jnsgd1na2vs0mg"},{"bike_id":"075f573d-4543-44e3-8e0f-47c4f5d23579","system_id":"levelo_inurba_marseille","lat":43.30187,"lon":5.36623,"is_reserved":false,"is_disabled":false,"rental_uris":{"android":"levelo://app?vid=075f573d-4543-44e3-8e0f-47c4f5d23579","ios":"levelo://app?vid=075f573d-4543-44e3-8e0f-47c4f5d23579"},"vehicle_type_id":"4","last_reported":1751667020,"current_range_meters":18800,"station_id":"ce4bgrh2rcd13ifvqc8g","pricing_plan_id":"cebpf4jnsgd1na2vs0mg"},{"bike_id":"e7ac5200-1102-44d2-a273-e4353371dd30","system_id":"levelo_inurba_marseille","lat":43.29574,"lon":5.39985,"is_reserved":false,"is_disabled":false,"rental_uris":{"android":"levelo://app?vid=e7ac5200-1102-44d2-a273-e4353371dd30","ios":"levelo://app?vid=e7ac5200-1102-44d2-a273-e4353371dd30"},"vehicle_type_id":"4","last_reported":1751667020,"current_range_meters":18800,"station_id":"ce4bh312rcd13ifvqdj0","pricing_plan_id":"cebpf4jnsgd1na2vs0mg"},{"bike_id":"6dc0e6e3-6071-4552-ac02-c4d57e12592f","system_id":"levelo_inurba_marseille","lat":43.289542,"lon":5.364181,"is_reserved":false,"is_disabled":false,"rental_uris":{"android":"levelo://app?vid=6dc0e6e3-6071-4552-ac02-c4d57e12592f","ios":"levelo://app?vid=6dc0e6e3-6071-4552-ac02-c4d57e12592f"},"vehicle_type_id":"4","last_reported":1751667020,"current_range_meters":18800,"station_id":"ce4bhc92rcd13ifvqetg","pricing_plan_id":"cebpf4jnsgd1na2vs0mg"},{"bike_id":"1ba3d49f-879f-495a-9eec-a5219f46051b","system_id":"levelo_inurba_marseille","lat":43.24659,"lon":5.38189,"is_reserved":false,"is_disabled":false,"rental_uris":{"android":"levelo://app?vid=1ba3d49f-879f-495a-9eec-a5219f46051b","ios":"levelo://app?vid=1ba3d49f-879f-495a-9eec-a5219f46051b"},"vehicle_type_id":"4","last_reported":1751667020,"current_range_meters":18800,"station_id":"ce4bhih2rcd13ifvqfr0","pricing_plan_id":"cebpf4jnsgd1na2vs0mg"},{"bike_id":"4527a318-a9e7-4aed-9c5b-164771fe35e0","system_id":"levelo_inurba_marseille","lat":43.3229,"lon":5.38269,"is_reserved":false,"is_disabled":false,"rental_uris":{"android":"levelo://app?vid=4527a318-a9e7-4aed-9c5b-164771fe35e0","ios":"levelo://app?vid=4527a318-a9e7-4aed-9c5b-164771fe35e0"},"vehicle_type_id":"4","last_reported":1751667020,"current_range_meters":18800,"station_id":"ce4bhr12rcd13ifvqhqg","pricing_plan_id":"cebpf4jnsgd1na2vs0mg"},{"bike_id":"65649ce6-7f39-4a81-afab-6d8bea652e28","system_id":"levelo_inurba_marseille","lat":43.3072,"lon":5.42449,"is_reserved":false,"is_disabled":false,"rental_uris":{"android":"levelo://app?vid=65649ce6-7f39-4a81-afab-6d8bea652e28","ios":"levelo://app?vid=65649ce6-7f39-4a81-afab-6d8bea652e28"},"vehicle_type_id":"4","last_reported":1751667020,"current_range_meters":18800,"station_id":"st_cvj6ca6bvosntc0bfgr0","pricing_plan_id":"cebpf4jnsgd1na2vs0mg"},{"bike_id":"bf24b26e-7f51-4120-9a48-54c87edaa2f7","system_id":"levelo_inurba_marseille","lat":43.2119,"lon":5.35082,"is_reserved":false,"is_disabled":false,"rental_uris":{"android":"levelo://app?vid=bf24b26e-7f51-4120-9a48-54c87edaa2f7","ios":"levelo://app?vid=bf24b26e-7f51-4120-9a48-54c87edaa2f7"},"vehicle_type_id":"4","last_reported":1751667020,"current_range_meters":18800,"station_id":"st_cvj6sg6p6f1abm77japg","pricing_plan_id":"cebpf4jnsgd1na2vs0mg"},{"bike_id":"8a42812b-a6a1-406d-afe6-f3a1f04badd8","system_id":"levelo_inurba_marseille","lat":43.30848,"lon":5.37056,"is_reserved":false,"is_disabled":false,"rental_uris":{"android":"levelo://app?vid=8a42812b-a6a1-406d-afe6-f3a1f04badd8","ios":"levelo://app?vid=8a42812b-a6a1-406d-afe6-f3a1f04badd8"},"vehicle_type_id":"4","last_reported":1751667020,"current_range_meters":19200,"station_id":"","pricing_plan_id":"cebpf4jnsgd1na2vs0mg"},{"bike_id":"d5ef770d-9759-47e3-b3a5-7d2785ef76db","system_id":"levelo_inurba_marseille","lat":43.33016,"lon":5.39516,"is_reserved":false,"is_disabled":false,"rental_uris":{"android":"levelo://app?vid=d5ef770d-9759-47e3-b3a5-7d2785ef76db","ios":"levelo://app?vid=d5ef770d-9759-47e3-b3a5-7d2785ef76db"},"vehicle_type_id":"4","last_reported":1751667020,"current_range_meters":19200,"station_id":"","pricing_plan_id":"cebpf4jnsgd1na2vs0mg"},{"bike_id":"de82732e-0a39-4d40-b3cf-607f82f986f4","system_id":"levelo_inurba_marseille","lat":43.26886,"lon":5.36883,"is_reserved":false,"is_disabled":false,"rental_uris":{"android":"levelo://app?vid=de82732e-0a39-4d40-b3cf-607f82f986f4","ios":"levelo://app?vid=de82732e-0a39-4d40-b3cf-607f82f986f4"},"vehicle_type_id":"4","last_reported":1751667020,"current_range_meters":19200,"station_id":"","pricing_plan_id":"cebpf4jnsgd1na2vs0mg"},{"bike_id":"5b5ca915-19f5-4c5c-ba88-71fe4a9869eb","system_id":"levelo_inurba_marseille","lat":43.31714,"lon":5.37766,"is_reserved":false,"is_disabled":false,"rental_uris":{"android":"levelo://app?vid=5b5ca915-19f5-4c5c-ba88-71fe4a9869eb","ios":"levelo://app?vid=5b5ca915-19f5-4c5c-ba88-71fe4a9869eb"},"vehicle_type_id":"4","last_reported":1751667020,"current_range_meters":19200,"station_id":"ce4bgth2rcd13ifvqch0","pricing_plan_id":"cebpf4jnsgd1na2vs0mg"},{"bike_id":"2d4bb3a1-801d-486a-a963-9ec8f0a08a83","system_id":"levelo_inurba_marseille","lat":43.30322,"lon":5.40443,"is_reserved":false,"is_disabled":false,"rental_uris":{"android":"levelo://app?vid=2d4bb3a1-801d-486a-a963-9ec8f0a08a83","ios":"levelo://app?vid=2d4bb3a1-801d-486a-a963-9ec8f0a08a83"},"vehicle_type_id":"4","last_reported":1751667020,"current_range_meters":19200,"station_id":"ce4bh012rcd13ifvqd10","pricing_plan_id":"cebpf4jnsgd1na2vs0mg"},{"bike_id":"dcf2d579-abcb-4aef-a521-9e297e432f67","system_id":"levelo_inurba_marseille","lat":43.30651,"lon":5.40065,"is_reserved":false,"is_disabled":false,"rental_uris":{"android":"levelo://app?vid=dcf2d579-abcb-4aef-a521-9e297e432f67","ios":"levelo://app?vid=dcf2d579-abcb-4aef-a521-9e297e432f67"},"vehicle_type_id":"4","last_reported":1751667020,"current_range_meters":19200,"station_id":"ce4bh112rcd13ifvqda0","pricing_plan_id":"cebpf4jnsgd1na2vs0mg"},{"bike_id":"b0a42ca2-ba28-4e04-b2bc-0d8ffd7fe859","system_id":"levelo_inurba_marseille","lat":43.29532,"lon":5.39414,"is_reserved":false,"is_disabled":false,"rental_uris":{"android":"levelo://app?vid=b0a42ca2-ba28-4e04-b2bc-0d8ffd7fe859","ios":"levelo://app?vid=b0a42ca2-ba28-4e04-b2bc-0d8ffd7fe859"},"vehicle_type_id":"4","last_reported":1751667020,"current_range_meters":19200,"station_id":"ce4bh292rcd13ifvqdf0","pricing_plan_id":"cebpf4jnsgd1na2vs0mg"},{"bike_id":"98e49093-fa40-4d91-86a3-5bdddbdfcb47","system_id":"levelo_inurba_marseille","lat":43.2904,"lon":5.39966,"is_reserved":false,"is_disabled":false,"rental_uris":{"android":"levelo://app?vid=98e49093-fa40-4d91-86a3-5bdddbdfcb47","ios":"levelo://app?vid=98e49093-fa40-4d91-86a3-5bdddbdfcb47"},"vehicle_type_id":"4","last_reported":1751667020,"current_range_meters":19200,"station_id":"ce4bh392rcd13ifvqdm0","pricing_plan_id":"cebpf4jnsgd1na2vs0mg"},{"bike_id":"10e018ae-1e5c-4128-9ff4-cc3463577ed5","system_id":"levelo_inurba_marseille","lat":43.29262,"lon":5.38449,"is_reserved":false,"is_disabled":false,"rental_uris":{"android":"levelo://app?vid=10e018ae-1e5c-4128-9ff4-cc3463577ed5","ios":"levelo://app?vid=10e018ae-1e5c-4128-9ff4-cc3463577ed5"},"vehicle_type_id":"4","last_reported":1751667020,"current_range_meters":19200,"station_id":"ce4bh692rcd13ifvqea0","pricing_plan_id":"cebpf4jnsgd1na2vs0mg"},{"bike_id":"f1ead42c-9f68-438b-8d17-3c2f723fb6da","system_id":"levelo_inurba_marseille","lat":43.28119,"lon":5.37832,"is_reserved":false,"is_disabled":false,"rental_uris":{"android":"levelo://app?vid=f1ead42c-9f68-438b-8d17-3c2f723fb6da","ios":"levelo://app?vid=f1ead42c-9f68-438b-8d17-3c2f723fb6da"},"vehicle_type_id":"4","last_reported":1751667020,"current_range_meters":19200,"station_id":"ce4bha12rcd13ifvqee0","pricing_plan_id":"cebpf4jnsgd1na2vs0mg"},{"bike_id":"0193f3ca-1cbe-4220-8b10-68956a2b1f0c","system_id":"levelo_inurba_marseille","lat":43.26221,"lon":5.37463,"is_reserved":false,"is_disabled":false,"rental_uris":{"android":"levelo://app?vid=0193f3ca-1cbe-4220-8b10-68956a2b1f0c","ios":"levelo://app?vid=0193f3ca-1cbe-4220-8b10-68956a2b1f0c"},"vehicle_type_id":"4","last_reported":1751667020,"current_range_meters":19200,"station_id":"ce4bhgp2rcd13ifvqfc0","pricing_plan_id":"cebpf4jnsgd1na2vs0mg"},{"bike_id":"7d7ca329-d013-418c-84c4-2b0666103eeb","system_id":"levelo_inurba_marseille","lat":43.2986,"lon":5.4367,"is_reserved":false,"is_disabled":false,"rental_uris":{"android":"levelo://app?vid=7d7ca329-d013-418c-84c4-2b0666103eeb","ios":"levelo://app?vid=7d7ca329-d013-418c-84c4-2b0666103eeb"},"vehicle_type_id":"4","last_reported":1751667020,"current_range_meters":19200,"station_id":"ce4bhpp2rcd13ifvqhfg","pricing_plan_id":"cebpf4jnsgd1na2vs0mg"},