{"last_updated":1728932808,"ttl":60,"version":"2.2","data":{"bikes":[{"bike_id":"10530386-7ea2-4630-9cfd-fe14c55cdb58","system_id":"levelo_inurba_marseille","lat":43.31757,"lon":5.39019,"is_reserved":false,"is_disabled":false,"rental_uris":{"android":"levelo://app?vid=10530386-7ea2-4630-9cfd-fe14c55cdb58","ios":"levelo://app?vid=10530386-7ea2-4630-9cfd-fe14c55cdb58"},"vehicle_type_id":"4","last_reported":1728932808,"current_range_meters":10800,"station_id":"ce4bhqp2rcd13ifvqhng","pricing_plan_id":"cebpf4jnsgd1na2vs0mg"},{"bike_id":"0e00236d-6c78-40f2-aabc-967513e135d4","system_id":"levelo_inurba_marseille","lat":43.28701,"lon":5.37396,"is_reserved":false,"is_disabled":false,"rental_uris":{"android":"levelo://app?vid=0e00236d-6c78-40f2-aabc-967513e135d4","ios":"levelo://app?vid=0e00236d-6c78-40f2-aabc-967513e135d4"},"vehicle_type_id":"4","last_reported":1728932808,"current_range_meters":37600,"station_id":"ce4bh3p2rcd13ifvqdq0","pricing_plan_id":"cebpf4jnsgd1na2vs0mg"},{"bike_id":"cf4cabc2-1787-4d02-a606-03a61104119e","system_id":"levelo_inurba_marseille","lat":43.31328,"lon":5.39699,"is_reserved":false,"is_disabled":false,"rental_uris":{"android":"levelo://app?vid=cf4cabc2-1787-4d02-a606-03a61104119e","ios":"levelo://app?vid=cf4cabc2-1787-4d02-a606-03a61104119e"},"vehicle_type_id":"4","last_reported":1728932808,"current_range_meters":30800,"station_id":"ce4bgvp2rcd13ifvqcu0","pricing_plan_id":"cebpf4jnsgd1na2vs0mg"},{"bike_id":"ac788206-ab8f-4ef0-a827-047740674c33","system_id":"levelo_inurba_marseille","lat":43.31263,"lon":5.39438,"is_reserved":false,"is_disabled":false,"rental_uris":{"android":"levelo://app?vid=ac788206-ab8f-4ef0-a827-047740674c33","ios":"levelo://app?vid=ac788206-ab8f-4ef0-a827-047740674c33"},"vehicle_type_id":"4","last_reported":1728932808,"current_range_meters":21600,"station_id":"","pricing_plan_id":"cebpf4jnsgd1na2vs0mg"},{"bike_id":"98bb8a7d-c265-45fe-9175-dd6d46e536fa","system_id":"levelo_inurba_marseille","lat":43.29302,"lon":5.37462,"is_reserved":false,"is_disabled":false,"rental_uris":{"android":"levelo://app?vid=98bb8a7d-c265-45fe-9175-dd6d46e536fa","ios":"levelo://app?vid=98bb8a7d-c265-45fe-9175-dd6d46e536fa"},"vehicle_type_id":"4","last_reported":1728932808,"current_range_meters":34000,"station_id":"ce4bgi12rcd13ifvqb70","pricing_plan_id":"cebpf4jnsgd1na2vs0mg"},{"bike_id":"5e412de0-c175-41d4-9e01-bd8b62064c0c","system_id":"levelo_inurba_marseille","lat":43.27373,"lon":5.36259,"is_reserved":false,"is_disabled":false,"rental_uris":{"android":"levelo://app?vid=5e412de0-c175-41d4-9e01-bd8b62064c0c","ios":"levelo://app?vid=5e412de0-c175-41d4-9e01-bd8b62064c0c"},"vehicle_type_id":"4","last_reported":1728932808,"current_range_meters":21600,"station_id":"ce4bhbh2rcd13ifvqeo0","pricing_plan_id":"cebpf4jnsgd1na2vs0mg"},{"bike_id":"ab06f5b3-3c08-4bb2-ab1c-a3aa34c68d36","system_id":"levelo_inurba_marseille","lat":43.25093,"lon":5.39521,"is_reserved":false,"is_disabled":false,"rental_uris":{"android":"levelo://app?vid=ab06f5b3-3c08-4bb2-ab1c-a3aa34c68d36","ios":"levelo://app?vid=ab06f5b3-3c08-4bb2-ab1c-a3aa34c68d36"},"vehicle_type_id":"4","last_reported":1728932808,"current_range_meters":4400,"station_id":"ce4bhm12rcd13ifvqgkg","pricing_plan_id":"cebpf4jnsgd1na2vs0mg"},{"bike_id":"1882ab96-a027-42cb-9bbe-624cf6e9b368","system_id":"levelo_inurba_marseille","lat":43.296814,"lon":5.372883,"is_reserved":false,"is_disabled":false,"rental_uris":{"android":"levelo://app?vid=1882ab96-a027-42cb-9bbe-624cf6e9b368","ios":"levelo://app?vid=1882ab96-a027-42cb-9bbe-624cf6e9b368"},"vehicle_type_id":"4","last_reported":1728932808,"current_range_meters":20800,"station_id":"ce4bgk12rcd13ifvqbj0","pricing_plan_id":"cebpf4jnsgd1na2vs0mg"},{"bike_id":"6c769316-75e3-4eba-8bca-7dffbdb7e41c","system_id":"levelo_inurba_marseille","lat":43.28462,"lon":5.35899,"is_reserved":false,"is_disabled":false,"rental_uris":{"android":"levelo://app?vid=6c769316-75e3-4eba-8bca-7dffbdb7e41c","ios":"levelo://app?vid=6c769316-75e3-4eba-8bca-7dffbdb7e41c"},"vehicle_type_id":"4","last_reported":1728932808,"current_range_meters":38800,"station_id":"ce4bhah2rcd13ifvqei0","pricing_plan_id":"cebpf4jnsgd1na2vs0mg"},{"bike_id":"c6b204ad-6bb2-4d21-8a3c-73102bd85ca1","system_id":"levelo_inurba_marseille","lat":43.28719,"lon":5.37944,"is_reserved":false,"is_disabled":false,"rental_uris":{"android":"levelo://app?vid=c6b204ad-6bb2-4d21-8a3c-73102bd85ca1","ios":"levelo://app?vid=c6b204ad-6bb2-4d21-8a3c-73102bd85ca1"},"vehicle_type_id":"4","last_reported":1728932808,"current_range_meters":38800,"station_id":"ce4bh9p2rcd13ifvqec0","pricing_plan_id":"cebpf4jnsgd1na2vs0mg"},{"bike_id":"3cf5a3d5-252e-45dd-9bc5-16f0049b6608","system_id":"levelo_inurba_marseille","lat":43.23968,"lon":5.36621,"is_reserved":false,"is_disabled":false,"rental_uris":{"android":"levelo://app?vid=3cf5a3d5-252e-45dd-9bc5-16f0049b6608","ios":"levelo://app?vid=3cf5a3d5-252e-45dd-9bc5-16f0049b6608"},"vehicle_type_id":"4","last_reported":1728932808,"current_range_meters":8400,"station_id":"ce4bhi12rcd13ifvqfp0","pricing_plan_id":"cebpf4jnsgd1na2vs0mg"},{"bike_id":"23127c8b-541e-4f8a-9120-44992e9210eb","system_id":"levelo_inurba_marseille","lat":43.25863,"lon":5.399,"is_reserved":false,"is_disabled":false,"rental_uris":{"android":"levelo://app?vid=23127c8b-541e-4f8a-9120-44992e9210eb","ios":"levelo://app?vid=23127c8b-541e-4f8a-9120-44992e9210eb"},"vehicle_type_id":"4","last_reported":1728932808,"current_range_meters":15200,"station_id":"ce4bhl92rcd13ifvqghg","pricing_plan_id":"cebpf4jnsgd1na2vs0mg"},{"bike_id":"0e27d2a3-05c1-4ee1-8499-176b54a59476","system_id":"levelo_inurba_marseille","lat":43.29791,"lon":5.393428,"is_reserved":false,"is_disabled":false,"rental_uris":{"android":"levelo://app?vid=0e27d2a3-05c1-4ee1-8499-176b54a59476","ios":"levelo://app?vid=0e27d2a3-05c1-4ee1-8499-176b54a59476"},"vehicle_type_id":"4","last_reported":1728932808,"current_range_meters":38800,"station_id":"chh1huq6cuj3fo74tm60","pricing_plan_id":"cebpf4jnsgd1na2vs0mg"},{"bike_id":"a52395d7-de53-4a51-8c35-0d0bb92f92f9","system_id":"levelo_inurba_marseille","lat":43.29971,"lon":5.38496,"is_reserved":false,"is_disabled":false,"rental_uris":{"android":"levelo://app?vid=a52395d7-de53-4a51-8c35-0d0bb92f92f9","ios":"levelo://app?vid=a52395d7-de53-4a51-8c35-0d0bb92f92f9"},"vehicle_type_id":"4","last_reported":1728932808,"current_range_meters":38000,"station_id":"ce4bgj92rcd13ifvqbd0","pricing_plan_id":"cebpf4jnsgd1na2vs0mg"},{"bike_id":"6692caa7-712f-4211-8b98-6d47eb8d2b05","system_id":"levelo_inurba_marseille","lat":43.29176,"lon":5.37142,"is_reserved":false,"is_disabled":false,"rental_uris":{"android":"levelo://app?vid=6692caa7-712f-4211-8b98-6d47eb8d2b05","ios":"levelo://app?vid=6692caa7-712f-4211-8b98-6d47eb8d2b05"},"vehicle_type_id":"4","last_reported":1728932808,"current_range_meters":9600,"station_id":"ce4bha92rcd13ifvqeh0","pricing_plan_id":"cebpf4jnsgd1na2vs0mg"},{"bike_id":"758bd0a3-3085-46f3-bfff-87c0aaf6f640","system_id":"levelo_inurba_marseille","lat":43.30358,"lon":5.41878,"is_reserved":false,"is_disabled":false,"rental_uris":{"android":"levelo://app?vid=758bd0a3-3085-46f3-bfff-87c0aaf6f640","ios":"levelo://app?vid=758bd0a3-3085-46f3-bfff-87c0aaf6f640"},"vehicle_type_id":"4","last_reported":1728932808,"current_range_meters":35600,"station_id":"ce4bhop2rcd13ifvqh7g","pricing_plan_id":"cebpf4jnsgd1na2vs0mg"},{"bike_id":"4fb899fb-c7f7-4299-8856-d588065fcc96","system_id":"levelo_inurba_marseille","lat":43.31727,"lon":5.42401,"is_reserved":false,"is_disabled":false,"rental_uris":{"android":"levelo://app?vid=4fb899fb-c7f7-4299-8856-d588065fcc96","ios":"levelo://app?vid=4fb899fb-c7f7-4299-8856-d588065fcc96"},"vehicle_type_id":"4","last_reported":1728932808,"current_range_meters":38800,"station_id":"ce4bhp92rcd13ifvqhbg","pricing_plan_id":"cebpf4jnsgd1na2vs0mg"},{"bike_id":"047637f8-a263-4f72-aefa-96e184114504","system_id":"levelo_inurba_marseille","lat":43.32046,"lon":5.41545,"is_reserved":false,"is_disabled":false,"rental_uris":{"android":"levelo://app?vid=047637f8-a263-4f72-aefa-96e184114504","ios":"levelo://app?vid=047637f8-a263-4f72-aefa-96e184114504"},"vehicle_type_id":"4","last_reported":1728932808,"current_range_meters":6000,"station_id":"ce4bhq92rcd13ifvqhkg","pricing_plan_id":"cebpf4jnsgd1na2vs0mg"},{"bike_id":"dfe8030c-37d8-4b9c-a9e4-185e78aae511","system_id":"levelo_inurba_marseille","lat":43.31763,"lon":5.39015,"is_reserved":false,"is_disabled":false,"rental_uris":{"android":"levelo://app?vid=dfe8030c-37d8-4b9c-a9e4-185e78aae511","ios":"levelo://app?vid=dfe8030c-37d8-4b9c-a9e4-185e78aae511"},"vehicle_type_id":"4","last_reported":1728932808,"current_range_meters":38800,"station_id":"ce4bhqp2rcd13ifvqhng","pricing_plan_id":"cebpf4jnsgd1na2vs0mg"},{"bike_id":"009e1944-5320-46ff-a5bd-7f170a6cc59c","system_id":"levelo_inurba_marseille","lat":43.31076,"lon":5.38343,"is_reserved":false,"is_disabled":false,"rental_uris":{"android":"levelo://app?vid=009e1944-5320-46ff-a5bd-7f170a6cc59c","ios":"levelo://app?vid=009e1944-5320-46ff-a5bd-7f170a6cc59c"},"vehicle_type_id":"4","last_reported":1728932808,"current_range_meters":38800,"station_id":"ce4bgv92rcd13ifvqcr0","pricing_plan_id":"cebpf4jnsgd1na2vs0mg"},{"bike_id":"73f9a39c-7690-4438-b647-f6ccb95b7ed4","system_id":"levelo_inurba_marseille","lat":43.32482,"lon":5.36567,"is_reserved":false,"is_disabled":false,"rental_uris":{"android":"levelo://app?vid=73f9a39c-7690-4438-b647-f6ccb95b7ed4","ios":"levelo://app?vid=73f9a39c-7690-4438-b647-f6ccb95b7ed4"},"vehicle_type_id":"4","last_reported":1728932808,"current_range_meters":19600,"station_id":"ce4bhs12rcd13ifvqhvg","pricing_plan_id":"cebpf4jnsgd1na2vs0mg"},{"bike_id":"a550df0f-cd99-4007-8377-9b5d76bcbc86","system_id":"levelo_inurba_marseille","lat":43.28408,"lon":5.37516,"is_reserved":false,"is_disabled":false,"rental_uris":{"android":"levelo://app?vid=a550df0f-cd99-4007-8377-9b5d76bcbc86","ios":"levelo://app?vid=a550df0f-cd99-4007-8377-9b5d76bcbc86"},"vehicle_type_id":"4","last_reported":1728932808,"current_range_meters":37600,"station_id":"ce4bh412rcd13ifvqds0","pricing_plan_id":"cebpf4jnsgd1na2vs0mg"},{"bike_id":"0e232015-14e8-4bc2-a042-2e61e24734e0","system_id":"levelo_inurba_marseille","lat":43.285919,"lon":5.398077,"is_reserved":false,"is_disabled":false,"rental_uris":{"android":"levelo://app?vid=0e232015-14e8-4bc2-a042-2e61e24734e0","ios":"levelo://app?vid=0e232015-14e8-4bc2-a042-2e61e24734e0"},"vehicle_type_id":"4","last_reported":1728932808,"current_range_meters":36400,"station_id":"ce4bhh92rcd13ifvqfi0","pricing_plan_id":"cebpf4jnsgd1na2vs0mg"},{"bike_id":"2023e189-93eb-415b-8125-a50a06418b8a","system_id":"levelo_inurba_marseille","lat":43.28611,"lon":5.37068,"is_reserved":false,"is_disabled":false,"rental_uris":{"android":"levelo://app?vid=2023e189-93eb-415b-8125-a50a06418b8a","ios":"levelo://app?vid=2023e189-93eb-415b-8125-a50a06418b8a"},"vehicle_type_id":"4","last_reported":1728932808,"current_range_meters":4000,"station_id":"ce4bht12rcd13ifvqi60","pricing_plan_id":"cebpf4jnsgd1na2vs0mg"},{"bike_id":"1c9343e4-7b78-402e-b1fe-6599c269887e","system_id":"levelo_inurba_marseille","lat":43.314515,"lon":5.37384,"is_reserved":false,"is_disabled":false,"rental_uris":{"android":"levelo://app?vid=1c9343e4-7b78-402e-b1fe-6599c269887e","ios":"levelo://app?vid=1c9343e4-7b78-402e-b1fe-6599c269887e"},"vehicle_type_id":"4","last_reported":1728932808,"current_range_meters":26800,"station_id":"","pricing_plan_id":"cebpf4jnsgd1na2vs0mg"},{"bike_id":"6977f940-8487-45db-91a9-6d0509903f9a","system_id":"levelo_inurba_marseille","lat":43.28944,"lon":5.36394,"is_reserved":false,"is_disabled":false,"rental_uris":{"android":"levelo://app?vid=6977f940-8487-45db-91a9-6d0509903f9a","ios":"levelo://app?vid=6977f940-8487-45db-91a9-6d0509903f9a"},"vehicle_type_id":"4","last_reported":1728932808,"current_range_meters":12800,"station_id":"ce4bhc92rcd13ifvqetg","pricing_plan_id":"cebpf4jnsgd1na2vs0mg"},{"bike_id":"2c528c6a-db41-4b69-ba99-725aa39a41ff","system_id":"levelo_inurba_marseille","lat":43.30806,"lon":5.43526,"is_reserved":false,"is_disabled":false,"rental_uris":{"android":"levelo://app?vid=2c528c6a-db41-4b69-ba99-725aa39a41ff","ios":"levelo://app?vid=2c528c6a-db41-4b69-ba99-725aa39a41ff"},"vehicle_type_id":"4","last_reported":1728932808,"current_range_meters":4800,"station_id":"ce4bhph2rcd13ifvqheg","pricing_plan_id":"cebpf4jnsgd1na2vs0mg"},{"bike_id":"a1fadbf3-9314-4264-9d24-d4ec99f0e426","system_id":"levelo_inurba_marseille","lat":43.29028,"lon":5.38641,"is_reserved":false,"is_disabled":false,"rental_uris":{"android":"levelo://app?vid=a1fadbf3-9314-4264-9d24-d4ec99f0e426","ios":"levelo://app?vid=a1fadbf3-9314-4264-9d24-d4ec99f0e426"},"vehicle_type_id":"4","last_reported":1728932808,"current_range_meters":3200,"station_id":"ce4bh4p2rcd13ifvqe0g","pricing_plan_id":"cebpf4jnsgd1na2vs0mg"},{"bike_id":"b35fcd0d-0b0b-4c33-b438-02cf58ed0ee3","system_id":"levelo_inurba_marseille","lat":43.27566,"lon":5.38419,"is_reserved":false,"is_disabled":false,"rental_uris":{"android":"levelo://app?vid=b35fcd0d-0b0b-4c33-b438-02cf58ed0ee3","ios":"levelo://app?vid=b35fcd0d-0b0b-4c33-b438-02cf58ed0ee3"},"vehicle_type_id":"4","last_reported":1728932808,"current_range_meters":37600,"station_id":"ce4bhh92rcd13ifvqfi0","pricing_plan_id":"cebpf4jnsgd1na2vs0mg"},{"bike_id":"d25bcc20-4737-4952-acd4-ed8f651c6541","system_id":"levelo_inurba_marseille","lat":43.33023,"lon":5.3905,"is_reserved":false,"is_disabled":false,"rental_uris":{"android":"levelo://app?vid=d25bcc20-4737-4952-acd4-ed8f651c6541","ios":"levelo://app?vid=d25bcc20-4737-4952-acd4-ed8f651c6541"},"vehicle_type_id":"4","last_reported":1728932808,"current_range_meters":38800,"station_id":"ce4bhr92rcd13ifvqhrg","pricing_plan_id":"cebpf4jnsgd1na2vs0mg"},{"bike_id":"0aa0a823-4192-4039-a41f-8b7be20c611d","system_id":"levelo_inurba_marseille","lat":43.3151,"lon":5.37304,"is_reserved":false,"is_disabled":false,"rental_uris":{"android":"levelo://app?vid=0aa0a823-4192-4039-a41f-8b7be20c611d","ios":"levelo://app?vid=0aa0a823-4192-4039-a41f-8b7be20c611d"},"vehicle_type_id":"4","last_reported":1728932808,"current_range_meters":11200,"station_id":"ce4bgt12rcd13ifvqcd0","pricing_plan_id":"cebpf4jnsgd1na2vs0mg"},{"bike_id":"5fe20323-0016-4ce7-9d5f-2acc9cf04e86","system_id":"levelo_inurba_marseille","lat":43.31745,"lon":5.3718,"is_reserved":false,"is_disabled":false,"rental_uris":{"android":"levelo://app?vid=5fe20323-0016-4ce7-9d5f-2acc9cf04e86","ios":"levelo://app?vid=5fe20323-0016-4ce7-9d5f-2acc9cf04e86"},"vehicle_type_id":"4","last_reported":1728932808,"current_range_meters":20800,"station_id":"","pricing_plan_id":"cebpf4jnsgd1na2vs0mg"},{"bike_id":"2b85a6e0-def7-4a19-ab1f-dffd44eebd82","system_id":"levelo_inurba_marseille","lat":43.32365,"lon":5.38884,"is_reserved":false,"is_disabled":false,"rental_uris":{"android":"levelo://app?vid=2b85a6e0-def7-4a19-ab1f-dffd44eebd82","ios":"levelo://app?vid=2b85a6e0-def7-4a19-ab1f-dffd44eebd82"},"vehicle_type_id":"4","last_reported":1728932808,"current_range_meters":5600,"station_id":"ce4bhqp2rcd13ifvqhog","pricing_plan_id":"cebpf4jnsgd1na2vs0mg"},{"bike_id":"811759de-7405-429c-8d49-29bb7371b392","system_id":"levelo_inurba_marseille","lat":43.302155,"lon":5.394669,"is_reserved":false,"is_disabled":false,"rental_uris":{"android":"levelo://app?vid=811759de-7405-429c-8d49-29bb7371b392","ios":"levelo://app?vid=811759de-7405-429c-8d49-29bb7371b392"},"vehicle_type_id":"4","last_reported":1728932808,"current_range_meters":3200,"station_id":"ce4bh0p2rcd13ifvqd70","pricing_plan_id":"cebpf4jnsgd1na2vs0mg"},{"bike_id":"9212eb05-896b-452a-8023-968a3a350064","system_id":"levelo_inurba_marseille","lat":43.26806,"lon":5.40263,"is_reserved":false,"is_disabled":false,"rental_uris":{"android":"levelo://app?vid=9212eb05-896b-452a-8023-968a3a350064","ios":"levelo://app?vid=9212eb05-896b-452a-8023-968a3a350064"},"vehicle_type_id":"4","last_reported":1728932808,"current_range_meters":4800,"station_id":"ce501612rcd8frsf0b60","pricing_plan_id":"cebpf4jnsgd1na2vs0mg"},{"bike_id":"02d20c80-1832-49a8-b20c-d886b909e3b2","system_id":"levelo_inurba_marseille","lat":43.29257,"lon":5.40913,"is_reserved":false,"is_disabled":false,"rental_uris":{"android":"levelo://app?vid=02d20c80-1832-49a8-b20c-d886b909e3b2","ios":"levelo://app?vid=02d20c80-1832-49a8-b20c-d886b909e3b2"},"vehicle_type_id":"4","last_reported":1728932808,"current_range_meters":36000,"station_id":"ce4bh192rcd13ifvqdc0","pricing_plan_id":"cebpf4jnsgd1na2vs0mg"},{"bike_id":"1eb0d291-c980-43c3-897c-b678fe3f7bcf","system_id":"levelo_inurba_marseille","lat":43.32343,"lon":5.40624,"is_reserved":false,"is_disabled":false,"rental_uris":{"android":"levelo://app?vid=1eb0d291-c980-43c3-897c-b678fe3f7bcf","ios":"levelo://app?vid=1eb0d291-c980-43c3-897c-b678fe3f7bcf"},"vehicle_type_id":"4","last_reported":1728932808,"current_range_meters":34000,"station_id":"ce4bhq92rcd13ifvqhjg","pricing_plan_id":"cebpf4jnsgd1na2vs0mg"},{"bike_id":"16108f92-6bb6-4625-8e86-043bb5e3efc3","system_id":"levelo_inurba_marseille","lat":43.336,"lon":5.41036,"is_reserved":false,"is_disabled":false,"rental_uris":{"android":"levelo://app?vid=16108f92-6bb6-4625-8e86-043bb5e3efc3","ios":"levelo://app?vid=16108f92-6bb6-4625-8e86-043bb5e3efc3"},"vehicle_type_id":"4","last_reported":1728932808,"current_range_meters":3600,"station_id":"ce4bhqh2rcd13ifvqhmg","pricing_plan_id":"cebpf4jnsgd1na2vs0mg"},{"bike_id":"38f8e82f-b32d-4209-9f63-50ee9fadf9e5","system_id":"levelo_inurba_marseille","lat":43.27073,"lon":5.42284,"is_reserved":false,"is_disabled":false,"rental_uris":{"android":"levelo://app?vid=38f8e82f-b32d-4209-9f63-50ee9fadf9e5","ios":"levelo://app?vid=38f8e82f-b32d-4209-9f63-50ee9fadf9e5"},"vehicle_type_id":"4","last_reported":1728932808,"current_range_meters":11600,"station_id":"ce4bhk92rcd13ifvqgb0","pricing_plan_id":"cebpf4jnsgd1na2vs0mg"},{"bike_id":"06841b70-b5e4-460e-841a-12ab90e231d7","system_id":"levelo_inurba_marseille","lat":43.28716,"lon":5.37943,"is_reserved":false,"is_disabled":false,"rental_uris":{"android":"levelo://app?vid=06841b70-b5e4-460e-841a-12ab90e231d7","ios":"levelo://app?vid=06841b70-b5e4-460e-841a-12ab90e231d7"},"vehicle_type_id":"4","last_reported":1728932808,"current_range_meters":7200,"station_id":"ce4bh9p2rcd13ifvqec0","pricing_plan_id":"cebpf4jnsgd1na2vs0mg"},{"bike_id":"51a43f96-867e-4ab9-8ec5-999842e38d95","system_id":"levelo_inurba_marseille","lat":43.31078,"lon":5.40087,"is_reserved":false,"is_disabled":false,"rental_uris":{"android":"levelo://app?vid=51a43f96-867e-4ab9-8ec5-999842e38d95","ios":"levelo://app?vid=51a43f96-867e-4ab9-8ec5-999842e38d95"},"vehicle_type_id":"4","last_reported":1728932808,"current_range_meters":24400,"station_id":"","pricing_plan_id":"cebpf4jnsgd1na2vs0mg"},{"bike_id":"27521189-a10b-488a-82b8-973812fa95e1","system_id":"levelo_inurba_marseille","lat":43.32477,"lon":5.36581,"is_reserved":false,"is_disabled":false,"rental_uris":{"android":"levelo://app?vid=27521189-a10b-488a-82b8-973812fa95e1","ios":"levelo://app?vid=27521189-a10b-488a-82b8-973812fa95e1"},"vehicle_type_id":"4","last_reported":1728932808,"current_range_meters":38800,"station_id":"ce4bhs12rcd13ifvqhvg","pricing_plan_id":"cebpf4jnsgd1na2vs0mg"},{"bike_id":"a22a8a35-b4ab-47e4-804c-38eb7a985434","system_id":"levelo_inurba_marseille","lat":43.29518,"lon":5.39416,"is_reserved":false,"is_disabled":false,"rental_uris":{"android":"levelo://app?vid=a22a8a35-b4ab-47e4-804c-38eb7a985434","ios":"levelo://app?vid=a22a8a35-b4ab-47e4-804c-38eb7a985434"},"vehicle_type_id":"4","last_reported":1728932808,"current_range_meters":6800,"station_id":"ce4bh292rcd13ifvqdf0","pricing_plan_id":"cebpf4jnsgd1na2vs0mg"},{"bike_id":"e581f6d3-14ea-4c5b-a54e-de5866a1660a","system_id":"levelo_inurba_marseille","lat":43.28724,"lon":5.37941,"is_reserved":false,"is_disabled":false,"rental_uris":{"android":"levelo://app?vid=e581f6d3-14ea-4c5b-a54e-de5866a1660a","ios":"levelo://app?vid=e581f6d3-14ea-4c5b-a54e-de5866a1660a"},"vehicle_type_id":"4","last_reported":1728932808,"current_range_meters":2800,"station_id":"ce4bh9p2rcd13ifvqec0","pricing_plan_id":"cebpf4jnsgd1na2vs0mg"},{"bike_id":"340002eb-f659-433d-885b-50b16d2bf94c","system_id":"levelo_inurba_marseille","lat":43.28616,"lon":5.3511,"is_reserved":false,"is_disabled":false,"rental_uris":{"android":"levelo://app?vid=340002eb-f659-433d-885b-50b16d2bf94c","ios":"levelo://app?vid=340002eb-f659-433d-885b-50b16d2bf94c"},"vehicle_type_id":"4","last_reported":1728932808,"current_range_meters":38800,"station_id":"ce4bhch2rcd13ifvqeug","pricing_plan_id":"cebpf4jnsgd1na2vs0mg"},{"bike_id":"ec60b8aa-794d-41bc-b6da-9d6f8437a1a8","system_id":"levelo_inurba_marseille","lat":43.28036,"lon":5.36946,"is_reserved":false,"is_disabled":false,"rental_uris":{"android":"levelo://app?vid=ec60b8aa-794d-41bc-b6da-9d6f8437a1a8","ios":"levelo://app?vid=ec60b8aa-794d-41bc-b6da-9d6f8437a1a8"},"vehicle_type_id":"4","last_reported":1728932808,"current_range_meters":2000,"station_id":"ce4bha12rcd13ifvqef0","pricing_plan_id":"cebpf4jnsgd1na2vs0mg"},{"bike_id":"09a2e575-ef21-47f1-afdd-66b4617de5a0","system_id":"levelo_inurba_marseille","lat":43.28081,"lon":5.39657,"is_reserved":false,"is_disabled":false,"rental_uris":{"android":"levelo://app?vid=09a2e575-ef21-47f1-afdd-66b4617de5a0","ios":"levelo://app?vid=09a2e575-ef21-47f1-afdd-66b4617de5a0"},"vehicle_type_id":"4","last_reported":1728932808,"current_range_meters":38800,"station_id":"ce4bho12rcd13ifvqh2g","pricing_plan_id":"cebpf4jnsgd1na2vs0mg"},{"bike_id":"2f61d787-84ba-4c1e-9bc2-de1c2588353c","system_id":"levelo_inurba_marseille","lat":43.29446,"lon":5.39745,"is_reserved":false,"is_disabled":false,"rental_uris":{"android":"levelo://app?vid=2f61d787-84ba-4c1e-9bc2-de1c2588353c","ios":"levelo://app?vid=2f61d787-84ba-4c1e-9bc2-de1c2588353c"},"vehicle_type_id":"4","last_reported":1728932808,"current_range_meters":19200,"station_id":"ce4bh3h2rcd13ifvqdo0","pricing_plan_id":"cebpf4jnsgd1na2vs0mg"},{"bike_id":"a1d435ad-1f3c-4d6c-9324-8976bf230afc","system_id":"levelo_inurba_marseille","lat":43.30419,"lon":5.39743,"is_reserved":false,"is_disabled":false,"rental_uris":{"android":"levelo://app?vid=a1d435ad-1f3c-4d6c-9324-8976bf230afc","ios":"levelo://app?vid=a1d435ad-1f3c-4d6c-9324-8976bf230afc"},"vehicle_type_id":"4","last_reported":1728932808,"current_range_meters":12000,"station_id":"ce4bh092rcd13ifvqd20","pricing_plan_id":"cebpf4jnsgd1na2vs0mg"},{"bike_id":"1a7d8d0d-0a41-4396-b7da-19b17f9f5f5c","system_id":"levelo_inurba_marseille","lat":43.28439,"lon":5.39179,"is_reserved":false,"is_disabled":false,"rental_uris":{"android":"levelo://app?vid=1a7d8d0d-0a41-4396-b7da-19b17f9f5f5c","ios":"levelo://app?vid=1a7d8d0d-0a41-4396-b7da-19b17f9f5f5c"},"vehicle_type_id":"4","last_reported":1728932808,"current_range_meters":8800,"station_id":"ce4bhoh2rcd13ifvqh5g","pricing_plan_id":"cebpf4jnsgd1na2vs0mg"},{"bike_id":"4482dbd3-0d31-4b43-bbd3-5cfbb130291d","system_id":"levelo_inurba_marseille","lat":43.231869,"lon":5.355434,"is_reserved":false,"is_disabled":false,"rental_uris":{"android":"levelo://app?vid=4482dbd3-0d31-4b43-bbd3-5cfbb130291d","ios":"levelo://app?vid=4482dbd3-0d31-4b43-bbd3-5cfbb130291d"},"vehicle_type_id":"4","last_reported":1728932808,"current_range_meters":4000,"station_id":"ce4bhu92rcd13ifvqi70","pricing_plan_id":"cebpf4jnsgd1na2vs0mg"},{"bike_id":"c3d7c0eb-3d86-4cb2-9661-09e5ae2b8029","system_id":"levelo_inurba_marseille","lat":43.27911,"lon":5.38013,"is_reserved":false,"is_disabled":false,"rental_uris":{"android":"levelo://app?vid=c3d7c0eb-3d86-4cb2-9661-09e5ae2b8029","ios":"levelo://app?vid=c3d7c0eb-3d86-4cb2-9661-09e5ae2b8029"},"vehicle_type_id":"4","last_reported":1728932808,"current_range_meters":8000,"station_id":"ce4bhf92rcd13ifvqf50","pricing_plan_id":"cebpf4jnsgd1na2vs0mg"},{"bike_id":"9c8cb654-7f8a-4a5f-a683-e38679e192c9","system_id":"levelo_inurba_marseille","lat":43.32661,"lon":5.40992,"is_reserved":false,"is_disabled":false,"rental_uris":{"android":"levelo://app?vid=9c8cb654-7f8a-4a5f-a683-e38679e192c9","ios":"levelo://app?vid=9c8cb654-7f8a-4a5f-a683-e38679e192c9"},"vehicle_type_id":"4","last_reported":1728932808,"current_range_meters":2800,"station_id":"ce4bhpp2rcd13ifvqhgg","pricing_plan_id":"cebpf4jnsgd1na2vs0mg"},{"bike_id":"dbaf8835-7f44-4909-87a4-bceca8ad21af","system_id":"levelo_inurba_marseille","lat":43.26493,"lon":5.39549,"is_reserved":false,"is_disabled":false,"rental_uris":{"android":"levelo://app?vid=dbaf8835-7f44-4909-87a4-bceca8ad21af","ios":"levelo://app?vid=dbaf8835-7f44-4909-87a4-bceca8ad21af"},"vehicle_type_id":"4","last_reported":1728932808,"current_range_meters":32400,"station_id":"ce4bhi12rcd13ifvqfq0","pricing_plan_id":"cebpf4jnsgd1na2vs0mg"},{"bike_id":"7788dc4b-4f54-41ed-a1d3-a1984d58b388","system_id":"levelo_inurba_marseille","lat":43.28617,"lon":5.35106,"is_reserved":false,"is_disabled":false,"rental_uris":{"android":"levelo://app?vid=7788dc4b-4f54-41ed-a1d3-a1984d58b388","ios":"levelo://app?vid=7788dc4b-4f54-41ed-a1d3-a1984d58b388"},"vehicle_type_id":"4","last_reported":1728932808,"current_range_meters":38800,"station_id":"ce4bhch2rcd13ifvqeug","pricing_plan_id":"cebpf4jnsgd1na2vs0mg"},{"bike_id":"e9aec03d-7bc0-4b19-a202-c7f126195fe4","system_id":"levelo_inurba_marseille","lat":43.32044,"lon":5.41557,"is_reserved":false,"is_disabled":false,"rental_uris":{"android":"levelo://app?vid=e9aec03d-7bc0-4b19-a202-c7f126195fe4","ios":"levelo://app?vid=e9aec03d-7bc0-4b19-a202-c7f126195fe4"},"vehicle_type_id":"4","last_reported":1728932808,"current_range_meters":14800,"station_id":"ce4bhq92rcd13ifvqhkg","pricing_plan_id":"cebpf4jnsgd1na2vs0mg"},{"bike_id":"b178b062-35cd-4f92-91db-f4ae171fe0ea","system_id":"levelo_inurba_marseille","lat":43.292851,"lon":5.368404,"is_reserved":false,"is_disabled":false,"rental_uris":{"android":"levelo://app?vid=b178b062-35cd-4f92-91db-f4ae171fe0ea","ios":"levelo://app?vid=b178b062-35cd-4f92-91db-f4ae171fe0ea"},"vehicle_type_id":"4","last_reported":1728932808,"current_range_meters":13600,"station_id":"","pricing_plan_id":"cebpf4jnsgd1na2vs0mg"},{"bike_id":"08d16f57-f2f2-4c6d-b4f6-a5b644d8198d","system_id":"levelo_inurba_marseille","lat":43.27905,"lon":5.38003,"is_reserved":false,"is_disabled":false,"rental_uris":{"android":"levelo://app?vid=08d16f57-f2f2-4c6d-b4f6-a5b644d8198d","ios":"levelo://app?vid=08d16f57-f2f2-4c6d-b4f6-a5b644d8198d"},"vehicle_type_id":"4","last_reported":1728932808,"current_range_meters":20800,"station_id":"ce4bhf92rcd13ifvqf50","pricing_plan_id":"cebpf4jnsgd1na2vs0mg"},{"bike_id":"b17bd6a0-4c14-4c8c-96d0-fdc1bec84ba5","system_id":"levelo_inurba_marseille","lat":43.31071,"lon":5.38354,"is_reserved":false,"is_disabled":false,"rental_uris":{"android":"levelo://app?vid=b17bd6a0-4c14-4c8c-96d0-fdc1bec84ba5","ios":"levelo://app?vid=b17bd6a0-4c14-4c8c-96d0-fdc1bec84ba5"},"vehicle_type_id":"4","last_reported":1728932808,"current_range_meters":12000,"station_id":"ce4bgv92rcd13ifvqcr0","pricing_plan_id":"cebpf4jnsgd1na2vs0mg"},{"bike_id":"a0004b86-0108-4a59-8420-8474f739e195","system_id":"levelo_inurba_marseille","lat":43.31765,"lon":5.39015,"is_reserved":false,"is_disabled":false,"rental_uris":{"android":"levelo://app?vid=a0004b86-0108-4a59-8420-8474f739e195","ios":"levelo://app?vid=a0004b86-0108-4a59-8420-8474f739e195"},"vehicle_type_id":"4","last_reported":1728932808,"current_range_meters":38800,"station_id":"ce4bhqp2rcd13ifvqhng","pricing_plan_id":"cebpf4jnsgd1na2vs0mg"},{"bike_id":"c0670d96-b06e-446b-a07e-6b5eeebc59d7","system_id":"levelo_inurba_marseille","lat":43.274948,"lon":5.424466,"is_reserved":false,"is_disabled":false,"rental_uris":{"android":"levelo://app?vid=c0670d96-b06e-446b-a07e-6b5eeebc59d7","ios":"levelo://app?vid=c0670d96-b06e-446b-a07e-6b5eeebc59d7"},"vehicle_type_id":"4","last_reported":1728932808,"current_range_meters":15200,"station_id":"ce4bhn92rcd13ifvqgrg","pricing_plan_id":"cebpf4jnsgd1na2vs0mg"},{"bike_id":"97bbc13f-a053-46dc-98d3-f4706df291f5","system_id":"levelo_inurba_marseille","lat":43.30961,"lon":5.39028,"is_reserved":false,"is_disabled":false,"rental_uris":{"android":"levelo://app?vid=97bbc13f-a053-46dc-98d3-f4706df291f5","ios":"levelo://app?vid=97bbc13f-a053-46dc-98d3-f4706df291f5"},"vehicle_type_id":"4","last_reported":1728932808,"current_range_meters":38400,"station_id":"ce4bgup2rcd13ifvqco0","pricing_plan_id":"cebpf4jnsgd1na2vs0mg"},{"bike_id":"a0d3d324-fa7e-4417-aee7-85012ecab44e","system_id":"levelo_inurba_marseille","lat":43.34234,"lon":5.44565,"is_reserved":false,"is_disabled":false,"rental_uris":{"android":"levelo://app?vid=a0d3d324-fa7e-4417-aee7-85012ecab44e","ios":"levelo://app?vid=a0d3d324-fa7e-4417-aee7-85012ecab44e"},"vehicle_type_id":"4","last_reported":1728932808,"current_range_meters":27200,"station_id":"","pricing_plan_id":"cebpf4jnsgd1na2vs0mg"},{"bike_id":"09bbc708-be79-4d39-8f32-e878cd7a279a","system_id":"levelo_inurba_marseille","lat":43.28617,"lon":5.35102,"is_reserved":false,"is_disabled":false,"rental_uris":{"android":"levelo://app?vid=09bbc708-be79-4d39-8f32-e878cd7a279a","ios":"levelo://app?vid=09bbc708-be79-4d39-8f32-e878cd7a279a"},"vehicle_type_id":"4","last_reported":1728932808,"current_range_meters":8400,"station_id":"ce4bhch2rcd13ifvqeug","pricing_plan_id":"cebpf4jnsgd1na2vs0mg"},{"bike_id":"3ce1676f-138f-47b5-8dee-b6766ddcbd9d","system_id":"levelo_inurba_marseille","lat":43.28923,"lon":5.38391,"is_reserved":false,"is_disabled":false,"rental_uris":{"android":"levelo://app?vid=3ce1676f-138f-47b5-8dee-b6766ddcbd9d","ios":"levelo://app?vid=3ce1676f-138f-47b5-8dee-b6766ddcbd9d"},"vehicle_type_id":"4","last_reported":1728932808,"current_range_meters":12000,"station_id":"ce4bh612rcd13ifvqe6g","pricing_plan_id":"cebpf4jnsgd1na2vs0mg"},{"bike_id":"032aa5e5-fcec-4e5c-80a4-47f84e70e8a8","system_id":"levelo_inurba_marseille","lat":43.27669,"lon":5.38904,"is_reserved":false,"is_disabled":false,"rental_uris":{"android":"levelo://app?vid=032aa5e5-fcec-4e5c-80a4-47f84e70e8a8","ios":"levelo://app?vid=032aa5e5-fcec-4e5c-80a4-47f84e70e8a8"},"vehicle_type_id":"4","last_reported":1728932808,"current_range_meters":30000,"station_id":"ce4bhi12rcd13ifvqfo0","pricing_plan_id":"cebpf4jnsgd1na2vs0mg"},{"bike_id":"6a6e8901-7cf8-4ec1-b6aa-3e523137d174","system_id":"levelo_inurba_marseille","lat":43.31185,"lon":5.3871,"is_reserved":false,"is_disabled":false,"rental_uris":{"android":"levelo://app?vid=6a6e8901-7cf8-4ec1-b6aa-3e523137d174","ios":"levelo://app?vid=6a6e8901-7cf8-4ec1-b6aa-3e523137d174"},"vehicle_type_id":"4","last_reported":1728932808,"current_range_meters":9200,"station_id":"ce4bgv12rcd13ifvqcp0","pricing_plan_id":"cebpf4jnsgd1na2vs0mg"},{"bike_id":"6df5f6de-4b51-4ef4-a2a9-7a49ebe0dedf","system_id":"levelo_inurba_marseille","lat":43.288208,"lon":5.392766,"is_reserved":false,"is_disabled":false,"rental_uris":{"android":"levelo://app?vid=6df5f6de-4b51-4ef4-a2a9-7a49ebe0dedf","ios":"levelo://app?vid=6df5f6de-4b51-4ef4-a2a9-7a49ebe0dedf"},"vehicle_type_id":"4","last_reported":1728932808,"current_range_meters":25600,"station_id":"ce4bh2p2rcd13ifvqdi0","pricing_plan_id":"cebpf4jnsgd1na2vs0mg"},{"bike_id":"d3e7b90d-b6d9-4822-af46-f8fcdffef043","system_id":"levelo_inurba_marseille","lat":43.2953,"lon":5.39412,"is_reserved":false,"is_disabled":false,"rental_uris":{"android":"levelo://app?vid=d3e7b90d-b6d9-4822-af46-f8fcdffef043","ios":"levelo://app?vid=d3e7b90d-b6d9-4822-af46-f8fcdffef043"},"vehicle_type_id":"4","last_reported":1728932808,"current_range_meters":20400,"station_id":"ce4bh292rcd13ifvqdf0","pricing_plan_id":"cebpf4jnsgd1na2vs0mg"},{"bike_id":"9c8a6115-65f0-475b-b540-9766d20f1b14","system_id":"levelo_inurba_marseille","lat":43.27974,"lon":5.38736,"is_reserved":false,"is_disabled":false,"rental_uris":{"android":"levelo://app?vid=9c8a6115-65f0-475b-b540-9766d20f1b14","ios":"levelo://app?vid=9c8a6115-65f0-475b-b540-9766d20f1b14"},"vehicle_type_id":"4","last_reported":1728932808,"current_range_meters":11200,"station_id":"ce4bhg12rcd13ifvqf80","pricing_plan_id":"cebpf4jnsgd1na2vs0mg"},{"bike_id":"df818b9f-1228-4637-b219-e44497a55caa","system_id":"levelo_inurba_marseille","lat":43.29418,"lon":5.3861,"is_reserved":false,"is_disabled":false,"rental_uris":{"android":"levelo://app?vid=df818b9f-1228-4637-b219-e44497a55caa","ios":"levelo://app?vid=df818b9f-1228-4637-b219-e44497a55caa"},"vehicle_type_id":"4","last_reported":1728932808,"current_range_meters":38000,"station_id":"ce4bh2h2rcd13ifvqdh0","pricing_plan_id":"cebpf4jnsgd1na2vs0mg"},{"bike_id":"3afb0681-8fbd-47fe-8917-e12bc3cf488b","system_id":"levelo_inurba_marseille","lat":43.3372,"lon":5.39179,"is_reserved":false,"is_disabled":false,"rental_uris":{"android":"levelo://app?vid=3afb0681-8fbd-47fe-8917-e12bc3cf488b","ios":"levelo://app?vid=3afb0681-8fbd-47fe-8917-e12bc3cf488b"},"vehicle_type_id":"4","last_reported":1728932808,"current_range_meters":38800,"station_id":"ce4bhr92rcd13ifvqhsg","pricing_plan_id":"cebpf4jnsgd1na2vs0mg"},{"bike_id":"f25b9087-5c61-492d-8a81-c981d671dc2b","system_id":"levelo_inurba_marseille","lat":43.28281,"lon":5.35075,"is_reserved":false,"is_disabled":false,"rental_uris":{"android":"levelo://app?vid=f25b9087-5c61-492d-8a81-c981d671dc2b","ios":"levelo://app?vid=f25b9087-5c61-492d-8a81-c981d671dc2b"},"vehicle_type_id":"4","last_reported":1728932808,"current_range_meters":10800,"station_id":"ce4bhbp2rcd13ifvqerg","pricing_plan_id":"cebpf4jnsgd1na2vs0mg"},{"bike_id":"a732941c-85bc-42aa-bd93-04ae552d110c","system_id":"levelo_inurba_marseille","lat":43.30802,"lon":5.43523,"is_reserved":false,"is_disabled":false,"rental_uris":{"android":"levelo://app?vid=a732941c-85bc-42aa-bd93-04ae552d110c","ios":"levelo://app?vid=a732941c-85bc-42aa-bd93-04ae552d110c"},"vehicle_type_id":"4","last_reported":1728932808,"current_range_meters":8000,"station_id":"ce4bhph2rcd13ifvqheg","pricing_plan_id":"cebpf4jnsgd1na2vs0mg"},{"bike_id":"0aa24254-1147-4847-8b08-06033f0bb6c7","system_id":"levelo_inurba_marseille","lat":43.33023,"lon":5.39043,"is_reserved":false,"is_disabled":false,"rental_uris":{"android":"levelo://app?vid=0aa24254-1147-4847-8b08-06033f0bb6c7","ios":"levelo://app?vid=0aa24254-1147-4847-8b08-06033f0bb6c7"},"vehicle_type_id":"4","last_reported":1728932808,"current_range_meters":28400,"station_id":"ce4bhr92rcd13ifvqhrg","pricing_plan_id":"cebpf4jnsgd1na2vs0mg"},{"bike_id":"aabc3088-8e48-40fe-982e-c5a87a19e803","system_id":"levelo_inurba_marseille","lat":43.295132,"lon":5.395782,"is_reserved":false,"is_disabled":false,"rental_uris":{"android":"levelo://app?vid=aabc3088-8e48-40fe-982e-c5a87a19e803","ios":"levelo://app?vid=aabc3088-8e48-40fe-982e-c5a87a19e803"},"vehicle_type_id":"4","last_reported":1728932808,"current_range_meters":6800,"station_id":"ce4bh292rcd13ifvqdf0","pricing_plan_id":"cebpf4jnsgd1na2vs0mg"},{"bike_id":"7ea836e0-c044-443d-900b-e4489bff7747","system_id":"levelo_inurba_marseille","lat":43.31489,"lon":5.37267,"is_reserved":false,"is_disabled":false,"rental_uris":{"android":"levelo://app?vid=7ea836e0-c044-443d-900b-e4489bff7747","ios":"levelo://app?vid=7ea836e0-c044-443d-900b-e4489bff7747"},"vehicle_type_id":"4","last_reported":1728932808,"current_range_meters":27600,"station_id":"ce4bgt12rcd13ifvqcd0","pricing_plan_id":"cebpf4jnsgd1na2vs0mg"},{"bike_id":"b29541fb-84f9-44e5-96e7-18440cb23ea8","system_id":"levelo_inurba_marseille","lat":43.29526,"lon":5.3905,"is_reserved":false,"is_disabled":false,"rental_uris":{"android":"levelo://app?vid=b29541fb-84f9-44e5-96e7-18440cb23ea8","ios":"levelo://app?vid=b29541fb-84f9-44e5-96e7-18440cb23ea8"},"vehicle_type_id":"4","last_reported":1728932808,"current_range_meters":22400,"station_id":"ce4bh3p2rcd13ifvqdp0","pricing_plan_id":"cebpf4jnsgd1na2vs0mg"},{"bike_id":"7509c6f2-a27f-48e3-98e4-3995d3d4f318","system_id":"levelo_inurba_marseille","lat":43.31067,"lon":5.38349,"is_reserved":false,"is_disabled":false,"rental_uris":{"android":"levelo://app?vid=7509c6f2-a27f-48e3-98e4-3995d3d4f318","ios":"levelo://app?vid=7509c6f2-a27f-48e3-98e4-3995d3d4f318"},"vehicle_type_id":"4","last_reported":1728932808,"current_range_meters":27200,"station_id":"ce4bgv92rcd13ifvqcr0","pricing_plan_id":"cebpf4jnsgd1na2vs0mg"},{"bike_id":"b97ac990-8c0e-4aa6-a428-6bf3d623b8ab","system_id":"levelo_inurba_marseille","lat":43.24547,"lon":5.39523,"is_reserved":false,"is_disabled":false,"rental_uris":{"android":"levelo://app?vid=b97ac990-8c0e-4aa6-a428-6bf3d623b8ab","ios":"levelo://app?vid=b97ac990-8c0e-4aa6-a428-6bf3d623b8ab"},"vehicle_type_id":"4","last_reported":1728932808,"current_range_meters":4400,"station_id":"ce4bhlp2rcd13ifvqgjg","pricing_plan_id":"cebpf4jnsgd1na2vs0mg"},{"bike_id":"d2ae8d7f-7b3a-472e-9aef-617bbb91fe40","system_id":"levelo_inurba_marseille","lat":43.30104,"lon":5.39084,"is_reserved":false,"is_disabled":false,"rental_uris":{"android":"levelo://app?vid=d2ae8d7f-7b3a-472e-9aef-617bbb91fe40","ios":"levelo://app?vid=d2ae8d7f-7b3a-472e-9aef-617bbb91fe40"},"vehicle_type_id":"4","last_reported":1728932808,"current_range_meters":17200,"station_id":"ce4bh192rcd13ifvqdb0","pricing_plan_id":"cebpf4jnsgd1na2vs0mg"},{"bike_id":"c3859e9b-f515-430b-a811-8bbd3362718f","system_id":"levelo_inurba_marseille","lat":43.32341,"lon":5.4062,"is_reserved":false,"is_disabled":false,"rental_uris":{"android":"levelo://app?vid=c3859e9b-f515-430b-a811-8bbd3362718f","ios":"levelo://app?vid=c3859e9b-f515-430b-a811-8bbd3362718f"},"vehicle_type_id":"4","last_reported":1728932808,"current_range_meters":6400,"station_id":"ce4bhq92rcd13ifvqhjg","pricing_plan_id":"cebpf4jnsgd1na2vs0mg"},{"bike_id":"07538918-d507-49c7-b40a-4119b7a280f9","system_id":"levelo_inurba_marseille","lat":43.25868,"lon":5.39898,"is_reserved":false,"is_disabled":false,"rental_uris":{"android":"levelo://app?vid=07538918-d507-49c7-b40a-4119b7a280f9","ios":"levelo://app?vid=07538918-d507-49c7-b40a-4119b7a280f9"},"vehicle_type_id":"4","last_reported":1728932808,"current_range_meters":32800,"station_id":"ce4bhl92rcd13ifvqghg","pricing_plan_id":"cebpf4jnsgd1na2vs0mg"},{"bike_id":"b80c714b-6a66-4d5c-832e-bd487c535a72","system_id":"levelo_inurba_marseille","lat":43.31109,"lon":5.38064,"is_reserved":false,"is_disabled":false,"rental_uris":{"android":"levelo://app?vid=b80c714b-6a66-4d5c-832e-bd487c535a72","ios":"levelo://app?vid=b80c714b-6a66-4d5c-832e-bd487c535a72"},"vehicle_type_id":"4","last_reported":1728932808,"current_range_meters":18800,"station_id":"ce4bgt92rcd13ifvqcf0","pricing_plan_id":"cebpf4jnsgd1na2vs0mg"},{"bike_id":"2140b6a3-5118-4150-823e-9225aeb56201","system_id":"levelo_inurba_marseille","lat":43.23201,"lon":5.35552,"is_reserved":false,"is_disabled":false,"rental_uris":{"android":"levelo://app?vid=2140b6a3-5118-4150-823e-9225aeb56201","ios":"levelo://app?vid=2140b6a3-5118-4150-823e-9225aeb56201"},"vehicle_type_id":"4","last_reported":1728932808,"current_range_meters":7200,"station_id":"ce4bhu92rcd13ifvqi70","pricing_plan_id":"cebpf4jnsgd1na2vs0mg"},{"bike_id":"95378df5-f98e-4278-89ca-56fb3581e433","system_id":"levelo_inurba_marseille","lat":43.29602,"lon":5.38101,"is_reserved":false,"is_disabled":false,"rental_uris":{"android":"levelo://app?vid=95378df5-f98e-4278-89ca-56fb3581e433","ios":"levelo://app?vid=95378df5-f98e-4278-89ca-56fb3581e433"},"vehicle_type_id":"4","last_reported":1728932808,"current_range_meters":14800,"station_id":"ce4bgl12rcd13ifvqbo0","pricing_plan_id":"cebpf4jnsgd1na2vs0mg"},{"bike_id":"ae72f969-7180-45ac-ad40-432cffb4f0a0","system_id":"levelo_inurba_marseille","lat":43.28852,"lon":5.39319,"is_reserved":false,"is_disabled":false,"rental_uris":{"android":"levelo://app?vid=ae72f969-7180-45ac-ad40-432cffb4f0a0","ios":"levelo://app?vid=ae72f969-7180-45ac-ad40-432cffb4f0a0"},"vehicle_type_id":"4","last_reported":1728932808,"current_range_meters":22800,"station_id":"ce4bh2p2rcd13ifvqdi0","pricing_plan_id":"cebpf4jnsgd1na2vs0mg"},{"bike_id":"94e36800-0876-449f-ab73-0d327298c706","system_id":"levelo_inurba_marseille","lat":43.3137,"lon":5.38498,"is_reserved":false,"is_disabled":false,"rental_uris":{"android":"levelo://app?vid=94e36800-0876-449f-ab73-0d327298c706","ios":"levelo://app?vid=94e36800-0876-449f-ab73-0d327298c706"},"vehicle_type_id":"4","last_reported":1728932808,"current_range_meters":30000,"station_id":"ce4bgt92rcd13ifvqcf0","pricing_plan_id":"cebpf4jnsgd1na2vs0mg"},{"bike_id":"79e9e570-a13a-4836-affc-e20102298a8c","system_id":"levelo_inurba_marseille","lat":43.2872,"lon":5.37947,"is_reserved":false,"is_disabled":false,"rental_uris":{"android":"levelo://app?vid=79e9e570-a13a-4836-affc-e20102298a8c","ios":"levelo://app?vid=79e9e570-a13a-4836-affc-e20102298a8c"},"vehicle_type_id":"4","last_reported":1728932808,"current_range_meters":38800,"station_id":"ce4bh9p2rcd13ifvqec0","pricing_plan_id":"cebpf4jnsgd1na2vs0mg"},{"bike_id":"590f7952-4699-4a61-bbfb-c4ce7a00df44","system_id":"levelo_inurba_marseille","lat":43.27829,"lon":5.392075,"is_reserved":false,"is_disabled":false,"rental_uris":{"android":"levelo://app?vid=590f7952-4699-4a61-bbfb-c4ce7a00df44","ios":"levelo://app?vid=590f7952-4699-4a61-bbfb-c4ce7a00df44"},"vehicle_type_id":"4","last_reported":1728932808,"current_range_meters":38800,"station_id":"ce4bhjp2rcd13ifvqga0","pricing_plan_id":"cebpf4jnsgd1na2vs0mg"},{"bike_id":"7eaa335e-af99-4f56-a328-5a2f2385e3f0","system_id":"levelo_inurba_marseille","lat":43.29032,"lon":5.38647,"is_reserved":false,"is_disabled":false,"rental_uris":{"android":"levelo://app?vid=7eaa335e-af99-4f56-a328-5a2f2385e3f0","ios":"levelo://app?vid=7eaa335e-af99-4f56-a328-5a2f2385e3f0"},"vehicle_type_id":"4","last_reported":1728932808,"current_range_meters":38800,"station_id":"ce4bh4p2rcd13ifvqe0g","pricing_plan_id":"cebpf4jnsgd1na2vs0mg"},{"bike_id":"02edf250-0bdc-44d6-9936-04b527fbc30e","system_id":"levelo_inurba_marseille","lat":43.24395,"lon":5.37057,"is_reserved":false,"is_disabled":false,"rental_uris":{"android":"levelo://app?vid=02edf250-0bdc-44d6-9936-04b527fbc30e","ios":"levelo://app?vid=02edf250-0bdc-44d6-9936-04b527fbc30e"},"vehicle_type_id":"4","last_reported":1728932808,"current_range_meters":14400,"station_id":"ce4bhhh2rcd13ifvqfk0","pricing_plan_id":"cebpf4jnsgd1na2vs0mg"},{"bike_id":"78f45471-69e8-489d-9df0-9c63ad0dd53a","system_id":"levelo_inurba_marseille","lat":43.29223,"lon":5.42668,"is_reserved":false,"is_disabled":false,"rental_uris":{"android":"levelo://app?vid=78f45471-69e8-489d-9df0-9c63ad0dd53a","ios":"levelo://app?vid=78f45471-69e8-489d-9df0-9c63ad0dd53a"},"vehicle_type_id":"4","last_reported":1728932808,"current_range_meters":8400,"station_id":"","pricing_plan_id":"cebpf4jnsgd1na2vs0mg"},{"bike_id":"de5fb6c9-1629-41d4-994d-0b513290afbf","system_id":"levelo_inurba_marseille","lat":43.30317,"lon":5.40437,"is_reserved":false,"is_disabled":false,"rental_uris":{"android":"levelo://app?vid=de5fb6c9-1629-41d4-994d-0b513290afbf","ios":"levelo://app?vid=de5fb6c9-1629-41d4-994d-0b513290afbf"},"vehicle_type_id":"4","last_reported":1728932808,"current_range_meters":6400,"station_id":"ce4bh012rcd13ifvqd10","pricing_plan_id":"cebpf4jnsgd1na2vs0mg"},{"bike_id":"2e01e405-3e59-4f3b-956b-9bd9edc98593","system_id":"levelo_inurba_marseille","lat":43.27824,"lon":5.39206,"is_reserved":false,"is_disabled":false,"rental_uris":{"android":"levelo://app?vid=2e01e405-3e59-4f3b-956b-9bd9edc98593","ios":"levelo://app?vid=2e01e405-3e59-4f3b-956b-9bd9edc98593"},"vehicle_type_id":"4","last_reported":1728932808,"current_range_meters":6000,"station_id":"ce4bhjp2rcd13ifvqga0","pricing_plan_id":"cebpf4jnsgd1na2vs0mg"},{"bike_id":"a210394c-e316-4bed-81bd-3697504c3a30","system_id":"levelo_inurba_marseille","lat":43.2926,"lon":5.40911,"is_reserved":false,"is_disabled":false,"rental_uris":{"android":"levelo://app?vid=a210394c-e316-4bed-81bd-3697504c3a30","ios":"levelo://app?vid=a210394c-e316-4bed-81bd-3697504c3a30"},"vehicle_type_id":"4","last_reported":1728932808,"current_range_meters":33200,"station_id":"ce4bh192rcd13ifvqdc0","pricing_plan_id":"cebpf4jnsgd1na2vs0mg"},{"bike_id":"a5f275bc-6a4b-411f-8340-4931f52cd5c6","system_id":"levelo_inurba_marseille","lat":43.265626,"lon":5.390069,"is_reserved":false,"is_disabled":false,"rental_uris":{"android":"levelo://app?vid=a5f275bc-6a4b-411f-8340-4931f52cd5c6","ios":"levelo://app?vid=a5f275bc-6a4b-411f-8340-4931f52cd5c6"},"vehicle_type_id":"4","last_reported":1728932808,"current_range_meters":8400,"station_id":"ce4bhe12rcd13ifvqf30","pricing_plan_id":"cebpf4jnsgd1na2vs0mg"},{"bike_id":"d153668c-31d3-41ad-a7c1-81e8779fdfd0","system_id":"levelo_inurba_marseille","lat":43.30138,"lon":5.39872,"is_reserved":false,"is_disabled":false,"rental_uris":{"android":"levelo://app?vid=d153668c-31d3-41ad-a7c1-81e8779fdfd0","ios":"levelo://app?vid=d153668c-31d3-41ad-a7c1-81e8779fdfd0"},"vehicle_type_id":"4","last_reported":1728932808,"current_range_meters":16000,"station_id":"ce4bh0h2rcd13ifvqd40","pricing_plan_id":"cebpf4jnsgd1na2vs0mg"},{"bike_id":"c6f1c670-56f1-422c-b84d-3a04939da413","system_id":"levelo_inurba_marseille","lat":43.24389,"lon":5.37058,"is_reserved":false,"is_disabled":false,"rental_uris":{"android":"levelo://app?vid=c6f1c670-56f1-422c-b84d-3a04939da413","ios":"levelo://app?vid=c6f1c670-56f1-422c-b84d-3a04939da413"},"vehicle_type_id":"4","last_reported":1728932808,"current_range_meters":29600,"station_id":"ce4bhhh2rcd13ifvqfk0","pricing_plan_id":"cebpf4jnsgd1na2vs0mg"},{"bike_id":"e01e41b6-906b-4d38-bd47-8409331ef9cb","system_id":"levelo_inurba_marseille","lat":43.24173,"lon":5.36393,"is_reserved":false,"is_disabled":false,"rental_uris":{"android":"levelo://app?vid=e01e41b6-906b-4d38-bd47-8409331ef9cb","ios":"levelo://app?vid=e01e41b6-906b-4d38-bd47-8409331ef9cb"},"vehicle_type_id":"4","last_reported":1728932808,"current_range_meters":36800,"station_id":"cpo36qri1sfpv3e86is0","pricing_plan_id":"cebpf4jnsgd1na2vs0mg"},{"bike_id":"0eafdba6-2b03-4430-88b8-4e60c6aa4b07","system_id":"levelo_inurba_marseille","lat":43.30419,"lon":5.41289,"is_reserved":false,"is_disabled":false,"rental_uris":{"android":"levelo://app?vid=0eafdba6-2b03-4430-88b8-4e60c6aa4b07","ios":"levelo://app?vid=0eafdba6-2b03-4430-88b8-4e60c6aa4b07"},"vehicle_type_id":"4","last_reported":1728932808,"current_range_meters":16800,"station_id":"ce4bhop2rcd13ifvqh8g","pricing_plan_id":"cebpf4jnsgd1na2vs0mg"},{"bike_id":"5fa385c9-31dc-4a25-97be-ac88aa734055","system_id":"levelo_inurba_marseille","lat":43.33019,"lon":5.39044,"is_reserved":false,"is_disabled":false,"rental_uris":{"android":"levelo://app?vid=5fa385c9-31dc-4a25-97be-ac88aa734055","ios":"levelo://app?vid=5fa385c9-31dc-4a25-97be-ac88aa734055"},"vehicle_type_id":"4","last_reported":1728932808,"current_range_meters":22800,"station_id":"ce4bhr92rcd13ifvqhrg","pricing_plan_id":"cebpf4jnsgd1na2vs0mg"},{"bike_id":"89211ee2-076f-4df3-92bd-cd8885f2e76d","system_id":"levelo_inurba_marseille","lat":43.23191,"lon":5.35557,"is_reserved":false,"is_disabled":false,"rental_uris":{"android":"levelo://app?vid=89211ee2-076f-4df3-92bd-cd8885f2e76d","ios":"levelo://app?vid=89211ee2-076f-4df3-92bd-cd8885f2e76d"},"vehicle_type_id":"4","last_reported":1728932808,"current_range_meters":38800,"station_id":"ce4bhu92rcd13ifvqi70","pricing_plan_id":"cebpf4jnsgd1na2vs0mg"},{"bike_id":"6f108c79-169f-46fd-b08b-6b93e5050ee6","system_id":"levelo_inurba_marseille","lat":43.33728,"lon":5.39203,"is_reserved":false,"is_disabled":false,"rental_uris":{"android":"levelo://app?vid=6f108c79-169f-46fd-b08b-6b93e5050ee6","ios":"levelo://app?vid=6f108c79-169f-46fd-b08b-6b93e5050ee6"},"vehicle_type_id":"4","last_reported":1728932808,"current_range_meters":9200,"station_id":"ce4bhr92rcd13ifvqhsg","pricing_plan_id":"cebpf4jnsgd1na2vs0mg"},{"bike_id":"4401e9fe-8fae-4df0-be02-0119e3aeedbd","system_id":"levelo_inurba_marseille","lat":43.33758,"lon":5.37424,"is_reserved":false,"is_disabled":false,"rental_uris":{"android":"levelo://app?vid=4401e9fe-8fae-4df0-be02-0119e3aeedbd","ios":"levelo://app?vid=4401e9fe-8fae-4df0-be02-0119e3aeedbd"},"vehicle_type_id":"4","last_reported":1728932808,"current_range_meters":35600,"station_id":"","pricing_plan_id":"cebpf4jnsgd1na2vs0mg"},{"bike_id":"3add3e84-b225-403f-b543-64d331d87139","system_id":"levelo_inurba_marseille","lat":43.26211,"lon":5.37441,"is_reserved":false,"is_disabled":false,"rental_uris":{"android":"levelo://app?vid=3add3e84-b225-403f-b543-64d331d87139","ios":"levelo://app?vid=3add3e84-b225-403f-b543-64d331d87139"},"vehicle_type_id":"4","last_reported":1728932808,"current_range_meters":18800,"station_id":"ce4bhgp2rcd13ifvqfc0","pricing_plan_id":"cebpf4jnsgd1na2vs0mg"},{"bike_id":"7407b431-bff5-4398-a903-ce772c985ca2","system_id":"levelo_inurba_marseille","lat":43.24394,"lon":5.37065,"is_reserved":false,"is_disabled":false,"rental_uris":{"android":"levelo://app?vid=7407b431-bff5-4398-a903-ce772c985ca2","ios":"levelo://app?vid=7407b431-bff5-4398-a903-ce772c985ca2"},"vehicle_type_id":"4","last_reported":1728932808,"current_range_meters":22800,"station_id":"ce4bhhh2rcd13ifvqfk0","pricing_plan_id":"cebpf4jnsgd1na2vs0mg"},{"bike_id":"1ffa878e-7475-4e16-bedf-e1edad73f932","system_id":"levelo_inurba_marseille","lat":43.26811,"lon":5.40271,"is_reserved":false,"is_disabled":false,"rental_uris":{"android":"levelo://app?vid=1ffa878e-7475-4e16-bedf-e1edad73f932","ios":"levelo://app?vid=1ffa878e-7475-4e16-bedf-e1edad73f932"},"vehicle_type_id":"4","last_reported":1728932808,"current_range_meters":26000,"station_id":"ce501612rcd8frsf0b60","pricing_plan_id":"cebpf4jnsgd1na2vs0mg"},{"bike_id":"8afc2d11-5f30-4024-8dd1-bcca6caac62e","system_id":"levelo_inurba_marseille","lat":43.31882,"lon":5.40737,"is_reserved":false,"is_disabled":false,"rental_uris":{"android":"levelo://app?vid=8afc2d11-5f30-4024-8dd1-bcca6caac62e","ios":"levelo://app?vid=8afc2d11-5f30-4024-8dd1-bcca6caac62e"},"vehicle_type_id":"4","last_reported":1728932808,"current_range_meters":27600,"station_id":"ce4bhq12rcd13ifvqhig","pricing_plan_id":"cebpf4jnsgd1na2vs0mg"},{"bike_id":"f86c0e4c-e675-4813-89ef-9c087542fa2b","system_id":"levelo_inurba_marseille","lat":43.28464,"lon":5.35876,"is_reserved":false,"is_disabled":false,"rental_uris":{"android":"levelo://app?vid=f86c0e4c-e675-4813-89ef-9c087542fa2b","ios":"levelo://app?vid=f86c0e4c-e675-4813-89ef-9c087542fa2b"},"vehicle_type_id":"4","last_reported":1728932808,"current_range_meters":5600,"station_id":"ce4bhah2rcd13ifvqei0","pricing_plan_id":"cebpf4jnsgd1na2vs0mg"},{"bike_id":"a4bd06ca-5238-47b8-8085-902417632977","system_id":"levelo_inurba_marseille","lat":43.2732,"lon":5.39078,"is_reserved":false,"is_disabled":false,"rental_uris":{"android":"levelo://app?vid=a4bd06ca-5238-47b8-8085-902417632977","ios":"levelo://app?vid=a4bd06ca-5238-47b8-8085-902417632977"},"vehicle_type_id":"4","last_reported":1728932808,"current_range_meters":28400,"station_id":"ce4bhgp2rcd13ifvqfe0","pricing_plan_id":"cebpf4jnsgd1na2vs0mg"},{"bike_id":"de9fce36-42d5-4f27-b0a2-d390f9b6b1c9","system_id":"levelo_inurba_marseille","lat":43.25116,"lon":5.40324,"is_reserved":false,"is_disabled":false,"rental_uris":{"android":"levelo://app?vid=de9fce36-42d5-4f27-b0a2-d390f9b6b1c9","ios":"levelo://app?vid=de9fce36-42d5-4f27-b0a2-d390f9b6b1c9"},"vehicle_type_id":"4","last_reported":1728932808,"current_range_meters":14400,"station_id":"ce4bhlh2rcd13ifvqgig","pricing_plan_id":"cebpf4jnsgd1na2vs0mg"},{"bike_id":"08ca70a6-8558-46e8-ad65-3b0384c60a7d","system_id":"levelo_inurba_marseille","lat":43.31495,"lon":5.37311,"is_reserved":false,"is_disabled":false,"rental_uris":{"android":"levelo://app?vid=08ca70a6-8558-46e8-ad65-3b0384c60a7d","ios":"levelo://app?vid=08ca70a6-8558-46e8-ad65-3b0384c60a7d"},"vehicle_type_id":"4","last_reported":1728932808,"current_range_meters":39200,"station_id":"ce4bgt12rcd13ifvqcd0","pricing_plan_id":"cebpf4jnsgd1na2vs0mg"},{"bike_id":"01b78b4e-82dd-41b1-a3c9-ac113eeb7506","system_id":"levelo_inurba_marseille","lat":43.29679,"lon":5.37698,"is_reserved":false,"is_disabled":false,"rental_uris":{"android":"levelo://app?vid=01b78b4e-82dd-41b1-a3c9-ac113eeb7506","ios":"levelo://app?vid=01b78b4e-82dd-41b1-a3c9-ac113eeb7506"},"vehicle_type_id":"4","last_reported":1728932808,"current_range_meters":25600,"station_id":"ce4bgkh2rcd13ifvqbl0","pricing_plan_id":"cebpf4jnsgd1na2vs0mg"},{"bike_id":"8eca1db8-c7a5-4c55-a530-7e36502bac8b","system_id":"levelo_inurba_marseille","lat":43.33024,"lon":5.39036,"is_reserved":false,"is_disabled":false,"rental_uris":{"android":"levelo://app?vid=8eca1db8-c7a5-4c55-a530-7e36502bac8b","ios":"levelo://app?vid=8eca1db8-c7a5-4c55-a530-7e36502bac8b"},"vehicle_type_id":"4","last_reported":1728932808,"current_range_meters":30400,"station_id":"ce4bhr92rcd13ifvqhrg","pricing_plan_id":"cebpf4jnsgd1na2vs0mg"},{"bike_id":"3c9a80a7-6d68-4bb8-9474-fe0e2b009cb0","system_id":"levelo_inurba_marseille","lat":43.31763,"lon":5.3901,"is_reserved":false,"is_disabled":false,"rental_uris":{"android":"levelo://app?vid=3c9a80a7-6d68-4bb8-9474-fe0e2b009cb0","ios":"levelo://app?vid=3c9a80a7-6d68-4bb8-9474-fe0e2b009cb0"},"vehicle_type_id":"4","last_reported":1728932808,"current_range_meters":9200,"station_id":"ce4bhqp2rcd13ifvqhng","pricing_plan_id":"cebpf4jnsgd1na2vs0mg"},{"bike_id":"c2d9130a-66dc-43d9-b64d-1424bfd7026f","system_id":"levelo_inurba_marseille","lat":43.2844,"lon":5.39192,"is_reserved":false,"is_disabled":false,"rental_uris":{"android":"levelo://app?vid=c2d9130a-66dc-43d9-b64d-1424bfd7026f","ios":"levelo://app?vid=c2d9130a-66dc-43d9-b64d-1424bfd7026f"},"vehicle_type_id":"4","last_reported":1728932808,"current_range_meters":37600,"station_id":"ce4bhoh2rcd13ifvqh5g","pricing_plan_id":"cebpf4jnsgd1na2vs0mg"},{"bike_id":"e3c21e81-f579-407f-a9fb-8a48fbd070d7","system_id":"levelo_inurba_marseille","lat":43.2558,"lon":5.38239,"is_reserved":false,"is_disabled":false,"rental_uris":{"android":"levelo://app?vid=e3c21e81-f579-407f-a9fb-8a48fbd070d7","ios":"levelo://app?vid=e3c21e81-f579-407f-a9fb-8a48fbd070d7"},"vehicle_type_id":"4","last_reported":1728932808,"current_range_meters":6400,"station_id":"ce4bhih2rcd13ifvqfs0","pricing_plan_id":"cebpf4jnsgd1na2vs0mg"},{"bike_id":"ff96eee3-1ac8-4888-9ae7-e4b6cc8154af","system_id":"levelo_inurba_marseille","lat":43.33739,"lon":5.3746,"is_reserved":false,"is_disabled":false,"rental_uris":{"android":"levelo://app?vid=ff96eee3-1ac8-4888-9ae7-e4b6cc8154af","ios":"levelo://app?vid=ff96eee3-1ac8-4888-9ae7-e4b6cc8154af"},"vehicle_type_id":"4","last_reported":1728932808,"current_range_meters":36800,"station_id":"","pricing_plan_id":"cebpf4jnsgd1na2vs0mg"},{"bike_id":"634fd6e0-6cd5-45eb-adc7-c5749bf3566c","system_id":"levelo_inurba_marseille","lat":43.2979,"lon":5.38121,"is_reserved":false,"is_disabled":false,"rental_uris":{"android":"levelo://app?vid=634fd6e0-6cd5-45eb-adc7-c5749bf3566c","ios":"levelo://app?vid=634fd6e0-6cd5-45eb-adc7-c5749bf3566c"},"vehicle_type_id":"4","last_reported":1728932808,"current_range_meters":8400,"station_id":"ce4bgip2rcd13ifvqbb0","pricing_plan_id":"cebpf4jnsgd1na2vs0mg"},{"bike_id":"c9eb4109-536a-4530-b289-4c5c7c4c8979","system_id":"levelo_inurba_marseille","lat":43.29018,"lon":5.38634,"is_reserved":false,"is_disabled":false,"rental_uris":{"android":"levelo://app?vid=c9eb4109-536a-4530-b289-4c5c7c4c8979","ios":"levelo://app?vid=c9eb4109-536a-4530-b289-4c5c7c4c8979"},"vehicle_type_id":"4","last_reported":1728932808,"current_range_meters":3600,"station_id":"ce4bh4p2rcd13ifvqe0g","pricing_plan_id":"cebpf4jnsgd1na2vs0mg"},{"bike_id":"c50c599b-7eb4-4ae0-bc1f-a366e21ec0ac","system_id":"levelo_inurba_marseille","lat":43.33026,"lon":5.3904,"is_reserved":false,"is_disabled":false,"rental_uris":{"android":"levelo://app?vid=c50c599b-7eb4-4ae0-bc1f-a366e21ec0ac","ios":"levelo://app?vid=c50c599b-7eb4-4ae0-bc1f-a366e21ec0ac"},"vehicle_type_id":"4","last_reported":1728932808,"current_range_meters":38000,"station_id":"ce4bhr92rcd13ifvqhrg","pricing_plan_id":"cebpf4jnsgd1na2vs0mg"},{"bike_id":"4e65694f-00d8-44f2-9aaf-8930e2be5a38","system_id":"levelo_inurba_marseille","lat":43.28862,"lon":5.35847,"is_reserved":false,"is_disabled":false,"rental_uris":{"android":"levelo://app?vid=4e65694f-00d8-44f2-9aaf-8930e2be5a38","ios":"levelo://app?vid=4e65694f-00d8-44f2-9aaf-8930e2be5a38"},"vehicle_type_id":"4","last_reported":1728932808,"current_range_meters":9200,"station_id":"ce4bhb12rcd13ifvqem0","pricing_plan_id":"cebpf4jnsgd1na2vs0mg"},{"bike_id":"852c7b96-8992-40aa-8d66-79f89b281326","system_id":"levelo_inurba_marseille","lat":43.29197,"lon":5.35803,"is_reserved":false,"is_disabled":false,"rental_uris":{"android":"levelo://app?vid=852c7b96-8992-40aa-8d66-79f89b281326","ios":"levelo://app?vid=852c7b96-8992-40aa-8d66-79f89b281326"},"vehicle_type_id":"4","last_reported":1728932808,"current_range_meters":14800,"station_id":"ce4bhb12rcd13ifvqel0","pricing_plan_id":"cebpf4jnsgd1na2vs0mg"},{"bike_id":"9824d324-d859-48cc-9cb5-90b3cf898ef8","system_id":"levelo_inurba_marseille","lat":43.28468,"lon":5.35874,"is_reserved":false,"is_disabled":false,"rental_uris":{"android":"levelo://app?vid=9824d324-d859-48cc-9cb5-90b3cf898ef8","ios":"levelo://app?vid=9824d324-d859-48cc-9cb5-90b3cf898ef8"},"vehicle_type_id":"4","last_reported":1728932808,"current_range_meters":20000,"station_id":"ce4bhah2rcd13ifvqei0","pricing_plan_id":"cebpf4jnsgd1na2vs0mg"},{"bike_id":"124fe4c8-d877-453b-88bd-af8d62d24653","system_id":"levelo_inurba_marseille","lat":43.2465,"lon":5.389,"is_reserved":false,"is_disabled":false,"rental_uris":{"android":"levelo://app?vid=124fe4c8-d877-453b-88bd-af8d62d24653","ios":"levelo://app?vid=124fe4c8-d877-453b-88bd-af8d62d24653"},"vehicle_type_id":"4","last_reported":1728932808,"current_range_meters":9600,"station_id":"ce4bhg12rcd13ifvqf60","pricing_plan_id":"cebpf4jnsgd1na2vs0mg"},{"bike_id":"60f23926-21eb-446b-94ff-6c2eb83c8227","system_id":"levelo_inurba_marseille","lat":43.30185,"lon":5.36605,"is_reserved":false,"is_disabled":false,"rental_uris":{"android":"levelo://app?vid=60f23926-21eb-446b-94ff-6c2eb83c8227","ios":"levelo://app?vid=60f23926-21eb-446b-94ff-6c2eb83c8227"},"vehicle_type_id":"4","last_reported":1728932808,"current_range_meters":38800,"station_id":"ce4bgrh2rcd13ifvqc8g","pricing_plan_id":"cebpf4jnsgd1na2vs0mg"},{"bike_id":"f57f4d6f-75e3-40c2-8b37-fd35a15bf7ea","system_id":"levelo_inurba_marseille","lat":43.28102,"lon":5.37842,"is_reserved":false,"is_disabled":false,"rental_uris":{"android":"levelo://app?vid=f57f4d6f-75e3-40c2-8b37-fd35a15bf7ea","ios":"levelo://app?vid=f57f4d6f-75e3-40c2-8b37-fd35a15bf7ea"},"vehicle_type_id":"4","last_reported":1728932808,"current_range_meters":38000,"station_id":"ce4bha12rcd13ifvqee0","pricing_plan_id":"cebpf4jnsgd1na2vs0mg"},{"bike_id":"8bf5b36e-884a-4ead-a687-4aeaa5d33435","system_id":"levelo_inurba_marseille","lat":43.25867,"lon":5.39893,"is_reserved":false,"is_disabled":false,"rental_uris":{"android":"levelo://app?vid=8bf5b36e-884a-4ead-a687-4aeaa5d33435","ios":"levelo://app?vid=8bf5b36e-884a-4ead-a687-4aeaa5d33435"},"vehicle_type_id":"4","last_reported":1728932808,"current_range_meters":38800,"station_id":"ce4bhl92rcd13ifvqghg","pricing_plan_id":"cebpf4jnsgd1na2vs0mg"},{"bike_id":"fd4f30ab-6fba-4833-8336-2b0e801d4f12","system_id":"levelo_inurba_marseille","lat":43.27995,"lon":5.40013,"is_reserved":false,"is_disabled":false,"rental_uris":{"android":"levelo://app?vid=fd4f30ab-6fba-4833-8336-2b0e801d4f12","ios":"levelo://app?vid=fd4f30ab-6fba-4833-8336-2b0e801d4f12"},"vehicle_type_id":"4","last_reported":1728932808,"current_range_meters":38400,"station_id":"ce4bho92rcd13ifvqh4g","pricing_plan_id":"cebpf4jnsgd1na2vs0mg"},{"bike_id":"e55ce7e2-8e60-47b5-844e-977029bd08ba","system_id":"levelo_inurba_marseille","lat":43.29563,"lon":5.42294,"is_reserved":false,"is_disabled":false,"rental_uris":{"android":"levelo://app?vid=e55ce7e2-8e60-47b5-844e-977029bd08ba","ios":"levelo://app?vid=e55ce7e2-8e60-47b5-844e-977029bd08ba"},"vehicle_type_id":"4","last_reported":1728932808,"current_range_meters":39200,"station_id":"ce4bhph2rcd13ifvqhdg","pricing_plan_id":"cebpf4jnsgd1na2vs0mg"},{"bike_id":"07d70820-54c8-485a-b04b-017096cc6e14","system_id":"levelo_inurba_marseille","lat":43.33026,"lon":5.3904,"is_reserved":false,"is_disabled":false,"rental_uris":{"android":"levelo://app?vid=07d70820-54c8-485a-b04b-017096cc6e14","ios":"levelo://app?vid=07d70820-54c8-485a-b04b-017096cc6e14"},"vehicle_type_id":"4","last_reported":1728932808,"current_range_meters":38800,"station_id":"ce4bhr92rcd13ifvqhrg","pricing_plan_id":"cebpf4jnsgd1na2vs0mg"},{"bike_id":"292b9425-1372-40d4-bf0a-fe57aa779a41","system_id":"levelo_inurba_marseille","lat":43.23058,"lon":5.35495,"is_reserved":false,"is_disabled":false,"rental_uris":{"android":"levelo://app?vid=292b9425-1372-40d4-bf0a-fe57aa779a41","ios":"levelo://app?vid=292b9425-1372-40d4-bf0a-fe57aa779a41"},"vehicle_type_id":"4","last_reported":1728932808,"current_range_meters":36800,"station_id":"cpo3342slgdg3j2ifvpg","pricing_plan_id":"cebpf4jnsgd1na2vs0mg"},{"bike_id":"b62db2bc-422d-4d02-8636-ce44a5c7b9d7","system_id":"levelo_inurba_marseille","lat":43.29258,"lon":5.40908,"is_reserved":false,"is_disabled":false,"rental_uris":{"android":"levelo://app?vid=b62db2bc-422d-4d02-8636-ce44a5c7b9d7","ios":"levelo://app?vid=b62db2bc-422d-4d02-8636-ce44a5c7b9d7"},"vehicle_type_id":"4","last_reported":1728932808,"current_range_meters":30800,"station_id":"ce4bh192rcd13ifvqdc0","pricing_plan_id":"cebpf4jnsgd1na2vs0mg"},{"bike_id":"a728c0db-3bf8-4878-92f8-b1789580d066","system_id":"levelo_inurba_marseille","lat":43.290395,"lon":5.386629,"is_reserved":false,"is_disabled":false,"rental_uris":{"android":"levelo://app?vid=a728c0db-3bf8-4878-92f8-b1789580d066","ios":"levelo://app?vid=a728c0db-3bf8-4878-92f8-b1789580d066"},"vehicle_type_id":"4","last_reported":1728932808,"current_range_meters":25200,"station_id":"ce4bh4p2rcd13ifvqe0g","pricing_plan_id":"cebpf4jnsgd1na2vs0mg"},{"bike_id":"6dba08da-54a1-4d59-b230-f3753f15200e","system_id":"levelo_inurba_marseille","lat":43.283652,"lon":5.386532,"is_reserved":false,"is_disabled":false,"rental_uris":{"android":"levelo://app?vid=6dba08da-54a1-4d59-b230-f3753f15200e","ios":"levelo://app?vid=6dba08da-54a1-4d59-b230-f3753f15200e"},"vehicle_type_id":"4","last_reported":1728932808,"current_range_meters":38800,"station_id":"ce4bh492rcd13ifvqdvg","pricing_plan_id":"cebpf4jnsgd1na2vs0mg"},{"bike_id":"a83e231b-1db5-47b3-a8e1-d65a119fa15a","system_id":"levelo_inurba_marseille","lat":43.27664,"lon":5.38899,"is_reserved":false,"is_disabled":false,"rental_uris":{"android":"levelo://app?vid=a83e231b-1db5-47b3-a8e1-d65a119fa15a","ios":"levelo://app?vid=a83e231b-1db5-47b3-a8e1-d65a119fa15a"},"vehicle_type_id":"4","last_reported":1728932808,"current_range_meters":18800,"station_id":"ce4bhi12rcd13ifvqfo0","pricing_plan_id":"cebpf4jnsgd1na2vs0mg"},{"bike_id":"fa5ad1a7-0adb-40fe-a8e8-f0b90066109f","system_id":"levelo_inurba_marseille","lat":43.29278,"lon":5.36846,"is_reserved":false,"is_disabled":false,"rental_uris":{"android":"levelo://app?vid=fa5ad1a7-0adb-40fe-a8e8-f0b90066109f","ios":"levelo://app?vid=fa5ad1a7-0adb-40fe-a8e8-f0b90066109f"},"vehicle_type_id":"4","last_reported":1728932808,"current_range_meters":29600,"station_id":"ce4bhbp2rcd13ifvqesg","pricing_plan_id":"cebpf4jnsgd1na2vs0mg"},{"bike_id":"f9431acc-4158-4e63-bbe0-7544277cc35e","system_id":"levelo_inurba_marseille","lat":43.29032,"lon":5.37567,"is_reserved":false,"is_disabled":false,"rental_uris":{"android":"levelo://app?vid=f9431acc-4158-4e63-bbe0-7544277cc35e","ios":"levelo://app?vid=f9431acc-4158-4e63-bbe0-7544277cc35e"},"vehicle_type_id":"4","last_reported":1728932808,"current_range_meters":29600,"station_id":"ce4bh692rcd13ifvqe90","pricing_plan_id":"cebpf4jnsgd1na2vs0mg"},{"bike_id":"e42a5c5b-19d2-48bc-8dfc-c8514ef28621","system_id":"levelo_inurba_marseille","lat":43.24167,"lon":5.36407,"is_reserved":false,"is_disabled":false,"rental_uris":{"android":"levelo://app?vid=e42a5c5b-19d2-48bc-8dfc-c8514ef28621","ios":"levelo://app?vid=e42a5c5b-19d2-48bc-8dfc-c8514ef28621"},"vehicle_type_id":"4","last_reported":1728932808,"current_range_meters":28800,"station_id":"cpo36qri1sfpv3e86is0","pricing_plan_id":"cebpf4jnsgd1na2vs0mg"},{"bike_id":"96312f5f-0242-4af5-8904-5da6da457ea0","system_id":"levelo_inurba_marseille","lat":43.28848,"lon":5.35844,"is_reserved":false,"is_disabled":false,"rental_uris":{"android":"levelo://app?vid=96312f5f-0242-4af5-8904-5da6da457ea0","ios":"levelo://app?vid=96312f5f-0242-4af5-8904-5da6da457ea0"},"vehicle_type_id":"4","last_reported":1728932808,"current_range_meters":38800,"station_id":"ce4bhb12rcd13ifvqem0","pricing_plan_id":"cebpf4jnsgd1na2vs0mg"},{"bike_id":"b06fad3a-c976-49a7-9eef-73d7ba88f78c","system_id":"levelo_inurba_marseille","lat":43.29192,"lon":5.35801,"is_reserved":false,"is_disabled":false,"rental_uris":{"android":"levelo://app?vid=b06fad3a-c976-49a7-9eef-73d7ba88f78c","ios":"levelo://app?vid=b06fad3a-c976-49a7-9eef-73d7ba88f78c"},"vehicle_type_id":"4","last_reported":1728932808,"current_range_meters":23200,"station_id":"ce4bhb12rcd13ifvqel0","pricing_plan_id":"cebpf4jnsgd1na2vs0mg"},{"bike_id":"0262a9fe-feca-45d9-bcc5-0db5cd20149e","system_id":"levelo_inurba_marseille","lat":43.31272,"lon":5.40172,"is_reserved":false,"is_disabled":false,"rental_uris":{"android":"levelo://app?vid=0262a9fe-feca-45d9-bcc5-0db5cd20149e","ios":"levelo://app?vid=0262a9fe-feca-45d9-bcc5-0db5cd20149e"},"vehicle_type_id":"4","last_reported":1728932808,"current_range_meters":30400,"station_id":"ce4bh092rcd13ifvqd30","pricing_plan_id":"cebpf4jnsgd1na2vs0mg"},{"bike_id":"a2a7866a-0d7e-4e96-ae7f-ca56556c4307","system_id":"levelo_inurba_marseille","lat":43.28706,"lon":5.39989,"is_reserved":false,"is_disabled":false,"rental_uris":{"android":"levelo://app?vid=a2a7866a-0d7e-4e96-ae7f-ca56556c4307","ios":"levelo://app?vid=a2a7866a-0d7e-4e96-ae7f-ca56556c4307"},"vehicle_type_id":"4","last_reported":1728932808,"current_range_meters":4800,"station_id":"ce4bho92rcd13ifvqh3g","pricing_plan_id":"cebpf4jnsgd1na2vs0mg"},{"bike_id":"e2269ceb-628a-46bc-99be-000f6b18d412","system_id":"levelo_inurba_marseille","lat":43.30214,"lon":5.39474,"is_reserved":false,"is_disabled":false,"rental_uris":{"android":"levelo://app?vid=e2269ceb-628a-46bc-99be-000f6b18d412","ios":"levelo://app?vid=e2269ceb-628a-46bc-99be-000f6b18d412"},"vehicle_type_id":"4","last_reported":1728932808,"current_range_meters":36000,"station_id":"ce4bh0p2rcd13ifvqd70","pricing_plan_id":"cebpf4jnsgd1na2vs0mg"},{"bike_id":"d06f24f3-1961-4c39-8b26-c72733863fe9","system_id":"levelo_inurba_marseille","lat":43.33781,"lon":5.37443,"is_reserved":false,"is_disabled":false,"rental_uris":{"android":"levelo://app?vid=d06f24f3-1961-4c39-8b26-c72733863fe9","ios":"levelo://app?vid=d06f24f3-1961-4c39-8b26-c72733863fe9"},"vehicle_type_id":"4","last_reported":1728932808,"current_range_meters":27600,"station_id":"","pricing_plan_id":"cebpf4jnsgd1na2vs0mg"},{"bike_id":"2da6aa54-ad0c-484f-8279-5aac8ad1d94b","system_id":"levelo_inurba_marseille","lat":43.31711,"lon":5.42421,"is_reserved":false,"is_disabled":false,"rental_uris":{"android":"levelo://app?vid=2da6aa54-ad0c-484f-8279-5aac8ad1d94b","ios":"levelo://app?vid=2da6aa54-ad0c-484f-8279-5aac8ad1d94b"},"vehicle_type_id":"4","last_reported":1728932808,"current_range_meters":37600,"station_id":"ce4bhp92rcd13ifvqhbg","pricing_plan_id":"cebpf4jnsgd1na2vs0mg"},{"bike_id":"d0e15c12-2fb9-4cac-9d9a-ea1984f9dede","system_id":"levelo_inurba_marseille","lat":43.291687,"lon":5.371416,"is_reserved":false,"is_disabled":false,"rental_uris":{"android":"levelo://app?vid=d0e15c12-2fb9-4cac-9d9a-ea1984f9dede","ios":"levelo://app?vid=d0e15c12-2fb9-4cac-9d9a-ea1984f9dede"},"vehicle_type_id":"4","last_reported":1728932808,"current_range_meters":38000,"station_id":"ce4bha92rcd13ifvqeh0","pricing_plan_id":"cebpf4jnsgd1na2vs0mg"},{"bike_id":"59801407-972f-4a36-807e-85d5772337bc","system_id":"levelo_inurba_marseille","lat":43.28083,"lon":5.3966,"is_reserved":false,"is_disabled":false,"rental_uris":{"android":"levelo://app?vid=59801407-972f-4a36-807e-85d5772337bc","ios":"levelo://app?vid=59801407-972f-4a36-807e-85d5772337bc"},"vehicle_type_id":"4","last_reported":1728932808,"current_range_meters":18800,"station_id":"ce4bho12rcd13ifvqh2g","pricing_plan_id":"cebpf4jnsgd1na2vs0mg"},{"bike_id":"de55ef64-fd38-455a-b0e1-1ae601486694","system_id":"levelo_inurba_marseille","lat":43.28467,"lon":5.359,"is_reserved":false,"is_disabled":false,"rental_uris":{"android":"levelo://app?vid=de55ef64-fd38-455a-b0e1-1ae601486694","ios":"levelo://app?vid=de55ef64-fd38-455a-b0e1-1ae601486694"},"vehicle_type_id":"4","last_reported":1728932808,"current_range_meters":30000,"station_id":"ce4bhah2rcd13ifvqei0","pricing_plan_id":"cebpf4jnsgd1na2vs0mg"},{"bike_id":"d41309ab-1a1f-4395-acaa-455483c3f8e1","system_id":"levelo_inurba_marseille","lat":43.23201,"lon":5.35554,"is_reserved":false,"is_disabled":false,"rental_uris":{"android":"levelo://app?vid=d41309ab-1a1f-4395-acaa-455483c3f8e1","ios":"levelo://app?vid=d41309ab-1a1f-4395-acaa-455483c3f8e1"},"vehicle_type_id":"4","last_reported":1728932808,"current_range_meters":36800,"station_id":"ce4bhu92rcd13ifvqi70","pricing_plan_id":"cebpf4jnsgd1na2vs0mg"},{"bike_id":"b6c39945-7fde-45ca-a309-2c86ade80641","system_id":"levelo_inurba_marseille","lat":43.27968,"lon":5.38735,"is_reserved":false,"is_disabled":false,"rental_uris":{"android":"levelo://app?vid=b6c39945-7fde-45ca-a309-2c86ade80641","ios":"levelo://app?vid=b6c39945-7fde-45ca-a309-2c86ade80641"},"vehicle_type_id":"4","last_reported":1728932808,"current_range_meters":38800,"station_id":"ce4bhg12rcd13ifvqf80","pricing_plan_id":"cebpf4jnsgd1na2vs0mg"},{"bike_id":"baafff27-4221-400a-8781-860101ceaace","system_id":"levelo_inurba_marseille","lat":43.28854,"lon":5.35856,"is_reserved":false,"is_disabled":false,"rental_uris":{"android":"levelo://app?vid=baafff27-4221-400a-8781-860101ceaace","ios":"levelo://app?vid=baafff27-4221-400a-8781-860101ceaace"},"vehicle_type_id":"4","last_reported":1728932808,"current_range_meters":7200,"station_id":"ce4bhb12rcd13ifvqem0","pricing_plan_id":"cebpf4jnsgd1na2vs0mg"},{"bike_id":"fca53f66-742d-44ee-956a-20e7ae576730","system_id":"levelo_inurba_marseille","lat":43.31263,"lon":5.40156,"is_reserved":false,"is_disabled":false,"rental_uris":{"android":"levelo://app?vid=fca53f66-742d-44ee-956a-20e7ae576730","ios":"levelo://app?vid=fca53f66-742d-44ee-956a-20e7ae576730"},"vehicle_type_id":"4","last_reported":1728932808,"current_range_meters":10800,"station_id":"ce4bh092rcd13ifvqd30","pricing_plan_id":"cebpf4jnsgd1na2vs0mg"},{"bike_id":"eaedc49c-645c-4444-a4d2-8456bbc17d70","system_id":"levelo_inurba_marseille","lat":43.299,"lon":5.43665,"is_reserved":false,"is_disabled":false,"rental_uris":{"android":"levelo://app?vid=eaedc49c-645c-4444-a4d2-8456bbc17d70","ios":"levelo://app?vid=eaedc49c-645c-4444-a4d2-8456bbc17d70"},"vehicle_type_id":"4","last_reported":1728932808,"current_range_meters":16400,"station_id":"ce4bhpp2rcd13ifvqhfg","pricing_plan_id":"cebpf4jnsgd1na2vs0mg"},{"bike_id":"20cf49f9-1944-454b-98be-038481d3426a","system_id":"levelo_inurba_marseille","lat":43.32488,"lon":5.36566,"is_reserved":false,"is_disabled":false,"rental_uris":{"android":"levelo://app?vid=20cf49f9-1944-454b-98be-038481d3426a","ios":"levelo://app?vid=20cf49f9-1944-454b-98be-038481d3426a"},"vehicle_type_id":"4","last_reported":1728932808,"current_range_meters":37600,"station_id":"ce4bhs12rcd13ifvqhvg","pricing_plan_id":"cebpf4jnsgd1na2vs0mg"},{"bike_id":"841fb6f8-2296-487b-9f27-17f776d3e1ac","system_id":"levelo_inurba_marseille","lat":43.2418,"lon":5.39742,"is_reserved":false,"is_disabled":false,"rental_uris":{"android":"levelo://app?vid=841fb6f8-2296-487b-9f27-17f776d3e1ac","ios":"levelo://app?vid=841fb6f8-2296-487b-9f27-17f776d3e1ac"},"vehicle_type_id":"4","last_reported":1728932808,"current_range_meters":8400,"station_id":"ce4bhn12rcd13ifvqgpg","pricing_plan_id":"cebpf4jnsgd1na2vs0mg"},{"bike_id":"70c95378-a25a-4142-a216-c8b3cf7fb134","system_id":"levelo_inurba_marseille","lat":43.26064,"lon":5.39405,"is_reserved":false,"is_disabled":false,"rental_uris":{"android":"levelo://app?vid=70c95378-a25a-4142-a216-c8b3cf7fb134","ios":"levelo://app?vid=70c95378-a25a-4142-a216-c8b3cf7fb134"},"vehicle_type_id":"4","last_reported":1728932808,"current_range_meters":38800,"station_id":"ce4bhh92rcd13ifvqfj0","pricing_plan_id":"cebpf4jnsgd1na2vs0mg"},{"bike_id":"69b09ac4-905b-4dfb-80eb-2afebc7708ea","system_id":"levelo_inurba_marseille","lat":43.27828,"lon":5.392,"is_reserved":false,"is_disabled":false,"rental_uris":{"android":"levelo://app?vid=69b09ac4-905b-4dfb-80eb-2afebc7708ea","ios":"levelo://app?vid=69b09ac4-905b-4dfb-80eb-2afebc7708ea"},"vehicle_type_id":"4","last_reported":1728932808,"current_range_meters":30800,"station_id":"ce4bhjp2rcd13ifvqga0","pricing_plan_id":"cebpf4jnsgd1na2vs0mg"},{"bike_id":"f33ca04e-0fdd-4816-b4fc-80bcd342b78a","system_id":"levelo_inurba_marseille","lat":43.29555,"lon":5.42288,"is_reserved":false,"is_disabled":false,"rental_uris":{"android":"levelo://app?vid=f33ca04e-0fdd-4816-b4fc-80bcd342b78a","ios":"levelo://app?vid=f33ca04e-0fdd-4816-b4fc-80bcd342b78a"},"vehicle_type_id":"4","last_reported":1728932808,"current_range_meters":6400,"station_id":"ce4bhph2rcd13ifvqhdg","pricing_plan_id":"cebpf4jnsgd1na2vs0mg"},{"bike_id":"925b32c9-dce1-463a-8b78-24054e090a7e","system_id":"levelo_inurba_marseille","lat":43.28439,"lon":5.39181,"is_reserved":false,"is_disabled":false,"rental_uris":{"android":"levelo://app?vid=925b32c9-dce1-463a-8b78-24054e090a7e","ios":"levelo://app?vid=925b32c9-dce1-463a-8b78-24054e090a7e"},"vehicle_type_id":"4","last_reported":1728932808,"current_range_meters":22000,"station_id":"ce4bhoh2rcd13ifvqh5g","pricing_plan_id":"cebpf4jnsgd1na2vs0mg"},{"bike_id":"ec0517e8-ec18-4fe5-8d34-e381fe5d101f","system_id":"levelo_inurba_marseille","lat":43.30212,"lon":5.39474,"is_reserved":false,"is_disabled":false,"rental_uris":{"android":"levelo://app?vid=ec0517e8-ec18-4fe5-8d34-e381fe5d101f","ios":"levelo://app?vid=ec0517e8-ec18-4fe5-8d34-e381fe5d101f"},"vehicle_type_id":"4","last_reported":1728932808,"current_range_meters":30800,"station_id":"ce4bh0p2rcd13ifvqd70","pricing_plan_id":"cebpf4jnsgd1na2vs0mg"},{"bike_id":"90d60234-03cf-421e-89af-452c69637a59","system_id":"levelo_inurba_marseille","lat":43.24071,"lon":5.37761,"is_reserved":false,"is_disabled":false,"rental_uris":{"android":"levelo://app?vid=90d60234-03cf-421e-89af-452c69637a59","ios":"levelo://app?vid=90d60234-03cf-421e-89af-452c69637a59"},"vehicle_type_id":"4","last_reported":1728932808,"current_range_meters":33600,"station_id":"ce4bhnp2rcd13ifvqgvg","pricing_plan_id":"cebpf4jnsgd1na2vs0mg"},{"bike_id":"00f7f99a-d45a-43de-905c-50f86815ff55","system_id":"levelo_inurba_marseille","lat":43.30947,"lon":5.39029,"is_reserved":false,"is_disabled":false,"rental_uris":{"android":"levelo://app?vid=00f7f99a-d45a-43de-905c-50f86815ff55","ios":"levelo://app?vid=00f7f99a-d45a-43de-905c-50f86815ff55"},"vehicle_type_id":"4","last_reported":1728932808,"current_range_meters":38400,"station_id":"ce4bgup2rcd13ifvqco0","pricing_plan_id":"cebpf4jnsgd1na2vs0mg"},{"bike_id":"1af2813b-98a0-4b62-aaf8-89652b30f639","system_id":"levelo_inurba_marseille","lat":43.22936,"lon":5.35378,"is_reserved":false,"is_disabled":false,"rental_uris":{"android":"levelo://app?vid=1af2813b-98a0-4b62-aaf8-89652b30f639","ios":"levelo://app?vid=1af2813b-98a0-4b62-aaf8-89652b30f639"},"vehicle_type_id":"4","last_reported":1728932808,"current_range_meters":34800,"station_id":"cpo3532slgdg3j2ikp40","pricing_plan_id":"cebpf4jnsgd1na2vs0mg"},{"bike_id":"cdff0018-74fc-4ff1-8c39-032611a0d384","system_id":"levelo_inurba_marseille","lat":43.28451,"lon":5.39193,"is_reserved":false,"is_disabled":false,"rental_uris":{"android":"levelo://app?vid=cdff0018-74fc-4ff1-8c39-032611a0d384","ios":"levelo://app?vid=cdff0018-74fc-4ff1-8c39-032611a0d384"},"vehicle_type_id":"4","last_reported":1728932808,"current_range_meters":38400,"station_id":"ce4bhoh2rcd13ifvqh5g","pricing_plan_id":"cebpf4jnsgd1na2vs0mg"},{"bike_id":"f93454e1-a669-4c63-a4ca-b572042c7971","system_id":"levelo_inurba_marseille","lat":43.23192,"lon":5.35559,"is_reserved":false,"is_disabled":false,"rental_uris":{"android":"levelo://app?vid=f93454e1-a669-4c63-a4ca-b572042c7971","ios":"levelo://app?vid=f93454e1-a669-4c63-a4ca-b572042c7971"},"vehicle_type_id":"4","last_reported":1728932808,"current_range_meters":28400,"station_id":"ce4bhu92rcd13ifvqi70","pricing_plan_id":"cebpf4jnsgd1na2vs0mg"},{"bike_id":"5e96422f-9957-4b57-9e0f-690ca641807d","system_id":"levelo_inurba_marseille","lat":43.31712,"lon":5.43705,"is_reserved":false,"is_disabled":false,"rental_uris":{"android":"levelo://app?vid=5e96422f-9957-4b57-9e0f-690ca641807d","ios":"levelo://app?vid=5e96422f-9957-4b57-9e0f-690ca641807d"},"vehicle_type_id":"4","last_reported":1728932808,"current_range_meters":19600,"station_id":"ce4bhp92rcd13ifvqhcg","pricing_plan_id":"cebpf4jnsgd1na2vs0mg"},{"bike_id":"17b4cc3a-3f3a-4f16-8474-47c01772f943","system_id":"levelo_inurba_marseille","lat":43.26065,"lon":5.394,"is_reserved":false,"is_disabled":false,"rental_uris":{"android":"levelo://app?vid=17b4cc3a-3f3a-4f16-8474-47c01772f943","ios":"levelo://app?vid=17b4cc3a-3f3a-4f16-8474-47c01772f943"},"vehicle_type_id":"4","last_reported":1728932808,"current_range_meters":38800,"station_id":"ce4bhh92rcd13ifvqfj0","pricing_plan_id":"cebpf4jnsgd1na2vs0mg"},{"bike_id":"c964cc15-54d3-47ca-806c-f2cc9cec813c","system_id":"levelo_inurba_marseille","lat":43.28563,"lon":5.39501,"is_reserved":false,"is_disabled":false,"rental_uris":{"android":"levelo://app?vid=c964cc15-54d3-47ca-806c-f2cc9cec813c","ios":"levelo://app?vid=c964cc15-54d3-47ca-806c-f2cc9cec813c"},"vehicle_type_id":"4","last_reported":1728932808,"current_range_meters":2800,"station_id":"ce4bh292rcd13ifvqdg0","pricing_plan_id":"cebpf4jnsgd1na2vs0mg"},{"bike_id":"8df94bb5-9315-45f7-aecb-13efe2780616","system_id":"levelo_inurba_marseille","lat":43.31329,"lon":5.39684,"is_reserved":false,"is_disabled":false,"rental_uris":{"android":"levelo://app?vid=8df94bb5-9315-45f7-aecb-13efe2780616","ios":"levelo://app?vid=8df94bb5-9315-45f7-aecb-13efe2780616"},"vehicle_type_id":"4","last_reported":1728932808,"current_range_meters":37600,"station_id":"ce4bgvp2rcd13ifvqcu0","pricing_plan_id":"cebpf4jnsgd1na2vs0mg"},{"bike_id":"476ab3bb-9455-4401-9423-faa80f6c98d8","system_id":"levelo_inurba_marseille","lat":43.29192,"lon":5.3932,"is_reserved":false,"is_disabled":false,"rental_uris":{"android":"levelo://app?vid=476ab3bb-9455-4401-9423-faa80f6c98d8","ios":"levelo://app?vid=476ab3bb-9455-4401-9423-faa80f6c98d8"},"vehicle_type_id":"4","last_reported":1728932808,"current_range_meters":38800,"station_id":"ce4bh192rcd13ifvqdd0","pricing_plan_id":"cebpf4jnsgd1na2vs0mg"},{"bike_id":"6a344486-14e7-432e-98bf-b8beed8e06c6","system_id":"levelo_inurba_marseille","lat":43.32336,"lon":5.38328,"is_reserved":false,"is_disabled":false,"rental_uris":{"android":"levelo://app?vid=6a344486-14e7-432e-98bf-b8beed8e06c6","ios":"levelo://app?vid=6a344486-14e7-432e-98bf-b8beed8e06c6"},"vehicle_type_id":"4","last_reported":1728932808,"current_range_meters":34000,"station_id":"","pricing_plan_id":"cebpf4jnsgd1na2vs0mg"},{"bike_id":"9b8845d4-eac8-47c1-9fcb-2671037ed195","system_id":"levelo_inurba_marseille","lat":43.31758,"lon":5.39022,"is_reserved":false,"is_disabled":false,"rental_uris":{"android":"levelo://app?vid=9b8845d4-eac8-47c1-9fcb-2671037ed195","ios":"levelo://app?vid=9b8845d4-eac8-47c1-9fcb-2671037ed195"},"vehicle_type_id":"4","last_reported":1728932808,"current_range_meters":8400,"station_id":"ce4bhqp2rcd13ifvqhng","pricing_plan_id":"cebpf4jnsgd1na2vs0mg"},{"bike_id":"8737d77e-94aa-4d13-b525-ee4d321b6691","system_id":"levelo_inurba_marseille","lat":43.2465,"lon":5.38897,"is_reserved":false,"is_disabled":false,"rental_uris":{"android":"levelo://app?vid=8737d77e-94aa-4d13-b525-ee4d321b6691","ios":"levelo://app?vid=8737d77e-94aa-4d13-b525-ee4d321b6691"},"vehicle_type_id":"4","last_reported":1728932808,"current_range_meters":10800,"station_id":"ce4bhg12rcd13ifvqf60","pricing_plan_id":"cebpf4jnsgd1na2vs0mg"},{"bike_id":"72a79d72-22a5-45d1-9521-3624cd089d7a","system_id":"levelo_inurba_marseille","lat":43.24811,"lon":5.37463,"is_reserved":false,"is_disabled":false,"rental_uris":{"android":"levelo://app?vid=72a79d72-22a5-45d1-9521-3624cd089d7a","ios":"levelo://app?vid=72a79d72-22a5-45d1-9521-3624cd089d7a"},"vehicle_type_id":"4","last_reported":1728932808,"current_range_meters":3600,"station_id":"ce4bhgh2rcd13ifvqfb0","pricing_plan_id":"cebpf4jnsgd1na2vs0mg"},{"bike_id":"3bad0a29-c6b9-4d89-8ff7-850668526b6b","system_id":"levelo_inurba_marseille","lat":43.31357,"lon":5.385,"is_reserved":false,"is_disabled":false,"rental_uris":{"android":"levelo://app?vid=3bad0a29-c6b9-4d89-8ff7-850668526b6b","ios":"levelo://app?vid=3bad0a29-c6b9-4d89-8ff7-850668526b6b"},"vehicle_type_id":"4","last_reported":1728932808,"current_range_meters":21600,"station_id":"ce4bgt92rcd13ifvqcf0","pricing_plan_id":"cebpf4jnsgd1na2vs0mg"},{"bike_id":"4fe94fb2-31c1-4f69-810f-2301eba419a5","system_id":"levelo_inurba_marseille","lat":43.29196,"lon":5.39321,"is_reserved":false,"is_disabled":false,"rental_uris":{"android":"levelo://app?vid=4fe94fb2-31c1-4f69-810f-2301eba419a5","ios":"levelo://app?vid=4fe94fb2-31c1-4f69-810f-2301eba419a5"},"vehicle_type_id":"4","last_reported":1728932808,"current_range_meters":24000,"station_id":"ce4bh192rcd13ifvqdd0","pricing_plan_id":"cebpf4jnsgd1na2vs0mg"},{"bike_id":"826e67a1-1f1b-48d5-9965-734aa482296d","system_id":"levelo_inurba_marseille","lat":43.30805,"lon":5.43527,"is_reserved":false,"is_disabled":false,"rental_uris":{"android":"levelo://app?vid=826e67a1-1f1b-48d5-9965-734aa482296d","ios":"levelo://app?vid=826e67a1-1f1b-48d5-9965-734aa482296d"},"vehicle_type_id":"4","last_reported":1728932808,"current_range_meters":10000,"station_id":"ce4bhph2rcd13ifvqheg","pricing_plan_id":"cebpf4jnsgd1na2vs0mg"},{"bike_id":"754da881-cbc9-4b35-beb2-51d368048841","system_id":"levelo_inurba_marseille","lat":43.33749,"lon":5.37451,"is_reserved":false,"is_disabled":false,"rental_uris":{"android":"levelo://app?vid=754da881-cbc9-4b35-beb2-51d368048841","ios":"levelo://app?vid=754da881-cbc9-4b35-beb2-51d368048841"},"vehicle_type_id":"4","last_reported":1728932808,"current_range_meters":37600,"station_id":"","pricing_plan_id":"cebpf4jnsgd1na2vs0mg"},{"bike_id":"4ccb61f0-fe9d-45ac-8109-7b4b8e2ed881","system_id":"levelo_inurba_marseille","lat":43.28613,"lon":5.37064,"is_reserved":false,"is_disabled":false,"rental_uris":{"android":"levelo://app?vid=4ccb61f0-fe9d-45ac-8109-7b4b8e2ed881","ios":"levelo://app?vid=4ccb61f0-fe9d-45ac-8109-7b4b8e2ed881"},"vehicle_type_id":"4","last_reported":1728932808,"current_range_meters":19600,"station_id":"ce4bht12rcd13ifvqi60","pricing_plan_id":"cebpf4jnsgd1na2vs0mg"},{"bike_id":"dcd9c2d3-0fb7-41e9-a6a9-4039f2f8d9b8","system_id":"levelo_inurba_marseille","lat":43.22934,"lon":5.35375,"is_reserved":false,"is_disabled":false,"rental_uris":{"android":"levelo://app?vid=dcd9c2d3-0fb7-41e9-a6a9-4039f2f8d9b8","ios":"levelo://app?vid=dcd9c2d3-0fb7-41e9-a6a9-4039f2f8d9b8"},"vehicle_type_id":"4","last_reported":1728932808,"current_range_meters":22000,"station_id":"cpo3532slgdg3j2ikp40","pricing_plan_id":"cebpf4jnsgd1na2vs0mg"},{"bike_id":"80004c0b-1888-4bc4-861c-1bb18fe1efd7","system_id":"levelo_inurba_marseille","lat":43.29554,"lon":5.42293,"is_reserved":false,"is_disabled":false,"rental_uris":{"android":"levelo://app?vid=80004c0b-1888-4bc4-861c-1bb18fe1efd7","ios":"levelo://app?vid=80004c0b-1888-4bc4-861c-1bb18fe1efd7"},"vehicle_type_id":"4","last_reported":1728932808,"current_range_meters":38800,"station_id":"ce4bhph2rcd13ifvqhdg","pricing_plan_id":"cebpf4jnsgd1na2vs0mg"},{"bike_id":"dd8f58d2-7409-4c08-bec2-6d727a440544","system_id":"levelo_inurba_marseille","lat":43.31261,"lon":5.40168,"is_reserved":false,"is_disabled":false,"rental_uris":{"android":"levelo://app?vid=dd8f58d2-7409-4c08-bec2-6d727a440544","ios":"levelo://app?vid=dd8f58d2-7409-4c08-bec2-6d727a440544"},"vehicle_type_id":"4","last_reported":1728932808,"current_range_meters":36400,"station_id":"ce4bh092rcd13ifvqd30","pricing_plan_id":"cebpf4jnsgd1na2vs0mg"},{"bike_id":"df4aed1b-317f-4cfc-8330-ad30e350b41b","system_id":"levelo_inurba_marseille","lat":43.29038,"lon":5.38649,"is_reserved":false,"is_disabled":false,"rental_uris":{"android":"levelo://app?vid=df4aed1b-317f-4cfc-8330-ad30e350b41b","ios":"levelo://app?vid=df4aed1b-317f-4cfc-8330-ad30e350b41b"},"vehicle_type_id":"4","last_reported":1728932808,"current_range_meters":26800,"station_id":"ce4bh4p2rcd13ifvqe0g","pricing_plan_id":"cebpf4jnsgd1na2vs0mg"},{"bike_id":"ad4ef1ce-952a-4e4d-8204-72c05bd98609","system_id":"levelo_inurba_marseille","lat":43.2928,"lon":5.40117,"is_reserved":false,"is_disabled":false,"rental_uris":{"android":"levelo://app?vid=ad4ef1ce-952a-4e4d-8204-72c05bd98609","ios":"levelo://app?vid=ad4ef1ce-952a-4e4d-8204-72c05bd98609"},"vehicle_type_id":"4","last_reported":1728932808,"current_range_meters":30000,"station_id":"ce4bh312rcd13ifvqdk0","pricing_plan_id":"cebpf4jnsgd1na2vs0mg"},{"bike_id":"6514b9a6-8e99-464e-be55-93af0d95018a","system_id":"levelo_inurba_marseille","lat":43.2586,"lon":5.39903,"is_reserved":false,"is_disabled":false,"rental_uris":{"android":"levelo://app?vid=6514b9a6-8e99-464e-be55-93af0d95018a","ios":"levelo://app?vid=6514b9a6-8e99-464e-be55-93af0d95018a"},"vehicle_type_id":"4","last_reported":1728932808,"current_range_meters":24800,"station_id":"ce4bhl92rcd13ifvqghg","pricing_plan_id":"cebpf4jnsgd1na2vs0mg"},{"bike_id":"123ba8d6-7c33-4fdf-a0ee-488a6f7df6c9","system_id":"levelo_inurba_marseille","lat":43.29535,"lon":5.39037,"is_reserved":false,"is_disabled":false,"rental_uris":{"android":"levelo://app?vid=123ba8d6-7c33-4fdf-a0ee-488a6f7df6c9","ios":"levelo://app?vid=123ba8d6-7c33-4fdf-a0ee-488a6f7df6c9"},"vehicle_type_id":"4","last_reported":1728932808,"current_range_meters":23200,"station_id":"ce4bh3p2rcd13ifvqdp0","pricing_plan_id":"cebpf4jnsgd1na2vs0mg"},{"bike_id":"5d1e5410-1541-4810-b936-ac35687df37c","system_id":"levelo_inurba_marseille","lat":43.2706,"lon":5.40272,"is_reserved":false,"is_disabled":false,"rental_uris":{"android":"levelo://app?vid=5d1e5410-1541-4810-b936-ac35687df37c","ios":"levelo://app?vid=5d1e5410-1541-4810-b936-ac35687df37c"},"vehicle_type_id":"4","last_reported":1728932808,"current_range_meters":23200,"station_id":"ce4bhk92rcd13ifvqgc0","pricing_plan_id":"cebpf4jnsgd1na2vs0mg"},{"bike_id":"ab688a2f-d7db-48d1-9c5c-9052958d9181","system_id":"levelo_inurba_marseille","lat":43.28927,"lon":5.38398,"is_reserved":false,"is_disabled":false,"rental_uris":{"android":"levelo://app?vid=ab688a2f-d7db-48d1-9c5c-9052958d9181","ios":"levelo://app?vid=ab688a2f-d7db-48d1-9c5c-9052958d9181"},"vehicle_type_id":"4","last_reported":1728932808,"current_range_meters":38800,"station_id":"ce4bh612rcd13ifvqe6g","pricing_plan_id":"cebpf4jnsgd1na2vs0mg"},{"bike_id":"f6626015-e450-4c3f-9833-1201f357d67e","system_id":"levelo_inurba_marseille","lat":43.29038,"lon":5.38655,"is_reserved":false,"is_disabled":false,"rental_uris":{"android":"levelo://app?vid=f6626015-e450-4c3f-9833-1201f357d67e","ios":"levelo://app?vid=f6626015-e450-4c3f-9833-1201f357d67e"},"vehicle_type_id":"4","last_reported":1728932808,"current_range_meters":25200,"station_id":"ce4bhgh2rcd13ifvqfb0","pricing_plan_id":"cebpf4jnsgd1na2vs0mg"},{"bike_id":"b19adf7b-9676-41dc-a92d-ef84db9262cc","system_id":"levelo_inurba_marseille","lat":43.26061,"lon":5.39398,"is_reserved":false,"is_disabled":false,"rental_uris":{"android":"levelo://app?vid=b19adf7b-9676-41dc-a92d-ef84db9262cc","ios":"levelo://app?vid=b19adf7b-9676-41dc-a92d-ef84db9262cc"},"vehicle_type_id":"4","last_reported":1728932808,"current_range_meters":14000,"station_id":"ce4bhh92rcd13ifvqfj0","pricing_plan_id":"cebpf4jnsgd1na2vs0mg"},{"bike_id":"2dd49c10-f360-425d-ba4e-64c06a577fdb","system_id":"levelo_inurba_marseille","lat":43.2904,"lon":5.39959,"is_reserved":false,"is_disabled":false,"rental_uris":{"android":"levelo://app?vid=2dd49c10-f360-425d-ba4e-64c06a577fdb","ios":"levelo://app?vid=2dd49c10-f360-425d-ba4e-64c06a577fdb"},"vehicle_type_id":"4","last_reported":1728932808,"current_range_meters":19600,"station_id":"ce4bh392rcd13ifvqdm0","pricing_plan_id":"cebpf4jnsgd1na2vs0mg"},{"bike_id":"24da4e31-e90f-4b53-8020-13d1f2074222","system_id":"levelo_inurba_marseille","lat":43.31074,"lon":5.38354,"is_reserved":false,"is_disabled":false,"rental_uris":{"android":"levelo://app?vid=24da4e31-e90f-4b53-8020-13d1f2074222","ios":"levelo://app?vid=24da4e31-e90f-4b53-8020-13d1f2074222"},"vehicle_type_id":"4","last_reported":1728932808,"current_range_meters":32000,"station_id":"ce4bgv92rcd13ifvqcr0","pricing_plan_id":"cebpf4jnsgd1na2vs0mg"},{"bike_id":"6f49d727-6d61-408e-ab43-e78c803414ac","system_id":"levelo_inurba_marseille","lat":43.29085,"lon":5.38144,"is_reserved":false,"is_disabled":false,"rental_uris":{"android":"levelo://app?vid=6f49d727-6d61-408e-ab43-e78c803414ac","ios":"levelo://app?vid=6f49d727-6d61-408e-ab43-e78c803414ac"},"vehicle_type_id":"4","last_reported":1728932808,"current_range_meters":38800,"station_id":"ce4bh512rcd13ifvqe2g","pricing_plan_id":"cebpf4jnsgd1na2vs0mg"},{"bike_id":"f269126c-1b0b-4a1a-a1d6-f8c3716f5336","system_id":"levelo_inurba_marseille","lat":43.23196,"lon":5.35552,"is_reserved":false,"is_disabled":false,"rental_uris":{"android":"levelo://app?vid=f269126c-1b0b-4a1a-a1d6-f8c3716f5336","ios":"levelo://app?vid=f269126c-1b0b-4a1a-a1d6-f8c3716f5336"},"vehicle_type_id":"4","last_reported":1728932808,"current_range_meters":36800,"station_id":"ce4bhu92rcd13ifvqi70","pricing_plan_id":"cebpf4jnsgd1na2vs0mg"},{"bike_id":"42aa692d-0c56-4880-86b5-38944ea91f16","system_id":"levelo_inurba_marseille","lat":43.289368,"lon":5.366548,"is_reserved":false,"is_disabled":false,"rental_uris":{"android":"levelo://app?vid=42aa692d-0c56-4880-86b5-38944ea91f16","ios":"levelo://app?vid=42aa692d-0c56-4880-86b5-38944ea91f16"},"vehicle_type_id":"4","last_reported":1728932808,"current_range_meters":39200,"station_id":"ce4bhap2rcd13ifvqek0","pricing_plan_id":"cebpf4jnsgd1na2vs0mg"},{"bike_id":"505d48c9-419c-464c-b44a-845c98280dfd","system_id":"levelo_inurba_marseille","lat":43.30422,"lon":5.38875,"is_reserved":false,"is_disabled":false,"rental_uris":{"android":"levelo://app?vid=505d48c9-419c-464c-b44a-845c98280dfd","ios":"levelo://app?vid=505d48c9-419c-464c-b44a-845c98280dfd"},"vehicle_type_id":"4","last_reported":1728932808,"current_range_meters":37600,"station_id":"ce4bgk12rcd13ifvqbi0","pricing_plan_id":"cebpf4jnsgd1na2vs0mg"},{"bike_id":"206337a7-d6c1-42aa-8425-762634b39d82","system_id":"levelo_inurba_marseille","lat":43.34148,"lon":5.40902,"is_reserved":false,"is_disabled":false,"rental_uris":{"android":"levelo://app?vid=206337a7-d6c1-42aa-8425-762634b39d82","ios":"levelo://app?vid=206337a7-d6c1-42aa-8425-762634b39d82"},"vehicle_type_id":"4","last_reported":1728932808,"current_range_meters":28800,"station_id":"ce4bhqh2rcd13ifvqhlg","pricing_plan_id":"cebpf4jnsgd1na2vs0mg"},{"bike_id":"69c89ccb-175a-40d8-859c-b8dbd67d14df","system_id":"levelo_inurba_marseille","lat":43.29901,"lon":5.4367,"is_reserved":false,"is_disabled":false,"rental_uris":{"android":"levelo://app?vid=69c89ccb-175a-40d8-859c-b8dbd67d14df","ios":"levelo://app?vid=69c89ccb-175a-40d8-859c-b8dbd67d14df"},"vehicle_type_id":"4","last_reported":1728932808,"current_range_meters":14800,"station_id":"ce4bhpp2rcd13ifvqhfg","pricing_plan_id":"cebpf4jnsgd1na2vs0mg"},{"bike_id":"4a8f54a4-dbbe-495a-bf7a-12ffe046f888","system_id":"levelo_inurba_marseille","lat":43.29031,"lon":5.38632,"is_reserved":false,"is_disabled":false,"rental_uris":{"android":"levelo://app?vid=4a8f54a4-dbbe-495a-bf7a-12ffe046f888","ios":"levelo://app?vid=4a8f54a4-dbbe-495a-bf7a-12ffe046f888"},"vehicle_type_id":"4","last_reported":1728932808,"current_range_meters":39200,"station_id":"ce4bh4p2rcd13ifvqe0g","pricing_plan_id":"cebpf4jnsgd1na2vs0mg"},{"bike_id":"d47c0ee8-6f6c-4953-a29e-a815b1a6c7cb","system_id":"levelo_inurba_marseille","lat":43.29028,"lon":5.38639,"is_reserved":false,"is_disabled":false,"rental_uris":{"android":"levelo://app?vid=d47c0ee8-6f6c-4953-a29e-a815b1a6c7cb","ios":"levelo://app?vid=d47c0ee8-6f6c-4953-a29e-a815b1a6c7cb"},"vehicle_type_id":"4","last_reported":1728932808,"current_range_meters":19600,"station_id":"ce4bh4p2rcd13ifvqe0g","pricing_plan_id":"cebpf4jnsgd1na2vs0mg"},{"bike_id":"a5e04fae-e2ee-4370-82b9-3d191e1ceeb6","system_id":"levelo_inurba_marseille","lat":43.304779,"lon":5.367353,"is_reserved":false,"is_disabled":false,"rental_uris":{"android":"levelo://app?vid=a5e04fae-e2ee-4370-82b9-3d191e1ceeb6","ios":"levelo://app?vid=a5e04fae-e2ee-4370-82b9-3d191e1ceeb6"},"vehicle_type_id":"4","last_reported":1728932808,"current_range_meters":20800,"station_id":"ce4bgrp2rcd13ifvqc9g","pricing_plan_id":"cebpf4jnsgd1na2vs0mg"},{"bike_id":"94d48054-be54-488d-a425-2deb433f452c","system_id":"levelo_inurba_marseille","lat":43.29806,"lon":5.3644,"is_reserved":false,"is_disabled":false,"rental_uris":{"android":"levelo://app?vid=94d48054-be54-488d-a425-2deb433f452c","ios":"levelo://app?vid=94d48054-be54-488d-a425-2deb433f452c"},"vehicle_type_id":"4","last_reported":1728932808,"current_range_meters":28000,"station_id":"ce4bgnh2rcd13ifvqc0g","pricing_plan_id":"cebpf4jnsgd1na2vs0mg"},{"bike_id":"2146558d-993b-4010-bf4d-b2b87f16d98f","system_id":"levelo_inurba_marseille","lat":43.30797,"lon":5.43532,"is_reserved":false,"is_disabled":false,"rental_uris":{"android":"levelo://app?vid=2146558d-993b-4010-bf4d-b2b87f16d98f","ios":"levelo://app?vid=2146558d-993b-4010-bf4d-b2b87f16d98f"},"vehicle_type_id":"4","last_reported":1728932808,"current_range_meters":26000,"station_id":"ce4bhph2rcd13ifvqheg","pricing_plan_id":"cebpf4jnsgd1na2vs0mg"},{"bike_id":"ca7fc318-b0a4-4c97-8a67-4140782b3d86","system_id":"levelo_inurba_marseille","lat":43.2872,"lon":5.36089,"is_reserved":false,"is_disabled":false,"rental_uris":{"android":"levelo://app?vid=ca7fc318-b0a4-4c97-8a67-4140782b3d86","ios":"levelo://app?vid=ca7fc318-b0a4-4c97-8a67-4140782b3d86"},"vehicle_type_id":"4","last_reported":1728932808,"current_range_meters":30000,"station_id":"cki0cbj6b192h4jlfktg","pricing_plan_id":"cebpf4jnsgd1na2vs0mg"},{"bike_id":"a33d3f98-2473-40ab-b30e-8d8913bbcc18","system_id":"levelo_inurba_marseille","lat":43.28038,"lon":5.36955,"is_reserved":false,"is_disabled":false,"rental_uris":{"android":"levelo://app?vid=a33d3f98-2473-40ab-b30e-8d8913bbcc18","ios":"levelo://app?vid=a33d3f98-2473-40ab-b30e-8d8913bbcc18"},"vehicle_type_id":"4","last_reported":1728932808,"current_range_meters":27200,"station_id":"ce4bha12rcd13ifvqef0","pricing_plan_id":"cebpf4jnsgd1na2vs0mg"},{"bike_id":"c6710237-b445-4862-8616-47ea11d83d0f","system_id":"levelo_inurba_marseille","lat":43.24161,"lon":5.36394,"is_reserved":false,"is_disabled":false,"rental_uris":{"android":"levelo://app?vid=c6710237-b445-4862-8616-47ea11d83d0f","ios":"levelo://app?vid=c6710237-b445-4862-8616-47ea11d83d0f"},"vehicle_type_id":"4","last_reported":1728932808,"current_range_meters":28400,"station_id":"cpo36qri1sfpv3e86is0","pricing_plan_id":"cebpf4jnsgd1na2vs0mg"},{"bike_id":"403bfd01-4e2c-41de-8653-d3cba62f4f0e","system_id":"levelo_inurba_marseille","lat":43.30807,"lon":5.43523,"is_reserved":false,"is_disabled":false,"rental_uris":{"android":"levelo://app?vid=403bfd01-4e2c-41de-8653-d3cba62f4f0e","ios":"levelo://app?vid=403bfd01-4e2c-41de-8653-d3cba62f4f0e"},"vehicle_type_id":"4","last_reported":1728932808,"current_range_meters":10800,"station_id":"ce4bhph2rcd13ifvqheg","pricing_plan_id":"cebpf4jnsgd1na2vs0mg"},{"bike_id":"34124a3c-979a-42e1-91ae-439b707c8cbb","system_id":"levelo_inurba_marseille","lat":43.31481,"lon":5.37311,"is_reserved":false,"is_disabled":false,"rental_uris":{"android":"levelo://app?vid=34124a3c-979a-42e1-91ae-439b707c8cbb","ios":"levelo://app?vid=34124a3c-979a-42e1-91ae-439b707c8cbb"},"vehicle_type_id":"4","last_reported":1728932808,"current_range_meters":17200,"station_id":"ce4bgt12rcd13ifvqcd0","pricing_plan_id":"cebpf4jnsgd1na2vs0mg"},{"bike_id":"384b648d-c213-470a-9a57-51c7fd98889b","system_id":"levelo_inurba_marseille","lat":43.312343,"lon":5.36865,"is_reserved":false,"is_disabled":false,"rental_uris":{"android":"levelo://app?vid=384b648d-c213-470a-9a57-51c7fd98889b","ios":"levelo://app?vid=384b648d-c213-470a-9a57-51c7fd98889b"},"vehicle_type_id":"4","last_reported":1728932808,"current_range_meters":22000,"station_id":"ce4bgl92rcd13ifvqbq0","pricing_plan_id":"cebpf4jnsgd1na2vs0mg"},{"bike_id":"a69949f3-b1de-434f-a682-78844d4461de","system_id":"levelo_inurba_marseille","lat":43.33023,"lon":5.39039,"is_reserved":false,"is_disabled":false,"rental_uris":{"android":"levelo://app?vid=a69949f3-b1de-434f-a682-78844d4461de","ios":"levelo://app?vid=a69949f3-b1de-434f-a682-78844d4461de"},"vehicle_type_id":"4","last_reported":1728932808,"current_range_meters":22400,"station_id":"ce4bhr92rcd13ifvqhrg","pricing_plan_id":"cebpf4jnsgd1na2vs0mg"},{"bike_id":"c95409fc-24a4-44f1-808d-f1764ab80930","system_id":"levelo_inurba_marseille","lat":43.302527,"lon":5.40092,"is_reserved":false,"is_disabled":false,"rental_uris":{"android":"levelo://app?vid=c95409fc-24a4-44f1-808d-f1764ab80930","ios":"levelo://app?vid=c95409fc-24a4-44f1-808d-f1764ab80930"},"vehicle_type_id":"4","last_reported":1728932808,"current_range_meters":24400,"station_id":"ce4bgvh2rcd13ifvqcs0","pricing_plan_id":"cebpf4jnsgd1na2vs0mg"},{"bike_id":"7e57da64-3af7-4a5a-954e-66618d4b5fe4","system_id":"levelo_inurba_marseille","lat":43.25831,"lon":5.39446,"is_reserved":false,"is_disabled":false,"rental_uris":{"android":"levelo://app?vid=7e57da64-3af7-4a5a-954e-66618d4b5fe4","ios":"levelo://app?vid=7e57da64-3af7-4a5a-954e-66618d4b5fe4"},"vehicle_type_id":"4","last_reported":1728932808,"current_range_meters":38800,"station_id":"ce4bhip2rcd13ifvqft0","pricing_plan_id":"cebpf4jnsgd1na2vs0mg"},{"bike_id":"e742fc04-8391-434b-a102-0604ac4d974e","system_id":"levelo_inurba_marseille","lat":43.31074,"lon":5.40093,"is_reserved":false,"is_disabled":false,"rental_uris":{"android":"levelo://app?vid=e742fc04-8391-434b-a102-0604ac4d974e","ios":"levelo://app?vid=e742fc04-8391-434b-a102-0604ac4d974e"},"vehicle_type_id":"4","last_reported":1728932808,"current_range_meters":21600,"station_id":"","pricing_plan_id":"cebpf4jnsgd1na2vs0mg"},{"bike_id":"94e11af5-c82c-46ba-a34a-523a9d332fc3","system_id":"levelo_inurba_marseille","lat":43.28087,"lon":5.39662,"is_reserved":false,"is_disabled":false,"rental_uris":{"android":"levelo://app?vid=94e11af5-c82c-46ba-a34a-523a9d332fc3","ios":"levelo://app?vid=94e11af5-c82c-46ba-a34a-523a9d332fc3"},"vehicle_type_id":"4","last_reported":1728932808,"current_range_meters":36800,"station_id":"ce4bho12rcd13ifvqh2g","pricing_plan_id":"cebpf4jnsgd1na2vs0mg"},{"bike_id":"449c86ab-03cb-4615-adee-5e614e50c9ef","system_id":"levelo_inurba_marseille","lat":43.29255,"lon":5.40911,"is_reserved":false,"is_disabled":false,"rental_uris":{"android":"levelo://app?vid=449c86ab-03cb-4615-adee-5e614e50c9ef","ios":"levelo://app?vid=449c86ab-03cb-4615-adee-5e614e50c9ef"},"vehicle_type_id":"4","last_reported":1728932808,"current_range_meters":7200,"station_id":"ce4bh192rcd13ifvqdc0","pricing_plan_id":"cebpf4jnsgd1na2vs0mg"},{"bike_id":"3fc67e63-2f41-4a02-ba48-d366846a9b64","system_id":"levelo_inurba_marseille","lat":43.27998,"lon":5.4003,"is_reserved":false,"is_disabled":false,"rental_uris":{"android":"levelo://app?vid=3fc67e63-2f41-4a02-ba48-d366846a9b64","ios":"levelo://app?vid=3fc67e63-2f41-4a02-ba48-d366846a9b64"},"vehicle_type_id":"4","last_reported":1728932808,"current_range_meters":39200,"station_id":"ce4bho92rcd13ifvqh4g","pricing_plan_id":"cebpf4jnsgd1na2vs0mg"},{"bike_id":"36b15776-9ed7-4ae9-b9e8-d597f0563bcc","system_id":"levelo_inurba_marseille","lat":43.3237,"lon":5.38888,"is_reserved":false,"is_disabled":false,"rental_uris":{"android":"levelo://app?vid=36b15776-9ed7-4ae9-b9e8-d597f0563bcc","ios":"levelo://app?vid=36b15776-9ed7-4ae9-b9e8-d597f0563bcc"},"vehicle_type_id":"4","last_reported":1728932808,"current_range_meters":38800,"station_id":"ce4bhqp2rcd13ifvqhog","pricing_plan_id":"cebpf4jnsgd1na2vs0mg"},