{"last_updated":1740057438,"ttl":60,"version":"2.2","data":{"bikes":[{"bike_id":"3fe6ab18-eb98-4ac1-acd7-00495e9c5a6c","system_id":"levelo_inurba_marseille","lat":43.30137,"lon":5.37434,"is_reserved":false,"is_disabled":false,"rental_uris":{"android":"levelo://app?vid=3fe6ab18-eb98-4ac1-acd7-00495e9c5a6c","ios":"levelo://app?vid=3fe6ab18-eb98-4ac1-acd7-00495e9c5a6c"},"vehicle_type_id":"4","last_reported":1740057438,"current_range_meters":2800,"station_id":"ce4bgs92rcd13ifvqcc0","pricing_plan_id":"cebpf4jnsgd1na2vs0mg"},{"bike_id":"2f146df1-fd64-4ca9-aa57-275d36e0097d","system_id":"levelo_inurba_marseille","lat":43.27052,"lon":5.40261,"is_reserved":false,"is_disabled":false,"rental_uris":{"android":"levelo://app?vid=2f146df1-fd64-4ca9-aa57-275d36e0097d","ios":"levelo://app?vid=2f146df1-fd64-4ca9-aa57-275d36e0097d"},"vehicle_type_id":"4","last_reported":1740057438,"current_range_meters":2800,"station_id":"ce4bhk92rcd13ifvqgc0","pricing_plan_id":"cebpf4jnsgd1na2vs0mg"},{"bike_id":"e7825d39-b3a0-43c9-95eb-8d25c92d8cf6","system_id":"levelo_inurba_marseille","lat":43.29046,"lon":5.39949,"is_reserved":false,"is_disabled":false,"rental_uris":{"android":"levelo://app?vid=e7825d39-b3a0-43c9-95eb-8d25c92d8cf6","ios":"levelo://app?vid=e7825d39-b3a0-43c9-95eb-8d25c92d8cf6"},"vehicle_type_id":"4","last_reported":1740057438,"current_range_meters":3200,"station_id":"","pricing_plan_id":"cebpf4jnsgd1na2vs0mg"},{"bike_id":"631e241b-ac0d-4f5e-b0e0-d7463db37d0a","system_id":"levelo_inurba_marseille","lat":43.24071,"lon":5.37766,"is_reserved":false,"is_disabled":false,"rental_uris":{"android":"levelo://app?vid=631e241b-ac0d-4f5e-b0e0-d7463db37d0a","ios":"levelo://app?vid=631e241b-ac0d-4f5e-b0e0-d7463db37d0a"},"vehicle_type_id":"4","last_reported":1740057438,"current_range_meters":3200,"station_id":"ce4bhnp2rcd13ifvqgvg","pricing_plan_id":"cebpf4jnsgd1na2vs0mg"},{"bike_id":"cf64b7cd-4626-4d79-afac-2611db88ce28","system_id":"levelo_inurba_marseille","lat":43.28001,"lon":5.41645,"is_reserved":false,"is_disabled":false,"rental_uris":{"android":"levelo://app?vid=cf64b7cd-4626-4d79-afac-2611db88ce28","ios":"levelo://app?vid=cf64b7cd-4626-4d79-afac-2611db88ce28"},"vehicle_type_id":"4","last_reported":1740057438,"current_range_meters":4000,"station_id":"ce4bho12rcd13ifvqh1g","pricing_plan_id":"cebpf4jnsgd1na2vs0mg"},{"bike_id":"adb3d6df-7149-4295-84c9-8f4cb47f9c0e","system_id":"levelo_inurba_marseille","lat":43.27279,"lon":5.40673,"is_reserved":false,"is_disabled":true,"rental_uris":{"android":"levelo://app?vid=adb3d6df-7149-4295-84c9-8f4cb47f9c0e","ios":"levelo://app?vid=adb3d6df-7149-4295-84c9-8f4cb47f9c0e"},"vehicle_type_id":"4","last_reported":1740057438,"current_range_meters":4000,"station_id":"","pricing_plan_id":"cebpf4jnsgd1na2vs0mg"},{"bike_id":"8d748548-fc85-42a0-8d5d-24d6d58d3a29","system_id":"levelo_inurba_marseille","lat":43.29004,"lon":5.38332,"is_reserved":false,"is_disabled":false,"rental_uris":{"android":"levelo://app?vid=8d748548-fc85-42a0-8d5d-24d6d58d3a29","ios":"levelo://app?vid=8d748548-fc85-42a0-8d5d-24d6d58d3a29"},"vehicle_type_id":"4","last_reported":1740057438,"current_range_meters":4400,"station_id":"","pricing_plan_id":"cebpf4jnsgd1na2vs0mg"},{"bike_id":"ed356dd8-0353-427c-9cf0-284ca7b500d9","system_id":"levelo_inurba_marseille","lat":43.25088,"lon":5.39507,"is_reserved":false,"is_disabled":false,"rental_uris":{"android":"levelo://app?vid=ed356dd8-0353-427c-9cf0-284ca7b500d9","ios":"levelo://app?vid=ed356dd8-0353-427c-9cf0-284ca7b500d9"},"vehicle_type_id":"4","last_reported":1740057438,"current_range_meters":4800,"station_id":"ce4bhm12rcd13ifvqgkg","pricing_plan_id":"cebpf4jnsgd1na2vs0mg"},{"bike_id":"fd7493cc-31f3-49ce-b79a-682a99a8fcec","system_id":"levelo_inurba_marseille","lat":43.25897,"lon":5.40857,"is_reserved":false,"is_disabled":false,"rental_uris":{"android":"levelo://app?vid=fd7493cc-31f3-49ce-b79a-682a99a8fcec","ios":"levelo://app?vid=fd7493cc-31f3-49ce-b79a-682a99a8fcec"},"vehicle_type_id":"4","last_reported":1740057438,"current_range_meters":5600,"station_id":"ce4bhm92rcd13ifvqglg","pricing_plan_id":"cebpf4jnsgd1na2vs0mg"},{"bike_id":"e358fa0d-ff33-43a9-9e90-2f47e3923455","system_id":"levelo_inurba_marseille","lat":43.28438,"lon":5.39191,"is_reserved":false,"is_disabled":false,"rental_uris":{"android":"levelo://app?vid=e358fa0d-ff33-43a9-9e90-2f47e3923455","ios":"levelo://app?vid=e358fa0d-ff33-43a9-9e90-2f47e3923455"},"vehicle_type_id":"4","last_reported":1740057438,"current_range_meters":6000,"station_id":"ce4bhoh2rcd13ifvqh5g","pricing_plan_id":"cebpf4jnsgd1na2vs0mg"},{"bike_id":"59367cd7-9146-4b42-8d6e-239fcbf25be5","system_id":"levelo_inurba_marseille","lat":43.26562,"lon":5.39013,"is_reserved":false,"is_disabled":false,"rental_uris":{"android":"levelo://app?vid=59367cd7-9146-4b42-8d6e-239fcbf25be5","ios":"levelo://app?vid=59367cd7-9146-4b42-8d6e-239fcbf25be5"},"vehicle_type_id":"4","last_reported":1740057438,"current_range_meters":6000,"station_id":"","pricing_plan_id":"cebpf4jnsgd1na2vs0mg"},{"bike_id":"9198c6ef-bd5b-45d9-bd7b-e058d791d44b","system_id":"levelo_inurba_marseille","lat":43.24817,"lon":5.37461,"is_reserved":false,"is_disabled":true,"rental_uris":{"android":"levelo://app?vid=9198c6ef-bd5b-45d9-bd7b-e058d791d44b","ios":"levelo://app?vid=9198c6ef-bd5b-45d9-bd7b-e058d791d44b"},"vehicle_type_id":"4","last_reported":1740057438,"current_range_meters":6000,"station_id":"","pricing_plan_id":"cebpf4jnsgd1na2vs0mg"},{"bike_id":"ec2a2a80-692c-4e61-b758-ee418e5968e4","system_id":"levelo_inurba_marseille","lat":43.23972,"lon":5.36619,"is_reserved":false,"is_disabled":false,"rental_uris":{"android":"levelo://app?vid=ec2a2a80-692c-4e61-b758-ee418e5968e4","ios":"levelo://app?vid=ec2a2a80-692c-4e61-b758-ee418e5968e4"},"vehicle_type_id":"4","last_reported":1740057438,"current_range_meters":6000,"station_id":"ce4bhi12rcd13ifvqfp0","pricing_plan_id":"cebpf4jnsgd1na2vs0mg"},{"bike_id":"fde88e60-06df-44f1-9168-61675e77d9b8","system_id":"levelo_inurba_marseille","lat":43.23149,"lon":5.43735,"is_reserved":false,"is_disabled":false,"rental_uris":{"android":"levelo://app?vid=fde88e60-06df-44f1-9168-61675e77d9b8","ios":"levelo://app?vid=fde88e60-06df-44f1-9168-61675e77d9b8"},"vehicle_type_id":"4","last_reported":1740057438,"current_range_meters":6400,"station_id":"ce4bhmp2rcd13ifvqgog","pricing_plan_id":"cebpf4jnsgd1na2vs0mg"},{"bike_id":"1821cf5a-24bc-4763-9753-11df4acc4f4c","system_id":"levelo_inurba_marseille","lat":43.24168,"lon":5.36392,"is_reserved":false,"is_disabled":false,"rental_uris":{"android":"levelo://app?vid=1821cf5a-24bc-4763-9753-11df4acc4f4c","ios":"levelo://app?vid=1821cf5a-24bc-4763-9753-11df4acc4f4c"},"vehicle_type_id":"4","last_reported":1740057438,"current_range_meters":6400,"station_id":"cpo36qri1sfpv3e86is0","pricing_plan_id":"cebpf4jnsgd1na2vs0mg"},{"bike_id":"79a5966a-f47f-45f5-bb81-c3573d592daf","system_id":"levelo_inurba_marseille","lat":43.32482,"lon":5.36569,"is_reserved":false,"is_disabled":false,"rental_uris":{"android":"levelo://app?vid=79a5966a-f47f-45f5-bb81-c3573d592daf","ios":"levelo://app?vid=79a5966a-f47f-45f5-bb81-c3573d592daf"},"vehicle_type_id":"4","last_reported":1740057438,"current_range_meters":6400,"station_id":"ce4bhs12rcd13ifvqhvg","pricing_plan_id":"cebpf4jnsgd1na2vs0mg"},{"bike_id":"7f2b235d-b54a-4ba7-9884-b541f6dd74e7","system_id":"levelo_inurba_marseille","lat":43.27175,"lon":5.40998,"is_reserved":false,"is_disabled":false,"rental_uris":{"android":"levelo://app?vid=7f2b235d-b54a-4ba7-9884-b541f6dd74e7","ios":"levelo://app?vid=7f2b235d-b54a-4ba7-9884-b541f6dd74e7"},"vehicle_type_id":"4","last_reported":1740057438,"current_range_meters":6400,"station_id":"","pricing_plan_id":"cebpf4jnsgd1na2vs0mg"},{"bike_id":"4c6545c9-5e0c-4a00-a40d-9bf904586ca2","system_id":"levelo_inurba_marseille","lat":43.29902,"lon":5.38145,"is_reserved":false,"is_disabled":false,"rental_uris":{"android":"levelo://app?vid=4c6545c9-5e0c-4a00-a40d-9bf904586ca2","ios":"levelo://app?vid=4c6545c9-5e0c-4a00-a40d-9bf904586ca2"},"vehicle_type_id":"4","last_reported":1740057438,"current_range_meters":6800,"station_id":"","pricing_plan_id":"cebpf4jnsgd1na2vs0mg"},{"bike_id":"07750a48-0a12-4e33-89cd-d0f50529fa8e","system_id":"levelo_inurba_marseille","lat":43.27953,"lon":5.41051,"is_reserved":false,"is_disabled":false,"rental_uris":{"android":"levelo://app?vid=07750a48-0a12-4e33-89cd-d0f50529fa8e","ios":"levelo://app?vid=07750a48-0a12-4e33-89cd-d0f50529fa8e"},"vehicle_type_id":"4","last_reported":1740057438,"current_range_meters":6800,"station_id":"ce4bhnp2rcd13ifvqh0g","pricing_plan_id":"cebpf4jnsgd1na2vs0mg"},{"bike_id":"90de8971-db22-4d27-8c08-4575a12860f9","system_id":"levelo_inurba_marseille","lat":43.2718,"lon":5.4099,"is_reserved":false,"is_disabled":false,"rental_uris":{"android":"levelo://app?vid=90de8971-db22-4d27-8c08-4575a12860f9","ios":"levelo://app?vid=90de8971-db22-4d27-8c08-4575a12860f9"},"vehicle_type_id":"4","last_reported":1740057438,"current_range_meters":6800,"station_id":"ce4bhl12rcd13ifvqgf0","pricing_plan_id":"cebpf4jnsgd1na2vs0mg"},{"bike_id":"0fe0502d-cdfc-4c75-9a2e-f9a2807fd700","system_id":"levelo_inurba_marseille","lat":43.28438,"lon":5.39206,"is_reserved":false,"is_disabled":false,"rental_uris":{"android":"levelo://app?vid=0fe0502d-cdfc-4c75-9a2e-f9a2807fd700","ios":"levelo://app?vid=0fe0502d-cdfc-4c75-9a2e-f9a2807fd700"},"vehicle_type_id":"4","last_reported":1740057438,"current_range_meters":7200,"station_id":"ce4bhoh2rcd13ifvqh5g","pricing_plan_id":"cebpf4jnsgd1na2vs0mg"},{"bike_id":"491b1374-1395-430d-abaf-140756e0a378","system_id":"levelo_inurba_marseille","lat":43.27907,"lon":5.38009,"is_reserved":false,"is_disabled":false,"rental_uris":{"android":"levelo://app?vid=491b1374-1395-430d-abaf-140756e0a378","ios":"levelo://app?vid=491b1374-1395-430d-abaf-140756e0a378"},"vehicle_type_id":"4","last_reported":1740057438,"current_range_meters":7200,"station_id":"","pricing_plan_id":"cebpf4jnsgd1na2vs0mg"},{"bike_id":"816e3e7b-b107-4001-b79f-e380ada67102","system_id":"levelo_inurba_marseille","lat":43.24137,"lon":5.3643,"is_reserved":false,"is_disabled":false,"rental_uris":{"android":"levelo://app?vid=816e3e7b-b107-4001-b79f-e380ada67102","ios":"levelo://app?vid=816e3e7b-b107-4001-b79f-e380ada67102"},"vehicle_type_id":"4","last_reported":1740057438,"current_range_meters":7200,"station_id":"cpo36qri1sfpv3e86is0","pricing_plan_id":"cebpf4jnsgd1na2vs0mg"},{"bike_id":"093d36c4-f304-46a9-8792-5d9e19e468fc","system_id":"levelo_inurba_marseille","lat":43.29897,"lon":5.43652,"is_reserved":false,"is_disabled":false,"rental_uris":{"android":"levelo://app?vid=093d36c4-f304-46a9-8792-5d9e19e468fc","ios":"levelo://app?vid=093d36c4-f304-46a9-8792-5d9e19e468fc"},"vehicle_type_id":"4","last_reported":1740057438,"current_range_meters":8000,"station_id":"ce4bhpp2rcd13ifvqhfg","pricing_plan_id":"cebpf4jnsgd1na2vs0mg"},{"bike_id":"c67fb496-8441-458a-af2d-8f07c087bdd0","system_id":"levelo_inurba_marseille","lat":43.24917,"lon":5.37532,"is_reserved":false,"is_disabled":true,"rental_uris":{"android":"levelo://app?vid=c67fb496-8441-458a-af2d-8f07c087bdd0","ios":"levelo://app?vid=c67fb496-8441-458a-af2d-8f07c087bdd0"},"vehicle_type_id":"4","last_reported":1740057438,"current_range_meters":8000,"station_id":"cpo36qri1sfpv3e86is0","pricing_plan_id":"cebpf4jnsgd1na2vs0mg"},{"bike_id":"f027fe38-3f5d-42fa-b16a-68ca60104c09","system_id":"levelo_inurba_marseille","lat":43.24164,"lon":5.36409,"is_reserved":false,"is_disabled":false,"rental_uris":{"android":"levelo://app?vid=f027fe38-3f5d-42fa-b16a-68ca60104c09","ios":"levelo://app?vid=f027fe38-3f5d-42fa-b16a-68ca60104c09"},"vehicle_type_id":"4","last_reported":1740057438,"current_range_meters":8000,"station_id":"","pricing_plan_id":"cebpf4jnsgd1na2vs0mg"},{"bike_id":"c63045c1-d9a6-46e2-8dcf-008994c8935e","system_id":"levelo_inurba_marseille","lat":43.28482,"lon":5.38415,"is_reserved":false,"is_disabled":false,"rental_uris":{"android":"levelo://app?vid=c63045c1-d9a6-46e2-8dcf-008994c8935e","ios":"levelo://app?vid=c63045c1-d9a6-46e2-8dcf-008994c8935e"},"vehicle_type_id":"4","last_reported":1740057438,"current_range_meters":8000,"station_id":"ce4bh512rcd13ifvqe3g","pricing_plan_id":"cebpf4jnsgd1na2vs0mg"},{"bike_id":"f8a1eefe-5190-4327-95c3-8138f343fe57","system_id":"levelo_inurba_marseille","lat":43.31184,"lon":5.39353,"is_reserved":false,"is_disabled":false,"rental_uris":{"android":"levelo://app?vid=f8a1eefe-5190-4327-95c3-8138f343fe57","ios":"levelo://app?vid=f8a1eefe-5190-4327-95c3-8138f343fe57"},"vehicle_type_id":"4","last_reported":1740057438,"current_range_meters":8000,"station_id":"ce4bgqh2rcd13ifvqc4g","pricing_plan_id":"cebpf4jnsgd1na2vs0mg"},{"bike_id":"a785767d-3278-4db8-8933-1f8eb2edc4a9","system_id":"levelo_inurba_marseille","lat":43.29838,"lon":5.36263,"is_reserved":false,"is_disabled":false,"rental_uris":{"android":"levelo://app?vid=a785767d-3278-4db8-8933-1f8eb2edc4a9","ios":"levelo://app?vid=a785767d-3278-4db8-8933-1f8eb2edc4a9"},"vehicle_type_id":"4","last_reported":1740057438,"current_range_meters":8400,"station_id":"ce4bgpp2rcd13ifvqc3g","pricing_plan_id":"cebpf4jnsgd1na2vs0mg"},{"bike_id":"9a7cb282-2417-4560-a5f4-912ff094703c","system_id":"levelo_inurba_marseille","lat":43.25088,"lon":5.39534,"is_reserved":false,"is_disabled":false,"rental_uris":{"android":"levelo://app?vid=9a7cb282-2417-4560-a5f4-912ff094703c","ios":"levelo://app?vid=9a7cb282-2417-4560-a5f4-912ff094703c"},"vehicle_type_id":"4","last_reported":1740057438,"current_range_meters":8400,"station_id":"ce4bhm12rcd13ifvqgkg","pricing_plan_id":"cebpf4jnsgd1na2vs0mg"},{"bike_id":"d5173bbe-86f4-4afc-a8e0-76d62e3a8b83","system_id":"levelo_inurba_marseille","lat":43.23964,"lon":5.36625,"is_reserved":false,"is_disabled":false,"rental_uris":{"android":"levelo://app?vid=d5173bbe-86f4-4afc-a8e0-76d62e3a8b83","ios":"levelo://app?vid=d5173bbe-86f4-4afc-a8e0-76d62e3a8b83"},"vehicle_type_id":"4","last_reported":1740057438,"current_range_meters":8400,"station_id":"ce4bhi12rcd13ifvqfp0","pricing_plan_id":"cebpf4jnsgd1na2vs0mg"},{"bike_id":"3fa131c8-d3bf-4fb9-b400-1daf371dcaa7","system_id":"levelo_inurba_marseille","lat":43.27188,"lon":5.40984,"is_reserved":false,"is_disabled":false,"rental_uris":{"android":"levelo://app?vid=3fa131c8-d3bf-4fb9-b400-1daf371dcaa7","ios":"levelo://app?vid=3fa131c8-d3bf-4fb9-b400-1daf371dcaa7"},"vehicle_type_id":"4","last_reported":1740057438,"current_range_meters":8400,"station_id":"ce4bhl12rcd13ifvqgf0","pricing_plan_id":"cebpf4jnsgd1na2vs0mg"},{"bike_id":"63c4cf47-dbff-4d5e-a88a-080b99df99de","system_id":"levelo_inurba_marseille","lat":43.29514,"lon":5.3891,"is_reserved":false,"is_disabled":true,"rental_uris":{"android":"levelo://app?vid=63c4cf47-dbff-4d5e-a88a-080b99df99de","ios":"levelo://app?vid=63c4cf47-dbff-4d5e-a88a-080b99df99de"},"vehicle_type_id":"4","last_reported":1740057438,"current_range_meters":8400,"station_id":"","pricing_plan_id":"cebpf4jnsgd1na2vs0mg"},{"bike_id":"34d14ec0-9a1d-4d07-8158-52ff5d0c0371","system_id":"levelo_inurba_marseille","lat":43.29437,"lon":5.38042,"is_reserved":false,"is_disabled":false,"rental_uris":{"android":"levelo://app?vid=34d14ec0-9a1d-4d07-8158-52ff5d0c0371","ios":"levelo://app?vid=34d14ec0-9a1d-4d07-8158-52ff5d0c0371"},"vehicle_type_id":"4","last_reported":1740057438,"current_range_meters":8400,"station_id":"","pricing_plan_id":"cebpf4jnsgd1na2vs0mg"},{"bike_id":"9f9f097e-3f0a-45c7-84b3-83f9343333bc","system_id":"levelo_inurba_marseille","lat":43.29627,"lon":5.37719,"is_reserved":false,"is_disabled":false,"rental_uris":{"android":"levelo://app?vid=9f9f097e-3f0a-45c7-84b3-83f9343333bc","ios":"levelo://app?vid=9f9f097e-3f0a-45c7-84b3-83f9343333bc"},"vehicle_type_id":"4","last_reported":1740057438,"current_range_meters":13600,"station_id":"ce4bgi92rcd13ifvqb90","pricing_plan_id":"cebpf4jnsgd1na2vs0mg"},{"bike_id":"24dd12c1-4d8a-40c0-b521-a98d2d462c41","system_id":"levelo_inurba_marseille","lat":43.24164,"lon":5.36408,"is_reserved":false,"is_disabled":false,"rental_uris":{"android":"levelo://app?vid=24dd12c1-4d8a-40c0-b521-a98d2d462c41","ios":"levelo://app?vid=24dd12c1-4d8a-40c0-b521-a98d2d462c41"},"vehicle_type_id":"4","last_reported":1740057438,"current_range_meters":8400,"station_id":"cpo36qri1sfpv3e86is0","pricing_plan_id":"cebpf4jnsgd1na2vs0mg"},{"bike_id":"e518968b-6a72-4966-90a2-c4ac41c02b6e","system_id":"levelo_inurba_marseille","lat":43.31208,"lon":5.3687,"is_reserved":false,"is_disabled":false,"rental_uris":{"android":"levelo://app?vid=e518968b-6a72-4966-90a2-c4ac41c02b6e","ios":"levelo://app?vid=e518968b-6a72-4966-90a2-c4ac41c02b6e"},"vehicle_type_id":"4","last_reported":1740057438,"current_range_meters":8400,"station_id":"ce4bgl92rcd13ifvqbq0","pricing_plan_id":"cebpf4jnsgd1na2vs0mg"},{"bike_id":"407061d8-6ccd-411e-8d78-08f5ad643857","system_id":"levelo_inurba_marseille","lat":43.33728,"lon":5.39181,"is_reserved":false,"is_disabled":false,"rental_uris":{"android":"levelo://app?vid=407061d8-6ccd-411e-8d78-08f5ad643857","ios":"levelo://app?vid=407061d8-6ccd-411e-8d78-08f5ad643857"},"vehicle_type_id":"4","last_reported":1740057438,"current_range_meters":8400,"station_id":"ce4bhr92rcd13ifvqhsg","pricing_plan_id":"cebpf4jnsgd1na2vs0mg"},{"bike_id":"c8edfef6-42a6-40b3-a649-857afbe6fa02","system_id":"levelo_inurba_marseille","lat":43.25015,"lon":5.38905,"is_reserved":false,"is_disabled":false,"rental_uris":{"android":"levelo://app?vid=c8edfef6-42a6-40b3-a649-857afbe6fa02","ios":"levelo://app?vid=c8edfef6-42a6-40b3-a649-857afbe6fa02"},"vehicle_type_id":"4","last_reported":1740057438,"current_range_meters":8400,"station_id":"","pricing_plan_id":"cebpf4jnsgd1na2vs0mg"},{"bike_id":"85d8b8ce-c0c3-499c-9de2-fc9839cf451b","system_id":"levelo_inurba_marseille","lat":43.28924,"lon":5.38389,"is_reserved":false,"is_disabled":false,"rental_uris":{"android":"levelo://app?vid=85d8b8ce-c0c3-499c-9de2-fc9839cf451b","ios":"levelo://app?vid=85d8b8ce-c0c3-499c-9de2-fc9839cf451b"},"vehicle_type_id":"4","last_reported":1740057438,"current_range_meters":8400,"station_id":"","pricing_plan_id":"cebpf4jnsgd1na2vs0mg"},{"bike_id":"3633587c-dafb-4b6e-b4ae-308eb791df81","system_id":"levelo_inurba_marseille","lat":43.270516,"lon":5.402615,"is_reserved":false,"is_disabled":false,"rental_uris":{"android":"levelo://app?vid=3633587c-dafb-4b6e-b4ae-308eb791df81","ios":"levelo://app?vid=3633587c-dafb-4b6e-b4ae-308eb791df81"},"vehicle_type_id":"4","last_reported":1740057438,"current_range_meters":8400,"station_id":"","pricing_plan_id":"cebpf4jnsgd1na2vs0mg"},{"bike_id":"53bd61f5-c2e7-4680-b371-396da56df2c0","system_id":"levelo_inurba_marseille","lat":43.28614,"lon":5.35105,"is_reserved":false,"is_disabled":false,"rental_uris":{"android":"levelo://app?vid=53bd61f5-c2e7-4680-b371-396da56df2c0","ios":"levelo://app?vid=53bd61f5-c2e7-4680-b371-396da56df2c0"},"vehicle_type_id":"4","last_reported":1740057438,"current_range_meters":8400,"station_id":"ce4bhch2rcd13ifvqeug","pricing_plan_id":"cebpf4jnsgd1na2vs0mg"},{"bike_id":"b64778c2-2434-4409-b125-e965a1fd469a","system_id":"levelo_inurba_marseille","lat":43.30316,"lon":5.36696,"is_reserved":false,"is_disabled":false,"rental_uris":{"android":"levelo://app?vid=b64778c2-2434-4409-b125-e965a1fd469a","ios":"levelo://app?vid=b64778c2-2434-4409-b125-e965a1fd469a"},"vehicle_type_id":"4","last_reported":1740057438,"current_range_meters":8400,"station_id":"ce4bgs12rcd13ifvqcag","pricing_plan_id":"cebpf4jnsgd1na2vs0mg"},{"bike_id":"87eae159-2c02-4461-9f0c-ee32083470cc","system_id":"levelo_inurba_marseille","lat":43.27838,"lon":5.39207,"is_reserved":false,"is_disabled":false,"rental_uris":{"android":"levelo://app?vid=87eae159-2c02-4461-9f0c-ee32083470cc","ios":"levelo://app?vid=87eae159-2c02-4461-9f0c-ee32083470cc"},"vehicle_type_id":"4","last_reported":1740057438,"current_range_meters":8800,"station_id":"ce4bhjp2rcd13ifvqga0","pricing_plan_id":"cebpf4jnsgd1na2vs0mg"},{"bike_id":"a00fb5cd-e0d2-4f96-befb-5275c0df0c87","system_id":"levelo_inurba_marseille","lat":43.27994,"lon":5.41647,"is_reserved":false,"is_disabled":false,"rental_uris":{"android":"levelo://app?vid=a00fb5cd-e0d2-4f96-befb-5275c0df0c87","ios":"levelo://app?vid=a00fb5cd-e0d2-4f96-befb-5275c0df0c87"},"vehicle_type_id":"4","last_reported":1740057438,"current_range_meters":8800,"station_id":"ce4bho12rcd13ifvqh1g","pricing_plan_id":"cebpf4jnsgd1na2vs0mg"},{"bike_id":"e1635589-a58b-4a69-a272-7bcd776fbb53","system_id":"levelo_inurba_marseille","lat":43.25933,"lon":5.40869,"is_reserved":false,"is_disabled":false,"rental_uris":{"android":"levelo://app?vid=e1635589-a58b-4a69-a272-7bcd776fbb53","ios":"levelo://app?vid=e1635589-a58b-4a69-a272-7bcd776fbb53"},"vehicle_type_id":"4","last_reported":1740057438,"current_range_meters":8800,"station_id":"ce4bhm92rcd13ifvqglg","pricing_plan_id":"cebpf4jnsgd1na2vs0mg"},{"bike_id":"fc971b16-bef3-4b6d-813c-ffc8ffa48842","system_id":"levelo_inurba_marseille","lat":43.2841,"lon":5.34986,"is_reserved":false,"is_disabled":true,"rental_uris":{"android":"levelo://app?vid=fc971b16-bef3-4b6d-813c-ffc8ffa48842","ios":"levelo://app?vid=fc971b16-bef3-4b6d-813c-ffc8ffa48842"},"vehicle_type_id":"4","last_reported":1740057438,"current_range_meters":8800,"station_id":"","pricing_plan_id":"cebpf4jnsgd1na2vs0mg"},{"bike_id":"104b15c6-bf74-407c-9a34-de8a1be58e4f","system_id":"levelo_inurba_marseille","lat":43.29184,"lon":5.3731,"is_reserved":false,"is_disabled":false,"rental_uris":{"android":"levelo://app?vid=104b15c6-bf74-407c-9a34-de8a1be58e4f","ios":"levelo://app?vid=104b15c6-bf74-407c-9a34-de8a1be58e4f"},"vehicle_type_id":"4","last_reported":1740057438,"current_range_meters":8800,"station_id":"","pricing_plan_id":"cebpf4jnsgd1na2vs0mg"},{"bike_id":"e520f428-3ea3-4dda-b2fd-6413d565acc1","system_id":"levelo_inurba_marseille","lat":43.30192,"lon":5.36625,"is_reserved":false,"is_disabled":false,"rental_uris":{"android":"levelo://app?vid=e520f428-3ea3-4dda-b2fd-6413d565acc1","ios":"levelo://app?vid=e520f428-3ea3-4dda-b2fd-6413d565acc1"},"vehicle_type_id":"4","last_reported":1740057438,"current_range_meters":8800,"station_id":"ce4bgrh2rcd13ifvqc8g","pricing_plan_id":"cebpf4jnsgd1na2vs0mg"},{"bike_id":"5180f318-4948-4085-aaf1-5f3160b57dbe","system_id":"levelo_inurba_marseille","lat":43.276179,"lon":5.361058,"is_reserved":false,"is_disabled":false,"rental_uris":{"android":"levelo://app?vid=5180f318-4948-4085-aaf1-5f3160b57dbe","ios":"levelo://app?vid=5180f318-4948-4085-aaf1-5f3160b57dbe"},"vehicle_type_id":"4","last_reported":1740057438,"current_range_meters":8800,"station_id":"","pricing_plan_id":"cebpf4jnsgd1na2vs0mg"},{"bike_id":"26779595-c177-40e8-a988-d5570ab1009d","system_id":"levelo_inurba_marseille","lat":43.29152,"lon":5.39747,"is_reserved":false,"is_disabled":false,"rental_uris":{"android":"levelo://app?vid=26779595-c177-40e8-a988-d5570ab1009d","ios":"levelo://app?vid=26779595-c177-40e8-a988-d5570ab1009d"},"vehicle_type_id":"4","last_reported":1740057438,"current_range_meters":9200,"station_id":"","pricing_plan_id":"cebpf4jnsgd1na2vs0mg"},{"bike_id":"30373a9f-4fc7-45a1-8ae5-65060b7c5711","system_id":"levelo_inurba_marseille","lat":43.2455,"lon":5.39535,"is_reserved":false,"is_disabled":false,"rental_uris":{"android":"levelo://app?vid=30373a9f-4fc7-45a1-8ae5-65060b7c5711","ios":"levelo://app?vid=30373a9f-4fc7-45a1-8ae5-65060b7c5711"},"vehicle_type_id":"4","last_reported":1740057438,"current_range_meters":9200,"station_id":"","pricing_plan_id":"cebpf4jnsgd1na2vs0mg"},{"bike_id":"c344789d-c362-498c-aa9b-aa2e440bfbf0","system_id":"levelo_inurba_marseille","lat":43.32368,"lon":5.3677,"is_reserved":false,"is_disabled":false,"rental_uris":{"android":"levelo://app?vid=c344789d-c362-498c-aa9b-aa2e440bfbf0","ios":"levelo://app?vid=c344789d-c362-498c-aa9b-aa2e440bfbf0"},"vehicle_type_id":"4","last_reported":1740057438,"current_range_meters":9200,"station_id":"ce4bhsh2rcd13ifvqi2g","pricing_plan_id":"cebpf4jnsgd1na2vs0mg"},{"bike_id":"201ed5b5-4e38-439e-91de-f0932d416864","system_id":"levelo_inurba_marseille","lat":43.27907,"lon":5.38009,"is_reserved":false,"is_disabled":false,"rental_uris":{"android":"levelo://app?vid=201ed5b5-4e38-439e-91de-f0932d416864","ios":"levelo://app?vid=201ed5b5-4e38-439e-91de-f0932d416864"},"vehicle_type_id":"4","last_reported":1740057438,"current_range_meters":9200,"station_id":"","pricing_plan_id":"cebpf4jnsgd1na2vs0mg"},{"bike_id":"cea5e88c-c467-4100-b0da-e152ac5a03c1","system_id":"levelo_inurba_marseille","lat":43.27907,"lon":5.379994,"is_reserved":false,"is_disabled":false,"rental_uris":{"android":"levelo://app?vid=cea5e88c-c467-4100-b0da-e152ac5a03c1","ios":"levelo://app?vid=cea5e88c-c467-4100-b0da-e152ac5a03c1"},"vehicle_type_id":"4","last_reported":1740057438,"current_range_meters":9600,"station_id":"","pricing_plan_id":"cebpf4jnsgd1na2vs0mg"},{"bike_id":"0686e433-82b6-4ced-b364-39b66b6a0983","system_id":"levelo_inurba_marseille","lat":43.255799,"lon":5.382359,"is_reserved":false,"is_disabled":false,"rental_uris":{"android":"levelo://app?vid=0686e433-82b6-4ced-b364-39b66b6a0983","ios":"levelo://app?vid=0686e433-82b6-4ced-b364-39b66b6a0983"},"vehicle_type_id":"4","last_reported":1740057438,"current_range_meters":9600,"station_id":"ce4bhih2rcd13ifvqfs0","pricing_plan_id":"cebpf4jnsgd1na2vs0mg"},{"bike_id":"d078d9e7-1854-4ad6-a4cc-af7788d393db","system_id":"levelo_inurba_marseille","lat":43.27058,"lon":5.4025,"is_reserved":false,"is_disabled":false,"rental_uris":{"android":"levelo://app?vid=d078d9e7-1854-4ad6-a4cc-af7788d393db","ios":"levelo://app?vid=d078d9e7-1854-4ad6-a4cc-af7788d393db"},"vehicle_type_id":"4","last_reported":1740057438,"current_range_meters":9600,"station_id":"ce4bhk92rcd13ifvqgc0","pricing_plan_id":"cebpf4jnsgd1na2vs0mg"},{"bike_id":"058213af-b61b-486b-8e0a-0a8fd78595de","system_id":"levelo_inurba_marseille","lat":43.25075,"lon":5.39506,"is_reserved":false,"is_disabled":false,"rental_uris":{"android":"levelo://app?vid=058213af-b61b-486b-8e0a-0a8fd78595de","ios":"levelo://app?vid=058213af-b61b-486b-8e0a-0a8fd78595de"},"vehicle_type_id":"4","last_reported":1740057438,"current_range_meters":9600,"station_id":"ce4bhm12rcd13ifvqgkg","pricing_plan_id":"cebpf4jnsgd1na2vs0mg"},{"bike_id":"5428c4a6-2268-45c5-aff9-a5f8e308d92b","system_id":"levelo_inurba_marseille","lat":43.30939,"lon":5.37307,"is_reserved":false,"is_disabled":false,"rental_uris":{"android":"levelo://app?vid=5428c4a6-2268-45c5-aff9-a5f8e308d92b","ios":"levelo://app?vid=5428c4a6-2268-45c5-aff9-a5f8e308d92b"},"vehicle_type_id":"4","last_reported":1740057438,"current_range_meters":10000,"station_id":"ce4bguh2rcd13ifvqckg","pricing_plan_id":"cebpf4jnsgd1na2vs0mg"},{"bike_id":"65924bd9-01b5-4966-94d3-8206cf3adb28","system_id":"levelo_inurba_marseille","lat":43.28486,"lon":5.3855,"is_reserved":false,"is_disabled":false,"rental_uris":{"android":"levelo://app?vid=65924bd9-01b5-4966-94d3-8206cf3adb28","ios":"levelo://app?vid=65924bd9-01b5-4966-94d3-8206cf3adb28"},"vehicle_type_id":"4","last_reported":1740057438,"current_range_meters":10000,"station_id":"ce4bh8p2rcd13ifvqeb0","pricing_plan_id":"cebpf4jnsgd1na2vs0mg"},{"bike_id":"5f9ede52-c720-4107-a864-980fb2608395","system_id":"levelo_inurba_marseille","lat":43.24093,"lon":5.38697,"is_reserved":false,"is_disabled":false,"rental_uris":{"android":"levelo://app?vid=5f9ede52-c720-4107-a864-980fb2608395","ios":"levelo://app?vid=5f9ede52-c720-4107-a864-980fb2608395"},"vehicle_type_id":"4","last_reported":1740057438,"current_range_meters":10000,"station_id":"ce4bhb92rcd13ifvqen0","pricing_plan_id":"cebpf4jnsgd1na2vs0mg"},{"bike_id":"45ce2689-3d95-4f61-ae25-bcbe1d90eb9c","system_id":"levelo_inurba_marseille","lat":43.30956,"lon":5.39021,"is_reserved":false,"is_disabled":false,"rental_uris":{"android":"levelo://app?vid=45ce2689-3d95-4f61-ae25-bcbe1d90eb9c","ios":"levelo://app?vid=45ce2689-3d95-4f61-ae25-bcbe1d90eb9c"},"vehicle_type_id":"4","last_reported":1740057438,"current_range_meters":10000,"station_id":"ce4bgup2rcd13ifvqco0","pricing_plan_id":"cebpf4jnsgd1na2vs0mg"},{"bike_id":"0d34eb8c-c749-410b-a515-4800435ee933","system_id":"levelo_inurba_marseille","lat":43.24175,"lon":5.36431,"is_reserved":false,"is_disabled":false,"rental_uris":{"android":"levelo://app?vid=0d34eb8c-c749-410b-a515-4800435ee933","ios":"levelo://app?vid=0d34eb8c-c749-410b-a515-4800435ee933"},"vehicle_type_id":"4","last_reported":1740057438,"current_range_meters":10000,"station_id":"cpo36qri1sfpv3e86is0","pricing_plan_id":"cebpf4jnsgd1na2vs0mg"},{"bike_id":"f2f4903a-6223-4364-ba19-b2d7cf4a4698","system_id":"levelo_inurba_marseille","lat":43.28471,"lon":5.38413,"is_reserved":false,"is_disabled":false,"rental_uris":{"android":"levelo://app?vid=f2f4903a-6223-4364-ba19-b2d7cf4a4698","ios":"levelo://app?vid=f2f4903a-6223-4364-ba19-b2d7cf4a4698"},"vehicle_type_id":"4","last_reported":1740057438,"current_range_meters":10000,"station_id":"ce4bh512rcd13ifvqe3g","pricing_plan_id":"cebpf4jnsgd1na2vs0mg"},{"bike_id":"e121e6a1-bd76-4786-9b22-046b9f2ba3e5","system_id":"levelo_inurba_marseille","lat":43.2621,"lon":5.37441,"is_reserved":false,"is_disabled":false,"rental_uris":{"android":"levelo://app?vid=e121e6a1-bd76-4786-9b22-046b9f2ba3e5","ios":"levelo://app?vid=e121e6a1-bd76-4786-9b22-046b9f2ba3e5"},"vehicle_type_id":"4","last_reported":1740057438,"current_range_meters":10000,"station_id":"ce4bhgp2rcd13ifvqfc0","pricing_plan_id":"cebpf4jnsgd1na2vs0mg"},{"bike_id":"46e9f51e-b9ef-4a2b-b954-42af97c9998e","system_id":"levelo_inurba_marseille","lat":43.31705,"lon":5.43702,"is_reserved":false,"is_disabled":false,"rental_uris":{"android":"levelo://app?vid=46e9f51e-b9ef-4a2b-b954-42af97c9998e","ios":"levelo://app?vid=46e9f51e-b9ef-4a2b-b954-42af97c9998e"},"vehicle_type_id":"4","last_reported":1740057438,"current_range_meters":10000,"station_id":"","pricing_plan_id":"cebpf4jnsgd1na2vs0mg"},{"bike_id":"4131ed30-1f43-4452-84c1-9ce618cb7cc0","system_id":"levelo_inurba_marseille","lat":43.272054,"lon":5.391886,"is_reserved":false,"is_disabled":false,"rental_uris":{"android":"levelo://app?vid=4131ed30-1f43-4452-84c1-9ce618cb7cc0","ios":"levelo://app?vid=4131ed30-1f43-4452-84c1-9ce618cb7cc0"},"vehicle_type_id":"4","last_reported":1740057438,"current_range_meters":10000,"station_id":"ce4bhhp2rcd13ifvqfm0","pricing_plan_id":"cebpf4jnsgd1na2vs0mg"},{"bike_id":"77ac049b-6848-4db1-94df-a16d6879e316","system_id":"levelo_inurba_marseille","lat":43.2319,"lon":5.35544,"is_reserved":false,"is_disabled":false,"rental_uris":{"android":"levelo://app?vid=77ac049b-6848-4db1-94df-a16d6879e316","ios":"levelo://app?vid=77ac049b-6848-4db1-94df-a16d6879e316"},"vehicle_type_id":"4","last_reported":1740057438,"current_range_meters":10800,"station_id":"","pricing_plan_id":"cebpf4jnsgd1na2vs0mg"},{"bike_id":"2dbc71c4-caa4-43c9-be0f-62f3ed4d514f","system_id":"levelo_inurba_marseille","lat":43.23975,"lon":5.36626,"is_reserved":false,"is_disabled":false,"rental_uris":{"android":"levelo://app?vid=2dbc71c4-caa4-43c9-be0f-62f3ed4d514f","ios":"levelo://app?vid=2dbc71c4-caa4-43c9-be0f-62f3ed4d514f"},"vehicle_type_id":"4","last_reported":1740057438,"current_range_meters":10800,"station_id":"ce4bhi12rcd13ifvqfp0","pricing_plan_id":"cebpf4jnsgd1na2vs0mg"},{"bike_id":"ba379239-9216-4e46-a96c-a73988d910ff","system_id":"levelo_inurba_marseille","lat":43.26486,"lon":5.37151,"is_reserved":false,"is_disabled":false,"rental_uris":{"android":"levelo://app?vid=ba379239-9216-4e46-a96c-a73988d910ff","ios":"levelo://app?vid=ba379239-9216-4e46-a96c-a73988d910ff"},"vehicle_type_id":"4","last_reported":1740057438,"current_range_meters":10800,"station_id":"","pricing_plan_id":"cebpf4jnsgd1na2vs0mg"},{"bike_id":"4da6cc22-4d46-4a7c-8914-7b17d72dd95a","system_id":"levelo_inurba_marseille","lat":43.27175,"lon":5.4099,"is_reserved":false,"is_disabled":false,"rental_uris":{"android":"levelo://app?vid=4da6cc22-4d46-4a7c-8914-7b17d72dd95a","ios":"levelo://app?vid=4da6cc22-4d46-4a7c-8914-7b17d72dd95a"},"vehicle_type_id":"4","last_reported":1740057438,"current_range_meters":10800,"station_id":"ce4bhl12rcd13ifvqgf0","pricing_plan_id":"cebpf4jnsgd1na2vs0mg"},{"bike_id":"9760eb69-4a8b-4e16-9843-12d7129b8e12","system_id":"levelo_inurba_marseille","lat":43.29625,"lon":5.37706,"is_reserved":false,"is_disabled":false,"rental_uris":{"android":"levelo://app?vid=9760eb69-4a8b-4e16-9843-12d7129b8e12","ios":"levelo://app?vid=9760eb69-4a8b-4e16-9843-12d7129b8e12"},"vehicle_type_id":"4","last_reported":1740057438,"current_range_meters":11200,"station_id":"ce4bgi92rcd13ifvqb90","pricing_plan_id":"cebpf4jnsgd1na2vs0mg"},{"bike_id":"88768b40-5741-4f0f-b197-d499ddd23dcb","system_id":"levelo_inurba_marseille","lat":43.304589,"lon":5.379024,"is_reserved":false,"is_disabled":false,"rental_uris":{"android":"levelo://app?vid=88768b40-5741-4f0f-b197-d499ddd23dcb","ios":"levelo://app?vid=88768b40-5741-4f0f-b197-d499ddd23dcb"},"vehicle_type_id":"4","last_reported":1740057438,"current_range_meters":10800,"station_id":"ce4bgip2rcd13ifvqbb0","pricing_plan_id":"cebpf4jnsgd1na2vs0mg"},{"bike_id":"1ee5dfdc-7828-47b5-9a63-8e756f61c149","system_id":"levelo_inurba_marseille","lat":43.2971,"lon":5.36598,"is_reserved":false,"is_disabled":false,"rental_uris":{"android":"levelo://app?vid=1ee5dfdc-7828-47b5-9a63-8e756f61c149","ios":"levelo://app?vid=1ee5dfdc-7828-47b5-9a63-8e756f61c149"},"vehicle_type_id":"4","last_reported":1740057438,"current_range_meters":11200,"station_id":"ce4bgn12rcd13ifvqbt0","pricing_plan_id":"cebpf4jnsgd1na2vs0mg"},{"bike_id":"1babf378-c1f5-48c0-9f03-574b5ac143a0","system_id":"levelo_inurba_marseille","lat":43.30936,"lon":5.40141,"is_reserved":false,"is_disabled":false,"rental_uris":{"android":"levelo://app?vid=1babf378-c1f5-48c0-9f03-574b5ac143a0","ios":"levelo://app?vid=1babf378-c1f5-48c0-9f03-574b5ac143a0"},"vehicle_type_id":"4","last_reported":1740057438,"current_range_meters":11200,"station_id":"ce4bgvp2rcd13ifvqct0","pricing_plan_id":"cebpf4jnsgd1na2vs0mg"},{"bike_id":"7b19744e-f24f-4b7d-94e9-2a8fd4a78d0d","system_id":"levelo_inurba_marseille","lat":43.23193,"lon":5.35549,"is_reserved":false,"is_disabled":false,"rental_uris":{"android":"levelo://app?vid=7b19744e-f24f-4b7d-94e9-2a8fd4a78d0d","ios":"levelo://app?vid=7b19744e-f24f-4b7d-94e9-2a8fd4a78d0d"},"vehicle_type_id":"4","last_reported":1740057438,"current_range_meters":11200,"station_id":"","pricing_plan_id":"cebpf4jnsgd1na2vs0mg"},{"bike_id":"30f781b4-0c37-4f06-8146-403e76b61b21","system_id":"levelo_inurba_marseille","lat":43.29748,"lon":5.37685,"is_reserved":false,"is_disabled":false,"rental_uris":{"android":"levelo://app?vid=30f781b4-0c37-4f06-8146-403e76b61b21","ios":"levelo://app?vid=30f781b4-0c37-4f06-8146-403e76b61b21"},"vehicle_type_id":"4","last_reported":1740057438,"current_range_meters":11200,"station_id":"","pricing_plan_id":"cebpf4jnsgd1na2vs0mg"},{"bike_id":"3dc24e05-a7f1-4a22-9da9-85b121fcd970","system_id":"levelo_inurba_marseille","lat":43.29902,"lon":5.43666,"is_reserved":false,"is_disabled":false,"rental_uris":{"android":"levelo://app?vid=3dc24e05-a7f1-4a22-9da9-85b121fcd970","ios":"levelo://app?vid=3dc24e05-a7f1-4a22-9da9-85b121fcd970"},"vehicle_type_id":"4","last_reported":1740057438,"current_range_meters":11200,"station_id":"ce4bhpp2rcd13ifvqhfg","pricing_plan_id":"cebpf4jnsgd1na2vs0mg"},{"bike_id":"71a190f2-b6f6-4fc0-ad9e-9d1545942acf","system_id":"levelo_inurba_marseille","lat":43.26213,"lon":5.37445,"is_reserved":false,"is_disabled":false,"rental_uris":{"android":"levelo://app?vid=71a190f2-b6f6-4fc0-ad9e-9d1545942acf","ios":"levelo://app?vid=71a190f2-b6f6-4fc0-ad9e-9d1545942acf"},"vehicle_type_id":"4","last_reported":1740057438,"current_range_meters":11600,"station_id":"ce4bhgp2rcd13ifvqfc0","pricing_plan_id":"cebpf4jnsgd1na2vs0mg"},{"bike_id":"341bae22-75f3-4766-8fd7-413e8c4a7fee","system_id":"levelo_inurba_marseille","lat":43.26805,"lon":5.40262,"is_reserved":false,"is_disabled":false,"rental_uris":{"android":"levelo://app?vid=341bae22-75f3-4766-8fd7-413e8c4a7fee","ios":"levelo://app?vid=341bae22-75f3-4766-8fd7-413e8c4a7fee"},"vehicle_type_id":"4","last_reported":1740057438,"current_range_meters":11600,"station_id":"ce501612rcd8frsf0b60","pricing_plan_id":"cebpf4jnsgd1na2vs0mg"},{"bike_id":"049bb38b-6529-44d2-b7ae-88be68665475","system_id":"levelo_inurba_marseille","lat":43.30142,"lon":5.37416,"is_reserved":false,"is_disabled":false,"rental_uris":{"android":"levelo://app?vid=049bb38b-6529-44d2-b7ae-88be68665475","ios":"levelo://app?vid=049bb38b-6529-44d2-b7ae-88be68665475"},"vehicle_type_id":"4","last_reported":1740057438,"current_range_meters":12000,"station_id":"ce4bgs92rcd13ifvqcc0","pricing_plan_id":"cebpf4jnsgd1na2vs0mg"},{"bike_id":"02294ecb-63f1-466c-86e6-f94378485dff","system_id":"levelo_inurba_marseille","lat":43.28149,"lon":5.42636,"is_reserved":false,"is_disabled":false,"rental_uris":{"android":"levelo://app?vid=02294ecb-63f1-466c-86e6-f94378485dff","ios":"levelo://app?vid=02294ecb-63f1-466c-86e6-f94378485dff"},"vehicle_type_id":"4","last_reported":1740057438,"current_range_meters":12000,"station_id":"ce4bhnh2rcd13ifvqgug","pricing_plan_id":"cebpf4jnsgd1na2vs0mg"},{"bike_id":"e57c9bc0-0acd-45cf-960e-860bda9e0ce5","system_id":"levelo_inurba_marseille","lat":43.30898,"lon":5.37189,"is_reserved":false,"is_disabled":false,"rental_uris":{"android":"levelo://app?vid=e57c9bc0-0acd-45cf-960e-860bda9e0ce5","ios":"levelo://app?vid=e57c9bc0-0acd-45cf-960e-860bda9e0ce5"},"vehicle_type_id":"4","last_reported":1740057438,"current_range_meters":12000,"station_id":"ce4bguh2rcd13ifvqckg","pricing_plan_id":"cebpf4jnsgd1na2vs0mg"},{"bike_id":"4cfe918d-14ff-4815-9d1e-0fed42569c27","system_id":"levelo_inurba_marseille","lat":43.30903,"lon":5.36842,"is_reserved":false,"is_disabled":false,"rental_uris":{"android":"levelo://app?vid=4cfe918d-14ff-4815-9d1e-0fed42569c27","ios":"levelo://app?vid=4cfe918d-14ff-4815-9d1e-0fed42569c27"},"vehicle_type_id":"4","last_reported":1740057438,"current_range_meters":12000,"station_id":"ce4bgn92rcd13ifvqbvg","pricing_plan_id":"cebpf4jnsgd1na2vs0mg"},{"bike_id":"6736d919-6b94-4636-9dc7-6414ff53170d","system_id":"levelo_inurba_marseille","lat":43.2984,"lon":5.36258,"is_reserved":false,"is_disabled":false,"rental_uris":{"android":"levelo://app?vid=6736d919-6b94-4636-9dc7-6414ff53170d","ios":"levelo://app?vid=6736d919-6b94-4636-9dc7-6414ff53170d"},"vehicle_type_id":"4","last_reported":1740057438,"current_range_meters":12000,"station_id":"ce4bgpp2rcd13ifvqc3g","pricing_plan_id":"cebpf4jnsgd1na2vs0mg"},{"bike_id":"635050f9-a2c9-4910-8267-ff5a32e2982d","system_id":"levelo_inurba_marseille","lat":43.24806,"lon":5.37448,"is_reserved":false,"is_disabled":true,"rental_uris":{"android":"levelo://app?vid=635050f9-a2c9-4910-8267-ff5a32e2982d","ios":"levelo://app?vid=635050f9-a2c9-4910-8267-ff5a32e2982d"},"vehicle_type_id":"4","last_reported":1740057438,"current_range_meters":12000,"station_id":"","pricing_plan_id":"cebpf4jnsgd1na2vs0mg"},{"bike_id":"3ebc1cd9-4c66-4f45-b886-8b491b059d05","system_id":"levelo_inurba_marseille","lat":43.29927,"lon":5.36542,"is_reserved":false,"is_disabled":false,"rental_uris":{"android":"levelo://app?vid=3ebc1cd9-4c66-4f45-b886-8b491b059d05","ios":"levelo://app?vid=3ebc1cd9-4c66-4f45-b886-8b491b059d05"},"vehicle_type_id":"4","last_reported":1740057438,"current_range_meters":12400,"station_id":"","pricing_plan_id":"cebpf4jnsgd1na2vs0mg"},{"bike_id":"987de0c2-b9bd-4bef-ba52-5ce350e4cb1b","system_id":"levelo_inurba_marseille","lat":43.28008,"lon":5.41672,"is_reserved":false,"is_disabled":false,"rental_uris":{"android":"levelo://app?vid=987de0c2-b9bd-4bef-ba52-5ce350e4cb1b","ios":"levelo://app?vid=987de0c2-b9bd-4bef-ba52-5ce350e4cb1b"},"vehicle_type_id":"4","last_reported":1740057438,"current_range_meters":12400,"station_id":"ce4bho12rcd13ifvqh1g","pricing_plan_id":"cebpf4jnsgd1na2vs0mg"},{"bike_id":"ad47c7e9-f91e-4c76-a821-e7d2287689bf","system_id":"levelo_inurba_marseille","lat":43.27954,"lon":5.41046,"is_reserved":false,"is_disabled":false,"rental_uris":{"android":"levelo://app?vid=ad47c7e9-f91e-4c76-a821-e7d2287689bf","ios":"levelo://app?vid=ad47c7e9-f91e-4c76-a821-e7d2287689bf"},"vehicle_type_id":"4","last_reported":1740057438,"current_range_meters":12400,"station_id":"ce4bhnp2rcd13ifvqh0g","pricing_plan_id":"cebpf4jnsgd1na2vs0mg"},{"bike_id":"a70af82e-abb1-4052-a908-3f6d7385acd1","system_id":"levelo_inurba_marseille","lat":43.28627,"lon":5.37064,"is_reserved":false,"is_disabled":false,"rental_uris":{"android":"levelo://app?vid=a70af82e-abb1-4052-a908-3f6d7385acd1","ios":"levelo://app?vid=a70af82e-abb1-4052-a908-3f6d7385acd1"},"vehicle_type_id":"4","last_reported":1740057438,"current_range_meters":12400,"station_id":"ce4bht12rcd13ifvqi60","pricing_plan_id":"cebpf4jnsgd1na2vs0mg"},{"bike_id":"023ec72c-d164-42e6-a357-cee71b5b9a17","system_id":"levelo_inurba_marseille","lat":43.30309,"lon":5.36893,"is_reserved":false,"is_disabled":false,"rental_uris":{"android":"levelo://app?vid=023ec72c-d164-42e6-a357-cee71b5b9a17","ios":"levelo://app?vid=023ec72c-d164-42e6-a357-cee71b5b9a17"},"vehicle_type_id":"4","last_reported":1740057438,"current_range_meters":12800,"station_id":"ce4bgqh2rcd13ifvqc5g","pricing_plan_id":"cebpf4jnsgd1na2vs0mg"},{"bike_id":"9d38cb1b-e979-4f74-afdf-24753271fe02","system_id":"levelo_inurba_marseille","lat":43.29274,"lon":5.40115,"is_reserved":false,"is_disabled":false,"rental_uris":{"android":"levelo://app?vid=9d38cb1b-e979-4f74-afdf-24753271fe02","ios":"levelo://app?vid=9d38cb1b-e979-4f74-afdf-24753271fe02"},"vehicle_type_id":"4","last_reported":1740057438,"current_range_meters":12800,"station_id":"ce4bh312rcd13ifvqdk0","pricing_plan_id":"cebpf4jnsgd1na2vs0mg"},{"bike_id":"bfa1afdd-6221-4a91-82bd-d18819a67e02","system_id":"levelo_inurba_marseille","lat":43.244238,"lon":5.370237,"is_reserved":false,"is_disabled":false,"rental_uris":{"android":"levelo://app?vid=bfa1afdd-6221-4a91-82bd-d18819a67e02","ios":"levelo://app?vid=bfa1afdd-6221-4a91-82bd-d18819a67e02"},"vehicle_type_id":"4","last_reported":1740057438,"current_range_meters":12800,"station_id":"ce4bhnp2rcd13ifvqgvg","pricing_plan_id":"cebpf4jnsgd1na2vs0mg"},{"bike_id":"53324156-0b5f-4ee4-beb8-65d71f0308f4","system_id":"levelo_inurba_marseille","lat":43.26548,"lon":5.38997,"is_reserved":false,"is_disabled":false,"rental_uris":{"android":"levelo://app?vid=53324156-0b5f-4ee4-beb8-65d71f0308f4","ios":"levelo://app?vid=53324156-0b5f-4ee4-beb8-65d71f0308f4"},"vehicle_type_id":"4","last_reported":1740057438,"current_range_meters":12800,"station_id":"ce4bhe12rcd13ifvqf30","pricing_plan_id":"cebpf4jnsgd1na2vs0mg"},{"bike_id":"76a1d742-84f2-439e-8b87-72eb73bf6cb6","system_id":"levelo_inurba_marseille","lat":43.26195,"lon":5.37449,"is_reserved":false,"is_disabled":false,"rental_uris":{"android":"levelo://app?vid=76a1d742-84f2-439e-8b87-72eb73bf6cb6","ios":"levelo://app?vid=76a1d742-84f2-439e-8b87-72eb73bf6cb6"},"vehicle_type_id":"4","last_reported":1740057438,"current_range_meters":12800,"station_id":"ce4bhgp2rcd13ifvqfc0","pricing_plan_id":"cebpf4jnsgd1na2vs0mg"},{"bike_id":"3ed850a4-11fa-4bf0-a1c7-40ade44d43b3","system_id":"levelo_inurba_marseille","lat":43.30544,"lon":5.36547,"is_reserved":false,"is_disabled":false,"rental_uris":{"android":"levelo://app?vid=3ed850a4-11fa-4bf0-a1c7-40ade44d43b3","ios":"levelo://app?vid=3ed850a4-11fa-4bf0-a1c7-40ade44d43b3"},"vehicle_type_id":"4","last_reported":1740057438,"current_range_meters":12800,"station_id":"ce4bgs12rcd13ifvqcag","pricing_plan_id":"cebpf4jnsgd1na2vs0mg"},{"bike_id":"d9102e21-6294-472e-8da2-16dfb746ec2b","system_id":"levelo_inurba_marseille","lat":43.28188,"lon":5.4456,"is_reserved":false,"is_disabled":false,"rental_uris":{"android":"levelo://app?vid=d9102e21-6294-472e-8da2-16dfb746ec2b","ios":"levelo://app?vid=d9102e21-6294-472e-8da2-16dfb746ec2b"},"vehicle_type_id":"4","last_reported":1740057438,"current_range_meters":12800,"station_id":"ce4bhnh2rcd13ifvqgtg","pricing_plan_id":"cebpf4jnsgd1na2vs0mg"},{"bike_id":"3bad0b07-fa7a-4cc7-9650-b1214bfaef19","system_id":"levelo_inurba_marseille","lat":43.28152,"lon":5.4264,"is_reserved":false,"is_disabled":false,"rental_uris":{"android":"levelo://app?vid=3bad0b07-fa7a-4cc7-9650-b1214bfaef19","ios":"levelo://app?vid=3bad0b07-fa7a-4cc7-9650-b1214bfaef19"},"vehicle_type_id":"4","last_reported":1740057438,"current_range_meters":13600,"station_id":"ce4bhnh2rcd13ifvqgug","pricing_plan_id":"cebpf4jnsgd1na2vs0mg"},{"bike_id":"8becd64c-893d-4a08-8876-b1598e031c70","system_id":"levelo_inurba_marseille","lat":43.27963,"lon":5.38691,"is_reserved":false,"is_disabled":true,"rental_uris":{"android":"levelo://app?vid=8becd64c-893d-4a08-8876-b1598e031c70","ios":"levelo://app?vid=8becd64c-893d-4a08-8876-b1598e031c70"},"vehicle_type_id":"4","last_reported":1740057438,"current_range_meters":13600,"station_id":"","pricing_plan_id":"cebpf4jnsgd1na2vs0mg"},{"bike_id":"fe5d081e-7df6-436d-9112-85e48fbaff35","system_id":"levelo_inurba_marseille","lat":43.2848,"lon":5.38563,"is_reserved":false,"is_disabled":false,"rental_uris":{"android":"levelo://app?vid=fe5d081e-7df6-436d-9112-85e48fbaff35","ios":"levelo://app?vid=fe5d081e-7df6-436d-9112-85e48fbaff35"},"vehicle_type_id":"4","last_reported":1740057438,"current_range_meters":14000,"station_id":"ce4bh8p2rcd13ifvqeb0","pricing_plan_id":"cebpf4jnsgd1na2vs0mg"},{"bike_id":"6aa51f18-39dc-4426-b548-982840a26185","system_id":"levelo_inurba_marseille","lat":43.28673,"lon":5.38669,"is_reserved":false,"is_disabled":false,"rental_uris":{"android":"levelo://app?vid=6aa51f18-39dc-4426-b548-982840a26185","ios":"levelo://app?vid=6aa51f18-39dc-4426-b548-982840a26185"},"vehicle_type_id":"4","last_reported":1740057438,"current_range_meters":13600,"station_id":"ce4bh492rcd13ifvqdug","pricing_plan_id":"cebpf4jnsgd1na2vs0mg"},{"bike_id":"601afe4a-25bf-4b56-a5ec-02075de1ee82","system_id":"levelo_inurba_marseille","lat":43.23068,"lon":5.35479,"is_reserved":false,"is_disabled":false,"rental_uris":{"android":"levelo://app?vid=601afe4a-25bf-4b56-a5ec-02075de1ee82","ios":"levelo://app?vid=601afe4a-25bf-4b56-a5ec-02075de1ee82"},"vehicle_type_id":"4","last_reported":1740057438,"current_range_meters":13600,"station_id":"cpo3342slgdg3j2ifvpg","pricing_plan_id":"cebpf4jnsgd1na2vs0mg"},{"bike_id":"0745cea1-f2b2-4303-9dc0-7995036d32ca","system_id":"levelo_inurba_marseille","lat":43.3133,"lon":5.39691,"is_reserved":false,"is_disabled":false,"rental_uris":{"android":"levelo://app?vid=0745cea1-f2b2-4303-9dc0-7995036d32ca","ios":"levelo://app?vid=0745cea1-f2b2-4303-9dc0-7995036d32ca"},"vehicle_type_id":"4","last_reported":1740057438,"current_range_meters":14000,"station_id":"ce4bgvp2rcd13ifvqcu0","pricing_plan_id":"cebpf4jnsgd1na2vs0mg"},{"bike_id":"867e49ca-1fcf-4c4a-b641-c20eee771353","system_id":"levelo_inurba_marseille","lat":43.28154,"lon":5.42634,"is_reserved":false,"is_disabled":false,"rental_uris":{"android":"levelo://app?vid=867e49ca-1fcf-4c4a-b641-c20eee771353","ios":"levelo://app?vid=867e49ca-1fcf-4c4a-b641-c20eee771353"},"vehicle_type_id":"4","last_reported":1740057438,"current_range_meters":14000,"station_id":"","pricing_plan_id":"cebpf4jnsgd1na2vs0mg"},{"bike_id":"3addd8d2-327f-4e60-8639-267e28d7c956","system_id":"levelo_inurba_marseille","lat":43.28699,"lon":5.38665,"is_reserved":false,"is_disabled":true,"rental_uris":{"android":"levelo://app?vid=3addd8d2-327f-4e60-8639-267e28d7c956","ios":"levelo://app?vid=3addd8d2-327f-4e60-8639-267e28d7c956"},"vehicle_type_id":"4","last_reported":1740057438,"current_range_meters":14000,"station_id":"","pricing_plan_id":"cebpf4jnsgd1na2vs0mg"},{"bike_id":"81192873-4d38-4061-82a0-70521ec3ade0","system_id":"levelo_inurba_marseille","lat":43.29416,"lon":5.38612,"is_reserved":false,"is_disabled":true,"rental_uris":{"android":"levelo://app?vid=81192873-4d38-4061-82a0-70521ec3ade0","ios":"levelo://app?vid=81192873-4d38-4061-82a0-70521ec3ade0"},"vehicle_type_id":"4","last_reported":1740057438,"current_range_meters":14000,"station_id":"ce4bh2h2rcd13ifvqdh0","pricing_plan_id":"cebpf4jnsgd1na2vs0mg"},{"bike_id":"35cdc792-a7d5-4315-be5b-8aec986c50f8","system_id":"levelo_inurba_marseille","lat":43.29564,"lon":5.39965,"is_reserved":false,"is_disabled":true,"rental_uris":{"android":"levelo://app?vid=35cdc792-a7d5-4315-be5b-8aec986c50f8","ios":"levelo://app?vid=35cdc792-a7d5-4315-be5b-8aec986c50f8"},"vehicle_type_id":"4","last_reported":1740057438,"current_range_meters":14400,"station_id":"ce4bh312rcd13ifvqdj0","pricing_plan_id":"cebpf4jnsgd1na2vs0mg"},{"bike_id":"9786a26a-800b-4393-bf29-c5e64b2b9571","system_id":"levelo_inurba_marseille","lat":43.33735,"lon":5.39176,"is_reserved":false,"is_disabled":false,"rental_uris":{"android":"levelo://app?vid=9786a26a-800b-4393-bf29-c5e64b2b9571","ios":"levelo://app?vid=9786a26a-800b-4393-bf29-c5e64b2b9571"},"vehicle_type_id":"4","last_reported":1740057438,"current_range_meters":14400,"station_id":"ce4bhr92rcd13ifvqhsg","pricing_plan_id":"cebpf4jnsgd1na2vs0mg"},{"bike_id":"378a21a7-b1ec-4051-850d-b470f3510d96","system_id":"levelo_inurba_marseille","lat":43.26818,"lon":5.40245,"is_reserved":false,"is_disabled":true,"rental_uris":{"android":"levelo://app?vid=378a21a7-b1ec-4051-850d-b470f3510d96","ios":"levelo://app?vid=378a21a7-b1ec-4051-850d-b470f3510d96"},"vehicle_type_id":"4","last_reported":1740057438,"current_range_meters":14400,"station_id":"ce501612rcd8frsf0b60","pricing_plan_id":"cebpf4jnsgd1na2vs0mg"},{"bike_id":"690257b9-6427-4526-92a0-bb750b1109b0","system_id":"levelo_inurba_marseille","lat":43.29932,"lon":5.36553,"is_reserved":false,"is_disabled":false,"rental_uris":{"android":"levelo://app?vid=690257b9-6427-4526-92a0-bb750b1109b0","ios":"levelo://app?vid=690257b9-6427-4526-92a0-bb750b1109b0"},"vehicle_type_id":"4","last_reported":1740057438,"current_range_meters":14400,"station_id":"ce4bgm92rcd13ifvqbr0","pricing_plan_id":"cebpf4jnsgd1na2vs0mg"},{"bike_id":"d145d9fa-4eb2-420a-b148-7b29aadc0ea9","system_id":"levelo_inurba_marseille","lat":43.3096,"lon":5.39039,"is_reserved":false,"is_disabled":false,"rental_uris":{"android":"levelo://app?vid=d145d9fa-4eb2-420a-b148-7b29aadc0ea9","ios":"levelo://app?vid=d145d9fa-4eb2-420a-b148-7b29aadc0ea9"},"vehicle_type_id":"4","last_reported":1740057438,"current_range_meters":14400,"station_id":"ce4bgup2rcd13ifvqco0","pricing_plan_id":"cebpf4jnsgd1na2vs0mg"},{"bike_id":"2248a686-da6b-4ef8-880e-8db6a1c23aab","system_id":"levelo_inurba_marseille","lat":43.27371,"lon":5.36248,"is_reserved":false,"is_disabled":false,"rental_uris":{"android":"levelo://app?vid=2248a686-da6b-4ef8-880e-8db6a1c23aab","ios":"levelo://app?vid=2248a686-da6b-4ef8-880e-8db6a1c23aab"},"vehicle_type_id":"4","last_reported":1740057438,"current_range_meters":14800,"station_id":"","pricing_plan_id":"cebpf4jnsgd1na2vs0mg"},{"bike_id":"e53b91c8-67fd-4f40-acea-7f7adf31cf25","system_id":"levelo_inurba_marseille","lat":43.29743,"lon":5.38057,"is_reserved":false,"is_disabled":false,"rental_uris":{"android":"levelo://app?vid=e53b91c8-67fd-4f40-acea-7f7adf31cf25","ios":"levelo://app?vid=e53b91c8-67fd-4f40-acea-7f7adf31cf25"},"vehicle_type_id":"4","last_reported":1740057438,"current_range_meters":14800,"station_id":"","pricing_plan_id":"cebpf4jnsgd1na2vs0mg"},{"bike_id":"e654b2d4-0f9d-4122-b849-90cdc281853d","system_id":"levelo_inurba_marseille","lat":43.26215,"lon":5.3744,"is_reserved":false,"is_disabled":false,"rental_uris":{"android":"levelo://app?vid=e654b2d4-0f9d-4122-b849-90cdc281853d","ios":"levelo://app?vid=e654b2d4-0f9d-4122-b849-90cdc281853d"},"vehicle_type_id":"4","last_reported":1740057438,"current_range_meters":14800,"station_id":"ce4bhgp2rcd13ifvqfc0","pricing_plan_id":"cebpf4jnsgd1na2vs0mg"},{"bike_id":"940c389d-dec7-4a79-a4f5-0766ecd11948","system_id":"levelo_inurba_marseille","lat":43.25106,"lon":5.403297,"is_reserved":false,"is_disabled":false,"rental_uris":{"android":"levelo://app?vid=940c389d-dec7-4a79-a4f5-0766ecd11948","ios":"levelo://app?vid=940c389d-dec7-4a79-a4f5-0766ecd11948"},"vehicle_type_id":"4","last_reported":1740057438,"current_range_meters":14800,"station_id":"","pricing_plan_id":"cebpf4jnsgd1na2vs0mg"},{"bike_id":"d51b3085-9cdc-4e63-b7e1-75e2e892eabf","system_id":"levelo_inurba_marseille","lat":43.29038,"lon":5.3996,"is_reserved":false,"is_disabled":false,"rental_uris":{"android":"levelo://app?vid=d51b3085-9cdc-4e63-b7e1-75e2e892eabf","ios":"levelo://app?vid=d51b3085-9cdc-4e63-b7e1-75e2e892eabf"},"vehicle_type_id":"4","last_reported":1740057438,"current_range_meters":15200,"station_id":"ce4bh392rcd13ifvqdm0","pricing_plan_id":"cebpf4jnsgd1na2vs0mg"},{"bike_id":"f5b4d1ee-d614-44d8-8c18-e4488c7555fa","system_id":"levelo_inurba_marseille","lat":43.24668,"lon":5.38171,"is_reserved":false,"is_disabled":false,"rental_uris":{"android":"levelo://app?vid=f5b4d1ee-d614-44d8-8c18-e4488c7555fa","ios":"levelo://app?vid=f5b4d1ee-d614-44d8-8c18-e4488c7555fa"},"vehicle_type_id":"4","last_reported":1740057438,"current_range_meters":15200,"station_id":"ce4bhih2rcd13ifvqfr0","pricing_plan_id":"cebpf4jnsgd1na2vs0mg"},{"bike_id":"35fc40b6-0899-4b0f-849e-0e625da254b5","system_id":"levelo_inurba_marseille","lat":43.27052,"lon":5.40259,"is_reserved":false,"is_disabled":false,"rental_uris":{"android":"levelo://app?vid=35fc40b6-0899-4b0f-849e-0e625da254b5","ios":"levelo://app?vid=35fc40b6-0899-4b0f-849e-0e625da254b5"},"vehicle_type_id":"4","last_reported":1740057438,"current_range_meters":15200,"station_id":"ce4bhk92rcd13ifvqgc0","pricing_plan_id":"cebpf4jnsgd1na2vs0mg"},{"bike_id":"371d7914-6c97-4ea3-bf31-4ab9534e3289","system_id":"levelo_inurba_marseille","lat":43.30188,"lon":5.36625,"is_reserved":false,"is_disabled":false,"rental_uris":{"android":"levelo://app?vid=371d7914-6c97-4ea3-bf31-4ab9534e3289","ios":"levelo://app?vid=371d7914-6c97-4ea3-bf31-4ab9534e3289"},"vehicle_type_id":"4","last_reported":1740057438,"current_range_meters":15200,"station_id":"ce4bgrh2rcd13ifvqc8g","pricing_plan_id":"cebpf4jnsgd1na2vs0mg"},{"bike_id":"d5af9da1-b877-4417-933c-6dccb502c7ab","system_id":"levelo_inurba_marseille","lat":43.258736,"lon":5.398929,"is_reserved":false,"is_disabled":false,"rental_uris":{"android":"levelo://app?vid=d5af9da1-b877-4417-933c-6dccb502c7ab","ios":"levelo://app?vid=d5af9da1-b877-4417-933c-6dccb502c7ab"},"vehicle_type_id":"4","last_reported":1740057438,"current_range_meters":15200,"station_id":"","pricing_plan_id":"cebpf4jnsgd1na2vs0mg"},{"bike_id":"170f469e-b552-468d-b289-43ce147ac122","system_id":"levelo_inurba_marseille","lat":43.28157,"lon":5.42636,"is_reserved":false,"is_disabled":false,"rental_uris":{"android":"levelo://app?vid=170f469e-b552-468d-b289-43ce147ac122","ios":"levelo://app?vid=170f469e-b552-468d-b289-43ce147ac122"},"vehicle_type_id":"4","last_reported":1740057438,"current_range_meters":16000,"station_id":"ce4bhnh2rcd13ifvqgug","pricing_plan_id":"cebpf4jnsgd1na2vs0mg"},{"bike_id":"3b08f22c-92b4-477a-a1e5-9f94027986eb","system_id":"levelo_inurba_marseille","lat":43.30093,"lon":5.39083,"is_reserved":false,"is_disabled":false,"rental_uris":{"android":"levelo://app?vid=3b08f22c-92b4-477a-a1e5-9f94027986eb","ios":"levelo://app?vid=3b08f22c-92b4-477a-a1e5-9f94027986eb"},"vehicle_type_id":"4","last_reported":1740057438,"current_range_meters":16000,"station_id":"ce4bh192rcd13ifvqdb0","pricing_plan_id":"cebpf4jnsgd1na2vs0mg"},{"bike_id":"0a56f9d1-0a16-443d-8e0e-b767591ef2e6","system_id":"levelo_inurba_marseille","lat":43.268,"lon":5.40255,"is_reserved":false,"is_disabled":false,"rental_uris":{"android":"levelo://app?vid=0a56f9d1-0a16-443d-8e0e-b767591ef2e6","ios":"levelo://app?vid=0a56f9d1-0a16-443d-8e0e-b767591ef2e6"},"vehicle_type_id":"4","last_reported":1740057438,"current_range_meters":16000,"station_id":"ce501612rcd8frsf0b60","pricing_plan_id":"cebpf4jnsgd1na2vs0mg"},{"bike_id":"ce0caea6-6d1c-48ef-b0eb-fae6199eb4e1","system_id":"levelo_inurba_marseille","lat":43.23066,"lon":5.35508,"is_reserved":false,"is_disabled":false,"rental_uris":{"android":"levelo://app?vid=ce0caea6-6d1c-48ef-b0eb-fae6199eb4e1","ios":"levelo://app?vid=ce0caea6-6d1c-48ef-b0eb-fae6199eb4e1"},"vehicle_type_id":"4","last_reported":1740057438,"current_range_meters":16000,"station_id":"cpo3342slgdg3j2ifvpg","pricing_plan_id":"cebpf4jnsgd1na2vs0mg"},{"bike_id":"6e96c5a3-48ee-44f0-ab7f-c684f1caf699","system_id":"levelo_inurba_marseille","lat":43.29262,"lon":5.37622,"is_reserved":false,"is_disabled":false,"rental_uris":{"android":"levelo://app?vid=6e96c5a3-48ee-44f0-ab7f-c684f1caf699","ios":"levelo://app?vid=6e96c5a3-48ee-44f0-ab7f-c684f1caf699"},"vehicle_type_id":"4","last_reported":1740057438,"current_range_meters":16000,"station_id":"ce4bgi12rcd13ifvqb80","pricing_plan_id":"cebpf4jnsgd1na2vs0mg"},{"bike_id":"ea745138-460b-4e17-a859-b1506abe4ed3","system_id":"levelo_inurba_marseille","lat":43.30133,"lon":5.37426,"is_reserved":false,"is_disabled":false,"rental_uris":{"android":"levelo://app?vid=ea745138-460b-4e17-a859-b1506abe4ed3","ios":"levelo://app?vid=ea745138-460b-4e17-a859-b1506abe4ed3"},"vehicle_type_id":"4","last_reported":1740057438,"current_range_meters":16000,"station_id":"ce4bgs92rcd13ifvqcc0","pricing_plan_id":"cebpf4jnsgd1na2vs0mg"},{"bike_id":"3447e7b6-f8ed-4872-a45f-cf3cd80ed8ad","system_id":"levelo_inurba_marseille","lat":43.29734,"lon":5.3791,"is_reserved":false,"is_disabled":false,"rental_uris":{"android":"levelo://app?vid=3447e7b6-f8ed-4872-a45f-cf3cd80ed8ad","ios":"levelo://app?vid=3447e7b6-f8ed-4872-a45f-cf3cd80ed8ad"},"vehicle_type_id":"4","last_reported":1740057438,"current_range_meters":16000,"station_id":"ce4bguh2rcd13ifvqckg","pricing_plan_id":"cebpf4jnsgd1na2vs0mg"},{"bike_id":"6a41d4d5-6ce6-4940-8b60-f1b1f72587c0","system_id":"levelo_inurba_marseille","lat":43.23066,"lon":5.35487,"is_reserved":false,"is_disabled":false,"rental_uris":{"android":"levelo://app?vid=6a41d4d5-6ce6-4940-8b60-f1b1f72587c0","ios":"levelo://app?vid=6a41d4d5-6ce6-4940-8b60-f1b1f72587c0"},"vehicle_type_id":"4","last_reported":1740057438,"current_range_meters":16000,"station_id":"cpo3342slgdg3j2ifvpg","pricing_plan_id":"cebpf4jnsgd1na2vs0mg"},{"bike_id":"a80518aa-f08a-4a4b-96b7-999de2e33525","system_id":"levelo_inurba_marseille","lat":43.29003,"lon":5.35598,"is_reserved":false,"is_disabled":false,"rental_uris":{"android":"levelo://app?vid=a80518aa-f08a-4a4b-96b7-999de2e33525","ios":"levelo://app?vid=a80518aa-f08a-4a4b-96b7-999de2e33525"},"vehicle_type_id":"4","last_reported":1740057438,"current_range_meters":16000,"station_id":"ce4bhb92rcd13ifvqen0","pricing_plan_id":"cebpf4jnsgd1na2vs0mg"},{"bike_id":"5a001ab7-5813-41f4-b1cb-bc211d4e2327","system_id":"levelo_inurba_marseille","lat":43.28007,"lon":5.39998,"is_reserved":false,"is_disabled":false,"rental_uris":{"android":"levelo://app?vid=5a001ab7-5813-41f4-b1cb-bc211d4e2327","ios":"levelo://app?vid=5a001ab7-5813-41f4-b1cb-bc211d4e2327"},"vehicle_type_id":"4","last_reported":1740057438,"current_range_meters":16000,"station_id":"ce4bho92rcd13ifvqh4g","pricing_plan_id":"cebpf4jnsgd1na2vs0mg"},{"bike_id":"ebb1ec4f-f528-413e-942a-dc6bb47a8d29","system_id":"levelo_inurba_marseille","lat":43.28468,"lon":5.3841,"is_reserved":false,"is_disabled":false,"rental_uris":{"android":"levelo://app?vid=ebb1ec4f-f528-413e-942a-dc6bb47a8d29","ios":"levelo://app?vid=ebb1ec4f-f528-413e-942a-dc6bb47a8d29"},"vehicle_type_id":"4","last_reported":1740057438,"current_range_meters":16400,"station_id":"ce4bh512rcd13ifvqe3g","pricing_plan_id":"cebpf4jnsgd1na2vs0mg"},{"bike_id":"c72fcdb0-826e-424c-ade7-557f9c84df0a","system_id":"levelo_inurba_marseille","lat":43.27213,"lon":5.39191,"is_reserved":false,"is_disabled":false,"rental_uris":{"android":"levelo://app?vid=c72fcdb0-826e-424c-ade7-557f9c84df0a","ios":"levelo://app?vid=c72fcdb0-826e-424c-ade7-557f9c84df0a"},"vehicle_type_id":"4","last_reported":1740057438,"current_range_meters":16400,"station_id":"ce4bhhp2rcd13ifvqfm0","pricing_plan_id":"cebpf4jnsgd1na2vs0mg"},{"bike_id":"b9dfb592-ac4f-4546-b220-45af401fcb3d","system_id":"levelo_inurba_marseille","lat":43.29187,"lon":5.39323,"is_reserved":false,"is_disabled":false,"rental_uris":{"android":"levelo://app?vid=b9dfb592-ac4f-4546-b220-45af401fcb3d","ios":"levelo://app?vid=b9dfb592-ac4f-4546-b220-45af401fcb3d"},"vehicle_type_id":"4","last_reported":1740057438,"current_range_meters":16400,"station_id":"","pricing_plan_id":"cebpf4jnsgd1na2vs0mg"},{"bike_id":"4295009f-39da-4796-8d8a-9cfd90bfc9e6","system_id":"levelo_inurba_marseille","lat":43.299077,"lon":5.374721,"is_reserved":false,"is_disabled":false,"rental_uris":{"android":"levelo://app?vid=4295009f-39da-4796-8d8a-9cfd90bfc9e6","ios":"levelo://app?vid=4295009f-39da-4796-8d8a-9cfd90bfc9e6"},"vehicle_type_id":"4","last_reported":1740057438,"current_range_meters":16400,"station_id":"ce4bgjh2rcd13ifvqbg0","pricing_plan_id":"cebpf4jnsgd1na2vs0mg"},{"bike_id":"bc25d2c6-cebe-44e6-b343-679788a5078d","system_id":"levelo_inurba_marseille","lat":43.2844,"lon":5.39202,"is_reserved":false,"is_disabled":false,"rental_uris":{"android":"levelo://app?vid=bc25d2c6-cebe-44e6-b343-679788a5078d","ios":"levelo://app?vid=bc25d2c6-cebe-44e6-b343-679788a5078d"},"vehicle_type_id":"4","last_reported":1740057438,"current_range_meters":16400,"station_id":"ce4bhoh2rcd13ifvqh5g","pricing_plan_id":"cebpf4jnsgd1na2vs0mg"},{"bike_id":"bb2f4d3b-1c12-4014-a4ba-681d644e17de","system_id":"levelo_inurba_marseille","lat":43.26959,"lon":5.38639,"is_reserved":false,"is_disabled":false,"rental_uris":{"android":"levelo://app?vid=bb2f4d3b-1c12-4014-a4ba-681d644e17de","ios":"levelo://app?vid=bb2f4d3b-1c12-4014-a4ba-681d644e17de"},"vehicle_type_id":"4","last_reported":1740057438,"current_range_meters":16400,"station_id":"ce4bhh92rcd13ifvqfh0","pricing_plan_id":"cebpf4jnsgd1na2vs0mg"},{"bike_id":"6106393f-3645-48aa-b132-3d2def6b4674","system_id":"levelo_inurba_marseille","lat":43.30464,"lon":5.38104,"is_reserved":false,"is_disabled":false,"rental_uris":{"android":"levelo://app?vid=6106393f-3645-48aa-b132-3d2def6b4674","ios":"levelo://app?vid=6106393f-3645-48aa-b132-3d2def6b4674"},"vehicle_type_id":"4","last_reported":1740057438,"current_range_meters":16400,"station_id":"ce4bgv92rcd13ifvqcq0","pricing_plan_id":"cebpf4jnsgd1na2vs0mg"},{"bike_id":"282aea0b-3b38-483d-a530-a6d0b7eb9dda","system_id":"levelo_inurba_marseille","lat":43.26503,"lon":5.39535,"is_reserved":false,"is_disabled":false,"rental_uris":{"android":"levelo://app?vid=282aea0b-3b38-483d-a530-a6d0b7eb9dda","ios":"levelo://app?vid=282aea0b-3b38-483d-a530-a6d0b7eb9dda"},"vehicle_type_id":"4","last_reported":1740057438,"current_range_meters":16800,"station_id":"ce4bhi12rcd13ifvqfq0","pricing_plan_id":"cebpf4jnsgd1na2vs0mg"},{"bike_id":"1736bdf7-065e-458a-8be8-137efe82e48a","system_id":"levelo_inurba_marseille","lat":43.33097,"lon":5.39055,"is_reserved":false,"is_disabled":false,"rental_uris":{"android":"levelo://app?vid=1736bdf7-065e-458a-8be8-137efe82e48a","ios":"levelo://app?vid=1736bdf7-065e-458a-8be8-137efe82e48a"},"vehicle_type_id":"4","last_reported":1740057438,"current_range_meters":16800,"station_id":"ce4bhqp2rcd13ifvqhog","pricing_plan_id":"cebpf4jnsgd1na2vs0mg"},{"bike_id":"0acb53c6-517f-4b0b-81a6-4e247c67e378","system_id":"levelo_inurba_marseille","lat":43.2412,"lon":5.3966,"is_reserved":false,"is_disabled":false,"rental_uris":{"android":"levelo://app?vid=0acb53c6-517f-4b0b-81a6-4e247c67e378","ios":"levelo://app?vid=0acb53c6-517f-4b0b-81a6-4e247c67e378"},"vehicle_type_id":"4","last_reported":1740057438,"current_range_meters":16800,"station_id":"ce4bhn12rcd13ifvqgpg","pricing_plan_id":"cebpf4jnsgd1na2vs0mg"},{"bike_id":"96fbdd41-6e32-449c-95bf-cef2bc95fe19","system_id":"levelo_inurba_marseille","lat":43.29373,"lon":5.37834,"is_reserved":false,"is_disabled":false,"rental_uris":{"android":"levelo://app?vid=96fbdd41-6e32-449c-95bf-cef2bc95fe19","ios":"levelo://app?vid=96fbdd41-6e32-449c-95bf-cef2bc95fe19"},"vehicle_type_id":"4","last_reported":1740057438,"current_range_meters":16800,"station_id":"","pricing_plan_id":"cebpf4jnsgd1na2vs0mg"},{"bike_id":"8500dddb-5b54-48aa-b686-a901ffd75120","system_id":"levelo_inurba_marseille","lat":43.28105,"lon":5.37833,"is_reserved":false,"is_disabled":false,"rental_uris":{"android":"levelo://app?vid=8500dddb-5b54-48aa-b686-a901ffd75120","ios":"levelo://app?vid=8500dddb-5b54-48aa-b686-a901ffd75120"},"vehicle_type_id":"4","last_reported":1740057438,"current_range_meters":16800,"station_id":"ce4bha12rcd13ifvqee0","pricing_plan_id":"cebpf4jnsgd1na2vs0mg"},{"bike_id":"f208e7f5-04c0-4f4e-9ad3-fbc4eb8832ae","system_id":"levelo_inurba_marseille","lat":43.25498,"lon":5.37648,"is_reserved":false,"is_disabled":false,"rental_uris":{"android":"levelo://app?vid=f208e7f5-04c0-4f4e-9ad3-fbc4eb8832ae","ios":"levelo://app?vid=f208e7f5-04c0-4f4e-9ad3-fbc4eb8832ae"},"vehicle_type_id":"4","last_reported":1740057438,"current_range_meters":16800,"station_id":"ce4bhh12rcd13ifvqff0","pricing_plan_id":"cebpf4jnsgd1na2vs0mg"},{"bike_id":"1c83bb61-2469-4008-bfe4-3f140be568a3","system_id":"levelo_inurba_marseille","lat":43.27955,"lon":5.41046,"is_reserved":false,"is_disabled":false,"rental_uris":{"android":"levelo://app?vid=1c83bb61-2469-4008-bfe4-3f140be568a3","ios":"levelo://app?vid=1c83bb61-2469-4008-bfe4-3f140be568a3"},"vehicle_type_id":"4","last_reported":1740057438,"current_range_meters":16800,"station_id":"ce4bhnp2rcd13ifvqh0g","pricing_plan_id":"cebpf4jnsgd1na2vs0mg"},{"bike_id":"b253065d-1074-4a51-bc2b-4e15dba86004","system_id":"levelo_inurba_marseille","lat":43.23066,"lon":5.35488,"is_reserved":false,"is_disabled":false,"rental_uris":{"android":"levelo://app?vid=b253065d-1074-4a51-bc2b-4e15dba86004","ios":"levelo://app?vid=b253065d-1074-4a51-bc2b-4e15dba86004"},"vehicle_type_id":"4","last_reported":1740057438,"current_range_meters":16800,"station_id":"cpo3342slgdg3j2ifvpg","pricing_plan_id":"cebpf4jnsgd1na2vs0mg"},{"bike_id":"0c6dfc2a-5d46-4b56-a56c-62302e24179b","system_id":"levelo_inurba_marseille","lat":43.29853,"lon":5.36273,"is_reserved":false,"is_disabled":false,"rental_uris":{"android":"levelo://app?vid=0c6dfc2a-5d46-4b56-a56c-62302e24179b","ios":"levelo://app?vid=0c6dfc2a-5d46-4b56-a56c-62302e24179b"},"vehicle_type_id":"4","last_reported":1740057438,"current_range_meters":17200,"station_id":"ce4bgpp2rcd13ifvqc3g","pricing_plan_id":"cebpf4jnsgd1na2vs0mg"},{"bike_id":"2d26e764-861c-4c39-8e32-c40cf54e4d05","system_id":"levelo_inurba_marseille","lat":43.2998,"lon":5.37182,"is_reserved":false,"is_disabled":false,"rental_uris":{"android":"levelo://app?vid=2d26e764-861c-4c39-8e32-c40cf54e4d05","ios":"levelo://app?vid=2d26e764-861c-4c39-8e32-c40cf54e4d05"},"vehicle_type_id":"4","last_reported":1740057438,"current_range_meters":17200,"station_id":"ce4bgr92rcd13ifvqc7g","pricing_plan_id":"cebpf4jnsgd1na2vs0mg"},{"bike_id":"790b0ff7-55c5-4c35-9f2a-78c4076d7d17","system_id":"levelo_inurba_marseille","lat":43.27944,"lon":5.38499,"is_reserved":false,"is_disabled":false,"rental_uris":{"android":"levelo://app?vid=790b0ff7-55c5-4c35-9f2a-78c4076d7d17","ios":"levelo://app?vid=790b0ff7-55c5-4c35-9f2a-78c4076d7d17"},"vehicle_type_id":"4","last_reported":1740057438,"current_range_meters":17200,"station_id":"","pricing_plan_id":"cebpf4jnsgd1na2vs0mg"},{"bike_id":"970d71e7-e450-420e-8062-02057dda3beb","system_id":"levelo_inurba_marseille","lat":43.33606,"lon":5.41008,"is_reserved":false,"is_disabled":false,"rental_uris":{"android":"levelo://app?vid=970d71e7-e450-420e-8062-02057dda3beb","ios":"levelo://app?vid=970d71e7-e450-420e-8062-02057dda3beb"},"vehicle_type_id":"4","last_reported":1740057438,"current_range_meters":17200,"station_id":"ce4bhqh2rcd13ifvqhmg","pricing_plan_id":"cebpf4jnsgd1na2vs0mg"},{"bike_id":"0e65fbfb-6cda-4515-bf1d-9a37562354fd","system_id":"levelo_inurba_marseille","lat":43.30147,"lon":5.37418,"is_reserved":false,"is_disabled":false,"rental_uris":{"android":"levelo://app?vid=0e65fbfb-6cda-4515-bf1d-9a37562354fd","ios":"levelo://app?vid=0e65fbfb-6cda-4515-bf1d-9a37562354fd"},"vehicle_type_id":"4","last_reported":1740057438,"current_range_meters":17200,"station_id":"ce4bgs92rcd13ifvqcc0","pricing_plan_id":"cebpf4jnsgd1na2vs0mg"},{"bike_id":"4e11b30d-0226-4b04-813f-4404772688cd","system_id":"levelo_inurba_marseille","lat":43.29016,"lon":5.37152,"is_reserved":false,"is_disabled":false,"rental_uris":{"android":"levelo://app?vid=4e11b30d-0226-4b04-813f-4404772688cd","ios":"levelo://app?vid=4e11b30d-0226-4b04-813f-4404772688cd"},"vehicle_type_id":"4","last_reported":1740057438,"current_range_meters":17200,"station_id":"","pricing_plan_id":"cebpf4jnsgd1na2vs0mg"},{"bike_id":"95bf57d2-9d5e-46e9-955d-d16e9478a33d","system_id":"levelo_inurba_marseille","lat":43.24998,"lon":5.38924,"is_reserved":false,"is_disabled":false,"rental_uris":{"android":"levelo://app?vid=95bf57d2-9d5e-46e9-955d-d16e9478a33d","ios":"levelo://app?vid=95bf57d2-9d5e-46e9-955d-d16e9478a33d"},"vehicle_type_id":"4","last_reported":1740057438,"current_range_meters":17600,"station_id":"","pricing_plan_id":"cebpf4jnsgd1na2vs0mg"},{"bike_id":"7f77d183-c231-456a-93e4-32a63d975eb6","system_id":"levelo_inurba_marseille","lat":43.25067,"lon":5.39506,"is_reserved":false,"is_disabled":false,"rental_uris":{"android":"levelo://app?vid=7f77d183-c231-456a-93e4-32a63d975eb6","ios":"levelo://app?vid=7f77d183-c231-456a-93e4-32a63d975eb6"},"vehicle_type_id":"4","last_reported":1740057438,"current_range_meters":17600,"station_id":"ce4bhn12rcd13ifvqgqg","pricing_plan_id":"cebpf4jnsgd1na2vs0mg"},{"bike_id":"ba93850d-5460-4501-a6ed-a71a7f8be937","system_id":"levelo_inurba_marseille","lat":43.29508,"lon":5.37516,"is_reserved":false,"is_disabled":false,"rental_uris":{"android":"levelo://app?vid=ba93850d-5460-4501-a6ed-a71a7f8be937","ios":"levelo://app?vid=ba93850d-5460-4501-a6ed-a71a7f8be937"},"vehicle_type_id":"4","last_reported":1740057438,"current_range_meters":17200,"station_id":"ce4bgkp2rcd13ifvqbmg","pricing_plan_id":"cebpf4jnsgd1na2vs0mg"},{"bike_id":"0f9b09d5-96c5-46f8-a357-5f2b259626e5","system_id":"levelo_inurba_marseille","lat":43.29737,"lon":5.37671,"is_reserved":false,"is_disabled":false,"rental_uris":{"android":"levelo://app?vid=0f9b09d5-96c5-46f8-a357-5f2b259626e5","ios":"levelo://app?vid=0f9b09d5-96c5-46f8-a357-5f2b259626e5"},"vehicle_type_id":"4","last_reported":1740057438,"current_range_meters":17600,"station_id":"","pricing_plan_id":"cebpf4jnsgd1na2vs0mg"},{"bike_id":"01c0cb10-ed29-4f6f-9b0e-59ec267ad702","system_id":"levelo_inurba_marseille","lat":43.30906,"lon":5.36846,"is_reserved":false,"is_disabled":false,"rental_uris":{"android":"levelo://app?vid=01c0cb10-ed29-4f6f-9b0e-59ec267ad702","ios":"levelo://app?vid=01c0cb10-ed29-4f6f-9b0e-59ec267ad702"},"vehicle_type_id":"4","last_reported":1740057438,"current_range_meters":17600,"station_id":"ce4bgn92rcd13ifvqbvg","pricing_plan_id":"cebpf4jnsgd1na2vs0mg"},{"bike_id":"3a18a060-43b3-487c-bb23-8493264d5ba4","system_id":"levelo_inurba_marseille","lat":43.2418,"lon":5.36407,"is_reserved":false,"is_disabled":true,"rental_uris":{"android":"levelo://app?vid=3a18a060-43b3-487c-bb23-8493264d5ba4","ios":"levelo://app?vid=3a18a060-43b3-487c-bb23-8493264d5ba4"},"vehicle_type_id":"4","last_reported":1740057438,"current_range_meters":17600,"station_id":"","pricing_plan_id":"cebpf4jnsgd1na2vs0mg"},{"bike_id":"4347ac42-d6bd-4898-bb54-db9da5fa21c6","system_id":"levelo_inurba_marseille","lat":43.26815,"lon":5.40257,"is_reserved":false,"is_disabled":false,"rental_uris":{"android":"levelo://app?vid=4347ac42-d6bd-4898-bb54-db9da5fa21c6","ios":"levelo://app?vid=4347ac42-d6bd-4898-bb54-db9da5fa21c6"},"vehicle_type_id":"4","last_reported":1740057438,"current_range_meters":17600,"station_id":"ce501612rcd8frsf0b60","pricing_plan_id":"cebpf4jnsgd1na2vs0mg"},{"bike_id":"6ac01c27-4e57-4962-954d-04b7361441dd","system_id":"levelo_inurba_marseille","lat":43.30792,"lon":5.37336,"is_reserved":false,"is_disabled":false,"rental_uris":{"android":"levelo://app?vid=6ac01c27-4e57-4962-954d-04b7361441dd","ios":"levelo://app?vid=6ac01c27-4e57-4962-954d-04b7361441dd"},"vehicle_type_id":"4","last_reported":1740057438,"current_range_meters":17600,"station_id":"ce4bgt92rcd13ifvqcg0","pricing_plan_id":"cebpf4jnsgd1na2vs0mg"},{"bike_id":"1c0dd1b8-281b-4e12-a3ea-43e7eea27782","system_id":"levelo_inurba_marseille","lat":43.27952,"lon":5.38716,"is_reserved":false,"is_disabled":false,"rental_uris":{"android":"levelo://app?vid=1c0dd1b8-281b-4e12-a3ea-43e7eea27782","ios":"levelo://app?vid=1c0dd1b8-281b-4e12-a3ea-43e7eea27782"},"vehicle_type_id":"4","last_reported":1740057438,"current_range_meters":18000,"station_id":"ce4bhg12rcd13ifvqf80","pricing_plan_id":"cebpf4jnsgd1na2vs0mg"},{"bike_id":"4b97a6da-114f-4424-8255-b7a6edefee95","system_id":"levelo_inurba_marseille","lat":43.27686,"lon":5.38895,"is_reserved":false,"is_disabled":false,"rental_uris":{"android":"levelo://app?vid=4b97a6da-114f-4424-8255-b7a6edefee95","ios":"levelo://app?vid=4b97a6da-114f-4424-8255-b7a6edefee95"},"vehicle_type_id":"4","last_reported":1740057438,"current_range_meters":18000,"station_id":"ce4bhi12rcd13ifvqfo0","pricing_plan_id":"cebpf4jnsgd1na2vs0mg"},{"bike_id":"f800bf4a-a88e-43ea-b4b8-11875d2f53c7","system_id":"levelo_inurba_marseille","lat":43.24831,"lon":5.37456,"is_reserved":false,"is_disabled":true,"rental_uris":{"android":"levelo://app?vid=f800bf4a-a88e-43ea-b4b8-11875d2f53c7","ios":"levelo://app?vid=f800bf4a-a88e-43ea-b4b8-11875d2f53c7"},"vehicle_type_id":"4","last_reported":1740057438,"current_range_meters":18000,"station_id":"","pricing_plan_id":"cebpf4jnsgd1na2vs0mg"},{"bike_id":"975ff1b0-57c8-4002-92bf-5ce6a7b26e4d","system_id":"levelo_inurba_marseille","lat":43.29073,"lon":5.37161,"is_reserved":false,"is_disabled":false,"rental_uris":{"android":"levelo://app?vid=975ff1b0-57c8-4002-92bf-5ce6a7b26e4d","ios":"levelo://app?vid=975ff1b0-57c8-4002-92bf-5ce6a7b26e4d"},"vehicle_type_id":"4","last_reported":1740057438,"current_range_meters":18000,"station_id":"ce4bh5p2rcd13ifvqe4g","pricing_plan_id":"cebpf4jnsgd1na2vs0mg"},{"bike_id":"54062bd6-8f9d-41b0-8920-cb4a95e20d78","system_id":"levelo_inurba_marseille","lat":43.24067,"lon":5.37766,"is_reserved":false,"is_disabled":false,"rental_uris":{"android":"levelo://app?vid=54062bd6-8f9d-41b0-8920-cb4a95e20d78","ios":"levelo://app?vid=54062bd6-8f9d-41b0-8920-cb4a95e20d78"},"vehicle_type_id":"4","last_reported":1740057438,"current_range_meters":18800,"station_id":"ce4bhnp2rcd13ifvqgvg","pricing_plan_id":"cebpf4jnsgd1na2vs0mg"},{"bike_id":"44e45a0d-80e4-4777-b789-c9ff84761c0c","system_id":"levelo_inurba_marseille","lat":43.29273,"lon":5.39436,"is_reserved":false,"is_disabled":false,"rental_uris":{"android":"levelo://app?vid=44e45a0d-80e4-4777-b789-c9ff84761c0c","ios":"levelo://app?vid=44e45a0d-80e4-4777-b789-c9ff84761c0c"},"vehicle_type_id":"4","last_reported":1740057438,"current_range_meters":18000,"station_id":"","pricing_plan_id":"cebpf4jnsgd1na2vs0mg"},{"bike_id":"6c1c7ec1-6a5b-46f5-856f-6da8fe824066","system_id":"levelo_inurba_marseille","lat":43.2668,"lon":5.3826,"is_reserved":false,"is_disabled":false,"rental_uris":{"android":"levelo://app?vid=6c1c7ec1-6a5b-46f5-856f-6da8fe824066","ios":"levelo://app?vid=6c1c7ec1-6a5b-46f5-856f-6da8fe824066"},"vehicle_type_id":"4","last_reported":1740057438,"current_range_meters":18000,"station_id":"ce4bhg92rcd13ifvqf90","pricing_plan_id":"cebpf4jnsgd1na2vs0mg"},{"bike_id":"e779dcfa-d4f6-4c4c-ac42-69401c9f7bc8","system_id":"levelo_inurba_marseille","lat":43.2926,"lon":5.38456,"is_reserved":false,"is_disabled":false,"rental_uris":{"android":"levelo://app?vid=e779dcfa-d4f6-4c4c-ac42-69401c9f7bc8","ios":"levelo://app?vid=e779dcfa-d4f6-4c4c-ac42-69401c9f7bc8"},"vehicle_type_id":"4","last_reported":1740057438,"current_range_meters":18000,"station_id":"ce4bh692rcd13ifvqea0","pricing_plan_id":"cebpf4jnsgd1na2vs0mg"},{"bike_id":"19c445a9-8e54-4782-8619-34711c210c68","system_id":"levelo_inurba_marseille","lat":43.27063,"lon":5.42271,"is_reserved":false,"is_disabled":false,"rental_uris":{"android":"levelo://app?vid=19c445a9-8e54-4782-8619-34711c210c68","ios":"levelo://app?vid=19c445a9-8e54-4782-8619-34711c210c68"},"vehicle_type_id":"4","last_reported":1740057438,"current_range_meters":17600,"station_id":"ce4bhk92rcd13ifvqgb0","pricing_plan_id":"cebpf4jnsgd1na2vs0mg"},{"bike_id":"e6bd1c62-ca1b-47bb-b95c-d3a87dc972eb","system_id":"levelo_inurba_marseille","lat":43.30332,"lon":5.36907,"is_reserved":false,"is_disabled":false,"rental_uris":{"android":"levelo://app?vid=e6bd1c62-ca1b-47bb-b95c-d3a87dc972eb","ios":"levelo://app?vid=e6bd1c62-ca1b-47bb-b95c-d3a87dc972eb"},"vehicle_type_id":"4","last_reported":1740057438,"current_range_meters":18800,"station_id":"ce4bgqh2rcd13ifvqc5g","pricing_plan_id":"cebpf4jnsgd1na2vs0mg"},{"bike_id":"da0d8a57-dc35-4cad-a584-68768284fc4a","system_id":"levelo_inurba_marseille","lat":43.2956,"lon":5.37491,"is_reserved":false,"is_disabled":false,"rental_uris":{"android":"levelo://app?vid=da0d8a57-dc35-4cad-a584-68768284fc4a","ios":"levelo://app?vid=da0d8a57-dc35-4cad-a584-68768284fc4a"},"vehicle_type_id":"4","last_reported":1740057438,"current_range_meters":18800,"station_id":"","pricing_plan_id":"cebpf4jnsgd1na2vs0mg"},{"bike_id":"03e0b583-8039-46ad-9e67-41a6da396e43","system_id":"levelo_inurba_marseille","lat":43.28707,"lon":5.39989,"is_reserved":false,"is_disabled":false,"rental_uris":{"android":"levelo://app?vid=03e0b583-8039-46ad-9e67-41a6da396e43","ios":"levelo://app?vid=03e0b583-8039-46ad-9e67-41a6da396e43"},"vehicle_type_id":"4","last_reported":1740057438,"current_range_meters":18800,"station_id":"","pricing_plan_id":"cebpf4jnsgd1na2vs0mg"},{"bike_id":"89fb68ec-1aa9-4c97-8b89-632e005ea687","system_id":"levelo_inurba_marseille","lat":43.337444,"lon":5.374475,"is_reserved":false,"is_disabled":true,"rental_uris":{"android":"levelo://app?vid=89fb68ec-1aa9-4c97-8b89-632e005ea687","ios":"levelo://app?vid=89fb68ec-1aa9-4c97-8b89-632e005ea687"},"vehicle_type_id":"4","last_reported":1740057438,"current_range_meters":18800,"station_id":"","pricing_plan_id":"cebpf4jnsgd1na2vs0mg"},{"bike_id":"39911775-b352-437f-a831-cbaa657f922a","system_id":"levelo_inurba_marseille","lat":43.28714,"lon":5.37414,"is_reserved":false,"is_disabled":false,"rental_uris":{"android":"levelo://app?vid=39911775-b352-437f-a831-cbaa657f922a","ios":"levelo://app?vid=39911775-b352-437f-a831-cbaa657f922a"},"vehicle_type_id":"4","last_reported":1740057438,"current_range_meters":18800,"station_id":"ce4bh3p2rcd13ifvqdq0","pricing_plan_id":"cebpf4jnsgd1na2vs0mg"},{"bike_id":"5b2970b8-45e2-491f-b1e0-09329ec70504","system_id":"levelo_inurba_marseille","lat":43.30882,"lon":5.37201,"is_reserved":false,"is_disabled":false,"rental_uris":{"android":"levelo://app?vid=5b2970b8-45e2-491f-b1e0-09329ec70504","ios":"levelo://app?vid=5b2970b8-45e2-491f-b1e0-09329ec70504"},"vehicle_type_id":"4","last_reported":1740057438,"current_range_meters":18800,"station_id":"ce4bguh2rcd13ifvqckg","pricing_plan_id":"cebpf4jnsgd1na2vs0mg"},{"bike_id":"eda29762-c6dc-49a0-a5cf-e5339fe492a5","system_id":"levelo_inurba_marseille","lat":43.27053,"lon":5.4026,"is_reserved":false,"is_disabled":false,"rental_uris":{"android":"levelo://app?vid=eda29762-c6dc-49a0-a5cf-e5339fe492a5","ios":"levelo://app?vid=eda29762-c6dc-49a0-a5cf-e5339fe492a5"},"vehicle_type_id":"4","last_reported":1740057438,"current_range_meters":18800,"station_id":"ce4bhk92rcd13ifvqgc0","pricing_plan_id":"cebpf4jnsgd1na2vs0mg"},{"bike_id":"c3cd1bef-97c7-4b60-ab47-c671257ecf82","system_id":"levelo_inurba_marseille","lat":43.28002,"lon":5.4001,"is_reserved":false,"is_disabled":false,"rental_uris":{"android":"levelo://app?vid=c3cd1bef-97c7-4b60-ab47-c671257ecf82","ios":"levelo://app?vid=c3cd1bef-97c7-4b60-ab47-c671257ecf82"},"vehicle_type_id":"4","last_reported":1740057438,"current_range_meters":19200,"station_id":"ce4bho92rcd13ifvqh4g","pricing_plan_id":"cebpf4jnsgd1na2vs0mg"},{"bike_id":"2f4c9ffb-066d-4c08-a1a9-d472c1c070e9","system_id":"levelo_inurba_marseille","lat":43.26555,"lon":5.38994,"is_reserved":false,"is_disabled":false,"rental_uris":{"android":"levelo://app?vid=2f4c9ffb-066d-4c08-a1a9-d472c1c070e9","ios":"levelo://app?vid=2f4c9ffb-066d-4c08-a1a9-d472c1c070e9"},"vehicle_type_id":"4","last_reported":1740057438,"current_range_meters":19200,"station_id":"ce4bhe12rcd13ifvqf30","pricing_plan_id":"cebpf4jnsgd1na2vs0mg"},{"bike_id":"4425d015-adec-4c1e-bd9b-0894e4035698","system_id":"levelo_inurba_marseille","lat":43.25023,"lon":5.38924,"is_reserved":false,"is_disabled":false,"rental_uris":{"android":"levelo://app?vid=4425d015-adec-4c1e-bd9b-0894e4035698","ios":"levelo://app?vid=4425d015-adec-4c1e-bd9b-0894e4035698"},"vehicle_type_id":"4","last_reported":1740057438,"current_range_meters":19200,"station_id":"ce4bhgp2rcd13ifvqfd0","pricing_plan_id":"cebpf4jnsgd1na2vs0mg"},{"bike_id":"cff7e479-9e10-47df-b1cb-df926e2a5d1f","system_id":"levelo_inurba_marseille","lat":43.27183,"lon":5.40993,"is_reserved":false,"is_disabled":false,"rental_uris":{"android":"levelo://app?vid=cff7e479-9e10-47df-b1cb-df926e2a5d1f","ios":"levelo://app?vid=cff7e479-9e10-47df-b1cb-df926e2a5d1f"},"vehicle_type_id":"4","last_reported":1740057438,"current_range_meters":19200,"station_id":"ce4bhl12rcd13ifvqgf0","pricing_plan_id":"cebpf4jnsgd1na2vs0mg"},{"bike_id":"785bf894-8767-4fc9-ad4d-c775c526dde5","system_id":"levelo_inurba_marseille","lat":43.2664,"lon":5.40778,"is_reserved":false,"is_disabled":false,"rental_uris":{"android":"levelo://app?vid=785bf894-8767-4fc9-ad4d-c775c526dde5","ios":"levelo://app?vid=785bf894-8767-4fc9-ad4d-c775c526dde5"},"vehicle_type_id":"4","last_reported":1740057438,"current_range_meters":19200,"station_id":"","pricing_plan_id":"cebpf4jnsgd1na2vs0mg"},{"bike_id":"ebe8f273-5739-4753-ba61-e13e57e5e3ea","system_id":"levelo_inurba_marseille","lat":43.265747,"lon":5.390208,"is_reserved":false,"is_disabled":true,"rental_uris":{"android":"levelo://app?vid=ebe8f273-5739-4753-ba61-e13e57e5e3ea","ios":"levelo://app?vid=ebe8f273-5739-4753-ba61-e13e57e5e3ea"},"vehicle_type_id":"4","last_reported":1740057438,"current_range_meters":19600,"station_id":"","pricing_plan_id":"cebpf4jnsgd1na2vs0mg"},{"bike_id":"838ed997-6cef-4f08-90b0-12263125f095","system_id":"levelo_inurba_marseille","lat":43.309469,"lon":5.400564,"is_reserved":false,"is_disabled":false,"rental_uris":{"android":"levelo://app?vid=838ed997-6cef-4f08-90b0-12263125f095","ios":"levelo://app?vid=838ed997-6cef-4f08-90b0-12263125f095"},"vehicle_type_id":"4","last_reported":1740057438,"current_range_meters":19600,"station_id":"ce4bgvp2rcd13ifvqct0","pricing_plan_id":"cebpf4jnsgd1na2vs0mg"},{"bike_id":"5d81c9c4-d76b-4a54-b913-1c1f6abf7e3c","system_id":"levelo_inurba_marseille","lat":43.28466,"lon":5.38412,"is_reserved":false,"is_disabled":false,"rental_uris":{"android":"levelo://app?vid=5d81c9c4-d76b-4a54-b913-1c1f6abf7e3c","ios":"levelo://app?vid=5d81c9c4-d76b-4a54-b913-1c1f6abf7e3c"},"vehicle_type_id":"4","last_reported":1740057438,"current_range_meters":19600,"station_id":"ce4bh512rcd13ifvqe3g","pricing_plan_id":"cebpf4jnsgd1na2vs0mg"},{"bike_id":"2f528f47-64e0-4db2-badb-32005bb319d3","system_id":"levelo_inurba_marseille","lat":43.3372,"lon":5.39183,"is_reserved":false,"is_disabled":false,"rental_uris":{"android":"levelo://app?vid=2f528f47-64e0-4db2-badb-32005bb319d3","ios":"levelo://app?vid=2f528f47-64e0-4db2-badb-32005bb319d3"},"vehicle_type_id":"4","last_reported":1740057438,"current_range_meters":19600,"station_id":"ce4bhr92rcd13ifvqhsg","pricing_plan_id":"cebpf4jnsgd1na2vs0mg"},{"bike_id":"6e7e43ed-a5d3-42e4-95ff-eae1110c839f","system_id":"levelo_inurba_marseille","lat":43.27074,"lon":5.40247,"is_reserved":false,"is_disabled":false,"rental_uris":{"android":"levelo://app?vid=6e7e43ed-a5d3-42e4-95ff-eae1110c839f","ios":"levelo://app?vid=6e7e43ed-a5d3-42e4-95ff-eae1110c839f"},"vehicle_type_id":"4","last_reported":1740057438,"current_range_meters":19600,"station_id":"ce4bhk92rcd13ifvqgc0","pricing_plan_id":"cebpf4jnsgd1na2vs0mg"},{"bike_id":"1794e2fd-8210-468d-aee4-733eb40d66ac","system_id":"levelo_inurba_marseille","lat":43.27893,"lon":5.37987,"is_reserved":false,"is_disabled":false,"rental_uris":{"android":"levelo://app?vid=1794e2fd-8210-468d-aee4-733eb40d66ac","ios":"levelo://app?vid=1794e2fd-8210-468d-aee4-733eb40d66ac"},"vehicle_type_id":"4","last_reported":1740057438,"current_range_meters":19600,"station_id":"","pricing_plan_id":"cebpf4jnsgd1na2vs0mg"},{"bike_id":"3490279c-bfee-4a33-a04c-5caaa00035a4","system_id":"levelo_inurba_marseille","lat":43.30557,"lon":5.36521,"is_reserved":false,"is_disabled":false,"rental_uris":{"android":"levelo://app?vid=3490279c-bfee-4a33-a04c-5caaa00035a4","ios":"levelo://app?vid=3490279c-bfee-4a33-a04c-5caaa00035a4"},"vehicle_type_id":"4","last_reported":1740057438,"current_range_meters":19600,"station_id":"ce4bgs12rcd13ifvqcag","pricing_plan_id":"cebpf4jnsgd1na2vs0mg"},{"bike_id":"13a56e36-814c-4561-b214-81e4cd2d2d52","system_id":"levelo_inurba_marseille","lat":43.314893,"lon":5.373084,"is_reserved":false,"is_disabled":false,"rental_uris":{"android":"levelo://app?vid=13a56e36-814c-4561-b214-81e4cd2d2d52","ios":"levelo://app?vid=13a56e36-814c-4561-b214-81e4cd2d2d52"},"vehicle_type_id":"4","last_reported":1740057438,"current_range_meters":19600,"station_id":"ce4bgth2rcd13ifvqch0","pricing_plan_id":"cebpf4jnsgd1na2vs0mg"},{"bike_id":"7f32cafd-5558-42cf-a64b-674df5a94812","system_id":"levelo_inurba_marseille","lat":43.30274,"lon":5.37692,"is_reserved":false,"is_disabled":false,"rental_uris":{"android":"levelo://app?vid=7f32cafd-5558-42cf-a64b-674df5a94812","ios":"levelo://app?vid=7f32cafd-5558-42cf-a64b-674df5a94812"},"vehicle_type_id":"4","last_reported":1740057438,"current_range_meters":19600,"station_id":"ce4bguh2rcd13ifvqcj0","pricing_plan_id":"cebpf4jnsgd1na2vs0mg"},{"bike_id":"79809e01-be49-4339-9a80-1200e10051d5","system_id":"levelo_inurba_marseille","lat":43.27326,"lon":5.39078,"is_reserved":false,"is_disabled":false,"rental_uris":{"android":"levelo://app?vid=79809e01-be49-4339-9a80-1200e10051d5","ios":"levelo://app?vid=79809e01-be49-4339-9a80-1200e10051d5"},"vehicle_type_id":"4","last_reported":1740057438,"current_range_meters":20000,"station_id":"ce4bhgp2rcd13ifvqfe0","pricing_plan_id":"cebpf4jnsgd1na2vs0mg"},{"bike_id":"30182784-2ac6-40a8-8cdf-a6298574a0e0","system_id":"levelo_inurba_marseille","lat":43.24074,"lon":5.37757,"is_reserved":false,"is_disabled":false,"rental_uris":{"android":"levelo://app?vid=30182784-2ac6-40a8-8cdf-a6298574a0e0","ios":"levelo://app?vid=30182784-2ac6-40a8-8cdf-a6298574a0e0"},"vehicle_type_id":"4","last_reported":1740057438,"current_range_meters":20000,"station_id":"ce4bhnp2rcd13ifvqgvg","pricing_plan_id":"cebpf4jnsgd1na2vs0mg"},{"bike_id":"15645e3d-5dd6-4bfa-9b38-2475ddfc1093","system_id":"levelo_inurba_marseille","lat":43.27804,"lon":5.4071,"is_reserved":false,"is_disabled":false,"rental_uris":{"android":"levelo://app?vid=15645e3d-5dd6-4bfa-9b38-2475ddfc1093","ios":"levelo://app?vid=15645e3d-5dd6-4bfa-9b38-2475ddfc1093"},"vehicle_type_id":"4","last_reported":1740057438,"current_range_meters":20000,"station_id":"ce4bhnh2rcd13ifvqgtg","pricing_plan_id":"cebpf4jnsgd1na2vs0mg"},{"bike_id":"cf95633d-7ae3-4174-afec-7606a81a9904","system_id":"levelo_inurba_marseille","lat":43.32691,"lon":5.39207,"is_reserved":false,"is_disabled":false,"rental_uris":{"android":"levelo://app?vid=cf95633d-7ae3-4174-afec-7606a81a9904","ios":"levelo://app?vid=cf95633d-7ae3-4174-afec-7606a81a9904"},"vehicle_type_id":"4","last_reported":1740057438,"current_range_meters":20000,"station_id":"ce4bhr92rcd13ifvqhrg","pricing_plan_id":"cebpf4jnsgd1na2vs0mg"},{"bike_id":"a768b1d1-13fe-4e50-8516-5e62ad8a1346","system_id":"levelo_inurba_marseille","lat":43.29042,"lon":5.39949,"is_reserved":false,"is_disabled":false,"rental_uris":{"android":"levelo://app?vid=a768b1d1-13fe-4e50-8516-5e62ad8a1346","ios":"levelo://app?vid=a768b1d1-13fe-4e50-8516-5e62ad8a1346"},"vehicle_type_id":"4","last_reported":1740057438,"current_range_meters":20000,"station_id":"ce4bh392rcd13ifvqdm0","pricing_plan_id":"cebpf4jnsgd1na2vs0mg"},{"bike_id":"76161de1-8bd6-424a-9d38-33d20d4422aa","system_id":"levelo_inurba_marseille","lat":43.33022,"lon":5.3904,"is_reserved":false,"is_disabled":false,"rental_uris":{"android":"levelo://app?vid=76161de1-8bd6-424a-9d38-33d20d4422aa","ios":"levelo://app?vid=76161de1-8bd6-424a-9d38-33d20d4422aa"},"vehicle_type_id":"4","last_reported":1740057438,"current_range_meters":20400,"station_id":"ce4bhr92rcd13ifvqhrg","pricing_plan_id":"cebpf4jnsgd1na2vs0mg"},{"bike_id":"da35e427-426d-41ca-859b-7c63f22da96e","system_id":"levelo_inurba_marseille","lat":43.27988,"lon":5.41658,"is_reserved":false,"is_disabled":false,"rental_uris":{"android":"levelo://app?vid=da35e427-426d-41ca-859b-7c63f22da96e","ios":"levelo://app?vid=da35e427-426d-41ca-859b-7c63f22da96e"},"vehicle_type_id":"4","last_reported":1740057438,"current_range_meters":20400,"station_id":"ce4bho12rcd13ifvqh1g","pricing_plan_id":"cebpf4jnsgd1na2vs0mg"},{"bike_id":"1328edf3-5a18-4fc0-9160-64680c7251fc","system_id":"levelo_inurba_marseille","lat":43.31706,"lon":5.43708,"is_reserved":false,"is_disabled":false,"rental_uris":{"android":"levelo://app?vid=1328edf3-5a18-4fc0-9160-64680c7251fc","ios":"levelo://app?vid=1328edf3-5a18-4fc0-9160-64680c7251fc"},"vehicle_type_id":"4","last_reported":1740057438,"current_range_meters":20400,"station_id":"ce4bhp92rcd13ifvqhcg","pricing_plan_id":"cebpf4jnsgd1na2vs0mg"},{"bike_id":"e1d4952e-762a-4cab-9243-93ccc2d09436","system_id":"levelo_inurba_marseille","lat":43.30133,"lon":5.37421,"is_reserved":false,"is_disabled":false,"rental_uris":{"android":"levelo://app?vid=e1d4952e-762a-4cab-9243-93ccc2d09436","ios":"levelo://app?vid=e1d4952e-762a-4cab-9243-93ccc2d09436"},"vehicle_type_id":"4","last_reported":1740057438,"current_range_meters":20400,"station_id":"ce4bgs92rcd13ifvqcc0","pricing_plan_id":"cebpf4jnsgd1na2vs0mg"},{"bike_id":"17d49994-81fd-4ba3-903c-e4c7abd2aea3","system_id":"levelo_inurba_marseille","lat":43.270716,"lon":5.422714,"is_reserved":false,"is_disabled":false,"rental_uris":{"android":"levelo://app?vid=17d49994-81fd-4ba3-903c-e4c7abd2aea3","ios":"levelo://app?vid=17d49994-81fd-4ba3-903c-e4c7abd2aea3"},"vehicle_type_id":"4","last_reported":1740057438,"current_range_meters":20800,"station_id":"ce4bhk92rcd13ifvqgb0","pricing_plan_id":"cebpf4jnsgd1na2vs0mg"},{"bike_id":"55114915-361d-49cc-ab56-de7513b62e48","system_id":"levelo_inurba_marseille","lat":43.29786,"lon":5.38106,"is_reserved":false,"is_disabled":false,"rental_uris":{"android":"levelo://app?vid=55114915-361d-49cc-ab56-de7513b62e48","ios":"levelo://app?vid=55114915-361d-49cc-ab56-de7513b62e48"},"vehicle_type_id":"4","last_reported":1740057438,"current_range_meters":20800,"station_id":"ce4bgip2rcd13ifvqbb0","pricing_plan_id":"cebpf4jnsgd1na2vs0mg"},{"bike_id":"600f5b00-0e49-47a6-bad9-268932da4ef3","system_id":"levelo_inurba_marseille","lat":43.25119,"lon":5.40328,"is_reserved":false,"is_disabled":false,"rental_uris":{"android":"levelo://app?vid=600f5b00-0e49-47a6-bad9-268932da4ef3","ios":"levelo://app?vid=600f5b00-0e49-47a6-bad9-268932da4ef3"},"vehicle_type_id":"4","last_reported":1740057438,"current_range_meters":20800,"station_id":"ce4bhlh2rcd13ifvqgig","pricing_plan_id":"cebpf4jnsgd1na2vs0mg"},{"bike_id":"d38e4ab7-5f36-41c0-9e60-93dbfc2c25b4","system_id":"levelo_inurba_marseille","lat":43.304254,"lon":5.378898,"is_reserved":false,"is_disabled":false,"rental_uris":{"android":"levelo://app?vid=d38e4ab7-5f36-41c0-9e60-93dbfc2c25b4","ios":"levelo://app?vid=d38e4ab7-5f36-41c0-9e60-93dbfc2c25b4"},"vehicle_type_id":"4","last_reported":1740057438,"current_range_meters":20800,"station_id":"ce4bgup2rcd13ifvqcn0","pricing_plan_id":"cebpf4jnsgd1na2vs0mg"},{"bike_id":"c483c893-78f4-4e7e-90a2-e8e295196849","system_id":"levelo_inurba_marseille","lat":43.30903,"lon":5.3719,"is_reserved":false,"is_disabled":false,"rental_uris":{"android":"levelo://app?vid=c483c893-78f4-4e7e-90a2-e8e295196849","ios":"levelo://app?vid=c483c893-78f4-4e7e-90a2-e8e295196849"},"vehicle_type_id":"4","last_reported":1740057438,"current_range_meters":20800,"station_id":"","pricing_plan_id":"cebpf4jnsgd1na2vs0mg"},{"bike_id":"4156c3f4-1c00-4687-a78e-ff2dbdb866e0","system_id":"levelo_inurba_marseille","lat":43.27377,"lon":5.36233,"is_reserved":false,"is_disabled":false,"rental_uris":{"android":"levelo://app?vid=4156c3f4-1c00-4687-a78e-ff2dbdb866e0","ios":"levelo://app?vid=4156c3f4-1c00-4687-a78e-ff2dbdb866e0"},"vehicle_type_id":"4","last_reported":1740057438,"current_range_meters":20800,"station_id":"","pricing_plan_id":"cebpf4jnsgd1na2vs0mg"},{"bike_id":"fbaea280-58d1-483f-a26d-c689f30c49fb","system_id":"levelo_inurba_marseille","lat":43.33697,"lon":5.39173,"is_reserved":false,"is_disabled":false,"rental_uris":{"android":"levelo://app?vid=fbaea280-58d1-483f-a26d-c689f30c49fb","ios":"levelo://app?vid=fbaea280-58d1-483f-a26d-c689f30c49fb"},"vehicle_type_id":"4","last_reported":1740057438,"current_range_meters":20800,"station_id":"ce4bhr92rcd13ifvqhsg","pricing_plan_id":"cebpf4jnsgd1na2vs0mg"},{"bike_id":"ee8fd500-bb76-4c2c-9206-026696164b8f","system_id":"levelo_inurba_marseille","lat":43.2802,"lon":5.40944,"is_reserved":false,"is_disabled":false,"rental_uris":{"android":"levelo://app?vid=ee8fd500-bb76-4c2c-9206-026696164b8f","ios":"levelo://app?vid=ee8fd500-bb76-4c2c-9206-026696164b8f"},"vehicle_type_id":"4","last_reported":1740057438,"current_range_meters":20800,"station_id":"","pricing_plan_id":"cebpf4jnsgd1na2vs0mg"},{"bike_id":"2d629d50-c6c8-4d3f-be38-273bcb9dcad2","system_id":"levelo_inurba_marseille","lat":43.32374,"lon":5.38871,"is_reserved":false,"is_disabled":false,"rental_uris":{"android":"levelo://app?vid=2d629d50-c6c8-4d3f-be38-273bcb9dcad2","ios":"levelo://app?vid=2d629d50-c6c8-4d3f-be38-273bcb9dcad2"},"vehicle_type_id":"4","last_reported":1740057438,"current_range_meters":20800,"station_id":"ce4bhqp2rcd13ifvqhog","pricing_plan_id":"cebpf4jnsgd1na2vs0mg"},{"bike_id":"4463c32e-f383-418d-927a-9377e2c88f8f","system_id":"levelo_inurba_marseille","lat":43.23199,"lon":5.3999,"is_reserved":false,"is_disabled":false,"rental_uris":{"android":"levelo://app?vid=4463c32e-f383-418d-927a-9377e2c88f8f","ios":"levelo://app?vid=4463c32e-f383-418d-927a-9377e2c88f8f"},"vehicle_type_id":"4","last_reported":1740057438,"current_range_meters":20800,"station_id":"ce4bhn12rcd13ifvqgqg","pricing_plan_id":"cebpf4jnsgd1na2vs0mg"},{"bike_id":"f274f312-68ca-45d0-8230-632bc1110b1a","system_id":"levelo_inurba_marseille","lat":43.29246,"lon":5.38234,"is_reserved":false,"is_disabled":false,"rental_uris":{"android":"levelo://app?vid=f274f312-68ca-45d0-8230-632bc1110b1a","ios":"levelo://app?vid=f274f312-68ca-45d0-8230-632bc1110b1a"},"vehicle_type_id":"4","last_reported":1740057438,"current_range_meters":21600,"station_id":"","pricing_plan_id":"cebpf4jnsgd1na2vs0mg"},{"bike_id":"263ff683-5355-4a5f-a39d-9ed136a4469e","system_id":"levelo_inurba_marseille","lat":43.29199,"lon":5.39316,"is_reserved":false,"is_disabled":false,"rental_uris":{"android":"levelo://app?vid=263ff683-5355-4a5f-a39d-9ed136a4469e","ios":"levelo://app?vid=263ff683-5355-4a5f-a39d-9ed136a4469e"},"vehicle_type_id":"4","last_reported":1740057438,"current_range_meters":21600,"station_id":"","pricing_plan_id":"cebpf4jnsgd1na2vs0mg"},{"bike_id":"95fdca0f-2095-4bd7-9475-e51295f3c4bd","system_id":"levelo_inurba_marseille","lat":43.29791,"lon":5.37108,"is_reserved":false,"is_disabled":false,"rental_uris":{"android":"levelo://app?vid=95fdca0f-2095-4bd7-9475-e51295f3c4bd","ios":"levelo://app?vid=95fdca0f-2095-4bd7-9475-e51295f3c4bd"},"vehicle_type_id":"4","last_reported":1740057438,"current_range_meters":21600,"station_id":"ce4bgop2rcd13ifvqc1g","pricing_plan_id":"cebpf4jnsgd1na2vs0mg"},{"bike_id":"d9a65716-32bf-413d-82eb-1e213a4dc4bb","system_id":"levelo_inurba_marseille","lat":43.30102,"lon":5.37799,"is_reserved":false,"is_disabled":false,"rental_uris":{"android":"levelo://app?vid=d9a65716-32bf-413d-82eb-1e213a4dc4bb","ios":"levelo://app?vid=d9a65716-32bf-413d-82eb-1e213a4dc4bb"},"vehicle_type_id":"4","last_reported":1740057438,"current_range_meters":21600,"station_id":"","pricing_plan_id":"cebpf4jnsgd1na2vs0mg"},{"bike_id":"23c5a4f5-89dd-4eb4-bf56-d81435ccfa9d","system_id":"levelo_inurba_marseille","lat":43.30925,"lon":5.40139,"is_reserved":false,"is_disabled":false,"rental_uris":{"android":"levelo://app?vid=23c5a4f5-89dd-4eb4-bf56-d81435ccfa9d","ios":"levelo://app?vid=23c5a4f5-89dd-4eb4-bf56-d81435ccfa9d"},"vehicle_type_id":"4","last_reported":1740057438,"current_range_meters":21600,"station_id":"ce4bgvp2rcd13ifvqct0","pricing_plan_id":"cebpf4jnsgd1na2vs0mg"},{"bike_id":"28c0295f-8ae2-473b-8ac5-9ef6ddf798cb","system_id":"levelo_inurba_marseille","lat":43.28937,"lon":5.39629,"is_reserved":false,"is_disabled":false,"rental_uris":{"android":"levelo://app?vid=28c0295f-8ae2-473b-8ac5-9ef6ddf798cb","ios":"levelo://app?vid=28c0295f-8ae2-473b-8ac5-9ef6ddf798cb"},"vehicle_type_id":"4","last_reported":1740057438,"current_range_meters":22000,"station_id":"ce4bh3h2rcd13ifvqdn0","pricing_plan_id":"cebpf4jnsgd1na2vs0mg"},{"bike_id":"3ed62399-111e-4e38-bdc6-413faeb688dc","system_id":"levelo_inurba_marseille","lat":43.26694,"lon":5.38269,"is_reserved":false,"is_disabled":false,"rental_uris":{"android":"levelo://app?vid=3ed62399-111e-4e38-bdc6-413faeb688dc","ios":"levelo://app?vid=3ed62399-111e-4e38-bdc6-413faeb688dc"},"vehicle_type_id":"4","last_reported":1740057438,"current_range_meters":22000,"station_id":"ce4bhjp2rcd13ifvqg90","pricing_plan_id":"cebpf4jnsgd1na2vs0mg"},{"bike_id":"51a3223a-a16e-4bd9-a6d4-b7751d856cc9","system_id":"levelo_inurba_marseille","lat":43.27313,"lon":5.39082,"is_reserved":false,"is_disabled":false,"rental_uris":{"android":"levelo://app?vid=51a3223a-a16e-4bd9-a6d4-b7751d856cc9","ios":"levelo://app?vid=51a3223a-a16e-4bd9-a6d4-b7751d856cc9"},"vehicle_type_id":"4","last_reported":1740057438,"current_range_meters":22000,"station_id":"ce4bhgp2rcd13ifvqfe0","pricing_plan_id":"cebpf4jnsgd1na2vs0mg"},{"bike_id":"38ca1162-9278-4cdb-912f-29552ea35c7d","system_id":"levelo_inurba_marseille","lat":43.29095,"lon":5.38136,"is_reserved":false,"is_disabled":false,"rental_uris":{"android":"levelo://app?vid=38ca1162-9278-4cdb-912f-29552ea35c7d","ios":"levelo://app?vid=38ca1162-9278-4cdb-912f-29552ea35c7d"},"vehicle_type_id":"4","last_reported":1740057438,"current_range_meters":22000,"station_id":"ce4bh512rcd13ifvqe2g","pricing_plan_id":"cebpf4jnsgd1na2vs0mg"},{"bike_id":"083616a3-d878-4721-ac59-a002bb86a86d","system_id":"levelo_inurba_marseille","lat":43.27952,"lon":5.40767,"is_reserved":false,"is_disabled":false,"rental_uris":{"android":"levelo://app?vid=083616a3-d878-4721-ac59-a002bb86a86d","ios":"levelo://app?vid=083616a3-d878-4721-ac59-a002bb86a86d"},"vehicle_type_id":"4","last_reported":1740057438,"current_range_meters":22000,"station_id":"","pricing_plan_id":"cebpf4jnsgd1na2vs0mg"},{"bike_id":"18f59ec5-db81-4cbe-972f-61cff7221581","system_id":"levelo_inurba_marseille","lat":43.272958,"lon":5.415753,"is_reserved":false,"is_disabled":false,"rental_uris":{"android":"levelo://app?vid=18f59ec5-db81-4cbe-972f-61cff7221581","ios":"levelo://app?vid=18f59ec5-db81-4cbe-972f-61cff7221581"},"vehicle_type_id":"4","last_reported":1740057438,"current_range_meters":22000,"station_id":"","pricing_plan_id":"cebpf4jnsgd1na2vs0mg"},{"bike_id":"67bad206-3f3e-4799-82ab-5d39e87a7808","system_id":"levelo_inurba_marseille","lat":43.2768,"lon":5.35707,"is_reserved":false,"is_disabled":true,"rental_uris":{"android":"levelo://app?vid=67bad206-3f3e-4799-82ab-5d39e87a7808","ios":"levelo://app?vid=67bad206-3f3e-4799-82ab-5d39e87a7808"},"vehicle_type_id":"4","last_reported":1740057438,"current_range_meters":22000,"station_id":"","pricing_plan_id":"cebpf4jnsgd1na2vs0mg"},{"bike_id":"92f79d8b-ebb3-4013-8ca9-55ce28ec1f7d","system_id":"levelo_inurba_marseille","lat":43.2784,"lon":5.39212,"is_reserved":false,"is_disabled":false,"rental_uris":{"android":"levelo://app?vid=92f79d8b-ebb3-4013-8ca9-55ce28ec1f7d","ios":"levelo://app?vid=92f79d8b-ebb3-4013-8ca9-55ce28ec1f7d"},"vehicle_type_id":"4","last_reported":1740057438,"current_range_meters":22400,"station_id":"ce4bhjp2rcd13ifvqga0","pricing_plan_id":"cebpf4jnsgd1na2vs0mg"},