{"last_updated":1729332480,"ttl":60,"version":"2.2","data":{"bikes":[{"bike_id":"1fab976e-d7a4-493d-91e8-c7a676ba05ab","system_id":"levelo_inurba_marseille","lat":43.33767,"lon":5.37452,"is_reserved":false,"is_disabled":false,"rental_uris":{"android":"levelo://app?vid=1fab976e-d7a4-493d-91e8-c7a676ba05ab","ios":"levelo://app?vid=1fab976e-d7a4-493d-91e8-c7a676ba05ab"},"vehicle_type_id":"4","last_reported":1729332481,"current_range_meters":38800,"station_id":"","pricing_plan_id":"cebpf4jnsgd1na2vs0mg"},{"bike_id":"f5c7c25f-61c0-4d51-a5e3-a79194a6027b","system_id":"levelo_inurba_marseille","lat":43.30356,"lon":5.41888,"is_reserved":false,"is_disabled":false,"rental_uris":{"android":"levelo://app?vid=f5c7c25f-61c0-4d51-a5e3-a79194a6027b","ios":"levelo://app?vid=f5c7c25f-61c0-4d51-a5e3-a79194a6027b"},"vehicle_type_id":"4","last_reported":1729332481,"current_range_meters":37600,"station_id":"ce4bhop2rcd13ifvqh7g","pricing_plan_id":"cebpf4jnsgd1na2vs0mg"},{"bike_id":"ef47d04a-d623-4923-9ac4-d8403fc9a216","system_id":"levelo_inurba_marseille","lat":43.33728,"lon":5.39179,"is_reserved":false,"is_disabled":false,"rental_uris":{"android":"levelo://app?vid=ef47d04a-d623-4923-9ac4-d8403fc9a216","ios":"levelo://app?vid=ef47d04a-d623-4923-9ac4-d8403fc9a216"},"vehicle_type_id":"4","last_reported":1729332481,"current_range_meters":38800,"station_id":"ce4bhr92rcd13ifvqhsg","pricing_plan_id":"cebpf4jnsgd1na2vs0mg"},{"bike_id":"10a9ece6-ff34-482d-8185-60ac6265c523","system_id":"levelo_inurba_marseille","lat":43.32847,"lon":5.36681,"is_reserved":false,"is_disabled":false,"rental_uris":{"android":"levelo://app?vid=10a9ece6-ff34-482d-8185-60ac6265c523","ios":"levelo://app?vid=10a9ece6-ff34-482d-8185-60ac6265c523"},"vehicle_type_id":"4","last_reported":1729332481,"current_range_meters":21600,"station_id":"","pricing_plan_id":"cebpf4jnsgd1na2vs0mg"},{"bike_id":"cd00d932-2bb8-459e-b531-030ab7480382","system_id":"levelo_inurba_marseille","lat":43.2886,"lon":5.39305,"is_reserved":false,"is_disabled":false,"rental_uris":{"android":"levelo://app?vid=cd00d932-2bb8-459e-b531-030ab7480382","ios":"levelo://app?vid=cd00d932-2bb8-459e-b531-030ab7480382"},"vehicle_type_id":"4","last_reported":1729332481,"current_range_meters":38800,"station_id":"ce4bh2p2rcd13ifvqdi0","pricing_plan_id":"cebpf4jnsgd1na2vs0mg"},{"bike_id":"60744c0b-2e0f-4f7f-8f99-1bae14a6718e","system_id":"levelo_inurba_marseille","lat":43.29558,"lon":5.42295,"is_reserved":false,"is_disabled":false,"rental_uris":{"android":"levelo://app?vid=60744c0b-2e0f-4f7f-8f99-1bae14a6718e","ios":"levelo://app?vid=60744c0b-2e0f-4f7f-8f99-1bae14a6718e"},"vehicle_type_id":"4","last_reported":1729332481,"current_range_meters":38400,"station_id":"ce4bhph2rcd13ifvqhdg","pricing_plan_id":"cebpf4jnsgd1na2vs0mg"},{"bike_id":"7695e951-fe49-466c-b1f2-4e44e5b9e14c","system_id":"levelo_inurba_marseille","lat":43.308004,"lon":5.435254,"is_reserved":false,"is_disabled":false,"rental_uris":{"android":"levelo://app?vid=7695e951-fe49-466c-b1f2-4e44e5b9e14c","ios":"levelo://app?vid=7695e951-fe49-466c-b1f2-4e44e5b9e14c"},"vehicle_type_id":"4","last_reported":1729332481,"current_range_meters":38400,"station_id":"ce4bhph2rcd13ifvqheg","pricing_plan_id":"cebpf4jnsgd1na2vs0mg"},{"bike_id":"f53739d3-1197-411e-830e-93329d78542c","system_id":"levelo_inurba_marseille","lat":43.2997,"lon":5.38491,"is_reserved":false,"is_disabled":false,"rental_uris":{"android":"levelo://app?vid=f53739d3-1197-411e-830e-93329d78542c","ios":"levelo://app?vid=f53739d3-1197-411e-830e-93329d78542c"},"vehicle_type_id":"4","last_reported":1729332481,"current_range_meters":37600,"station_id":"ce4bgj92rcd13ifvqbd0","pricing_plan_id":"cebpf4jnsgd1na2vs0mg"},{"bike_id":"26e4cc61-20ca-45d3-b5df-237ec4687346","system_id":"levelo_inurba_marseille","lat":43.31884,"lon":5.40744,"is_reserved":false,"is_disabled":false,"rental_uris":{"android":"levelo://app?vid=26e4cc61-20ca-45d3-b5df-237ec4687346","ios":"levelo://app?vid=26e4cc61-20ca-45d3-b5df-237ec4687346"},"vehicle_type_id":"4","last_reported":1729332481,"current_range_meters":36400,"station_id":"ce4bhq12rcd13ifvqhig","pricing_plan_id":"cebpf4jnsgd1na2vs0mg"},{"bike_id":"bdac7045-6822-4f98-8d23-075c35d4893f","system_id":"levelo_inurba_marseille","lat":43.29351,"lon":5.42837,"is_reserved":false,"is_disabled":false,"rental_uris":{"android":"levelo://app?vid=bdac7045-6822-4f98-8d23-075c35d4893f","ios":"levelo://app?vid=bdac7045-6822-4f98-8d23-075c35d4893f"},"vehicle_type_id":"4","last_reported":1729332481,"current_range_meters":6400,"station_id":"","pricing_plan_id":"cebpf4jnsgd1na2vs0mg"},{"bike_id":"4dd78387-69b0-4f40-93ee-8c3fb82439f9","system_id":"levelo_inurba_marseille","lat":43.29597,"lon":5.36753,"is_reserved":false,"is_disabled":false,"rental_uris":{"android":"levelo://app?vid=4dd78387-69b0-4f40-93ee-8c3fb82439f9","ios":"levelo://app?vid=4dd78387-69b0-4f40-93ee-8c3fb82439f9"},"vehicle_type_id":"4","last_reported":1729332481,"current_range_meters":11600,"station_id":"ce4bgph2rcd13ifvqc2g","pricing_plan_id":"cebpf4jnsgd1na2vs0mg"},{"bike_id":"2ff1820a-eb05-452f-acde-835ef5a7cd44","system_id":"levelo_inurba_marseille","lat":43.29804,"lon":5.38093,"is_reserved":false,"is_disabled":false,"rental_uris":{"android":"levelo://app?vid=2ff1820a-eb05-452f-acde-835ef5a7cd44","ios":"levelo://app?vid=2ff1820a-eb05-452f-acde-835ef5a7cd44"},"vehicle_type_id":"4","last_reported":1729332481,"current_range_meters":25600,"station_id":"ce4bgip2rcd13ifvqbb0","pricing_plan_id":"cebpf4jnsgd1na2vs0mg"},{"bike_id":"2e940336-4c98-4761-93e9-26237ca9873c","system_id":"levelo_inurba_marseille","lat":43.28615,"lon":5.35102,"is_reserved":false,"is_disabled":false,"rental_uris":{"android":"levelo://app?vid=2e940336-4c98-4761-93e9-26237ca9873c","ios":"levelo://app?vid=2e940336-4c98-4761-93e9-26237ca9873c"},"vehicle_type_id":"4","last_reported":1729332481,"current_range_meters":37600,"station_id":"ce4bhch2rcd13ifvqeug","pricing_plan_id":"cebpf4jnsgd1na2vs0mg"},{"bike_id":"71da9dc6-dba4-49c4-8067-135146d7a6c9","system_id":"levelo_inurba_marseille","lat":43.24179,"lon":5.39733,"is_reserved":false,"is_disabled":false,"rental_uris":{"android":"levelo://app?vid=71da9dc6-dba4-49c4-8067-135146d7a6c9","ios":"levelo://app?vid=71da9dc6-dba4-49c4-8067-135146d7a6c9"},"vehicle_type_id":"4","last_reported":1729332481,"current_range_meters":38800,"station_id":"ce4bhn12rcd13ifvqgpg","pricing_plan_id":"cebpf4jnsgd1na2vs0mg"},{"bike_id":"f2d7df4c-af4c-4aa8-846d-7626796b0c06","system_id":"levelo_inurba_marseille","lat":43.31367,"lon":5.38497,"is_reserved":false,"is_disabled":false,"rental_uris":{"android":"levelo://app?vid=f2d7df4c-af4c-4aa8-846d-7626796b0c06","ios":"levelo://app?vid=f2d7df4c-af4c-4aa8-846d-7626796b0c06"},"vehicle_type_id":"4","last_reported":1729332481,"current_range_meters":36800,"station_id":"ce4bgt92rcd13ifvqcf0","pricing_plan_id":"cebpf4jnsgd1na2vs0mg"},{"bike_id":"4eb8b16e-d4fe-450a-aff4-caf1c0dbbeba","system_id":"levelo_inurba_marseille","lat":43.25934,"lon":5.40911,"is_reserved":false,"is_disabled":false,"rental_uris":{"android":"levelo://app?vid=4eb8b16e-d4fe-450a-aff4-caf1c0dbbeba","ios":"levelo://app?vid=4eb8b16e-d4fe-450a-aff4-caf1c0dbbeba"},"vehicle_type_id":"4","last_reported":1729332481,"current_range_meters":38800,"station_id":"ce4bhm92rcd13ifvqglg","pricing_plan_id":"cebpf4jnsgd1na2vs0mg"},{"bike_id":"3fcd0230-589e-4375-b210-da169c336bbf","system_id":"levelo_inurba_marseille","lat":43.3014,"lon":5.38078,"is_reserved":false,"is_disabled":false,"rental_uris":{"android":"levelo://app?vid=3fcd0230-589e-4375-b210-da169c336bbf","ios":"levelo://app?vid=3fcd0230-589e-4375-b210-da169c336bbf"},"vehicle_type_id":"4","last_reported":1729332481,"current_range_meters":34000,"station_id":"ce4bgjp2rcd13ifvqbh0","pricing_plan_id":"cebpf4jnsgd1na2vs0mg"},{"bike_id":"23ec7d45-5af9-401c-b83a-4608843602df","system_id":"levelo_inurba_marseille","lat":43.28653,"lon":5.385333,"is_reserved":false,"is_disabled":false,"rental_uris":{"android":"levelo://app?vid=23ec7d45-5af9-401c-b83a-4608843602df","ios":"levelo://app?vid=23ec7d45-5af9-401c-b83a-4608843602df"},"vehicle_type_id":"4","last_reported":1729332481,"current_range_meters":31200,"station_id":"ce4bhg12rcd13ifvqf60","pricing_plan_id":"cebpf4jnsgd1na2vs0mg"},{"bike_id":"9cc5927a-cf32-4732-80d6-5e3f644208ee","system_id":"levelo_inurba_marseille","lat":43.31075,"lon":5.38355,"is_reserved":false,"is_disabled":false,"rental_uris":{"android":"levelo://app?vid=9cc5927a-cf32-4732-80d6-5e3f644208ee","ios":"levelo://app?vid=9cc5927a-cf32-4732-80d6-5e3f644208ee"},"vehicle_type_id":"4","last_reported":1729332481,"current_range_meters":28800,"station_id":"ce4bgv92rcd13ifvqcr0","pricing_plan_id":"cebpf4jnsgd1na2vs0mg"},{"bike_id":"e70440e8-24a1-43c2-962a-e25778d3dc0d","system_id":"levelo_inurba_marseille","lat":43.29935,"lon":5.36551,"is_reserved":false,"is_disabled":false,"rental_uris":{"android":"levelo://app?vid=e70440e8-24a1-43c2-962a-e25778d3dc0d","ios":"levelo://app?vid=e70440e8-24a1-43c2-962a-e25778d3dc0d"},"vehicle_type_id":"4","last_reported":1729332481,"current_range_meters":36800,"station_id":"ce4bgm92rcd13ifvqbr0","pricing_plan_id":"cebpf4jnsgd1na2vs0mg"},{"bike_id":"006ddbf4-82cb-41c3-a643-0f3a1c8bb945","system_id":"levelo_inurba_marseille","lat":43.27069,"lon":5.42275,"is_reserved":false,"is_disabled":false,"rental_uris":{"android":"levelo://app?vid=006ddbf4-82cb-41c3-a643-0f3a1c8bb945","ios":"levelo://app?vid=006ddbf4-82cb-41c3-a643-0f3a1c8bb945"},"vehicle_type_id":"4","last_reported":1729332481,"current_range_meters":39200,"station_id":"ce4bhk92rcd13ifvqgb0","pricing_plan_id":"cebpf4jnsgd1na2vs0mg"},{"bike_id":"317d7818-96ed-4b00-a33f-364ecbb090a9","system_id":"levelo_inurba_marseille","lat":43.29841,"lon":5.3627,"is_reserved":false,"is_disabled":false,"rental_uris":{"android":"levelo://app?vid=317d7818-96ed-4b00-a33f-364ecbb090a9","ios":"levelo://app?vid=317d7818-96ed-4b00-a33f-364ecbb090a9"},"vehicle_type_id":"4","last_reported":1729332481,"current_range_meters":36400,"station_id":"ce4bgpp2rcd13ifvqc3g","pricing_plan_id":"cebpf4jnsgd1na2vs0mg"},{"bike_id":"df4fc022-e520-4ee5-b522-8445786e2ea8","system_id":"levelo_inurba_marseille","lat":43.29568,"lon":5.3751,"is_reserved":false,"is_disabled":false,"rental_uris":{"android":"levelo://app?vid=df4fc022-e520-4ee5-b522-8445786e2ea8","ios":"levelo://app?vid=df4fc022-e520-4ee5-b522-8445786e2ea8"},"vehicle_type_id":"4","last_reported":1729332481,"current_range_meters":30000,"station_id":"ce4bgh92rcd13ifvqb50","pricing_plan_id":"cebpf4jnsgd1na2vs0mg"},{"bike_id":"c389a28f-63cf-406f-b16c-cfe51d72abe0","system_id":"levelo_inurba_marseille","lat":43.29581,"lon":5.37505,"is_reserved":false,"is_disabled":false,"rental_uris":{"android":"levelo://app?vid=c389a28f-63cf-406f-b16c-cfe51d72abe0","ios":"levelo://app?vid=c389a28f-63cf-406f-b16c-cfe51d72abe0"},"vehicle_type_id":"4","last_reported":1729332481,"current_range_meters":12000,"station_id":"ce4bgh92rcd13ifvqb50","pricing_plan_id":"cebpf4jnsgd1na2vs0mg"},{"bike_id":"9e833968-4b5b-4a32-a96b-8431979de98c","system_id":"levelo_inurba_marseille","lat":43.25727,"lon":5.41102,"is_reserved":false,"is_disabled":false,"rental_uris":{"android":"levelo://app?vid=9e833968-4b5b-4a32-a96b-8431979de98c","ios":"levelo://app?vid=9e833968-4b5b-4a32-a96b-8431979de98c"},"vehicle_type_id":"4","last_reported":1729332481,"current_range_meters":25200,"station_id":"ce4bhkp2rcd13ifvqgd0","pricing_plan_id":"cebpf4jnsgd1na2vs0mg"},{"bike_id":"60bdae86-6faa-43f4-ae5c-ad8ce19c9d34","system_id":"levelo_inurba_marseille","lat":43.29618,"lon":5.37157,"is_reserved":false,"is_disabled":false,"rental_uris":{"android":"levelo://app?vid=60bdae86-6faa-43f4-ae5c-ad8ce19c9d34","ios":"levelo://app?vid=60bdae86-6faa-43f4-ae5c-ad8ce19c9d34"},"vehicle_type_id":"4","last_reported":1729332481,"current_range_meters":28800,"station_id":"ce4bgnh2rcd13ifvqc0g","pricing_plan_id":"cebpf4jnsgd1na2vs0mg"},{"bike_id":"dd03078e-0112-4f35-859e-7f2e7ecd07cd","system_id":"levelo_inurba_marseille","lat":43.30213,"lon":5.39463,"is_reserved":false,"is_disabled":false,"rental_uris":{"android":"levelo://app?vid=dd03078e-0112-4f35-859e-7f2e7ecd07cd","ios":"levelo://app?vid=dd03078e-0112-4f35-859e-7f2e7ecd07cd"},"vehicle_type_id":"4","last_reported":1729332481,"current_range_meters":37600,"station_id":"ce4bh0p2rcd13ifvqd70","pricing_plan_id":"cebpf4jnsgd1na2vs0mg"},{"bike_id":"874dbab0-2f32-4e5c-a3d5-6bdf980d941d","system_id":"levelo_inurba_marseille","lat":43.28415,"lon":5.35,"is_reserved":false,"is_disabled":false,"rental_uris":{"android":"levelo://app?vid=874dbab0-2f32-4e5c-a3d5-6bdf980d941d","ios":"levelo://app?vid=874dbab0-2f32-4e5c-a3d5-6bdf980d941d"},"vehicle_type_id":"4","last_reported":1729332481,"current_range_meters":38800,"station_id":"ce4bhbh2rcd13ifvqepg","pricing_plan_id":"cebpf4jnsgd1na2vs0mg"},{"bike_id":"63c779f4-5e78-452e-adcf-fb89700c4c27","system_id":"levelo_inurba_marseille","lat":43.29619,"lon":5.37335,"is_reserved":false,"is_disabled":false,"rental_uris":{"android":"levelo://app?vid=63c779f4-5e78-452e-adcf-fb89700c4c27","ios":"levelo://app?vid=63c779f4-5e78-452e-adcf-fb89700c4c27"},"vehicle_type_id":"4","last_reported":1729332481,"current_range_meters":30800,"station_id":"","pricing_plan_id":"cebpf4jnsgd1na2vs0mg"},{"bike_id":"61a04cb9-be4f-4cf5-b789-0758f7c54444","system_id":"levelo_inurba_marseille","lat":43.23192,"lon":5.35556,"is_reserved":false,"is_disabled":false,"rental_uris":{"android":"levelo://app?vid=61a04cb9-be4f-4cf5-b789-0758f7c54444","ios":"levelo://app?vid=61a04cb9-be4f-4cf5-b789-0758f7c54444"},"vehicle_type_id":"4","last_reported":1729332481,"current_range_meters":19600,"station_id":"ce4bhu92rcd13ifvqi70","pricing_plan_id":"cebpf4jnsgd1na2vs0mg"},{"bike_id":"0634ef90-49aa-4c52-9de9-22ea66968c5f","system_id":"levelo_inurba_marseille","lat":43.29806,"lon":5.38095,"is_reserved":false,"is_disabled":false,"rental_uris":{"android":"levelo://app?vid=0634ef90-49aa-4c52-9de9-22ea66968c5f","ios":"levelo://app?vid=0634ef90-49aa-4c52-9de9-22ea66968c5f"},"vehicle_type_id":"4","last_reported":1729332481,"current_range_meters":35200,"station_id":"ce4bgip2rcd13ifvqbb0","pricing_plan_id":"cebpf4jnsgd1na2vs0mg"},{"bike_id":"0b43e9ac-9b90-4557-96c0-7b9cac3a848c","system_id":"levelo_inurba_marseille","lat":43.2316,"lon":5.43702,"is_reserved":false,"is_disabled":false,"rental_uris":{"android":"levelo://app?vid=0b43e9ac-9b90-4557-96c0-7b9cac3a848c","ios":"levelo://app?vid=0b43e9ac-9b90-4557-96c0-7b9cac3a848c"},"vehicle_type_id":"4","last_reported":1729332481,"current_range_meters":7200,"station_id":"ce4bhmp2rcd13ifvqgog","pricing_plan_id":"cebpf4jnsgd1na2vs0mg"},{"bike_id":"ac0e8923-1675-4a0a-be10-3d027dc097cb","system_id":"levelo_inurba_marseille","lat":43.2439,"lon":5.37046,"is_reserved":false,"is_disabled":false,"rental_uris":{"android":"levelo://app?vid=ac0e8923-1675-4a0a-be10-3d027dc097cb","ios":"levelo://app?vid=ac0e8923-1675-4a0a-be10-3d027dc097cb"},"vehicle_type_id":"4","last_reported":1729332481,"current_range_meters":30400,"station_id":"ce4bhhh2rcd13ifvqfk0","pricing_plan_id":"cebpf4jnsgd1na2vs0mg"},{"bike_id":"c746da30-0175-4c63-8cc4-f4d0284e8127","system_id":"levelo_inurba_marseille","lat":43.23963,"lon":5.36634,"is_reserved":false,"is_disabled":false,"rental_uris":{"android":"levelo://app?vid=c746da30-0175-4c63-8cc4-f4d0284e8127","ios":"levelo://app?vid=c746da30-0175-4c63-8cc4-f4d0284e8127"},"vehicle_type_id":"4","last_reported":1729332481,"current_range_meters":16800,"station_id":"ce4bhi12rcd13ifvqfp0","pricing_plan_id":"cebpf4jnsgd1na2vs0mg"},{"bike_id":"52173c56-8d8e-4b63-ae72-54a0a4451f2c","system_id":"levelo_inurba_marseille","lat":43.27501,"lon":5.42452,"is_reserved":false,"is_disabled":false,"rental_uris":{"android":"levelo://app?vid=52173c56-8d8e-4b63-ae72-54a0a4451f2c","ios":"levelo://app?vid=52173c56-8d8e-4b63-ae72-54a0a4451f2c"},"vehicle_type_id":"4","last_reported":1729332481,"current_range_meters":29600,"station_id":"ce4bhn92rcd13ifvqgrg","pricing_plan_id":"cebpf4jnsgd1na2vs0mg"},{"bike_id":"24574599-e2c7-49a8-bf07-53de4657e4cd","system_id":"levelo_inurba_marseille","lat":43.29432,"lon":5.39757,"is_reserved":false,"is_disabled":false,"rental_uris":{"android":"levelo://app?vid=24574599-e2c7-49a8-bf07-53de4657e4cd","ios":"levelo://app?vid=24574599-e2c7-49a8-bf07-53de4657e4cd"},"vehicle_type_id":"4","last_reported":1729332481,"current_range_meters":20800,"station_id":"ce4bh3h2rcd13ifvqdo0","pricing_plan_id":"cebpf4jnsgd1na2vs0mg"},{"bike_id":"ac3f1047-4acf-4e37-83a5-72b8078da962","system_id":"levelo_inurba_marseille","lat":43.3125,"lon":5.40155,"is_reserved":false,"is_disabled":false,"rental_uris":{"android":"levelo://app?vid=ac3f1047-4acf-4e37-83a5-72b8078da962","ios":"levelo://app?vid=ac3f1047-4acf-4e37-83a5-72b8078da962"},"vehicle_type_id":"4","last_reported":1729332481,"current_range_meters":8000,"station_id":"ce4bh092rcd13ifvqd30","pricing_plan_id":"cebpf4jnsgd1na2vs0mg"},{"bike_id":"4afcc7bb-146f-4578-b35f-5e61e03acd5c","system_id":"levelo_inurba_marseille","lat":43.27811,"lon":5.40707,"is_reserved":false,"is_disabled":false,"rental_uris":{"android":"levelo://app?vid=4afcc7bb-146f-4578-b35f-5e61e03acd5c","ios":"levelo://app?vid=4afcc7bb-146f-4578-b35f-5e61e03acd5c"},"vehicle_type_id":"4","last_reported":1729332481,"current_range_meters":24000,"station_id":"ce4bhnh2rcd13ifvqgtg","pricing_plan_id":"cebpf4jnsgd1na2vs0mg"},{"bike_id":"fc6e513b-da81-4d34-a427-493e42edd768","system_id":"levelo_inurba_marseille","lat":43.29532,"lon":5.39237,"is_reserved":false,"is_disabled":false,"rental_uris":{"android":"levelo://app?vid=fc6e513b-da81-4d34-a427-493e42edd768","ios":"levelo://app?vid=fc6e513b-da81-4d34-a427-493e42edd768"},"vehicle_type_id":"4","last_reported":1729332481,"current_range_meters":22400,"station_id":"","pricing_plan_id":"cebpf4jnsgd1na2vs0mg"},{"bike_id":"ac231a2e-1def-435c-8990-198f2e08ac8d","system_id":"levelo_inurba_marseille","lat":43.23052,"lon":5.35485,"is_reserved":false,"is_disabled":false,"rental_uris":{"android":"levelo://app?vid=ac231a2e-1def-435c-8990-198f2e08ac8d","ios":"levelo://app?vid=ac231a2e-1def-435c-8990-198f2e08ac8d"},"vehicle_type_id":"4","last_reported":1729332481,"current_range_meters":16000,"station_id":"cpo3342slgdg3j2ifvpg","pricing_plan_id":"cebpf4jnsgd1na2vs0mg"},{"bike_id":"68b4f318-3e09-471b-b94f-4a5e803e6663","system_id":"levelo_inurba_marseille","lat":43.24169,"lon":5.36392,"is_reserved":false,"is_disabled":false,"rental_uris":{"android":"levelo://app?vid=68b4f318-3e09-471b-b94f-4a5e803e6663","ios":"levelo://app?vid=68b4f318-3e09-471b-b94f-4a5e803e6663"},"vehicle_type_id":"4","last_reported":1729332481,"current_range_meters":16800,"station_id":"cpo36qri1sfpv3e86is0","pricing_plan_id":"cebpf4jnsgd1na2vs0mg"},{"bike_id":"7942b4d2-ec2e-45b4-a706-96b5d3064043","system_id":"levelo_inurba_marseille","lat":43.301855,"lon":5.366266,"is_reserved":false,"is_disabled":false,"rental_uris":{"android":"levelo://app?vid=7942b4d2-ec2e-45b4-a706-96b5d3064043","ios":"levelo://app?vid=7942b4d2-ec2e-45b4-a706-96b5d3064043"},"vehicle_type_id":"4","last_reported":1729332481,"current_range_meters":20000,"station_id":"ce4bgrh2rcd13ifvqc8g","pricing_plan_id":"cebpf4jnsgd1na2vs0mg"},{"bike_id":"6ed93ebb-5c94-4aaf-b541-6f5ac53c2a76","system_id":"levelo_inurba_marseille","lat":43.29537,"lon":5.37496,"is_reserved":false,"is_disabled":false,"rental_uris":{"android":"levelo://app?vid=6ed93ebb-5c94-4aaf-b541-6f5ac53c2a76","ios":"levelo://app?vid=6ed93ebb-5c94-4aaf-b541-6f5ac53c2a76"},"vehicle_type_id":"4","last_reported":1729332481,"current_range_meters":30000,"station_id":"ce4bgkp2rcd13ifvqbmg","pricing_plan_id":"cebpf4jnsgd1na2vs0mg"},{"bike_id":"aac282ef-7d0d-4cf6-a738-a10a76319aa8","system_id":"levelo_inurba_marseille","lat":43.25088,"lon":5.3951,"is_reserved":false,"is_disabled":false,"rental_uris":{"android":"levelo://app?vid=aac282ef-7d0d-4cf6-a738-a10a76319aa8","ios":"levelo://app?vid=aac282ef-7d0d-4cf6-a738-a10a76319aa8"},"vehicle_type_id":"4","last_reported":1729332481,"current_range_meters":29600,"station_id":"ce4bhm12rcd13ifvqgkg","pricing_plan_id":"cebpf4jnsgd1na2vs0mg"},{"bike_id":"57dd0012-e7c2-43e3-90a1-087125ac63fa","system_id":"levelo_inurba_marseille","lat":43.337527,"lon":5.374743,"is_reserved":false,"is_disabled":false,"rental_uris":{"android":"levelo://app?vid=57dd0012-e7c2-43e3-90a1-087125ac63fa","ios":"levelo://app?vid=57dd0012-e7c2-43e3-90a1-087125ac63fa"},"vehicle_type_id":"4","last_reported":1729332481,"current_range_meters":38400,"station_id":"","pricing_plan_id":"cebpf4jnsgd1na2vs0mg"},{"bike_id":"a1e3449d-0a34-4e17-994d-10cd0e8c4c27","system_id":"levelo_inurba_marseille","lat":43.25114,"lon":5.40326,"is_reserved":false,"is_disabled":false,"rental_uris":{"android":"levelo://app?vid=a1e3449d-0a34-4e17-994d-10cd0e8c4c27","ios":"levelo://app?vid=a1e3449d-0a34-4e17-994d-10cd0e8c4c27"},"vehicle_type_id":"4","last_reported":1729332481,"current_range_meters":38800,"station_id":"ce4bhlh2rcd13ifvqgig","pricing_plan_id":"cebpf4jnsgd1na2vs0mg"},{"bike_id":"7f29c5a5-2d62-43f6-9898-2f261ef74a91","system_id":"levelo_inurba_marseille","lat":43.29902,"lon":5.38146,"is_reserved":false,"is_disabled":false,"rental_uris":{"android":"levelo://app?vid=7f29c5a5-2d62-43f6-9898-2f261ef74a91","ios":"levelo://app?vid=7f29c5a5-2d62-43f6-9898-2f261ef74a91"},"vehicle_type_id":"4","last_reported":1729332481,"current_range_meters":38400,"station_id":"ce4bgj12rcd13ifvqbc0","pricing_plan_id":"cebpf4jnsgd1na2vs0mg"},{"bike_id":"618e8c2b-af86-4b9e-a33b-8caa8205b63b","system_id":"levelo_inurba_marseille","lat":43.23192,"lon":5.39991,"is_reserved":false,"is_disabled":false,"rental_uris":{"android":"levelo://app?vid=618e8c2b-af86-4b9e-a33b-8caa8205b63b","ios":"levelo://app?vid=618e8c2b-af86-4b9e-a33b-8caa8205b63b"},"vehicle_type_id":"4","last_reported":1729332481,"current_range_meters":5600,"station_id":"ce4bhn12rcd13ifvqgqg","pricing_plan_id":"cebpf4jnsgd1na2vs0mg"},{"bike_id":"e2c0577b-8bf2-4197-8a06-9dd02878f6fe","system_id":"levelo_inurba_marseille","lat":43.27915,"lon":5.39582,"is_reserved":false,"is_disabled":false,"rental_uris":{"android":"levelo://app?vid=e2c0577b-8bf2-4197-8a06-9dd02878f6fe","ios":"levelo://app?vid=e2c0577b-8bf2-4197-8a06-9dd02878f6fe"},"vehicle_type_id":"4","last_reported":1729332481,"current_range_meters":24800,"station_id":"ce4bhf92rcd13ifvqf40","pricing_plan_id":"cebpf4jnsgd1na2vs0mg"},{"bike_id":"3d7546d0-4dba-4212-88c9-dfe9a2032237","system_id":"levelo_inurba_marseille","lat":43.24168,"lon":5.36398,"is_reserved":false,"is_disabled":false,"rental_uris":{"android":"levelo://app?vid=3d7546d0-4dba-4212-88c9-dfe9a2032237","ios":"levelo://app?vid=3d7546d0-4dba-4212-88c9-dfe9a2032237"},"vehicle_type_id":"4","last_reported":1729332481,"current_range_meters":34000,"station_id":"cpo36qri1sfpv3e86is0","pricing_plan_id":"cebpf4jnsgd1na2vs0mg"},{"bike_id":"8ddf8696-489c-4b69-a3c9-c8bcd38c084a","system_id":"levelo_inurba_marseille","lat":43.29575,"lon":5.37503,"is_reserved":false,"is_disabled":false,"rental_uris":{"android":"levelo://app?vid=8ddf8696-489c-4b69-a3c9-c8bcd38c084a","ios":"levelo://app?vid=8ddf8696-489c-4b69-a3c9-c8bcd38c084a"},"vehicle_type_id":"4","last_reported":1729332481,"current_range_meters":12000,"station_id":"ce4bgh92rcd13ifvqb50","pricing_plan_id":"cebpf4jnsgd1na2vs0mg"},{"bike_id":"1ddfad71-8e85-46b3-83a9-5930855c2591","system_id":"levelo_inurba_marseille","lat":43.26216,"lon":5.37445,"is_reserved":false,"is_disabled":false,"rental_uris":{"android":"levelo://app?vid=1ddfad71-8e85-46b3-83a9-5930855c2591","ios":"levelo://app?vid=1ddfad71-8e85-46b3-83a9-5930855c2591"},"vehicle_type_id":"4","last_reported":1729332481,"current_range_meters":18000,"station_id":"ce4bhgp2rcd13ifvqfc0","pricing_plan_id":"cebpf4jnsgd1na2vs0mg"},{"bike_id":"8b10c252-b32b-40ef-b8da-9d1c9158f577","system_id":"levelo_inurba_marseille","lat":43.26033,"lon":5.37549,"is_reserved":false,"is_disabled":false,"rental_uris":{"android":"levelo://app?vid=8b10c252-b32b-40ef-b8da-9d1c9158f577","ios":"levelo://app?vid=8b10c252-b32b-40ef-b8da-9d1c9158f577"},"vehicle_type_id":"4","last_reported":1729332481,"current_range_meters":38800,"station_id":"ce4bhgh2rcd13ifvqfa0","pricing_plan_id":"cebpf4jnsgd1na2vs0mg"},{"bike_id":"32ce68a3-3fc7-4257-974f-ab657619c295","system_id":"levelo_inurba_marseille","lat":43.33755,"lon":5.37458,"is_reserved":false,"is_disabled":false,"rental_uris":{"android":"levelo://app?vid=32ce68a3-3fc7-4257-974f-ab657619c295","ios":"levelo://app?vid=32ce68a3-3fc7-4257-974f-ab657619c295"},"vehicle_type_id":"4","last_reported":1729332481,"current_range_meters":6800,"station_id":"","pricing_plan_id":"cebpf4jnsgd1na2vs0mg"},{"bike_id":"e5dab1ea-a810-41a0-a6cd-403085d8bf13","system_id":"levelo_inurba_marseille","lat":43.27368,"lon":5.36259,"is_reserved":false,"is_disabled":false,"rental_uris":{"android":"levelo://app?vid=e5dab1ea-a810-41a0-a6cd-403085d8bf13","ios":"levelo://app?vid=e5dab1ea-a810-41a0-a6cd-403085d8bf13"},"vehicle_type_id":"4","last_reported":1729332481,"current_range_meters":39200,"station_id":"ce4bhbh2rcd13ifvqeo0","pricing_plan_id":"cebpf4jnsgd1na2vs0mg"},{"bike_id":"88511e32-162f-4729-956a-477962ed943c","system_id":"levelo_inurba_marseille","lat":43.31181,"lon":5.38711,"is_reserved":false,"is_disabled":false,"rental_uris":{"android":"levelo://app?vid=88511e32-162f-4729-956a-477962ed943c","ios":"levelo://app?vid=88511e32-162f-4729-956a-477962ed943c"},"vehicle_type_id":"4","last_reported":1729332481,"current_range_meters":28000,"station_id":"ce4bgv12rcd13ifvqcp0","pricing_plan_id":"cebpf4jnsgd1na2vs0mg"},{"bike_id":"b64362e2-b043-4f67-8e42-f68524e828ed","system_id":"levelo_inurba_marseille","lat":43.24175,"lon":5.39707,"is_reserved":false,"is_disabled":false,"rental_uris":{"android":"levelo://app?vid=b64362e2-b043-4f67-8e42-f68524e828ed","ios":"levelo://app?vid=b64362e2-b043-4f67-8e42-f68524e828ed"},"vehicle_type_id":"4","last_reported":1729332481,"current_range_meters":20800,"station_id":"ce4bhn12rcd13ifvqgpg","pricing_plan_id":"cebpf4jnsgd1na2vs0mg"},{"bike_id":"eb05f41e-d5de-4134-bd89-ee5cf489f96f","system_id":"levelo_inurba_marseille","lat":43.25125,"lon":5.40315,"is_reserved":false,"is_disabled":false,"rental_uris":{"android":"levelo://app?vid=eb05f41e-d5de-4134-bd89-ee5cf489f96f","ios":"levelo://app?vid=eb05f41e-d5de-4134-bd89-ee5cf489f96f"},"vehicle_type_id":"4","last_reported":1729332481,"current_range_meters":8000,"station_id":"ce4bhlh2rcd13ifvqgig","pricing_plan_id":"cebpf4jnsgd1na2vs0mg"},{"bike_id":"e7c2d711-63a4-4bdc-8b13-08b58cf06955","system_id":"levelo_inurba_marseille","lat":43.30132,"lon":5.38785,"is_reserved":false,"is_disabled":false,"rental_uris":{"android":"levelo://app?vid=e7c2d711-63a4-4bdc-8b13-08b58cf06955","ios":"levelo://app?vid=e7c2d711-63a4-4bdc-8b13-08b58cf06955"},"vehicle_type_id":"4","last_reported":1729332481,"current_range_meters":36400,"station_id":"ce4bghh2rcd13ifvqb60","pricing_plan_id":"cebpf4jnsgd1na2vs0mg"},{"bike_id":"2b7e53e0-d15f-4b12-8c67-08178f85d596","system_id":"levelo_inurba_marseille","lat":43.2587,"lon":5.39895,"is_reserved":false,"is_disabled":false,"rental_uris":{"android":"levelo://app?vid=2b7e53e0-d15f-4b12-8c67-08178f85d596","ios":"levelo://app?vid=2b7e53e0-d15f-4b12-8c67-08178f85d596"},"vehicle_type_id":"4","last_reported":1729332481,"current_range_meters":22000,"station_id":"ce4bhl92rcd13ifvqghg","pricing_plan_id":"cebpf4jnsgd1na2vs0mg"},{"bike_id":"dfb160c5-111e-4fc3-88c2-fba8af64107f","system_id":"levelo_inurba_marseille","lat":43.32349,"lon":5.40619,"is_reserved":false,"is_disabled":false,"rental_uris":{"android":"levelo://app?vid=dfb160c5-111e-4fc3-88c2-fba8af64107f","ios":"levelo://app?vid=dfb160c5-111e-4fc3-88c2-fba8af64107f"},"vehicle_type_id":"4","last_reported":1729332481,"current_range_meters":38000,"station_id":"ce4bhq92rcd13ifvqhjg","pricing_plan_id":"cebpf4jnsgd1na2vs0mg"},{"bike_id":"318760f3-d4b1-4bd9-affc-280a1e54c73c","system_id":"levelo_inurba_marseille","lat":43.27489,"lon":5.424535,"is_reserved":false,"is_disabled":false,"rental_uris":{"android":"levelo://app?vid=318760f3-d4b1-4bd9-affc-280a1e54c73c","ios":"levelo://app?vid=318760f3-d4b1-4bd9-affc-280a1e54c73c"},"vehicle_type_id":"4","last_reported":1729332481,"current_range_meters":38800,"station_id":"ce4bhn92rcd13ifvqgrg","pricing_plan_id":"cebpf4jnsgd1na2vs0mg"},{"bike_id":"1cfcc844-aab4-4ed5-9932-3d9ea61e95f5","system_id":"levelo_inurba_marseille","lat":43.25088,"lon":5.39526,"is_reserved":false,"is_disabled":false,"rental_uris":{"android":"levelo://app?vid=1cfcc844-aab4-4ed5-9932-3d9ea61e95f5","ios":"levelo://app?vid=1cfcc844-aab4-4ed5-9932-3d9ea61e95f5"},"vehicle_type_id":"4","last_reported":1729332481,"current_range_meters":34800,"station_id":"ce4bhm12rcd13ifvqgkg","pricing_plan_id":"cebpf4jnsgd1na2vs0mg"},{"bike_id":"ddd62ba3-c050-46d2-a8ed-02c4b983589b","system_id":"levelo_inurba_marseille","lat":43.32483,"lon":5.36572,"is_reserved":false,"is_disabled":false,"rental_uris":{"android":"levelo://app?vid=ddd62ba3-c050-46d2-a8ed-02c4b983589b","ios":"levelo://app?vid=ddd62ba3-c050-46d2-a8ed-02c4b983589b"},"vehicle_type_id":"4","last_reported":1729332481,"current_range_meters":28000,"station_id":"ce4bhs12rcd13ifvqhvg","pricing_plan_id":"cebpf4jnsgd1na2vs0mg"},{"bike_id":"d7092da1-bd92-4092-8564-a61901b17acc","system_id":"levelo_inurba_marseille","lat":43.25091,"lon":5.39523,"is_reserved":false,"is_disabled":false,"rental_uris":{"android":"levelo://app?vid=d7092da1-bd92-4092-8564-a61901b17acc","ios":"levelo://app?vid=d7092da1-bd92-4092-8564-a61901b17acc"},"vehicle_type_id":"4","last_reported":1729332481,"current_range_meters":38800,"station_id":"","pricing_plan_id":"cebpf4jnsgd1na2vs0mg"},{"bike_id":"8429a31c-77f3-41b6-b710-38d8ca6d27dc","system_id":"levelo_inurba_marseille","lat":43.25086,"lon":5.39517,"is_reserved":false,"is_disabled":false,"rental_uris":{"android":"levelo://app?vid=8429a31c-77f3-41b6-b710-38d8ca6d27dc","ios":"levelo://app?vid=8429a31c-77f3-41b6-b710-38d8ca6d27dc"},"vehicle_type_id":"4","last_reported":1729332481,"current_range_meters":39200,"station_id":"ce4bhm12rcd13ifvqgkg","pricing_plan_id":"cebpf4jnsgd1na2vs0mg"},{"bike_id":"f0d3948c-37e5-4a91-9891-d15fa8289cdf","system_id":"levelo_inurba_marseille","lat":43.2376,"lon":5.3864,"is_reserved":false,"is_disabled":false,"rental_uris":{"android":"levelo://app?vid=f0d3948c-37e5-4a91-9891-d15fa8289cdf","ios":"levelo://app?vid=f0d3948c-37e5-4a91-9891-d15fa8289cdf"},"vehicle_type_id":"4","last_reported":1729332481,"current_range_meters":24800,"station_id":"ce4bhn12rcd13ifvqgqg","pricing_plan_id":"cebpf4jnsgd1na2vs0mg"},{"bike_id":"18361c49-bdac-4926-a222-92101c5ffc08","system_id":"levelo_inurba_marseille","lat":43.32484,"lon":5.36574,"is_reserved":false,"is_disabled":false,"rental_uris":{"android":"levelo://app?vid=18361c49-bdac-4926-a222-92101c5ffc08","ios":"levelo://app?vid=18361c49-bdac-4926-a222-92101c5ffc08"},"vehicle_type_id":"4","last_reported":1729332481,"current_range_meters":32400,"station_id":"ce4bhs12rcd13ifvqhvg","pricing_plan_id":"cebpf4jnsgd1na2vs0mg"},{"bike_id":"e52a80ba-980a-4312-a91e-2f5284e72e91","system_id":"levelo_inurba_marseille","lat":43.270018,"lon":5.391288,"is_reserved":false,"is_disabled":false,"rental_uris":{"android":"levelo://app?vid=e52a80ba-980a-4312-a91e-2f5284e72e91","ios":"levelo://app?vid=e52a80ba-980a-4312-a91e-2f5284e72e91"},"vehicle_type_id":"4","last_reported":1729332481,"current_range_meters":7200,"station_id":"ce4bhhh2rcd13ifvqfl0","pricing_plan_id":"cebpf4jnsgd1na2vs0mg"},{"bike_id":"1240179a-5f79-4577-a91a-2c23df31c888","system_id":"levelo_inurba_marseille","lat":43.24396,"lon":5.37055,"is_reserved":false,"is_disabled":false,"rental_uris":{"android":"levelo://app?vid=1240179a-5f79-4577-a91a-2c23df31c888","ios":"levelo://app?vid=1240179a-5f79-4577-a91a-2c23df31c888"},"vehicle_type_id":"4","last_reported":1729332481,"current_range_meters":34800,"station_id":"ce4bhhh2rcd13ifvqfk0","pricing_plan_id":"cebpf4jnsgd1na2vs0mg"},{"bike_id":"cfe78fd2-5ebc-40fb-858b-89aa9fc29771","system_id":"levelo_inurba_marseille","lat":43.29407,"lon":5.37802,"is_reserved":false,"is_disabled":false,"rental_uris":{"android":"levelo://app?vid=cfe78fd2-5ebc-40fb-858b-89aa9fc29771","ios":"levelo://app?vid=cfe78fd2-5ebc-40fb-858b-89aa9fc29771"},"vehicle_type_id":"4","last_reported":1729332481,"current_range_meters":20400,"station_id":"","pricing_plan_id":"cebpf4jnsgd1na2vs0mg"},{"bike_id":"4dd2fe68-a1ec-43b8-9b45-8d717e77b01b","system_id":"levelo_inurba_marseille","lat":43.27817,"lon":5.40717,"is_reserved":false,"is_disabled":false,"rental_uris":{"android":"levelo://app?vid=4dd2fe68-a1ec-43b8-9b45-8d717e77b01b","ios":"levelo://app?vid=4dd2fe68-a1ec-43b8-9b45-8d717e77b01b"},"vehicle_type_id":"4","last_reported":1729332481,"current_range_meters":34800,"station_id":"ce4bhnh2rcd13ifvqgtg","pricing_plan_id":"cebpf4jnsgd1na2vs0mg"},{"bike_id":"f01dff2f-5267-452e-8672-2554fc2d7d5d","system_id":"levelo_inurba_marseille","lat":43.27975,"lon":5.38735,"is_reserved":false,"is_disabled":false,"rental_uris":{"android":"levelo://app?vid=f01dff2f-5267-452e-8672-2554fc2d7d5d","ios":"levelo://app?vid=f01dff2f-5267-452e-8672-2554fc2d7d5d"},"vehicle_type_id":"4","last_reported":1729332481,"current_range_meters":25200,"station_id":"ce4bhg12rcd13ifvqf80","pricing_plan_id":"cebpf4jnsgd1na2vs0mg"},{"bike_id":"85638a3d-3bc0-4ba5-a0c2-fd5a1454fee6","system_id":"levelo_inurba_marseille","lat":43.22931,"lon":5.35378,"is_reserved":false,"is_disabled":false,"rental_uris":{"android":"levelo://app?vid=85638a3d-3bc0-4ba5-a0c2-fd5a1454fee6","ios":"levelo://app?vid=85638a3d-3bc0-4ba5-a0c2-fd5a1454fee6"},"vehicle_type_id":"4","last_reported":1729332481,"current_range_meters":20000,"station_id":"cpo3532slgdg3j2ikp40","pricing_plan_id":"cebpf4jnsgd1na2vs0mg"},{"bike_id":"95f1e246-49e5-46e5-a1b7-4abb3963bd38","system_id":"levelo_inurba_marseille","lat":43.29847,"lon":5.36279,"is_reserved":false,"is_disabled":false,"rental_uris":{"android":"levelo://app?vid=95f1e246-49e5-46e5-a1b7-4abb3963bd38","ios":"levelo://app?vid=95f1e246-49e5-46e5-a1b7-4abb3963bd38"},"vehicle_type_id":"4","last_reported":1729332481,"current_range_meters":14400,"station_id":"ce4bgpp2rcd13ifvqc3g","pricing_plan_id":"cebpf4jnsgd1na2vs0mg"},{"bike_id":"15ee670c-2c5c-4470-a94f-0ba1d341b25f","system_id":"levelo_inurba_marseille","lat":43.27377,"lon":5.3626,"is_reserved":false,"is_disabled":false,"rental_uris":{"android":"levelo://app?vid=15ee670c-2c5c-4470-a94f-0ba1d341b25f","ios":"levelo://app?vid=15ee670c-2c5c-4470-a94f-0ba1d341b25f"},"vehicle_type_id":"4","last_reported":1729332481,"current_range_meters":20000,"station_id":"ce4bhbh2rcd13ifvqeo0","pricing_plan_id":"cebpf4jnsgd1na2vs0mg"},{"bike_id":"38d67d90-2d95-4f6e-9a9f-a5ffab1fba2c","system_id":"levelo_inurba_marseille","lat":43.29899,"lon":5.43664,"is_reserved":false,"is_disabled":false,"rental_uris":{"android":"levelo://app?vid=38d67d90-2d95-4f6e-9a9f-a5ffab1fba2c","ios":"levelo://app?vid=38d67d90-2d95-4f6e-9a9f-a5ffab1fba2c"},"vehicle_type_id":"4","last_reported":1729332481,"current_range_meters":23200,"station_id":"ce4bhpp2rcd13ifvqhfg","pricing_plan_id":"cebpf4jnsgd1na2vs0mg"},{"bike_id":"e589d4e7-f725-4e81-8fb5-2cb0996e3643","system_id":"levelo_inurba_marseille","lat":43.29038,"lon":5.35928,"is_reserved":false,"is_disabled":false,"rental_uris":{"android":"levelo://app?vid=e589d4e7-f725-4e81-8fb5-2cb0996e3643","ios":"levelo://app?vid=e589d4e7-f725-4e81-8fb5-2cb0996e3643"},"vehicle_type_id":"4","last_reported":1729332481,"current_range_meters":36800,"station_id":"ce4bha92rcd13ifvqeg0","pricing_plan_id":"cebpf4jnsgd1na2vs0mg"},{"bike_id":"2040efa0-0548-4a8f-bbe0-49df48ca8d0d","system_id":"levelo_inurba_marseille","lat":43.31714,"lon":5.37746,"is_reserved":false,"is_disabled":false,"rental_uris":{"android":"levelo://app?vid=2040efa0-0548-4a8f-bbe0-49df48ca8d0d","ios":"levelo://app?vid=2040efa0-0548-4a8f-bbe0-49df48ca8d0d"},"vehicle_type_id":"4","last_reported":1729332481,"current_range_meters":9600,"station_id":"ce4bgth2rcd13ifvqch0","pricing_plan_id":"cebpf4jnsgd1na2vs0mg"},{"bike_id":"d8b6aae6-0385-4b47-8ef5-41883b3602da","system_id":"levelo_inurba_marseille","lat":43.27374,"lon":5.36241,"is_reserved":false,"is_disabled":false,"rental_uris":{"android":"levelo://app?vid=d8b6aae6-0385-4b47-8ef5-41883b3602da","ios":"levelo://app?vid=d8b6aae6-0385-4b47-8ef5-41883b3602da"},"vehicle_type_id":"4","last_reported":1729332481,"current_range_meters":22400,"station_id":"ce4bhbh2rcd13ifvqeo0","pricing_plan_id":"cebpf4jnsgd1na2vs0mg"},{"bike_id":"d53c30f1-2742-4aeb-84ce-861c9ec13c74","system_id":"levelo_inurba_marseille","lat":43.27076,"lon":5.42279,"is_reserved":false,"is_disabled":false,"rental_uris":{"android":"levelo://app?vid=d53c30f1-2742-4aeb-84ce-861c9ec13c74","ios":"levelo://app?vid=d53c30f1-2742-4aeb-84ce-861c9ec13c74"},"vehicle_type_id":"4","last_reported":1729332481,"current_range_meters":11200,"station_id":"ce4bhk92rcd13ifvqgb0","pricing_plan_id":"cebpf4jnsgd1na2vs0mg"},{"bike_id":"19f4c8bd-9374-42c0-b27b-7228ffdf8e80","system_id":"levelo_inurba_marseille","lat":43.28414,"lon":5.34974,"is_reserved":false,"is_disabled":false,"rental_uris":{"android":"levelo://app?vid=19f4c8bd-9374-42c0-b27b-7228ffdf8e80","ios":"levelo://app?vid=19f4c8bd-9374-42c0-b27b-7228ffdf8e80"},"vehicle_type_id":"4","last_reported":1729332481,"current_range_meters":36000,"station_id":"ce4bhbh2rcd13ifvqepg","pricing_plan_id":"cebpf4jnsgd1na2vs0mg"},{"bike_id":"0994d7f0-fa2e-480f-b967-2b1e1b476b78","system_id":"levelo_inurba_marseille","lat":43.23187,"lon":5.35561,"is_reserved":false,"is_disabled":false,"rental_uris":{"android":"levelo://app?vid=0994d7f0-fa2e-480f-b967-2b1e1b476b78","ios":"levelo://app?vid=0994d7f0-fa2e-480f-b967-2b1e1b476b78"},"vehicle_type_id":"4","last_reported":1729332481,"current_range_meters":3200,"station_id":"ce4bhu92rcd13ifvqi70","pricing_plan_id":"cebpf4jnsgd1na2vs0mg"},{"bike_id":"e6789174-ca29-4f3e-b4c1-26a6f6f7478b","system_id":"levelo_inurba_marseille","lat":43.2572,"lon":5.41114,"is_reserved":false,"is_disabled":false,"rental_uris":{"android":"levelo://app?vid=e6789174-ca29-4f3e-b4c1-26a6f6f7478b","ios":"levelo://app?vid=e6789174-ca29-4f3e-b4c1-26a6f6f7478b"},"vehicle_type_id":"4","last_reported":1729332481,"current_range_meters":38800,"station_id":"ce4bhkp2rcd13ifvqgd0","pricing_plan_id":"cebpf4jnsgd1na2vs0mg"},{"bike_id":"41352ecd-ccf7-4501-b52c-c09f6f495c10","system_id":"levelo_inurba_marseille","lat":43.27182,"lon":5.40994,"is_reserved":false,"is_disabled":false,"rental_uris":{"android":"levelo://app?vid=41352ecd-ccf7-4501-b52c-c09f6f495c10","ios":"levelo://app?vid=41352ecd-ccf7-4501-b52c-c09f6f495c10"},"vehicle_type_id":"4","last_reported":1729332481,"current_range_meters":38800,"station_id":"ce4bhl12rcd13ifvqgf0","pricing_plan_id":"cebpf4jnsgd1na2vs0mg"},{"bike_id":"e248f4df-d40d-498f-a81f-a6f876dba040","system_id":"levelo_inurba_marseille","lat":43.27815,"lon":5.40708,"is_reserved":false,"is_disabled":false,"rental_uris":{"android":"levelo://app?vid=e248f4df-d40d-498f-a81f-a6f876dba040","ios":"levelo://app?vid=e248f4df-d40d-498f-a81f-a6f876dba040"},"vehicle_type_id":"4","last_reported":1729332481,"current_range_meters":30800,"station_id":"ce4bhnh2rcd13ifvqgtg","pricing_plan_id":"cebpf4jnsgd1na2vs0mg"},{"bike_id":"65a55914-0ecd-4a41-90a1-f93f11bda6a0","system_id":"levelo_inurba_marseille","lat":43.30152,"lon":5.37426,"is_reserved":false,"is_disabled":false,"rental_uris":{"android":"levelo://app?vid=65a55914-0ecd-4a41-90a1-f93f11bda6a0","ios":"levelo://app?vid=65a55914-0ecd-4a41-90a1-f93f11bda6a0"},"vehicle_type_id":"4","last_reported":1729332481,"current_range_meters":28400,"station_id":"ce4bgs92rcd13ifvqcc0","pricing_plan_id":"cebpf4jnsgd1na2vs0mg"},{"bike_id":"47b0677d-f1ea-44b9-ad27-95f55e4f3816","system_id":"levelo_inurba_marseille","lat":43.23964,"lon":5.36633,"is_reserved":false,"is_disabled":false,"rental_uris":{"android":"levelo://app?vid=47b0677d-f1ea-44b9-ad27-95f55e4f3816","ios":"levelo://app?vid=47b0677d-f1ea-44b9-ad27-95f55e4f3816"},"vehicle_type_id":"4","last_reported":1729332481,"current_range_meters":38800,"station_id":"ce4bhi12rcd13ifvqfp0","pricing_plan_id":"cebpf4jnsgd1na2vs0mg"},{"bike_id":"9248eb78-1af7-4bbc-8a5c-de2624ad0517","system_id":"levelo_inurba_marseille","lat":43.29975,"lon":5.38485,"is_reserved":false,"is_disabled":false,"rental_uris":{"android":"levelo://app?vid=9248eb78-1af7-4bbc-8a5c-de2624ad0517","ios":"levelo://app?vid=9248eb78-1af7-4bbc-8a5c-de2624ad0517"},"vehicle_type_id":"4","last_reported":1729332481,"current_range_meters":38000,"station_id":"ce4bgj92rcd13ifvqbd0","pricing_plan_id":"cebpf4jnsgd1na2vs0mg"},{"bike_id":"d880b621-9a05-43eb-a436-8746c7d2f01c","system_id":"levelo_inurba_marseille","lat":43.2938,"lon":5.37865,"is_reserved":false,"is_disabled":false,"rental_uris":{"android":"levelo://app?vid=d880b621-9a05-43eb-a436-8746c7d2f01c","ios":"levelo://app?vid=d880b621-9a05-43eb-a436-8746c7d2f01c"},"vehicle_type_id":"4","last_reported":1729332481,"current_range_meters":17200,"station_id":"ce4bgjh2rcd13ifvqbf0","pricing_plan_id":"cebpf4jnsgd1na2vs0mg"},{"bike_id":"76196f26-ccc5-436d-9a7d-7a542170b239","system_id":"levelo_inurba_marseille","lat":43.29795,"lon":5.38099,"is_reserved":false,"is_disabled":false,"rental_uris":{"android":"levelo://app?vid=76196f26-ccc5-436d-9a7d-7a542170b239","ios":"levelo://app?vid=76196f26-ccc5-436d-9a7d-7a542170b239"},"vehicle_type_id":"4","last_reported":1729332481,"current_range_meters":22800,"station_id":"ce4bgip2rcd13ifvqbb0","pricing_plan_id":"cebpf4jnsgd1na2vs0mg"},{"bike_id":"c345ae1c-1278-471e-9252-ef055a1478f1","system_id":"levelo_inurba_marseille","lat":43.29224,"lon":5.36073,"is_reserved":false,"is_disabled":false,"rental_uris":{"android":"levelo://app?vid=c345ae1c-1278-471e-9252-ef055a1478f1","ios":"levelo://app?vid=c345ae1c-1278-471e-9252-ef055a1478f1"},"vehicle_type_id":"4","last_reported":1729332481,"current_range_meters":36800,"station_id":"ce4bhbh2rcd13ifvqeqg","pricing_plan_id":"cebpf4jnsgd1na2vs0mg"},{"bike_id":"febb4213-cc6c-4018-b09b-92b5cad57a5c","system_id":"levelo_inurba_marseille","lat":43.284619,"lon":5.384143,"is_reserved":false,"is_disabled":false,"rental_uris":{"android":"levelo://app?vid=febb4213-cc6c-4018-b09b-92b5cad57a5c","ios":"levelo://app?vid=febb4213-cc6c-4018-b09b-92b5cad57a5c"},"vehicle_type_id":"4","last_reported":1729332481,"current_range_meters":36000,"station_id":"ce4bh512rcd13ifvqe3g","pricing_plan_id":"cebpf4jnsgd1na2vs0mg"},{"bike_id":"8e51a74e-fd45-4aab-80de-8a95db523984","system_id":"levelo_inurba_marseille","lat":43.2439,"lon":5.37047,"is_reserved":false,"is_disabled":false,"rental_uris":{"android":"levelo://app?vid=8e51a74e-fd45-4aab-80de-8a95db523984","ios":"levelo://app?vid=8e51a74e-fd45-4aab-80de-8a95db523984"},"vehicle_type_id":"4","last_reported":1729332481,"current_range_meters":31200,"station_id":"ce4bhhh2rcd13ifvqfk0","pricing_plan_id":"cebpf4jnsgd1na2vs0mg"},{"bike_id":"ceced511-cfd4-4155-8e4d-9d3abfa378b6","system_id":"levelo_inurba_marseille","lat":43.3015,"lon":5.38086,"is_reserved":false,"is_disabled":false,"rental_uris":{"android":"levelo://app?vid=ceced511-cfd4-4155-8e4d-9d3abfa378b6","ios":"levelo://app?vid=ceced511-cfd4-4155-8e4d-9d3abfa378b6"},"vehicle_type_id":"4","last_reported":1729332481,"current_range_meters":31200,"station_id":"ce4bgjp2rcd13ifvqbh0","pricing_plan_id":"cebpf4jnsgd1na2vs0mg"},{"bike_id":"9ece7319-f410-4a1c-869b-c313ba0a907f","system_id":"levelo_inurba_marseille","lat":43.3361,"lon":5.41014,"is_reserved":false,"is_disabled":false,"rental_uris":{"android":"levelo://app?vid=9ece7319-f410-4a1c-869b-c313ba0a907f","ios":"levelo://app?vid=9ece7319-f410-4a1c-869b-c313ba0a907f"},"vehicle_type_id":"4","last_reported":1729332481,"current_range_meters":38800,"station_id":"ce4bhqh2rcd13ifvqhmg","pricing_plan_id":"cebpf4jnsgd1na2vs0mg"},{"bike_id":"907d90e2-7e08-4846-bbc2-01977b54a9bd","system_id":"levelo_inurba_marseille","lat":43.24165,"lon":5.36395,"is_reserved":false,"is_disabled":false,"rental_uris":{"android":"levelo://app?vid=907d90e2-7e08-4846-bbc2-01977b54a9bd","ios":"levelo://app?vid=907d90e2-7e08-4846-bbc2-01977b54a9bd"},"vehicle_type_id":"4","last_reported":1729332481,"current_range_meters":13600,"station_id":"cpo36qri1sfpv3e86is0","pricing_plan_id":"cebpf4jnsgd1na2vs0mg"},{"bike_id":"48836f4d-12e6-41c1-a5c7-c5ab40f084cd","system_id":"levelo_inurba_marseille","lat":43.25583,"lon":5.38227,"is_reserved":false,"is_disabled":false,"rental_uris":{"android":"levelo://app?vid=48836f4d-12e6-41c1-a5c7-c5ab40f084cd","ios":"levelo://app?vid=48836f4d-12e6-41c1-a5c7-c5ab40f084cd"},"vehicle_type_id":"4","last_reported":1729332481,"current_range_meters":38800,"station_id":"ce4bhih2rcd13ifvqfs0","pricing_plan_id":"cebpf4jnsgd1na2vs0mg"},{"bike_id":"eb6d1ebd-084f-4340-b44b-2c28d5719fea","system_id":"levelo_inurba_marseille","lat":43.32344,"lon":5.40616,"is_reserved":false,"is_disabled":false,"rental_uris":{"android":"levelo://app?vid=eb6d1ebd-084f-4340-b44b-2c28d5719fea","ios":"levelo://app?vid=eb6d1ebd-084f-4340-b44b-2c28d5719fea"},"vehicle_type_id":"4","last_reported":1729332481,"current_range_meters":13600,"station_id":"ce4bhq92rcd13ifvqhjg","pricing_plan_id":"cebpf4jnsgd1na2vs0mg"},{"bike_id":"8b2755fe-8c1b-4d68-b88b-946728ddd8ec","system_id":"levelo_inurba_marseille","lat":43.28993,"lon":5.3783,"is_reserved":false,"is_disabled":false,"rental_uris":{"android":"levelo://app?vid=8b2755fe-8c1b-4d68-b88b-946728ddd8ec","ios":"levelo://app?vid=8b2755fe-8c1b-4d68-b88b-946728ddd8ec"},"vehicle_type_id":"4","last_reported":1729332481,"current_range_meters":10000,"station_id":"ce4bh9p2rcd13ifvqed0","pricing_plan_id":"cebpf4jnsgd1na2vs0mg"},{"bike_id":"fef630e0-4ae3-4ccc-97d1-f85c6b238b44","system_id":"levelo_inurba_marseille","lat":43.306038,"lon":5.372255,"is_reserved":false,"is_disabled":false,"rental_uris":{"android":"levelo://app?vid=fef630e0-4ae3-4ccc-97d1-f85c6b238b44","ios":"levelo://app?vid=fef630e0-4ae3-4ccc-97d1-f85c6b238b44"},"vehicle_type_id":"4","last_reported":1729332481,"current_range_meters":30800,"station_id":"ce4bgqh2rcd13ifvqc4g","pricing_plan_id":"cebpf4jnsgd1na2vs0mg"},{"bike_id":"468d2d23-1b12-48f6-8585-d2531a91250a","system_id":"levelo_inurba_marseille","lat":43.284034,"lon":5.37503,"is_reserved":false,"is_disabled":false,"rental_uris":{"android":"levelo://app?vid=468d2d23-1b12-48f6-8585-d2531a91250a","ios":"levelo://app?vid=468d2d23-1b12-48f6-8585-d2531a91250a"},"vehicle_type_id":"4","last_reported":1729332481,"current_range_meters":21600,"station_id":"ce4bh412rcd13ifvqds0","pricing_plan_id":"cebpf4jnsgd1na2vs0mg"},{"bike_id":"807314c7-de27-4bec-ba83-d8bcf18600f3","system_id":"levelo_inurba_marseille","lat":43.29981,"lon":5.38485,"is_reserved":false,"is_disabled":false,"rental_uris":{"android":"levelo://app?vid=807314c7-de27-4bec-ba83-d8bcf18600f3","ios":"levelo://app?vid=807314c7-de27-4bec-ba83-d8bcf18600f3"},"vehicle_type_id":"4","last_reported":1729332481,"current_range_meters":36800,"station_id":"ce4bgj92rcd13ifvqbd0","pricing_plan_id":"cebpf4jnsgd1na2vs0mg"},{"bike_id":"54ac56ba-302a-4d28-904d-b9986326af31","system_id":"levelo_inurba_marseille","lat":43.25728,"lon":5.41109,"is_reserved":false,"is_disabled":false,"rental_uris":{"android":"levelo://app?vid=54ac56ba-302a-4d28-904d-b9986326af31","ios":"levelo://app?vid=54ac56ba-302a-4d28-904d-b9986326af31"},"vehicle_type_id":"4","last_reported":1729332481,"current_range_meters":9200,"station_id":"ce4bhkp2rcd13ifvqgd0","pricing_plan_id":"cebpf4jnsgd1na2vs0mg"},{"bike_id":"0167c4d5-0623-4589-a1db-4651577b3943","system_id":"levelo_inurba_marseille","lat":43.27209,"lon":5.39173,"is_reserved":false,"is_disabled":false,"rental_uris":{"android":"levelo://app?vid=0167c4d5-0623-4589-a1db-4651577b3943","ios":"levelo://app?vid=0167c4d5-0623-4589-a1db-4651577b3943"},"vehicle_type_id":"4","last_reported":1729332481,"current_range_meters":34000,"station_id":"ce4bhhp2rcd13ifvqfm0","pricing_plan_id":"cebpf4jnsgd1na2vs0mg"},{"bike_id":"bd37e8a0-e881-48d0-8bf0-c4e0af2752fe","system_id":"levelo_inurba_marseille","lat":43.23196,"lon":5.35552,"is_reserved":false,"is_disabled":false,"rental_uris":{"android":"levelo://app?vid=bd37e8a0-e881-48d0-8bf0-c4e0af2752fe","ios":"levelo://app?vid=bd37e8a0-e881-48d0-8bf0-c4e0af2752fe"},"vehicle_type_id":"4","last_reported":1729332481,"current_range_meters":25600,"station_id":"ce4bhu92rcd13ifvqi70","pricing_plan_id":"cebpf4jnsgd1na2vs0mg"},{"bike_id":"9b697ce4-04b2-4aeb-ad1d-d9c602b75937","system_id":"levelo_inurba_marseille","lat":43.317123,"lon":5.377623,"is_reserved":false,"is_disabled":false,"rental_uris":{"android":"levelo://app?vid=9b697ce4-04b2-4aeb-ad1d-d9c602b75937","ios":"levelo://app?vid=9b697ce4-04b2-4aeb-ad1d-d9c602b75937"},"vehicle_type_id":"4","last_reported":1729332481,"current_range_meters":39200,"station_id":"ce4bgth2rcd13ifvqch0","pricing_plan_id":"cebpf4jnsgd1na2vs0mg"},{"bike_id":"21cc10fd-73a7-4bbd-b7da-bfa798e82fda","system_id":"levelo_inurba_marseille","lat":43.30905,"lon":5.36849,"is_reserved":false,"is_disabled":false,"rental_uris":{"android":"levelo://app?vid=21cc10fd-73a7-4bbd-b7da-bfa798e82fda","ios":"levelo://app?vid=21cc10fd-73a7-4bbd-b7da-bfa798e82fda"},"vehicle_type_id":"4","last_reported":1729332481,"current_range_meters":17200,"station_id":"ce4bgn92rcd13ifvqbvg","pricing_plan_id":"cebpf4jnsgd1na2vs0mg"},{"bike_id":"303c5781-0f21-4611-adf5-7f4bb5463f9c","system_id":"levelo_inurba_marseille","lat":43.26561,"lon":5.37284,"is_reserved":false,"is_disabled":false,"rental_uris":{"android":"levelo://app?vid=303c5781-0f21-4611-adf5-7f4bb5463f9c","ios":"levelo://app?vid=303c5781-0f21-4611-adf5-7f4bb5463f9c"},"vehicle_type_id":"4","last_reported":1729332481,"current_range_meters":27200,"station_id":"ce4bhg12rcd13ifvqf70","pricing_plan_id":"cebpf4jnsgd1na2vs0mg"},{"bike_id":"a19bbf99-57ee-4fe3-9c12-f13d9eb440e3","system_id":"levelo_inurba_marseille","lat":43.29841,"lon":5.36265,"is_reserved":false,"is_disabled":false,"rental_uris":{"android":"levelo://app?vid=a19bbf99-57ee-4fe3-9c12-f13d9eb440e3","ios":"levelo://app?vid=a19bbf99-57ee-4fe3-9c12-f13d9eb440e3"},"vehicle_type_id":"4","last_reported":1729332481,"current_range_meters":30000,"station_id":"ce4bgpp2rcd13ifvqc3g","pricing_plan_id":"cebpf4jnsgd1na2vs0mg"},{"bike_id":"dd9307fb-a903-4696-857c-e556a5e3b34e","system_id":"levelo_inurba_marseille","lat":43.24547,"lon":5.39521,"is_reserved":false,"is_disabled":false,"rental_uris":{"android":"levelo://app?vid=dd9307fb-a903-4696-857c-e556a5e3b34e","ios":"levelo://app?vid=dd9307fb-a903-4696-857c-e556a5e3b34e"},"vehicle_type_id":"4","last_reported":1729332481,"current_range_meters":38000,"station_id":"ce4bhlp2rcd13ifvqgjg","pricing_plan_id":"cebpf4jnsgd1na2vs0mg"},{"bike_id":"2140b6a3-5118-4150-823e-9225aeb56201","system_id":"levelo_inurba_marseille","lat":43.23195,"lon":5.35545,"is_reserved":false,"is_disabled":false,"rental_uris":{"android":"levelo://app?vid=2140b6a3-5118-4150-823e-9225aeb56201","ios":"levelo://app?vid=2140b6a3-5118-4150-823e-9225aeb56201"},"vehicle_type_id":"4","last_reported":1729332481,"current_range_meters":27600,"station_id":"ce4bhu92rcd13ifvqi70","pricing_plan_id":"cebpf4jnsgd1na2vs0mg"},{"bike_id":"f2522823-27ea-43cf-8234-ee5a9dcca0a3","system_id":"levelo_inurba_marseille","lat":43.32359,"lon":5.3888,"is_reserved":false,"is_disabled":false,"rental_uris":{"android":"levelo://app?vid=f2522823-27ea-43cf-8234-ee5a9dcca0a3","ios":"levelo://app?vid=f2522823-27ea-43cf-8234-ee5a9dcca0a3"},"vehicle_type_id":"4","last_reported":1729332481,"current_range_meters":28400,"station_id":"ce4bhqp2rcd13ifvqhog","pricing_plan_id":"cebpf4jnsgd1na2vs0mg"},{"bike_id":"7432de2d-1f24-4882-a60a-5b80baf9818f","system_id":"levelo_inurba_marseille","lat":43.30419,"lon":5.4129,"is_reserved":false,"is_disabled":false,"rental_uris":{"android":"levelo://app?vid=7432de2d-1f24-4882-a60a-5b80baf9818f","ios":"levelo://app?vid=7432de2d-1f24-4882-a60a-5b80baf9818f"},"vehicle_type_id":"4","last_reported":1729332481,"current_range_meters":38000,"station_id":"ce4bhop2rcd13ifvqh8g","pricing_plan_id":"cebpf4jnsgd1na2vs0mg"},{"bike_id":"40589edc-baeb-4043-9212-ab10116ce0d0","system_id":"levelo_inurba_marseille","lat":43.28459,"lon":5.35891,"is_reserved":false,"is_disabled":false,"rental_uris":{"android":"levelo://app?vid=40589edc-baeb-4043-9212-ab10116ce0d0","ios":"levelo://app?vid=40589edc-baeb-4043-9212-ab10116ce0d0"},"vehicle_type_id":"4","last_reported":1729332481,"current_range_meters":30400,"station_id":"ce4bhah2rcd13ifvqei0","pricing_plan_id":"cebpf4jnsgd1na2vs0mg"},{"bike_id":"d116ab63-54e5-422b-8ef9-2c8c31901cde","system_id":"levelo_inurba_marseille","lat":43.26029,"lon":5.37546,"is_reserved":false,"is_disabled":false,"rental_uris":{"android":"levelo://app?vid=d116ab63-54e5-422b-8ef9-2c8c31901cde","ios":"levelo://app?vid=d116ab63-54e5-422b-8ef9-2c8c31901cde"},"vehicle_type_id":"4","last_reported":1729332481,"current_range_meters":38800,"station_id":"ce4bhgh2rcd13ifvqfa0","pricing_plan_id":"cebpf4jnsgd1na2vs0mg"},{"bike_id":"1bed2458-0917-4185-92b3-f951212aad7b","system_id":"levelo_inurba_marseille","lat":43.29295,"lon":5.37468,"is_reserved":false,"is_disabled":false,"rental_uris":{"android":"levelo://app?vid=1bed2458-0917-4185-92b3-f951212aad7b","ios":"levelo://app?vid=1bed2458-0917-4185-92b3-f951212aad7b"},"vehicle_type_id":"4","last_reported":1729332481,"current_range_meters":14000,"station_id":"ce4bgi12rcd13ifvqb70","pricing_plan_id":"cebpf4jnsgd1na2vs0mg"},{"bike_id":"6e706dcb-6e41-41b6-a172-73765c66fdaa","system_id":"levelo_inurba_marseille","lat":43.26239,"lon":5.37591,"is_reserved":false,"is_disabled":false,"rental_uris":{"android":"levelo://app?vid=6e706dcb-6e41-41b6-a172-73765c66fdaa","ios":"levelo://app?vid=6e706dcb-6e41-41b6-a172-73765c66fdaa"},"vehicle_type_id":"4","last_reported":1729332481,"current_range_meters":38000,"station_id":"ce4bhhp2rcd13ifvqfm0","pricing_plan_id":"cebpf4jnsgd1na2vs0mg"},{"bike_id":"5d2de71f-b10e-4ed2-825c-9e65cebe0e8d","system_id":"levelo_inurba_marseille","lat":43.29305,"lon":5.37463,"is_reserved":false,"is_disabled":false,"rental_uris":{"android":"levelo://app?vid=5d2de71f-b10e-4ed2-825c-9e65cebe0e8d","ios":"levelo://app?vid=5d2de71f-b10e-4ed2-825c-9e65cebe0e8d"},"vehicle_type_id":"4","last_reported":1729332481,"current_range_meters":14000,"station_id":"ce4bgi12rcd13ifvqb70","pricing_plan_id":"cebpf4jnsgd1na2vs0mg"},{"bike_id":"6cb7a3ce-6d5f-4dc0-ab7f-5cafce2cff2e","system_id":"levelo_inurba_marseille","lat":43.29584,"lon":5.36739,"is_reserved":false,"is_disabled":false,"rental_uris":{"android":"levelo://app?vid=6cb7a3ce-6d5f-4dc0-ab7f-5cafce2cff2e","ios":"levelo://app?vid=6cb7a3ce-6d5f-4dc0-ab7f-5cafce2cff2e"},"vehicle_type_id":"4","last_reported":1729332481,"current_range_meters":32800,"station_id":"ce4bgph2rcd13ifvqc2g","pricing_plan_id":"cebpf4jnsgd1na2vs0mg"},{"bike_id":"35cd31d0-e834-4434-a949-35cf2fbd1d2c","system_id":"levelo_inurba_marseille","lat":43.22938,"lon":5.35378,"is_reserved":false,"is_disabled":false,"rental_uris":{"android":"levelo://app?vid=35cd31d0-e834-4434-a949-35cf2fbd1d2c","ios":"levelo://app?vid=35cd31d0-e834-4434-a949-35cf2fbd1d2c"},"vehicle_type_id":"4","last_reported":1729332481,"current_range_meters":27600,"station_id":"cpo3532slgdg3j2ikp40","pricing_plan_id":"cebpf4jnsgd1na2vs0mg"},{"bike_id":"f489bb78-5bf8-4338-b879-cf067735cd62","system_id":"levelo_inurba_marseille","lat":43.29973,"lon":5.38489,"is_reserved":false,"is_disabled":false,"rental_uris":{"android":"levelo://app?vid=f489bb78-5bf8-4338-b879-cf067735cd62","ios":"levelo://app?vid=f489bb78-5bf8-4338-b879-cf067735cd62"},"vehicle_type_id":"4","last_reported":1729332481,"current_range_meters":38000,"station_id":"ce4bgj92rcd13ifvqbd0","pricing_plan_id":"cebpf4jnsgd1na2vs0mg"},{"bike_id":"236753e8-c696-4221-a650-223fd3cfba11","system_id":"levelo_inurba_marseille","lat":43.29804,"lon":5.3809,"is_reserved":false,"is_disabled":false,"rental_uris":{"android":"levelo://app?vid=236753e8-c696-4221-a650-223fd3cfba11","ios":"levelo://app?vid=236753e8-c696-4221-a650-223fd3cfba11"},"vehicle_type_id":"4","last_reported":1729332481,"current_range_meters":33200,"station_id":"ce4bgip2rcd13ifvqbb0","pricing_plan_id":"cebpf4jnsgd1na2vs0mg"},{"bike_id":"7772d39f-5e28-445c-af91-069b0cf63793","system_id":"levelo_inurba_marseille","lat":43.33765,"lon":5.37438,"is_reserved":false,"is_disabled":false,"rental_uris":{"android":"levelo://app?vid=7772d39f-5e28-445c-af91-069b0cf63793","ios":"levelo://app?vid=7772d39f-5e28-445c-af91-069b0cf63793"},"vehicle_type_id":"4","last_reported":1729332481,"current_range_meters":9200,"station_id":"","pricing_plan_id":"cebpf4jnsgd1na2vs0mg"},{"bike_id":"20a0e485-d667-46f9-a103-2a297d334949","system_id":"levelo_inurba_marseille","lat":43.250275,"lon":5.374831,"is_reserved":false,"is_disabled":false,"rental_uris":{"android":"levelo://app?vid=20a0e485-d667-46f9-a103-2a297d334949","ios":"levelo://app?vid=20a0e485-d667-46f9-a103-2a297d334949"},"vehicle_type_id":"4","last_reported":1729332481,"current_range_meters":4800,"station_id":"ce4bhgh2rcd13ifvqfb0","pricing_plan_id":"cebpf4jnsgd1na2vs0mg"},{"bike_id":"b61da1b6-317b-4ec8-8881-65a401d43674","system_id":"levelo_inurba_marseille","lat":43.32483,"lon":5.36574,"is_reserved":false,"is_disabled":false,"rental_uris":{"android":"levelo://app?vid=b61da1b6-317b-4ec8-8881-65a401d43674","ios":"levelo://app?vid=b61da1b6-317b-4ec8-8881-65a401d43674"},"vehicle_type_id":"4","last_reported":1729332481,"current_range_meters":31200,"station_id":"ce4bhs12rcd13ifvqhvg","pricing_plan_id":"cebpf4jnsgd1na2vs0mg"},{"bike_id":"3213665e-989c-4d22-9f5a-31c8522597dd","system_id":"levelo_inurba_marseille","lat":43.296,"lon":5.36142,"is_reserved":false,"is_disabled":false,"rental_uris":{"android":"levelo://app?vid=3213665e-989c-4d22-9f5a-31c8522597dd","ios":"levelo://app?vid=3213665e-989c-4d22-9f5a-31c8522597dd"},"vehicle_type_id":"4","last_reported":1729332481,"current_range_meters":20000,"station_id":"","pricing_plan_id":"cebpf4jnsgd1na2vs0mg"},{"bike_id":"28a4e345-9d30-4d08-9b2a-70587a7eba7c","system_id":"levelo_inurba_marseille","lat":43.29579,"lon":5.3674,"is_reserved":false,"is_disabled":false,"rental_uris":{"android":"levelo://app?vid=28a4e345-9d30-4d08-9b2a-70587a7eba7c","ios":"levelo://app?vid=28a4e345-9d30-4d08-9b2a-70587a7eba7c"},"vehicle_type_id":"4","last_reported":1729332481,"current_range_meters":22400,"station_id":"ce4bgph2rcd13ifvqc2g","pricing_plan_id":"cebpf4jnsgd1na2vs0mg"},{"bike_id":"57b209a6-076f-4fe9-9e50-8d35d1d4533f","system_id":"levelo_inurba_marseille","lat":43.28154,"lon":5.42647,"is_reserved":false,"is_disabled":false,"rental_uris":{"android":"levelo://app?vid=57b209a6-076f-4fe9-9e50-8d35d1d4533f","ios":"levelo://app?vid=57b209a6-076f-4fe9-9e50-8d35d1d4533f"},"vehicle_type_id":"4","last_reported":1729332481,"current_range_meters":20000,"station_id":"ce4bhnh2rcd13ifvqgug","pricing_plan_id":"cebpf4jnsgd1na2vs0mg"},{"bike_id":"4fbbfab7-5970-4a84-85d1-212875289a2b","system_id":"levelo_inurba_marseille","lat":43.28852,"lon":5.35842,"is_reserved":false,"is_disabled":false,"rental_uris":{"android":"levelo://app?vid=4fbbfab7-5970-4a84-85d1-212875289a2b","ios":"levelo://app?vid=4fbbfab7-5970-4a84-85d1-212875289a2b"},"vehicle_type_id":"4","last_reported":1729332481,"current_range_meters":38400,"station_id":"ce4bhb12rcd13ifvqem0","pricing_plan_id":"cebpf4jnsgd1na2vs0mg"},{"bike_id":"85978b2d-96a1-4496-a15d-3917a97b0613","system_id":"levelo_inurba_marseille","lat":43.32368,"lon":5.38883,"is_reserved":false,"is_disabled":false,"rental_uris":{"android":"levelo://app?vid=85978b2d-96a1-4496-a15d-3917a97b0613","ios":"levelo://app?vid=85978b2d-96a1-4496-a15d-3917a97b0613"},"vehicle_type_id":"4","last_reported":1729332481,"current_range_meters":37600,"station_id":"ce4bhqp2rcd13ifvqhog","pricing_plan_id":"cebpf4jnsgd1na2vs0mg"},{"bike_id":"4073ae12-a9a2-4914-98f7-3fa3c8233685","system_id":"levelo_inurba_marseille","lat":43.2656,"lon":5.37284,"is_reserved":false,"is_disabled":false,"rental_uris":{"android":"levelo://app?vid=4073ae12-a9a2-4914-98f7-3fa3c8233685","ios":"levelo://app?vid=4073ae12-a9a2-4914-98f7-3fa3c8233685"},"vehicle_type_id":"4","last_reported":1729332481,"current_range_meters":24400,"station_id":"ce4bhg12rcd13ifvqf70","pricing_plan_id":"cebpf4jnsgd1na2vs0mg"},{"bike_id":"a42d053b-efc3-4d04-88dc-06d3f1dc7ac8","system_id":"levelo_inurba_marseille","lat":43.30418,"lon":5.41288,"is_reserved":false,"is_disabled":false,"rental_uris":{"android":"levelo://app?vid=a42d053b-efc3-4d04-88dc-06d3f1dc7ac8","ios":"levelo://app?vid=a42d053b-efc3-4d04-88dc-06d3f1dc7ac8"},"vehicle_type_id":"4","last_reported":1729332481,"current_range_meters":38800,"station_id":"ce4bhop2rcd13ifvqh8g","pricing_plan_id":"cebpf4jnsgd1na2vs0mg"},{"bike_id":"a60acd41-d6c7-4ce1-871c-9489eb2fe795","system_id":"levelo_inurba_marseille","lat":43.29225,"lon":5.36068,"is_reserved":false,"is_disabled":false,"rental_uris":{"android":"levelo://app?vid=a60acd41-d6c7-4ce1-871c-9489eb2fe795","ios":"levelo://app?vid=a60acd41-d6c7-4ce1-871c-9489eb2fe795"},"vehicle_type_id":"4","last_reported":1729332481,"current_range_meters":33600,"station_id":"ce4bhbh2rcd13ifvqeqg","pricing_plan_id":"cebpf4jnsgd1na2vs0mg"},{"bike_id":"720f32bc-f057-41f4-aebc-3fd98c4f7d49","system_id":"levelo_inurba_marseille","lat":43.304149,"lon":5.367583,"is_reserved":false,"is_disabled":false,"rental_uris":{"android":"levelo://app?vid=720f32bc-f057-41f4-aebc-3fd98c4f7d49","ios":"levelo://app?vid=720f32bc-f057-41f4-aebc-3fd98c4f7d49"},"vehicle_type_id":"4","last_reported":1729332481,"current_range_meters":8000,"station_id":"","pricing_plan_id":"cebpf4jnsgd1na2vs0mg"},{"bike_id":"0cb2ff1d-75b8-48e9-8163-d51e41677760","system_id":"levelo_inurba_marseille","lat":43.23068,"lon":5.35493,"is_reserved":false,"is_disabled":false,"rental_uris":{"android":"levelo://app?vid=0cb2ff1d-75b8-48e9-8163-d51e41677760","ios":"levelo://app?vid=0cb2ff1d-75b8-48e9-8163-d51e41677760"},"vehicle_type_id":"4","last_reported":1729332481,"current_range_meters":11600,"station_id":"cpo3342slgdg3j2ifvpg","pricing_plan_id":"cebpf4jnsgd1na2vs0mg"},{"bike_id":"7f80a0ba-0068-4512-bdbc-99a43aab237f","system_id":"levelo_inurba_marseille","lat":43.310749,"lon":5.383551,"is_reserved":false,"is_disabled":false,"rental_uris":{"android":"levelo://app?vid=7f80a0ba-0068-4512-bdbc-99a43aab237f","ios":"levelo://app?vid=7f80a0ba-0068-4512-bdbc-99a43aab237f"},"vehicle_type_id":"4","last_reported":1729332481,"current_range_meters":30800,"station_id":"ce4bgv92rcd13ifvqcr0","pricing_plan_id":"cebpf4jnsgd1na2vs0mg"},{"bike_id":"6a1e31b6-d029-4b53-901f-4bdc7b2141ad","system_id":"levelo_inurba_marseille","lat":43.33026,"lon":5.39036,"is_reserved":false,"is_disabled":false,"rental_uris":{"android":"levelo://app?vid=6a1e31b6-d029-4b53-901f-4bdc7b2141ad","ios":"levelo://app?vid=6a1e31b6-d029-4b53-901f-4bdc7b2141ad"},"vehicle_type_id":"4","last_reported":1729332481,"current_range_meters":25200,"station_id":"ce4bhr92rcd13ifvqhrg","pricing_plan_id":"cebpf4jnsgd1na2vs0mg"},{"bike_id":"60e5d882-0396-4567-9dd1-7257b842a7e3","system_id":"levelo_inurba_marseille","lat":43.29851,"lon":5.36282,"is_reserved":false,"is_disabled":false,"rental_uris":{"android":"levelo://app?vid=60e5d882-0396-4567-9dd1-7257b842a7e3","ios":"levelo://app?vid=60e5d882-0396-4567-9dd1-7257b842a7e3"},"vehicle_type_id":"4","last_reported":1729332481,"current_range_meters":38800,"station_id":"ce4bgpp2rcd13ifvqc3g","pricing_plan_id":"cebpf4jnsgd1na2vs0mg"},{"bike_id":"f28821c9-7999-40df-9445-8ad0ddd340db","system_id":"levelo_inurba_marseille","lat":43.29307,"lon":5.37452,"is_reserved":false,"is_disabled":false,"rental_uris":{"android":"levelo://app?vid=f28821c9-7999-40df-9445-8ad0ddd340db","ios":"levelo://app?vid=f28821c9-7999-40df-9445-8ad0ddd340db"},"vehicle_type_id":"4","last_reported":1729332481,"current_range_meters":25600,"station_id":"ce4bgi12rcd13ifvqb70","pricing_plan_id":"cebpf4jnsgd1na2vs0mg"},{"bike_id":"11a21bb0-f15a-49f4-8d19-d7ea309cb0d1","system_id":"levelo_inurba_marseille","lat":43.31757,"lon":5.3902,"is_reserved":false,"is_disabled":false,"rental_uris":{"android":"levelo://app?vid=11a21bb0-f15a-49f4-8d19-d7ea309cb0d1","ios":"levelo://app?vid=11a21bb0-f15a-49f4-8d19-d7ea309cb0d1"},"vehicle_type_id":"4","last_reported":1729332481,"current_range_meters":9200,"station_id":"ce4bhqp2rcd13ifvqhng","pricing_plan_id":"cebpf4jnsgd1na2vs0mg"},{"bike_id":"ed218768-6468-4308-99c1-aaabc1f5f2a5","system_id":"levelo_inurba_marseille","lat":43.25123,"lon":5.40318,"is_reserved":false,"is_disabled":false,"rental_uris":{"android":"levelo://app?vid=ed218768-6468-4308-99c1-aaabc1f5f2a5","ios":"levelo://app?vid=ed218768-6468-4308-99c1-aaabc1f5f2a5"},"vehicle_type_id":"4","last_reported":1729332481,"current_range_meters":2800,"station_id":"ce4bhlh2rcd13ifvqgig","pricing_plan_id":"cebpf4jnsgd1na2vs0mg"},{"bike_id":"6097135c-08ae-4b32-ba2d-8b9d644b4f55","system_id":"levelo_inurba_marseille","lat":43.3204,"lon":5.41562,"is_reserved":false,"is_disabled":false,"rental_uris":{"android":"levelo://app?vid=6097135c-08ae-4b32-ba2d-8b9d644b4f55","ios":"levelo://app?vid=6097135c-08ae-4b32-ba2d-8b9d644b4f55"},"vehicle_type_id":"4","last_reported":1729332481,"current_range_meters":38000,"station_id":"ce4bhq92rcd13ifvqhkg","pricing_plan_id":"cebpf4jnsgd1na2vs0mg"},{"bike_id":"1a033abb-16f6-452d-8850-1323583b7cab","system_id":"levelo_inurba_marseille","lat":43.28154,"lon":5.4264,"is_reserved":false,"is_disabled":false,"rental_uris":{"android":"levelo://app?vid=1a033abb-16f6-452d-8850-1323583b7cab","ios":"levelo://app?vid=1a033abb-16f6-452d-8850-1323583b7cab"},"vehicle_type_id":"4","last_reported":1729332481,"current_range_meters":12400,"station_id":"ce4bhnh2rcd13ifvqgug","pricing_plan_id":"cebpf4jnsgd1na2vs0mg"},{"bike_id":"254053dc-a650-430a-abc0-528b49138bd4","system_id":"levelo_inurba_marseille","lat":43.28374,"lon":5.38639,"is_reserved":false,"is_disabled":false,"rental_uris":{"android":"levelo://app?vid=254053dc-a650-430a-abc0-528b49138bd4","ios":"levelo://app?vid=254053dc-a650-430a-abc0-528b49138bd4"},"vehicle_type_id":"4","last_reported":1729332481,"current_range_meters":25600,"station_id":"ce4bh492rcd13ifvqdvg","pricing_plan_id":"cebpf4jnsgd1na2vs0mg"},{"bike_id":"4b88317a-2c71-4cfd-b616-6b36d3a67a26","system_id":"levelo_inurba_marseille","lat":43.29543,"lon":5.3746,"is_reserved":false,"is_disabled":false,"rental_uris":{"android":"levelo://app?vid=4b88317a-2c71-4cfd-b616-6b36d3a67a26","ios":"levelo://app?vid=4b88317a-2c71-4cfd-b616-6b36d3a67a26"},"vehicle_type_id":"4","last_reported":1729332481,"current_range_meters":8800,"station_id":"ce4bgkp2rcd13ifvqbmg","pricing_plan_id":"cebpf4jnsgd1na2vs0mg"},{"bike_id":"f7a24b2f-5943-4824-83d0-3767d391605f","system_id":"levelo_inurba_marseille","lat":43.29846,"lon":5.36272,"is_reserved":false,"is_disabled":false,"rental_uris":{"android":"levelo://app?vid=f7a24b2f-5943-4824-83d0-3767d391605f","ios":"levelo://app?vid=f7a24b2f-5943-4824-83d0-3767d391605f"},"vehicle_type_id":"4","last_reported":1729332481,"current_range_meters":24000,"station_id":"ce4bgpp2rcd13ifvqc3g","pricing_plan_id":"cebpf4jnsgd1na2vs0mg"},{"bike_id":"00348bdb-2087-41c6-9fbc-d6e211275eb8","system_id":"levelo_inurba_marseille","lat":43.23968,"lon":5.36637,"is_reserved":false,"is_disabled":false,"rental_uris":{"android":"levelo://app?vid=00348bdb-2087-41c6-9fbc-d6e211275eb8","ios":"levelo://app?vid=00348bdb-2087-41c6-9fbc-d6e211275eb8"},"vehicle_type_id":"4","last_reported":1729332481,"current_range_meters":22000,"station_id":"ce4bhi12rcd13ifvqfp0","pricing_plan_id":"cebpf4jnsgd1na2vs0mg"},{"bike_id":"5f030b11-c610-4dd2-9fe0-f0ffeb7f76d5","system_id":"levelo_inurba_marseille","lat":43.24078,"lon":5.37747,"is_reserved":false,"is_disabled":false,"rental_uris":{"android":"levelo://app?vid=5f030b11-c610-4dd2-9fe0-f0ffeb7f76d5","ios":"levelo://app?vid=5f030b11-c610-4dd2-9fe0-f0ffeb7f76d5"},"vehicle_type_id":"4","last_reported":1729332481,"current_range_meters":28400,"station_id":"ce4bhnp2rcd13ifvqgvg","pricing_plan_id":"cebpf4jnsgd1na2vs0mg"},{"bike_id":"067193b3-5c80-4bd0-bba0-f83eb46c9371","system_id":"levelo_inurba_marseille","lat":43.23193,"lon":5.35558,"is_reserved":false,"is_disabled":false,"rental_uris":{"android":"levelo://app?vid=067193b3-5c80-4bd0-bba0-f83eb46c9371","ios":"levelo://app?vid=067193b3-5c80-4bd0-bba0-f83eb46c9371"},"vehicle_type_id":"4","last_reported":1729332481,"current_range_meters":32400,"station_id":"ce4bhu92rcd13ifvqi70","pricing_plan_id":"cebpf4jnsgd1na2vs0mg"},{"bike_id":"25322c3b-9626-47d5-8a25-5ace4c10ce02","system_id":"levelo_inurba_marseille","lat":43.29568,"lon":5.37532,"is_reserved":false,"is_disabled":false,"rental_uris":{"android":"levelo://app?vid=25322c3b-9626-47d5-8a25-5ace4c10ce02","ios":"levelo://app?vid=25322c3b-9626-47d5-8a25-5ace4c10ce02"},"vehicle_type_id":"4","last_reported":1729332481,"current_range_meters":25200,"station_id":"ce4bgh92rcd13ifvqb50","pricing_plan_id":"cebpf4jnsgd1na2vs0mg"},{"bike_id":"ed0a08f5-19b0-4a12-843c-cf40e0380d72","system_id":"levelo_inurba_marseille","lat":43.29943,"lon":5.3656,"is_reserved":false,"is_disabled":false,"rental_uris":{"android":"levelo://app?vid=ed0a08f5-19b0-4a12-843c-cf40e0380d72","ios":"levelo://app?vid=ed0a08f5-19b0-4a12-843c-cf40e0380d72"},"vehicle_type_id":"4","last_reported":1729332481,"current_range_meters":36800,"station_id":"ce4bgm92rcd13ifvqbr0","pricing_plan_id":"cebpf4jnsgd1na2vs0mg"},{"bike_id":"765975f8-bc0d-4687-b420-8cef0ef2958b","system_id":"levelo_inurba_marseille","lat":43.29906,"lon":5.38148,"is_reserved":false,"is_disabled":false,"rental_uris":{"android":"levelo://app?vid=765975f8-bc0d-4687-b420-8cef0ef2958b","ios":"levelo://app?vid=765975f8-bc0d-4687-b420-8cef0ef2958b"},"vehicle_type_id":"4","last_reported":1729332481,"current_range_meters":34000,"station_id":"ce4bgj12rcd13ifvqbc0","pricing_plan_id":"cebpf4jnsgd1na2vs0mg"},{"bike_id":"577ed3a5-bcfd-4768-87ac-de8e37404e02","system_id":"levelo_inurba_marseille","lat":43.29577,"lon":5.37526,"is_reserved":false,"is_disabled":false,"rental_uris":{"android":"levelo://app?vid=577ed3a5-bcfd-4768-87ac-de8e37404e02","ios":"levelo://app?vid=577ed3a5-bcfd-4768-87ac-de8e37404e02"},"vehicle_type_id":"4","last_reported":1729332481,"current_range_meters":35600,"station_id":"ce4bgh92rcd13ifvqb50","pricing_plan_id":"cebpf4jnsgd1na2vs0mg"},{"bike_id":"09d74d5d-6dbb-446f-a3ab-2003f869b95f","system_id":"levelo_inurba_marseille","lat":43.29533,"lon":5.37506,"is_reserved":false,"is_disabled":false,"rental_uris":{"android":"levelo://app?vid=09d74d5d-6dbb-446f-a3ab-2003f869b95f","ios":"levelo://app?vid=09d74d5d-6dbb-446f-a3ab-2003f869b95f"},"vehicle_type_id":"4","last_reported":1729332481,"current_range_meters":38800,"station_id":"ce4bgkp2rcd13ifvqbmg","pricing_plan_id":"cebpf4jnsgd1na2vs0mg"},{"bike_id":"e8da62c6-bbec-48e4-86d2-9e1bf2d17e6b","system_id":"levelo_inurba_marseille","lat":43.32488,"lon":5.36566,"is_reserved":false,"is_disabled":false,"rental_uris":{"android":"levelo://app?vid=e8da62c6-bbec-48e4-86d2-9e1bf2d17e6b","ios":"levelo://app?vid=e8da62c6-bbec-48e4-86d2-9e1bf2d17e6b"},"vehicle_type_id":"4","last_reported":1729332481,"current_range_meters":38800,"station_id":"ce4bhs12rcd13ifvqhvg","pricing_plan_id":"cebpf4jnsgd1na2vs0mg"},{"bike_id":"8e65aeb0-4132-4682-8af8-d8cd648c9e87","system_id":"levelo_inurba_marseille","lat":43.29018,"lon":5.38133,"is_reserved":false,"is_disabled":false,"rental_uris":{"android":"levelo://app?vid=8e65aeb0-4132-4682-8af8-d8cd648c9e87","ios":"levelo://app?vid=8e65aeb0-4132-4682-8af8-d8cd648c9e87"},"vehicle_type_id":"4","last_reported":1729332481,"current_range_meters":30400,"station_id":"ce4bh4p2rcd13ifvqe1g","pricing_plan_id":"cebpf4jnsgd1na2vs0mg"},{"bike_id":"006bbfd0-294d-4716-b026-030ad88cf679","system_id":"levelo_inurba_marseille","lat":43.24392,"lon":5.37056,"is_reserved":false,"is_disabled":false,"rental_uris":{"android":"levelo://app?vid=006bbfd0-294d-4716-b026-030ad88cf679","ios":"levelo://app?vid=006bbfd0-294d-4716-b026-030ad88cf679"},"vehicle_type_id":"4","last_reported":1729332481,"current_range_meters":38800,"station_id":"ce4bhhh2rcd13ifvqfk0","pricing_plan_id":"cebpf4jnsgd1na2vs0mg"},{"bike_id":"f7616f24-54df-4cda-a694-13e9c5d0779d","system_id":"levelo_inurba_marseille","lat":43.27816,"lon":5.40705,"is_reserved":false,"is_disabled":false,"rental_uris":{"android":"levelo://app?vid=f7616f24-54df-4cda-a694-13e9c5d0779d","ios":"levelo://app?vid=f7616f24-54df-4cda-a694-13e9c5d0779d"},"vehicle_type_id":"4","last_reported":1729332481,"current_range_meters":30400,"station_id":"ce4bhnh2rcd13ifvqgtg","pricing_plan_id":"cebpf4jnsgd1na2vs0mg"},{"bike_id":"391aa353-458d-4e75-8507-2ba83bbde987","system_id":"levelo_inurba_marseille","lat":43.281097,"lon":5.351675,"is_reserved":false,"is_disabled":false,"rental_uris":{"android":"levelo://app?vid=391aa353-458d-4e75-8507-2ba83bbde987","ios":"levelo://app?vid=391aa353-458d-4e75-8507-2ba83bbde987"},"vehicle_type_id":"4","last_reported":1729332481,"current_range_meters":12000,"station_id":"","pricing_plan_id":"cebpf4jnsgd1na2vs0mg"},{"bike_id":"7b5164b4-90cc-41bc-a797-681402c746de","system_id":"levelo_inurba_marseille","lat":43.25001,"lon":5.38929,"is_reserved":false,"is_disabled":false,"rental_uris":{"android":"levelo://app?vid=7b5164b4-90cc-41bc-a797-681402c746de","ios":"levelo://app?vid=7b5164b4-90cc-41bc-a797-681402c746de"},"vehicle_type_id":"4","last_reported":1729332481,"current_range_meters":25200,"station_id":"ce4bhgp2rcd13ifvqfd0","pricing_plan_id":"cebpf4jnsgd1na2vs0mg"},{"bike_id":"c48c9a77-a943-4451-9842-b0edec356aec","system_id":"levelo_inurba_marseille","lat":43.28264,"lon":5.35062,"is_reserved":false,"is_disabled":false,"rental_uris":{"android":"levelo://app?vid=c48c9a77-a943-4451-9842-b0edec356aec","ios":"levelo://app?vid=c48c9a77-a943-4451-9842-b0edec356aec"},"vehicle_type_id":"4","last_reported":1729332481,"current_range_meters":28800,"station_id":"ce4bhbp2rcd13ifvqerg","pricing_plan_id":"cebpf4jnsgd1na2vs0mg"},{"bike_id":"d77de414-ca1a-409e-b7a6-47916177fca8","system_id":"levelo_inurba_marseille","lat":43.25002,"lon":5.38942,"is_reserved":false,"is_disabled":false,"rental_uris":{"android":"levelo://app?vid=d77de414-ca1a-409e-b7a6-47916177fca8","ios":"levelo://app?vid=d77de414-ca1a-409e-b7a6-47916177fca8"},"vehicle_type_id":"4","last_reported":1729332481,"current_range_meters":28400,"station_id":"ce4bhgp2rcd13ifvqfd0","pricing_plan_id":"cebpf4jnsgd1na2vs0mg"},{"bike_id":"f8809c58-3ad1-4b0c-9c20-0a3149b1e7f7","system_id":"levelo_inurba_marseille","lat":43.29034,"lon":5.37561,"is_reserved":false,"is_disabled":false,"rental_uris":{"android":"levelo://app?vid=f8809c58-3ad1-4b0c-9c20-0a3149b1e7f7","ios":"levelo://app?vid=f8809c58-3ad1-4b0c-9c20-0a3149b1e7f7"},"vehicle_type_id":"4","last_reported":1729332481,"current_range_meters":28000,"station_id":"ce4bh692rcd13ifvqe90","pricing_plan_id":"cebpf4jnsgd1na2vs0mg"},{"bike_id":"1c9f3269-ed93-460c-8d9d-8c51506c39cc","system_id":"levelo_inurba_marseille","lat":43.29525,"lon":5.37498,"is_reserved":false,"is_disabled":false,"rental_uris":{"android":"levelo://app?vid=1c9f3269-ed93-460c-8d9d-8c51506c39cc","ios":"levelo://app?vid=1c9f3269-ed93-460c-8d9d-8c51506c39cc"},"vehicle_type_id":"4","last_reported":1729332481,"current_range_meters":22400,"station_id":"ce4bgkp2rcd13ifvqbmg","pricing_plan_id":"cebpf4jnsgd1na2vs0mg"},{"bike_id":"2412ce02-0718-495f-95da-2f808362950f","system_id":"levelo_inurba_marseille","lat":43.29596,"lon":5.38109,"is_reserved":false,"is_disabled":false,"rental_uris":{"android":"levelo://app?vid=2412ce02-0718-495f-95da-2f808362950f","ios":"levelo://app?vid=2412ce02-0718-495f-95da-2f808362950f"},"vehicle_type_id":"4","last_reported":1729332481,"current_range_meters":29600,"station_id":"ce4bgl12rcd13ifvqbo0","pricing_plan_id":"cebpf4jnsgd1na2vs0mg"},{"bike_id":"5b033739-1b95-49da-9b8d-294c3cabbf99","system_id":"levelo_inurba_marseille","lat":43.24182,"lon":5.39723,"is_reserved":false,"is_disabled":false,"rental_uris":{"android":"levelo://app?vid=5b033739-1b95-49da-9b8d-294c3cabbf99","ios":"levelo://app?vid=5b033739-1b95-49da-9b8d-294c3cabbf99"},"vehicle_type_id":"4","last_reported":1729332481,"current_range_meters":27600,"station_id":"ce4bhn12rcd13ifvqgpg","pricing_plan_id":"cebpf4jnsgd1na2vs0mg"},{"bike_id":"1254465f-5492-48fe-89a6-9d12295bc232","system_id":"levelo_inurba_marseille","lat":43.26794,"lon":5.39416,"is_reserved":false,"is_disabled":false,"rental_uris":{"android":"levelo://app?vid=1254465f-5492-48fe-89a6-9d12295bc232","ios":"levelo://app?vid=1254465f-5492-48fe-89a6-9d12295bc232"},"vehicle_type_id":"4","last_reported":1729332481,"current_range_meters":20800,"station_id":"ce4bhh12rcd13ifvqfg0","pricing_plan_id":"cebpf4jnsgd1na2vs0mg"},{"bike_id":"0bb15153-34d9-40b6-99f1-a98046868726","system_id":"levelo_inurba_marseille","lat":43.3095,"lon":5.39042,"is_reserved":false,"is_disabled":false,"rental_uris":{"android":"levelo://app?vid=0bb15153-34d9-40b6-99f1-a98046868726","ios":"levelo://app?vid=0bb15153-34d9-40b6-99f1-a98046868726"},"vehicle_type_id":"4","last_reported":1729332481,"current_range_meters":36800,"station_id":"ce4bgup2rcd13ifvqco0","pricing_plan_id":"cebpf4jnsgd1na2vs0mg"},{"bike_id":"ecf5cd40-9aad-4b30-9849-ba305daf63ca","system_id":"levelo_inurba_marseille","lat":43.31698,"lon":5.40469,"is_reserved":false,"is_disabled":false,"rental_uris":{"android":"levelo://app?vid=ecf5cd40-9aad-4b30-9849-ba305daf63ca","ios":"levelo://app?vid=ecf5cd40-9aad-4b30-9849-ba305daf63ca"},"vehicle_type_id":"4","last_reported":1729332481,"current_range_meters":24800,"station_id":"ce4bh012rcd13ifvqd00","pricing_plan_id":"cebpf4jnsgd1na2vs0mg"},{"bike_id":"e7fe7f82-9a57-4234-aee4-eabab6496342","system_id":"levelo_inurba_marseille","lat":43.29623,"lon":5.37156,"is_reserved":false,"is_disabled":false,"rental_uris":{"android":"levelo://app?vid=e7fe7f82-9a57-4234-aee4-eabab6496342","ios":"levelo://app?vid=e7fe7f82-9a57-4234-aee4-eabab6496342"},"vehicle_type_id":"4","last_reported":1729332481,"current_range_meters":34800,"station_id":"ce4bgnh2rcd13ifvqc0g","pricing_plan_id":"cebpf4jnsgd1na2vs0mg"},{"bike_id":"dca5f274-77c3-4120-bdca-cce586a42763","system_id":"levelo_inurba_marseille","lat":43.26498,"lon":5.39547,"is_reserved":false,"is_disabled":false,"rental_uris":{"android":"levelo://app?vid=dca5f274-77c3-4120-bdca-cce586a42763","ios":"levelo://app?vid=dca5f274-77c3-4120-bdca-cce586a42763"},"vehicle_type_id":"4","last_reported":1729332481,"current_range_meters":26000,"station_id":"ce4bhi12rcd13ifvqfq0","pricing_plan_id":"cebpf4jnsgd1na2vs0mg"},{"bike_id":"7abc3b58-848d-4f45-932b-3db4764b7378","system_id":"levelo_inurba_marseille","lat":43.24078,"lon":5.3776,"is_reserved":false,"is_disabled":false,"rental_uris":{"android":"levelo://app?vid=7abc3b58-848d-4f45-932b-3db4764b7378","ios":"levelo://app?vid=7abc3b58-848d-4f45-932b-3db4764b7378"},"vehicle_type_id":"4","last_reported":1729332481,"current_range_meters":36400,"station_id":"ce4bhnp2rcd13ifvqgvg","pricing_plan_id":"cebpf4jnsgd1na2vs0mg"},{"bike_id":"f8550026-9d66-40c7-9cd0-f63b41bf941a","system_id":"levelo_inurba_marseille","lat":43.30354,"lon":5.4188,"is_reserved":false,"is_disabled":false,"rental_uris":{"android":"levelo://app?vid=f8550026-9d66-40c7-9cd0-f63b41bf941a","ios":"levelo://app?vid=f8550026-9d66-40c7-9cd0-f63b41bf941a"},"vehicle_type_id":"4","last_reported":1729332481,"current_range_meters":38800,"station_id":"ce4bhop2rcd13ifvqh7g","pricing_plan_id":"cebpf4jnsgd1na2vs0mg"},{"bike_id":"2efb1272-3ee9-4aef-890e-f081f26e6e75","system_id":"levelo_inurba_marseille","lat":43.24176,"lon":5.39732,"is_reserved":false,"is_disabled":false,"rental_uris":{"android":"levelo://app?vid=2efb1272-3ee9-4aef-890e-f081f26e6e75","ios":"levelo://app?vid=2efb1272-3ee9-4aef-890e-f081f26e6e75"},"vehicle_type_id":"4","last_reported":1729332481,"current_range_meters":8000,"station_id":"ce4bhn12rcd13ifvqgpg","pricing_plan_id":"cebpf4jnsgd1na2vs0mg"},{"bike_id":"be2bbaa1-f672-4dc8-a1c0-85466066b76d","system_id":"levelo_inurba_marseille","lat":43.232,"lon":5.35547,"is_reserved":false,"is_disabled":false,"rental_uris":{"android":"levelo://app?vid=be2bbaa1-f672-4dc8-a1c0-85466066b76d","ios":"levelo://app?vid=be2bbaa1-f672-4dc8-a1c0-85466066b76d"},"vehicle_type_id":"4","last_reported":1729332481,"current_range_meters":24400,"station_id":"ce4bhu92rcd13ifvqi70","pricing_plan_id":"cebpf4jnsgd1na2vs0mg"},{"bike_id":"a4b68d83-e5a3-486e-a921-b7a81ceaf128","system_id":"levelo_inurba_marseille","lat":43.25498,"lon":5.37648,"is_reserved":false,"is_disabled":false,"rental_uris":{"android":"levelo://app?vid=a4b68d83-e5a3-486e-a921-b7a81ceaf128","ios":"levelo://app?vid=a4b68d83-e5a3-486e-a921-b7a81ceaf128"},"vehicle_type_id":"4","last_reported":1729332481,"current_range_meters":10000,"station_id":"ce4bhh12rcd13ifvqff0","pricing_plan_id":"cebpf4jnsgd1na2vs0mg"},{"bike_id":"5715e832-098d-4c62-8619-ea0204aa01d5","system_id":"levelo_inurba_marseille","lat":43.27067,"lon":5.42272,"is_reserved":false,"is_disabled":false,"rental_uris":{"android":"levelo://app?vid=5715e832-098d-4c62-8619-ea0204aa01d5","ios":"levelo://app?vid=5715e832-098d-4c62-8619-ea0204aa01d5"},"vehicle_type_id":"4","last_reported":1729332481,"current_range_meters":30800,"station_id":"ce4bhk92rcd13ifvqgb0","pricing_plan_id":"cebpf4jnsgd1na2vs0mg"},{"bike_id":"a78c5731-b792-4768-be22-a588189b5ef4","system_id":"levelo_inurba_marseille","lat":43.29786,"lon":5.39034,"is_reserved":false,"is_disabled":false,"rental_uris":{"android":"levelo://app?vid=a78c5731-b792-4768-be22-a588189b5ef4","ios":"levelo://app?vid=a78c5731-b792-4768-be22-a588189b5ef4"},"vehicle_type_id":"4","last_reported":1729332481,"current_range_meters":38400,"station_id":"","pricing_plan_id":"cebpf4jnsgd1na2vs0mg"},{"bike_id":"ce8c79e1-1698-4744-a43c-b1bc579c1131","system_id":"levelo_inurba_marseille","lat":43.30527,"lon":5.36713,"is_reserved":false,"is_disabled":false,"rental_uris":{"android":"levelo://app?vid=ce8c79e1-1698-4744-a43c-b1bc579c1131","ios":"levelo://app?vid=ce8c79e1-1698-4744-a43c-b1bc579c1131"},"vehicle_type_id":"4","last_reported":1729332481,"current_range_meters":24400,"station_id":"ce4bgrp2rcd13ifvqc9g","pricing_plan_id":"cebpf4jnsgd1na2vs0mg"},{"bike_id":"1ba3c57d-fe8a-4cbb-b7ac-5af8e752d070","system_id":"levelo_inurba_marseille","lat":43.29845,"lon":5.36265,"is_reserved":false,"is_disabled":false,"rental_uris":{"android":"levelo://app?vid=1ba3c57d-fe8a-4cbb-b7ac-5af8e752d070","ios":"levelo://app?vid=1ba3c57d-fe8a-4cbb-b7ac-5af8e752d070"},"vehicle_type_id":"4","last_reported":1729332481,"current_range_meters":39200,"station_id":"ce4bgpp2rcd13ifvqc3g","pricing_plan_id":"cebpf4jnsgd1na2vs0mg"},{"bike_id":"29316421-3180-4429-9120-b437860055d0","system_id":"levelo_inurba_marseille","lat":43.29226,"lon":5.36054,"is_reserved":false,"is_disabled":false,"rental_uris":{"android":"levelo://app?vid=29316421-3180-4429-9120-b437860055d0","ios":"levelo://app?vid=29316421-3180-4429-9120-b437860055d0"},"vehicle_type_id":"4","last_reported":1729332481,"current_range_meters":28000,"station_id":"ce4bhbh2rcd13ifvqeqg","pricing_plan_id":"cebpf4jnsgd1na2vs0mg"},{"bike_id":"e6ac18ed-e096-4c59-ae38-01aefc336d04","system_id":"levelo_inurba_marseille","lat":43.337444,"lon":5.374475,"is_reserved":false,"is_disabled":false,"rental_uris":{"android":"levelo://app?vid=e6ac18ed-e096-4c59-ae38-01aefc336d04","ios":"levelo://app?vid=e6ac18ed-e096-4c59-ae38-01aefc336d04"},"vehicle_type_id":"4","last_reported":1729332481,"current_range_meters":39200,"station_id":"ce4bh192rcd13ifvqdc0","pricing_plan_id":"cebpf4jnsgd1na2vs0mg"},{"bike_id":"2a26af76-fa8e-494a-997a-9fe804af4059","system_id":"levelo_inurba_marseille","lat":43.27953,"lon":5.39943,"is_reserved":false,"is_disabled":false,"rental_uris":{"android":"levelo://app?vid=2a26af76-fa8e-494a-997a-9fe804af4059","ios":"levelo://app?vid=2a26af76-fa8e-494a-997a-9fe804af4059"},"vehicle_type_id":"4","last_reported":1729332481,"current_range_meters":30800,"station_id":"","pricing_plan_id":"cebpf4jnsgd1na2vs0mg"},{"bike_id":"ebd8adb1-c390-4f80-b071-5f65ee131c04","system_id":"levelo_inurba_marseille","lat":43.24868,"lon":5.38202,"is_reserved":false,"is_disabled":false,"rental_uris":{"android":"levelo://app?vid=ebd8adb1-c390-4f80-b071-5f65ee131c04","ios":"levelo://app?vid=ebd8adb1-c390-4f80-b071-5f65ee131c04"},"vehicle_type_id":"4","last_reported":1729332481,"current_range_meters":28000,"station_id":"","pricing_plan_id":"cebpf4jnsgd1na2vs0mg"},{"bike_id":"a7f37877-e87d-4bf4-934e-1246d043031f","system_id":"levelo_inurba_marseille","lat":43.29271,"lon":5.36852,"is_reserved":false,"is_disabled":false,"rental_uris":{"android":"levelo://app?vid=a7f37877-e87d-4bf4-934e-1246d043031f","ios":"levelo://app?vid=a7f37877-e87d-4bf4-934e-1246d043031f"},"vehicle_type_id":"4","last_reported":1729332481,"current_range_meters":36400,"station_id":"ce4bhbp2rcd13ifvqesg","pricing_plan_id":"cebpf4jnsgd1na2vs0mg"},{"bike_id":"b1f50b20-5a0f-490a-a5c4-ed6f37fb2cd6","system_id":"levelo_inurba_marseille","lat":43.28947,"lon":5.381745,"is_reserved":false,"is_disabled":false,"rental_uris":{"android":"levelo://app?vid=b1f50b20-5a0f-490a-a5c4-ed6f37fb2cd6","ios":"levelo://app?vid=b1f50b20-5a0f-490a-a5c4-ed6f37fb2cd6"},"vehicle_type_id":"4","last_reported":1729332481,"current_range_meters":28400,"station_id":"ce4bh4p2rcd13ifvqe1g","pricing_plan_id":"cebpf4jnsgd1na2vs0mg"},{"bike_id":"d1828a1a-0da8-4255-b5b6-b9fe7cb344b1","system_id":"levelo_inurba_marseille","lat":43.30148,"lon":5.3808,"is_reserved":false,"is_disabled":false,"rental_uris":{"android":"levelo://app?vid=d1828a1a-0da8-4255-b5b6-b9fe7cb344b1","ios":"levelo://app?vid=d1828a1a-0da8-4255-b5b6-b9fe7cb344b1"},"vehicle_type_id":"4","last_reported":1729332481,"current_range_meters":35200,"station_id":"ce4bgjp2rcd13ifvqbh0","pricing_plan_id":"cebpf4jnsgd1na2vs0mg"},{"bike_id":"3664398f-378f-46f2-bd12-30042ad8db9d","system_id":"levelo_inurba_marseille","lat":43.23188,"lon":5.39977,"is_reserved":false,"is_disabled":false,"rental_uris":{"android":"levelo://app?vid=3664398f-378f-46f2-bd12-30042ad8db9d","ios":"levelo://app?vid=3664398f-378f-46f2-bd12-30042ad8db9d"},"vehicle_type_id":"4","last_reported":1729332481,"current_range_meters":25600,"station_id":"ce4bhn12rcd13ifvqgqg","pricing_plan_id":"cebpf4jnsgd1na2vs0mg"},{"bike_id":"a9d80141-cb04-4f88-bcc5-9763572e3517","system_id":"levelo_inurba_marseille","lat":43.232,"lon":5.35546,"is_reserved":false,"is_disabled":false,"rental_uris":{"android":"levelo://app?vid=a9d80141-cb04-4f88-bcc5-9763572e3517","ios":"levelo://app?vid=a9d80141-cb04-4f88-bcc5-9763572e3517"},"vehicle_type_id":"4","last_reported":1729332481,"current_range_meters":24800,"station_id":"ce4bhu92rcd13ifvqi70","pricing_plan_id":"cebpf4jnsgd1na2vs0mg"},{"bike_id":"6bb6eaea-6464-4250-8b65-6f9c52c53a3f","system_id":"levelo_inurba_marseille","lat":43.31728,"lon":5.42395,"is_reserved":false,"is_disabled":false,"rental_uris":{"android":"levelo://app?vid=6bb6eaea-6464-4250-8b65-6f9c52c53a3f","ios":"levelo://app?vid=6bb6eaea-6464-4250-8b65-6f9c52c53a3f"},"vehicle_type_id":"4","last_reported":1729332481,"current_range_meters":38000,"station_id":"ce4bhp92rcd13ifvqhbg","pricing_plan_id":"cebpf4jnsgd1na2vs0mg"},{"bike_id":"b5ad45d5-78db-4f76-811c-57f1f509f0e6","system_id":"levelo_inurba_marseille","lat":43.27921,"lon":5.39579,"is_reserved":false,"is_disabled":false,"rental_uris":{"android":"levelo://app?vid=b5ad45d5-78db-4f76-811c-57f1f509f0e6","ios":"levelo://app?vid=b5ad45d5-78db-4f76-811c-57f1f509f0e6"},"vehicle_type_id":"4","last_reported":1729332481,"current_range_meters":10000,"station_id":"ce4bhf92rcd13ifvqf40","pricing_plan_id":"cebpf4jnsgd1na2vs0mg"},{"bike_id":"a8451dbf-f57b-4f0a-960d-26d91c79422c","system_id":"levelo_inurba_marseille","lat":43.3176,"lon":5.39016,"is_reserved":false,"is_disabled":false,"rental_uris":{"android":"levelo://app?vid=a8451dbf-f57b-4f0a-960d-26d91c79422c","ios":"levelo://app?vid=a8451dbf-f57b-4f0a-960d-26d91c79422c"},"vehicle_type_id":"4","last_reported":1729332481,"current_range_meters":32400,"station_id":"ce4bhqp2rcd13ifvqhng","pricing_plan_id":"cebpf4jnsgd1na2vs0mg"},{"bike_id":"c9bf36b3-0190-480f-9d47-ca55ed1ea5cb","system_id":"levelo_inurba_marseille","lat":43.32142,"lon":5.3701,"is_reserved":false,"is_disabled":false,"rental_uris":{"android":"levelo://app?vid=c9bf36b3-0190-480f-9d47-ca55ed1ea5cb","ios":"levelo://app?vid=c9bf36b3-0190-480f-9d47-ca55ed1ea5cb"},"vehicle_type_id":"4","last_reported":1729332481,"current_range_meters":24400,"station_id":"","pricing_plan_id":"cebpf4jnsgd1na2vs0mg"},{"bike_id":"f42fb90b-648e-46a4-99ac-3f229bf6801a","system_id":"levelo_inurba_marseille","lat":43.25111,"lon":5.40326,"is_reserved":false,"is_disabled":false,"rental_uris":{"android":"levelo://app?vid=f42fb90b-648e-46a4-99ac-3f229bf6801a","ios":"levelo://app?vid=f42fb90b-648e-46a4-99ac-3f229bf6801a"},"vehicle_type_id":"4","last_reported":1729332481,"current_range_meters":28800,"station_id":"ce4bhlh2rcd13ifvqgig","pricing_plan_id":"cebpf4jnsgd1na2vs0mg"},{"bike_id":"7077cfe1-99d7-40fb-8023-64600da656cb","system_id":"levelo_inurba_marseille","lat":43.27071,"lon":5.42277,"is_reserved":false,"is_disabled":false,"rental_uris":{"android":"levelo://app?vid=7077cfe1-99d7-40fb-8023-64600da656cb","ios":"levelo://app?vid=7077cfe1-99d7-40fb-8023-64600da656cb"},"vehicle_type_id":"4","last_reported":1729332481,"current_range_meters":23200,"station_id":"ce4bhk92rcd13ifvqgb0","pricing_plan_id":"cebpf4jnsgd1na2vs0mg"},{"bike_id":"67f3a430-a435-476c-9f14-03933430901e","system_id":"levelo_inurba_marseille","lat":43.23068,"lon":5.35485,"is_reserved":false,"is_disabled":false,"rental_uris":{"android":"levelo://app?vid=67f3a430-a435-476c-9f14-03933430901e","ios":"levelo://app?vid=67f3a430-a435-476c-9f14-03933430901e"},"vehicle_type_id":"4","last_reported":1729332481,"current_range_meters":30800,"station_id":"cpo3342slgdg3j2ifvpg","pricing_plan_id":"cebpf4jnsgd1na2vs0mg"},{"bike_id":"2c72b7eb-44b3-4a6e-95ea-ae9faedd4470","system_id":"levelo_inurba_marseille","lat":43.28266,"lon":5.35061,"is_reserved":false,"is_disabled":false,"rental_uris":{"android":"levelo://app?vid=2c72b7eb-44b3-4a6e-95ea-ae9faedd4470","ios":"levelo://app?vid=2c72b7eb-44b3-4a6e-95ea-ae9faedd4470"},"vehicle_type_id":"4","last_reported":1729332481,"current_range_meters":29600,"station_id":"ce4bhbp2rcd13ifvqerg","pricing_plan_id":"cebpf4jnsgd1na2vs0mg"},{"bike_id":"2099320c-6ef0-4a30-bfc8-947809ce04a0","system_id":"levelo_inurba_marseille","lat":43.25866,"lon":5.39899,"is_reserved":false,"is_disabled":false,"rental_uris":{"android":"levelo://app?vid=2099320c-6ef0-4a30-bfc8-947809ce04a0","ios":"levelo://app?vid=2099320c-6ef0-4a30-bfc8-947809ce04a0"},"vehicle_type_id":"4","last_reported":1729332481,"current_range_meters":17200,"station_id":"ce4bhl92rcd13ifvqghg","pricing_plan_id":"cebpf4jnsgd1na2vs0mg"},{"bike_id":"6a9375b0-6171-4532-820e-869e5ebca26f","system_id":"levelo_inurba_marseille","lat":43.29593,"lon":5.381,"is_reserved":false,"is_disabled":false,"rental_uris":{"android":"levelo://app?vid=6a9375b0-6171-4532-820e-869e5ebca26f","ios":"levelo://app?vid=6a9375b0-6171-4532-820e-869e5ebca26f"},"vehicle_type_id":"4","last_reported":1729332481,"current_range_meters":28000,"station_id":"ce4bgl12rcd13ifvqbo0","pricing_plan_id":"cebpf4jnsgd1na2vs0mg"},{"bike_id":"5ca4b858-620c-432d-a47c-f9baca0eb526","system_id":"levelo_inurba_marseille","lat":43.31082,"lon":5.4243,"is_reserved":false,"is_disabled":false,"rental_uris":{"android":"levelo://app?vid=5ca4b858-620c-432d-a47c-f9baca0eb526","ios":"levelo://app?vid=5ca4b858-620c-432d-a47c-f9baca0eb526"},"vehicle_type_id":"4","last_reported":1729332481,"current_range_meters":37600,"station_id":"ce4bhp92rcd13ifvqhag","pricing_plan_id":"cebpf4jnsgd1na2vs0mg"},{"bike_id":"c09cfd1e-488b-4509-8996-0fd803fd9b52","system_id":"levelo_inurba_marseille","lat":43.26559,"lon":5.37289,"is_reserved":false,"is_disabled":false,"rental_uris":{"android":"levelo://app?vid=c09cfd1e-488b-4509-8996-0fd803fd9b52","ios":"levelo://app?vid=c09cfd1e-488b-4509-8996-0fd803fd9b52"},"vehicle_type_id":"4","last_reported":1729332481,"current_range_meters":27200,"station_id":"ce4bhg12rcd13ifvqf70","pricing_plan_id":"cebpf4jnsgd1na2vs0mg"},{"bike_id":"ae939472-dca4-489b-9a99-70c949adc489","system_id":"levelo_inurba_marseille","lat":43.29611,"lon":5.37129,"is_reserved":false,"is_disabled":false,"rental_uris":{"android":"levelo://app?vid=ae939472-dca4-489b-9a99-70c949adc489","ios":"levelo://app?vid=ae939472-dca4-489b-9a99-70c949adc489"},"vehicle_type_id":"4","last_reported":1729332481,"current_range_meters":36000,"station_id":"ce4bgnh2rcd13ifvqc0g","pricing_plan_id":"cebpf4jnsgd1na2vs0mg"},{"bike_id":"36151fba-4a6c-4d43-94e5-72101e0332d6","system_id":"levelo_inurba_marseille","lat":43.33023,"lon":5.3904,"is_reserved":false,"is_disabled":false,"rental_uris":{"android":"levelo://app?vid=36151fba-4a6c-4d43-94e5-72101e0332d6","ios":"levelo://app?vid=36151fba-4a6c-4d43-94e5-72101e0332d6"},"vehicle_type_id":"4","last_reported":1729332481,"current_range_meters":27200,"station_id":"ce4bhr92rcd13ifvqhrg","pricing_plan_id":"cebpf4jnsgd1na2vs0mg"},{"bike_id":"805c0034-77b8-44a1-8401-681a2f6bc39c","system_id":"levelo_inurba_marseille","lat":43.29986,"lon":5.38489,"is_reserved":false,"is_disabled":false,"rental_uris":{"android":"levelo://app?vid=805c0034-77b8-44a1-8401-681a2f6bc39c","ios":"levelo://app?vid=805c0034-77b8-44a1-8401-681a2f6bc39c"},"vehicle_type_id":"4","last_reported":1729332481,"current_range_meters":37600,"station_id":"ce4bgj92rcd13ifvqbd0","pricing_plan_id":"cebpf4jnsgd1na2vs0mg"},{"bike_id":"90621aa1-67b3-4c04-92dc-91290ad232c6","system_id":"levelo_inurba_marseille","lat":43.32044,"lon":5.41545,"is_reserved":false,"is_disabled":false,"rental_uris":{"android":"levelo://app?vid=90621aa1-67b3-4c04-92dc-91290ad232c6","ios":"levelo://app?vid=90621aa1-67b3-4c04-92dc-91290ad232c6"},"vehicle_type_id":"4","last_reported":1729332481,"current_range_meters":20000,"station_id":"ce4bhq92rcd13ifvqhkg","pricing_plan_id":"cebpf4jnsgd1na2vs0mg"},{"bike_id":"add5ab3a-7da0-4a4d-8266-721200f18eb7","system_id":"levelo_inurba_marseille","lat":43.29913,"lon":5.37487,"is_reserved":false,"is_disabled":false,"rental_uris":{"android":"levelo://app?vid=add5ab3a-7da0-4a4d-8266-721200f18eb7","ios":"levelo://app?vid=add5ab3a-7da0-4a4d-8266-721200f18eb7"},"vehicle_type_id":"4","last_reported":1729332481,"current_range_meters":32400,"station_id":"ce4bgjh2rcd13ifvqbg0","pricing_plan_id":"cebpf4jnsgd1na2vs0mg"},{"bike_id":"f3a96a4d-bc6d-460f-a415-db98973047b8","system_id":"levelo_inurba_marseille","lat":43.29899,"lon":5.43656,"is_reserved":false,"is_disabled":false,"rental_uris":{"android":"levelo://app?vid=f3a96a4d-bc6d-460f-a415-db98973047b8","ios":"levelo://app?vid=f3a96a4d-bc6d-460f-a415-db98973047b8"},"vehicle_type_id":"4","last_reported":1729332481,"current_range_meters":32800,"station_id":"ce4bhpp2rcd13ifvqhfg","pricing_plan_id":"cebpf4jnsgd1na2vs0mg"},{"bike_id":"9fe8db15-0111-408d-8e77-5936a9d06147","system_id":"levelo_inurba_marseille","lat":43.23966,"lon":5.36629,"is_reserved":false,"is_disabled":false,"rental_uris":{"android":"levelo://app?vid=9fe8db15-0111-408d-8e77-5936a9d06147","ios":"levelo://app?vid=9fe8db15-0111-408d-8e77-5936a9d06147"},"vehicle_type_id":"4","last_reported":1729332481,"current_range_meters":38800,"station_id":"ce4bhi12rcd13ifvqfp0","pricing_plan_id":"cebpf4jnsgd1na2vs0mg"},{"bike_id":"3daa00e9-7aab-475d-99e3-0709488ba18f","system_id":"levelo_inurba_marseille","lat":43.29042,"lon":5.37569,"is_reserved":false,"is_disabled":false,"rental_uris":{"android":"levelo://app?vid=3daa00e9-7aab-475d-99e3-0709488ba18f","ios":"levelo://app?vid=3daa00e9-7aab-475d-99e3-0709488ba18f"},"vehicle_type_id":"4","last_reported":1729332481,"current_range_meters":38800,"station_id":"ce4bh692rcd13ifvqe90","pricing_plan_id":"cebpf4jnsgd1na2vs0mg"},{"bike_id":"3788391c-4708-4b31-8e6c-68fe2c2288ac","system_id":"levelo_inurba_marseille","lat":43.29631,"lon":5.37154,"is_reserved":false,"is_disabled":false,"rental_uris":{"android":"levelo://app?vid=3788391c-4708-4b31-8e6c-68fe2c2288ac","ios":"levelo://app?vid=3788391c-4708-4b31-8e6c-68fe2c2288ac"},"vehicle_type_id":"4","last_reported":1729332481,"current_range_meters":38800,"station_id":"ce4bgnh2rcd13ifvqc0g","pricing_plan_id":"cebpf4jnsgd1na2vs0mg"},{"bike_id":"602eba83-e98b-4daf-8507-a38b4f9a588e","system_id":"levelo_inurba_marseille","lat":43.32479,"lon":5.36562,"is_reserved":false,"is_disabled":false,"rental_uris":{"android":"levelo://app?vid=602eba83-e98b-4daf-8507-a38b4f9a588e","ios":"levelo://app?vid=602eba83-e98b-4daf-8507-a38b4f9a588e"},"vehicle_type_id":"4","last_reported":1729332481,"current_range_meters":10000,"station_id":"ce4bhs12rcd13ifvqhvg","pricing_plan_id":"cebpf4jnsgd1na2vs0mg"},{"bike_id":"a417ea90-2677-4128-ad80-9d6526661d0d","system_id":"levelo_inurba_marseille","lat":43.23961,"lon":5.36619,"is_reserved":false,"is_disabled":false,"rental_uris":{"android":"levelo://app?vid=a417ea90-2677-4128-ad80-9d6526661d0d","ios":"levelo://app?vid=a417ea90-2677-4128-ad80-9d6526661d0d"},"vehicle_type_id":"4","last_reported":1729332481,"current_range_meters":16400,"station_id":"ce4bhi12rcd13ifvqfp0","pricing_plan_id":"cebpf4jnsgd1na2vs0mg"},{"bike_id":"117ee8b3-b5e2-4e87-a5f7-420c68bf7509","system_id":"levelo_inurba_marseille","lat":43.25862,"lon":5.39909,"is_reserved":false,"is_disabled":false,"rental_uris":{"android":"levelo://app?vid=117ee8b3-b5e2-4e87-a5f7-420c68bf7509","ios":"levelo://app?vid=117ee8b3-b5e2-4e87-a5f7-420c68bf7509"},"vehicle_type_id":"4","last_reported":1729332481,"current_range_meters":36800,"station_id":"ce4bhl92rcd13ifvqghg","pricing_plan_id":"cebpf4jnsgd1na2vs0mg"},{"bike_id":"e65f92a2-a643-4bc5-a721-69b6faf506d1","system_id":"levelo_inurba_marseille","lat":43.26557,"lon":5.37283,"is_reserved":false,"is_disabled":false,"rental_uris":{"android":"levelo://app?vid=e65f92a2-a643-4bc5-a721-69b6faf506d1","ios":"levelo://app?vid=e65f92a2-a643-4bc5-a721-69b6faf506d1"},"vehicle_type_id":"4","last_reported":1729332481,"current_range_meters":3600,"station_id":"ce4bhg12rcd13ifvqf70","pricing_plan_id":"cebpf4jnsgd1na2vs0mg"},{"bike_id":"b655f0e5-9f54-4337-9f8f-e40c329da075","system_id":"levelo_inurba_marseille","lat":43.29321,"lon":5.37511,"is_reserved":false,"is_disabled":false,"rental_uris":{"android":"levelo://app?vid=b655f0e5-9f54-4337-9f8f-e40c329da075","ios":"levelo://app?vid=b655f0e5-9f54-4337-9f8f-e40c329da075"},"vehicle_type_id":"4","last_reported":1729332481,"current_range_meters":8000,"station_id":"ce4bgi12rcd13ifvqb70","pricing_plan_id":"cebpf4jnsgd1na2vs0mg"},{"bike_id":"be61d48b-8997-454b-8d20-b88b92bf4025","system_id":"levelo_inurba_marseille","lat":43.29396,"lon":5.3784,"is_reserved":false,"is_disabled":false,"rental_uris":{"android":"levelo://app?vid=be61d48b-8997-454b-8d20-b88b92bf4025","ios":"levelo://app?vid=be61d48b-8997-454b-8d20-b88b92bf4025"},"vehicle_type_id":"4","last_reported":1729332481,"current_range_meters":16400,"station_id":"ce4bgjh2rcd13ifvqbf0","pricing_plan_id":"cebpf4jnsgd1na2vs0mg"},{"bike_id":"6db9e92e-122a-4ac2-9e42-d13efbfbc538","system_id":"levelo_inurba_marseille","lat":43.29938,"lon":5.36557,"is_reserved":false,"is_disabled":false,"rental_uris":{"android":"levelo://app?vid=6db9e92e-122a-4ac2-9e42-d13efbfbc538","ios":"levelo://app?vid=6db9e92e-122a-4ac2-9e42-d13efbfbc538"},"vehicle_type_id":"4","last_reported":1729332481,"current_range_meters":38800,"station_id":"ce4bgm92rcd13ifvqbr0","pricing_plan_id":"cebpf4jnsgd1na2vs0mg"},{"bike_id":"22b37876-70ac-4ba0-9001-79de88a5c4f9","system_id":"levelo_inurba_marseille","lat":43.33784,"lon":5.3744,"is_reserved":false,"is_disabled":false,"rental_uris":{"android":"levelo://app?vid=22b37876-70ac-4ba0-9001-79de88a5c4f9","ios":"levelo://app?vid=22b37876-70ac-4ba0-9001-79de88a5c4f9"},"vehicle_type_id":"4","last_reported":1729332481,"current_range_meters":20000,"station_id":"","pricing_plan_id":"cebpf4jnsgd1na2vs0mg"},