{"last_updated":1706357427,"ttl":30,"version":"2.2","data":{"bikes":[{"bike_id":"08e01442-05e6-4695-a3f1-4656b1e4a134","system_id":"levelo_inurba_marseille","lat":43.31341,"lon":5.367098,"is_reserved":false,"is_disabled":false,"rental_uris":{"android":"levelo://app?vid=08e01442-05e6-4695-a3f1-4656b1e4a134","ios":"levelo://app?vid=08e01442-05e6-4695-a3f1-4656b1e4a134"},"vehicle_type_id":"4","last_reported":1706357427,"current_range_meters":29600,"station_id":"ce4bgr92rcd13ifvqc6g","pricing_plan_id":"free"},{"bike_id":"7ddb9bc2-5ffb-4e53-8fd8-de4d98e5a289","system_id":"levelo_inurba_marseille","lat":43.312239,"lon":5.368562,"is_reserved":false,"is_disabled":false,"rental_uris":{"android":"levelo://app?vid=7ddb9bc2-5ffb-4e53-8fd8-de4d98e5a289","ios":"levelo://app?vid=7ddb9bc2-5ffb-4e53-8fd8-de4d98e5a289"},"vehicle_type_id":"4","last_reported":1706357427,"current_range_meters":26400,"station_id":"ce4bgl92rcd13ifvqbq0","pricing_plan_id":"free"},{"bike_id":"6c12da30-7c67-4f1b-b91d-c7cf4a5091da","system_id":"levelo_inurba_marseille","lat":43.312233,"lon":5.36861,"is_reserved":false,"is_disabled":false,"rental_uris":{"android":"levelo://app?vid=6c12da30-7c67-4f1b-b91d-c7cf4a5091da","ios":"levelo://app?vid=6c12da30-7c67-4f1b-b91d-c7cf4a5091da"},"vehicle_type_id":"4","last_reported":1706357427,"current_range_meters":22800,"station_id":"ce4bgl92rcd13ifvqbq0","pricing_plan_id":"free"},{"bike_id":"9678f766-2166-4980-8d7f-e3a893061f4e","system_id":"levelo_inurba_marseille","lat":43.312239,"lon":5.368562,"is_reserved":false,"is_disabled":false,"rental_uris":{"android":"levelo://app?vid=9678f766-2166-4980-8d7f-e3a893061f4e","ios":"levelo://app?vid=9678f766-2166-4980-8d7f-e3a893061f4e"},"vehicle_type_id":"4","last_reported":1706357427,"current_range_meters":23200,"station_id":"ce4bgl92rcd13ifvqbq0","pricing_plan_id":"free"},{"bike_id":"9a4907fd-4e85-4d54-91d1-01a347a5a5e0","system_id":"levelo_inurba_marseille","lat":43.312239,"lon":5.368562,"is_reserved":false,"is_disabled":false,"rental_uris":{"android":"levelo://app?vid=9a4907fd-4e85-4d54-91d1-01a347a5a5e0","ios":"levelo://app?vid=9a4907fd-4e85-4d54-91d1-01a347a5a5e0"},"vehicle_type_id":"4","last_reported":1706357427,"current_range_meters":22000,"station_id":"ce4bgl92rcd13ifvqbq0","pricing_plan_id":"free"},{"bike_id":"3a42d3e8-b187-4320-85ef-c3559d665cf2","system_id":"levelo_inurba_marseille","lat":43.309039,"lon":5.371797,"is_reserved":false,"is_disabled":false,"rental_uris":{"android":"levelo://app?vid=3a42d3e8-b187-4320-85ef-c3559d665cf2","ios":"levelo://app?vid=3a42d3e8-b187-4320-85ef-c3559d665cf2"},"vehicle_type_id":"4","last_reported":1706357427,"current_range_meters":6400,"station_id":"ce4bguh2rcd13ifvqckg","pricing_plan_id":"free"},{"bike_id":"a3650cde-f82b-456e-936f-63970dcb1dfd","system_id":"levelo_inurba_marseille","lat":43.309039,"lon":5.371797,"is_reserved":false,"is_disabled":false,"rental_uris":{"android":"levelo://app?vid=a3650cde-f82b-456e-936f-63970dcb1dfd","ios":"levelo://app?vid=a3650cde-f82b-456e-936f-63970dcb1dfd"},"vehicle_type_id":"4","last_reported":1706357427,"current_range_meters":17200,"station_id":"ce4bguh2rcd13ifvqckg","pricing_plan_id":"free"},{"bike_id":"c65aef1f-995d-4b84-b2e3-a186352f51ad","system_id":"levelo_inurba_marseille","lat":43.305368,"lon":5.367343,"is_reserved":false,"is_disabled":false,"rental_uris":{"android":"levelo://app?vid=c65aef1f-995d-4b84-b2e3-a186352f51ad","ios":"levelo://app?vid=c65aef1f-995d-4b84-b2e3-a186352f51ad"},"vehicle_type_id":"4","last_reported":1706357427,"current_range_meters":7200,"station_id":"ce4bgrp2rcd13ifvqc9g","pricing_plan_id":"free"},{"bike_id":"5eac477c-ee51-4147-9efb-94db66733db9","system_id":"levelo_inurba_marseille","lat":43.305415,"lon":5.365518,"is_reserved":false,"is_disabled":false,"rental_uris":{"android":"levelo://app?vid=5eac477c-ee51-4147-9efb-94db66733db9","ios":"levelo://app?vid=5eac477c-ee51-4147-9efb-94db66733db9"},"vehicle_type_id":"4","last_reported":1706357427,"current_range_meters":31200,"station_id":"ce4bgs12rcd13ifvqcag","pricing_plan_id":"free"},{"bike_id":"0695760a-30e3-4fa8-b36a-44930c9979a2","system_id":"levelo_inurba_marseille","lat":43.30541,"lon":5.36548,"is_reserved":false,"is_disabled":false,"rental_uris":{"android":"levelo://app?vid=0695760a-30e3-4fa8-b36a-44930c9979a2","ios":"levelo://app?vid=0695760a-30e3-4fa8-b36a-44930c9979a2"},"vehicle_type_id":"4","last_reported":1706357427,"current_range_meters":24800,"station_id":"ce4bgs12rcd13ifvqcag","pricing_plan_id":"free"},{"bike_id":"ca358a49-9381-4081-a569-045f6b454239","system_id":"levelo_inurba_marseille","lat":43.30538,"lon":5.36537,"is_reserved":false,"is_disabled":false,"rental_uris":{"android":"levelo://app?vid=ca358a49-9381-4081-a569-045f6b454239","ios":"levelo://app?vid=ca358a49-9381-4081-a569-045f6b454239"},"vehicle_type_id":"4","last_reported":1706357427,"current_range_meters":10800,"station_id":"ce4bgs12rcd13ifvqcag","pricing_plan_id":"free"},{"bike_id":"bd78c07d-58ef-4e86-a473-fa6ca38b9bef","system_id":"levelo_inurba_marseille","lat":43.305336,"lon":5.365431,"is_reserved":false,"is_disabled":false,"rental_uris":{"android":"levelo://app?vid=bd78c07d-58ef-4e86-a473-fa6ca38b9bef","ios":"levelo://app?vid=bd78c07d-58ef-4e86-a473-fa6ca38b9bef"},"vehicle_type_id":"4","last_reported":1706357427,"current_range_meters":29600,"station_id":"ce4bgs12rcd13ifvqcag","pricing_plan_id":"free"},{"bike_id":"3944280f-38a1-410d-ab2a-58f87399045a","system_id":"levelo_inurba_marseille","lat":43.305706,"lon":5.365654,"is_reserved":false,"is_disabled":false,"rental_uris":{"android":"levelo://app?vid=3944280f-38a1-410d-ab2a-58f87399045a","ios":"levelo://app?vid=3944280f-38a1-410d-ab2a-58f87399045a"},"vehicle_type_id":"4","last_reported":1706357427,"current_range_meters":30400,"station_id":"ce4bgs12rcd13ifvqcag","pricing_plan_id":"free"},{"bike_id":"88ef3d12-b234-4b3c-ae3b-3c2dca84a486","system_id":"levelo_inurba_marseille","lat":43.305706,"lon":5.365654,"is_reserved":false,"is_disabled":false,"rental_uris":{"android":"levelo://app?vid=88ef3d12-b234-4b3c-ae3b-3c2dca84a486","ios":"levelo://app?vid=88ef3d12-b234-4b3c-ae3b-3c2dca84a486"},"vehicle_type_id":"4","last_reported":1706357427,"current_range_meters":31600,"station_id":"ce4bgs12rcd13ifvqcag","pricing_plan_id":"free"},{"bike_id":"9993dfd7-8593-492e-9e37-1f87784c1b39","system_id":"levelo_inurba_marseille","lat":43.305706,"lon":5.365654,"is_reserved":false,"is_disabled":false,"rental_uris":{"android":"levelo://app?vid=9993dfd7-8593-492e-9e37-1f87784c1b39","ios":"levelo://app?vid=9993dfd7-8593-492e-9e37-1f87784c1b39"},"vehicle_type_id":"4","last_reported":1706357427,"current_range_meters":2800,"station_id":"ce4bgs12rcd13ifvqcag","pricing_plan_id":"free"},{"bike_id":"678ee84d-3c78-4ebd-a88f-25d0f1ee0c5c","system_id":"levelo_inurba_marseille","lat":43.30603,"lon":5.37244,"is_reserved":false,"is_disabled":false,"rental_uris":{"android":"levelo://app?vid=678ee84d-3c78-4ebd-a88f-25d0f1ee0c5c","ios":"levelo://app?vid=678ee84d-3c78-4ebd-a88f-25d0f1ee0c5c"},"vehicle_type_id":"4","last_reported":1706357427,"current_range_meters":28800,"station_id":"ce4bgqh2rcd13ifvqc4g","pricing_plan_id":"free"},{"bike_id":"1c2a6997-da66-4b71-ba63-abf4e95daf6a","system_id":"levelo_inurba_marseille","lat":43.317075,"lon":5.377367,"is_reserved":false,"is_disabled":false,"rental_uris":{"android":"levelo://app?vid=1c2a6997-da66-4b71-ba63-abf4e95daf6a","ios":"levelo://app?vid=1c2a6997-da66-4b71-ba63-abf4e95daf6a"},"vehicle_type_id":"4","last_reported":1706357427,"current_range_meters":28000,"station_id":"ce4bgth2rcd13ifvqch0","pricing_plan_id":"free"},{"bike_id":"5b0a56ae-3d70-40f6-ad3f-78c604f89c73","system_id":"levelo_inurba_marseille","lat":43.31236,"lon":5.37991,"is_reserved":false,"is_disabled":false,"rental_uris":{"android":"levelo://app?vid=5b0a56ae-3d70-40f6-ad3f-78c604f89c73","ios":"levelo://app?vid=5b0a56ae-3d70-40f6-ad3f-78c604f89c73"},"vehicle_type_id":"4","last_reported":1706357427,"current_range_meters":14400,"station_id":"","pricing_plan_id":"free"},{"bike_id":"b83daeb9-a39c-4884-86e2-16a37c651f7f","system_id":"levelo_inurba_marseille","lat":43.32006,"lon":5.37622,"is_reserved":false,"is_disabled":false,"rental_uris":{"android":"levelo://app?vid=b83daeb9-a39c-4884-86e2-16a37c651f7f","ios":"levelo://app?vid=b83daeb9-a39c-4884-86e2-16a37c651f7f"},"vehicle_type_id":"4","last_reported":1706357427,"current_range_meters":10800,"station_id":"","pricing_plan_id":"free"},{"bike_id":"6daf3eeb-ebe7-4aaf-84d8-7a9417c24aa0","system_id":"levelo_inurba_marseille","lat":43.301939,"lon":5.366286,"is_reserved":false,"is_disabled":false,"rental_uris":{"android":"levelo://app?vid=6daf3eeb-ebe7-4aaf-84d8-7a9417c24aa0","ios":"levelo://app?vid=6daf3eeb-ebe7-4aaf-84d8-7a9417c24aa0"},"vehicle_type_id":"4","last_reported":1706357427,"current_range_meters":4400,"station_id":"ce4bgrh2rcd13ifvqc8g","pricing_plan_id":"free"},{"bike_id":"835188c8-f182-40af-8682-6a76d42e67fa","system_id":"levelo_inurba_marseille","lat":43.301939,"lon":5.366286,"is_reserved":false,"is_disabled":false,"rental_uris":{"android":"levelo://app?vid=835188c8-f182-40af-8682-6a76d42e67fa","ios":"levelo://app?vid=835188c8-f182-40af-8682-6a76d42e67fa"},"vehicle_type_id":"4","last_reported":1706357427,"current_range_meters":22400,"station_id":"ce4bgrh2rcd13ifvqc8g","pricing_plan_id":"free"},{"bike_id":"04a5e4f7-b35a-425d-b564-05ddf165cc9a","system_id":"levelo_inurba_marseille","lat":43.301939,"lon":5.366286,"is_reserved":false,"is_disabled":false,"rental_uris":{"android":"levelo://app?vid=04a5e4f7-b35a-425d-b564-05ddf165cc9a","ios":"levelo://app?vid=04a5e4f7-b35a-425d-b564-05ddf165cc9a"},"vehicle_type_id":"4","last_reported":1706357427,"current_range_meters":1600,"station_id":"ce4bgrh2rcd13ifvqc8g","pricing_plan_id":"free"},{"bike_id":"943fb68a-6ec7-4e2e-a9b3-8ac7e54f84f9","system_id":"levelo_inurba_marseille","lat":43.301939,"lon":5.366286,"is_reserved":false,"is_disabled":false,"rental_uris":{"android":"levelo://app?vid=943fb68a-6ec7-4e2e-a9b3-8ac7e54f84f9","ios":"levelo://app?vid=943fb68a-6ec7-4e2e-a9b3-8ac7e54f84f9"},"vehicle_type_id":"4","last_reported":1706357427,"current_range_meters":22000,"station_id":"ce4bgrh2rcd13ifvqc8g","pricing_plan_id":"free"},{"bike_id":"2138eb7d-4458-4c13-9c61-c171d547a0f1","system_id":"levelo_inurba_marseille","lat":43.308012,"lon":5.381511,"is_reserved":false,"is_disabled":false,"rental_uris":{"android":"levelo://app?vid=2138eb7d-4458-4c13-9c61-c171d547a0f1","ios":"levelo://app?vid=2138eb7d-4458-4c13-9c61-c171d547a0f1"},"vehicle_type_id":"4","last_reported":1706357427,"current_range_meters":18800,"station_id":"ce4bgt12rcd13ifvqce0","pricing_plan_id":"free"},{"bike_id":"5132e8a1-e7c1-407b-8a70-24c573d30854","system_id":"levelo_inurba_marseille","lat":43.30804,"lon":5.38153,"is_reserved":false,"is_disabled":false,"rental_uris":{"android":"levelo://app?vid=5132e8a1-e7c1-407b-8a70-24c573d30854","ios":"levelo://app?vid=5132e8a1-e7c1-407b-8a70-24c573d30854"},"vehicle_type_id":"4","last_reported":1706357427,"current_range_meters":26000,"station_id":"ce4bgt12rcd13ifvqce0","pricing_plan_id":"free"},{"bike_id":"86d4df1c-8a93-45a8-af3f-2f4e9388b4dd","system_id":"levelo_inurba_marseille","lat":43.302784,"lon":5.377158,"is_reserved":false,"is_disabled":false,"rental_uris":{"android":"levelo://app?vid=86d4df1c-8a93-45a8-af3f-2f4e9388b4dd","ios":"levelo://app?vid=86d4df1c-8a93-45a8-af3f-2f4e9388b4dd"},"vehicle_type_id":"4","last_reported":1706357427,"current_range_meters":0,"station_id":"ce4bguh2rcd13ifvqcj0","pricing_plan_id":"free"},{"bike_id":"e77d30b7-14af-44d6-80a1-563db5026f0d","system_id":"levelo_inurba_marseille","lat":43.302784,"lon":5.377158,"is_reserved":false,"is_disabled":false,"rental_uris":{"android":"levelo://app?vid=e77d30b7-14af-44d6-80a1-563db5026f0d","ios":"levelo://app?vid=e77d30b7-14af-44d6-80a1-563db5026f0d"},"vehicle_type_id":"4","last_reported":1706357427,"current_range_meters":0,"station_id":"ce4bguh2rcd13ifvqcj0","pricing_plan_id":"free"},{"bike_id":"88aa8230-dcc9-433d-96e4-513a284697d7","system_id":"levelo_inurba_marseille","lat":43.302784,"lon":5.377158,"is_reserved":false,"is_disabled":false,"rental_uris":{"android":"levelo://app?vid=88aa8230-dcc9-433d-96e4-513a284697d7","ios":"levelo://app?vid=88aa8230-dcc9-433d-96e4-513a284697d7"},"vehicle_type_id":"4","last_reported":1706357427,"current_range_meters":26000,"station_id":"ce4bguh2rcd13ifvqcj0","pricing_plan_id":"free"},{"bike_id":"29c7aafd-c762-4726-9126-2bbb65834ec1","system_id":"levelo_inurba_marseille","lat":43.302784,"lon":5.377158,"is_reserved":false,"is_disabled":false,"rental_uris":{"android":"levelo://app?vid=29c7aafd-c762-4726-9126-2bbb65834ec1","ios":"levelo://app?vid=29c7aafd-c762-4726-9126-2bbb65834ec1"},"vehicle_type_id":"4","last_reported":1706357427,"current_range_meters":26400,"station_id":"ce4bguh2rcd13ifvqcj0","pricing_plan_id":"free"},{"bike_id":"42fc3fe8-47ea-411b-9a78-dffb57dca57a","system_id":"levelo_inurba_marseille","lat":43.30143,"lon":5.37413,"is_reserved":false,"is_disabled":false,"rental_uris":{"android":"levelo://app?vid=42fc3fe8-47ea-411b-9a78-dffb57dca57a","ios":"levelo://app?vid=42fc3fe8-47ea-411b-9a78-dffb57dca57a"},"vehicle_type_id":"4","last_reported":1706357427,"current_range_meters":20400,"station_id":"ce4bgs92rcd13ifvqcc0","pricing_plan_id":"free"},{"bike_id":"e3878ff0-887a-4393-bc67-309945b46e9a","system_id":"levelo_inurba_marseille","lat":43.31484,"lon":5.38392,"is_reserved":false,"is_disabled":false,"rental_uris":{"android":"levelo://app?vid=e3878ff0-887a-4393-bc67-309945b46e9a","ios":"levelo://app?vid=e3878ff0-887a-4393-bc67-309945b46e9a"},"vehicle_type_id":"4","last_reported":1706357427,"current_range_meters":20800,"station_id":"","pricing_plan_id":"free"},{"bike_id":"5800a8be-57c0-4358-9dfa-b47dd6142cdd","system_id":"levelo_inurba_marseille","lat":43.302784,"lon":5.377158,"is_reserved":false,"is_disabled":false,"rental_uris":{"android":"levelo://app?vid=5800a8be-57c0-4358-9dfa-b47dd6142cdd","ios":"levelo://app?vid=5800a8be-57c0-4358-9dfa-b47dd6142cdd"},"vehicle_type_id":"4","last_reported":1706357427,"current_range_meters":20800,"station_id":"ce4bguh2rcd13ifvqcj0","pricing_plan_id":"free"},{"bike_id":"ae7ab608-8fac-4c0d-9f43-8ffacb07a49d","system_id":"levelo_inurba_marseille","lat":43.319935,"lon":5.381699,"is_reserved":false,"is_disabled":false,"rental_uris":{"android":"levelo://app?vid=ae7ab608-8fac-4c0d-9f43-8ffacb07a49d","ios":"levelo://app?vid=ae7ab608-8fac-4c0d-9f43-8ffacb07a49d"},"vehicle_type_id":"4","last_reported":1706357427,"current_range_meters":4000,"station_id":"ce4bhr12rcd13ifvqhpg","pricing_plan_id":"free"},{"bike_id":"d11a1f3a-d548-483b-8bfb-a3d43524c954","system_id":"levelo_inurba_marseille","lat":43.319935,"lon":5.381699,"is_reserved":false,"is_disabled":false,"rental_uris":{"android":"levelo://app?vid=d11a1f3a-d548-483b-8bfb-a3d43524c954","ios":"levelo://app?vid=d11a1f3a-d548-483b-8bfb-a3d43524c954"},"vehicle_type_id":"4","last_reported":1706357427,"current_range_meters":31200,"station_id":"ce4bhr12rcd13ifvqhpg","pricing_plan_id":"free"},{"bike_id":"f7b1efc0-1961-4895-ae9d-0ad221e9232d","system_id":"levelo_inurba_marseille","lat":43.319935,"lon":5.381699,"is_reserved":false,"is_disabled":false,"rental_uris":{"android":"levelo://app?vid=f7b1efc0-1961-4895-ae9d-0ad221e9232d","ios":"levelo://app?vid=f7b1efc0-1961-4895-ae9d-0ad221e9232d"},"vehicle_type_id":"4","last_reported":1706357427,"current_range_meters":29200,"station_id":"ce4bhr12rcd13ifvqhpg","pricing_plan_id":"free"},{"bike_id":"5f7ec9ca-defa-4048-96f4-b62ebd1a927a","system_id":"levelo_inurba_marseille","lat":43.319935,"lon":5.381699,"is_reserved":false,"is_disabled":false,"rental_uris":{"android":"levelo://app?vid=5f7ec9ca-defa-4048-96f4-b62ebd1a927a","ios":"levelo://app?vid=5f7ec9ca-defa-4048-96f4-b62ebd1a927a"},"vehicle_type_id":"4","last_reported":1706357427,"current_range_meters":19200,"station_id":"ce4bhr12rcd13ifvqhpg","pricing_plan_id":"free"},{"bike_id":"fbd1c7c8-59f4-40f3-bd13-92a41198f404","system_id":"levelo_inurba_marseille","lat":43.319935,"lon":5.381699,"is_reserved":false,"is_disabled":false,"rental_uris":{"android":"levelo://app?vid=fbd1c7c8-59f4-40f3-bd13-92a41198f404","ios":"levelo://app?vid=fbd1c7c8-59f4-40f3-bd13-92a41198f404"},"vehicle_type_id":"4","last_reported":1706357427,"current_range_meters":16400,"station_id":"ce4bhr12rcd13ifvqhpg","pricing_plan_id":"free"},{"bike_id":"488abd18-e9a1-4239-9600-d9dbf03e5437","system_id":"levelo_inurba_marseille","lat":43.319935,"lon":5.381699,"is_reserved":false,"is_disabled":false,"rental_uris":{"android":"levelo://app?vid=488abd18-e9a1-4239-9600-d9dbf03e5437","ios":"levelo://app?vid=488abd18-e9a1-4239-9600-d9dbf03e5437"},"vehicle_type_id":"4","last_reported":1706357427,"current_range_meters":30000,"station_id":"ce4bhr12rcd13ifvqhpg","pricing_plan_id":"free"},{"bike_id":"fc51b747-b33f-40c9-9c2c-bd6f886bc3e2","system_id":"levelo_inurba_marseille","lat":43.319935,"lon":5.381699,"is_reserved":false,"is_disabled":false,"rental_uris":{"android":"levelo://app?vid=fc51b747-b33f-40c9-9c2c-bd6f886bc3e2","ios":"levelo://app?vid=fc51b747-b33f-40c9-9c2c-bd6f886bc3e2"},"vehicle_type_id":"4","last_reported":1706357427,"current_range_meters":10000,"station_id":"ce4bhr12rcd13ifvqhpg","pricing_plan_id":"free"},{"bike_id":"01533f59-2c23-4279-b5fa-c0608335cf09","system_id":"levelo_inurba_marseille","lat":43.319935,"lon":5.381699,"is_reserved":false,"is_disabled":false,"rental_uris":{"android":"levelo://app?vid=01533f59-2c23-4279-b5fa-c0608335cf09","ios":"levelo://app?vid=01533f59-2c23-4279-b5fa-c0608335cf09"},"vehicle_type_id":"4","last_reported":1706357427,"current_range_meters":30400,"station_id":"ce4bhr12rcd13ifvqhpg","pricing_plan_id":"free"},{"bike_id":"f1f9f353-8cc0-4537-83de-358243924a0a","system_id":"levelo_inurba_marseille","lat":43.313571,"lon":5.384829,"is_reserved":false,"is_disabled":false,"rental_uris":{"android":"levelo://app?vid=f1f9f353-8cc0-4537-83de-358243924a0a","ios":"levelo://app?vid=f1f9f353-8cc0-4537-83de-358243924a0a"},"vehicle_type_id":"4","last_reported":1706357427,"current_range_meters":27600,"station_id":"ce4bgt92rcd13ifvqcf0","pricing_plan_id":"free"},{"bike_id":"4400bda0-ebcc-418f-a82f-06c6eb7c0323","system_id":"levelo_inurba_marseille","lat":43.300007,"lon":5.371537,"is_reserved":false,"is_disabled":false,"rental_uris":{"android":"levelo://app?vid=4400bda0-ebcc-418f-a82f-06c6eb7c0323","ios":"levelo://app?vid=4400bda0-ebcc-418f-a82f-06c6eb7c0323"},"vehicle_type_id":"4","last_reported":1706357427,"current_range_meters":14000,"station_id":"ce4bgr92rcd13ifvqc7g","pricing_plan_id":"free"},{"bike_id":"b70e22fd-f3e8-4322-b51a-88d0ec922e8a","system_id":"levelo_inurba_marseille","lat":43.301429,"lon":5.37413,"is_reserved":false,"is_disabled":false,"rental_uris":{"android":"levelo://app?vid=b70e22fd-f3e8-4322-b51a-88d0ec922e8a","ios":"levelo://app?vid=b70e22fd-f3e8-4322-b51a-88d0ec922e8a"},"vehicle_type_id":"4","last_reported":1706357427,"current_range_meters":26400,"station_id":"ce4bgs92rcd13ifvqcc0","pricing_plan_id":"free"},{"bike_id":"c1c14e21-b96b-4057-ab26-0380ea282590","system_id":"levelo_inurba_marseille","lat":43.299724,"lon":5.371829,"is_reserved":false,"is_disabled":false,"rental_uris":{"android":"levelo://app?vid=c1c14e21-b96b-4057-ab26-0380ea282590","ios":"levelo://app?vid=c1c14e21-b96b-4057-ab26-0380ea282590"},"vehicle_type_id":"4","last_reported":1706357427,"current_range_meters":13600,"station_id":"ce4bgr92rcd13ifvqc7g","pricing_plan_id":"free"},{"bike_id":"203a25db-a988-46cc-88ca-8b2f819c1272","system_id":"levelo_inurba_marseille","lat":43.299222,"lon":5.365554,"is_reserved":false,"is_disabled":false,"rental_uris":{"android":"levelo://app?vid=203a25db-a988-46cc-88ca-8b2f819c1272","ios":"levelo://app?vid=203a25db-a988-46cc-88ca-8b2f819c1272"},"vehicle_type_id":"4","last_reported":1706357427,"current_range_meters":26000,"station_id":"ce4bgm92rcd13ifvqbr0","pricing_plan_id":"free"},{"bike_id":"7a57c786-7150-4563-9105-4d694fb4e2c9","system_id":"levelo_inurba_marseille","lat":43.299724,"lon":5.371829,"is_reserved":false,"is_disabled":false,"rental_uris":{"android":"levelo://app?vid=7a57c786-7150-4563-9105-4d694fb4e2c9","ios":"levelo://app?vid=7a57c786-7150-4563-9105-4d694fb4e2c9"},"vehicle_type_id":"4","last_reported":1706357427,"current_range_meters":6800,"station_id":"ce4bgr92rcd13ifvqc7g","pricing_plan_id":"free"},{"bike_id":"730bb4b7-43ff-4568-9afa-dfebc5fbfb43","system_id":"levelo_inurba_marseille","lat":43.299724,"lon":5.371829,"is_reserved":false,"is_disabled":false,"rental_uris":{"android":"levelo://app?vid=730bb4b7-43ff-4568-9afa-dfebc5fbfb43","ios":"levelo://app?vid=730bb4b7-43ff-4568-9afa-dfebc5fbfb43"},"vehicle_type_id":"4","last_reported":1706357427,"current_range_meters":14400,"station_id":"ce4bgr92rcd13ifvqc7g","pricing_plan_id":"free"},{"bike_id":"341879b4-7935-4ac2-9218-04fd8f939ed3","system_id":"levelo_inurba_marseille","lat":43.299222,"lon":5.365554,"is_reserved":false,"is_disabled":false,"rental_uris":{"android":"levelo://app?vid=341879b4-7935-4ac2-9218-04fd8f939ed3","ios":"levelo://app?vid=341879b4-7935-4ac2-9218-04fd8f939ed3"},"vehicle_type_id":"4","last_reported":1706357427,"current_range_meters":14000,"station_id":"ce4bgm92rcd13ifvqbr0","pricing_plan_id":"free"},{"bike_id":"31f5579b-6409-47b8-8445-14a3f54ee1ab","system_id":"levelo_inurba_marseille","lat":43.298433,"lon":5.362774,"is_reserved":false,"is_disabled":false,"rental_uris":{"android":"levelo://app?vid=31f5579b-6409-47b8-8445-14a3f54ee1ab","ios":"levelo://app?vid=31f5579b-6409-47b8-8445-14a3f54ee1ab"},"vehicle_type_id":"4","last_reported":1706357427,"current_range_meters":30800,"station_id":"ce4bgpp2rcd13ifvqc3g","pricing_plan_id":"free"},{"bike_id":"32d474d8-6eaf-4b84-9826-89143ef28c80","system_id":"levelo_inurba_marseille","lat":43.298433,"lon":5.362774,"is_reserved":false,"is_disabled":false,"rental_uris":{"android":"levelo://app?vid=32d474d8-6eaf-4b84-9826-89143ef28c80","ios":"levelo://app?vid=32d474d8-6eaf-4b84-9826-89143ef28c80"},"vehicle_type_id":"4","last_reported":1706357427,"current_range_meters":18800,"station_id":"ce4bgpp2rcd13ifvqc3g","pricing_plan_id":"free"},{"bike_id":"89e21f14-e8f4-41ca-bf8b-8dd800a902d4","system_id":"levelo_inurba_marseille","lat":43.298433,"lon":5.362774,"is_reserved":false,"is_disabled":false,"rental_uris":{"android":"levelo://app?vid=89e21f14-e8f4-41ca-bf8b-8dd800a902d4","ios":"levelo://app?vid=89e21f14-e8f4-41ca-bf8b-8dd800a902d4"},"vehicle_type_id":"4","last_reported":1706357427,"current_range_meters":18000,"station_id":"ce4bgpp2rcd13ifvqc3g","pricing_plan_id":"free"},{"bike_id":"74a577b5-9cd6-4f86-a314-8557edbc7137","system_id":"levelo_inurba_marseille","lat":43.305364,"lon":5.384119,"is_reserved":false,"is_disabled":false,"rental_uris":{"android":"levelo://app?vid=74a577b5-9cd6-4f86-a314-8557edbc7137","ios":"levelo://app?vid=74a577b5-9cd6-4f86-a314-8557edbc7137"},"vehicle_type_id":"4","last_reported":1706357427,"current_range_meters":29600,"station_id":"ce4bgg92rcd13ifvqb30","pricing_plan_id":"free"},{"bike_id":"444033cb-01de-4847-942f-fdaf66b19383","system_id":"levelo_inurba_marseille","lat":43.297794,"lon":5.370888,"is_reserved":false,"is_disabled":false,"rental_uris":{"android":"levelo://app?vid=444033cb-01de-4847-942f-fdaf66b19383","ios":"levelo://app?vid=444033cb-01de-4847-942f-fdaf66b19383"},"vehicle_type_id":"4","last_reported":1706357427,"current_range_meters":23600,"station_id":"ce4bgop2rcd13ifvqc1g","pricing_plan_id":"free"},{"bike_id":"416475d6-ef00-46bd-9618-e51e0a232531","system_id":"levelo_inurba_marseille","lat":43.322872,"lon":5.382756,"is_reserved":false,"is_disabled":false,"rental_uris":{"android":"levelo://app?vid=416475d6-ef00-46bd-9618-e51e0a232531","ios":"levelo://app?vid=416475d6-ef00-46bd-9618-e51e0a232531"},"vehicle_type_id":"4","last_reported":1706357427,"current_range_meters":32000,"station_id":"ce4bhr12rcd13ifvqhqg","pricing_plan_id":"free"},{"bike_id":"965a5dab-e227-4efc-b518-9780186a9de9","system_id":"levelo_inurba_marseille","lat":43.322872,"lon":5.382756,"is_reserved":false,"is_disabled":false,"rental_uris":{"android":"levelo://app?vid=965a5dab-e227-4efc-b518-9780186a9de9","ios":"levelo://app?vid=965a5dab-e227-4efc-b518-9780186a9de9"},"vehicle_type_id":"4","last_reported":1706357427,"current_range_meters":23200,"station_id":"ce4bhr12rcd13ifvqhqg","pricing_plan_id":"free"},{"bike_id":"1126cdc6-95ba-449a-b7b2-5f3f58786e97","system_id":"levelo_inurba_marseille","lat":43.322872,"lon":5.382756,"is_reserved":false,"is_disabled":false,"rental_uris":{"android":"levelo://app?vid=1126cdc6-95ba-449a-b7b2-5f3f58786e97","ios":"levelo://app?vid=1126cdc6-95ba-449a-b7b2-5f3f58786e97"},"vehicle_type_id":"4","last_reported":1706357427,"current_range_meters":27600,"station_id":"ce4bhr12rcd13ifvqhqg","pricing_plan_id":"free"},{"bike_id":"5e98879a-df25-42d7-a72e-59c9369b5f46","system_id":"levelo_inurba_marseille","lat":43.322855,"lon":5.382781,"is_reserved":false,"is_disabled":false,"rental_uris":{"android":"levelo://app?vid=5e98879a-df25-42d7-a72e-59c9369b5f46","ios":"levelo://app?vid=5e98879a-df25-42d7-a72e-59c9369b5f46"},"vehicle_type_id":"4","last_reported":1706357427,"current_range_meters":31200,"station_id":"ce4bhr12rcd13ifvqhqg","pricing_plan_id":"free"},{"bike_id":"3f8e6f12-b7bc-4955-8ca9-56a69dad498d","system_id":"levelo_inurba_marseille","lat":43.32826,"lon":5.3669,"is_reserved":false,"is_disabled":false,"rental_uris":{"android":"levelo://app?vid=3f8e6f12-b7bc-4955-8ca9-56a69dad498d","ios":"levelo://app?vid=3f8e6f12-b7bc-4955-8ca9-56a69dad498d"},"vehicle_type_id":"4","last_reported":1706357427,"current_range_meters":29200,"station_id":"ce4bhs92rcd13ifvqi0g","pricing_plan_id":"free"},{"bike_id":"31c884b6-24f3-4ad2-b153-4d91b407eb8c","system_id":"levelo_inurba_marseille","lat":43.32826,"lon":5.36681,"is_reserved":false,"is_disabled":false,"rental_uris":{"android":"levelo://app?vid=31c884b6-24f3-4ad2-b153-4d91b407eb8c","ios":"levelo://app?vid=31c884b6-24f3-4ad2-b153-4d91b407eb8c"},"vehicle_type_id":"4","last_reported":1706357427,"current_range_meters":21200,"station_id":"ce4bhs92rcd13ifvqi0g","pricing_plan_id":"free"},{"bike_id":"c0bacbb9-2761-4491-a8c1-93af05373d9b","system_id":"levelo_inurba_marseille","lat":43.32829,"lon":5.36677,"is_reserved":false,"is_disabled":false,"rental_uris":{"android":"levelo://app?vid=c0bacbb9-2761-4491-a8c1-93af05373d9b","ios":"levelo://app?vid=c0bacbb9-2761-4491-a8c1-93af05373d9b"},"vehicle_type_id":"4","last_reported":1706357427,"current_range_meters":20400,"station_id":"ce4bhs92rcd13ifvqi0g","pricing_plan_id":"free"},{"bike_id":"7873983f-c8b6-46a1-8903-7e9af6d69296","system_id":"levelo_inurba_marseille","lat":43.297163,"lon":5.365866,"is_reserved":false,"is_disabled":false,"rental_uris":{"android":"levelo://app?vid=7873983f-c8b6-46a1-8903-7e9af6d69296","ios":"levelo://app?vid=7873983f-c8b6-46a1-8903-7e9af6d69296"},"vehicle_type_id":"4","last_reported":1706357427,"current_range_meters":22000,"station_id":"ce4bgn12rcd13ifvqbt0","pricing_plan_id":"free"},{"bike_id":"e427d885-3180-4ab9-8faf-ba14c5fcde25","system_id":"levelo_inurba_marseille","lat":43.2968,"lon":5.37291,"is_reserved":false,"is_disabled":false,"rental_uris":{"android":"levelo://app?vid=e427d885-3180-4ab9-8faf-ba14c5fcde25","ios":"levelo://app?vid=e427d885-3180-4ab9-8faf-ba14c5fcde25"},"vehicle_type_id":"4","last_reported":1706357427,"current_range_meters":28400,"station_id":"ce4bgk12rcd13ifvqbj0","pricing_plan_id":"free"},{"bike_id":"fcd2d924-d92e-43b3-8109-a2cfda0e3d21","system_id":"levelo_inurba_marseille","lat":43.296131,"lon":5.370791,"is_reserved":false,"is_disabled":false,"rental_uris":{"android":"levelo://app?vid=fcd2d924-d92e-43b3-8109-a2cfda0e3d21","ios":"levelo://app?vid=fcd2d924-d92e-43b3-8109-a2cfda0e3d21"},"vehicle_type_id":"4","last_reported":1706357427,"current_range_meters":19200,"station_id":"ce4bgnh2rcd13ifvqc0g","pricing_plan_id":"free"},{"bike_id":"11121829-9317-4412-a976-9f0be7960d8a","system_id":"levelo_inurba_marseille","lat":43.317557,"lon":5.390173,"is_reserved":false,"is_disabled":false,"rental_uris":{"android":"levelo://app?vid=11121829-9317-4412-a976-9f0be7960d8a","ios":"levelo://app?vid=11121829-9317-4412-a976-9f0be7960d8a"},"vehicle_type_id":"4","last_reported":1706357427,"current_range_meters":13600,"station_id":"ce4bhqp2rcd13ifvqhng","pricing_plan_id":"free"},{"bike_id":"7f12e4e8-3134-4466-8c7e-43a5ffae3e1a","system_id":"levelo_inurba_marseille","lat":43.296131,"lon":5.370791,"is_reserved":false,"is_disabled":false,"rental_uris":{"android":"levelo://app?vid=7f12e4e8-3134-4466-8c7e-43a5ffae3e1a","ios":"levelo://app?vid=7f12e4e8-3134-4466-8c7e-43a5ffae3e1a"},"vehicle_type_id":"4","last_reported":1706357427,"current_range_meters":21600,"station_id":"ce4bgnh2rcd13ifvqc0g","pricing_plan_id":"free"},{"bike_id":"05c5203b-d53e-4582-b919-9b56b5a15450","system_id":"levelo_inurba_marseille","lat":43.29581,"lon":5.36742,"is_reserved":false,"is_disabled":false,"rental_uris":{"android":"levelo://app?vid=05c5203b-d53e-4582-b919-9b56b5a15450","ios":"levelo://app?vid=05c5203b-d53e-4582-b919-9b56b5a15450"},"vehicle_type_id":"4","last_reported":1706357427,"current_range_meters":18800,"station_id":"ce4bgph2rcd13ifvqc2g","pricing_plan_id":"free"},{"bike_id":"23692cb6-8a4d-4ed1-82fb-51d4e2559478","system_id":"levelo_inurba_marseille","lat":43.29573,"lon":5.367355,"is_reserved":false,"is_disabled":false,"rental_uris":{"android":"levelo://app?vid=23692cb6-8a4d-4ed1-82fb-51d4e2559478","ios":"levelo://app?vid=23692cb6-8a4d-4ed1-82fb-51d4e2559478"},"vehicle_type_id":"4","last_reported":1706357427,"current_range_meters":27600,"station_id":"ce4bgph2rcd13ifvqc2g","pricing_plan_id":"free"},{"bike_id":"559f0865-5296-4d3c-b1c8-1620020043e9","system_id":"levelo_inurba_marseille","lat":43.29573,"lon":5.367355,"is_reserved":false,"is_disabled":false,"rental_uris":{"android":"levelo://app?vid=559f0865-5296-4d3c-b1c8-1620020043e9","ios":"levelo://app?vid=559f0865-5296-4d3c-b1c8-1620020043e9"},"vehicle_type_id":"4","last_reported":1706357427,"current_range_meters":29600,"station_id":"ce4bgph2rcd13ifvqc2g","pricing_plan_id":"free"},{"bike_id":"01db8968-1f90-4415-9c2e-1f06fdc447bd","system_id":"levelo_inurba_marseille","lat":43.29573,"lon":5.367355,"is_reserved":false,"is_disabled":false,"rental_uris":{"android":"levelo://app?vid=01db8968-1f90-4415-9c2e-1f06fdc447bd","ios":"levelo://app?vid=01db8968-1f90-4415-9c2e-1f06fdc447bd"},"vehicle_type_id":"4","last_reported":1706357427,"current_range_meters":14400,"station_id":"ce4bgph2rcd13ifvqc2g","pricing_plan_id":"free"},{"bike_id":"11aeada7-22c3-4e79-b051-bf57a30317e6","system_id":"levelo_inurba_marseille","lat":43.29573,"lon":5.367355,"is_reserved":false,"is_disabled":false,"rental_uris":{"android":"levelo://app?vid=11aeada7-22c3-4e79-b051-bf57a30317e6","ios":"levelo://app?vid=11aeada7-22c3-4e79-b051-bf57a30317e6"},"vehicle_type_id":"4","last_reported":1706357427,"current_range_meters":27600,"station_id":"ce4bgph2rcd13ifvqc2g","pricing_plan_id":"free"},{"bike_id":"ee45a6a7-30b4-4af8-85cf-ab84bf0a552a","system_id":"levelo_inurba_marseille","lat":43.296921,"lon":5.376579,"is_reserved":false,"is_disabled":false,"rental_uris":{"android":"levelo://app?vid=ee45a6a7-30b4-4af8-85cf-ab84bf0a552a","ios":"levelo://app?vid=ee45a6a7-30b4-4af8-85cf-ab84bf0a552a"},"vehicle_type_id":"4","last_reported":1706357427,"current_range_meters":21600,"station_id":"ce4bgkh2rcd13ifvqbl0","pricing_plan_id":"free"},{"bike_id":"b26573e9-fe4e-4418-8f8a-0249d1922b9e","system_id":"levelo_inurba_marseille","lat":43.299028,"lon":5.381509,"is_reserved":false,"is_disabled":false,"rental_uris":{"android":"levelo://app?vid=b26573e9-fe4e-4418-8f8a-0249d1922b9e","ios":"levelo://app?vid=b26573e9-fe4e-4418-8f8a-0249d1922b9e"},"vehicle_type_id":"4","last_reported":1706357427,"current_range_meters":21600,"station_id":"ce4bgj12rcd13ifvqbc0","pricing_plan_id":"free"},{"bike_id":"25a445f1-e0f9-4696-a317-40191186b16f","system_id":"levelo_inurba_marseille","lat":43.296921,"lon":5.376579,"is_reserved":false,"is_disabled":false,"rental_uris":{"android":"levelo://app?vid=25a445f1-e0f9-4696-a317-40191186b16f","ios":"levelo://app?vid=25a445f1-e0f9-4696-a317-40191186b16f"},"vehicle_type_id":"4","last_reported":1706357427,"current_range_meters":12400,"station_id":"ce4bgkh2rcd13ifvqbl0","pricing_plan_id":"free"},{"bike_id":"bc46de14-4d73-45b8-83b4-8e068028d77c","system_id":"levelo_inurba_marseille","lat":43.296921,"lon":5.376579,"is_reserved":false,"is_disabled":false,"rental_uris":{"android":"levelo://app?vid=bc46de14-4d73-45b8-83b4-8e068028d77c","ios":"levelo://app?vid=bc46de14-4d73-45b8-83b4-8e068028d77c"},"vehicle_type_id":"4","last_reported":1706357427,"current_range_meters":18400,"station_id":"ce4bgkh2rcd13ifvqbl0","pricing_plan_id":"free"},{"bike_id":"0354ed5c-ecc6-4395-a17b-39cbf2721510","system_id":"levelo_inurba_marseille","lat":43.299028,"lon":5.381509,"is_reserved":false,"is_disabled":false,"rental_uris":{"android":"levelo://app?vid=0354ed5c-ecc6-4395-a17b-39cbf2721510","ios":"levelo://app?vid=0354ed5c-ecc6-4395-a17b-39cbf2721510"},"vehicle_type_id":"4","last_reported":1706357427,"current_range_meters":14800,"station_id":"ce4bgj12rcd13ifvqbc0","pricing_plan_id":"free"},{"bike_id":"51f8766d-e79a-4ab9-aa5e-982a912a95cf","system_id":"levelo_inurba_marseille","lat":43.296935,"lon":5.376544,"is_reserved":false,"is_disabled":false,"rental_uris":{"android":"levelo://app?vid=51f8766d-e79a-4ab9-aa5e-982a912a95cf","ios":"levelo://app?vid=51f8766d-e79a-4ab9-aa5e-982a912a95cf"},"vehicle_type_id":"4","last_reported":1706357427,"current_range_meters":14800,"station_id":"ce4bgkh2rcd13ifvqbl0","pricing_plan_id":"free"},{"bike_id":"1c8ac0e6-680e-4924-b29a-c4a77bdfe973","system_id":"levelo_inurba_marseille","lat":43.296935,"lon":5.376544,"is_reserved":false,"is_disabled":false,"rental_uris":{"android":"levelo://app?vid=1c8ac0e6-680e-4924-b29a-c4a77bdfe973","ios":"levelo://app?vid=1c8ac0e6-680e-4924-b29a-c4a77bdfe973"},"vehicle_type_id":"4","last_reported":1706357427,"current_range_meters":2000,"station_id":"ce4bgkh2rcd13ifvqbl0","pricing_plan_id":"free"},{"bike_id":"68a3d3d7-929e-4065-bf11-0869486bd6a0","system_id":"levelo_inurba_marseille","lat":43.296935,"lon":5.376544,"is_reserved":false,"is_disabled":false,"rental_uris":{"android":"levelo://app?vid=68a3d3d7-929e-4065-bf11-0869486bd6a0","ios":"levelo://app?vid=68a3d3d7-929e-4065-bf11-0869486bd6a0"},"vehicle_type_id":"4","last_reported":1706357427,"current_range_meters":9600,"station_id":"ce4bgkh2rcd13ifvqbl0","pricing_plan_id":"free"},{"bike_id":"5849c8f1-de07-480c-ab10-c023b55280ba","system_id":"levelo_inurba_marseille","lat":43.322203,"lon":5.386937,"is_reserved":false,"is_disabled":false,"rental_uris":{"android":"levelo://app?vid=5849c8f1-de07-480c-ab10-c023b55280ba","ios":"levelo://app?vid=5849c8f1-de07-480c-ab10-c023b55280ba"},"vehicle_type_id":"4","last_reported":1706357427,"current_range_meters":2800,"station_id":"","pricing_plan_id":"free"},{"bike_id":"90c077e0-2ee7-4fea-aede-55893dde0b42","system_id":"levelo_inurba_marseille","lat":43.29887,"lon":5.38154,"is_reserved":false,"is_disabled":false,"rental_uris":{"android":"levelo://app?vid=90c077e0-2ee7-4fea-aede-55893dde0b42","ios":"levelo://app?vid=90c077e0-2ee7-4fea-aede-55893dde0b42"},"vehicle_type_id":"4","last_reported":1706357427,"current_range_meters":25200,"station_id":"ce4bgj12rcd13ifvqbc0","pricing_plan_id":"free"},{"bike_id":"6514b660-fcea-4ed2-a5ff-4b7e5a125058","system_id":"levelo_inurba_marseille","lat":43.298037,"lon":5.381066,"is_reserved":false,"is_disabled":false,"rental_uris":{"android":"levelo://app?vid=6514b660-fcea-4ed2-a5ff-4b7e5a125058","ios":"levelo://app?vid=6514b660-fcea-4ed2-a5ff-4b7e5a125058"},"vehicle_type_id":"4","last_reported":1706357427,"current_range_meters":4000,"station_id":"ce4bgip2rcd13ifvqbb0","pricing_plan_id":"free"},{"bike_id":"f60f2290-5cdb-4d30-8ebe-92b500b8e70b","system_id":"levelo_inurba_marseille","lat":43.30425,"lon":5.38889,"is_reserved":false,"is_disabled":false,"rental_uris":{"android":"levelo://app?vid=f60f2290-5cdb-4d30-8ebe-92b500b8e70b","ios":"levelo://app?vid=f60f2290-5cdb-4d30-8ebe-92b500b8e70b"},"vehicle_type_id":"4","last_reported":1706357427,"current_range_meters":26400,"station_id":"ce4bgk12rcd13ifvqbi0","pricing_plan_id":"free"},{"bike_id":"d313cab0-ac50-4df8-b431-c47ef47e1e0f","system_id":"levelo_inurba_marseille","lat":43.296263,"lon":5.377094,"is_reserved":false,"is_disabled":false,"rental_uris":{"android":"levelo://app?vid=d313cab0-ac50-4df8-b431-c47ef47e1e0f","ios":"levelo://app?vid=d313cab0-ac50-4df8-b431-c47ef47e1e0f"},"vehicle_type_id":"4","last_reported":1706357427,"current_range_meters":14000,"station_id":"ce4bgi92rcd13ifvqb90","pricing_plan_id":"free"},{"bike_id":"66bd71b7-2a60-4b2f-80db-9308ab38ede3","system_id":"levelo_inurba_marseille","lat":43.296277,"lon":5.377108,"is_reserved":false,"is_disabled":false,"rental_uris":{"android":"levelo://app?vid=66bd71b7-2a60-4b2f-80db-9308ab38ede3","ios":"levelo://app?vid=66bd71b7-2a60-4b2f-80db-9308ab38ede3"},"vehicle_type_id":"4","last_reported":1706357427,"current_range_meters":14000,"station_id":"ce4bgi92rcd13ifvqb90","pricing_plan_id":"free"},{"bike_id":"e02ffc2a-8f2e-4fe9-b770-d7440e5ee0cd","system_id":"levelo_inurba_marseille","lat":43.299707,"lon":5.384859,"is_reserved":false,"is_disabled":false,"rental_uris":{"android":"levelo://app?vid=e02ffc2a-8f2e-4fe9-b770-d7440e5ee0cd","ios":"levelo://app?vid=e02ffc2a-8f2e-4fe9-b770-d7440e5ee0cd"},"vehicle_type_id":"4","last_reported":1706357427,"current_range_meters":20000,"station_id":"ce4bgj92rcd13ifvqbd0","pricing_plan_id":"free"},{"bike_id":"251660c1-24d3-4060-b2b8-530b4cd7796b","system_id":"levelo_inurba_marseille","lat":43.295279,"lon":5.375048,"is_reserved":false,"is_disabled":false,"rental_uris":{"android":"levelo://app?vid=251660c1-24d3-4060-b2b8-530b4cd7796b","ios":"levelo://app?vid=251660c1-24d3-4060-b2b8-530b4cd7796b"},"vehicle_type_id":"4","last_reported":1706357427,"current_range_meters":1200,"station_id":"ce4bgkp2rcd13ifvqbmg","pricing_plan_id":"free"},{"bike_id":"ccf4d206-c97f-4820-928b-f66ce5c690b5","system_id":"levelo_inurba_marseille","lat":43.299717,"lon":5.384845,"is_reserved":false,"is_disabled":false,"rental_uris":{"android":"levelo://app?vid=ccf4d206-c97f-4820-928b-f66ce5c690b5","ios":"levelo://app?vid=ccf4d206-c97f-4820-928b-f66ce5c690b5"},"vehicle_type_id":"4","last_reported":1706357427,"current_range_meters":25200,"station_id":"ce4bgj92rcd13ifvqbd0","pricing_plan_id":"free"},{"bike_id":"e2240ed0-1a3c-414e-82a2-c1659e1beab5","system_id":"levelo_inurba_marseille","lat":43.295279,"lon":5.375048,"is_reserved":false,"is_disabled":false,"rental_uris":{"android":"levelo://app?vid=e2240ed0-1a3c-414e-82a2-c1659e1beab5","ios":"levelo://app?vid=e2240ed0-1a3c-414e-82a2-c1659e1beab5"},"vehicle_type_id":"4","last_reported":1706357427,"current_range_meters":30800,"station_id":"ce4bgkp2rcd13ifvqbmg","pricing_plan_id":"free"},{"bike_id":"7af03866-062b-46cb-946b-2add475acaf9","system_id":"levelo_inurba_marseille","lat":43.296263,"lon":5.377094,"is_reserved":false,"is_disabled":false,"rental_uris":{"android":"levelo://app?vid=7af03866-062b-46cb-946b-2add475acaf9","ios":"levelo://app?vid=7af03866-062b-46cb-946b-2add475acaf9"},"vehicle_type_id":"4","last_reported":1706357427,"current_range_meters":26000,"station_id":"ce4bgi92rcd13ifvqb90","pricing_plan_id":"free"},{"bike_id":"d7803bed-fb47-4ba6-b32d-728fc496b369","system_id":"levelo_inurba_marseille","lat":43.32367,"lon":5.388836,"is_reserved":false,"is_disabled":false,"rental_uris":{"android":"levelo://app?vid=d7803bed-fb47-4ba6-b32d-728fc496b369","ios":"levelo://app?vid=d7803bed-fb47-4ba6-b32d-728fc496b369"},"vehicle_type_id":"4","last_reported":1706357427,"current_range_meters":13600,"station_id":"ce4bhqp2rcd13ifvqhog","pricing_plan_id":"free"},{"bike_id":"73c24fe1-c717-4648-bb40-084f29180982","system_id":"levelo_inurba_marseille","lat":43.323598,"lon":5.388793,"is_reserved":false,"is_disabled":false,"rental_uris":{"android":"levelo://app?vid=73c24fe1-c717-4648-bb40-084f29180982","ios":"levelo://app?vid=73c24fe1-c717-4648-bb40-084f29180982"},"vehicle_type_id":"4","last_reported":1706357427,"current_range_meters":28000,"station_id":"ce4bhqp2rcd13ifvqhog","pricing_plan_id":"free"},{"bike_id":"0ea3fd81-3f73-43eb-a24e-cc7fa2617f9d","system_id":"levelo_inurba_marseille","lat":43.32367,"lon":5.388836,"is_reserved":false,"is_disabled":false,"rental_uris":{"android":"levelo://app?vid=0ea3fd81-3f73-43eb-a24e-cc7fa2617f9d","ios":"levelo://app?vid=0ea3fd81-3f73-43eb-a24e-cc7fa2617f9d"},"vehicle_type_id":"4","last_reported":1706357427,"current_range_meters":30400,"station_id":"ce4bhqp2rcd13ifvqhog","pricing_plan_id":"free"},{"bike_id":"17539ff0-c1a9-4790-b399-170420149c2c","system_id":"levelo_inurba_marseille","lat":43.32367,"lon":5.388836,"is_reserved":false,"is_disabled":false,"rental_uris":{"android":"levelo://app?vid=17539ff0-c1a9-4790-b399-170420149c2c","ios":"levelo://app?vid=17539ff0-c1a9-4790-b399-170420149c2c"},"vehicle_type_id":"4","last_reported":1706357427,"current_range_meters":21600,"station_id":"ce4bhqp2rcd13ifvqhog","pricing_plan_id":"free"},{"bike_id":"c69fc2b7-c2b2-4d45-9f5c-8abf8e5b4583","system_id":"levelo_inurba_marseille","lat":43.32365,"lon":5.38882,"is_reserved":false,"is_disabled":false,"rental_uris":{"android":"levelo://app?vid=c69fc2b7-c2b2-4d45-9f5c-8abf8e5b4583","ios":"levelo://app?vid=c69fc2b7-c2b2-4d45-9f5c-8abf8e5b4583"},"vehicle_type_id":"4","last_reported":1706357427,"current_range_meters":10400,"station_id":"ce4bhqp2rcd13ifvqhog","pricing_plan_id":"free"},{"bike_id":"110e294d-4ae1-4d3c-9a1c-3e70b490847b","system_id":"levelo_inurba_marseille","lat":43.32361,"lon":5.38886,"is_reserved":false,"is_disabled":false,"rental_uris":{"android":"levelo://app?vid=110e294d-4ae1-4d3c-9a1c-3e70b490847b","ios":"levelo://app?vid=110e294d-4ae1-4d3c-9a1c-3e70b490847b"},"vehicle_type_id":"4","last_reported":1706357427,"current_range_meters":20800,"station_id":"ce4bhqp2rcd13ifvqhog","pricing_plan_id":"free"},{"bike_id":"7be10a5b-d8d4-47cd-a19d-58adada9aa30","system_id":"levelo_inurba_marseille","lat":43.32367,"lon":5.388836,"is_reserved":false,"is_disabled":false,"rental_uris":{"android":"levelo://app?vid=7be10a5b-d8d4-47cd-a19d-58adada9aa30","ios":"levelo://app?vid=7be10a5b-d8d4-47cd-a19d-58adada9aa30"},"vehicle_type_id":"4","last_reported":1706357427,"current_range_meters":20400,"station_id":"ce4bhqp2rcd13ifvqhog","pricing_plan_id":"free"},{"bike_id":"c2ec03c8-4d09-420e-940c-d94b7b335bcc","system_id":"levelo_inurba_marseille","lat":43.32367,"lon":5.388836,"is_reserved":false,"is_disabled":false,"rental_uris":{"android":"levelo://app?vid=c2ec03c8-4d09-420e-940c-d94b7b335bcc","ios":"levelo://app?vid=c2ec03c8-4d09-420e-940c-d94b7b335bcc"},"vehicle_type_id":"4","last_reported":1706357427,"current_range_meters":26800,"station_id":"ce4bhqp2rcd13ifvqhog","pricing_plan_id":"free"},{"bike_id":"2ca78edb-656b-482c-84f6-4464c673d97c","system_id":"levelo_inurba_marseille","lat":43.32367,"lon":5.388836,"is_reserved":false,"is_disabled":false,"rental_uris":{"android":"levelo://app?vid=2ca78edb-656b-482c-84f6-4464c673d97c","ios":"levelo://app?vid=2ca78edb-656b-482c-84f6-4464c673d97c"},"vehicle_type_id":"4","last_reported":1706357427,"current_range_meters":23600,"station_id":"ce4bhqp2rcd13ifvqhog","pricing_plan_id":"free"},{"bike_id":"7c66c9c8-fce3-4e85-9788-bd629b68dcd0","system_id":"levelo_inurba_marseille","lat":43.32367,"lon":5.388836,"is_reserved":false,"is_disabled":false,"rental_uris":{"android":"levelo://app?vid=7c66c9c8-fce3-4e85-9788-bd629b68dcd0","ios":"levelo://app?vid=7c66c9c8-fce3-4e85-9788-bd629b68dcd0"},"vehicle_type_id":"4","last_reported":1706357427,"current_range_meters":13200,"station_id":"ce4bhqp2rcd13ifvqhog","pricing_plan_id":"free"},{"bike_id":"92939895-7657-4819-b1f4-ca706b113a19","system_id":"levelo_inurba_marseille","lat":43.323658,"lon":5.388866,"is_reserved":false,"is_disabled":false,"rental_uris":{"android":"levelo://app?vid=92939895-7657-4819-b1f4-ca706b113a19","ios":"levelo://app?vid=92939895-7657-4819-b1f4-ca706b113a19"},"vehicle_type_id":"4","last_reported":1706357427,"current_range_meters":29200,"station_id":"ce4bhqp2rcd13ifvqhog","pricing_plan_id":"free"},{"bike_id":"49a7ca8c-21c7-478a-ab58-28ef1d551807","system_id":"levelo_inurba_marseille","lat":43.32367,"lon":5.388836,"is_reserved":false,"is_disabled":false,"rental_uris":{"android":"levelo://app?vid=49a7ca8c-21c7-478a-ab58-28ef1d551807","ios":"levelo://app?vid=49a7ca8c-21c7-478a-ab58-28ef1d551807"},"vehicle_type_id":"4","last_reported":1706357427,"current_range_meters":31600,"station_id":"ce4bhqp2rcd13ifvqhog","pricing_plan_id":"free"},{"bike_id":"5126cffd-b803-4a78-941d-b85654da286e","system_id":"levelo_inurba_marseille","lat":43.323557,"lon":5.389756,"is_reserved":false,"is_disabled":false,"rental_uris":{"android":"levelo://app?vid=5126cffd-b803-4a78-941d-b85654da286e","ios":"levelo://app?vid=5126cffd-b803-4a78-941d-b85654da286e"},"vehicle_type_id":"4","last_reported":1706357427,"current_range_meters":1200,"station_id":"ce4bhqp2rcd13ifvqhog","pricing_plan_id":"free"},{"bike_id":"9b4e22c8-caa2-46fd-9c8b-4ea5db59354f","system_id":"levelo_inurba_marseille","lat":43.29298,"lon":5.37157,"is_reserved":false,"is_disabled":false,"rental_uris":{"android":"levelo://app?vid=9b4e22c8-caa2-46fd-9c8b-4ea5db59354f","ios":"levelo://app?vid=9b4e22c8-caa2-46fd-9c8b-4ea5db59354f"},"vehicle_type_id":"4","last_reported":1706357427,"current_range_meters":0,"station_id":"ce4bgh92rcd13ifvqb40","pricing_plan_id":"free"},{"bike_id":"7f4235d8-32ab-4efa-9d41-674f28a254e6","system_id":"levelo_inurba_marseille","lat":43.293009,"lon":5.374584,"is_reserved":false,"is_disabled":false,"rental_uris":{"android":"levelo://app?vid=7f4235d8-32ab-4efa-9d41-674f28a254e6","ios":"levelo://app?vid=7f4235d8-32ab-4efa-9d41-674f28a254e6"},"vehicle_type_id":"4","last_reported":1706357427,"current_range_meters":30000,"station_id":"ce4bgi12rcd13ifvqb70","pricing_plan_id":"free"},{"bike_id":"888f9685-468a-4af1-9a08-20a028452d8a","system_id":"levelo_inurba_marseille","lat":43.2936,"lon":5.37835,"is_reserved":false,"is_disabled":false,"rental_uris":{"android":"levelo://app?vid=888f9685-468a-4af1-9a08-20a028452d8a","ios":"levelo://app?vid=888f9685-468a-4af1-9a08-20a028452d8a"},"vehicle_type_id":"4","last_reported":1706357427,"current_range_meters":26400,"station_id":"ce4bgjh2rcd13ifvqbf0","pricing_plan_id":"free"},{"bike_id":"2ce4de74-9d4e-481e-9e1b-4c986472cbc7","system_id":"levelo_inurba_marseille","lat":43.2936,"lon":5.37835,"is_reserved":false,"is_disabled":false,"rental_uris":{"android":"levelo://app?vid=2ce4de74-9d4e-481e-9e1b-4c986472cbc7","ios":"levelo://app?vid=2ce4de74-9d4e-481e-9e1b-4c986472cbc7"},"vehicle_type_id":"4","last_reported":1706357427,"current_range_meters":23200,"station_id":"ce4bgjh2rcd13ifvqbf0","pricing_plan_id":"free"},{"bike_id":"2cdd5039-e8ec-441b-9bd5-4c34b690b828","system_id":"levelo_inurba_marseille","lat":43.30487,"lon":5.39423,"is_reserved":false,"is_disabled":false,"rental_uris":{"android":"levelo://app?vid=2cdd5039-e8ec-441b-9bd5-4c34b690b828","ios":"levelo://app?vid=2cdd5039-e8ec-441b-9bd5-4c34b690b828"},"vehicle_type_id":"4","last_reported":1706357427,"current_range_meters":20400,"station_id":"","pricing_plan_id":"free"},{"bike_id":"5df84cb0-3ea6-4398-890e-15f8fbeaa291","system_id":"levelo_inurba_marseille","lat":43.29529,"lon":5.385581,"is_reserved":false,"is_disabled":false,"rental_uris":{"android":"levelo://app?vid=5df84cb0-3ea6-4398-890e-15f8fbeaa291","ios":"levelo://app?vid=5df84cb0-3ea6-4398-890e-15f8fbeaa291"},"vehicle_type_id":"4","last_reported":1706357427,"current_range_meters":10000,"station_id":"ce4bgih2rcd13ifvqba0","pricing_plan_id":"free"},{"bike_id":"0a3a3669-b2cb-4906-9ee0-17014bde4a78","system_id":"levelo_inurba_marseille","lat":43.309038,"lon":5.396546,"is_reserved":false,"is_disabled":false,"rental_uris":{"android":"levelo://app?vid=0a3a3669-b2cb-4906-9ee0-17014bde4a78","ios":"levelo://app?vid=0a3a3669-b2cb-4906-9ee0-17014bde4a78"},"vehicle_type_id":"4","last_reported":1706357427,"current_range_meters":14000,"station_id":"ce4bh012rcd13ifvqcv0","pricing_plan_id":"free"},{"bike_id":"7a0788f4-b583-4117-9ced-eaaeacf6e473","system_id":"levelo_inurba_marseille","lat":43.290779,"lon":5.371482,"is_reserved":false,"is_disabled":false,"rental_uris":{"android":"levelo://app?vid=7a0788f4-b583-4117-9ced-eaaeacf6e473","ios":"levelo://app?vid=7a0788f4-b583-4117-9ced-eaaeacf6e473"},"vehicle_type_id":"4","last_reported":1706357427,"current_range_meters":12400,"station_id":"ce4bh5p2rcd13ifvqe4g","pricing_plan_id":"free"},{"bike_id":"e3ced517-8ace-4880-bd1d-2c419d4e92dd","system_id":"levelo_inurba_marseille","lat":43.302008,"lon":5.394694,"is_reserved":false,"is_disabled":false,"rental_uris":{"android":"levelo://app?vid=e3ced517-8ace-4880-bd1d-2c419d4e92dd","ios":"levelo://app?vid=e3ced517-8ace-4880-bd1d-2c419d4e92dd"},"vehicle_type_id":"4","last_reported":1706357427,"current_range_meters":18400,"station_id":"ce4bh0p2rcd13ifvqd70","pricing_plan_id":"free"},{"bike_id":"03d7e35e-864a-4ead-af43-6969b60b74d0","system_id":"levelo_inurba_marseille","lat":43.294153,"lon":5.386305,"is_reserved":false,"is_disabled":false,"rental_uris":{"android":"levelo://app?vid=03d7e35e-864a-4ead-af43-6969b60b74d0","ios":"levelo://app?vid=03d7e35e-864a-4ead-af43-6969b60b74d0"},"vehicle_type_id":"4","last_reported":1706357427,"current_range_meters":14400,"station_id":"ce4bh2h2rcd13ifvqdh0","pricing_plan_id":"free"},{"bike_id":"adb2ab51-ad33-499b-8504-7f4236f54a7c","system_id":"levelo_inurba_marseille","lat":43.294153,"lon":5.386305,"is_reserved":false,"is_disabled":false,"rental_uris":{"android":"levelo://app?vid=adb2ab51-ad33-499b-8504-7f4236f54a7c","ios":"levelo://app?vid=adb2ab51-ad33-499b-8504-7f4236f54a7c"},"vehicle_type_id":"4","last_reported":1706357427,"current_range_meters":14800,"station_id":"ce4bh2h2rcd13ifvqdh0","pricing_plan_id":"free"},{"bike_id":"755f225b-d26a-4cd9-bde2-b74bafe42b0d","system_id":"levelo_inurba_marseille","lat":43.290319,"lon":5.375732,"is_reserved":false,"is_disabled":false,"rental_uris":{"android":"levelo://app?vid=755f225b-d26a-4cd9-bde2-b74bafe42b0d","ios":"levelo://app?vid=755f225b-d26a-4cd9-bde2-b74bafe42b0d"},"vehicle_type_id":"4","last_reported":1706357427,"current_range_meters":22400,"station_id":"ce4bh692rcd13ifvqe90","pricing_plan_id":"free"},{"bike_id":"0e9e6b39-c00e-4745-a5f1-29fca8998e23","system_id":"levelo_inurba_marseille","lat":43.290327,"lon":5.375711,"is_reserved":false,"is_disabled":false,"rental_uris":{"android":"levelo://app?vid=0e9e6b39-c00e-4745-a5f1-29fca8998e23","ios":"levelo://app?vid=0e9e6b39-c00e-4745-a5f1-29fca8998e23"},"vehicle_type_id":"4","last_reported":1706357427,"current_range_meters":3200,"station_id":"ce4bh692rcd13ifvqe90","pricing_plan_id":"free"},{"bike_id":"8fda7c88-4873-4733-8f8c-0bab6933c7fa","system_id":"levelo_inurba_marseille","lat":43.292642,"lon":5.384254,"is_reserved":false,"is_disabled":false,"rental_uris":{"android":"levelo://app?vid=8fda7c88-4873-4733-8f8c-0bab6933c7fa","ios":"levelo://app?vid=8fda7c88-4873-4733-8f8c-0bab6933c7fa"},"vehicle_type_id":"4","last_reported":1706357427,"current_range_meters":10800,"station_id":"ce4bh692rcd13ifvqea0","pricing_plan_id":"free"},{"bike_id":"c05d0f00-da8f-42fb-906b-5eae2d8304a9","system_id":"levelo_inurba_marseille","lat":43.292644,"lon":5.384257,"is_reserved":false,"is_disabled":false,"rental_uris":{"android":"levelo://app?vid=c05d0f00-da8f-42fb-906b-5eae2d8304a9","ios":"levelo://app?vid=c05d0f00-da8f-42fb-906b-5eae2d8304a9"},"vehicle_type_id":"4","last_reported":1706357427,"current_range_meters":20000,"station_id":"ce4bh692rcd13ifvqea0","pricing_plan_id":"free"},{"bike_id":"345e761d-980e-4628-8a80-2bef4221e65d","system_id":"levelo_inurba_marseille","lat":43.292644,"lon":5.384257,"is_reserved":false,"is_disabled":false,"rental_uris":{"android":"levelo://app?vid=345e761d-980e-4628-8a80-2bef4221e65d","ios":"levelo://app?vid=345e761d-980e-4628-8a80-2bef4221e65d"},"vehicle_type_id":"4","last_reported":1706357427,"current_range_meters":27200,"station_id":"ce4bh692rcd13ifvqea0","pricing_plan_id":"free"},{"bike_id":"eb6b59c5-e650-4b66-a196-e9c67dc1a819","system_id":"levelo_inurba_marseille","lat":43.304274,"lon":5.397513,"is_reserved":false,"is_disabled":false,"rental_uris":{"android":"levelo://app?vid=eb6b59c5-e650-4b66-a196-e9c67dc1a819","ios":"levelo://app?vid=eb6b59c5-e650-4b66-a196-e9c67dc1a819"},"vehicle_type_id":"4","last_reported":1706357427,"current_range_meters":29600,"station_id":"ce4bh092rcd13ifvqd20","pricing_plan_id":"free"},{"bike_id":"aaa5f030-5508-4e9c-a4b2-e05886b5ca24","system_id":"levelo_inurba_marseille","lat":43.292642,"lon":5.384254,"is_reserved":false,"is_disabled":false,"rental_uris":{"android":"levelo://app?vid=aaa5f030-5508-4e9c-a4b2-e05886b5ca24","ios":"levelo://app?vid=aaa5f030-5508-4e9c-a4b2-e05886b5ca24"},"vehicle_type_id":"4","last_reported":1706357427,"current_range_meters":12400,"station_id":"ce4bh692rcd13ifvqea0","pricing_plan_id":"free"},{"bike_id":"afa0dad0-1dde-4cc6-aa76-2887e0a03be0","system_id":"levelo_inurba_marseille","lat":43.292642,"lon":5.384254,"is_reserved":false,"is_disabled":false,"rental_uris":{"android":"levelo://app?vid=afa0dad0-1dde-4cc6-aa76-2887e0a03be0","ios":"levelo://app?vid=afa0dad0-1dde-4cc6-aa76-2887e0a03be0"},"vehicle_type_id":"4","last_reported":1706357427,"current_range_meters":12800,"station_id":"ce4bh692rcd13ifvqea0","pricing_plan_id":"free"},{"bike_id":"f46e1c35-d882-4bab-9399-bdaa8f85cdbf","system_id":"levelo_inurba_marseille","lat":43.2926,"lon":5.38441,"is_reserved":false,"is_disabled":false,"rental_uris":{"android":"levelo://app?vid=f46e1c35-d882-4bab-9399-bdaa8f85cdbf","ios":"levelo://app?vid=f46e1c35-d882-4bab-9399-bdaa8f85cdbf"},"vehicle_type_id":"4","last_reported":1706357427,"current_range_meters":0,"station_id":"ce4bh692rcd13ifvqea0","pricing_plan_id":"free"},{"bike_id":"06c23268-68bb-4911-90b4-914b8095518a","system_id":"levelo_inurba_marseille","lat":43.292642,"lon":5.384254,"is_reserved":false,"is_disabled":false,"rental_uris":{"android":"levelo://app?vid=06c23268-68bb-4911-90b4-914b8095518a","ios":"levelo://app?vid=06c23268-68bb-4911-90b4-914b8095518a"},"vehicle_type_id":"4","last_reported":1706357427,"current_range_meters":17200,"station_id":"ce4bh692rcd13ifvqea0","pricing_plan_id":"free"},{"bike_id":"6494c80d-9baf-4fe9-afa9-b12925e678fe","system_id":"levelo_inurba_marseille","lat":43.292642,"lon":5.384254,"is_reserved":false,"is_disabled":false,"rental_uris":{"android":"levelo://app?vid=6494c80d-9baf-4fe9-afa9-b12925e678fe","ios":"levelo://app?vid=6494c80d-9baf-4fe9-afa9-b12925e678fe"},"vehicle_type_id":"4","last_reported":1706357427,"current_range_meters":12000,"station_id":"ce4bh692rcd13ifvqea0","pricing_plan_id":"free"},{"bike_id":"51173cff-2d9f-41e8-8ca8-06fc3ac1ace9","system_id":"levelo_inurba_marseille","lat":43.304296,"lon":5.397513,"is_reserved":false,"is_disabled":false,"rental_uris":{"android":"levelo://app?vid=51173cff-2d9f-41e8-8ca8-06fc3ac1ace9","ios":"levelo://app?vid=51173cff-2d9f-41e8-8ca8-06fc3ac1ace9"},"vehicle_type_id":"4","last_reported":1706357427,"current_range_meters":26400,"station_id":"ce4bh092rcd13ifvqd20","pricing_plan_id":"free"},{"bike_id":"b93d3670-8609-4a07-bf2b-e2718c69a968","system_id":"levelo_inurba_marseille","lat":43.290103,"lon":5.356114,"is_reserved":false,"is_disabled":false,"rental_uris":{"android":"levelo://app?vid=b93d3670-8609-4a07-bf2b-e2718c69a968","ios":"levelo://app?vid=b93d3670-8609-4a07-bf2b-e2718c69a968"},"vehicle_type_id":"4","last_reported":1706357427,"current_range_meters":2000,"station_id":"ce4bhb92rcd13ifvqen0","pricing_plan_id":"free"},{"bike_id":"312eeda7-c3ec-4929-bbd3-0dc6beeacf59","system_id":"levelo_inurba_marseille","lat":43.29006,"lon":5.35612,"is_reserved":false,"is_disabled":false,"rental_uris":{"android":"levelo://app?vid=312eeda7-c3ec-4929-bbd3-0dc6beeacf59","ios":"levelo://app?vid=312eeda7-c3ec-4929-bbd3-0dc6beeacf59"},"vehicle_type_id":"4","last_reported":1706357427,"current_range_meters":0,"station_id":"ce4bhb92rcd13ifvqen0","pricing_plan_id":"free"},{"bike_id":"79a06bed-b6fc-45a1-82f5-4c17f490d569","system_id":"levelo_inurba_marseille","lat":43.30904,"lon":5.39957,"is_reserved":false,"is_disabled":false,"rental_uris":{"android":"levelo://app?vid=79a06bed-b6fc-45a1-82f5-4c17f490d569","ios":"levelo://app?vid=79a06bed-b6fc-45a1-82f5-4c17f490d569"},"vehicle_type_id":"4","last_reported":1706357427,"current_range_meters":22000,"station_id":"","pricing_plan_id":"free"},{"bike_id":"e91cbfb6-d0af-4de4-9219-7dc9df407aaf","system_id":"levelo_inurba_marseille","lat":43.28983,"lon":5.37837,"is_reserved":false,"is_disabled":false,"rental_uris":{"android":"levelo://app?vid=e91cbfb6-d0af-4de4-9219-7dc9df407aaf","ios":"levelo://app?vid=e91cbfb6-d0af-4de4-9219-7dc9df407aaf"},"vehicle_type_id":"4","last_reported":1706357427,"current_range_meters":2800,"station_id":"ce4bh9p2rcd13ifvqed0","pricing_plan_id":"free"},{"bike_id":"ab24fd15-a600-4e18-b17d-d7ac37f3e614","system_id":"levelo_inurba_marseille","lat":43.295169,"lon":5.390426,"is_reserved":false,"is_disabled":false,"rental_uris":{"android":"levelo://app?vid=ab24fd15-a600-4e18-b17d-d7ac37f3e614","ios":"levelo://app?vid=ab24fd15-a600-4e18-b17d-d7ac37f3e614"},"vehicle_type_id":"4","last_reported":1706357427,"current_range_meters":0,"station_id":"ce4bh3p2rcd13ifvqdp0","pricing_plan_id":"free"},{"bike_id":"1407b8e2-11c3-464d-b7bd-c9b928c6b09b","system_id":"levelo_inurba_marseille","lat":43.33021,"lon":5.39047,"is_reserved":false,"is_disabled":false,"rental_uris":{"android":"levelo://app?vid=1407b8e2-11c3-464d-b7bd-c9b928c6b09b","ios":"levelo://app?vid=1407b8e2-11c3-464d-b7bd-c9b928c6b09b"},"vehicle_type_id":"4","last_reported":1706357427,"current_range_meters":30400,"station_id":"ce4bhr92rcd13ifvqhrg","pricing_plan_id":"free"},{"bike_id":"e40cd59e-c067-489d-817b-440f879134bb","system_id":"levelo_inurba_marseille","lat":43.33026,"lon":5.39041,"is_reserved":false,"is_disabled":false,"rental_uris":{"android":"levelo://app?vid=e40cd59e-c067-489d-817b-440f879134bb","ios":"levelo://app?vid=e40cd59e-c067-489d-817b-440f879134bb"},"vehicle_type_id":"4","last_reported":1706357427,"current_range_meters":28800,"station_id":"ce4bhr92rcd13ifvqhrg","pricing_plan_id":"free"},{"bike_id":"17c9044b-1e1a-4ec5-a29a-4d2b191e11f0","system_id":"levelo_inurba_marseille","lat":43.330442,"lon":5.389148,"is_reserved":false,"is_disabled":false,"rental_uris":{"android":"levelo://app?vid=17c9044b-1e1a-4ec5-a29a-4d2b191e11f0","ios":"levelo://app?vid=17c9044b-1e1a-4ec5-a29a-4d2b191e11f0"},"vehicle_type_id":"4","last_reported":1706357427,"current_range_meters":10400,"station_id":"ce4bhr92rcd13ifvqhrg","pricing_plan_id":"free"},{"bike_id":"0fbfaf31-adc6-4728-812f-2678d4930db5","system_id":"levelo_inurba_marseille","lat":43.294153,"lon":5.386305,"is_reserved":false,"is_disabled":false,"rental_uris":{"android":"levelo://app?vid=0fbfaf31-adc6-4728-812f-2678d4930db5","ios":"levelo://app?vid=0fbfaf31-adc6-4728-812f-2678d4930db5"},"vehicle_type_id":"4","last_reported":1706357427,"current_range_meters":12000,"station_id":"ce4bh2h2rcd13ifvqdh0","pricing_plan_id":"free"},{"bike_id":"009677d4-6647-4362-b915-78e540f13c0c","system_id":"levelo_inurba_marseille","lat":43.2901,"lon":5.381269,"is_reserved":false,"is_disabled":false,"rental_uris":{"android":"levelo://app?vid=009677d4-6647-4362-b915-78e540f13c0c","ios":"levelo://app?vid=009677d4-6647-4362-b915-78e540f13c0c"},"vehicle_type_id":"4","last_reported":1706357427,"current_range_meters":18800,"station_id":"ce4bh4p2rcd13ifvqe1g","pricing_plan_id":"free"},{"bike_id":"4c892cbb-c6ed-4877-8c59-576a547193eb","system_id":"levelo_inurba_marseille","lat":43.290094,"lon":5.381264,"is_reserved":false,"is_disabled":false,"rental_uris":{"android":"levelo://app?vid=4c892cbb-c6ed-4877-8c59-576a547193eb","ios":"levelo://app?vid=4c892cbb-c6ed-4877-8c59-576a547193eb"},"vehicle_type_id":"4","last_reported":1706357427,"current_range_meters":12400,"station_id":"ce4bh4p2rcd13ifvqe1g","pricing_plan_id":"free"},{"bike_id":"c60d702a-754d-40f7-b2e7-84f244d7d076","system_id":"levelo_inurba_marseille","lat":43.28856,"lon":5.358371,"is_reserved":false,"is_disabled":false,"rental_uris":{"android":"levelo://app?vid=c60d702a-754d-40f7-b2e7-84f244d7d076","ios":"levelo://app?vid=c60d702a-754d-40f7-b2e7-84f244d7d076"},"vehicle_type_id":"4","last_reported":1706357427,"current_range_meters":31200,"station_id":"ce4bhb12rcd13ifvqem0","pricing_plan_id":"free"},{"bike_id":"5e50b5fa-cc27-4bb7-a1f3-ec4721f3e351","system_id":"levelo_inurba_marseille","lat":43.33746,"lon":5.37444,"is_reserved":false,"is_disabled":false,"rental_uris":{"android":"levelo://app?vid=5e50b5fa-cc27-4bb7-a1f3-ec4721f3e351","ios":"levelo://app?vid=5e50b5fa-cc27-4bb7-a1f3-ec4721f3e351"},"vehicle_type_id":"4","last_reported":1706357427,"current_range_meters":30400,"station_id":"","pricing_plan_id":"free"},{"bike_id":"a797ffc5-c458-40ba-9bc9-6560dd2a2969","system_id":"levelo_inurba_marseille","lat":43.312609,"lon":5.401662,"is_reserved":false,"is_disabled":false,"rental_uris":{"android":"levelo://app?vid=a797ffc5-c458-40ba-9bc9-6560dd2a2969","ios":"levelo://app?vid=a797ffc5-c458-40ba-9bc9-6560dd2a2969"},"vehicle_type_id":"4","last_reported":1706357427,"current_range_meters":28000,"station_id":"ce4bh092rcd13ifvqd30","pricing_plan_id":"free"},{"bike_id":"3e8250c4-7892-4712-900c-b50082c9d1ba","system_id":"levelo_inurba_marseille","lat":43.312609,"lon":5.401662,"is_reserved":false,"is_disabled":false,"rental_uris":{"android":"levelo://app?vid=3e8250c4-7892-4712-900c-b50082c9d1ba","ios":"levelo://app?vid=3e8250c4-7892-4712-900c-b50082c9d1ba"},"vehicle_type_id":"4","last_reported":1706357427,"current_range_meters":12400,"station_id":"ce4bh092rcd13ifvqd30","pricing_plan_id":"free"},{"bike_id":"c3cccbe5-0a8c-4346-8688-f8b6a7b9e236","system_id":"levelo_inurba_marseille","lat":43.312609,"lon":5.401662,"is_reserved":false,"is_disabled":false,"rental_uris":{"android":"levelo://app?vid=c3cccbe5-0a8c-4346-8688-f8b6a7b9e236","ios":"levelo://app?vid=c3cccbe5-0a8c-4346-8688-f8b6a7b9e236"},"vehicle_type_id":"4","last_reported":1706357427,"current_range_meters":15600,"station_id":"ce4bh092rcd13ifvqd30","pricing_plan_id":"free"},{"bike_id":"a955b3e1-d2f0-4235-a805-c4e33bb52b48","system_id":"levelo_inurba_marseille","lat":43.312609,"lon":5.401662,"is_reserved":false,"is_disabled":false,"rental_uris":{"android":"levelo://app?vid=a955b3e1-d2f0-4235-a805-c4e33bb52b48","ios":"levelo://app?vid=a955b3e1-d2f0-4235-a805-c4e33bb52b48"},"vehicle_type_id":"4","last_reported":1706357427,"current_range_meters":9200,"station_id":"ce4bh092rcd13ifvqd30","pricing_plan_id":"free"},{"bike_id":"43236fd2-e2e9-4b1e-9ed5-bfdbf82475b3","system_id":"levelo_inurba_marseille","lat":43.33751,"lon":5.37444,"is_reserved":false,"is_disabled":false,"rental_uris":{"android":"levelo://app?vid=43236fd2-e2e9-4b1e-9ed5-bfdbf82475b3","ios":"levelo://app?vid=43236fd2-e2e9-4b1e-9ed5-bfdbf82475b3"},"vehicle_type_id":"4","last_reported":1706357427,"current_range_meters":28400,"station_id":"","pricing_plan_id":"free"},{"bike_id":"b7f12eab-e0a6-499e-87ec-2b4381c4602a","system_id":"levelo_inurba_marseille","lat":43.337523,"lon":5.374737,"is_reserved":false,"is_disabled":false,"rental_uris":{"android":"levelo://app?vid=b7f12eab-e0a6-499e-87ec-2b4381c4602a","ios":"levelo://app?vid=b7f12eab-e0a6-499e-87ec-2b4381c4602a"},"vehicle_type_id":"4","last_reported":1706357427,"current_range_meters":24400,"station_id":"","pricing_plan_id":"free"},{"bike_id":"d342034f-acfe-423c-8f3f-343fbdea5188","system_id":"levelo_inurba_marseille","lat":43.33758,"lon":5.37448,"is_reserved":false,"is_disabled":false,"rental_uris":{"android":"levelo://app?vid=d342034f-acfe-423c-8f3f-343fbdea5188","ios":"levelo://app?vid=d342034f-acfe-423c-8f3f-343fbdea5188"},"vehicle_type_id":"4","last_reported":1706357427,"current_range_meters":22400,"station_id":"","pricing_plan_id":"free"},{"bike_id":"a7827825-c676-4912-93e3-b8f665ca18f4","system_id":"levelo_inurba_marseille","lat":43.30642,"lon":5.401031,"is_reserved":false,"is_disabled":false,"rental_uris":{"android":"levelo://app?vid=a7827825-c676-4912-93e3-b8f665ca18f4","ios":"levelo://app?vid=a7827825-c676-4912-93e3-b8f665ca18f4"},"vehicle_type_id":"4","last_reported":1706357427,"current_range_meters":20000,"station_id":"ce4bh112rcd13ifvqda0","pricing_plan_id":"free"},{"bike_id":"b7d3b81d-d85a-44b5-a0c7-8f9c9f74639e","system_id":"levelo_inurba_marseille","lat":43.33762,"lon":5.37466,"is_reserved":false,"is_disabled":false,"rental_uris":{"android":"levelo://app?vid=b7d3b81d-d85a-44b5-a0c7-8f9c9f74639e","ios":"levelo://app?vid=b7d3b81d-d85a-44b5-a0c7-8f9c9f74639e"},"vehicle_type_id":"4","last_reported":1706357427,"current_range_meters":30800,"station_id":"","pricing_plan_id":"free"},{"bike_id":"5b65f315-e814-43b0-b5ed-004ec0077963","system_id":"levelo_inurba_marseille","lat":43.337643,"lon":5.374572,"is_reserved":false,"is_disabled":false,"rental_uris":{"android":"levelo://app?vid=5b65f315-e814-43b0-b5ed-004ec0077963","ios":"levelo://app?vid=5b65f315-e814-43b0-b5ed-004ec0077963"},"vehicle_type_id":"4","last_reported":1706357427,"current_range_meters":29200,"station_id":"","pricing_plan_id":"free"},{"bike_id":"7175137a-39d7-4267-b76c-1bd37a25d580","system_id":"levelo_inurba_marseille","lat":43.306412,"lon":5.401035,"is_reserved":false,"is_disabled":false,"rental_uris":{"android":"levelo://app?vid=7175137a-39d7-4267-b76c-1bd37a25d580","ios":"levelo://app?vid=7175137a-39d7-4267-b76c-1bd37a25d580"},"vehicle_type_id":"4","last_reported":1706357427,"current_range_meters":12800,"station_id":"ce4bh112rcd13ifvqda0","pricing_plan_id":"free"},{"bike_id":"1a471c8b-7817-4745-bdc3-25861b56afd7","system_id":"levelo_inurba_marseille","lat":43.286961,"lon":5.373785,"is_reserved":false,"is_disabled":false,"rental_uris":{"android":"levelo://app?vid=1a471c8b-7817-4745-bdc3-25861b56afd7","ios":"levelo://app?vid=1a471c8b-7817-4745-bdc3-25861b56afd7"},"vehicle_type_id":"4","last_reported":1706357427,"current_range_meters":31200,"station_id":"ce4bh3p2rcd13ifvqdq0","pricing_plan_id":"free"},{"bike_id":"55b1434d-f377-4ba0-a2b0-ad8fe7aa0a84","system_id":"levelo_inurba_marseille","lat":43.286591,"lon":5.363346,"is_reserved":false,"is_disabled":false,"rental_uris":{"android":"levelo://app?vid=55b1434d-f377-4ba0-a2b0-ad8fe7aa0a84","ios":"levelo://app?vid=55b1434d-f377-4ba0-a2b0-ad8fe7aa0a84"},"vehicle_type_id":"4","last_reported":1706357427,"current_range_meters":24000,"station_id":"ce4bhah2rcd13ifvqej0","pricing_plan_id":"free"},{"bike_id":"7cb64250-0051-45c6-a63c-16802af2f5c2","system_id":"levelo_inurba_marseille","lat":43.298681,"lon":5.397225,"is_reserved":false,"is_disabled":false,"rental_uris":{"android":"levelo://app?vid=7cb64250-0051-45c6-a63c-16802af2f5c2","ios":"levelo://app?vid=7cb64250-0051-45c6-a63c-16802af2f5c2"},"vehicle_type_id":"4","last_reported":1706357427,"current_range_meters":26000,"station_id":"ce4bh0h2rcd13ifvqd50","pricing_plan_id":"free"},{"bike_id":"0605bbed-b897-47ca-9d0d-88acd049e777","system_id":"levelo_inurba_marseille","lat":43.286961,"lon":5.373785,"is_reserved":false,"is_disabled":false,"rental_uris":{"android":"levelo://app?vid=0605bbed-b897-47ca-9d0d-88acd049e777","ios":"levelo://app?vid=0605bbed-b897-47ca-9d0d-88acd049e777"},"vehicle_type_id":"4","last_reported":1706357427,"current_range_meters":25600,"station_id":"ce4bh3p2rcd13ifvqdq0","pricing_plan_id":"free"},{"bike_id":"98301593-87dd-4cc1-b684-d7ea4e2cb8d2","system_id":"levelo_inurba_marseille","lat":43.289307,"lon":5.38406,"is_reserved":false,"is_disabled":false,"rental_uris":{"android":"levelo://app?vid=98301593-87dd-4cc1-b684-d7ea4e2cb8d2","ios":"levelo://app?vid=98301593-87dd-4cc1-b684-d7ea4e2cb8d2"},"vehicle_type_id":"4","last_reported":1706357427,"current_range_meters":24000,"station_id":"ce4bh612rcd13ifvqe6g","pricing_plan_id":"free"},{"bike_id":"183bb1c1-398f-466c-b05d-327ac4efc436","system_id":"levelo_inurba_marseille","lat":43.302511,"lon":5.400653,"is_reserved":false,"is_disabled":false,"rental_uris":{"android":"levelo://app?vid=183bb1c1-398f-466c-b05d-327ac4efc436","ios":"levelo://app?vid=183bb1c1-398f-466c-b05d-327ac4efc436"},"vehicle_type_id":"4","last_reported":1706357427,"current_range_meters":15200,"station_id":"ce4bgth2rcd13ifvqch0","pricing_plan_id":"free"},{"bike_id":"cf6b9e1c-b7aa-450b-a8d1-4c7cf7499feb","system_id":"levelo_inurba_marseille","lat":43.30143,"lon":5.37413,"is_reserved":false,"is_disabled":false,"rental_uris":{"android":"levelo://app?vid=cf6b9e1c-b7aa-450b-a8d1-4c7cf7499feb","ios":"levelo://app?vid=cf6b9e1c-b7aa-450b-a8d1-4c7cf7499feb"},"vehicle_type_id":"4","last_reported":1706357427,"current_range_meters":31600,"station_id":"ce4bgs92rcd13ifvqcc0","pricing_plan_id":"free"},{"bike_id":"8da08167-8955-4998-99ec-e47345f98408","system_id":"levelo_inurba_marseille","lat":43.286039,"lon":5.370681,"is_reserved":false,"is_disabled":false,"rental_uris":{"android":"levelo://app?vid=8da08167-8955-4998-99ec-e47345f98408","ios":"levelo://app?vid=8da08167-8955-4998-99ec-e47345f98408"},"vehicle_type_id":"4","last_reported":1706357427,"current_range_meters":29600,"station_id":"ce4bht12rcd13ifvqi60","pricing_plan_id":"free"},{"bike_id":"26339cac-39f8-47cc-a5be-74ce8e87d19d","system_id":"levelo_inurba_marseille","lat":43.286039,"lon":5.370681,"is_reserved":false,"is_disabled":false,"rental_uris":{"android":"levelo://app?vid=26339cac-39f8-47cc-a5be-74ce8e87d19d","ios":"levelo://app?vid=26339cac-39f8-47cc-a5be-74ce8e87d19d"},"vehicle_type_id":"4","last_reported":1706357427,"current_range_meters":2800,"station_id":"ce4bht12rcd13ifvqi60","pricing_plan_id":"free"},{"bike_id":"29f795df-6a4a-43f9-a3b9-3426b9a9a4d1","system_id":"levelo_inurba_marseille","lat":43.286039,"lon":5.370681,"is_reserved":false,"is_disabled":false,"rental_uris":{"android":"levelo://app?vid=29f795df-6a4a-43f9-a3b9-3426b9a9a4d1","ios":"levelo://app?vid=29f795df-6a4a-43f9-a3b9-3426b9a9a4d1"},"vehicle_type_id":"4","last_reported":1706357427,"current_range_meters":22000,"station_id":"ce4bht12rcd13ifvqi60","pricing_plan_id":"free"},{"bike_id":"9647f043-366a-43b2-b024-f06efb08f184","system_id":"levelo_inurba_marseille","lat":43.287184,"lon":5.37937,"is_reserved":false,"is_disabled":false,"rental_uris":{"android":"levelo://app?vid=9647f043-366a-43b2-b024-f06efb08f184","ios":"levelo://app?vid=9647f043-366a-43b2-b024-f06efb08f184"},"vehicle_type_id":"4","last_reported":1706357427,"current_range_meters":26000,"station_id":"ce4bh9p2rcd13ifvqec0","pricing_plan_id":"free"},{"bike_id":"1d43763d-30a0-4590-8cf3-eaa4d8a8e11a","system_id":"levelo_inurba_marseille","lat":43.287185,"lon":5.379373,"is_reserved":false,"is_disabled":false,"rental_uris":{"android":"levelo://app?vid=1d43763d-30a0-4590-8cf3-eaa4d8a8e11a","ios":"levelo://app?vid=1d43763d-30a0-4590-8cf3-eaa4d8a8e11a"},"vehicle_type_id":"4","last_reported":1706357427,"current_range_meters":18400,"station_id":"ce4bh9p2rcd13ifvqec0","pricing_plan_id":"free"},{"bike_id":"2251fc59-2828-4aff-966d-0a6777ecbd36","system_id":"levelo_inurba_marseille","lat":43.316918,"lon":5.404646,"is_reserved":false,"is_disabled":false,"rental_uris":{"android":"levelo://app?vid=2251fc59-2828-4aff-966d-0a6777ecbd36","ios":"levelo://app?vid=2251fc59-2828-4aff-966d-0a6777ecbd36"},"vehicle_type_id":"4","last_reported":1706357427,"current_range_meters":7200,"station_id":"ce4bh012rcd13ifvqd00","pricing_plan_id":"free"},{"bike_id":"b332df60-0a81-4841-a021-c7d35a6d7740","system_id":"levelo_inurba_marseille","lat":43.316908,"lon":5.40465,"is_reserved":false,"is_disabled":false,"rental_uris":{"android":"levelo://app?vid=b332df60-0a81-4841-a021-c7d35a6d7740","ios":"levelo://app?vid=b332df60-0a81-4841-a021-c7d35a6d7740"},"vehicle_type_id":"4","last_reported":1706357427,"current_range_meters":9600,"station_id":"ce4bh012rcd13ifvqd00","pricing_plan_id":"free"},{"bike_id":"315e45df-6d01-4551-9d5f-6aca85d814c7","system_id":"levelo_inurba_marseille","lat":43.316943,"lon":5.404656,"is_reserved":false,"is_disabled":false,"rental_uris":{"android":"levelo://app?vid=315e45df-6d01-4551-9d5f-6aca85d814c7","ios":"levelo://app?vid=315e45df-6d01-4551-9d5f-6aca85d814c7"},"vehicle_type_id":"4","last_reported":1706357427,"current_range_meters":26000,"station_id":"ce4bh012rcd13ifvqd00","pricing_plan_id":"free"},{"bike_id":"c011c8ab-84d3-4588-a847-3df4c973ed80","system_id":"levelo_inurba_marseille","lat":43.316828,"lon":5.404723,"is_reserved":false,"is_disabled":false,"rental_uris":{"android":"levelo://app?vid=c011c8ab-84d3-4588-a847-3df4c973ed80","ios":"levelo://app?vid=c011c8ab-84d3-4588-a847-3df4c973ed80"},"vehicle_type_id":"4","last_reported":1706357427,"current_range_meters":12800,"station_id":"ce4bh012rcd13ifvqd00","pricing_plan_id":"free"},{"bike_id":"3f595f48-56db-423c-88aa-472d145c02bc","system_id":"levelo_inurba_marseille","lat":43.31696,"lon":5.40473,"is_reserved":false,"is_disabled":false,"rental_uris":{"android":"levelo://app?vid=3f595f48-56db-423c-88aa-472d145c02bc","ios":"levelo://app?vid=3f595f48-56db-423c-88aa-472d145c02bc"},"vehicle_type_id":"4","last_reported":1706357427,"current_range_meters":31600,"station_id":"ce4bh012rcd13ifvqd00","pricing_plan_id":"free"},{"bike_id":"03073519-406e-4ae2-9042-9326bf94e3a9","system_id":"levelo_inurba_marseille","lat":43.31693,"lon":5.40474,"is_reserved":false,"is_disabled":false,"rental_uris":{"android":"levelo://app?vid=03073519-406e-4ae2-9042-9326bf94e3a9","ios":"levelo://app?vid=03073519-406e-4ae2-9042-9326bf94e3a9"},"vehicle_type_id":"4","last_reported":1706357427,"current_range_meters":21600,"station_id":"ce4bh012rcd13ifvqd00","pricing_plan_id":"free"},{"bike_id":"4a23aab4-f75e-4842-8208-ceddffb67393","system_id":"levelo_inurba_marseille","lat":43.284538,"lon":5.358657,"is_reserved":false,"is_disabled":false,"rental_uris":{"android":"levelo://app?vid=4a23aab4-f75e-4842-8208-ceddffb67393","ios":"levelo://app?vid=4a23aab4-f75e-4842-8208-ceddffb67393"},"vehicle_type_id":"4","last_reported":1706357427,"current_range_meters":10800,"station_id":"ce4bhah2rcd13ifvqei0","pricing_plan_id":"free"},{"bike_id":"e7cf27d4-ab31-4372-8303-963bad52b1b9","system_id":"levelo_inurba_marseille","lat":43.284534,"lon":5.358662,"is_reserved":false,"is_disabled":false,"rental_uris":{"android":"levelo://app?vid=e7cf27d4-ab31-4372-8303-963bad52b1b9","ios":"levelo://app?vid=e7cf27d4-ab31-4372-8303-963bad52b1b9"},"vehicle_type_id":"4","last_reported":1706357427,"current_range_meters":30800,"station_id":"ce4bhah2rcd13ifvqei0","pricing_plan_id":"free"},{"bike_id":"27d0e217-ed28-443d-8dea-7bf5eb4cfa7b","system_id":"levelo_inurba_marseille","lat":43.285848,"lon":5.350787,"is_reserved":false,"is_disabled":false,"rental_uris":{"android":"levelo://app?vid=27d0e217-ed28-443d-8dea-7bf5eb4cfa7b","ios":"levelo://app?vid=27d0e217-ed28-443d-8dea-7bf5eb4cfa7b"},"vehicle_type_id":"4","last_reported":1706357427,"current_range_meters":18000,"station_id":"ce4bhch2rcd13ifvqeug","pricing_plan_id":"free"},{"bike_id":"b114626f-7d10-4440-bd56-46102f1bc82d","system_id":"levelo_inurba_marseille","lat":43.285856,"lon":5.350771,"is_reserved":false,"is_disabled":false,"rental_uris":{"android":"levelo://app?vid=b114626f-7d10-4440-bd56-46102f1bc82d","ios":"levelo://app?vid=b114626f-7d10-4440-bd56-46102f1bc82d"},"vehicle_type_id":"4","last_reported":1706357427,"current_range_meters":15600,"station_id":"ce4bhch2rcd13ifvqeug","pricing_plan_id":"free"},{"bike_id":"2cd92a02-8429-4305-826a-8632e3954970","system_id":"levelo_inurba_marseille","lat":43.285856,"lon":5.350771,"is_reserved":false,"is_disabled":false,"rental_uris":{"android":"levelo://app?vid=2cd92a02-8429-4305-826a-8632e3954970","ios":"levelo://app?vid=2cd92a02-8429-4305-826a-8632e3954970"},"vehicle_type_id":"4","last_reported":1706357427,"current_range_meters":8800,"station_id":"ce4bhch2rcd13ifvqeug","pricing_plan_id":"free"},{"bike_id":"55993c3f-eb92-4bc7-9c66-80f3e0ea39aa","system_id":"levelo_inurba_marseille","lat":43.285856,"lon":5.350771,"is_reserved":false,"is_disabled":false,"rental_uris":{"android":"levelo://app?vid=55993c3f-eb92-4bc7-9c66-80f3e0ea39aa","ios":"levelo://app?vid=55993c3f-eb92-4bc7-9c66-80f3e0ea39aa"},"vehicle_type_id":"4","last_reported":1706357427,"current_range_meters":30400,"station_id":"ce4bhch2rcd13ifvqeug","pricing_plan_id":"free"},{"bike_id":"6603de51-0f6f-4ea8-8766-c2403fe7ac8d","system_id":"levelo_inurba_marseille","lat":43.285856,"lon":5.350771,"is_reserved":false,"is_disabled":false,"rental_uris":{"android":"levelo://app?vid=6603de51-0f6f-4ea8-8766-c2403fe7ac8d","ios":"levelo://app?vid=6603de51-0f6f-4ea8-8766-c2403fe7ac8d"},"vehicle_type_id":"4","last_reported":1706357427,"current_range_meters":19600,"station_id":"ce4bhch2rcd13ifvqeug","pricing_plan_id":"free"},{"bike_id":"7eb8550f-b6d6-444b-b290-34eac0303f7e","system_id":"levelo_inurba_marseille","lat":43.285856,"lon":5.350771,"is_reserved":false,"is_disabled":false,"rental_uris":{"android":"levelo://app?vid=7eb8550f-b6d6-444b-b290-34eac0303f7e","ios":"levelo://app?vid=7eb8550f-b6d6-444b-b290-34eac0303f7e"},"vehicle_type_id":"4","last_reported":1706357427,"current_range_meters":8000,"station_id":"ce4bhch2rcd13ifvqeug","pricing_plan_id":"free"},{"bike_id":"c813314a-f51c-4b14-8890-83c77ef4925a","system_id":"levelo_inurba_marseille","lat":43.283998,"lon":5.375062,"is_reserved":false,"is_disabled":false,"rental_uris":{"android":"levelo://app?vid=c813314a-f51c-4b14-8890-83c77ef4925a","ios":"levelo://app?vid=c813314a-f51c-4b14-8890-83c77ef4925a"},"vehicle_type_id":"4","last_reported":1706357427,"current_range_meters":24400,"station_id":"ce4bh412rcd13ifvqds0","pricing_plan_id":"free"},{"bike_id":"1576e39e-9137-4efb-8d2e-9f3f1b9144f3","system_id":"levelo_inurba_marseille","lat":43.283998,"lon":5.375062,"is_reserved":false,"is_disabled":false,"rental_uris":{"android":"levelo://app?vid=1576e39e-9137-4efb-8d2e-9f3f1b9144f3","ios":"levelo://app?vid=1576e39e-9137-4efb-8d2e-9f3f1b9144f3"},"vehicle_type_id":"4","last_reported":1706357427,"current_range_meters":22000,"station_id":"ce4bh412rcd13ifvqds0","pricing_plan_id":"free"},{"bike_id":"7f8735bf-6503-4ac9-b518-2afd70e802af","system_id":"levelo_inurba_marseille","lat":43.283998,"lon":5.375062,"is_reserved":false,"is_disabled":false,"rental_uris":{"android":"levelo://app?vid=7f8735bf-6503-4ac9-b518-2afd70e802af","ios":"levelo://app?vid=7f8735bf-6503-4ac9-b518-2afd70e802af"},"vehicle_type_id":"4","last_reported":1706357427,"current_range_meters":18800,"station_id":"ce4bh412rcd13ifvqds0","pricing_plan_id":"free"},{"bike_id":"c0d510b3-e67b-4c8c-8745-d88abeaba78e","system_id":"levelo_inurba_marseille","lat":43.295713,"lon":5.399639,"is_reserved":false,"is_disabled":false,"rental_uris":{"android":"levelo://app?vid=c0d510b3-e67b-4c8c-8745-d88abeaba78e","ios":"levelo://app?vid=c0d510b3-e67b-4c8c-8745-d88abeaba78e"},"vehicle_type_id":"4","last_reported":1706357427,"current_range_meters":25600,"station_id":"ce4bh312rcd13ifvqdj0","pricing_plan_id":"free"},{"bike_id":"4271315e-3517-43a0-98a0-3c1558040fc6","system_id":"levelo_inurba_marseille","lat":43.319179,"lon":5.407725,"is_reserved":false,"is_disabled":false,"rental_uris":{"android":"levelo://app?vid=4271315e-3517-43a0-98a0-3c1558040fc6","ios":"levelo://app?vid=4271315e-3517-43a0-98a0-3c1558040fc6"},"vehicle_type_id":"4","last_reported":1706357427,"current_range_meters":28400,"station_id":"ce4bhq12rcd13ifvqhig","pricing_plan_id":"free"},{"bike_id":"d798d62e-bfa1-4703-a10d-e77d842b6afb","system_id":"levelo_inurba_marseille","lat":43.319179,"lon":5.407725,"is_reserved":false,"is_disabled":false,"rental_uris":{"android":"levelo://app?vid=d798d62e-bfa1-4703-a10d-e77d842b6afb","ios":"levelo://app?vid=d798d62e-bfa1-4703-a10d-e77d842b6afb"},"vehicle_type_id":"4","last_reported":1706357427,"current_range_meters":10000,"station_id":"ce4bhq12rcd13ifvqhig","pricing_plan_id":"free"},{"bike_id":"fe569c08-e0e1-4141-bac2-c6a16f5f5c74","system_id":"levelo_inurba_marseille","lat":43.33717,"lon":5.391857,"is_reserved":false,"is_disabled":false,"rental_uris":{"android":"levelo://app?vid=fe569c08-e0e1-4141-bac2-c6a16f5f5c74","ios":"levelo://app?vid=fe569c08-e0e1-4141-bac2-c6a16f5f5c74"},"vehicle_type_id":"4","last_reported":1706357427,"current_range_meters":29600,"station_id":"ce4bhr92rcd13ifvqhsg","pricing_plan_id":"free"},{"bike_id":"29c971f3-912e-4f79-8c22-d20e1f4b5d74","system_id":"levelo_inurba_marseille","lat":43.337168,"lon":5.391825,"is_reserved":false,"is_disabled":false,"rental_uris":{"android":"levelo://app?vid=29c971f3-912e-4f79-8c22-d20e1f4b5d74","ios":"levelo://app?vid=29c971f3-912e-4f79-8c22-d20e1f4b5d74"},"vehicle_type_id":"4","last_reported":1706357427,"current_range_meters":20400,"station_id":"ce4bhr92rcd13ifvqhsg","pricing_plan_id":"free"},{"bike_id":"62d59916-6117-463b-9a58-062d32529660","system_id":"levelo_inurba_marseille","lat":43.319179,"lon":5.407725,"is_reserved":false,"is_disabled":false,"rental_uris":{"android":"levelo://app?vid=62d59916-6117-463b-9a58-062d32529660","ios":"levelo://app?vid=62d59916-6117-463b-9a58-062d32529660"},"vehicle_type_id":"4","last_reported":1706357427,"current_range_meters":2400,"station_id":"ce4bhq12rcd13ifvqhig","pricing_plan_id":"free"},{"bike_id":"30567c04-bdfc-44d3-af0f-c378d6201c55","system_id":"levelo_inurba_marseille","lat":43.284787,"lon":5.384116,"is_reserved":false,"is_disabled":false,"rental_uris":{"android":"levelo://app?vid=30567c04-bdfc-44d3-af0f-c378d6201c55","ios":"levelo://app?vid=30567c04-bdfc-44d3-af0f-c378d6201c55"},"vehicle_type_id":"4","last_reported":1706357427,"current_range_meters":14000,"station_id":"ce4bh512rcd13ifvqe3g","pricing_plan_id":"free"},{"bike_id":"92c20233-919e-485f-8391-041485e14939","system_id":"levelo_inurba_marseille","lat":43.284219,"lon":5.3497,"is_reserved":false,"is_disabled":false,"rental_uris":{"android":"levelo://app?vid=92c20233-919e-485f-8391-041485e14939","ios":"levelo://app?vid=92c20233-919e-485f-8391-041485e14939"},"vehicle_type_id":"4","last_reported":1706357427,"current_range_meters":14800,"station_id":"ce4bhbh2rcd13ifvqepg","pricing_plan_id":"free"},{"bike_id":"d5e21001-e786-416e-bf01-74a2010659d3","system_id":"levelo_inurba_marseille","lat":43.283494,"lon":5.380945,"is_reserved":false,"is_disabled":false,"rental_uris":{"android":"levelo://app?vid=d5e21001-e786-416e-bf01-74a2010659d3","ios":"levelo://app?vid=d5e21001-e786-416e-bf01-74a2010659d3"},"vehicle_type_id":"4","last_reported":1706357427,"current_range_meters":28400,"station_id":"ce4bh412rcd13ifvqdr0","pricing_plan_id":"free"},{"bike_id":"0ed89e60-bb9f-4530-b9ae-13c36474ad12","system_id":"levelo_inurba_marseille","lat":43.283494,"lon":5.380945,"is_reserved":false,"is_disabled":false,"rental_uris":{"android":"levelo://app?vid=0ed89e60-bb9f-4530-b9ae-13c36474ad12","ios":"levelo://app?vid=0ed89e60-bb9f-4530-b9ae-13c36474ad12"},"vehicle_type_id":"4","last_reported":1706357427,"current_range_meters":4400,"station_id":"ce4bh412rcd13ifvqdr0","pricing_plan_id":"free"},{"bike_id":"ad3c6411-622f-4e9b-98e5-7a2c7937d741","system_id":"levelo_inurba_marseille","lat":43.284219,"lon":5.3497,"is_reserved":false,"is_disabled":false,"rental_uris":{"android":"levelo://app?vid=ad3c6411-622f-4e9b-98e5-7a2c7937d741","ios":"levelo://app?vid=ad3c6411-622f-4e9b-98e5-7a2c7937d741"},"vehicle_type_id":"4","last_reported":1706357427,"current_range_meters":15200,"station_id":"ce4bhbh2rcd13ifvqepg","pricing_plan_id":"free"},{"bike_id":"e7bf09da-e06d-4272-ae0f-3360e678cad3","system_id":"levelo_inurba_marseille","lat":43.28427,"lon":5.34977,"is_reserved":false,"is_disabled":false,"rental_uris":{"android":"levelo://app?vid=e7bf09da-e06d-4272-ae0f-3360e678cad3","ios":"levelo://app?vid=e7bf09da-e06d-4272-ae0f-3360e678cad3"},"vehicle_type_id":"4","last_reported":1706357427,"current_range_meters":11200,"station_id":"ce4bhbh2rcd13ifvqepg","pricing_plan_id":"free"},{"bike_id":"d42d291b-ed36-4c65-ace3-4f60c773bd7e","system_id":"levelo_inurba_marseille","lat":43.284219,"lon":5.3497,"is_reserved":false,"is_disabled":false,"rental_uris":{"android":"levelo://app?vid=d42d291b-ed36-4c65-ace3-4f60c773bd7e","ios":"levelo://app?vid=d42d291b-ed36-4c65-ace3-4f60c773bd7e"},"vehicle_type_id":"4","last_reported":1706357427,"current_range_meters":23600,"station_id":"ce4bhbh2rcd13ifvqepg","pricing_plan_id":"free"},{"bike_id":"d7f38616-fac4-4771-b7ac-b8cdcb5c43bd","system_id":"levelo_inurba_marseille","lat":43.284214,"lon":5.349706,"is_reserved":false,"is_disabled":false,"rental_uris":{"android":"levelo://app?vid=d7f38616-fac4-4771-b7ac-b8cdcb5c43bd","ios":"levelo://app?vid=d7f38616-fac4-4771-b7ac-b8cdcb5c43bd"},"vehicle_type_id":"4","last_reported":1706357427,"current_range_meters":26000,"station_id":"ce4bhbh2rcd13ifvqepg","pricing_plan_id":"free"},{"bike_id":"2be7a22f-f4b7-48a6-96ba-7fc49ff17fc4","system_id":"levelo_inurba_marseille","lat":43.284189,"lon":5.349924,"is_reserved":false,"is_disabled":false,"rental_uris":{"android":"levelo://app?vid=2be7a22f-f4b7-48a6-96ba-7fc49ff17fc4","ios":"levelo://app?vid=2be7a22f-f4b7-48a6-96ba-7fc49ff17fc4"},"vehicle_type_id":"4","last_reported":1706357427,"current_range_meters":20000,"station_id":"ce4bhbh2rcd13ifvqepg","pricing_plan_id":"free"},{"bike_id":"fb3806ee-d358-4682-bd48-b6f7f51ab441","system_id":"levelo_inurba_marseille","lat":43.284219,"lon":5.3497,"is_reserved":false,"is_disabled":false,"rental_uris":{"android":"levelo://app?vid=fb3806ee-d358-4682-bd48-b6f7f51ab441","ios":"levelo://app?vid=fb3806ee-d358-4682-bd48-b6f7f51ab441"},"vehicle_type_id":"4","last_reported":1706357427,"current_range_meters":24000,"station_id":"ce4bhbh2rcd13ifvqepg","pricing_plan_id":"free"},{"bike_id":"4eae59f1-45e4-45ef-bb68-da9ab1fd31df","system_id":"levelo_inurba_marseille","lat":43.284219,"lon":5.3497,"is_reserved":false,"is_disabled":false,"rental_uris":{"android":"levelo://app?vid=4eae59f1-45e4-45ef-bb68-da9ab1fd31df","ios":"levelo://app?vid=4eae59f1-45e4-45ef-bb68-da9ab1fd31df"},"vehicle_type_id":"4","last_reported":1706357427,"current_range_meters":30400,"station_id":"ce4bhbh2rcd13ifvqepg","pricing_plan_id":"free"},{"bike_id":"abf0807d-4c4b-4d14-b881-b1e29f2f4f83","system_id":"levelo_inurba_marseille","lat":43.284219,"lon":5.3497,"is_reserved":false,"is_disabled":false,"rental_uris":{"android":"levelo://app?vid=abf0807d-4c4b-4d14-b881-b1e29f2f4f83","ios":"levelo://app?vid=abf0807d-4c4b-4d14-b881-b1e29f2f4f83"},"vehicle_type_id":"4","last_reported":1706357427,"current_range_meters":12400,"station_id":"ce4bhbh2rcd13ifvqepg","pricing_plan_id":"free"},{"bike_id":"ebfe9909-198e-4bc3-b372-0c66aa72f84c","system_id":"levelo_inurba_marseille","lat":43.284219,"lon":5.3497,"is_reserved":false,"is_disabled":false,"rental_uris":{"android":"levelo://app?vid=ebfe9909-198e-4bc3-b372-0c66aa72f84c","ios":"levelo://app?vid=ebfe9909-198e-4bc3-b372-0c66aa72f84c"},"vehicle_type_id":"4","last_reported":1706357427,"current_range_meters":15200,"station_id":"ce4bhbh2rcd13ifvqepg","pricing_plan_id":"free"},{"bike_id":"240d93d3-eded-4e9c-9e8d-5d010b6e03fb","system_id":"levelo_inurba_marseille","lat":43.284214,"lon":5.349706,"is_reserved":false,"is_disabled":false,"rental_uris":{"android":"levelo://app?vid=240d93d3-eded-4e9c-9e8d-5d010b6e03fb","ios":"levelo://app?vid=240d93d3-eded-4e9c-9e8d-5d010b6e03fb"},"vehicle_type_id":"4","last_reported":1706357427,"current_range_meters":19600,"station_id":"ce4bhbh2rcd13ifvqepg","pricing_plan_id":"free"},{"bike_id":"898eeaa3-4723-489a-b2c4-625997b263c1","system_id":"levelo_inurba_marseille","lat":43.284217,"lon":5.349697,"is_reserved":false,"is_disabled":false,"rental_uris":{"android":"levelo://app?vid=898eeaa3-4723-489a-b2c4-625997b263c1","ios":"levelo://app?vid=898eeaa3-4723-489a-b2c4-625997b263c1"},"vehicle_type_id":"4","last_reported":1706357427,"current_range_meters":29600,"station_id":"ce4bhbh2rcd13ifvqepg","pricing_plan_id":"free"},{"bike_id":"d0114db0-d38e-4e30-8ef0-61b4aaaee3c4","system_id":"levelo_inurba_marseille","lat":43.284217,"lon":5.349697,"is_reserved":false,"is_disabled":false,"rental_uris":{"android":"levelo://app?vid=d0114db0-d38e-4e30-8ef0-61b4aaaee3c4","ios":"levelo://app?vid=d0114db0-d38e-4e30-8ef0-61b4aaaee3c4"},"vehicle_type_id":"4","last_reported":1706357427,"current_range_meters":20800,"station_id":"ce4bhbh2rcd13ifvqepg","pricing_plan_id":"free"},{"bike_id":"b41bcd76-cb12-4b33-95cd-9444d1e23578","system_id":"levelo_inurba_marseille","lat":43.293556,"lon":5.401561,"is_reserved":false,"is_disabled":false,"rental_uris":{"android":"levelo://app?vid=b41bcd76-cb12-4b33-95cd-9444d1e23578","ios":"levelo://app?vid=b41bcd76-cb12-4b33-95cd-9444d1e23578"},"vehicle_type_id":"4","last_reported":1706357427,"current_range_meters":10000,"station_id":"","pricing_plan_id":"free"},{"bike_id":"52cba042-0ec5-47ea-9016-8ac5a0f1fdb1","system_id":"levelo_inurba_marseille","lat":43.28937,"lon":5.39636,"is_reserved":false,"is_disabled":false,"rental_uris":{"android":"levelo://app?vid=52cba042-0ec5-47ea-9016-8ac5a0f1fdb1","ios":"levelo://app?vid=52cba042-0ec5-47ea-9016-8ac5a0f1fdb1"},"vehicle_type_id":"4","last_reported":1706357427,"current_range_meters":31200,"station_id":"ce4bh3h2rcd13ifvqdn0","pricing_plan_id":"free"},{"bike_id":"245bde05-725d-4e3c-9d38-e3fec9407fe9","system_id":"levelo_inurba_marseille","lat":43.289363,"lon":5.396322,"is_reserved":false,"is_disabled":false,"rental_uris":{"android":"levelo://app?vid=245bde05-725d-4e3c-9d38-e3fec9407fe9","ios":"levelo://app?vid=245bde05-725d-4e3c-9d38-e3fec9407fe9"},"vehicle_type_id":"4","last_reported":1706357427,"current_range_meters":23600,"station_id":"ce4bh3h2rcd13ifvqdn0","pricing_plan_id":"free"},{"bike_id":"2d989aeb-2b1c-479d-96a8-0af23ba07378","system_id":"levelo_inurba_marseille","lat":43.292724,"lon":5.401131,"is_reserved":false,"is_disabled":false,"rental_uris":{"android":"levelo://app?vid=2d989aeb-2b1c-479d-96a8-0af23ba07378","ios":"levelo://app?vid=2d989aeb-2b1c-479d-96a8-0af23ba07378"},"vehicle_type_id":"4","last_reported":1706357427,"current_range_meters":26800,"station_id":"ce4bh312rcd13ifvqdk0","pricing_plan_id":"free"},{"bike_id":"0c825e0b-2435-4290-9117-303c53a8def9","system_id":"levelo_inurba_marseille","lat":43.28281,"lon":5.35066,"is_reserved":false,"is_disabled":false,"rental_uris":{"android":"levelo://app?vid=0c825e0b-2435-4290-9117-303c53a8def9","ios":"levelo://app?vid=0c825e0b-2435-4290-9117-303c53a8def9"},"vehicle_type_id":"4","last_reported":1706357427,"current_range_meters":22800,"station_id":"ce4bhbp2rcd13ifvqerg","pricing_plan_id":"free"},{"bike_id":"a8175c3e-6fa0-4c84-8686-e9349af8e27c","system_id":"levelo_inurba_marseille","lat":43.28279,"lon":5.35066,"is_reserved":false,"is_disabled":false,"rental_uris":{"android":"levelo://app?vid=a8175c3e-6fa0-4c84-8686-e9349af8e27c","ios":"levelo://app?vid=a8175c3e-6fa0-4c84-8686-e9349af8e27c"},"vehicle_type_id":"4","last_reported":1706357427,"current_range_meters":14000,"station_id":"ce4bhbp2rcd13ifvqerg","pricing_plan_id":"free"},{"bike_id":"a3e3cf1a-50e8-4216-8864-684d7964148d","system_id":"levelo_inurba_marseille","lat":43.282744,"lon":5.350533,"is_reserved":false,"is_disabled":false,"rental_uris":{"android":"levelo://app?vid=a3e3cf1a-50e8-4216-8864-684d7964148d","ios":"levelo://app?vid=a3e3cf1a-50e8-4216-8864-684d7964148d"},"vehicle_type_id":"4","last_reported":1706357427,"current_range_meters":8000,"station_id":"ce4bhbp2rcd13ifvqerg","pricing_plan_id":"free"},{"bike_id":"105e4a81-a967-4b98-81e5-b1ba5bb2a5d8","system_id":"levelo_inurba_marseille","lat":43.282747,"lon":5.350698,"is_reserved":false,"is_disabled":false,"rental_uris":{"android":"levelo://app?vid=105e4a81-a967-4b98-81e5-b1ba5bb2a5d8","ios":"levelo://app?vid=105e4a81-a967-4b98-81e5-b1ba5bb2a5d8"},"vehicle_type_id":"4","last_reported":1706357427,"current_range_meters":10800,"station_id":"ce4bhbp2rcd13ifvqerg","pricing_plan_id":"free"},{"bike_id":"aceb3af9-bc02-40e4-ab65-dc121505d6a7","system_id":"levelo_inurba_marseille","lat":43.282726,"lon":5.350752,"is_reserved":false,"is_disabled":false,"rental_uris":{"android":"levelo://app?vid=aceb3af9-bc02-40e4-ab65-dc121505d6a7","ios":"levelo://app?vid=aceb3af9-bc02-40e4-ab65-dc121505d6a7"},"vehicle_type_id":"4","last_reported":1706357427,"current_range_meters":30000,"station_id":"ce4bhbp2rcd13ifvqerg","pricing_plan_id":"free"},{"bike_id":"eae70fe5-28f0-4cd1-bd86-24d2b502c741","system_id":"levelo_inurba_marseille","lat":43.28277,"lon":5.35059,"is_reserved":false,"is_disabled":false,"rental_uris":{"android":"levelo://app?vid=eae70fe5-28f0-4cd1-bd86-24d2b502c741","ios":"levelo://app?vid=eae70fe5-28f0-4cd1-bd86-24d2b502c741"},"vehicle_type_id":"4","last_reported":1706357427,"current_range_meters":19600,"station_id":"ce4bhbp2rcd13ifvqerg","pricing_plan_id":"free"},{"bike_id":"3f6de612-fcb6-4d1b-8a6b-ca54b24d3cb2","system_id":"levelo_inurba_marseille","lat":43.28274,"lon":5.350683,"is_reserved":false,"is_disabled":false,"rental_uris":{"android":"levelo://app?vid=3f6de612-fcb6-4d1b-8a6b-ca54b24d3cb2","ios":"levelo://app?vid=3f6de612-fcb6-4d1b-8a6b-ca54b24d3cb2"},"vehicle_type_id":"4","last_reported":1706357427,"current_range_meters":10000,"station_id":"ce4bhbp2rcd13ifvqerg","pricing_plan_id":"free"},{"bike_id":"361f6e34-2c77-447b-b359-2658b8b72613","system_id":"levelo_inurba_marseille","lat":43.282713,"lon":5.350732,"is_reserved":false,"is_disabled":false,"rental_uris":{"android":"levelo://app?vid=361f6e34-2c77-447b-b359-2658b8b72613","ios":"levelo://app?vid=361f6e34-2c77-447b-b359-2658b8b72613"},"vehicle_type_id":"4","last_reported":1706357427,"current_range_meters":8000,"station_id":"","pricing_plan_id":"free"},{"bike_id":"3aff854f-c123-4c21-8dcd-e05daee9ee14","system_id":"levelo_inurba_marseille","lat":43.302008,"lon":5.394694,"is_reserved":false,"is_disabled":false,"rental_uris":{"android":"levelo://app?vid=3aff854f-c123-4c21-8dcd-e05daee9ee14","ios":"levelo://app?vid=3aff854f-c123-4c21-8dcd-e05daee9ee14"},"vehicle_type_id":"4","last_reported":1706357427,"current_range_meters":31600,"station_id":"ce4bh0p2rcd13ifvqd70","pricing_plan_id":"free"},{"bike_id":"4706eb70-48ca-4f50-8a01-e300126bebeb","system_id":"levelo_inurba_marseille","lat":43.282744,"lon":5.350533,"is_reserved":false,"is_disabled":false,"rental_uris":{"android":"levelo://app?vid=4706eb70-48ca-4f50-8a01-e300126bebeb","ios":"levelo://app?vid=4706eb70-48ca-4f50-8a01-e300126bebeb"},"vehicle_type_id":"4","last_reported":1706357427,"current_range_meters":25600,"station_id":"ce4bhbp2rcd13ifvqerg","pricing_plan_id":"free"},{"bike_id":"b75788fd-a29d-42ea-982a-9ab4801bb7e8","system_id":"levelo_inurba_marseille","lat":43.282669,"lon":5.350738,"is_reserved":false,"is_disabled":false,"rental_uris":{"android":"levelo://app?vid=b75788fd-a29d-42ea-982a-9ab4801bb7e8","ios":"levelo://app?vid=b75788fd-a29d-42ea-982a-9ab4801bb7e8"},"vehicle_type_id":"4","last_reported":1706357427,"current_range_meters":4000,"station_id":"ce4bhbp2rcd13ifvqerg","pricing_plan_id":"free"},{"bike_id":"fa0c0ea4-fb17-4acc-968c-580396166bd7","system_id":"levelo_inurba_marseille","lat":43.282678,"lon":5.350696,"is_reserved":false,"is_disabled":false,"rental_uris":{"android":"levelo://app?vid=fa0c0ea4-fb17-4acc-968c-580396166bd7","ios":"levelo://app?vid=fa0c0ea4-fb17-4acc-968c-580396166bd7"},"vehicle_type_id":"4","last_reported":1706357427,"current_range_meters":26400,"station_id":"ce4bhbp2rcd13ifvqerg","pricing_plan_id":"free"},{"bike_id":"4668ab7d-0a4d-4b54-813e-283dd7995772","system_id":"levelo_inurba_marseille","lat":43.282744,"lon":5.350533,"is_reserved":false,"is_disabled":false,"rental_uris":{"android":"levelo://app?vid=4668ab7d-0a4d-4b54-813e-283dd7995772","ios":"levelo://app?vid=4668ab7d-0a4d-4b54-813e-283dd7995772"},"vehicle_type_id":"4","last_reported":1706357427,"current_range_meters":30800,"station_id":"ce4bhbp2rcd13ifvqerg","pricing_plan_id":"free"},{"bike_id":"3934c997-5311-42db-933e-dedd98ae0f6a","system_id":"levelo_inurba_marseille","lat":43.282672,"lon":5.350644,"is_reserved":false,"is_disabled":false,"rental_uris":{"android":"levelo://app?vid=3934c997-5311-42db-933e-dedd98ae0f6a","ios":"levelo://app?vid=3934c997-5311-42db-933e-dedd98ae0f6a"},"vehicle_type_id":"4","last_reported":1706357427,"current_range_meters":19600,"station_id":"ce4bhbp2rcd13ifvqerg","pricing_plan_id":"free"},{"bike_id":"b0cfa148-f23b-493c-8365-41f14b9960a0","system_id":"levelo_inurba_marseille","lat":43.282694,"lon":5.350554,"is_reserved":false,"is_disabled":false,"rental_uris":{"android":"levelo://app?vid=b0cfa148-f23b-493c-8365-41f14b9960a0","ios":"levelo://app?vid=b0cfa148-f23b-493c-8365-41f14b9960a0"},"vehicle_type_id":"4","last_reported":1706357427,"current_range_meters":22000,"station_id":"ce4bhbp2rcd13ifvqerg","pricing_plan_id":"free"},{"bike_id":"ce4b1c3d-1f5c-487b-80be-b16d7acd392b","system_id":"levelo_inurba_marseille","lat":43.282676,"lon":5.350545,"is_reserved":false,"is_disabled":false,"rental_uris":{"android":"levelo://app?vid=ce4b1c3d-1f5c-487b-80be-b16d7acd392b","ios":"levelo://app?vid=ce4b1c3d-1f5c-487b-80be-b16d7acd392b"},"vehicle_type_id":"4","last_reported":1706357427,"current_range_meters":22400,"station_id":"","pricing_plan_id":"free"},{"bike_id":"b80e184f-b10c-486f-b816-eb1c4a9fe6d8","system_id":"levelo_inurba_marseille","lat":43.28033,"lon":5.36952,"is_reserved":false,"is_disabled":false,"rental_uris":{"android":"levelo://app?vid=b80e184f-b10c-486f-b816-eb1c4a9fe6d8","ios":"levelo://app?vid=b80e184f-b10c-486f-b816-eb1c4a9fe6d8"},"vehicle_type_id":"4","last_reported":1706357427,"current_range_meters":31200,"station_id":"ce4bha12rcd13ifvqef0","pricing_plan_id":"free"},{"bike_id":"d1340f25-dae1-4073-9fbc-5ab684921469","system_id":"levelo_inurba_marseille","lat":43.28032,"lon":5.36948,"is_reserved":false,"is_disabled":false,"rental_uris":{"android":"levelo://app?vid=d1340f25-dae1-4073-9fbc-5ab684921469","ios":"levelo://app?vid=d1340f25-dae1-4073-9fbc-5ab684921469"},"vehicle_type_id":"4","last_reported":1706357427,"current_range_meters":22400,"station_id":"ce4bha12rcd13ifvqef0","pricing_plan_id":"free"},{"bike_id":"02d231c4-08d6-4127-b03e-7360bbe901aa","system_id":"levelo_inurba_marseille","lat":43.280382,"lon":5.369291,"is_reserved":false,"is_disabled":false,"rental_uris":{"android":"levelo://app?vid=02d231c4-08d6-4127-b03e-7360bbe901aa","ios":"levelo://app?vid=02d231c4-08d6-4127-b03e-7360bbe901aa"},"vehicle_type_id":"4","last_reported":1706357427,"current_range_meters":30400,"station_id":"ce4bha12rcd13ifvqef0","pricing_plan_id":"free"},{"bike_id":"c311ea8c-5511-4c27-bfb7-8fd64310a88e","system_id":"levelo_inurba_marseille","lat":43.28026,"lon":5.36581,"is_reserved":false,"is_disabled":false,"rental_uris":{"android":"levelo://app?vid=c311ea8c-5511-4c27-bfb7-8fd64310a88e","ios":"levelo://app?vid=c311ea8c-5511-4c27-bfb7-8fd64310a88e"},"vehicle_type_id":"4","last_reported":1706357427,"current_range_meters":0,"station_id":"","pricing_plan_id":"free"},{"bike_id":"99addf6f-66f6-4b87-8ea3-ff8689b900c4","system_id":"levelo_inurba_marseille","lat":43.296263,"lon":5.40601,"is_reserved":false,"is_disabled":false,"rental_uris":{"android":"levelo://app?vid=99addf6f-66f6-4b87-8ea3-ff8689b900c4","ios":"levelo://app?vid=99addf6f-66f6-4b87-8ea3-ff8689b900c4"},"vehicle_type_id":"4","last_reported":1706357427,"current_range_meters":8400,"station_id":"ce4bh0h2rcd13ifvqd60","pricing_plan_id":"free"},{"bike_id":"6253d6ad-59a7-4542-bfe1-3ba2c02ab487","system_id":"levelo_inurba_marseille","lat":43.284462,"lon":5.392121,"is_reserved":false,"is_disabled":false,"rental_uris":{"android":"levelo://app?vid=6253d6ad-59a7-4542-bfe1-3ba2c02ab487","ios":"levelo://app?vid=6253d6ad-59a7-4542-bfe1-3ba2c02ab487"},"vehicle_type_id":"4","last_reported":1706357427,"current_range_meters":22400,"station_id":"ce4bhoh2rcd13ifvqh5g","pricing_plan_id":"free"},{"bike_id":"fe3040a1-88fc-4e51-a555-a27442545771","system_id":"levelo_inurba_marseille","lat":43.326605,"lon":5.409903,"is_reserved":false,"is_disabled":false,"rental_uris":{"android":"levelo://app?vid=fe3040a1-88fc-4e51-a555-a27442545771","ios":"levelo://app?vid=fe3040a1-88fc-4e51-a555-a27442545771"},