{"last_updated":1750479238,"ttl":60,"version":"2.2","data":{"bikes":[{"bike_id":"3da29fb8-fc97-44c6-b9ac-31dd456b2fd4","system_id":"levelo_inurba_marseille","lat":43.33771,"lon":5.37424,"is_reserved":false,"is_disabled":true,"rental_uris":{"android":"levelo://app?vid=3da29fb8-fc97-44c6-b9ac-31dd456b2fd4","ios":"levelo://app?vid=3da29fb8-fc97-44c6-b9ac-31dd456b2fd4"},"vehicle_type_id":"4","last_reported":1750479238,"current_range_meters":0,"station_id":"","pricing_plan_id":"cebpf4jnsgd1na2vs0mg"},{"bike_id":"01861ad8-a8d7-4be6-816e-651927c87584","system_id":"levelo_inurba_marseille","lat":43.33751,"lon":5.37456,"is_reserved":false,"is_disabled":true,"rental_uris":{"android":"levelo://app?vid=01861ad8-a8d7-4be6-816e-651927c87584","ios":"levelo://app?vid=01861ad8-a8d7-4be6-816e-651927c87584"},"vehicle_type_id":"4","last_reported":1750479238,"current_range_meters":0,"station_id":"","pricing_plan_id":"cebpf4jnsgd1na2vs0mg"},{"bike_id":"7bcccf35-e344-4f00-9a7f-199c76d3c58d","system_id":"levelo_inurba_marseille","lat":43.29151,"lon":5.41641,"is_reserved":false,"is_disabled":true,"rental_uris":{"android":"levelo://app?vid=7bcccf35-e344-4f00-9a7f-199c76d3c58d","ios":"levelo://app?vid=7bcccf35-e344-4f00-9a7f-199c76d3c58d"},"vehicle_type_id":"4","last_reported":1750479238,"current_range_meters":0,"station_id":"","pricing_plan_id":"cebpf4jnsgd1na2vs0mg"},{"bike_id":"d2bd57c8-6b64-48db-ad24-5398eb3fd9d6","system_id":"levelo_inurba_marseille","lat":43.337444,"lon":5.374475,"is_reserved":false,"is_disabled":true,"rental_uris":{"android":"levelo://app?vid=d2bd57c8-6b64-48db-ad24-5398eb3fd9d6","ios":"levelo://app?vid=d2bd57c8-6b64-48db-ad24-5398eb3fd9d6"},"vehicle_type_id":"4","last_reported":1750479238,"current_range_meters":0,"station_id":"","pricing_plan_id":"cebpf4jnsgd1na2vs0mg"},{"bike_id":"62a493c7-4534-4419-ad43-0582de34a72a","system_id":"levelo_inurba_marseille","lat":43.21366,"lon":5.355183,"is_reserved":false,"is_disabled":true,"rental_uris":{"android":"levelo://app?vid=62a493c7-4534-4419-ad43-0582de34a72a","ios":"levelo://app?vid=62a493c7-4534-4419-ad43-0582de34a72a"},"vehicle_type_id":"4","last_reported":1750479238,"current_range_meters":0,"station_id":"","pricing_plan_id":"cebpf4jnsgd1na2vs0mg"},{"bike_id":"d6609b4f-333b-43c1-9ebe-8726f5e76e88","system_id":"levelo_inurba_marseille","lat":43.337444,"lon":5.374475,"is_reserved":false,"is_disabled":true,"rental_uris":{"android":"levelo://app?vid=d6609b4f-333b-43c1-9ebe-8726f5e76e88","ios":"levelo://app?vid=d6609b4f-333b-43c1-9ebe-8726f5e76e88"},"vehicle_type_id":"4","last_reported":1750479238,"current_range_meters":0,"station_id":"","pricing_plan_id":"cebpf4jnsgd1na2vs0mg"},{"bike_id":"11e13553-c475-421d-a348-bac5f0dccdd0","system_id":"levelo_inurba_marseille","lat":43.27325,"lon":5.39939,"is_reserved":false,"is_disabled":true,"rental_uris":{"android":"levelo://app?vid=11e13553-c475-421d-a348-bac5f0dccdd0","ios":"levelo://app?vid=11e13553-c475-421d-a348-bac5f0dccdd0"},"vehicle_type_id":"4","last_reported":1750479238,"current_range_meters":0,"station_id":"","pricing_plan_id":"cebpf4jnsgd1na2vs0mg"},{"bike_id":"ac27c98f-d5e9-4435-b14c-a59e54913873","system_id":"levelo_inurba_marseille","lat":43.299723,"lon":5.384973,"is_reserved":false,"is_disabled":true,"rental_uris":{"android":"levelo://app?vid=ac27c98f-d5e9-4435-b14c-a59e54913873","ios":"levelo://app?vid=ac27c98f-d5e9-4435-b14c-a59e54913873"},"vehicle_type_id":"4","last_reported":1750479238,"current_range_meters":0,"station_id":"ce4bgj92rcd13ifvqbd0","pricing_plan_id":"cebpf4jnsgd1na2vs0mg"},{"bike_id":"c8d48a3d-d477-4c68-bf18-a427a2e7d1d1","system_id":"levelo_inurba_marseille","lat":43.29861,"lon":5.39731,"is_reserved":false,"is_disabled":true,"rental_uris":{"android":"levelo://app?vid=c8d48a3d-d477-4c68-bf18-a427a2e7d1d1","ios":"levelo://app?vid=c8d48a3d-d477-4c68-bf18-a427a2e7d1d1"},"vehicle_type_id":"4","last_reported":1750479238,"current_range_meters":0,"station_id":"ce4bh0h2rcd13ifvqd50","pricing_plan_id":"cebpf4jnsgd1na2vs0mg"},{"bike_id":"17b2af2c-1f28-4188-97fc-db08fe708787","system_id":"levelo_inurba_marseille","lat":43.28716,"lon":5.37392,"is_reserved":false,"is_disabled":true,"rental_uris":{"android":"levelo://app?vid=17b2af2c-1f28-4188-97fc-db08fe708787","ios":"levelo://app?vid=17b2af2c-1f28-4188-97fc-db08fe708787"},"vehicle_type_id":"4","last_reported":1750479238,"current_range_meters":0,"station_id":"ce4bh3p2rcd13ifvqdq0","pricing_plan_id":"cebpf4jnsgd1na2vs0mg"},{"bike_id":"27c3efd2-b87f-410d-b354-97ab3c00d7d7","system_id":"levelo_inurba_marseille","lat":43.29046,"lon":5.38129,"is_reserved":false,"is_disabled":true,"rental_uris":{"android":"levelo://app?vid=27c3efd2-b87f-410d-b354-97ab3c00d7d7","ios":"levelo://app?vid=27c3efd2-b87f-410d-b354-97ab3c00d7d7"},"vehicle_type_id":"4","last_reported":1750479238,"current_range_meters":0,"station_id":"ce4bh4p2rcd13ifvqe1g","pricing_plan_id":"cebpf4jnsgd1na2vs0mg"},{"bike_id":"9e16a609-2549-45b4-94ba-1677684b3e71","system_id":"levelo_inurba_marseille","lat":43.29007,"lon":5.35608,"is_reserved":false,"is_disabled":true,"rental_uris":{"android":"levelo://app?vid=9e16a609-2549-45b4-94ba-1677684b3e71","ios":"levelo://app?vid=9e16a609-2549-45b4-94ba-1677684b3e71"},"vehicle_type_id":"4","last_reported":1750479238,"current_range_meters":0,"station_id":"ce4bhb92rcd13ifvqen0","pricing_plan_id":"cebpf4jnsgd1na2vs0mg"},{"bike_id":"bc824ca5-0243-45ce-b51f-4a47ad664adc","system_id":"levelo_inurba_marseille","lat":43.323543,"lon":5.38884,"is_reserved":false,"is_disabled":true,"rental_uris":{"android":"levelo://app?vid=bc824ca5-0243-45ce-b51f-4a47ad664adc","ios":"levelo://app?vid=bc824ca5-0243-45ce-b51f-4a47ad664adc"},"vehicle_type_id":"4","last_reported":1750479238,"current_range_meters":0,"station_id":"ce4bhqp2rcd13ifvqhog","pricing_plan_id":"cebpf4jnsgd1na2vs0mg"},{"bike_id":"a1110f62-7697-413b-89ce-a34e33f7ed77","system_id":"levelo_inurba_marseille","lat":43.23189,"lon":5.35538,"is_reserved":false,"is_disabled":true,"rental_uris":{"android":"levelo://app?vid=a1110f62-7697-413b-89ce-a34e33f7ed77","ios":"levelo://app?vid=a1110f62-7697-413b-89ce-a34e33f7ed77"},"vehicle_type_id":"4","last_reported":1750479238,"current_range_meters":0,"station_id":"ce4bhu92rcd13ifvqi70","pricing_plan_id":"cebpf4jnsgd1na2vs0mg"},{"bike_id":"24466bb8-ea46-418f-a473-cce465177766","system_id":"levelo_inurba_marseille","lat":43.21748,"lon":5.34596,"is_reserved":false,"is_disabled":true,"rental_uris":{"android":"levelo://app?vid=24466bb8-ea46-418f-a473-cce465177766","ios":"levelo://app?vid=24466bb8-ea46-418f-a473-cce465177766"},"vehicle_type_id":"4","last_reported":1750479238,"current_range_meters":0,"station_id":"st_cvj6r9ubvosntc0bgbag","pricing_plan_id":"cebpf4jnsgd1na2vs0mg"},{"bike_id":"ea37c0ae-cf3f-467d-b357-e4a5cb364d0c","system_id":"levelo_inurba_marseille","lat":43.21747,"lon":5.34602,"is_reserved":false,"is_disabled":true,"rental_uris":{"android":"levelo://app?vid=ea37c0ae-cf3f-467d-b357-e4a5cb364d0c","ios":"levelo://app?vid=ea37c0ae-cf3f-467d-b357-e4a5cb364d0c"},"vehicle_type_id":"4","last_reported":1750479238,"current_range_meters":400,"station_id":"","pricing_plan_id":"cebpf4jnsgd1na2vs0mg"},{"bike_id":"fcf4c655-a0ab-4557-9c67-f3accfc480b8","system_id":"levelo_inurba_marseille","lat":43.31982,"lon":5.38157,"is_reserved":false,"is_disabled":true,"rental_uris":{"android":"levelo://app?vid=fcf4c655-a0ab-4557-9c67-f3accfc480b8","ios":"levelo://app?vid=fcf4c655-a0ab-4557-9c67-f3accfc480b8"},"vehicle_type_id":"4","last_reported":1750479238,"current_range_meters":400,"station_id":"ce4bhr12rcd13ifvqhpg","pricing_plan_id":"cebpf4jnsgd1na2vs0mg"},{"bike_id":"a93a40aa-7033-4040-ad39-d4e2da8554bb","system_id":"levelo_inurba_marseille","lat":43.31327,"lon":5.39708,"is_reserved":false,"is_disabled":true,"rental_uris":{"android":"levelo://app?vid=a93a40aa-7033-4040-ad39-d4e2da8554bb","ios":"levelo://app?vid=a93a40aa-7033-4040-ad39-d4e2da8554bb"},"vehicle_type_id":"4","last_reported":1750479238,"current_range_meters":800,"station_id":"ce4bgvp2rcd13ifvqcu0","pricing_plan_id":"cebpf4jnsgd1na2vs0mg"},{"bike_id":"1b64f142-5df0-4ea7-a5da-5566ae0b1958","system_id":"levelo_inurba_marseille","lat":43.27568,"lon":5.3845,"is_reserved":false,"is_disabled":true,"rental_uris":{"android":"levelo://app?vid=1b64f142-5df0-4ea7-a5da-5566ae0b1958","ios":"levelo://app?vid=1b64f142-5df0-4ea7-a5da-5566ae0b1958"},"vehicle_type_id":"4","last_reported":1750479238,"current_range_meters":800,"station_id":"ce4bhh92rcd13ifvqfi0","pricing_plan_id":"cebpf4jnsgd1na2vs0mg"},{"bike_id":"9e820e1f-82e5-42f1-a082-b3598434e244","system_id":"levelo_inurba_marseille","lat":43.28685,"lon":5.38663,"is_reserved":false,"is_disabled":true,"rental_uris":{"android":"levelo://app?vid=9e820e1f-82e5-42f1-a082-b3598434e244","ios":"levelo://app?vid=9e820e1f-82e5-42f1-a082-b3598434e244"},"vehicle_type_id":"4","last_reported":1750479238,"current_range_meters":1200,"station_id":"ce4bh492rcd13ifvqdug","pricing_plan_id":"cebpf4jnsgd1na2vs0mg"},{"bike_id":"b1523681-f686-4fdf-bf7d-a6f9f0134d48","system_id":"levelo_inurba_marseille","lat":43.27377,"lon":5.36257,"is_reserved":false,"is_disabled":true,"rental_uris":{"android":"levelo://app?vid=b1523681-f686-4fdf-bf7d-a6f9f0134d48","ios":"levelo://app?vid=b1523681-f686-4fdf-bf7d-a6f9f0134d48"},"vehicle_type_id":"4","last_reported":1750479238,"current_range_meters":1200,"station_id":"ce4bhbh2rcd13ifvqeo0","pricing_plan_id":"cebpf4jnsgd1na2vs0mg"},{"bike_id":"156717d9-5d82-4226-a389-e52555e7069b","system_id":"levelo_inurba_marseille","lat":43.30628,"lon":5.37641,"is_reserved":false,"is_disabled":true,"rental_uris":{"android":"levelo://app?vid=156717d9-5d82-4226-a389-e52555e7069b","ios":"levelo://app?vid=156717d9-5d82-4226-a389-e52555e7069b"},"vehicle_type_id":"4","last_reported":1750479238,"current_range_meters":2000,"station_id":"","pricing_plan_id":"cebpf4jnsgd1na2vs0mg"},{"bike_id":"51deda71-ad3a-4bed-96a7-b3cf465a2955","system_id":"levelo_inurba_marseille","lat":43.2622,"lon":5.40449,"is_reserved":false,"is_disabled":false,"rental_uris":{"android":"levelo://app?vid=51deda71-ad3a-4bed-96a7-b3cf465a2955","ios":"levelo://app?vid=51deda71-ad3a-4bed-96a7-b3cf465a2955"},"vehicle_type_id":"4","last_reported":1750479238,"current_range_meters":3200,"station_id":"ce4bhmh2rcd13ifvqgmg","pricing_plan_id":"cebpf4jnsgd1na2vs0mg"},{"bike_id":"3d9b0e2f-fd9d-433a-9469-26b505908e59","system_id":"levelo_inurba_marseille","lat":43.33766,"lon":5.39199,"is_reserved":false,"is_disabled":false,"rental_uris":{"android":"levelo://app?vid=3d9b0e2f-fd9d-433a-9469-26b505908e59","ios":"levelo://app?vid=3d9b0e2f-fd9d-433a-9469-26b505908e59"},"vehicle_type_id":"4","last_reported":1750479238,"current_range_meters":3600,"station_id":"","pricing_plan_id":"cebpf4jnsgd1na2vs0mg"},{"bike_id":"2be082ca-4467-48fd-b65c-3c02b405800f","system_id":"levelo_inurba_marseille","lat":43.23144,"lon":5.43715,"is_reserved":false,"is_disabled":false,"rental_uris":{"android":"levelo://app?vid=2be082ca-4467-48fd-b65c-3c02b405800f","ios":"levelo://app?vid=2be082ca-4467-48fd-b65c-3c02b405800f"},"vehicle_type_id":"4","last_reported":1750479238,"current_range_meters":3600,"station_id":"ce4bhmp2rcd13ifvqgog","pricing_plan_id":"cebpf4jnsgd1na2vs0mg"},{"bike_id":"0b4caeaf-5696-4a90-bc91-8a90ae92e4e6","system_id":"levelo_inurba_marseille","lat":43.288857,"lon":5.459694,"is_reserved":false,"is_disabled":false,"rental_uris":{"android":"levelo://app?vid=0b4caeaf-5696-4a90-bc91-8a90ae92e4e6","ios":"levelo://app?vid=0b4caeaf-5696-4a90-bc91-8a90ae92e4e6"},"vehicle_type_id":"4","last_reported":1750479238,"current_range_meters":4400,"station_id":"","pricing_plan_id":"cebpf4jnsgd1na2vs0mg"},{"bike_id":"7ecb002c-7385-4958-99d3-5a96ede27ff3","system_id":"levelo_inurba_marseille","lat":43.30932,"lon":5.40138,"is_reserved":false,"is_disabled":false,"rental_uris":{"android":"levelo://app?vid=7ecb002c-7385-4958-99d3-5a96ede27ff3","ios":"levelo://app?vid=7ecb002c-7385-4958-99d3-5a96ede27ff3"},"vehicle_type_id":"4","last_reported":1750479238,"current_range_meters":4400,"station_id":"ce4bgvp2rcd13ifvqct0","pricing_plan_id":"cebpf4jnsgd1na2vs0mg"},{"bike_id":"afbf264f-afe5-4d6f-b226-78ed4d460a17","system_id":"levelo_inurba_marseille","lat":43.28705,"lon":5.39987,"is_reserved":false,"is_disabled":false,"rental_uris":{"android":"levelo://app?vid=afbf264f-afe5-4d6f-b226-78ed4d460a17","ios":"levelo://app?vid=afbf264f-afe5-4d6f-b226-78ed4d460a17"},"vehicle_type_id":"4","last_reported":1750479238,"current_range_meters":4400,"station_id":"ce4bho92rcd13ifvqh3g","pricing_plan_id":"cebpf4jnsgd1na2vs0mg"},{"bike_id":"e8b2899a-4211-4f31-b803-6ec5b4d26202","system_id":"levelo_inurba_marseille","lat":43.27582,"lon":5.39654,"is_reserved":false,"is_disabled":false,"rental_uris":{"android":"levelo://app?vid=e8b2899a-4211-4f31-b803-6ec5b4d26202","ios":"levelo://app?vid=e8b2899a-4211-4f31-b803-6ec5b4d26202"},"vehicle_type_id":"4","last_reported":1750479238,"current_range_meters":4800,"station_id":"","pricing_plan_id":"cebpf4jnsgd1na2vs0mg"},{"bike_id":"c0ce9f29-8ada-44a0-b8fd-8ed11a0ca8a3","system_id":"levelo_inurba_marseille","lat":43.21744,"lon":5.34601,"is_reserved":false,"is_disabled":false,"rental_uris":{"android":"levelo://app?vid=c0ce9f29-8ada-44a0-b8fd-8ed11a0ca8a3","ios":"levelo://app?vid=c0ce9f29-8ada-44a0-b8fd-8ed11a0ca8a3"},"vehicle_type_id":"4","last_reported":1750479238,"current_range_meters":4800,"station_id":"st_cvj6r9ubvosntc0bgbag","pricing_plan_id":"cebpf4jnsgd1na2vs0mg"},{"bike_id":"dd45b830-666c-4c76-b06e-9938bffa2cad","system_id":"levelo_inurba_marseille","lat":43.31968,"lon":5.37542,"is_reserved":false,"is_disabled":false,"rental_uris":{"android":"levelo://app?vid=dd45b830-666c-4c76-b06e-9938bffa2cad","ios":"levelo://app?vid=dd45b830-666c-4c76-b06e-9938bffa2cad"},"vehicle_type_id":"4","last_reported":1750479238,"current_range_meters":5600,"station_id":"","pricing_plan_id":"cebpf4jnsgd1na2vs0mg"},{"bike_id":"f025e0b0-8595-426c-b214-cb9b74c5fcfd","system_id":"levelo_inurba_marseille","lat":43.32203,"lon":5.40587,"is_reserved":false,"is_disabled":false,"rental_uris":{"android":"levelo://app?vid=f025e0b0-8595-426c-b214-cb9b74c5fcfd","ios":"levelo://app?vid=f025e0b0-8595-426c-b214-cb9b74c5fcfd"},"vehicle_type_id":"4","last_reported":1750479238,"current_range_meters":6000,"station_id":"","pricing_plan_id":"cebpf4jnsgd1na2vs0mg"},{"bike_id":"df735c88-ae0a-4f8e-9723-d29eb27d80b9","system_id":"levelo_inurba_marseille","lat":43.299245,"lon":5.376358,"is_reserved":false,"is_disabled":false,"rental_uris":{"android":"levelo://app?vid=df735c88-ae0a-4f8e-9723-d29eb27d80b9","ios":"levelo://app?vid=df735c88-ae0a-4f8e-9723-d29eb27d80b9"},"vehicle_type_id":"4","last_reported":1750479238,"current_range_meters":6000,"station_id":"","pricing_plan_id":"cebpf4jnsgd1na2vs0mg"},{"bike_id":"73521383-be10-4e11-87d9-5858a5a26f0a","system_id":"levelo_inurba_marseille","lat":43.337444,"lon":5.374475,"is_reserved":false,"is_disabled":false,"rental_uris":{"android":"levelo://app?vid=73521383-be10-4e11-87d9-5858a5a26f0a","ios":"levelo://app?vid=73521383-be10-4e11-87d9-5858a5a26f0a"},"vehicle_type_id":"4","last_reported":1750479238,"current_range_meters":6400,"station_id":"","pricing_plan_id":"cebpf4jnsgd1na2vs0mg"},{"bike_id":"0ae0a5e2-4172-42fc-b67e-dcb70ad4d289","system_id":"levelo_inurba_marseille","lat":43.26734,"lon":5.42208,"is_reserved":false,"is_disabled":false,"rental_uris":{"android":"levelo://app?vid=0ae0a5e2-4172-42fc-b67e-dcb70ad4d289","ios":"levelo://app?vid=0ae0a5e2-4172-42fc-b67e-dcb70ad4d289"},"vehicle_type_id":"4","last_reported":1750479238,"current_range_meters":6800,"station_id":"","pricing_plan_id":"cebpf4jnsgd1na2vs0mg"},{"bike_id":"e3190518-bcc2-47a7-bb62-bcde5a07a296","system_id":"levelo_inurba_marseille","lat":43.30661,"lon":5.40074,"is_reserved":false,"is_disabled":false,"rental_uris":{"android":"levelo://app?vid=e3190518-bcc2-47a7-bb62-bcde5a07a296","ios":"levelo://app?vid=e3190518-bcc2-47a7-bb62-bcde5a07a296"},"vehicle_type_id":"4","last_reported":1750479238,"current_range_meters":6800,"station_id":"ce4bh112rcd13ifvqda0","pricing_plan_id":"cebpf4jnsgd1na2vs0mg"},{"bike_id":"ec64da71-1c29-4db9-9cac-c834292a14a8","system_id":"levelo_inurba_marseille","lat":43.27053,"lon":5.40242,"is_reserved":false,"is_disabled":false,"rental_uris":{"android":"levelo://app?vid=ec64da71-1c29-4db9-9cac-c834292a14a8","ios":"levelo://app?vid=ec64da71-1c29-4db9-9cac-c834292a14a8"},"vehicle_type_id":"4","last_reported":1750479238,"current_range_meters":6800,"station_id":"ce4bhk92rcd13ifvqgc0","pricing_plan_id":"cebpf4jnsgd1na2vs0mg"},{"bike_id":"cd1075f2-a8f9-4e06-96a1-9f1d52e8840f","system_id":"levelo_inurba_marseille","lat":43.306489,"lon":5.400759,"is_reserved":false,"is_disabled":false,"rental_uris":{"android":"levelo://app?vid=cd1075f2-a8f9-4e06-96a1-9f1d52e8840f","ios":"levelo://app?vid=cd1075f2-a8f9-4e06-96a1-9f1d52e8840f"},"vehicle_type_id":"4","last_reported":1750479238,"current_range_meters":7200,"station_id":"ce4bh112rcd13ifvqda0","pricing_plan_id":"cebpf4jnsgd1na2vs0mg"},{"bike_id":"e137e630-ca7a-49cf-a1d9-16a6091737e8","system_id":"levelo_inurba_marseille","lat":43.28939,"lon":5.39632,"is_reserved":false,"is_disabled":false,"rental_uris":{"android":"levelo://app?vid=e137e630-ca7a-49cf-a1d9-16a6091737e8","ios":"levelo://app?vid=e137e630-ca7a-49cf-a1d9-16a6091737e8"},"vehicle_type_id":"4","last_reported":1750479238,"current_range_meters":7200,"station_id":"ce4bh3h2rcd13ifvqdn0","pricing_plan_id":"cebpf4jnsgd1na2vs0mg"},{"bike_id":"fe09f8da-e191-4625-9c73-5616a2082425","system_id":"levelo_inurba_marseille","lat":43.232544,"lon":5.399806,"is_reserved":false,"is_disabled":false,"rental_uris":{"android":"levelo://app?vid=fe09f8da-e191-4625-9c73-5616a2082425","ios":"levelo://app?vid=fe09f8da-e191-4625-9c73-5616a2082425"},"vehicle_type_id":"4","last_reported":1750479238,"current_range_meters":7200,"station_id":"ce4bhn12rcd13ifvqgqg","pricing_plan_id":"cebpf4jnsgd1na2vs0mg"},{"bike_id":"f2169430-8ab5-4f68-846f-87f05b34d076","system_id":"levelo_inurba_marseille","lat":43.21203,"lon":5.3507,"is_reserved":false,"is_disabled":false,"rental_uris":{"android":"levelo://app?vid=f2169430-8ab5-4f68-846f-87f05b34d076","ios":"levelo://app?vid=f2169430-8ab5-4f68-846f-87f05b34d076"},"vehicle_type_id":"4","last_reported":1750479238,"current_range_meters":7200,"station_id":"st_cvj6sg6p6f1abm77japg","pricing_plan_id":"cebpf4jnsgd1na2vs0mg"},{"bike_id":"6c27666e-ee00-4768-b673-c88129e82192","system_id":"levelo_inurba_marseille","lat":43.29211,"lon":5.39637,"is_reserved":false,"is_disabled":false,"rental_uris":{"android":"levelo://app?vid=6c27666e-ee00-4768-b673-c88129e82192","ios":"levelo://app?vid=6c27666e-ee00-4768-b673-c88129e82192"},"vehicle_type_id":"4","last_reported":1750479238,"current_range_meters":8000,"station_id":"","pricing_plan_id":"cebpf4jnsgd1na2vs0mg"},{"bike_id":"470d5d38-9de3-4ee0-b8c2-7e3409e3e55a","system_id":"levelo_inurba_marseille","lat":43.2965,"lon":5.39375,"is_reserved":false,"is_disabled":false,"rental_uris":{"android":"levelo://app?vid=470d5d38-9de3-4ee0-b8c2-7e3409e3e55a","ios":"levelo://app?vid=470d5d38-9de3-4ee0-b8c2-7e3409e3e55a"},"vehicle_type_id":"4","last_reported":1750479238,"current_range_meters":8000,"station_id":"","pricing_plan_id":"cebpf4jnsgd1na2vs0mg"},{"bike_id":"2d9cd306-f0e6-4b47-9011-26d7fa79b2a5","system_id":"levelo_inurba_marseille","lat":43.25004,"lon":5.3892,"is_reserved":false,"is_disabled":false,"rental_uris":{"android":"levelo://app?vid=2d9cd306-f0e6-4b47-9011-26d7fa79b2a5","ios":"levelo://app?vid=2d9cd306-f0e6-4b47-9011-26d7fa79b2a5"},"vehicle_type_id":"4","last_reported":1750479238,"current_range_meters":8000,"station_id":"ce4bhgp2rcd13ifvqfd0","pricing_plan_id":"cebpf4jnsgd1na2vs0mg"},{"bike_id":"db7f7512-c361-460d-984a-c7320754ec1a","system_id":"levelo_inurba_marseille","lat":43.30814,"lon":5.43508,"is_reserved":false,"is_disabled":false,"rental_uris":{"android":"levelo://app?vid=db7f7512-c361-460d-984a-c7320754ec1a","ios":"levelo://app?vid=db7f7512-c361-460d-984a-c7320754ec1a"},"vehicle_type_id":"4","last_reported":1750479238,"current_range_meters":8000,"station_id":"ce4bhph2rcd13ifvqheg","pricing_plan_id":"cebpf4jnsgd1na2vs0mg"},{"bike_id":"f6fca673-60e0-4cf1-bfea-a1fa1fba00b5","system_id":"levelo_inurba_marseille","lat":43.29729,"lon":5.37713,"is_reserved":false,"is_disabled":false,"rental_uris":{"android":"levelo://app?vid=f6fca673-60e0-4cf1-bfea-a1fa1fba00b5","ios":"levelo://app?vid=f6fca673-60e0-4cf1-bfea-a1fa1fba00b5"},"vehicle_type_id":"4","last_reported":1750479238,"current_range_meters":8400,"station_id":"ce4bgkh2rcd13ifvqbl0","pricing_plan_id":"cebpf4jnsgd1na2vs0mg"},{"bike_id":"2a419920-c7ac-4f64-bafa-a543962eece2","system_id":"levelo_inurba_marseille","lat":43.28364,"lon":5.38106,"is_reserved":false,"is_disabled":false,"rental_uris":{"android":"levelo://app?vid=2a419920-c7ac-4f64-bafa-a543962eece2","ios":"levelo://app?vid=2a419920-c7ac-4f64-bafa-a543962eece2"},"vehicle_type_id":"4","last_reported":1750479238,"current_range_meters":8400,"station_id":"ce4bh412rcd13ifvqdr0","pricing_plan_id":"cebpf4jnsgd1na2vs0mg"},{"bike_id":"43320ea7-0bdb-472c-956d-1a4fda4c85ea","system_id":"levelo_inurba_marseille","lat":43.27815,"lon":5.40679,"is_reserved":false,"is_disabled":false,"rental_uris":{"android":"levelo://app?vid=43320ea7-0bdb-472c-956d-1a4fda4c85ea","ios":"levelo://app?vid=43320ea7-0bdb-472c-956d-1a4fda4c85ea"},"vehicle_type_id":"4","last_reported":1750479238,"current_range_meters":8400,"station_id":"ce4bhnh2rcd13ifvqgtg","pricing_plan_id":"cebpf4jnsgd1na2vs0mg"},{"bike_id":"178fea52-5c46-4383-9a8d-cae388a2eff0","system_id":"levelo_inurba_marseille","lat":43.32072,"lon":5.36762,"is_reserved":false,"is_disabled":false,"rental_uris":{"android":"levelo://app?vid=178fea52-5c46-4383-9a8d-cae388a2eff0","ios":"levelo://app?vid=178fea52-5c46-4383-9a8d-cae388a2eff0"},"vehicle_type_id":"4","last_reported":1750479238,"current_range_meters":8400,"station_id":"ce4bhrh2rcd13ifvqhug","pricing_plan_id":"cebpf4jnsgd1na2vs0mg"},{"bike_id":"619f8849-9932-49a9-b204-3ca7c8ba25c6","system_id":"levelo_inurba_marseille","lat":43.285898,"lon":5.370827,"is_reserved":false,"is_disabled":false,"rental_uris":{"android":"levelo://app?vid=619f8849-9932-49a9-b204-3ca7c8ba25c6","ios":"levelo://app?vid=619f8849-9932-49a9-b204-3ca7c8ba25c6"},"vehicle_type_id":"4","last_reported":1750479238,"current_range_meters":8400,"station_id":"ce4bht12rcd13ifvqi60","pricing_plan_id":"cebpf4jnsgd1na2vs0mg"},{"bike_id":"999a7404-c492-4383-88c2-daf8b2db2f26","system_id":"levelo_inurba_marseille","lat":43.29302,"lon":5.40155,"is_reserved":false,"is_disabled":false,"rental_uris":{"android":"levelo://app?vid=999a7404-c492-4383-88c2-daf8b2db2f26","ios":"levelo://app?vid=999a7404-c492-4383-88c2-daf8b2db2f26"},"vehicle_type_id":"4","last_reported":1750479238,"current_range_meters":8800,"station_id":"ce4bh312rcd13ifvqdk0","pricing_plan_id":"cebpf4jnsgd1na2vs0mg"},{"bike_id":"f30123e7-96d3-442d-9d01-6c98dc61e7c8","system_id":"levelo_inurba_marseille","lat":43.29828,"lon":5.36865,"is_reserved":false,"is_disabled":false,"rental_uris":{"android":"levelo://app?vid=f30123e7-96d3-442d-9d01-6c98dc61e7c8","ios":"levelo://app?vid=f30123e7-96d3-442d-9d01-6c98dc61e7c8"},"vehicle_type_id":"4","last_reported":1750479238,"current_range_meters":9200,"station_id":"","pricing_plan_id":"cebpf4jnsgd1na2vs0mg"},{"bike_id":"fe4f642a-2c8e-4a43-b47d-5a5067b48c79","system_id":"levelo_inurba_marseille","lat":43.31329,"lon":5.39706,"is_reserved":false,"is_disabled":false,"rental_uris":{"android":"levelo://app?vid=fe4f642a-2c8e-4a43-b47d-5a5067b48c79","ios":"levelo://app?vid=fe4f642a-2c8e-4a43-b47d-5a5067b48c79"},"vehicle_type_id":"4","last_reported":1750479238,"current_range_meters":9200,"station_id":"ce4bgvp2rcd13ifvqcu0","pricing_plan_id":"cebpf4jnsgd1na2vs0mg"},{"bike_id":"ff5ca1bf-c1d0-43ba-8f5f-ea4a70bf2799","system_id":"levelo_inurba_marseille","lat":43.30317,"lon":5.4044,"is_reserved":false,"is_disabled":false,"rental_uris":{"android":"levelo://app?vid=ff5ca1bf-c1d0-43ba-8f5f-ea4a70bf2799","ios":"levelo://app?vid=ff5ca1bf-c1d0-43ba-8f5f-ea4a70bf2799"},"vehicle_type_id":"4","last_reported":1750479238,"current_range_meters":9200,"station_id":"ce4bh012rcd13ifvqd10","pricing_plan_id":"cebpf4jnsgd1na2vs0mg"},{"bike_id":"a0f4885b-e467-4afb-b708-8c36a467e802","system_id":"levelo_inurba_marseille","lat":43.29056,"lon":5.3997,"is_reserved":false,"is_disabled":false,"rental_uris":{"android":"levelo://app?vid=a0f4885b-e467-4afb-b708-8c36a467e802","ios":"levelo://app?vid=a0f4885b-e467-4afb-b708-8c36a467e802"},"vehicle_type_id":"4","last_reported":1750479238,"current_range_meters":9200,"station_id":"ce4bh392rcd13ifvqdm0","pricing_plan_id":"cebpf4jnsgd1na2vs0mg"},{"bike_id":"b50ed994-fd88-4dd1-8846-dc2bf2666662","system_id":"levelo_inurba_marseille","lat":43.30585,"lon":5.40076,"is_reserved":false,"is_disabled":false,"rental_uris":{"android":"levelo://app?vid=b50ed994-fd88-4dd1-8846-dc2bf2666662","ios":"levelo://app?vid=b50ed994-fd88-4dd1-8846-dc2bf2666662"},"vehicle_type_id":"4","last_reported":1750479238,"current_range_meters":9600,"station_id":"","pricing_plan_id":"cebpf4jnsgd1na2vs0mg"},{"bike_id":"48eb39bc-9dab-46fc-9c06-34b0e32cd0b3","system_id":"levelo_inurba_marseille","lat":43.316914,"lon":5.404583,"is_reserved":false,"is_disabled":false,"rental_uris":{"android":"levelo://app?vid=48eb39bc-9dab-46fc-9c06-34b0e32cd0b3","ios":"levelo://app?vid=48eb39bc-9dab-46fc-9c06-34b0e32cd0b3"},"vehicle_type_id":"4","last_reported":1750479238,"current_range_meters":9600,"station_id":"ce4bh012rcd13ifvqd00","pricing_plan_id":"cebpf4jnsgd1na2vs0mg"},{"bike_id":"07eb6289-d073-4169-9982-9b8fd3fb8787","system_id":"levelo_inurba_marseille","lat":43.28576,"lon":5.39475,"is_reserved":false,"is_disabled":false,"rental_uris":{"android":"levelo://app?vid=07eb6289-d073-4169-9982-9b8fd3fb8787","ios":"levelo://app?vid=07eb6289-d073-4169-9982-9b8fd3fb8787"},"vehicle_type_id":"4","last_reported":1750479238,"current_range_meters":9600,"station_id":"ce4bh292rcd13ifvqdg0","pricing_plan_id":"cebpf4jnsgd1na2vs0mg"},{"bike_id":"199c2831-e081-4bc0-9b94-19503817091d","system_id":"levelo_inurba_marseille","lat":43.248975,"lon":5.40676,"is_reserved":false,"is_disabled":false,"rental_uris":{"android":"levelo://app?vid=199c2831-e081-4bc0-9b94-19503817091d","ios":"levelo://app?vid=199c2831-e081-4bc0-9b94-19503817091d"},"vehicle_type_id":"4","last_reported":1750479238,"current_range_meters":10000,"station_id":"","pricing_plan_id":"cebpf4jnsgd1na2vs0mg"},{"bike_id":"2148217b-d8a5-4a4c-bd43-e70d855d7cd0","system_id":"levelo_inurba_marseille","lat":43.30252,"lon":5.400674,"is_reserved":false,"is_disabled":false,"rental_uris":{"android":"levelo://app?vid=2148217b-d8a5-4a4c-bd43-e70d855d7cd0","ios":"levelo://app?vid=2148217b-d8a5-4a4c-bd43-e70d855d7cd0"},"vehicle_type_id":"4","last_reported":1750479238,"current_range_meters":10000,"station_id":"ce4bgvh2rcd13ifvqcs0","pricing_plan_id":"cebpf4jnsgd1na2vs0mg"},{"bike_id":"b6b25b81-c613-4ef7-a518-825b8ab86a27","system_id":"levelo_inurba_marseille","lat":43.3096,"lon":5.40146,"is_reserved":false,"is_disabled":false,"rental_uris":{"android":"levelo://app?vid=b6b25b81-c613-4ef7-a518-825b8ab86a27","ios":"levelo://app?vid=b6b25b81-c613-4ef7-a518-825b8ab86a27"},"vehicle_type_id":"4","last_reported":1750479238,"current_range_meters":10000,"station_id":"ce4bgvp2rcd13ifvqct0","pricing_plan_id":"cebpf4jnsgd1na2vs0mg"},{"bike_id":"780f0284-4f55-4f95-87fb-ecdf939e9a53","system_id":"levelo_inurba_marseille","lat":43.313234,"lon":5.397156,"is_reserved":false,"is_disabled":false,"rental_uris":{"android":"levelo://app?vid=780f0284-4f55-4f95-87fb-ecdf939e9a53","ios":"levelo://app?vid=780f0284-4f55-4f95-87fb-ecdf939e9a53"},"vehicle_type_id":"4","last_reported":1750479238,"current_range_meters":10000,"station_id":"ce4bgvp2rcd13ifvqcu0","pricing_plan_id":"cebpf4jnsgd1na2vs0mg"},{"bike_id":"a572deeb-2a98-49f6-b4c6-2d1a08996e3e","system_id":"levelo_inurba_marseille","lat":43.304245,"lon":5.397508,"is_reserved":false,"is_disabled":false,"rental_uris":{"android":"levelo://app?vid=a572deeb-2a98-49f6-b4c6-2d1a08996e3e","ios":"levelo://app?vid=a572deeb-2a98-49f6-b4c6-2d1a08996e3e"},"vehicle_type_id":"4","last_reported":1750479238,"current_range_meters":10000,"station_id":"ce4bh092rcd13ifvqd20","pricing_plan_id":"cebpf4jnsgd1na2vs0mg"},{"bike_id":"0d21e280-9436-46d1-9c44-e5e965241a4d","system_id":"levelo_inurba_marseille","lat":43.286979,"lon":5.399863,"is_reserved":false,"is_disabled":false,"rental_uris":{"android":"levelo://app?vid=0d21e280-9436-46d1-9c44-e5e965241a4d","ios":"levelo://app?vid=0d21e280-9436-46d1-9c44-e5e965241a4d"},"vehicle_type_id":"4","last_reported":1750479238,"current_range_meters":10000,"station_id":"ce4bho92rcd13ifvqh3g","pricing_plan_id":"cebpf4jnsgd1na2vs0mg"},{"bike_id":"2930bf7b-2372-4ddb-a96e-39fc10a37e17","system_id":"levelo_inurba_marseille","lat":43.3234,"lon":5.406,"is_reserved":false,"is_disabled":false,"rental_uris":{"android":"levelo://app?vid=2930bf7b-2372-4ddb-a96e-39fc10a37e17","ios":"levelo://app?vid=2930bf7b-2372-4ddb-a96e-39fc10a37e17"},"vehicle_type_id":"4","last_reported":1750479238,"current_range_meters":10000,"station_id":"ce4bhq92rcd13ifvqhjg","pricing_plan_id":"cebpf4jnsgd1na2vs0mg"},{"bike_id":"a91667c8-9d9b-4267-80b6-c6c85a0895dc","system_id":"levelo_inurba_marseille","lat":43.32326,"lon":5.40633,"is_reserved":false,"is_disabled":false,"rental_uris":{"android":"levelo://app?vid=a91667c8-9d9b-4267-80b6-c6c85a0895dc","ios":"levelo://app?vid=a91667c8-9d9b-4267-80b6-c6c85a0895dc"},"vehicle_type_id":"4","last_reported":1750479238,"current_range_meters":10000,"station_id":"ce4bhq92rcd13ifvqhjg","pricing_plan_id":"cebpf4jnsgd1na2vs0mg"},{"bike_id":"8300812b-c3f4-4460-a462-0c10590e5460","system_id":"levelo_inurba_marseille","lat":43.3288,"lon":5.40545,"is_reserved":false,"is_disabled":false,"rental_uris":{"android":"levelo://app?vid=8300812b-c3f4-4460-a462-0c10590e5460","ios":"levelo://app?vid=8300812b-c3f4-4460-a462-0c10590e5460"},"vehicle_type_id":"4","last_reported":1750479238,"current_range_meters":10800,"station_id":"","pricing_plan_id":"cebpf4jnsgd1na2vs0mg"},{"bike_id":"d9233b47-4870-40ef-a189-02d99b1ae510","system_id":"levelo_inurba_marseille","lat":43.27376,"lon":5.3626,"is_reserved":false,"is_disabled":false,"rental_uris":{"android":"levelo://app?vid=d9233b47-4870-40ef-a189-02d99b1ae510","ios":"levelo://app?vid=d9233b47-4870-40ef-a189-02d99b1ae510"},"vehicle_type_id":"4","last_reported":1750479238,"current_range_meters":10800,"station_id":"ce4bhbh2rcd13ifvqeo0","pricing_plan_id":"cebpf4jnsgd1na2vs0mg"},{"bike_id":"05f69300-23b4-44be-a7e1-398a0efe81a4","system_id":"levelo_inurba_marseille","lat":43.317083,"lon":5.404544,"is_reserved":false,"is_disabled":false,"rental_uris":{"android":"levelo://app?vid=05f69300-23b4-44be-a7e1-398a0efe81a4","ios":"levelo://app?vid=05f69300-23b4-44be-a7e1-398a0efe81a4"},"vehicle_type_id":"4","last_reported":1750479238,"current_range_meters":11200,"station_id":"ce4bh012rcd13ifvqd00","pricing_plan_id":"cebpf4jnsgd1na2vs0mg"},{"bike_id":"95948f8c-ed1b-4579-a2fd-8de9a76479dd","system_id":"levelo_inurba_marseille","lat":43.29896,"lon":5.39766,"is_reserved":false,"is_disabled":false,"rental_uris":{"android":"levelo://app?vid=95948f8c-ed1b-4579-a2fd-8de9a76479dd","ios":"levelo://app?vid=95948f8c-ed1b-4579-a2fd-8de9a76479dd"},"vehicle_type_id":"4","last_reported":1750479238,"current_range_meters":11600,"station_id":"ce4bh0h2rcd13ifvqd50","pricing_plan_id":"cebpf4jnsgd1na2vs0mg"},{"bike_id":"7f32a65e-ea3d-42e8-bbf9-8ddb377b0bf0","system_id":"levelo_inurba_marseille","lat":43.26229,"lon":5.4045,"is_reserved":false,"is_disabled":false,"rental_uris":{"android":"levelo://app?vid=7f32a65e-ea3d-42e8-bbf9-8ddb377b0bf0","ios":"levelo://app?vid=7f32a65e-ea3d-42e8-bbf9-8ddb377b0bf0"},"vehicle_type_id":"4","last_reported":1750479238,"current_range_meters":11600,"station_id":"ce4bhmh2rcd13ifvqgmg","pricing_plan_id":"cebpf4jnsgd1na2vs0mg"},{"bike_id":"1c84f58c-db3c-4a5f-b454-e7b93720c9a2","system_id":"levelo_inurba_marseille","lat":43.31488,"lon":5.37298,"is_reserved":false,"is_disabled":false,"rental_uris":{"android":"levelo://app?vid=1c84f58c-db3c-4a5f-b454-e7b93720c9a2","ios":"levelo://app?vid=1c84f58c-db3c-4a5f-b454-e7b93720c9a2"},"vehicle_type_id":"4","last_reported":1750479238,"current_range_meters":12000,"station_id":"ce4bgt12rcd13ifvqcd0","pricing_plan_id":"cebpf4jnsgd1na2vs0mg"},{"bike_id":"35d78290-40ba-4920-ac67-027dbac42037","system_id":"levelo_inurba_marseille","lat":43.32361,"lon":5.38892,"is_reserved":false,"is_disabled":false,"rental_uris":{"android":"levelo://app?vid=35d78290-40ba-4920-ac67-027dbac42037","ios":"levelo://app?vid=35d78290-40ba-4920-ac67-027dbac42037"},"vehicle_type_id":"4","last_reported":1750479238,"current_range_meters":12000,"station_id":"ce4bhqp2rcd13ifvqhog","pricing_plan_id":"cebpf4jnsgd1na2vs0mg"},{"bike_id":"dc540ba2-fb63-45eb-b83a-1826fb3d30b7","system_id":"levelo_inurba_marseille","lat":43.24609,"lon":5.39259,"is_reserved":false,"is_disabled":false,"rental_uris":{"android":"levelo://app?vid=dc540ba2-fb63-45eb-b83a-1826fb3d30b7","ios":"levelo://app?vid=dc540ba2-fb63-45eb-b83a-1826fb3d30b7"},"vehicle_type_id":"4","last_reported":1750479238,"current_range_meters":12400,"station_id":"","pricing_plan_id":"cebpf4jnsgd1na2vs0mg"},{"bike_id":"959f0c62-9761-4a35-9c23-557e23ca2679","system_id":"levelo_inurba_marseille","lat":43.24668,"lon":5.38153,"is_reserved":false,"is_disabled":false,"rental_uris":{"android":"levelo://app?vid=959f0c62-9761-4a35-9c23-557e23ca2679","ios":"levelo://app?vid=959f0c62-9761-4a35-9c23-557e23ca2679"},"vehicle_type_id":"4","last_reported":1750479238,"current_range_meters":12400,"station_id":"ce4bhih2rcd13ifvqfr0","pricing_plan_id":"cebpf4jnsgd1na2vs0mg"},{"bike_id":"3fa5aa17-b27e-4bfa-8422-021bfaabc943","system_id":"levelo_inurba_marseille","lat":43.279889,"lon":5.416623,"is_reserved":false,"is_disabled":false,"rental_uris":{"android":"levelo://app?vid=3fa5aa17-b27e-4bfa-8422-021bfaabc943","ios":"levelo://app?vid=3fa5aa17-b27e-4bfa-8422-021bfaabc943"},"vehicle_type_id":"4","last_reported":1750479238,"current_range_meters":12400,"station_id":"ce4bho12rcd13ifvqh1g","pricing_plan_id":"cebpf4jnsgd1na2vs0mg"},{"bike_id":"bd27fe72-6fbc-453f-8b77-bee10ab3b13c","system_id":"levelo_inurba_marseille","lat":43.29533,"lon":5.42337,"is_reserved":false,"is_disabled":false,"rental_uris":{"android":"levelo://app?vid=bd27fe72-6fbc-453f-8b77-bee10ab3b13c","ios":"levelo://app?vid=bd27fe72-6fbc-453f-8b77-bee10ab3b13c"},"vehicle_type_id":"4","last_reported":1750479238,"current_range_meters":12400,"station_id":"ce4bhph2rcd13ifvqhdg","pricing_plan_id":"cebpf4jnsgd1na2vs0mg"},{"bike_id":"a19d32da-554b-4cbb-9dbe-319d65ef08f0","system_id":"levelo_inurba_marseille","lat":43.34142,"lon":5.40905,"is_reserved":false,"is_disabled":false,"rental_uris":{"android":"levelo://app?vid=a19d32da-554b-4cbb-9dbe-319d65ef08f0","ios":"levelo://app?vid=a19d32da-554b-4cbb-9dbe-319d65ef08f0"},"vehicle_type_id":"4","last_reported":1750479238,"current_range_meters":12400,"station_id":"ce4bhqh2rcd13ifvqhlg","pricing_plan_id":"cebpf4jnsgd1na2vs0mg"},{"bike_id":"8ef11a45-504d-45b0-a2b5-97fef9594218","system_id":"levelo_inurba_marseille","lat":43.29576,"lon":5.38148,"is_reserved":false,"is_disabled":false,"rental_uris":{"android":"levelo://app?vid=8ef11a45-504d-45b0-a2b5-97fef9594218","ios":"levelo://app?vid=8ef11a45-504d-45b0-a2b5-97fef9594218"},"vehicle_type_id":"4","last_reported":1750479238,"current_range_meters":12800,"station_id":"ce4bgl12rcd13ifvqbo0","pricing_plan_id":"cebpf4jnsgd1na2vs0mg"},{"bike_id":"517a107e-9cd9-4539-be7a-5ca6b67916f7","system_id":"levelo_inurba_marseille","lat":43.306462,"lon":5.400914,"is_reserved":false,"is_disabled":false,"rental_uris":{"android":"levelo://app?vid=517a107e-9cd9-4539-be7a-5ca6b67916f7","ios":"levelo://app?vid=517a107e-9cd9-4539-be7a-5ca6b67916f7"},"vehicle_type_id":"4","last_reported":1750479238,"current_range_meters":12800,"station_id":"ce4bh112rcd13ifvqda0","pricing_plan_id":"cebpf4jnsgd1na2vs0mg"},{"bike_id":"8fd94bfe-b0a3-4509-a3c9-0f6e3f8eed78","system_id":"levelo_inurba_marseille","lat":43.2419,"lon":5.3639,"is_reserved":false,"is_disabled":false,"rental_uris":{"android":"levelo://app?vid=8fd94bfe-b0a3-4509-a3c9-0f6e3f8eed78","ios":"levelo://app?vid=8fd94bfe-b0a3-4509-a3c9-0f6e3f8eed78"},"vehicle_type_id":"4","last_reported":1750479238,"current_range_meters":12800,"station_id":"cpo36qri1sfpv3e86is0","pricing_plan_id":"cebpf4jnsgd1na2vs0mg"},{"bike_id":"1af8cc20-b4be-40a0-952b-b9221d26e0d7","system_id":"levelo_inurba_marseille","lat":43.28762,"lon":5.37983,"is_reserved":false,"is_disabled":false,"rental_uris":{"android":"levelo://app?vid=1af8cc20-b4be-40a0-952b-b9221d26e0d7","ios":"levelo://app?vid=1af8cc20-b4be-40a0-952b-b9221d26e0d7"},"vehicle_type_id":"4","last_reported":1750479238,"current_range_meters":13600,"station_id":"","pricing_plan_id":"cebpf4jnsgd1na2vs0mg"},{"bike_id":"d40af265-11b5-43a6-9bb6-f910f57901ba","system_id":"levelo_inurba_marseille","lat":43.33001,"lon":5.3806,"is_reserved":false,"is_disabled":false,"rental_uris":{"android":"levelo://app?vid=d40af265-11b5-43a6-9bb6-f910f57901ba","ios":"levelo://app?vid=d40af265-11b5-43a6-9bb6-f910f57901ba"},"vehicle_type_id":"4","last_reported":1750479238,"current_range_meters":13600,"station_id":"","pricing_plan_id":"cebpf4jnsgd1na2vs0mg"},{"bike_id":"c5d80bab-5e87-4c1c-a69f-62d26f69ac1d","system_id":"levelo_inurba_marseille","lat":43.31695,"lon":5.40451,"is_reserved":false,"is_disabled":false,"rental_uris":{"android":"levelo://app?vid=c5d80bab-5e87-4c1c-a69f-62d26f69ac1d","ios":"levelo://app?vid=c5d80bab-5e87-4c1c-a69f-62d26f69ac1d"},"vehicle_type_id":"4","last_reported":1750479238,"current_range_meters":14000,"station_id":"ce4bh012rcd13ifvqd00","pricing_plan_id":"cebpf4jnsgd1na2vs0mg"},{"bike_id":"bb5e8cfe-ffcf-4275-8796-019fb987ef2b","system_id":"levelo_inurba_marseille","lat":43.29559,"lon":5.42297,"is_reserved":false,"is_disabled":false,"rental_uris":{"android":"levelo://app?vid=bb5e8cfe-ffcf-4275-8796-019fb987ef2b","ios":"levelo://app?vid=bb5e8cfe-ffcf-4275-8796-019fb987ef2b"},"vehicle_type_id":"4","last_reported":1750479238,"current_range_meters":14000,"station_id":"ce4bhph2rcd13ifvqhdg","pricing_plan_id":"cebpf4jnsgd1na2vs0mg"},{"bike_id":"a22aa312-0025-4f42-88e2-b1e95e79340f","system_id":"levelo_inurba_marseille","lat":43.31637,"lon":5.38339,"is_reserved":false,"is_disabled":false,"rental_uris":{"android":"levelo://app?vid=a22aa312-0025-4f42-88e2-b1e95e79340f","ios":"levelo://app?vid=a22aa312-0025-4f42-88e2-b1e95e79340f"},"vehicle_type_id":"4","last_reported":1750479238,"current_range_meters":14400,"station_id":"","pricing_plan_id":"cebpf4jnsgd1na2vs0mg"},{"bike_id":"4643bc90-1bac-4c4b-98b1-e2d500830573","system_id":"levelo_inurba_marseille","lat":43.31381,"lon":5.37685,"is_reserved":false,"is_disabled":false,"rental_uris":{"android":"levelo://app?vid=4643bc90-1bac-4c4b-98b1-e2d500830573","ios":"levelo://app?vid=4643bc90-1bac-4c4b-98b1-e2d500830573"},"vehicle_type_id":"4","last_reported":1750479238,"current_range_meters":14800,"station_id":"","pricing_plan_id":"cebpf4jnsgd1na2vs0mg"},{"bike_id":"90c109b5-5cee-495e-8f11-f318c0f086b6","system_id":"levelo_inurba_marseille","lat":43.32495,"lon":5.43446,"is_reserved":false,"is_disabled":false,"rental_uris":{"android":"levelo://app?vid=90c109b5-5cee-495e-8f11-f318c0f086b6","ios":"levelo://app?vid=90c109b5-5cee-495e-8f11-f318c0f086b6"},"vehicle_type_id":"4","last_reported":1750479238,"current_range_meters":14800,"station_id":"","pricing_plan_id":"cebpf4jnsgd1na2vs0mg"},{"bike_id":"ced8ee67-58dc-40f7-a011-ace4bcd3b542","system_id":"levelo_inurba_marseille","lat":43.29083,"lon":5.39972,"is_reserved":false,"is_disabled":false,"rental_uris":{"android":"levelo://app?vid=ced8ee67-58dc-40f7-a011-ace4bcd3b542","ios":"levelo://app?vid=ced8ee67-58dc-40f7-a011-ace4bcd3b542"},"vehicle_type_id":"4","last_reported":1750479238,"current_range_meters":14800,"station_id":"ce4bh392rcd13ifvqdm0","pricing_plan_id":"cebpf4jnsgd1na2vs0mg"},{"bike_id":"5a01a987-f989-4da6-b035-8c3000259e08","system_id":"levelo_inurba_marseille","lat":43.27895,"lon":5.39566,"is_reserved":false,"is_disabled":false,"rental_uris":{"android":"levelo://app?vid=5a01a987-f989-4da6-b035-8c3000259e08","ios":"levelo://app?vid=5a01a987-f989-4da6-b035-8c3000259e08"},"vehicle_type_id":"4","last_reported":1750479238,"current_range_meters":14800,"station_id":"ce4bhf92rcd13ifvqf40","pricing_plan_id":"cebpf4jnsgd1na2vs0mg"},{"bike_id":"5c19dc00-677d-4a6e-8b75-75f25d696ae2","system_id":"levelo_inurba_marseille","lat":43.30895,"lon":5.39652,"is_reserved":false,"is_disabled":false,"rental_uris":{"android":"levelo://app?vid=5c19dc00-677d-4a6e-8b75-75f25d696ae2","ios":"levelo://app?vid=5c19dc00-677d-4a6e-8b75-75f25d696ae2"},"vehicle_type_id":"4","last_reported":1750479238,"current_range_meters":15200,"station_id":"ce4bh012rcd13ifvqcv0","pricing_plan_id":"cebpf4jnsgd1na2vs0mg"},{"bike_id":"1ec9e17c-fc83-4e3e-a4e4-6a0fc0c7e792","system_id":"levelo_inurba_marseille","lat":43.2987,"lon":5.39735,"is_reserved":false,"is_disabled":false,"rental_uris":{"android":"levelo://app?vid=1ec9e17c-fc83-4e3e-a4e4-6a0fc0c7e792","ios":"levelo://app?vid=1ec9e17c-fc83-4e3e-a4e4-6a0fc0c7e792"},"vehicle_type_id":"4","last_reported":1750479238,"current_range_meters":15200,"station_id":"ce4bh0h2rcd13ifvqd50","pricing_plan_id":"cebpf4jnsgd1na2vs0mg"},{"bike_id":"19267c63-bfb8-4e4b-a2b6-3c766dbbe094","system_id":"levelo_inurba_marseille","lat":43.29263,"lon":5.40904,"is_reserved":false,"is_disabled":false,"rental_uris":{"android":"levelo://app?vid=19267c63-bfb8-4e4b-a2b6-3c766dbbe094","ios":"levelo://app?vid=19267c63-bfb8-4e4b-a2b6-3c766dbbe094"},"vehicle_type_id":"4","last_reported":1750479238,"current_range_meters":15200,"station_id":"ce4bh192rcd13ifvqdc0","pricing_plan_id":"cebpf4jnsgd1na2vs0mg"},{"bike_id":"1fba1751-cedd-4b25-a6ca-c85bad748e63","system_id":"levelo_inurba_marseille","lat":43.26502,"lon":5.39558,"is_reserved":false,"is_disabled":false,"rental_uris":{"android":"levelo://app?vid=1fba1751-cedd-4b25-a6ca-c85bad748e63","ios":"levelo://app?vid=1fba1751-cedd-4b25-a6ca-c85bad748e63"},"vehicle_type_id":"4","last_reported":1750479238,"current_range_meters":15200,"station_id":"ce4bhi12rcd13ifvqfq0","pricing_plan_id":"cebpf4jnsgd1na2vs0mg"},{"bike_id":"ba496306-0dfc-4d42-9bbf-ef090e9f1430","system_id":"levelo_inurba_marseille","lat":43.24641,"lon":5.38865,"is_reserved":false,"is_disabled":false,"rental_uris":{"android":"levelo://app?vid=ba496306-0dfc-4d42-9bbf-ef090e9f1430","ios":"levelo://app?vid=ba496306-0dfc-4d42-9bbf-ef090e9f1430"},"vehicle_type_id":"4","last_reported":1750479238,"current_range_meters":16400,"station_id":"ce4bhg12rcd13ifvqf60","pricing_plan_id":"cebpf4jnsgd1na2vs0mg"},{"bike_id":"70c5db27-3c5a-4150-9e6a-af1f1459df6c","system_id":"levelo_inurba_marseille","lat":43.27991,"lon":5.38707,"is_reserved":false,"is_disabled":false,"rental_uris":{"android":"levelo://app?vid=70c5db27-3c5a-4150-9e6a-af1f1459df6c","ios":"levelo://app?vid=70c5db27-3c5a-4150-9e6a-af1f1459df6c"},"vehicle_type_id":"4","last_reported":1750479238,"current_range_meters":16400,"station_id":"ce4bhg12rcd13ifvqf80","pricing_plan_id":"cebpf4jnsgd1na2vs0mg"},{"bike_id":"9436b3f7-e71d-4814-81fe-95d1af5df695","system_id":"levelo_inurba_marseille","lat":43.21194,"lon":5.35064,"is_reserved":false,"is_disabled":false,"rental_uris":{"android":"levelo://app?vid=9436b3f7-e71d-4814-81fe-95d1af5df695","ios":"levelo://app?vid=9436b3f7-e71d-4814-81fe-95d1af5df695"},"vehicle_type_id":"4","last_reported":1750479238,"current_range_meters":16400,"station_id":"st_cvj6sg6p6f1abm77japg","pricing_plan_id":"cebpf4jnsgd1na2vs0mg"},{"bike_id":"498fcd46-6a89-4e3e-b712-1b44839b5562","system_id":"levelo_inurba_marseille","lat":43.3203,"lon":5.40817,"is_reserved":false,"is_disabled":false,"rental_uris":{"android":"levelo://app?vid=498fcd46-6a89-4e3e-b712-1b44839b5562","ios":"levelo://app?vid=498fcd46-6a89-4e3e-b712-1b44839b5562"},"vehicle_type_id":"4","last_reported":1750479238,"current_range_meters":16800,"station_id":"","pricing_plan_id":"cebpf4jnsgd1na2vs0mg"},{"bike_id":"2a0e16d5-55d2-4c16-a4c9-b0b86c57f985","system_id":"levelo_inurba_marseille","lat":43.30148,"lon":5.380801,"is_reserved":false,"is_disabled":false,"rental_uris":{"android":"levelo://app?vid=2a0e16d5-55d2-4c16-a4c9-b0b86c57f985","ios":"levelo://app?vid=2a0e16d5-55d2-4c16-a4c9-b0b86c57f985"},"vehicle_type_id":"4","last_reported":1750479238,"current_range_meters":16800,"station_id":"ce4bgjp2rcd13ifvqbh0","pricing_plan_id":"cebpf4jnsgd1na2vs0mg"},{"bike_id":"399f1953-2bea-49fa-99d4-dce45aabeeb9","system_id":"levelo_inurba_marseille","lat":43.316831,"lon":5.404949,"is_reserved":false,"is_disabled":false,"rental_uris":{"android":"levelo://app?vid=399f1953-2bea-49fa-99d4-dce45aabeeb9","ios":"levelo://app?vid=399f1953-2bea-49fa-99d4-dce45aabeeb9"},"vehicle_type_id":"4","last_reported":1750479238,"current_range_meters":16800,"station_id":"ce4bh012rcd13ifvqd00","pricing_plan_id":"cebpf4jnsgd1na2vs0mg"},{"bike_id":"de81c6ec-4833-461b-9110-80bf77e4c8f4","system_id":"levelo_inurba_marseille","lat":43.28407,"lon":5.3751,"is_reserved":false,"is_disabled":false,"rental_uris":{"android":"levelo://app?vid=de81c6ec-4833-461b-9110-80bf77e4c8f4","ios":"levelo://app?vid=de81c6ec-4833-461b-9110-80bf77e4c8f4"},"vehicle_type_id":"4","last_reported":1750479238,"current_range_meters":16800,"station_id":"ce4bh412rcd13ifvqds0","pricing_plan_id":"cebpf4jnsgd1na2vs0mg"},{"bike_id":"6601d198-bb94-4172-ae1d-ace67b3fd78f","system_id":"levelo_inurba_marseille","lat":43.289316,"lon":5.366398,"is_reserved":false,"is_disabled":false,"rental_uris":{"android":"levelo://app?vid=6601d198-bb94-4172-ae1d-ace67b3fd78f","ios":"levelo://app?vid=6601d198-bb94-4172-ae1d-ace67b3fd78f"},"vehicle_type_id":"4","last_reported":1750479238,"current_range_meters":16800,"station_id":"ce4bhap2rcd13ifvqek0","pricing_plan_id":"cebpf4jnsgd1na2vs0mg"},{"bike_id":"3c62b5f2-bada-48a3-8713-3e3194716a52","system_id":"levelo_inurba_marseille","lat":43.24664,"lon":5.389,"is_reserved":false,"is_disabled":false,"rental_uris":{"android":"levelo://app?vid=3c62b5f2-bada-48a3-8713-3e3194716a52","ios":"levelo://app?vid=3c62b5f2-bada-48a3-8713-3e3194716a52"},"vehicle_type_id":"4","last_reported":1750479238,"current_range_meters":16800,"station_id":"ce4bhg12rcd13ifvqf60","pricing_plan_id":"cebpf4jnsgd1na2vs0mg"},{"bike_id":"6646f1cb-9c8e-49c5-beb9-43cec8edb267","system_id":"levelo_inurba_marseille","lat":43.26798,"lon":5.39411,"is_reserved":false,"is_disabled":false,"rental_uris":{"android":"levelo://app?vid=6646f1cb-9c8e-49c5-beb9-43cec8edb267","ios":"levelo://app?vid=6646f1cb-9c8e-49c5-beb9-43cec8edb267"},"vehicle_type_id":"4","last_reported":1750479238,"current_range_meters":16800,"station_id":"ce4bhh12rcd13ifvqfg0","pricing_plan_id":"cebpf4jnsgd1na2vs0mg"},{"bike_id":"9fe7422a-7e0c-45dc-804e-d6475625cc7d","system_id":"levelo_inurba_marseille","lat":43.26229,"lon":5.40453,"is_reserved":false,"is_disabled":false,"rental_uris":{"android":"levelo://app?vid=9fe7422a-7e0c-45dc-804e-d6475625cc7d","ios":"levelo://app?vid=9fe7422a-7e0c-45dc-804e-d6475625cc7d"},"vehicle_type_id":"4","last_reported":1750479238,"current_range_meters":16800,"station_id":"ce4bhmh2rcd13ifvqgmg","pricing_plan_id":"cebpf4jnsgd1na2vs0mg"},{"bike_id":"3d2d6044-6185-4c45-8ef2-14dfc8377c45","system_id":"levelo_inurba_marseille","lat":43.32117,"lon":5.36766,"is_reserved":false,"is_disabled":false,"rental_uris":{"android":"levelo://app?vid=3d2d6044-6185-4c45-8ef2-14dfc8377c45","ios":"levelo://app?vid=3d2d6044-6185-4c45-8ef2-14dfc8377c45"},"vehicle_type_id":"4","last_reported":1750479238,"current_range_meters":16800,"station_id":"ce4bhrh2rcd13ifvqhug","pricing_plan_id":"cebpf4jnsgd1na2vs0mg"},{"bike_id":"38b4578b-d322-4ae7-86ef-2a7e9839b4fd","system_id":"levelo_inurba_marseille","lat":43.2122,"lon":5.35074,"is_reserved":false,"is_disabled":false,"rental_uris":{"android":"levelo://app?vid=38b4578b-d322-4ae7-86ef-2a7e9839b4fd","ios":"levelo://app?vid=38b4578b-d322-4ae7-86ef-2a7e9839b4fd"},"vehicle_type_id":"4","last_reported":1750479238,"current_range_meters":16800,"station_id":"st_cvj6sg6p6f1abm77japg","pricing_plan_id":"cebpf4jnsgd1na2vs0mg"},{"bike_id":"56faa6ab-2f83-450c-9e58-434be7d2d9fc","system_id":"levelo_inurba_marseille","lat":43.31136,"lon":5.37753,"is_reserved":false,"is_disabled":false,"rental_uris":{"android":"levelo://app?vid=56faa6ab-2f83-450c-9e58-434be7d2d9fc","ios":"levelo://app?vid=56faa6ab-2f83-450c-9e58-434be7d2d9fc"},"vehicle_type_id":"4","last_reported":1750479238,"current_range_meters":17200,"station_id":"ce4bgt92rcd13ifvqcg0","pricing_plan_id":"cebpf4jnsgd1na2vs0mg"},{"bike_id":"1c272c36-18f6-4190-9c08-86bb866dec17","system_id":"levelo_inurba_marseille","lat":43.30939,"lon":5.40148,"is_reserved":false,"is_disabled":false,"rental_uris":{"android":"levelo://app?vid=1c272c36-18f6-4190-9c08-86bb866dec17","ios":"levelo://app?vid=1c272c36-18f6-4190-9c08-86bb866dec17"},"vehicle_type_id":"4","last_reported":1750479238,"current_range_meters":17200,"station_id":"ce4bgvp2rcd13ifvqct0","pricing_plan_id":"cebpf4jnsgd1na2vs0mg"},{"bike_id":"80d0ab62-644b-4203-8f13-cadd17ad1e74","system_id":"levelo_inurba_marseille","lat":43.30922,"lon":5.4015,"is_reserved":false,"is_disabled":false,"rental_uris":{"android":"levelo://app?vid=80d0ab62-644b-4203-8f13-cadd17ad1e74","ios":"levelo://app?vid=80d0ab62-644b-4203-8f13-cadd17ad1e74"},"vehicle_type_id":"4","last_reported":1750479238,"current_range_meters":17200,"station_id":"ce4bgvp2rcd13ifvqct0","pricing_plan_id":"cebpf4jnsgd1na2vs0mg"},{"bike_id":"1289328c-2166-4054-b0b7-db1bcb46ecea","system_id":"levelo_inurba_marseille","lat":43.298763,"lon":5.397441,"is_reserved":false,"is_disabled":false,"rental_uris":{"android":"levelo://app?vid=1289328c-2166-4054-b0b7-db1bcb46ecea","ios":"levelo://app?vid=1289328c-2166-4054-b0b7-db1bcb46ecea"},"vehicle_type_id":"4","last_reported":1750479238,"current_range_meters":17200,"station_id":"ce4bh0h2rcd13ifvqd50","pricing_plan_id":"cebpf4jnsgd1na2vs0mg"},{"bike_id":"443dbbb8-21ad-4e53-a14c-6539edcbd9fd","system_id":"levelo_inurba_marseille","lat":43.27987,"lon":5.41671,"is_reserved":false,"is_disabled":false,"rental_uris":{"android":"levelo://app?vid=443dbbb8-21ad-4e53-a14c-6539edcbd9fd","ios":"levelo://app?vid=443dbbb8-21ad-4e53-a14c-6539edcbd9fd"},"vehicle_type_id":"4","last_reported":1750479238,"current_range_meters":17200,"station_id":"ce4bho12rcd13ifvqh1g","pricing_plan_id":"cebpf4jnsgd1na2vs0mg"},{"bike_id":"6c511a29-d354-46a6-9b8c-a0ef92dd0f6e","system_id":"levelo_inurba_marseille","lat":43.31081,"lon":5.42432,"is_reserved":false,"is_disabled":false,"rental_uris":{"android":"levelo://app?vid=6c511a29-d354-46a6-9b8c-a0ef92dd0f6e","ios":"levelo://app?vid=6c511a29-d354-46a6-9b8c-a0ef92dd0f6e"},"vehicle_type_id":"4","last_reported":1750479238,"current_range_meters":17200,"station_id":"ce4bhp92rcd13ifvqhag","pricing_plan_id":"cebpf4jnsgd1na2vs0mg"},{"bike_id":"4652fcd3-8fa3-4f43-ac1d-f66153d7f3b7","system_id":"levelo_inurba_marseille","lat":43.28212,"lon":5.40357,"is_reserved":false,"is_disabled":false,"rental_uris":{"android":"levelo://app?vid=4652fcd3-8fa3-4f43-ac1d-f66153d7f3b7","ios":"levelo://app?vid=4652fcd3-8fa3-4f43-ac1d-f66153d7f3b7"},"vehicle_type_id":"4","last_reported":1750479238,"current_range_meters":17600,"station_id":"","pricing_plan_id":"cebpf4jnsgd1na2vs0mg"},{"bike_id":"f6069a5d-a2bc-44cc-bc6f-f26f79591d92","system_id":"levelo_inurba_marseille","lat":43.307819,"lon":5.37366,"is_reserved":false,"is_disabled":false,"rental_uris":{"android":"levelo://app?vid=f6069a5d-a2bc-44cc-bc6f-f26f79591d92","ios":"levelo://app?vid=f6069a5d-a2bc-44cc-bc6f-f26f79591d92"},"vehicle_type_id":"4","last_reported":1750479238,"current_range_meters":17600,"station_id":"","pricing_plan_id":"cebpf4jnsgd1na2vs0mg"},{"bike_id":"a03a949d-876f-42db-9564-0aeae678fff4","system_id":"levelo_inurba_marseille","lat":43.29435,"lon":5.44488,"is_reserved":false,"is_disabled":false,"rental_uris":{"android":"levelo://app?vid=a03a949d-876f-42db-9564-0aeae678fff4","ios":"levelo://app?vid=a03a949d-876f-42db-9564-0aeae678fff4"},"vehicle_type_id":"4","last_reported":1750479238,"current_range_meters":17600,"station_id":"","pricing_plan_id":"cebpf4jnsgd1na2vs0mg"},{"bike_id":"48f0ea25-8d24-4e62-b841-1c9af0b23280","system_id":"levelo_inurba_marseille","lat":43.25146,"lon":5.40347,"is_reserved":false,"is_disabled":false,"rental_uris":{"android":"levelo://app?vid=48f0ea25-8d24-4e62-b841-1c9af0b23280","ios":"levelo://app?vid=48f0ea25-8d24-4e62-b841-1c9af0b23280"},"vehicle_type_id":"4","last_reported":1750479238,"current_range_meters":17600,"station_id":"","pricing_plan_id":"cebpf4jnsgd1na2vs0mg"},{"bike_id":"100f0230-ac3e-4493-9f5f-7a920127cda5","system_id":"levelo_inurba_marseille","lat":43.30302,"lon":5.36885,"is_reserved":false,"is_disabled":false,"rental_uris":{"android":"levelo://app?vid=100f0230-ac3e-4493-9f5f-7a920127cda5","ios":"levelo://app?vid=100f0230-ac3e-4493-9f5f-7a920127cda5"},"vehicle_type_id":"4","last_reported":1750479238,"current_range_meters":17600,"station_id":"ce4bgqh2rcd13ifvqc5g","pricing_plan_id":"cebpf4jnsgd1na2vs0mg"},{"bike_id":"c1b9133a-17e5-4bf8-bd9b-3c83269e599d","system_id":"levelo_inurba_marseille","lat":43.28572,"lon":5.39476,"is_reserved":false,"is_disabled":false,"rental_uris":{"android":"levelo://app?vid=c1b9133a-17e5-4bf8-bd9b-3c83269e599d","ios":"levelo://app?vid=c1b9133a-17e5-4bf8-bd9b-3c83269e599d"},"vehicle_type_id":"4","last_reported":1750479238,"current_range_meters":17600,"station_id":"ce4bh292rcd13ifvqdg0","pricing_plan_id":"cebpf4jnsgd1na2vs0mg"},{"bike_id":"acf4c5ba-491d-4c2c-b805-de116280a2fc","system_id":"levelo_inurba_marseille","lat":43.29288,"lon":5.40139,"is_reserved":false,"is_disabled":false,"rental_uris":{"android":"levelo://app?vid=acf4c5ba-491d-4c2c-b805-de116280a2fc","ios":"levelo://app?vid=acf4c5ba-491d-4c2c-b805-de116280a2fc"},"vehicle_type_id":"4","last_reported":1750479238,"current_range_meters":17600,"station_id":"ce4bh312rcd13ifvqdk0","pricing_plan_id":"cebpf4jnsgd1na2vs0mg"},{"bike_id":"51924496-d375-43d1-9f3c-2086be022a83","system_id":"levelo_inurba_marseille","lat":43.26001,"lon":5.38673,"is_reserved":false,"is_disabled":false,"rental_uris":{"android":"levelo://app?vid=51924496-d375-43d1-9f3c-2086be022a83","ios":"levelo://app?vid=51924496-d375-43d1-9f3c-2086be022a83"},"vehicle_type_id":"4","last_reported":1750479238,"current_range_meters":18000,"station_id":"","pricing_plan_id":"cebpf4jnsgd1na2vs0mg"},{"bike_id":"ffbb0c22-3f4e-4cdb-a0e5-79e3b9f3e1a2","system_id":"levelo_inurba_marseille","lat":43.33769,"lon":5.37469,"is_reserved":false,"is_disabled":false,"rental_uris":{"android":"levelo://app?vid=ffbb0c22-3f4e-4cdb-a0e5-79e3b9f3e1a2","ios":"levelo://app?vid=ffbb0c22-3f4e-4cdb-a0e5-79e3b9f3e1a2"},"vehicle_type_id":"4","last_reported":1750479238,"current_range_meters":18000,"station_id":"","pricing_plan_id":"cebpf4jnsgd1na2vs0mg"},{"bike_id":"1b45921b-2375-4f5e-9fc0-95f00e334491","system_id":"levelo_inurba_marseille","lat":43.31338,"lon":5.39699,"is_reserved":false,"is_disabled":false,"rental_uris":{"android":"levelo://app?vid=1b45921b-2375-4f5e-9fc0-95f00e334491","ios":"levelo://app?vid=1b45921b-2375-4f5e-9fc0-95f00e334491"},"vehicle_type_id":"4","last_reported":1750479238,"current_range_meters":18000,"station_id":"ce4bgvp2rcd13ifvqcu0","pricing_plan_id":"cebpf4jnsgd1na2vs0mg"},{"bike_id":"1c6eee43-889f-4cff-bc8c-307447a31830","system_id":"levelo_inurba_marseille","lat":43.30801,"lon":5.43511,"is_reserved":false,"is_disabled":false,"rental_uris":{"android":"levelo://app?vid=1c6eee43-889f-4cff-bc8c-307447a31830","ios":"levelo://app?vid=1c6eee43-889f-4cff-bc8c-307447a31830"},"vehicle_type_id":"4","last_reported":1750479238,"current_range_meters":18000,"station_id":"ce4bhph2rcd13ifvqheg","pricing_plan_id":"cebpf4jnsgd1na2vs0mg"},{"bike_id":"b5223d4d-4319-49c8-a89e-49fc64e254be","system_id":"levelo_inurba_marseille","lat":43.26811,"lon":5.40238,"is_reserved":false,"is_disabled":false,"rental_uris":{"android":"levelo://app?vid=b5223d4d-4319-49c8-a89e-49fc64e254be","ios":"levelo://app?vid=b5223d4d-4319-49c8-a89e-49fc64e254be"},"vehicle_type_id":"4","last_reported":1750479238,"current_range_meters":18000,"station_id":"ce501612rcd8frsf0b60","pricing_plan_id":"cebpf4jnsgd1na2vs0mg"},{"bike_id":"04b016b0-78f2-4a40-9df3-2f41fff75a5c","system_id":"levelo_inurba_marseille","lat":43.21208,"lon":5.35069,"is_reserved":false,"is_disabled":false,"rental_uris":{"android":"levelo://app?vid=04b016b0-78f2-4a40-9df3-2f41fff75a5c","ios":"levelo://app?vid=04b016b0-78f2-4a40-9df3-2f41fff75a5c"},"vehicle_type_id":"4","last_reported":1750479238,"current_range_meters":18000,"station_id":"st_cvj6sg6p6f1abm77japg","pricing_plan_id":"cebpf4jnsgd1na2vs0mg"},{"bike_id":"3f96d9ac-28f7-4105-9f09-aeef49233bf6","system_id":"levelo_inurba_marseille","lat":43.30327,"lon":5.40436,"is_reserved":false,"is_disabled":false,"rental_uris":{"android":"levelo://app?vid=3f96d9ac-28f7-4105-9f09-aeef49233bf6","ios":"levelo://app?vid=3f96d9ac-28f7-4105-9f09-aeef49233bf6"},"vehicle_type_id":"4","last_reported":1750479238,"current_range_meters":18800,"station_id":"ce4bh012rcd13ifvqd10","pricing_plan_id":"cebpf4jnsgd1na2vs0mg"},{"bike_id":"a966ddd2-fafd-45a6-865d-233116c7ab8f","system_id":"levelo_inurba_marseille","lat":43.304201,"lon":5.39751,"is_reserved":false,"is_disabled":false,"rental_uris":{"android":"levelo://app?vid=a966ddd2-fafd-45a6-865d-233116c7ab8f","ios":"levelo://app?vid=a966ddd2-fafd-45a6-865d-233116c7ab8f"},"vehicle_type_id":"4","last_reported":1750479238,"current_range_meters":18800,"station_id":"ce4bh092rcd13ifvqd20","pricing_plan_id":"cebpf4jnsgd1na2vs0mg"},{"bike_id":"e1923973-da41-4df0-b8a8-20981ae5e691","system_id":"levelo_inurba_marseille","lat":43.29034,"lon":5.39932,"is_reserved":false,"is_disabled":false,"rental_uris":{"android":"levelo://app?vid=e1923973-da41-4df0-b8a8-20981ae5e691","ios":"levelo://app?vid=e1923973-da41-4df0-b8a8-20981ae5e691"},"vehicle_type_id":"4","last_reported":1750479238,"current_range_meters":18800,"station_id":"ce4bh392rcd13ifvqdm0","pricing_plan_id":"cebpf4jnsgd1na2vs0mg"},{"bike_id":"269c3bdf-af5e-4656-89f5-602080b8a3e4","system_id":"levelo_inurba_marseille","lat":43.23968,"lon":5.36632,"is_reserved":false,"is_disabled":false,"rental_uris":{"android":"levelo://app?vid=269c3bdf-af5e-4656-89f5-602080b8a3e4","ios":"levelo://app?vid=269c3bdf-af5e-4656-89f5-602080b8a3e4"},"vehicle_type_id":"4","last_reported":1750479238,"current_range_meters":18800,"station_id":"ce4bhi12rcd13ifvqfp0","pricing_plan_id":"cebpf4jnsgd1na2vs0mg"},{"bike_id":"82b609eb-4bb1-412b-8dd3-ab5548ecab23","system_id":"levelo_inurba_marseille","lat":43.27076,"lon":5.42278,"is_reserved":false,"is_disabled":false,"rental_uris":{"android":"levelo://app?vid=82b609eb-4bb1-412b-8dd3-ab5548ecab23","ios":"levelo://app?vid=82b609eb-4bb1-412b-8dd3-ab5548ecab23"},"vehicle_type_id":"4","last_reported":1750479238,"current_range_meters":18800,"station_id":"ce4bhk92rcd13ifvqgb0","pricing_plan_id":"cebpf4jnsgd1na2vs0mg"},{"bike_id":"2039e555-685e-48bf-9349-6321e35344c8","system_id":"levelo_inurba_marseille","lat":43.2873,"lon":5.39975,"is_reserved":false,"is_disabled":false,"rental_uris":{"android":"levelo://app?vid=2039e555-685e-48bf-9349-6321e35344c8","ios":"levelo://app?vid=2039e555-685e-48bf-9349-6321e35344c8"},"vehicle_type_id":"4","last_reported":1750479238,"current_range_meters":18800,"station_id":"ce4bho92rcd13ifvqh3g","pricing_plan_id":"cebpf4jnsgd1na2vs0mg"},{"bike_id":"4d80d21e-3dc9-4004-a3c0-eb7b371a8ccf","system_id":"levelo_inurba_marseille","lat":43.330109,"lon":5.394314,"is_reserved":false,"is_disabled":false,"rental_uris":{"android":"levelo://app?vid=4d80d21e-3dc9-4004-a3c0-eb7b371a8ccf","ios":"levelo://app?vid=4d80d21e-3dc9-4004-a3c0-eb7b371a8ccf"},"vehicle_type_id":"4","last_reported":1750479238,"current_range_meters":19200,"station_id":"","pricing_plan_id":"cebpf4jnsgd1na2vs0mg"},{"bike_id":"91d988b7-666c-44b2-b2e1-aca873c9037e","system_id":"levelo_inurba_marseille","lat":43.29966,"lon":5.39862,"is_reserved":false,"is_disabled":false,"rental_uris":{"android":"levelo://app?vid=91d988b7-666c-44b2-b2e1-aca873c9037e","ios":"levelo://app?vid=91d988b7-666c-44b2-b2e1-aca873c9037e"},"vehicle_type_id":"4","last_reported":1750479238,"current_range_meters":19200,"station_id":"","pricing_plan_id":"cebpf4jnsgd1na2vs0mg"},{"bike_id":"3326a6fa-54ee-4cad-bd77-62c32ddf91d1","system_id":"levelo_inurba_marseille","lat":43.31389,"lon":5.38539,"is_reserved":false,"is_disabled":false,"rental_uris":{"android":"levelo://app?vid=3326a6fa-54ee-4cad-bd77-62c32ddf91d1","ios":"levelo://app?vid=3326a6fa-54ee-4cad-bd77-62c32ddf91d1"},"vehicle_type_id":"4","last_reported":1750479238,"current_range_meters":19200,"station_id":"","pricing_plan_id":"cebpf4jnsgd1na2vs0mg"},{"bike_id":"c1210e63-e4a9-4990-9ce8-1534a1043afd","system_id":"levelo_inurba_marseille","lat":43.2992,"lon":5.381413,"is_reserved":false,"is_disabled":false,"rental_uris":{"android":"levelo://app?vid=c1210e63-e4a9-4990-9ce8-1534a1043afd","ios":"levelo://app?vid=c1210e63-e4a9-4990-9ce8-1534a1043afd"},"vehicle_type_id":"4","last_reported":1750479238,"current_range_meters":19200,"station_id":"ce4bgj12rcd13ifvqbc0","pricing_plan_id":"cebpf4jnsgd1na2vs0mg"},{"bike_id":"428177c6-a363-44fb-a90d-d10b6f1c81d1","system_id":"levelo_inurba_marseille","lat":43.314935,"lon":5.3731,"is_reserved":false,"is_disabled":false,"rental_uris":{"android":"levelo://app?vid=428177c6-a363-44fb-a90d-d10b6f1c81d1","ios":"levelo://app?vid=428177c6-a363-44fb-a90d-d10b6f1c81d1"},"vehicle_type_id":"4","last_reported":1750479238,"current_range_meters":19200,"station_id":"ce4bgt12rcd13ifvqcd0","pricing_plan_id":"cebpf4jnsgd1na2vs0mg"},{"bike_id":"4c757378-dc43-46a8-85d2-ea6673f1bf73","system_id":"levelo_inurba_marseille","lat":43.31494,"lon":5.37311,"is_reserved":false,"is_disabled":false,"rental_uris":{"android":"levelo://app?vid=4c757378-dc43-46a8-85d2-ea6673f1bf73","ios":"levelo://app?vid=4c757378-dc43-46a8-85d2-ea6673f1bf73"},"vehicle_type_id":"4","last_reported":1750479238,"current_range_meters":19200,"station_id":"ce4bgt12rcd13ifvqcd0","pricing_plan_id":"cebpf4jnsgd1na2vs0mg"},{"bike_id":"f8df2956-f236-4a57-bc5d-1884300c4377","system_id":"levelo_inurba_marseille","lat":43.31283,"lon":5.402,"is_reserved":false,"is_disabled":false,"rental_uris":{"android":"levelo://app?vid=f8df2956-f236-4a57-bc5d-1884300c4377","ios":"levelo://app?vid=f8df2956-f236-4a57-bc5d-1884300c4377"},"vehicle_type_id":"4","last_reported":1750479238,"current_range_meters":19200,"station_id":"ce4bh092rcd13ifvqd30","pricing_plan_id":"cebpf4jnsgd1na2vs0mg"},{"bike_id":"c8b308e1-bd18-4c17-92e7-f5918af66970","system_id":"levelo_inurba_marseille","lat":43.30651,"lon":5.400793,"is_reserved":false,"is_disabled":false,"rental_uris":{"android":"levelo://app?vid=c8b308e1-bd18-4c17-92e7-f5918af66970","ios":"levelo://app?vid=c8b308e1-bd18-4c17-92e7-f5918af66970"},"vehicle_type_id":"4","last_reported":1750479238,"current_range_meters":19200,"station_id":"ce4bh112rcd13ifvqda0","pricing_plan_id":"cebpf4jnsgd1na2vs0mg"},{"bike_id":"ef63bf4d-6c01-4a74-86e9-35921c48f925","system_id":"levelo_inurba_marseille","lat":43.30667,"lon":5.40078,"is_reserved":false,"is_disabled":false,"rental_uris":{"android":"levelo://app?vid=ef63bf4d-6c01-4a74-86e9-35921c48f925","ios":"levelo://app?vid=ef63bf4d-6c01-4a74-86e9-35921c48f925"},"vehicle_type_id":"4","last_reported":1750479238,"current_range_meters":19200,"station_id":"ce4bh112rcd13ifvqda0","pricing_plan_id":"cebpf4jnsgd1na2vs0mg"},{"bike_id":"37320e13-0a94-4964-94c3-a05e1a398188","system_id":"levelo_inurba_marseille","lat":43.26564,"lon":5.38996,"is_reserved":false,"is_disabled":false,"rental_uris":{"android":"levelo://app?vid=37320e13-0a94-4964-94c3-a05e1a398188","ios":"levelo://app?vid=37320e13-0a94-4964-94c3-a05e1a398188"},"vehicle_type_id":"4","last_reported":1750479238,"current_range_meters":19200,"station_id":"ce4bhe12rcd13ifvqf30","pricing_plan_id":"cebpf4jnsgd1na2vs0mg"},{"bike_id":"0b23f5cc-2064-4240-95d7-a566178f44f6","system_id":"levelo_inurba_marseille","lat":43.27072,"lon":5.4025,"is_reserved":false,"is_disabled":false,"rental_uris":{"android":"levelo://app?vid=0b23f5cc-2064-4240-95d7-a566178f44f6","ios":"levelo://app?vid=0b23f5cc-2064-4240-95d7-a566178f44f6"},"vehicle_type_id":"4","last_reported":1750479238,"current_range_meters":19200,"station_id":"ce4bhk92rcd13ifvqgc0","pricing_plan_id":"cebpf4jnsgd1na2vs0mg"},{"bike_id":"4d4df371-4a07-4078-b66c-0646e04ad4bf","system_id":"levelo_inurba_marseille","lat":43.29896,"lon":5.43653,"is_reserved":false,"is_disabled":false,"rental_uris":{"android":"levelo://app?vid=4d4df371-4a07-4078-b66c-0646e04ad4bf","ios":"levelo://app?vid=4d4df371-4a07-4078-b66c-0646e04ad4bf"},"vehicle_type_id":"4","last_reported":1750479238,"current_range_meters":19200,"station_id":"ce4bhpp2rcd13ifvqhfg","pricing_plan_id":"cebpf4jnsgd1na2vs0mg"},{"bike_id":"dc1db63d-5468-44d8-958f-b819dd58751d","system_id":"levelo_inurba_marseille","lat":43.323439,"lon":5.406065,"is_reserved":false,"is_disabled":false,"rental_uris":{"android":"levelo://app?vid=dc1db63d-5468-44d8-958f-b819dd58751d","ios":"levelo://app?vid=dc1db63d-5468-44d8-958f-b819dd58751d"},"vehicle_type_id":"4","last_reported":1750479238,"current_range_meters":19200,"station_id":"ce4bhq92rcd13ifvqhjg","pricing_plan_id":"cebpf4jnsgd1na2vs0mg"},{"bike_id":"55b0a1e6-ecab-4d37-aef2-b2afd7dbbed7","system_id":"levelo_inurba_marseille","lat":43.30164,"lon":5.39873,"is_reserved":false,"is_disabled":false,"rental_uris":{"android":"levelo://app?vid=55b0a1e6-ecab-4d37-aef2-b2afd7dbbed7","ios":"levelo://app?vid=55b0a1e6-ecab-4d37-aef2-b2afd7dbbed7"},"vehicle_type_id":"4","last_reported":1750479238,"current_range_meters":19600,"station_id":"ce4bh0h2rcd13ifvqd40","pricing_plan_id":"cebpf4jnsgd1na2vs0mg"},{"bike_id":"50db237d-da14-49fe-9ddd-a9ce47cdf5bb","system_id":"levelo_inurba_marseille","lat":43.30658,"lon":5.40086,"is_reserved":false,"is_disabled":false,"rental_uris":{"android":"levelo://app?vid=50db237d-da14-49fe-9ddd-a9ce47cdf5bb","ios":"levelo://app?vid=50db237d-da14-49fe-9ddd-a9ce47cdf5bb"},"vehicle_type_id":"4","last_reported":1750479238,"current_range_meters":19600,"station_id":"ce4bh112rcd13ifvqda0","pricing_plan_id":"cebpf4jnsgd1na2vs0mg"},{"bike_id":"701b6245-aa68-47c0-9034-23daef2e3c08","system_id":"levelo_inurba_marseille","lat":43.28413,"lon":5.37544,"is_reserved":false,"is_disabled":false,"rental_uris":{"android":"levelo://app?vid=701b6245-aa68-47c0-9034-23daef2e3c08","ios":"levelo://app?vid=701b6245-aa68-47c0-9034-23daef2e3c08"},"vehicle_type_id":"4","last_reported":1750479238,"current_range_meters":19600,"station_id":"ce4bh412rcd13ifvqds0","pricing_plan_id":"cebpf4jnsgd1na2vs0mg"},{"bike_id":"0a38d517-0b9c-46e9-96e3-ba0564b6c198","system_id":"levelo_inurba_marseille","lat":43.27908,"lon":5.39578,"is_reserved":false,"is_disabled":false,"rental_uris":{"android":"levelo://app?vid=0a38d517-0b9c-46e9-96e3-ba0564b6c198","ios":"levelo://app?vid=0a38d517-0b9c-46e9-96e3-ba0564b6c198"},"vehicle_type_id":"4","last_reported":1750479238,"current_range_meters":19600,"station_id":"ce4bhf92rcd13ifvqf40","pricing_plan_id":"cebpf4jnsgd1na2vs0mg"},{"bike_id":"fe686156-bf86-4e13-9573-6f0f3ee81efc","system_id":"levelo_inurba_marseille","lat":43.2794,"lon":5.41043,"is_reserved":false,"is_disabled":false,"rental_uris":{"android":"levelo://app?vid=fe686156-bf86-4e13-9573-6f0f3ee81efc","ios":"levelo://app?vid=fe686156-bf86-4e13-9573-6f0f3ee81efc"},"vehicle_type_id":"4","last_reported":1750479238,"current_range_meters":19600,"station_id":"ce4bhnp2rcd13ifvqh0g","pricing_plan_id":"cebpf4jnsgd1na2vs0mg"},{"bike_id":"037bb55c-581c-4b44-b072-28cff3505ef8","system_id":"levelo_inurba_marseille","lat":43.29054,"lon":5.40026,"is_reserved":false,"is_disabled":false,"rental_uris":{"android":"levelo://app?vid=037bb55c-581c-4b44-b072-28cff3505ef8","ios":"levelo://app?vid=037bb55c-581c-4b44-b072-28cff3505ef8"},"vehicle_type_id":"4","last_reported":1750479238,"current_range_meters":20000,"station_id":"","pricing_plan_id":"cebpf4jnsgd1na2vs0mg"},{"bike_id":"e77808e6-212b-4e0d-ba1b-2ad3fe81da73","system_id":"levelo_inurba_marseille","lat":43.25136,"lon":5.40362,"is_reserved":false,"is_disabled":false,"rental_uris":{"android":"levelo://app?vid=e77808e6-212b-4e0d-ba1b-2ad3fe81da73","ios":"levelo://app?vid=e77808e6-212b-4e0d-ba1b-2ad3fe81da73"},"vehicle_type_id":"4","last_reported":1750479238,"current_range_meters":20000,"station_id":"","pricing_plan_id":"cebpf4jnsgd1na2vs0mg"},{"bike_id":"9ab80e78-83f3-4a2f-9fac-7117a904b316","system_id":"levelo_inurba_marseille","lat":43.30177,"lon":5.38091,"is_reserved":false,"is_disabled":false,"rental_uris":{"android":"levelo://app?vid=9ab80e78-83f3-4a2f-9fac-7117a904b316","ios":"levelo://app?vid=9ab80e78-83f3-4a2f-9fac-7117a904b316"},"vehicle_type_id":"4","last_reported":1750479238,"current_range_meters":20000,"station_id":"ce4bgjp2rcd13ifvqbh0","pricing_plan_id":"cebpf4jnsgd1na2vs0mg"},{"bike_id":"d5411249-5c22-4160-9e07-4e4724810057","system_id":"levelo_inurba_marseille","lat":43.29991,"lon":5.37175,"is_reserved":false,"is_disabled":false,"rental_uris":{"android":"levelo://app?vid=d5411249-5c22-4160-9e07-4e4724810057","ios":"levelo://app?vid=d5411249-5c22-4160-9e07-4e4724810057"},"vehicle_type_id":"4","last_reported":1750479238,"current_range_meters":20000,"station_id":"ce4bgr92rcd13ifvqc7g","pricing_plan_id":"cebpf4jnsgd1na2vs0mg"},{"bike_id":"04ee8092-af10-41ed-81db-f72403d43288","system_id":"levelo_inurba_marseille","lat":43.30883,"lon":5.396542,"is_reserved":false,"is_disabled":false,"rental_uris":{"android":"levelo://app?vid=04ee8092-af10-41ed-81db-f72403d43288","ios":"levelo://app?vid=04ee8092-af10-41ed-81db-f72403d43288"},"vehicle_type_id":"4","last_reported":1750479238,"current_range_meters":20000,"station_id":"ce4bh012rcd13ifvqcv0","pricing_plan_id":"cebpf4jnsgd1na2vs0mg"},{"bike_id":"c7a8b653-0ff6-4a79-9663-a017d10ac616","system_id":"levelo_inurba_marseille","lat":43.29045,"lon":5.399614,"is_reserved":false,"is_disabled":false,"rental_uris":{"android":"levelo://app?vid=c7a8b653-0ff6-4a79-9663-a017d10ac616","ios":"levelo://app?vid=c7a8b653-0ff6-4a79-9663-a017d10ac616"},"vehicle_type_id":"4","last_reported":1750479238,"current_range_meters":20000,"station_id":"ce4bh392rcd13ifvqdm0","pricing_plan_id":"cebpf4jnsgd1na2vs0mg"},{"bike_id":"89006e17-3a33-46d7-a57b-67f07f8af45a","system_id":"levelo_inurba_marseille","lat":43.25137,"lon":5.40335,"is_reserved":false,"is_disabled":false,"rental_uris":{"android":"levelo://app?vid=89006e17-3a33-46d7-a57b-67f07f8af45a","ios":"levelo://app?vid=89006e17-3a33-46d7-a57b-67f07f8af45a"},"vehicle_type_id":"4","last_reported":1750479238,"current_range_meters":20000,"station_id":"ce4bhlh2rcd13ifvqgig","pricing_plan_id":"cebpf4jnsgd1na2vs0mg"},{"bike_id":"5e372528-2077-476b-a84f-f2201c11536d","system_id":"levelo_inurba_marseille","lat":43.28163,"lon":5.42637,"is_reserved":false,"is_disabled":false,"rental_uris":{"android":"levelo://app?vid=5e372528-2077-476b-a84f-f2201c11536d","ios":"levelo://app?vid=5e372528-2077-476b-a84f-f2201c11536d"},"vehicle_type_id":"4","last_reported":1750479238,"current_range_meters":20000,"station_id":"ce4bhnh2rcd13ifvqgug","pricing_plan_id":"cebpf4jnsgd1na2vs0mg"},{"bike_id":"50cfdf5b-23e3-44ca-ac48-fe6fbf32a367","system_id":"levelo_inurba_marseille","lat":43.26766,"lon":5.40245,"is_reserved":false,"is_disabled":false,"rental_uris":{"android":"levelo://app?vid=50cfdf5b-23e3-44ca-ac48-fe6fbf32a367","ios":"levelo://app?vid=50cfdf5b-23e3-44ca-ac48-fe6fbf32a367"},"vehicle_type_id":"4","last_reported":1750479238,"current_range_meters":20000,"station_id":"ce501612rcd8frsf0b60","pricing_plan_id":"cebpf4jnsgd1na2vs0mg"},{"bike_id":"31215f53-8c77-4f5f-8e93-f3668dfaff65","system_id":"levelo_inurba_marseille","lat":43.279141,"lon":5.395849,"is_reserved":false,"is_disabled":false,"rental_uris":{"android":"levelo://app?vid=31215f53-8c77-4f5f-8e93-f3668dfaff65","ios":"levelo://app?vid=31215f53-8c77-4f5f-8e93-f3668dfaff65"},"vehicle_type_id":"4","last_reported":1750479238,"current_range_meters":20400,"station_id":"ce4bhf92rcd13ifvqf40","pricing_plan_id":"cebpf4jnsgd1na2vs0mg"},{"bike_id":"44f91d9d-a072-4666-b130-0587846c0cfd","system_id":"levelo_inurba_marseille","lat":43.31889,"lon":5.40734,"is_reserved":false,"is_disabled":false,"rental_uris":{"android":"levelo://app?vid=44f91d9d-a072-4666-b130-0587846c0cfd","ios":"levelo://app?vid=44f91d9d-a072-4666-b130-0587846c0cfd"},"vehicle_type_id":"4","last_reported":1750479238,"current_range_meters":20400,"station_id":"ce4bhq12rcd13ifvqhig","pricing_plan_id":"cebpf4jnsgd1na2vs0mg"},{"bike_id":"b954ad20-8866-4808-9736-0e481591598c","system_id":"levelo_inurba_marseille","lat":43.326,"lon":5.37766,"is_reserved":false,"is_disabled":false,"rental_uris":{"android":"levelo://app?vid=b954ad20-8866-4808-9736-0e481591598c","ios":"levelo://app?vid=b954ad20-8866-4808-9736-0e481591598c"},"vehicle_type_id":"4","last_reported":1750479238,"current_range_meters":20800,"station_id":"","pricing_plan_id":"cebpf4jnsgd1na2vs0mg"},{"bike_id":"ec8b02da-2217-4463-ac58-b1a702c014a3","system_id":"levelo_inurba_marseille","lat":43.293,"lon":5.4016,"is_reserved":false,"is_disabled":false,"rental_uris":{"android":"levelo://app?vid=ec8b02da-2217-4463-ac58-b1a702c014a3","ios":"levelo://app?vid=ec8b02da-2217-4463-ac58-b1a702c014a3"},"vehicle_type_id":"4","last_reported":1750479238,"current_range_meters":20800,"station_id":"ce4bh312rcd13ifvqdk0","pricing_plan_id":"cebpf4jnsgd1na2vs0mg"},{"bike_id":"642df1c4-fe20-480b-820e-70df76caedbe","system_id":"levelo_inurba_marseille","lat":43.28467,"lon":5.35889,"is_reserved":false,"is_disabled":false,"rental_uris":{"android":"levelo://app?vid=642df1c4-fe20-480b-820e-70df76caedbe","ios":"levelo://app?vid=642df1c4-fe20-480b-820e-70df76caedbe"},"vehicle_type_id":"4","last_reported":1750479238,"current_range_meters":20800,"station_id":"ce4bhah2rcd13ifvqei0","pricing_plan_id":"cebpf4jnsgd1na2vs0mg"},{"bike_id":"d5d4ea08-5286-42f6-8cc4-138a5180b07c","system_id":"levelo_inurba_marseille","lat":43.25011,"lon":5.389146,"is_reserved":false,"is_disabled":false,"rental_uris":{"android":"levelo://app?vid=d5d4ea08-5286-42f6-8cc4-138a5180b07c","ios":"levelo://app?vid=d5d4ea08-5286-42f6-8cc4-138a5180b07c"},"vehicle_type_id":"4","last_reported":1750479238,"current_range_meters":20800,"station_id":"ce4bhgp2rcd13ifvqfd0","pricing_plan_id":"cebpf4jnsgd1na2vs0mg"},{"bike_id":"37967699-9626-41b5-a5f9-8419eeae5de5","system_id":"levelo_inurba_marseille","lat":43.24212,"lon":5.39709,"is_reserved":false,"is_disabled":false,"rental_uris":{"android":"levelo://app?vid=37967699-9626-41b5-a5f9-8419eeae5de5","ios":"levelo://app?vid=37967699-9626-41b5-a5f9-8419eeae5de5"},"vehicle_type_id":"4","last_reported":1750479238,"current_range_meters":20800,"station_id":"ce4bhn12rcd13ifvqgpg","pricing_plan_id":"cebpf4jnsgd1na2vs0mg"},{"bike_id":"833be1cb-5268-44fe-b99b-a94f9f283273","system_id":"levelo_inurba_marseille","lat":43.28456,"lon":5.39165,"is_reserved":false,"is_disabled":false,"rental_uris":{"android":"levelo://app?vid=833be1cb-5268-44fe-b99b-a94f9f283273","ios":"levelo://app?vid=833be1cb-5268-44fe-b99b-a94f9f283273"},"vehicle_type_id":"4","last_reported":1750479238,"current_range_meters":20800,"station_id":"ce4bhoh2rcd13ifvqh5g","pricing_plan_id":"cebpf4jnsgd1na2vs0mg"},{"bike_id":"0f26a4e9-365c-4421-a342-e2a9bf974245","system_id":"levelo_inurba_marseille","lat":43.30655,"lon":5.39301,"is_reserved":false,"is_disabled":false,"rental_uris":{"android":"levelo://app?vid=0f26a4e9-365c-4421-a342-e2a9bf974245","ios":"levelo://app?vid=0f26a4e9-365c-4421-a342-e2a9bf974245"},"vehicle_type_id":"4","last_reported":1750479238,"current_range_meters":21600,"station_id":"","pricing_plan_id":"cebpf4jnsgd1na2vs0mg"},{"bike_id":"fa47ac06-ab95-476b-9764-f102eb9f173d","system_id":"levelo_inurba_marseille","lat":43.29058,"lon":5.39979,"is_reserved":false,"is_disabled":false,"rental_uris":{"android":"levelo://app?vid=fa47ac06-ab95-476b-9764-f102eb9f173d","ios":"levelo://app?vid=fa47ac06-ab95-476b-9764-f102eb9f173d"},"vehicle_type_id":"4","last_reported":1750479238,"current_range_meters":21600,"station_id":"ce4bh392rcd13ifvqdm0","pricing_plan_id":"cebpf4jnsgd1na2vs0mg"},{"bike_id":"d0d91593-2efb-4206-8e48-10c437e5fa3a","system_id":"levelo_inurba_marseille","lat":43.33602,"lon":5.41013,"is_reserved":false,"is_disabled":false,"rental_uris":{"android":"levelo://app?vid=d0d91593-2efb-4206-8e48-10c437e5fa3a","ios":"levelo://app?vid=d0d91593-2efb-4206-8e48-10c437e5fa3a"},"vehicle_type_id":"4","last_reported":1750479238,"current_range_meters":21600,"station_id":"ce4bhqh2rcd13ifvqhmg","pricing_plan_id":"cebpf4jnsgd1na2vs0mg"},{"bike_id":"c1bfe059-dc8b-4a59-9d74-d550781388b9","system_id":"levelo_inurba_marseille","lat":43.295313,"lon":5.385461,"is_reserved":false,"is_disabled":false,"rental_uris":{"android":"levelo://app?vid=c1bfe059-dc8b-4a59-9d74-d550781388b9","ios":"levelo://app?vid=c1bfe059-dc8b-4a59-9d74-d550781388b9"},"vehicle_type_id":"4","last_reported":1750479238,"current_range_meters":22000,"station_id":"","pricing_plan_id":"cebpf4jnsgd1na2vs0mg"},{"bike_id":"6065f12d-f445-49fe-8d65-959a95a0f43d","system_id":"levelo_inurba_marseille","lat":43.25496,"lon":5.37647,"is_reserved":false,"is_disabled":false,"rental_uris":{"android":"levelo://app?vid=6065f12d-f445-49fe-8d65-959a95a0f43d","ios":"levelo://app?vid=6065f12d-f445-49fe-8d65-959a95a0f43d"},"vehicle_type_id":"4","last_reported":1750479238,"current_range_meters":22000,"station_id":"ce4bhh12rcd13ifvqff0","pricing_plan_id":"cebpf4jnsgd1na2vs0mg"},{"bike_id":"f5dd2dcc-b3db-43ab-9600-0cc76a66c75d","system_id":"levelo_inurba_marseille","lat":43.251174,"lon":5.403196,"is_reserved":false,"is_disabled":false,"rental_uris":{"android":"levelo://app?vid=f5dd2dcc-b3db-43ab-9600-0cc76a66c75d","ios":"levelo://app?vid=f5dd2dcc-b3db-43ab-9600-0cc76a66c75d"},"vehicle_type_id":"4","last_reported":1750479238,"current_range_meters":22000,"station_id":"ce4bhlh2rcd13ifvqgig","pricing_plan_id":"cebpf4jnsgd1na2vs0mg"},{"bike_id":"7b1bca12-b663-491e-8b75-bbaab059a430","system_id":"levelo_inurba_marseille","lat":43.24189,"lon":5.39724,"is_reserved":false,"is_disabled":false,"rental_uris":{"android":"levelo://app?vid=7b1bca12-b663-491e-8b75-bbaab059a430","ios":"levelo://app?vid=7b1bca12-b663-491e-8b75-bbaab059a430"},"vehicle_type_id":"4","last_reported":1750479238,"current_range_meters":22000,"station_id":"ce4bhn12rcd13ifvqgpg","pricing_plan_id":"cebpf4jnsgd1na2vs0mg"},{"bike_id":"377ec864-6a07-4987-8844-392b5fb8234b","system_id":"levelo_inurba_marseille","lat":43.317695,"lon":5.388024,"is_reserved":false,"is_disabled":false,"rental_uris":{"android":"levelo://app?vid=377ec864-6a07-4987-8844-392b5fb8234b","ios":"levelo://app?vid=377ec864-6a07-4987-8844-392b5fb8234b"},"vehicle_type_id":"4","last_reported":1750479238,"current_range_meters":22400,"station_id":"","pricing_plan_id":"cebpf4jnsgd1na2vs0mg"},{"bike_id":"9133bd38-9834-4bf5-aead-c4f396f165ac","system_id":"levelo_inurba_marseille","lat":43.21233,"lon":5.35047,"is_reserved":false,"is_disabled":false,"rental_uris":{"android":"levelo://app?vid=9133bd38-9834-4bf5-aead-c4f396f165ac","ios":"levelo://app?vid=9133bd38-9834-4bf5-aead-c4f396f165ac"},"vehicle_type_id":"4","last_reported":1750479238,"current_range_meters":22400,"station_id":"","pricing_plan_id":"cebpf4jnsgd1na2vs0mg"},{"bike_id":"8567eb24-0522-414c-af9a-6c5424b4b865","system_id":"levelo_inurba_marseille","lat":43.29876,"lon":5.39726,"is_reserved":false,"is_disabled":false,"rental_uris":{"android":"levelo://app?vid=8567eb24-0522-414c-af9a-6c5424b4b865","ios":"levelo://app?vid=8567eb24-0522-414c-af9a-6c5424b4b865"},"vehicle_type_id":"4","last_reported":1750479238,"current_range_meters":22400,"station_id":"ce4bh0h2rcd13ifvqd50","pricing_plan_id":"cebpf4jnsgd1na2vs0mg"},{"bike_id":"ff324c36-9ead-46f0-9336-ca1a07f2162b","system_id":"levelo_inurba_marseille","lat":43.297978,"lon":5.40414,"is_reserved":false,"is_disabled":false,"rental_uris":{"android":"levelo://app?vid=ff324c36-9ead-46f0-9336-ca1a07f2162b","ios":"levelo://app?vid=ff324c36-9ead-46f0-9336-ca1a07f2162b"},"vehicle_type_id":"4","last_reported":1750479238,"current_range_meters":22400,"station_id":"ce4bh112rcd13ifvqd90","pricing_plan_id":"cebpf4jnsgd1na2vs0mg"},{"bike_id":"6d89501a-3b3e-4d3a-8efa-9e27dbc468b5","system_id":"levelo_inurba_marseille","lat":43.27533,"lon":5.38424,"is_reserved":false,"is_disabled":false,"rental_uris":{"android":"levelo://app?vid=6d89501a-3b3e-4d3a-8efa-9e27dbc468b5","ios":"levelo://app?vid=6d89501a-3b3e-4d3a-8efa-9e27dbc468b5"},"vehicle_type_id":"4","last_reported":1750479238,"current_range_meters":22400,"station_id":"ce4bhh92rcd13ifvqfi0","pricing_plan_id":"cebpf4jnsgd1na2vs0mg"},{"bike_id":"e3e3f500-479f-408a-a7f0-0204a533e0b9","system_id":"levelo_inurba_marseille","lat":43.24552,"lon":5.3954,"is_reserved":false,"is_disabled":false,"rental_uris":{"android":"levelo://app?vid=e3e3f500-479f-408a-a7f0-0204a533e0b9","ios":"levelo://app?vid=e3e3f500-479f-408a-a7f0-0204a533e0b9"},"vehicle_type_id":"4","last_reported":1750479238,"current_range_meters":22400,"station_id":"ce4bhlp2rcd13ifvqgjg","pricing_plan_id":"cebpf4jnsgd1na2vs0mg"},{"bike_id":"5c117c66-286b-49d6-92e3-323695dfcb61","system_id":"levelo_inurba_marseille","lat":43.24554,"lon":5.39525,"is_reserved":false,"is_disabled":false,"rental_uris":{"android":"levelo://app?vid=5c117c66-286b-49d6-92e3-323695dfcb61","ios":"levelo://app?vid=5c117c66-286b-49d6-92e3-323695dfcb61"},"vehicle_type_id":"4","last_reported":1750479238,"current_range_meters":22400,"station_id":"ce4bhlp2rcd13ifvqgjg","pricing_plan_id":"cebpf4jnsgd1na2vs0mg"},{"bike_id":"d3df0b43-9f12-492c-b281-7a49f739dbe1","system_id":"levelo_inurba_marseille","lat":43.28442,"lon":5.39207,"is_reserved":false,"is_disabled":false,"rental_uris":{"android":"levelo://app?vid=d3df0b43-9f12-492c-b281-7a49f739dbe1","ios":"levelo://app?vid=d3df0b43-9f12-492c-b281-7a49f739dbe1"},"vehicle_type_id":"4","last_reported":1750479238,"current_range_meters":22400,"station_id":"ce4bhoh2rcd13ifvqh5g","pricing_plan_id":"cebpf4jnsgd1na2vs0mg"},{"bike_id":"c6cbae16-3ce5-4d77-8942-2ad6d6b3c555","system_id":"levelo_inurba_marseille","lat":43.29448,"lon":5.38109,"is_reserved":false,"is_disabled":false,"rental_uris":{"android":"levelo://app?vid=c6cbae16-3ce5-4d77-8942-2ad6d6b3c555","ios":"levelo://app?vid=c6cbae16-3ce5-4d77-8942-2ad6d6b3c555"},"vehicle_type_id":"4","last_reported":1750479238,"current_range_meters":22800,"station_id":"","pricing_plan_id":"cebpf4jnsgd1na2vs0mg"},{"bike_id":"43892662-eb0e-42e6-9a65-c1203e145fac","system_id":"levelo_inurba_marseille","lat":43.25111,"lon":5.40346,"is_reserved":false,"is_disabled":false,"rental_uris":{"android":"levelo://app?vid=43892662-eb0e-42e6-9a65-c1203e145fac","ios":"levelo://app?vid=43892662-eb0e-42e6-9a65-c1203e145fac"},"vehicle_type_id":"4","last_reported":1750479238,"current_range_meters":22800,"station_id":"ce4bhlh2rcd13ifvqgig","pricing_plan_id":"cebpf4jnsgd1na2vs0mg"},{"bike_id":"9e060714-1c5d-4a58-a297-a8145728e161","system_id":"levelo_inurba_marseille","lat":43.250859,"lon":5.395202,"is_reserved":false,"is_disabled":false,"rental_uris":{"android":"levelo://app?vid=9e060714-1c5d-4a58-a297-a8145728e161","ios":"levelo://app?vid=9e060714-1c5d-4a58-a297-a8145728e161"},"vehicle_type_id":"4","last_reported":1750479238,"current_range_meters":22800,"station_id":"ce4bhm12rcd13ifvqgkg","pricing_plan_id":"cebpf4jnsgd1na2vs0mg"},{"bike_id":"e6ebc88f-d63a-4371-a461-6258c34857f0","system_id":"levelo_inurba_marseille","lat":43.33604,"lon":5.40975,"is_reserved":false,"is_disabled":false,"rental_uris":{"android":"levelo://app?vid=e6ebc88f-d63a-4371-a461-6258c34857f0","ios":"levelo://app?vid=e6ebc88f-d63a-4371-a461-6258c34857f0"},"vehicle_type_id":"4","last_reported":1750479238,"current_range_meters":22800,"station_id":"ce4bhqh2rcd13ifvqhmg","pricing_plan_id":"cebpf4jnsgd1na2vs0mg"},{"bike_id":"8d742130-2104-4a21-b63d-6f09c2f567f5","system_id":"levelo_inurba_marseille","lat":43.28279,"lon":5.42382,"is_reserved":false,"is_disabled":false,"rental_uris":{"android":"levelo://app?vid=8d742130-2104-4a21-b63d-6f09c2f567f5","ios":"levelo://app?vid=8d742130-2104-4a21-b63d-6f09c2f567f5"},"vehicle_type_id":"4","last_reported":1750479238,"current_range_meters":23200,"station_id":"","pricing_plan_id":"cebpf4jnsgd1na2vs0mg"},{"bike_id":"302298c5-5a75-47bf-a21b-fc8a2a121615","system_id":"levelo_inurba_marseille","lat":43.28839,"lon":5.39298,"is_reserved":false,"is_disabled":false,"rental_uris":{"android":"levelo://app?vid=302298c5-5a75-47bf-a21b-fc8a2a121615","ios":"levelo://app?vid=302298c5-5a75-47bf-a21b-fc8a2a121615"},"vehicle_type_id":"4","last_reported":1750479238,"current_range_meters":23200,"station_id":"ce4bh2p2rcd13ifvqdi0","pricing_plan_id":"cebpf4jnsgd1na2vs0mg"},{"bike_id":"9de28e6c-1667-43ca-ae6d-8b6e674a4509","system_id":"levelo_inurba_marseille","lat":43.284074,"lon":5.375229,"is_reserved":false,"is_disabled":false,"rental_uris":{"android":"levelo://app?vid=9de28e6c-1667-43ca-ae6d-8b6e674a4509","ios":"levelo://app?vid=9de28e6c-1667-43ca-ae6d-8b6e674a4509"},"vehicle_type_id":"4","last_reported":1750479238,"current_range_meters":23200,"station_id":"ce4bh412rcd13ifvqds0","pricing_plan_id":"cebpf4jnsgd1na2vs0mg"},{"bike_id":"72c2ea63-e2ec-4de0-8ee1-ce5f166644c4","system_id":"levelo_inurba_marseille","lat":43.25581,"lon":5.3823,"is_reserved":false,"is_disabled":false,"rental_uris":{"android":"levelo://app?vid=72c2ea63-e2ec-4de0-8ee1-ce5f166644c4","ios":"levelo://app?vid=72c2ea63-e2ec-4de0-8ee1-ce5f166644c4"},"vehicle_type_id":"4","last_reported":1750479238,"current_range_meters":23200,"station_id":"ce4bhih2rcd13ifvqfs0","pricing_plan_id":"cebpf4jnsgd1na2vs0mg"},{"bike_id":"099983f6-2f71-42f0-8529-522906753c72","system_id":"levelo_inurba_marseille","lat":43.26231,"lon":5.40456,"is_reserved":false,"is_disabled":false,"rental_uris":{"android":"levelo://app?vid=099983f6-2f71-42f0-8529-522906753c72","ios":"levelo://app?vid=099983f6-2f71-42f0-8529-522906753c72"},"vehicle_type_id":"4","last_reported":1750479238,"current_range_meters":23200,"station_id":"ce4bhmh2rcd13ifvqgmg","pricing_plan_id":"cebpf4jnsgd1na2vs0mg"},{"bike_id":"9b24d89c-2893-4804-a212-82be3433bccd","system_id":"levelo_inurba_marseille","lat":43.241786,"lon":5.397328,"is_reserved":false,"is_disabled":false,"rental_uris":{"android":"levelo://app?vid=9b24d89c-2893-4804-a212-82be3433bccd","ios":"levelo://app?vid=9b24d89c-2893-4804-a212-82be3433bccd"},"vehicle_type_id":"4","last_reported":1750479238,"current_range_meters":23200,"station_id":"ce4bhn12rcd13ifvqgpg","pricing_plan_id":"cebpf4jnsgd1na2vs0mg"},{"bike_id":"d5cc24c0-37bd-4edd-b829-e40c1b3f5263","system_id":"levelo_inurba_marseille","lat":43.32486,"lon":5.3656,"is_reserved":false,"is_disabled":false,"rental_uris":{"android":"levelo://app?vid=d5cc24c0-37bd-4edd-b829-e40c1b3f5263","ios":"levelo://app?vid=d5cc24c0-37bd-4edd-b829-e40c1b3f5263"},"vehicle_type_id":"4","last_reported":1750479238,"current_range_meters":23200,"station_id":"ce4bhs12rcd13ifvqhvg","pricing_plan_id":"cebpf4jnsgd1na2vs0mg"},{"bike_id":"ee3026d9-e826-4f6d-afda-d2f4bce88d52","system_id":"levelo_inurba_marseille","lat":43.22496,"lon":5.34772,"is_reserved":false,"is_disabled":false,"rental_uris":{"android":"levelo://app?vid=ee3026d9-e826-4f6d-afda-d2f4bce88d52","ios":"levelo://app?vid=ee3026d9-e826-4f6d-afda-d2f4bce88d52"},"vehicle_type_id":"4","last_reported":1750479238,"current_range_meters":23200,"station_id":"st_cvj5dfep6f1abm77gieg","pricing_plan_id":"cebpf4jnsgd1na2vs0mg"},{"bike_id":"82000b1c-29b1-40c7-afaa-02263ea11026","system_id":"levelo_inurba_marseille","lat":43.32524,"lon":5.43405,"is_reserved":false,"is_disabled":false,"rental_uris":{"android":"levelo://app?vid=82000b1c-29b1-40c7-afaa-02263ea11026","ios":"levelo://app?vid=82000b1c-29b1-40c7-afaa-02263ea11026"},"vehicle_type_id":"4","last_reported":1750479238,"current_range_meters":24000,"station_id":"","pricing_plan_id":"cebpf4jnsgd1na2vs0mg"},{"bike_id":"79a81e79-374c-412f-b6be-0c98e200519f","system_id":"levelo_inurba_marseille","lat":43.24639,"lon":5.3883,"is_reserved":false,"is_disabled":false,"rental_uris":{"android":"levelo://app?vid=79a81e79-374c-412f-b6be-0c98e200519f","ios":"levelo://app?vid=79a81e79-374c-412f-b6be-0c98e200519f"},"vehicle_type_id":"4","last_reported":1750479238,"current_range_meters":24000,"station_id":"","pricing_plan_id":"cebpf4jnsgd1na2vs0mg"},{"bike_id":"6cc3dbb1-a441-40c1-85e8-53cb50da742b","system_id":"levelo_inurba_marseille","lat":43.2893,"lon":5.3962,"is_reserved":false,"is_disabled":false,"rental_uris":{"android":"levelo://app?vid=6cc3dbb1-a441-40c1-85e8-53cb50da742b","ios":"levelo://app?vid=6cc3dbb1-a441-40c1-85e8-53cb50da742b"},"vehicle_type_id":"4","last_reported":1750479238,"current_range_meters":24000,"station_id":"ce4bh3h2rcd13ifvqdn0","pricing_plan_id":"cebpf4jnsgd1na2vs0mg"},{"bike_id":"33d75a4d-9005-4048-80b6-610fff4b320f","system_id":"levelo_inurba_marseille","lat":43.30726,"lon":5.42431,"is_reserved":false,"is_disabled":false,"rental_uris":{"android":"levelo://app?vid=33d75a4d-9005-4048-80b6-610fff4b320f","ios":"levelo://app?vid=33d75a4d-9005-4048-80b6-610fff4b320f"},"vehicle_type_id":"4","last_reported":1750479238,"current_range_meters":24000,"station_id":"st_cvj6ca6bvosntc0bfgr0","pricing_plan_id":"cebpf4jnsgd1na2vs0mg"},{"bike_id":"b10476c2-2e64-4a41-a4df-6fd21c65643b","system_id":"levelo_inurba_marseille","lat":43.29699,"lon":5.37801,"is_reserved":false,"is_disabled":false,"rental_uris":{"android":"levelo://app?vid=b10476c2-2e64-4a41-a4df-6fd21c65643b","ios":"levelo://app?vid=b10476c2-2e64-4a41-a4df-6fd21c65643b"},"vehicle_type_id":"4","last_reported":1750479238,"current_range_meters":24400,"station_id":"","pricing_plan_id":"cebpf4jnsgd1na2vs0mg"},{"bike_id":"1e3dede4-5975-408b-ad19-dfc61e3b3359","system_id":"levelo_inurba_marseille","lat":43.29914,"lon":5.38148,"is_reserved":false,"is_disabled":false,"rental_uris":{"android":"levelo://app?vid=1e3dede4-5975-408b-ad19-dfc61e3b3359","ios":"levelo://app?vid=1e3dede4-5975-408b-ad19-dfc61e3b3359"},"vehicle_type_id":"4","last_reported":1750479238,"current_range_meters":24400,"station_id":"ce4bgj12rcd13ifvqbc0","pricing_plan_id":"cebpf4jnsgd1na2vs0mg"},{"bike_id":"da2f761c-c658-449d-bb5e-96155db74626","system_id":"levelo_inurba_marseille","lat":43.30645,"lon":5.40083,"is_reserved":false,"is_disabled":false,"rental_uris":{"android":"levelo://app?vid=da2f761c-c658-449d-bb5e-96155db74626","ios":"levelo://app?vid=da2f761c-c658-449d-bb5e-96155db74626"},"vehicle_type_id":"4","last_reported":1750479238,"current_range_meters":24400,"station_id":"ce4bh112rcd13ifvqda0","pricing_plan_id":"cebpf4jnsgd1na2vs0mg"},{"bike_id":"2e85806d-7a40-4cc9-a9e6-55b0ea32ee92","system_id":"levelo_inurba_marseille","lat":43.26041,"lon":5.37559,"is_reserved":false,"is_disabled":false,"rental_uris":{"android":"levelo://app?vid=2e85806d-7a40-4cc9-a9e6-55b0ea32ee92","ios":"levelo://app?vid=2e85806d-7a40-4cc9-a9e6-55b0ea32ee92"},"vehicle_type_id":"4","last_reported":1750479238,"current_range_meters":24400,"station_id":"ce4bhgh2rcd13ifvqfa0","pricing_plan_id":"cebpf4jnsgd1na2vs0mg"},{"bike_id":"8482d748-877d-4728-88cc-03c119c0a62f","system_id":"levelo_inurba_marseille","lat":43.27189,"lon":5.40993,"is_reserved":false,"is_disabled":false,"rental_uris":{"android":"levelo://app?vid=8482d748-877d-4728-88cc-03c119c0a62f","ios":"levelo://app?vid=8482d748-877d-4728-88cc-03c119c0a62f"},"vehicle_type_id":"4","last_reported":1750479238,"current_range_meters":24400,"station_id":"ce4bhl12rcd13ifvqgf0","pricing_plan_id":"cebpf4jnsgd1na2vs0mg"},{"bike_id":"f76facff-c6d4-452a-a325-56cd08a5b0f1","system_id":"levelo_inurba_marseille","lat":43.30792,"lon":5.43519,"is_reserved":false,"is_disabled":false,"rental_uris":{"android":"levelo://app?vid=f76facff-c6d4-452a-a325-56cd08a5b0f1","ios":"levelo://app?vid=f76facff-c6d4-452a-a325-56cd08a5b0f1"},"vehicle_type_id":"4","last_reported":1750479238,"current_range_meters":24400,"station_id":"ce4bhph2rcd13ifvqheg","pricing_plan_id":"cebpf4jnsgd1na2vs0mg"},{"bike_id":"61f142fd-e8c5-421d-8382-3101374aa7e1","system_id":"levelo_inurba_marseille","lat":43.318925,"lon":5.407383,"is_reserved":false,"is_disabled":false,"rental_uris":{"android":"levelo://app?vid=61f142fd-e8c5-421d-8382-3101374aa7e1","ios":"levelo://app?vid=61f142fd-e8c5-421d-8382-3101374aa7e1"},"vehicle_type_id":"4","last_reported":1750479238,"current_range_meters":24400,"station_id":"ce4bhq12rcd13ifvqhig","pricing_plan_id":"cebpf4jnsgd1na2vs0mg"},{"bike_id":"3239c83a-df4e-4c99-b1d0-0388d9895edd","system_id":"levelo_inurba_marseille","lat":43.29038,"lon":5.39878,"is_reserved":false,"is_disabled":false,"rental_uris":{"android":"levelo://app?vid=3239c83a-df4e-4c99-b1d0-0388d9895edd","ios":"levelo://app?vid=3239c83a-df4e-4c99-b1d0-0388d9895edd"},"vehicle_type_id":"4","last_reported":1750479238,"current_range_meters":24800,"station_id":"","pricing_plan_id":"cebpf4jnsgd1na2vs0mg"},{"bike_id":"009d267d-2236-4d8e-9eee-8e6d30c1012f","system_id":"levelo_inurba_marseille","lat":43.23137,"lon":5.36611,"is_reserved":false,"is_disabled":false,"rental_uris":{"android":"levelo://app?vid=009d267d-2236-4d8e-9eee-8e6d30c1012f","ios":"levelo://app?vid=009d267d-2236-4d8e-9eee-8e6d30c1012f"},"vehicle_type_id":"4","last_reported":1750479238,"current_range_meters":24800,"station_id":"","pricing_plan_id":"cebpf4jnsgd1na2vs0mg"},{"bike_id":"63a924ea-7153-4ec0-95c1-bc21aec7ac1e","system_id":"levelo_inurba_marseille","lat":43.28543,"lon":5.39479,"is_reserved":false,"is_disabled":false,"rental_uris":{"android":"levelo://app?vid=63a924ea-7153-4ec0-95c1-bc21aec7ac1e","ios":"levelo://app?vid=63a924ea-7153-4ec0-95c1-bc21aec7ac1e"},"vehicle_type_id":"4","last_reported":1750479238,"current_range_meters":24800,"station_id":"ce4bh292rcd13ifvqdg0","pricing_plan_id":"cebpf4jnsgd1na2vs0mg"},{"bike_id":"4994eb98-9fdc-4820-ba34-371f113d3e75","system_id":"levelo_inurba_marseille","lat":43.27917,"lon":5.39594,"is_reserved":false,"is_disabled":false,"rental_uris":{"android":"levelo://app?vid=4994eb98-9fdc-4820-ba34-371f113d3e75","ios":"levelo://app?vid=4994eb98-9fdc-4820-ba34-371f113d3e75"},"vehicle_type_id":"4","last_reported":1750479238,"current_range_meters":24800,"station_id":"ce4bhf92rcd13ifvqf40","pricing_plan_id":"cebpf4jnsgd1na2vs0mg"},{"bike_id":"7521ece6-9c23-4269-8d7c-93dde12afcda","system_id":"levelo_inurba_marseille","lat":43.27066,"lon":5.42275,"is_reserved":false,"is_disabled":false,"rental_uris":{"android":"levelo://app?vid=7521ece6-9c23-4269-8d7c-93dde12afcda","ios":"levelo://app?vid=7521ece6-9c23-4269-8d7c-93dde12afcda"},"vehicle_type_id":"4","last_reported":1750479238,"current_range_meters":24800,"station_id":"ce4bhk92rcd13ifvqgb0","pricing_plan_id":"cebpf4jnsgd1na2vs0mg"},{"bike_id":"2f7c0519-0623-4253-90f6-c5770f755a94","system_id":"levelo_inurba_marseille","lat":43.25103,"lon":5.40337,"is_reserved":false,"is_disabled":false,"rental_uris":{"android":"levelo://app?vid=2f7c0519-0623-4253-90f6-c5770f755a94","ios":"levelo://app?vid=2f7c0519-0623-4253-90f6-c5770f755a94"},"vehicle_type_id":"4","last_reported":1750479238,"current_range_meters":24800,"station_id":"ce4bhlh2rcd13ifvqgig","pricing_plan_id":"cebpf4jnsgd1na2vs0mg"},{"bike_id":"ddc48556-f348-47aa-8866-ae3c2bebbccb","system_id":"levelo_inurba_marseille","lat":43.26248,"lon":5.40446,"is_reserved":false,"is_disabled":false,"rental_uris":{"android":"levelo://app?vid=ddc48556-f348-47aa-8866-ae3c2bebbccb","ios":"levelo://app?vid=ddc48556-f348-47aa-8866-ae3c2bebbccb"},"vehicle_type_id":"4","last_reported":1750479238,"current_range_meters":24800,"station_id":"ce4bhmh2rcd13ifvqgmg","pricing_plan_id":"cebpf4jnsgd1na2vs0mg"},{"bike_id":"84d33738-fd20-4a24-bc33-9d42ea5067cd","system_id":"levelo_inurba_marseille","lat":43.32357,"lon":5.38928,"is_reserved":false,"is_disabled":false,"rental_uris":{"android":"levelo://app?vid=84d33738-fd20-4a24-bc33-9d42ea5067cd","ios":"levelo://app?vid=84d33738-fd20-4a24-bc33-9d42ea5067cd"},"vehicle_type_id":"4","last_reported":1750479238,"current_range_meters":24800,"station_id":"ce4bhqp2rcd13ifvqhog","pricing_plan_id":"cebpf4jnsgd1na2vs0mg"},{"bike_id":"12e57669-2387-4acb-9e07-c4b1e4e5edcb","system_id":"levelo_inurba_marseille","lat":43.32994,"lon":5.39061,"is_reserved":false,"is_disabled":false,"rental_uris":{"android":"levelo://app?vid=12e57669-2387-4acb-9e07-c4b1e4e5edcb","ios":"levelo://app?vid=12e57669-2387-4acb-9e07-c4b1e4e5edcb"},"vehicle_type_id":"4","last_reported":1750479238,"current_range_meters":24800,"station_id":"ce4bhr92rcd13ifvqhrg","pricing_plan_id":"cebpf4jnsgd1na2vs0mg"},{"bike_id":"82cd2aa4-f2be-4588-afbe-d3d6e65a0c25","system_id":"levelo_inurba_marseille","lat":43.28615,"lon":5.37053,"is_reserved":false,"is_disabled":false,"rental_uris":{"android":"levelo://app?vid=82cd2aa4-f2be-4588-afbe-d3d6e65a0c25","ios":"levelo://app?vid=82cd2aa4-f2be-4588-afbe-d3d6e65a0c25"},"vehicle_type_id":"4","last_reported":1750479238,"current_range_meters":24800,"station_id":"ce4bht12rcd13ifvqi60","pricing_plan_id":"cebpf4jnsgd1na2vs0mg"},{"bike_id":"0a8af7f2-0649-4bc8-af49-6cb1f4028e38","system_id":"levelo_inurba_marseille","lat":43.297965,"lon":5.404114,"is_reserved":false,"is_disabled":false,"rental_uris":{"android":"levelo://app?vid=0a8af7f2-0649-4bc8-af49-6cb1f4028e38","ios":"levelo://app?vid=0a8af7f2-0649-4bc8-af49-6cb1f4028e38"},"vehicle_type_id":"4","last_reported":1750479238,"current_range_meters":25200,"station_id":"ce4bh112rcd13ifvqd90","pricing_plan_id":"cebpf4jnsgd1na2vs0mg"},{"bike_id":"a87f2ba6-de25-4b22-bf00-e66567d4fd99","system_id":"levelo_inurba_marseille","lat":43.29236,"lon":5.40916,"is_reserved":false,"is_disabled":false,"rental_uris":{"android":"levelo://app?vid=a87f2ba6-de25-4b22-bf00-e66567d4fd99","ios":"levelo://app?vid=a87f2ba6-de25-4b22-bf00-e66567d4fd99"},"vehicle_type_id":"4","last_reported":1750479238,"current_range_meters":25200,"station_id":"ce4bh192rcd13ifvqdc0","pricing_plan_id":"cebpf4jnsgd1na2vs0mg"},{"bike_id":"f8c862df-419e-420f-ad3a-f648577b7340","system_id":"levelo_inurba_marseille","lat":43.28717,"lon":5.37396,"is_reserved":false,"is_disabled":false,"rental_uris":{"android":"levelo://app?vid=f8c862df-419e-420f-ad3a-f648577b7340","ios":"levelo://app?vid=f8c862df-419e-420f-ad3a-f648577b7340"},"vehicle_type_id":"4","last_reported":1750479238,"current_range_meters":25200,"station_id":"ce4bh3p2rcd13ifvqdq0","pricing_plan_id":"cebpf4jnsgd1na2vs0mg"},{"bike_id":"43bf105a-2e8e-47df-b104-20c35a37f0af","system_id":"levelo_inurba_marseille","lat":43.27072,"lon":5.40246,"is_reserved":false,"is_disabled":false,"rental_uris":{"android":"levelo://app?vid=43bf105a-2e8e-47df-b104-20c35a37f0af","ios":"levelo://app?vid=43bf105a-2e8e-47df-b104-20c35a37f0af"},"vehicle_type_id":"4","last_reported":1750479238,"current_range_meters":25200,"station_id":"ce4bhk92rcd13ifvqgc0","pricing_plan_id":"cebpf4jnsgd1na2vs0mg"},{"bike_id":"62660618-89e1-4b6d-827f-453cb11bc973","system_id":"levelo_inurba_marseille","lat":43.31725,"lon":5.43699,"is_reserved":false,"is_disabled":false,"rental_uris":{"android":"levelo://app?vid=62660618-89e1-4b6d-827f-453cb11bc973","ios":"levelo://app?vid=62660618-89e1-4b6d-827f-453cb11bc973"},"vehicle_type_id":"4","last_reported":1750479238,"current_range_meters":25200,"station_id":"ce4bhp92rcd13ifvqhcg","pricing_plan_id":"cebpf4jnsgd1na2vs0mg"},{"bike_id":"0b211690-bb3e-4307-851b-dde3ccb3e6da","system_id":"levelo_inurba_marseille","lat":43.32667,"lon":5.40982,"is_reserved":false,"is_disabled":false,"rental_uris":{"android":"levelo://app?vid=0b211690-bb3e-4307-851b-dde3ccb3e6da","ios":"levelo://app?vid=0b211690-bb3e-4307-851b-dde3ccb3e6da"},"vehicle_type_id":"4","last_reported":1750479238,"current_range_meters":25200,"station_id":"ce4bhpp2rcd13ifvqhgg","pricing_plan_id":"cebpf4jnsgd1na2vs0mg"},