{"last_updated":1730549748,"ttl":60,"version":"2.2","data":{"bikes":[{"bike_id":"23b1fc45-e1f1-4a57-b001-c87d48aac6d4","system_id":"levelo_inurba_marseille","lat":43.284637,"lon":5.358876,"is_reserved":false,"is_disabled":false,"rental_uris":{"android":"levelo://app?vid=23b1fc45-e1f1-4a57-b001-c87d48aac6d4","ios":"levelo://app?vid=23b1fc45-e1f1-4a57-b001-c87d48aac6d4"},"vehicle_type_id":"4","last_reported":1730549748,"current_range_meters":9600,"station_id":"ce4bhah2rcd13ifvqei0","pricing_plan_id":"cebpf4jnsgd1na2vs0mg"},{"bike_id":"1154d05d-8ee3-4b7a-8846-a6d93b97bf41","system_id":"levelo_inurba_marseille","lat":43.30541,"lon":5.36697,"is_reserved":false,"is_disabled":false,"rental_uris":{"android":"levelo://app?vid=1154d05d-8ee3-4b7a-8846-a6d93b97bf41","ios":"levelo://app?vid=1154d05d-8ee3-4b7a-8846-a6d93b97bf41"},"vehicle_type_id":"4","last_reported":1730549748,"current_range_meters":38800,"station_id":"ce4bgrp2rcd13ifvqc9g","pricing_plan_id":"cebpf4jnsgd1na2vs0mg"},{"bike_id":"8edb629f-9edb-4e6d-8453-3a06eb0fc1e0","system_id":"levelo_inurba_marseille","lat":43.24672,"lon":5.38167,"is_reserved":false,"is_disabled":false,"rental_uris":{"android":"levelo://app?vid=8edb629f-9edb-4e6d-8453-3a06eb0fc1e0","ios":"levelo://app?vid=8edb629f-9edb-4e6d-8453-3a06eb0fc1e0"},"vehicle_type_id":"4","last_reported":1730549748,"current_range_meters":28800,"station_id":"ce4bhih2rcd13ifvqfr0","pricing_plan_id":"cebpf4jnsgd1na2vs0mg"},{"bike_id":"02fe0e86-bc31-4b56-981a-890ed6cd1c76","system_id":"levelo_inurba_marseille","lat":43.32662,"lon":5.40984,"is_reserved":false,"is_disabled":false,"rental_uris":{"android":"levelo://app?vid=02fe0e86-bc31-4b56-981a-890ed6cd1c76","ios":"levelo://app?vid=02fe0e86-bc31-4b56-981a-890ed6cd1c76"},"vehicle_type_id":"4","last_reported":1730549748,"current_range_meters":8400,"station_id":"ce4bhpp2rcd13ifvqhgg","pricing_plan_id":"cebpf4jnsgd1na2vs0mg"},{"bike_id":"8682c02d-b75e-4986-bf40-c0b0cf6578e7","system_id":"levelo_inurba_marseille","lat":43.32104,"lon":5.36765,"is_reserved":false,"is_disabled":false,"rental_uris":{"android":"levelo://app?vid=8682c02d-b75e-4986-bf40-c0b0cf6578e7","ios":"levelo://app?vid=8682c02d-b75e-4986-bf40-c0b0cf6578e7"},"vehicle_type_id":"4","last_reported":1730549748,"current_range_meters":38000,"station_id":"ce4bhrh2rcd13ifvqhug","pricing_plan_id":"cebpf4jnsgd1na2vs0mg"},{"bike_id":"dbd026cc-4570-4761-bfa1-68dae00b3a97","system_id":"levelo_inurba_marseille","lat":43.30531,"lon":5.36536,"is_reserved":false,"is_disabled":false,"rental_uris":{"android":"levelo://app?vid=dbd026cc-4570-4761-bfa1-68dae00b3a97","ios":"levelo://app?vid=dbd026cc-4570-4761-bfa1-68dae00b3a97"},"vehicle_type_id":"4","last_reported":1730549748,"current_range_meters":38800,"station_id":"ce4bgs12rcd13ifvqcag","pricing_plan_id":"cebpf4jnsgd1na2vs0mg"},{"bike_id":"9544e8e1-810b-40e5-8e45-0e98bf35fbaa","system_id":"levelo_inurba_marseille","lat":43.301482,"lon":5.374084,"is_reserved":false,"is_disabled":false,"rental_uris":{"android":"levelo://app?vid=9544e8e1-810b-40e5-8e45-0e98bf35fbaa","ios":"levelo://app?vid=9544e8e1-810b-40e5-8e45-0e98bf35fbaa"},"vehicle_type_id":"4","last_reported":1730549748,"current_range_meters":38000,"station_id":"ce4bgs92rcd13ifvqcc0","pricing_plan_id":"cebpf4jnsgd1na2vs0mg"},{"bike_id":"d9b40d8f-ba82-4ad2-919e-811262fd3281","system_id":"levelo_inurba_marseille","lat":43.28851,"lon":5.35852,"is_reserved":false,"is_disabled":false,"rental_uris":{"android":"levelo://app?vid=d9b40d8f-ba82-4ad2-919e-811262fd3281","ios":"levelo://app?vid=d9b40d8f-ba82-4ad2-919e-811262fd3281"},"vehicle_type_id":"4","last_reported":1730549748,"current_range_meters":15200,"station_id":"ce4bhb12rcd13ifvqem0","pricing_plan_id":"cebpf4jnsgd1na2vs0mg"},{"bike_id":"ae2ccb33-795f-44d2-a6c0-9c58090a88ce","system_id":"levelo_inurba_marseille","lat":43.2439,"lon":5.37045,"is_reserved":false,"is_disabled":false,"rental_uris":{"android":"levelo://app?vid=ae2ccb33-795f-44d2-a6c0-9c58090a88ce","ios":"levelo://app?vid=ae2ccb33-795f-44d2-a6c0-9c58090a88ce"},"vehicle_type_id":"4","last_reported":1730549748,"current_range_meters":32400,"station_id":"ce4bhhh2rcd13ifvqfk0","pricing_plan_id":"cebpf4jnsgd1na2vs0mg"},{"bike_id":"b22f05c5-1153-45e1-9ad1-d4917cc54764","system_id":"levelo_inurba_marseille","lat":43.28259,"lon":5.35074,"is_reserved":false,"is_disabled":false,"rental_uris":{"android":"levelo://app?vid=b22f05c5-1153-45e1-9ad1-d4917cc54764","ios":"levelo://app?vid=b22f05c5-1153-45e1-9ad1-d4917cc54764"},"vehicle_type_id":"4","last_reported":1730549748,"current_range_meters":23200,"station_id":"ce4bhbp2rcd13ifvqerg","pricing_plan_id":"cebpf4jnsgd1na2vs0mg"},{"bike_id":"615d6bf6-418b-485f-937b-5a225c4b34f6","system_id":"levelo_inurba_marseille","lat":43.30464,"lon":5.379,"is_reserved":false,"is_disabled":false,"rental_uris":{"android":"levelo://app?vid=615d6bf6-418b-485f-937b-5a225c4b34f6","ios":"levelo://app?vid=615d6bf6-418b-485f-937b-5a225c4b34f6"},"vehicle_type_id":"4","last_reported":1730549748,"current_range_meters":34000,"station_id":"ce4bgup2rcd13ifvqcn0","pricing_plan_id":"cebpf4jnsgd1na2vs0mg"},{"bike_id":"cd3e86ad-d45b-4da8-8cd7-1ab0a47373f2","system_id":"levelo_inurba_marseille","lat":43.25718,"lon":5.41109,"is_reserved":false,"is_disabled":false,"rental_uris":{"android":"levelo://app?vid=cd3e86ad-d45b-4da8-8cd7-1ab0a47373f2","ios":"levelo://app?vid=cd3e86ad-d45b-4da8-8cd7-1ab0a47373f2"},"vehicle_type_id":"4","last_reported":1730549748,"current_range_meters":38800,"station_id":"ce4bhkp2rcd13ifvqgd0","pricing_plan_id":"cebpf4jnsgd1na2vs0mg"},{"bike_id":"a71573e1-5d24-449d-80b4-79cc50811424","system_id":"levelo_inurba_marseille","lat":43.22925,"lon":5.35375,"is_reserved":false,"is_disabled":false,"rental_uris":{"android":"levelo://app?vid=a71573e1-5d24-449d-80b4-79cc50811424","ios":"levelo://app?vid=a71573e1-5d24-449d-80b4-79cc50811424"},"vehicle_type_id":"4","last_reported":1730549748,"current_range_meters":12000,"station_id":"cpo3532slgdg3j2ikp40","pricing_plan_id":"cebpf4jnsgd1na2vs0mg"},{"bike_id":"57b2acd9-d201-4ef1-a77f-836fd086c08f","system_id":"levelo_inurba_marseille","lat":43.26941,"lon":5.40248,"is_reserved":false,"is_disabled":false,"rental_uris":{"android":"levelo://app?vid=57b2acd9-d201-4ef1-a77f-836fd086c08f","ios":"levelo://app?vid=57b2acd9-d201-4ef1-a77f-836fd086c08f"},"vehicle_type_id":"4","last_reported":1730549748,"current_range_meters":34800,"station_id":"cjm6bp8fraef2m0cb0m0","pricing_plan_id":"cebpf4jnsgd1na2vs0mg"},{"bike_id":"a4627486-a087-47d1-bdea-e9476cd49986","system_id":"levelo_inurba_marseille","lat":43.23196,"lon":5.3555,"is_reserved":false,"is_disabled":false,"rental_uris":{"android":"levelo://app?vid=a4627486-a087-47d1-bdea-e9476cd49986","ios":"levelo://app?vid=a4627486-a087-47d1-bdea-e9476cd49986"},"vehicle_type_id":"4","last_reported":1730549748,"current_range_meters":27200,"station_id":"ce4bhu92rcd13ifvqi70","pricing_plan_id":"cebpf4jnsgd1na2vs0mg"},{"bike_id":"ba4ebf43-3c31-4e02-8eb1-dd880fe954e8","system_id":"levelo_inurba_marseille","lat":43.23968,"lon":5.36628,"is_reserved":false,"is_disabled":false,"rental_uris":{"android":"levelo://app?vid=ba4ebf43-3c31-4e02-8eb1-dd880fe954e8","ios":"levelo://app?vid=ba4ebf43-3c31-4e02-8eb1-dd880fe954e8"},"vehicle_type_id":"4","last_reported":1730549748,"current_range_meters":20000,"station_id":"ce4bhi12rcd13ifvqfp0","pricing_plan_id":"cebpf4jnsgd1na2vs0mg"},{"bike_id":"11aac9b8-e8b5-425a-afda-3b7e79f1b9be","system_id":"levelo_inurba_marseille","lat":43.284189,"lon":5.349861,"is_reserved":false,"is_disabled":false,"rental_uris":{"android":"levelo://app?vid=11aac9b8-e8b5-425a-afda-3b7e79f1b9be","ios":"levelo://app?vid=11aac9b8-e8b5-425a-afda-3b7e79f1b9be"},"vehicle_type_id":"4","last_reported":1730549748,"current_range_meters":30000,"station_id":"ce4bh4p2rcd13ifvqe0g","pricing_plan_id":"cebpf4jnsgd1na2vs0mg"},{"bike_id":"509a9bdc-ca48-4855-8040-748bb9b3087b","system_id":"levelo_inurba_marseille","lat":43.25934,"lon":5.409,"is_reserved":false,"is_disabled":false,"rental_uris":{"android":"levelo://app?vid=509a9bdc-ca48-4855-8040-748bb9b3087b","ios":"levelo://app?vid=509a9bdc-ca48-4855-8040-748bb9b3087b"},"vehicle_type_id":"4","last_reported":1730549748,"current_range_meters":20400,"station_id":"ce4bhm92rcd13ifvqglg","pricing_plan_id":"cebpf4jnsgd1na2vs0mg"},{"bike_id":"2b2e6e87-bd18-4a7a-a7c7-3db057ae8e16","system_id":"levelo_inurba_marseille","lat":43.29622,"lon":5.37157,"is_reserved":false,"is_disabled":false,"rental_uris":{"android":"levelo://app?vid=2b2e6e87-bd18-4a7a-a7c7-3db057ae8e16","ios":"levelo://app?vid=2b2e6e87-bd18-4a7a-a7c7-3db057ae8e16"},"vehicle_type_id":"4","last_reported":1730549748,"current_range_meters":36800,"station_id":"ce4bgnh2rcd13ifvqc0g","pricing_plan_id":"cebpf4jnsgd1na2vs0mg"},{"bike_id":"d553e22e-70c2-48a8-b6a0-aef4665faa4a","system_id":"levelo_inurba_marseille","lat":43.25578,"lon":5.38225,"is_reserved":false,"is_disabled":false,"rental_uris":{"android":"levelo://app?vid=d553e22e-70c2-48a8-b6a0-aef4665faa4a","ios":"levelo://app?vid=d553e22e-70c2-48a8-b6a0-aef4665faa4a"},"vehicle_type_id":"4","last_reported":1730549748,"current_range_meters":22000,"station_id":"ce4bhih2rcd13ifvqfs0","pricing_plan_id":"cebpf4jnsgd1na2vs0mg"},{"bike_id":"efbe383f-83c6-4df5-ac1f-ffa8f2e0197b","system_id":"levelo_inurba_marseille","lat":43.3133,"lon":5.39692,"is_reserved":false,"is_disabled":false,"rental_uris":{"android":"levelo://app?vid=efbe383f-83c6-4df5-ac1f-ffa8f2e0197b","ios":"levelo://app?vid=efbe383f-83c6-4df5-ac1f-ffa8f2e0197b"},"vehicle_type_id":"4","last_reported":1730549748,"current_range_meters":4000,"station_id":"ce4bgvp2rcd13ifvqcu0","pricing_plan_id":"cebpf4jnsgd1na2vs0mg"},{"bike_id":"6aee0ce1-c7a0-45e8-a515-069ca31b3763","system_id":"levelo_inurba_marseille","lat":43.25735,"lon":5.41115,"is_reserved":false,"is_disabled":false,"rental_uris":{"android":"levelo://app?vid=6aee0ce1-c7a0-45e8-a515-069ca31b3763","ios":"levelo://app?vid=6aee0ce1-c7a0-45e8-a515-069ca31b3763"},"vehicle_type_id":"4","last_reported":1730549748,"current_range_meters":38000,"station_id":"ce4bhkp2rcd13ifvqgd0","pricing_plan_id":"cebpf4jnsgd1na2vs0mg"},{"bike_id":"03ecf539-acfb-438e-8e4a-2d04df101460","system_id":"levelo_inurba_marseille","lat":43.25492,"lon":5.37647,"is_reserved":false,"is_disabled":false,"rental_uris":{"android":"levelo://app?vid=03ecf539-acfb-438e-8e4a-2d04df101460","ios":"levelo://app?vid=03ecf539-acfb-438e-8e4a-2d04df101460"},"vehicle_type_id":"4","last_reported":1730549748,"current_range_meters":36400,"station_id":"ce4bhh12rcd13ifvqff0","pricing_plan_id":"cebpf4jnsgd1na2vs0mg"},{"bike_id":"a5900736-c13d-4efc-aa0c-4c77272b2670","system_id":"levelo_inurba_marseille","lat":43.30357,"lon":5.41886,"is_reserved":false,"is_disabled":false,"rental_uris":{"android":"levelo://app?vid=a5900736-c13d-4efc-aa0c-4c77272b2670","ios":"levelo://app?vid=a5900736-c13d-4efc-aa0c-4c77272b2670"},"vehicle_type_id":"4","last_reported":1730549748,"current_range_meters":37600,"station_id":"ce4bhop2rcd13ifvqh7g","pricing_plan_id":"cebpf4jnsgd1na2vs0mg"},{"bike_id":"f4d4339d-d1bb-4ff8-9d32-9eaf0f8ec19c","system_id":"levelo_inurba_marseille","lat":43.30555,"lon":5.36538,"is_reserved":false,"is_disabled":false,"rental_uris":{"android":"levelo://app?vid=f4d4339d-d1bb-4ff8-9d32-9eaf0f8ec19c","ios":"levelo://app?vid=f4d4339d-d1bb-4ff8-9d32-9eaf0f8ec19c"},"vehicle_type_id":"4","last_reported":1730549748,"current_range_meters":31200,"station_id":"ce4bgs12rcd13ifvqcag","pricing_plan_id":"cebpf4jnsgd1na2vs0mg"},{"bike_id":"5ab17023-8660-410b-88a5-127d565b058c","system_id":"levelo_inurba_marseille","lat":43.24164,"lon":5.36395,"is_reserved":false,"is_disabled":false,"rental_uris":{"android":"levelo://app?vid=5ab17023-8660-410b-88a5-127d565b058c","ios":"levelo://app?vid=5ab17023-8660-410b-88a5-127d565b058c"},"vehicle_type_id":"4","last_reported":1730549748,"current_range_meters":20000,"station_id":"cpo36qri1sfpv3e86is0","pricing_plan_id":"cebpf4jnsgd1na2vs0mg"},{"bike_id":"7d467372-7059-4321-81bc-a3b8c1dcaf52","system_id":"levelo_inurba_marseille","lat":43.29834,"lon":5.36264,"is_reserved":false,"is_disabled":false,"rental_uris":{"android":"levelo://app?vid=7d467372-7059-4321-81bc-a3b8c1dcaf52","ios":"levelo://app?vid=7d467372-7059-4321-81bc-a3b8c1dcaf52"},"vehicle_type_id":"4","last_reported":1730549748,"current_range_meters":36400,"station_id":"ce4bgpp2rcd13ifvqc3g","pricing_plan_id":"cebpf4jnsgd1na2vs0mg"},{"bike_id":"1c6c4ea4-1422-4f95-9fb3-989475604eaf","system_id":"levelo_inurba_marseille","lat":43.28272,"lon":5.35067,"is_reserved":false,"is_disabled":false,"rental_uris":{"android":"levelo://app?vid=1c6c4ea4-1422-4f95-9fb3-989475604eaf","ios":"levelo://app?vid=1c6c4ea4-1422-4f95-9fb3-989475604eaf"},"vehicle_type_id":"4","last_reported":1730549748,"current_range_meters":38000,"station_id":"ce4bhbp2rcd13ifvqerg","pricing_plan_id":"cebpf4jnsgd1na2vs0mg"},{"bike_id":"4f0de445-15e8-4d4f-b6cb-dd85cf93ce95","system_id":"levelo_inurba_marseille","lat":43.29845,"lon":5.36261,"is_reserved":false,"is_disabled":false,"rental_uris":{"android":"levelo://app?vid=4f0de445-15e8-4d4f-b6cb-dd85cf93ce95","ios":"levelo://app?vid=4f0de445-15e8-4d4f-b6cb-dd85cf93ce95"},"vehicle_type_id":"4","last_reported":1730549748,"current_range_meters":38800,"station_id":"ce4bgpp2rcd13ifvqc3g","pricing_plan_id":"cebpf4jnsgd1na2vs0mg"},{"bike_id":"6a3339db-c53d-45a1-98c0-a0f5852c6361","system_id":"levelo_inurba_marseille","lat":43.30549,"lon":5.36527,"is_reserved":false,"is_disabled":false,"rental_uris":{"android":"levelo://app?vid=6a3339db-c53d-45a1-98c0-a0f5852c6361","ios":"levelo://app?vid=6a3339db-c53d-45a1-98c0-a0f5852c6361"},"vehicle_type_id":"4","last_reported":1730549748,"current_range_meters":26000,"station_id":"ce4bgs12rcd13ifvqcag","pricing_plan_id":"cebpf4jnsgd1na2vs0mg"},{"bike_id":"9db30f62-ee12-4d89-b5f5-8607682ee123","system_id":"levelo_inurba_marseille","lat":43.25105,"lon":5.40323,"is_reserved":false,"is_disabled":false,"rental_uris":{"android":"levelo://app?vid=9db30f62-ee12-4d89-b5f5-8607682ee123","ios":"levelo://app?vid=9db30f62-ee12-4d89-b5f5-8607682ee123"},"vehicle_type_id":"4","last_reported":1730549748,"current_range_meters":17600,"station_id":"ce4bhlh2rcd13ifvqgig","pricing_plan_id":"cebpf4jnsgd1na2vs0mg"},{"bike_id":"4e1948bc-c4e3-4e60-8835-d443e9d859a0","system_id":"levelo_inurba_marseille","lat":43.26949,"lon":5.38627,"is_reserved":false,"is_disabled":false,"rental_uris":{"android":"levelo://app?vid=4e1948bc-c4e3-4e60-8835-d443e9d859a0","ios":"levelo://app?vid=4e1948bc-c4e3-4e60-8835-d443e9d859a0"},"vehicle_type_id":"4","last_reported":1730549748,"current_range_meters":36400,"station_id":"ce4bhh92rcd13ifvqfh0","pricing_plan_id":"cebpf4jnsgd1na2vs0mg"},{"bike_id":"c168b796-1e33-45d9-a8b6-528b79a3ac0a","system_id":"levelo_inurba_marseille","lat":43.29273,"lon":5.3684,"is_reserved":false,"is_disabled":false,"rental_uris":{"android":"levelo://app?vid=c168b796-1e33-45d9-a8b6-528b79a3ac0a","ios":"levelo://app?vid=c168b796-1e33-45d9-a8b6-528b79a3ac0a"},"vehicle_type_id":"4","last_reported":1730549748,"current_range_meters":30400,"station_id":"ce4bhbp2rcd13ifvqesg","pricing_plan_id":"cebpf4jnsgd1na2vs0mg"},{"bike_id":"c0f9e7cc-9311-4a80-a452-3ffec7c1659e","system_id":"levelo_inurba_marseille","lat":43.25865,"lon":5.39899,"is_reserved":false,"is_disabled":false,"rental_uris":{"android":"levelo://app?vid=c0f9e7cc-9311-4a80-a452-3ffec7c1659e","ios":"levelo://app?vid=c0f9e7cc-9311-4a80-a452-3ffec7c1659e"},"vehicle_type_id":"4","last_reported":1730549748,"current_range_meters":24800,"station_id":"ce4bhl92rcd13ifvqghg","pricing_plan_id":"cebpf4jnsgd1na2vs0mg"},{"bike_id":"8ac4f741-2911-42d6-a00a-51cf057a7d47","system_id":"levelo_inurba_marseille","lat":43.27498,"lon":5.42453,"is_reserved":false,"is_disabled":false,"rental_uris":{"android":"levelo://app?vid=8ac4f741-2911-42d6-a00a-51cf057a7d47","ios":"levelo://app?vid=8ac4f741-2911-42d6-a00a-51cf057a7d47"},"vehicle_type_id":"4","last_reported":1730549748,"current_range_meters":37600,"station_id":"ce4bhn92rcd13ifvqgrg","pricing_plan_id":"cebpf4jnsgd1na2vs0mg"},{"bike_id":"3e3d6b34-3003-4583-8ce8-0aa2cc21ec4d","system_id":"levelo_inurba_marseille","lat":43.24175,"lon":5.3972,"is_reserved":false,"is_disabled":false,"rental_uris":{"android":"levelo://app?vid=3e3d6b34-3003-4583-8ce8-0aa2cc21ec4d","ios":"levelo://app?vid=3e3d6b34-3003-4583-8ce8-0aa2cc21ec4d"},"vehicle_type_id":"4","last_reported":1730549748,"current_range_meters":22400,"station_id":"ce4bhn12rcd13ifvqgpg","pricing_plan_id":"cebpf4jnsgd1na2vs0mg"},{"bike_id":"d451d28d-010b-4a6d-8180-76be35e28442","system_id":"levelo_inurba_marseille","lat":43.29309,"lon":5.37164,"is_reserved":false,"is_disabled":false,"rental_uris":{"android":"levelo://app?vid=d451d28d-010b-4a6d-8180-76be35e28442","ios":"levelo://app?vid=d451d28d-010b-4a6d-8180-76be35e28442"},"vehicle_type_id":"4","last_reported":1730549748,"current_range_meters":18800,"station_id":"ce4bgh92rcd13ifvqb40","pricing_plan_id":"cebpf4jnsgd1na2vs0mg"},{"bike_id":"c0516c2f-7d05-409b-b5be-f91b1fce1830","system_id":"levelo_inurba_marseille","lat":43.29299,"lon":5.374562,"is_reserved":false,"is_disabled":false,"rental_uris":{"android":"levelo://app?vid=c0516c2f-7d05-409b-b5be-f91b1fce1830","ios":"levelo://app?vid=c0516c2f-7d05-409b-b5be-f91b1fce1830"},"vehicle_type_id":"4","last_reported":1730549748,"current_range_meters":10000,"station_id":"ce4bgi12rcd13ifvqb70","pricing_plan_id":"cebpf4jnsgd1na2vs0mg"},{"bike_id":"dd1ab775-e25d-4d74-8366-d1c08b61768d","system_id":"levelo_inurba_marseille","lat":43.295393,"lon":5.374676,"is_reserved":false,"is_disabled":false,"rental_uris":{"android":"levelo://app?vid=dd1ab775-e25d-4d74-8366-d1c08b61768d","ios":"levelo://app?vid=dd1ab775-e25d-4d74-8366-d1c08b61768d"},"vehicle_type_id":"4","last_reported":1730549748,"current_range_meters":20400,"station_id":"ce4bgkp2rcd13ifvqbmg","pricing_plan_id":"cebpf4jnsgd1na2vs0mg"},{"bike_id":"dccc613c-7c9d-44fc-9625-47ccbc365073","system_id":"levelo_inurba_marseille","lat":43.27487,"lon":5.4246,"is_reserved":false,"is_disabled":false,"rental_uris":{"android":"levelo://app?vid=dccc613c-7c9d-44fc-9625-47ccbc365073","ios":"levelo://app?vid=dccc613c-7c9d-44fc-9625-47ccbc365073"},"vehicle_type_id":"4","last_reported":1730549748,"current_range_meters":36400,"station_id":"ce4bhn92rcd13ifvqgrg","pricing_plan_id":"cebpf4jnsgd1na2vs0mg"},{"bike_id":"70d11215-27f7-45a2-8ee8-4f07ca574fa7","system_id":"levelo_inurba_marseille","lat":43.30533,"lon":5.3654,"is_reserved":false,"is_disabled":false,"rental_uris":{"android":"levelo://app?vid=70d11215-27f7-45a2-8ee8-4f07ca574fa7","ios":"levelo://app?vid=70d11215-27f7-45a2-8ee8-4f07ca574fa7"},"vehicle_type_id":"4","last_reported":1730549748,"current_range_meters":28400,"station_id":"ce4bgs12rcd13ifvqcag","pricing_plan_id":"cebpf4jnsgd1na2vs0mg"},{"bike_id":"ccd1338c-efb3-4089-b4d9-e3275f404fd1","system_id":"levelo_inurba_marseille","lat":43.30427,"lon":5.41279,"is_reserved":false,"is_disabled":false,"rental_uris":{"android":"levelo://app?vid=ccd1338c-efb3-4089-b4d9-e3275f404fd1","ios":"levelo://app?vid=ccd1338c-efb3-4089-b4d9-e3275f404fd1"},"vehicle_type_id":"4","last_reported":1730549748,"current_range_meters":26800,"station_id":"ce4bhop2rcd13ifvqh8g","pricing_plan_id":"cebpf4jnsgd1na2vs0mg"},{"bike_id":"d283960a-0091-47db-9fba-3b2c2e043919","system_id":"levelo_inurba_marseille","lat":43.29295,"lon":5.37454,"is_reserved":false,"is_disabled":false,"rental_uris":{"android":"levelo://app?vid=d283960a-0091-47db-9fba-3b2c2e043919","ios":"levelo://app?vid=d283960a-0091-47db-9fba-3b2c2e043919"},"vehicle_type_id":"4","last_reported":1730549748,"current_range_meters":37600,"station_id":"ce4bgi12rcd13ifvqb70","pricing_plan_id":"cebpf4jnsgd1na2vs0mg"},{"bike_id":"80380532-68c2-4c6a-b44b-6a09f25c96fe","system_id":"levelo_inurba_marseille","lat":43.31685,"lon":5.40473,"is_reserved":false,"is_disabled":false,"rental_uris":{"android":"levelo://app?vid=80380532-68c2-4c6a-b44b-6a09f25c96fe","ios":"levelo://app?vid=80380532-68c2-4c6a-b44b-6a09f25c96fe"},"vehicle_type_id":"4","last_reported":1730549748,"current_range_meters":38800,"station_id":"ce4bh012rcd13ifvqd00","pricing_plan_id":"cebpf4jnsgd1na2vs0mg"},{"bike_id":"25040c73-25c2-49f6-8524-dbb02a11aa0f","system_id":"levelo_inurba_marseille","lat":43.28101,"lon":5.37825,"is_reserved":false,"is_disabled":false,"rental_uris":{"android":"levelo://app?vid=25040c73-25c2-49f6-8524-dbb02a11aa0f","ios":"levelo://app?vid=25040c73-25c2-49f6-8524-dbb02a11aa0f"},"vehicle_type_id":"4","last_reported":1730549748,"current_range_meters":37600,"station_id":"ce4bha12rcd13ifvqee0","pricing_plan_id":"cebpf4jnsgd1na2vs0mg"},{"bike_id":"222e9c90-4cb7-43e7-bc68-7f08a7aa21c6","system_id":"levelo_inurba_marseille","lat":43.28709,"lon":5.37394,"is_reserved":false,"is_disabled":false,"rental_uris":{"android":"levelo://app?vid=222e9c90-4cb7-43e7-bc68-7f08a7aa21c6","ios":"levelo://app?vid=222e9c90-4cb7-43e7-bc68-7f08a7aa21c6"},"vehicle_type_id":"4","last_reported":1730549748,"current_range_meters":38800,"station_id":"ce4bh3p2rcd13ifvqdq0","pricing_plan_id":"cebpf4jnsgd1na2vs0mg"},{"bike_id":"209379f9-12a4-42ac-b98d-ccaaf391d0fa","system_id":"levelo_inurba_marseille","lat":43.29838,"lon":5.36263,"is_reserved":false,"is_disabled":false,"rental_uris":{"android":"levelo://app?vid=209379f9-12a4-42ac-b98d-ccaaf391d0fa","ios":"levelo://app?vid=209379f9-12a4-42ac-b98d-ccaaf391d0fa"},"vehicle_type_id":"4","last_reported":1730549748,"current_range_meters":7200,"station_id":"ce4bgpp2rcd13ifvqc3g","pricing_plan_id":"cebpf4jnsgd1na2vs0mg"},{"bike_id":"bb4c3ac7-1145-476a-88b4-b833f242965c","system_id":"levelo_inurba_marseille","lat":43.2894,"lon":5.36638,"is_reserved":false,"is_disabled":false,"rental_uris":{"android":"levelo://app?vid=bb4c3ac7-1145-476a-88b4-b833f242965c","ios":"levelo://app?vid=bb4c3ac7-1145-476a-88b4-b833f242965c"},"vehicle_type_id":"4","last_reported":1730549748,"current_range_meters":9200,"station_id":"ce4bhap2rcd13ifvqek0","pricing_plan_id":"cebpf4jnsgd1na2vs0mg"},{"bike_id":"c9c5d1b8-e098-419c-8872-b35296cf4983","system_id":"levelo_inurba_marseille","lat":43.26676,"lon":5.38255,"is_reserved":false,"is_disabled":false,"rental_uris":{"android":"levelo://app?vid=c9c5d1b8-e098-419c-8872-b35296cf4983","ios":"levelo://app?vid=c9c5d1b8-e098-419c-8872-b35296cf4983"},"vehicle_type_id":"4","last_reported":1730549748,"current_range_meters":27600,"station_id":"ce4bhg92rcd13ifvqf90","pricing_plan_id":"cebpf4jnsgd1na2vs0mg"},{"bike_id":"54f828de-bde7-4c99-bb2b-f8a5f8c5167e","system_id":"levelo_inurba_marseille","lat":43.29292,"lon":5.37449,"is_reserved":false,"is_disabled":false,"rental_uris":{"android":"levelo://app?vid=54f828de-bde7-4c99-bb2b-f8a5f8c5167e","ios":"levelo://app?vid=54f828de-bde7-4c99-bb2b-f8a5f8c5167e"},"vehicle_type_id":"4","last_reported":1730549748,"current_range_meters":27600,"station_id":"ce4bgi12rcd13ifvqb70","pricing_plan_id":"cebpf4jnsgd1na2vs0mg"},{"bike_id":"4dd74b80-423d-4a82-8b5a-fef5ebd97f46","system_id":"levelo_inurba_marseille","lat":43.24393,"lon":5.37051,"is_reserved":false,"is_disabled":false,"rental_uris":{"android":"levelo://app?vid=4dd74b80-423d-4a82-8b5a-fef5ebd97f46","ios":"levelo://app?vid=4dd74b80-423d-4a82-8b5a-fef5ebd97f46"},"vehicle_type_id":"4","last_reported":1730549748,"current_range_meters":22800,"station_id":"ce4bhhh2rcd13ifvqfk0","pricing_plan_id":"cebpf4jnsgd1na2vs0mg"},{"bike_id":"cab29da6-111a-41ba-8a16-4859ebd855ed","system_id":"levelo_inurba_marseille","lat":43.29191,"lon":5.35789,"is_reserved":false,"is_disabled":false,"rental_uris":{"android":"levelo://app?vid=cab29da6-111a-41ba-8a16-4859ebd855ed","ios":"levelo://app?vid=cab29da6-111a-41ba-8a16-4859ebd855ed"},"vehicle_type_id":"4","last_reported":1730549748,"current_range_meters":38800,"station_id":"ce4bhb12rcd13ifvqel0","pricing_plan_id":"cebpf4jnsgd1na2vs0mg"},{"bike_id":"0be1909c-b049-4aa6-a097-696d5d3e5187","system_id":"levelo_inurba_marseille","lat":43.302142,"lon":5.394691,"is_reserved":false,"is_disabled":false,"rental_uris":{"android":"levelo://app?vid=0be1909c-b049-4aa6-a097-696d5d3e5187","ios":"levelo://app?vid=0be1909c-b049-4aa6-a097-696d5d3e5187"},"vehicle_type_id":"4","last_reported":1730549748,"current_range_meters":17600,"station_id":"ce4bgop2rcd13ifvqc1g","pricing_plan_id":"cebpf4jnsgd1na2vs0mg"},{"bike_id":"f6b08dca-14b8-4dda-b77e-b9a11cf433b0","system_id":"levelo_inurba_marseille","lat":43.28268,"lon":5.35055,"is_reserved":false,"is_disabled":false,"rental_uris":{"android":"levelo://app?vid=f6b08dca-14b8-4dda-b77e-b9a11cf433b0","ios":"levelo://app?vid=f6b08dca-14b8-4dda-b77e-b9a11cf433b0"},"vehicle_type_id":"4","last_reported":1730549748,"current_range_meters":36000,"station_id":"ce4bhbp2rcd13ifvqerg","pricing_plan_id":"cebpf4jnsgd1na2vs0mg"},{"bike_id":"5e3a44bd-1851-41e5-b005-ef6a0ea7229d","system_id":"levelo_inurba_marseille","lat":43.28659,"lon":5.36339,"is_reserved":false,"is_disabled":false,"rental_uris":{"android":"levelo://app?vid=5e3a44bd-1851-41e5-b005-ef6a0ea7229d","ios":"levelo://app?vid=5e3a44bd-1851-41e5-b005-ef6a0ea7229d"},"vehicle_type_id":"4","last_reported":1730549748,"current_range_meters":11600,"station_id":"ce4bhah2rcd13ifvqej0","pricing_plan_id":"cebpf4jnsgd1na2vs0mg"},{"bike_id":"45d7e91c-ed85-4e73-a3a0-b75b3a99fd2f","system_id":"levelo_inurba_marseille","lat":43.31364,"lon":5.38484,"is_reserved":false,"is_disabled":false,"rental_uris":{"android":"levelo://app?vid=45d7e91c-ed85-4e73-a3a0-b75b3a99fd2f","ios":"levelo://app?vid=45d7e91c-ed85-4e73-a3a0-b75b3a99fd2f"},"vehicle_type_id":"4","last_reported":1730549748,"current_range_meters":38800,"station_id":"ce4bgt92rcd13ifvqcf0","pricing_plan_id":"cebpf4jnsgd1na2vs0mg"},{"bike_id":"cf724a3f-df9f-44a3-a59b-053acfa1450d","system_id":"levelo_inurba_marseille","lat":43.28472,"lon":5.38425,"is_reserved":false,"is_disabled":false,"rental_uris":{"android":"levelo://app?vid=cf724a3f-df9f-44a3-a59b-053acfa1450d","ios":"levelo://app?vid=cf724a3f-df9f-44a3-a59b-053acfa1450d"},"vehicle_type_id":"4","last_reported":1730549748,"current_range_meters":8000,"station_id":"ce4bh512rcd13ifvqe3g","pricing_plan_id":"cebpf4jnsgd1na2vs0mg"},{"bike_id":"d1ecd6dd-e4aa-4283-b361-3c200ae5c8dd","system_id":"levelo_inurba_marseille","lat":43.29065,"lon":5.37158,"is_reserved":false,"is_disabled":false,"rental_uris":{"android":"levelo://app?vid=d1ecd6dd-e4aa-4283-b361-3c200ae5c8dd","ios":"levelo://app?vid=d1ecd6dd-e4aa-4283-b361-3c200ae5c8dd"},"vehicle_type_id":"4","last_reported":1730549748,"current_range_meters":22400,"station_id":"ce4bh5p2rcd13ifvqe4g","pricing_plan_id":"cebpf4jnsgd1na2vs0mg"},{"bike_id":"cd9c51c3-66f1-4423-a637-2a576f24f89d","system_id":"levelo_inurba_marseille","lat":43.27068,"lon":5.42274,"is_reserved":false,"is_disabled":false,"rental_uris":{"android":"levelo://app?vid=cd9c51c3-66f1-4423-a637-2a576f24f89d","ios":"levelo://app?vid=cd9c51c3-66f1-4423-a637-2a576f24f89d"},"vehicle_type_id":"4","last_reported":1730549748,"current_range_meters":10800,"station_id":"ce4bhk92rcd13ifvqgb0","pricing_plan_id":"cebpf4jnsgd1na2vs0mg"},{"bike_id":"7ae89f74-df1b-4053-8ff0-ae2dd7c2848a","system_id":"levelo_inurba_marseille","lat":43.3028,"lon":5.37702,"is_reserved":false,"is_disabled":false,"rental_uris":{"android":"levelo://app?vid=7ae89f74-df1b-4053-8ff0-ae2dd7c2848a","ios":"levelo://app?vid=7ae89f74-df1b-4053-8ff0-ae2dd7c2848a"},"vehicle_type_id":"4","last_reported":1730549748,"current_range_meters":22400,"station_id":"ce4bguh2rcd13ifvqcj0","pricing_plan_id":"cebpf4jnsgd1na2vs0mg"},{"bike_id":"13d656ff-330e-4557-ba20-b3fec056d8c4","system_id":"levelo_inurba_marseille","lat":43.24802,"lon":5.37448,"is_reserved":false,"is_disabled":false,"rental_uris":{"android":"levelo://app?vid=13d656ff-330e-4557-ba20-b3fec056d8c4","ios":"levelo://app?vid=13d656ff-330e-4557-ba20-b3fec056d8c4"},"vehicle_type_id":"4","last_reported":1730549748,"current_range_meters":38800,"station_id":"ce4bhgh2rcd13ifvqfb0","pricing_plan_id":"cebpf4jnsgd1na2vs0mg"},{"bike_id":"d69eef29-33f1-400b-9dbd-e583b4f600d8","system_id":"levelo_inurba_marseille","lat":43.24655,"lon":5.38893,"is_reserved":false,"is_disabled":false,"rental_uris":{"android":"levelo://app?vid=d69eef29-33f1-400b-9dbd-e583b4f600d8","ios":"levelo://app?vid=d69eef29-33f1-400b-9dbd-e583b4f600d8"},"vehicle_type_id":"4","last_reported":1730549748,"current_range_meters":38800,"station_id":"ce4bhg12rcd13ifvqf60","pricing_plan_id":"cebpf4jnsgd1na2vs0mg"},{"bike_id":"e515cc14-ec45-4493-a6ef-e8658b9cbc95","system_id":"levelo_inurba_marseille","lat":43.26207,"lon":5.37921,"is_reserved":false,"is_disabled":false,"rental_uris":{"android":"levelo://app?vid=e515cc14-ec45-4493-a6ef-e8658b9cbc95","ios":"levelo://app?vid=e515cc14-ec45-4493-a6ef-e8658b9cbc95"},"vehicle_type_id":"4","last_reported":1730549748,"current_range_meters":38800,"station_id":"ce4bhjp2rcd13ifvqg90","pricing_plan_id":"cebpf4jnsgd1na2vs0mg"},{"bike_id":"3c9b25a2-27ea-4952-ae38-cfc4538da70c","system_id":"levelo_inurba_marseille","lat":43.24164,"lon":5.36396,"is_reserved":false,"is_disabled":false,"rental_uris":{"android":"levelo://app?vid=3c9b25a2-27ea-4952-ae38-cfc4538da70c","ios":"levelo://app?vid=3c9b25a2-27ea-4952-ae38-cfc4538da70c"},"vehicle_type_id":"4","last_reported":1730549748,"current_range_meters":38400,"station_id":"cpo36qri1sfpv3e86is0","pricing_plan_id":"cebpf4jnsgd1na2vs0mg"},{"bike_id":"99b34e1f-9e1b-4352-a35e-54e99460fdd9","system_id":"levelo_inurba_marseille","lat":43.28264,"lon":5.35063,"is_reserved":false,"is_disabled":false,"rental_uris":{"android":"levelo://app?vid=99b34e1f-9e1b-4352-a35e-54e99460fdd9","ios":"levelo://app?vid=99b34e1f-9e1b-4352-a35e-54e99460fdd9"},"vehicle_type_id":"4","last_reported":1730549748,"current_range_meters":28400,"station_id":"ce4bhbp2rcd13ifvqerg","pricing_plan_id":"cebpf4jnsgd1na2vs0mg"},{"bike_id":"a868aaf8-5212-49a5-8810-86a5a4dff6c1","system_id":"levelo_inurba_marseille","lat":43.27063,"lon":5.40262,"is_reserved":false,"is_disabled":false,"rental_uris":{"android":"levelo://app?vid=a868aaf8-5212-49a5-8810-86a5a4dff6c1","ios":"levelo://app?vid=a868aaf8-5212-49a5-8810-86a5a4dff6c1"},"vehicle_type_id":"4","last_reported":1730549748,"current_range_meters":12000,"station_id":"ce4bhk92rcd13ifvqgc0","pricing_plan_id":"cebpf4jnsgd1na2vs0mg"},{"bike_id":"578d5fd5-cd39-4542-9d11-eaa881c8b052","system_id":"levelo_inurba_marseille","lat":43.29625,"lon":5.40595,"is_reserved":false,"is_disabled":false,"rental_uris":{"android":"levelo://app?vid=578d5fd5-cd39-4542-9d11-eaa881c8b052","ios":"levelo://app?vid=578d5fd5-cd39-4542-9d11-eaa881c8b052"},"vehicle_type_id":"4","last_reported":1730549748,"current_range_meters":39200,"station_id":"ce4bh0h2rcd13ifvqd60","pricing_plan_id":"cebpf4jnsgd1na2vs0mg"},{"bike_id":"658dacf4-7ef3-4634-8126-9bbd88e5a6eb","system_id":"levelo_inurba_marseille","lat":43.23196,"lon":5.35545,"is_reserved":false,"is_disabled":false,"rental_uris":{"android":"levelo://app?vid=658dacf4-7ef3-4634-8126-9bbd88e5a6eb","ios":"levelo://app?vid=658dacf4-7ef3-4634-8126-9bbd88e5a6eb"},"vehicle_type_id":"4","last_reported":1730549748,"current_range_meters":19200,"station_id":"ce4bhu92rcd13ifvqi70","pricing_plan_id":"cebpf4jnsgd1na2vs0mg"},{"bike_id":"430f7993-aa05-4df7-b267-ab76abe9b87b","system_id":"levelo_inurba_marseille","lat":43.26937,"lon":5.38914,"is_reserved":false,"is_disabled":false,"rental_uris":{"android":"levelo://app?vid=430f7993-aa05-4df7-b267-ab76abe9b87b","ios":"levelo://app?vid=430f7993-aa05-4df7-b267-ab76abe9b87b"},"vehicle_type_id":"4","last_reported":1730549748,"current_range_meters":16000,"station_id":"ce4bhhh2rcd13ifvqfl0","pricing_plan_id":"cebpf4jnsgd1na2vs0mg"},{"bike_id":"e62e38a9-284c-4b15-bfe8-8b214b98f04b","system_id":"levelo_inurba_marseille","lat":43.23061,"lon":5.35488,"is_reserved":false,"is_disabled":false,"rental_uris":{"android":"levelo://app?vid=e62e38a9-284c-4b15-bfe8-8b214b98f04b","ios":"levelo://app?vid=e62e38a9-284c-4b15-bfe8-8b214b98f04b"},"vehicle_type_id":"4","last_reported":1730549748,"current_range_meters":22400,"station_id":"cpo3342slgdg3j2ifvpg","pricing_plan_id":"cebpf4jnsgd1na2vs0mg"},{"bike_id":"39ef6112-0178-4921-a65e-d47db3564463","system_id":"levelo_inurba_marseille","lat":43.32286,"lon":5.3827,"is_reserved":false,"is_disabled":false,"rental_uris":{"android":"levelo://app?vid=39ef6112-0178-4921-a65e-d47db3564463","ios":"levelo://app?vid=39ef6112-0178-4921-a65e-d47db3564463"},"vehicle_type_id":"4","last_reported":1730549748,"current_range_meters":30800,"station_id":"ce4bhr12rcd13ifvqhqg","pricing_plan_id":"cebpf4jnsgd1na2vs0mg"},{"bike_id":"17248b28-8f06-448b-adb7-c72f419e577e","system_id":"levelo_inurba_marseille","lat":43.25578,"lon":5.38227,"is_reserved":false,"is_disabled":false,"rental_uris":{"android":"levelo://app?vid=17248b28-8f06-448b-adb7-c72f419e577e","ios":"levelo://app?vid=17248b28-8f06-448b-adb7-c72f419e577e"},"vehicle_type_id":"4","last_reported":1730549748,"current_range_meters":8800,"station_id":"ce4bhih2rcd13ifvqfs0","pricing_plan_id":"cebpf4jnsgd1na2vs0mg"},{"bike_id":"fa1232ca-5715-42c4-984f-624a8552d886","system_id":"levelo_inurba_marseille","lat":43.32284,"lon":5.38273,"is_reserved":false,"is_disabled":false,"rental_uris":{"android":"levelo://app?vid=fa1232ca-5715-42c4-984f-624a8552d886","ios":"levelo://app?vid=fa1232ca-5715-42c4-984f-624a8552d886"},"vehicle_type_id":"4","last_reported":1730549748,"current_range_meters":38800,"station_id":"ce4bhr12rcd13ifvqhqg","pricing_plan_id":"cebpf4jnsgd1na2vs0mg"},{"bike_id":"378addf0-76a7-4c97-baa9-5c7edd0acca4","system_id":"levelo_inurba_marseille","lat":43.31695,"lon":5.40465,"is_reserved":false,"is_disabled":false,"rental_uris":{"android":"levelo://app?vid=378addf0-76a7-4c97-baa9-5c7edd0acca4","ios":"levelo://app?vid=378addf0-76a7-4c97-baa9-5c7edd0acca4"},"vehicle_type_id":"4","last_reported":1730549748,"current_range_meters":0,"station_id":"ce4bh012rcd13ifvqd00","pricing_plan_id":"cebpf4jnsgd1na2vs0mg"},{"bike_id":"d53c1efc-1780-42b2-bd05-17084930abb0","system_id":"levelo_inurba_marseille","lat":43.3123,"lon":5.3687,"is_reserved":false,"is_disabled":false,"rental_uris":{"android":"levelo://app?vid=d53c1efc-1780-42b2-bd05-17084930abb0","ios":"levelo://app?vid=d53c1efc-1780-42b2-bd05-17084930abb0"},"vehicle_type_id":"4","last_reported":1730549748,"current_range_meters":39200,"station_id":"ce4bgl92rcd13ifvqbq0","pricing_plan_id":"cebpf4jnsgd1na2vs0mg"},{"bike_id":"f493fcf3-d01a-4471-8350-8f1edd0382a9","system_id":"levelo_inurba_marseille","lat":43.23151,"lon":5.43724,"is_reserved":false,"is_disabled":false,"rental_uris":{"android":"levelo://app?vid=f493fcf3-d01a-4471-8350-8f1edd0382a9","ios":"levelo://app?vid=f493fcf3-d01a-4471-8350-8f1edd0382a9"},"vehicle_type_id":"4","last_reported":1730549748,"current_range_meters":38800,"station_id":"ce4bhmp2rcd13ifvqgog","pricing_plan_id":"cebpf4jnsgd1na2vs0mg"},{"bike_id":"4e5d4ecd-744e-487a-95d6-a70536e8e671","system_id":"levelo_inurba_marseille","lat":43.31268,"lon":5.4016,"is_reserved":false,"is_disabled":false,"rental_uris":{"android":"levelo://app?vid=4e5d4ecd-744e-487a-95d6-a70536e8e671","ios":"levelo://app?vid=4e5d4ecd-744e-487a-95d6-a70536e8e671"},"vehicle_type_id":"4","last_reported":1730549748,"current_range_meters":12800,"station_id":"ce4bh092rcd13ifvqd30","pricing_plan_id":"cebpf4jnsgd1na2vs0mg"},{"bike_id":"fb1b1172-d4f5-4073-8efd-aa7ac2e69ba1","system_id":"levelo_inurba_marseille","lat":43.30146,"lon":5.37418,"is_reserved":false,"is_disabled":false,"rental_uris":{"android":"levelo://app?vid=fb1b1172-d4f5-4073-8efd-aa7ac2e69ba1","ios":"levelo://app?vid=fb1b1172-d4f5-4073-8efd-aa7ac2e69ba1"},"vehicle_type_id":"4","last_reported":1730549748,"current_range_meters":18800,"station_id":"ce4bgs92rcd13ifvqcc0","pricing_plan_id":"cebpf4jnsgd1na2vs0mg"},{"bike_id":"1c5a55f6-fa70-42a9-8229-60ea5f15ac2f","system_id":"levelo_inurba_marseille","lat":43.26054,"lon":5.39397,"is_reserved":false,"is_disabled":false,"rental_uris":{"android":"levelo://app?vid=1c5a55f6-fa70-42a9-8229-60ea5f15ac2f","ios":"levelo://app?vid=1c5a55f6-fa70-42a9-8229-60ea5f15ac2f"},"vehicle_type_id":"4","last_reported":1730549748,"current_range_meters":22000,"station_id":"ce4bhh92rcd13ifvqfj0","pricing_plan_id":"cebpf4jnsgd1na2vs0mg"},{"bike_id":"3ad24b3a-63b4-4769-8a5f-3452a8cd8903","system_id":"levelo_inurba_marseille","lat":43.28263,"lon":5.35064,"is_reserved":false,"is_disabled":false,"rental_uris":{"android":"levelo://app?vid=3ad24b3a-63b4-4769-8a5f-3452a8cd8903","ios":"levelo://app?vid=3ad24b3a-63b4-4769-8a5f-3452a8cd8903"},"vehicle_type_id":"4","last_reported":1730549748,"current_range_meters":30000,"station_id":"ce4bhbp2rcd13ifvqerg","pricing_plan_id":"cebpf4jnsgd1na2vs0mg"},{"bike_id":"d77c021e-76fb-4085-ad21-d2a06b39d766","system_id":"levelo_inurba_marseille","lat":43.300568,"lon":5.38066,"is_reserved":false,"is_disabled":false,"rental_uris":{"android":"levelo://app?vid=d77c021e-76fb-4085-ad21-d2a06b39d766","ios":"levelo://app?vid=d77c021e-76fb-4085-ad21-d2a06b39d766"},"vehicle_type_id":"4","last_reported":1730549748,"current_range_meters":36000,"station_id":"ce4bhap2rcd13ifvqek0","pricing_plan_id":"cebpf4jnsgd1na2vs0mg"},{"bike_id":"2e8907c0-8f4f-4707-98c8-0128b04eb2a4","system_id":"levelo_inurba_marseille","lat":43.28415,"lon":5.34985,"is_reserved":false,"is_disabled":false,"rental_uris":{"android":"levelo://app?vid=2e8907c0-8f4f-4707-98c8-0128b04eb2a4","ios":"levelo://app?vid=2e8907c0-8f4f-4707-98c8-0128b04eb2a4"},"vehicle_type_id":"4","last_reported":1730549748,"current_range_meters":17200,"station_id":"ce4bhbh2rcd13ifvqepg","pricing_plan_id":"cebpf4jnsgd1na2vs0mg"},{"bike_id":"887d3f15-9262-4464-a567-0c0c5d22959d","system_id":"levelo_inurba_marseille","lat":43.30316,"lon":5.36893,"is_reserved":false,"is_disabled":false,"rental_uris":{"android":"levelo://app?vid=887d3f15-9262-4464-a567-0c0c5d22959d","ios":"levelo://app?vid=887d3f15-9262-4464-a567-0c0c5d22959d"},"vehicle_type_id":"4","last_reported":1730549748,"current_range_meters":29600,"station_id":"ce4bgqh2rcd13ifvqc5g","pricing_plan_id":"cebpf4jnsgd1na2vs0mg"},{"bike_id":"13204629-6f37-4fdc-ae71-efb691ec9cf2","system_id":"levelo_inurba_marseille","lat":43.27177,"lon":5.4099,"is_reserved":false,"is_disabled":false,"rental_uris":{"android":"levelo://app?vid=13204629-6f37-4fdc-ae71-efb691ec9cf2","ios":"levelo://app?vid=13204629-6f37-4fdc-ae71-efb691ec9cf2"},"vehicle_type_id":"4","last_reported":1730549748,"current_range_meters":37600,"station_id":"ce4bhl12rcd13ifvqgf0","pricing_plan_id":"cebpf4jnsgd1na2vs0mg"},{"bike_id":"f5ae9114-5aa6-459d-86c9-12d899b72a03","system_id":"levelo_inurba_marseille","lat":43.25005,"lon":5.38916,"is_reserved":false,"is_disabled":false,"rental_uris":{"android":"levelo://app?vid=f5ae9114-5aa6-459d-86c9-12d899b72a03","ios":"levelo://app?vid=f5ae9114-5aa6-459d-86c9-12d899b72a03"},"vehicle_type_id":"4","last_reported":1730549748,"current_range_meters":14800,"station_id":"ce4bhgp2rcd13ifvqfd0","pricing_plan_id":"cebpf4jnsgd1na2vs0mg"},{"bike_id":"3198ab63-557b-4f5b-8a29-510057e603ea","system_id":"levelo_inurba_marseille","lat":43.290275,"lon":5.381192,"is_reserved":false,"is_disabled":false,"rental_uris":{"android":"levelo://app?vid=3198ab63-557b-4f5b-8a29-510057e603ea","ios":"levelo://app?vid=3198ab63-557b-4f5b-8a29-510057e603ea"},"vehicle_type_id":"4","last_reported":1730549748,"current_range_meters":36800,"station_id":"ce4bh4p2rcd13ifvqe1g","pricing_plan_id":"cebpf4jnsgd1na2vs0mg"},{"bike_id":"a5ddc947-d21c-49a7-bb2f-b3f5184de1d0","system_id":"levelo_inurba_marseille","lat":43.26027,"lon":5.37547,"is_reserved":false,"is_disabled":false,"rental_uris":{"android":"levelo://app?vid=a5ddc947-d21c-49a7-bb2f-b3f5184de1d0","ios":"levelo://app?vid=a5ddc947-d21c-49a7-bb2f-b3f5184de1d0"},"vehicle_type_id":"4","last_reported":1730549748,"current_range_meters":38800,"station_id":"ce4bhgh2rcd13ifvqfa0","pricing_plan_id":"cebpf4jnsgd1na2vs0mg"},{"bike_id":"b503f395-938e-4939-bff7-aad0622830cc","system_id":"levelo_inurba_marseille","lat":43.25104,"lon":5.4032,"is_reserved":false,"is_disabled":false,"rental_uris":{"android":"levelo://app?vid=b503f395-938e-4939-bff7-aad0622830cc","ios":"levelo://app?vid=b503f395-938e-4939-bff7-aad0622830cc"},"vehicle_type_id":"4","last_reported":1730549748,"current_range_meters":9600,"station_id":"ce4bhlh2rcd13ifvqgig","pricing_plan_id":"cebpf4jnsgd1na2vs0mg"},{"bike_id":"4723ec19-29f3-4463-9ec0-0cde06d92300","system_id":"levelo_inurba_marseille","lat":43.28664,"lon":5.38667,"is_reserved":false,"is_disabled":false,"rental_uris":{"android":"levelo://app?vid=4723ec19-29f3-4463-9ec0-0cde06d92300","ios":"levelo://app?vid=4723ec19-29f3-4463-9ec0-0cde06d92300"},"vehicle_type_id":"4","last_reported":1730549748,"current_range_meters":28400,"station_id":"ce4bh492rcd13ifvqdug","pricing_plan_id":"cebpf4jnsgd1na2vs0mg"},{"bike_id":"930792d5-7b37-4500-b869-d88fa303448d","system_id":"levelo_inurba_marseille","lat":43.30535,"lon":5.38424,"is_reserved":false,"is_disabled":false,"rental_uris":{"android":"levelo://app?vid=930792d5-7b37-4500-b869-d88fa303448d","ios":"levelo://app?vid=930792d5-7b37-4500-b869-d88fa303448d"},"vehicle_type_id":"4","last_reported":1730549748,"current_range_meters":33600,"station_id":"ce4bgg92rcd13ifvqb30","pricing_plan_id":"cebpf4jnsgd1na2vs0mg"},{"bike_id":"303c67ee-39e2-461c-8c7b-b40274c8b89c","system_id":"levelo_inurba_marseille","lat":43.23154,"lon":5.43702,"is_reserved":false,"is_disabled":false,"rental_uris":{"android":"levelo://app?vid=303c67ee-39e2-461c-8c7b-b40274c8b89c","ios":"levelo://app?vid=303c67ee-39e2-461c-8c7b-b40274c8b89c"},"vehicle_type_id":"4","last_reported":1730549748,"current_range_meters":19600,"station_id":"ce4bhmp2rcd13ifvqgog","pricing_plan_id":"cebpf4jnsgd1na2vs0mg"},{"bike_id":"9dc4bbff-21ca-407b-985c-c70214b6bc8c","system_id":"levelo_inurba_marseille","lat":43.32479,"lon":5.365565,"is_reserved":false,"is_disabled":false,"rental_uris":{"android":"levelo://app?vid=9dc4bbff-21ca-407b-985c-c70214b6bc8c","ios":"levelo://app?vid=9dc4bbff-21ca-407b-985c-c70214b6bc8c"},"vehicle_type_id":"4","last_reported":1730549748,"current_range_meters":39200,"station_id":"ce4bhs12rcd13ifvqhvg","pricing_plan_id":"cebpf4jnsgd1na2vs0mg"},{"bike_id":"e7f59d36-b4d3-482d-b5fb-9da08c3ef485","system_id":"levelo_inurba_marseille","lat":43.23153,"lon":5.43719,"is_reserved":false,"is_disabled":false,"rental_uris":{"android":"levelo://app?vid=e7f59d36-b4d3-482d-b5fb-9da08c3ef485","ios":"levelo://app?vid=e7f59d36-b4d3-482d-b5fb-9da08c3ef485"},"vehicle_type_id":"4","last_reported":1730549748,"current_range_meters":6400,"station_id":"ce4bhmp2rcd13ifvqgog","pricing_plan_id":"cebpf4jnsgd1na2vs0mg"},{"bike_id":"b55494c0-f23a-41fd-868a-dc12a934a205","system_id":"levelo_inurba_marseille","lat":43.29272,"lon":5.3684,"is_reserved":false,"is_disabled":false,"rental_uris":{"android":"levelo://app?vid=b55494c0-f23a-41fd-868a-dc12a934a205","ios":"levelo://app?vid=b55494c0-f23a-41fd-868a-dc12a934a205"},"vehicle_type_id":"4","last_reported":1730549748,"current_range_meters":37600,"station_id":"ce4bhbp2rcd13ifvqesg","pricing_plan_id":"cebpf4jnsgd1na2vs0mg"},{"bike_id":"e897136e-8c37-4f90-8788-9b6a3c81507d","system_id":"levelo_inurba_marseille","lat":43.23059,"lon":5.35493,"is_reserved":false,"is_disabled":false,"rental_uris":{"android":"levelo://app?vid=e897136e-8c37-4f90-8788-9b6a3c81507d","ios":"levelo://app?vid=e897136e-8c37-4f90-8788-9b6a3c81507d"},"vehicle_type_id":"4","last_reported":1730549748,"current_range_meters":30000,"station_id":"cpo3342slgdg3j2ifvpg","pricing_plan_id":"cebpf4jnsgd1na2vs0mg"},{"bike_id":"2670d31c-21a8-42d7-b34e-5f9a0a78dc6c","system_id":"levelo_inurba_marseille","lat":43.29312,"lon":5.37169,"is_reserved":false,"is_disabled":false,"rental_uris":{"android":"levelo://app?vid=2670d31c-21a8-42d7-b34e-5f9a0a78dc6c","ios":"levelo://app?vid=2670d31c-21a8-42d7-b34e-5f9a0a78dc6c"},"vehicle_type_id":"4","last_reported":1730549748,"current_range_meters":38800,"station_id":"ce4bgh92rcd13ifvqb40","pricing_plan_id":"cebpf4jnsgd1na2vs0mg"},{"bike_id":"02230dac-ebce-4aa4-9174-db473244d1bc","system_id":"levelo_inurba_marseille","lat":43.3302,"lon":5.39046,"is_reserved":false,"is_disabled":false,"rental_uris":{"android":"levelo://app?vid=02230dac-ebce-4aa4-9174-db473244d1bc","ios":"levelo://app?vid=02230dac-ebce-4aa4-9174-db473244d1bc"},"vehicle_type_id":"4","last_reported":1730549748,"current_range_meters":38400,"station_id":"ce4bhr92rcd13ifvqhrg","pricing_plan_id":"cebpf4jnsgd1na2vs0mg"},{"bike_id":"10e515d6-153b-4689-b304-7296245d4fe9","system_id":"levelo_inurba_marseille","lat":43.3046,"lon":5.37903,"is_reserved":false,"is_disabled":false,"rental_uris":{"android":"levelo://app?vid=10e515d6-153b-4689-b304-7296245d4fe9","ios":"levelo://app?vid=10e515d6-153b-4689-b304-7296245d4fe9"},"vehicle_type_id":"4","last_reported":1730549748,"current_range_meters":16400,"station_id":"ce4bgup2rcd13ifvqcn0","pricing_plan_id":"cebpf4jnsgd1na2vs0mg"},{"bike_id":"7e568bfa-c77c-4398-aba7-352d47e1ac1d","system_id":"levelo_inurba_marseille","lat":43.2959,"lon":5.36747,"is_reserved":false,"is_disabled":false,"rental_uris":{"android":"levelo://app?vid=7e568bfa-c77c-4398-aba7-352d47e1ac1d","ios":"levelo://app?vid=7e568bfa-c77c-4398-aba7-352d47e1ac1d"},"vehicle_type_id":"4","last_reported":1730549748,"current_range_meters":12400,"station_id":"ce4bgph2rcd13ifvqc2g","pricing_plan_id":"cebpf4jnsgd1na2vs0mg"},{"bike_id":"ca9466cf-6155-4132-85ba-45f3705454cf","system_id":"levelo_inurba_marseille","lat":43.31878,"lon":5.40732,"is_reserved":false,"is_disabled":false,"rental_uris":{"android":"levelo://app?vid=ca9466cf-6155-4132-85ba-45f3705454cf","ios":"levelo://app?vid=ca9466cf-6155-4132-85ba-45f3705454cf"},"vehicle_type_id":"4","last_reported":1730549748,"current_range_meters":31200,"station_id":"ce4bhq12rcd13ifvqhig","pricing_plan_id":"cebpf4jnsgd1na2vs0mg"},{"bike_id":"f0365e39-da4f-4fcd-a178-7855790154f7","system_id":"levelo_inurba_marseille","lat":43.3014,"lon":5.37418,"is_reserved":false,"is_disabled":false,"rental_uris":{"android":"levelo://app?vid=f0365e39-da4f-4fcd-a178-7855790154f7","ios":"levelo://app?vid=f0365e39-da4f-4fcd-a178-7855790154f7"},"vehicle_type_id":"4","last_reported":1730549748,"current_range_meters":39200,"station_id":"ce4bgs92rcd13ifvqcc0","pricing_plan_id":"cebpf4jnsgd1na2vs0mg"},{"bike_id":"5d49116d-9ac2-4fe3-b140-1c8daccc859c","system_id":"levelo_inurba_marseille","lat":43.30278,"lon":5.3771,"is_reserved":false,"is_disabled":false,"rental_uris":{"android":"levelo://app?vid=5d49116d-9ac2-4fe3-b140-1c8daccc859c","ios":"levelo://app?vid=5d49116d-9ac2-4fe3-b140-1c8daccc859c"},"vehicle_type_id":"4","last_reported":1730549748,"current_range_meters":39200,"station_id":"ce4bguh2rcd13ifvqcj0","pricing_plan_id":"cebpf4jnsgd1na2vs0mg"},{"bike_id":"879b29e5-abf8-47a8-932a-5564dc217343","system_id":"levelo_inurba_marseille","lat":43.29735,"lon":5.37681,"is_reserved":false,"is_disabled":false,"rental_uris":{"android":"levelo://app?vid=879b29e5-abf8-47a8-932a-5564dc217343","ios":"levelo://app?vid=879b29e5-abf8-47a8-932a-5564dc217343"},"vehicle_type_id":"4","last_reported":1730549748,"current_range_meters":30000,"station_id":"ce4bgkh2rcd13ifvqbl0","pricing_plan_id":"cebpf4jnsgd1na2vs0mg"},{"bike_id":"11cdf20f-5b5f-4879-9af2-34d18e598ea4","system_id":"levelo_inurba_marseille","lat":43.2549,"lon":5.3765,"is_reserved":false,"is_disabled":false,"rental_uris":{"android":"levelo://app?vid=11cdf20f-5b5f-4879-9af2-34d18e598ea4","ios":"levelo://app?vid=11cdf20f-5b5f-4879-9af2-34d18e598ea4"},"vehicle_type_id":"4","last_reported":1730549748,"current_range_meters":36800,"station_id":"ce4bhh12rcd13ifvqff0","pricing_plan_id":"cebpf4jnsgd1na2vs0mg"},{"bike_id":"d822185c-2202-418e-bc63-3ae04947287a","system_id":"levelo_inurba_marseille","lat":43.2957,"lon":5.375,"is_reserved":false,"is_disabled":false,"rental_uris":{"android":"levelo://app?vid=d822185c-2202-418e-bc63-3ae04947287a","ios":"levelo://app?vid=d822185c-2202-418e-bc63-3ae04947287a"},"vehicle_type_id":"4","last_reported":1730549748,"current_range_meters":24800,"station_id":"ce4bgh92rcd13ifvqb50","pricing_plan_id":"cebpf4jnsgd1na2vs0mg"},{"bike_id":"9ca12022-716a-4ed5-ac9c-2033946b0c38","system_id":"levelo_inurba_marseille","lat":43.29843,"lon":5.36266,"is_reserved":false,"is_disabled":false,"rental_uris":{"android":"levelo://app?vid=9ca12022-716a-4ed5-ac9c-2033946b0c38","ios":"levelo://app?vid=9ca12022-716a-4ed5-ac9c-2033946b0c38"},"vehicle_type_id":"4","last_reported":1730549748,"current_range_meters":39200,"station_id":"ce4bgpp2rcd13ifvqc3g","pricing_plan_id":"cebpf4jnsgd1na2vs0mg"},{"bike_id":"cf7522f5-c4e5-4ca3-adc5-ef2c57596f55","system_id":"levelo_inurba_marseille","lat":43.23195,"lon":5.35549,"is_reserved":false,"is_disabled":false,"rental_uris":{"android":"levelo://app?vid=cf7522f5-c4e5-4ca3-adc5-ef2c57596f55","ios":"levelo://app?vid=cf7522f5-c4e5-4ca3-adc5-ef2c57596f55"},"vehicle_type_id":"4","last_reported":1730549748,"current_range_meters":24400,"station_id":"ce4bhu92rcd13ifvqi70","pricing_plan_id":"cebpf4jnsgd1na2vs0mg"},{"bike_id":"f7fc6701-fd62-4b48-bbdb-a453dbb89c2a","system_id":"levelo_inurba_marseille","lat":43.290498,"lon":5.359147,"is_reserved":false,"is_disabled":false,"rental_uris":{"android":"levelo://app?vid=f7fc6701-fd62-4b48-bbdb-a453dbb89c2a","ios":"levelo://app?vid=f7fc6701-fd62-4b48-bbdb-a453dbb89c2a"},"vehicle_type_id":"4","last_reported":1730549748,"current_range_meters":16400,"station_id":"ce4bha92rcd13ifvqeg0","pricing_plan_id":"cebpf4jnsgd1na2vs0mg"},{"bike_id":"6eaa2dbe-2228-4b69-8462-634d74f7bcad","system_id":"levelo_inurba_marseille","lat":43.22926,"lon":5.35371,"is_reserved":false,"is_disabled":false,"rental_uris":{"android":"levelo://app?vid=6eaa2dbe-2228-4b69-8462-634d74f7bcad","ios":"levelo://app?vid=6eaa2dbe-2228-4b69-8462-634d74f7bcad"},"vehicle_type_id":"4","last_reported":1730549748,"current_range_meters":24800,"station_id":"cpo3532slgdg3j2ikp40","pricing_plan_id":"cebpf4jnsgd1na2vs0mg"},{"bike_id":"25efdd14-e5a3-4f02-a8ea-e62e3c219fa3","system_id":"levelo_inurba_marseille","lat":43.28155,"lon":5.42646,"is_reserved":false,"is_disabled":false,"rental_uris":{"android":"levelo://app?vid=25efdd14-e5a3-4f02-a8ea-e62e3c219fa3","ios":"levelo://app?vid=25efdd14-e5a3-4f02-a8ea-e62e3c219fa3"},"vehicle_type_id":"4","last_reported":1730549748,"current_range_meters":38800,"station_id":"ce4bhnh2rcd13ifvqgug","pricing_plan_id":"cebpf4jnsgd1na2vs0mg"},{"bike_id":"a7539dfc-e8ec-47cd-8dbc-d48543cf053d","system_id":"levelo_inurba_marseille","lat":43.30527,"lon":5.36541,"is_reserved":false,"is_disabled":false,"rental_uris":{"android":"levelo://app?vid=a7539dfc-e8ec-47cd-8dbc-d48543cf053d","ios":"levelo://app?vid=a7539dfc-e8ec-47cd-8dbc-d48543cf053d"},"vehicle_type_id":"4","last_reported":1730549748,"current_range_meters":38800,"station_id":"ce4bgs12rcd13ifvqcag","pricing_plan_id":"cebpf4jnsgd1na2vs0mg"},{"bike_id":"b01ec6bc-8885-4ebd-9bf0-430c90c77ffb","system_id":"levelo_inurba_marseille","lat":43.28262,"lon":5.35054,"is_reserved":false,"is_disabled":false,"rental_uris":{"android":"levelo://app?vid=b01ec6bc-8885-4ebd-9bf0-430c90c77ffb","ios":"levelo://app?vid=b01ec6bc-8885-4ebd-9bf0-430c90c77ffb"},"vehicle_type_id":"4","last_reported":1730549748,"current_range_meters":28800,"station_id":"ce4bhbp2rcd13ifvqerg","pricing_plan_id":"cebpf4jnsgd1na2vs0mg"},{"bike_id":"18402065-9e87-476b-95ad-30853de181a0","system_id":"levelo_inurba_marseille","lat":43.32458,"lon":5.45547,"is_reserved":false,"is_disabled":false,"rental_uris":{"android":"levelo://app?vid=18402065-9e87-476b-95ad-30853de181a0","ios":"levelo://app?vid=18402065-9e87-476b-95ad-30853de181a0"},"vehicle_type_id":"4","last_reported":1730549748,"current_range_meters":8000,"station_id":"","pricing_plan_id":"cebpf4jnsgd1na2vs0mg"},{"bike_id":"18520dd0-747d-4cb1-9d78-6ede88f81896","system_id":"levelo_inurba_marseille","lat":43.24658,"lon":5.38899,"is_reserved":false,"is_disabled":false,"rental_uris":{"android":"levelo://app?vid=18520dd0-747d-4cb1-9d78-6ede88f81896","ios":"levelo://app?vid=18520dd0-747d-4cb1-9d78-6ede88f81896"},"vehicle_type_id":"4","last_reported":1730549748,"current_range_meters":3200,"station_id":"ce4bhg12rcd13ifvqf60","pricing_plan_id":"cebpf4jnsgd1na2vs0mg"},{"bike_id":"d0e25e8e-55c1-4556-bac9-0e6f2eddf471","system_id":"levelo_inurba_marseille","lat":43.23187,"lon":5.3555,"is_reserved":false,"is_disabled":false,"rental_uris":{"android":"levelo://app?vid=d0e25e8e-55c1-4556-bac9-0e6f2eddf471","ios":"levelo://app?vid=d0e25e8e-55c1-4556-bac9-0e6f2eddf471"},"vehicle_type_id":"4","last_reported":1730549748,"current_range_meters":20800,"station_id":"ce4bhu92rcd13ifvqi70","pricing_plan_id":"cebpf4jnsgd1na2vs0mg"},{"bike_id":"e7d2d590-173c-47e5-a164-68db5b6e9fe4","system_id":"levelo_inurba_marseille","lat":43.3054,"lon":5.36691,"is_reserved":false,"is_disabled":false,"rental_uris":{"android":"levelo://app?vid=e7d2d590-173c-47e5-a164-68db5b6e9fe4","ios":"levelo://app?vid=e7d2d590-173c-47e5-a164-68db5b6e9fe4"},"vehicle_type_id":"4","last_reported":1730549748,"current_range_meters":36800,"station_id":"ce4bgrp2rcd13ifvqc9g","pricing_plan_id":"cebpf4jnsgd1na2vs0mg"},{"bike_id":"645777f4-8c2d-481a-8049-8750923bb74d","system_id":"levelo_inurba_marseille","lat":43.28479,"lon":5.384186,"is_reserved":false,"is_disabled":false,"rental_uris":{"android":"levelo://app?vid=645777f4-8c2d-481a-8049-8750923bb74d","ios":"levelo://app?vid=645777f4-8c2d-481a-8049-8750923bb74d"},"vehicle_type_id":"4","last_reported":1730549748,"current_range_meters":24000,"station_id":"ce4bh512rcd13ifvqe3g","pricing_plan_id":"cebpf4jnsgd1na2vs0mg"},{"bike_id":"460f8dbf-5c74-4538-b47c-2be4684064c4","system_id":"levelo_inurba_marseille","lat":43.24392,"lon":5.37056,"is_reserved":false,"is_disabled":false,"rental_uris":{"android":"levelo://app?vid=460f8dbf-5c74-4538-b47c-2be4684064c4","ios":"levelo://app?vid=460f8dbf-5c74-4538-b47c-2be4684064c4"},"vehicle_type_id":"4","last_reported":1730549748,"current_range_meters":38800,"station_id":"ce4bhhh2rcd13ifvqfk0","pricing_plan_id":"cebpf4jnsgd1na2vs0mg"},{"bike_id":"26fd4689-fc76-43cc-9317-12cf7b37df0e","system_id":"levelo_inurba_marseille","lat":43.30804,"lon":5.43521,"is_reserved":false,"is_disabled":false,"rental_uris":{"android":"levelo://app?vid=26fd4689-fc76-43cc-9317-12cf7b37df0e","ios":"levelo://app?vid=26fd4689-fc76-43cc-9317-12cf7b37df0e"},"vehicle_type_id":"4","last_reported":1730549748,"current_range_meters":16000,"station_id":"ce4bhph2rcd13ifvqheg","pricing_plan_id":"cebpf4jnsgd1na2vs0mg"},{"bike_id":"ef30c907-9b95-4f0a-99f1-0cbd098879ad","system_id":"levelo_inurba_marseille","lat":43.28571,"lon":5.39499,"is_reserved":false,"is_disabled":false,"rental_uris":{"android":"levelo://app?vid=ef30c907-9b95-4f0a-99f1-0cbd098879ad","ios":"levelo://app?vid=ef30c907-9b95-4f0a-99f1-0cbd098879ad"},"vehicle_type_id":"4","last_reported":1730549748,"current_range_meters":36800,"station_id":"ce4bh292rcd13ifvqdg0","pricing_plan_id":"cebpf4jnsgd1na2vs0mg"},{"bike_id":"5c3ab142-c662-43ff-8299-8fe17e0e9463","system_id":"levelo_inurba_marseille","lat":43.30306,"lon":5.39204,"is_reserved":false,"is_disabled":false,"rental_uris":{"android":"levelo://app?vid=5c3ab142-c662-43ff-8299-8fe17e0e9463","ios":"levelo://app?vid=5c3ab142-c662-43ff-8299-8fe17e0e9463"},"vehicle_type_id":"4","last_reported":1730549748,"current_range_meters":32800,"station_id":"ce4bgkh2rcd13ifvqbk0","pricing_plan_id":"cebpf4jnsgd1na2vs0mg"},{"bike_id":"bc6255b1-9621-45ae-bceb-b5fd4bc4f459","system_id":"levelo_inurba_marseille","lat":43.29298,"lon":5.37457,"is_reserved":false,"is_disabled":false,"rental_uris":{"android":"levelo://app?vid=bc6255b1-9621-45ae-bceb-b5fd4bc4f459","ios":"levelo://app?vid=bc6255b1-9621-45ae-bceb-b5fd4bc4f459"},"vehicle_type_id":"4","last_reported":1730549748,"current_range_meters":38000,"station_id":"ce4bgi12rcd13ifvqb70","pricing_plan_id":"cebpf4jnsgd1na2vs0mg"},{"bike_id":"c464d67e-1a73-40bd-b8bb-ad08b05c10b4","system_id":"levelo_inurba_marseille","lat":43.31276,"lon":5.40168,"is_reserved":false,"is_disabled":false,"rental_uris":{"android":"levelo://app?vid=c464d67e-1a73-40bd-b8bb-ad08b05c10b4","ios":"levelo://app?vid=c464d67e-1a73-40bd-b8bb-ad08b05c10b4"},"vehicle_type_id":"4","last_reported":1730549748,"current_range_meters":8000,"station_id":"ce4bh092rcd13ifvqd30","pricing_plan_id":"cebpf4jnsgd1na2vs0mg"},{"bike_id":"6a73a468-ee4e-4504-97ad-7d286c4beb89","system_id":"levelo_inurba_marseille","lat":43.28613,"lon":5.35105,"is_reserved":false,"is_disabled":false,"rental_uris":{"android":"levelo://app?vid=6a73a468-ee4e-4504-97ad-7d286c4beb89","ios":"levelo://app?vid=6a73a468-ee4e-4504-97ad-7d286c4beb89"},"vehicle_type_id":"4","last_reported":1730549748,"current_range_meters":38800,"station_id":"ce4bhch2rcd13ifvqeug","pricing_plan_id":"cebpf4jnsgd1na2vs0mg"},{"bike_id":"6f96a38e-d83f-4722-a12b-532588f5ed09","system_id":"levelo_inurba_marseille","lat":43.29774,"lon":5.37085,"is_reserved":false,"is_disabled":false,"rental_uris":{"android":"levelo://app?vid=6f96a38e-d83f-4722-a12b-532588f5ed09","ios":"levelo://app?vid=6f96a38e-d83f-4722-a12b-532588f5ed09"},"vehicle_type_id":"4","last_reported":1730549748,"current_range_meters":16800,"station_id":"ce4bgop2rcd13ifvqc1g","pricing_plan_id":"cebpf4jnsgd1na2vs0mg"},{"bike_id":"039a64d6-5e87-4141-81e3-2e1ffc1e11a5","system_id":"levelo_inurba_marseille","lat":43.27995,"lon":5.40009,"is_reserved":false,"is_disabled":false,"rental_uris":{"android":"levelo://app?vid=039a64d6-5e87-4141-81e3-2e1ffc1e11a5","ios":"levelo://app?vid=039a64d6-5e87-4141-81e3-2e1ffc1e11a5"},"vehicle_type_id":"4","last_reported":1730549748,"current_range_meters":38800,"station_id":"ce4bho92rcd13ifvqh4g","pricing_plan_id":"cebpf4jnsgd1na2vs0mg"},{"bike_id":"4be17eee-2bee-4bce-abc6-693cda9fbd8f","system_id":"levelo_inurba_marseille","lat":43.25009,"lon":5.38913,"is_reserved":false,"is_disabled":false,"rental_uris":{"android":"levelo://app?vid=4be17eee-2bee-4bce-abc6-693cda9fbd8f","ios":"levelo://app?vid=4be17eee-2bee-4bce-abc6-693cda9fbd8f"},"vehicle_type_id":"4","last_reported":1730549748,"current_range_meters":36000,"station_id":"ce4bhgp2rcd13ifvqfd0","pricing_plan_id":"cebpf4jnsgd1na2vs0mg"},{"bike_id":"21ff1bff-f285-482f-b9d5-5da60c9f151d","system_id":"levelo_inurba_marseille","lat":43.32481,"lon":5.36571,"is_reserved":false,"is_disabled":false,"rental_uris":{"android":"levelo://app?vid=21ff1bff-f285-482f-b9d5-5da60c9f151d","ios":"levelo://app?vid=21ff1bff-f285-482f-b9d5-5da60c9f151d"},"vehicle_type_id":"4","last_reported":1730549748,"current_range_meters":33600,"station_id":"ce4bhs12rcd13ifvqhvg","pricing_plan_id":"cebpf4jnsgd1na2vs0mg"},{"bike_id":"a9a6908f-e016-4463-a289-1b8cb17b4191","system_id":"levelo_inurba_marseille","lat":43.29278,"lon":5.36846,"is_reserved":false,"is_disabled":false,"rental_uris":{"android":"levelo://app?vid=a9a6908f-e016-4463-a289-1b8cb17b4191","ios":"levelo://app?vid=a9a6908f-e016-4463-a289-1b8cb17b4191"},"vehicle_type_id":"4","last_reported":1730549748,"current_range_meters":38400,"station_id":"ce4bhbp2rcd13ifvqesg","pricing_plan_id":"cebpf4jnsgd1na2vs0mg"},{"bike_id":"7f17982b-36f5-4d90-b1be-eb793cb933c4","system_id":"levelo_inurba_marseille","lat":43.2842,"lon":5.34972,"is_reserved":false,"is_disabled":false,"rental_uris":{"android":"levelo://app?vid=7f17982b-36f5-4d90-b1be-eb793cb933c4","ios":"levelo://app?vid=7f17982b-36f5-4d90-b1be-eb793cb933c4"},"vehicle_type_id":"4","last_reported":1730549748,"current_range_meters":24800,"station_id":"ce4bhbh2rcd13ifvqepg","pricing_plan_id":"cebpf4jnsgd1na2vs0mg"},{"bike_id":"a0a0b575-8a2e-4954-9e71-247b67bf18a1","system_id":"levelo_inurba_marseille","lat":43.28269,"lon":5.3506,"is_reserved":false,"is_disabled":false,"rental_uris":{"android":"levelo://app?vid=a0a0b575-8a2e-4954-9e71-247b67bf18a1","ios":"levelo://app?vid=a0a0b575-8a2e-4954-9e71-247b67bf18a1"},"vehicle_type_id":"4","last_reported":1730549748,"current_range_meters":16800,"station_id":"ce4bhbp2rcd13ifvqerg","pricing_plan_id":"cebpf4jnsgd1na2vs0mg"},{"bike_id":"f5b877da-4b16-4a6e-b7a7-93916121cb3b","system_id":"levelo_inurba_marseille","lat":43.3078,"lon":5.376537,"is_reserved":false,"is_disabled":false,"rental_uris":{"android":"levelo://app?vid=f5b877da-4b16-4a6e-b7a7-93916121cb3b","ios":"levelo://app?vid=f5b877da-4b16-4a6e-b7a7-93916121cb3b"},"vehicle_type_id":"4","last_reported":1730549748,"current_range_meters":19200,"station_id":"ce4bgv92rcd13ifvqcq0","pricing_plan_id":"cebpf4jnsgd1na2vs0mg"},{"bike_id":"d61fa55a-d805-4f16-aadf-773cc1d5bef1","system_id":"levelo_inurba_marseille","lat":43.27325,"lon":5.39076,"is_reserved":false,"is_disabled":false,"rental_uris":{"android":"levelo://app?vid=d61fa55a-d805-4f16-aadf-773cc1d5bef1","ios":"levelo://app?vid=d61fa55a-d805-4f16-aadf-773cc1d5bef1"},"vehicle_type_id":"4","last_reported":1730549748,"current_range_meters":39200,"station_id":"ce4bhgp2rcd13ifvqfe0","pricing_plan_id":"cebpf4jnsgd1na2vs0mg"},{"bike_id":"8096177b-5481-43c4-9ad0-8378e8bbb67c","system_id":"levelo_inurba_marseille","lat":43.26552,"lon":5.37284,"is_reserved":false,"is_disabled":false,"rental_uris":{"android":"levelo://app?vid=8096177b-5481-43c4-9ad0-8378e8bbb67c","ios":"levelo://app?vid=8096177b-5481-43c4-9ad0-8378e8bbb67c"},"vehicle_type_id":"4","last_reported":1730549748,"current_range_meters":38000,"station_id":"ce4bhg12rcd13ifvqf70","pricing_plan_id":"cebpf4jnsgd1na2vs0mg"},{"bike_id":"3e774943-d4aa-471b-a041-87e0abbf5d55","system_id":"levelo_inurba_marseille","lat":43.27171,"lon":5.40982,"is_reserved":false,"is_disabled":false,"rental_uris":{"android":"levelo://app?vid=3e774943-d4aa-471b-a041-87e0abbf5d55","ios":"levelo://app?vid=3e774943-d4aa-471b-a041-87e0abbf5d55"},"vehicle_type_id":"4","last_reported":1730549748,"current_range_meters":9200,"station_id":"ce4bhl12rcd13ifvqgf0","pricing_plan_id":"cebpf4jnsgd1na2vs0mg"},{"bike_id":"b68396b3-e6ec-47a0-a408-0db69b37708c","system_id":"levelo_inurba_marseille","lat":43.25101,"lon":5.40321,"is_reserved":false,"is_disabled":false,"rental_uris":{"android":"levelo://app?vid=b68396b3-e6ec-47a0-a408-0db69b37708c","ios":"levelo://app?vid=b68396b3-e6ec-47a0-a408-0db69b37708c"},"vehicle_type_id":"4","last_reported":1730549748,"current_range_meters":30000,"station_id":"ce4bhlh2rcd13ifvqgig","pricing_plan_id":"cebpf4jnsgd1na2vs0mg"},{"bike_id":"f090d04b-cbf8-4147-a8bc-3bf46885cf02","system_id":"levelo_inurba_marseille","lat":43.273334,"lon":5.362879,"is_reserved":false,"is_disabled":false,"rental_uris":{"android":"levelo://app?vid=f090d04b-cbf8-4147-a8bc-3bf46885cf02","ios":"levelo://app?vid=f090d04b-cbf8-4147-a8bc-3bf46885cf02"},"vehicle_type_id":"4","last_reported":1730549748,"current_range_meters":38800,"station_id":"ce4bhbh2rcd13ifvqeo0","pricing_plan_id":"cebpf4jnsgd1na2vs0mg"},{"bike_id":"ad3e9952-3f50-44d8-a74e-6763bc2ff022","system_id":"levelo_inurba_marseille","lat":43.26213,"lon":5.37441,"is_reserved":false,"is_disabled":false,"rental_uris":{"android":"levelo://app?vid=ad3e9952-3f50-44d8-a74e-6763bc2ff022","ios":"levelo://app?vid=ad3e9952-3f50-44d8-a74e-6763bc2ff022"},"vehicle_type_id":"4","last_reported":1730549748,"current_range_meters":32000,"station_id":"ce4bhgp2rcd13ifvqfc0","pricing_plan_id":"cebpf4jnsgd1na2vs0mg"},{"bike_id":"a5abd82e-33ff-4452-9538-a6a3d5a1d185","system_id":"levelo_inurba_marseille","lat":43.2993,"lon":5.36528,"is_reserved":false,"is_disabled":false,"rental_uris":{"android":"levelo://app?vid=a5abd82e-33ff-4452-9538-a6a3d5a1d185","ios":"levelo://app?vid=a5abd82e-33ff-4452-9538-a6a3d5a1d185"},"vehicle_type_id":"4","last_reported":1730549748,"current_range_meters":38800,"station_id":"ce4bgm92rcd13ifvqbr0","pricing_plan_id":"cebpf4jnsgd1na2vs0mg"},{"bike_id":"9c510165-3fd2-45d1-85c8-68b221c6f474","system_id":"levelo_inurba_marseille","lat":43.239661,"lon":5.366414,"is_reserved":false,"is_disabled":false,"rental_uris":{"android":"levelo://app?vid=9c510165-3fd2-45d1-85c8-68b221c6f474","ios":"levelo://app?vid=9c510165-3fd2-45d1-85c8-68b221c6f474"},"vehicle_type_id":"4","last_reported":1730549748,"current_range_meters":38800,"station_id":"ce4bhi12rcd13ifvqfp0","pricing_plan_id":"cebpf4jnsgd1na2vs0mg"},{"bike_id":"eb7ca17f-6237-4461-b9e3-d5063d969a7a","system_id":"levelo_inurba_marseille","lat":43.29789,"lon":5.37096,"is_reserved":false,"is_disabled":false,"rental_uris":{"android":"levelo://app?vid=eb7ca17f-6237-4461-b9e3-d5063d969a7a","ios":"levelo://app?vid=eb7ca17f-6237-4461-b9e3-d5063d969a7a"},"vehicle_type_id":"4","last_reported":1730549748,"current_range_meters":30800,"station_id":"ce4bgop2rcd13ifvqc1g","pricing_plan_id":"cebpf4jnsgd1na2vs0mg"},{"bike_id":"8c67d340-801d-46e5-b910-2f8aff3ff078","system_id":"levelo_inurba_marseille","lat":43.33339,"lon":5.37054,"is_reserved":false,"is_disabled":false,"rental_uris":{"android":"levelo://app?vid=8c67d340-801d-46e5-b910-2f8aff3ff078","ios":"levelo://app?vid=8c67d340-801d-46e5-b910-2f8aff3ff078"},"vehicle_type_id":"4","last_reported":1730549748,"current_range_meters":10800,"station_id":"","pricing_plan_id":"cebpf4jnsgd1na2vs0mg"},{"bike_id":"83356032-baeb-401a-bdff-8adddb83ed12","system_id":"levelo_inurba_marseille","lat":43.23193,"lon":5.35548,"is_reserved":false,"is_disabled":false,"rental_uris":{"android":"levelo://app?vid=83356032-baeb-401a-bdff-8adddb83ed12","ios":"levelo://app?vid=83356032-baeb-401a-bdff-8adddb83ed12"},"vehicle_type_id":"4","last_reported":1730549748,"current_range_meters":36800,"station_id":"ce4bhu92rcd13ifvqi70","pricing_plan_id":"cebpf4jnsgd1na2vs0mg"},{"bike_id":"8f4c5118-98dd-4e1d-abca-8f78e1ba2b49","system_id":"levelo_inurba_marseille","lat":43.30891,"lon":5.37187,"is_reserved":false,"is_disabled":false,"rental_uris":{"android":"levelo://app?vid=8f4c5118-98dd-4e1d-abca-8f78e1ba2b49","ios":"levelo://app?vid=8f4c5118-98dd-4e1d-abca-8f78e1ba2b49"},"vehicle_type_id":"4","last_reported":1730549748,"current_range_meters":32400,"station_id":"ce4bguh2rcd13ifvqckg","pricing_plan_id":"cebpf4jnsgd1na2vs0mg"},{"bike_id":"f9c65873-3bf4-4a1c-be6c-b96903d9d389","system_id":"levelo_inurba_marseille","lat":43.29295,"lon":5.37459,"is_reserved":false,"is_disabled":false,"rental_uris":{"android":"levelo://app?vid=f9c65873-3bf4-4a1c-be6c-b96903d9d389","ios":"levelo://app?vid=f9c65873-3bf4-4a1c-be6c-b96903d9d389"},"vehicle_type_id":"4","last_reported":1730549748,"current_range_meters":18000,"station_id":"ce4bgi12rcd13ifvqb70","pricing_plan_id":"cebpf4jnsgd1na2vs0mg"},{"bike_id":"df63b9c4-e15c-4263-a5c8-6ddf8c81a210","system_id":"levelo_inurba_marseille","lat":43.26059,"lon":5.39393,"is_reserved":false,"is_disabled":false,"rental_uris":{"android":"levelo://app?vid=df63b9c4-e15c-4263-a5c8-6ddf8c81a210","ios":"levelo://app?vid=df63b9c4-e15c-4263-a5c8-6ddf8c81a210"},"vehicle_type_id":"4","last_reported":1730549748,"current_range_meters":39200,"station_id":"ce4bhh92rcd13ifvqfj0","pricing_plan_id":"cebpf4jnsgd1na2vs0mg"},{"bike_id":"fde6e1fe-3a5a-4abb-b5be-e7fc82bcdacc","system_id":"levelo_inurba_marseille","lat":43.248901,"lon":5.374688,"is_reserved":false,"is_disabled":false,"rental_uris":{"android":"levelo://app?vid=fde6e1fe-3a5a-4abb-b5be-e7fc82bcdacc","ios":"levelo://app?vid=fde6e1fe-3a5a-4abb-b5be-e7fc82bcdacc"},"vehicle_type_id":"4","last_reported":1730549748,"current_range_meters":16400,"station_id":"ce4bhgh2rcd13ifvqfb0","pricing_plan_id":"cebpf4jnsgd1na2vs0mg"},{"bike_id":"07d0df56-f8bc-46e6-871c-8e071fb175e5","system_id":"levelo_inurba_marseille","lat":43.23196,"lon":5.35552,"is_reserved":false,"is_disabled":false,"rental_uris":{"android":"levelo://app?vid=07d0df56-f8bc-46e6-871c-8e071fb175e5","ios":"levelo://app?vid=07d0df56-f8bc-46e6-871c-8e071fb175e5"},"vehicle_type_id":"4","last_reported":1730549748,"current_range_meters":36800,"station_id":"ce4bhu92rcd13ifvqi70","pricing_plan_id":"cebpf4jnsgd1na2vs0mg"},{"bike_id":"69b3c38e-cc8d-4ba8-a1f6-805ee6d3a26b","system_id":"levelo_inurba_marseille","lat":43.26191,"lon":5.37449,"is_reserved":false,"is_disabled":false,"rental_uris":{"android":"levelo://app?vid=69b3c38e-cc8d-4ba8-a1f6-805ee6d3a26b","ios":"levelo://app?vid=69b3c38e-cc8d-4ba8-a1f6-805ee6d3a26b"},"vehicle_type_id":"4","last_reported":1730549748,"current_range_meters":31200,"station_id":"ce4bhgp2rcd13ifvqfc0","pricing_plan_id":"cebpf4jnsgd1na2vs0mg"},{"bike_id":"19e6008c-0743-45ac-b4bf-fc683ef0e14c","system_id":"levelo_inurba_marseille","lat":43.25721,"lon":5.41112,"is_reserved":false,"is_disabled":false,"rental_uris":{"android":"levelo://app?vid=19e6008c-0743-45ac-b4bf-fc683ef0e14c","ios":"levelo://app?vid=19e6008c-0743-45ac-b4bf-fc683ef0e14c"},"vehicle_type_id":"4","last_reported":1730549748,"current_range_meters":26000,"station_id":"ce4bhkp2rcd13ifvqgd0","pricing_plan_id":"cebpf4jnsgd1na2vs0mg"},{"bike_id":"b22d739a-01b3-4204-adac-624621fdf7b9","system_id":"levelo_inurba_marseille","lat":43.29618,"lon":5.37166,"is_reserved":false,"is_disabled":false,"rental_uris":{"android":"levelo://app?vid=b22d739a-01b3-4204-adac-624621fdf7b9","ios":"levelo://app?vid=b22d739a-01b3-4204-adac-624621fdf7b9"},"vehicle_type_id":"4","last_reported":1730549748,"current_range_meters":37600,"station_id":"ce4bgnh2rcd13ifvqc0g","pricing_plan_id":"cebpf4jnsgd1na2vs0mg"},{"bike_id":"99aed4fe-676c-418c-94cf-6644e1927a4c","system_id":"levelo_inurba_marseille","lat":43.29186,"lon":5.35793,"is_reserved":false,"is_disabled":false,"rental_uris":{"android":"levelo://app?vid=99aed4fe-676c-418c-94cf-6644e1927a4c","ios":"levelo://app?vid=99aed4fe-676c-418c-94cf-6644e1927a4c"},"vehicle_type_id":"4","last_reported":1730549748,"current_range_meters":20800,"station_id":"ce4bhb12rcd13ifvqel0","pricing_plan_id":"cebpf4jnsgd1na2vs0mg"},{"bike_id":"eb9224dd-4d88-4497-8c81-0e5bc0ea44ac","system_id":"levelo_inurba_marseille","lat":43.29589,"lon":5.36733,"is_reserved":false,"is_disabled":false,"rental_uris":{"android":"levelo://app?vid=eb9224dd-4d88-4497-8c81-0e5bc0ea44ac","ios":"levelo://app?vid=eb9224dd-4d88-4497-8c81-0e5bc0ea44ac"},"vehicle_type_id":"4","last_reported":1730549748,"current_range_meters":33600,"station_id":"ce4bgph2rcd13ifvqc2g","pricing_plan_id":"cebpf4jnsgd1na2vs0mg"},{"bike_id":"7efb9cd7-f03e-4c1d-b63f-e87ffe819639","system_id":"levelo_inurba_marseille","lat":43.237701,"lon":5.361746,"is_reserved":false,"is_disabled":false,"rental_uris":{"android":"levelo://app?vid=7efb9cd7-f03e-4c1d-b63f-e87ffe819639","ios":"levelo://app?vid=7efb9cd7-f03e-4c1d-b63f-e87ffe819639"},"vehicle_type_id":"4","last_reported":1730549748,"current_range_meters":26800,"station_id":"cpo3532slgdg3j2ikp40","pricing_plan_id":"cebpf4jnsgd1na2vs0mg"},{"bike_id":"11c750a2-d7b5-480d-8e51-6aba667e5991","system_id":"levelo_inurba_marseille","lat":43.31725,"lon":5.42403,"is_reserved":false,"is_disabled":false,"rental_uris":{"android":"levelo://app?vid=11c750a2-d7b5-480d-8e51-6aba667e5991","ios":"levelo://app?vid=11c750a2-d7b5-480d-8e51-6aba667e5991"},"vehicle_type_id":"4","last_reported":1730549748,"current_range_meters":38800,"station_id":"ce4bhp92rcd13ifvqhbg","pricing_plan_id":"cebpf4jnsgd1na2vs0mg"},{"bike_id":"8a220314-b56c-493a-9759-7ee1c724fc09","system_id":"levelo_inurba_marseille","lat":43.29587,"lon":5.36744,"is_reserved":false,"is_disabled":false,"rental_uris":{"android":"levelo://app?vid=8a220314-b56c-493a-9759-7ee1c724fc09","ios":"levelo://app?vid=8a220314-b56c-493a-9759-7ee1c724fc09"},"vehicle_type_id":"4","last_reported":1730549748,"current_range_meters":38000,"station_id":"ce4bgph2rcd13ifvqc2g","pricing_plan_id":"cebpf4jnsgd1na2vs0mg"},{"bike_id":"b4c82782-7dfe-48f4-9a01-b17e8c1ed1b9","system_id":"levelo_inurba_marseille","lat":43.32,"lon":5.38153,"is_reserved":false,"is_disabled":false,"rental_uris":{"android":"levelo://app?vid=b4c82782-7dfe-48f4-9a01-b17e8c1ed1b9","ios":"levelo://app?vid=b4c82782-7dfe-48f4-9a01-b17e8c1ed1b9"},"vehicle_type_id":"4","last_reported":1730549748,"current_range_meters":19200,"station_id":"ce4bhr12rcd13ifvqhpg","pricing_plan_id":"cebpf4jnsgd1na2vs0mg"},{"bike_id":"10ff0e75-6443-4419-b59b-5c0fc7db1fb9","system_id":"levelo_inurba_marseille","lat":43.30532,"lon":5.36695,"is_reserved":false,"is_disabled":false,"rental_uris":{"android":"levelo://app?vid=10ff0e75-6443-4419-b59b-5c0fc7db1fb9","ios":"levelo://app?vid=10ff0e75-6443-4419-b59b-5c0fc7db1fb9"},"vehicle_type_id":"4","last_reported":1730549748,"current_range_meters":38800,"station_id":"ce4bgrp2rcd13ifvqc9g","pricing_plan_id":"cebpf4jnsgd1na2vs0mg"},{"bike_id":"367151e3-d9d1-496e-afc3-1d3ad14f98c6","system_id":"levelo_inurba_marseille","lat":43.323675,"lon":5.388761,"is_reserved":false,"is_disabled":false,"rental_uris":{"android":"levelo://app?vid=367151e3-d9d1-496e-afc3-1d3ad14f98c6","ios":"levelo://app?vid=367151e3-d9d1-496e-afc3-1d3ad14f98c6"},"vehicle_type_id":"4","last_reported":1730549748,"current_range_meters":32400,"station_id":"ce4bhqp2rcd13ifvqhog","pricing_plan_id":"cebpf4jnsgd1na2vs0mg"},{"bike_id":"ffa47a9c-9d30-4413-b7a7-fb369d45a50e","system_id":"levelo_inurba_marseille","lat":43.29305,"lon":5.37172,"is_reserved":false,"is_disabled":false,"rental_uris":{"android":"levelo://app?vid=ffa47a9c-9d30-4413-b7a7-fb369d45a50e","ios":"levelo://app?vid=ffa47a9c-9d30-4413-b7a7-fb369d45a50e"},"vehicle_type_id":"4","last_reported":1730549748,"current_range_meters":38000,"station_id":"ce4bgh92rcd13ifvqb40","pricing_plan_id":"cebpf4jnsgd1na2vs0mg"},{"bike_id":"be1d46f5-1de1-4141-a3a0-2c6fdc86f9c8","system_id":"levelo_inurba_marseille","lat":43.29839,"lon":5.36266,"is_reserved":false,"is_disabled":false,"rental_uris":{"android":"levelo://app?vid=be1d46f5-1de1-4141-a3a0-2c6fdc86f9c8","ios":"levelo://app?vid=be1d46f5-1de1-4141-a3a0-2c6fdc86f9c8"},"vehicle_type_id":"4","last_reported":1730549748,"current_range_meters":10000,"station_id":"ce4bgpp2rcd13ifvqc3g","pricing_plan_id":"cebpf4jnsgd1na2vs0mg"},{"bike_id":"b262bc4a-2540-4a9e-9c5f-70d9e7dd9a2f","system_id":"levelo_inurba_marseille","lat":43.2656,"lon":5.37278,"is_reserved":false,"is_disabled":false,"rental_uris":{"android":"levelo://app?vid=b262bc4a-2540-4a9e-9c5f-70d9e7dd9a2f","ios":"levelo://app?vid=b262bc4a-2540-4a9e-9c5f-70d9e7dd9a2f"},"vehicle_type_id":"4","last_reported":1730549748,"current_range_meters":16000,"station_id":"ce4bhg12rcd13ifvqf70","pricing_plan_id":"cebpf4jnsgd1na2vs0mg"},{"bike_id":"6363575f-ca49-4d17-8a40-4a1c1b01809f","system_id":"levelo_inurba_marseille","lat":43.30098,"lon":5.39086,"is_reserved":false,"is_disabled":false,"rental_uris":{"android":"levelo://app?vid=6363575f-ca49-4d17-8a40-4a1c1b01809f","ios":"levelo://app?vid=6363575f-ca49-4d17-8a40-4a1c1b01809f"},"vehicle_type_id":"4","last_reported":1730549748,"current_range_meters":5600,"station_id":"ce4bh192rcd13ifvqdb0","pricing_plan_id":"cebpf4jnsgd1na2vs0mg"},{"bike_id":"184be8ec-fbf1-42f9-9d0b-336d167638cd","system_id":"levelo_inurba_marseille","lat":43.27816,"lon":5.40706,"is_reserved":false,"is_disabled":false,"rental_uris":{"android":"levelo://app?vid=184be8ec-fbf1-42f9-9d0b-336d167638cd","ios":"levelo://app?vid=184be8ec-fbf1-42f9-9d0b-336d167638cd"},"vehicle_type_id":"4","last_reported":1730549748,"current_range_meters":36400,"station_id":"ce4bhnh2rcd13ifvqgtg","pricing_plan_id":"cebpf4jnsgd1na2vs0mg"},{"bike_id":"13808390-4e00-413b-99d9-c6f87cf0bf4f","system_id":"levelo_inurba_marseille","lat":43.29579,"lon":5.37521,"is_reserved":false,"is_disabled":false,"rental_uris":{"android":"levelo://app?vid=13808390-4e00-413b-99d9-c6f87cf0bf4f","ios":"levelo://app?vid=13808390-4e00-413b-99d9-c6f87cf0bf4f"},"vehicle_type_id":"4","last_reported":1730549748,"current_range_meters":8800,"station_id":"ce4bgh92rcd13ifvqb50","pricing_plan_id":"cebpf4jnsgd1na2vs0mg"},{"bike_id":"73308a73-9072-42d2-989b-1549b2bebe81","system_id":"levelo_inurba_marseille","lat":43.32111,"lon":5.36768,"is_reserved":false,"is_disabled":false,"rental_uris":{"android":"levelo://app?vid=73308a73-9072-42d2-989b-1549b2bebe81","ios":"levelo://app?vid=73308a73-9072-42d2-989b-1549b2bebe81"},"vehicle_type_id":"4","last_reported":1730549748,"current_range_meters":27600,"station_id":"ce4bhrh2rcd13ifvqhug","pricing_plan_id":"cebpf4jnsgd1na2vs0mg"},{"bike_id":"24ed88ef-7e13-4630-9c40-090c0b464b2b","system_id":"levelo_inurba_marseille","lat":43.25109,"lon":5.4032,"is_reserved":false,"is_disabled":false,"rental_uris":{"android":"levelo://app?vid=24ed88ef-7e13-4630-9c40-090c0b464b2b","ios":"levelo://app?vid=24ed88ef-7e13-4630-9c40-090c0b464b2b"},"vehicle_type_id":"4","last_reported":1730549748,"current_range_meters":35200,"station_id":"ce4bhlh2rcd13ifvqgig","pricing_plan_id":"cebpf4jnsgd1na2vs0mg"},{"bike_id":"61cb322d-9136-4e1a-8396-9903b572600f","system_id":"levelo_inurba_marseille","lat":43.25581,"lon":5.38228,"is_reserved":false,"is_disabled":false,"rental_uris":{"android":"levelo://app?vid=61cb322d-9136-4e1a-8396-9903b572600f","ios":"levelo://app?vid=61cb322d-9136-4e1a-8396-9903b572600f"},"vehicle_type_id":"4","last_reported":1730549748,"current_range_meters":15200,"station_id":"ce4bhih2rcd13ifvqfs0","pricing_plan_id":"cebpf4jnsgd1na2vs0mg"},{"bike_id":"ace6ce99-29be-40d4-9b62-ff3331bf021c","system_id":"levelo_inurba_marseille","lat":43.2293,"lon":5.35372,"is_reserved":false,"is_disabled":false,"rental_uris":{"android":"levelo://app?vid=ace6ce99-29be-40d4-9b62-ff3331bf021c","ios":"levelo://app?vid=ace6ce99-29be-40d4-9b62-ff3331bf021c"},"vehicle_type_id":"4","last_reported":1730549748,"current_range_meters":15200,"station_id":"cpo3532slgdg3j2ikp40","pricing_plan_id":"cebpf4jnsgd1na2vs0mg"},{"bike_id":"bd9da8da-0e62-42e0-b8e3-48974947ce73","system_id":"levelo_inurba_marseille","lat":43.27815,"lon":5.40711,"is_reserved":false,"is_disabled":false,"rental_uris":{"android":"levelo://app?vid=bd9da8da-0e62-42e0-b8e3-48974947ce73","ios":"levelo://app?vid=bd9da8da-0e62-42e0-b8e3-48974947ce73"},"vehicle_type_id":"4","last_reported":1730549748,"current_range_meters":36800,"station_id":"ce4bhnh2rcd13ifvqgtg","pricing_plan_id":"cebpf4jnsgd1na2vs0mg"},{"bike_id":"754e9e23-9487-4656-b128-5bb74a2cc252","system_id":"levelo_inurba_marseille","lat":43.25582,"lon":5.38223,"is_reserved":false,"is_disabled":false,"rental_uris":{"android":"levelo://app?vid=754e9e23-9487-4656-b128-5bb74a2cc252","ios":"levelo://app?vid=754e9e23-9487-4656-b128-5bb74a2cc252"},"vehicle_type_id":"4","last_reported":1730549748,"current_range_meters":35600,"station_id":"ce4bhih2rcd13ifvqfs0","pricing_plan_id":"cebpf4jnsgd1na2vs0mg"},{"bike_id":"b27b6b18-d801-4b0b-a4e3-bc55bc4a9aed","system_id":"levelo_inurba_marseille","lat":43.25722,"lon":5.41103,"is_reserved":false,"is_disabled":false,"rental_uris":{"android":"levelo://app?vid=b27b6b18-d801-4b0b-a4e3-bc55bc4a9aed","ios":"levelo://app?vid=b27b6b18-d801-4b0b-a4e3-bc55bc4a9aed"},"vehicle_type_id":"4","last_reported":1730549748,"current_range_meters":38000,"station_id":"ce4bhkp2rcd13ifvqgd0","pricing_plan_id":"cebpf4jnsgd1na2vs0mg"},{"bike_id":"79f48365-782b-4d7b-a00c-bc39c501645a","system_id":"levelo_inurba_marseille","lat":43.30603,"lon":5.37231,"is_reserved":false,"is_disabled":false,"rental_uris":{"android":"levelo://app?vid=79f48365-782b-4d7b-a00c-bc39c501645a","ios":"levelo://app?vid=79f48365-782b-4d7b-a00c-bc39c501645a"},"vehicle_type_id":"4","last_reported":1730549748,"current_range_meters":30000,"station_id":"ce4bgqh2rcd13ifvqc4g","pricing_plan_id":"cebpf4jnsgd1na2vs0mg"},{"bike_id":"008673ba-05c1-45bd-8773-a238894f45b8","system_id":"levelo_inurba_marseille","lat":43.28937,"lon":5.36635,"is_reserved":false,"is_disabled":false,"rental_uris":{"android":"levelo://app?vid=008673ba-05c1-45bd-8773-a238894f45b8","ios":"levelo://app?vid=008673ba-05c1-45bd-8773-a238894f45b8"},"vehicle_type_id":"4","last_reported":1730549748,"current_range_meters":39200,"station_id":"ce4bhap2rcd13ifvqek0","pricing_plan_id":"cebpf4jnsgd1na2vs0mg"},{"bike_id":"94279a57-03c0-47b7-abe3-7226e86fd3b0","system_id":"levelo_inurba_marseille","lat":43.27613,"lon":5.36112,"is_reserved":false,"is_disabled":false,"rental_uris":{"android":"levelo://app?vid=94279a57-03c0-47b7-abe3-7226e86fd3b0","ios":"levelo://app?vid=94279a57-03c0-47b7-abe3-7226e86fd3b0"},"vehicle_type_id":"4","last_reported":1730549748,"current_range_meters":20000,"station_id":"ce4bgj92rcd13ifvqbe0","pricing_plan_id":"cebpf4jnsgd1na2vs0mg"},{"bike_id":"3c97133c-0bc8-4fbf-9603-f2147cb98b4b","system_id":"levelo_inurba_marseille","lat":43.25109,"lon":5.40318,"is_reserved":false,"is_disabled":false,"rental_uris":{"android":"levelo://app?vid=3c97133c-0bc8-4fbf-9603-f2147cb98b4b","ios":"levelo://app?vid=3c97133c-0bc8-4fbf-9603-f2147cb98b4b"},"vehicle_type_id":"4","last_reported":1730549748,"current_range_meters":8000,"station_id":"ce4bhlh2rcd13ifvqgig","pricing_plan_id":"cebpf4jnsgd1na2vs0mg"},{"bike_id":"c69bbbb4-8783-4886-8cc4-9cc7484211dc","system_id":"levelo_inurba_marseille","lat":43.30184,"lon":5.36617,"is_reserved":false,"is_disabled":false,"rental_uris":{"android":"levelo://app?vid=c69bbbb4-8783-4886-8cc4-9cc7484211dc","ios":"levelo://app?vid=c69bbbb4-8783-4886-8cc4-9cc7484211dc"},"vehicle_type_id":"4","last_reported":1730549748,"current_range_meters":8400,"station_id":"ce4bgrh2rcd13ifvqc8g","pricing_plan_id":"cebpf4jnsgd1na2vs0mg"},{"bike_id":"5ba8e5a8-09bf-412b-b182-000192a6d1f7","system_id":"levelo_inurba_marseille","lat":43.33024,"lon":5.39046,"is_reserved":false,"is_disabled":false,"rental_uris":{"android":"levelo://app?vid=5ba8e5a8-09bf-412b-b182-000192a6d1f7","ios":"levelo://app?vid=5ba8e5a8-09bf-412b-b182-000192a6d1f7"},"vehicle_type_id":"4","last_reported":1730549748,"current_range_meters":22400,"station_id":"ce4bhr92rcd13ifvqhrg","pricing_plan_id":"cebpf4jnsgd1na2vs0mg"},{"bike_id":"56e38add-0f78-4341-b643-7b0849d3280d","system_id":"levelo_inurba_marseille","lat":43.22928,"lon":5.35376,"is_reserved":false,"is_disabled":false,"rental_uris":{"android":"levelo://app?vid=56e38add-0f78-4341-b643-7b0849d3280d","ios":"levelo://app?vid=56e38add-0f78-4341-b643-7b0849d3280d"},"vehicle_type_id":"4","last_reported":1730549748,"current_range_meters":32800,"station_id":"cpo3532slgdg3j2ikp40","pricing_plan_id":"cebpf4jnsgd1na2vs0mg"},{"bike_id":"b7e5fcd4-fccc-4a36-ac73-b4f28d59aa73","system_id":"levelo_inurba_marseille","lat":43.28421,"lon":5.34974,"is_reserved":false,"is_disabled":false,"rental_uris":{"android":"levelo://app?vid=b7e5fcd4-fccc-4a36-ac73-b4f28d59aa73","ios":"levelo://app?vid=b7e5fcd4-fccc-4a36-ac73-b4f28d59aa73"},"vehicle_type_id":"4","last_reported":1730549748,"current_range_meters":29600,"station_id":"ce4bhbh2rcd13ifvqepg","pricing_plan_id":"cebpf4jnsgd1na2vs0mg"},{"bike_id":"54cdf4b7-f177-47bd-8a3e-f2bf9d78456d","system_id":"levelo_inurba_marseille","lat":43.29571,"lon":5.37493,"is_reserved":false,"is_disabled":false,"rental_uris":{"android":"levelo://app?vid=54cdf4b7-f177-47bd-8a3e-f2bf9d78456d","ios":"levelo://app?vid=54cdf4b7-f177-47bd-8a3e-f2bf9d78456d"},"vehicle_type_id":"4","last_reported":1730549748,"current_range_meters":38000,"station_id":"ce4bgh92rcd13ifvqb50","pricing_plan_id":"cebpf4jnsgd1na2vs0mg"},{"bike_id":"51b3e07a-daf1-4b57-9f8d-4b2921ee69ae","system_id":"levelo_inurba_marseille","lat":43.26207,"lon":5.37445,"is_reserved":false,"is_disabled":false,"rental_uris":{"android":"levelo://app?vid=51b3e07a-daf1-4b57-9f8d-4b2921ee69ae","ios":"levelo://app?vid=51b3e07a-daf1-4b57-9f8d-4b2921ee69ae"},"vehicle_type_id":"4","last_reported":1730549748,"current_range_meters":36000,"station_id":"ce4bhgp2rcd13ifvqfc0","pricing_plan_id":"cebpf4jnsgd1na2vs0mg"},{"bike_id":"25030324-60dc-4593-b0fd-9541eabdb14c","system_id":"levelo_inurba_marseille","lat":43.29293,"lon":5.37449,"is_reserved":false,"is_disabled":false,"rental_uris":{"android":"levelo://app?vid=25030324-60dc-4593-b0fd-9541eabdb14c","ios":"levelo://app?vid=25030324-60dc-4593-b0fd-9541eabdb14c"},"vehicle_type_id":"4","last_reported":1730549748,"current_range_meters":2000,"station_id":"ce4bgi12rcd13ifvqb70","pricing_plan_id":"cebpf4jnsgd1na2vs0mg"},{"bike_id":"a62fcc65-d936-484c-b2b0-aa376df4e6d4","system_id":"levelo_inurba_marseille","lat":43.29734,"lon":5.37689,"is_reserved":false,"is_disabled":false,"rental_uris":{"android":"levelo://app?vid=a62fcc65-d936-484c-b2b0-aa376df4e6d4","ios":"levelo://app?vid=a62fcc65-d936-484c-b2b0-aa376df4e6d4"},"vehicle_type_id":"4","last_reported":1730549748,"current_range_meters":36400,"station_id":"ce4bgkh2rcd13ifvqbl0","pricing_plan_id":"cebpf4jnsgd1na2vs0mg"},{"bike_id":"7860a8eb-8bd7-4aa0-83fa-7000922a7285","system_id":"levelo_inurba_marseille","lat":43.32284,"lon":5.38276,"is_reserved":false,"is_disabled":false,"rental_uris":{"android":"levelo://app?vid=7860a8eb-8bd7-4aa0-83fa-7000922a7285","ios":"levelo://app?vid=7860a8eb-8bd7-4aa0-83fa-7000922a7285"},"vehicle_type_id":"4","last_reported":1730549748,"current_range_meters":37600,"station_id":"ce4bhr12rcd13ifvqhqg","pricing_plan_id":"cebpf4jnsgd1na2vs0mg"},{"bike_id":"3ab46d2b-27f4-4eb5-a71a-7ef5d6848fd2","system_id":"levelo_inurba_marseille","lat":43.2693,"lon":5.38907,"is_reserved":false,"is_disabled":false,"rental_uris":{"android":"levelo://app?vid=3ab46d2b-27f4-4eb5-a71a-7ef5d6848fd2","ios":"levelo://app?vid=3ab46d2b-27f4-4eb5-a71a-7ef5d6848fd2"},"vehicle_type_id":"4","last_reported":1730549748,"current_range_meters":21600,"station_id":"ce4bhhh2rcd13ifvqfl0","pricing_plan_id":"cebpf4jnsgd1na2vs0mg"},{"bike_id":"84eff928-eb31-4529-a9cd-6308c845218b","system_id":"levelo_inurba_marseille","lat":43.26195,"lon":5.37448,"is_reserved":false,"is_disabled":false,"rental_uris":{"android":"levelo://app?vid=84eff928-eb31-4529-a9cd-6308c845218b","ios":"levelo://app?vid=84eff928-eb31-4529-a9cd-6308c845218b"},"vehicle_type_id":"4","last_reported":1730549748,"current_range_meters":31200,"station_id":"ce4bhgp2rcd13ifvqfc0","pricing_plan_id":"cebpf4jnsgd1na2vs0mg"},{"bike_id":"b1137e6b-81d0-40b7-9665-59adf565711f","system_id":"levelo_inurba_marseille","lat":43.29048,"lon":5.35906,"is_reserved":false,"is_disabled":false,"rental_uris":{"android":"levelo://app?vid=b1137e6b-81d0-40b7-9665-59adf565711f","ios":"levelo://app?vid=b1137e6b-81d0-40b7-9665-59adf565711f"},"vehicle_type_id":"4","last_reported":1730549748,"current_range_meters":16800,"station_id":"ce4bha92rcd13ifvqeg0","pricing_plan_id":"cebpf4jnsgd1na2vs0mg"},{"bike_id":"b8fe4ce4-f062-4869-98e0-f775099be18c","system_id":"levelo_inurba_marseille","lat":43.31223,"lon":5.36862,"is_reserved":false,"is_disabled":false,"rental_uris":{"android":"levelo://app?vid=b8fe4ce4-f062-4869-98e0-f775099be18c","ios":"levelo://app?vid=b8fe4ce4-f062-4869-98e0-f775099be18c"},"vehicle_type_id":"4","last_reported":1730549748,"current_range_meters":38800,"station_id":"ce4bgl92rcd13ifvqbq0","pricing_plan_id":"cebpf4jnsgd1na2vs0mg"},{"bike_id":"27de0618-a446-415f-91a8-bb4053a4a8a1","system_id":"levelo_inurba_marseille","lat":43.27678,"lon":5.38885,"is_reserved":false,"is_disabled":false,"rental_uris":{"android":"levelo://app?vid=27de0618-a446-415f-91a8-bb4053a4a8a1","ios":"levelo://app?vid=27de0618-a446-415f-91a8-bb4053a4a8a1"},"vehicle_type_id":"4","last_reported":1730549748,"current_range_meters":12800,"station_id":"ce4bhi12rcd13ifvqfo0","pricing_plan_id":"cebpf4jnsgd1na2vs0mg"},{"bike_id":"6138abd0-b466-490e-a644-65fccf8d5888","system_id":"levelo_inurba_marseille","lat":43.30543,"lon":5.3655,"is_reserved":false,"is_disabled":false,"rental_uris":{"android":"levelo://app?vid=6138abd0-b466-490e-a644-65fccf8d5888","ios":"levelo://app?vid=6138abd0-b466-490e-a644-65fccf8d5888"},"vehicle_type_id":"4","last_reported":1730549748,"current_range_meters":4400,"station_id":"ce4bgs12rcd13ifvqcag","pricing_plan_id":"cebpf4jnsgd1na2vs0mg"},{"bike_id":"791f2056-b5d5-4852-bf8c-7f9208baa2cb","system_id":"levelo_inurba_marseille","lat":43.3204,"lon":5.41569,"is_reserved":false,"is_disabled":false,"rental_uris":{"android":"levelo://app?vid=791f2056-b5d5-4852-bf8c-7f9208baa2cb","ios":"levelo://app?vid=791f2056-b5d5-4852-bf8c-7f9208baa2cb"},"vehicle_type_id":"4","last_reported":1730549748,"current_range_meters":38000,"station_id":"ce4bhq92rcd13ifvqhkg","pricing_plan_id":"cebpf4jnsgd1na2vs0mg"},{"bike_id":"00e70a20-c568-4fa0-a424-a40454a7bfa5","system_id":"levelo_inurba_marseille","lat":43.32366,"lon":5.38879,"is_reserved":false,"is_disabled":false,"rental_uris":{"android":"levelo://app?vid=00e70a20-c568-4fa0-a424-a40454a7bfa5","ios":"levelo://app?vid=00e70a20-c568-4fa0-a424-a40454a7bfa5"},"vehicle_type_id":"4","last_reported":1730549748,"current_range_meters":8400,"station_id":"ce4bhqp2rcd13ifvqhog","pricing_plan_id":"cebpf4jnsgd1na2vs0mg"},{"bike_id":"e2c57d61-a2c7-477d-8a68-3f7aff0d253d","system_id":"levelo_inurba_marseille","lat":43.32038,"lon":5.41556,"is_reserved":false,"is_disabled":false,"rental_uris":{"android":"levelo://app?vid=e2c57d61-a2c7-477d-8a68-3f7aff0d253d","ios":"levelo://app?vid=e2c57d61-a2c7-477d-8a68-3f7aff0d253d"},"vehicle_type_id":"4","last_reported":1730549748,"current_range_meters":37600,"station_id":"ce4bhq92rcd13ifvqhkg","pricing_plan_id":"cebpf4jnsgd1na2vs0mg"},{"bike_id":"76391c0b-a149-4e5d-96fb-1e71c79f5102","system_id":"levelo_inurba_marseille","lat":43.25492,"lon":5.37653,"is_reserved":false,"is_disabled":false,"rental_uris":{"android":"levelo://app?vid=76391c0b-a149-4e5d-96fb-1e71c79f5102","ios":"levelo://app?vid=76391c0b-a149-4e5d-96fb-1e71c79f5102"},"vehicle_type_id":"4","last_reported":1730549748,"current_range_meters":28800,"station_id":"ce4bhh12rcd13ifvqff0","pricing_plan_id":"cebpf4jnsgd1na2vs0mg"},{"bike_id":"b66ece50-bc4f-4a5d-b2a3-ef5f9aba4661","system_id":"levelo_inurba_marseille","lat":43.29269,"lon":5.36838,"is_reserved":false,"is_disabled":false,"rental_uris":{"android":"levelo://app?vid=b66ece50-bc4f-4a5d-b2a3-ef5f9aba4661","ios":"levelo://app?vid=b66ece50-bc4f-4a5d-b2a3-ef5f9aba4661"},"vehicle_type_id":"4","last_reported":1730549748,"current_range_meters":38800,"station_id":"ce4bhbp2rcd13ifvqesg","pricing_plan_id":"cebpf4jnsgd1na2vs0mg"},{"bike_id":"be3e39dd-ba2b-4ec9-87c0-24eda0d85e9d","system_id":"levelo_inurba_marseille","lat":43.2737,"lon":5.3626,"is_reserved":false,"is_disabled":false,"rental_uris":{"android":"levelo://app?vid=be3e39dd-ba2b-4ec9-87c0-24eda0d85e9d","ios":"levelo://app?vid=be3e39dd-ba2b-4ec9-87c0-24eda0d85e9d"},"vehicle_type_id":"4","last_reported":1730549748,"current_range_meters":22800,"station_id":"ce4bhbh2rcd13ifvqeo0","pricing_plan_id":"cebpf4jnsgd1na2vs0mg"},{"bike_id":"10329abd-8e5d-414b-9705-0bfc1ab5a2e3","system_id":"levelo_inurba_marseille","lat":43.29303,"lon":5.3746,"is_reserved":false,"is_disabled":false,"rental_uris":{"android":"levelo://app?vid=10329abd-8e5d-414b-9705-0bfc1ab5a2e3","ios":"levelo://app?vid=10329abd-8e5d-414b-9705-0bfc1ab5a2e3"},"vehicle_type_id":"4","last_reported":1730549748,"current_range_meters":30000,"station_id":"ce4bgi12rcd13ifvqb70","pricing_plan_id":"cebpf4jnsgd1na2vs0mg"},{"bike_id":"dd85fdee-7b4e-41ea-9ba5-3da808cd5ca6","system_id":"levelo_inurba_marseille","lat":43.22933,"lon":5.35375,"is_reserved":false,"is_disabled":false,"rental_uris":{"android":"levelo://app?vid=dd85fdee-7b4e-41ea-9ba5-3da808cd5ca6","ios":"levelo://app?vid=dd85fdee-7b4e-41ea-9ba5-3da808cd5ca6"},"vehicle_type_id":"4","last_reported":1730549748,"current_range_meters":36000,"station_id":"cpo3532slgdg3j2ikp40","pricing_plan_id":"cebpf4jnsgd1na2vs0mg"},{"bike_id":"513d14f4-5afd-4b94-9007-d500e8f033d7","system_id":"levelo_inurba_marseille","lat":43.24386,"lon":5.37047,"is_reserved":false,"is_disabled":false,"rental_uris":{"android":"levelo://app?vid=513d14f4-5afd-4b94-9007-d500e8f033d7","ios":"levelo://app?vid=513d14f4-5afd-4b94-9007-d500e8f033d7"},"vehicle_type_id":"4","last_reported":1730549748,"current_range_meters":26000,"station_id":"ce4bhhh2rcd13ifvqfk0","pricing_plan_id":"cebpf4jnsgd1na2vs0mg"},{"bike_id":"9bc5a1dc-3218-47a7-8335-cfe11f3ae79c","system_id":"levelo_inurba_marseille","lat":43.29531,"lon":5.37492,"is_reserved":false,"is_disabled":false,"rental_uris":{"android":"levelo://app?vid=9bc5a1dc-3218-47a7-8335-cfe11f3ae79c","ios":"levelo://app?vid=9bc5a1dc-3218-47a7-8335-cfe11f3ae79c"},"vehicle_type_id":"4","last_reported":1730549748,"current_range_meters":38400,"station_id":"ce4bgkp2rcd13ifvqbmg","pricing_plan_id":"cebpf4jnsgd1na2vs0mg"},{"bike_id":"8057a42a-f8ce-4fdc-978e-e7b8a2aaa700","system_id":"levelo_inurba_marseille","lat":43.23194,"lon":5.35549,"is_reserved":false,"is_disabled":false,"rental_uris":{"android":"levelo://app?vid=8057a42a-f8ce-4fdc-978e-e7b8a2aaa700","ios":"levelo://app?vid=8057a42a-f8ce-4fdc-978e-e7b8a2aaa700"},"vehicle_type_id":"4","last_reported":1730549748,"current_range_meters":25200,"station_id":"ce4bhu92rcd13ifvqi70","pricing_plan_id":"cebpf4jnsgd1na2vs0mg"},{"bike_id":"67c105b9-496e-4638-9b26-5787e92b93b9","system_id":"levelo_inurba_marseille","lat":43.31704,"lon":5.37756,"is_reserved":false,"is_disabled":false,"rental_uris":{"android":"levelo://app?vid=67c105b9-496e-4638-9b26-5787e92b93b9","ios":"levelo://app?vid=67c105b9-496e-4638-9b26-5787e92b93b9"},"vehicle_type_id":"4","last_reported":1730549748,"current_range_meters":27600,"station_id":"ce4bgth2rcd13ifvqch0","pricing_plan_id":"cebpf4jnsgd1na2vs0mg"},{"bike_id":"1026a434-9ded-4f53-8e37-be8cee0c67db","system_id":"levelo_inurba_marseille","lat":43.29371,"lon":5.37854,"is_reserved":false,"is_disabled":false,"rental_uris":{"android":"levelo://app?vid=1026a434-9ded-4f53-8e37-be8cee0c67db","ios":"levelo://app?vid=1026a434-9ded-4f53-8e37-be8cee0c67db"},"vehicle_type_id":"4","last_reported":1730549748,"current_range_meters":38800,"station_id":"ce4bgjh2rcd13ifvqbf0","pricing_plan_id":"cebpf4jnsgd1na2vs0mg"},{"bike_id":"39e62dc8-e45d-448d-825e-c7d742bfa64b","system_id":"levelo_inurba_marseille","lat":43.25118,"lon":5.40312,"is_reserved":false,"is_disabled":false,"rental_uris":{"android":"levelo://app?vid=39e62dc8-e45d-448d-825e-c7d742bfa64b","ios":"levelo://app?vid=39e62dc8-e45d-448d-825e-c7d742bfa64b"},"vehicle_type_id":"4","last_reported":1730549748,"current_range_meters":36000,"station_id":"ce4bhlh2rcd13ifvqgig","pricing_plan_id":"cebpf4jnsgd1na2vs0mg"},{"bike_id":"61faeb6a-020e-4969-91da-9fe095228391","system_id":"levelo_inurba_marseille","lat":43.29306,"lon":5.37453,"is_reserved":false,"is_disabled":false,"rental_uris":{"android":"levelo://app?vid=61faeb6a-020e-4969-91da-9fe095228391","ios":"levelo://app?vid=61faeb6a-020e-4969-91da-9fe095228391"},"vehicle_type_id":"4","last_reported":1730549748,"current_range_meters":35600,"station_id":"ce4bgi12rcd13ifvqb70","pricing_plan_id":"cebpf4jnsgd1na2vs0mg"},{"bike_id":"a735b227-40f7-47d2-af67-3f184a32cb22","system_id":"levelo_inurba_marseille","lat":43.3009,"lon":5.39052,"is_reserved":false,"is_disabled":false,"rental_uris":{"android":"levelo://app?vid=a735b227-40f7-47d2-af67-3f184a32cb22","ios":"levelo://app?vid=a735b227-40f7-47d2-af67-3f184a32cb22"},"vehicle_type_id":"4","last_reported":1730549748,"current_range_meters":12800,"station_id":"ce4bh192rcd13ifvqdb0","pricing_plan_id":"cebpf4jnsgd1na2vs0mg"},{"bike_id":"f982ff2f-3119-4e87-b92d-66111e9f1d0a","system_id":"levelo_inurba_marseille","lat":43.29574,"lon":5.37519,"is_reserved":false,"is_disabled":false,"rental_uris":{"android":"levelo://app?vid=f982ff2f-3119-4e87-b92d-66111e9f1d0a","ios":"levelo://app?vid=f982ff2f-3119-4e87-b92d-66111e9f1d0a"},"vehicle_type_id":"4","last_reported":1730549748,"current_range_meters":38800,"station_id":"ce4bgh92rcd13ifvqb50","pricing_plan_id":"cebpf4jnsgd1na2vs0mg"},{"bike_id":"f6d1eaf1-10f9-4cec-be54-3848e3e5a665","system_id":"levelo_inurba_marseille","lat":43.23155,"lon":5.43703,"is_reserved":false,"is_disabled":false,"rental_uris":{"android":"levelo://app?vid=f6d1eaf1-10f9-4cec-be54-3848e3e5a665","ios":"levelo://app?vid=f6d1eaf1-10f9-4cec-be54-3848e3e5a665"},"vehicle_type_id":"4","last_reported":1730549748,"current_range_meters":9600,"station_id":"ce4bhmp2rcd13ifvqgog","pricing_plan_id":"cebpf4jnsgd1na2vs0mg"},{"bike_id":"41d47d69-979b-4480-8fb6-135de4b1e8ff","system_id":"levelo_inurba_marseille","lat":43.25718,"lon":5.41113,"is_reserved":false,"is_disabled":false,"rental_uris":{"android":"levelo://app?vid=41d47d69-979b-4480-8fb6-135de4b1e8ff","ios":"levelo://app?vid=41d47d69-979b-4480-8fb6-135de4b1e8ff"},"vehicle_type_id":"4","last_reported":1730549748,"current_range_meters":38800,"station_id":"ce4bhkp2rcd13ifvqgd0","pricing_plan_id":"cebpf4jnsgd1na2vs0mg"},{"bike_id":"4a9fb076-52cf-4f3a-a4dc-4536b05804cd","system_id":"levelo_inurba_marseille","lat":43.28264,"lon":5.35067,"is_reserved":false,"is_disabled":false,"rental_uris":{"android":"levelo://app?vid=4a9fb076-52cf-4f3a-a4dc-4536b05804cd","ios":"levelo://app?vid=4a9fb076-52cf-4f3a-a4dc-4536b05804cd"},"vehicle_type_id":"4","last_reported":1730549748,"current_range_meters":38000,"station_id":"ce4bhbp2rcd13ifvqerg","pricing_plan_id":"cebpf4jnsgd1na2vs0mg"},{"bike_id":"e3e33b23-4ac1-44a9-ae19-9b3297840940","system_id":"levelo_inurba_marseille","lat":43.27325,"lon":5.39082,"is_reserved":false,"is_disabled":false,"rental_uris":{"android":"levelo://app?vid=e3e33b23-4ac1-44a9-ae19-9b3297840940","ios":"levelo://app?vid=e3e33b23-4ac1-44a9-ae19-9b3297840940"},"vehicle_type_id":"4","last_reported":1730549748,"current_range_meters":35600,"station_id":"ce4bhgp2rcd13ifvqfe0","pricing_plan_id":"cebpf4jnsgd1na2vs0mg"},{"bike_id":"36028f32-9a92-4268-84c7-c569b0748e63","system_id":"levelo_inurba_marseille","lat":43.24649,"lon":5.38889,"is_reserved":false,"is_disabled":false,"rental_uris":{"android":"levelo://app?vid=36028f32-9a92-4268-84c7-c569b0748e63","ios":"levelo://app?vid=36028f32-9a92-4268-84c7-c569b0748e63"},"vehicle_type_id":"4","last_reported":1730549748,"current_range_meters":16000,"station_id":"ce4bhg12rcd13ifvqf60","pricing_plan_id":"cebpf4jnsgd1na2vs0mg"},{"bike_id":"2a8675e3-1fc3-4573-ab51-8a70071b4404","system_id":"levelo_inurba_marseille","lat":43.29595,"lon":5.38093,"is_reserved":false,"is_disabled":false,"rental_uris":{"android":"levelo://app?vid=2a8675e3-1fc3-4573-ab51-8a70071b4404","ios":"levelo://app?vid=2a8675e3-1fc3-4573-ab51-8a70071b4404"},"vehicle_type_id":"4","last_reported":1730549748,"current_range_meters":30400,"station_id":"ce4bgl12rcd13ifvqbo0","pricing_plan_id":"cebpf4jnsgd1na2vs0mg"},{"bike_id":"b8c4b104-f130-4889-80a7-2d5b5f02035d","system_id":"levelo_inurba_marseille","lat":43.28412,"lon":5.34982,"is_reserved":false,"is_disabled":false,"rental_uris":{"android":"levelo://app?vid=b8c4b104-f130-4889-80a7-2d5b5f02035d","ios":"levelo://app?vid=b8c4b104-f130-4889-80a7-2d5b5f02035d"},"vehicle_type_id":"4","last_reported":1730549748,"current_range_meters":36400,"station_id":"ce4bhbh2rcd13ifvqepg","pricing_plan_id":"cebpf4jnsgd1na2vs0mg"},{"bike_id":"7277536f-fdff-4c4d-bd3f-063962ce583f","system_id":"levelo_inurba_marseille","lat":43.29898,"lon":5.4366,"is_reserved":false,"is_disabled":false,"rental_uris":{"android":"levelo://app?vid=7277536f-fdff-4c4d-bd3f-063962ce583f","ios":"levelo://app?vid=7277536f-fdff-4c4d-bd3f-063962ce583f"},"vehicle_type_id":"4","last_reported":1730549748,"current_range_meters":28400,"station_id":"ce4bhpp2rcd13ifvqhfg","pricing_plan_id":"cebpf4jnsgd1na2vs0mg"},{"bike_id":"7e718cb7-1ba0-4b72-87fd-0b1b71595eff","system_id":"levelo_inurba_marseille","lat":43.28466,"lon":5.35878,"is_reserved":false,"is_disabled":false,"rental_uris":{"android":"levelo://app?vid=7e718cb7-1ba0-4b72-87fd-0b1b71595eff","ios":"levelo://app?vid=7e718cb7-1ba0-4b72-87fd-0b1b71595eff"},"vehicle_type_id":"4","last_reported":1730549748,"current_range_meters":38800,"station_id":"ce4bhah2rcd13ifvqei0","pricing_plan_id":"cebpf4jnsgd1na2vs0mg"},{"bike_id":"6926aec2-5463-4aab-aab2-e3cabb3d6fb8","system_id":"levelo_inurba_marseille","lat":43.29571,"lon":5.39978,"is_reserved":false,"is_disabled":false,"rental_uris":{"android":"levelo://app?vid=6926aec2-5463-4aab-aab2-e3cabb3d6fb8","ios":"levelo://app?vid=6926aec2-5463-4aab-aab2-e3cabb3d6fb8"},"vehicle_type_id":"4","last_reported":1730549748,"current_range_meters":30800,"station_id":"ce4bh312rcd13ifvqdj0","pricing_plan_id":"cebpf4jnsgd1na2vs0mg"},{"bike_id":"54c7ae09-f119-4883-bd11-378c5bbef541","system_id":"levelo_inurba_marseille","lat":43.26949,"lon":5.38627,"is_reserved":false,"is_disabled":false,"rental_uris":{"android":"levelo://app?vid=54c7ae09-f119-4883-bd11-378c5bbef541","ios":"levelo://app?vid=54c7ae09-f119-4883-bd11-378c5bbef541"},