{"last_updated":1701677406,"ttl":30,"version":"2.2","data":{"bikes":[{"bike_id":"eaf80ade-1f68-4fe7-b62d-1e9bba26c62e","system_id":"levelo_inurba_marseille","lat":43.313391,"lon":5.36706,"is_reserved":false,"is_disabled":false,"rental_uris":{"android":"levelo://app?vid=eaf80ade-1f68-4fe7-b62d-1e9bba26c62e","ios":"levelo://app?vid=eaf80ade-1f68-4fe7-b62d-1e9bba26c62e"},"vehicle_type_id":"4","last_reported":1701677407,"current_range_meters":15200,"station_id":"ce4bgr92rcd13ifvqc6g","pricing_plan_id":"free"},{"bike_id":"5b1b5bed-ca5a-414c-9728-36e25ea4caa7","system_id":"levelo_inurba_marseille","lat":43.31341,"lon":5.367098,"is_reserved":false,"is_disabled":false,"rental_uris":{"android":"levelo://app?vid=5b1b5bed-ca5a-414c-9728-36e25ea4caa7","ios":"levelo://app?vid=5b1b5bed-ca5a-414c-9728-36e25ea4caa7"},"vehicle_type_id":"4","last_reported":1701677407,"current_range_meters":30000,"station_id":"ce4bgr92rcd13ifvqc6g","pricing_plan_id":"free"},{"bike_id":"9fd2c2a3-9211-4206-bfa3-f779f0a0bb0a","system_id":"levelo_inurba_marseille","lat":43.31341,"lon":5.367098,"is_reserved":false,"is_disabled":false,"rental_uris":{"android":"levelo://app?vid=9fd2c2a3-9211-4206-bfa3-f779f0a0bb0a","ios":"levelo://app?vid=9fd2c2a3-9211-4206-bfa3-f779f0a0bb0a"},"vehicle_type_id":"4","last_reported":1701677407,"current_range_meters":30800,"station_id":"ce4bgr92rcd13ifvqc6g","pricing_plan_id":"free"},{"bike_id":"549e12a1-62c9-4bbb-9a3a-a61e019544aa","system_id":"levelo_inurba_marseille","lat":43.313391,"lon":5.36706,"is_reserved":false,"is_disabled":false,"rental_uris":{"android":"levelo://app?vid=549e12a1-62c9-4bbb-9a3a-a61e019544aa","ios":"levelo://app?vid=549e12a1-62c9-4bbb-9a3a-a61e019544aa"},"vehicle_type_id":"4","last_reported":1701677407,"current_range_meters":31200,"station_id":"ce4bgr92rcd13ifvqc6g","pricing_plan_id":"free"},{"bike_id":"f6c69f67-bcc4-4ecc-9133-ea97d071d7ee","system_id":"levelo_inurba_marseille","lat":43.313391,"lon":5.36706,"is_reserved":false,"is_disabled":false,"rental_uris":{"android":"levelo://app?vid=f6c69f67-bcc4-4ecc-9133-ea97d071d7ee","ios":"levelo://app?vid=f6c69f67-bcc4-4ecc-9133-ea97d071d7ee"},"vehicle_type_id":"4","last_reported":1701677407,"current_range_meters":9200,"station_id":"ce4bgr92rcd13ifvqc6g","pricing_plan_id":"free"},{"bike_id":"0a256dd4-efc7-41da-a03e-0f8cf2240442","system_id":"levelo_inurba_marseille","lat":43.31341,"lon":5.367098,"is_reserved":false,"is_disabled":false,"rental_uris":{"android":"levelo://app?vid=0a256dd4-efc7-41da-a03e-0f8cf2240442","ios":"levelo://app?vid=0a256dd4-efc7-41da-a03e-0f8cf2240442"},"vehicle_type_id":"4","last_reported":1701677407,"current_range_meters":19600,"station_id":"ce4bgr92rcd13ifvqc6g","pricing_plan_id":"free"},{"bike_id":"93bc443b-95f1-4e8b-aa1e-4ae50e6b89d7","system_id":"levelo_inurba_marseille","lat":43.313391,"lon":5.36706,"is_reserved":false,"is_disabled":false,"rental_uris":{"android":"levelo://app?vid=93bc443b-95f1-4e8b-aa1e-4ae50e6b89d7","ios":"levelo://app?vid=93bc443b-95f1-4e8b-aa1e-4ae50e6b89d7"},"vehicle_type_id":"4","last_reported":1701677407,"current_range_meters":20800,"station_id":"ce4bgr92rcd13ifvqc6g","pricing_plan_id":"free"},{"bike_id":"329896f5-e6d6-4f46-ba59-d0c444e5a534","system_id":"levelo_inurba_marseille","lat":43.313391,"lon":5.36706,"is_reserved":false,"is_disabled":false,"rental_uris":{"android":"levelo://app?vid=329896f5-e6d6-4f46-ba59-d0c444e5a534","ios":"levelo://app?vid=329896f5-e6d6-4f46-ba59-d0c444e5a534"},"vehicle_type_id":"4","last_reported":1701677407,"current_range_meters":16400,"station_id":"ce4bgr92rcd13ifvqc6g","pricing_plan_id":"free"},{"bike_id":"0637ab4b-796f-4481-bf55-db78446d9143","system_id":"levelo_inurba_marseille","lat":43.313391,"lon":5.36706,"is_reserved":false,"is_disabled":false,"rental_uris":{"android":"levelo://app?vid=0637ab4b-796f-4481-bf55-db78446d9143","ios":"levelo://app?vid=0637ab4b-796f-4481-bf55-db78446d9143"},"vehicle_type_id":"4","last_reported":1701677407,"current_range_meters":14800,"station_id":"ce4bgr92rcd13ifvqc6g","pricing_plan_id":"free"},{"bike_id":"7d010324-72b9-4171-b0f6-ae456597a9b2","system_id":"levelo_inurba_marseille","lat":43.31341,"lon":5.367098,"is_reserved":false,"is_disabled":false,"rental_uris":{"android":"levelo://app?vid=7d010324-72b9-4171-b0f6-ae456597a9b2","ios":"levelo://app?vid=7d010324-72b9-4171-b0f6-ae456597a9b2"},"vehicle_type_id":"4","last_reported":1701677407,"current_range_meters":25200,"station_id":"ce4bgr92rcd13ifvqc6g","pricing_plan_id":"free"},{"bike_id":"1d1266c1-f156-4ba9-8684-af505cad0dc4","system_id":"levelo_inurba_marseille","lat":43.31341,"lon":5.367098,"is_reserved":false,"is_disabled":false,"rental_uris":{"android":"levelo://app?vid=1d1266c1-f156-4ba9-8684-af505cad0dc4","ios":"levelo://app?vid=1d1266c1-f156-4ba9-8684-af505cad0dc4"},"vehicle_type_id":"4","last_reported":1701677407,"current_range_meters":9600,"station_id":"ce4bgr92rcd13ifvqc6g","pricing_plan_id":"free"},{"bike_id":"285c93d8-a911-4b68-b9ca-c285ac9c9041","system_id":"levelo_inurba_marseille","lat":43.312239,"lon":5.368562,"is_reserved":false,"is_disabled":false,"rental_uris":{"android":"levelo://app?vid=285c93d8-a911-4b68-b9ca-c285ac9c9041","ios":"levelo://app?vid=285c93d8-a911-4b68-b9ca-c285ac9c9041"},"vehicle_type_id":"4","last_reported":1701677407,"current_range_meters":2000,"station_id":"ce4bgl92rcd13ifvqbq0","pricing_plan_id":"free"},{"bike_id":"8e9566f4-bb76-47ca-92f2-69cf9756d197","system_id":"levelo_inurba_marseille","lat":43.31218,"lon":5.3686,"is_reserved":false,"is_disabled":false,"rental_uris":{"android":"levelo://app?vid=8e9566f4-bb76-47ca-92f2-69cf9756d197","ios":"levelo://app?vid=8e9566f4-bb76-47ca-92f2-69cf9756d197"},"vehicle_type_id":"4","last_reported":1701677407,"current_range_meters":15200,"station_id":"ce4bgl92rcd13ifvqbq0","pricing_plan_id":"free"},{"bike_id":"8a6f920a-a5f7-4e92-a863-084352097a50","system_id":"levelo_inurba_marseille","lat":43.312239,"lon":5.368562,"is_reserved":false,"is_disabled":false,"rental_uris":{"android":"levelo://app?vid=8a6f920a-a5f7-4e92-a863-084352097a50","ios":"levelo://app?vid=8a6f920a-a5f7-4e92-a863-084352097a50"},"vehicle_type_id":"4","last_reported":1701677407,"current_range_meters":23600,"station_id":"ce4bgl92rcd13ifvqbq0","pricing_plan_id":"free"},{"bike_id":"49971ac8-eb05-4661-8b00-5548faed97d1","system_id":"levelo_inurba_marseille","lat":43.312239,"lon":5.368562,"is_reserved":false,"is_disabled":false,"rental_uris":{"android":"levelo://app?vid=49971ac8-eb05-4661-8b00-5548faed97d1","ios":"levelo://app?vid=49971ac8-eb05-4661-8b00-5548faed97d1"},"vehicle_type_id":"4","last_reported":1701677407,"current_range_meters":22400,"station_id":"ce4bgl92rcd13ifvqbq0","pricing_plan_id":"free"},{"bike_id":"320857b5-a322-4f83-8ab0-a1dcf3ff272c","system_id":"levelo_inurba_marseille","lat":43.309076,"lon":5.368465,"is_reserved":false,"is_disabled":false,"rental_uris":{"android":"levelo://app?vid=320857b5-a322-4f83-8ab0-a1dcf3ff272c","ios":"levelo://app?vid=320857b5-a322-4f83-8ab0-a1dcf3ff272c"},"vehicle_type_id":"4","last_reported":1701677407,"current_range_meters":30400,"station_id":"ce4bgn92rcd13ifvqbvg","pricing_plan_id":"free"},{"bike_id":"26692493-2092-4545-8734-a8463f83838c","system_id":"levelo_inurba_marseille","lat":43.309076,"lon":5.368465,"is_reserved":false,"is_disabled":false,"rental_uris":{"android":"levelo://app?vid=26692493-2092-4545-8734-a8463f83838c","ios":"levelo://app?vid=26692493-2092-4545-8734-a8463f83838c"},"vehicle_type_id":"4","last_reported":1701677407,"current_range_meters":28000,"station_id":"ce4bgn92rcd13ifvqbvg","pricing_plan_id":"free"},{"bike_id":"837b76bb-ab5e-4983-950d-b531751f250d","system_id":"levelo_inurba_marseille","lat":43.309076,"lon":5.368465,"is_reserved":false,"is_disabled":false,"rental_uris":{"android":"levelo://app?vid=837b76bb-ab5e-4983-950d-b531751f250d","ios":"levelo://app?vid=837b76bb-ab5e-4983-950d-b531751f250d"},"vehicle_type_id":"4","last_reported":1701677407,"current_range_meters":22800,"station_id":"ce4bgn92rcd13ifvqbvg","pricing_plan_id":"free"},{"bike_id":"cfd17f12-bb3c-4c24-bef7-085990ad9ce2","system_id":"levelo_inurba_marseille","lat":43.309076,"lon":5.368465,"is_reserved":false,"is_disabled":false,"rental_uris":{"android":"levelo://app?vid=cfd17f12-bb3c-4c24-bef7-085990ad9ce2","ios":"levelo://app?vid=cfd17f12-bb3c-4c24-bef7-085990ad9ce2"},"vehicle_type_id":"4","last_reported":1701677407,"current_range_meters":18800,"station_id":"ce4bgn92rcd13ifvqbvg","pricing_plan_id":"free"},{"bike_id":"6c84a195-8bf2-4490-a4e2-48550505377d","system_id":"levelo_inurba_marseille","lat":43.309076,"lon":5.368465,"is_reserved":false,"is_disabled":false,"rental_uris":{"android":"levelo://app?vid=6c84a195-8bf2-4490-a4e2-48550505377d","ios":"levelo://app?vid=6c84a195-8bf2-4490-a4e2-48550505377d"},"vehicle_type_id":"4","last_reported":1701677407,"current_range_meters":12800,"station_id":"ce4bgn92rcd13ifvqbvg","pricing_plan_id":"free"},{"bike_id":"4201e1d5-a13b-45f7-85c8-47c917f6277f","system_id":"levelo_inurba_marseille","lat":43.309076,"lon":5.368465,"is_reserved":false,"is_disabled":false,"rental_uris":{"android":"levelo://app?vid=4201e1d5-a13b-45f7-85c8-47c917f6277f","ios":"levelo://app?vid=4201e1d5-a13b-45f7-85c8-47c917f6277f"},"vehicle_type_id":"4","last_reported":1701677407,"current_range_meters":24000,"station_id":"ce4bgn92rcd13ifvqbvg","pricing_plan_id":"free"},{"bike_id":"567f62f8-7be0-40fb-b015-e330b3255b7c","system_id":"levelo_inurba_marseille","lat":43.309076,"lon":5.368465,"is_reserved":false,"is_disabled":false,"rental_uris":{"android":"levelo://app?vid=567f62f8-7be0-40fb-b015-e330b3255b7c","ios":"levelo://app?vid=567f62f8-7be0-40fb-b015-e330b3255b7c"},"vehicle_type_id":"4","last_reported":1701677407,"current_range_meters":11600,"station_id":"ce4bgn92rcd13ifvqbvg","pricing_plan_id":"free"},{"bike_id":"b7f340b6-3954-4fa4-b74c-e384fd36849f","system_id":"levelo_inurba_marseille","lat":43.309076,"lon":5.368465,"is_reserved":false,"is_disabled":false,"rental_uris":{"android":"levelo://app?vid=b7f340b6-3954-4fa4-b74c-e384fd36849f","ios":"levelo://app?vid=b7f340b6-3954-4fa4-b74c-e384fd36849f"},"vehicle_type_id":"4","last_reported":1701677407,"current_range_meters":22800,"station_id":"ce4bgn92rcd13ifvqbvg","pricing_plan_id":"free"},{"bike_id":"bd033ba0-9720-4c19-9041-bbea7981be93","system_id":"levelo_inurba_marseille","lat":43.309039,"lon":5.371797,"is_reserved":false,"is_disabled":false,"rental_uris":{"android":"levelo://app?vid=bd033ba0-9720-4c19-9041-bbea7981be93","ios":"levelo://app?vid=bd033ba0-9720-4c19-9041-bbea7981be93"},"vehicle_type_id":"4","last_reported":1701677407,"current_range_meters":2800,"station_id":"ce4bguh2rcd13ifvqckg","pricing_plan_id":"free"},{"bike_id":"baa1ddcc-7c38-4f7d-89ac-ac0924fe5606","system_id":"levelo_inurba_marseille","lat":43.305714,"lon":5.365633,"is_reserved":false,"is_disabled":false,"rental_uris":{"android":"levelo://app?vid=baa1ddcc-7c38-4f7d-89ac-ac0924fe5606","ios":"levelo://app?vid=baa1ddcc-7c38-4f7d-89ac-ac0924fe5606"},"vehicle_type_id":"4","last_reported":1701677407,"current_range_meters":23600,"station_id":"ce4bgs12rcd13ifvqcag","pricing_plan_id":"free"},{"bike_id":"d8599dbf-851d-4f27-bfa9-38e0fffd04c4","system_id":"levelo_inurba_marseille","lat":43.305368,"lon":5.367343,"is_reserved":false,"is_disabled":false,"rental_uris":{"android":"levelo://app?vid=d8599dbf-851d-4f27-bfa9-38e0fffd04c4","ios":"levelo://app?vid=d8599dbf-851d-4f27-bfa9-38e0fffd04c4"},"vehicle_type_id":"4","last_reported":1701677407,"current_range_meters":24800,"station_id":"ce4bgrp2rcd13ifvqc9g","pricing_plan_id":"free"},{"bike_id":"d274e0d8-1fc4-4058-8090-e9238251a36f","system_id":"levelo_inurba_marseille","lat":43.305368,"lon":5.367343,"is_reserved":false,"is_disabled":false,"rental_uris":{"android":"levelo://app?vid=d274e0d8-1fc4-4058-8090-e9238251a36f","ios":"levelo://app?vid=d274e0d8-1fc4-4058-8090-e9238251a36f"},"vehicle_type_id":"4","last_reported":1701677407,"current_range_meters":12400,"station_id":"ce4bgrp2rcd13ifvqc9g","pricing_plan_id":"free"},{"bike_id":"f25d3ec8-5180-444a-af8d-e8a66bc108e7","system_id":"levelo_inurba_marseille","lat":43.305714,"lon":5.365633,"is_reserved":false,"is_disabled":false,"rental_uris":{"android":"levelo://app?vid=f25d3ec8-5180-444a-af8d-e8a66bc108e7","ios":"levelo://app?vid=f25d3ec8-5180-444a-af8d-e8a66bc108e7"},"vehicle_type_id":"4","last_reported":1701677407,"current_range_meters":19200,"station_id":"ce4bgs12rcd13ifvqcag","pricing_plan_id":"free"},{"bike_id":"e913f328-1e31-4c22-bd87-f809ea246de4","system_id":"levelo_inurba_marseille","lat":43.317168,"lon":5.376883,"is_reserved":false,"is_disabled":false,"rental_uris":{"android":"levelo://app?vid=e913f328-1e31-4c22-bd87-f809ea246de4","ios":"levelo://app?vid=e913f328-1e31-4c22-bd87-f809ea246de4"},"vehicle_type_id":"4","last_reported":1701677407,"current_range_meters":0,"station_id":"","pricing_plan_id":"free"},{"bike_id":"fb6fd937-527b-4585-9058-0dfdc6436ac8","system_id":"levelo_inurba_marseille","lat":43.31351,"lon":5.37909,"is_reserved":false,"is_disabled":false,"rental_uris":{"android":"levelo://app?vid=fb6fd937-527b-4585-9058-0dfdc6436ac8","ios":"levelo://app?vid=fb6fd937-527b-4585-9058-0dfdc6436ac8"},"vehicle_type_id":"4","last_reported":1701677407,"current_range_meters":14800,"station_id":"","pricing_plan_id":"free"},{"bike_id":"5d597ddc-1808-4b9b-82bd-5e6a70aefaca","system_id":"levelo_inurba_marseille","lat":43.32045,"lon":5.374189,"is_reserved":false,"is_disabled":false,"rental_uris":{"android":"levelo://app?vid=5d597ddc-1808-4b9b-82bd-5e6a70aefaca","ios":"levelo://app?vid=5d597ddc-1808-4b9b-82bd-5e6a70aefaca"},"vehicle_type_id":"4","last_reported":1701677407,"current_range_meters":0,"station_id":"","pricing_plan_id":"free"},{"bike_id":"33fa7ae6-91d1-4ce4-a868-f95fce5eaedc","system_id":"levelo_inurba_marseille","lat":43.303046,"lon":5.368981,"is_reserved":false,"is_disabled":false,"rental_uris":{"android":"levelo://app?vid=33fa7ae6-91d1-4ce4-a868-f95fce5eaedc","ios":"levelo://app?vid=33fa7ae6-91d1-4ce4-a868-f95fce5eaedc"},"vehicle_type_id":"4","last_reported":1701677407,"current_range_meters":18800,"station_id":"ce4bgqh2rcd13ifvqc5g","pricing_plan_id":"free"},{"bike_id":"cffc3276-69bb-47ab-91ae-4cae2c819cef","system_id":"levelo_inurba_marseille","lat":43.305368,"lon":5.367343,"is_reserved":false,"is_disabled":false,"rental_uris":{"android":"levelo://app?vid=cffc3276-69bb-47ab-91ae-4cae2c819cef","ios":"levelo://app?vid=cffc3276-69bb-47ab-91ae-4cae2c819cef"},"vehicle_type_id":"4","last_reported":1701677407,"current_range_meters":22400,"station_id":"ce4bgrp2rcd13ifvqc9g","pricing_plan_id":"free"},{"bike_id":"28025613-47de-44a9-9d85-02ef7255d0ac","system_id":"levelo_inurba_marseille","lat":43.302784,"lon":5.377158,"is_reserved":false,"is_disabled":false,"rental_uris":{"android":"levelo://app?vid=28025613-47de-44a9-9d85-02ef7255d0ac","ios":"levelo://app?vid=28025613-47de-44a9-9d85-02ef7255d0ac"},"vehicle_type_id":"4","last_reported":1701677407,"current_range_meters":7600,"station_id":"ce4bguh2rcd13ifvqcj0","pricing_plan_id":"free"},{"bike_id":"3b23c534-749c-491e-a0ca-771f135fa974","system_id":"levelo_inurba_marseille","lat":43.301429,"lon":5.37413,"is_reserved":false,"is_disabled":false,"rental_uris":{"android":"levelo://app?vid=3b23c534-749c-491e-a0ca-771f135fa974","ios":"levelo://app?vid=3b23c534-749c-491e-a0ca-771f135fa974"},"vehicle_type_id":"4","last_reported":1701677407,"current_range_meters":20400,"station_id":"ce4bgs92rcd13ifvqcc0","pricing_plan_id":"free"},{"bike_id":"6badc687-bf4d-479f-9bb4-2e4ffcc36939","system_id":"levelo_inurba_marseille","lat":43.30143,"lon":5.37413,"is_reserved":false,"is_disabled":false,"rental_uris":{"android":"levelo://app?vid=6badc687-bf4d-479f-9bb4-2e4ffcc36939","ios":"levelo://app?vid=6badc687-bf4d-479f-9bb4-2e4ffcc36939"},"vehicle_type_id":"4","last_reported":1701677407,"current_range_meters":4800,"station_id":"ce4bgs92rcd13ifvqcc0","pricing_plan_id":"free"},{"bike_id":"2275aca5-3158-4c2c-8022-ca5d2714bc86","system_id":"levelo_inurba_marseille","lat":43.319997,"lon":5.381594,"is_reserved":false,"is_disabled":false,"rental_uris":{"android":"levelo://app?vid=2275aca5-3158-4c2c-8022-ca5d2714bc86","ios":"levelo://app?vid=2275aca5-3158-4c2c-8022-ca5d2714bc86"},"vehicle_type_id":"4","last_reported":1701677407,"current_range_meters":8400,"station_id":"ce4bhr12rcd13ifvqhpg","pricing_plan_id":"free"},{"bike_id":"fd96341d-ea65-4041-af76-bd32399cf78e","system_id":"levelo_inurba_marseille","lat":43.313571,"lon":5.384829,"is_reserved":false,"is_disabled":false,"rental_uris":{"android":"levelo://app?vid=fd96341d-ea65-4041-af76-bd32399cf78e","ios":"levelo://app?vid=fd96341d-ea65-4041-af76-bd32399cf78e"},"vehicle_type_id":"4","last_reported":1701677407,"current_range_meters":8800,"station_id":"ce4bgt92rcd13ifvqcf0","pricing_plan_id":"free"},{"bike_id":"7f21c44d-9daf-4da7-a8a2-9fdfea85c25f","system_id":"levelo_inurba_marseille","lat":43.313571,"lon":5.384829,"is_reserved":false,"is_disabled":false,"rental_uris":{"android":"levelo://app?vid=7f21c44d-9daf-4da7-a8a2-9fdfea85c25f","ios":"levelo://app?vid=7f21c44d-9daf-4da7-a8a2-9fdfea85c25f"},"vehicle_type_id":"4","last_reported":1701677407,"current_range_meters":26400,"station_id":"ce4bgt92rcd13ifvqcf0","pricing_plan_id":"free"},{"bike_id":"9fdb7f97-586d-42d2-befd-15216ba2e422","system_id":"levelo_inurba_marseille","lat":43.31183,"lon":5.38523,"is_reserved":false,"is_disabled":false,"rental_uris":{"android":"levelo://app?vid=9fdb7f97-586d-42d2-befd-15216ba2e422","ios":"levelo://app?vid=9fdb7f97-586d-42d2-befd-15216ba2e422"},"vehicle_type_id":"4","last_reported":1701677407,"current_range_meters":0,"station_id":"","pricing_plan_id":"free"},{"bike_id":"bf2c5548-c711-4169-b7de-24930a0fa534","system_id":"levelo_inurba_marseille","lat":43.299724,"lon":5.371829,"is_reserved":false,"is_disabled":false,"rental_uris":{"android":"levelo://app?vid=bf2c5548-c711-4169-b7de-24930a0fa534","ios":"levelo://app?vid=bf2c5548-c711-4169-b7de-24930a0fa534"},"vehicle_type_id":"4","last_reported":1701677407,"current_range_meters":26800,"station_id":"ce4bgr92rcd13ifvqc7g","pricing_plan_id":"free"},{"bike_id":"f0bca3bf-f6ab-478c-bd7f-aceb3596fcf7","system_id":"levelo_inurba_marseille","lat":43.299724,"lon":5.371829,"is_reserved":false,"is_disabled":false,"rental_uris":{"android":"levelo://app?vid=f0bca3bf-f6ab-478c-bd7f-aceb3596fcf7","ios":"levelo://app?vid=f0bca3bf-f6ab-478c-bd7f-aceb3596fcf7"},"vehicle_type_id":"4","last_reported":1701677407,"current_range_meters":1200,"station_id":"ce4bgr92rcd13ifvqc7g","pricing_plan_id":"free"},{"bike_id":"748d12ab-8e09-4ecd-b2d2-cbe0ea9624f6","system_id":"levelo_inurba_marseille","lat":43.298984,"lon":5.367316,"is_reserved":false,"is_disabled":false,"rental_uris":{"android":"levelo://app?vid=748d12ab-8e09-4ecd-b2d2-cbe0ea9624f6","ios":"levelo://app?vid=748d12ab-8e09-4ecd-b2d2-cbe0ea9624f6"},"vehicle_type_id":"4","last_reported":1701677407,"current_range_meters":0,"station_id":"","pricing_plan_id":"free"},{"bike_id":"4c61f1d7-b68f-424e-92b1-0e437fae88b9","system_id":"levelo_inurba_marseille","lat":43.298433,"lon":5.362774,"is_reserved":false,"is_disabled":false,"rental_uris":{"android":"levelo://app?vid=4c61f1d7-b68f-424e-92b1-0e437fae88b9","ios":"levelo://app?vid=4c61f1d7-b68f-424e-92b1-0e437fae88b9"},"vehicle_type_id":"4","last_reported":1701677407,"current_range_meters":14800,"station_id":"ce4bgpp2rcd13ifvqc3g","pricing_plan_id":"free"},{"bike_id":"08a721db-bf5d-46b3-9ba3-2a9c6c13bcf6","system_id":"levelo_inurba_marseille","lat":43.328256,"lon":5.366905,"is_reserved":false,"is_disabled":false,"rental_uris":{"android":"levelo://app?vid=08a721db-bf5d-46b3-9ba3-2a9c6c13bcf6","ios":"levelo://app?vid=08a721db-bf5d-46b3-9ba3-2a9c6c13bcf6"},"vehicle_type_id":"4","last_reported":1701677407,"current_range_meters":22000,"station_id":"","pricing_plan_id":"free"},{"bike_id":"f8284d70-c5e7-490d-9c5a-74a62dd38512","system_id":"levelo_inurba_marseille","lat":43.328371,"lon":5.366909,"is_reserved":false,"is_disabled":false,"rental_uris":{"android":"levelo://app?vid=f8284d70-c5e7-490d-9c5a-74a62dd38512","ios":"levelo://app?vid=f8284d70-c5e7-490d-9c5a-74a62dd38512"},"vehicle_type_id":"4","last_reported":1701677407,"current_range_meters":14000,"station_id":"ce4bhs92rcd13ifvqi0g","pricing_plan_id":"free"},{"bike_id":"c477d28a-023f-48dc-9b5a-c3f6bad6c889","system_id":"levelo_inurba_marseille","lat":43.328371,"lon":5.366909,"is_reserved":false,"is_disabled":false,"rental_uris":{"android":"levelo://app?vid=c477d28a-023f-48dc-9b5a-c3f6bad6c889","ios":"levelo://app?vid=c477d28a-023f-48dc-9b5a-c3f6bad6c889"},"vehicle_type_id":"4","last_reported":1701677407,"current_range_meters":22400,"station_id":"ce4bhs92rcd13ifvqi0g","pricing_plan_id":"free"},{"bike_id":"d0d5c39d-ba06-4d02-a3a8-e824946b5f23","system_id":"levelo_inurba_marseille","lat":43.328371,"lon":5.366909,"is_reserved":false,"is_disabled":false,"rental_uris":{"android":"levelo://app?vid=d0d5c39d-ba06-4d02-a3a8-e824946b5f23","ios":"levelo://app?vid=d0d5c39d-ba06-4d02-a3a8-e824946b5f23"},"vehicle_type_id":"4","last_reported":1701677407,"current_range_meters":29200,"station_id":"ce4bhs92rcd13ifvqi0g","pricing_plan_id":"free"},{"bike_id":"c6ce3b8f-2076-4eb8-b7d5-d674dca50e8e","system_id":"levelo_inurba_marseille","lat":43.328371,"lon":5.366909,"is_reserved":false,"is_disabled":false,"rental_uris":{"android":"levelo://app?vid=c6ce3b8f-2076-4eb8-b7d5-d674dca50e8e","ios":"levelo://app?vid=c6ce3b8f-2076-4eb8-b7d5-d674dca50e8e"},"vehicle_type_id":"4","last_reported":1701677407,"current_range_meters":7600,"station_id":"ce4bhs92rcd13ifvqi0g","pricing_plan_id":"free"},{"bike_id":"8874ef37-d11b-4860-b7df-daab8952a737","system_id":"levelo_inurba_marseille","lat":43.328371,"lon":5.366909,"is_reserved":false,"is_disabled":false,"rental_uris":{"android":"levelo://app?vid=8874ef37-d11b-4860-b7df-daab8952a737","ios":"levelo://app?vid=8874ef37-d11b-4860-b7df-daab8952a737"},"vehicle_type_id":"4","last_reported":1701677407,"current_range_meters":20000,"station_id":"ce4bhs92rcd13ifvqi0g","pricing_plan_id":"free"},{"bike_id":"5c26bdfb-7b7c-43fb-8a01-250128a1a6f8","system_id":"levelo_inurba_marseille","lat":43.29779,"lon":5.37408,"is_reserved":false,"is_disabled":false,"rental_uris":{"android":"levelo://app?vid=5c26bdfb-7b7c-43fb-8a01-250128a1a6f8","ios":"levelo://app?vid=5c26bdfb-7b7c-43fb-8a01-250128a1a6f8"},"vehicle_type_id":"4","last_reported":1701677407,"current_range_meters":20800,"station_id":"","pricing_plan_id":"free"},{"bike_id":"eaa0e7e7-2390-47fa-909b-7b240952cbef","system_id":"levelo_inurba_marseille","lat":43.316538,"lon":5.38954,"is_reserved":false,"is_disabled":false,"rental_uris":{"android":"levelo://app?vid=eaa0e7e7-2390-47fa-909b-7b240952cbef","ios":"levelo://app?vid=eaa0e7e7-2390-47fa-909b-7b240952cbef"},"vehicle_type_id":"4","last_reported":1701677407,"current_range_meters":18000,"station_id":"","pricing_plan_id":"free"},{"bike_id":"7a099876-559b-46c4-a0cf-893910aa6aaa","system_id":"levelo_inurba_marseille","lat":43.309589,"lon":5.390258,"is_reserved":false,"is_disabled":false,"rental_uris":{"android":"levelo://app?vid=7a099876-559b-46c4-a0cf-893910aa6aaa","ios":"levelo://app?vid=7a099876-559b-46c4-a0cf-893910aa6aaa"},"vehicle_type_id":"4","last_reported":1701677407,"current_range_meters":11600,"station_id":"ce4bgup2rcd13ifvqco0","pricing_plan_id":"free"},{"bike_id":"b5459934-417f-4cbe-b95f-585a30e10a20","system_id":"levelo_inurba_marseille","lat":43.309589,"lon":5.390258,"is_reserved":false,"is_disabled":false,"rental_uris":{"android":"levelo://app?vid=b5459934-417f-4cbe-b95f-585a30e10a20","ios":"levelo://app?vid=b5459934-417f-4cbe-b95f-585a30e10a20"},"vehicle_type_id":"4","last_reported":1701677407,"current_range_meters":21200,"station_id":"ce4bgup2rcd13ifvqco0","pricing_plan_id":"free"},{"bike_id":"29d8a1ac-2cd6-4a73-a0a8-934a87ffab47","system_id":"levelo_inurba_marseille","lat":43.309589,"lon":5.390258,"is_reserved":false,"is_disabled":false,"rental_uris":{"android":"levelo://app?vid=29d8a1ac-2cd6-4a73-a0a8-934a87ffab47","ios":"levelo://app?vid=29d8a1ac-2cd6-4a73-a0a8-934a87ffab47"},"vehicle_type_id":"4","last_reported":1701677407,"current_range_meters":11600,"station_id":"ce4bgup2rcd13ifvqco0","pricing_plan_id":"free"},{"bike_id":"a71c79c9-2e02-4efa-8ab0-fbd47268f50a","system_id":"levelo_inurba_marseille","lat":43.31755,"lon":5.39019,"is_reserved":false,"is_disabled":false,"rental_uris":{"android":"levelo://app?vid=a71c79c9-2e02-4efa-8ab0-fbd47268f50a","ios":"levelo://app?vid=a71c79c9-2e02-4efa-8ab0-fbd47268f50a"},"vehicle_type_id":"4","last_reported":1701677407,"current_range_meters":20800,"station_id":"ce4bhqp2rcd13ifvqhng","pricing_plan_id":"free"},{"bike_id":"29851edb-e6e9-40fc-baf2-05b0aeeb5fc4","system_id":"levelo_inurba_marseille","lat":43.32367,"lon":5.388836,"is_reserved":false,"is_disabled":false,"rental_uris":{"android":"levelo://app?vid=29851edb-e6e9-40fc-baf2-05b0aeeb5fc4","ios":"levelo://app?vid=29851edb-e6e9-40fc-baf2-05b0aeeb5fc4"},"vehicle_type_id":"4","last_reported":1701677407,"current_range_meters":4000,"station_id":"ce4bhqp2rcd13ifvqhog","pricing_plan_id":"free"},{"bike_id":"84cc0fe7-d578-4772-b52c-8ee059893156","system_id":"levelo_inurba_marseille","lat":43.29601,"lon":5.381084,"is_reserved":false,"is_disabled":false,"rental_uris":{"android":"levelo://app?vid=84cc0fe7-d578-4772-b52c-8ee059893156","ios":"levelo://app?vid=84cc0fe7-d578-4772-b52c-8ee059893156"},"vehicle_type_id":"4","last_reported":1701677407,"current_range_meters":10400,"station_id":"ce4bgl12rcd13ifvqbo0","pricing_plan_id":"free"},{"bike_id":"c7005833-98b5-4a94-a57d-990ae120df59","system_id":"levelo_inurba_marseille","lat":43.2936,"lon":5.37835,"is_reserved":false,"is_disabled":false,"rental_uris":{"android":"levelo://app?vid=c7005833-98b5-4a94-a57d-990ae120df59","ios":"levelo://app?vid=c7005833-98b5-4a94-a57d-990ae120df59"},"vehicle_type_id":"4","last_reported":1701677407,"current_range_meters":23200,"station_id":"ce4bgjh2rcd13ifvqbf0","pricing_plan_id":"free"},{"bike_id":"eaeb7fbc-b454-4cac-b714-b6fef0d132cc","system_id":"levelo_inurba_marseille","lat":43.2936,"lon":5.37835,"is_reserved":false,"is_disabled":false,"rental_uris":{"android":"levelo://app?vid=eaeb7fbc-b454-4cac-b714-b6fef0d132cc","ios":"levelo://app?vid=eaeb7fbc-b454-4cac-b714-b6fef0d132cc"},"vehicle_type_id":"4","last_reported":1701677407,"current_range_meters":0,"station_id":"ce4bgjh2rcd13ifvqbf0","pricing_plan_id":"free"},{"bike_id":"ce8813e7-9ded-48fd-89b2-8e684688828d","system_id":"levelo_inurba_marseille","lat":43.292311,"lon":5.360731,"is_reserved":false,"is_disabled":false,"rental_uris":{"android":"levelo://app?vid=ce8813e7-9ded-48fd-89b2-8e684688828d","ios":"levelo://app?vid=ce8813e7-9ded-48fd-89b2-8e684688828d"},"vehicle_type_id":"4","last_reported":1701677407,"current_range_meters":18000,"station_id":"ce4bhbh2rcd13ifvqeqg","pricing_plan_id":"free"},{"bike_id":"89ec451f-7efa-4360-9a93-8a0a2301bec5","system_id":"levelo_inurba_marseille","lat":43.309038,"lon":5.396546,"is_reserved":false,"is_disabled":false,"rental_uris":{"android":"levelo://app?vid=89ec451f-7efa-4360-9a93-8a0a2301bec5","ios":"levelo://app?vid=89ec451f-7efa-4360-9a93-8a0a2301bec5"},"vehicle_type_id":"4","last_reported":1701677407,"current_range_meters":8000,"station_id":"ce4bh012rcd13ifvqcv0","pricing_plan_id":"free"},{"bike_id":"329448dd-77e3-4b4e-84c7-747fd23fe41b","system_id":"levelo_inurba_marseille","lat":43.309047,"lon":5.396551,"is_reserved":false,"is_disabled":false,"rental_uris":{"android":"levelo://app?vid=329448dd-77e3-4b4e-84c7-747fd23fe41b","ios":"levelo://app?vid=329448dd-77e3-4b4e-84c7-747fd23fe41b"},"vehicle_type_id":"4","last_reported":1701677407,"current_range_meters":16800,"station_id":"ce4bh012rcd13ifvqcv0","pricing_plan_id":"free"},{"bike_id":"0b58f244-581b-484a-a703-d07a49f51498","system_id":"levelo_inurba_marseille","lat":43.29529,"lon":5.385581,"is_reserved":false,"is_disabled":false,"rental_uris":{"android":"levelo://app?vid=0b58f244-581b-484a-a703-d07a49f51498","ios":"levelo://app?vid=0b58f244-581b-484a-a703-d07a49f51498"},"vehicle_type_id":"4","last_reported":1701677407,"current_range_meters":22800,"station_id":"ce4bgih2rcd13ifvqba0","pricing_plan_id":"free"},{"bike_id":"7d1ab228-3367-49ca-95ba-a6de92eed7a2","system_id":"levelo_inurba_marseille","lat":43.290327,"lon":5.375711,"is_reserved":false,"is_disabled":false,"rental_uris":{"android":"levelo://app?vid=7d1ab228-3367-49ca-95ba-a6de92eed7a2","ios":"levelo://app?vid=7d1ab228-3367-49ca-95ba-a6de92eed7a2"},"vehicle_type_id":"4","last_reported":1701677407,"current_range_meters":7600,"station_id":"ce4bh692rcd13ifvqe90","pricing_plan_id":"free"},{"bike_id":"dcd0838e-7cfa-4fcc-8ce0-7c9880bf406f","system_id":"levelo_inurba_marseille","lat":43.294153,"lon":5.386305,"is_reserved":false,"is_disabled":false,"rental_uris":{"android":"levelo://app?vid=dcd0838e-7cfa-4fcc-8ce0-7c9880bf406f","ios":"levelo://app?vid=dcd0838e-7cfa-4fcc-8ce0-7c9880bf406f"},"vehicle_type_id":"4","last_reported":1701677407,"current_range_meters":23200,"station_id":"ce4bh2h2rcd13ifvqdh0","pricing_plan_id":"free"},{"bike_id":"bf8ff595-bd32-4ecd-844c-ebedef3a51e6","system_id":"levelo_inurba_marseille","lat":43.289741,"lon":5.378306,"is_reserved":false,"is_disabled":false,"rental_uris":{"android":"levelo://app?vid=bf8ff595-bd32-4ecd-844c-ebedef3a51e6","ios":"levelo://app?vid=bf8ff595-bd32-4ecd-844c-ebedef3a51e6"},"vehicle_type_id":"4","last_reported":1701677407,"current_range_meters":20800,"station_id":"ce4bh9p2rcd13ifvqed0","pricing_plan_id":"free"},{"bike_id":"94dff6b1-c359-4e63-9b5b-5f815ee3ce54","system_id":"levelo_inurba_marseille","lat":43.33735,"lon":5.37448,"is_reserved":false,"is_disabled":false,"rental_uris":{"android":"levelo://app?vid=94dff6b1-c359-4e63-9b5b-5f815ee3ce54","ios":"levelo://app?vid=94dff6b1-c359-4e63-9b5b-5f815ee3ce54"},"vehicle_type_id":"4","last_reported":1701677407,"current_range_meters":10400,"station_id":"","pricing_plan_id":"free"},{"bike_id":"5b586317-0ec7-4e57-8d85-ec22b5509ff7","system_id":"levelo_inurba_marseille","lat":43.290345,"lon":5.38646,"is_reserved":false,"is_disabled":false,"rental_uris":{"android":"levelo://app?vid=5b586317-0ec7-4e57-8d85-ec22b5509ff7","ios":"levelo://app?vid=5b586317-0ec7-4e57-8d85-ec22b5509ff7"},"vehicle_type_id":"4","last_reported":1701677407,"current_range_meters":23600,"station_id":"ce4bh4p2rcd13ifvqe0g","pricing_plan_id":"free"},{"bike_id":"92dcbb81-7905-417c-b5c0-e89ffde83441","system_id":"levelo_inurba_marseille","lat":43.316169,"lon":5.403551,"is_reserved":false,"is_disabled":false,"rental_uris":{"android":"levelo://app?vid=92dcbb81-7905-417c-b5c0-e89ffde83441","ios":"levelo://app?vid=92dcbb81-7905-417c-b5c0-e89ffde83441"},"vehicle_type_id":"4","last_reported":1701677407,"current_range_meters":20000,"station_id":"ce4bh012rcd13ifvqd00","pricing_plan_id":"free"},{"bike_id":"aa237f96-e91d-456b-b4ed-27333f9acf72","system_id":"levelo_inurba_marseille","lat":43.302008,"lon":5.394694,"is_reserved":false,"is_disabled":false,"rental_uris":{"android":"levelo://app?vid=aa237f96-e91d-456b-b4ed-27333f9acf72","ios":"levelo://app?vid=aa237f96-e91d-456b-b4ed-27333f9acf72"},"vehicle_type_id":"4","last_reported":1701677407,"current_range_meters":22800,"station_id":"ce4bh0p2rcd13ifvqd70","pricing_plan_id":"free"},{"bike_id":"f88eb6fa-6203-49cd-94f7-8f3a0a361c55","system_id":"levelo_inurba_marseille","lat":43.294314,"lon":5.397498,"is_reserved":false,"is_disabled":false,"rental_uris":{"android":"levelo://app?vid=f88eb6fa-6203-49cd-94f7-8f3a0a361c55","ios":"levelo://app?vid=f88eb6fa-6203-49cd-94f7-8f3a0a361c55"},"vehicle_type_id":"4","last_reported":1701677407,"current_range_meters":10400,"station_id":"ce4bh3h2rcd13ifvqdo0","pricing_plan_id":"free"},{"bike_id":"b686b8a8-ca19-4d96-b2a7-299d4f07bc59","system_id":"levelo_inurba_marseille","lat":43.28613,"lon":5.35107,"is_reserved":false,"is_disabled":false,"rental_uris":{"android":"levelo://app?vid=b686b8a8-ca19-4d96-b2a7-299d4f07bc59","ios":"levelo://app?vid=b686b8a8-ca19-4d96-b2a7-299d4f07bc59"},"vehicle_type_id":"4","last_reported":1701677407,"current_range_meters":30400,"station_id":"ce4bhch2rcd13ifvqeug","pricing_plan_id":"free"},{"bike_id":"f857fd94-5c3c-43f3-8ed7-cefbe2550b2e","system_id":"levelo_inurba_marseille","lat":43.2861,"lon":5.35107,"is_reserved":false,"is_disabled":false,"rental_uris":{"android":"levelo://app?vid=f857fd94-5c3c-43f3-8ed7-cefbe2550b2e","ios":"levelo://app?vid=f857fd94-5c3c-43f3-8ed7-cefbe2550b2e"},"vehicle_type_id":"4","last_reported":1701677407,"current_range_meters":26400,"station_id":"ce4bhch2rcd13ifvqeug","pricing_plan_id":"free"},{"bike_id":"2841e768-459f-4403-9ea3-0a8ffc302b6d","system_id":"levelo_inurba_marseille","lat":43.283998,"lon":5.375062,"is_reserved":false,"is_disabled":false,"rental_uris":{"android":"levelo://app?vid=2841e768-459f-4403-9ea3-0a8ffc302b6d","ios":"levelo://app?vid=2841e768-459f-4403-9ea3-0a8ffc302b6d"},"vehicle_type_id":"4","last_reported":1701677407,"current_range_meters":23600,"station_id":"ce4bh412rcd13ifvqds0","pricing_plan_id":"free"},{"bike_id":"23a6e18e-5ad6-40cf-b6fb-7a4b1a6034c9","system_id":"levelo_inurba_marseille","lat":43.337168,"lon":5.391825,"is_reserved":false,"is_disabled":false,"rental_uris":{"android":"levelo://app?vid=23a6e18e-5ad6-40cf-b6fb-7a4b1a6034c9","ios":"levelo://app?vid=23a6e18e-5ad6-40cf-b6fb-7a4b1a6034c9"},"vehicle_type_id":"4","last_reported":1701677407,"current_range_meters":27600,"station_id":"ce4bhr92rcd13ifvqhsg","pricing_plan_id":"free"},{"bike_id":"4b021143-be23-4d8d-ac72-086548831286","system_id":"levelo_inurba_marseille","lat":43.33717,"lon":5.391857,"is_reserved":false,"is_disabled":false,"rental_uris":{"android":"levelo://app?vid=4b021143-be23-4d8d-ac72-086548831286","ios":"levelo://app?vid=4b021143-be23-4d8d-ac72-086548831286"},"vehicle_type_id":"4","last_reported":1701677407,"current_range_meters":31200,"station_id":"ce4bhr92rcd13ifvqhsg","pricing_plan_id":"free"},{"bike_id":"05afa003-da4e-4bd9-80ce-3e8360212277","system_id":"levelo_inurba_marseille","lat":43.33717,"lon":5.391857,"is_reserved":false,"is_disabled":false,"rental_uris":{"android":"levelo://app?vid=05afa003-da4e-4bd9-80ce-3e8360212277","ios":"levelo://app?vid=05afa003-da4e-4bd9-80ce-3e8360212277"},"vehicle_type_id":"4","last_reported":1701677407,"current_range_meters":19200,"station_id":"ce4bhr92rcd13ifvqhsg","pricing_plan_id":"free"},{"bike_id":"2f73a9c6-ea7c-45de-beee-438befc58a7b","system_id":"levelo_inurba_marseille","lat":43.33717,"lon":5.391857,"is_reserved":false,"is_disabled":false,"rental_uris":{"android":"levelo://app?vid=2f73a9c6-ea7c-45de-beee-438befc58a7b","ios":"levelo://app?vid=2f73a9c6-ea7c-45de-beee-438befc58a7b"},"vehicle_type_id":"4","last_reported":1701677407,"current_range_meters":15600,"station_id":"ce4bhr92rcd13ifvqhsg","pricing_plan_id":"free"},{"bike_id":"04c79d48-24f6-4ac5-aaf7-20213a988708","system_id":"levelo_inurba_marseille","lat":43.283494,"lon":5.380945,"is_reserved":false,"is_disabled":false,"rental_uris":{"android":"levelo://app?vid=04c79d48-24f6-4ac5-aaf7-20213a988708","ios":"levelo://app?vid=04c79d48-24f6-4ac5-aaf7-20213a988708"},"vehicle_type_id":"4","last_reported":1701677407,"current_range_meters":1200,"station_id":"ce4bh412rcd13ifvqdr0","pricing_plan_id":"free"},{"bike_id":"71a566bb-1a89-41ce-a25a-93fc8258c9d5","system_id":"levelo_inurba_marseille","lat":43.292724,"lon":5.401131,"is_reserved":false,"is_disabled":false,"rental_uris":{"android":"levelo://app?vid=71a566bb-1a89-41ce-a25a-93fc8258c9d5","ios":"levelo://app?vid=71a566bb-1a89-41ce-a25a-93fc8258c9d5"},"vehicle_type_id":"4","last_reported":1701677407,"current_range_meters":30800,"station_id":"ce4bh312rcd13ifvqdk0","pricing_plan_id":"free"},{"bike_id":"8a82b22d-2c0a-4841-9efa-60720e80609e","system_id":"levelo_inurba_marseille","lat":43.280382,"lon":5.369291,"is_reserved":false,"is_disabled":false,"rental_uris":{"android":"levelo://app?vid=8a82b22d-2c0a-4841-9efa-60720e80609e","ios":"levelo://app?vid=8a82b22d-2c0a-4841-9efa-60720e80609e"},"vehicle_type_id":"4","last_reported":1701677407,"current_range_meters":25600,"station_id":"ce4bha12rcd13ifvqef0","pricing_plan_id":"free"},{"bike_id":"f64a981e-5e53-4392-b60c-a51eb39cb15b","system_id":"levelo_inurba_marseille","lat":43.29041,"lon":5.399634,"is_reserved":false,"is_disabled":false,"rental_uris":{"android":"levelo://app?vid=f64a981e-5e53-4392-b60c-a51eb39cb15b","ios":"levelo://app?vid=f64a981e-5e53-4392-b60c-a51eb39cb15b"},"vehicle_type_id":"4","last_reported":1701677407,"current_range_meters":27200,"station_id":"ce4bh392rcd13ifvqdm0","pricing_plan_id":"free"},{"bike_id":"b5c314fc-84a7-4bed-882f-1e2ac1f91d06","system_id":"levelo_inurba_marseille","lat":43.285742,"lon":5.395004,"is_reserved":false,"is_disabled":false,"rental_uris":{"android":"levelo://app?vid=b5c314fc-84a7-4bed-882f-1e2ac1f91d06","ios":"levelo://app?vid=b5c314fc-84a7-4bed-882f-1e2ac1f91d06"},"vehicle_type_id":"4","last_reported":1701677407,"current_range_meters":12000,"station_id":"ce4bh292rcd13ifvqdg0","pricing_plan_id":"free"},{"bike_id":"ec9eb7be-6bf7-4637-9bff-840be424eb47","system_id":"levelo_inurba_marseille","lat":43.269467,"lon":5.386439,"is_reserved":false,"is_disabled":false,"rental_uris":{"android":"levelo://app?vid=ec9eb7be-6bf7-4637-9bff-840be424eb47","ios":"levelo://app?vid=ec9eb7be-6bf7-4637-9bff-840be424eb47"},"vehicle_type_id":"4","last_reported":1701677407,"current_range_meters":18400,"station_id":"ce4bhh92rcd13ifvqfh0","pricing_plan_id":"free"},{"bike_id":"bdfbcbf6-d747-4f2e-bdc9-52850b64f80c","system_id":"levelo_inurba_marseille","lat":43.287154,"lon":5.399979,"is_reserved":false,"is_disabled":false,"rental_uris":{"android":"levelo://app?vid=bdfbcbf6-d747-4f2e-bdc9-52850b64f80c","ios":"levelo://app?vid=bdfbcbf6-d747-4f2e-bdc9-52850b64f80c"},"vehicle_type_id":"4","last_reported":1701677407,"current_range_meters":22400,"station_id":"ce4bho92rcd13ifvqh3g","pricing_plan_id":"free"},{"bike_id":"74fcbeb7-4395-4b86-b6a9-49557f1c209e","system_id":"levelo_inurba_marseille","lat":43.287154,"lon":5.399979,"is_reserved":false,"is_disabled":false,"rental_uris":{"android":"levelo://app?vid=74fcbeb7-4395-4b86-b6a9-49557f1c209e","ios":"levelo://app?vid=74fcbeb7-4395-4b86-b6a9-49557f1c209e"},"vehicle_type_id":"4","last_reported":1701677407,"current_range_meters":18400,"station_id":"ce4bho92rcd13ifvqh3g","pricing_plan_id":"free"},{"bike_id":"0da37ed4-bac2-4367-be03-b22617a8c7c7","system_id":"levelo_inurba_marseille","lat":43.325233,"lon":5.414318,"is_reserved":false,"is_disabled":false,"rental_uris":{"android":"levelo://app?vid=0da37ed4-bac2-4367-be03-b22617a8c7c7","ios":"levelo://app?vid=0da37ed4-bac2-4367-be03-b22617a8c7c7"},"vehicle_type_id":"4","last_reported":1701677407,"current_range_meters":23200,"station_id":"ce4bhq12rcd13ifvqhhg","pricing_plan_id":"free"},{"bike_id":"42799abd-7493-4700-ac99-6ab0ae79d508","system_id":"levelo_inurba_marseille","lat":43.325233,"lon":5.414318,"is_reserved":false,"is_disabled":false,"rental_uris":{"android":"levelo://app?vid=42799abd-7493-4700-ac99-6ab0ae79d508","ios":"levelo://app?vid=42799abd-7493-4700-ac99-6ab0ae79d508"},"vehicle_type_id":"4","last_reported":1701677407,"current_range_meters":15600,"station_id":"ce4bhq12rcd13ifvqhhg","pricing_plan_id":"free"},{"bike_id":"742536fd-f3ee-4b76-8c6c-a861d844ded8","system_id":"levelo_inurba_marseille","lat":43.325233,"lon":5.414318,"is_reserved":false,"is_disabled":false,"rental_uris":{"android":"levelo://app?vid=742536fd-f3ee-4b76-8c6c-a861d844ded8","ios":"levelo://app?vid=742536fd-f3ee-4b76-8c6c-a861d844ded8"},"vehicle_type_id":"4","last_reported":1701677407,"current_range_meters":17600,"station_id":"ce4bhq12rcd13ifvqhhg","pricing_plan_id":"free"},{"bike_id":"5a25bf69-6178-4680-ba62-eb181662b01d","system_id":"levelo_inurba_marseille","lat":43.325243,"lon":5.414326,"is_reserved":false,"is_disabled":false,"rental_uris":{"android":"levelo://app?vid=5a25bf69-6178-4680-ba62-eb181662b01d","ios":"levelo://app?vid=5a25bf69-6178-4680-ba62-eb181662b01d"},"vehicle_type_id":"4","last_reported":1701677407,"current_range_meters":26800,"station_id":"ce4bhq12rcd13ifvqhhg","pricing_plan_id":"free"},{"bike_id":"7bd2208d-341e-43cb-9d17-06f746e5d7a8","system_id":"levelo_inurba_marseille","lat":43.27611,"lon":5.36108,"is_reserved":false,"is_disabled":false,"rental_uris":{"android":"levelo://app?vid=7bd2208d-341e-43cb-9d17-06f746e5d7a8","ios":"levelo://app?vid=7bd2208d-341e-43cb-9d17-06f746e5d7a8"},"vehicle_type_id":"4","last_reported":1701677407,"current_range_meters":0,"station_id":"ce4bgj92rcd13ifvqbe0","pricing_plan_id":"free"},{"bike_id":"404464cd-9263-446e-9ea7-967c7fc32e65","system_id":"levelo_inurba_marseille","lat":43.275625,"lon":5.384392,"is_reserved":false,"is_disabled":false,"rental_uris":{"android":"levelo://app?vid=404464cd-9263-446e-9ea7-967c7fc32e65","ios":"levelo://app?vid=404464cd-9263-446e-9ea7-967c7fc32e65"},"vehicle_type_id":"4","last_reported":1701677407,"current_range_meters":16000,"station_id":"ce4bhh92rcd13ifvqfi0","pricing_plan_id":"free"},{"bike_id":"8a0e7938-1d64-4254-a270-22f5c0986632","system_id":"levelo_inurba_marseille","lat":43.273609,"lon":5.362708,"is_reserved":false,"is_disabled":false,"rental_uris":{"android":"levelo://app?vid=8a0e7938-1d64-4254-a270-22f5c0986632","ios":"levelo://app?vid=8a0e7938-1d64-4254-a270-22f5c0986632"},"vehicle_type_id":"4","last_reported":1701677407,"current_range_meters":31200,"station_id":"ce4bhbh2rcd13ifvqeo0","pricing_plan_id":"free"},{"bike_id":"9f47b9a0-dfde-456e-a7cf-4c1441abec20","system_id":"levelo_inurba_marseille","lat":43.336134,"lon":5.410341,"is_reserved":false,"is_disabled":false,"rental_uris":{"android":"levelo://app?vid=9f47b9a0-dfde-456e-a7cf-4c1441abec20","ios":"levelo://app?vid=9f47b9a0-dfde-456e-a7cf-4c1441abec20"},"vehicle_type_id":"4","last_reported":1701677407,"current_range_meters":26800,"station_id":"ce4bhqh2rcd13ifvqhmg","pricing_plan_id":"free"},{"bike_id":"b19dce29-3dce-42c7-919a-e1ecc13fea90","system_id":"levelo_inurba_marseille","lat":43.276769,"lon":5.388787,"is_reserved":false,"is_disabled":false,"rental_uris":{"android":"levelo://app?vid=b19dce29-3dce-42c7-919a-e1ecc13fea90","ios":"levelo://app?vid=b19dce29-3dce-42c7-919a-e1ecc13fea90"},"vehicle_type_id":"4","last_reported":1701677407,"current_range_meters":14800,"station_id":"ce4bhi12rcd13ifvqfo0","pricing_plan_id":"free"},{"bike_id":"d97b9f7f-84c7-4749-82c7-b7f1a1599719","system_id":"levelo_inurba_marseille","lat":43.31715,"lon":5.42398,"is_reserved":false,"is_disabled":false,"rental_uris":{"android":"levelo://app?vid=d97b9f7f-84c7-4749-82c7-b7f1a1599719","ios":"levelo://app?vid=d97b9f7f-84c7-4749-82c7-b7f1a1599719"},"vehicle_type_id":"4","last_reported":1701677407,"current_range_meters":3200,"station_id":"ce4bhp92rcd13ifvqhbg","pricing_plan_id":"free"},{"bike_id":"4c266738-4562-4ce1-aca7-b04f03b275b5","system_id":"levelo_inurba_marseille","lat":43.317121,"lon":5.423936,"is_reserved":false,"is_disabled":false,"rental_uris":{"android":"levelo://app?vid=4c266738-4562-4ce1-aca7-b04f03b275b5","ios":"levelo://app?vid=4c266738-4562-4ce1-aca7-b04f03b275b5"},"vehicle_type_id":"4","last_reported":1701677407,"current_range_meters":29600,"station_id":"ce4bhp92rcd13ifvqhbg","pricing_plan_id":"free"},{"bike_id":"ba2cdc49-316c-4fb7-ae87-5812c3ece311","system_id":"levelo_inurba_marseille","lat":43.317121,"lon":5.423936,"is_reserved":false,"is_disabled":false,"rental_uris":{"android":"levelo://app?vid=ba2cdc49-316c-4fb7-ae87-5812c3ece311","ios":"levelo://app?vid=ba2cdc49-316c-4fb7-ae87-5812c3ece311"},"vehicle_type_id":"4","last_reported":1701677407,"current_range_meters":30400,"station_id":"ce4bhp92rcd13ifvqhbg","pricing_plan_id":"free"},{"bike_id":"049ae131-4fca-4c04-a57a-4af68fe56b48","system_id":"levelo_inurba_marseille","lat":43.310785,"lon":5.424305,"is_reserved":false,"is_disabled":false,"rental_uris":{"android":"levelo://app?vid=049ae131-4fca-4c04-a57a-4af68fe56b48","ios":"levelo://app?vid=049ae131-4fca-4c04-a57a-4af68fe56b48"},"vehicle_type_id":"4","last_reported":1701677407,"current_range_meters":400,"station_id":"ce4bhp92rcd13ifvqhag","pricing_plan_id":"free"},{"bike_id":"910fd3aa-d2e0-4553-894a-6161d41c7fcd","system_id":"levelo_inurba_marseille","lat":43.27609,"lon":5.39475,"is_reserved":false,"is_disabled":false,"rental_uris":{"android":"levelo://app?vid=910fd3aa-d2e0-4553-894a-6161d41c7fcd","ios":"levelo://app?vid=910fd3aa-d2e0-4553-894a-6161d41c7fcd"},"vehicle_type_id":"4","last_reported":1701677407,"current_range_meters":12000,"station_id":"","pricing_plan_id":"free"},{"bike_id":"68a6da79-fcec-47bb-ba2a-4d818fc0e4f8","system_id":"levelo_inurba_marseille","lat":43.340804,"lon":5.410219,"is_reserved":false,"is_disabled":false,"rental_uris":{"android":"levelo://app?vid=68a6da79-fcec-47bb-ba2a-4d818fc0e4f8","ios":"levelo://app?vid=68a6da79-fcec-47bb-ba2a-4d818fc0e4f8"},"vehicle_type_id":"4","last_reported":1701677407,"current_range_meters":30000,"station_id":"ce4bhqh2rcd13ifvqhlg","pricing_plan_id":"free"},{"bike_id":"8583a456-009f-4ce4-99a2-cd24342591d6","system_id":"levelo_inurba_marseille","lat":43.340804,"lon":5.410219,"is_reserved":false,"is_disabled":false,"rental_uris":{"android":"levelo://app?vid=8583a456-009f-4ce4-99a2-cd24342591d6","ios":"levelo://app?vid=8583a456-009f-4ce4-99a2-cd24342591d6"},"vehicle_type_id":"4","last_reported":1701677407,"current_range_meters":29200,"station_id":"ce4bhqh2rcd13ifvqhlg","pricing_plan_id":"free"},{"bike_id":"17331290-a950-4b73-af16-7c6f2d193c45","system_id":"levelo_inurba_marseille","lat":43.340804,"lon":5.410219,"is_reserved":false,"is_disabled":false,"rental_uris":{"android":"levelo://app?vid=17331290-a950-4b73-af16-7c6f2d193c45","ios":"levelo://app?vid=17331290-a950-4b73-af16-7c6f2d193c45"},"vehicle_type_id":"4","last_reported":1701677407,"current_range_meters":24400,"station_id":"ce4bhqh2rcd13ifvqhlg","pricing_plan_id":"free"},{"bike_id":"3519bd87-eab5-47fa-96c6-2aa39779b697","system_id":"levelo_inurba_marseille","lat":43.295523,"lon":5.422926,"is_reserved":false,"is_disabled":false,"rental_uris":{"android":"levelo://app?vid=3519bd87-eab5-47fa-96c6-2aa39779b697","ios":"levelo://app?vid=3519bd87-eab5-47fa-96c6-2aa39779b697"},"vehicle_type_id":"4","last_reported":1701677407,"current_range_meters":19200,"station_id":"ce4bhph2rcd13ifvqhdg","pricing_plan_id":"free"},{"bike_id":"55c23f66-31a6-4882-8fa6-769301f13946","system_id":"levelo_inurba_marseille","lat":43.295523,"lon":5.422926,"is_reserved":false,"is_disabled":false,"rental_uris":{"android":"levelo://app?vid=55c23f66-31a6-4882-8fa6-769301f13946","ios":"levelo://app?vid=55c23f66-31a6-4882-8fa6-769301f13946"},"vehicle_type_id":"4","last_reported":1701677407,"current_range_meters":30000,"station_id":"ce4bhph2rcd13ifvqhdg","pricing_plan_id":"free"},{"bike_id":"939b60ca-347d-4311-a9c3-44ae23d596a0","system_id":"levelo_inurba_marseille","lat":43.295511,"lon":5.422926,"is_reserved":false,"is_disabled":false,"rental_uris":{"android":"levelo://app?vid=939b60ca-347d-4311-a9c3-44ae23d596a0","ios":"levelo://app?vid=939b60ca-347d-4311-a9c3-44ae23d596a0"},"vehicle_type_id":"4","last_reported":1701677407,"current_range_meters":30000,"station_id":"ce4bhph2rcd13ifvqhdg","pricing_plan_id":"free"},{"bike_id":"6ca566b0-ae2a-496b-8424-135ea5db1a66","system_id":"levelo_inurba_marseille","lat":43.27946,"lon":5.41046,"is_reserved":false,"is_disabled":false,"rental_uris":{"android":"levelo://app?vid=6ca566b0-ae2a-496b-8424-135ea5db1a66","ios":"levelo://app?vid=6ca566b0-ae2a-496b-8424-135ea5db1a66"},"vehicle_type_id":"4","last_reported":1701677407,"current_range_meters":15200,"station_id":"ce4bhnp2rcd13ifvqh0g","pricing_plan_id":"free"},{"bike_id":"f8f560c8-6dc3-423c-8b03-e06c54d42693","system_id":"levelo_inurba_marseille","lat":43.27941,"lon":5.41045,"is_reserved":false,"is_disabled":false,"rental_uris":{"android":"levelo://app?vid=f8f560c8-6dc3-423c-8b03-e06c54d42693","ios":"levelo://app?vid=f8f560c8-6dc3-423c-8b03-e06c54d42693"},"vehicle_type_id":"4","last_reported":1701677407,"current_range_meters":22400,"station_id":"ce4bhnp2rcd13ifvqh0g","pricing_plan_id":"free"},{"bike_id":"a789502c-81da-4b15-8b87-6ec568c248f6","system_id":"levelo_inurba_marseille","lat":43.26685,"lon":5.38271,"is_reserved":false,"is_disabled":false,"rental_uris":{"android":"levelo://app?vid=a789502c-81da-4b15-8b87-6ec568c248f6","ios":"levelo://app?vid=a789502c-81da-4b15-8b87-6ec568c248f6"},"vehicle_type_id":"4","last_reported":1701677407,"current_range_meters":31200,"station_id":"ce4bhg92rcd13ifvqf90","pricing_plan_id":"free"},{"bike_id":"e326da63-87b2-4790-bd5f-aa6920af9e30","system_id":"levelo_inurba_marseille","lat":43.26555,"lon":5.37283,"is_reserved":false,"is_disabled":false,"rental_uris":{"android":"levelo://app?vid=e326da63-87b2-4790-bd5f-aa6920af9e30","ios":"levelo://app?vid=e326da63-87b2-4790-bd5f-aa6920af9e30"},"vehicle_type_id":"4","last_reported":1701677407,"current_range_meters":20400,"station_id":"ce4bhg12rcd13ifvqf70","pricing_plan_id":"free"},{"bike_id":"eaea9eab-4375-4a12-8e37-98ab417ee52d","system_id":"levelo_inurba_marseille","lat":43.267966,"lon":5.393976,"is_reserved":false,"is_disabled":false,"rental_uris":{"android":"levelo://app?vid=eaea9eab-4375-4a12-8e37-98ab417ee52d","ios":"levelo://app?vid=eaea9eab-4375-4a12-8e37-98ab417ee52d"},"vehicle_type_id":"4","last_reported":1701677407,"current_range_meters":21200,"station_id":"ce4bhh12rcd13ifvqfg0","pricing_plan_id":"free"},{"bike_id":"bddad374-d247-4e31-875f-629df906a9ec","system_id":"levelo_inurba_marseille","lat":43.265569,"lon":5.390047,"is_reserved":false,"is_disabled":false,"rental_uris":{"android":"levelo://app?vid=bddad374-d247-4e31-875f-629df906a9ec","ios":"levelo://app?vid=bddad374-d247-4e31-875f-629df906a9ec"},"vehicle_type_id":"4","last_reported":1701677407,"current_range_meters":26400,"station_id":"ce4bhe12rcd13ifvqf30","pricing_plan_id":"free"},{"bike_id":"778a9997-1193-4f2d-a9ae-2ee9e6ce698c","system_id":"levelo_inurba_marseille","lat":43.269537,"lon":5.402627,"is_reserved":false,"is_disabled":false,"rental_uris":{"android":"levelo://app?vid=778a9997-1193-4f2d-a9ae-2ee9e6ce698c","ios":"levelo://app?vid=778a9997-1193-4f2d-a9ae-2ee9e6ce698c"},"vehicle_type_id":"4","last_reported":1701677407,"current_range_meters":26400,"station_id":"cjm6bp8fraef2m0cb0m0","pricing_plan_id":"free"},{"bike_id":"b3a4a88c-d155-447c-ad55-fd92c25575ce","system_id":"levelo_inurba_marseille","lat":43.262012,"lon":5.379307,"is_reserved":false,"is_disabled":false,"rental_uris":{"android":"levelo://app?vid=b3a4a88c-d155-447c-ad55-fd92c25575ce","ios":"levelo://app?vid=b3a4a88c-d155-447c-ad55-fd92c25575ce"},"vehicle_type_id":"4","last_reported":1701677407,"current_range_meters":29200,"station_id":"ce4bhjp2rcd13ifvqg90","pricing_plan_id":"free"},{"bike_id":"3bb6943d-b5fe-4de5-88be-a93b0167c81b","system_id":"levelo_inurba_marseille","lat":43.281548,"lon":5.42643,"is_reserved":false,"is_disabled":false,"rental_uris":{"android":"levelo://app?vid=3bb6943d-b5fe-4de5-88be-a93b0167c81b","ios":"levelo://app?vid=3bb6943d-b5fe-4de5-88be-a93b0167c81b"},"vehicle_type_id":"4","last_reported":1701677407,"current_range_meters":30800,"station_id":"ce4bhnh2rcd13ifvqgug","pricing_plan_id":"free"},{"bike_id":"04769cd7-b1e0-4b8d-b801-e2002344cd46","system_id":"levelo_inurba_marseille","lat":43.281548,"lon":5.42643,"is_reserved":false,"is_disabled":false,"rental_uris":{"android":"levelo://app?vid=04769cd7-b1e0-4b8d-b801-e2002344cd46","ios":"levelo://app?vid=04769cd7-b1e0-4b8d-b801-e2002344cd46"},"vehicle_type_id":"4","last_reported":1701677407,"current_range_meters":26400,"station_id":"ce4bhnh2rcd13ifvqgug","pricing_plan_id":"free"},{"bike_id":"5b3e0566-b00a-45ce-bada-6ddf6f7727ce","system_id":"levelo_inurba_marseille","lat":43.281524,"lon":5.426449,"is_reserved":false,"is_disabled":false,"rental_uris":{"android":"levelo://app?vid=5b3e0566-b00a-45ce-bada-6ddf6f7727ce","ios":"levelo://app?vid=5b3e0566-b00a-45ce-bada-6ddf6f7727ce"},"vehicle_type_id":"4","last_reported":1701677407,"current_range_meters":16800,"station_id":"ce4bhnh2rcd13ifvqgug","pricing_plan_id":"free"},{"bike_id":"7a96db8f-5eb4-405b-8773-67506ad37afb","system_id":"levelo_inurba_marseille","lat":43.28149,"lon":5.42646,"is_reserved":false,"is_disabled":false,"rental_uris":{"android":"levelo://app?vid=7a96db8f-5eb4-405b-8773-67506ad37afb","ios":"levelo://app?vid=7a96db8f-5eb4-405b-8773-67506ad37afb"},"vehicle_type_id":"4","last_reported":1701677407,"current_range_meters":10000,"station_id":"ce4bhnh2rcd13ifvqgug","pricing_plan_id":"free"},{"bike_id":"958686c9-9c63-438a-b5a9-67bff506c73b","system_id":"levelo_inurba_marseille","lat":43.2607,"lon":5.393983,"is_reserved":false,"is_disabled":false,"rental_uris":{"android":"levelo://app?vid=958686c9-9c63-438a-b5a9-67bff506c73b","ios":"levelo://app?vid=958686c9-9c63-438a-b5a9-67bff506c73b"},"vehicle_type_id":"4","last_reported":1701677407,"current_range_meters":8400,"station_id":"ce4bhh92rcd13ifvqfj0","pricing_plan_id":"free"},{"bike_id":"f7bce490-38ce-426e-8a28-e1380519c898","system_id":"levelo_inurba_marseille","lat":43.275028,"lon":5.424534,"is_reserved":false,"is_disabled":false,"rental_uris":{"android":"levelo://app?vid=f7bce490-38ce-426e-8a28-e1380519c898","ios":"levelo://app?vid=f7bce490-38ce-426e-8a28-e1380519c898"},"vehicle_type_id":"4","last_reported":1701677407,"current_range_meters":22800,"station_id":"ce4bhn92rcd13ifvqgrg","pricing_plan_id":"free"},{"bike_id":"1fea76db-2e1b-4050-8d89-01ef580781b9","system_id":"levelo_inurba_marseille","lat":43.27494,"lon":5.42448,"is_reserved":false,"is_disabled":false,"rental_uris":{"android":"levelo://app?vid=1fea76db-2e1b-4050-8d89-01ef580781b9","ios":"levelo://app?vid=1fea76db-2e1b-4050-8d89-01ef580781b9"},"vehicle_type_id":"4","last_reported":1701677407,"current_range_meters":6800,"station_id":"ce4bhn92rcd13ifvqgrg","pricing_plan_id":"free"},{"bike_id":"07d0b2fd-f0f7-482c-ab1d-d90abfaf4599","system_id":"levelo_inurba_marseille","lat":43.275028,"lon":5.424534,"is_reserved":false,"is_disabled":false,"rental_uris":{"android":"levelo://app?vid=07d0b2fd-f0f7-482c-ab1d-d90abfaf4599","ios":"levelo://app?vid=07d0b2fd-f0f7-482c-ab1d-d90abfaf4599"},"vehicle_type_id":"4","last_reported":1701677407,"current_range_meters":22800,"station_id":"ce4bhn92rcd13ifvqgrg","pricing_plan_id":"free"},{"bike_id":"f1a4bd6d-e695-438c-b29b-aede97329226","system_id":"levelo_inurba_marseille","lat":43.275028,"lon":5.424534,"is_reserved":false,"is_disabled":false,"rental_uris":{"android":"levelo://app?vid=f1a4bd6d-e695-438c-b29b-aede97329226","ios":"levelo://app?vid=f1a4bd6d-e695-438c-b29b-aede97329226"},"vehicle_type_id":"4","last_reported":1701677407,"current_range_meters":20400,"station_id":"ce4bhn92rcd13ifvqgrg","pricing_plan_id":"free"},{"bike_id":"d397b818-4d16-4fe1-98f5-a3e82caa7de2","system_id":"levelo_inurba_marseille","lat":43.27495,"lon":5.42451,"is_reserved":false,"is_disabled":false,"rental_uris":{"android":"levelo://app?vid=d397b818-4d16-4fe1-98f5-a3e82caa7de2","ios":"levelo://app?vid=d397b818-4d16-4fe1-98f5-a3e82caa7de2"},"vehicle_type_id":"4","last_reported":1701677407,"current_range_meters":19200,"station_id":"ce4bhn92rcd13ifvqgrg","pricing_plan_id":"free"},{"bike_id":"f535f8c9-e9ee-4ae0-bfac-eaa3439dbcba","system_id":"levelo_inurba_marseille","lat":43.275028,"lon":5.424534,"is_reserved":false,"is_disabled":false,"rental_uris":{"android":"levelo://app?vid=f535f8c9-e9ee-4ae0-bfac-eaa3439dbcba","ios":"levelo://app?vid=f535f8c9-e9ee-4ae0-bfac-eaa3439dbcba"},"vehicle_type_id":"4","last_reported":1701677407,"current_range_meters":23600,"station_id":"ce4bhn92rcd13ifvqgrg","pricing_plan_id":"free"},{"bike_id":"0cf91f44-1c71-4055-a585-bd700e726a30","system_id":"levelo_inurba_marseille","lat":43.275028,"lon":5.424534,"is_reserved":false,"is_disabled":false,"rental_uris":{"android":"levelo://app?vid=0cf91f44-1c71-4055-a585-bd700e726a30","ios":"levelo://app?vid=0cf91f44-1c71-4055-a585-bd700e726a30"},"vehicle_type_id":"4","last_reported":1701677407,"current_range_meters":15600,"station_id":"ce4bhn92rcd13ifvqgrg","pricing_plan_id":"free"},{"bike_id":"181aadf4-f85a-4357-a2a1-52ece302f63a","system_id":"levelo_inurba_marseille","lat":43.275028,"lon":5.424534,"is_reserved":false,"is_disabled":false,"rental_uris":{"android":"levelo://app?vid=181aadf4-f85a-4357-a2a1-52ece302f63a","ios":"levelo://app?vid=181aadf4-f85a-4357-a2a1-52ece302f63a"},"vehicle_type_id":"4","last_reported":1701677407,"current_range_meters":26400,"station_id":"ce4bhn92rcd13ifvqgrg","pricing_plan_id":"free"},{"bike_id":"2896d740-c829-4769-ab23-e2aa604b10cd","system_id":"levelo_inurba_marseille","lat":43.275028,"lon":5.424534,"is_reserved":false,"is_disabled":false,"rental_uris":{"android":"levelo://app?vid=2896d740-c829-4769-ab23-e2aa604b10cd","ios":"levelo://app?vid=2896d740-c829-4769-ab23-e2aa604b10cd"},"vehicle_type_id":"4","last_reported":1701677407,"current_range_meters":28800,"station_id":"ce4bhn92rcd13ifvqgrg","pricing_plan_id":"free"},{"bike_id":"1442ffd9-954e-48a9-97d8-1c007af2e23d","system_id":"levelo_inurba_marseille","lat":43.275028,"lon":5.424534,"is_reserved":false,"is_disabled":false,"rental_uris":{"android":"levelo://app?vid=1442ffd9-954e-48a9-97d8-1c007af2e23d","ios":"levelo://app?vid=1442ffd9-954e-48a9-97d8-1c007af2e23d"},"vehicle_type_id":"4","last_reported":1701677407,"current_range_meters":11200,"station_id":"ce4bhn92rcd13ifvqgrg","pricing_plan_id":"free"},{"bike_id":"74f8af55-ccdf-4cc0-85c6-e8172bf564aa","system_id":"levelo_inurba_marseille","lat":43.275028,"lon":5.424534,"is_reserved":false,"is_disabled":false,"rental_uris":{"android":"levelo://app?vid=74f8af55-ccdf-4cc0-85c6-e8172bf564aa","ios":"levelo://app?vid=74f8af55-ccdf-4cc0-85c6-e8172bf564aa"},"vehicle_type_id":"4","last_reported":1701677407,"current_range_meters":18800,"station_id":"ce4bhn92rcd13ifvqgrg","pricing_plan_id":"free"},{"bike_id":"01cafc76-788b-4956-a52f-65796b80b893","system_id":"levelo_inurba_marseille","lat":43.25582,"lon":5.38231,"is_reserved":false,"is_disabled":false,"rental_uris":{"android":"levelo://app?vid=01cafc76-788b-4956-a52f-65796b80b893","ios":"levelo://app?vid=01cafc76-788b-4956-a52f-65796b80b893"},"vehicle_type_id":"4","last_reported":1701677407,"current_range_meters":20400,"station_id":"ce4bhih2rcd13ifvqfs0","pricing_plan_id":"free"},{"bike_id":"e6fee166-d8ae-4019-abb3-6c4f3b176b93","system_id":"levelo_inurba_marseille","lat":43.270721,"lon":5.422764,"is_reserved":false,"is_disabled":false,"rental_uris":{"android":"levelo://app?vid=e6fee166-d8ae-4019-abb3-6c4f3b176b93","ios":"levelo://app?vid=e6fee166-d8ae-4019-abb3-6c4f3b176b93"},"vehicle_type_id":"4","last_reported":1701677407,"current_range_meters":31200,"station_id":"ce4bhk92rcd13ifvqgb0","pricing_plan_id":"free"},{"bike_id":"dcf42513-b79f-4adc-9d0b-3660790d450a","system_id":"levelo_inurba_marseille","lat":43.270721,"lon":5.422764,"is_reserved":false,"is_disabled":false,"rental_uris":{"android":"levelo://app?vid=dcf42513-b79f-4adc-9d0b-3660790d450a","ios":"levelo://app?vid=dcf42513-b79f-4adc-9d0b-3660790d450a"},"vehicle_type_id":"4","last_reported":1701677407,"current_range_meters":15200,"station_id":"ce4bhk92rcd13ifvqgb0","pricing_plan_id":"free"},{"bike_id":"6918ec5f-c367-4816-9683-27d9a3c17050","system_id":"levelo_inurba_marseille","lat":43.258658,"lon":5.398935,"is_reserved":false,"is_disabled":false,"rental_uris":{"android":"levelo://app?vid=6918ec5f-c367-4816-9683-27d9a3c17050","ios":"levelo://app?vid=6918ec5f-c367-4816-9683-27d9a3c17050"},"vehicle_type_id":"4","last_reported":1701677407,"current_range_meters":16400,"station_id":"ce4bhl92rcd13ifvqghg","pricing_plan_id":"free"},{"bike_id":"0fcfbb5c-71dd-41a0-8a07-139d4e12cbd0","system_id":"levelo_inurba_marseille","lat":43.258658,"lon":5.398935,"is_reserved":false,"is_disabled":false,"rental_uris":{"android":"levelo://app?vid=0fcfbb5c-71dd-41a0-8a07-139d4e12cbd0","ios":"levelo://app?vid=0fcfbb5c-71dd-41a0-8a07-139d4e12cbd0"},"vehicle_type_id":"4","last_reported":1701677407,"current_range_meters":22400,"station_id":"ce4bhl92rcd13ifvqghg","pricing_plan_id":"free"},{"bike_id":"cb118d21-1e7e-4798-bb69-af48b989b18d","system_id":"levelo_inurba_marseille","lat":43.25933,"lon":5.40913,"is_reserved":false,"is_disabled":false,"rental_uris":{"android":"levelo://app?vid=cb118d21-1e7e-4798-bb69-af48b989b18d","ios":"levelo://app?vid=cb118d21-1e7e-4798-bb69-af48b989b18d"},"vehicle_type_id":"4","last_reported":1701677407,"current_range_meters":23600,"station_id":"ce4bhm92rcd13ifvqglg","pricing_plan_id":"free"},{"bike_id":"79931ad1-634d-46b6-b4f2-2d3e004f3743","system_id":"levelo_inurba_marseille","lat":43.259013,"lon":5.409301,"is_reserved":false,"is_disabled":false,"rental_uris":{"android":"levelo://app?vid=79931ad1-634d-46b6-b4f2-2d3e004f3743","ios":"levelo://app?vid=79931ad1-634d-46b6-b4f2-2d3e004f3743"},"vehicle_type_id":"4","last_reported":1701677407,"current_range_meters":3600,"station_id":"ce4bhm92rcd13ifvqglg","pricing_plan_id":"free"},{"bike_id":"e8e1ca85-bc08-4e64-87b5-a7fd1983faf8","system_id":"levelo_inurba_marseille","lat":43.2593,"lon":5.40912,"is_reserved":false,"is_disabled":false,"rental_uris":{"android":"levelo://app?vid=e8e1ca85-bc08-4e64-87b5-a7fd1983faf8","ios":"levelo://app?vid=e8e1ca85-bc08-4e64-87b5-a7fd1983faf8"},"vehicle_type_id":"4","last_reported":1701677407,"current_range_meters":22400,"station_id":"ce4bhm92rcd13ifvqglg","pricing_plan_id":"free"},{"bike_id":"09f8919c-9a0d-4acc-ad67-8ce676366609","system_id":"levelo_inurba_marseille","lat":43.2593,"lon":5.40914,"is_reserved":false,"is_disabled":false,"rental_uris":{"android":"levelo://app?vid=09f8919c-9a0d-4acc-ad67-8ce676366609","ios":"levelo://app?vid=09f8919c-9a0d-4acc-ad67-8ce676366609"},"vehicle_type_id":"4","last_reported":1701677407,"current_range_meters":24000,"station_id":"ce4bhm92rcd13ifvqglg","pricing_plan_id":"free"},{"bike_id":"bee61dc6-9764-4267-a768-a1fb711af849","system_id":"levelo_inurba_marseille","lat":43.259009,"lon":5.40929,"is_reserved":false,"is_disabled":false,"rental_uris":{"android":"levelo://app?vid=bee61dc6-9764-4267-a768-a1fb711af849","ios":"levelo://app?vid=bee61dc6-9764-4267-a768-a1fb711af849"},"vehicle_type_id":"4","last_reported":1701677407,"current_range_meters":19200,"station_id":"ce4bhm92rcd13ifvqglg","pricing_plan_id":"free"},{"bike_id":"600735c5-118f-4a23-b059-20bb93fb5c9f","system_id":"levelo_inurba_marseille","lat":43.259013,"lon":5.409301,"is_reserved":false,"is_disabled":false,"rental_uris":{"android":"levelo://app?vid=600735c5-118f-4a23-b059-20bb93fb5c9f","ios":"levelo://app?vid=600735c5-118f-4a23-b059-20bb93fb5c9f"},"vehicle_type_id":"4","last_reported":1701677407,"current_range_meters":18000,"station_id":"ce4bhm92rcd13ifvqglg","pricing_plan_id":"free"},{"bike_id":"e7f61b20-5739-458e-b724-183ead7dfffd","system_id":"levelo_inurba_marseille","lat":43.259052,"lon":5.409755,"is_reserved":false,"is_disabled":false,"rental_uris":{"android":"levelo://app?vid=e7f61b20-5739-458e-b724-183ead7dfffd","ios":"levelo://app?vid=e7f61b20-5739-458e-b724-183ead7dfffd"},"vehicle_type_id":"4","last_reported":1701677407,"current_range_meters":5200,"station_id":"ce4bhm92rcd13ifvqglg","pricing_plan_id":"free"},{"bike_id":"0050d107-a2d5-4a6c-a474-13f7a477852a","system_id":"levelo_inurba_marseille","lat":43.250023,"lon":5.38919,"is_reserved":false,"is_disabled":false,"rental_uris":{"android":"levelo://app?vid=0050d107-a2d5-4a6c-a474-13f7a477852a","ios":"levelo://app?vid=0050d107-a2d5-4a6c-a474-13f7a477852a"},"vehicle_type_id":"4","last_reported":1701677407,"current_range_meters":27200,"station_id":"ce4bhgp2rcd13ifvqfd0","pricing_plan_id":"free"},{"bike_id":"2c92eded-66e5-4d53-98a0-b64e6c9c913c","system_id":"levelo_inurba_marseille","lat":43.25001,"lon":5.389186,"is_reserved":false,"is_disabled":false,"rental_uris":{"android":"levelo://app?vid=2c92eded-66e5-4d53-98a0-b64e6c9c913c","ios":"levelo://app?vid=2c92eded-66e5-4d53-98a0-b64e6c9c913c"},"vehicle_type_id":"4","last_reported":1701677407,"current_range_meters":10000,"station_id":"ce4bhgp2rcd13ifvqfd0","pricing_plan_id":"free"},{"bike_id":"88aab8fc-fa8d-4271-8907-1902b2566d6d","system_id":"levelo_inurba_marseille","lat":43.250009,"lon":5.389195,"is_reserved":false,"is_disabled":false,"rental_uris":{"android":"levelo://app?vid=88aab8fc-fa8d-4271-8907-1902b2566d6d","ios":"levelo://app?vid=88aab8fc-fa8d-4271-8907-1902b2566d6d"},"vehicle_type_id":"4","last_reported":1701677407,"current_range_meters":18000,"station_id":"ce4bhgp2rcd13ifvqfd0","pricing_plan_id":"free"},{"bike_id":"3567fdb9-fbe3-43ab-a7fb-83a165b26208","system_id":"levelo_inurba_marseille","lat":43.250009,"lon":5.389195,"is_reserved":false,"is_disabled":false,"rental_uris":{"android":"levelo://app?vid=3567fdb9-fbe3-43ab-a7fb-83a165b26208","ios":"levelo://app?vid=3567fdb9-fbe3-43ab-a7fb-83a165b26208"},"vehicle_type_id":"4","last_reported":1701677407,"current_range_meters":0,"station_id":"ce4bhgp2rcd13ifvqfd0","pricing_plan_id":"free"},{"bike_id":"b2095e5c-185a-415c-8fcf-3a12b5c3cb72","system_id":"levelo_inurba_marseille","lat":43.250023,"lon":5.38919,"is_reserved":false,"is_disabled":false,"rental_uris":{"android":"levelo://app?vid=b2095e5c-185a-415c-8fcf-3a12b5c3cb72","ios":"levelo://app?vid=b2095e5c-185a-415c-8fcf-3a12b5c3cb72"},"vehicle_type_id":"4","last_reported":1701677407,"current_range_meters":9600,"station_id":"ce4bhgp2rcd13ifvqfd0","pricing_plan_id":"free"},{"bike_id":"38aedc53-dfc1-4cb7-ad4c-86b3d77f0b9e","system_id":"levelo_inurba_marseille","lat":43.24638,"lon":5.38892,"is_reserved":false,"is_disabled":false,"rental_uris":{"android":"levelo://app?vid=38aedc53-dfc1-4cb7-ad4c-86b3d77f0b9e","ios":"levelo://app?vid=38aedc53-dfc1-4cb7-ad4c-86b3d77f0b9e"},"vehicle_type_id":"4","last_reported":1701677407,"current_range_meters":23600,"station_id":"ce4bhg12rcd13ifvqf60","pricing_plan_id":"free"},{"bike_id":"979aa3f6-6a66-4ea5-abfd-547f3cc1091c","system_id":"levelo_inurba_marseille","lat":43.241473,"lon":5.377761,"is_reserved":false,"is_disabled":false,"rental_uris":{"android":"levelo://app?vid=979aa3f6-6a66-4ea5-abfd-547f3cc1091c","ios":"levelo://app?vid=979aa3f6-6a66-4ea5-abfd-547f3cc1091c"},"vehicle_type_id":"4","last_reported":1701677407,"current_range_meters":4800,"station_id":"","pricing_plan_id":"free"},{"bike_id":"ad1df43c-c7d4-41c7-bd7f-b2423d91c9c7","system_id":"levelo_inurba_marseille","lat":43.24076,"lon":5.37757,"is_reserved":false,"is_disabled":false,"rental_uris":{"android":"levelo://app?vid=ad1df43c-c7d4-41c7-bd7f-b2423d91c9c7","ios":"levelo://app?vid=ad1df43c-c7d4-41c7-bd7f-b2423d91c9c7"},"vehicle_type_id":"4","last_reported":1701677407,"current_range_meters":22800,"station_id":"ce4bhnp2rcd13ifvqgvg","pricing_plan_id":"free"},{"bike_id":"7f4c3395-b239-45e2-81ce-ae178f480b43","system_id":"levelo_inurba_marseille","lat":43.240623,"lon":5.377642,"is_reserved":false,"is_disabled":false,"rental_uris":{"android":"levelo://app?vid=7f4c3395-b239-45e2-81ce-ae178f480b43","ios":"levelo://app?vid=7f4c3395-b239-45e2-81ce-ae178f480b43"},"vehicle_type_id":"4","last_reported":1701677407,"current_range_meters":23200,"station_id":"ce4bhnp2rcd13ifvqgvg","pricing_plan_id":"free"},{"bike_id":"f9853432-08ce-4a5a-b952-4d50834ec84f","system_id":"levelo_inurba_marseille","lat":43.24073,"lon":5.37756,"is_reserved":false,"is_disabled":false,"rental_uris":{"android":"levelo://app?vid=f9853432-08ce-4a5a-b952-4d50834ec84f","ios":"levelo://app?vid=f9853432-08ce-4a5a-b952-4d50834ec84f"},"vehicle_type_id":"4","last_reported":1701677407,"current_range_meters":16400,"station_id":"ce4bhnp2rcd13ifvqgvg","pricing_plan_id":"free"},{"bike_id":"4a7a23fd-6ac8-4b50-a7e8-e5bbecd51458","system_id":"levelo_inurba_marseille","lat":43.24073,"lon":5.37757,"is_reserved":false,"is_disabled":false,"rental_uris":{"android":"levelo://app?vid=4a7a23fd-6ac8-4b50-a7e8-e5bbecd51458","ios":"levelo://app?vid=4a7a23fd-6ac8-4b50-a7e8-e5bbecd51458"},"vehicle_type_id":"4","last_reported":1701677407,"current_range_meters":25200,"station_id":"ce4bhnp2rcd13ifvqgvg","pricing_plan_id":"free"},{"bike_id":"7a1d1051-d54f-463b-ac35-161f584e52a3","system_id":"levelo_inurba_marseille","lat":43.24073,"lon":5.37758,"is_reserved":false,"is_disabled":false,"rental_uris":{"android":"levelo://app?vid=7a1d1051-d54f-463b-ac35-161f584e52a3","ios":"levelo://app?vid=7a1d1051-d54f-463b-ac35-161f584e52a3"},"vehicle_type_id":"4","last_reported":1701677407,"current_range_meters":14400,"station_id":"ce4bhnp2rcd13ifvqgvg","pricing_plan_id":"free"},{"bike_id":"8c62b2c5-fb38-4b13-8d15-43bff951cb17","system_id":"levelo_inurba_marseille","lat":43.240623,"lon":5.377642,"is_reserved":false,"is_disabled":false,"rental_uris":{"android":"levelo://app?vid=8c62b2c5-fb38-4b13-8d15-43bff951cb17","ios":"levelo://app?vid=8c62b2c5-fb38-4b13-8d15-43bff951cb17"},"vehicle_type_id":"4","last_reported":1701677407,"current_range_meters":21200,"station_id":"ce4bhnp2rcd13ifvqgvg","pricing_plan_id":"free"},{"bike_id":"7cb0d242-ac96-484b-9c43-d6df735fc49c","system_id":"levelo_inurba_marseille","lat":43.240623,"lon":5.377642,"is_reserved":false,"is_disabled":false,"rental_uris":{"android":"levelo://app?vid=7cb0d242-ac96-484b-9c43-d6df735fc49c","ios":"levelo://app?vid=7cb0d242-ac96-484b-9c43-d6df735fc49c"},"vehicle_type_id":"4","last_reported":1701677407,"current_range_meters":20000,"station_id":"ce4bhnp2rcd13ifvqgvg","pricing_plan_id":"free"},{"bike_id":"8ca281e6-1fd6-4097-8b97-62ed01e1aeec","system_id":"levelo_inurba_marseille","lat":43.24072,"lon":5.37762,"is_reserved":false,"is_disabled":false,"rental_uris":{"android":"levelo://app?vid=8ca281e6-1fd6-4097-8b97-62ed01e1aeec","ios":"levelo://app?vid=8ca281e6-1fd6-4097-8b97-62ed01e1aeec"},"vehicle_type_id":"4","last_reported":1701677407,"current_range_meters":22000,"station_id":"ce4bhnp2rcd13ifvqgvg","pricing_plan_id":"free"},{"bike_id":"892a8ee7-fcdb-42c5-8402-c5b3993a1045","system_id":"levelo_inurba_marseille","lat":43.24072,"lon":5.37762,"is_reserved":false,"is_disabled":false,"rental_uris":{"android":"levelo://app?vid=892a8ee7-fcdb-42c5-8402-c5b3993a1045","ios":"levelo://app?vid=892a8ee7-fcdb-42c5-8402-c5b3993a1045"},"vehicle_type_id":"4","last_reported":1701677407,"current_range_meters":16000,"station_id":"ce4bhnp2rcd13ifvqgvg","pricing_plan_id":"free"},{"bike_id":"8d6daf44-90cd-47b3-9294-361b1a179555","system_id":"levelo_inurba_marseille","lat":43.24071,"lon":5.37758,"is_reserved":false,"is_disabled":false,"rental_uris":{"android":"levelo://app?vid=8d6daf44-90cd-47b3-9294-361b1a179555","ios":"levelo://app?vid=8d6daf44-90cd-47b3-9294-361b1a179555"},"vehicle_type_id":"4","last_reported":1701677407,"current_range_meters":18400,"station_id":"ce4bhnp2rcd13ifvqgvg","pricing_plan_id":"free"},{"bike_id":"fdac96e7-8d71-4b35-a759-d41a86e70398","system_id":"levelo_inurba_marseille","lat":43.2407,"lon":5.37754,"is_reserved":false,"is_disabled":false,"rental_uris":{"android":"levelo://app?vid=fdac96e7-8d71-4b35-a759-d41a86e70398","ios":"levelo://app?vid=fdac96e7-8d71-4b35-a759-d41a86e70398"},"vehicle_type_id":"4","last_reported":1701677407,"current_range_meters":18800,"station_id":"ce4bhnp2rcd13ifvqgvg","pricing_plan_id":"free"},{"bike_id":"0455af46-3351-4cdf-82a9-1a0f2459bc2b","system_id":"levelo_inurba_marseille","lat":43.2407,"lon":5.37759,"is_reserved":false,"is_disabled":false,"rental_uris":{"android":"levelo://app?vid=0455af46-3351-4cdf-82a9-1a0f2459bc2b","ios":"levelo://app?vid=0455af46-3351-4cdf-82a9-1a0f2459bc2b"},"vehicle_type_id":"4","last_reported":1701677407,"current_range_meters":29600,"station_id":"ce4bhnp2rcd13ifvqgvg","pricing_plan_id":"free"},{"bike_id":"379df9b6-1116-4c95-a052-eef401dfba7d","system_id":"levelo_inurba_marseille","lat":43.240623,"lon":5.377642,"is_reserved":false,"is_disabled":false,"rental_uris":{"android":"levelo://app?vid=379df9b6-1116-4c95-a052-eef401dfba7d","ios":"levelo://app?vid=379df9b6-1116-4c95-a052-eef401dfba7d"},"vehicle_type_id":"4","last_reported":1701677407,"current_range_meters":28800,"station_id":"ce4bhnp2rcd13ifvqgvg","pricing_plan_id":"free"},{"bike_id":"53b7b289-c00c-486a-9606-0c01eda7cc63","system_id":"levelo_inurba_marseille","lat":43.240623,"lon":5.377642,"is_reserved":false,"is_disabled":false,"rental_uris":{"android":"levelo://app?vid=53b7b289-c00c-486a-9606-0c01eda7cc63","ios":"levelo://app?vid=53b7b289-c00c-486a-9606-0c01eda7cc63"},"vehicle_type_id":"4","last_reported":1701677407,"current_range_meters":28400,"station_id":"ce4bhnp2rcd13ifvqgvg","pricing_plan_id":"free"},{"bike_id":"ee8641c9-8f5e-429f-87eb-8488a31e1ac7","system_id":"levelo_inurba_marseille","lat":43.240623,"lon":5.377642,"is_reserved":false,"is_disabled":false,"rental_uris":{"android":"levelo://app?vid=ee8641c9-8f5e-429f-87eb-8488a31e1ac7","ios":"levelo://app?vid=ee8641c9-8f5e-429f-87eb-8488a31e1ac7"},"vehicle_type_id":"4","last_reported":1701677407,"current_range_meters":27200,"station_id":"ce4bhnp2rcd13ifvqgvg","pricing_plan_id":"free"},{"bike_id":"fe1f8222-da6c-4d4d-b7df-2e92be7ab4e9","system_id":"levelo_inurba_marseille","lat":43.240623,"lon":5.377642,"is_reserved":false,"is_disabled":false,"rental_uris":{"android":"levelo://app?vid=fe1f8222-da6c-4d4d-b7df-2e92be7ab4e9","ios":"levelo://app?vid=fe1f8222-da6c-4d4d-b7df-2e92be7ab4e9"},"vehicle_type_id":"4","last_reported":1701677407,"current_range_meters":3200,"station_id":"ce4bhnp2rcd13ifvqgvg","pricing_plan_id":"free"},{"bike_id":"e990f83e-7695-4cf8-900a-cdcfc418cbfb","system_id":"levelo_inurba_marseille","lat":43.240623,"lon":5.377642,"is_reserved":false,"is_disabled":false,"rental_uris":{"android":"levelo://app?vid=e990f83e-7695-4cf8-900a-cdcfc418cbfb","ios":"levelo://app?vid=e990f83e-7695-4cf8-900a-cdcfc418cbfb"},"vehicle_type_id":"4","last_reported":1701677407,"current_range_meters":17600,"station_id":"ce4bhnp2rcd13ifvqgvg","pricing_plan_id":"free"},{"bike_id":"f78c95a8-bf70-4b60-b9bb-2d8bf94cc482","system_id":"levelo_inurba_marseille","lat":43.240623,"lon":5.377642,"is_reserved":false,"is_disabled":false,"rental_uris":{"android":"levelo://app?vid=f78c95a8-bf70-4b60-b9bb-2d8bf94cc482","ios":"levelo://app?vid=f78c95a8-bf70-4b60-b9bb-2d8bf94cc482"},"vehicle_type_id":"4","last_reported":1701677407,"current_range_meters":6400,"station_id":"ce4bhnp2rcd13ifvqgvg","pricing_plan_id":"free"},{"bike_id":"16fb8f9e-356e-4bfa-bcad-a2fd61bcfa9a","system_id":"levelo_inurba_marseille","lat":43.240623,"lon":5.377642,"is_reserved":false,"is_disabled":false,"rental_uris":{"android":"levelo://app?vid=16fb8f9e-356e-4bfa-bcad-a2fd61bcfa9a","ios":"levelo://app?vid=16fb8f9e-356e-4bfa-bcad-a2fd61bcfa9a"},"vehicle_type_id":"4","last_reported":1701677407,"current_range_meters":19200,"station_id":"ce4bhnp2rcd13ifvqgvg","pricing_plan_id":"free"},{"bike_id":"22a04814-c84d-40fd-b1ff-8962ab2f7be5","system_id":"levelo_inurba_marseille","lat":43.240623,"lon":5.377642,"is_reserved":false,"is_disabled":false,"rental_uris":{"android":"levelo://app?vid=22a04814-c84d-40fd-b1ff-8962ab2f7be5","ios":"levelo://app?vid=22a04814-c84d-40fd-b1ff-8962ab2f7be5"},"vehicle_type_id":"4","last_reported":1701677407,"current_range_meters":18000,"station_id":"ce4bhnp2rcd13ifvqgvg","pricing_plan_id":"free"},{"bike_id":"f2af168d-9b05-43cf-8abc-8c82d60ce684","system_id":"levelo_inurba_marseille","lat":43.240623,"lon":5.377642,"is_reserved":false,"is_disabled":false,"rental_uris":{"android":"levelo://app?vid=f2af168d-9b05-43cf-8abc-8c82d60ce684","ios":"levelo://app?vid=f2af168d-9b05-43cf-8abc-8c82d60ce684"},"vehicle_type_id":"4","last_reported":1701677407,"current_range_meters":28400,"station_id":"ce4bhnp2rcd13ifvqgvg","pricing_plan_id":"free"},{"bike_id":"89c776a1-8d0c-4ef3-882d-ddd73cb5605a","system_id":"levelo_inurba_marseille","lat":43.240623,"lon":5.377642,"is_reserved":false,"is_disabled":false,"rental_uris":{"android":"levelo://app?vid=89c776a1-8d0c-4ef3-882d-ddd73cb5605a","ios":"levelo://app?vid=89c776a1-8d0c-4ef3-882d-ddd73cb5605a"},"vehicle_type_id":"4","last_reported":1701677407,"current_range_meters":12800,"station_id":"ce4bhnp2rcd13ifvqgvg","pricing_plan_id":"free"},{"bike_id":"52eae59a-fb1f-41ad-aa52-d5782c52d4c8","system_id":"levelo_inurba_marseille","lat":43.240623,"lon":5.377642,"is_reserved":false,"is_disabled":false,"rental_uris":{"android":"levelo://app?vid=52eae59a-fb1f-41ad-aa52-d5782c52d4c8","ios":"levelo://app?vid=52eae59a-fb1f-41ad-aa52-d5782c52d4c8"},"vehicle_type_id":"4","last_reported":1701677407,"current_range_meters":31600,"station_id":"ce4bhnp2rcd13ifvqgvg","pricing_plan_id":"free"},{"bike_id":"8eda1398-51ba-4755-87be-8c82d235b685","system_id":"levelo_inurba_marseille","lat":43.241782,"lon":5.397261,"is_reserved":false,"is_disabled":false,"rental_uris":{"android":"levelo://app?vid=8eda1398-51ba-4755-87be-8c82d235b685","ios":"levelo://app?vid=8eda1398-51ba-4755-87be-8c82d235b685"},"vehicle_type_id":"4","last_reported":1701677407,"current_range_meters":4000,"station_id":"ce4bhn12rcd13ifvqgpg","pricing_plan_id":"free"},{"bike_id":"2b04708e-eed8-4471-916a-9fdeea01eec7","system_id":"levelo_inurba_marseille","lat":43.231923,"lon":5.355545,"is_reserved":false,"is_disabled":false,"rental_uris":{"android":"levelo://app?vid=2b04708e-eed8-4471-916a-9fdeea01eec7","ios":"levelo://app?vid=2b04708e-eed8-4471-916a-9fdeea01eec7"},"vehicle_type_id":"4","last_reported":1701677407,"current_range_meters":28800,"station_id":"ce4bhu92rcd13ifvqi70","pricing_plan_id":"free"},{"bike_id":"1dff9a6f-8f42-4c79-9ff5-6e67ab01ec87","system_id":"levelo_inurba_marseille","lat":43.231923,"lon":5.355545,"is_reserved":false,"is_disabled":false,"rental_uris":{"android":"levelo://app?vid=1dff9a6f-8f42-4c79-9ff5-6e67ab01ec87","ios":"levelo://app?vid=1dff9a6f-8f42-4c79-9ff5-6e67ab01ec87"},"vehicle_type_id":"4","last_reported":1701677407,"current_range_meters":1200,"station_id":"ce4bhu92rcd13ifvqi70","pricing_plan_id":"free"},{"bike_id":"87815193-0a9e-4a5a-8f22-63817bf9d429","system_id":"levelo_inurba_marseille","lat":43.231919,"lon":5.355532,"is_reserved":false,"is_disabled":false,"rental_uris":{"android":"levelo://app?vid=87815193-0a9e-4a5a-8f22-63817bf9d429","ios":"levelo://app?vid=87815193-0a9e-4a5a-8f22-63817bf9d429"},"vehicle_type_id":"4","last_reported":1701677407,"current_range_meters":30400,"station_id":"ce4bhu92rcd13ifvqi70","pricing_plan_id":"free"},{"bike_id":"cf3102c4-88e0-4a41-86b7-69a76932d3e6","system_id":"levelo_inurba_marseille","lat":43.231923,"lon":5.355545,"is_reserved":false,"is_disabled":false,"rental_uris":{"android":"levelo://app?vid=cf3102c4-88e0-4a41-86b7-69a76932d3e6","ios":"levelo://app?vid=cf3102c4-88e0-4a41-86b7-69a76932d3e6"},"vehicle_type_id":"4","last_reported":1701677407,"current_range_meters":31200,"station_id":"ce4bhu92rcd13ifvqi70","pricing_plan_id":"free"},{"bike_id":"6041d620-664b-4836-b597-a0e62593a032","system_id":"levelo_inurba_marseille","lat":43.231923,"lon":5.355545,"is_reserved":false,"is_disabled":false,"rental_uris":{"android":"levelo://app?vid=6041d620-664b-4836-b597-a0e62593a032","ios":"levelo://app?vid=6041d620-664b-4836-b597-a0e62593a032"},"vehicle_type_id":"4","last_reported":1701677407,"current_range_meters":25200,"station_id":"ce4bhu92rcd13ifvqi70","pricing_plan_id":"free"},{"bike_id":"9e01ee59-41e6-425c-ae1f-3e33312fefcd","system_id":"levelo_inurba_marseille","lat":43.231923,"lon":5.355545,"is_reserved":false,"is_disabled":false,"rental_uris":{"android":"levelo://app?vid=9e01ee59-41e6-425c-ae1f-3e33312fefcd","ios":"levelo://app?vid=9e01ee59-41e6-425c-ae1f-3e33312fefcd"},"vehicle_type_id":"4","last_reported":1701677407,"current_range_meters":12800,"station_id":"ce4bhu92rcd13ifvqi70","pricing_plan_id":"free"},{"bike_id":"a2778a75-2f32-457d-810c-ad5c32010803","system_id":"levelo_inurba_marseille","lat":43.231919,"lon":5.355532,"is_reserved":false,"is_disabled":false,"rental_uris":{"android":"levelo://app?vid=a2778a75-2f32-457d-810c-ad5c32010803","ios":"levelo://app?vid=a2778a75-2f32-457d-810c-ad5c32010803"},"vehicle_type_id":"4","last_reported":1701677407,"current_range_meters":16800,"station_id":"ce4bhu92rcd13ifvqi70","pricing_plan_id":"free"},{"bike_id":"e47e98e0-4256-4c41-ae86-e531a41b9213","system_id":"levelo_inurba_marseille","lat":43.231794,"lon":5.400052,"is_reserved":false,"is_disabled":false,"rental_uris":{"android":"levelo://app?vid=e47e98e0-4256-4c41-ae86-e531a41b9213","ios":"levelo://app?vid=e47e98e0-4256-4c41-ae86-e531a41b9213"},"vehicle_type_id":"4","last_reported":1701677407,"current_range_meters":31200,"station_id":"ce4bhn12rcd13ifvqgqg","pricing_plan_id":"free"},{"bike_id":"88cf855f-bb31-40e0-8afc-686df3c193ab","system_id":"levelo_inurba_marseille","lat":43.231794,"lon":5.400052,"is_reserved":false,"is_disabled":false,"rental_uris":{"android":"levelo://app?vid=88cf855f-bb31-40e0-8afc-686df3c193ab","ios":"levelo://app?vid=88cf855f-bb31-40e0-8afc-686df3c193ab"},"vehicle_type_id":"4","last_reported":1701677407,"current_range_meters":28800,"station_id":"ce4bhn12rcd13ifvqgqg","pricing_plan_id":"free"},{"bike_id":"22bd98e3-c33f-4c44-ae2b-f96729d36f4f","system_id":"levelo_inurba_marseille","lat":43.231793,"lon":5.400044,"is_reserved":false,"is_disabled":false,"rental_uris":{"android":"levelo://app?vid=22bd98e3-c33f-4c44-ae2b-f96729d36f4f","ios":"levelo://app?vid=22bd98e3-c33f-4c44-ae2b-f96729d36f4f"},"vehicle_type_id":"4","last_reported":1701677407,"current_range_meters":31200,"station_id":"ce4bhn12rcd13ifvqgqg","pricing_plan_id":"free"},{"bike_id":"554e18bc-f6bd-448a-9d3a-a49810d0b6de","system_id":"levelo_inurba_marseille","lat":43.23189,"lon":5.3998,"is_reserved":false,"is_disabled":false,"rental_uris":{"android":"levelo://app?vid=554e18bc-f6bd-448a-9d3a-a49810d0b6de","ios":"levelo://app?vid=554e18bc-f6bd-448a-9d3a-a49810d0b6de"},"vehicle_type_id":"4","last_reported":1701677407,"current_range_meters":15200,"station_id":"ce4bhn12rcd13ifvqgqg","pricing_plan_id":"free"},{"bike_id":"ab5eae98-96ca-4718-91b7-353de917f40d","system_id":"levelo_inurba_marseille","lat":43.231793,"lon":5.400044,"is_reserved":false,"is_disabled":false,"rental_uris":{"android":"levelo://app?vid=ab5eae98-96ca-4718-91b7-353de917f40d","ios":"levelo://app?vid=ab5eae98-96ca-4718-91b7-353de917f40d"},"vehicle_type_id":"4","last_reported":1701677407,"current_range_meters":31200,"station_id":"ce4bhn12rcd13ifvqgqg","pricing_plan_id":"free"},{"bike_id":"0cf73e26-cfe4-495a-8675-6603ab968aec","system_id":"levelo_inurba_marseille","lat":43.231794,"lon":5.400052,"is_reserved":false,"is_disabled":false,"rental_uris":{"android":"levelo://app?vid=0cf73e26-cfe4-495a-8675-6603ab968aec","ios":"levelo://app?vid=0cf73e26-cfe4-495a-8675-6603ab968aec"},"vehicle_type_id":"4","last_reported":1701677407,"current_range_meters":29200,"station_id":"ce4bhn12rcd13ifvqgqg","pricing_plan_id":"free"},{"bike_id":"8f0fb87f-53e2-432d-b05f-ab1e816b61dc","system_id":"levelo_inurba_marseille","lat":43.231794,"lon":5.400052,"is_reserved":false,"is_disabled":false,"rental_uris":{"android":"levelo://app?vid=8f0fb87f-53e2-432d-b05f-ab1e816b61dc","ios":"levelo://app?vid=8f0fb87f-53e2-432d-b05f-ab1e816b61dc"},"vehicle_type_id":"4","last_reported":1701677407,"current_range_meters":31200,"station_id":"ce4bhn12rcd13ifvqgqg","pricing_plan_id":"free"},{"bike_id":"3fdd6789-d52a-4c7f-96f4-f754cbf436d6","system_id":"levelo_inurba_marseille","lat":43.23188,"lon":5.39984,"is_reserved":false,"is_disabled":false,"rental_uris":{"android":"levelo://app?vid=3fdd6789-d52a-4c7f-96f4-f754cbf436d6","ios":"levelo://app?vid=3fdd6789-d52a-4c7f-96f4-f754cbf436d6"},"vehicle_type_id":"4","last_reported":1701677407,"current_range_meters":29200,"station_id":"ce4bhn12rcd13ifvqgqg","pricing_plan_id":"free"},{"bike_id":"8bb4a4e8-9672-4d13-b6c9-9d0eb28673b3","system_id":"levelo_inurba_marseille","lat":43.231793,"lon":5.400044,"is_reserved":false,"is_disabled":false,"rental_uris":{"android":"levelo://app?vid=8bb4a4e8-9672-4d13-b6c9-9d0eb28673b3","ios":"levelo://app?vid=8bb4a4e8-9672-4d13-b6c9-9d0eb28673b3"},"vehicle_type_id":"4","last_reported":1701677407,"current_range_meters":30000,"station_id":"ce4bhn12rcd13ifvqgqg","pricing_plan_id":"free"},{"bike_id":"e44db449-6914-4cfb-bde0-4c3cbeca97c3","system_id":"levelo_inurba_marseille","lat":43.231794,"lon":5.400052,"is_reserved":false,"is_disabled":false,"rental_uris":{"android":"levelo://app?vid=e44db449-6914-4cfb-bde0-4c3cbeca97c3","ios":"levelo://app?vid=e44db449-6914-4cfb-bde0-4c3cbeca97c3"},"vehicle_type_id":"4","last_reported":1701677407,"current_range_meters":31200,"station_id":"ce4bhn12rcd13ifvqgqg","pricing_plan_id":"free"},{"bike_id":"457c552c-8af5-4b7b-9f6b-8c901265a623","system_id":"levelo_inurba_marseille","lat":43.231859,"lon":5.39987,"is_reserved":false,"is_disabled":false,"rental_uris":{"android":"levelo://app?vid=457c552c-8af5-4b7b-9f6b-8c901265a623","ios":"levelo://app?vid=457c552c-8af5-4b7b-9f6b-8c901265a623"},"vehicle_type_id":"4","last_reported":1701677407,"current_range_meters":24800,"station_id":"ce4bhn12rcd13ifvqgqg","pricing_plan_id":"free"},{"bike_id":"6bd9f065-50d9-4657-9ca0-a006f413d305","system_id":"levelo_inurba_marseille","lat":43.231794,"lon":5.400052,"is_reserved":false,"is_disabled":false,"rental_uris":{"android":"levelo://app?vid=6bd9f065-50d9-4657-9ca0-a006f413d305","ios":"levelo://app?vid=6bd9f065-50d9-4657-9ca0-a006f413d305"},"vehicle_type_id":"4","last_reported":1701677407,"current_range_meters":31200,"station_id":"ce4bhn12rcd13ifvqgqg","pricing_plan_id":"free"},{"bike_id":"5d9be6d5-2985-432d-ac4f-8e0798b2a0ac","system_id":"levelo_inurba_marseille","lat":43.231793,"lon":5.400044,"is_reserved":false,"is_disabled":false,"rental_uris":{"android":"levelo://app?vid=5d9be6d5-2985-432d-ac4f-8e0798b2a0ac","ios":"levelo://app?vid=5d9be6d5-2985-432d-ac4f-8e0798b2a0ac"},"vehicle_type_id":"4","last_reported":1701677407,"current_range_meters":30000,"station_id":"ce4bhn12rcd13ifvqgqg","pricing_plan_id":"free"},{"bike_id":"77b1a551-da7f-429a-980e-bfc6767a5958","system_id":"levelo_inurba_marseille","lat":43.231794,"lon":5.400052,"is_reserved":false,"is_disabled":false,"rental_uris":{"android":"levelo://app?vid=77b1a551-da7f-429a-980e-bfc6767a5958","ios":"levelo://app?vid=77b1a551-da7f-429a-980e-bfc6767a5958"},"vehicle_type_id":"4","last_reported":1701677407,"current_range_meters":31200,"station_id":"ce4bhn12rcd13ifvqgqg","pricing_plan_id":"free"},{"bike_id":"8018717d-336c-48a7-9c90-84a6551a8bc7","system_id":"levelo_inurba_marseille","lat":43.231498,"lon":5.436983,"is_reserved":false,"is_disabled":false,"rental_uris":{"android":"levelo://app?vid=8018717d-336c-48a7-9c90-84a6551a8bc7","ios":"levelo://app?vid=8018717d-336c-48a7-9c90-84a6551a8bc7"},"vehicle_type_id":"4","last_reported":1701677407,"current_range_meters":6000,"station_id":"ce4bhmp2rcd13ifvqgog","pricing_plan_id":"free"},{"bike_id":"818b7971-a62f-4d0c-b4d6-ebcff5688a44","system_id":"levelo_inurba_marseille","lat":43.231562,"lon":5.436933,"is_reserved":false,"is_disabled":false,"rental_uris":{"android":"levelo://app?vid=818b7971-a62f-4d0c-b4d6-ebcff5688a44","ios":"levelo://app?vid=818b7971-a62f-4d0c-b4d6-ebcff5688a44"},"vehicle_type_id":"4","last_reported":1701677407,"current_range_meters":28400,"station_id":"ce4bhmp2rcd13ifvqgog","pricing_plan_id":"free"},{"bike_id":"9a101203-a4c3-4653-b04e-23d858664d35","system_id":"levelo_inurba_marseille","lat":43.231562,"lon":5.436933,"is_reserved":false,"is_disabled":false,"rental_uris":{"android":"levelo://app?vid=9a101203-a4c3-4653-b04e-23d858664d35","ios":"levelo://app?vid=9a101203-a4c3-4653-b04e-23d858664d35"},"vehicle_type_id":"4","last_reported":1701677407,"current_range_meters":28400,"station_id":"ce4bhmp2rcd13ifvqgog","pricing_plan_id":"free"},{"bike_id":"2e1f4911-ec15-4212-aa8f-8ade17ab151d","system_id":"levelo_inurba_marseille","lat":43.231562,"lon":5.436933,"is_reserved":false,"is_disabled":false,"rental_uris":{"android":"levelo://app?vid=2e1f4911-ec15-4212-aa8f-8ade17ab151d","ios":"levelo://app?vid=2e1f4911-ec15-4212-aa8f-8ade17ab151d"},"vehicle_type_id":"4","last_reported":1701677407,"current_range_meters":8800,"station_id":"ce4bhmp2rcd13ifvqgog","pricing_plan_id":"free"},{"bike_id":"706f037c-7ec0-40f4-884a-de295754c8cd","system_id":"levelo_inurba_marseille","lat":43.231562,"lon":5.436933,"is_reserved":false,"is_disabled":false,"rental_uris":{"android":"levelo://app?vid=706f037c-7ec0-40f4-884a-de295754c8cd","ios":"levelo://app?vid=706f037c-7ec0-40f4-884a-de295754c8cd"},"vehicle_type_id":"4","last_reported":1701677407,"current_range_meters":10400,"station_id":"ce4bhmp2rcd13ifvqgog","pricing_plan_id":"free"},{"bike_id":"31d0811f-403f-42aa-9ea6-b138ed5aedee","system_id":"levelo_inurba_marseille","lat":43.231562,"lon":5.436933,"is_reserved":false,"is_disabled":false,"rental_uris":{"android":"levelo://app?vid=31d0811f-403f-42aa-9ea6-b138ed5aedee","ios":"levelo://app?vid=31d0811f-403f-42aa-9ea6-b138ed5aedee"},"vehicle_type_id":"4","last_reported":1701677407,"current_range_meters":31600,"station_id":"ce4bhmp2rcd13ifvqgog","pricing_plan_id":"free"},{"bike_id":"de3cf5f3-8a01-4cf0-bf71-534ad46f0972","system_id":"levelo_inurba_marseille","lat":43.231562,"lon":5.436933,"is_reserved":false,"is_disabled":false,"rental_uris":{"android":"levelo://app?vid=de3cf5f3-8a01-4cf0-bf71-534ad46f0972","ios":"levelo://app?vid=de3cf5f3-8a01-4cf0-bf71-534ad46f0972"},"vehicle_type_id":"4","last_reported":1701677407,"current_range_meters":10800,"station_id":"ce4bhmp2rcd13ifvqgog","pricing_plan_id":"free"},{"bike_id":"30690881-465e-4f4e-a81a-04a1a40e4341","system_id":"levelo_inurba_marseille","lat":43.231562,"lon":5.436933,"is_reserved":false,"is_disabled":false,"rental_uris":{"android":"levelo://app?vid=30690881-465e-4f4e-a81a-04a1a40e4341","ios":"levelo://app?vid=30690881-465e-4f4e-a81a-04a1a40e4341"},"vehicle_type_id":"4","last_reported":1701677407,"current_range_meters":10000,"station_id":"ce4bhmp2rcd13ifvqgog","pricing_plan_id":"free"},{"bike_id":"b718cec7-5e66-4216-830b-20c4cb80c1f6","system_id":"levelo_inurba_marseille","lat":43.231562,"lon":5.436933,"is_reserved":false,"is_disabled":false,"rental_uris":{"android":"levelo://app?vid=b718cec7-5e66-4216-830b-20c4cb80c1f6","ios":"levelo://app?vid=b718cec7-5e66-4216-830b-20c4cb80c1f6"},"vehicle_type_id":"4","last_reported":1701677407,"current_range_meters":28800,"station_id":"ce4bhmp2rcd13ifvqgog","pricing_plan_id":"free"}]}}