{"last_updated":1744291279,"ttl":60,"version":"2.2","data":{"bikes":[{"bike_id":"47e56c84-4126-4109-b40f-40cdda423909","system_id":"levelo_inurba_marseille","lat":43.25107,"lon":5.40323,"is_reserved":false,"is_disabled":false,"rental_uris":{"android":"levelo://app?vid=47e56c84-4126-4109-b40f-40cdda423909","ios":"levelo://app?vid=47e56c84-4126-4109-b40f-40cdda423909"},"vehicle_type_id":"4","last_reported":1744291279,"current_range_meters":2000,"station_id":"ce4bhlh2rcd13ifvqgig","pricing_plan_id":"cebpf4jnsgd1na2vs0mg"},{"bike_id":"431c0275-4a04-46ef-945e-627c2cd0c7b8","system_id":"levelo_inurba_marseille","lat":43.29465,"lon":5.37413,"is_reserved":false,"is_disabled":false,"rental_uris":{"android":"levelo://app?vid=431c0275-4a04-46ef-945e-627c2cd0c7b8","ios":"levelo://app?vid=431c0275-4a04-46ef-945e-627c2cd0c7b8"},"vehicle_type_id":"4","last_reported":1744291279,"current_range_meters":2800,"station_id":"","pricing_plan_id":"cebpf4jnsgd1na2vs0mg"},{"bike_id":"b700923e-9c88-4390-b938-750a3c8e4a51","system_id":"levelo_inurba_marseille","lat":43.25584,"lon":5.38231,"is_reserved":false,"is_disabled":false,"rental_uris":{"android":"levelo://app?vid=b700923e-9c88-4390-b938-750a3c8e4a51","ios":"levelo://app?vid=b700923e-9c88-4390-b938-750a3c8e4a51"},"vehicle_type_id":"4","last_reported":1744291279,"current_range_meters":2800,"station_id":"ce4bhih2rcd13ifvqfs0","pricing_plan_id":"cebpf4jnsgd1na2vs0mg"},{"bike_id":"8e583876-99d1-41fd-bf29-875ef18377f8","system_id":"levelo_inurba_marseille","lat":43.26194,"lon":5.37949,"is_reserved":false,"is_disabled":false,"rental_uris":{"android":"levelo://app?vid=8e583876-99d1-41fd-bf29-875ef18377f8","ios":"levelo://app?vid=8e583876-99d1-41fd-bf29-875ef18377f8"},"vehicle_type_id":"4","last_reported":1744291279,"current_range_meters":3600,"station_id":"ce4bhjp2rcd13ifvqg90","pricing_plan_id":"cebpf4jnsgd1na2vs0mg"},{"bike_id":"f2f34643-928f-49d4-a78c-7a4f5035c48e","system_id":"levelo_inurba_marseille","lat":43.26559,"lon":5.39009,"is_reserved":false,"is_disabled":false,"rental_uris":{"android":"levelo://app?vid=f2f34643-928f-49d4-a78c-7a4f5035c48e","ios":"levelo://app?vid=f2f34643-928f-49d4-a78c-7a4f5035c48e"},"vehicle_type_id":"4","last_reported":1744291279,"current_range_meters":3600,"station_id":"ce4bhe12rcd13ifvqf30","pricing_plan_id":"cebpf4jnsgd1na2vs0mg"},{"bike_id":"97d9f5c7-5601-4024-8218-e080850705e4","system_id":"levelo_inurba_marseille","lat":43.28423,"lon":5.34994,"is_reserved":false,"is_disabled":true,"rental_uris":{"android":"levelo://app?vid=97d9f5c7-5601-4024-8218-e080850705e4","ios":"levelo://app?vid=97d9f5c7-5601-4024-8218-e080850705e4"},"vehicle_type_id":"4","last_reported":1744291279,"current_range_meters":3600,"station_id":"ce4bhbh2rcd13ifvqepg","pricing_plan_id":"cebpf4jnsgd1na2vs0mg"},{"bike_id":"a62aa682-f11c-4089-8eaa-febfa2b3e7c6","system_id":"levelo_inurba_marseille","lat":43.23151,"lon":5.43709,"is_reserved":false,"is_disabled":false,"rental_uris":{"android":"levelo://app?vid=a62aa682-f11c-4089-8eaa-febfa2b3e7c6","ios":"levelo://app?vid=a62aa682-f11c-4089-8eaa-febfa2b3e7c6"},"vehicle_type_id":"4","last_reported":1744291279,"current_range_meters":3600,"station_id":"ce4bhmp2rcd13ifvqgog","pricing_plan_id":"cebpf4jnsgd1na2vs0mg"},{"bike_id":"9a7e02de-6751-4c23-af78-cb59743f9b86","system_id":"levelo_inurba_marseille","lat":43.30303,"lon":5.39209,"is_reserved":false,"is_disabled":false,"rental_uris":{"android":"levelo://app?vid=9a7e02de-6751-4c23-af78-cb59743f9b86","ios":"levelo://app?vid=9a7e02de-6751-4c23-af78-cb59743f9b86"},"vehicle_type_id":"4","last_reported":1744291279,"current_range_meters":4000,"station_id":"ce4bgkh2rcd13ifvqbk0","pricing_plan_id":"cebpf4jnsgd1na2vs0mg"},{"bike_id":"80663e12-6b64-446d-88c9-20255bde1a8a","system_id":"levelo_inurba_marseille","lat":43.30883,"lon":5.39647,"is_reserved":false,"is_disabled":true,"rental_uris":{"android":"levelo://app?vid=80663e12-6b64-446d-88c9-20255bde1a8a","ios":"levelo://app?vid=80663e12-6b64-446d-88c9-20255bde1a8a"},"vehicle_type_id":"4","last_reported":1744291279,"current_range_meters":4000,"station_id":"ce4bh012rcd13ifvqcv0","pricing_plan_id":"cebpf4jnsgd1na2vs0mg"},{"bike_id":"97832ce7-6df1-49cd-9c1c-49c8f21e1d9a","system_id":"levelo_inurba_marseille","lat":43.2848,"lon":5.38412,"is_reserved":false,"is_disabled":false,"rental_uris":{"android":"levelo://app?vid=97832ce7-6df1-49cd-9c1c-49c8f21e1d9a","ios":"levelo://app?vid=97832ce7-6df1-49cd-9c1c-49c8f21e1d9a"},"vehicle_type_id":"4","last_reported":1744291279,"current_range_meters":3600,"station_id":"ce4bh512rcd13ifvqe3g","pricing_plan_id":"cebpf4jnsgd1na2vs0mg"},{"bike_id":"8ef78a88-43e3-44b8-a87e-427918543fa8","system_id":"levelo_inurba_marseille","lat":43.30198,"lon":5.3948,"is_reserved":false,"is_disabled":false,"rental_uris":{"android":"levelo://app?vid=8ef78a88-43e3-44b8-a87e-427918543fa8","ios":"levelo://app?vid=8ef78a88-43e3-44b8-a87e-427918543fa8"},"vehicle_type_id":"4","last_reported":1744291279,"current_range_meters":4400,"station_id":"ce4bh0p2rcd13ifvqd70","pricing_plan_id":"cebpf4jnsgd1na2vs0mg"},{"bike_id":"417c2dae-9551-42a3-aa2d-10700fc8b818","system_id":"levelo_inurba_marseille","lat":43.307887,"lon":5.37651,"is_reserved":false,"is_disabled":false,"rental_uris":{"android":"levelo://app?vid=417c2dae-9551-42a3-aa2d-10700fc8b818","ios":"levelo://app?vid=417c2dae-9551-42a3-aa2d-10700fc8b818"},"vehicle_type_id":"4","last_reported":1744291279,"current_range_meters":4400,"station_id":"ce4bgv92rcd13ifvqcq0","pricing_plan_id":"cebpf4jnsgd1na2vs0mg"},{"bike_id":"5037faec-7abd-490c-b433-64c827de7f93","system_id":"levelo_inurba_marseille","lat":43.2828,"lon":5.35073,"is_reserved":false,"is_disabled":false,"rental_uris":{"android":"levelo://app?vid=5037faec-7abd-490c-b433-64c827de7f93","ios":"levelo://app?vid=5037faec-7abd-490c-b433-64c827de7f93"},"vehicle_type_id":"4","last_reported":1744291279,"current_range_meters":4400,"station_id":"ce4bhbp2rcd13ifvqerg","pricing_plan_id":"cebpf4jnsgd1na2vs0mg"},{"bike_id":"6cdaadb8-0be5-4eab-91d0-332b568bc153","system_id":"levelo_inurba_marseille","lat":43.31883,"lon":5.40731,"is_reserved":false,"is_disabled":false,"rental_uris":{"android":"levelo://app?vid=6cdaadb8-0be5-4eab-91d0-332b568bc153","ios":"levelo://app?vid=6cdaadb8-0be5-4eab-91d0-332b568bc153"},"vehicle_type_id":"4","last_reported":1744291279,"current_range_meters":4000,"station_id":"ce4bhq12rcd13ifvqhig","pricing_plan_id":"cebpf4jnsgd1na2vs0mg"},{"bike_id":"75947704-bdf8-48af-af47-c24ca568ca38","system_id":"levelo_inurba_marseille","lat":43.26564,"lon":5.37298,"is_reserved":false,"is_disabled":false,"rental_uris":{"android":"levelo://app?vid=75947704-bdf8-48af-af47-c24ca568ca38","ios":"levelo://app?vid=75947704-bdf8-48af-af47-c24ca568ca38"},"vehicle_type_id":"4","last_reported":1744291279,"current_range_meters":4400,"station_id":"ce4bhg12rcd13ifvqf70","pricing_plan_id":"cebpf4jnsgd1na2vs0mg"},{"bike_id":"e3e166d6-72ef-4bfd-a748-75584014541e","system_id":"levelo_inurba_marseille","lat":43.26992,"lon":5.4028,"is_reserved":false,"is_disabled":false,"rental_uris":{"android":"levelo://app?vid=e3e166d6-72ef-4bfd-a748-75584014541e","ios":"levelo://app?vid=e3e166d6-72ef-4bfd-a748-75584014541e"},"vehicle_type_id":"4","last_reported":1744291279,"current_range_meters":4800,"station_id":"cjm6bp8fraef2m0cb0m0","pricing_plan_id":"cebpf4jnsgd1na2vs0mg"},{"bike_id":"7f78ef2f-07dd-4c1b-a1f5-5c2598f37fd7","system_id":"levelo_inurba_marseille","lat":43.23148,"lon":5.43704,"is_reserved":false,"is_disabled":false,"rental_uris":{"android":"levelo://app?vid=7f78ef2f-07dd-4c1b-a1f5-5c2598f37fd7","ios":"levelo://app?vid=7f78ef2f-07dd-4c1b-a1f5-5c2598f37fd7"},"vehicle_type_id":"4","last_reported":1744291279,"current_range_meters":4800,"station_id":"ce4bhmp2rcd13ifvqgog","pricing_plan_id":"cebpf4jnsgd1na2vs0mg"},{"bike_id":"e99de8ac-89c0-492e-bd04-8180399741f7","system_id":"levelo_inurba_marseille","lat":43.29861,"lon":5.3973,"is_reserved":false,"is_disabled":false,"rental_uris":{"android":"levelo://app?vid=e99de8ac-89c0-492e-bd04-8180399741f7","ios":"levelo://app?vid=e99de8ac-89c0-492e-bd04-8180399741f7"},"vehicle_type_id":"4","last_reported":1744291279,"current_range_meters":4800,"station_id":"ce4bh0h2rcd13ifvqd50","pricing_plan_id":"cebpf4jnsgd1na2vs0mg"},{"bike_id":"08f9c0c8-8b33-4578-8a03-20f44d582241","system_id":"levelo_inurba_marseille","lat":43.30545,"lon":5.36976,"is_reserved":false,"is_disabled":false,"rental_uris":{"android":"levelo://app?vid=08f9c0c8-8b33-4578-8a03-20f44d582241","ios":"levelo://app?vid=08f9c0c8-8b33-4578-8a03-20f44d582241"},"vehicle_type_id":"4","last_reported":1744291279,"current_range_meters":5600,"station_id":"","pricing_plan_id":"cebpf4jnsgd1na2vs0mg"},{"bike_id":"c18b2718-6f18-434c-8148-e19c92c28141","system_id":"levelo_inurba_marseille","lat":43.27211,"lon":5.3918,"is_reserved":false,"is_disabled":false,"rental_uris":{"android":"levelo://app?vid=c18b2718-6f18-434c-8148-e19c92c28141","ios":"levelo://app?vid=c18b2718-6f18-434c-8148-e19c92c28141"},"vehicle_type_id":"4","last_reported":1744291279,"current_range_meters":5600,"station_id":"ce4bhhp2rcd13ifvqfm0","pricing_plan_id":"cebpf4jnsgd1na2vs0mg"},{"bike_id":"683a81fc-5ac9-4887-8820-b268aea3cd9c","system_id":"levelo_inurba_marseille","lat":43.2439,"lon":5.37063,"is_reserved":false,"is_disabled":false,"rental_uris":{"android":"levelo://app?vid=683a81fc-5ac9-4887-8820-b268aea3cd9c","ios":"levelo://app?vid=683a81fc-5ac9-4887-8820-b268aea3cd9c"},"vehicle_type_id":"4","last_reported":1744291279,"current_range_meters":5600,"station_id":"ce4bhhh2rcd13ifvqfk0","pricing_plan_id":"cebpf4jnsgd1na2vs0mg"},{"bike_id":"f9fde33d-3e05-4f24-9670-2ad2d1cacdc1","system_id":"levelo_inurba_marseille","lat":43.28097,"lon":5.37853,"is_reserved":false,"is_disabled":true,"rental_uris":{"android":"levelo://app?vid=f9fde33d-3e05-4f24-9670-2ad2d1cacdc1","ios":"levelo://app?vid=f9fde33d-3e05-4f24-9670-2ad2d1cacdc1"},"vehicle_type_id":"4","last_reported":1744291279,"current_range_meters":5600,"station_id":"ce4bha12rcd13ifvqee0","pricing_plan_id":"cebpf4jnsgd1na2vs0mg"},{"bike_id":"c3ca0c3d-3a85-418b-ad25-f56a6a8719e8","system_id":"levelo_inurba_marseille","lat":43.23148,"lon":5.43718,"is_reserved":false,"is_disabled":false,"rental_uris":{"android":"levelo://app?vid=c3ca0c3d-3a85-418b-ad25-f56a6a8719e8","ios":"levelo://app?vid=c3ca0c3d-3a85-418b-ad25-f56a6a8719e8"},"vehicle_type_id":"4","last_reported":1744291279,"current_range_meters":6000,"station_id":"ce4bhmp2rcd13ifvqgog","pricing_plan_id":"cebpf4jnsgd1na2vs0mg"},{"bike_id":"4b3268a2-b059-4d59-88f3-57e7cf347d78","system_id":"levelo_inurba_marseille","lat":43.30803,"lon":5.43534,"is_reserved":false,"is_disabled":false,"rental_uris":{"android":"levelo://app?vid=4b3268a2-b059-4d59-88f3-57e7cf347d78","ios":"levelo://app?vid=4b3268a2-b059-4d59-88f3-57e7cf347d78"},"vehicle_type_id":"4","last_reported":1744291279,"current_range_meters":6000,"station_id":"ce4bhph2rcd13ifvqheg","pricing_plan_id":"cebpf4jnsgd1na2vs0mg"},{"bike_id":"c254ff4e-d798-45ec-af96-2c6a189fc28f","system_id":"levelo_inurba_marseille","lat":43.28412,"lon":5.37517,"is_reserved":false,"is_disabled":false,"rental_uris":{"android":"levelo://app?vid=c254ff4e-d798-45ec-af96-2c6a189fc28f","ios":"levelo://app?vid=c254ff4e-d798-45ec-af96-2c6a189fc28f"},"vehicle_type_id":"4","last_reported":1744291279,"current_range_meters":6000,"station_id":"ce4bh412rcd13ifvqds0","pricing_plan_id":"cebpf4jnsgd1na2vs0mg"},{"bike_id":"a666e9ee-bc5a-4c80-9a41-823faa617c59","system_id":"levelo_inurba_marseille","lat":43.28255,"lon":5.35094,"is_reserved":false,"is_disabled":false,"rental_uris":{"android":"levelo://app?vid=a666e9ee-bc5a-4c80-9a41-823faa617c59","ios":"levelo://app?vid=a666e9ee-bc5a-4c80-9a41-823faa617c59"},"vehicle_type_id":"4","last_reported":1744291279,"current_range_meters":6400,"station_id":"ce4bhbp2rcd13ifvqerg","pricing_plan_id":"cebpf4jnsgd1na2vs0mg"},{"bike_id":"d2c59794-5493-4734-9e34-425d1d71d17e","system_id":"levelo_inurba_marseille","lat":43.29601,"lon":5.38096,"is_reserved":false,"is_disabled":false,"rental_uris":{"android":"levelo://app?vid=d2c59794-5493-4734-9e34-425d1d71d17e","ios":"levelo://app?vid=d2c59794-5493-4734-9e34-425d1d71d17e"},"vehicle_type_id":"4","last_reported":1744291279,"current_range_meters":6000,"station_id":"ce4bgl12rcd13ifvqbo0","pricing_plan_id":"cebpf4jnsgd1na2vs0mg"},{"bike_id":"e645f2b3-d1c0-45e7-a6ea-0010b03b4923","system_id":"levelo_inurba_marseille","lat":43.28039,"lon":5.36941,"is_reserved":false,"is_disabled":false,"rental_uris":{"android":"levelo://app?vid=e645f2b3-d1c0-45e7-a6ea-0010b03b4923","ios":"levelo://app?vid=e645f2b3-d1c0-45e7-a6ea-0010b03b4923"},"vehicle_type_id":"4","last_reported":1744291279,"current_range_meters":6400,"station_id":"ce4bha12rcd13ifvqef0","pricing_plan_id":"cebpf4jnsgd1na2vs0mg"},{"bike_id":"491c1500-b80e-45cc-a002-82b6df14d067","system_id":"levelo_inurba_marseille","lat":43.30544,"lon":5.36557,"is_reserved":false,"is_disabled":false,"rental_uris":{"android":"levelo://app?vid=491c1500-b80e-45cc-a002-82b6df14d067","ios":"levelo://app?vid=491c1500-b80e-45cc-a002-82b6df14d067"},"vehicle_type_id":"4","last_reported":1744291279,"current_range_meters":6400,"station_id":"ce4bgs12rcd13ifvqcag","pricing_plan_id":"cebpf4jnsgd1na2vs0mg"},{"bike_id":"19399c00-eb8b-4e7a-bb5e-ad525fdcb289","system_id":"levelo_inurba_marseille","lat":43.30308,"lon":5.39217,"is_reserved":false,"is_disabled":false,"rental_uris":{"android":"levelo://app?vid=19399c00-eb8b-4e7a-bb5e-ad525fdcb289","ios":"levelo://app?vid=19399c00-eb8b-4e7a-bb5e-ad525fdcb289"},"vehicle_type_id":"4","last_reported":1744291279,"current_range_meters":6400,"station_id":"ce4bgkh2rcd13ifvqbk0","pricing_plan_id":"cebpf4jnsgd1na2vs0mg"},{"bike_id":"7b7f7cf9-a9e6-427e-83e8-7625188164d8","system_id":"levelo_inurba_marseille","lat":43.287,"lon":5.37398,"is_reserved":false,"is_disabled":false,"rental_uris":{"android":"levelo://app?vid=7b7f7cf9-a9e6-427e-83e8-7625188164d8","ios":"levelo://app?vid=7b7f7cf9-a9e6-427e-83e8-7625188164d8"},"vehicle_type_id":"4","last_reported":1744291279,"current_range_meters":6400,"station_id":"ce4bh3p2rcd13ifvqdq0","pricing_plan_id":"cebpf4jnsgd1na2vs0mg"},{"bike_id":"353740be-d16b-44d5-96ec-e00641e34ac2","system_id":"levelo_inurba_marseille","lat":43.2841,"lon":5.37521,"is_reserved":false,"is_disabled":false,"rental_uris":{"android":"levelo://app?vid=353740be-d16b-44d5-96ec-e00641e34ac2","ios":"levelo://app?vid=353740be-d16b-44d5-96ec-e00641e34ac2"},"vehicle_type_id":"4","last_reported":1744291279,"current_range_meters":6400,"station_id":"ce4bh412rcd13ifvqds0","pricing_plan_id":"cebpf4jnsgd1na2vs0mg"},{"bike_id":"32259305-3cda-4490-936a-e5c68c2acfc4","system_id":"levelo_inurba_marseille","lat":43.27371,"lon":5.36248,"is_reserved":false,"is_disabled":false,"rental_uris":{"android":"levelo://app?vid=32259305-3cda-4490-936a-e5c68c2acfc4","ios":"levelo://app?vid=32259305-3cda-4490-936a-e5c68c2acfc4"},"vehicle_type_id":"4","last_reported":1744291279,"current_range_meters":6800,"station_id":"ce4bhbh2rcd13ifvqeo0","pricing_plan_id":"cebpf4jnsgd1na2vs0mg"},{"bike_id":"b90b19ae-4950-4218-a7a5-cbd200c1f86a","system_id":"levelo_inurba_marseille","lat":43.265579,"lon":5.372833,"is_reserved":false,"is_disabled":false,"rental_uris":{"android":"levelo://app?vid=b90b19ae-4950-4218-a7a5-cbd200c1f86a","ios":"levelo://app?vid=b90b19ae-4950-4218-a7a5-cbd200c1f86a"},"vehicle_type_id":"4","last_reported":1744291279,"current_range_meters":6800,"station_id":"ce4bhg12rcd13ifvqf70","pricing_plan_id":"cebpf4jnsgd1na2vs0mg"},{"bike_id":"b5b01554-d5cd-47ac-aebb-d69c5dfa11ba","system_id":"levelo_inurba_marseille","lat":43.27375,"lon":5.3625,"is_reserved":false,"is_disabled":false,"rental_uris":{"android":"levelo://app?vid=b5b01554-d5cd-47ac-aebb-d69c5dfa11ba","ios":"levelo://app?vid=b5b01554-d5cd-47ac-aebb-d69c5dfa11ba"},"vehicle_type_id":"4","last_reported":1744291279,"current_range_meters":7200,"station_id":"ce4bhbh2rcd13ifvqeo0","pricing_plan_id":"cebpf4jnsgd1na2vs0mg"},{"bike_id":"55a1e3e0-9f7d-4094-a33f-d38d06a29a08","system_id":"levelo_inurba_marseille","lat":43.21184,"lon":5.35088,"is_reserved":false,"is_disabled":false,"rental_uris":{"android":"levelo://app?vid=55a1e3e0-9f7d-4094-a33f-d38d06a29a08","ios":"levelo://app?vid=55a1e3e0-9f7d-4094-a33f-d38d06a29a08"},"vehicle_type_id":"4","last_reported":1744291279,"current_range_meters":7200,"station_id":"st_cvj6sg6p6f1abm77japg","pricing_plan_id":"cebpf4jnsgd1na2vs0mg"},{"bike_id":"a935c53b-64c1-40af-8db0-c24c6a6999b0","system_id":"levelo_inurba_marseille","lat":43.30547,"lon":5.36552,"is_reserved":false,"is_disabled":false,"rental_uris":{"android":"levelo://app?vid=a935c53b-64c1-40af-8db0-c24c6a6999b0","ios":"levelo://app?vid=a935c53b-64c1-40af-8db0-c24c6a6999b0"},"vehicle_type_id":"4","last_reported":1744291279,"current_range_meters":7200,"station_id":"ce4bgs12rcd13ifvqcag","pricing_plan_id":"cebpf4jnsgd1na2vs0mg"},{"bike_id":"dba0e398-f21e-407d-b059-4331a06138fe","system_id":"levelo_inurba_marseille","lat":43.28257,"lon":5.35076,"is_reserved":false,"is_disabled":false,"rental_uris":{"android":"levelo://app?vid=dba0e398-f21e-407d-b059-4331a06138fe","ios":"levelo://app?vid=dba0e398-f21e-407d-b059-4331a06138fe"},"vehicle_type_id":"4","last_reported":1744291279,"current_range_meters":7200,"station_id":"ce4bhbp2rcd13ifvqerg","pricing_plan_id":"cebpf4jnsgd1na2vs0mg"},{"bike_id":"595f7524-a093-4067-b76b-d6883b438289","system_id":"levelo_inurba_marseille","lat":43.27557,"lon":5.38423,"is_reserved":false,"is_disabled":false,"rental_uris":{"android":"levelo://app?vid=595f7524-a093-4067-b76b-d6883b438289","ios":"levelo://app?vid=595f7524-a093-4067-b76b-d6883b438289"},"vehicle_type_id":"4","last_reported":1744291279,"current_range_meters":7200,"station_id":"ce4bhh92rcd13ifvqfi0","pricing_plan_id":"cebpf4jnsgd1na2vs0mg"},{"bike_id":"75c2ef85-7f17-4a39-9151-7f1626825814","system_id":"levelo_inurba_marseille","lat":43.27378,"lon":5.36252,"is_reserved":false,"is_disabled":false,"rental_uris":{"android":"levelo://app?vid=75c2ef85-7f17-4a39-9151-7f1626825814","ios":"levelo://app?vid=75c2ef85-7f17-4a39-9151-7f1626825814"},"vehicle_type_id":"4","last_reported":1744291279,"current_range_meters":8000,"station_id":"ce4bhbh2rcd13ifvqeo0","pricing_plan_id":"cebpf4jnsgd1na2vs0mg"},{"bike_id":"0b14e020-b594-4567-92b1-5652d62501cd","system_id":"levelo_inurba_marseille","lat":43.24165,"lon":5.36397,"is_reserved":false,"is_disabled":false,"rental_uris":{"android":"levelo://app?vid=0b14e020-b594-4567-92b1-5652d62501cd","ios":"levelo://app?vid=0b14e020-b594-4567-92b1-5652d62501cd"},"vehicle_type_id":"4","last_reported":1744291279,"current_range_meters":8000,"station_id":"cpo36qri1sfpv3e86is0","pricing_plan_id":"cebpf4jnsgd1na2vs0mg"},{"bike_id":"0034db4b-efd6-4119-a358-80e858a45e83","system_id":"levelo_inurba_marseille","lat":43.31799,"lon":5.38909,"is_reserved":false,"is_disabled":false,"rental_uris":{"android":"levelo://app?vid=0034db4b-efd6-4119-a358-80e858a45e83","ios":"levelo://app?vid=0034db4b-efd6-4119-a358-80e858a45e83"},"vehicle_type_id":"4","last_reported":1744291279,"current_range_meters":8000,"station_id":"","pricing_plan_id":"cebpf4jnsgd1na2vs0mg"},{"bike_id":"ccee8a6a-a0c5-465d-af4d-a892b0dc46db","system_id":"levelo_inurba_marseille","lat":43.31172,"lon":5.38712,"is_reserved":false,"is_disabled":false,"rental_uris":{"android":"levelo://app?vid=ccee8a6a-a0c5-465d-af4d-a892b0dc46db","ios":"levelo://app?vid=ccee8a6a-a0c5-465d-af4d-a892b0dc46db"},"vehicle_type_id":"4","last_reported":1744291279,"current_range_meters":7200,"station_id":"ce4bgv12rcd13ifvqcp0","pricing_plan_id":"cebpf4jnsgd1na2vs0mg"},{"bike_id":"10a4b254-7355-4a63-9173-5e64693ec6c3","system_id":"levelo_inurba_marseille","lat":43.29282,"lon":5.36848,"is_reserved":false,"is_disabled":false,"rental_uris":{"android":"levelo://app?vid=10a4b254-7355-4a63-9173-5e64693ec6c3","ios":"levelo://app?vid=10a4b254-7355-4a63-9173-5e64693ec6c3"},"vehicle_type_id":"4","last_reported":1744291279,"current_range_meters":8000,"station_id":"ce4bhbp2rcd13ifvqesg","pricing_plan_id":"cebpf4jnsgd1na2vs0mg"},{"bike_id":"7b3c5d21-e9df-416f-9837-38034893e198","system_id":"levelo_inurba_marseille","lat":43.29916,"lon":5.37471,"is_reserved":false,"is_disabled":false,"rental_uris":{"android":"levelo://app?vid=7b3c5d21-e9df-416f-9837-38034893e198","ios":"levelo://app?vid=7b3c5d21-e9df-416f-9837-38034893e198"},"vehicle_type_id":"4","last_reported":1744291279,"current_range_meters":8000,"station_id":"ce4bgjh2rcd13ifvqbg0","pricing_plan_id":"cebpf4jnsgd1na2vs0mg"},{"bike_id":"c173ce04-67f2-41b8-8d72-7317211ce7f5","system_id":"levelo_inurba_marseille","lat":43.24376,"lon":5.37072,"is_reserved":false,"is_disabled":false,"rental_uris":{"android":"levelo://app?vid=c173ce04-67f2-41b8-8d72-7317211ce7f5","ios":"levelo://app?vid=c173ce04-67f2-41b8-8d72-7317211ce7f5"},"vehicle_type_id":"4","last_reported":1744291279,"current_range_meters":8400,"station_id":"ce4bhhh2rcd13ifvqfk0","pricing_plan_id":"cebpf4jnsgd1na2vs0mg"},{"bike_id":"5a865e26-3851-449e-9d8f-0f021e8cf0c4","system_id":"levelo_inurba_marseille","lat":43.25118,"lon":5.40326,"is_reserved":false,"is_disabled":false,"rental_uris":{"android":"levelo://app?vid=5a865e26-3851-449e-9d8f-0f021e8cf0c4","ios":"levelo://app?vid=5a865e26-3851-449e-9d8f-0f021e8cf0c4"},"vehicle_type_id":"4","last_reported":1744291279,"current_range_meters":8400,"station_id":"ce4bhlh2rcd13ifvqgig","pricing_plan_id":"cebpf4jnsgd1na2vs0mg"},{"bike_id":"d2eb245e-f76a-49fa-adaa-72762a9cfc38","system_id":"levelo_inurba_marseille","lat":43.30346,"lon":5.36814,"is_reserved":false,"is_disabled":false,"rental_uris":{"android":"levelo://app?vid=d2eb245e-f76a-49fa-adaa-72762a9cfc38","ios":"levelo://app?vid=d2eb245e-f76a-49fa-adaa-72762a9cfc38"},"vehicle_type_id":"4","last_reported":1744291279,"current_range_meters":8400,"station_id":"","pricing_plan_id":"cebpf4jnsgd1na2vs0mg"},{"bike_id":"a21989ec-9f04-4674-bff3-ea3762ba55b8","system_id":"levelo_inurba_marseille","lat":43.25735,"lon":5.41081,"is_reserved":false,"is_disabled":false,"rental_uris":{"android":"levelo://app?vid=a21989ec-9f04-4674-bff3-ea3762ba55b8","ios":"levelo://app?vid=a21989ec-9f04-4674-bff3-ea3762ba55b8"},"vehicle_type_id":"4","last_reported":1744291279,"current_range_meters":8400,"station_id":"ce4bhkp2rcd13ifvqgd0","pricing_plan_id":"cebpf4jnsgd1na2vs0mg"},{"bike_id":"3aa2a984-e401-4e10-98bc-cd2a302c3719","system_id":"levelo_inurba_marseille","lat":43.27561,"lon":5.38428,"is_reserved":false,"is_disabled":false,"rental_uris":{"android":"levelo://app?vid=3aa2a984-e401-4e10-98bc-cd2a302c3719","ios":"levelo://app?vid=3aa2a984-e401-4e10-98bc-cd2a302c3719"},"vehicle_type_id":"4","last_reported":1744291279,"current_range_meters":8400,"station_id":"ce4bhh92rcd13ifvqfi0","pricing_plan_id":"cebpf4jnsgd1na2vs0mg"},{"bike_id":"50b3fa45-2101-4605-9055-30b5f7609db0","system_id":"levelo_inurba_marseille","lat":43.28269,"lon":5.35065,"is_reserved":false,"is_disabled":false,"rental_uris":{"android":"levelo://app?vid=50b3fa45-2101-4605-9055-30b5f7609db0","ios":"levelo://app?vid=50b3fa45-2101-4605-9055-30b5f7609db0"},"vehicle_type_id":"4","last_reported":1744291279,"current_range_meters":8400,"station_id":"ce4bhbp2rcd13ifvqerg","pricing_plan_id":"cebpf4jnsgd1na2vs0mg"},{"bike_id":"8d5c1c84-9808-4eb1-b090-55574f8ec3ab","system_id":"levelo_inurba_marseille","lat":43.27374,"lon":5.36254,"is_reserved":false,"is_disabled":false,"rental_uris":{"android":"levelo://app?vid=8d5c1c84-9808-4eb1-b090-55574f8ec3ab","ios":"levelo://app?vid=8d5c1c84-9808-4eb1-b090-55574f8ec3ab"},"vehicle_type_id":"4","last_reported":1744291279,"current_range_meters":8800,"station_id":"ce4bhbh2rcd13ifvqeo0","pricing_plan_id":"cebpf4jnsgd1na2vs0mg"},{"bike_id":"6a65a3eb-5cb7-4326-b37a-f75f0d58e61e","system_id":"levelo_inurba_marseille","lat":43.27621,"lon":5.36111,"is_reserved":false,"is_disabled":false,"rental_uris":{"android":"levelo://app?vid=6a65a3eb-5cb7-4326-b37a-f75f0d58e61e","ios":"levelo://app?vid=6a65a3eb-5cb7-4326-b37a-f75f0d58e61e"},"vehicle_type_id":"4","last_reported":1744291279,"current_range_meters":8800,"station_id":"ce4bgj92rcd13ifvqbe0","pricing_plan_id":"cebpf4jnsgd1na2vs0mg"},{"bike_id":"01e31f15-bc9b-4d18-bebd-edf19bcedef2","system_id":"levelo_inurba_marseille","lat":43.28704,"lon":5.37945,"is_reserved":false,"is_disabled":true,"rental_uris":{"android":"levelo://app?vid=01e31f15-bc9b-4d18-bebd-edf19bcedef2","ios":"levelo://app?vid=01e31f15-bc9b-4d18-bebd-edf19bcedef2"},"vehicle_type_id":"4","last_reported":1744291279,"current_range_meters":8800,"station_id":"ce4bh9p2rcd13ifvqec0","pricing_plan_id":"cebpf4jnsgd1na2vs0mg"},{"bike_id":"34a2f5d8-ec72-44cb-adc7-644db274612f","system_id":"levelo_inurba_marseille","lat":43.273813,"lon":5.362497,"is_reserved":false,"is_disabled":false,"rental_uris":{"android":"levelo://app?vid=34a2f5d8-ec72-44cb-adc7-644db274612f","ios":"levelo://app?vid=34a2f5d8-ec72-44cb-adc7-644db274612f"},"vehicle_type_id":"4","last_reported":1744291279,"current_range_meters":8800,"station_id":"ce4bh4p2rcd13ifvqe0g","pricing_plan_id":"cebpf4jnsgd1na2vs0mg"},{"bike_id":"5f30a5a4-de9f-499e-b151-b811ebb3b43a","system_id":"levelo_inurba_marseille","lat":43.31068,"lon":5.38347,"is_reserved":false,"is_disabled":true,"rental_uris":{"android":"levelo://app?vid=5f30a5a4-de9f-499e-b151-b811ebb3b43a","ios":"levelo://app?vid=5f30a5a4-de9f-499e-b151-b811ebb3b43a"},"vehicle_type_id":"4","last_reported":1744291279,"current_range_meters":8800,"station_id":"ce4bgv92rcd13ifvqcr0","pricing_plan_id":"cebpf4jnsgd1na2vs0mg"},{"bike_id":"c243072f-6bd2-4d94-ba83-04162cf2a05c","system_id":"levelo_inurba_marseille","lat":43.27193,"lon":5.40125,"is_reserved":false,"is_disabled":false,"rental_uris":{"android":"levelo://app?vid=c243072f-6bd2-4d94-ba83-04162cf2a05c","ios":"levelo://app?vid=c243072f-6bd2-4d94-ba83-04162cf2a05c"},"vehicle_type_id":"4","last_reported":1744291279,"current_range_meters":8800,"station_id":"","pricing_plan_id":"cebpf4jnsgd1na2vs0mg"},{"bike_id":"9fce7fb9-26b6-4832-9f96-ea1b75c489f0","system_id":"levelo_inurba_marseille","lat":43.21191,"lon":5.35061,"is_reserved":false,"is_disabled":false,"rental_uris":{"android":"levelo://app?vid=9fce7fb9-26b6-4832-9f96-ea1b75c489f0","ios":"levelo://app?vid=9fce7fb9-26b6-4832-9f96-ea1b75c489f0"},"vehicle_type_id":"4","last_reported":1744291279,"current_range_meters":9200,"station_id":"st_cvj6sg6p6f1abm77japg","pricing_plan_id":"cebpf4jnsgd1na2vs0mg"},{"bike_id":"3cfa414a-56ce-4678-b27b-88f21f1ddfeb","system_id":"levelo_inurba_marseille","lat":43.30282,"lon":5.37769,"is_reserved":false,"is_disabled":false,"rental_uris":{"android":"levelo://app?vid=3cfa414a-56ce-4678-b27b-88f21f1ddfeb","ios":"levelo://app?vid=3cfa414a-56ce-4678-b27b-88f21f1ddfeb"},"vehicle_type_id":"4","last_reported":1744291279,"current_range_meters":9200,"station_id":"ce4bguh2rcd13ifvqcj0","pricing_plan_id":"cebpf4jnsgd1na2vs0mg"},{"bike_id":"800d5909-daea-44ff-a7cd-18c4fe90c5ad","system_id":"levelo_inurba_marseille","lat":43.21191,"lon":5.35072,"is_reserved":false,"is_disabled":false,"rental_uris":{"android":"levelo://app?vid=800d5909-daea-44ff-a7cd-18c4fe90c5ad","ios":"levelo://app?vid=800d5909-daea-44ff-a7cd-18c4fe90c5ad"},"vehicle_type_id":"4","last_reported":1744291279,"current_range_meters":9200,"station_id":"st_cvj6sg6p6f1abm77japg","pricing_plan_id":"cebpf4jnsgd1na2vs0mg"},{"bike_id":"047e8588-daa0-461f-a011-d73d664563b8","system_id":"levelo_inurba_marseille","lat":43.2318,"lon":5.39988,"is_reserved":false,"is_disabled":false,"rental_uris":{"android":"levelo://app?vid=047e8588-daa0-461f-a011-d73d664563b8","ios":"levelo://app?vid=047e8588-daa0-461f-a011-d73d664563b8"},"vehicle_type_id":"4","last_reported":1744291279,"current_range_meters":9200,"station_id":"ce4bhn12rcd13ifvqgqg","pricing_plan_id":"cebpf4jnsgd1na2vs0mg"},{"bike_id":"c306c786-9f23-4c3d-9eef-8b3591ed0e3c","system_id":"levelo_inurba_marseille","lat":43.26785,"lon":5.39414,"is_reserved":false,"is_disabled":false,"rental_uris":{"android":"levelo://app?vid=c306c786-9f23-4c3d-9eef-8b3591ed0e3c","ios":"levelo://app?vid=c306c786-9f23-4c3d-9eef-8b3591ed0e3c"},"vehicle_type_id":"4","last_reported":1744291279,"current_range_meters":9600,"station_id":"ce4bhh12rcd13ifvqfg0","pricing_plan_id":"cebpf4jnsgd1na2vs0mg"},{"bike_id":"6b383df4-9571-4b6b-8882-b1538f985b7f","system_id":"levelo_inurba_marseille","lat":43.3052,"lon":5.36532,"is_reserved":false,"is_disabled":false,"rental_uris":{"android":"levelo://app?vid=6b383df4-9571-4b6b-8882-b1538f985b7f","ios":"levelo://app?vid=6b383df4-9571-4b6b-8882-b1538f985b7f"},"vehicle_type_id":"4","last_reported":1744291279,"current_range_meters":9600,"station_id":"ce4bgs12rcd13ifvqcag","pricing_plan_id":"cebpf4jnsgd1na2vs0mg"},{"bike_id":"00f7aba9-6420-4dd6-b625-c8616c3110e3","system_id":"levelo_inurba_marseille","lat":43.27967,"lon":5.3876,"is_reserved":false,"is_disabled":false,"rental_uris":{"android":"levelo://app?vid=00f7aba9-6420-4dd6-b625-c8616c3110e3","ios":"levelo://app?vid=00f7aba9-6420-4dd6-b625-c8616c3110e3"},"vehicle_type_id":"4","last_reported":1744291279,"current_range_meters":9600,"station_id":"ce4bhg12rcd13ifvqf80","pricing_plan_id":"cebpf4jnsgd1na2vs0mg"},{"bike_id":"e8e61ec0-24ba-41bc-af68-5ad4ae819140","system_id":"levelo_inurba_marseille","lat":43.21191,"lon":5.3508,"is_reserved":false,"is_disabled":false,"rental_uris":{"android":"levelo://app?vid=e8e61ec0-24ba-41bc-af68-5ad4ae819140","ios":"levelo://app?vid=e8e61ec0-24ba-41bc-af68-5ad4ae819140"},"vehicle_type_id":"4","last_reported":1744291279,"current_range_meters":10000,"station_id":"st_cvj6sg6p6f1abm77japg","pricing_plan_id":"cebpf4jnsgd1na2vs0mg"},{"bike_id":"e4bb6899-c2da-4c33-b2db-2199cf7526a1","system_id":"levelo_inurba_marseille","lat":43.27426,"lon":5.39428,"is_reserved":false,"is_disabled":false,"rental_uris":{"android":"levelo://app?vid=e4bb6899-c2da-4c33-b2db-2199cf7526a1","ios":"levelo://app?vid=e4bb6899-c2da-4c33-b2db-2199cf7526a1"},"vehicle_type_id":"4","last_reported":1744291279,"current_range_meters":11600,"station_id":"ce4bhdp2rcd13ifvqf20","pricing_plan_id":"cebpf4jnsgd1na2vs0mg"},{"bike_id":"e6b27e51-7a6f-4c87-9cdb-e0dbaf392783","system_id":"levelo_inurba_marseille","lat":43.30983,"lon":5.39659,"is_reserved":false,"is_disabled":false,"rental_uris":{"android":"levelo://app?vid=e6b27e51-7a6f-4c87-9cdb-e0dbaf392783","ios":"levelo://app?vid=e6b27e51-7a6f-4c87-9cdb-e0dbaf392783"},"vehicle_type_id":"4","last_reported":1744291279,"current_range_meters":10000,"station_id":"","pricing_plan_id":"cebpf4jnsgd1na2vs0mg"},{"bike_id":"c66e0227-8dab-43f7-959d-ad39878fa71f","system_id":"levelo_inurba_marseille","lat":43.23054,"lon":5.35497,"is_reserved":false,"is_disabled":false,"rental_uris":{"android":"levelo://app?vid=c66e0227-8dab-43f7-959d-ad39878fa71f","ios":"levelo://app?vid=c66e0227-8dab-43f7-959d-ad39878fa71f"},"vehicle_type_id":"4","last_reported":1744291279,"current_range_meters":10800,"station_id":"cpo3342slgdg3j2ifvpg","pricing_plan_id":"cebpf4jnsgd1na2vs0mg"},{"bike_id":"34fa764b-7350-4fbf-8417-8076c25f13ae","system_id":"levelo_inurba_marseille","lat":43.304617,"lon":5.37916,"is_reserved":false,"is_disabled":false,"rental_uris":{"android":"levelo://app?vid=34fa764b-7350-4fbf-8417-8076c25f13ae","ios":"levelo://app?vid=34fa764b-7350-4fbf-8417-8076c25f13ae"},"vehicle_type_id":"4","last_reported":1744291279,"current_range_meters":10800,"station_id":"ce4bgup2rcd13ifvqcn0","pricing_plan_id":"cebpf4jnsgd1na2vs0mg"},{"bike_id":"d5707416-f903-4c51-8bcb-006d8c375fe4","system_id":"levelo_inurba_marseille","lat":43.29557,"lon":5.42288,"is_reserved":false,"is_disabled":false,"rental_uris":{"android":"levelo://app?vid=d5707416-f903-4c51-8bcb-006d8c375fe4","ios":"levelo://app?vid=d5707416-f903-4c51-8bcb-006d8c375fe4"},"vehicle_type_id":"4","last_reported":1744291279,"current_range_meters":10000,"station_id":"ce4bhph2rcd13ifvqhdg","pricing_plan_id":"cebpf4jnsgd1na2vs0mg"},{"bike_id":"46bcf2ad-c657-4cbb-ba52-daffd5f44dbf","system_id":"levelo_inurba_marseille","lat":43.2827,"lon":5.35076,"is_reserved":false,"is_disabled":false,"rental_uris":{"android":"levelo://app?vid=46bcf2ad-c657-4cbb-ba52-daffd5f44dbf","ios":"levelo://app?vid=46bcf2ad-c657-4cbb-ba52-daffd5f44dbf"},"vehicle_type_id":"4","last_reported":1744291279,"current_range_meters":10800,"station_id":"ce4bhbp2rcd13ifvqerg","pricing_plan_id":"cebpf4jnsgd1na2vs0mg"},{"bike_id":"032773f1-9e67-49e0-bdc4-b9675063974e","system_id":"levelo_inurba_marseille","lat":43.30151,"lon":5.38093,"is_reserved":false,"is_disabled":false,"rental_uris":{"android":"levelo://app?vid=032773f1-9e67-49e0-bdc4-b9675063974e","ios":"levelo://app?vid=032773f1-9e67-49e0-bdc4-b9675063974e"},"vehicle_type_id":"4","last_reported":1744291279,"current_range_meters":10800,"station_id":"ce4bgjp2rcd13ifvqbh0","pricing_plan_id":"cebpf4jnsgd1na2vs0mg"},{"bike_id":"245ce5fe-7351-4dcf-baad-550d47ea2d8a","system_id":"levelo_inurba_marseille","lat":43.2174,"lon":5.3461,"is_reserved":false,"is_disabled":false,"rental_uris":{"android":"levelo://app?vid=245ce5fe-7351-4dcf-baad-550d47ea2d8a","ios":"levelo://app?vid=245ce5fe-7351-4dcf-baad-550d47ea2d8a"},"vehicle_type_id":"4","last_reported":1744291279,"current_range_meters":10800,"station_id":"st_cvj6r9ubvosntc0bgbag","pricing_plan_id":"cebpf4jnsgd1na2vs0mg"},{"bike_id":"d960fd82-db96-4c98-9824-0146258f45fe","system_id":"levelo_inurba_marseille","lat":43.27998,"lon":5.40023,"is_reserved":false,"is_disabled":false,"rental_uris":{"android":"levelo://app?vid=d960fd82-db96-4c98-9824-0146258f45fe","ios":"levelo://app?vid=d960fd82-db96-4c98-9824-0146258f45fe"},"vehicle_type_id":"4","last_reported":1744291279,"current_range_meters":10800,"station_id":"ce4bho92rcd13ifvqh4g","pricing_plan_id":"cebpf4jnsgd1na2vs0mg"},{"bike_id":"bff67837-c676-4b88-9fdc-8db7fe587121","system_id":"levelo_inurba_marseille","lat":43.30232,"lon":5.4008,"is_reserved":false,"is_disabled":true,"rental_uris":{"android":"levelo://app?vid=bff67837-c676-4b88-9fdc-8db7fe587121","ios":"levelo://app?vid=bff67837-c676-4b88-9fdc-8db7fe587121"},"vehicle_type_id":"4","last_reported":1744291279,"current_range_meters":10800,"station_id":"ce4bgvh2rcd13ifvqcs0","pricing_plan_id":"cebpf4jnsgd1na2vs0mg"},{"bike_id":"f79b97f0-9d6c-4bac-a5e9-e02761419b05","system_id":"levelo_inurba_marseille","lat":43.31227,"lon":5.36874,"is_reserved":false,"is_disabled":false,"rental_uris":{"android":"levelo://app?vid=f79b97f0-9d6c-4bac-a5e9-e02761419b05","ios":"levelo://app?vid=f79b97f0-9d6c-4bac-a5e9-e02761419b05"},"vehicle_type_id":"4","last_reported":1744291279,"current_range_meters":10800,"station_id":"ce4bgl92rcd13ifvqbq0","pricing_plan_id":"cebpf4jnsgd1na2vs0mg"},{"bike_id":"2af03918-443f-4c15-a5e0-1383bc7a7fa8","system_id":"levelo_inurba_marseille","lat":43.26194,"lon":5.37449,"is_reserved":false,"is_disabled":false,"rental_uris":{"android":"levelo://app?vid=2af03918-443f-4c15-a5e0-1383bc7a7fa8","ios":"levelo://app?vid=2af03918-443f-4c15-a5e0-1383bc7a7fa8"},"vehicle_type_id":"4","last_reported":1744291279,"current_range_meters":10800,"station_id":"ce4bhgp2rcd13ifvqfc0","pricing_plan_id":"cebpf4jnsgd1na2vs0mg"},{"bike_id":"3a9217d1-18bc-4b31-930c-3710c4c0ac7d","system_id":"levelo_inurba_marseille","lat":43.28102,"lon":5.37855,"is_reserved":false,"is_disabled":false,"rental_uris":{"android":"levelo://app?vid=3a9217d1-18bc-4b31-930c-3710c4c0ac7d","ios":"levelo://app?vid=3a9217d1-18bc-4b31-930c-3710c4c0ac7d"},"vehicle_type_id":"4","last_reported":1744291279,"current_range_meters":11200,"station_id":"ce4bha12rcd13ifvqee0","pricing_plan_id":"cebpf4jnsgd1na2vs0mg"},{"bike_id":"4454e83a-891c-4f87-afcf-d70c54e0a71d","system_id":"levelo_inurba_marseille","lat":43.30962,"lon":5.3904,"is_reserved":false,"is_disabled":false,"rental_uris":{"android":"levelo://app?vid=4454e83a-891c-4f87-afcf-d70c54e0a71d","ios":"levelo://app?vid=4454e83a-891c-4f87-afcf-d70c54e0a71d"},"vehicle_type_id":"4","last_reported":1744291279,"current_range_meters":11200,"station_id":"ce4bgup2rcd13ifvqco0","pricing_plan_id":"cebpf4jnsgd1na2vs0mg"},{"bike_id":"836c52e5-3313-4063-afe0-06643ed93c47","system_id":"levelo_inurba_marseille","lat":43.30129,"lon":5.37429,"is_reserved":false,"is_disabled":false,"rental_uris":{"android":"levelo://app?vid=836c52e5-3313-4063-afe0-06643ed93c47","ios":"levelo://app?vid=836c52e5-3313-4063-afe0-06643ed93c47"},"vehicle_type_id":"4","last_reported":1744291279,"current_range_meters":11200,"station_id":"ce4bgs92rcd13ifvqcc0","pricing_plan_id":"cebpf4jnsgd1na2vs0mg"},{"bike_id":"99260628-93ca-4816-84c2-7509aaf9aff8","system_id":"levelo_inurba_marseille","lat":43.312332,"lon":5.368759,"is_reserved":false,"is_disabled":false,"rental_uris":{"android":"levelo://app?vid=99260628-93ca-4816-84c2-7509aaf9aff8","ios":"levelo://app?vid=99260628-93ca-4816-84c2-7509aaf9aff8"},"vehicle_type_id":"4","last_reported":1744291279,"current_range_meters":11200,"station_id":"ce4bgl92rcd13ifvqbq0","pricing_plan_id":"cebpf4jnsgd1na2vs0mg"},{"bike_id":"80dc68f4-ff2f-46fa-9e35-712178fe8902","system_id":"levelo_inurba_marseille","lat":43.282606,"lon":5.35062,"is_reserved":false,"is_disabled":false,"rental_uris":{"android":"levelo://app?vid=80dc68f4-ff2f-46fa-9e35-712178fe8902","ios":"levelo://app?vid=80dc68f4-ff2f-46fa-9e35-712178fe8902"},"vehicle_type_id":"4","last_reported":1744291279,"current_range_meters":11600,"station_id":"ce4bhbp2rcd13ifvqerg","pricing_plan_id":"cebpf4jnsgd1na2vs0mg"},{"bike_id":"49477c17-0a81-4440-988c-7aeaf569b1a9","system_id":"levelo_inurba_marseille","lat":43.28439,"lon":5.39196,"is_reserved":false,"is_disabled":false,"rental_uris":{"android":"levelo://app?vid=49477c17-0a81-4440-988c-7aeaf569b1a9","ios":"levelo://app?vid=49477c17-0a81-4440-988c-7aeaf569b1a9"},"vehicle_type_id":"4","last_reported":1744291279,"current_range_meters":11600,"station_id":"ce4bhoh2rcd13ifvqh5g","pricing_plan_id":"cebpf4jnsgd1na2vs0mg"},{"bike_id":"18c27848-dd38-4d47-92e9-8cde4c0a0e25","system_id":"levelo_inurba_marseille","lat":43.27374,"lon":5.36253,"is_reserved":false,"is_disabled":false,"rental_uris":{"android":"levelo://app?vid=18c27848-dd38-4d47-92e9-8cde4c0a0e25","ios":"levelo://app?vid=18c27848-dd38-4d47-92e9-8cde4c0a0e25"},"vehicle_type_id":"4","last_reported":1744291279,"current_range_meters":12800,"station_id":"ce4bhbh2rcd13ifvqeo0","pricing_plan_id":"cebpf4jnsgd1na2vs0mg"},{"bike_id":"a7c3a0f9-fa44-4142-bbeb-0cac9979a26a","system_id":"levelo_inurba_marseille","lat":43.24167,"lon":5.36391,"is_reserved":false,"is_disabled":false,"rental_uris":{"android":"levelo://app?vid=a7c3a0f9-fa44-4142-bbeb-0cac9979a26a","ios":"levelo://app?vid=a7c3a0f9-fa44-4142-bbeb-0cac9979a26a"},"vehicle_type_id":"4","last_reported":1744291279,"current_range_meters":12000,"station_id":"cpo36qri1sfpv3e86is0","pricing_plan_id":"cebpf4jnsgd1na2vs0mg"},{"bike_id":"a386fe3f-5e46-4080-ab14-045819f0c5ef","system_id":"levelo_inurba_marseille","lat":43.29887,"lon":5.3976,"is_reserved":false,"is_disabled":false,"rental_uris":{"android":"levelo://app?vid=a386fe3f-5e46-4080-ab14-045819f0c5ef","ios":"levelo://app?vid=a386fe3f-5e46-4080-ab14-045819f0c5ef"},"vehicle_type_id":"4","last_reported":1744291279,"current_range_meters":12000,"station_id":"ce4bh0h2rcd13ifvqd50","pricing_plan_id":"cebpf4jnsgd1na2vs0mg"},{"bike_id":"43efe0ec-8168-41b2-8096-d76d5351ff8c","system_id":"levelo_inurba_marseille","lat":43.24807,"lon":5.37458,"is_reserved":false,"is_disabled":false,"rental_uris":{"android":"levelo://app?vid=43efe0ec-8168-41b2-8096-d76d5351ff8c","ios":"levelo://app?vid=43efe0ec-8168-41b2-8096-d76d5351ff8c"},"vehicle_type_id":"4","last_reported":1744291279,"current_range_meters":12000,"station_id":"ce4bhgh2rcd13ifvqfb0","pricing_plan_id":"cebpf4jnsgd1na2vs0mg"},{"bike_id":"5047455d-c97a-4875-9440-a0dd56a0356d","system_id":"levelo_inurba_marseille","lat":43.323616,"lon":5.367634,"is_reserved":false,"is_disabled":false,"rental_uris":{"android":"levelo://app?vid=5047455d-c97a-4875-9440-a0dd56a0356d","ios":"levelo://app?vid=5047455d-c97a-4875-9440-a0dd56a0356d"},"vehicle_type_id":"4","last_reported":1744291279,"current_range_meters":12000,"station_id":"ce4bhsh2rcd13ifvqi2g","pricing_plan_id":"cebpf4jnsgd1na2vs0mg"},{"bike_id":"74053bb6-5007-48ec-8fee-5bdc4e6c88c8","system_id":"levelo_inurba_marseille","lat":43.282601,"lon":5.35069,"is_reserved":false,"is_disabled":false,"rental_uris":{"android":"levelo://app?vid=74053bb6-5007-48ec-8fee-5bdc4e6c88c8","ios":"levelo://app?vid=74053bb6-5007-48ec-8fee-5bdc4e6c88c8"},"vehicle_type_id":"4","last_reported":1744291279,"current_range_meters":12400,"station_id":"","pricing_plan_id":"cebpf4jnsgd1na2vs0mg"},{"bike_id":"958ca4c4-f04e-4604-9fc1-625f296048ed","system_id":"levelo_inurba_marseille","lat":43.28265,"lon":5.3507,"is_reserved":false,"is_disabled":false,"rental_uris":{"android":"levelo://app?vid=958ca4c4-f04e-4604-9fc1-625f296048ed","ios":"levelo://app?vid=958ca4c4-f04e-4604-9fc1-625f296048ed"},"vehicle_type_id":"4","last_reported":1744291279,"current_range_meters":12400,"station_id":"ce4bhh12rcd13ifvqfg0","pricing_plan_id":"cebpf4jnsgd1na2vs0mg"},{"bike_id":"88b81c37-5f9b-494f-8b1a-584cc1caf0e2","system_id":"levelo_inurba_marseille","lat":43.28263,"lon":5.35068,"is_reserved":false,"is_disabled":false,"rental_uris":{"android":"levelo://app?vid=88b81c37-5f9b-494f-8b1a-584cc1caf0e2","ios":"levelo://app?vid=88b81c37-5f9b-494f-8b1a-584cc1caf0e2"},"vehicle_type_id":"4","last_reported":1744291279,"current_range_meters":12400,"station_id":"ce4bhbp2rcd13ifvqerg","pricing_plan_id":"cebpf4jnsgd1na2vs0mg"},{"bike_id":"9c1dc393-5dcd-4873-9d88-975e3135726a","system_id":"levelo_inurba_marseille","lat":43.29703,"lon":5.37693,"is_reserved":false,"is_disabled":false,"rental_uris":{"android":"levelo://app?vid=9c1dc393-5dcd-4873-9d88-975e3135726a","ios":"levelo://app?vid=9c1dc393-5dcd-4873-9d88-975e3135726a"},"vehicle_type_id":"4","last_reported":1744291279,"current_range_meters":13600,"station_id":"ce4bgkh2rcd13ifvqbl0","pricing_plan_id":"cebpf4jnsgd1na2vs0mg"},{"bike_id":"b2606290-05ba-4830-9d50-4f872cdd0599","system_id":"levelo_inurba_marseille","lat":43.27556,"lon":5.38435,"is_reserved":false,"is_disabled":false,"rental_uris":{"android":"levelo://app?vid=b2606290-05ba-4830-9d50-4f872cdd0599","ios":"levelo://app?vid=b2606290-05ba-4830-9d50-4f872cdd0599"},"vehicle_type_id":"4","last_reported":1744291279,"current_range_meters":12800,"station_id":"ce4bhh92rcd13ifvqfi0","pricing_plan_id":"cebpf4jnsgd1na2vs0mg"},{"bike_id":"747fc457-ca7b-482e-ab22-50d6d68fcf10","system_id":"levelo_inurba_marseille","lat":43.30187,"lon":5.36612,"is_reserved":false,"is_disabled":false,"rental_uris":{"android":"levelo://app?vid=747fc457-ca7b-482e-ab22-50d6d68fcf10","ios":"levelo://app?vid=747fc457-ca7b-482e-ab22-50d6d68fcf10"},"vehicle_type_id":"4","last_reported":1744291279,"current_range_meters":12800,"station_id":"ce4bgrh2rcd13ifvqc8g","pricing_plan_id":"cebpf4jnsgd1na2vs0mg"},{"bike_id":"6df25719-45cf-4ea4-894e-f9e56d8abda3","system_id":"levelo_inurba_marseille","lat":43.3204,"lon":5.41549,"is_reserved":false,"is_disabled":false,"rental_uris":{"android":"levelo://app?vid=6df25719-45cf-4ea4-894e-f9e56d8abda3","ios":"levelo://app?vid=6df25719-45cf-4ea4-894e-f9e56d8abda3"},"vehicle_type_id":"4","last_reported":1744291279,"current_range_meters":12400,"station_id":"ce4bhq92rcd13ifvqhkg","pricing_plan_id":"cebpf4jnsgd1na2vs0mg"},{"bike_id":"da0870d8-7fdf-4454-8a3f-e3e875b98dcb","system_id":"levelo_inurba_marseille","lat":43.29272,"lon":5.36852,"is_reserved":false,"is_disabled":false,"rental_uris":{"android":"levelo://app?vid=da0870d8-7fdf-4454-8a3f-e3e875b98dcb","ios":"levelo://app?vid=da0870d8-7fdf-4454-8a3f-e3e875b98dcb"},"vehicle_type_id":"4","last_reported":1744291279,"current_range_meters":12800,"station_id":"ce4bhbp2rcd13ifvqesg","pricing_plan_id":"cebpf4jnsgd1na2vs0mg"},{"bike_id":"58a06d5c-23f8-466b-a88d-449307d0c901","system_id":"levelo_inurba_marseille","lat":43.31498,"lon":5.36872,"is_reserved":false,"is_disabled":false,"rental_uris":{"android":"levelo://app?vid=58a06d5c-23f8-466b-a88d-449307d0c901","ios":"levelo://app?vid=58a06d5c-23f8-466b-a88d-449307d0c901"},"vehicle_type_id":"4","last_reported":1744291279,"current_range_meters":12800,"station_id":"","pricing_plan_id":"cebpf4jnsgd1na2vs0mg"},{"bike_id":"b19e5786-8da6-4fa6-89f5-e943e8791bb3","system_id":"levelo_inurba_marseille","lat":43.27368,"lon":5.36255,"is_reserved":false,"is_disabled":false,"rental_uris":{"android":"levelo://app?vid=b19e5786-8da6-4fa6-89f5-e943e8791bb3","ios":"levelo://app?vid=b19e5786-8da6-4fa6-89f5-e943e8791bb3"},"vehicle_type_id":"4","last_reported":1744291279,"current_range_meters":12800,"station_id":"ce4bhbh2rcd13ifvqeo0","pricing_plan_id":"cebpf4jnsgd1na2vs0mg"},{"bike_id":"5b10424a-8848-4e45-8edc-c4f9b0e3711e","system_id":"levelo_inurba_marseille","lat":43.31324,"lon":5.39722,"is_reserved":false,"is_disabled":false,"rental_uris":{"android":"levelo://app?vid=5b10424a-8848-4e45-8edc-c4f9b0e3711e","ios":"levelo://app?vid=5b10424a-8848-4e45-8edc-c4f9b0e3711e"},"vehicle_type_id":"4","last_reported":1744291279,"current_range_meters":12400,"station_id":"ce4bgvp2rcd13ifvqcu0","pricing_plan_id":"cebpf4jnsgd1na2vs0mg"},{"bike_id":"e65cfcc4-52d4-4018-b926-59584f3b4625","system_id":"levelo_inurba_marseille","lat":43.26198,"lon":5.37441,"is_reserved":false,"is_disabled":false,"rental_uris":{"android":"levelo://app?vid=e65cfcc4-52d4-4018-b926-59584f3b4625","ios":"levelo://app?vid=e65cfcc4-52d4-4018-b926-59584f3b4625"},"vehicle_type_id":"4","last_reported":1744291279,"current_range_meters":13600,"station_id":"ce4bhgp2rcd13ifvqfc0","pricing_plan_id":"cebpf4jnsgd1na2vs0mg"},{"bike_id":"5d6a2e79-fe45-4e50-a37a-4f1a5d6c5b97","system_id":"levelo_inurba_marseille","lat":43.292023,"lon":5.380613,"is_reserved":false,"is_disabled":false,"rental_uris":{"android":"levelo://app?vid=5d6a2e79-fe45-4e50-a37a-4f1a5d6c5b97","ios":"levelo://app?vid=5d6a2e79-fe45-4e50-a37a-4f1a5d6c5b97"},"vehicle_type_id":"4","last_reported":1744291279,"current_range_meters":13600,"station_id":"ce4bh2h2rcd13ifvqdh0","pricing_plan_id":"cebpf4jnsgd1na2vs0mg"},{"bike_id":"0d9ea3f7-0f38-4782-a51c-aec9d76081e0","system_id":"levelo_inurba_marseille","lat":43.212927,"lon":5.349772,"is_reserved":false,"is_disabled":false,"rental_uris":{"android":"levelo://app?vid=0d9ea3f7-0f38-4782-a51c-aec9d76081e0","ios":"levelo://app?vid=0d9ea3f7-0f38-4782-a51c-aec9d76081e0"},"vehicle_type_id":"4","last_reported":1744291279,"current_range_meters":13600,"station_id":"","pricing_plan_id":"cebpf4jnsgd1na2vs0mg"},{"bike_id":"e3c3a051-8134-4ed3-913b-374aa217874c","system_id":"levelo_inurba_marseille","lat":43.256115,"lon":5.405147,"is_reserved":false,"is_disabled":false,"rental_uris":{"android":"levelo://app?vid=e3c3a051-8134-4ed3-913b-374aa217874c","ios":"levelo://app?vid=e3c3a051-8134-4ed3-913b-374aa217874c"},"vehicle_type_id":"4","last_reported":1744291279,"current_range_meters":14000,"station_id":"","pricing_plan_id":"cebpf4jnsgd1na2vs0mg"},{"bike_id":"d2335d0b-551b-4b72-aa7c-1cdc3c58a1bb","system_id":"levelo_inurba_marseille","lat":43.2972,"lon":5.36591,"is_reserved":false,"is_disabled":false,"rental_uris":{"android":"levelo://app?vid=d2335d0b-551b-4b72-aa7c-1cdc3c58a1bb","ios":"levelo://app?vid=d2335d0b-551b-4b72-aa7c-1cdc3c58a1bb"},"vehicle_type_id":"4","last_reported":1744291279,"current_range_meters":14000,"station_id":"ce4bgn12rcd13ifvqbt0","pricing_plan_id":"cebpf4jnsgd1na2vs0mg"},{"bike_id":"27edd29b-a653-4aa4-81a4-50ab7a005a26","system_id":"levelo_inurba_marseille","lat":43.26678,"lon":5.38264,"is_reserved":false,"is_disabled":false,"rental_uris":{"android":"levelo://app?vid=27edd29b-a653-4aa4-81a4-50ab7a005a26","ios":"levelo://app?vid=27edd29b-a653-4aa4-81a4-50ab7a005a26"},"vehicle_type_id":"4","last_reported":1744291279,"current_range_meters":13600,"station_id":"ce4bhg92rcd13ifvqf90","pricing_plan_id":"cebpf4jnsgd1na2vs0mg"},{"bike_id":"4fe5ba71-dced-4722-9f92-13e13795c67b","system_id":"levelo_inurba_marseille","lat":43.30135,"lon":5.37427,"is_reserved":false,"is_disabled":false,"rental_uris":{"android":"levelo://app?vid=4fe5ba71-dced-4722-9f92-13e13795c67b","ios":"levelo://app?vid=4fe5ba71-dced-4722-9f92-13e13795c67b"},"vehicle_type_id":"4","last_reported":1744291279,"current_range_meters":14000,"station_id":"ce4bgs92rcd13ifvqcc0","pricing_plan_id":"cebpf4jnsgd1na2vs0mg"},{"bike_id":"7c86ebaf-c9fe-4bc4-bc7c-bb16ccfd1fa7","system_id":"levelo_inurba_marseille","lat":43.27372,"lon":5.36245,"is_reserved":false,"is_disabled":false,"rental_uris":{"android":"levelo://app?vid=7c86ebaf-c9fe-4bc4-bc7c-bb16ccfd1fa7","ios":"levelo://app?vid=7c86ebaf-c9fe-4bc4-bc7c-bb16ccfd1fa7"},"vehicle_type_id":"4","last_reported":1744291279,"current_range_meters":14000,"station_id":"ce4bhbh2rcd13ifvqeo0","pricing_plan_id":"cebpf4jnsgd1na2vs0mg"},{"bike_id":"6d76978a-2740-4f57-9972-fcce06d4c9a8","system_id":"levelo_inurba_marseille","lat":43.31348,"lon":5.36723,"is_reserved":false,"is_disabled":false,"rental_uris":{"android":"levelo://app?vid=6d76978a-2740-4f57-9972-fcce06d4c9a8","ios":"levelo://app?vid=6d76978a-2740-4f57-9972-fcce06d4c9a8"},"vehicle_type_id":"4","last_reported":1744291279,"current_range_meters":14400,"station_id":"ce4bgr92rcd13ifvqc6g","pricing_plan_id":"cebpf4jnsgd1na2vs0mg"},{"bike_id":"2d812665-753c-4c63-969b-74140ac03b32","system_id":"levelo_inurba_marseille","lat":43.28103,"lon":5.37833,"is_reserved":false,"is_disabled":false,"rental_uris":{"android":"levelo://app?vid=2d812665-753c-4c63-969b-74140ac03b32","ios":"levelo://app?vid=2d812665-753c-4c63-969b-74140ac03b32"},"vehicle_type_id":"4","last_reported":1744291279,"current_range_meters":14000,"station_id":"ce4bha12rcd13ifvqee0","pricing_plan_id":"cebpf4jnsgd1na2vs0mg"},{"bike_id":"ee93216f-7f2e-41ce-b4b5-baa36739573b","system_id":"levelo_inurba_marseille","lat":43.25117,"lon":5.4032,"is_reserved":false,"is_disabled":false,"rental_uris":{"android":"levelo://app?vid=ee93216f-7f2e-41ce-b4b5-baa36739573b","ios":"levelo://app?vid=ee93216f-7f2e-41ce-b4b5-baa36739573b"},"vehicle_type_id":"4","last_reported":1744291279,"current_range_meters":14400,"station_id":"ce4bhlh2rcd13ifvqgig","pricing_plan_id":"cebpf4jnsgd1na2vs0mg"},{"bike_id":"8d4fa07c-f04c-4693-b57c-96472911182a","system_id":"levelo_inurba_marseille","lat":43.290437,"lon":5.355843,"is_reserved":false,"is_disabled":false,"rental_uris":{"android":"levelo://app?vid=8d4fa07c-f04c-4693-b57c-96472911182a","ios":"levelo://app?vid=8d4fa07c-f04c-4693-b57c-96472911182a"},"vehicle_type_id":"4","last_reported":1744291279,"current_range_meters":14400,"station_id":"ce4bhbp2rcd13ifvqerg","pricing_plan_id":"cebpf4jnsgd1na2vs0mg"},{"bike_id":"5e52431d-7a9d-460e-9918-ea54d5b0c5f3","system_id":"levelo_inurba_marseille","lat":43.26027,"lon":5.37548,"is_reserved":false,"is_disabled":false,"rental_uris":{"android":"levelo://app?vid=5e52431d-7a9d-460e-9918-ea54d5b0c5f3","ios":"levelo://app?vid=5e52431d-7a9d-460e-9918-ea54d5b0c5f3"},"vehicle_type_id":"4","last_reported":1744291279,"current_range_meters":14800,"station_id":"ce4bhgh2rcd13ifvqfa0","pricing_plan_id":"cebpf4jnsgd1na2vs0mg"},{"bike_id":"f78bf8a8-b506-43e9-9fc4-9ec4cb688e82","system_id":"levelo_inurba_marseille","lat":43.32101,"lon":5.36763,"is_reserved":false,"is_disabled":false,"rental_uris":{"android":"levelo://app?vid=f78bf8a8-b506-43e9-9fc4-9ec4cb688e82","ios":"levelo://app?vid=f78bf8a8-b506-43e9-9fc4-9ec4cb688e82"},"vehicle_type_id":"4","last_reported":1744291279,"current_range_meters":14800,"station_id":"ce4bhrh2rcd13ifvqhug","pricing_plan_id":"cebpf4jnsgd1na2vs0mg"},{"bike_id":"93c19646-04d6-4dcb-a8da-2e534d06276b","system_id":"levelo_inurba_marseille","lat":43.30168,"lon":5.38109,"is_reserved":false,"is_disabled":false,"rental_uris":{"android":"levelo://app?vid=93c19646-04d6-4dcb-a8da-2e534d06276b","ios":"levelo://app?vid=93c19646-04d6-4dcb-a8da-2e534d06276b"},"vehicle_type_id":"4","last_reported":1744291279,"current_range_meters":14800,"station_id":"ce4bgjp2rcd13ifvqbh0","pricing_plan_id":"cebpf4jnsgd1na2vs0mg"},{"bike_id":"17923e0a-62dc-440b-8142-c41f34ac4e67","system_id":"levelo_inurba_marseille","lat":43.30539,"lon":5.36558,"is_reserved":false,"is_disabled":false,"rental_uris":{"android":"levelo://app?vid=17923e0a-62dc-440b-8142-c41f34ac4e67","ios":"levelo://app?vid=17923e0a-62dc-440b-8142-c41f34ac4e67"},"vehicle_type_id":"4","last_reported":1744291279,"current_range_meters":14800,"station_id":"ce4bgs12rcd13ifvqcag","pricing_plan_id":"cebpf4jnsgd1na2vs0mg"},{"bike_id":"c74893b0-7990-42e1-81ba-6333fadd7f5e","system_id":"levelo_inurba_marseille","lat":43.305354,"lon":5.365356,"is_reserved":false,"is_disabled":false,"rental_uris":{"android":"levelo://app?vid=c74893b0-7990-42e1-81ba-6333fadd7f5e","ios":"levelo://app?vid=c74893b0-7990-42e1-81ba-6333fadd7f5e"},"vehicle_type_id":"4","last_reported":1744291279,"current_range_meters":14800,"station_id":"ce4bgs12rcd13ifvqcag","pricing_plan_id":"cebpf4jnsgd1na2vs0mg"},{"bike_id":"1ffb0fe8-21da-4270-8c2a-45d8c3f944e7","system_id":"levelo_inurba_marseille","lat":43.28033,"lon":5.36953,"is_reserved":false,"is_disabled":false,"rental_uris":{"android":"levelo://app?vid=1ffb0fe8-21da-4270-8c2a-45d8c3f944e7","ios":"levelo://app?vid=1ffb0fe8-21da-4270-8c2a-45d8c3f944e7"},"vehicle_type_id":"4","last_reported":1744291279,"current_range_meters":14400,"station_id":"ce4bha12rcd13ifvqef0","pricing_plan_id":"cebpf4jnsgd1na2vs0mg"},{"bike_id":"33a6b0c2-7562-4d71-b58b-8456a21af49e","system_id":"levelo_inurba_marseille","lat":43.25583,"lon":5.38242,"is_reserved":false,"is_disabled":false,"rental_uris":{"android":"levelo://app?vid=33a6b0c2-7562-4d71-b58b-8456a21af49e","ios":"levelo://app?vid=33a6b0c2-7562-4d71-b58b-8456a21af49e"},"vehicle_type_id":"4","last_reported":1744291279,"current_range_meters":14800,"station_id":"ce4bhih2rcd13ifvqfs0","pricing_plan_id":"cebpf4jnsgd1na2vs0mg"},{"bike_id":"ed8e1cb8-1342-4c3c-abf3-4a3cf1179f25","system_id":"levelo_inurba_marseille","lat":43.28265,"lon":5.35068,"is_reserved":false,"is_disabled":false,"rental_uris":{"android":"levelo://app?vid=ed8e1cb8-1342-4c3c-abf3-4a3cf1179f25","ios":"levelo://app?vid=ed8e1cb8-1342-4c3c-abf3-4a3cf1179f25"},"vehicle_type_id":"4","last_reported":1744291279,"current_range_meters":14800,"station_id":"ce4bhbp2rcd13ifvqerg","pricing_plan_id":"cebpf4jnsgd1na2vs0mg"},{"bike_id":"03e0e1f8-c08d-41a7-8f0b-66768e59218a","system_id":"levelo_inurba_marseille","lat":43.30469,"lon":5.37914,"is_reserved":false,"is_disabled":false,"rental_uris":{"android":"levelo://app?vid=03e0e1f8-c08d-41a7-8f0b-66768e59218a","ios":"levelo://app?vid=03e0e1f8-c08d-41a7-8f0b-66768e59218a"},"vehicle_type_id":"4","last_reported":1744291279,"current_range_meters":13600,"station_id":"ce4bgup2rcd13ifvqcn0","pricing_plan_id":"cebpf4jnsgd1na2vs0mg"},{"bike_id":"3c067051-95a5-4cf7-b3c1-ce0cfab4f17f","system_id":"levelo_inurba_marseille","lat":43.23148,"lon":5.43726,"is_reserved":false,"is_disabled":false,"rental_uris":{"android":"levelo://app?vid=3c067051-95a5-4cf7-b3c1-ce0cfab4f17f","ios":"levelo://app?vid=3c067051-95a5-4cf7-b3c1-ce0cfab4f17f"},"vehicle_type_id":"4","last_reported":1744291279,"current_range_meters":15200,"station_id":"ce4bhmp2rcd13ifvqgog","pricing_plan_id":"cebpf4jnsgd1na2vs0mg"},{"bike_id":"083e46db-7202-4d81-a11b-6c85cd648e16","system_id":"levelo_inurba_marseille","lat":43.31757,"lon":5.39032,"is_reserved":false,"is_disabled":false,"rental_uris":{"android":"levelo://app?vid=083e46db-7202-4d81-a11b-6c85cd648e16","ios":"levelo://app?vid=083e46db-7202-4d81-a11b-6c85cd648e16"},"vehicle_type_id":"4","last_reported":1744291279,"current_range_meters":15200,"station_id":"ce4bhqp2rcd13ifvqhng","pricing_plan_id":"cebpf4jnsgd1na2vs0mg"},{"bike_id":"9c07b687-0cca-4a28-82f6-66c50d295640","system_id":"levelo_inurba_marseille","lat":43.32369,"lon":5.38882,"is_reserved":false,"is_disabled":false,"rental_uris":{"android":"levelo://app?vid=9c07b687-0cca-4a28-82f6-66c50d295640","ios":"levelo://app?vid=9c07b687-0cca-4a28-82f6-66c50d295640"},"vehicle_type_id":"4","last_reported":1744291279,"current_range_meters":15200,"station_id":"ce4bhqp2rcd13ifvqhog","pricing_plan_id":"cebpf4jnsgd1na2vs0mg"},{"bike_id":"d58ed42c-b12c-4e8a-9c50-6040e1a0d375","system_id":"levelo_inurba_marseille","lat":43.2957,"lon":5.37523,"is_reserved":false,"is_disabled":false,"rental_uris":{"android":"levelo://app?vid=d58ed42c-b12c-4e8a-9c50-6040e1a0d375","ios":"levelo://app?vid=d58ed42c-b12c-4e8a-9c50-6040e1a0d375"},"vehicle_type_id":"4","last_reported":1744291279,"current_range_meters":15200,"station_id":"ce4bgh92rcd13ifvqb50","pricing_plan_id":"cebpf4jnsgd1na2vs0mg"},{"bike_id":"784f6f6f-9f28-47b2-878e-a7ec8d21c437","system_id":"levelo_inurba_marseille","lat":43.30483,"lon":5.3729,"is_reserved":false,"is_disabled":false,"rental_uris":{"android":"levelo://app?vid=784f6f6f-9f28-47b2-878e-a7ec8d21c437","ios":"levelo://app?vid=784f6f6f-9f28-47b2-878e-a7ec8d21c437"},"vehicle_type_id":"4","last_reported":1744291279,"current_range_meters":15200,"station_id":"","pricing_plan_id":"cebpf4jnsgd1na2vs0mg"},{"bike_id":"b63b9f5e-dca8-4ddc-b349-7e8961bff01f","system_id":"levelo_inurba_marseille","lat":43.26206,"lon":5.37443,"is_reserved":false,"is_disabled":false,"rental_uris":{"android":"levelo://app?vid=b63b9f5e-dca8-4ddc-b349-7e8961bff01f","ios":"levelo://app?vid=b63b9f5e-dca8-4ddc-b349-7e8961bff01f"},"vehicle_type_id":"4","last_reported":1744291279,"current_range_meters":15200,"station_id":"ce4bhgp2rcd13ifvqfc0","pricing_plan_id":"cebpf4jnsgd1na2vs0mg"},{"bike_id":"a90afcf1-19c5-4711-8ffa-67308a6c0b9f","system_id":"levelo_inurba_marseille","lat":43.30437,"lon":5.38892,"is_reserved":false,"is_disabled":false,"rental_uris":{"android":"levelo://app?vid=a90afcf1-19c5-4711-8ffa-67308a6c0b9f","ios":"levelo://app?vid=a90afcf1-19c5-4711-8ffa-67308a6c0b9f"},"vehicle_type_id":"4","last_reported":1744291279,"current_range_meters":16000,"station_id":"ce4bgk12rcd13ifvqbi0","pricing_plan_id":"cebpf4jnsgd1na2vs0mg"},{"bike_id":"76c40392-9eb2-47c4-a019-9089b3da5207","system_id":"levelo_inurba_marseille","lat":43.27372,"lon":5.36261,"is_reserved":false,"is_disabled":false,"rental_uris":{"android":"levelo://app?vid=76c40392-9eb2-47c4-a019-9089b3da5207","ios":"levelo://app?vid=76c40392-9eb2-47c4-a019-9089b3da5207"},"vehicle_type_id":"4","last_reported":1744291279,"current_range_meters":16000,"station_id":"ce4bhbh2rcd13ifvqeo0","pricing_plan_id":"cebpf4jnsgd1na2vs0mg"},{"bike_id":"de4669ff-b9cc-43d6-95d6-96a615c4f6f1","system_id":"levelo_inurba_marseille","lat":43.21192,"lon":5.35078,"is_reserved":false,"is_disabled":false,"rental_uris":{"android":"levelo://app?vid=de4669ff-b9cc-43d6-95d6-96a615c4f6f1","ios":"levelo://app?vid=de4669ff-b9cc-43d6-95d6-96a615c4f6f1"},"vehicle_type_id":"4","last_reported":1744291279,"current_range_meters":16000,"station_id":"st_cvj6sg6p6f1abm77japg","pricing_plan_id":"cebpf4jnsgd1na2vs0mg"},{"bike_id":"edcc2472-e7bf-4e0c-91d2-956f1c779ee1","system_id":"levelo_inurba_marseille","lat":43.241743,"lon":5.397317,"is_reserved":false,"is_disabled":false,"rental_uris":{"android":"levelo://app?vid=edcc2472-e7bf-4e0c-91d2-956f1c779ee1","ios":"levelo://app?vid=edcc2472-e7bf-4e0c-91d2-956f1c779ee1"},"vehicle_type_id":"4","last_reported":1744291279,"current_range_meters":16000,"station_id":"ce4bhn12rcd13ifvqgpg","pricing_plan_id":"cebpf4jnsgd1na2vs0mg"},{"bike_id":"7217ea4b-d081-4d83-b44a-5c5d5e38b156","system_id":"levelo_inurba_marseille","lat":43.29262,"lon":5.36852,"is_reserved":false,"is_disabled":false,"rental_uris":{"android":"levelo://app?vid=7217ea4b-d081-4d83-b44a-5c5d5e38b156","ios":"levelo://app?vid=7217ea4b-d081-4d83-b44a-5c5d5e38b156"},"vehicle_type_id":"4","last_reported":1744291279,"current_range_meters":16000,"station_id":"ce4bhbp2rcd13ifvqesg","pricing_plan_id":"cebpf4jnsgd1na2vs0mg"},{"bike_id":"eab6cbfa-cb8e-47d7-b0d6-226ab7facec7","system_id":"levelo_inurba_marseille","lat":43.3171,"lon":5.42406,"is_reserved":false,"is_disabled":true,"rental_uris":{"android":"levelo://app?vid=eab6cbfa-cb8e-47d7-b0d6-226ab7facec7","ios":"levelo://app?vid=eab6cbfa-cb8e-47d7-b0d6-226ab7facec7"},"vehicle_type_id":"4","last_reported":1744291279,"current_range_meters":16000,"station_id":"ce4bhp92rcd13ifvqhbg","pricing_plan_id":"cebpf4jnsgd1na2vs0mg"},{"bike_id":"d1cd1b25-6432-4bde-87f0-3f927aac83c2","system_id":"levelo_inurba_marseille","lat":43.30517,"lon":5.36529,"is_reserved":false,"is_disabled":false,"rental_uris":{"android":"levelo://app?vid=d1cd1b25-6432-4bde-87f0-3f927aac83c2","ios":"levelo://app?vid=d1cd1b25-6432-4bde-87f0-3f927aac83c2"},"vehicle_type_id":"4","last_reported":1744291279,"current_range_meters":16000,"station_id":"ce4bgs12rcd13ifvqcag","pricing_plan_id":"cebpf4jnsgd1na2vs0mg"},{"bike_id":"9dbc1560-03e6-4dc4-9f70-14d918b83bd5","system_id":"levelo_inurba_marseille","lat":43.29551,"lon":5.42297,"is_reserved":false,"is_disabled":false,"rental_uris":{"android":"levelo://app?vid=9dbc1560-03e6-4dc4-9f70-14d918b83bd5","ios":"levelo://app?vid=9dbc1560-03e6-4dc4-9f70-14d918b83bd5"},"vehicle_type_id":"4","last_reported":1744291279,"current_range_meters":16400,"station_id":"ce4bhph2rcd13ifvqhdg","pricing_plan_id":"cebpf4jnsgd1na2vs0mg"},{"bike_id":"7e523cd7-4a07-47da-b949-b357bb3bb06c","system_id":"levelo_inurba_marseille","lat":43.24661,"lon":5.38163,"is_reserved":false,"is_disabled":false,"rental_uris":{"android":"levelo://app?vid=7e523cd7-4a07-47da-b949-b357bb3bb06c","ios":"levelo://app?vid=7e523cd7-4a07-47da-b949-b357bb3bb06c"},"vehicle_type_id":"4","last_reported":1744291279,"current_range_meters":16400,"station_id":"ce4bhih2rcd13ifvqfr0","pricing_plan_id":"cebpf4jnsgd1na2vs0mg"},{"bike_id":"718c6a4c-5ac1-4a2a-a596-a03979e24752","system_id":"levelo_inurba_marseille","lat":43.28469,"lon":5.38558,"is_reserved":false,"is_disabled":false,"rental_uris":{"android":"levelo://app?vid=718c6a4c-5ac1-4a2a-a596-a03979e24752","ios":"levelo://app?vid=718c6a4c-5ac1-4a2a-a596-a03979e24752"},"vehicle_type_id":"4","last_reported":1744291279,"current_range_meters":16000,"station_id":"ce4bh8p2rcd13ifvqeb0","pricing_plan_id":"cebpf4jnsgd1na2vs0mg"},{"bike_id":"f5f569d1-63ae-41ff-bbaf-0272bdcac309","system_id":"levelo_inurba_marseille","lat":43.2803,"lon":5.36952,"is_reserved":false,"is_disabled":false,"rental_uris":{"android":"levelo://app?vid=f5f569d1-63ae-41ff-bbaf-0272bdcac309","ios":"levelo://app?vid=f5f569d1-63ae-41ff-bbaf-0272bdcac309"},"vehicle_type_id":"4","last_reported":1744291279,"current_range_meters":16000,"station_id":"ce4bha12rcd13ifvqef0","pricing_plan_id":"cebpf4jnsgd1na2vs0mg"},{"bike_id":"006f43b4-8808-4df7-b780-45487067ed08","system_id":"levelo_inurba_marseille","lat":43.27953,"lon":5.38722,"is_reserved":false,"is_disabled":false,"rental_uris":{"android":"levelo://app?vid=006f43b4-8808-4df7-b780-45487067ed08","ios":"levelo://app?vid=006f43b4-8808-4df7-b780-45487067ed08"},"vehicle_type_id":"4","last_reported":1744291279,"current_range_meters":16400,"station_id":"ce4bhg12rcd13ifvqf80","pricing_plan_id":"cebpf4jnsgd1na2vs0mg"},{"bike_id":"d1649a4a-b714-4d6f-96fa-0ea28322bcaf","system_id":"levelo_inurba_marseille","lat":43.29851,"lon":5.36288,"is_reserved":false,"is_disabled":false,"rental_uris":{"android":"levelo://app?vid=d1649a4a-b714-4d6f-96fa-0ea28322bcaf","ios":"levelo://app?vid=d1649a4a-b714-4d6f-96fa-0ea28322bcaf"},"vehicle_type_id":"4","last_reported":1744291279,"current_range_meters":16400,"station_id":"ce4bgpp2rcd13ifvqc3g","pricing_plan_id":"cebpf4jnsgd1na2vs0mg"},{"bike_id":"825f7427-1585-4274-bbae-64a2c7dcc248","system_id":"levelo_inurba_marseille","lat":43.31357,"lon":5.36721,"is_reserved":false,"is_disabled":false,"rental_uris":{"android":"levelo://app?vid=825f7427-1585-4274-bbae-64a2c7dcc248","ios":"levelo://app?vid=825f7427-1585-4274-bbae-64a2c7dcc248"},"vehicle_type_id":"4","last_reported":1744291279,"current_range_meters":16400,"station_id":"ce4bgr92rcd13ifvqc6g","pricing_plan_id":"cebpf4jnsgd1na2vs0mg"},{"bike_id":"7928f85f-6603-4b62-a9f0-1785aa6fb49a","system_id":"levelo_inurba_marseille","lat":43.30797,"lon":5.37386,"is_reserved":false,"is_disabled":true,"rental_uris":{"android":"levelo://app?vid=7928f85f-6603-4b62-a9f0-1785aa6fb49a","ios":"levelo://app?vid=7928f85f-6603-4b62-a9f0-1785aa6fb49a"},"vehicle_type_id":"4","last_reported":1744291279,"current_range_meters":16400,"station_id":"","pricing_plan_id":"cebpf4jnsgd1na2vs0mg"},{"bike_id":"b54ac630-7801-48cc-9785-f994a3cb6155","system_id":"levelo_inurba_marseille","lat":43.241775,"lon":5.397095,"is_reserved":false,"is_disabled":false,"rental_uris":{"android":"levelo://app?vid=b54ac630-7801-48cc-9785-f994a3cb6155","ios":"levelo://app?vid=b54ac630-7801-48cc-9785-f994a3cb6155"},"vehicle_type_id":"4","last_reported":1744291279,"current_range_meters":16400,"station_id":"ce4bhn12rcd13ifvqgpg","pricing_plan_id":"cebpf4jnsgd1na2vs0mg"},{"bike_id":"0922821c-4e1d-4817-9469-860e55f8f0d1","system_id":"levelo_inurba_marseille","lat":43.337444,"lon":5.374475,"is_reserved":false,"is_disabled":false,"rental_uris":{"android":"levelo://app?vid=0922821c-4e1d-4817-9469-860e55f8f0d1","ios":"levelo://app?vid=0922821c-4e1d-4817-9469-860e55f8f0d1"},"vehicle_type_id":"4","last_reported":1744291279,"current_range_meters":16400,"station_id":"","pricing_plan_id":"cebpf4jnsgd1na2vs0mg"},{"bike_id":"8f9f9514-15bb-4ae5-b94c-d4ede6f21c41","system_id":"levelo_inurba_marseille","lat":43.24662,"lon":5.38166,"is_reserved":false,"is_disabled":false,"rental_uris":{"android":"levelo://app?vid=8f9f9514-15bb-4ae5-b94c-d4ede6f21c41","ios":"levelo://app?vid=8f9f9514-15bb-4ae5-b94c-d4ede6f21c41"},"vehicle_type_id":"4","last_reported":1744291279,"current_range_meters":16400,"station_id":"ce4bhih2rcd13ifvqfr0","pricing_plan_id":"cebpf4jnsgd1na2vs0mg"},{"bike_id":"23718e9a-5ce7-4d28-99a5-8f754f56e13c","system_id":"levelo_inurba_marseille","lat":43.22503,"lon":5.34786,"is_reserved":false,"is_disabled":false,"rental_uris":{"android":"levelo://app?vid=23718e9a-5ce7-4d28-99a5-8f754f56e13c","ios":"levelo://app?vid=23718e9a-5ce7-4d28-99a5-8f754f56e13c"},"vehicle_type_id":"4","last_reported":1744291279,"current_range_meters":16800,"station_id":"","pricing_plan_id":"cebpf4jnsgd1na2vs0mg"},{"bike_id":"d2bedf55-fd4d-432a-b36b-9de4c64317ae","system_id":"levelo_inurba_marseille","lat":43.312073,"lon":5.367303,"is_reserved":false,"is_disabled":false,"rental_uris":{"android":"levelo://app?vid=d2bedf55-fd4d-432a-b36b-9de4c64317ae","ios":"levelo://app?vid=d2bedf55-fd4d-432a-b36b-9de4c64317ae"},"vehicle_type_id":"4","last_reported":1744291279,"current_range_meters":16400,"station_id":"ce4bgs12rcd13ifvqcag","pricing_plan_id":"cebpf4jnsgd1na2vs0mg"},{"bike_id":"423dc670-3981-461b-9884-cdbe7c4495cf","system_id":"levelo_inurba_marseille","lat":43.30116,"lon":5.39856,"is_reserved":false,"is_disabled":false,"rental_uris":{"android":"levelo://app?vid=423dc670-3981-461b-9884-cdbe7c4495cf","ios":"levelo://app?vid=423dc670-3981-461b-9884-cdbe7c4495cf"},"vehicle_type_id":"4","last_reported":1744291279,"current_range_meters":16400,"station_id":"ce4bh0h2rcd13ifvqd40","pricing_plan_id":"cebpf4jnsgd1na2vs0mg"},{"bike_id":"cdbde65e-6074-4532-bfd0-46d05724eaf1","system_id":"levelo_inurba_marseille","lat":43.28774,"lon":5.37684,"is_reserved":false,"is_disabled":false,"rental_uris":{"android":"levelo://app?vid=cdbde65e-6074-4532-bfd0-46d05724eaf1","ios":"levelo://app?vid=cdbde65e-6074-4532-bfd0-46d05724eaf1"},"vehicle_type_id":"4","last_reported":1744291279,"current_range_meters":16800,"station_id":"","pricing_plan_id":"cebpf4jnsgd1na2vs0mg"},{"bike_id":"a034f737-c7d2-4943-9d22-7ee87c8de504","system_id":"levelo_inurba_marseille","lat":43.28422,"lon":5.34994,"is_reserved":false,"is_disabled":false,"rental_uris":{"android":"levelo://app?vid=a034f737-c7d2-4943-9d22-7ee87c8de504","ios":"levelo://app?vid=a034f737-c7d2-4943-9d22-7ee87c8de504"},"vehicle_type_id":"4","last_reported":1744291279,"current_range_meters":17200,"station_id":"ce4bhbh2rcd13ifvqepg","pricing_plan_id":"cebpf4jnsgd1na2vs0mg"},{"bike_id":"117fc33b-93cd-43b3-9f5d-85709978c449","system_id":"levelo_inurba_marseille","lat":43.24377,"lon":5.37061,"is_reserved":false,"is_disabled":false,"rental_uris":{"android":"levelo://app?vid=117fc33b-93cd-43b3-9f5d-85709978c449","ios":"levelo://app?vid=117fc33b-93cd-43b3-9f5d-85709978c449"},"vehicle_type_id":"4","last_reported":1744291279,"current_range_meters":17200,"station_id":"ce4bhhh2rcd13ifvqfk0","pricing_plan_id":"cebpf4jnsgd1na2vs0mg"},{"bike_id":"467924d9-889a-4591-a26d-c954ba0abb33","system_id":"levelo_inurba_marseille","lat":43.32366,"lon":5.38885,"is_reserved":false,"is_disabled":false,"rental_uris":{"android":"levelo://app?vid=467924d9-889a-4591-a26d-c954ba0abb33","ios":"levelo://app?vid=467924d9-889a-4591-a26d-c954ba0abb33"},"vehicle_type_id":"4","last_reported":1744291279,"current_range_meters":17600,"station_id":"ce4bhqp2rcd13ifvqhog","pricing_plan_id":"cebpf4jnsgd1na2vs0mg"},{"bike_id":"52c3b748-b29e-4ce9-aba4-2948b8a19d23","system_id":"levelo_inurba_marseille","lat":43.284088,"lon":5.349872,"is_reserved":false,"is_disabled":false,"rental_uris":{"android":"levelo://app?vid=52c3b748-b29e-4ce9-aba4-2948b8a19d23","ios":"levelo://app?vid=52c3b748-b29e-4ce9-aba4-2948b8a19d23"},"vehicle_type_id":"4","last_reported":1744291279,"current_range_meters":17200,"station_id":"ce4bgi12rcd13ifvqb70","pricing_plan_id":"cebpf4jnsgd1na2vs0mg"},{"bike_id":"630ae79d-70f6-4f06-a76d-e79c5d557a7d","system_id":"levelo_inurba_marseille","lat":43.31396,"lon":5.36755,"is_reserved":false,"is_disabled":false,"rental_uris":{"android":"levelo://app?vid=630ae79d-70f6-4f06-a76d-e79c5d557a7d","ios":"levelo://app?vid=630ae79d-70f6-4f06-a76d-e79c5d557a7d"},"vehicle_type_id":"4","last_reported":1744291279,"current_range_meters":17200,"station_id":"ce4bgr92rcd13ifvqc6g","pricing_plan_id":"cebpf4jnsgd1na2vs0mg"},{"bike_id":"de8fb75e-631c-44c4-8753-1081d70d0011","system_id":"levelo_inurba_marseille","lat":43.30471,"lon":5.37906,"is_reserved":false,"is_disabled":false,"rental_uris":{"android":"levelo://app?vid=de8fb75e-631c-44c4-8753-1081d70d0011","ios":"levelo://app?vid=de8fb75e-631c-44c4-8753-1081d70d0011"},"vehicle_type_id":"4","last_reported":1744291279,"current_range_meters":17200,"station_id":"ce4bgup2rcd13ifvqcn0","pricing_plan_id":"cebpf4jnsgd1na2vs0mg"},{"bike_id":"13be7fea-e9e2-4515-8179-954cc16a5aa1","system_id":"levelo_inurba_marseille","lat":43.309133,"lon":5.368487,"is_reserved":false,"is_disabled":false,"rental_uris":{"android":"levelo://app?vid=13be7fea-e9e2-4515-8179-954cc16a5aa1","ios":"levelo://app?vid=13be7fea-e9e2-4515-8179-954cc16a5aa1"},"vehicle_type_id":"4","last_reported":1744291279,"current_range_meters":17200,"station_id":"ce4bgn92rcd13ifvqbvg","pricing_plan_id":"cebpf4jnsgd1na2vs0mg"},{"bike_id":"1487c5e0-fefb-43fe-879d-c6f0a9e161c1","system_id":"levelo_inurba_marseille","lat":43.30891,"lon":5.39624,"is_reserved":false,"is_disabled":false,"rental_uris":{"android":"levelo://app?vid=1487c5e0-fefb-43fe-879d-c6f0a9e161c1","ios":"levelo://app?vid=1487c5e0-fefb-43fe-879d-c6f0a9e161c1"},"vehicle_type_id":"4","last_reported":1744291279,"current_range_meters":17200,"station_id":"ce4bh012rcd13ifvqcv0","pricing_plan_id":"cebpf4jnsgd1na2vs0mg"},{"bike_id":"0b8dfbe7-8ce3-4d68-b146-7576a7507398","system_id":"levelo_inurba_marseille","lat":43.21739,"lon":5.34607,"is_reserved":false,"is_disabled":false,"rental_uris":{"android":"levelo://app?vid=0b8dfbe7-8ce3-4d68-b146-7576a7507398","ios":"levelo://app?vid=0b8dfbe7-8ce3-4d68-b146-7576a7507398"},"vehicle_type_id":"4","last_reported":1744291279,"current_range_meters":17200,"station_id":"st_cvj6r9ubvosntc0bgbag","pricing_plan_id":"cebpf4jnsgd1na2vs0mg"},{"bike_id":"873840b1-9482-4c1d-8c3a-9179d0bfd4c6","system_id":"levelo_inurba_marseille","lat":43.32367,"lon":5.38884,"is_reserved":false,"is_disabled":false,"rental_uris":{"android":"levelo://app?vid=873840b1-9482-4c1d-8c3a-9179d0bfd4c6","ios":"levelo://app?vid=873840b1-9482-4c1d-8c3a-9179d0bfd4c6"},"vehicle_type_id":"4","last_reported":1744291279,"current_range_meters":17200,"station_id":"ce4bhqp2rcd13ifvqhog","pricing_plan_id":"cebpf4jnsgd1na2vs0mg"},{"bike_id":"9159bd55-ef67-4397-ac21-bf2358cfb62f","system_id":"levelo_inurba_marseille","lat":43.29006,"lon":5.3561,"is_reserved":false,"is_disabled":false,"rental_uris":{"android":"levelo://app?vid=9159bd55-ef67-4397-ac21-bf2358cfb62f","ios":"levelo://app?vid=9159bd55-ef67-4397-ac21-bf2358cfb62f"},"vehicle_type_id":"4","last_reported":1744291279,"current_range_meters":17200,"station_id":"ce4bhb92rcd13ifvqen0","pricing_plan_id":"cebpf4jnsgd1na2vs0mg"},{"bike_id":"50d4d4ed-30bf-41c2-baf9-c483b040461a","system_id":"levelo_inurba_marseille","lat":43.26927,"lon":5.38909,"is_reserved":false,"is_disabled":false,"rental_uris":{"android":"levelo://app?vid=50d4d4ed-30bf-41c2-baf9-c483b040461a","ios":"levelo://app?vid=50d4d4ed-30bf-41c2-baf9-c483b040461a"},"vehicle_type_id":"4","last_reported":1744291279,"current_range_meters":18000,"station_id":"ce4bhhh2rcd13ifvqfl0","pricing_plan_id":"cebpf4jnsgd1na2vs0mg"},{"bike_id":"14b0627b-178d-4dcd-9e08-02e1081ab018","system_id":"levelo_inurba_marseille","lat":43.23152,"lon":5.43719,"is_reserved":false,"is_disabled":false,"rental_uris":{"android":"levelo://app?vid=14b0627b-178d-4dcd-9e08-02e1081ab018","ios":"levelo://app?vid=14b0627b-178d-4dcd-9e08-02e1081ab018"},"vehicle_type_id":"4","last_reported":1744291279,"current_range_meters":17600,"station_id":"ce4bhmp2rcd13ifvqgog","pricing_plan_id":"cebpf4jnsgd1na2vs0mg"},{"bike_id":"a737f5db-dfb3-4dd8-aeff-67617975e190","system_id":"levelo_inurba_marseille","lat":43.29608,"lon":5.37701,"is_reserved":false,"is_disabled":true,"rental_uris":{"android":"levelo://app?vid=a737f5db-dfb3-4dd8-aeff-67617975e190","ios":"levelo://app?vid=a737f5db-dfb3-4dd8-aeff-67617975e190"},"vehicle_type_id":"4","last_reported":1744291279,"current_range_meters":17600,"station_id":"ce4bgi92rcd13ifvqb90","pricing_plan_id":"cebpf4jnsgd1na2vs0mg"},{"bike_id":"f90f7c31-c539-4616-b5c8-0606602d644e","system_id":"levelo_inurba_marseille","lat":43.306269,"lon":5.371703,"is_reserved":false,"is_disabled":false,"rental_uris":{"android":"levelo://app?vid=f90f7c31-c539-4616-b5c8-0606602d644e","ios":"levelo://app?vid=f90f7c31-c539-4616-b5c8-0606602d644e"},"vehicle_type_id":"4","last_reported":1744291279,"current_range_meters":17600,"station_id":"ce4bgqh2rcd13ifvqc4g","pricing_plan_id":"cebpf4jnsgd1na2vs0mg"},{"bike_id":"221b5d38-61dc-40aa-b23e-5b0391fc47a1","system_id":"levelo_inurba_marseille","lat":43.26222,"lon":5.40455,"is_reserved":false,"is_disabled":false,"rental_uris":{"android":"levelo://app?vid=221b5d38-61dc-40aa-b23e-5b0391fc47a1","ios":"levelo://app?vid=221b5d38-61dc-40aa-b23e-5b0391fc47a1"},"vehicle_type_id":"4","last_reported":1744291279,"current_range_meters":17600,"station_id":"ce4bhmh2rcd13ifvqgmg","pricing_plan_id":"cebpf4jnsgd1na2vs0mg"},{"bike_id":"493c67bd-62cb-484d-b60f-b36d5fab42fa","system_id":"levelo_inurba_marseille","lat":43.25818,"lon":5.39437,"is_reserved":false,"is_disabled":false,"rental_uris":{"android":"levelo://app?vid=493c67bd-62cb-484d-b60f-b36d5fab42fa","ios":"levelo://app?vid=493c67bd-62cb-484d-b60f-b36d5fab42fa"},"vehicle_type_id":"4","last_reported":1744291279,"current_range_meters":17200,"station_id":"ce4bhip2rcd13ifvqft0","pricing_plan_id":"cebpf4jnsgd1na2vs0mg"},{"bike_id":"9ecea778-7468-44ed-bf94-627f6eb2c8b3","system_id":"levelo_inurba_marseille","lat":43.2842,"lon":5.34983,"is_reserved":false,"is_disabled":false,"rental_uris":{"android":"levelo://app?vid=9ecea778-7468-44ed-bf94-627f6eb2c8b3","ios":"levelo://app?vid=9ecea778-7468-44ed-bf94-627f6eb2c8b3"},"vehicle_type_id":"4","last_reported":1744291279,"current_range_meters":17600,"station_id":"ce4bhbh2rcd13ifvqepg","pricing_plan_id":"cebpf4jnsgd1na2vs0mg"},{"bike_id":"94455896-0f19-4fae-bd72-9879f01fcd6e","system_id":"levelo_inurba_marseille","lat":43.29551,"lon":5.42282,"is_reserved":false,"is_disabled":true,"rental_uris":{"android":"levelo://app?vid=94455896-0f19-4fae-bd72-9879f01fcd6e","ios":"levelo://app?vid=94455896-0f19-4fae-bd72-9879f01fcd6e"},"vehicle_type_id":"4","last_reported":1744291279,"current_range_meters":17600,"station_id":"ce4bhph2rcd13ifvqhdg","pricing_plan_id":"cebpf4jnsgd1na2vs0mg"},{"bike_id":"182650a6-9433-4951-80ba-44b6e3878dab","system_id":"levelo_inurba_marseille","lat":43.30547,"lon":5.38433,"is_reserved":false,"is_disabled":true,"rental_uris":{"android":"levelo://app?vid=182650a6-9433-4951-80ba-44b6e3878dab","ios":"levelo://app?vid=182650a6-9433-4951-80ba-44b6e3878dab"},"vehicle_type_id":"4","last_reported":1744291279,"current_range_meters":17600,"station_id":"ce4bgg92rcd13ifvqb30","pricing_plan_id":"cebpf4jnsgd1na2vs0mg"},{"bike_id":"cbc4d964-4d58-4891-a1a0-a908875052fd","system_id":"levelo_inurba_marseille","lat":43.26027,"lon":5.37558,"is_reserved":false,"is_disabled":false,"rental_uris":{"android":"levelo://app?vid=cbc4d964-4d58-4891-a1a0-a908875052fd","ios":"levelo://app?vid=cbc4d964-4d58-4891-a1a0-a908875052fd"},"vehicle_type_id":"4","last_reported":1744291279,"current_range_meters":17600,"station_id":"ce4bhgh2rcd13ifvqfa0","pricing_plan_id":"cebpf4jnsgd1na2vs0mg"},{"bike_id":"c5fd205f-776b-4c47-8e17-31ba1a6797d0","system_id":"levelo_inurba_marseille","lat":43.26209,"lon":5.37446,"is_reserved":false,"is_disabled":false,"rental_uris":{"android":"levelo://app?vid=c5fd205f-776b-4c47-8e17-31ba1a6797d0","ios":"levelo://app?vid=c5fd205f-776b-4c47-8e17-31ba1a6797d0"},"vehicle_type_id":"4","last_reported":1744291279,"current_range_meters":18000,"station_id":"ce4bhgp2rcd13ifvqfc0","pricing_plan_id":"cebpf4jnsgd1na2vs0mg"},{"bike_id":"e4e2b409-fd7a-43b9-a528-d389875dba30","system_id":"levelo_inurba_marseille","lat":43.26211,"lon":5.37441,"is_reserved":false,"is_disabled":false,"rental_uris":{"android":"levelo://app?vid=e4e2b409-fd7a-43b9-a528-d389875dba30","ios":"levelo://app?vid=e4e2b409-fd7a-43b9-a528-d389875dba30"},"vehicle_type_id":"4","last_reported":1744291279,"current_range_meters":18000,"station_id":"ce4bhgp2rcd13ifvqfc0","pricing_plan_id":"cebpf4jnsgd1na2vs0mg"},{"bike_id":"463b41fd-37bb-48c0-a6e4-12f737a3d7cf","system_id":"levelo_inurba_marseille","lat":43.26944,"lon":5.40265,"is_reserved":false,"is_disabled":true,"rental_uris":{"android":"levelo://app?vid=463b41fd-37bb-48c0-a6e4-12f737a3d7cf","ios":"levelo://app?vid=463b41fd-37bb-48c0-a6e4-12f737a3d7cf"},"vehicle_type_id":"4","last_reported":1744291279,"current_range_meters":18000,"station_id":"cjm6bp8fraef2m0cb0m0","pricing_plan_id":"cebpf4jnsgd1na2vs0mg"},{"bike_id":"aeb315f8-5663-4264-8421-f5acbb6ac33d","system_id":"levelo_inurba_marseille","lat":43.26222,"lon":5.40449,"is_reserved":false,"is_disabled":false,"rental_uris":{"android":"levelo://app?vid=aeb315f8-5663-4264-8421-f5acbb6ac33d","ios":"levelo://app?vid=aeb315f8-5663-4264-8421-f5acbb6ac33d"},"vehicle_type_id":"4","last_reported":1744291279,"current_range_meters":18000,"station_id":"ce4bhmh2rcd13ifvqgmg","pricing_plan_id":"cebpf4jnsgd1na2vs0mg"},{"bike_id":"ce1c82e4-2ab0-456b-9391-c9519ed40ac3","system_id":"levelo_inurba_marseille","lat":43.27365,"lon":5.36251,"is_reserved":false,"is_disabled":false,"rental_uris":{"android":"levelo://app?vid=ce1c82e4-2ab0-456b-9391-c9519ed40ac3","ios":"levelo://app?vid=ce1c82e4-2ab0-456b-9391-c9519ed40ac3"},"vehicle_type_id":"4","last_reported":1744291279,"current_range_meters":18000,"station_id":"ce4bhbh2rcd13ifvqeo0","pricing_plan_id":"cebpf4jnsgd1na2vs0mg"},{"bike_id":"35b36e91-763a-4885-8944-e030c3a30dcf","system_id":"levelo_inurba_marseille","lat":43.31226,"lon":5.36859,"is_reserved":false,"is_disabled":false,"rental_uris":{"android":"levelo://app?vid=35b36e91-763a-4885-8944-e030c3a30dcf","ios":"levelo://app?vid=35b36e91-763a-4885-8944-e030c3a30dcf"},"vehicle_type_id":"4","last_reported":1744291279,"current_range_meters":18000,"station_id":"ce4bgl92rcd13ifvqbq0","pricing_plan_id":"cebpf4jnsgd1na2vs0mg"},{"bike_id":"c798fbf6-87d6-44c7-acce-5858a954e3f7","system_id":"levelo_inurba_marseille","lat":43.32061,"lon":5.41547,"is_reserved":false,"is_disabled":false,"rental_uris":{"android":"levelo://app?vid=c798fbf6-87d6-44c7-acce-5858a954e3f7","ios":"levelo://app?vid=c798fbf6-87d6-44c7-acce-5858a954e3f7"},"vehicle_type_id":"4","last_reported":1744291279,"current_range_meters":17600,"station_id":"ce4bhq92rcd13ifvqhkg","pricing_plan_id":"cebpf4jnsgd1na2vs0mg"},{"bike_id":"35cae67c-87ec-4896-b0c6-305b071b0e21","system_id":"levelo_inurba_marseille","lat":43.26192,"lon":5.37927,"is_reserved":false,"is_disabled":false,"rental_uris":{"android":"levelo://app?vid=35cae67c-87ec-4896-b0c6-305b071b0e21","ios":"levelo://app?vid=35cae67c-87ec-4896-b0c6-305b071b0e21"},"vehicle_type_id":"4","last_reported":1744291279,"current_range_meters":18000,"station_id":"ce4bhjp2rcd13ifvqg90","pricing_plan_id":"cebpf4jnsgd1na2vs0mg"},{"bike_id":"6f5a3fba-5124-42a7-b36e-1ce41590f370","system_id":"levelo_inurba_marseille","lat":43.32355,"lon":5.3674,"is_reserved":false,"is_disabled":false,"rental_uris":{"android":"levelo://app?vid=6f5a3fba-5124-42a7-b36e-1ce41590f370","ios":"levelo://app?vid=6f5a3fba-5124-42a7-b36e-1ce41590f370"},"vehicle_type_id":"4","last_reported":1744291279,"current_range_meters":18000,"station_id":"ce4bhsh2rcd13ifvqi2g","pricing_plan_id":"cebpf4jnsgd1na2vs0mg"},{"bike_id":"8b26b7d7-9d7b-4865-9516-95269fac0bab","system_id":"levelo_inurba_marseille","lat":43.2921,"lon":5.3604,"is_reserved":false,"is_disabled":false,"rental_uris":{"android":"levelo://app?vid=8b26b7d7-9d7b-4865-9516-95269fac0bab","ios":"levelo://app?vid=8b26b7d7-9d7b-4865-9516-95269fac0bab"},"vehicle_type_id":"4","last_reported":1744291279,"current_range_meters":18000,"station_id":"ce4bhbh2rcd13ifvqeqg","pricing_plan_id":"cebpf4jnsgd1na2vs0mg"},{"bike_id":"6555717d-bba7-43b1-9979-051a7e42bd01","system_id":"levelo_inurba_marseille","lat":43.24549,"lon":5.39522,"is_reserved":false,"is_disabled":false,"rental_uris":{"android":"levelo://app?vid=6555717d-bba7-43b1-9979-051a7e42bd01","ios":"levelo://app?vid=6555717d-bba7-43b1-9979-051a7e42bd01"},"vehicle_type_id":"4","last_reported":1744291279,"current_range_meters":18000,"station_id":"ce4bhlp2rcd13ifvqgjg","pricing_plan_id":"cebpf4jnsgd1na2vs0mg"},{"bike_id":"94c7794a-6d48-406f-b5c8-69da2480bb40","system_id":"levelo_inurba_marseille","lat":43.31357,"lon":5.36685,"is_reserved":false,"is_disabled":false,"rental_uris":{"android":"levelo://app?vid=94c7794a-6d48-406f-b5c8-69da2480bb40","ios":"levelo://app?vid=94c7794a-6d48-406f-b5c8-69da2480bb40"},"vehicle_type_id":"4","last_reported":1744291279,"current_range_meters":18800,"station_id":"ce4bgr92rcd13ifvqc6g","pricing_plan_id":"cebpf4jnsgd1na2vs0mg"},{"bike_id":"8acdb420-4702-49af-af70-255ed96ca897","system_id":"levelo_inurba_marseille","lat":43.29626,"lon":5.37737,"is_reserved":false,"is_disabled":false,"rental_uris":{"android":"levelo://app?vid=8acdb420-4702-49af-af70-255ed96ca897","ios":"levelo://app?vid=8acdb420-4702-49af-af70-255ed96ca897"},"vehicle_type_id":"4","last_reported":1744291279,"current_range_meters":18000,"station_id":"ce4bgi92rcd13ifvqb90","pricing_plan_id":"cebpf4jnsgd1na2vs0mg"},{"bike_id":"89e18915-d30e-41cb-bb03-ba8ebbb23625","system_id":"levelo_inurba_marseille","lat":43.26682,"lon":5.38275,"is_reserved":false,"is_disabled":false,"rental_uris":{"android":"levelo://app?vid=89e18915-d30e-41cb-bb03-ba8ebbb23625","ios":"levelo://app?vid=89e18915-d30e-41cb-bb03-ba8ebbb23625"},"vehicle_type_id":"4","last_reported":1744291279,"current_range_meters":18800,"station_id":"ce4bhg92rcd13ifvqf90","pricing_plan_id":"cebpf4jnsgd1na2vs0mg"},{"bike_id":"96cf4a1b-4c8d-4096-916d-c117d0b95d37","system_id":"levelo_inurba_marseille","lat":43.29367,"lon":5.37864,"is_reserved":false,"is_disabled":false,"rental_uris":{"android":"levelo://app?vid=96cf4a1b-4c8d-4096-916d-c117d0b95d37","ios":"levelo://app?vid=96cf4a1b-4c8d-4096-916d-c117d0b95d37"},"vehicle_type_id":"4","last_reported":1744291279,"current_range_meters":18800,"station_id":"ce4bgjh2rcd13ifvqbf0","pricing_plan_id":"cebpf4jnsgd1na2vs0mg"},{"bike_id":"6d1f80b1-80e0-4012-99d1-3f8172cadb63","system_id":"levelo_inurba_marseille","lat":43.24168,"lon":5.363906,"is_reserved":false,"is_disabled":false,"rental_uris":{"android":"levelo://app?vid=6d1f80b1-80e0-4012-99d1-3f8172cadb63","ios":"levelo://app?vid=6d1f80b1-80e0-4012-99d1-3f8172cadb63"},"vehicle_type_id":"4","last_reported":1744291279,"current_range_meters":18800,"station_id":"cpo36qri1sfpv3e86is0","pricing_plan_id":"cebpf4jnsgd1na2vs0mg"},{"bike_id":"74b26f4a-6d3d-4ac2-b681-1e6162ab2ff1","system_id":"levelo_inurba_marseille","lat":43.3123,"lon":5.36862,"is_reserved":false,"is_disabled":false,"rental_uris":{"android":"levelo://app?vid=74b26f4a-6d3d-4ac2-b681-1e6162ab2ff1","ios":"levelo://app?vid=74b26f4a-6d3d-4ac2-b681-1e6162ab2ff1"},"vehicle_type_id":"4","last_reported":1744291279,"current_range_meters":18800,"station_id":"ce4bgl92rcd13ifvqbq0","pricing_plan_id":"cebpf4jnsgd1na2vs0mg"},{"bike_id":"edaa0e91-9e9b-40dc-9906-1856a8a8ebaf","system_id":"levelo_inurba_marseille","lat":43.28713,"lon":5.37385,"is_reserved":false,"is_disabled":false,"rental_uris":{"android":"levelo://app?vid=edaa0e91-9e9b-40dc-9906-1856a8a8ebaf","ios":"levelo://app?vid=edaa0e91-9e9b-40dc-9906-1856a8a8ebaf"},"vehicle_type_id":"4","last_reported":1744291279,"current_range_meters":18800,"station_id":"ce4bh3p2rcd13ifvqdq0","pricing_plan_id":"cebpf4jnsgd1na2vs0mg"},{"bike_id":"4d2f64b2-5cf7-464e-8bda-2b24d6c531ad","system_id":"levelo_inurba_marseille","lat":43.2622,"lon":5.37423,"is_reserved":false,"is_disabled":false,"rental_uris":{"android":"levelo://app?vid=4d2f64b2-5cf7-464e-8bda-2b24d6c531ad","ios":"levelo://app?vid=4d2f64b2-5cf7-464e-8bda-2b24d6c531ad"},"vehicle_type_id":"4","last_reported":1744291279,"current_range_meters":18800,"station_id":"","pricing_plan_id":"cebpf4jnsgd1na2vs0mg"},{"bike_id":"958448b5-0f1a-4f99-a7d4-5df0e1e29ff5","system_id":"levelo_inurba_marseille","lat":43.34141,"lon":5.409,"is_reserved":false,"is_disabled":false,"rental_uris":{"android":"levelo://app?vid=958448b5-0f1a-4f99-a7d4-5df0e1e29ff5","ios":"levelo://app?vid=958448b5-0f1a-4f99-a7d4-5df0e1e29ff5"},"vehicle_type_id":"4","last_reported":1744291279,"current_range_meters":19200,"station_id":"ce4bhqh2rcd13ifvqhlg","pricing_plan_id":"cebpf4jnsgd1na2vs0mg"},{"bike_id":"8970a559-23dd-4a79-81d4-b1d8b6134717","system_id":"levelo_inurba_marseille","lat":43.27374,"lon":5.36256,"is_reserved":false,"is_disabled":false,"rental_uris":{"android":"levelo://app?vid=8970a559-23dd-4a79-81d4-b1d8b6134717","ios":"levelo://app?vid=8970a559-23dd-4a79-81d4-b1d8b6134717"},"vehicle_type_id":"4","last_reported":1744291279,"current_range_meters":19200,"station_id":"ce4bhbh2rcd13ifvqeo0","pricing_plan_id":"cebpf4jnsgd1na2vs0mg"},{"bike_id":"6d58f8c5-5ca6-4710-b40d-80b0a7d90518","system_id":"levelo_inurba_marseille","lat":43.30599,"lon":5.3723,"is_reserved":false,"is_disabled":false,"rental_uris":{"android":"levelo://app?vid=6d58f8c5-5ca6-4710-b40d-80b0a7d90518","ios":"levelo://app?vid=6d58f8c5-5ca6-4710-b40d-80b0a7d90518"},"vehicle_type_id":"4","last_reported":1744291279,"current_range_meters":19200,"station_id":"ce4bgqh2rcd13ifvqc4g","pricing_plan_id":"cebpf4jnsgd1na2vs0mg"},{"bike_id":"e41f48ef-1916-410f-8693-7537b1b1584e","system_id":"levelo_inurba_marseille","lat":43.30428,"lon":5.38895,"is_reserved":false,"is_disabled":false,"rental_uris":{"android":"levelo://app?vid=e41f48ef-1916-410f-8693-7537b1b1584e","ios":"levelo://app?vid=e41f48ef-1916-410f-8693-7537b1b1584e"},"vehicle_type_id":"4","last_reported":1744291279,"current_range_meters":19200,"station_id":"ce4bgk12rcd13ifvqbi0","pricing_plan_id":"cebpf4jnsgd1na2vs0mg"},{"bike_id":"638e8b1b-e1b5-485f-beb1-3db06621906f","system_id":"levelo_inurba_marseille","lat":43.29599,"lon":5.38103,"is_reserved":false,"is_disabled":false,"rental_uris":{"android":"levelo://app?vid=638e8b1b-e1b5-485f-beb1-3db06621906f","ios":"levelo://app?vid=638e8b1b-e1b5-485f-beb1-3db06621906f"},"vehicle_type_id":"4","last_reported":1744291279,"current_range_meters":19200,"station_id":"ce4bgl12rcd13ifvqbo0","pricing_plan_id":"cebpf4jnsgd1na2vs0mg"},{"bike_id":"7f2e3985-861b-4931-96c4-5051febf5c23","system_id":"levelo_inurba_marseille","lat":43.29602,"lon":5.40629,"is_reserved":false,"is_disabled":false,"rental_uris":{"android":"levelo://app?vid=7f2e3985-861b-4931-96c4-5051febf5c23","ios":"levelo://app?vid=7f2e3985-861b-4931-96c4-5051febf5c23"},"vehicle_type_id":"4","last_reported":1744291279,"current_range_meters":19200,"station_id":"ce4bh0h2rcd13ifvqd60","pricing_plan_id":"cebpf4jnsgd1na2vs0mg"},{"bike_id":"3e405538-dbe1-4dcb-af44-a3d15512812d","system_id":"levelo_inurba_marseille","lat":43.336,"lon":5.41022,"is_reserved":false,"is_disabled":false,"rental_uris":{"android":"levelo://app?vid=3e405538-dbe1-4dcb-af44-a3d15512812d","ios":"levelo://app?vid=3e405538-dbe1-4dcb-af44-a3d15512812d"},"vehicle_type_id":"4","last_reported":1744291279,"current_range_meters":19200,"station_id":"ce4bhqh2rcd13ifvqhmg","pricing_plan_id":"cebpf4jnsgd1na2vs0mg"},{"bike_id":"d37408de-b5d7-4466-8973-ab7c2a7000bc","system_id":"levelo_inurba_marseille","lat":43.29253,"lon":5.36852,"is_reserved":false,"is_disabled":true,"rental_uris":{"android":"levelo://app?vid=d37408de-b5d7-4466-8973-ab7c2a7000bc","ios":"levelo://app?vid=d37408de-b5d7-4466-8973-ab7c2a7000bc"},"vehicle_type_id":"4","last_reported":1744291279,"current_range_meters":19200,"station_id":"ce4bhbp2rcd13ifvqesg","pricing_plan_id":"cebpf4jnsgd1na2vs0mg"},{"bike_id":"25fb06f4-18a8-47b2-8f0c-a4e815a75645","system_id":"levelo_inurba_marseille","lat":43.33733,"lon":5.39182,"is_reserved":false,"is_disabled":false,"rental_uris":{"android":"levelo://app?vid=25fb06f4-18a8-47b2-8f0c-a4e815a75645","ios":"levelo://app?vid=25fb06f4-18a8-47b2-8f0c-a4e815a75645"},"vehicle_type_id":"4","last_reported":1744291279,"current_range_meters":19600,"station_id":"ce4bhr92rcd13ifvqhsg","pricing_plan_id":"cebpf4jnsgd1na2vs0mg"},{"bike_id":"41296d85-37fc-42bb-838c-0d3e19348df6","system_id":"levelo_inurba_marseille","lat":43.22506,"lon":5.34783,"is_reserved":false,"is_disabled":false,"rental_uris":{"android":"levelo://app?vid=41296d85-37fc-42bb-838c-0d3e19348df6","ios":"levelo://app?vid=41296d85-37fc-42bb-838c-0d3e19348df6"},"vehicle_type_id":"4","last_reported":1744291279,"current_range_meters":19600,"station_id":"st_cvj5dfep6f1abm77gieg","pricing_plan_id":"cebpf4jnsgd1na2vs0mg"},{"bike_id":"d43b77db-9bd3-4428-badc-36b3eeadc6b1","system_id":"levelo_inurba_marseille","lat":43.31361,"lon":5.36733,"is_reserved":false,"is_disabled":false,"rental_uris":{"android":"levelo://app?vid=d43b77db-9bd3-4428-badc-36b3eeadc6b1","ios":"levelo://app?vid=d43b77db-9bd3-4428-badc-36b3eeadc6b1"},"vehicle_type_id":"4","last_reported":1744291279,"current_range_meters":19600,"station_id":"ce4bgr92rcd13ifvqc6g","pricing_plan_id":"cebpf4jnsgd1na2vs0mg"},{"bike_id":"4a9a2a88-b7aa-410e-bfe8-10ac7056326d","system_id":"levelo_inurba_marseille","lat":43.28938,"lon":5.3964,"is_reserved":false,"is_disabled":false,"rental_uris":{"android":"levelo://app?vid=4a9a2a88-b7aa-410e-bfe8-10ac7056326d","ios":"levelo://app?vid=4a9a2a88-b7aa-410e-bfe8-10ac7056326d"},"vehicle_type_id":"4","last_reported":1744291279,"current_range_meters":20000,"station_id":"ce4bh3h2rcd13ifvqdn0","pricing_plan_id":"cebpf4jnsgd1na2vs0mg"},{"bike_id":"d41ae61a-63da-4c5b-9ca3-0fc5a06df94c","system_id":"levelo_inurba_marseille","lat":43.312229,"lon":5.368637,"is_reserved":false,"is_disabled":false,"rental_uris":{"android":"levelo://app?vid=d41ae61a-63da-4c5b-9ca3-0fc5a06df94c","ios":"levelo://app?vid=d41ae61a-63da-4c5b-9ca3-0fc5a06df94c"},"vehicle_type_id":"4","last_reported":1744291279,"current_range_meters":20000,"station_id":"ce4bgl92rcd13ifvqbq0","pricing_plan_id":"cebpf4jnsgd1na2vs0mg"},{"bike_id":"ef291804-1477-432e-b153-82ea15725418","system_id":"levelo_inurba_marseille","lat":43.33742,"lon":5.37454,"is_reserved":false,"is_disabled":false,"rental_uris":{"android":"levelo://app?vid=ef291804-1477-432e-b153-82ea15725418","ios":"levelo://app?vid=ef291804-1477-432e-b153-82ea15725418"},"vehicle_type_id":"4","last_reported":1744291279,"current_range_meters":20000,"station_id":"","pricing_plan_id":"cebpf4jnsgd1na2vs0mg"},{"bike_id":"4c893399-b4ed-40ed-a49f-713da320f269","system_id":"levelo_inurba_marseille","lat":43.29861,"lon":5.37841,"is_reserved":false,"is_disabled":false,"rental_uris":{"android":"levelo://app?vid=4c893399-b4ed-40ed-a49f-713da320f269","ios":"levelo://app?vid=4c893399-b4ed-40ed-a49f-713da320f269"},"vehicle_type_id":"4","last_reported":1744291279,"current_range_meters":20000,"station_id":"","pricing_plan_id":"cebpf4jnsgd1na2vs0mg"},{"bike_id":"5cd3192f-2dd9-4e73-a748-09f1e44aea14","system_id":"levelo_inurba_marseille","lat":43.29891,"lon":5.43671,"is_reserved":false,"is_disabled":false,"rental_uris":{"android":"levelo://app?vid=5cd3192f-2dd9-4e73-a748-09f1e44aea14","ios":"levelo://app?vid=5cd3192f-2dd9-4e73-a748-09f1e44aea14"},"vehicle_type_id":"4","last_reported":1744291279,"current_range_meters":20000,"station_id":"ce4bhpp2rcd13ifvqhfg","pricing_plan_id":"cebpf4jnsgd1na2vs0mg"},{"bike_id":"16fa31bd-b2ac-48b3-be67-46b84d475fbd","system_id":"levelo_inurba_marseille","lat":43.28489,"lon":5.38421,"is_reserved":false,"is_disabled":false,"rental_uris":{"android":"levelo://app?vid=16fa31bd-b2ac-48b3-be67-46b84d475fbd","ios":"levelo://app?vid=16fa31bd-b2ac-48b3-be67-46b84d475fbd"},"vehicle_type_id":"4","last_reported":1744291279,"current_range_meters":20000,"station_id":"ce4bh512rcd13ifvqe3g","pricing_plan_id":"cebpf4jnsgd1na2vs0mg"},{"bike_id":"8c58f2fa-99e1-41f8-bf90-9c1648b679b1","system_id":"levelo_inurba_marseille","lat":43.27302,"lon":5.41432,"is_reserved":false,"is_disabled":false,"rental_uris":{"android":"levelo://app?vid=8c58f2fa-99e1-41f8-bf90-9c1648b679b1","ios":"levelo://app?vid=8c58f2fa-99e1-41f8-bf90-9c1648b679b1"},"vehicle_type_id":"4","last_reported":1744291279,"current_range_meters":20000,"station_id":"","pricing_plan_id":"cebpf4jnsgd1na2vs0mg"},{"bike_id":"a74be2d4-29ec-4cfa-a308-00240eb06797","system_id":"levelo_inurba_marseille","lat":43.29227,"lon":5.36058,"is_reserved":false,"is_disabled":false,"rental_uris":{"android":"levelo://app?vid=a74be2d4-29ec-4cfa-a308-00240eb06797","ios":"levelo://app?vid=a74be2d4-29ec-4cfa-a308-00240eb06797"},"vehicle_type_id":"4","last_reported":1744291279,"current_range_meters":20000,"station_id":"ce4bhbh2rcd13ifvqeqg","pricing_plan_id":"cebpf4jnsgd1na2vs0mg"},{"bike_id":"b34a93be-4368-4412-8616-bda90a60fefb","system_id":"levelo_inurba_marseille","lat":43.22938,"lon":5.35386,"is_reserved":false,"is_disabled":false,"rental_uris":{"android":"levelo://app?vid=b34a93be-4368-4412-8616-bda90a60fefb","ios":"levelo://app?vid=b34a93be-4368-4412-8616-bda90a60fefb"},"vehicle_type_id":"4","last_reported":1744291279,"current_range_meters":20000,"station_id":"cpo3532slgdg3j2ikp40","pricing_plan_id":"cebpf4jnsgd1na2vs0mg"},{"bike_id":"fcbde0c5-adf1-44c5-a29c-825dbc5836bb","system_id":"levelo_inurba_marseille","lat":43.30603,"lon":5.37234,"is_reserved":false,"is_disabled":false,"rental_uris":{"android":"levelo://app?vid=fcbde0c5-adf1-44c5-a29c-825dbc5836bb","ios":"levelo://app?vid=fcbde0c5-adf1-44c5-a29c-825dbc5836bb"},"vehicle_type_id":"4","last_reported":1744291279,"current_range_meters":20000,"station_id":"ce4bgqh2rcd13ifvqc4g","pricing_plan_id":"cebpf4jnsgd1na2vs0mg"},{"bike_id":"31d667d4-06ee-4559-8989-67c543e749f8","system_id":"levelo_inurba_marseille","lat":43.28366,"lon":5.38653,"is_reserved":false,"is_disabled":false,"rental_uris":{"android":"levelo://app?vid=31d667d4-06ee-4559-8989-67c543e749f8","ios":"levelo://app?vid=31d667d4-06ee-4559-8989-67c543e749f8"},"vehicle_type_id":"4","last_reported":1744291279,"current_range_meters":20400,"station_id":"ce4bh492rcd13ifvqdvg","pricing_plan_id":"cebpf4jnsgd1na2vs0mg"},{"bike_id":"3184e0b3-4ab8-4348-9679-fb84c43d9309","system_id":"levelo_inurba_marseille","lat":43.28422,"lon":5.34995,"is_reserved":false,"is_disabled":false,"rental_uris":{"android":"levelo://app?vid=3184e0b3-4ab8-4348-9679-fb84c43d9309","ios":"levelo://app?vid=3184e0b3-4ab8-4348-9679-fb84c43d9309"},"vehicle_type_id":"4","last_reported":1744291279,"current_range_meters":20400,"station_id":"ce4bhbh2rcd13ifvqepg","pricing_plan_id":"cebpf4jnsgd1na2vs0mg"},{"bike_id":"22ad6089-3aa1-48e2-a191-f7b3f0b57852","system_id":"levelo_inurba_marseille","lat":43.26194,"lon":5.37447,"is_reserved":false,"is_disabled":false,"rental_uris":{"android":"levelo://app?vid=22ad6089-3aa1-48e2-a191-f7b3f0b57852","ios":"levelo://app?vid=22ad6089-3aa1-48e2-a191-f7b3f0b57852"},"vehicle_type_id":"4","last_reported":1744291279,"current_range_meters":20400,"station_id":"ce4bhgp2rcd13ifvqfc0","pricing_plan_id":"cebpf4jnsgd1na2vs0mg"},{"bike_id":"b9ce53f2-c778-403d-a57d-92284104933f","system_id":"levelo_inurba_marseille","lat":43.22933,"lon":5.35376,"is_reserved":false,"is_disabled":false,"rental_uris":{"android":"levelo://app?vid=b9ce53f2-c778-403d-a57d-92284104933f","ios":"levelo://app?vid=b9ce53f2-c778-403d-a57d-92284104933f"},"vehicle_type_id":"4","last_reported":1744291279,"current_range_meters":20400,"station_id":"cpo3532slgdg3j2ikp40","pricing_plan_id":"cebpf4jnsgd1na2vs0mg"},{"bike_id":"7ed9c6f1-ac49-4c15-b447-6d67d6891a66","system_id":"levelo_inurba_marseille","lat":43.29903,"lon":5.38149,"is_reserved":false,"is_disabled":false,"rental_uris":{"android":"levelo://app?vid=7ed9c6f1-ac49-4c15-b447-6d67d6891a66","ios":"levelo://app?vid=7ed9c6f1-ac49-4c15-b447-6d67d6891a66"},"vehicle_type_id":"4","last_reported":1744291279,"current_range_meters":20400,"station_id":"ce4bgj12rcd13ifvqbc0","pricing_plan_id":"cebpf4jnsgd1na2vs0mg"},{"bike_id":"88a46557-64ac-4489-9764-777020d72580","system_id":"levelo_inurba_marseille","lat":43.27379,"lon":5.3625,"is_reserved":false,"is_disabled":false,"rental_uris":{"android":"levelo://app?vid=88a46557-64ac-4489-9764-777020d72580","ios":"levelo://app?vid=88a46557-64ac-4489-9764-777020d72580"},"vehicle_type_id":"4","last_reported":1744291279,"current_range_meters":20400,"station_id":"ce4bhbh2rcd13ifvqeo0","pricing_plan_id":"cebpf4jnsgd1na2vs0mg"},{"bike_id":"b04e1ab1-8c7b-4573-a318-8a238d2e2a4d","system_id":"levelo_inurba_marseille","lat":43.31252,"lon":5.36841,"is_reserved":false,"is_disabled":false,"rental_uris":{"android":"levelo://app?vid=b04e1ab1-8c7b-4573-a318-8a238d2e2a4d","ios":"levelo://app?vid=b04e1ab1-8c7b-4573-a318-8a238d2e2a4d"},"vehicle_type_id":"4","last_reported":1744291279,"current_range_meters":20400,"station_id":"ce4bgl92rcd13ifvqbq0","pricing_plan_id":"cebpf4jnsgd1na2vs0mg"},{"bike_id":"893e1d99-fa07-476c-831a-b6f5aca2af07","system_id":"levelo_inurba_marseille","lat":43.29554,"lon":5.42281,"is_reserved":false,"is_disabled":false,"rental_uris":{"android":"levelo://app?vid=893e1d99-fa07-476c-831a-b6f5aca2af07","ios":"levelo://app?vid=893e1d99-fa07-476c-831a-b6f5aca2af07"},"vehicle_type_id":"4","last_reported":1744291279,"current_range_meters":20400,"station_id":"ce4bhph2rcd13ifvqhdg","pricing_plan_id":"cebpf4jnsgd1na2vs0mg"},{"bike_id":"f738094f-106f-40ad-8d58-2c1df412cbf4","system_id":"levelo_inurba_marseille","lat":43.27371,"lon":5.36261,"is_reserved":false,"is_disabled":false,"rental_uris":{"android":"levelo://app?vid=f738094f-106f-40ad-8d58-2c1df412cbf4","ios":"levelo://app?vid=f738094f-106f-40ad-8d58-2c1df412cbf4"},"vehicle_type_id":"4","last_reported":1744291279,"current_range_meters":20400,"station_id":"ce4bhbh2rcd13ifvqeo0","pricing_plan_id":"cebpf4jnsgd1na2vs0mg"},{"bike_id":"b2abdc21-a330-4671-a1ed-c6f3fc8b0209","system_id":"levelo_inurba_marseille","lat":43.28409,"lon":5.34994,"is_reserved":false,"is_disabled":false,"rental_uris":{"android":"levelo://app?vid=b2abdc21-a330-4671-a1ed-c6f3fc8b0209","ios":"levelo://app?vid=b2abdc21-a330-4671-a1ed-c6f3fc8b0209"},"vehicle_type_id":"4","last_reported":1744291279,"current_range_meters":20800,"station_id":"ce4bhbh2rcd13ifvqepg","pricing_plan_id":"cebpf4jnsgd1na2vs0mg"},