{"last_updated":1717092701,"ttl":30,"version":"2.2","data":{"bikes":[{"bike_id":"717d5885-9787-4a56-9625-ad1092a5918c","system_id":"levelo_inurba_marseille","lat":43.312239,"lon":5.368562,"is_reserved":false,"is_disabled":false,"rental_uris":{"android":"levelo://app?vid=717d5885-9787-4a56-9625-ad1092a5918c","ios":"levelo://app?vid=717d5885-9787-4a56-9625-ad1092a5918c"},"vehicle_type_id":"4","last_reported":1717092701,"current_range_meters":20800,"station_id":"ce4bgl92rcd13ifvqbq0","pricing_plan_id":"cebpf4jnsgd1na2vs0mg"},{"bike_id":"3d41c654-fd88-465c-b759-19406da46af3","system_id":"levelo_inurba_marseille","lat":43.309076,"lon":5.368465,"is_reserved":false,"is_disabled":false,"rental_uris":{"android":"levelo://app?vid=3d41c654-fd88-465c-b759-19406da46af3","ios":"levelo://app?vid=3d41c654-fd88-465c-b759-19406da46af3"},"vehicle_type_id":"4","last_reported":1717092701,"current_range_meters":11600,"station_id":"ce4bgn92rcd13ifvqbvg","pricing_plan_id":"cebpf4jnsgd1na2vs0mg"},{"bike_id":"e18aa985-d3b5-46c2-a6ee-35047a19dcdb","system_id":"levelo_inurba_marseille","lat":43.31531,"lon":5.37293,"is_reserved":false,"is_disabled":false,"rental_uris":{"android":"levelo://app?vid=e18aa985-d3b5-46c2-a6ee-35047a19dcdb","ios":"levelo://app?vid=e18aa985-d3b5-46c2-a6ee-35047a19dcdb"},"vehicle_type_id":"4","last_reported":1717092701,"current_range_meters":0,"station_id":"","pricing_plan_id":"cebpf4jnsgd1na2vs0mg"},{"bike_id":"4e081fcd-de07-474c-8c1f-560f29f8d9ee","system_id":"levelo_inurba_marseille","lat":43.30896,"lon":5.37198,"is_reserved":false,"is_disabled":false,"rental_uris":{"android":"levelo://app?vid=4e081fcd-de07-474c-8c1f-560f29f8d9ee","ios":"levelo://app?vid=4e081fcd-de07-474c-8c1f-560f29f8d9ee"},"vehicle_type_id":"4","last_reported":1717092701,"current_range_meters":0,"station_id":"ce4bguh2rcd13ifvqckg","pricing_plan_id":"cebpf4jnsgd1na2vs0mg"},{"bike_id":"d37a4651-c49f-4993-9d80-b57f3e2ba2b2","system_id":"levelo_inurba_marseille","lat":43.30537,"lon":5.367345,"is_reserved":false,"is_disabled":false,"rental_uris":{"android":"levelo://app?vid=d37a4651-c49f-4993-9d80-b57f3e2ba2b2","ios":"levelo://app?vid=d37a4651-c49f-4993-9d80-b57f3e2ba2b2"},"vehicle_type_id":"4","last_reported":1717092701,"current_range_meters":0,"station_id":"ce4bgrp2rcd13ifvqc9g","pricing_plan_id":"cebpf4jnsgd1na2vs0mg"},{"bike_id":"005e1e15-5d17-432c-a1c3-725b74f4a798","system_id":"levelo_inurba_marseille","lat":43.311131,"lon":5.377651,"is_reserved":false,"is_disabled":false,"rental_uris":{"android":"levelo://app?vid=005e1e15-5d17-432c-a1c3-725b74f4a798","ios":"levelo://app?vid=005e1e15-5d17-432c-a1c3-725b74f4a798"},"vehicle_type_id":"4","last_reported":1717092701,"current_range_meters":400,"station_id":"ce4bgt92rcd13ifvqcg0","pricing_plan_id":"cebpf4jnsgd1na2vs0mg"},{"bike_id":"7dcc87f8-398c-4d6c-a8c4-e248b4758337","system_id":"levelo_inurba_marseille","lat":43.311131,"lon":5.377651,"is_reserved":false,"is_disabled":false,"rental_uris":{"android":"levelo://app?vid=7dcc87f8-398c-4d6c-a8c4-e248b4758337","ios":"levelo://app?vid=7dcc87f8-398c-4d6c-a8c4-e248b4758337"},"vehicle_type_id":"4","last_reported":1717092701,"current_range_meters":23200,"station_id":"ce4bgt92rcd13ifvqcg0","pricing_plan_id":"cebpf4jnsgd1na2vs0mg"},{"bike_id":"1910398c-8e33-4f86-82f8-4c8b4cf50b0d","system_id":"levelo_inurba_marseille","lat":43.311131,"lon":5.377651,"is_reserved":false,"is_disabled":false,"rental_uris":{"android":"levelo://app?vid=1910398c-8e33-4f86-82f8-4c8b4cf50b0d","ios":"levelo://app?vid=1910398c-8e33-4f86-82f8-4c8b4cf50b0d"},"vehicle_type_id":"4","last_reported":1717092701,"current_range_meters":0,"station_id":"ce4bgt92rcd13ifvqcg0","pricing_plan_id":"cebpf4jnsgd1na2vs0mg"},{"bike_id":"e75632ce-ea00-4c71-a3db-e09a19635f60","system_id":"levelo_inurba_marseille","lat":43.30431,"lon":5.368507,"is_reserved":false,"is_disabled":false,"rental_uris":{"android":"levelo://app?vid=e75632ce-ea00-4c71-a3db-e09a19635f60","ios":"levelo://app?vid=e75632ce-ea00-4c71-a3db-e09a19635f60"},"vehicle_type_id":"4","last_reported":1717092701,"current_range_meters":6000,"station_id":"","pricing_plan_id":"cebpf4jnsgd1na2vs0mg"},{"bike_id":"cb060f2c-e7a6-47ab-a56b-46df93784077","system_id":"levelo_inurba_marseille","lat":43.30304,"lon":5.368987,"is_reserved":false,"is_disabled":false,"rental_uris":{"android":"levelo://app?vid=cb060f2c-e7a6-47ab-a56b-46df93784077","ios":"levelo://app?vid=cb060f2c-e7a6-47ab-a56b-46df93784077"},"vehicle_type_id":"4","last_reported":1717092701,"current_range_meters":0,"station_id":"ce4bgqh2rcd13ifvqc5g","pricing_plan_id":"cebpf4jnsgd1na2vs0mg"},{"bike_id":"a4f37586-2f0f-4dfd-937f-7198e9e336fe","system_id":"levelo_inurba_marseille","lat":43.3153,"lon":5.3803,"is_reserved":false,"is_disabled":false,"rental_uris":{"android":"levelo://app?vid=a4f37586-2f0f-4dfd-937f-7198e9e336fe","ios":"levelo://app?vid=a4f37586-2f0f-4dfd-937f-7198e9e336fe"},"vehicle_type_id":"4","last_reported":1717092701,"current_range_meters":1200,"station_id":"ce4bhsp2rcd13ifvqi50","pricing_plan_id":"cebpf4jnsgd1na2vs0mg"},{"bike_id":"ca645d96-20f6-44ef-9bf7-2558651df6a5","system_id":"levelo_inurba_marseille","lat":43.31533,"lon":5.3803,"is_reserved":false,"is_disabled":false,"rental_uris":{"android":"levelo://app?vid=ca645d96-20f6-44ef-9bf7-2558651df6a5","ios":"levelo://app?vid=ca645d96-20f6-44ef-9bf7-2558651df6a5"},"vehicle_type_id":"4","last_reported":1717092701,"current_range_meters":23200,"station_id":"ce4bhsp2rcd13ifvqi50","pricing_plan_id":"cebpf4jnsgd1na2vs0mg"},{"bike_id":"176040f2-55b5-4a8f-9a01-569f08afedb0","system_id":"levelo_inurba_marseille","lat":43.31535,"lon":5.38038,"is_reserved":false,"is_disabled":false,"rental_uris":{"android":"levelo://app?vid=176040f2-55b5-4a8f-9a01-569f08afedb0","ios":"levelo://app?vid=176040f2-55b5-4a8f-9a01-569f08afedb0"},"vehicle_type_id":"4","last_reported":1717092701,"current_range_meters":4400,"station_id":"ce4bhsp2rcd13ifvqi50","pricing_plan_id":"cebpf4jnsgd1na2vs0mg"},{"bike_id":"4094890b-de09-467b-b0bf-8be4dc90d838","system_id":"levelo_inurba_marseille","lat":43.30809,"lon":5.3795,"is_reserved":false,"is_disabled":false,"rental_uris":{"android":"levelo://app?vid=4094890b-de09-467b-b0bf-8be4dc90d838","ios":"levelo://app?vid=4094890b-de09-467b-b0bf-8be4dc90d838"},"vehicle_type_id":"4","last_reported":1717092701,"current_range_meters":0,"station_id":"","pricing_plan_id":"cebpf4jnsgd1na2vs0mg"},{"bike_id":"fa0f48dc-52cb-4537-b2d4-f3cb7eb62442","system_id":"levelo_inurba_marseille","lat":43.315535,"lon":5.380529,"is_reserved":false,"is_disabled":false,"rental_uris":{"android":"levelo://app?vid=fa0f48dc-52cb-4537-b2d4-f3cb7eb62442","ios":"levelo://app?vid=fa0f48dc-52cb-4537-b2d4-f3cb7eb62442"},"vehicle_type_id":"4","last_reported":1717092701,"current_range_meters":0,"station_id":"ce4bhsp2rcd13ifvqi50","pricing_plan_id":"cebpf4jnsgd1na2vs0mg"},{"bike_id":"c314b2bf-3049-447a-a724-e38d7b613da2","system_id":"levelo_inurba_marseille","lat":43.308012,"lon":5.381511,"is_reserved":false,"is_disabled":false,"rental_uris":{"android":"levelo://app?vid=c314b2bf-3049-447a-a724-e38d7b613da2","ios":"levelo://app?vid=c314b2bf-3049-447a-a724-e38d7b613da2"},"vehicle_type_id":"4","last_reported":1717092701,"current_range_meters":0,"station_id":"ce4bgt12rcd13ifvqce0","pricing_plan_id":"cebpf4jnsgd1na2vs0mg"},{"bike_id":"2f4a4810-ed5f-46de-b030-6ca8a94a4106","system_id":"levelo_inurba_marseille","lat":43.301939,"lon":5.366286,"is_reserved":false,"is_disabled":false,"rental_uris":{"android":"levelo://app?vid=2f4a4810-ed5f-46de-b030-6ca8a94a4106","ios":"levelo://app?vid=2f4a4810-ed5f-46de-b030-6ca8a94a4106"},"vehicle_type_id":"4","last_reported":1717092701,"current_range_meters":27600,"station_id":"ce4bgrh2rcd13ifvqc8g","pricing_plan_id":"cebpf4jnsgd1na2vs0mg"},{"bike_id":"5a942646-ee0d-4277-b4f0-2cadcae429ce","system_id":"levelo_inurba_marseille","lat":43.307999,"lon":5.381579,"is_reserved":false,"is_disabled":false,"rental_uris":{"android":"levelo://app?vid=5a942646-ee0d-4277-b4f0-2cadcae429ce","ios":"levelo://app?vid=5a942646-ee0d-4277-b4f0-2cadcae429ce"},"vehicle_type_id":"4","last_reported":1717092701,"current_range_meters":0,"station_id":"ce4bgt12rcd13ifvqce0","pricing_plan_id":"cebpf4jnsgd1na2vs0mg"},{"bike_id":"2843ac02-42da-4c80-829d-34c356de7f24","system_id":"levelo_inurba_marseille","lat":43.308012,"lon":5.381511,"is_reserved":false,"is_disabled":false,"rental_uris":{"android":"levelo://app?vid=2843ac02-42da-4c80-829d-34c356de7f24","ios":"levelo://app?vid=2843ac02-42da-4c80-829d-34c356de7f24"},"vehicle_type_id":"4","last_reported":1717092701,"current_range_meters":10800,"station_id":"ce4bgt12rcd13ifvqce0","pricing_plan_id":"cebpf4jnsgd1na2vs0mg"},{"bike_id":"ca10068a-ce25-4472-b973-e69fd026c8fd","system_id":"levelo_inurba_marseille","lat":43.304606,"lon":5.379026,"is_reserved":false,"is_disabled":false,"rental_uris":{"android":"levelo://app?vid=ca10068a-ce25-4472-b973-e69fd026c8fd","ios":"levelo://app?vid=ca10068a-ce25-4472-b973-e69fd026c8fd"},"vehicle_type_id":"4","last_reported":1717092701,"current_range_meters":14400,"station_id":"ce4bgup2rcd13ifvqcn0","pricing_plan_id":"cebpf4jnsgd1na2vs0mg"},{"bike_id":"b3abe369-de9c-4992-ad31-8ddb8e01ed56","system_id":"levelo_inurba_marseille","lat":43.324771,"lon":5.36557,"is_reserved":false,"is_disabled":false,"rental_uris":{"android":"levelo://app?vid=b3abe369-de9c-4992-ad31-8ddb8e01ed56","ios":"levelo://app?vid=b3abe369-de9c-4992-ad31-8ddb8e01ed56"},"vehicle_type_id":"4","last_reported":1717092701,"current_range_meters":6400,"station_id":"ce4bhs12rcd13ifvqhvg","pricing_plan_id":"cebpf4jnsgd1na2vs0mg"},{"bike_id":"6458a27b-c41e-4f2c-8e6f-a6ca3bd3c1c3","system_id":"levelo_inurba_marseille","lat":43.32473,"lon":5.36559,"is_reserved":false,"is_disabled":false,"rental_uris":{"android":"levelo://app?vid=6458a27b-c41e-4f2c-8e6f-a6ca3bd3c1c3","ios":"levelo://app?vid=6458a27b-c41e-4f2c-8e6f-a6ca3bd3c1c3"},"vehicle_type_id":"4","last_reported":1717092701,"current_range_meters":6800,"station_id":"ce4bhs12rcd13ifvqhvg","pricing_plan_id":"cebpf4jnsgd1na2vs0mg"},{"bike_id":"67ddd99d-b271-44fc-bc71-f1be49829280","system_id":"levelo_inurba_marseille","lat":43.324771,"lon":5.36557,"is_reserved":false,"is_disabled":false,"rental_uris":{"android":"levelo://app?vid=67ddd99d-b271-44fc-bc71-f1be49829280","ios":"levelo://app?vid=67ddd99d-b271-44fc-bc71-f1be49829280"},"vehicle_type_id":"4","last_reported":1717092701,"current_range_meters":24000,"station_id":"ce4bhs12rcd13ifvqhvg","pricing_plan_id":"cebpf4jnsgd1na2vs0mg"},{"bike_id":"779a76f2-0ae7-45d2-a1d8-8b010bfdd3a2","system_id":"levelo_inurba_marseille","lat":43.324771,"lon":5.36557,"is_reserved":false,"is_disabled":false,"rental_uris":{"android":"levelo://app?vid=779a76f2-0ae7-45d2-a1d8-8b010bfdd3a2","ios":"levelo://app?vid=779a76f2-0ae7-45d2-a1d8-8b010bfdd3a2"},"vehicle_type_id":"4","last_reported":1717092701,"current_range_meters":0,"station_id":"ce4bhs12rcd13ifvqhvg","pricing_plan_id":"cebpf4jnsgd1na2vs0mg"},{"bike_id":"f742f4e0-f1b1-432e-a9ae-4d9854d19409","system_id":"levelo_inurba_marseille","lat":43.32478,"lon":5.36568,"is_reserved":false,"is_disabled":false,"rental_uris":{"android":"levelo://app?vid=f742f4e0-f1b1-432e-a9ae-4d9854d19409","ios":"levelo://app?vid=f742f4e0-f1b1-432e-a9ae-4d9854d19409"},"vehicle_type_id":"4","last_reported":1717092701,"current_range_meters":8800,"station_id":"ce4bhs12rcd13ifvqhvg","pricing_plan_id":"cebpf4jnsgd1na2vs0mg"},{"bike_id":"09a23f3e-71cb-406c-a41d-682846d49308","system_id":"levelo_inurba_marseille","lat":43.324771,"lon":5.36557,"is_reserved":false,"is_disabled":false,"rental_uris":{"android":"levelo://app?vid=09a23f3e-71cb-406c-a41d-682846d49308","ios":"levelo://app?vid=09a23f3e-71cb-406c-a41d-682846d49308"},"vehicle_type_id":"4","last_reported":1717092701,"current_range_meters":27600,"station_id":"ce4bhs12rcd13ifvqhvg","pricing_plan_id":"cebpf4jnsgd1na2vs0mg"},{"bike_id":"5d578c28-7369-4112-90f7-87a07e3b4816","system_id":"levelo_inurba_marseille","lat":43.324771,"lon":5.36557,"is_reserved":false,"is_disabled":false,"rental_uris":{"android":"levelo://app?vid=5d578c28-7369-4112-90f7-87a07e3b4816","ios":"levelo://app?vid=5d578c28-7369-4112-90f7-87a07e3b4816"},"vehicle_type_id":"4","last_reported":1717092701,"current_range_meters":5600,"station_id":"ce4bhs12rcd13ifvqhvg","pricing_plan_id":"cebpf4jnsgd1na2vs0mg"},{"bike_id":"96777acf-ab97-4114-9a9b-1347bad319b3","system_id":"levelo_inurba_marseille","lat":43.324771,"lon":5.36557,"is_reserved":false,"is_disabled":false,"rental_uris":{"android":"levelo://app?vid=96777acf-ab97-4114-9a9b-1347bad319b3","ios":"levelo://app?vid=96777acf-ab97-4114-9a9b-1347bad319b3"},"vehicle_type_id":"4","last_reported":1717092701,"current_range_meters":26800,"station_id":"ce4bhs12rcd13ifvqhvg","pricing_plan_id":"cebpf4jnsgd1na2vs0mg"},{"bike_id":"6b139583-9998-4edc-ae08-704229886666","system_id":"levelo_inurba_marseille","lat":43.324771,"lon":5.36557,"is_reserved":false,"is_disabled":false,"rental_uris":{"android":"levelo://app?vid=6b139583-9998-4edc-ae08-704229886666","ios":"levelo://app?vid=6b139583-9998-4edc-ae08-704229886666"},"vehicle_type_id":"4","last_reported":1717092701,"current_range_meters":25200,"station_id":"ce4bhs12rcd13ifvqhvg","pricing_plan_id":"cebpf4jnsgd1na2vs0mg"},{"bike_id":"e6885621-118d-40d1-a503-b79d9c34b641","system_id":"levelo_inurba_marseille","lat":43.32485,"lon":5.36554,"is_reserved":false,"is_disabled":false,"rental_uris":{"android":"levelo://app?vid=e6885621-118d-40d1-a503-b79d9c34b641","ios":"levelo://app?vid=e6885621-118d-40d1-a503-b79d9c34b641"},"vehicle_type_id":"4","last_reported":1717092701,"current_range_meters":4800,"station_id":"ce4bhs12rcd13ifvqhvg","pricing_plan_id":"cebpf4jnsgd1na2vs0mg"},{"bike_id":"86be12c3-01f2-4bb6-88ed-e2aeaaa22481","system_id":"levelo_inurba_marseille","lat":43.324771,"lon":5.36557,"is_reserved":false,"is_disabled":false,"rental_uris":{"android":"levelo://app?vid=86be12c3-01f2-4bb6-88ed-e2aeaaa22481","ios":"levelo://app?vid=86be12c3-01f2-4bb6-88ed-e2aeaaa22481"},"vehicle_type_id":"4","last_reported":1717092701,"current_range_meters":0,"station_id":"ce4bhs12rcd13ifvqhvg","pricing_plan_id":"cebpf4jnsgd1na2vs0mg"},{"bike_id":"f30e0fd1-8588-412b-9c52-1c406c2c8fb1","system_id":"levelo_inurba_marseille","lat":43.324771,"lon":5.36557,"is_reserved":false,"is_disabled":false,"rental_uris":{"android":"levelo://app?vid=f30e0fd1-8588-412b-9c52-1c406c2c8fb1","ios":"levelo://app?vid=f30e0fd1-8588-412b-9c52-1c406c2c8fb1"},"vehicle_type_id":"4","last_reported":1717092701,"current_range_meters":20400,"station_id":"ce4bhs12rcd13ifvqhvg","pricing_plan_id":"cebpf4jnsgd1na2vs0mg"},{"bike_id":"24f81b87-d58a-43cf-a391-d46861ecf0aa","system_id":"levelo_inurba_marseille","lat":43.324771,"lon":5.36557,"is_reserved":false,"is_disabled":false,"rental_uris":{"android":"levelo://app?vid=24f81b87-d58a-43cf-a391-d46861ecf0aa","ios":"levelo://app?vid=24f81b87-d58a-43cf-a391-d46861ecf0aa"},"vehicle_type_id":"4","last_reported":1717092701,"current_range_meters":26000,"station_id":"ce4bhs12rcd13ifvqhvg","pricing_plan_id":"cebpf4jnsgd1na2vs0mg"},{"bike_id":"fd56d583-741a-4835-ac2f-e5b32bdce7a1","system_id":"levelo_inurba_marseille","lat":43.301429,"lon":5.37413,"is_reserved":false,"is_disabled":false,"rental_uris":{"android":"levelo://app?vid=fd56d583-741a-4835-ac2f-e5b32bdce7a1","ios":"levelo://app?vid=fd56d583-741a-4835-ac2f-e5b32bdce7a1"},"vehicle_type_id":"4","last_reported":1717092701,"current_range_meters":0,"station_id":"ce4bgs92rcd13ifvqcc0","pricing_plan_id":"cebpf4jnsgd1na2vs0mg"},{"bike_id":"daa8734c-d89a-4016-982e-e3e95340a120","system_id":"levelo_inurba_marseille","lat":43.31983,"lon":5.38131,"is_reserved":false,"is_disabled":false,"rental_uris":{"android":"levelo://app?vid=daa8734c-d89a-4016-982e-e3e95340a120","ios":"levelo://app?vid=daa8734c-d89a-4016-982e-e3e95340a120"},"vehicle_type_id":"4","last_reported":1717092701,"current_range_meters":18000,"station_id":"ce4bhr12rcd13ifvqhpg","pricing_plan_id":"cebpf4jnsgd1na2vs0mg"},{"bike_id":"1c08bfe5-3ceb-4b0d-8193-6f112f925c15","system_id":"levelo_inurba_marseille","lat":43.31996,"lon":5.38152,"is_reserved":false,"is_disabled":false,"rental_uris":{"android":"levelo://app?vid=1c08bfe5-3ceb-4b0d-8193-6f112f925c15","ios":"levelo://app?vid=1c08bfe5-3ceb-4b0d-8193-6f112f925c15"},"vehicle_type_id":"4","last_reported":1717092701,"current_range_meters":8800,"station_id":"ce4bhr12rcd13ifvqhpg","pricing_plan_id":"cebpf4jnsgd1na2vs0mg"},{"bike_id":"92d9305a-2b00-40e0-8327-e3cc43e61c00","system_id":"levelo_inurba_marseille","lat":43.31996,"lon":5.38153,"is_reserved":false,"is_disabled":false,"rental_uris":{"android":"levelo://app?vid=92d9305a-2b00-40e0-8327-e3cc43e61c00","ios":"levelo://app?vid=92d9305a-2b00-40e0-8327-e3cc43e61c00"},"vehicle_type_id":"4","last_reported":1717092701,"current_range_meters":2400,"station_id":"ce4bhr12rcd13ifvqhpg","pricing_plan_id":"cebpf4jnsgd1na2vs0mg"},{"bike_id":"3c7e999a-9f20-49e5-8750-8252b3f4de51","system_id":"levelo_inurba_marseille","lat":43.319973,"lon":5.38152,"is_reserved":false,"is_disabled":false,"rental_uris":{"android":"levelo://app?vid=3c7e999a-9f20-49e5-8750-8252b3f4de51","ios":"levelo://app?vid=3c7e999a-9f20-49e5-8750-8252b3f4de51"},"vehicle_type_id":"4","last_reported":1717092701,"current_range_meters":4000,"station_id":"ce4bhr12rcd13ifvqhpg","pricing_plan_id":"cebpf4jnsgd1na2vs0mg"},{"bike_id":"45ac7070-3b61-44f8-bc5e-07546decdb53","system_id":"levelo_inurba_marseille","lat":43.31996,"lon":5.38168,"is_reserved":false,"is_disabled":false,"rental_uris":{"android":"levelo://app?vid=45ac7070-3b61-44f8-bc5e-07546decdb53","ios":"levelo://app?vid=45ac7070-3b61-44f8-bc5e-07546decdb53"},"vehicle_type_id":"4","last_reported":1717092701,"current_range_meters":1600,"station_id":"ce4bhr12rcd13ifvqhpg","pricing_plan_id":"cebpf4jnsgd1na2vs0mg"},{"bike_id":"962a22e0-6563-4960-ad5d-eec224acebf7","system_id":"levelo_inurba_marseille","lat":43.313571,"lon":5.384829,"is_reserved":false,"is_disabled":false,"rental_uris":{"android":"levelo://app?vid=962a22e0-6563-4960-ad5d-eec224acebf7","ios":"levelo://app?vid=962a22e0-6563-4960-ad5d-eec224acebf7"},"vehicle_type_id":"4","last_reported":1717092701,"current_range_meters":2000,"station_id":"ce4bgt92rcd13ifvqcf0","pricing_plan_id":"cebpf4jnsgd1na2vs0mg"},{"bike_id":"e25344a4-6b97-438c-906d-8bf833faf201","system_id":"levelo_inurba_marseille","lat":43.313571,"lon":5.384829,"is_reserved":false,"is_disabled":false,"rental_uris":{"android":"levelo://app?vid=e25344a4-6b97-438c-906d-8bf833faf201","ios":"levelo://app?vid=e25344a4-6b97-438c-906d-8bf833faf201"},"vehicle_type_id":"4","last_reported":1717092701,"current_range_meters":9200,"station_id":"ce4bgt92rcd13ifvqcf0","pricing_plan_id":"cebpf4jnsgd1na2vs0mg"},{"bike_id":"40306645-5e95-4e79-932c-e124da5b8867","system_id":"levelo_inurba_marseille","lat":43.313571,"lon":5.384829,"is_reserved":false,"is_disabled":false,"rental_uris":{"android":"levelo://app?vid=40306645-5e95-4e79-932c-e124da5b8867","ios":"levelo://app?vid=40306645-5e95-4e79-932c-e124da5b8867"},"vehicle_type_id":"4","last_reported":1717092701,"current_range_meters":8000,"station_id":"ce4bgt92rcd13ifvqcf0","pricing_plan_id":"cebpf4jnsgd1na2vs0mg"},{"bike_id":"c5aeca2e-c185-4c39-aee3-74b36ff45833","system_id":"levelo_inurba_marseille","lat":43.31357,"lon":5.38502,"is_reserved":false,"is_disabled":false,"rental_uris":{"android":"levelo://app?vid=c5aeca2e-c185-4c39-aee3-74b36ff45833","ios":"levelo://app?vid=c5aeca2e-c185-4c39-aee3-74b36ff45833"},"vehicle_type_id":"4","last_reported":1717092701,"current_range_meters":0,"station_id":"ce4bgt92rcd13ifvqcf0","pricing_plan_id":"cebpf4jnsgd1na2vs0mg"},{"bike_id":"31c554f6-e14d-40ec-b69c-35e0c8cd8249","system_id":"levelo_inurba_marseille","lat":43.299724,"lon":5.371829,"is_reserved":false,"is_disabled":false,"rental_uris":{"android":"levelo://app?vid=31c554f6-e14d-40ec-b69c-35e0c8cd8249","ios":"levelo://app?vid=31c554f6-e14d-40ec-b69c-35e0c8cd8249"},"vehicle_type_id":"4","last_reported":1717092701,"current_range_meters":31200,"station_id":"ce4bgr92rcd13ifvqc7g","pricing_plan_id":"cebpf4jnsgd1na2vs0mg"},{"bike_id":"5ae07a52-ca5e-4ac7-b6b7-f8dbdd6492c5","system_id":"levelo_inurba_marseille","lat":43.298433,"lon":5.362774,"is_reserved":false,"is_disabled":false,"rental_uris":{"android":"levelo://app?vid=5ae07a52-ca5e-4ac7-b6b7-f8dbdd6492c5","ios":"levelo://app?vid=5ae07a52-ca5e-4ac7-b6b7-f8dbdd6492c5"},"vehicle_type_id":"4","last_reported":1717092701,"current_range_meters":0,"station_id":"ce4bgpp2rcd13ifvqc3g","pricing_plan_id":"cebpf4jnsgd1na2vs0mg"},{"bike_id":"9715881f-6a98-4c62-900a-60e94ecf362a","system_id":"levelo_inurba_marseille","lat":43.305364,"lon":5.384119,"is_reserved":false,"is_disabled":false,"rental_uris":{"android":"levelo://app?vid=9715881f-6a98-4c62-900a-60e94ecf362a","ios":"levelo://app?vid=9715881f-6a98-4c62-900a-60e94ecf362a"},"vehicle_type_id":"4","last_reported":1717092701,"current_range_meters":0,"station_id":"ce4bgg92rcd13ifvqb30","pricing_plan_id":"cebpf4jnsgd1na2vs0mg"},{"bike_id":"7c0279c4-785e-41cc-9875-11b1aa5697b0","system_id":"levelo_inurba_marseille","lat":43.298433,"lon":5.362774,"is_reserved":false,"is_disabled":false,"rental_uris":{"android":"levelo://app?vid=7c0279c4-785e-41cc-9875-11b1aa5697b0","ios":"levelo://app?vid=7c0279c4-785e-41cc-9875-11b1aa5697b0"},"vehicle_type_id":"4","last_reported":1717092701,"current_range_meters":30400,"station_id":"ce4bgpp2rcd13ifvqc3g","pricing_plan_id":"cebpf4jnsgd1na2vs0mg"},{"bike_id":"10fb4334-c940-4455-979b-d3f1ca32e262","system_id":"levelo_inurba_marseille","lat":43.297794,"lon":5.370888,"is_reserved":false,"is_disabled":false,"rental_uris":{"android":"levelo://app?vid=10fb4334-c940-4455-979b-d3f1ca32e262","ios":"levelo://app?vid=10fb4334-c940-4455-979b-d3f1ca32e262"},"vehicle_type_id":"4","last_reported":1717092701,"current_range_meters":29200,"station_id":"ce4bgop2rcd13ifvqc1g","pricing_plan_id":"cebpf4jnsgd1na2vs0mg"},{"bike_id":"a12d03ad-4070-497b-852e-681308ab8767","system_id":"levelo_inurba_marseille","lat":43.297794,"lon":5.370888,"is_reserved":false,"is_disabled":false,"rental_uris":{"android":"levelo://app?vid=a12d03ad-4070-497b-852e-681308ab8767","ios":"levelo://app?vid=a12d03ad-4070-497b-852e-681308ab8767"},"vehicle_type_id":"4","last_reported":1717092701,"current_range_meters":24800,"station_id":"ce4bgop2rcd13ifvqc1g","pricing_plan_id":"cebpf4jnsgd1na2vs0mg"},{"bike_id":"b697956f-6a10-40f5-8543-a33ed6392cf5","system_id":"levelo_inurba_marseille","lat":43.32284,"lon":5.38271,"is_reserved":false,"is_disabled":false,"rental_uris":{"android":"levelo://app?vid=b697956f-6a10-40f5-8543-a33ed6392cf5","ios":"levelo://app?vid=b697956f-6a10-40f5-8543-a33ed6392cf5"},"vehicle_type_id":"4","last_reported":1717092701,"current_range_meters":4000,"station_id":"ce4bhr12rcd13ifvqhqg","pricing_plan_id":"cebpf4jnsgd1na2vs0mg"},{"bike_id":"34165c8b-f040-4f13-9917-3d07c4d5076b","system_id":"levelo_inurba_marseille","lat":43.32283,"lon":5.38273,"is_reserved":false,"is_disabled":false,"rental_uris":{"android":"levelo://app?vid=34165c8b-f040-4f13-9917-3d07c4d5076b","ios":"levelo://app?vid=34165c8b-f040-4f13-9917-3d07c4d5076b"},"vehicle_type_id":"4","last_reported":1717092701,"current_range_meters":30400,"station_id":"ce4bhr12rcd13ifvqhqg","pricing_plan_id":"cebpf4jnsgd1na2vs0mg"},{"bike_id":"176a9081-884f-45c3-9dd1-d4ce4c58498a","system_id":"levelo_inurba_marseille","lat":43.32294,"lon":5.38265,"is_reserved":false,"is_disabled":false,"rental_uris":{"android":"levelo://app?vid=176a9081-884f-45c3-9dd1-d4ce4c58498a","ios":"levelo://app?vid=176a9081-884f-45c3-9dd1-d4ce4c58498a"},"vehicle_type_id":"4","last_reported":1717092701,"current_range_meters":0,"station_id":"ce4bhr12rcd13ifvqhqg","pricing_plan_id":"cebpf4jnsgd1na2vs0mg"},{"bike_id":"a8faba71-26f4-4d61-9fc5-ba3666fb9ec0","system_id":"levelo_inurba_marseille","lat":43.2968,"lon":5.37291,"is_reserved":false,"is_disabled":false,"rental_uris":{"android":"levelo://app?vid=a8faba71-26f4-4d61-9fc5-ba3666fb9ec0","ios":"levelo://app?vid=a8faba71-26f4-4d61-9fc5-ba3666fb9ec0"},"vehicle_type_id":"4","last_reported":1717092701,"current_range_meters":2400,"station_id":"ce4bgk12rcd13ifvqbj0","pricing_plan_id":"cebpf4jnsgd1na2vs0mg"},{"bike_id":"426885f1-119c-4179-89be-7ae5ebc9f3e0","system_id":"levelo_inurba_marseille","lat":43.299028,"lon":5.381509,"is_reserved":false,"is_disabled":false,"rental_uris":{"android":"levelo://app?vid=426885f1-119c-4179-89be-7ae5ebc9f3e0","ios":"levelo://app?vid=426885f1-119c-4179-89be-7ae5ebc9f3e0"},"vehicle_type_id":"4","last_reported":1717092701,"current_range_meters":27200,"station_id":"ce4bgj12rcd13ifvqbc0","pricing_plan_id":"cebpf4jnsgd1na2vs0mg"},{"bike_id":"cc3368f2-8fdf-481f-b963-6b2fe4cbafa5","system_id":"levelo_inurba_marseille","lat":43.297393,"lon":5.37811,"is_reserved":false,"is_disabled":false,"rental_uris":{"android":"levelo://app?vid=cc3368f2-8fdf-481f-b963-6b2fe4cbafa5","ios":"levelo://app?vid=cc3368f2-8fdf-481f-b963-6b2fe4cbafa5"},"vehicle_type_id":"4","last_reported":1717092701,"current_range_meters":29200,"station_id":"","pricing_plan_id":"cebpf4jnsgd1na2vs0mg"},{"bike_id":"245e2c45-280a-4ba8-9b7b-0056c07933dc","system_id":"levelo_inurba_marseille","lat":43.317557,"lon":5.390173,"is_reserved":false,"is_disabled":false,"rental_uris":{"android":"levelo://app?vid=245e2c45-280a-4ba8-9b7b-0056c07933dc","ios":"levelo://app?vid=245e2c45-280a-4ba8-9b7b-0056c07933dc"},"vehicle_type_id":"4","last_reported":1717092701,"current_range_meters":27600,"station_id":"ce4bhqp2rcd13ifvqhng","pricing_plan_id":"cebpf4jnsgd1na2vs0mg"},{"bike_id":"22ec4a33-1bdd-4ebb-bc88-f06cd9e48b97","system_id":"levelo_inurba_marseille","lat":43.28856,"lon":5.358371,"is_reserved":false,"is_disabled":false,"rental_uris":{"android":"levelo://app?vid=22ec4a33-1bdd-4ebb-bc88-f06cd9e48b97","ios":"levelo://app?vid=22ec4a33-1bdd-4ebb-bc88-f06cd9e48b97"},"vehicle_type_id":"4","last_reported":1717092701,"current_range_meters":0,"station_id":"ce4bhb12rcd13ifvqem0","pricing_plan_id":"cebpf4jnsgd1na2vs0mg"},{"bike_id":"5ff2528b-0511-43bb-b7aa-5791e673e177","system_id":"levelo_inurba_marseille","lat":43.317557,"lon":5.390173,"is_reserved":false,"is_disabled":false,"rental_uris":{"android":"levelo://app?vid=5ff2528b-0511-43bb-b7aa-5791e673e177","ios":"levelo://app?vid=5ff2528b-0511-43bb-b7aa-5791e673e177"},"vehicle_type_id":"4","last_reported":1717092701,"current_range_meters":17200,"station_id":"ce4bhqp2rcd13ifvqhng","pricing_plan_id":"cebpf4jnsgd1na2vs0mg"},{"bike_id":"3095084d-6163-41a2-b167-15ca9134dd06","system_id":"levelo_inurba_marseille","lat":43.317557,"lon":5.390173,"is_reserved":false,"is_disabled":false,"rental_uris":{"android":"levelo://app?vid=3095084d-6163-41a2-b167-15ca9134dd06","ios":"levelo://app?vid=3095084d-6163-41a2-b167-15ca9134dd06"},"vehicle_type_id":"4","last_reported":1717092701,"current_range_meters":1600,"station_id":"ce4bhqp2rcd13ifvqhng","pricing_plan_id":"cebpf4jnsgd1na2vs0mg"},{"bike_id":"6569b359-9392-4c5e-930f-60ac042e29f7","system_id":"levelo_inurba_marseille","lat":43.317557,"lon":5.390173,"is_reserved":false,"is_disabled":false,"rental_uris":{"android":"levelo://app?vid=6569b359-9392-4c5e-930f-60ac042e29f7","ios":"levelo://app?vid=6569b359-9392-4c5e-930f-60ac042e29f7"},"vehicle_type_id":"4","last_reported":1717092701,"current_range_meters":24400,"station_id":"ce4bhqp2rcd13ifvqhng","pricing_plan_id":"cebpf4jnsgd1na2vs0mg"},{"bike_id":"264a2b2e-20a3-4dc5-a554-1774a1651b63","system_id":"levelo_inurba_marseille","lat":43.317557,"lon":5.390173,"is_reserved":false,"is_disabled":false,"rental_uris":{"android":"levelo://app?vid=264a2b2e-20a3-4dc5-a554-1774a1651b63","ios":"levelo://app?vid=264a2b2e-20a3-4dc5-a554-1774a1651b63"},"vehicle_type_id":"4","last_reported":1717092701,"current_range_meters":4400,"station_id":"ce4bhqp2rcd13ifvqhng","pricing_plan_id":"cebpf4jnsgd1na2vs0mg"},{"bike_id":"31a54b52-0f04-468c-8569-be88a8651ed5","system_id":"levelo_inurba_marseille","lat":43.317557,"lon":5.390173,"is_reserved":false,"is_disabled":false,"rental_uris":{"android":"levelo://app?vid=31a54b52-0f04-468c-8569-be88a8651ed5","ios":"levelo://app?vid=31a54b52-0f04-468c-8569-be88a8651ed5"},"vehicle_type_id":"4","last_reported":1717092701,"current_range_meters":10400,"station_id":"ce4bhqp2rcd13ifvqhng","pricing_plan_id":"cebpf4jnsgd1na2vs0mg"},{"bike_id":"2d13994b-6789-449d-a583-57080927309a","system_id":"levelo_inurba_marseille","lat":43.317557,"lon":5.390173,"is_reserved":false,"is_disabled":false,"rental_uris":{"android":"levelo://app?vid=2d13994b-6789-449d-a583-57080927309a","ios":"levelo://app?vid=2d13994b-6789-449d-a583-57080927309a"},"vehicle_type_id":"4","last_reported":1717092701,"current_range_meters":9600,"station_id":"ce4bhqp2rcd13ifvqhng","pricing_plan_id":"cebpf4jnsgd1na2vs0mg"},{"bike_id":"c0a58170-dd09-446d-b3ef-129b581b0f43","system_id":"levelo_inurba_marseille","lat":43.317557,"lon":5.390173,"is_reserved":false,"is_disabled":false,"rental_uris":{"android":"levelo://app?vid=c0a58170-dd09-446d-b3ef-129b581b0f43","ios":"levelo://app?vid=c0a58170-dd09-446d-b3ef-129b581b0f43"},"vehicle_type_id":"4","last_reported":1717092701,"current_range_meters":13600,"station_id":"ce4bhqp2rcd13ifvqhng","pricing_plan_id":"cebpf4jnsgd1na2vs0mg"},{"bike_id":"0305016b-d393-4575-8859-465ec14dc911","system_id":"levelo_inurba_marseille","lat":43.317557,"lon":5.390173,"is_reserved":false,"is_disabled":false,"rental_uris":{"android":"levelo://app?vid=0305016b-d393-4575-8859-465ec14dc911","ios":"levelo://app?vid=0305016b-d393-4575-8859-465ec14dc911"},"vehicle_type_id":"4","last_reported":1717092701,"current_range_meters":13200,"station_id":"ce4bhqp2rcd13ifvqhng","pricing_plan_id":"cebpf4jnsgd1na2vs0mg"},{"bike_id":"1adfd176-8f3d-4d62-a12f-7b87ab039373","system_id":"levelo_inurba_marseille","lat":43.317557,"lon":5.390173,"is_reserved":false,"is_disabled":false,"rental_uris":{"android":"levelo://app?vid=1adfd176-8f3d-4d62-a12f-7b87ab039373","ios":"levelo://app?vid=1adfd176-8f3d-4d62-a12f-7b87ab039373"},"vehicle_type_id":"4","last_reported":1717092701,"current_range_meters":0,"station_id":"ce4bhqp2rcd13ifvqhng","pricing_plan_id":"cebpf4jnsgd1na2vs0mg"},{"bike_id":"0d524be2-b05c-4918-b0c5-0aca14253e96","system_id":"levelo_inurba_marseille","lat":43.29713,"lon":5.3788,"is_reserved":false,"is_disabled":false,"rental_uris":{"android":"levelo://app?vid=0d524be2-b05c-4918-b0c5-0aca14253e96","ios":"levelo://app?vid=0d524be2-b05c-4918-b0c5-0aca14253e96"},"vehicle_type_id":"4","last_reported":1717092701,"current_range_meters":0,"station_id":"","pricing_plan_id":"cebpf4jnsgd1na2vs0mg"},{"bike_id":"d27282ab-c542-4a97-ba61-5d4c52908ec9","system_id":"levelo_inurba_marseille","lat":43.298037,"lon":5.381066,"is_reserved":false,"is_disabled":false,"rental_uris":{"android":"levelo://app?vid=d27282ab-c542-4a97-ba61-5d4c52908ec9","ios":"levelo://app?vid=d27282ab-c542-4a97-ba61-5d4c52908ec9"},"vehicle_type_id":"4","last_reported":1717092701,"current_range_meters":10400,"station_id":"ce4bgip2rcd13ifvqbb0","pricing_plan_id":"cebpf4jnsgd1na2vs0mg"},{"bike_id":"ba986d0f-0954-4a37-8965-e2dfaa97851f","system_id":"levelo_inurba_marseille","lat":43.298,"lon":5.38094,"is_reserved":false,"is_disabled":false,"rental_uris":{"android":"levelo://app?vid=ba986d0f-0954-4a37-8965-e2dfaa97851f","ios":"levelo://app?vid=ba986d0f-0954-4a37-8965-e2dfaa97851f"},"vehicle_type_id":"4","last_reported":1717092701,"current_range_meters":0,"station_id":"ce4bgip2rcd13ifvqbb0","pricing_plan_id":"cebpf4jnsgd1na2vs0mg"},{"bike_id":"aa5b062f-9890-4e40-8d3b-9d1b238dd5a4","system_id":"levelo_inurba_marseille","lat":43.29794,"lon":5.38096,"is_reserved":false,"is_disabled":false,"rental_uris":{"android":"levelo://app?vid=aa5b062f-9890-4e40-8d3b-9d1b238dd5a4","ios":"levelo://app?vid=aa5b062f-9890-4e40-8d3b-9d1b238dd5a4"},"vehicle_type_id":"4","last_reported":1717092701,"current_range_meters":12400,"station_id":"ce4bgip2rcd13ifvqbb0","pricing_plan_id":"cebpf4jnsgd1na2vs0mg"},{"bike_id":"9b9071ac-3b08-40ba-bcac-525d1b5bf35b","system_id":"levelo_inurba_marseille","lat":43.29792,"lon":5.38094,"is_reserved":false,"is_disabled":false,"rental_uris":{"android":"levelo://app?vid=9b9071ac-3b08-40ba-bcac-525d1b5bf35b","ios":"levelo://app?vid=9b9071ac-3b08-40ba-bcac-525d1b5bf35b"},"vehicle_type_id":"4","last_reported":1717092701,"current_range_meters":7200,"station_id":"ce4bgip2rcd13ifvqbb0","pricing_plan_id":"cebpf4jnsgd1na2vs0mg"},{"bike_id":"56d49f0b-7ac9-4b03-932a-bd1a59536039","system_id":"levelo_inurba_marseille","lat":43.295748,"lon":5.37522,"is_reserved":false,"is_disabled":false,"rental_uris":{"android":"levelo://app?vid=56d49f0b-7ac9-4b03-932a-bd1a59536039","ios":"levelo://app?vid=56d49f0b-7ac9-4b03-932a-bd1a59536039"},"vehicle_type_id":"4","last_reported":1717092701,"current_range_meters":0,"station_id":"ce4bgh92rcd13ifvqb50","pricing_plan_id":"cebpf4jnsgd1na2vs0mg"},{"bike_id":"46a4415e-33ad-4204-abf0-b40acddcad58","system_id":"levelo_inurba_marseille","lat":43.296273,"lon":5.377126,"is_reserved":false,"is_disabled":false,"rental_uris":{"android":"levelo://app?vid=46a4415e-33ad-4204-abf0-b40acddcad58","ios":"levelo://app?vid=46a4415e-33ad-4204-abf0-b40acddcad58"},"vehicle_type_id":"4","last_reported":1717092701,"current_range_meters":0,"station_id":"ce4bgi92rcd13ifvqb90","pricing_plan_id":"cebpf4jnsgd1na2vs0mg"},{"bike_id":"7b635062-5622-4ce2-a152-7e588bd06b7b","system_id":"levelo_inurba_marseille","lat":43.298037,"lon":5.381066,"is_reserved":false,"is_disabled":false,"rental_uris":{"android":"levelo://app?vid=7b635062-5622-4ce2-a152-7e588bd06b7b","ios":"levelo://app?vid=7b635062-5622-4ce2-a152-7e588bd06b7b"},"vehicle_type_id":"4","last_reported":1717092701,"current_range_meters":12800,"station_id":"ce4bgip2rcd13ifvqbb0","pricing_plan_id":"cebpf4jnsgd1na2vs0mg"},{"bike_id":"fd7e95ae-653b-4a8e-97f6-333fc97399cd","system_id":"levelo_inurba_marseille","lat":43.295748,"lon":5.37522,"is_reserved":false,"is_disabled":false,"rental_uris":{"android":"levelo://app?vid=fd7e95ae-653b-4a8e-97f6-333fc97399cd","ios":"levelo://app?vid=fd7e95ae-653b-4a8e-97f6-333fc97399cd"},"vehicle_type_id":"4","last_reported":1717092701,"current_range_meters":0,"station_id":"ce4bgh92rcd13ifvqb50","pricing_plan_id":"cebpf4jnsgd1na2vs0mg"},{"bike_id":"e661ceb5-60d2-4044-901f-bcab4d653fe4","system_id":"levelo_inurba_marseille","lat":43.299707,"lon":5.384859,"is_reserved":false,"is_disabled":false,"rental_uris":{"android":"levelo://app?vid=e661ceb5-60d2-4044-901f-bcab4d653fe4","ios":"levelo://app?vid=e661ceb5-60d2-4044-901f-bcab4d653fe4"},"vehicle_type_id":"4","last_reported":1717092701,"current_range_meters":800,"station_id":"ce4bgj92rcd13ifvqbd0","pricing_plan_id":"cebpf4jnsgd1na2vs0mg"},{"bike_id":"2a3aa0ae-d196-48d4-9efd-30b522c44f5f","system_id":"levelo_inurba_marseille","lat":43.299707,"lon":5.384859,"is_reserved":false,"is_disabled":false,"rental_uris":{"android":"levelo://app?vid=2a3aa0ae-d196-48d4-9efd-30b522c44f5f","ios":"levelo://app?vid=2a3aa0ae-d196-48d4-9efd-30b522c44f5f"},"vehicle_type_id":"4","last_reported":1717092701,"current_range_meters":2000,"station_id":"ce4bgj92rcd13ifvqbd0","pricing_plan_id":"cebpf4jnsgd1na2vs0mg"},{"bike_id":"66e6116a-bc8c-4ff1-94fe-1feb339a027e","system_id":"levelo_inurba_marseille","lat":43.29966,"lon":5.38498,"is_reserved":false,"is_disabled":false,"rental_uris":{"android":"levelo://app?vid=66e6116a-bc8c-4ff1-94fe-1feb339a027e","ios":"levelo://app?vid=66e6116a-bc8c-4ff1-94fe-1feb339a027e"},"vehicle_type_id":"4","last_reported":1717092701,"current_range_meters":0,"station_id":"ce4bgj92rcd13ifvqbd0","pricing_plan_id":"cebpf4jnsgd1na2vs0mg"},{"bike_id":"7dc649e1-4cdf-4572-af4d-5549eaf26d35","system_id":"levelo_inurba_marseille","lat":43.299336,"lon":5.384984,"is_reserved":false,"is_disabled":false,"rental_uris":{"android":"levelo://app?vid=7dc649e1-4cdf-4572-af4d-5549eaf26d35","ios":"levelo://app?vid=7dc649e1-4cdf-4572-af4d-5549eaf26d35"},"vehicle_type_id":"4","last_reported":1717092701,"current_range_meters":0,"station_id":"ce4bgj92rcd13ifvqbd0","pricing_plan_id":"cebpf4jnsgd1na2vs0mg"},{"bike_id":"e376b3fd-a2bb-4fc1-bcd0-907b093fffbf","system_id":"levelo_inurba_marseille","lat":43.32367,"lon":5.388836,"is_reserved":false,"is_disabled":false,"rental_uris":{"android":"levelo://app?vid=e376b3fd-a2bb-4fc1-bcd0-907b093fffbf","ios":"levelo://app?vid=e376b3fd-a2bb-4fc1-bcd0-907b093fffbf"},"vehicle_type_id":"4","last_reported":1717092701,"current_range_meters":10800,"station_id":"ce4bhqp2rcd13ifvqhog","pricing_plan_id":"cebpf4jnsgd1na2vs0mg"},{"bike_id":"66abe96e-b7c8-4875-bbda-b09e8770ad5c","system_id":"levelo_inurba_marseille","lat":43.323658,"lon":5.388843,"is_reserved":false,"is_disabled":false,"rental_uris":{"android":"levelo://app?vid=66abe96e-b7c8-4875-bbda-b09e8770ad5c","ios":"levelo://app?vid=66abe96e-b7c8-4875-bbda-b09e8770ad5c"},"vehicle_type_id":"4","last_reported":1717092701,"current_range_meters":16000,"station_id":"ce4bhqp2rcd13ifvqhog","pricing_plan_id":"cebpf4jnsgd1na2vs0mg"},{"bike_id":"010e12d1-c1dd-40c7-bc76-85517a2ff9de","system_id":"levelo_inurba_marseille","lat":43.32363,"lon":5.38887,"is_reserved":false,"is_disabled":false,"rental_uris":{"android":"levelo://app?vid=010e12d1-c1dd-40c7-bc76-85517a2ff9de","ios":"levelo://app?vid=010e12d1-c1dd-40c7-bc76-85517a2ff9de"},"vehicle_type_id":"4","last_reported":1717092701,"current_range_meters":13600,"station_id":"ce4bhqp2rcd13ifvqhog","pricing_plan_id":"cebpf4jnsgd1na2vs0mg"},{"bike_id":"d0daf440-0a95-4471-a0e4-70f8288e5753","system_id":"levelo_inurba_marseille","lat":43.32367,"lon":5.388836,"is_reserved":false,"is_disabled":false,"rental_uris":{"android":"levelo://app?vid=d0daf440-0a95-4471-a0e4-70f8288e5753","ios":"levelo://app?vid=d0daf440-0a95-4471-a0e4-70f8288e5753"},"vehicle_type_id":"4","last_reported":1717092701,"current_range_meters":3200,"station_id":"ce4bhqp2rcd13ifvqhog","pricing_plan_id":"cebpf4jnsgd1na2vs0mg"},{"bike_id":"b8b3f525-87a4-42bd-b89a-f4e5b38581f9","system_id":"levelo_inurba_marseille","lat":43.32367,"lon":5.388836,"is_reserved":false,"is_disabled":false,"rental_uris":{"android":"levelo://app?vid=b8b3f525-87a4-42bd-b89a-f4e5b38581f9","ios":"levelo://app?vid=b8b3f525-87a4-42bd-b89a-f4e5b38581f9"},"vehicle_type_id":"4","last_reported":1717092701,"current_range_meters":4800,"station_id":"ce4bhqp2rcd13ifvqhog","pricing_plan_id":"cebpf4jnsgd1na2vs0mg"},{"bike_id":"fbbcfb97-94e7-41f1-9aba-607a3d722196","system_id":"levelo_inurba_marseille","lat":43.32365,"lon":5.38887,"is_reserved":false,"is_disabled":false,"rental_uris":{"android":"levelo://app?vid=fbbcfb97-94e7-41f1-9aba-607a3d722196","ios":"levelo://app?vid=fbbcfb97-94e7-41f1-9aba-607a3d722196"},"vehicle_type_id":"4","last_reported":1717092701,"current_range_meters":6000,"station_id":"ce4bhqp2rcd13ifvqhog","pricing_plan_id":"cebpf4jnsgd1na2vs0mg"},{"bike_id":"8fe5da5e-c860-4052-8cdd-fd8c9cdac006","system_id":"levelo_inurba_marseille","lat":43.296057,"lon":5.381027,"is_reserved":false,"is_disabled":false,"rental_uris":{"android":"levelo://app?vid=8fe5da5e-c860-4052-8cdd-fd8c9cdac006","ios":"levelo://app?vid=8fe5da5e-c860-4052-8cdd-fd8c9cdac006"},"vehicle_type_id":"4","last_reported":1717092701,"current_range_meters":0,"station_id":"ce4bgl12rcd13ifvqbo0","pricing_plan_id":"cebpf4jnsgd1na2vs0mg"},{"bike_id":"9d42cc7e-4ef5-4b92-aa7d-1dbd5bcb3e07","system_id":"levelo_inurba_marseille","lat":43.29602,"lon":5.381084,"is_reserved":false,"is_disabled":false,"rental_uris":{"android":"levelo://app?vid=9d42cc7e-4ef5-4b92-aa7d-1dbd5bcb3e07","ios":"levelo://app?vid=9d42cc7e-4ef5-4b92-aa7d-1dbd5bcb3e07"},"vehicle_type_id":"4","last_reported":1717092701,"current_range_meters":0,"station_id":"ce4bgl12rcd13ifvqbo0","pricing_plan_id":"cebpf4jnsgd1na2vs0mg"},{"bike_id":"e0d250f1-c66e-4761-a615-95a8b4e0100a","system_id":"levelo_inurba_marseille","lat":43.29602,"lon":5.381084,"is_reserved":false,"is_disabled":false,"rental_uris":{"android":"levelo://app?vid=e0d250f1-c66e-4761-a615-95a8b4e0100a","ios":"levelo://app?vid=e0d250f1-c66e-4761-a615-95a8b4e0100a"},"vehicle_type_id":"4","last_reported":1717092701,"current_range_meters":16800,"station_id":"ce4bgl12rcd13ifvqbo0","pricing_plan_id":"cebpf4jnsgd1na2vs0mg"},{"bike_id":"d2587b11-d47a-4458-9fef-4235cd8fc746","system_id":"levelo_inurba_marseille","lat":43.29602,"lon":5.381084,"is_reserved":false,"is_disabled":false,"rental_uris":{"android":"levelo://app?vid=d2587b11-d47a-4458-9fef-4235cd8fc746","ios":"levelo://app?vid=d2587b11-d47a-4458-9fef-4235cd8fc746"},"vehicle_type_id":"4","last_reported":1717092701,"current_range_meters":21600,"station_id":"ce4bgl12rcd13ifvqbo0","pricing_plan_id":"cebpf4jnsgd1na2vs0mg"},{"bike_id":"f7e7391d-4fcd-4f4a-ac8a-67167cb1c54a","system_id":"levelo_inurba_marseille","lat":43.295912,"lon":5.381321,"is_reserved":false,"is_disabled":false,"rental_uris":{"android":"levelo://app?vid=f7e7391d-4fcd-4f4a-ac8a-67167cb1c54a","ios":"levelo://app?vid=f7e7391d-4fcd-4f4a-ac8a-67167cb1c54a"},"vehicle_type_id":"4","last_reported":1717092701,"current_range_meters":20400,"station_id":"ce4bgl12rcd13ifvqbo0","pricing_plan_id":"cebpf4jnsgd1na2vs0mg"},{"bike_id":"1dfa416c-deb5-40bd-9ede-881d90f06f93","system_id":"levelo_inurba_marseille","lat":43.293259,"lon":5.371586,"is_reserved":false,"is_disabled":false,"rental_uris":{"android":"levelo://app?vid=1dfa416c-deb5-40bd-9ede-881d90f06f93","ios":"levelo://app?vid=1dfa416c-deb5-40bd-9ede-881d90f06f93"},"vehicle_type_id":"4","last_reported":1717092701,"current_range_meters":6800,"station_id":"ce4bgh92rcd13ifvqb40","pricing_plan_id":"cebpf4jnsgd1na2vs0mg"},{"bike_id":"7e97f014-5261-4c7a-92c0-e95438961182","system_id":"levelo_inurba_marseille","lat":43.293259,"lon":5.371586,"is_reserved":false,"is_disabled":false,"rental_uris":{"android":"levelo://app?vid=7e97f014-5261-4c7a-92c0-e95438961182","ios":"levelo://app?vid=7e97f014-5261-4c7a-92c0-e95438961182"},"vehicle_type_id":"4","last_reported":1717092701,"current_range_meters":17200,"station_id":"ce4bgh92rcd13ifvqb40","pricing_plan_id":"cebpf4jnsgd1na2vs0mg"},{"bike_id":"7f850be4-f428-47fb-a00b-15bbb47b8480","system_id":"levelo_inurba_marseille","lat":43.293259,"lon":5.371586,"is_reserved":false,"is_disabled":false,"rental_uris":{"android":"levelo://app?vid=7f850be4-f428-47fb-a00b-15bbb47b8480","ios":"levelo://app?vid=7f850be4-f428-47fb-a00b-15bbb47b8480"},"vehicle_type_id":"4","last_reported":1717092701,"current_range_meters":21600,"station_id":"ce4bgh92rcd13ifvqb40","pricing_plan_id":"cebpf4jnsgd1na2vs0mg"},{"bike_id":"d7a3272c-a7e1-44ca-b43b-fc9f18346451","system_id":"levelo_inurba_marseille","lat":43.293259,"lon":5.371586,"is_reserved":false,"is_disabled":false,"rental_uris":{"android":"levelo://app?vid=d7a3272c-a7e1-44ca-b43b-fc9f18346451","ios":"levelo://app?vid=d7a3272c-a7e1-44ca-b43b-fc9f18346451"},"vehicle_type_id":"4","last_reported":1717092701,"current_range_meters":9200,"station_id":"ce4bgh92rcd13ifvqb40","pricing_plan_id":"cebpf4jnsgd1na2vs0mg"},{"bike_id":"0049434f-669b-4099-882c-9b52cdc27266","system_id":"levelo_inurba_marseille","lat":43.292749,"lon":5.368398,"is_reserved":false,"is_disabled":false,"rental_uris":{"android":"levelo://app?vid=0049434f-669b-4099-882c-9b52cdc27266","ios":"levelo://app?vid=0049434f-669b-4099-882c-9b52cdc27266"},"vehicle_type_id":"4","last_reported":1717092701,"current_range_meters":29200,"station_id":"ce4bhbp2rcd13ifvqesg","pricing_plan_id":"cebpf4jnsgd1na2vs0mg"},{"bike_id":"1e868473-5160-4ae6-9d5a-b3e1e4a2f12d","system_id":"levelo_inurba_marseille","lat":43.292749,"lon":5.368398,"is_reserved":false,"is_disabled":false,"rental_uris":{"android":"levelo://app?vid=1e868473-5160-4ae6-9d5a-b3e1e4a2f12d","ios":"levelo://app?vid=1e868473-5160-4ae6-9d5a-b3e1e4a2f12d"},"vehicle_type_id":"4","last_reported":1717092701,"current_range_meters":11600,"station_id":"ce4bhbp2rcd13ifvqesg","pricing_plan_id":"cebpf4jnsgd1na2vs0mg"},{"bike_id":"4b8db4ea-9954-450b-bebe-256452ca050b","system_id":"levelo_inurba_marseille","lat":43.29271,"lon":5.36853,"is_reserved":false,"is_disabled":false,"rental_uris":{"android":"levelo://app?vid=4b8db4ea-9954-450b-bebe-256452ca050b","ios":"levelo://app?vid=4b8db4ea-9954-450b-bebe-256452ca050b"},"vehicle_type_id":"4","last_reported":1717092701,"current_range_meters":29600,"station_id":"ce4bhbp2rcd13ifvqesg","pricing_plan_id":"cebpf4jnsgd1na2vs0mg"},{"bike_id":"11bd3227-d19c-45e3-ac9e-a8b9b0c57f0b","system_id":"levelo_inurba_marseille","lat":43.293009,"lon":5.374584,"is_reserved":false,"is_disabled":false,"rental_uris":{"android":"levelo://app?vid=11bd3227-d19c-45e3-ac9e-a8b9b0c57f0b","ios":"levelo://app?vid=11bd3227-d19c-45e3-ac9e-a8b9b0c57f0b"},"vehicle_type_id":"4","last_reported":1717092701,"current_range_meters":0,"station_id":"ce4bgi12rcd13ifvqb70","pricing_plan_id":"cebpf4jnsgd1na2vs0mg"},{"bike_id":"0eff2fcb-6a7d-4b3c-86bb-369c22eef8b2","system_id":"levelo_inurba_marseille","lat":43.293009,"lon":5.374584,"is_reserved":false,"is_disabled":false,"rental_uris":{"android":"levelo://app?vid=0eff2fcb-6a7d-4b3c-86bb-369c22eef8b2","ios":"levelo://app?vid=0eff2fcb-6a7d-4b3c-86bb-369c22eef8b2"},"vehicle_type_id":"4","last_reported":1717092701,"current_range_meters":22800,"station_id":"ce4bgi12rcd13ifvqb70","pricing_plan_id":"cebpf4jnsgd1na2vs0mg"},{"bike_id":"a0c0f827-130d-4072-93b2-31f57d387985","system_id":"levelo_inurba_marseille","lat":43.292005,"lon":5.357875,"is_reserved":false,"is_disabled":false,"rental_uris":{"android":"levelo://app?vid=a0c0f827-130d-4072-93b2-31f57d387985","ios":"levelo://app?vid=a0c0f827-130d-4072-93b2-31f57d387985"},"vehicle_type_id":"4","last_reported":1717092701,"current_range_meters":18400,"station_id":"ce4bhb12rcd13ifvqel0","pricing_plan_id":"cebpf4jnsgd1na2vs0mg"},{"bike_id":"7b9f9d99-3175-463c-8020-198459b676b0","system_id":"levelo_inurba_marseille","lat":43.305994,"lon":5.393687,"is_reserved":false,"is_disabled":false,"rental_uris":{"android":"levelo://app?vid=7b9f9d99-3175-463c-8020-198459b676b0","ios":"levelo://app?vid=7b9f9d99-3175-463c-8020-198459b676b0"},"vehicle_type_id":"4","last_reported":1717092701,"current_range_meters":0,"station_id":"ce4bh0p2rcd13ifvqd80","pricing_plan_id":"cebpf4jnsgd1na2vs0mg"},{"bike_id":"58541bc8-dcb0-4192-ab3c-1504833d8326","system_id":"levelo_inurba_marseille","lat":43.29301,"lon":5.37458,"is_reserved":false,"is_disabled":false,"rental_uris":{"android":"levelo://app?vid=58541bc8-dcb0-4192-ab3c-1504833d8326","ios":"levelo://app?vid=58541bc8-dcb0-4192-ab3c-1504833d8326"},"vehicle_type_id":"4","last_reported":1717092701,"current_range_meters":0,"station_id":"ce4bgi12rcd13ifvqb70","pricing_plan_id":"cebpf4jnsgd1na2vs0mg"},{"bike_id":"7b954f11-13a8-4c50-834c-c7d335ae5a32","system_id":"levelo_inurba_marseille","lat":43.293009,"lon":5.374584,"is_reserved":false,"is_disabled":false,"rental_uris":{"android":"levelo://app?vid=7b954f11-13a8-4c50-834c-c7d335ae5a32","ios":"levelo://app?vid=7b954f11-13a8-4c50-834c-c7d335ae5a32"},"vehicle_type_id":"4","last_reported":1717092701,"current_range_meters":8400,"station_id":"ce4bgi12rcd13ifvqb70","pricing_plan_id":"cebpf4jnsgd1na2vs0mg"},{"bike_id":"8e348154-2072-44b9-8028-813e11cb0477","system_id":"levelo_inurba_marseille","lat":43.305797,"lon":5.393477,"is_reserved":false,"is_disabled":false,"rental_uris":{"android":"levelo://app?vid=8e348154-2072-44b9-8028-813e11cb0477","ios":"levelo://app?vid=8e348154-2072-44b9-8028-813e11cb0477"},"vehicle_type_id":"4","last_reported":1717092701,"current_range_meters":0,"station_id":"ce4bh0p2rcd13ifvqd80","pricing_plan_id":"cebpf4jnsgd1na2vs0mg"},{"bike_id":"0813734a-24e4-470b-baa5-038c88310d75","system_id":"levelo_inurba_marseille","lat":43.302992,"lon":5.392136,"is_reserved":false,"is_disabled":false,"rental_uris":{"android":"levelo://app?vid=0813734a-24e4-470b-baa5-038c88310d75","ios":"levelo://app?vid=0813734a-24e4-470b-baa5-038c88310d75"},"vehicle_type_id":"4","last_reported":1717092701,"current_range_meters":19600,"station_id":"ce4bgkh2rcd13ifvqbk0","pricing_plan_id":"cebpf4jnsgd1na2vs0mg"},{"bike_id":"49d4e459-3fec-47e6-95ed-7aee4d5e222b","system_id":"levelo_inurba_marseille","lat":43.302992,"lon":5.392136,"is_reserved":false,"is_disabled":false,"rental_uris":{"android":"levelo://app?vid=49d4e459-3fec-47e6-95ed-7aee4d5e222b","ios":"levelo://app?vid=49d4e459-3fec-47e6-95ed-7aee4d5e222b"},"vehicle_type_id":"4","last_reported":1717092701,"current_range_meters":9600,"station_id":"ce4bgkh2rcd13ifvqbk0","pricing_plan_id":"cebpf4jnsgd1na2vs0mg"},{"bike_id":"ad41c3f5-351c-489b-8196-77993a1c09fa","system_id":"levelo_inurba_marseille","lat":43.3031,"lon":5.39217,"is_reserved":false,"is_disabled":false,"rental_uris":{"android":"levelo://app?vid=ad41c3f5-351c-489b-8196-77993a1c09fa","ios":"levelo://app?vid=ad41c3f5-351c-489b-8196-77993a1c09fa"},"vehicle_type_id":"4","last_reported":1717092701,"current_range_meters":0,"station_id":"ce4bgkh2rcd13ifvqbk0","pricing_plan_id":"cebpf4jnsgd1na2vs0mg"},{"bike_id":"7eef2550-c038-4683-8fda-f89e407c99e3","system_id":"levelo_inurba_marseille","lat":43.302992,"lon":5.392136,"is_reserved":false,"is_disabled":false,"rental_uris":{"android":"levelo://app?vid=7eef2550-c038-4683-8fda-f89e407c99e3","ios":"levelo://app?vid=7eef2550-c038-4683-8fda-f89e407c99e3"},"vehicle_type_id":"4","last_reported":1717092701,"current_range_meters":0,"station_id":"ce4bgkh2rcd13ifvqbk0","pricing_plan_id":"cebpf4jnsgd1na2vs0mg"},{"bike_id":"67c97d27-ee2c-4221-be01-f295103910e7","system_id":"levelo_inurba_marseille","lat":43.30311,"lon":5.39223,"is_reserved":false,"is_disabled":false,"rental_uris":{"android":"levelo://app?vid=67c97d27-ee2c-4221-be01-f295103910e7","ios":"levelo://app?vid=67c97d27-ee2c-4221-be01-f295103910e7"},"vehicle_type_id":"4","last_reported":1717092701,"current_range_meters":0,"station_id":"ce4bgkh2rcd13ifvqbk0","pricing_plan_id":"cebpf4jnsgd1na2vs0mg"},{"bike_id":"1b86437a-acef-498e-a310-df565a19902d","system_id":"levelo_inurba_marseille","lat":43.30085,"lon":5.390856,"is_reserved":false,"is_disabled":false,"rental_uris":{"android":"levelo://app?vid=1b86437a-acef-498e-a310-df565a19902d","ios":"levelo://app?vid=1b86437a-acef-498e-a310-df565a19902d"},"vehicle_type_id":"4","last_reported":1717092701,"current_range_meters":0,"station_id":"ce4bh192rcd13ifvqdb0","pricing_plan_id":"cebpf4jnsgd1na2vs0mg"},{"bike_id":"ef2e64ec-17e4-45b0-a8da-ca46165f7686","system_id":"levelo_inurba_marseille","lat":43.292311,"lon":5.360731,"is_reserved":false,"is_disabled":false,"rental_uris":{"android":"levelo://app?vid=ef2e64ec-17e4-45b0-a8da-ca46165f7686","ios":"levelo://app?vid=ef2e64ec-17e4-45b0-a8da-ca46165f7686"},"vehicle_type_id":"4","last_reported":1717092701,"current_range_meters":5200,"station_id":"ce4bhbh2rcd13ifvqeqg","pricing_plan_id":"cebpf4jnsgd1na2vs0mg"},{"bike_id":"255357a4-bbd7-4b53-89b6-44461dd6985d","system_id":"levelo_inurba_marseille","lat":43.292311,"lon":5.360731,"is_reserved":false,"is_disabled":false,"rental_uris":{"android":"levelo://app?vid=255357a4-bbd7-4b53-89b6-44461dd6985d","ios":"levelo://app?vid=255357a4-bbd7-4b53-89b6-44461dd6985d"},"vehicle_type_id":"4","last_reported":1717092701,"current_range_meters":0,"station_id":"ce4bhbh2rcd13ifvqeqg","pricing_plan_id":"cebpf4jnsgd1na2vs0mg"},{"bike_id":"7c9f0c4b-7cec-4ea6-a135-d3db0057ef34","system_id":"levelo_inurba_marseille","lat":43.292311,"lon":5.360731,"is_reserved":false,"is_disabled":false,"rental_uris":{"android":"levelo://app?vid=7c9f0c4b-7cec-4ea6-a135-d3db0057ef34","ios":"levelo://app?vid=7c9f0c4b-7cec-4ea6-a135-d3db0057ef34"},"vehicle_type_id":"4","last_reported":1717092701,"current_range_meters":8400,"station_id":"ce4bhbh2rcd13ifvqeqg","pricing_plan_id":"cebpf4jnsgd1na2vs0mg"},{"bike_id":"096d4bdf-4e4a-426b-a0a7-90a8662f12de","system_id":"levelo_inurba_marseille","lat":43.292311,"lon":5.360731,"is_reserved":false,"is_disabled":false,"rental_uris":{"android":"levelo://app?vid=096d4bdf-4e4a-426b-a0a7-90a8662f12de","ios":"levelo://app?vid=096d4bdf-4e4a-426b-a0a7-90a8662f12de"},"vehicle_type_id":"4","last_reported":1717092701,"current_range_meters":14800,"station_id":"ce4bhbh2rcd13ifvqeqg","pricing_plan_id":"cebpf4jnsgd1na2vs0mg"},{"bike_id":"6c3d30b4-8dbc-436f-aa66-a4c686ef6b9c","system_id":"levelo_inurba_marseille","lat":43.291671,"lon":5.371575,"is_reserved":false,"is_disabled":false,"rental_uris":{"android":"levelo://app?vid=6c3d30b4-8dbc-436f-aa66-a4c686ef6b9c","ios":"levelo://app?vid=6c3d30b4-8dbc-436f-aa66-a4c686ef6b9c"},"vehicle_type_id":"4","last_reported":1717092701,"current_range_meters":10800,"station_id":"ce4bha92rcd13ifvqeh0","pricing_plan_id":"cebpf4jnsgd1na2vs0mg"},{"bike_id":"48343a53-cb58-4b94-a778-970c62942d8f","system_id":"levelo_inurba_marseille","lat":43.291671,"lon":5.371575,"is_reserved":false,"is_disabled":false,"rental_uris":{"android":"levelo://app?vid=48343a53-cb58-4b94-a778-970c62942d8f","ios":"levelo://app?vid=48343a53-cb58-4b94-a778-970c62942d8f"},"vehicle_type_id":"4","last_reported":1717092701,"current_range_meters":30400,"station_id":"ce4bha92rcd13ifvqeh0","pricing_plan_id":"cebpf4jnsgd1na2vs0mg"},{"bike_id":"f887479e-a61c-4105-9cdf-56f67b285583","system_id":"levelo_inurba_marseille","lat":43.298764,"lon":5.388973,"is_reserved":false,"is_disabled":false,"rental_uris":{"android":"levelo://app?vid=f887479e-a61c-4105-9cdf-56f67b285583","ios":"levelo://app?vid=f887479e-a61c-4105-9cdf-56f67b285583"},"vehicle_type_id":"4","last_reported":1717092701,"current_range_meters":6800,"station_id":"ce4bh392rcd13ifvqdl0","pricing_plan_id":"cebpf4jnsgd1na2vs0mg"},{"bike_id":"9861ea65-ae72-4d13-a704-0bb5ea3da644","system_id":"levelo_inurba_marseille","lat":43.298764,"lon":5.388973,"is_reserved":false,"is_disabled":false,"rental_uris":{"android":"levelo://app?vid=9861ea65-ae72-4d13-a704-0bb5ea3da644","ios":"levelo://app?vid=9861ea65-ae72-4d13-a704-0bb5ea3da644"},"vehicle_type_id":"4","last_reported":1717092701,"current_range_meters":12000,"station_id":"ce4bh392rcd13ifvqdl0","pricing_plan_id":"cebpf4jnsgd1na2vs0mg"},{"bike_id":"fa58b911-cb16-4549-80fe-d92d78e8257d","system_id":"levelo_inurba_marseille","lat":43.291675,"lon":5.371583,"is_reserved":false,"is_disabled":false,"rental_uris":{"android":"levelo://app?vid=fa58b911-cb16-4549-80fe-d92d78e8257d","ios":"levelo://app?vid=fa58b911-cb16-4549-80fe-d92d78e8257d"},"vehicle_type_id":"4","last_reported":1717092701,"current_range_meters":6800,"station_id":"ce4bha92rcd13ifvqeh0","pricing_plan_id":"cebpf4jnsgd1na2vs0mg"},{"bike_id":"1dcdf2eb-754a-42dc-aecf-d4c3e46b0589","system_id":"levelo_inurba_marseille","lat":43.29202,"lon":5.35796,"is_reserved":false,"is_disabled":false,"rental_uris":{"android":"levelo://app?vid=1dcdf2eb-754a-42dc-aecf-d4c3e46b0589","ios":"levelo://app?vid=1dcdf2eb-754a-42dc-aecf-d4c3e46b0589"},"vehicle_type_id":"4","last_reported":1717092701,"current_range_meters":400,"station_id":"ce4bhb12rcd13ifvqel0","pricing_plan_id":"cebpf4jnsgd1na2vs0mg"},{"bike_id":"7764201c-a0ba-4269-8703-cd93a06f1e71","system_id":"levelo_inurba_marseille","lat":43.292005,"lon":5.357875,"is_reserved":false,"is_disabled":false,"rental_uris":{"android":"levelo://app?vid=7764201c-a0ba-4269-8703-cd93a06f1e71","ios":"levelo://app?vid=7764201c-a0ba-4269-8703-cd93a06f1e71"},"vehicle_type_id":"4","last_reported":1717092701,"current_range_meters":21200,"station_id":"ce4bhb12rcd13ifvqel0","pricing_plan_id":"cebpf4jnsgd1na2vs0mg"},{"bike_id":"1e55b81e-fbd4-4ca2-958e-8aa796529e6a","system_id":"levelo_inurba_marseille","lat":43.292005,"lon":5.357875,"is_reserved":false,"is_disabled":false,"rental_uris":{"android":"levelo://app?vid=1e55b81e-fbd4-4ca2-958e-8aa796529e6a","ios":"levelo://app?vid=1e55b81e-fbd4-4ca2-958e-8aa796529e6a"},"vehicle_type_id":"4","last_reported":1717092701,"current_range_meters":7600,"station_id":"ce4bhb12rcd13ifvqel0","pricing_plan_id":"cebpf4jnsgd1na2vs0mg"},{"bike_id":"f5a05980-1f0a-4e12-8461-7cbf1f737f29","system_id":"levelo_inurba_marseille","lat":43.292005,"lon":5.357875,"is_reserved":false,"is_disabled":false,"rental_uris":{"android":"levelo://app?vid=f5a05980-1f0a-4e12-8461-7cbf1f737f29","ios":"levelo://app?vid=f5a05980-1f0a-4e12-8461-7cbf1f737f29"},"vehicle_type_id":"4","last_reported":1717092701,"current_range_meters":10800,"station_id":"ce4bhb12rcd13ifvqel0","pricing_plan_id":"cebpf4jnsgd1na2vs0mg"},{"bike_id":"7bf83d86-d85a-4e18-8876-18ac6664f820","system_id":"levelo_inurba_marseille","lat":43.29195,"lon":5.35806,"is_reserved":false,"is_disabled":false,"rental_uris":{"android":"levelo://app?vid=7bf83d86-d85a-4e18-8876-18ac6664f820","ios":"levelo://app?vid=7bf83d86-d85a-4e18-8876-18ac6664f820"},"vehicle_type_id":"4","last_reported":1717092701,"current_range_meters":0,"station_id":"ce4bhb12rcd13ifvqel0","pricing_plan_id":"cebpf4jnsgd1na2vs0mg"},{"bike_id":"dd9d4f4b-c07f-4395-bb40-fcc0b2e37e8f","system_id":"levelo_inurba_marseille","lat":43.291969,"lon":5.357969,"is_reserved":false,"is_disabled":false,"rental_uris":{"android":"levelo://app?vid=dd9d4f4b-c07f-4395-bb40-fcc0b2e37e8f","ios":"levelo://app?vid=dd9d4f4b-c07f-4395-bb40-fcc0b2e37e8f"},"vehicle_type_id":"4","last_reported":1717092701,"current_range_meters":15600,"station_id":"ce4bhb12rcd13ifvqel0","pricing_plan_id":"cebpf4jnsgd1na2vs0mg"},{"bike_id":"25a7109f-569b-4ca8-ad09-518216c1e4f5","system_id":"levelo_inurba_marseille","lat":43.30887,"lon":5.39637,"is_reserved":false,"is_disabled":false,"rental_uris":{"android":"levelo://app?vid=25a7109f-569b-4ca8-ad09-518216c1e4f5","ios":"levelo://app?vid=25a7109f-569b-4ca8-ad09-518216c1e4f5"},"vehicle_type_id":"4","last_reported":1717092701,"current_range_meters":0,"station_id":"ce4bh012rcd13ifvqcv0","pricing_plan_id":"cebpf4jnsgd1na2vs0mg"},{"bike_id":"d75eed93-a735-4f41-a47d-c2d0a9b8aa51","system_id":"levelo_inurba_marseille","lat":43.291994,"lon":5.357886,"is_reserved":false,"is_disabled":false,"rental_uris":{"android":"levelo://app?vid=d75eed93-a735-4f41-a47d-c2d0a9b8aa51","ios":"levelo://app?vid=d75eed93-a735-4f41-a47d-c2d0a9b8aa51"},"vehicle_type_id":"4","last_reported":1717092701,"current_range_meters":31200,"station_id":"ce4bhb12rcd13ifvqel0","pricing_plan_id":"cebpf4jnsgd1na2vs0mg"},{"bike_id":"4401b35a-361c-433d-ba30-a18efdda7e0f","system_id":"levelo_inurba_marseille","lat":43.313291,"lon":5.396838,"is_reserved":false,"is_disabled":false,"rental_uris":{"android":"levelo://app?vid=4401b35a-361c-433d-ba30-a18efdda7e0f","ios":"levelo://app?vid=4401b35a-361c-433d-ba30-a18efdda7e0f"},"vehicle_type_id":"4","last_reported":1717092701,"current_range_meters":7200,"station_id":"ce4bgvp2rcd13ifvqcu0","pricing_plan_id":"cebpf4jnsgd1na2vs0mg"},{"bike_id":"d72ddb87-e206-4848-8cdb-0e1217f96243","system_id":"levelo_inurba_marseille","lat":43.313291,"lon":5.396838,"is_reserved":false,"is_disabled":false,"rental_uris":{"android":"levelo://app?vid=d72ddb87-e206-4848-8cdb-0e1217f96243","ios":"levelo://app?vid=d72ddb87-e206-4848-8cdb-0e1217f96243"},"vehicle_type_id":"4","last_reported":1717092701,"current_range_meters":28400,"station_id":"ce4bgvp2rcd13ifvqcu0","pricing_plan_id":"cebpf4jnsgd1na2vs0mg"},{"bike_id":"2d1ddf47-bff4-4b73-8a0e-f82989db2f8e","system_id":"levelo_inurba_marseille","lat":43.291994,"lon":5.357886,"is_reserved":false,"is_disabled":false,"rental_uris":{"android":"levelo://app?vid=2d1ddf47-bff4-4b73-8a0e-f82989db2f8e","ios":"levelo://app?vid=2d1ddf47-bff4-4b73-8a0e-f82989db2f8e"},"vehicle_type_id":"4","last_reported":1717092701,"current_range_meters":27200,"station_id":"ce4bhb12rcd13ifvqel0","pricing_plan_id":"cebpf4jnsgd1na2vs0mg"},{"bike_id":"1653695f-9909-4f0c-947d-b4262bf3db4b","system_id":"levelo_inurba_marseille","lat":43.29192,"lon":5.35801,"is_reserved":false,"is_disabled":false,"rental_uris":{"android":"levelo://app?vid=1653695f-9909-4f0c-947d-b4262bf3db4b","ios":"levelo://app?vid=1653695f-9909-4f0c-947d-b4262bf3db4b"},"vehicle_type_id":"4","last_reported":1717092701,"current_range_meters":0,"station_id":"ce4bhb12rcd13ifvqel0","pricing_plan_id":"cebpf4jnsgd1na2vs0mg"},{"bike_id":"351c52fa-a1cb-4338-b362-c4ed37cf0015","system_id":"levelo_inurba_marseille","lat":43.292005,"lon":5.357875,"is_reserved":false,"is_disabled":false,"rental_uris":{"android":"levelo://app?vid=351c52fa-a1cb-4338-b362-c4ed37cf0015","ios":"levelo://app?vid=351c52fa-a1cb-4338-b362-c4ed37cf0015"},"vehicle_type_id":"4","last_reported":1717092701,"current_range_meters":23200,"station_id":"ce4bhb12rcd13ifvqel0","pricing_plan_id":"cebpf4jnsgd1na2vs0mg"},{"bike_id":"84c6b1c8-f953-4a82-b007-feb4231854b6","system_id":"levelo_inurba_marseille","lat":43.30892,"lon":5.39646,"is_reserved":false,"is_disabled":false,"rental_uris":{"android":"levelo://app?vid=84c6b1c8-f953-4a82-b007-feb4231854b6","ios":"levelo://app?vid=84c6b1c8-f953-4a82-b007-feb4231854b6"},"vehicle_type_id":"4","last_reported":1717092701,"current_range_meters":0,"station_id":"ce4bh012rcd13ifvqcv0","pricing_plan_id":"cebpf4jnsgd1na2vs0mg"},{"bike_id":"5d23e331-ec5b-489d-ba0a-3f2b1cf5ccbf","system_id":"levelo_inurba_marseille","lat":43.309047,"lon":5.396551,"is_reserved":false,"is_disabled":false,"rental_uris":{"android":"levelo://app?vid=5d23e331-ec5b-489d-ba0a-3f2b1cf5ccbf","ios":"levelo://app?vid=5d23e331-ec5b-489d-ba0a-3f2b1cf5ccbf"},"vehicle_type_id":"4","last_reported":1717092701,"current_range_meters":2400,"station_id":"ce4bh012rcd13ifvqcv0","pricing_plan_id":"cebpf4jnsgd1na2vs0mg"},{"bike_id":"42e4630b-423f-4c0d-80dd-b2df3c27acee","system_id":"levelo_inurba_marseille","lat":43.29192,"lon":5.35789,"is_reserved":false,"is_disabled":false,"rental_uris":{"android":"levelo://app?vid=42e4630b-423f-4c0d-80dd-b2df3c27acee","ios":"levelo://app?vid=42e4630b-423f-4c0d-80dd-b2df3c27acee"},"vehicle_type_id":"4","last_reported":1717092701,"current_range_meters":0,"station_id":"ce4bhb12rcd13ifvqel0","pricing_plan_id":"cebpf4jnsgd1na2vs0mg"},{"bike_id":"4d3c82a3-c6c6-4d5c-a61a-301f82f9bcdc","system_id":"levelo_inurba_marseille","lat":43.313291,"lon":5.396838,"is_reserved":false,"is_disabled":false,"rental_uris":{"android":"levelo://app?vid=4d3c82a3-c6c6-4d5c-a61a-301f82f9bcdc","ios":"levelo://app?vid=4d3c82a3-c6c6-4d5c-a61a-301f82f9bcdc"},"vehicle_type_id":"4","last_reported":1717092701,"current_range_meters":27200,"station_id":"ce4bgvp2rcd13ifvqcu0","pricing_plan_id":"cebpf4jnsgd1na2vs0mg"},{"bike_id":"f88fee60-6745-4e6d-ab6d-3fedb5f8f586","system_id":"levelo_inurba_marseille","lat":43.309047,"lon":5.396551,"is_reserved":false,"is_disabled":false,"rental_uris":{"android":"levelo://app?vid=f88fee60-6745-4e6d-ab6d-3fedb5f8f586","ios":"levelo://app?vid=f88fee60-6745-4e6d-ab6d-3fedb5f8f586"},"vehicle_type_id":"4","last_reported":1717092701,"current_range_meters":12000,"station_id":"ce4bh012rcd13ifvqcv0","pricing_plan_id":"cebpf4jnsgd1na2vs0mg"},{"bike_id":"c78b0cdf-a60c-4a0d-ae3b-3cc4467162e6","system_id":"levelo_inurba_marseille","lat":43.309038,"lon":5.396546,"is_reserved":false,"is_disabled":false,"rental_uris":{"android":"levelo://app?vid=c78b0cdf-a60c-4a0d-ae3b-3cc4467162e6","ios":"levelo://app?vid=c78b0cdf-a60c-4a0d-ae3b-3cc4467162e6"},"vehicle_type_id":"4","last_reported":1717092701,"current_range_meters":6400,"station_id":"ce4bh012rcd13ifvqcv0","pricing_plan_id":"cebpf4jnsgd1na2vs0mg"},{"bike_id":"c0c81384-d51c-4179-94b7-421862e1ed7f","system_id":"levelo_inurba_marseille","lat":43.309047,"lon":5.396551,"is_reserved":false,"is_disabled":false,"rental_uris":{"android":"levelo://app?vid=c0c81384-d51c-4179-94b7-421862e1ed7f","ios":"levelo://app?vid=c0c81384-d51c-4179-94b7-421862e1ed7f"},"vehicle_type_id":"4","last_reported":1717092701,"current_range_meters":21600,"station_id":"ce4bh012rcd13ifvqcv0","pricing_plan_id":"cebpf4jnsgd1na2vs0mg"},{"bike_id":"1f52074e-bfde-4ec8-9816-4c1d7066b501","system_id":"levelo_inurba_marseille","lat":43.29186,"lon":5.35796,"is_reserved":false,"is_disabled":false,"rental_uris":{"android":"levelo://app?vid=1f52074e-bfde-4ec8-9816-4c1d7066b501","ios":"levelo://app?vid=1f52074e-bfde-4ec8-9816-4c1d7066b501"},"vehicle_type_id":"4","last_reported":1717092701,"current_range_meters":21600,"station_id":"ce4bhb12rcd13ifvqel0","pricing_plan_id":"cebpf4jnsgd1na2vs0mg"},{"bike_id":"a4e42ed3-bc9a-44bb-a0bf-1ad49c6c9d6c","system_id":"levelo_inurba_marseille","lat":43.309038,"lon":5.396546,"is_reserved":false,"is_disabled":false,"rental_uris":{"android":"levelo://app?vid=a4e42ed3-bc9a-44bb-a0bf-1ad49c6c9d6c","ios":"levelo://app?vid=a4e42ed3-bc9a-44bb-a0bf-1ad49c6c9d6c"},"vehicle_type_id":"4","last_reported":1717092701,"current_range_meters":400,"station_id":"ce4bh012rcd13ifvqcv0","pricing_plan_id":"cebpf4jnsgd1na2vs0mg"},{"bike_id":"07ec42ae-ce93-400e-9331-59862d69b414","system_id":"levelo_inurba_marseille","lat":43.309047,"lon":5.396551,"is_reserved":false,"is_disabled":false,"rental_uris":{"android":"levelo://app?vid=07ec42ae-ce93-400e-9331-59862d69b414","ios":"levelo://app?vid=07ec42ae-ce93-400e-9331-59862d69b414"},"vehicle_type_id":"4","last_reported":1717092701,"current_range_meters":16000,"station_id":"ce4bh012rcd13ifvqcv0","pricing_plan_id":"cebpf4jnsgd1na2vs0mg"},{"bike_id":"e1ff80c8-8cc3-48ce-b848-e45c476d7a74","system_id":"levelo_inurba_marseille","lat":43.291994,"lon":5.357886,"is_reserved":false,"is_disabled":false,"rental_uris":{"android":"levelo://app?vid=e1ff80c8-8cc3-48ce-b848-e45c476d7a74","ios":"levelo://app?vid=e1ff80c8-8cc3-48ce-b848-e45c476d7a74"},"vehicle_type_id":"4","last_reported":1717092701,"current_range_meters":23200,"station_id":"ce4bhb12rcd13ifvqel0","pricing_plan_id":"cebpf4jnsgd1na2vs0mg"},{"bike_id":"f7469beb-0e95-4627-9b88-470ec966c8f2","system_id":"levelo_inurba_marseille","lat":43.309038,"lon":5.396546,"is_reserved":false,"is_disabled":false,"rental_uris":{"android":"levelo://app?vid=f7469beb-0e95-4627-9b88-470ec966c8f2","ios":"levelo://app?vid=f7469beb-0e95-4627-9b88-470ec966c8f2"},"vehicle_type_id":"4","last_reported":1717092701,"current_range_meters":4000,"station_id":"ce4bh012rcd13ifvqcv0","pricing_plan_id":"cebpf4jnsgd1na2vs0mg"},{"bike_id":"55f02f20-0413-4855-9f07-5c858d9edf7a","system_id":"levelo_inurba_marseille","lat":43.29529,"lon":5.385581,"is_reserved":false,"is_disabled":false,"rental_uris":{"android":"levelo://app?vid=55f02f20-0413-4855-9f07-5c858d9edf7a","ios":"levelo://app?vid=55f02f20-0413-4855-9f07-5c858d9edf7a"},"vehicle_type_id":"4","last_reported":1717092701,"current_range_meters":31600,"station_id":"ce4bgih2rcd13ifvqba0","pricing_plan_id":"cebpf4jnsgd1na2vs0mg"},{"bike_id":"32b4d7ac-aad3-48d0-ab84-92254947b098","system_id":"levelo_inurba_marseille","lat":43.29529,"lon":5.385581,"is_reserved":false,"is_disabled":false,"rental_uris":{"android":"levelo://app?vid=32b4d7ac-aad3-48d0-ab84-92254947b098","ios":"levelo://app?vid=32b4d7ac-aad3-48d0-ab84-92254947b098"},"vehicle_type_id":"4","last_reported":1717092701,"current_range_meters":16800,"station_id":"ce4bgih2rcd13ifvqba0","pricing_plan_id":"cebpf4jnsgd1na2vs0mg"},{"bike_id":"014927d6-2dbd-4307-b114-bfc2d144b12a","system_id":"levelo_inurba_marseille","lat":43.29529,"lon":5.385581,"is_reserved":false,"is_disabled":false,"rental_uris":{"android":"levelo://app?vid=014927d6-2dbd-4307-b114-bfc2d144b12a","ios":"levelo://app?vid=014927d6-2dbd-4307-b114-bfc2d144b12a"},"vehicle_type_id":"4","last_reported":1717092701,"current_range_meters":16400,"station_id":"ce4bgih2rcd13ifvqba0","pricing_plan_id":"cebpf4jnsgd1na2vs0mg"},{"bike_id":"15748820-3303-41a1-8eea-01552231329d","system_id":"levelo_inurba_marseille","lat":43.29534,"lon":5.38543,"is_reserved":false,"is_disabled":false,"rental_uris":{"android":"levelo://app?vid=15748820-3303-41a1-8eea-01552231329d","ios":"levelo://app?vid=15748820-3303-41a1-8eea-01552231329d"},"vehicle_type_id":"4","last_reported":1717092701,"current_range_meters":6800,"station_id":"ce4bgih2rcd13ifvqba0","pricing_plan_id":"cebpf4jnsgd1na2vs0mg"},{"bike_id":"9ce21992-7c46-45cb-b4de-dccc6d0426f0","system_id":"levelo_inurba_marseille","lat":43.29529,"lon":5.385581,"is_reserved":false,"is_disabled":false,"rental_uris":{"android":"levelo://app?vid=9ce21992-7c46-45cb-b4de-dccc6d0426f0","ios":"levelo://app?vid=9ce21992-7c46-45cb-b4de-dccc6d0426f0"},"vehicle_type_id":"4","last_reported":1717092701,"current_range_meters":20800,"station_id":"ce4bgih2rcd13ifvqba0","pricing_plan_id":"cebpf4jnsgd1na2vs0mg"},{"bike_id":"60d091e7-56ec-44e3-98de-0549ed788502","system_id":"levelo_inurba_marseille","lat":43.29529,"lon":5.385581,"is_reserved":false,"is_disabled":false,"rental_uris":{"android":"levelo://app?vid=60d091e7-56ec-44e3-98de-0549ed788502","ios":"levelo://app?vid=60d091e7-56ec-44e3-98de-0549ed788502"},"vehicle_type_id":"4","last_reported":1717092701,"current_range_meters":5600,"station_id":"ce4bgih2rcd13ifvqba0","pricing_plan_id":"cebpf4jnsgd1na2vs0mg"},{"bike_id":"50573689-137c-425c-bf86-0c841a032a3b","system_id":"levelo_inurba_marseille","lat":43.29525,"lon":5.38548,"is_reserved":false,"is_disabled":false,"rental_uris":{"android":"levelo://app?vid=50573689-137c-425c-bf86-0c841a032a3b","ios":"levelo://app?vid=50573689-137c-425c-bf86-0c841a032a3b"},"vehicle_type_id":"4","last_reported":1717092701,"current_range_meters":2400,"station_id":"ce4bgih2rcd13ifvqba0","pricing_plan_id":"cebpf4jnsgd1na2vs0mg"},{"bike_id":"e4c9415f-8cb5-4d1a-9443-7e90b2ff380b","system_id":"levelo_inurba_marseille","lat":43.290779,"lon":5.371482,"is_reserved":false,"is_disabled":false,"rental_uris":{"android":"levelo://app?vid=e4c9415f-8cb5-4d1a-9443-7e90b2ff380b","ios":"levelo://app?vid=e4c9415f-8cb5-4d1a-9443-7e90b2ff380b"},"vehicle_type_id":"4","last_reported":1717092701,"current_range_meters":400,"station_id":"ce4bh5p2rcd13ifvqe4g","pricing_plan_id":"cebpf4jnsgd1na2vs0mg"},{"bike_id":"e1cc65cb-3df3-44ad-aac4-3da4e61569b0","system_id":"levelo_inurba_marseille","lat":43.29529,"lon":5.385581,"is_reserved":false,"is_disabled":false,"rental_uris":{"android":"levelo://app?vid=e1cc65cb-3df3-44ad-aac4-3da4e61569b0","ios":"levelo://app?vid=e1cc65cb-3df3-44ad-aac4-3da4e61569b0"},"vehicle_type_id":"4","last_reported":1717092701,"current_range_meters":14800,"station_id":"ce4bgih2rcd13ifvqba0","pricing_plan_id":"cebpf4jnsgd1na2vs0mg"},{"bike_id":"20db6f03-af2e-42d6-8eab-847d6e75897f","system_id":"levelo_inurba_marseille","lat":43.302008,"lon":5.394694,"is_reserved":false,"is_disabled":false,"rental_uris":{"android":"levelo://app?vid=20db6f03-af2e-42d6-8eab-847d6e75897f","ios":"levelo://app?vid=20db6f03-af2e-42d6-8eab-847d6e75897f"},"vehicle_type_id":"4","last_reported":1717092701,"current_range_meters":26400,"station_id":"ce4bh0p2rcd13ifvqd70","pricing_plan_id":"cebpf4jnsgd1na2vs0mg"},{"bike_id":"40e157cc-7d8f-490a-a114-3a4be4419f72","system_id":"levelo_inurba_marseille","lat":43.29435,"lon":5.38589,"is_reserved":false,"is_disabled":false,"rental_uris":{"android":"levelo://app?vid=40e157cc-7d8f-490a-a114-3a4be4419f72","ios":"levelo://app?vid=40e157cc-7d8f-490a-a114-3a4be4419f72"},"vehicle_type_id":"4","last_reported":1717092701,"current_range_meters":0,"station_id":"ce4bh2h2rcd13ifvqdh0","pricing_plan_id":"cebpf4jnsgd1na2vs0mg"},{"bike_id":"d9800933-9a9d-4324-830c-09f355b0256f","system_id":"levelo_inurba_marseille","lat":43.290631,"lon":5.359244,"is_reserved":false,"is_disabled":false,"rental_uris":{"android":"levelo://app?vid=d9800933-9a9d-4324-830c-09f355b0256f","ios":"levelo://app?vid=d9800933-9a9d-4324-830c-09f355b0256f"},"vehicle_type_id":"4","last_reported":1717092701,"current_range_meters":2000,"station_id":"ce4bha92rcd13ifvqeg0","pricing_plan_id":"cebpf4jnsgd1na2vs0mg"},{"bike_id":"ce7ea761-e71c-4aa4-88df-a9859adf3381","system_id":"levelo_inurba_marseille","lat":43.290624,"lon":5.359245,"is_reserved":false,"is_disabled":false,"rental_uris":{"android":"levelo://app?vid=ce7ea761-e71c-4aa4-88df-a9859adf3381","ios":"levelo://app?vid=ce7ea761-e71c-4aa4-88df-a9859adf3381"},"vehicle_type_id":"4","last_reported":1717092701,"current_range_meters":6000,"station_id":"ce4bha92rcd13ifvqeg0","pricing_plan_id":"cebpf4jnsgd1na2vs0mg"},{"bike_id":"0be42331-a8e0-4513-b6f5-4e3429946a8d","system_id":"levelo_inurba_marseille","lat":43.290624,"lon":5.359245,"is_reserved":false,"is_disabled":false,"rental_uris":{"android":"levelo://app?vid=0be42331-a8e0-4513-b6f5-4e3429946a8d","ios":"levelo://app?vid=0be42331-a8e0-4513-b6f5-4e3429946a8d"},"vehicle_type_id":"4","last_reported":1717092701,"current_range_meters":0,"station_id":"ce4bha92rcd13ifvqeg0","pricing_plan_id":"cebpf4jnsgd1na2vs0mg"},{"bike_id":"cf2faf56-4c55-4374-ad4f-59933822201d","system_id":"levelo_inurba_marseille","lat":43.294162,"lon":5.386292,"is_reserved":false,"is_disabled":false,"rental_uris":{"android":"levelo://app?vid=cf2faf56-4c55-4374-ad4f-59933822201d","ios":"levelo://app?vid=cf2faf56-4c55-4374-ad4f-59933822201d"},"vehicle_type_id":"4","last_reported":1717092701,"current_range_meters":24400,"station_id":"ce4bh2h2rcd13ifvqdh0","pricing_plan_id":"cebpf4jnsgd1na2vs0mg"},{"bike_id":"a98079f6-82ce-4aef-a9ab-f939984ba670","system_id":"levelo_inurba_marseille","lat":43.2942,"lon":5.38624,"is_reserved":false,"is_disabled":false,"rental_uris":{"android":"levelo://app?vid=a98079f6-82ce-4aef-a9ab-f939984ba670","ios":"levelo://app?vid=a98079f6-82ce-4aef-a9ab-f939984ba670"},"vehicle_type_id":"4","last_reported":1717092701,"current_range_meters":0,"station_id":"ce4bh2h2rcd13ifvqdh0","pricing_plan_id":"cebpf4jnsgd1na2vs0mg"},{"bike_id":"53d5acc8-039f-46bf-bfca-b9c4d3d8c0fc","system_id":"levelo_inurba_marseille","lat":43.2942,"lon":5.38628,"is_reserved":false,"is_disabled":false,"rental_uris":{"android":"levelo://app?vid=53d5acc8-039f-46bf-bfca-b9c4d3d8c0fc","ios":"levelo://app?vid=53d5acc8-039f-46bf-bfca-b9c4d3d8c0fc"},"vehicle_type_id":"4","last_reported":1717092701,"current_range_meters":20400,"station_id":"ce4bh2h2rcd13ifvqdh0","pricing_plan_id":"cebpf4jnsgd1na2vs0mg"},{"bike_id":"2f46aa7c-6812-4c06-8fc3-e2c5b643581e","system_id":"levelo_inurba_marseille","lat":43.2942,"lon":5.38628,"is_reserved":false,"is_disabled":false,"rental_uris":{"android":"levelo://app?vid=2f46aa7c-6812-4c06-8fc3-e2c5b643581e","ios":"levelo://app?vid=2f46aa7c-6812-4c06-8fc3-e2c5b643581e"},"vehicle_type_id":"4","last_reported":1717092701,"current_range_meters":0,"station_id":"ce4bh2h2rcd13ifvqdh0","pricing_plan_id":"cebpf4jnsgd1na2vs0mg"},{"bike_id":"a553a964-976a-4d52-bfe3-be7cd4f978cd","system_id":"levelo_inurba_marseille","lat":43.289184,"lon":5.366408,"is_reserved":false,"is_disabled":false,"rental_uris":{"android":"levelo://app?vid=a553a964-976a-4d52-bfe3-be7cd4f978cd","ios":"levelo://app?vid=a553a964-976a-4d52-bfe3-be7cd4f978cd"},"vehicle_type_id":"4","last_reported":1717092701,"current_range_meters":0,"station_id":"ce4bhap2rcd13ifvqek0","pricing_plan_id":"cebpf4jnsgd1na2vs0mg"},{"bike_id":"60ea80ab-f57e-4674-a1a4-4ed1d5fc24a3","system_id":"levelo_inurba_marseille","lat":43.2942,"lon":5.38629,"is_reserved":false,"is_disabled":false,"rental_uris":{"android":"levelo://app?vid=60ea80ab-f57e-4674-a1a4-4ed1d5fc24a3","ios":"levelo://app?vid=60ea80ab-f57e-4674-a1a4-4ed1d5fc24a3"},"vehicle_type_id":"4","last_reported":1717092701,"current_range_meters":0,"station_id":"ce4bh2h2rcd13ifvqdh0","pricing_plan_id":"cebpf4jnsgd1na2vs0mg"},{"bike_id":"fa6b1060-6858-4473-af65-9c216b2fa123","system_id":"levelo_inurba_marseille","lat":43.29417,"lon":5.38624,"is_reserved":false,"is_disabled":false,"rental_uris":{"android":"levelo://app?vid=fa6b1060-6858-4473-af65-9c216b2fa123","ios":"levelo://app?vid=fa6b1060-6858-4473-af65-9c216b2fa123"},"vehicle_type_id":"4","last_reported":1717092701,"current_range_meters":0,"station_id":"ce4bh2h2rcd13ifvqdh0","pricing_plan_id":"cebpf4jnsgd1na2vs0mg"},{"bike_id":"12162a06-d4d5-4711-8135-84fe03190e50","system_id":"levelo_inurba_marseille","lat":43.289468,"lon":5.363719,"is_reserved":false,"is_disabled":false,"rental_uris":{"android":"levelo://app?vid=12162a06-d4d5-4711-8135-84fe03190e50","ios":"levelo://app?vid=12162a06-d4d5-4711-8135-84fe03190e50"},"vehicle_type_id":"4","last_reported":1717092701,"current_range_meters":4800,"station_id":"ce4bhc92rcd13ifvqetg","pricing_plan_id":"cebpf4jnsgd1na2vs0mg"},{"bike_id":"87d0fa51-447c-4622-b265-d375787bb05a","system_id":"levelo_inurba_marseille","lat":43.29414,"lon":5.38624,"is_reserved":false,"is_disabled":false,"rental_uris":{"android":"levelo://app?vid=87d0fa51-447c-4622-b265-d375787bb05a","ios":"levelo://app?vid=87d0fa51-447c-4622-b265-d375787bb05a"},"vehicle_type_id":"4","last_reported":1717092701,"current_range_meters":28400,"station_id":"ce4bh2h2rcd13ifvqdh0","pricing_plan_id":"cebpf4jnsgd1na2vs0mg"},{"bike_id":"90e6b02d-e4ad-4f8f-99a4-517925548e00","system_id":"levelo_inurba_marseille","lat":43.29413,"lon":5.38623,"is_reserved":false,"is_disabled":false,"rental_uris":{"android":"levelo://app?vid=90e6b02d-e4ad-4f8f-99a4-517925548e00","ios":"levelo://app?vid=90e6b02d-e4ad-4f8f-99a4-517925548e00"},"vehicle_type_id":"4","last_reported":1717092701,"current_range_meters":0,"station_id":"ce4bh2h2rcd13ifvqdh0","pricing_plan_id":"cebpf4jnsgd1na2vs0mg"},{"bike_id":"96af927c-40bc-49b1-982f-584d22c53c1e","system_id":"levelo_inurba_marseille","lat":43.29416,"lon":5.38633,"is_reserved":false,"is_disabled":false,"rental_uris":{"android":"levelo://app?vid=96af927c-40bc-49b1-982f-584d22c53c1e","ios":"levelo://app?vid=96af927c-40bc-49b1-982f-584d22c53c1e"},"vehicle_type_id":"4","last_reported":1717092701,"current_range_meters":4000,"station_id":"ce4bh2h2rcd13ifvqdh0","pricing_plan_id":"cebpf4jnsgd1na2vs0mg"},{"bike_id":"ee8495fe-3d28-425a-9cab-3a37dd18fd52","system_id":"levelo_inurba_marseille","lat":43.289184,"lon":5.366408,"is_reserved":false,"is_disabled":false,"rental_uris":{"android":"levelo://app?vid=ee8495fe-3d28-425a-9cab-3a37dd18fd52","ios":"levelo://app?vid=ee8495fe-3d28-425a-9cab-3a37dd18fd52"},"vehicle_type_id":"4","last_reported":1717092701,"current_range_meters":17600,"station_id":"ce4bhap2rcd13ifvqek0","pricing_plan_id":"cebpf4jnsgd1na2vs0mg"},{"bike_id":"b9555a0e-23f6-4745-8198-3aeebd8b4e9a","system_id":"levelo_inurba_marseille","lat":43.294116,"lon":5.386295,"is_reserved":false,"is_disabled":false,"rental_uris":{"android":"levelo://app?vid=b9555a0e-23f6-4745-8198-3aeebd8b4e9a","ios":"levelo://app?vid=b9555a0e-23f6-4745-8198-3aeebd8b4e9a"},"vehicle_type_id":"4","last_reported":1717092701,"current_range_meters":4800,"station_id":"ce4bgj92rcd13ifvqbd0","pricing_plan_id":"cebpf4jnsgd1na2vs0mg"},{"bike_id":"aa9ce5a9-cbce-4d56-8a7a-6744249557f1","system_id":"levelo_inurba_marseille","lat":43.289468,"lon":5.363719,"is_reserved":false,"is_disabled":false,"rental_uris":{"android":"levelo://app?vid=aa9ce5a9-cbce-4d56-8a7a-6744249557f1","ios":"levelo://app?vid=aa9ce5a9-cbce-4d56-8a7a-6744249557f1"},"vehicle_type_id":"4","last_reported":1717092701,"current_range_meters":12000,"station_id":"ce4bhc92rcd13ifvqetg","pricing_plan_id":"cebpf4jnsgd1na2vs0mg"},{"bike_id":"05e97fef-dc18-45f1-b172-7c922650b3ab","system_id":"levelo_inurba_marseille","lat":43.289184,"lon":5.366408,"is_reserved":false,"is_disabled":false,"rental_uris":{"android":"levelo://app?vid=05e97fef-dc18-45f1-b172-7c922650b3ab","ios":"levelo://app?vid=05e97fef-dc18-45f1-b172-7c922650b3ab"},"vehicle_type_id":"4","last_reported":1717092701,"current_range_meters":0,"station_id":"ce4bhap2rcd13ifvqek0","pricing_plan_id":"cebpf4jnsgd1na2vs0mg"},{"bike_id":"48e98fad-dd2d-4649-8972-abad5c0ad965","system_id":"levelo_inurba_marseille","lat":43.283998,"lon":5.375062,"is_reserved":false,"is_disabled":false,"rental_uris":{"android":"levelo://app?vid=48e98fad-dd2d-4649-8972-abad5c0ad965","ios":"levelo://app?vid=48e98fad-dd2d-4649-8972-abad5c0ad965"},"vehicle_type_id":"4","last_reported":1717092701,"current_range_meters":0,"station_id":"ce4bh412rcd13ifvqds0","pricing_plan_id":"cebpf4jnsgd1na2vs0mg"},{"bike_id":"2d4d2d49-f02d-43df-80ce-ff35f9378e73","system_id":"levelo_inurba_marseille","lat":43.289468,"lon":5.363719,"is_reserved":false,"is_disabled":false,"rental_uris":{"android":"levelo://app?vid=2d4d2d49-f02d-43df-80ce-ff35f9378e73","ios":"levelo://app?vid=2d4d2d49-f02d-43df-80ce-ff35f9378e73"},"vehicle_type_id":"4","last_reported":1717092701,"current_range_meters":10800,"station_id":"ce4bhc92rcd13ifvqetg","pricing_plan_id":"cebpf4jnsgd1na2vs0mg"},{"bike_id":"6f8f3c5a-63b0-42ba-b874-0906b71d11eb","system_id":"levelo_inurba_marseille","lat":43.289468,"lon":5.363719,"is_reserved":false,"is_disabled":false,"rental_uris":{"android":"levelo://app?vid=6f8f3c5a-63b0-42ba-b874-0906b71d11eb","ios":"levelo://app?vid=6f8f3c5a-63b0-42ba-b874-0906b71d11eb"},"vehicle_type_id":"4","last_reported":1717092701,"current_range_meters":2400,"station_id":"ce4bhc92rcd13ifvqetg","pricing_plan_id":"cebpf4jnsgd1na2vs0mg"},{"bike_id":"dd366c6e-5633-4260-a2eb-6e10ad8a45aa","system_id":"levelo_inurba_marseille","lat":43.29356,"lon":5.3854,"is_reserved":false,"is_disabled":false,"rental_uris":{"android":"levelo://app?vid=dd366c6e-5633-4260-a2eb-6e10ad8a45aa","ios":"levelo://app?vid=dd366c6e-5633-4260-a2eb-6e10ad8a45aa"},"vehicle_type_id":"4","last_reported":1717092701,"current_range_meters":3600,"station_id":"","pricing_plan_id":"cebpf4jnsgd1na2vs0mg"},{"bike_id":"aed0393a-edd7-46a9-8f95-10cb6da765e0","system_id":"levelo_inurba_marseille","lat":43.290631,"lon":5.359244,"is_reserved":false,"is_disabled":false,"rental_uris":{"android":"levelo://app?vid=aed0393a-edd7-46a9-8f95-10cb6da765e0","ios":"levelo://app?vid=aed0393a-edd7-46a9-8f95-10cb6da765e0"},"vehicle_type_id":"4","last_reported":1717092701,"current_range_meters":0,"station_id":"ce4bha92rcd13ifvqeg0","pricing_plan_id":"cebpf4jnsgd1na2vs0mg"},{"bike_id":"e9ee54c4-7781-4f12-a95a-a705a13c1d95","system_id":"levelo_inurba_marseille","lat":43.289468,"lon":5.363719,"is_reserved":false,"is_disabled":false,"rental_uris":{"android":"levelo://app?vid=e9ee54c4-7781-4f12-a95a-a705a13c1d95","ios":"levelo://app?vid=e9ee54c4-7781-4f12-a95a-a705a13c1d95"},"vehicle_type_id":"4","last_reported":1717092701,"current_range_meters":22000,"station_id":"ce4bhc92rcd13ifvqetg","pricing_plan_id":"cebpf4jnsgd1na2vs0mg"},{"bike_id":"ce77f69f-ef5f-4490-9fa2-293dfb6a57ee","system_id":"levelo_inurba_marseille","lat":43.289468,"lon":5.363719,"is_reserved":false,"is_disabled":false,"rental_uris":{"android":"levelo://app?vid=ce77f69f-ef5f-4490-9fa2-293dfb6a57ee","ios":"levelo://app?vid=ce77f69f-ef5f-4490-9fa2-293dfb6a57ee"},"vehicle_type_id":"4","last_reported":1717092701,"current_range_meters":9600,"station_id":"ce4bhc92rcd13ifvqetg","pricing_plan_id":"cebpf4jnsgd1na2vs0mg"},{"bike_id":"cc24a8ee-7036-490d-9527-588a1f00ee49","system_id":"levelo_inurba_marseille","lat":43.289184,"lon":5.366408,"is_reserved":false,"is_disabled":false,"rental_uris":{"android":"levelo://app?vid=cc24a8ee-7036-490d-9527-588a1f00ee49","ios":"levelo://app?vid=cc24a8ee-7036-490d-9527-588a1f00ee49"},"vehicle_type_id":"4","last_reported":1717092701,"current_range_meters":5200,"station_id":"ce4bhap2rcd13ifvqek0","pricing_plan_id":"cebpf4jnsgd1na2vs0mg"},{"bike_id":"4740cf7e-ab59-4fd6-af84-736856915b65","system_id":"levelo_inurba_marseille","lat":43.292644,"lon":5.384257,"is_reserved":false,"is_disabled":false,"rental_uris":{"android":"levelo://app?vid=4740cf7e-ab59-4fd6-af84-736856915b65","ios":"levelo://app?vid=4740cf7e-ab59-4fd6-af84-736856915b65"},"vehicle_type_id":"4","last_reported":1717092701,"current_range_meters":23200,"station_id":"ce4bh692rcd13ifvqea0","pricing_plan_id":"cebpf4jnsgd1na2vs0mg"},{"bike_id":"a2b3c95e-f390-4ff5-8d77-082f84ad238a","system_id":"levelo_inurba_marseille","lat":43.2927,"lon":5.3843,"is_reserved":false,"is_disabled":false,"rental_uris":{"android":"levelo://app?vid=a2b3c95e-f390-4ff5-8d77-082f84ad238a","ios":"levelo://app?vid=a2b3c95e-f390-4ff5-8d77-082f84ad238a"},"vehicle_type_id":"4","last_reported":1717092701,"current_range_meters":0,"station_id":"ce4bh692rcd13ifvqea0","pricing_plan_id":"cebpf4jnsgd1na2vs0mg"},{"bike_id":"1f4bb991-9ff5-4fc8-8473-b6ede6dc3a97","system_id":"levelo_inurba_marseille","lat":43.29269,"lon":5.38429,"is_reserved":false,"is_disabled":false,"rental_uris":{"android":"levelo://app?vid=1f4bb991-9ff5-4fc8-8473-b6ede6dc3a97","ios":"levelo://app?vid=1f4bb991-9ff5-4fc8-8473-b6ede6dc3a97"},"vehicle_type_id":"4","last_reported":1717092701,"current_range_meters":0,"station_id":"ce4bh692rcd13ifvqea0","pricing_plan_id":"cebpf4jnsgd1na2vs0mg"},{"bike_id":"0c1745c1-a748-47ab-99fe-5320c4866599","system_id":"levelo_inurba_marseille","lat":43.29269,"lon":5.38433,"is_reserved":false,"is_disabled":false,"rental_uris":{"android":"levelo://app?vid=0c1745c1-a748-47ab-99fe-5320c4866599","ios":"levelo://app?vid=0c1745c1-a748-47ab-99fe-5320c4866599"},"vehicle_type_id":"4","last_reported":1717092701,"current_range_meters":0,"station_id":"ce4bh692rcd13ifvqea0","pricing_plan_id":"cebpf4jnsgd1na2vs0mg"},{"bike_id":"d71744fc-6bc1-4321-8d77-6b83af433a5e","system_id":"levelo_inurba_marseille","lat":43.298681,"lon":5.397225,"is_reserved":false,"is_disabled":false,"rental_uris":{"android":"levelo://app?vid=d71744fc-6bc1-4321-8d77-6b83af433a5e","ios":"levelo://app?vid=d71744fc-6bc1-4321-8d77-6b83af433a5e"},"vehicle_type_id":"4","last_reported":1717092701,"current_range_meters":4400,"station_id":"ce4bh0h2rcd13ifvqd50","pricing_plan_id":"cebpf4jnsgd1na2vs0mg"},{"bike_id":"bc5e1540-590e-4b4b-83e0-29e8ccc26866","system_id":"levelo_inurba_marseille","lat":43.304318,"lon":5.397438,"is_reserved":false,"is_disabled":false,"rental_uris":{"android":"levelo://app?vid=bc5e1540-590e-4b4b-83e0-29e8ccc26866","ios":"levelo://app?vid=bc5e1540-590e-4b4b-83e0-29e8ccc26866"},"vehicle_type_id":"4","last_reported":1717092701,"current_range_meters":6000,"station_id":"ce4bh092rcd13ifvqd20","pricing_plan_id":"cebpf4jnsgd1na2vs0mg"},{"bike_id":"5cd83ca8-776d-4c73-acf0-468b19b1014c","system_id":"levelo_inurba_marseille","lat":43.29264,"lon":5.38433,"is_reserved":false,"is_disabled":false,"rental_uris":{"android":"levelo://app?vid=5cd83ca8-776d-4c73-acf0-468b19b1014c","ios":"levelo://app?vid=5cd83ca8-776d-4c73-acf0-468b19b1014c"},"vehicle_type_id":"4","last_reported":1717092701,"current_range_meters":800,"station_id":"ce4bh692rcd13ifvqea0","pricing_plan_id":"cebpf4jnsgd1na2vs0mg"},{"bike_id":"1f604453-c755-4be9-8c7c-f3ecf76f18c8","system_id":"levelo_inurba_marseille","lat":43.29265,"lon":5.38436,"is_reserved":false,"is_disabled":false,"rental_uris":{"android":"levelo://app?vid=1f604453-c755-4be9-8c7c-f3ecf76f18c8","ios":"levelo://app?vid=1f604453-c755-4be9-8c7c-f3ecf76f18c8"},"vehicle_type_id":"4","last_reported":1717092701,"current_range_meters":23200,"station_id":"ce4bh692rcd13ifvqea0","pricing_plan_id":"cebpf4jnsgd1na2vs0mg"},{"bike_id":"d22d0b6f-5cad-4556-9447-9cd08cb318a1","system_id":"levelo_inurba_marseille","lat":43.304274,"lon":5.397513,"is_reserved":false,"is_disabled":false,"rental_uris":{"android":"levelo://app?vid=d22d0b6f-5cad-4556-9447-9cd08cb318a1","ios":"levelo://app?vid=d22d0b6f-5cad-4556-9447-9cd08cb318a1"},"vehicle_type_id":"4","last_reported":1717092701,"current_range_meters":16400,"station_id":"ce4bh092rcd13ifvqd20","pricing_plan_id":"cebpf4jnsgd1na2vs0mg"},{"bike_id":"958829cc-12c8-42dd-9fad-09d86204109d","system_id":"levelo_inurba_marseille","lat":43.29262,"lon":5.38432,"is_reserved":false,"is_disabled":false,"rental_uris":{"android":"levelo://app?vid=958829cc-12c8-42dd-9fad-09d86204109d","ios":"levelo://app?vid=958829cc-12c8-42dd-9fad-09d86204109d"},"vehicle_type_id":"4","last_reported":1717092701,"current_range_meters":400,"station_id":"ce4bh692rcd13ifvqea0","pricing_plan_id":"cebpf4jnsgd1na2vs0mg"},{"bike_id":"bc7b7503-71c9-45b3-b38c-9345b3edf4fe","system_id":"levelo_inurba_marseille","lat":43.292659,"lon":5.384418,"is_reserved":false,"is_disabled":false,"rental_uris":{"android":"levelo://app?vid=bc7b7503-71c9-45b3-b38c-9345b3edf4fe","ios":"levelo://app?vid=bc7b7503-71c9-45b3-b38c-9345b3edf4fe"},"vehicle_type_id":"4","last_reported":1717092701,"current_range_meters":20000,"station_id":"ce4bh692rcd13ifvqea0","pricing_plan_id":"cebpf4jnsgd1na2vs0mg"},{"bike_id":"176153aa-1917-4f57-9a28-8faa6ec08f35","system_id":"levelo_inurba_marseille","lat":43.304296,"lon":5.397513,"is_reserved":false,"is_disabled":false,"rental_uris":{"android":"levelo://app?vid=176153aa-1917-4f57-9a28-8faa6ec08f35","ios":"levelo://app?vid=176153aa-1917-4f57-9a28-8faa6ec08f35"},"vehicle_type_id":"4","last_reported":1717092701,"current_range_meters":20000,"station_id":"ce4bh092rcd13ifvqd20","pricing_plan_id":"cebpf4jnsgd1na2vs0mg"},{"bike_id":"a9a454fe-8622-4745-a01a-0d1bf61da35a","system_id":"levelo_inurba_marseille","lat":43.292642,"lon":5.384254,"is_reserved":false,"is_disabled":false,"rental_uris":{"android":"levelo://app?vid=a9a454fe-8622-4745-a01a-0d1bf61da35a","ios":"levelo://app?vid=a9a454fe-8622-4745-a01a-0d1bf61da35a"},"vehicle_type_id":"4","last_reported":1717092701,"current_range_meters":30000,"station_id":"ce4bh692rcd13ifvqea0","pricing_plan_id":"cebpf4jnsgd1na2vs0mg"},{"bike_id":"d5300af9-a326-4540-b511-d40cf900b7f2","system_id":"levelo_inurba_marseille","lat":43.29268,"lon":5.3845,"is_reserved":false,"is_disabled":false,"rental_uris":{"android":"levelo://app?vid=d5300af9-a326-4540-b511-d40cf900b7f2","ios":"levelo://app?vid=d5300af9-a326-4540-b511-d40cf900b7f2"},"vehicle_type_id":"4","last_reported":1717092701,"current_range_meters":19600,"station_id":"ce4bh692rcd13ifvqea0","pricing_plan_id":"cebpf4jnsgd1na2vs0mg"},{"bike_id":"ad186e9e-d623-4806-a30d-4255bb399de1","system_id":"levelo_inurba_marseille","lat":43.292644,"lon":5.384257,"is_reserved":false,"is_disabled":false,"rental_uris":{"android":"levelo://app?vid=ad186e9e-d623-4806-a30d-4255bb399de1","ios":"levelo://app?vid=ad186e9e-d623-4806-a30d-4255bb399de1"},"vehicle_type_id":"4","last_reported":1717092701,"current_range_meters":18800,"station_id":"ce4bh692rcd13ifvqea0","pricing_plan_id":"cebpf4jnsgd1na2vs0mg"},{"bike_id":"25850a85-4abc-402e-923f-ddff142a30a8","system_id":"levelo_inurba_marseille","lat":43.30417,"lon":5.39743,"is_reserved":false,"is_disabled":false,"rental_uris":{"android":"levelo://app?vid=25850a85-4abc-402e-923f-ddff142a30a8","ios":"levelo://app?vid=25850a85-4abc-402e-923f-ddff142a30a8"},"vehicle_type_id":"4","last_reported":1717092701,"current_range_meters":0,"station_id":"ce4bh092rcd13ifvqd20","pricing_plan_id":"cebpf4jnsgd1na2vs0mg"},{"bike_id":"c888f445-7915-4ad5-a310-8834d5d15444","system_id":"levelo_inurba_marseille","lat":43.29258,"lon":5.3843,"is_reserved":false,"is_disabled":false,"rental_uris":{"android":"levelo://app?vid=c888f445-7915-4ad5-a310-8834d5d15444","ios":"levelo://app?vid=c888f445-7915-4ad5-a310-8834d5d15444"},"vehicle_type_id":"4","last_reported":1717092701,"current_range_meters":28400,"station_id":"ce4bh692rcd13ifvqea0","pricing_plan_id":"cebpf4jnsgd1na2vs0mg"},{"bike_id":"58ac427e-a71b-454d-b5e8-f75613e641e4","system_id":"levelo_inurba_marseille","lat":43.29261,"lon":5.38439,"is_reserved":false,"is_disabled":false,"rental_uris":{"android":"levelo://app?vid=58ac427e-a71b-454d-b5e8-f75613e641e4","ios":"levelo://app?vid=58ac427e-a71b-454d-b5e8-f75613e641e4"},"vehicle_type_id":"4","last_reported":1717092701,"current_range_meters":31200,"station_id":"ce4bh692rcd13ifvqea0","pricing_plan_id":"cebpf4jnsgd1na2vs0mg"},{"bike_id":"695df1ae-4d84-42a1-b401-f0d80806a4c7","system_id":"levelo_inurba_marseille","lat":43.2926,"lon":5.38437,"is_reserved":false,"is_disabled":false,"rental_uris":{"android":"levelo://app?vid=695df1ae-4d84-42a1-b401-f0d80806a4c7","ios":"levelo://app?vid=695df1ae-4d84-42a1-b401-f0d80806a4c7"},"vehicle_type_id":"4","last_reported":1717092701,"current_range_meters":29200,"station_id":"ce4bh692rcd13ifvqea0","pricing_plan_id":"cebpf4jnsgd1na2vs0mg"},{"bike_id":"7d0d8dea-53b8-473f-b210-c71b6137e302","system_id":"levelo_inurba_marseille","lat":43.292644,"lon":5.384257,"is_reserved":false,"is_disabled":false,"rental_uris":{"android":"levelo://app?vid=7d0d8dea-53b8-473f-b210-c71b6137e302","ios":"levelo://app?vid=7d0d8dea-53b8-473f-b210-c71b6137e302"},"vehicle_type_id":"4","last_reported":1717092701,"current_range_meters":19200,"station_id":"ce4bh692rcd13ifvqea0","pricing_plan_id":"cebpf4jnsgd1na2vs0mg"},{"bike_id":"05d2f9f1-90db-49b6-8634-8a7f450fbe4d","system_id":"levelo_inurba_marseille","lat":43.29261,"lon":5.3844,"is_reserved":false,"is_disabled":false,"rental_uris":{"android":"levelo://app?vid=05d2f9f1-90db-49b6-8634-8a7f450fbe4d","ios":"levelo://app?vid=05d2f9f1-90db-49b6-8634-8a7f450fbe4d"},"vehicle_type_id":"4","last_reported":1717092701,"current_range_meters":0,"station_id":"ce4bh692rcd13ifvqea0","pricing_plan_id":"cebpf4jnsgd1na2vs0mg"},{"bike_id":"ca34f59a-f45e-41a2-be4e-2ec1d28bbd06","system_id":"levelo_inurba_marseille","lat":43.29258,"lon":5.38435,"is_reserved":false,"is_disabled":false,"rental_uris":{"android":"levelo://app?vid=ca34f59a-f45e-41a2-be4e-2ec1d28bbd06","ios":"levelo://app?vid=ca34f59a-f45e-41a2-be4e-2ec1d28bbd06"},"vehicle_type_id":"4","last_reported":1717092701,"current_range_meters":22800,"station_id":"ce4bh692rcd13ifvqea0","pricing_plan_id":"cebpf4jnsgd1na2vs0mg"},{"bike_id":"10caf89e-4aa9-46c7-bff4-229081eb85af","system_id":"levelo_inurba_marseille","lat":43.292644,"lon":5.384257,"is_reserved":false,"is_disabled":false,"rental_uris":{"android":"levelo://app?vid=10caf89e-4aa9-46c7-bff4-229081eb85af","ios":"levelo://app?vid=10caf89e-4aa9-46c7-bff4-229081eb85af"},"vehicle_type_id":"4","last_reported":1717092701,"current_range_meters":31200,"station_id":"ce4bh692rcd13ifvqea0","pricing_plan_id":"cebpf4jnsgd1na2vs0mg"},{"bike_id":"3e0e0900-8c84-4ac9-ac5c-d5766be0f184","system_id":"levelo_inurba_marseille","lat":43.292623,"lon":5.384477,"is_reserved":false,"is_disabled":false,"rental_uris":{"android":"levelo://app?vid=3e0e0900-8c84-4ac9-ac5c-d5766be0f184","ios":"levelo://app?vid=3e0e0900-8c84-4ac9-ac5c-d5766be0f184"},"vehicle_type_id":"4","last_reported":1717092701,"current_range_meters":16400,"station_id":"ce4bh692rcd13ifvqea0","pricing_plan_id":"cebpf4jnsgd1na2vs0mg"},{"bike_id":"a2a0fe4f-7192-463b-aeb0-5e202ff1cfd3","system_id":"levelo_inurba_marseille","lat":43.292644,"lon":5.384257,"is_reserved":false,"is_disabled":false,"rental_uris":{"android":"levelo://app?vid=a2a0fe4f-7192-463b-aeb0-5e202ff1cfd3","ios":"levelo://app?vid=a2a0fe4f-7192-463b-aeb0-5e202ff1cfd3"},"vehicle_type_id":"4","last_reported":1717092701,"current_range_meters":20800,"station_id":"ce4bh692rcd13ifvqea0","pricing_plan_id":"cebpf4jnsgd1na2vs0mg"},{"bike_id":"9e63ab88-4491-469d-8fab-da0b36ce9d74","system_id":"levelo_inurba_marseille","lat":43.292644,"lon":5.384257,"is_reserved":false,"is_disabled":false,"rental_uris":{"android":"levelo://app?vid=9e63ab88-4491-469d-8fab-da0b36ce9d74","ios":"levelo://app?vid=9e63ab88-4491-469d-8fab-da0b36ce9d74"},"vehicle_type_id":"4","last_reported":1717092701,"current_range_meters":12000,"station_id":"ce4bh692rcd13ifvqea0","pricing_plan_id":"cebpf4jnsgd1na2vs0mg"},{"bike_id":"e874f366-3a09-4759-aaad-e639814838a0","system_id":"levelo_inurba_marseille","lat":43.29256,"lon":5.38439,"is_reserved":false,"is_disabled":false,"rental_uris":{"android":"levelo://app?vid=e874f366-3a09-4759-aaad-e639814838a0","ios":"levelo://app?vid=e874f366-3a09-4759-aaad-e639814838a0"},"vehicle_type_id":"4","last_reported":1717092701,"current_range_meters":0,"station_id":"ce4bh692rcd13ifvqea0","pricing_plan_id":"cebpf4jnsgd1na2vs0mg"},{"bike_id":"118590c6-3a18-46b7-a127-8d1173515731","system_id":"levelo_inurba_marseille","lat":43.29255,"lon":5.3844,"is_reserved":false,"is_disabled":false,"rental_uris":{"android":"levelo://app?vid=118590c6-3a18-46b7-a127-8d1173515731","ios":"levelo://app?vid=118590c6-3a18-46b7-a127-8d1173515731"},"vehicle_type_id":"4","last_reported":1717092701,"current_range_meters":10000,"station_id":"ce4bh692rcd13ifvqea0","pricing_plan_id":"cebpf4jnsgd1na2vs0mg"},{"bike_id":"82346a3e-af27-46ab-8a7e-7d14908836d8","system_id":"levelo_inurba_marseille","lat":43.292582,"lon":5.384517,"is_reserved":false,"is_disabled":false,"rental_uris":{"android":"levelo://app?vid=82346a3e-af27-46ab-8a7e-7d14908836d8","ios":"levelo://app?vid=82346a3e-af27-46ab-8a7e-7d14908836d8"},"vehicle_type_id":"4","last_reported":1717092701,"current_range_meters":13600,"station_id":"ce4bh692rcd13ifvqea0","pricing_plan_id":"cebpf4jnsgd1na2vs0mg"},{"bike_id":"5d39f37a-5521-4d59-b181-ba67c27a00f9","system_id":"levelo_inurba_marseille","lat":43.29252,"lon":5.38447,"is_reserved":false,"is_disabled":false,"rental_uris":{"android":"levelo://app?vid=5d39f37a-5521-4d59-b181-ba67c27a00f9","ios":"levelo://app?vid=5d39f37a-5521-4d59-b181-ba67c27a00f9"},"vehicle_type_id":"4","last_reported":1717092701,"current_range_meters":0,"station_id":"ce4bh692rcd13ifvqea0","pricing_plan_id":"cebpf4jnsgd1na2vs0mg"},{"bike_id":"ecd29b38-1ff8-4ae4-900d-4972472c840c","system_id":"levelo_inurba_marseille","lat":43.292644,"lon":5.384257,"is_reserved":false,"is_disabled":false,"rental_uris":{"android":"levelo://app?vid=ecd29b38-1ff8-4ae4-900d-4972472c840c","ios":"levelo://app?vid=ecd29b38-1ff8-4ae4-900d-4972472c840c"},"vehicle_type_id":"4","last_reported":1717092701,"current_range_meters":10400,"station_id":"ce4bh692rcd13ifvqea0","pricing_plan_id":"cebpf4jnsgd1na2vs0mg"},{"bike_id":"c56a6ad3-c4dc-4db6-af78-9fa51baecfc7","system_id":"levelo_inurba_marseille","lat":43.29013,"lon":5.35612,"is_reserved":false,"is_disabled":false,"rental_uris":{"android":"levelo://app?vid=c56a6ad3-c4dc-4db6-af78-9fa51baecfc7","ios":"levelo://app?vid=c56a6ad3-c4dc-4db6-af78-9fa51baecfc7"},"vehicle_type_id":"4","last_reported":1717092701,"current_range_meters":0,"station_id":"ce4bhb92rcd13ifvqen0","pricing_plan_id":"cebpf4jnsgd1na2vs0mg"},{"bike_id":"c221e62f-50f3-4922-9a7b-9071bea45162","system_id":"levelo_inurba_marseille","lat":43.290104,"lon":5.356111,"is_reserved":false,"is_disabled":false,"rental_uris":{"android":"levelo://app?vid=c221e62f-50f3-4922-9a7b-9071bea45162","ios":"levelo://app?vid=c221e62f-50f3-4922-9a7b-9071bea45162"},"vehicle_type_id":"4","last_reported":1717092701,"current_range_meters":0,"station_id":"ce4bhb92rcd13ifvqen0","pricing_plan_id":"cebpf4jnsgd1na2vs0mg"},{"bike_id":"695f32c8-3065-4e01-86a0-df16fa5cf691","system_id":"levelo_inurba_marseille","lat":43.290104,"lon":5.356111,"is_reserved":false,"is_disabled":false,"rental_uris":{"android":"levelo://app?vid=695f32c8-3065-4e01-86a0-df16fa5cf691","ios":"levelo://app?vid=695f32c8-3065-4e01-86a0-df16fa5cf691"},"vehicle_type_id":"4","last_reported":1717092701,"current_range_meters":0,"station_id":"ce4bhb92rcd13ifvqen0","pricing_plan_id":"cebpf4jnsgd1na2vs0mg"},{"bike_id":"f445fe19-7296-4161-b9bd-7f6d534ed74a","system_id":"levelo_inurba_marseille","lat":43.290104,"lon":5.356111,"is_reserved":false,"is_disabled":false,"rental_uris":{"android":"levelo://app?vid=f445fe19-7296-4161-b9bd-7f6d534ed74a","ios":"levelo://app?vid=f445fe19-7296-4161-b9bd-7f6d534ed74a"},"vehicle_type_id":"4","last_reported":1717092701,"current_range_meters":2800,"station_id":"ce4bhb92rcd13ifvqen0","pricing_plan_id":"cebpf4jnsgd1na2vs0mg"},{"bike_id":"2feffc58-194f-4156-b7dd-ef29471bcc5f","system_id":"levelo_inurba_marseille","lat":43.290103,"lon":5.356114,"is_reserved":false,"is_disabled":false,"rental_uris":{"android":"levelo://app?vid=2feffc58-194f-4156-b7dd-ef29471bcc5f","ios":"levelo://app?vid=2feffc58-194f-4156-b7dd-ef29471bcc5f"},"vehicle_type_id":"4","last_reported":1717092701,"current_range_meters":30800,"station_id":"ce4bhb92rcd13ifvqen0","pricing_plan_id":"cebpf4jnsgd1na2vs0mg"},{"bike_id":"a144a82d-eb8a-4533-91f8-9346fc3dca25","system_id":"levelo_inurba_marseille","lat":43.290104,"lon":5.356111,"is_reserved":false,"is_disabled":false,"rental_uris":{"android":"levelo://app?vid=a144a82d-eb8a-4533-91f8-9346fc3dca25","ios":"levelo://app?vid=a144a82d-eb8a-4533-91f8-9346fc3dca25"},"vehicle_type_id":"4","last_reported":1717092701,"current_range_meters":1600,"station_id":"ce4bhb92rcd13ifvqen0","pricing_plan_id":"cebpf4jnsgd1na2vs0mg"},{"bike_id":"a6dfbc86-b276-4d91-8afa-f10a72412b30","system_id":"levelo_inurba_marseille","lat":43.290104,"lon":5.356111,"is_reserved":false,"is_disabled":false,"rental_uris":{"android":"levelo://app?vid=a6dfbc86-b276-4d91-8afa-f10a72412b30","ios":"levelo://app?vid=a6dfbc86-b276-4d91-8afa-f10a72412b30"},"vehicle_type_id":"4","last_reported":1717092701,"current_range_meters":24800,"station_id":"ce4bhb92rcd13ifvqen0","pricing_plan_id":"cebpf4jnsgd1na2vs0mg"},