{"last_updated":1742829048,"ttl":60,"version":"2.2","data":{"bikes":[{"bike_id":"36dedd20-2ff0-46de-a561-f34c527a216d","system_id":"levelo_inurba_marseille","lat":43.29788,"lon":5.38087,"is_reserved":false,"is_disabled":false,"rental_uris":{"android":"levelo://app?vid=36dedd20-2ff0-46de-a561-f34c527a216d","ios":"levelo://app?vid=36dedd20-2ff0-46de-a561-f34c527a216d"},"vehicle_type_id":"4","last_reported":1742829048,"current_range_meters":3200,"station_id":"ce4bgip2rcd13ifvqbb0","pricing_plan_id":"cebpf4jnsgd1na2vs0mg"},{"bike_id":"cebcc65a-b5ab-4d79-b7fc-2784975315f9","system_id":"levelo_inurba_marseille","lat":43.23062,"lon":5.35489,"is_reserved":false,"is_disabled":false,"rental_uris":{"android":"levelo://app?vid=cebcc65a-b5ab-4d79-b7fc-2784975315f9","ios":"levelo://app?vid=cebcc65a-b5ab-4d79-b7fc-2784975315f9"},"vehicle_type_id":"4","last_reported":1742829048,"current_range_meters":3200,"station_id":"cpo3342slgdg3j2ifvpg","pricing_plan_id":"cebpf4jnsgd1na2vs0mg"},{"bike_id":"e3bf1ab8-ea4d-46f0-8284-97a1a43999a1","system_id":"levelo_inurba_marseille","lat":43.25117,"lon":5.40325,"is_reserved":false,"is_disabled":false,"rental_uris":{"android":"levelo://app?vid=e3bf1ab8-ea4d-46f0-8284-97a1a43999a1","ios":"levelo://app?vid=e3bf1ab8-ea4d-46f0-8284-97a1a43999a1"},"vehicle_type_id":"4","last_reported":1742829048,"current_range_meters":3200,"station_id":"ce4bhlh2rcd13ifvqgig","pricing_plan_id":"cebpf4jnsgd1na2vs0mg"},{"bike_id":"64d277e8-8187-4e94-a017-3dc1b060fcc3","system_id":"levelo_inurba_marseille","lat":43.23058,"lon":5.35489,"is_reserved":false,"is_disabled":false,"rental_uris":{"android":"levelo://app?vid=64d277e8-8187-4e94-a017-3dc1b060fcc3","ios":"levelo://app?vid=64d277e8-8187-4e94-a017-3dc1b060fcc3"},"vehicle_type_id":"4","last_reported":1742829048,"current_range_meters":3200,"station_id":"cpo3342slgdg3j2ifvpg","pricing_plan_id":"cebpf4jnsgd1na2vs0mg"},{"bike_id":"ac96298c-6fd0-450b-9263-44ee4661bf0f","system_id":"levelo_inurba_marseille","lat":43.26064,"lon":5.39396,"is_reserved":false,"is_disabled":false,"rental_uris":{"android":"levelo://app?vid=ac96298c-6fd0-450b-9263-44ee4661bf0f","ios":"levelo://app?vid=ac96298c-6fd0-450b-9263-44ee4661bf0f"},"vehicle_type_id":"4","last_reported":1742829048,"current_range_meters":3200,"station_id":"","pricing_plan_id":"cebpf4jnsgd1na2vs0mg"},{"bike_id":"222b8dd4-06ac-4e9e-b821-5a2554fc4d20","system_id":"levelo_inurba_marseille","lat":43.24184,"lon":5.39725,"is_reserved":false,"is_disabled":false,"rental_uris":{"android":"levelo://app?vid=222b8dd4-06ac-4e9e-b821-5a2554fc4d20","ios":"levelo://app?vid=222b8dd4-06ac-4e9e-b821-5a2554fc4d20"},"vehicle_type_id":"4","last_reported":1742829048,"current_range_meters":3600,"station_id":"ce4bhn12rcd13ifvqgpg","pricing_plan_id":"cebpf4jnsgd1na2vs0mg"},{"bike_id":"aa971d6e-0a7a-47a8-9093-5dc28d1fa02d","system_id":"levelo_inurba_marseille","lat":43.26504,"lon":5.39554,"is_reserved":false,"is_disabled":false,"rental_uris":{"android":"levelo://app?vid=aa971d6e-0a7a-47a8-9093-5dc28d1fa02d","ios":"levelo://app?vid=aa971d6e-0a7a-47a8-9093-5dc28d1fa02d"},"vehicle_type_id":"4","last_reported":1742829048,"current_range_meters":3600,"station_id":"ce4bhi12rcd13ifvqfq0","pricing_plan_id":"cebpf4jnsgd1na2vs0mg"},{"bike_id":"63964bfc-f4e7-4fed-a25b-6461d650852c","system_id":"levelo_inurba_marseille","lat":43.29776,"lon":5.3711,"is_reserved":false,"is_disabled":false,"rental_uris":{"android":"levelo://app?vid=63964bfc-f4e7-4fed-a25b-6461d650852c","ios":"levelo://app?vid=63964bfc-f4e7-4fed-a25b-6461d650852c"},"vehicle_type_id":"4","last_reported":1742829048,"current_range_meters":4000,"station_id":"ce4bgop2rcd13ifvqc1g","pricing_plan_id":"cebpf4jnsgd1na2vs0mg"},{"bike_id":"47e05998-50ad-4f57-a8ed-e269ea20f151","system_id":"levelo_inurba_marseille","lat":43.27919,"lon":5.3958,"is_reserved":false,"is_disabled":false,"rental_uris":{"android":"levelo://app?vid=47e05998-50ad-4f57-a8ed-e269ea20f151","ios":"levelo://app?vid=47e05998-50ad-4f57-a8ed-e269ea20f151"},"vehicle_type_id":"4","last_reported":1742829048,"current_range_meters":4400,"station_id":"ce4bhf92rcd13ifvqf40","pricing_plan_id":"cebpf4jnsgd1na2vs0mg"},{"bike_id":"574ccad8-6128-4a28-9521-89e72e0e9d8b","system_id":"levelo_inurba_marseille","lat":43.29189,"lon":5.39316,"is_reserved":false,"is_disabled":false,"rental_uris":{"android":"levelo://app?vid=574ccad8-6128-4a28-9521-89e72e0e9d8b","ios":"levelo://app?vid=574ccad8-6128-4a28-9521-89e72e0e9d8b"},"vehicle_type_id":"4","last_reported":1742829048,"current_range_meters":4400,"station_id":"ce4bh192rcd13ifvqdd0","pricing_plan_id":"cebpf4jnsgd1na2vs0mg"},{"bike_id":"3570b64f-1145-4352-a8bb-b82bed756b24","system_id":"levelo_inurba_marseille","lat":43.304108,"lon":5.411636,"is_reserved":false,"is_disabled":false,"rental_uris":{"android":"levelo://app?vid=3570b64f-1145-4352-a8bb-b82bed756b24","ios":"levelo://app?vid=3570b64f-1145-4352-a8bb-b82bed756b24"},"vehicle_type_id":"4","last_reported":1742829048,"current_range_meters":4400,"station_id":"ce4bhop2rcd13ifvqh8g","pricing_plan_id":"cebpf4jnsgd1na2vs0mg"},{"bike_id":"c14ff70e-b7f5-4d4a-80d3-6df90b033d21","system_id":"levelo_inurba_marseille","lat":43.27902,"lon":5.38009,"is_reserved":false,"is_disabled":false,"rental_uris":{"android":"levelo://app?vid=c14ff70e-b7f5-4d4a-80d3-6df90b033d21","ios":"levelo://app?vid=c14ff70e-b7f5-4d4a-80d3-6df90b033d21"},"vehicle_type_id":"4","last_reported":1742829048,"current_range_meters":4800,"station_id":"ce4bhf92rcd13ifvqf50","pricing_plan_id":"cebpf4jnsgd1na2vs0mg"},{"bike_id":"145a8288-6d48-4945-a5d1-f05d8bc2d3be","system_id":"levelo_inurba_marseille","lat":43.33021,"lon":5.39043,"is_reserved":false,"is_disabled":false,"rental_uris":{"android":"levelo://app?vid=145a8288-6d48-4945-a5d1-f05d8bc2d3be","ios":"levelo://app?vid=145a8288-6d48-4945-a5d1-f05d8bc2d3be"},"vehicle_type_id":"4","last_reported":1742829048,"current_range_meters":4800,"station_id":"ce4bhr92rcd13ifvqhrg","pricing_plan_id":"cebpf4jnsgd1na2vs0mg"},{"bike_id":"2a12ba00-678e-4052-8eb0-35456707d8a5","system_id":"levelo_inurba_marseille","lat":43.27422,"lon":5.39421,"is_reserved":false,"is_disabled":false,"rental_uris":{"android":"levelo://app?vid=2a12ba00-678e-4052-8eb0-35456707d8a5","ios":"levelo://app?vid=2a12ba00-678e-4052-8eb0-35456707d8a5"},"vehicle_type_id":"4","last_reported":1742829048,"current_range_meters":4800,"station_id":"ce4bhdp2rcd13ifvqf20","pricing_plan_id":"cebpf4jnsgd1na2vs0mg"},{"bike_id":"aa8b90e9-e028-49ab-897e-500d12237f17","system_id":"levelo_inurba_marseille","lat":43.304633,"lon":5.379105,"is_reserved":false,"is_disabled":false,"rental_uris":{"android":"levelo://app?vid=aa8b90e9-e028-49ab-897e-500d12237f17","ios":"levelo://app?vid=aa8b90e9-e028-49ab-897e-500d12237f17"},"vehicle_type_id":"4","last_reported":1742829048,"current_range_meters":4800,"station_id":"","pricing_plan_id":"cebpf4jnsgd1na2vs0mg"},{"bike_id":"4aaa7b44-e996-43a7-b327-a3bfb09a2367","system_id":"levelo_inurba_marseille","lat":43.23181,"lon":5.39989,"is_reserved":false,"is_disabled":false,"rental_uris":{"android":"levelo://app?vid=4aaa7b44-e996-43a7-b327-a3bfb09a2367","ios":"levelo://app?vid=4aaa7b44-e996-43a7-b327-a3bfb09a2367"},"vehicle_type_id":"4","last_reported":1742829048,"current_range_meters":4800,"station_id":"ce4bhn12rcd13ifvqgqg","pricing_plan_id":"cebpf4jnsgd1na2vs0mg"},{"bike_id":"488ecb9f-a6d1-413d-9db7-b10383c774aa","system_id":"levelo_inurba_marseille","lat":43.25938,"lon":5.40913,"is_reserved":false,"is_disabled":false,"rental_uris":{"android":"levelo://app?vid=488ecb9f-a6d1-413d-9db7-b10383c774aa","ios":"levelo://app?vid=488ecb9f-a6d1-413d-9db7-b10383c774aa"},"vehicle_type_id":"4","last_reported":1742829048,"current_range_meters":4800,"station_id":"ce4bhm92rcd13ifvqglg","pricing_plan_id":"cebpf4jnsgd1na2vs0mg"},{"bike_id":"061696be-d303-457d-80c6-dddc865150d6","system_id":"levelo_inurba_marseille","lat":43.29416,"lon":5.38622,"is_reserved":false,"is_disabled":false,"rental_uris":{"android":"levelo://app?vid=061696be-d303-457d-80c6-dddc865150d6","ios":"levelo://app?vid=061696be-d303-457d-80c6-dddc865150d6"},"vehicle_type_id":"4","last_reported":1742829048,"current_range_meters":4800,"station_id":"ce4bh2h2rcd13ifvqdh0","pricing_plan_id":"cebpf4jnsgd1na2vs0mg"},{"bike_id":"b7134e85-1b42-4d58-bde2-801921406a80","system_id":"levelo_inurba_marseille","lat":43.28362,"lon":5.38646,"is_reserved":false,"is_disabled":false,"rental_uris":{"android":"levelo://app?vid=b7134e85-1b42-4d58-bde2-801921406a80","ios":"levelo://app?vid=b7134e85-1b42-4d58-bde2-801921406a80"},"vehicle_type_id":"4","last_reported":1742829048,"current_range_meters":5600,"station_id":"ce4bh492rcd13ifvqdvg","pricing_plan_id":"cebpf4jnsgd1na2vs0mg"},{"bike_id":"942167dc-cfa0-4955-814c-3c8e85385a96","system_id":"levelo_inurba_marseille","lat":43.23053,"lon":5.35514,"is_reserved":false,"is_disabled":false,"rental_uris":{"android":"levelo://app?vid=942167dc-cfa0-4955-814c-3c8e85385a96","ios":"levelo://app?vid=942167dc-cfa0-4955-814c-3c8e85385a96"},"vehicle_type_id":"4","last_reported":1742829048,"current_range_meters":5600,"station_id":"cpo3342slgdg3j2ifvpg","pricing_plan_id":"cebpf4jnsgd1na2vs0mg"},{"bike_id":"2b97c6c8-6b27-48dc-abad-8bcf29b097e0","system_id":"levelo_inurba_marseille","lat":43.26776,"lon":5.3942,"is_reserved":false,"is_disabled":true,"rental_uris":{"android":"levelo://app?vid=2b97c6c8-6b27-48dc-abad-8bcf29b097e0","ios":"levelo://app?vid=2b97c6c8-6b27-48dc-abad-8bcf29b097e0"},"vehicle_type_id":"4","last_reported":1742829048,"current_range_meters":5600,"station_id":"ce4bhh12rcd13ifvqfg0","pricing_plan_id":"cebpf4jnsgd1na2vs0mg"},{"bike_id":"91c1adfd-1aff-43c2-8dbe-1afd27501851","system_id":"levelo_inurba_marseille","lat":43.29421,"lon":5.38623,"is_reserved":false,"is_disabled":false,"rental_uris":{"android":"levelo://app?vid=91c1adfd-1aff-43c2-8dbe-1afd27501851","ios":"levelo://app?vid=91c1adfd-1aff-43c2-8dbe-1afd27501851"},"vehicle_type_id":"4","last_reported":1742829048,"current_range_meters":5600,"station_id":"ce4bh2h2rcd13ifvqdh0","pricing_plan_id":"cebpf4jnsgd1na2vs0mg"},{"bike_id":"032d0c9d-35e5-40bb-8fd2-d2e9704b4cb5","system_id":"levelo_inurba_marseille","lat":43.25933,"lon":5.40906,"is_reserved":false,"is_disabled":false,"rental_uris":{"android":"levelo://app?vid=032d0c9d-35e5-40bb-8fd2-d2e9704b4cb5","ios":"levelo://app?vid=032d0c9d-35e5-40bb-8fd2-d2e9704b4cb5"},"vehicle_type_id":"4","last_reported":1742829048,"current_range_meters":5600,"station_id":"ce4bhm92rcd13ifvqglg","pricing_plan_id":"cebpf4jnsgd1na2vs0mg"},{"bike_id":"f7554dbb-76d6-4cc2-8f20-ed8d91f2de72","system_id":"levelo_inurba_marseille","lat":43.26809,"lon":5.40266,"is_reserved":false,"is_disabled":false,"rental_uris":{"android":"levelo://app?vid=f7554dbb-76d6-4cc2-8f20-ed8d91f2de72","ios":"levelo://app?vid=f7554dbb-76d6-4cc2-8f20-ed8d91f2de72"},"vehicle_type_id":"4","last_reported":1742829048,"current_range_meters":6000,"station_id":"ce501612rcd8frsf0b60","pricing_plan_id":"cebpf4jnsgd1na2vs0mg"},{"bike_id":"2c92a75b-4c35-4e21-9eb7-7bc3c703c4a4","system_id":"levelo_inurba_marseille","lat":43.28431,"lon":5.39198,"is_reserved":false,"is_disabled":false,"rental_uris":{"android":"levelo://app?vid=2c92a75b-4c35-4e21-9eb7-7bc3c703c4a4","ios":"levelo://app?vid=2c92a75b-4c35-4e21-9eb7-7bc3c703c4a4"},"vehicle_type_id":"4","last_reported":1742829048,"current_range_meters":6000,"station_id":"ce4bhoh2rcd13ifvqh5g","pricing_plan_id":"cebpf4jnsgd1na2vs0mg"},{"bike_id":"ec47b621-0fa7-4b48-b122-bffe26d4b5c9","system_id":"levelo_inurba_marseille","lat":43.24176,"lon":5.36381,"is_reserved":false,"is_disabled":false,"rental_uris":{"android":"levelo://app?vid=ec47b621-0fa7-4b48-b122-bffe26d4b5c9","ios":"levelo://app?vid=ec47b621-0fa7-4b48-b122-bffe26d4b5c9"},"vehicle_type_id":"4","last_reported":1742829048,"current_range_meters":6000,"station_id":"cpo36qri1sfpv3e86is0","pricing_plan_id":"cebpf4jnsgd1na2vs0mg"},{"bike_id":"538b8d85-6cf0-4160-8ed4-35b16f7e38dd","system_id":"levelo_inurba_marseille","lat":43.28462,"lon":5.35902,"is_reserved":false,"is_disabled":false,"rental_uris":{"android":"levelo://app?vid=538b8d85-6cf0-4160-8ed4-35b16f7e38dd","ios":"levelo://app?vid=538b8d85-6cf0-4160-8ed4-35b16f7e38dd"},"vehicle_type_id":"4","last_reported":1742829048,"current_range_meters":6000,"station_id":"ce4bhah2rcd13ifvqei0","pricing_plan_id":"cebpf4jnsgd1na2vs0mg"},{"bike_id":"89cc7225-cf88-4582-bb99-139857d1928e","system_id":"levelo_inurba_marseille","lat":43.24991,"lon":5.38943,"is_reserved":false,"is_disabled":false,"rental_uris":{"android":"levelo://app?vid=89cc7225-cf88-4582-bb99-139857d1928e","ios":"levelo://app?vid=89cc7225-cf88-4582-bb99-139857d1928e"},"vehicle_type_id":"4","last_reported":1742829048,"current_range_meters":6000,"station_id":"ce4bhgp2rcd13ifvqfd0","pricing_plan_id":"cebpf4jnsgd1na2vs0mg"},{"bike_id":"9e51fec0-aca1-4044-ab30-d66fd768ad3d","system_id":"levelo_inurba_marseille","lat":43.26211,"lon":5.37437,"is_reserved":false,"is_disabled":false,"rental_uris":{"android":"levelo://app?vid=9e51fec0-aca1-4044-ab30-d66fd768ad3d","ios":"levelo://app?vid=9e51fec0-aca1-4044-ab30-d66fd768ad3d"},"vehicle_type_id":"4","last_reported":1742829048,"current_range_meters":6000,"station_id":"ce4bhgp2rcd13ifvqfc0","pricing_plan_id":"cebpf4jnsgd1na2vs0mg"},{"bike_id":"411b428a-be3d-4303-a051-cffaae886dc8","system_id":"levelo_inurba_marseille","lat":43.24172,"lon":5.36405,"is_reserved":false,"is_disabled":false,"rental_uris":{"android":"levelo://app?vid=411b428a-be3d-4303-a051-cffaae886dc8","ios":"levelo://app?vid=411b428a-be3d-4303-a051-cffaae886dc8"},"vehicle_type_id":"4","last_reported":1742829048,"current_range_meters":6400,"station_id":"cpo36qri1sfpv3e86is0","pricing_plan_id":"cebpf4jnsgd1na2vs0mg"},{"bike_id":"bb358007-fe83-4653-9b5c-7c80ec50ad79","system_id":"levelo_inurba_marseille","lat":43.25917,"lon":5.40892,"is_reserved":false,"is_disabled":false,"rental_uris":{"android":"levelo://app?vid=bb358007-fe83-4653-9b5c-7c80ec50ad79","ios":"levelo://app?vid=bb358007-fe83-4653-9b5c-7c80ec50ad79"},"vehicle_type_id":"4","last_reported":1742829048,"current_range_meters":6400,"station_id":"ce4bhm92rcd13ifvqglg","pricing_plan_id":"cebpf4jnsgd1na2vs0mg"},{"bike_id":"700c5339-9a72-4e52-83bc-4259350d7550","system_id":"levelo_inurba_marseille","lat":43.30275,"lon":5.37703,"is_reserved":false,"is_disabled":false,"rental_uris":{"android":"levelo://app?vid=700c5339-9a72-4e52-83bc-4259350d7550","ios":"levelo://app?vid=700c5339-9a72-4e52-83bc-4259350d7550"},"vehicle_type_id":"4","last_reported":1742829048,"current_range_meters":6800,"station_id":"ce4bguh2rcd13ifvqcj0","pricing_plan_id":"cebpf4jnsgd1na2vs0mg"},{"bike_id":"d1f993ec-8e82-4e82-a38b-e848ded0cf74","system_id":"levelo_inurba_marseille","lat":43.25102,"lon":5.39539,"is_reserved":false,"is_disabled":false,"rental_uris":{"android":"levelo://app?vid=d1f993ec-8e82-4e82-a38b-e848ded0cf74","ios":"levelo://app?vid=d1f993ec-8e82-4e82-a38b-e848ded0cf74"},"vehicle_type_id":"4","last_reported":1742829048,"current_range_meters":6800,"station_id":"ce4bhm12rcd13ifvqgkg","pricing_plan_id":"cebpf4jnsgd1na2vs0mg"},{"bike_id":"1b7c5e4e-130d-4e75-8db2-feee0d51fa46","system_id":"levelo_inurba_marseille","lat":43.2418,"lon":5.3973,"is_reserved":false,"is_disabled":false,"rental_uris":{"android":"levelo://app?vid=1b7c5e4e-130d-4e75-8db2-feee0d51fa46","ios":"levelo://app?vid=1b7c5e4e-130d-4e75-8db2-feee0d51fa46"},"vehicle_type_id":"4","last_reported":1742829048,"current_range_meters":7200,"station_id":"ce4bhn12rcd13ifvqgpg","pricing_plan_id":"cebpf4jnsgd1na2vs0mg"},{"bike_id":"bb7d553e-f91c-478a-a14a-5f3ea0dc4964","system_id":"levelo_inurba_marseille","lat":43.24545,"lon":5.39525,"is_reserved":false,"is_disabled":false,"rental_uris":{"android":"levelo://app?vid=bb7d553e-f91c-478a-a14a-5f3ea0dc4964","ios":"levelo://app?vid=bb7d553e-f91c-478a-a14a-5f3ea0dc4964"},"vehicle_type_id":"4","last_reported":1742829048,"current_range_meters":7200,"station_id":"ce4bhlp2rcd13ifvqgjg","pricing_plan_id":"cebpf4jnsgd1na2vs0mg"},{"bike_id":"bebbaaa4-9324-461e-b685-01f74c9202e0","system_id":"levelo_inurba_marseille","lat":43.23958,"lon":5.36629,"is_reserved":false,"is_disabled":false,"rental_uris":{"android":"levelo://app?vid=bebbaaa4-9324-461e-b685-01f74c9202e0","ios":"levelo://app?vid=bebbaaa4-9324-461e-b685-01f74c9202e0"},"vehicle_type_id":"4","last_reported":1742829048,"current_range_meters":7200,"station_id":"ce4bhi12rcd13ifvqfp0","pricing_plan_id":"cebpf4jnsgd1na2vs0mg"},{"bike_id":"86a65fab-1faf-4fc4-885c-2b086e92c069","system_id":"levelo_inurba_marseille","lat":43.24167,"lon":5.36399,"is_reserved":false,"is_disabled":false,"rental_uris":{"android":"levelo://app?vid=86a65fab-1faf-4fc4-885c-2b086e92c069","ios":"levelo://app?vid=86a65fab-1faf-4fc4-885c-2b086e92c069"},"vehicle_type_id":"4","last_reported":1742829048,"current_range_meters":7200,"station_id":"cpo36qri1sfpv3e86is0","pricing_plan_id":"cebpf4jnsgd1na2vs0mg"},{"bike_id":"a11d7d69-4c76-45fe-bf8d-f5e6d9327110","system_id":"levelo_inurba_marseille","lat":43.25952,"lon":5.40888,"is_reserved":false,"is_disabled":false,"rental_uris":{"android":"levelo://app?vid=a11d7d69-4c76-45fe-bf8d-f5e6d9327110","ios":"levelo://app?vid=a11d7d69-4c76-45fe-bf8d-f5e6d9327110"},"vehicle_type_id":"4","last_reported":1742829048,"current_range_meters":8000,"station_id":"ce4bhm92rcd13ifvqglg","pricing_plan_id":"cebpf4jnsgd1na2vs0mg"},{"bike_id":"651bf79e-2126-451d-ac42-f548a49e86fb","system_id":"levelo_inurba_marseille","lat":43.26789,"lon":5.39419,"is_reserved":false,"is_disabled":false,"rental_uris":{"android":"levelo://app?vid=651bf79e-2126-451d-ac42-f548a49e86fb","ios":"levelo://app?vid=651bf79e-2126-451d-ac42-f548a49e86fb"},"vehicle_type_id":"4","last_reported":1742829048,"current_range_meters":8000,"station_id":"ce4bhh12rcd13ifvqfg0","pricing_plan_id":"cebpf4jnsgd1na2vs0mg"},{"bike_id":"21e3a6e5-11f0-467c-9e11-90aab4ee0f83","system_id":"levelo_inurba_marseille","lat":43.27377,"lon":5.36246,"is_reserved":false,"is_disabled":false,"rental_uris":{"android":"levelo://app?vid=21e3a6e5-11f0-467c-9e11-90aab4ee0f83","ios":"levelo://app?vid=21e3a6e5-11f0-467c-9e11-90aab4ee0f83"},"vehicle_type_id":"4","last_reported":1742829048,"current_range_meters":8000,"station_id":"ce4bhbh2rcd13ifvqeo0","pricing_plan_id":"cebpf4jnsgd1na2vs0mg"},{"bike_id":"76f3d16e-d7a5-4684-96dc-ab38a67e3c56","system_id":"levelo_inurba_marseille","lat":43.27822,"lon":5.40719,"is_reserved":false,"is_disabled":false,"rental_uris":{"android":"levelo://app?vid=76f3d16e-d7a5-4684-96dc-ab38a67e3c56","ios":"levelo://app?vid=76f3d16e-d7a5-4684-96dc-ab38a67e3c56"},"vehicle_type_id":"4","last_reported":1742829048,"current_range_meters":8000,"station_id":"ce4bhnh2rcd13ifvqgtg","pricing_plan_id":"cebpf4jnsgd1na2vs0mg"},{"bike_id":"91456e3b-facc-45cb-b00f-aea26e6eaf6c","system_id":"levelo_inurba_marseille","lat":43.27806,"lon":5.40703,"is_reserved":false,"is_disabled":true,"rental_uris":{"android":"levelo://app?vid=91456e3b-facc-45cb-b00f-aea26e6eaf6c","ios":"levelo://app?vid=91456e3b-facc-45cb-b00f-aea26e6eaf6c"},"vehicle_type_id":"4","last_reported":1742829048,"current_range_meters":8000,"station_id":"ce4bhnh2rcd13ifvqgtg","pricing_plan_id":"cebpf4jnsgd1na2vs0mg"},{"bike_id":"1290e66a-559e-4165-8ac5-f2d17270ff06","system_id":"levelo_inurba_marseille","lat":43.28444,"lon":5.39212,"is_reserved":false,"is_disabled":false,"rental_uris":{"android":"levelo://app?vid=1290e66a-559e-4165-8ac5-f2d17270ff06","ios":"levelo://app?vid=1290e66a-559e-4165-8ac5-f2d17270ff06"},"vehicle_type_id":"4","last_reported":1742829048,"current_range_meters":8000,"station_id":"ce4bhoh2rcd13ifvqh5g","pricing_plan_id":"cebpf4jnsgd1na2vs0mg"},{"bike_id":"dd1e1511-a34a-4393-8f44-13db092d2312","system_id":"levelo_inurba_marseille","lat":43.28701,"lon":5.37398,"is_reserved":false,"is_disabled":false,"rental_uris":{"android":"levelo://app?vid=dd1e1511-a34a-4393-8f44-13db092d2312","ios":"levelo://app?vid=dd1e1511-a34a-4393-8f44-13db092d2312"},"vehicle_type_id":"4","last_reported":1742829048,"current_range_meters":8000,"station_id":"ce4bh3p2rcd13ifvqdq0","pricing_plan_id":"cebpf4jnsgd1na2vs0mg"},{"bike_id":"1d0a4e41-9dbc-4001-bfcd-b98149df5b5d","system_id":"levelo_inurba_marseille","lat":43.29182,"lon":5.3931,"is_reserved":false,"is_disabled":true,"rental_uris":{"android":"levelo://app?vid=1d0a4e41-9dbc-4001-bfcd-b98149df5b5d","ios":"levelo://app?vid=1d0a4e41-9dbc-4001-bfcd-b98149df5b5d"},"vehicle_type_id":"4","last_reported":1742829048,"current_range_meters":8400,"station_id":"ce4bh192rcd13ifvqdd0","pricing_plan_id":"cebpf4jnsgd1na2vs0mg"},{"bike_id":"e3c6d100-9b3b-44e1-abd1-7cf3538ee12c","system_id":"levelo_inurba_marseille","lat":43.23191,"lon":5.3555,"is_reserved":false,"is_disabled":false,"rental_uris":{"android":"levelo://app?vid=e3c6d100-9b3b-44e1-abd1-7cf3538ee12c","ios":"levelo://app?vid=e3c6d100-9b3b-44e1-abd1-7cf3538ee12c"},"vehicle_type_id":"4","last_reported":1742829048,"current_range_meters":8400,"station_id":"ce4bhu92rcd13ifvqi70","pricing_plan_id":"cebpf4jnsgd1na2vs0mg"},{"bike_id":"ba77c809-1111-412f-8eae-c3c885fbd6c5","system_id":"levelo_inurba_marseille","lat":43.24167,"lon":5.364,"is_reserved":false,"is_disabled":false,"rental_uris":{"android":"levelo://app?vid=ba77c809-1111-412f-8eae-c3c885fbd6c5","ios":"levelo://app?vid=ba77c809-1111-412f-8eae-c3c885fbd6c5"},"vehicle_type_id":"4","last_reported":1742829048,"current_range_meters":8400,"station_id":"cpo36qri1sfpv3e86is0","pricing_plan_id":"cebpf4jnsgd1na2vs0mg"},{"bike_id":"073fe5fd-0446-4ab7-8e4a-ba01ab6c5436","system_id":"levelo_inurba_marseille","lat":43.26918,"lon":5.39498,"is_reserved":false,"is_disabled":false,"rental_uris":{"android":"levelo://app?vid=073fe5fd-0446-4ab7-8e4a-ba01ab6c5436","ios":"levelo://app?vid=073fe5fd-0446-4ab7-8e4a-ba01ab6c5436"},"vehicle_type_id":"4","last_reported":1742829048,"current_range_meters":8400,"station_id":"","pricing_plan_id":"cebpf4jnsgd1na2vs0mg"},{"bike_id":"ad523c5d-ac7a-4679-9e6f-bd13a0b76ad8","system_id":"levelo_inurba_marseille","lat":43.24172,"lon":5.39746,"is_reserved":false,"is_disabled":false,"rental_uris":{"android":"levelo://app?vid=ad523c5d-ac7a-4679-9e6f-bd13a0b76ad8","ios":"levelo://app?vid=ad523c5d-ac7a-4679-9e6f-bd13a0b76ad8"},"vehicle_type_id":"4","last_reported":1742829048,"current_range_meters":8800,"station_id":"ce4bhn12rcd13ifvqgpg","pricing_plan_id":"cebpf4jnsgd1na2vs0mg"},{"bike_id":"f02a77b8-f810-41ff-bf5b-5ab742b469a7","system_id":"levelo_inurba_marseille","lat":43.23162,"lon":5.43698,"is_reserved":false,"is_disabled":false,"rental_uris":{"android":"levelo://app?vid=f02a77b8-f810-41ff-bf5b-5ab742b469a7","ios":"levelo://app?vid=f02a77b8-f810-41ff-bf5b-5ab742b469a7"},"vehicle_type_id":"4","last_reported":1742829048,"current_range_meters":8800,"station_id":"ce4bhmp2rcd13ifvqgog","pricing_plan_id":"cebpf4jnsgd1na2vs0mg"},{"bike_id":"ae1ad690-e913-4913-972d-0b1a32135efb","system_id":"levelo_inurba_marseille","lat":43.29559,"lon":5.42293,"is_reserved":false,"is_disabled":false,"rental_uris":{"android":"levelo://app?vid=ae1ad690-e913-4913-972d-0b1a32135efb","ios":"levelo://app?vid=ae1ad690-e913-4913-972d-0b1a32135efb"},"vehicle_type_id":"4","last_reported":1742829048,"current_range_meters":8800,"station_id":"ce4bhph2rcd13ifvqhdg","pricing_plan_id":"cebpf4jnsgd1na2vs0mg"},{"bike_id":"16197ca0-4ec3-4d87-a1a4-3a5090ee4bd7","system_id":"levelo_inurba_marseille","lat":43.26494,"lon":5.39553,"is_reserved":false,"is_disabled":false,"rental_uris":{"android":"levelo://app?vid=16197ca0-4ec3-4d87-a1a4-3a5090ee4bd7","ios":"levelo://app?vid=16197ca0-4ec3-4d87-a1a4-3a5090ee4bd7"},"vehicle_type_id":"4","last_reported":1742829048,"current_range_meters":8800,"station_id":"ce4bhi12rcd13ifvqfq0","pricing_plan_id":"cebpf4jnsgd1na2vs0mg"},{"bike_id":"c77ba74c-34b4-4065-8232-671a3f8577ef","system_id":"levelo_inurba_marseille","lat":43.26202,"lon":5.37914,"is_reserved":false,"is_disabled":false,"rental_uris":{"android":"levelo://app?vid=c77ba74c-34b4-4065-8232-671a3f8577ef","ios":"levelo://app?vid=c77ba74c-34b4-4065-8232-671a3f8577ef"},"vehicle_type_id":"4","last_reported":1742829048,"current_range_meters":8800,"station_id":"ce4bhjp2rcd13ifvqg90","pricing_plan_id":"cebpf4jnsgd1na2vs0mg"},{"bike_id":"407ffa23-81dd-45a3-8f35-d81fff7856cd","system_id":"levelo_inurba_marseille","lat":43.29416,"lon":5.38631,"is_reserved":false,"is_disabled":false,"rental_uris":{"android":"levelo://app?vid=407ffa23-81dd-45a3-8f35-d81fff7856cd","ios":"levelo://app?vid=407ffa23-81dd-45a3-8f35-d81fff7856cd"},"vehicle_type_id":"4","last_reported":1742829048,"current_range_meters":8800,"station_id":"ce4bh2h2rcd13ifvqdh0","pricing_plan_id":"cebpf4jnsgd1na2vs0mg"},{"bike_id":"a3b53d74-e227-48c7-b25c-96bdd07876eb","system_id":"levelo_inurba_marseille","lat":43.28568,"lon":5.395,"is_reserved":false,"is_disabled":false,"rental_uris":{"android":"levelo://app?vid=a3b53d74-e227-48c7-b25c-96bdd07876eb","ios":"levelo://app?vid=a3b53d74-e227-48c7-b25c-96bdd07876eb"},"vehicle_type_id":"4","last_reported":1742829048,"current_range_meters":8800,"station_id":"ce4bh292rcd13ifvqdg0","pricing_plan_id":"cebpf4jnsgd1na2vs0mg"},{"bike_id":"c30afd7d-cb48-49a6-b53e-40accfb6cd27","system_id":"levelo_inurba_marseille","lat":43.30897,"lon":5.36864,"is_reserved":false,"is_disabled":false,"rental_uris":{"android":"levelo://app?vid=c30afd7d-cb48-49a6-b53e-40accfb6cd27","ios":"levelo://app?vid=c30afd7d-cb48-49a6-b53e-40accfb6cd27"},"vehicle_type_id":"4","last_reported":1742829048,"current_range_meters":8800,"station_id":"ce4bgn92rcd13ifvqbvg","pricing_plan_id":"cebpf4jnsgd1na2vs0mg"},{"bike_id":"1aba9a78-8fc5-4a31-bede-c58259f94087","system_id":"levelo_inurba_marseille","lat":43.25941,"lon":5.40913,"is_reserved":false,"is_disabled":false,"rental_uris":{"android":"levelo://app?vid=1aba9a78-8fc5-4a31-bede-c58259f94087","ios":"levelo://app?vid=1aba9a78-8fc5-4a31-bede-c58259f94087"},"vehicle_type_id":"4","last_reported":1742829048,"current_range_meters":9200,"station_id":"ce4bhm92rcd13ifvqglg","pricing_plan_id":"cebpf4jnsgd1na2vs0mg"},{"bike_id":"f89a8459-ea94-45a4-bde6-ea3c74f18d91","system_id":"levelo_inurba_marseille","lat":43.26496,"lon":5.39538,"is_reserved":false,"is_disabled":false,"rental_uris":{"android":"levelo://app?vid=f89a8459-ea94-45a4-bde6-ea3c74f18d91","ios":"levelo://app?vid=f89a8459-ea94-45a4-bde6-ea3c74f18d91"},"vehicle_type_id":"4","last_reported":1742829048,"current_range_meters":9200,"station_id":"ce4bhi12rcd13ifvqfq0","pricing_plan_id":"cebpf4jnsgd1na2vs0mg"},{"bike_id":"d931dbf0-8738-43f6-a633-a9ee4ba933c1","system_id":"levelo_inurba_marseille","lat":43.25939,"lon":5.40885,"is_reserved":false,"is_disabled":false,"rental_uris":{"android":"levelo://app?vid=d931dbf0-8738-43f6-a633-a9ee4ba933c1","ios":"levelo://app?vid=d931dbf0-8738-43f6-a633-a9ee4ba933c1"},"vehicle_type_id":"4","last_reported":1742829048,"current_range_meters":9200,"station_id":"ce4bhm92rcd13ifvqglg","pricing_plan_id":"cebpf4jnsgd1na2vs0mg"},{"bike_id":"cb64a25b-57b9-43b7-80d5-3c2dff383d4c","system_id":"levelo_inurba_marseille","lat":43.25945,"lon":5.40906,"is_reserved":false,"is_disabled":false,"rental_uris":{"android":"levelo://app?vid=cb64a25b-57b9-43b7-80d5-3c2dff383d4c","ios":"levelo://app?vid=cb64a25b-57b9-43b7-80d5-3c2dff383d4c"},"vehicle_type_id":"4","last_reported":1742829048,"current_range_meters":9200,"station_id":"ce4bhm92rcd13ifvqglg","pricing_plan_id":"cebpf4jnsgd1na2vs0mg"},{"bike_id":"e72b5f3d-2f7a-48d3-bd86-9adb488911ae","system_id":"levelo_inurba_marseille","lat":43.311677,"lon":5.387185,"is_reserved":false,"is_disabled":false,"rental_uris":{"android":"levelo://app?vid=e72b5f3d-2f7a-48d3-bd86-9adb488911ae","ios":"levelo://app?vid=e72b5f3d-2f7a-48d3-bd86-9adb488911ae"},"vehicle_type_id":"4","last_reported":1742829048,"current_range_meters":9200,"station_id":"ce4bgv12rcd13ifvqcp0","pricing_plan_id":"cebpf4jnsgd1na2vs0mg"},{"bike_id":"79c00366-4c08-4b3d-b383-9a78c91f8bd4","system_id":"levelo_inurba_marseille","lat":43.31111,"lon":5.37784,"is_reserved":false,"is_disabled":false,"rental_uris":{"android":"levelo://app?vid=79c00366-4c08-4b3d-b383-9a78c91f8bd4","ios":"levelo://app?vid=79c00366-4c08-4b3d-b383-9a78c91f8bd4"},"vehicle_type_id":"4","last_reported":1742829048,"current_range_meters":9200,"station_id":"ce4bgt92rcd13ifvqcg0","pricing_plan_id":"cebpf4jnsgd1na2vs0mg"},{"bike_id":"b5e7f36a-a4fa-46aa-838b-6317397880b2","system_id":"levelo_inurba_marseille","lat":43.30419,"lon":5.4129,"is_reserved":false,"is_disabled":false,"rental_uris":{"android":"levelo://app?vid=b5e7f36a-a4fa-46aa-838b-6317397880b2","ios":"levelo://app?vid=b5e7f36a-a4fa-46aa-838b-6317397880b2"},"vehicle_type_id":"4","last_reported":1742829048,"current_range_meters":9200,"station_id":"ce4bhop2rcd13ifvqh8g","pricing_plan_id":"cebpf4jnsgd1na2vs0mg"},{"bike_id":"e6b54422-434c-4428-8c2d-af4ee9296026","system_id":"levelo_inurba_marseille","lat":43.27564,"lon":5.38426,"is_reserved":false,"is_disabled":false,"rental_uris":{"android":"levelo://app?vid=e6b54422-434c-4428-8c2d-af4ee9296026","ios":"levelo://app?vid=e6b54422-434c-4428-8c2d-af4ee9296026"},"vehicle_type_id":"4","last_reported":1742829048,"current_range_meters":9200,"station_id":"ce4bhh92rcd13ifvqfi0","pricing_plan_id":"cebpf4jnsgd1na2vs0mg"},{"bike_id":"c6aa4e03-bea3-4395-8e45-8fd6af0fbe54","system_id":"levelo_inurba_marseille","lat":43.29907,"lon":5.38142,"is_reserved":false,"is_disabled":false,"rental_uris":{"android":"levelo://app?vid=c6aa4e03-bea3-4395-8e45-8fd6af0fbe54","ios":"levelo://app?vid=c6aa4e03-bea3-4395-8e45-8fd6af0fbe54"},"vehicle_type_id":"4","last_reported":1742829048,"current_range_meters":9200,"station_id":"ce4bgj12rcd13ifvqbc0","pricing_plan_id":"cebpf4jnsgd1na2vs0mg"},{"bike_id":"64387bc2-b358-40d4-a761-76da30708a3c","system_id":"levelo_inurba_marseille","lat":43.25623,"lon":5.40785,"is_reserved":false,"is_disabled":false,"rental_uris":{"android":"levelo://app?vid=64387bc2-b358-40d4-a761-76da30708a3c","ios":"levelo://app?vid=64387bc2-b358-40d4-a761-76da30708a3c"},"vehicle_type_id":"4","last_reported":1742829048,"current_range_meters":9600,"station_id":"","pricing_plan_id":"cebpf4jnsgd1na2vs0mg"},{"bike_id":"19c4d38c-721f-4a6d-8de0-ad162aee3dc3","system_id":"levelo_inurba_marseille","lat":43.29863,"lon":5.38905,"is_reserved":false,"is_disabled":true,"rental_uris":{"android":"levelo://app?vid=19c4d38c-721f-4a6d-8de0-ad162aee3dc3","ios":"levelo://app?vid=19c4d38c-721f-4a6d-8de0-ad162aee3dc3"},"vehicle_type_id":"4","last_reported":1742829048,"current_range_meters":9600,"station_id":"ce4bh392rcd13ifvqdl0","pricing_plan_id":"cebpf4jnsgd1na2vs0mg"},{"bike_id":"42a0b69b-f29a-4ea2-80ed-6573bad37aeb","system_id":"levelo_inurba_marseille","lat":43.24535,"lon":5.39518,"is_reserved":false,"is_disabled":false,"rental_uris":{"android":"levelo://app?vid=42a0b69b-f29a-4ea2-80ed-6573bad37aeb","ios":"levelo://app?vid=42a0b69b-f29a-4ea2-80ed-6573bad37aeb"},"vehicle_type_id":"4","last_reported":1742829048,"current_range_meters":9600,"station_id":"ce4bhlp2rcd13ifvqgjg","pricing_plan_id":"cebpf4jnsgd1na2vs0mg"},{"bike_id":"b3862822-9813-4fae-ae3d-422295d92943","system_id":"levelo_inurba_marseille","lat":43.25579,"lon":5.38247,"is_reserved":false,"is_disabled":false,"rental_uris":{"android":"levelo://app?vid=b3862822-9813-4fae-ae3d-422295d92943","ios":"levelo://app?vid=b3862822-9813-4fae-ae3d-422295d92943"},"vehicle_type_id":"4","last_reported":1742829048,"current_range_meters":9600,"station_id":"ce4bhih2rcd13ifvqfs0","pricing_plan_id":"cebpf4jnsgd1na2vs0mg"},{"bike_id":"33a639ab-5d5a-412e-b5c7-5e656a9188fe","system_id":"levelo_inurba_marseille","lat":43.28481,"lon":5.38437,"is_reserved":false,"is_disabled":false,"rental_uris":{"android":"levelo://app?vid=33a639ab-5d5a-412e-b5c7-5e656a9188fe","ios":"levelo://app?vid=33a639ab-5d5a-412e-b5c7-5e656a9188fe"},"vehicle_type_id":"4","last_reported":1742829048,"current_range_meters":9600,"station_id":"ce4bh512rcd13ifvqe3g","pricing_plan_id":"cebpf4jnsgd1na2vs0mg"},{"bike_id":"8bd258a4-1c03-4cba-a842-fe6d9e7a8056","system_id":"levelo_inurba_marseille","lat":43.31474,"lon":5.37264,"is_reserved":false,"is_disabled":false,"rental_uris":{"android":"levelo://app?vid=8bd258a4-1c03-4cba-a842-fe6d9e7a8056","ios":"levelo://app?vid=8bd258a4-1c03-4cba-a842-fe6d9e7a8056"},"vehicle_type_id":"4","last_reported":1742829048,"current_range_meters":10000,"station_id":"ce4bgt12rcd13ifvqcd0","pricing_plan_id":"cebpf4jnsgd1na2vs0mg"},{"bike_id":"2462aff4-312c-46a9-ae18-d864ef42c20c","system_id":"levelo_inurba_marseille","lat":43.24169,"lon":5.36407,"is_reserved":false,"is_disabled":false,"rental_uris":{"android":"levelo://app?vid=2462aff4-312c-46a9-ae18-d864ef42c20c","ios":"levelo://app?vid=2462aff4-312c-46a9-ae18-d864ef42c20c"},"vehicle_type_id":"4","last_reported":1742829048,"current_range_meters":10000,"station_id":"cpo36qri1sfpv3e86is0","pricing_plan_id":"cebpf4jnsgd1na2vs0mg"},{"bike_id":"ccf8a1dd-0c19-4833-b28c-a69ed1663f24","system_id":"levelo_inurba_marseille","lat":43.30546,"lon":5.36537,"is_reserved":false,"is_disabled":false,"rental_uris":{"android":"levelo://app?vid=ccf8a1dd-0c19-4833-b28c-a69ed1663f24","ios":"levelo://app?vid=ccf8a1dd-0c19-4833-b28c-a69ed1663f24"},"vehicle_type_id":"4","last_reported":1742829048,"current_range_meters":10000,"station_id":"ce4bgs12rcd13ifvqcag","pricing_plan_id":"cebpf4jnsgd1na2vs0mg"},{"bike_id":"4db7f2fa-c3ca-4108-ad58-1644c419963f","system_id":"levelo_inurba_marseille","lat":43.23152,"lon":5.43704,"is_reserved":false,"is_disabled":false,"rental_uris":{"android":"levelo://app?vid=4db7f2fa-c3ca-4108-ad58-1644c419963f","ios":"levelo://app?vid=4db7f2fa-c3ca-4108-ad58-1644c419963f"},"vehicle_type_id":"4","last_reported":1742829048,"current_range_meters":10000,"station_id":"ce4bhmp2rcd13ifvqgog","pricing_plan_id":"cebpf4jnsgd1na2vs0mg"},{"bike_id":"55f1f2c3-825e-425b-ba44-69b7011944ae","system_id":"levelo_inurba_marseille","lat":43.26059,"lon":5.39391,"is_reserved":false,"is_disabled":false,"rental_uris":{"android":"levelo://app?vid=55f1f2c3-825e-425b-ba44-69b7011944ae","ios":"levelo://app?vid=55f1f2c3-825e-425b-ba44-69b7011944ae"},"vehicle_type_id":"4","last_reported":1742829048,"current_range_meters":10000,"station_id":"ce4bhh92rcd13ifvqfj0","pricing_plan_id":"cebpf4jnsgd1na2vs0mg"},{"bike_id":"23a4fe51-6c94-4cb2-943f-ded8ea7984b0","system_id":"levelo_inurba_marseille","lat":43.25582,"lon":5.38238,"is_reserved":false,"is_disabled":false,"rental_uris":{"android":"levelo://app?vid=23a4fe51-6c94-4cb2-943f-ded8ea7984b0","ios":"levelo://app?vid=23a4fe51-6c94-4cb2-943f-ded8ea7984b0"},"vehicle_type_id":"4","last_reported":1742829048,"current_range_meters":10000,"station_id":"ce4bhih2rcd13ifvqfs0","pricing_plan_id":"cebpf4jnsgd1na2vs0mg"},{"bike_id":"6ec57d6b-0815-464b-85dc-b61de02f8b52","system_id":"levelo_inurba_marseille","lat":43.29904,"lon":5.38145,"is_reserved":false,"is_disabled":false,"rental_uris":{"android":"levelo://app?vid=6ec57d6b-0815-464b-85dc-b61de02f8b52","ios":"levelo://app?vid=6ec57d6b-0815-464b-85dc-b61de02f8b52"},"vehicle_type_id":"4","last_reported":1742829048,"current_range_meters":10800,"station_id":"ce4bgj12rcd13ifvqbc0","pricing_plan_id":"cebpf4jnsgd1na2vs0mg"},{"bike_id":"96d20b3d-7138-4d9e-a36f-8d41d1e93ef4","system_id":"levelo_inurba_marseille","lat":43.3078,"lon":5.3764,"is_reserved":false,"is_disabled":false,"rental_uris":{"android":"levelo://app?vid=96d20b3d-7138-4d9e-a36f-8d41d1e93ef4","ios":"levelo://app?vid=96d20b3d-7138-4d9e-a36f-8d41d1e93ef4"},"vehicle_type_id":"4","last_reported":1742829048,"current_range_meters":10000,"station_id":"ce4bgv92rcd13ifvqcq0","pricing_plan_id":"cebpf4jnsgd1na2vs0mg"},{"bike_id":"1b8779ee-15bd-411f-8230-66fb3b9d06b8","system_id":"levelo_inurba_marseille","lat":43.299,"lon":5.43676,"is_reserved":false,"is_disabled":false,"rental_uris":{"android":"levelo://app?vid=1b8779ee-15bd-411f-8230-66fb3b9d06b8","ios":"levelo://app?vid=1b8779ee-15bd-411f-8230-66fb3b9d06b8"},"vehicle_type_id":"4","last_reported":1742829048,"current_range_meters":10800,"station_id":"ce4bhpp2rcd13ifvqhfg","pricing_plan_id":"cebpf4jnsgd1na2vs0mg"},{"bike_id":"377d7d22-3799-4300-ab5b-978f97012045","system_id":"levelo_inurba_marseille","lat":43.301752,"lon":5.401196,"is_reserved":false,"is_disabled":false,"rental_uris":{"android":"levelo://app?vid=377d7d22-3799-4300-ab5b-978f97012045","ios":"levelo://app?vid=377d7d22-3799-4300-ab5b-978f97012045"},"vehicle_type_id":"4","last_reported":1742829048,"current_range_meters":10800,"station_id":"ce4bh012rcd13ifvqd10","pricing_plan_id":"cebpf4jnsgd1na2vs0mg"},{"bike_id":"613ecfbb-1918-4458-ba73-07272641a8cc","system_id":"levelo_inurba_marseille","lat":43.30296,"lon":5.36887,"is_reserved":false,"is_disabled":false,"rental_uris":{"android":"levelo://app?vid=613ecfbb-1918-4458-ba73-07272641a8cc","ios":"levelo://app?vid=613ecfbb-1918-4458-ba73-07272641a8cc"},"vehicle_type_id":"4","last_reported":1742829048,"current_range_meters":10800,"station_id":"ce4bgqh2rcd13ifvqc5g","pricing_plan_id":"cebpf4jnsgd1na2vs0mg"},{"bike_id":"30f3104d-0bc9-418a-aed0-26f343dc0cdf","system_id":"levelo_inurba_marseille","lat":43.24172,"lon":5.3973,"is_reserved":false,"is_disabled":false,"rental_uris":{"android":"levelo://app?vid=30f3104d-0bc9-418a-aed0-26f343dc0cdf","ios":"levelo://app?vid=30f3104d-0bc9-418a-aed0-26f343dc0cdf"},"vehicle_type_id":"4","last_reported":1742829048,"current_range_meters":10800,"station_id":"ce4bhn12rcd13ifvqgpg","pricing_plan_id":"cebpf4jnsgd1na2vs0mg"},{"bike_id":"d6b9068b-bec0-4f76-9c03-273151aa3d54","system_id":"levelo_inurba_marseille","lat":43.26566,"lon":5.37253,"is_reserved":false,"is_disabled":false,"rental_uris":{"android":"levelo://app?vid=d6b9068b-bec0-4f76-9c03-273151aa3d54","ios":"levelo://app?vid=d6b9068b-bec0-4f76-9c03-273151aa3d54"},"vehicle_type_id":"4","last_reported":1742829048,"current_range_meters":10800,"station_id":"ce4bhg12rcd13ifvqf70","pricing_plan_id":"cebpf4jnsgd1na2vs0mg"},{"bike_id":"d7951635-b4d8-40f9-aaf4-5ffc201826aa","system_id":"levelo_inurba_marseille","lat":43.28273,"lon":5.35064,"is_reserved":false,"is_disabled":false,"rental_uris":{"android":"levelo://app?vid=d7951635-b4d8-40f9-aaf4-5ffc201826aa","ios":"levelo://app?vid=d7951635-b4d8-40f9-aaf4-5ffc201826aa"},"vehicle_type_id":"4","last_reported":1742829048,"current_range_meters":14000,"station_id":"ce4bhbp2rcd13ifvqerg","pricing_plan_id":"cebpf4jnsgd1na2vs0mg"},{"bike_id":"544d82a1-fcad-4499-9db7-4c138e31462b","system_id":"levelo_inurba_marseille","lat":43.26686,"lon":5.38273,"is_reserved":false,"is_disabled":false,"rental_uris":{"android":"levelo://app?vid=544d82a1-fcad-4499-9db7-4c138e31462b","ios":"levelo://app?vid=544d82a1-fcad-4499-9db7-4c138e31462b"},"vehicle_type_id":"4","last_reported":1742829048,"current_range_meters":11200,"station_id":"ce4bhg92rcd13ifvqf90","pricing_plan_id":"cebpf4jnsgd1na2vs0mg"},{"bike_id":"43857a9c-9951-4290-ba7b-d57b5d31a76e","system_id":"levelo_inurba_marseille","lat":43.25932,"lon":5.40911,"is_reserved":false,"is_disabled":false,"rental_uris":{"android":"levelo://app?vid=43857a9c-9951-4290-ba7b-d57b5d31a76e","ios":"levelo://app?vid=43857a9c-9951-4290-ba7b-d57b5d31a76e"},"vehicle_type_id":"4","last_reported":1742829048,"current_range_meters":11200,"station_id":"ce4bhm92rcd13ifvqglg","pricing_plan_id":"cebpf4jnsgd1na2vs0mg"},{"bike_id":"f64a5f06-bff4-4284-a64d-ce271f664dc4","system_id":"levelo_inurba_marseille","lat":43.26152,"lon":5.40571,"is_reserved":false,"is_disabled":false,"rental_uris":{"android":"levelo://app?vid=f64a5f06-bff4-4284-a64d-ce271f664dc4","ios":"levelo://app?vid=f64a5f06-bff4-4284-a64d-ce271f664dc4"},"vehicle_type_id":"4","last_reported":1742829048,"current_range_meters":11200,"station_id":"","pricing_plan_id":"cebpf4jnsgd1na2vs0mg"},{"bike_id":"a0d4632a-7a87-4031-aeeb-061ca0feaca6","system_id":"levelo_inurba_marseille","lat":43.23957,"lon":5.36628,"is_reserved":false,"is_disabled":false,"rental_uris":{"android":"levelo://app?vid=a0d4632a-7a87-4031-aeeb-061ca0feaca6","ios":"levelo://app?vid=a0d4632a-7a87-4031-aeeb-061ca0feaca6"},"vehicle_type_id":"4","last_reported":1742829048,"current_range_meters":11600,"station_id":"ce4bhi12rcd13ifvqfp0","pricing_plan_id":"cebpf4jnsgd1na2vs0mg"},{"bike_id":"2deda760-6165-473c-8cfc-bfebe83e945e","system_id":"levelo_inurba_marseille","lat":43.3028,"lon":5.37708,"is_reserved":false,"is_disabled":false,"rental_uris":{"android":"levelo://app?vid=2deda760-6165-473c-8cfc-bfebe83e945e","ios":"levelo://app?vid=2deda760-6165-473c-8cfc-bfebe83e945e"},"vehicle_type_id":"4","last_reported":1742829048,"current_range_meters":11600,"station_id":"ce4bguh2rcd13ifvqcj0","pricing_plan_id":"cebpf4jnsgd1na2vs0mg"},{"bike_id":"c9c19aa6-3fe4-401b-ab2c-9612f3df5e72","system_id":"levelo_inurba_marseille","lat":43.30971,"lon":5.39045,"is_reserved":false,"is_disabled":true,"rental_uris":{"android":"levelo://app?vid=c9c19aa6-3fe4-401b-ab2c-9612f3df5e72","ios":"levelo://app?vid=c9c19aa6-3fe4-401b-ab2c-9612f3df5e72"},"vehicle_type_id":"4","last_reported":1742829048,"current_range_meters":11600,"station_id":"ce4bgup2rcd13ifvqco0","pricing_plan_id":"cebpf4jnsgd1na2vs0mg"},{"bike_id":"5f372f12-9466-4a7c-abdf-ab9a95ba911c","system_id":"levelo_inurba_marseille","lat":43.32541,"lon":5.41424,"is_reserved":false,"is_disabled":false,"rental_uris":{"android":"levelo://app?vid=5f372f12-9466-4a7c-abdf-ab9a95ba911c","ios":"levelo://app?vid=5f372f12-9466-4a7c-abdf-ab9a95ba911c"},"vehicle_type_id":"4","last_reported":1742829048,"current_range_meters":11600,"station_id":"ce4bhq12rcd13ifvqhhg","pricing_plan_id":"cebpf4jnsgd1na2vs0mg"},{"bike_id":"b6436c43-56ac-4fd1-9943-8734dfda4e24","system_id":"levelo_inurba_marseille","lat":43.30894,"lon":5.37213,"is_reserved":false,"is_disabled":false,"rental_uris":{"android":"levelo://app?vid=b6436c43-56ac-4fd1-9943-8734dfda4e24","ios":"levelo://app?vid=b6436c43-56ac-4fd1-9943-8734dfda4e24"},"vehicle_type_id":"4","last_reported":1742829048,"current_range_meters":11600,"station_id":"ce4bguh2rcd13ifvqckg","pricing_plan_id":"cebpf4jnsgd1na2vs0mg"},{"bike_id":"ebf86de8-a3f7-4563-b9cd-62f5316ef4ec","system_id":"levelo_inurba_marseille","lat":43.30918,"lon":5.40165,"is_reserved":false,"is_disabled":true,"rental_uris":{"android":"levelo://app?vid=ebf86de8-a3f7-4563-b9cd-62f5316ef4ec","ios":"levelo://app?vid=ebf86de8-a3f7-4563-b9cd-62f5316ef4ec"},"vehicle_type_id":"4","last_reported":1742829048,"current_range_meters":12000,"station_id":"ce4bgvp2rcd13ifvqct0","pricing_plan_id":"cebpf4jnsgd1na2vs0mg"},{"bike_id":"a1bffd04-9d27-4590-b5e4-b2d0054852b1","system_id":"levelo_inurba_marseille","lat":43.27897,"lon":5.38005,"is_reserved":false,"is_disabled":false,"rental_uris":{"android":"levelo://app?vid=a1bffd04-9d27-4590-b5e4-b2d0054852b1","ios":"levelo://app?vid=a1bffd04-9d27-4590-b5e4-b2d0054852b1"},"vehicle_type_id":"4","last_reported":1742829048,"current_range_meters":12000,"station_id":"ce4bhf92rcd13ifvqf50","pricing_plan_id":"cebpf4jnsgd1na2vs0mg"},{"bike_id":"bf0ba78f-20af-4582-b53c-41c951c5a7aa","system_id":"levelo_inurba_marseille","lat":43.26558,"lon":5.37282,"is_reserved":false,"is_disabled":false,"rental_uris":{"android":"levelo://app?vid=bf0ba78f-20af-4582-b53c-41c951c5a7aa","ios":"levelo://app?vid=bf0ba78f-20af-4582-b53c-41c951c5a7aa"},"vehicle_type_id":"4","last_reported":1742829048,"current_range_meters":12000,"station_id":"ce4bhg12rcd13ifvqf70","pricing_plan_id":"cebpf4jnsgd1na2vs0mg"},{"bike_id":"f30f800e-d751-4e0e-aa8f-c3c38f61ac42","system_id":"levelo_inurba_marseille","lat":43.28173,"lon":5.42613,"is_reserved":false,"is_disabled":false,"rental_uris":{"android":"levelo://app?vid=f30f800e-d751-4e0e-aa8f-c3c38f61ac42","ios":"levelo://app?vid=f30f800e-d751-4e0e-aa8f-c3c38f61ac42"},"vehicle_type_id":"4","last_reported":1742829048,"current_range_meters":12000,"station_id":"ce4bhnh2rcd13ifvqgug","pricing_plan_id":"cebpf4jnsgd1na2vs0mg"},{"bike_id":"a0d05f03-0e02-4b04-8fa4-3561235d49f8","system_id":"levelo_inurba_marseille","lat":43.289278,"lon":5.38399,"is_reserved":false,"is_disabled":true,"rental_uris":{"android":"levelo://app?vid=a0d05f03-0e02-4b04-8fa4-3561235d49f8","ios":"levelo://app?vid=a0d05f03-0e02-4b04-8fa4-3561235d49f8"},"vehicle_type_id":"4","last_reported":1742829048,"current_range_meters":12400,"station_id":"ce4bh612rcd13ifvqe6g","pricing_plan_id":"cebpf4jnsgd1na2vs0mg"},{"bike_id":"91f0f6c2-0405-4371-b666-668a4a1b7826","system_id":"levelo_inurba_marseille","lat":43.26807,"lon":5.40257,"is_reserved":false,"is_disabled":false,"rental_uris":{"android":"levelo://app?vid=91f0f6c2-0405-4371-b666-668a4a1b7826","ios":"levelo://app?vid=91f0f6c2-0405-4371-b666-668a4a1b7826"},"vehicle_type_id":"4","last_reported":1742829048,"current_range_meters":12400,"station_id":"ce501612rcd8frsf0b60","pricing_plan_id":"cebpf4jnsgd1na2vs0mg"},{"bike_id":"61c40f80-195b-4b57-97ff-cb98d563320f","system_id":"levelo_inurba_marseille","lat":43.259448,"lon":5.409096,"is_reserved":false,"is_disabled":false,"rental_uris":{"android":"levelo://app?vid=61c40f80-195b-4b57-97ff-cb98d563320f","ios":"levelo://app?vid=61c40f80-195b-4b57-97ff-cb98d563320f"},"vehicle_type_id":"4","last_reported":1742829048,"current_range_meters":12400,"station_id":"ce4bhm92rcd13ifvqglg","pricing_plan_id":"cebpf4jnsgd1na2vs0mg"},{"bike_id":"42e12277-2404-40c1-a358-f3ca2810181d","system_id":"levelo_inurba_marseille","lat":43.298536,"lon":5.362924,"is_reserved":false,"is_disabled":false,"rental_uris":{"android":"levelo://app?vid=42e12277-2404-40c1-a358-f3ca2810181d","ios":"levelo://app?vid=42e12277-2404-40c1-a358-f3ca2810181d"},"vehicle_type_id":"4","last_reported":1742829048,"current_range_meters":12400,"station_id":"ce4bgpp2rcd13ifvqc3g","pricing_plan_id":"cebpf4jnsgd1na2vs0mg"},{"bike_id":"096ad39d-e918-4f56-8901-bb10d5050e3f","system_id":"levelo_inurba_marseille","lat":43.239577,"lon":5.366351,"is_reserved":false,"is_disabled":false,"rental_uris":{"android":"levelo://app?vid=096ad39d-e918-4f56-8901-bb10d5050e3f","ios":"levelo://app?vid=096ad39d-e918-4f56-8901-bb10d5050e3f"},"vehicle_type_id":"4","last_reported":1742829048,"current_range_meters":12400,"station_id":"ce4bhi12rcd13ifvqfp0","pricing_plan_id":"cebpf4jnsgd1na2vs0mg"},{"bike_id":"8bf55d63-ba4d-402c-bd9d-bdc7c121fb68","system_id":"levelo_inurba_marseille","lat":43.26786,"lon":5.39411,"is_reserved":false,"is_disabled":false,"rental_uris":{"android":"levelo://app?vid=8bf55d63-ba4d-402c-bd9d-bdc7c121fb68","ios":"levelo://app?vid=8bf55d63-ba4d-402c-bd9d-bdc7c121fb68"},"vehicle_type_id":"4","last_reported":1742829048,"current_range_meters":12000,"station_id":"ce4bhh12rcd13ifvqfg0","pricing_plan_id":"cebpf4jnsgd1na2vs0mg"},{"bike_id":"101bc69d-0320-498e-abbd-f015caeb447c","system_id":"levelo_inurba_marseille","lat":43.23079,"lon":5.35488,"is_reserved":false,"is_disabled":false,"rental_uris":{"android":"levelo://app?vid=101bc69d-0320-498e-abbd-f015caeb447c","ios":"levelo://app?vid=101bc69d-0320-498e-abbd-f015caeb447c"},"vehicle_type_id":"4","last_reported":1742829048,"current_range_meters":12400,"station_id":"cpo3342slgdg3j2ifvpg","pricing_plan_id":"cebpf4jnsgd1na2vs0mg"},{"bike_id":"6cbc8274-cd66-4fd6-b018-1e2e1042c9a5","system_id":"levelo_inurba_marseille","lat":43.30814,"lon":5.37656,"is_reserved":false,"is_disabled":false,"rental_uris":{"android":"levelo://app?vid=6cbc8274-cd66-4fd6-b018-1e2e1042c9a5","ios":"levelo://app?vid=6cbc8274-cd66-4fd6-b018-1e2e1042c9a5"},"vehicle_type_id":"4","last_reported":1742829048,"current_range_meters":12400,"station_id":"ce4bgv92rcd13ifvqcq0","pricing_plan_id":"cebpf4jnsgd1na2vs0mg"},{"bike_id":"b80cef71-9250-491f-bbd3-83ef9ed785b3","system_id":"levelo_inurba_marseille","lat":43.27624,"lon":5.38887,"is_reserved":false,"is_disabled":false,"rental_uris":{"android":"levelo://app?vid=b80cef71-9250-491f-bbd3-83ef9ed785b3","ios":"levelo://app?vid=b80cef71-9250-491f-bbd3-83ef9ed785b3"},"vehicle_type_id":"4","last_reported":1742829048,"current_range_meters":12400,"station_id":"","pricing_plan_id":"cebpf4jnsgd1na2vs0mg"},{"bike_id":"7bccb69e-9287-43a5-9160-e5fc629ea8ff","system_id":"levelo_inurba_marseille","lat":43.31223,"lon":5.36857,"is_reserved":false,"is_disabled":false,"rental_uris":{"android":"levelo://app?vid=7bccb69e-9287-43a5-9160-e5fc629ea8ff","ios":"levelo://app?vid=7bccb69e-9287-43a5-9160-e5fc629ea8ff"},"vehicle_type_id":"4","last_reported":1742829048,"current_range_meters":12400,"station_id":"ce4bgl92rcd13ifvqbq0","pricing_plan_id":"cebpf4jnsgd1na2vs0mg"},{"bike_id":"2303188e-5084-448f-b61b-710ed23259c3","system_id":"levelo_inurba_marseille","lat":43.32116,"lon":5.36777,"is_reserved":false,"is_disabled":false,"rental_uris":{"android":"levelo://app?vid=2303188e-5084-448f-b61b-710ed23259c3","ios":"levelo://app?vid=2303188e-5084-448f-b61b-710ed23259c3"},"vehicle_type_id":"4","last_reported":1742829048,"current_range_meters":12400,"station_id":"ce4bhrh2rcd13ifvqhug","pricing_plan_id":"cebpf4jnsgd1na2vs0mg"},{"bike_id":"28adbaf9-2292-441a-97e9-b0326e441f77","system_id":"levelo_inurba_marseille","lat":43.30558,"lon":5.36553,"is_reserved":false,"is_disabled":false,"rental_uris":{"android":"levelo://app?vid=28adbaf9-2292-441a-97e9-b0326e441f77","ios":"levelo://app?vid=28adbaf9-2292-441a-97e9-b0326e441f77"},"vehicle_type_id":"4","last_reported":1742829048,"current_range_meters":12400,"station_id":"ce4bgs12rcd13ifvqcag","pricing_plan_id":"cebpf4jnsgd1na2vs0mg"},{"bike_id":"baaa6aec-2035-45cb-bcbc-08a6e3c0dda7","system_id":"levelo_inurba_marseille","lat":43.23668,"lon":5.37758,"is_reserved":false,"is_disabled":false,"rental_uris":{"android":"levelo://app?vid=baaa6aec-2035-45cb-bcbc-08a6e3c0dda7","ios":"levelo://app?vid=baaa6aec-2035-45cb-bcbc-08a6e3c0dda7"},"vehicle_type_id":"4","last_reported":1742829048,"current_range_meters":12800,"station_id":"","pricing_plan_id":"cebpf4jnsgd1na2vs0mg"},{"bike_id":"756560e7-8557-4afa-bf9c-2451a50f806b","system_id":"levelo_inurba_marseille","lat":43.28492,"lon":5.38406,"is_reserved":false,"is_disabled":false,"rental_uris":{"android":"levelo://app?vid=756560e7-8557-4afa-bf9c-2451a50f806b","ios":"levelo://app?vid=756560e7-8557-4afa-bf9c-2451a50f806b"},"vehicle_type_id":"4","last_reported":1742829048,"current_range_meters":12800,"station_id":"ce4bh512rcd13ifvqe3g","pricing_plan_id":"cebpf4jnsgd1na2vs0mg"},{"bike_id":"1b399c6e-8a04-4d59-9823-9b00274e263f","system_id":"levelo_inurba_marseille","lat":43.28737,"lon":5.36059,"is_reserved":false,"is_disabled":false,"rental_uris":{"android":"levelo://app?vid=1b399c6e-8a04-4d59-9823-9b00274e263f","ios":"levelo://app?vid=1b399c6e-8a04-4d59-9823-9b00274e263f"},"vehicle_type_id":"4","last_reported":1742829048,"current_range_meters":12800,"station_id":"cki0cbj6b192h4jlfktg","pricing_plan_id":"cebpf4jnsgd1na2vs0mg"},{"bike_id":"b832ecab-d515-4076-9966-61c664c7855d","system_id":"levelo_inurba_marseille","lat":43.29723,"lon":5.37686,"is_reserved":false,"is_disabled":false,"rental_uris":{"android":"levelo://app?vid=b832ecab-d515-4076-9966-61c664c7855d","ios":"levelo://app?vid=b832ecab-d515-4076-9966-61c664c7855d"},"vehicle_type_id":"4","last_reported":1742829048,"current_range_meters":12800,"station_id":"ce4bgkh2rcd13ifvqbl0","pricing_plan_id":"cebpf4jnsgd1na2vs0mg"},{"bike_id":"70dc9c02-b43c-47d2-8eaf-ceb4e113b596","system_id":"levelo_inurba_marseille","lat":43.29929,"lon":5.37463,"is_reserved":false,"is_disabled":false,"rental_uris":{"android":"levelo://app?vid=70dc9c02-b43c-47d2-8eaf-ceb4e113b596","ios":"levelo://app?vid=70dc9c02-b43c-47d2-8eaf-ceb4e113b596"},"vehicle_type_id":"4","last_reported":1742829048,"current_range_meters":12800,"station_id":"ce4bgjh2rcd13ifvqbg0","pricing_plan_id":"cebpf4jnsgd1na2vs0mg"},{"bike_id":"0cc36e23-b27b-4357-8672-100be47dc5c2","system_id":"levelo_inurba_marseille","lat":43.26784,"lon":5.3941,"is_reserved":false,"is_disabled":false,"rental_uris":{"android":"levelo://app?vid=0cc36e23-b27b-4357-8672-100be47dc5c2","ios":"levelo://app?vid=0cc36e23-b27b-4357-8672-100be47dc5c2"},"vehicle_type_id":"4","last_reported":1742829048,"current_range_meters":12400,"station_id":"ce4bhh12rcd13ifvqfg0","pricing_plan_id":"cebpf4jnsgd1na2vs0mg"},{"bike_id":"fbfecbb6-5794-4d9a-9176-1810e4b4a7ef","system_id":"levelo_inurba_marseille","lat":43.23066,"lon":5.3549,"is_reserved":false,"is_disabled":false,"rental_uris":{"android":"levelo://app?vid=fbfecbb6-5794-4d9a-9176-1810e4b4a7ef","ios":"levelo://app?vid=fbfecbb6-5794-4d9a-9176-1810e4b4a7ef"},"vehicle_type_id":"4","last_reported":1742829048,"current_range_meters":12800,"station_id":"cpo3342slgdg3j2ifvpg","pricing_plan_id":"cebpf4jnsgd1na2vs0mg"},{"bike_id":"938c0f4e-65bf-479a-ba6e-fe7a68ff9b08","system_id":"levelo_inurba_marseille","lat":43.26513,"lon":5.3731,"is_reserved":false,"is_disabled":false,"rental_uris":{"android":"levelo://app?vid=938c0f4e-65bf-479a-ba6e-fe7a68ff9b08","ios":"levelo://app?vid=938c0f4e-65bf-479a-ba6e-fe7a68ff9b08"},"vehicle_type_id":"4","last_reported":1742829048,"current_range_meters":12800,"station_id":"","pricing_plan_id":"cebpf4jnsgd1na2vs0mg"},{"bike_id":"d1d27394-54da-4b1d-8cb9-5faa4c4893da","system_id":"levelo_inurba_marseille","lat":43.27209,"lon":5.39177,"is_reserved":false,"is_disabled":false,"rental_uris":{"android":"levelo://app?vid=d1d27394-54da-4b1d-8cb9-5faa4c4893da","ios":"levelo://app?vid=d1d27394-54da-4b1d-8cb9-5faa4c4893da"},"vehicle_type_id":"4","last_reported":1742829048,"current_range_meters":12400,"station_id":"ce4bhhp2rcd13ifvqfm0","pricing_plan_id":"cebpf4jnsgd1na2vs0mg"},{"bike_id":"69956a41-893b-4f1d-bce8-ebdb162481e1","system_id":"levelo_inurba_marseille","lat":43.24543,"lon":5.39533,"is_reserved":false,"is_disabled":false,"rental_uris":{"android":"levelo://app?vid=69956a41-893b-4f1d-bce8-ebdb162481e1","ios":"levelo://app?vid=69956a41-893b-4f1d-bce8-ebdb162481e1"},"vehicle_type_id":"4","last_reported":1742829048,"current_range_meters":12800,"station_id":"ce4bhlp2rcd13ifvqgjg","pricing_plan_id":"cebpf4jnsgd1na2vs0mg"},{"bike_id":"93854721-68fd-46ec-a429-78df379dd3dc","system_id":"levelo_inurba_marseille","lat":43.28476,"lon":5.38424,"is_reserved":false,"is_disabled":false,"rental_uris":{"android":"levelo://app?vid=93854721-68fd-46ec-a429-78df379dd3dc","ios":"levelo://app?vid=93854721-68fd-46ec-a429-78df379dd3dc"},"vehicle_type_id":"4","last_reported":1742829048,"current_range_meters":12800,"station_id":"ce4bh512rcd13ifvqe3g","pricing_plan_id":"cebpf4jnsgd1na2vs0mg"},{"bike_id":"2e0ef6b6-ec65-4710-a94a-5293ef9c1959","system_id":"levelo_inurba_marseille","lat":43.31361,"lon":5.38487,"is_reserved":false,"is_disabled":false,"rental_uris":{"android":"levelo://app?vid=2e0ef6b6-ec65-4710-a94a-5293ef9c1959","ios":"levelo://app?vid=2e0ef6b6-ec65-4710-a94a-5293ef9c1959"},"vehicle_type_id":"4","last_reported":1742829048,"current_range_meters":12400,"station_id":"ce4bgt92rcd13ifvqcf0","pricing_plan_id":"cebpf4jnsgd1na2vs0mg"},{"bike_id":"4189494c-a12a-416b-be54-c600a4739126","system_id":"levelo_inurba_marseille","lat":43.2785,"lon":5.39195,"is_reserved":false,"is_disabled":false,"rental_uris":{"android":"levelo://app?vid=4189494c-a12a-416b-be54-c600a4739126","ios":"levelo://app?vid=4189494c-a12a-416b-be54-c600a4739126"},"vehicle_type_id":"4","last_reported":1742829048,"current_range_meters":12800,"station_id":"ce4bhjp2rcd13ifvqga0","pricing_plan_id":"cebpf4jnsgd1na2vs0mg"},{"bike_id":"8871fee1-c30f-4721-bb9f-022f22051a94","system_id":"levelo_inurba_marseille","lat":43.24174,"lon":5.39733,"is_reserved":false,"is_disabled":false,"rental_uris":{"android":"levelo://app?vid=8871fee1-c30f-4721-bb9f-022f22051a94","ios":"levelo://app?vid=8871fee1-c30f-4721-bb9f-022f22051a94"},"vehicle_type_id":"4","last_reported":1742829048,"current_range_meters":13600,"station_id":"ce4bhn12rcd13ifvqgpg","pricing_plan_id":"cebpf4jnsgd1na2vs0mg"},{"bike_id":"4af4385b-bd7c-4887-a3da-0d2384494d77","system_id":"levelo_inurba_marseille","lat":43.25922,"lon":5.40901,"is_reserved":false,"is_disabled":false,"rental_uris":{"android":"levelo://app?vid=4af4385b-bd7c-4887-a3da-0d2384494d77","ios":"levelo://app?vid=4af4385b-bd7c-4887-a3da-0d2384494d77"},"vehicle_type_id":"4","last_reported":1742829048,"current_range_meters":13600,"station_id":"ce4bhm92rcd13ifvqglg","pricing_plan_id":"cebpf4jnsgd1na2vs0mg"},{"bike_id":"008c8db6-be2b-43ce-8a53-8af51fd8b577","system_id":"levelo_inurba_marseille","lat":43.24179,"lon":5.39717,"is_reserved":false,"is_disabled":false,"rental_uris":{"android":"levelo://app?vid=008c8db6-be2b-43ce-8a53-8af51fd8b577","ios":"levelo://app?vid=008c8db6-be2b-43ce-8a53-8af51fd8b577"},"vehicle_type_id":"4","last_reported":1742829048,"current_range_meters":13600,"station_id":"ce4bhn12rcd13ifvqgpg","pricing_plan_id":"cebpf4jnsgd1na2vs0mg"},{"bike_id":"c353c957-fbb8-408a-9097-46c8d6b68074","system_id":"levelo_inurba_marseille","lat":43.24173,"lon":5.39727,"is_reserved":false,"is_disabled":false,"rental_uris":{"android":"levelo://app?vid=c353c957-fbb8-408a-9097-46c8d6b68074","ios":"levelo://app?vid=c353c957-fbb8-408a-9097-46c8d6b68074"},"vehicle_type_id":"4","last_reported":1742829048,"current_range_meters":13600,"station_id":"ce4bhn12rcd13ifvqgpg","pricing_plan_id":"cebpf4jnsgd1na2vs0mg"},{"bike_id":"6bb6f1fc-5b4f-4f3d-97c1-f093e7e9a8ef","system_id":"levelo_inurba_marseille","lat":43.23061,"lon":5.3549,"is_reserved":false,"is_disabled":false,"rental_uris":{"android":"levelo://app?vid=6bb6f1fc-5b4f-4f3d-97c1-f093e7e9a8ef","ios":"levelo://app?vid=6bb6f1fc-5b4f-4f3d-97c1-f093e7e9a8ef"},"vehicle_type_id":"4","last_reported":1742829048,"current_range_meters":13600,"station_id":"cpo3342slgdg3j2ifvpg","pricing_plan_id":"cebpf4jnsgd1na2vs0mg"},{"bike_id":"6614645a-dac3-4b84-a8b1-9654d068e061","system_id":"levelo_inurba_marseille","lat":43.33607,"lon":5.40998,"is_reserved":false,"is_disabled":false,"rental_uris":{"android":"levelo://app?vid=6614645a-dac3-4b84-a8b1-9654d068e061","ios":"levelo://app?vid=6614645a-dac3-4b84-a8b1-9654d068e061"},"vehicle_type_id":"4","last_reported":1742829048,"current_range_meters":14000,"station_id":"ce4bhqh2rcd13ifvqhmg","pricing_plan_id":"cebpf4jnsgd1na2vs0mg"},{"bike_id":"1887fe37-51a0-4284-bd26-ea9ec274ce5e","system_id":"levelo_inurba_marseille","lat":43.25699,"lon":5.41034,"is_reserved":false,"is_disabled":false,"rental_uris":{"android":"levelo://app?vid=1887fe37-51a0-4284-bd26-ea9ec274ce5e","ios":"levelo://app?vid=1887fe37-51a0-4284-bd26-ea9ec274ce5e"},"vehicle_type_id":"4","last_reported":1742829048,"current_range_meters":14400,"station_id":"ce4bhkp2rcd13ifvqgd0","pricing_plan_id":"cebpf4jnsgd1na2vs0mg"},{"bike_id":"ea98b5cd-69f3-488c-a874-1c9fe075ee65","system_id":"levelo_inurba_marseille","lat":43.23151,"lon":5.4372,"is_reserved":false,"is_disabled":false,"rental_uris":{"android":"levelo://app?vid=ea98b5cd-69f3-488c-a874-1c9fe075ee65","ios":"levelo://app?vid=ea98b5cd-69f3-488c-a874-1c9fe075ee65"},"vehicle_type_id":"4","last_reported":1742829048,"current_range_meters":14400,"station_id":"ce4bhmp2rcd13ifvqgog","pricing_plan_id":"cebpf4jnsgd1na2vs0mg"},{"bike_id":"2fd526e2-017f-4fee-ba01-66dc191f94a1","system_id":"levelo_inurba_marseille","lat":43.29935,"lon":5.36539,"is_reserved":false,"is_disabled":false,"rental_uris":{"android":"levelo://app?vid=2fd526e2-017f-4fee-ba01-66dc191f94a1","ios":"levelo://app?vid=2fd526e2-017f-4fee-ba01-66dc191f94a1"},"vehicle_type_id":"4","last_reported":1742829048,"current_range_meters":14400,"station_id":"ce4bgm92rcd13ifvqbr0","pricing_plan_id":"cebpf4jnsgd1na2vs0mg"},{"bike_id":"d1347470-dce7-4bf6-b57b-e50d13e6362d","system_id":"levelo_inurba_marseille","lat":43.31073,"lon":5.38355,"is_reserved":false,"is_disabled":false,"rental_uris":{"android":"levelo://app?vid=d1347470-dce7-4bf6-b57b-e50d13e6362d","ios":"levelo://app?vid=d1347470-dce7-4bf6-b57b-e50d13e6362d"},"vehicle_type_id":"4","last_reported":1742829048,"current_range_meters":14400,"station_id":"ce4bgv92rcd13ifvqcr0","pricing_plan_id":"cebpf4jnsgd1na2vs0mg"},{"bike_id":"8f208df7-81e0-45c5-bd98-a49c85a38fa2","system_id":"levelo_inurba_marseille","lat":43.30303,"lon":5.36907,"is_reserved":false,"is_disabled":false,"rental_uris":{"android":"levelo://app?vid=8f208df7-81e0-45c5-bd98-a49c85a38fa2","ios":"levelo://app?vid=8f208df7-81e0-45c5-bd98-a49c85a38fa2"},"vehicle_type_id":"4","last_reported":1742829048,"current_range_meters":14400,"station_id":"ce4bgqh2rcd13ifvqc5g","pricing_plan_id":"cebpf4jnsgd1na2vs0mg"},{"bike_id":"0a2fd2bd-0465-4490-8bf0-a948a7c174a7","system_id":"levelo_inurba_marseille","lat":43.26561,"lon":5.39003,"is_reserved":false,"is_disabled":true,"rental_uris":{"android":"levelo://app?vid=0a2fd2bd-0465-4490-8bf0-a948a7c174a7","ios":"levelo://app?vid=0a2fd2bd-0465-4490-8bf0-a948a7c174a7"},"vehicle_type_id":"4","last_reported":1742829048,"current_range_meters":14400,"station_id":"ce4bhe12rcd13ifvqf30","pricing_plan_id":"cebpf4jnsgd1na2vs0mg"},{"bike_id":"a42b8172-5bd1-404f-94a6-ecc75f5fd8f9","system_id":"levelo_inurba_marseille","lat":43.31701,"lon":5.37752,"is_reserved":false,"is_disabled":false,"rental_uris":{"android":"levelo://app?vid=a42b8172-5bd1-404f-94a6-ecc75f5fd8f9","ios":"levelo://app?vid=a42b8172-5bd1-404f-94a6-ecc75f5fd8f9"},"vehicle_type_id":"4","last_reported":1742829048,"current_range_meters":14400,"station_id":"ce4bgth2rcd13ifvqch0","pricing_plan_id":"cebpf4jnsgd1na2vs0mg"},{"bike_id":"ad15770e-02bb-4a9e-b6f6-9b58bd708563","system_id":"levelo_inurba_marseille","lat":43.31343,"lon":5.36734,"is_reserved":false,"is_disabled":false,"rental_uris":{"android":"levelo://app?vid=ad15770e-02bb-4a9e-b6f6-9b58bd708563","ios":"levelo://app?vid=ad15770e-02bb-4a9e-b6f6-9b58bd708563"},"vehicle_type_id":"4","last_reported":1742829048,"current_range_meters":14800,"station_id":"ce4bgr92rcd13ifvqc6g","pricing_plan_id":"cebpf4jnsgd1na2vs0mg"},{"bike_id":"e3f76d45-4904-44a7-aac2-e04832e991bb","system_id":"levelo_inurba_marseille","lat":43.29974,"lon":5.41323,"is_reserved":false,"is_disabled":true,"rental_uris":{"android":"levelo://app?vid=e3f76d45-4904-44a7-aac2-e04832e991bb","ios":"levelo://app?vid=e3f76d45-4904-44a7-aac2-e04832e991bb"},"vehicle_type_id":"4","last_reported":1742829048,"current_range_meters":14800,"station_id":"ce4bhp12rcd13ifvqh9g","pricing_plan_id":"cebpf4jnsgd1na2vs0mg"},{"bike_id":"7da1780c-a707-4e5c-9536-83f171012129","system_id":"levelo_inurba_marseille","lat":43.31071,"lon":5.38361,"is_reserved":false,"is_disabled":false,"rental_uris":{"android":"levelo://app?vid=7da1780c-a707-4e5c-9536-83f171012129","ios":"levelo://app?vid=7da1780c-a707-4e5c-9536-83f171012129"},"vehicle_type_id":"4","last_reported":1742829048,"current_range_meters":14800,"station_id":"ce4bgv92rcd13ifvqcr0","pricing_plan_id":"cebpf4jnsgd1na2vs0mg"},{"bike_id":"a3c13ddb-6249-42fd-ab53-4f552527f0b9","system_id":"levelo_inurba_marseille","lat":43.29196,"lon":5.35802,"is_reserved":false,"is_disabled":false,"rental_uris":{"android":"levelo://app?vid=a3c13ddb-6249-42fd-ab53-4f552527f0b9","ios":"levelo://app?vid=a3c13ddb-6249-42fd-ab53-4f552527f0b9"},"vehicle_type_id":"4","last_reported":1742829048,"current_range_meters":14800,"station_id":"ce4bhb12rcd13ifvqel0","pricing_plan_id":"cebpf4jnsgd1na2vs0mg"},{"bike_id":"2f3e2a92-1301-4a27-8eaa-7b0ea525530e","system_id":"levelo_inurba_marseille","lat":43.31698,"lon":5.43694,"is_reserved":false,"is_disabled":false,"rental_uris":{"android":"levelo://app?vid=2f3e2a92-1301-4a27-8eaa-7b0ea525530e","ios":"levelo://app?vid=2f3e2a92-1301-4a27-8eaa-7b0ea525530e"},"vehicle_type_id":"4","last_reported":1742829048,"current_range_meters":14800,"station_id":"ce4bhp92rcd13ifvqhcg","pricing_plan_id":"cebpf4jnsgd1na2vs0mg"},{"bike_id":"e934e56b-d336-4d3c-bd8c-335a207c5c55","system_id":"levelo_inurba_marseille","lat":43.29793,"lon":5.38087,"is_reserved":false,"is_disabled":false,"rental_uris":{"android":"levelo://app?vid=e934e56b-d336-4d3c-bd8c-335a207c5c55","ios":"levelo://app?vid=e934e56b-d336-4d3c-bd8c-335a207c5c55"},"vehicle_type_id":"4","last_reported":1742829048,"current_range_meters":15200,"station_id":"ce4bgip2rcd13ifvqbb0","pricing_plan_id":"cebpf4jnsgd1na2vs0mg"},{"bike_id":"76211ac3-3cbc-4781-a063-11d98a10c5e2","system_id":"levelo_inurba_marseille","lat":43.27997,"lon":5.41668,"is_reserved":false,"is_disabled":false,"rental_uris":{"android":"levelo://app?vid=76211ac3-3cbc-4781-a063-11d98a10c5e2","ios":"levelo://app?vid=76211ac3-3cbc-4781-a063-11d98a10c5e2"},"vehicle_type_id":"4","last_reported":1742829048,"current_range_meters":14800,"station_id":"ce4bho12rcd13ifvqh1g","pricing_plan_id":"cebpf4jnsgd1na2vs0mg"},{"bike_id":"7f35a127-918d-45df-bdb1-88876e7ffbc5","system_id":"levelo_inurba_marseille","lat":43.30913,"lon":5.36858,"is_reserved":false,"is_disabled":false,"rental_uris":{"android":"levelo://app?vid=7f35a127-918d-45df-bdb1-88876e7ffbc5","ios":"levelo://app?vid=7f35a127-918d-45df-bdb1-88876e7ffbc5"},"vehicle_type_id":"4","last_reported":1742829048,"current_range_meters":14800,"station_id":"ce4bgn92rcd13ifvqbvg","pricing_plan_id":"cebpf4jnsgd1na2vs0mg"},{"bike_id":"552fb8ff-98a7-4106-b06d-1880af44f89c","system_id":"levelo_inurba_marseille","lat":43.30101,"lon":5.39077,"is_reserved":false,"is_disabled":false,"rental_uris":{"android":"levelo://app?vid=552fb8ff-98a7-4106-b06d-1880af44f89c","ios":"levelo://app?vid=552fb8ff-98a7-4106-b06d-1880af44f89c"},"vehicle_type_id":"4","last_reported":1742829048,"current_range_meters":14800,"station_id":"ce4bh192rcd13ifvqdb0","pricing_plan_id":"cebpf4jnsgd1na2vs0mg"},{"bike_id":"e4aa0181-174f-477f-9de0-fdb91e4da9e3","system_id":"levelo_inurba_marseille","lat":43.25506,"lon":5.37642,"is_reserved":false,"is_disabled":false,"rental_uris":{"android":"levelo://app?vid=e4aa0181-174f-477f-9de0-fdb91e4da9e3","ios":"levelo://app?vid=e4aa0181-174f-477f-9de0-fdb91e4da9e3"},"vehicle_type_id":"4","last_reported":1742829048,"current_range_meters":14800,"station_id":"ce4bhh12rcd13ifvqff0","pricing_plan_id":"cebpf4jnsgd1na2vs0mg"},{"bike_id":"597a409d-fb06-43ee-8231-8a56994de493","system_id":"levelo_inurba_marseille","lat":43.28611,"lon":5.35105,"is_reserved":false,"is_disabled":false,"rental_uris":{"android":"levelo://app?vid=597a409d-fb06-43ee-8231-8a56994de493","ios":"levelo://app?vid=597a409d-fb06-43ee-8231-8a56994de493"},"vehicle_type_id":"4","last_reported":1742829048,"current_range_meters":15200,"station_id":"ce4bhch2rcd13ifvqeug","pricing_plan_id":"cebpf4jnsgd1na2vs0mg"},{"bike_id":"89e75ed9-7f20-48f7-ad37-e0033e47c633","system_id":"levelo_inurba_marseille","lat":43.24644,"lon":5.38891,"is_reserved":false,"is_disabled":false,"rental_uris":{"android":"levelo://app?vid=89e75ed9-7f20-48f7-ad37-e0033e47c633","ios":"levelo://app?vid=89e75ed9-7f20-48f7-ad37-e0033e47c633"},"vehicle_type_id":"4","last_reported":1742829048,"current_range_meters":15200,"station_id":"ce4bhg12rcd13ifvqf60","pricing_plan_id":"cebpf4jnsgd1na2vs0mg"},{"bike_id":"8284de5c-d227-47cd-b1ac-1bc2e0170d0f","system_id":"levelo_inurba_marseille","lat":43.27818,"lon":5.40702,"is_reserved":false,"is_disabled":true,"rental_uris":{"android":"levelo://app?vid=8284de5c-d227-47cd-b1ac-1bc2e0170d0f","ios":"levelo://app?vid=8284de5c-d227-47cd-b1ac-1bc2e0170d0f"},"vehicle_type_id":"4","last_reported":1742829048,"current_range_meters":16000,"station_id":"ce4bhnh2rcd13ifvqgtg","pricing_plan_id":"cebpf4jnsgd1na2vs0mg"},{"bike_id":"7b5ba77f-065c-40ee-8fb6-2fb3c38a8d84","system_id":"levelo_inurba_marseille","lat":43.25931,"lon":5.40914,"is_reserved":false,"is_disabled":false,"rental_uris":{"android":"levelo://app?vid=7b5ba77f-065c-40ee-8fb6-2fb3c38a8d84","ios":"levelo://app?vid=7b5ba77f-065c-40ee-8fb6-2fb3c38a8d84"},"vehicle_type_id":"4","last_reported":1742829048,"current_range_meters":16000,"station_id":"ce4bhm92rcd13ifvqglg","pricing_plan_id":"cebpf4jnsgd1na2vs0mg"},{"bike_id":"d7c9b119-99cc-4acd-80c4-6ecaf67a26b1","system_id":"levelo_inurba_marseille","lat":43.23069,"lon":5.35484,"is_reserved":false,"is_disabled":false,"rental_uris":{"android":"levelo://app?vid=d7c9b119-99cc-4acd-80c4-6ecaf67a26b1","ios":"levelo://app?vid=d7c9b119-99cc-4acd-80c4-6ecaf67a26b1"},"vehicle_type_id":"4","last_reported":1742829048,"current_range_meters":16000,"station_id":"cpo3342slgdg3j2ifvpg","pricing_plan_id":"cebpf4jnsgd1na2vs0mg"},{"bike_id":"ef23af8b-ba99-421d-b4e8-46275fd1a48f","system_id":"levelo_inurba_marseille","lat":43.25005,"lon":5.38923,"is_reserved":false,"is_disabled":false,"rental_uris":{"android":"levelo://app?vid=ef23af8b-ba99-421d-b4e8-46275fd1a48f","ios":"levelo://app?vid=ef23af8b-ba99-421d-b4e8-46275fd1a48f"},"vehicle_type_id":"4","last_reported":1742829048,"current_range_meters":16000,"station_id":"ce4bhgp2rcd13ifvqfd0","pricing_plan_id":"cebpf4jnsgd1na2vs0mg"},{"bike_id":"1f297842-6e41-4bee-874d-8ac03e39f231","system_id":"levelo_inurba_marseille","lat":43.28478,"lon":5.3841,"is_reserved":false,"is_disabled":false,"rental_uris":{"android":"levelo://app?vid=1f297842-6e41-4bee-874d-8ac03e39f231","ios":"levelo://app?vid=1f297842-6e41-4bee-874d-8ac03e39f231"},"vehicle_type_id":"4","last_reported":1742829048,"current_range_meters":16000,"station_id":"ce4bh512rcd13ifvqe3g","pricing_plan_id":"cebpf4jnsgd1na2vs0mg"},{"bike_id":"9d901bcb-7adf-402a-b67f-43b2cf34de78","system_id":"levelo_inurba_marseille","lat":43.28718,"lon":5.36087,"is_reserved":false,"is_disabled":false,"rental_uris":{"android":"levelo://app?vid=9d901bcb-7adf-402a-b67f-43b2cf34de78","ios":"levelo://app?vid=9d901bcb-7adf-402a-b67f-43b2cf34de78"},"vehicle_type_id":"4","last_reported":1742829048,"current_range_meters":16000,"station_id":"cki0cbj6b192h4jlfktg","pricing_plan_id":"cebpf4jnsgd1na2vs0mg"},{"bike_id":"b82c062b-ed6f-4114-8bdf-6d996a293c90","system_id":"levelo_inurba_marseille","lat":43.32112,"lon":5.36744,"is_reserved":false,"is_disabled":false,"rental_uris":{"android":"levelo://app?vid=b82c062b-ed6f-4114-8bdf-6d996a293c90","ios":"levelo://app?vid=b82c062b-ed6f-4114-8bdf-6d996a293c90"},"vehicle_type_id":"4","last_reported":1742829048,"current_range_meters":16000,"station_id":"ce4bhrh2rcd13ifvqhug","pricing_plan_id":"cebpf4jnsgd1na2vs0mg"},{"bike_id":"e2b2b559-fa5d-4ed5-a7e4-e6e417a15825","system_id":"levelo_inurba_marseille","lat":43.31174,"lon":5.38719,"is_reserved":false,"is_disabled":false,"rental_uris":{"android":"levelo://app?vid=e2b2b559-fa5d-4ed5-a7e4-e6e417a15825","ios":"levelo://app?vid=e2b2b559-fa5d-4ed5-a7e4-e6e417a15825"},"vehicle_type_id":"4","last_reported":1742829048,"current_range_meters":16000,"station_id":"ce4bgv12rcd13ifvqcp0","pricing_plan_id":"cebpf4jnsgd1na2vs0mg"},{"bike_id":"d1744489-e8d4-4e33-ac43-a429d1c3563e","system_id":"levelo_inurba_marseille","lat":43.28718,"lon":5.36103,"is_reserved":false,"is_disabled":false,"rental_uris":{"android":"levelo://app?vid=d1744489-e8d4-4e33-ac43-a429d1c3563e","ios":"levelo://app?vid=d1744489-e8d4-4e33-ac43-a429d1c3563e"},"vehicle_type_id":"4","last_reported":1742829048,"current_range_meters":16000,"station_id":"cki0cbj6b192h4jlfktg","pricing_plan_id":"cebpf4jnsgd1na2vs0mg"},{"bike_id":"b35f7c86-3926-4c39-b440-3ff1322bee6c","system_id":"levelo_inurba_marseille","lat":43.30791,"lon":5.37651,"is_reserved":false,"is_disabled":false,"rental_uris":{"android":"levelo://app?vid=b35f7c86-3926-4c39-b440-3ff1322bee6c","ios":"levelo://app?vid=b35f7c86-3926-4c39-b440-3ff1322bee6c"},"vehicle_type_id":"4","last_reported":1742829048,"current_range_meters":16000,"station_id":"ce4bgv92rcd13ifvqcq0","pricing_plan_id":"cebpf4jnsgd1na2vs0mg"},{"bike_id":"11638dcf-c183-4940-bebb-985f736789bf","system_id":"levelo_inurba_marseille","lat":43.27661,"lon":5.38916,"is_reserved":false,"is_disabled":true,"rental_uris":{"android":"levelo://app?vid=11638dcf-c183-4940-bebb-985f736789bf","ios":"levelo://app?vid=11638dcf-c183-4940-bebb-985f736789bf"},"vehicle_type_id":"4","last_reported":1742829048,"current_range_meters":16400,"station_id":"ce4bhi12rcd13ifvqfo0","pricing_plan_id":"cebpf4jnsgd1na2vs0mg"},{"bike_id":"69d45981-61c6-4086-9842-a14152408cb3","system_id":"levelo_inurba_marseille","lat":43.31227,"lon":5.3686,"is_reserved":false,"is_disabled":false,"rental_uris":{"android":"levelo://app?vid=69d45981-61c6-4086-9842-a14152408cb3","ios":"levelo://app?vid=69d45981-61c6-4086-9842-a14152408cb3"},"vehicle_type_id":"4","last_reported":1742829048,"current_range_meters":16400,"station_id":"ce4bgl92rcd13ifvqbq0","pricing_plan_id":"cebpf4jnsgd1na2vs0mg"},{"bike_id":"aec28b31-c20a-4ff3-a964-a4e5ed4c60e5","system_id":"levelo_inurba_marseille","lat":43.30543,"lon":5.36547,"is_reserved":false,"is_disabled":false,"rental_uris":{"android":"levelo://app?vid=aec28b31-c20a-4ff3-a964-a4e5ed4c60e5","ios":"levelo://app?vid=aec28b31-c20a-4ff3-a964-a4e5ed4c60e5"},"vehicle_type_id":"4","last_reported":1742829048,"current_range_meters":16400,"station_id":"ce4bgs12rcd13ifvqcag","pricing_plan_id":"cebpf4jnsgd1na2vs0mg"},{"bike_id":"18a7fec5-cd4f-470b-b4aa-49a452d96c3f","system_id":"levelo_inurba_marseille","lat":43.30605,"lon":5.39368,"is_reserved":false,"is_disabled":true,"rental_uris":{"android":"levelo://app?vid=18a7fec5-cd4f-470b-b4aa-49a452d96c3f","ios":"levelo://app?vid=18a7fec5-cd4f-470b-b4aa-49a452d96c3f"},"vehicle_type_id":"4","last_reported":1742829048,"current_range_meters":16400,"station_id":"ce4bh0p2rcd13ifvqd80","pricing_plan_id":"cebpf4jnsgd1na2vs0mg"},{"bike_id":"8455fd5f-0006-4148-85f4-c3856fbed257","system_id":"levelo_inurba_marseille","lat":43.26058,"lon":5.3937,"is_reserved":false,"is_disabled":false,"rental_uris":{"android":"levelo://app?vid=8455fd5f-0006-4148-85f4-c3856fbed257","ios":"levelo://app?vid=8455fd5f-0006-4148-85f4-c3856fbed257"},"vehicle_type_id":"4","last_reported":1742829048,"current_range_meters":16400,"station_id":"ce4bhh92rcd13ifvqfj0","pricing_plan_id":"cebpf4jnsgd1na2vs0mg"},{"bike_id":"844d3370-21e5-4de2-9d45-2b091e1157d6","system_id":"levelo_inurba_marseille","lat":43.23966,"lon":5.3663,"is_reserved":false,"is_disabled":false,"rental_uris":{"android":"levelo://app?vid=844d3370-21e5-4de2-9d45-2b091e1157d6","ios":"levelo://app?vid=844d3370-21e5-4de2-9d45-2b091e1157d6"},"vehicle_type_id":"4","last_reported":1742829048,"current_range_meters":16400,"station_id":"ce4bhi12rcd13ifvqfp0","pricing_plan_id":"cebpf4jnsgd1na2vs0mg"},{"bike_id":"de8ed37f-1fd3-4667-9518-65e212de4a17","system_id":"levelo_inurba_marseille","lat":43.3122,"lon":5.36898,"is_reserved":false,"is_disabled":false,"rental_uris":{"android":"levelo://app?vid=de8ed37f-1fd3-4667-9518-65e212de4a17","ios":"levelo://app?vid=de8ed37f-1fd3-4667-9518-65e212de4a17"},"vehicle_type_id":"4","last_reported":1742829048,"current_range_meters":16400,"station_id":"ce4bgl92rcd13ifvqbq0","pricing_plan_id":"cebpf4jnsgd1na2vs0mg"},{"bike_id":"74406c35-ee35-437d-be26-2d7711378046","system_id":"levelo_inurba_marseille","lat":43.32358,"lon":5.36759,"is_reserved":false,"is_disabled":false,"rental_uris":{"android":"levelo://app?vid=74406c35-ee35-437d-be26-2d7711378046","ios":"levelo://app?vid=74406c35-ee35-437d-be26-2d7711378046"},"vehicle_type_id":"4","last_reported":1742829048,"current_range_meters":16400,"station_id":"ce4bhsh2rcd13ifvqi2g","pricing_plan_id":"cebpf4jnsgd1na2vs0mg"},{"bike_id":"3ed1fe65-2ec8-48ac-b8ca-93ab65c07a35","system_id":"levelo_inurba_marseille","lat":43.26807,"lon":5.40279,"is_reserved":false,"is_disabled":false,"rental_uris":{"android":"levelo://app?vid=3ed1fe65-2ec8-48ac-b8ca-93ab65c07a35","ios":"levelo://app?vid=3ed1fe65-2ec8-48ac-b8ca-93ab65c07a35"},"vehicle_type_id":"4","last_reported":1742829048,"current_range_meters":16400,"station_id":"ce501612rcd8frsf0b60","pricing_plan_id":"cebpf4jnsgd1na2vs0mg"},{"bike_id":"1e9d8971-3370-4459-8134-7982f520536b","system_id":"levelo_inurba_marseille","lat":43.31755,"lon":5.39012,"is_reserved":false,"is_disabled":false,"rental_uris":{"android":"levelo://app?vid=1e9d8971-3370-4459-8134-7982f520536b","ios":"levelo://app?vid=1e9d8971-3370-4459-8134-7982f520536b"},"vehicle_type_id":"4","last_reported":1742829048,"current_range_meters":16400,"station_id":"ce4bhqp2rcd13ifvqhng","pricing_plan_id":"cebpf4jnsgd1na2vs0mg"},{"bike_id":"0d89eca0-5671-404f-88cc-d263b1555cb5","system_id":"levelo_inurba_marseille","lat":43.25724,"lon":5.41118,"is_reserved":false,"is_disabled":false,"rental_uris":{"android":"levelo://app?vid=0d89eca0-5671-404f-88cc-d263b1555cb5","ios":"levelo://app?vid=0d89eca0-5671-404f-88cc-d263b1555cb5"},"vehicle_type_id":"4","last_reported":1742829048,"current_range_meters":16400,"station_id":"","pricing_plan_id":"cebpf4jnsgd1na2vs0mg"},{"bike_id":"a796f812-0043-405a-a042-56476b29d5d2","system_id":"levelo_inurba_marseille","lat":43.2718,"lon":5.41,"is_reserved":false,"is_disabled":false,"rental_uris":{"android":"levelo://app?vid=a796f812-0043-405a-a042-56476b29d5d2","ios":"levelo://app?vid=a796f812-0043-405a-a042-56476b29d5d2"},"vehicle_type_id":"4","last_reported":1742829048,"current_range_meters":16400,"station_id":"ce4bhl12rcd13ifvqgf0","pricing_plan_id":"cebpf4jnsgd1na2vs0mg"},{"bike_id":"31853493-08cd-48ca-8af6-a1f588cefafe","system_id":"levelo_inurba_marseille","lat":43.25812,"lon":5.39474,"is_reserved":false,"is_disabled":false,"rental_uris":{"android":"levelo://app?vid=31853493-08cd-48ca-8af6-a1f588cefafe","ios":"levelo://app?vid=31853493-08cd-48ca-8af6-a1f588cefafe"},"vehicle_type_id":"4","last_reported":1742829048,"current_range_meters":16400,"station_id":"ce4bhip2rcd13ifvqft0","pricing_plan_id":"cebpf4jnsgd1na2vs0mg"},{"bike_id":"a5745ffe-04e2-4c33-82f5-d0cfd81b6281","system_id":"levelo_inurba_marseille","lat":43.24171,"lon":5.39743,"is_reserved":false,"is_disabled":false,"rental_uris":{"android":"levelo://app?vid=a5745ffe-04e2-4c33-82f5-d0cfd81b6281","ios":"levelo://app?vid=a5745ffe-04e2-4c33-82f5-d0cfd81b6281"},"vehicle_type_id":"4","last_reported":1742829048,"current_range_meters":16400,"station_id":"ce4bhn12rcd13ifvqgpg","pricing_plan_id":"cebpf4jnsgd1na2vs0mg"},{"bike_id":"75cb588b-e126-4498-9bca-67a0b81a9063","system_id":"levelo_inurba_marseille","lat":43.31226,"lon":5.36873,"is_reserved":false,"is_disabled":false,"rental_uris":{"android":"levelo://app?vid=75cb588b-e126-4498-9bca-67a0b81a9063","ios":"levelo://app?vid=75cb588b-e126-4498-9bca-67a0b81a9063"},"vehicle_type_id":"4","last_reported":1742829048,"current_range_meters":16800,"station_id":"ce4bgl92rcd13ifvqbq0","pricing_plan_id":"cebpf4jnsgd1na2vs0mg"},{"bike_id":"21e87308-ac29-41cb-b027-bb6af1d596c5","system_id":"levelo_inurba_marseille","lat":43.24069,"lon":5.37747,"is_reserved":false,"is_disabled":false,"rental_uris":{"android":"levelo://app?vid=21e87308-ac29-41cb-b027-bb6af1d596c5","ios":"levelo://app?vid=21e87308-ac29-41cb-b027-bb6af1d596c5"},"vehicle_type_id":"4","last_reported":1742829048,"current_range_meters":16800,"station_id":"ce4bhnp2rcd13ifvqgvg","pricing_plan_id":"cebpf4jnsgd1na2vs0mg"},{"bike_id":"319fbde0-f02d-47c8-9ea3-00bb37a99bb2","system_id":"levelo_inurba_marseille","lat":43.24537,"lon":5.39493,"is_reserved":false,"is_disabled":false,"rental_uris":{"android":"levelo://app?vid=319fbde0-f02d-47c8-9ea3-00bb37a99bb2","ios":"levelo://app?vid=319fbde0-f02d-47c8-9ea3-00bb37a99bb2"},"vehicle_type_id":"4","last_reported":1742829048,"current_range_meters":16800,"station_id":"ce4bhlp2rcd13ifvqgjg","pricing_plan_id":"cebpf4jnsgd1na2vs0mg"},{"bike_id":"bbba78f6-dbc9-4747-97c6-e01b48a3d7b3","system_id":"levelo_inurba_marseille","lat":43.24662,"lon":5.38168,"is_reserved":false,"is_disabled":false,"rental_uris":{"android":"levelo://app?vid=bbba78f6-dbc9-4747-97c6-e01b48a3d7b3","ios":"levelo://app?vid=bbba78f6-dbc9-4747-97c6-e01b48a3d7b3"},"vehicle_type_id":"4","last_reported":1742829048,"current_range_meters":16800,"station_id":"ce4bhih2rcd13ifvqfr0","pricing_plan_id":"cebpf4jnsgd1na2vs0mg"},{"bike_id":"ffb4981f-d985-43e2-a321-9a45d8e07137","system_id":"levelo_inurba_marseille","lat":43.30786,"lon":5.37655,"is_reserved":false,"is_disabled":false,"rental_uris":{"android":"levelo://app?vid=ffb4981f-d985-43e2-a321-9a45d8e07137","ios":"levelo://app?vid=ffb4981f-d985-43e2-a321-9a45d8e07137"},"vehicle_type_id":"4","last_reported":1742829048,"current_range_meters":16800,"station_id":"ce4bgv92rcd13ifvqcq0","pricing_plan_id":"cebpf4jnsgd1na2vs0mg"},{"bike_id":"04357187-31a2-4621-9b88-fc476381d72a","system_id":"levelo_inurba_marseille","lat":43.25822,"lon":5.39429,"is_reserved":false,"is_disabled":false,"rental_uris":{"android":"levelo://app?vid=04357187-31a2-4621-9b88-fc476381d72a","ios":"levelo://app?vid=04357187-31a2-4621-9b88-fc476381d72a"},"vehicle_type_id":"4","last_reported":1742829048,"current_range_meters":16800,"station_id":"ce4bhip2rcd13ifvqft0","pricing_plan_id":"cebpf4jnsgd1na2vs0mg"},{"bike_id":"678dd2b2-cb88-4f08-8ba3-dc012f54adca","system_id":"levelo_inurba_marseille","lat":43.29191,"lon":5.39308,"is_reserved":false,"is_disabled":false,"rental_uris":{"android":"levelo://app?vid=678dd2b2-cb88-4f08-8ba3-dc012f54adca","ios":"levelo://app?vid=678dd2b2-cb88-4f08-8ba3-dc012f54adca"},"vehicle_type_id":"4","last_reported":1742829048,"current_range_meters":16800,"station_id":"ce4bh192rcd13ifvqdd0","pricing_plan_id":"cebpf4jnsgd1na2vs0mg"},{"bike_id":"b599ec8c-9116-4cb3-980c-d0a7d1e83114","system_id":"levelo_inurba_marseille","lat":43.32461,"lon":5.36579,"is_reserved":false,"is_disabled":false,"rental_uris":{"android":"levelo://app?vid=b599ec8c-9116-4cb3-980c-d0a7d1e83114","ios":"levelo://app?vid=b599ec8c-9116-4cb3-980c-d0a7d1e83114"},"vehicle_type_id":"4","last_reported":1742829048,"current_range_meters":16800,"station_id":"ce4bhs12rcd13ifvqhvg","pricing_plan_id":"cebpf4jnsgd1na2vs0mg"},{"bike_id":"71d053fe-72cd-4674-8064-9f91eaaa9762","system_id":"levelo_inurba_marseille","lat":43.28472,"lon":5.38535,"is_reserved":false,"is_disabled":true,"rental_uris":{"android":"levelo://app?vid=71d053fe-72cd-4674-8064-9f91eaaa9762","ios":"levelo://app?vid=71d053fe-72cd-4674-8064-9f91eaaa9762"},"vehicle_type_id":"4","last_reported":1742829048,"current_range_meters":16800,"station_id":"ce4bh8p2rcd13ifvqeb0","pricing_plan_id":"cebpf4jnsgd1na2vs0mg"},{"bike_id":"67019f0a-dc5c-48a6-821d-00d2c9d158a5","system_id":"levelo_inurba_marseille","lat":43.29242,"lon":5.37586,"is_reserved":false,"is_disabled":false,"rental_uris":{"android":"levelo://app?vid=67019f0a-dc5c-48a6-821d-00d2c9d158a5","ios":"levelo://app?vid=67019f0a-dc5c-48a6-821d-00d2c9d158a5"},"vehicle_type_id":"4","last_reported":1742829048,"current_range_meters":16800,"station_id":"","pricing_plan_id":"cebpf4jnsgd1na2vs0mg"},{"bike_id":"e7ae557e-e7ea-4918-b09c-2efd9ba192aa","system_id":"levelo_inurba_marseille","lat":43.29627,"lon":5.37738,"is_reserved":false,"is_disabled":false,"rental_uris":{"android":"levelo://app?vid=e7ae557e-e7ea-4918-b09c-2efd9ba192aa","ios":"levelo://app?vid=e7ae557e-e7ea-4918-b09c-2efd9ba192aa"},"vehicle_type_id":"4","last_reported":1742829048,"current_range_meters":17200,"station_id":"ce4bgi92rcd13ifvqb90","pricing_plan_id":"cebpf4jnsgd1na2vs0mg"},{"bike_id":"7fbb5cc4-ceec-4424-b26c-0b8b49614ca0","system_id":"levelo_inurba_marseille","lat":43.30125,"lon":5.39867,"is_reserved":false,"is_disabled":true,"rental_uris":{"android":"levelo://app?vid=7fbb5cc4-ceec-4424-b26c-0b8b49614ca0","ios":"levelo://app?vid=7fbb5cc4-ceec-4424-b26c-0b8b49614ca0"},"vehicle_type_id":"4","last_reported":1742829048,"current_range_meters":17200,"station_id":"ce4bh0h2rcd13ifvqd40","pricing_plan_id":"cebpf4jnsgd1na2vs0mg"},{"bike_id":"3a507784-1e32-42f9-9210-f04a2955b962","system_id":"levelo_inurba_marseille","lat":43.28081,"lon":5.39659,"is_reserved":false,"is_disabled":false,"rental_uris":{"android":"levelo://app?vid=3a507784-1e32-42f9-9210-f04a2955b962","ios":"levelo://app?vid=3a507784-1e32-42f9-9210-f04a2955b962"},"vehicle_type_id":"4","last_reported":1742829048,"current_range_meters":17200,"station_id":"ce4bho12rcd13ifvqh2g","pricing_plan_id":"cebpf4jnsgd1na2vs0mg"},{"bike_id":"abc587ea-8677-42e3-8d41-2015b302e8f4","system_id":"levelo_inurba_marseille","lat":43.30138,"lon":5.37424,"is_reserved":false,"is_disabled":false,"rental_uris":{"android":"levelo://app?vid=abc587ea-8677-42e3-8d41-2015b302e8f4","ios":"levelo://app?vid=abc587ea-8677-42e3-8d41-2015b302e8f4"},"vehicle_type_id":"4","last_reported":1742829048,"current_range_meters":17200,"station_id":"ce4bgs92rcd13ifvqcc0","pricing_plan_id":"cebpf4jnsgd1na2vs0mg"},{"bike_id":"6d6b6625-47e3-4d38-a8b1-e3dfa18cec24","system_id":"levelo_inurba_marseille","lat":43.31382,"lon":5.36717,"is_reserved":false,"is_disabled":false,"rental_uris":{"android":"levelo://app?vid=6d6b6625-47e3-4d38-a8b1-e3dfa18cec24","ios":"levelo://app?vid=6d6b6625-47e3-4d38-a8b1-e3dfa18cec24"},"vehicle_type_id":"4","last_reported":1742829048,"current_range_meters":17200,"station_id":"ce4bgr92rcd13ifvqc6g","pricing_plan_id":"cebpf4jnsgd1na2vs0mg"},{"bike_id":"98d38a64-15b2-410c-b614-5635d097b9ba","system_id":"levelo_inurba_marseille","lat":43.30305,"lon":5.39203,"is_reserved":false,"is_disabled":true,"rental_uris":{"android":"levelo://app?vid=98d38a64-15b2-410c-b614-5635d097b9ba","ios":"levelo://app?vid=98d38a64-15b2-410c-b614-5635d097b9ba"},"vehicle_type_id":"4","last_reported":1742829048,"current_range_meters":17200,"station_id":"ce4bgkh2rcd13ifvqbk0","pricing_plan_id":"cebpf4jnsgd1na2vs0mg"},{"bike_id":"bb58f931-d39b-4674-bcbc-5096c1d815e7","system_id":"levelo_inurba_marseille","lat":43.2418,"lon":5.39711,"is_reserved":false,"is_disabled":false,"rental_uris":{"android":"levelo://app?vid=bb58f931-d39b-4674-bcbc-5096c1d815e7","ios":"levelo://app?vid=bb58f931-d39b-4674-bcbc-5096c1d815e7"},"vehicle_type_id":"4","last_reported":1742829048,"current_range_meters":17200,"station_id":"ce4bhn12rcd13ifvqgpg","pricing_plan_id":"cebpf4jnsgd1na2vs0mg"},{"bike_id":"3a9ca545-eb07-4082-98ed-21bb28de91ab","system_id":"levelo_inurba_marseille","lat":43.32559,"lon":5.41435,"is_reserved":false,"is_disabled":false,"rental_uris":{"android":"levelo://app?vid=3a9ca545-eb07-4082-98ed-21bb28de91ab","ios":"levelo://app?vid=3a9ca545-eb07-4082-98ed-21bb28de91ab"},"vehicle_type_id":"4","last_reported":1742829048,"current_range_meters":17200,"station_id":"ce4bhq12rcd13ifvqhhg","pricing_plan_id":"cebpf4jnsgd1na2vs0mg"},{"bike_id":"8f8bd2f4-d19a-4a23-a5d8-5791f0e28621","system_id":"levelo_inurba_marseille","lat":43.302,"lon":5.39493,"is_reserved":false,"is_disabled":false,"rental_uris":{"android":"levelo://app?vid=8f8bd2f4-d19a-4a23-a5d8-5791f0e28621","ios":"levelo://app?vid=8f8bd2f4-d19a-4a23-a5d8-5791f0e28621"},"vehicle_type_id":"4","last_reported":1742829048,"current_range_meters":17200,"station_id":"ce4bh0p2rcd13ifvqd70","pricing_plan_id":"cebpf4jnsgd1na2vs0mg"},{"bike_id":"6241211f-98c5-456b-b665-d7b57c2ed4e3","system_id":"levelo_inurba_marseille","lat":43.28723,"lon":5.36083,"is_reserved":false,"is_disabled":false,"rental_uris":{"android":"levelo://app?vid=6241211f-98c5-456b-b665-d7b57c2ed4e3","ios":"levelo://app?vid=6241211f-98c5-456b-b665-d7b57c2ed4e3"},"vehicle_type_id":"4","last_reported":1742829048,"current_range_meters":17600,"station_id":"cki0cbj6b192h4jlfktg","pricing_plan_id":"cebpf4jnsgd1na2vs0mg"},{"bike_id":"1aeecb8e-b006-4f49-8edc-947d6456e728","system_id":"levelo_inurba_marseille","lat":43.3092,"lon":5.36823,"is_reserved":false,"is_disabled":false,"rental_uris":{"android":"levelo://app?vid=1aeecb8e-b006-4f49-8edc-947d6456e728","ios":"levelo://app?vid=1aeecb8e-b006-4f49-8edc-947d6456e728"},"vehicle_type_id":"4","last_reported":1742829048,"current_range_meters":17600,"station_id":"ce4bgn92rcd13ifvqbvg","pricing_plan_id":"cebpf4jnsgd1na2vs0mg"},{"bike_id":"ee515e48-7d60-48be-a0ce-d0142aee6fce","system_id":"levelo_inurba_marseille","lat":43.29711,"lon":5.37749,"is_reserved":false,"is_disabled":false,"rental_uris":{"android":"levelo://app?vid=ee515e48-7d60-48be-a0ce-d0142aee6fce","ios":"levelo://app?vid=ee515e48-7d60-48be-a0ce-d0142aee6fce"},"vehicle_type_id":"4","last_reported":1742829048,"current_range_meters":17600,"station_id":"","pricing_plan_id":"cebpf4jnsgd1na2vs0mg"},{"bike_id":"16d1a1e8-6833-46ef-8ac2-dd05daf383fb","system_id":"levelo_inurba_marseille","lat":43.27122,"lon":5.41697,"is_reserved":false,"is_disabled":false,"rental_uris":{"android":"levelo://app?vid=16d1a1e8-6833-46ef-8ac2-dd05daf383fb","ios":"levelo://app?vid=16d1a1e8-6833-46ef-8ac2-dd05daf383fb"},"vehicle_type_id":"4","last_reported":1742829048,"current_range_meters":17600,"station_id":"","pricing_plan_id":"cebpf4jnsgd1na2vs0mg"},{"bike_id":"fe1caea7-9395-4d60-aeaf-7d7d68a4c52d","system_id":"levelo_inurba_marseille","lat":43.30311,"lon":5.36883,"is_reserved":false,"is_disabled":false,"rental_uris":{"android":"levelo://app?vid=fe1caea7-9395-4d60-aeaf-7d7d68a4c52d","ios":"levelo://app?vid=fe1caea7-9395-4d60-aeaf-7d7d68a4c52d"},"vehicle_type_id":"4","last_reported":1742829048,"current_range_meters":17600,"station_id":"ce4bgqh2rcd13ifvqc5g","pricing_plan_id":"cebpf4jnsgd1na2vs0mg"},{"bike_id":"4bed86c0-966e-4f59-8ce7-05ff99255013","system_id":"levelo_inurba_marseille","lat":43.25925,"lon":5.40882,"is_reserved":false,"is_disabled":false,"rental_uris":{"android":"levelo://app?vid=4bed86c0-966e-4f59-8ce7-05ff99255013","ios":"levelo://app?vid=4bed86c0-966e-4f59-8ce7-05ff99255013"},"vehicle_type_id":"4","last_reported":1742829048,"current_range_meters":17600,"station_id":"ce4bhm92rcd13ifvqglg","pricing_plan_id":"cebpf4jnsgd1na2vs0mg"},{"bike_id":"bd1d227b-1cb4-486e-8b33-229a6a39eec0","system_id":"levelo_inurba_marseille","lat":43.32472,"lon":5.36572,"is_reserved":false,"is_disabled":false,"rental_uris":{"android":"levelo://app?vid=bd1d227b-1cb4-486e-8b33-229a6a39eec0","ios":"levelo://app?vid=bd1d227b-1cb4-486e-8b33-229a6a39eec0"},"vehicle_type_id":"4","last_reported":1742829048,"current_range_meters":17600,"station_id":"ce4bhs12rcd13ifvqhvg","pricing_plan_id":"cebpf4jnsgd1na2vs0mg"},{"bike_id":"f5544826-a604-4105-b403-19a890a2731c","system_id":"levelo_inurba_marseille","lat":43.23157,"lon":5.43707,"is_reserved":false,"is_disabled":false,"rental_uris":{"android":"levelo://app?vid=f5544826-a604-4105-b403-19a890a2731c","ios":"levelo://app?vid=f5544826-a604-4105-b403-19a890a2731c"},"vehicle_type_id":"4","last_reported":1742829048,"current_range_meters":17600,"station_id":"ce4bhmp2rcd13ifvqgog","pricing_plan_id":"cebpf4jnsgd1na2vs0mg"},{"bike_id":"e0937656-af38-42cf-acee-efe6d255d518","system_id":"levelo_inurba_marseille","lat":43.26791,"lon":5.39407,"is_reserved":false,"is_disabled":false,"rental_uris":{"android":"levelo://app?vid=e0937656-af38-42cf-acee-efe6d255d518","ios":"levelo://app?vid=e0937656-af38-42cf-acee-efe6d255d518"},"vehicle_type_id":"4","last_reported":1742829048,"current_range_meters":17600,"station_id":"ce4bhh12rcd13ifvqfg0","pricing_plan_id":"cebpf4jnsgd1na2vs0mg"},{"bike_id":"5eaf2027-0dea-41fe-992d-fd9335bbaa8b","system_id":"levelo_inurba_marseille","lat":43.2799,"lon":5.40028,"is_reserved":false,"is_disabled":false,"rental_uris":{"android":"levelo://app?vid=5eaf2027-0dea-41fe-992d-fd9335bbaa8b","ios":"levelo://app?vid=5eaf2027-0dea-41fe-992d-fd9335bbaa8b"},"vehicle_type_id":"4","last_reported":1742829048,"current_range_meters":18000,"station_id":"ce4bho92rcd13ifvqh4g","pricing_plan_id":"cebpf4jnsgd1na2vs0mg"},{"bike_id":"8e4c2384-40c5-46b8-bc4e-ab8e919b329a","system_id":"levelo_inurba_marseille","lat":43.28369,"lon":5.38644,"is_reserved":false,"is_disabled":false,"rental_uris":{"android":"levelo://app?vid=8e4c2384-40c5-46b8-bc4e-ab8e919b329a","ios":"levelo://app?vid=8e4c2384-40c5-46b8-bc4e-ab8e919b329a"},"vehicle_type_id":"4","last_reported":1742829048,"current_range_meters":18000,"station_id":"ce4bh492rcd13ifvqdvg","pricing_plan_id":"cebpf4jnsgd1na2vs0mg"},{"bike_id":"25ab15c9-920b-41cd-a6ce-c0a55ade029f","system_id":"levelo_inurba_marseille","lat":43.32538,"lon":5.41443,"is_reserved":false,"is_disabled":false,"rental_uris":{"android":"levelo://app?vid=25ab15c9-920b-41cd-a6ce-c0a55ade029f","ios":"levelo://app?vid=25ab15c9-920b-41cd-a6ce-c0a55ade029f"},"vehicle_type_id":"4","last_reported":1742829048,"current_range_meters":18000,"station_id":"ce4bhq12rcd13ifvqhhg","pricing_plan_id":"cebpf4jnsgd1na2vs0mg"},{"bike_id":"fcf450d2-c235-472a-96bd-6e234d8f6e10","system_id":"levelo_inurba_marseille","lat":43.299,"lon":5.43663,"is_reserved":false,"is_disabled":false,"rental_uris":{"android":"levelo://app?vid=fcf450d2-c235-472a-96bd-6e234d8f6e10","ios":"levelo://app?vid=fcf450d2-c235-472a-96bd-6e234d8f6e10"},"vehicle_type_id":"4","last_reported":1742829048,"current_range_meters":18000,"station_id":"ce4bhpp2rcd13ifvqhfg","pricing_plan_id":"cebpf4jnsgd1na2vs0mg"},{"bike_id":"7e1a9145-ca6a-4a17-b5e6-320201ea3679","system_id":"levelo_inurba_marseille","lat":43.26564,"lon":5.39014,"is_reserved":false,"is_disabled":true,"rental_uris":{"android":"levelo://app?vid=7e1a9145-ca6a-4a17-b5e6-320201ea3679","ios":"levelo://app?vid=7e1a9145-ca6a-4a17-b5e6-320201ea3679"},"vehicle_type_id":"4","last_reported":1742829048,"current_range_meters":18000,"station_id":"ce4bhe12rcd13ifvqf30","pricing_plan_id":"cebpf4jnsgd1na2vs0mg"},{"bike_id":"5c25b7c9-b2e6-437d-bdcc-8f460b9b3b3f","system_id":"levelo_inurba_marseille","lat":43.27916,"lon":5.39583,"is_reserved":false,"is_disabled":false,"rental_uris":{"android":"levelo://app?vid=5c25b7c9-b2e6-437d-bdcc-8f460b9b3b3f","ios":"levelo://app?vid=5c25b7c9-b2e6-437d-bdcc-8f460b9b3b3f"},"vehicle_type_id":"4","last_reported":1742829048,"current_range_meters":18000,"station_id":"ce4bhf92rcd13ifvqf40","pricing_plan_id":"cebpf4jnsgd1na2vs0mg"},{"bike_id":"9548d4cb-4124-4844-a214-42c4cd805650","system_id":"levelo_inurba_marseille","lat":43.27813,"lon":5.4072,"is_reserved":false,"is_disabled":false,"rental_uris":{"android":"levelo://app?vid=9548d4cb-4124-4844-a214-42c4cd805650","ios":"levelo://app?vid=9548d4cb-4124-4844-a214-42c4cd805650"},"vehicle_type_id":"4","last_reported":1742829048,"current_range_meters":18800,"station_id":"ce4bhnh2rcd13ifvqgtg","pricing_plan_id":"cebpf4jnsgd1na2vs0mg"},{"bike_id":"53d311d1-432e-414c-a7e2-d1e3244f4d8d","system_id":"levelo_inurba_marseille","lat":43.24651,"lon":5.38893,"is_reserved":false,"is_disabled":false,"rental_uris":{"android":"levelo://app?vid=53d311d1-432e-414c-a7e2-d1e3244f4d8d","ios":"levelo://app?vid=53d311d1-432e-414c-a7e2-d1e3244f4d8d"},"vehicle_type_id":"4","last_reported":1742829048,"current_range_meters":18800,"station_id":"ce4bhg12rcd13ifvqf60","pricing_plan_id":"cebpf4jnsgd1na2vs0mg"},{"bike_id":"19e063aa-7bdb-4f35-8c33-9cd1b5e85b70","system_id":"levelo_inurba_marseille","lat":43.25083,"lon":5.39511,"is_reserved":false,"is_disabled":false,"rental_uris":{"android":"levelo://app?vid=19e063aa-7bdb-4f35-8c33-9cd1b5e85b70","ios":"levelo://app?vid=19e063aa-7bdb-4f35-8c33-9cd1b5e85b70"},"vehicle_type_id":"4","last_reported":1742829048,"current_range_meters":18800,"station_id":"ce4bhm12rcd13ifvqgkg","pricing_plan_id":"cebpf4jnsgd1na2vs0mg"},{"bike_id":"cf368302-2106-4fc9-a2e7-39bf086c9c03","system_id":"levelo_inurba_marseille","lat":43.2971,"lon":5.36597,"is_reserved":false,"is_disabled":false,"rental_uris":{"android":"levelo://app?vid=cf368302-2106-4fc9-a2e7-39bf086c9c03","ios":"levelo://app?vid=cf368302-2106-4fc9-a2e7-39bf086c9c03"},"vehicle_type_id":"4","last_reported":1742829048,"current_range_meters":18800,"station_id":"ce4bgn12rcd13ifvqbt0","pricing_plan_id":"cebpf4jnsgd1na2vs0mg"},{"bike_id":"f19c910f-9732-4ec5-8abb-91e60fd2eee8","system_id":"levelo_inurba_marseille","lat":43.2848,"lon":5.38553,"is_reserved":false,"is_disabled":false,"rental_uris":{"android":"levelo://app?vid=f19c910f-9732-4ec5-8abb-91e60fd2eee8","ios":"levelo://app?vid=f19c910f-9732-4ec5-8abb-91e60fd2eee8"},"vehicle_type_id":"4","last_reported":1742829048,"current_range_meters":18800,"station_id":"ce4bh8p2rcd13ifvqeb0","pricing_plan_id":"cebpf4jnsgd1na2vs0mg"},{"bike_id":"84a7a785-5392-42bc-8088-fb903bcc7f5c","system_id":"levelo_inurba_marseille","lat":43.23051,"lon":5.35508,"is_reserved":false,"is_disabled":false,"rental_uris":{"android":"levelo://app?vid=84a7a785-5392-42bc-8088-fb903bcc7f5c","ios":"levelo://app?vid=84a7a785-5392-42bc-8088-fb903bcc7f5c"},"vehicle_type_id":"4","last_reported":1742829048,"current_range_meters":18800,"station_id":"cpo3342slgdg3j2ifvpg","pricing_plan_id":"cebpf4jnsgd1na2vs0mg"},{"bike_id":"682f6eaa-4c29-4c3b-a483-b3baee9bd977","system_id":"levelo_inurba_marseille","lat":43.259381,"lon":5.409153,"is_reserved":false,"is_disabled":true,"rental_uris":{"android":"levelo://app?vid=682f6eaa-4c29-4c3b-a483-b3baee9bd977","ios":"levelo://app?vid=682f6eaa-4c29-4c3b-a483-b3baee9bd977"},"vehicle_type_id":"4","last_reported":1742829048,"current_range_meters":18800,"station_id":"ce4bhm92rcd13ifvqglg","pricing_plan_id":"cebpf4jnsgd1na2vs0mg"},{"bike_id":"b949dccb-c8af-4318-9be7-4d2310eb048a","system_id":"levelo_inurba_marseille","lat":43.26354,"lon":5.39905,"is_reserved":false,"is_disabled":false,"rental_uris":{"android":"levelo://app?vid=b949dccb-c8af-4318-9be7-4d2310eb048a","ios":"levelo://app?vid=b949dccb-c8af-4318-9be7-4d2310eb048a"},"vehicle_type_id":"4","last_reported":1742829048,"current_range_meters":18800,"station_id":"","pricing_plan_id":"cebpf4jnsgd1na2vs0mg"},{"bike_id":"3ef86fad-fb60-4870-8869-3e4add3df08a","system_id":"levelo_inurba_marseille","lat":43.30099,"lon":5.39067,"is_reserved":false,"is_disabled":false,"rental_uris":{"android":"levelo://app?vid=3ef86fad-fb60-4870-8869-3e4add3df08a","ios":"levelo://app?vid=3ef86fad-fb60-4870-8869-3e4add3df08a"},"vehicle_type_id":"4","last_reported":1742829048,"current_range_meters":18800,"station_id":"ce4bh192rcd13ifvqdb0","pricing_plan_id":"cebpf4jnsgd1na2vs0mg"},{"bike_id":"eb7fc239-24dc-45ca-8336-eb1b18c22225","system_id":"levelo_inurba_marseille","lat":43.29195,"lon":5.39305,"is_reserved":false,"is_disabled":false,"rental_uris":{"android":"levelo://app?vid=eb7fc239-24dc-45ca-8336-eb1b18c22225","ios":"levelo://app?vid=eb7fc239-24dc-45ca-8336-eb1b18c22225"},"vehicle_type_id":"4","last_reported":1742829048,"current_range_meters":18800,"station_id":"ce4bh192rcd13ifvqdd0","pricing_plan_id":"cebpf4jnsgd1na2vs0mg"},{"bike_id":"af85c39e-4ba6-4d99-afa2-94251a5c847d","system_id":"levelo_inurba_marseille","lat":43.279133,"lon":5.395827,"is_reserved":false,"is_disabled":false,"rental_uris":{"android":"levelo://app?vid=af85c39e-4ba6-4d99-afa2-94251a5c847d","ios":"levelo://app?vid=af85c39e-4ba6-4d99-afa2-94251a5c847d"},"vehicle_type_id":"4","last_reported":1742829048,"current_range_meters":18800,"station_id":"ce4bhf92rcd13ifvqf40","pricing_plan_id":"cebpf4jnsgd1na2vs0mg"},{"bike_id":"5a33f3f9-eb6d-4fc9-b83a-09467e00d569","system_id":"levelo_inurba_marseille","lat":43.28079,"lon":5.3966,"is_reserved":false,"is_disabled":false,"rental_uris":{"android":"levelo://app?vid=5a33f3f9-eb6d-4fc9-b83a-09467e00d569","ios":"levelo://app?vid=5a33f3f9-eb6d-4fc9-b83a-09467e00d569"},"vehicle_type_id":"4","last_reported":1742829048,"current_range_meters":19200,"station_id":"ce4bho12rcd13ifvqh2g","pricing_plan_id":"cebpf4jnsgd1na2vs0mg"},{"bike_id":"c1fae0ef-0b86-4f53-898d-a5de2eeb1a6d","system_id":"levelo_inurba_marseille","lat":43.27954,"lon":5.41025,"is_reserved":false,"is_disabled":false,"rental_uris":{"android":"levelo://app?vid=c1fae0ef-0b86-4f53-898d-a5de2eeb1a6d","ios":"levelo://app?vid=c1fae0ef-0b86-4f53-898d-a5de2eeb1a6d"},"vehicle_type_id":"4","last_reported":1742829048,"current_range_meters":19200,"station_id":"ce4bhnp2rcd13ifvqh0g","pricing_plan_id":"cebpf4jnsgd1na2vs0mg"},{"bike_id":"66d3dde4-d9ab-4195-bc2d-fedbea84bbc3","system_id":"levelo_inurba_marseille","lat":43.2815,"lon":5.42633,"is_reserved":false,"is_disabled":false,"rental_uris":{"android":"levelo://app?vid=66d3dde4-d9ab-4195-bc2d-fedbea84bbc3","ios":"levelo://app?vid=66d3dde4-d9ab-4195-bc2d-fedbea84bbc3"},"vehicle_type_id":"4","last_reported":1742829048,"current_range_meters":19200,"station_id":"ce4bhnh2rcd13ifvqgug","pricing_plan_id":"cebpf4jnsgd1na2vs0mg"},{"bike_id":"d35cf5ba-0254-4ecf-821c-2af3fc5ce1f3","system_id":"levelo_inurba_marseille","lat":43.25084,"lon":5.3951,"is_reserved":false,"is_disabled":false,"rental_uris":{"android":"levelo://app?vid=d35cf5ba-0254-4ecf-821c-2af3fc5ce1f3","ios":"levelo://app?vid=d35cf5ba-0254-4ecf-821c-2af3fc5ce1f3"},"vehicle_type_id":"4","last_reported":1742829048,"current_range_meters":18800,"station_id":"ce4bhm12rcd13ifvqgkg","pricing_plan_id":"cebpf4jnsgd1na2vs0mg"},