{"last_updated":1729267862,"ttl":60,"version":"2.2","data":{"bikes":[{"bike_id":"7c215bb1-a727-4569-986d-c8f6cf1e676e","system_id":"levelo_inurba_marseille","lat":43.31712,"lon":5.43706,"is_reserved":false,"is_disabled":false,"rental_uris":{"android":"levelo://app?vid=7c215bb1-a727-4569-986d-c8f6cf1e676e","ios":"levelo://app?vid=7c215bb1-a727-4569-986d-c8f6cf1e676e"},"vehicle_type_id":"4","last_reported":1729267862,"current_range_meters":30000,"station_id":"ce4bhp92rcd13ifvqhcg","pricing_plan_id":"cebpf4jnsgd1na2vs0mg"},{"bike_id":"9415f9f7-8dd5-4c39-b636-672f22cf6422","system_id":"levelo_inurba_marseille","lat":43.32109,"lon":5.36786,"is_reserved":false,"is_disabled":false,"rental_uris":{"android":"levelo://app?vid=9415f9f7-8dd5-4c39-b636-672f22cf6422","ios":"levelo://app?vid=9415f9f7-8dd5-4c39-b636-672f22cf6422"},"vehicle_type_id":"4","last_reported":1729267862,"current_range_meters":38800,"station_id":"ce4bhrh2rcd13ifvqhug","pricing_plan_id":"cebpf4jnsgd1na2vs0mg"},{"bike_id":"0bd29515-40d3-4b3d-a1be-6c5884ab24e6","system_id":"levelo_inurba_marseille","lat":43.32721,"lon":5.38333,"is_reserved":false,"is_disabled":false,"rental_uris":{"android":"levelo://app?vid=0bd29515-40d3-4b3d-a1be-6c5884ab24e6","ios":"levelo://app?vid=0bd29515-40d3-4b3d-a1be-6c5884ab24e6"},"vehicle_type_id":"4","last_reported":1729267862,"current_range_meters":22800,"station_id":"","pricing_plan_id":"cebpf4jnsgd1na2vs0mg"},{"bike_id":"676ec6c4-6b42-43e0-81fe-327782965da5","system_id":"levelo_inurba_marseille","lat":43.33765,"lon":5.37484,"is_reserved":false,"is_disabled":false,"rental_uris":{"android":"levelo://app?vid=676ec6c4-6b42-43e0-81fe-327782965da5","ios":"levelo://app?vid=676ec6c4-6b42-43e0-81fe-327782965da5"},"vehicle_type_id":"4","last_reported":1729267862,"current_range_meters":17600,"station_id":"","pricing_plan_id":"cebpf4jnsgd1na2vs0mg"},{"bike_id":"966f251d-4412-4e77-82b7-c125675614ef","system_id":"levelo_inurba_marseille","lat":43.337444,"lon":5.374475,"is_reserved":false,"is_disabled":false,"rental_uris":{"android":"levelo://app?vid=966f251d-4412-4e77-82b7-c125675614ef","ios":"levelo://app?vid=966f251d-4412-4e77-82b7-c125675614ef"},"vehicle_type_id":"4","last_reported":1729267862,"current_range_meters":7200,"station_id":"","pricing_plan_id":"cebpf4jnsgd1na2vs0mg"},{"bike_id":"799e9c7b-6637-451d-b4d1-0f7688434cec","system_id":"levelo_inurba_marseille","lat":43.3171,"lon":5.43708,"is_reserved":false,"is_disabled":false,"rental_uris":{"android":"levelo://app?vid=799e9c7b-6637-451d-b4d1-0f7688434cec","ios":"levelo://app?vid=799e9c7b-6637-451d-b4d1-0f7688434cec"},"vehicle_type_id":"4","last_reported":1729267862,"current_range_meters":10800,"station_id":"ce4bhp92rcd13ifvqhcg","pricing_plan_id":"cebpf4jnsgd1na2vs0mg"},{"bike_id":"82634785-239b-40a3-89a8-686129ad4c11","system_id":"levelo_inurba_marseille","lat":43.30423,"lon":5.39745,"is_reserved":false,"is_disabled":false,"rental_uris":{"android":"levelo://app?vid=82634785-239b-40a3-89a8-686129ad4c11","ios":"levelo://app?vid=82634785-239b-40a3-89a8-686129ad4c11"},"vehicle_type_id":"4","last_reported":1729267862,"current_range_meters":9600,"station_id":"ce4bh092rcd13ifvqd20","pricing_plan_id":"cebpf4jnsgd1na2vs0mg"},{"bike_id":"99264339-7fc2-415e-9684-8956509cb05b","system_id":"levelo_inurba_marseille","lat":43.270161,"lon":5.403098,"is_reserved":false,"is_disabled":false,"rental_uris":{"android":"levelo://app?vid=99264339-7fc2-415e-9684-8956509cb05b","ios":"levelo://app?vid=99264339-7fc2-415e-9684-8956509cb05b"},"vehicle_type_id":"4","last_reported":1729267862,"current_range_meters":14800,"station_id":"ce4bhh12rcd13ifvqfg0","pricing_plan_id":"cebpf4jnsgd1na2vs0mg"},{"bike_id":"9e23534c-3873-44a5-b32e-f42e453f7851","system_id":"levelo_inurba_marseille","lat":43.31083,"lon":5.42434,"is_reserved":false,"is_disabled":false,"rental_uris":{"android":"levelo://app?vid=9e23534c-3873-44a5-b32e-f42e453f7851","ios":"levelo://app?vid=9e23534c-3873-44a5-b32e-f42e453f7851"},"vehicle_type_id":"4","last_reported":1729267862,"current_range_meters":4400,"station_id":"ce4bhp92rcd13ifvqhag","pricing_plan_id":"cebpf4jnsgd1na2vs0mg"},{"bike_id":"25668d1a-6b94-4045-a721-d94eb38e1ae7","system_id":"levelo_inurba_marseille","lat":43.27374,"lon":5.3626,"is_reserved":false,"is_disabled":false,"rental_uris":{"android":"levelo://app?vid=25668d1a-6b94-4045-a721-d94eb38e1ae7","ios":"levelo://app?vid=25668d1a-6b94-4045-a721-d94eb38e1ae7"},"vehicle_type_id":"4","last_reported":1729267862,"current_range_meters":40000,"station_id":"ce4bhbh2rcd13ifvqeo0","pricing_plan_id":"cebpf4jnsgd1na2vs0mg"},{"bike_id":"7ffc8d46-1e4b-4061-8b88-843ed8aad4a0","system_id":"levelo_inurba_marseille","lat":43.28153,"lon":5.42659,"is_reserved":false,"is_disabled":false,"rental_uris":{"android":"levelo://app?vid=7ffc8d46-1e4b-4061-8b88-843ed8aad4a0","ios":"levelo://app?vid=7ffc8d46-1e4b-4061-8b88-843ed8aad4a0"},"vehicle_type_id":"4","last_reported":1729267862,"current_range_meters":19600,"station_id":"ce4bhnh2rcd13ifvqgug","pricing_plan_id":"cebpf4jnsgd1na2vs0mg"},{"bike_id":"ea62d96a-3cb1-4502-9634-40a94241dd6c","system_id":"levelo_inurba_marseille","lat":43.27996,"lon":5.40014,"is_reserved":false,"is_disabled":false,"rental_uris":{"android":"levelo://app?vid=ea62d96a-3cb1-4502-9634-40a94241dd6c","ios":"levelo://app?vid=ea62d96a-3cb1-4502-9634-40a94241dd6c"},"vehicle_type_id":"4","last_reported":1729267862,"current_range_meters":38000,"station_id":"ce4bho92rcd13ifvqh4g","pricing_plan_id":"cebpf4jnsgd1na2vs0mg"},{"bike_id":"566f632b-df5e-4ced-8894-d82d33cd0371","system_id":"levelo_inurba_marseille","lat":43.25852,"lon":5.39914,"is_reserved":false,"is_disabled":false,"rental_uris":{"android":"levelo://app?vid=566f632b-df5e-4ced-8894-d82d33cd0371","ios":"levelo://app?vid=566f632b-df5e-4ced-8894-d82d33cd0371"},"vehicle_type_id":"4","last_reported":1729267862,"current_range_meters":6000,"station_id":"ce4bhl92rcd13ifvqghg","pricing_plan_id":"cebpf4jnsgd1na2vs0mg"},{"bike_id":"75151ea2-489c-4ffd-8207-a2f7ac525f5f","system_id":"levelo_inurba_marseille","lat":43.2927,"lon":5.36854,"is_reserved":false,"is_disabled":false,"rental_uris":{"android":"levelo://app?vid=75151ea2-489c-4ffd-8207-a2f7ac525f5f","ios":"levelo://app?vid=75151ea2-489c-4ffd-8207-a2f7ac525f5f"},"vehicle_type_id":"4","last_reported":1729267862,"current_range_meters":16400,"station_id":"ce4bhbp2rcd13ifvqesg","pricing_plan_id":"cebpf4jnsgd1na2vs0mg"},{"bike_id":"90713fff-0658-4173-861d-55f3228b099b","system_id":"levelo_inurba_marseille","lat":43.25383,"lon":5.39361,"is_reserved":false,"is_disabled":false,"rental_uris":{"android":"levelo://app?vid=90713fff-0658-4173-861d-55f3228b099b","ios":"levelo://app?vid=90713fff-0658-4173-861d-55f3228b099b"},"vehicle_type_id":"4","last_reported":1729267862,"current_range_meters":37600,"station_id":"","pricing_plan_id":"cebpf4jnsgd1na2vs0mg"},{"bike_id":"ab2376eb-bbd0-47f6-96e3-29315f976dbf","system_id":"levelo_inurba_marseille","lat":43.28399,"lon":5.34986,"is_reserved":false,"is_disabled":false,"rental_uris":{"android":"levelo://app?vid=ab2376eb-bbd0-47f6-96e3-29315f976dbf","ios":"levelo://app?vid=ab2376eb-bbd0-47f6-96e3-29315f976dbf"},"vehicle_type_id":"4","last_reported":1729267862,"current_range_meters":30800,"station_id":"ce4bhbh2rcd13ifvqepg","pricing_plan_id":"cebpf4jnsgd1na2vs0mg"},{"bike_id":"fcf8e5e3-672d-477a-9199-eee33bdebbba","system_id":"levelo_inurba_marseille","lat":43.30257,"lon":5.40081,"is_reserved":false,"is_disabled":false,"rental_uris":{"android":"levelo://app?vid=fcf8e5e3-672d-477a-9199-eee33bdebbba","ios":"levelo://app?vid=fcf8e5e3-672d-477a-9199-eee33bdebbba"},"vehicle_type_id":"4","last_reported":1729267862,"current_range_meters":4000,"station_id":"ce4bgvh2rcd13ifvqcs0","pricing_plan_id":"cebpf4jnsgd1na2vs0mg"},{"bike_id":"ab0a1ff0-9f1e-4bf7-b3cd-abf65dc62249","system_id":"levelo_inurba_marseille","lat":43.2694,"lon":5.40249,"is_reserved":false,"is_disabled":false,"rental_uris":{"android":"levelo://app?vid=ab0a1ff0-9f1e-4bf7-b3cd-abf65dc62249","ios":"levelo://app?vid=ab0a1ff0-9f1e-4bf7-b3cd-abf65dc62249"},"vehicle_type_id":"4","last_reported":1729267862,"current_range_meters":38400,"station_id":"cjm6bp8fraef2m0cb0m0","pricing_plan_id":"cebpf4jnsgd1na2vs0mg"},{"bike_id":"5e053c0d-95ce-41d5-aacf-cd561427d7cf","system_id":"levelo_inurba_marseille","lat":43.26197,"lon":5.37452,"is_reserved":false,"is_disabled":false,"rental_uris":{"android":"levelo://app?vid=5e053c0d-95ce-41d5-aacf-cd561427d7cf","ios":"levelo://app?vid=5e053c0d-95ce-41d5-aacf-cd561427d7cf"},"vehicle_type_id":"4","last_reported":1729267862,"current_range_meters":26800,"station_id":"ce4bhgp2rcd13ifvqfc0","pricing_plan_id":"cebpf4jnsgd1na2vs0mg"},{"bike_id":"a8764d40-1a83-4c11-8ace-6ee274d3a72f","system_id":"levelo_inurba_marseille","lat":43.2707,"lon":5.42281,"is_reserved":false,"is_disabled":false,"rental_uris":{"android":"levelo://app?vid=a8764d40-1a83-4c11-8ace-6ee274d3a72f","ios":"levelo://app?vid=a8764d40-1a83-4c11-8ace-6ee274d3a72f"},"vehicle_type_id":"4","last_reported":1729267862,"current_range_meters":34000,"station_id":"ce4bhk92rcd13ifvqgb0","pricing_plan_id":"cebpf4jnsgd1na2vs0mg"},{"bike_id":"b3d6fa32-f708-4338-896e-b4799ecf7d82","system_id":"levelo_inurba_marseille","lat":43.31115,"lon":5.3776,"is_reserved":false,"is_disabled":false,"rental_uris":{"android":"levelo://app?vid=b3d6fa32-f708-4338-896e-b4799ecf7d82","ios":"levelo://app?vid=b3d6fa32-f708-4338-896e-b4799ecf7d82"},"vehicle_type_id":"4","last_reported":1729267862,"current_range_meters":38000,"station_id":"ce4bgt92rcd13ifvqcg0","pricing_plan_id":"cebpf4jnsgd1na2vs0mg"},{"bike_id":"2aa30074-a798-4517-9910-408fe840d5c0","system_id":"levelo_inurba_marseille","lat":43.23194,"lon":5.35557,"is_reserved":false,"is_disabled":false,"rental_uris":{"android":"levelo://app?vid=2aa30074-a798-4517-9910-408fe840d5c0","ios":"levelo://app?vid=2aa30074-a798-4517-9910-408fe840d5c0"},"vehicle_type_id":"4","last_reported":1729267862,"current_range_meters":28000,"station_id":"ce4bhu92rcd13ifvqi70","pricing_plan_id":"cebpf4jnsgd1na2vs0mg"},{"bike_id":"d5d87b96-496a-454b-9e81-b0e5a09c72cf","system_id":"levelo_inurba_marseille","lat":43.28606,"lon":5.3707,"is_reserved":false,"is_disabled":false,"rental_uris":{"android":"levelo://app?vid=d5d87b96-496a-454b-9e81-b0e5a09c72cf","ios":"levelo://app?vid=d5d87b96-496a-454b-9e81-b0e5a09c72cf"},"vehicle_type_id":"4","last_reported":1729267862,"current_range_meters":36800,"station_id":"ce4bht12rcd13ifvqi60","pricing_plan_id":"cebpf4jnsgd1na2vs0mg"},{"bike_id":"2cdcc671-24db-4fb5-99a0-96fea4de91b1","system_id":"levelo_inurba_marseille","lat":43.274353,"lon":5.384796,"is_reserved":false,"is_disabled":false,"rental_uris":{"android":"levelo://app?vid=2cdcc671-24db-4fb5-99a0-96fea4de91b1","ios":"levelo://app?vid=2cdcc671-24db-4fb5-99a0-96fea4de91b1"},"vehicle_type_id":"4","last_reported":1729267862,"current_range_meters":11200,"station_id":"ce4bhb92rcd13ifvqen0","pricing_plan_id":"cebpf4jnsgd1na2vs0mg"},{"bike_id":"bc4dfd71-cdf3-45e3-8aa3-c5528379f96a","system_id":"levelo_inurba_marseille","lat":43.27607,"lon":5.36114,"is_reserved":false,"is_disabled":false,"rental_uris":{"android":"levelo://app?vid=bc4dfd71-cdf3-45e3-8aa3-c5528379f96a","ios":"levelo://app?vid=bc4dfd71-cdf3-45e3-8aa3-c5528379f96a"},"vehicle_type_id":"4","last_reported":1729267862,"current_range_meters":24800,"station_id":"ce4bgj92rcd13ifvqbe0","pricing_plan_id":"cebpf4jnsgd1na2vs0mg"},{"bike_id":"c746da30-0175-4c63-8cc4-f4d0284e8127","system_id":"levelo_inurba_marseille","lat":43.2396,"lon":5.36648,"is_reserved":false,"is_disabled":false,"rental_uris":{"android":"levelo://app?vid=c746da30-0175-4c63-8cc4-f4d0284e8127","ios":"levelo://app?vid=c746da30-0175-4c63-8cc4-f4d0284e8127"},"vehicle_type_id":"4","last_reported":1729267862,"current_range_meters":20800,"station_id":"ce4bhi12rcd13ifvqfp0","pricing_plan_id":"cebpf4jnsgd1na2vs0mg"},{"bike_id":"d9d5e5ca-bd4e-4082-89cf-4718d61fb521","system_id":"levelo_inurba_marseille","lat":43.25498,"lon":5.37652,"is_reserved":false,"is_disabled":false,"rental_uris":{"android":"levelo://app?vid=d9d5e5ca-bd4e-4082-89cf-4718d61fb521","ios":"levelo://app?vid=d9d5e5ca-bd4e-4082-89cf-4718d61fb521"},"vehicle_type_id":"4","last_reported":1729267862,"current_range_meters":24000,"station_id":"ce4bhh12rcd13ifvqff0","pricing_plan_id":"cebpf4jnsgd1na2vs0mg"},{"bike_id":"56343d3c-15a6-4df8-924e-c373db0b7108","system_id":"levelo_inurba_marseille","lat":43.2951,"lon":5.37515,"is_reserved":false,"is_disabled":false,"rental_uris":{"android":"levelo://app?vid=56343d3c-15a6-4df8-924e-c373db0b7108","ios":"levelo://app?vid=56343d3c-15a6-4df8-924e-c373db0b7108"},"vehicle_type_id":"4","last_reported":1729267862,"current_range_meters":19200,"station_id":"ce4bgkp2rcd13ifvqbmg","pricing_plan_id":"cebpf4jnsgd1na2vs0mg"},{"bike_id":"6b7c65c8-2620-406b-9377-2ca6fb33b7b1","system_id":"levelo_inurba_marseille","lat":43.26215,"lon":5.37443,"is_reserved":false,"is_disabled":false,"rental_uris":{"android":"levelo://app?vid=6b7c65c8-2620-406b-9377-2ca6fb33b7b1","ios":"levelo://app?vid=6b7c65c8-2620-406b-9377-2ca6fb33b7b1"},"vehicle_type_id":"4","last_reported":1729267862,"current_range_meters":38800,"station_id":"ce4bhgp2rcd13ifvqfc0","pricing_plan_id":"cebpf4jnsgd1na2vs0mg"},{"bike_id":"835c7c1c-faf5-450b-ad34-040a14264d6e","system_id":"levelo_inurba_marseille","lat":43.25499,"lon":5.37651,"is_reserved":false,"is_disabled":false,"rental_uris":{"android":"levelo://app?vid=835c7c1c-faf5-450b-ad34-040a14264d6e","ios":"levelo://app?vid=835c7c1c-faf5-450b-ad34-040a14264d6e"},"vehicle_type_id":"4","last_reported":1729267862,"current_range_meters":18800,"station_id":"ce4bhh12rcd13ifvqff0","pricing_plan_id":"cebpf4jnsgd1na2vs0mg"},{"bike_id":"fbe7fd35-d970-4695-b1fb-33da508bcad4","system_id":"levelo_inurba_marseille","lat":43.2318,"lon":5.39996,"is_reserved":false,"is_disabled":false,"rental_uris":{"android":"levelo://app?vid=fbe7fd35-d970-4695-b1fb-33da508bcad4","ios":"levelo://app?vid=fbe7fd35-d970-4695-b1fb-33da508bcad4"},"vehicle_type_id":"4","last_reported":1729267862,"current_range_meters":23200,"station_id":"ce4bhn12rcd13ifvqgqg","pricing_plan_id":"cebpf4jnsgd1na2vs0mg"},{"bike_id":"c903dc2b-eebe-4d3c-afce-2f813ae5cbb0","system_id":"levelo_inurba_marseille","lat":43.29587,"lon":5.37813,"is_reserved":false,"is_disabled":false,"rental_uris":{"android":"levelo://app?vid=c903dc2b-eebe-4d3c-afce-2f813ae5cbb0","ios":"levelo://app?vid=c903dc2b-eebe-4d3c-afce-2f813ae5cbb0"},"vehicle_type_id":"4","last_reported":1729267862,"current_range_meters":30000,"station_id":"ce4bgjh2rcd13ifvqbg0","pricing_plan_id":"cebpf4jnsgd1na2vs0mg"},{"bike_id":"8aae87b3-4087-4a1d-9ea8-08fb71a232c2","system_id":"levelo_inurba_marseille","lat":43.301381,"lon":5.387659,"is_reserved":false,"is_disabled":false,"rental_uris":{"android":"levelo://app?vid=8aae87b3-4087-4a1d-9ea8-08fb71a232c2","ios":"levelo://app?vid=8aae87b3-4087-4a1d-9ea8-08fb71a232c2"},"vehicle_type_id":"4","last_reported":1729267862,"current_range_meters":20000,"station_id":"ce4bghh2rcd13ifvqb60","pricing_plan_id":"cebpf4jnsgd1na2vs0mg"},{"bike_id":"3aec056d-902c-4169-8ee4-b58a40f892ed","system_id":"levelo_inurba_marseille","lat":43.23957,"lon":5.36637,"is_reserved":false,"is_disabled":false,"rental_uris":{"android":"levelo://app?vid=3aec056d-902c-4169-8ee4-b58a40f892ed","ios":"levelo://app?vid=3aec056d-902c-4169-8ee4-b58a40f892ed"},"vehicle_type_id":"4","last_reported":1729267862,"current_range_meters":39200,"station_id":"ce4bhi12rcd13ifvqfp0","pricing_plan_id":"cebpf4jnsgd1na2vs0mg"},{"bike_id":"3cc9ca15-d23c-4891-9216-c134fa816eb8","system_id":"levelo_inurba_marseille","lat":43.24184,"lon":5.3973,"is_reserved":false,"is_disabled":false,"rental_uris":{"android":"levelo://app?vid=3cc9ca15-d23c-4891-9216-c134fa816eb8","ios":"levelo://app?vid=3cc9ca15-d23c-4891-9216-c134fa816eb8"},"vehicle_type_id":"4","last_reported":1729267862,"current_range_meters":27600,"station_id":"ce4bhn12rcd13ifvqgpg","pricing_plan_id":"cebpf4jnsgd1na2vs0mg"},{"bike_id":"299dfc52-ccaa-46a8-85e5-ed1f38c31e59","system_id":"levelo_inurba_marseille","lat":43.2418,"lon":5.39728,"is_reserved":false,"is_disabled":false,"rental_uris":{"android":"levelo://app?vid=299dfc52-ccaa-46a8-85e5-ed1f38c31e59","ios":"levelo://app?vid=299dfc52-ccaa-46a8-85e5-ed1f38c31e59"},"vehicle_type_id":"4","last_reported":1729267862,"current_range_meters":18000,"station_id":"ce4bhn12rcd13ifvqgpg","pricing_plan_id":"cebpf4jnsgd1na2vs0mg"},{"bike_id":"e27af8ff-c713-4e13-b918-fe5e4193896c","system_id":"levelo_inurba_marseille","lat":43.30783,"lon":5.37651,"is_reserved":false,"is_disabled":false,"rental_uris":{"android":"levelo://app?vid=e27af8ff-c713-4e13-b918-fe5e4193896c","ios":"levelo://app?vid=e27af8ff-c713-4e13-b918-fe5e4193896c"},"vehicle_type_id":"4","last_reported":1729267862,"current_range_meters":14000,"station_id":"ce4bgv92rcd13ifvqcq0","pricing_plan_id":"cebpf4jnsgd1na2vs0mg"},{"bike_id":"dd7464d1-2528-413c-a4a4-08eb533872ab","system_id":"levelo_inurba_marseille","lat":43.32656,"lon":5.40998,"is_reserved":false,"is_disabled":false,"rental_uris":{"android":"levelo://app?vid=dd7464d1-2528-413c-a4a4-08eb533872ab","ios":"levelo://app?vid=dd7464d1-2528-413c-a4a4-08eb533872ab"},"vehicle_type_id":"4","last_reported":1729267862,"current_range_meters":10000,"station_id":"ce4bhpp2rcd13ifvqhgg","pricing_plan_id":"cebpf4jnsgd1na2vs0mg"},{"bike_id":"019fd070-07b9-46d6-959c-23f8d1d73fc4","system_id":"levelo_inurba_marseille","lat":43.26193,"lon":5.37452,"is_reserved":false,"is_disabled":false,"rental_uris":{"android":"levelo://app?vid=019fd070-07b9-46d6-959c-23f8d1d73fc4","ios":"levelo://app?vid=019fd070-07b9-46d6-959c-23f8d1d73fc4"},"vehicle_type_id":"4","last_reported":1729267862,"current_range_meters":9200,"station_id":"ce4bhgp2rcd13ifvqfc0","pricing_plan_id":"cebpf4jnsgd1na2vs0mg"},{"bike_id":"3d7546d0-4dba-4212-88c9-dfe9a2032237","system_id":"levelo_inurba_marseille","lat":43.24169,"lon":5.36392,"is_reserved":false,"is_disabled":false,"rental_uris":{"android":"levelo://app?vid=3d7546d0-4dba-4212-88c9-dfe9a2032237","ios":"levelo://app?vid=3d7546d0-4dba-4212-88c9-dfe9a2032237"},"vehicle_type_id":"4","last_reported":1729267862,"current_range_meters":37600,"station_id":"cpo36qri1sfpv3e86is0","pricing_plan_id":"cebpf4jnsgd1na2vs0mg"},{"bike_id":"007f1dfd-0d2c-426c-a157-0f8331696688","system_id":"levelo_inurba_marseille","lat":43.23192,"lon":5.35552,"is_reserved":false,"is_disabled":false,"rental_uris":{"android":"levelo://app?vid=007f1dfd-0d2c-426c-a157-0f8331696688","ios":"levelo://app?vid=007f1dfd-0d2c-426c-a157-0f8331696688"},"vehicle_type_id":"4","last_reported":1729267862,"current_range_meters":7200,"station_id":"ce4bhu92rcd13ifvqi70","pricing_plan_id":"cebpf4jnsgd1na2vs0mg"},{"bike_id":"4a7be492-19b6-48b1-b7c2-11aa7a381c9e","system_id":"levelo_inurba_marseille","lat":43.26211,"lon":5.37445,"is_reserved":false,"is_disabled":false,"rental_uris":{"android":"levelo://app?vid=4a7be492-19b6-48b1-b7c2-11aa7a381c9e","ios":"levelo://app?vid=4a7be492-19b6-48b1-b7c2-11aa7a381c9e"},"vehicle_type_id":"4","last_reported":1729267862,"current_range_meters":38800,"station_id":"ce4bhgp2rcd13ifvqfc0","pricing_plan_id":"cebpf4jnsgd1na2vs0mg"},{"bike_id":"141ab974-c134-4cbd-9411-422aa2252e61","system_id":"levelo_inurba_marseille","lat":43.27617,"lon":5.36102,"is_reserved":false,"is_disabled":false,"rental_uris":{"android":"levelo://app?vid=141ab974-c134-4cbd-9411-422aa2252e61","ios":"levelo://app?vid=141ab974-c134-4cbd-9411-422aa2252e61"},"vehicle_type_id":"4","last_reported":1729267862,"current_range_meters":6400,"station_id":"ce4bgj92rcd13ifvqbe0","pricing_plan_id":"cebpf4jnsgd1na2vs0mg"},{"bike_id":"25573e2f-a445-4919-a85f-8daef7637352","system_id":"levelo_inurba_marseille","lat":43.30802,"lon":5.43524,"is_reserved":false,"is_disabled":false,"rental_uris":{"android":"levelo://app?vid=25573e2f-a445-4919-a85f-8daef7637352","ios":"levelo://app?vid=25573e2f-a445-4919-a85f-8daef7637352"},"vehicle_type_id":"4","last_reported":1729267862,"current_range_meters":32800,"station_id":"ce4bhph2rcd13ifvqheg","pricing_plan_id":"cebpf4jnsgd1na2vs0mg"},{"bike_id":"90b7df2b-2805-4913-a745-07d80216980c","system_id":"levelo_inurba_marseille","lat":43.30801,"lon":5.43519,"is_reserved":false,"is_disabled":false,"rental_uris":{"android":"levelo://app?vid=90b7df2b-2805-4913-a745-07d80216980c","ios":"levelo://app?vid=90b7df2b-2805-4913-a745-07d80216980c"},"vehicle_type_id":"4","last_reported":1729267862,"current_range_meters":10800,"station_id":"ce4bhph2rcd13ifvqheg","pricing_plan_id":"cebpf4jnsgd1na2vs0mg"},{"bike_id":"32ce68a3-3fc7-4257-974f-ab657619c295","system_id":"levelo_inurba_marseille","lat":43.33727,"lon":5.37475,"is_reserved":false,"is_disabled":false,"rental_uris":{"android":"levelo://app?vid=32ce68a3-3fc7-4257-974f-ab657619c295","ios":"levelo://app?vid=32ce68a3-3fc7-4257-974f-ab657619c295"},"vehicle_type_id":"4","last_reported":1729267862,"current_range_meters":9600,"station_id":"","pricing_plan_id":"cebpf4jnsgd1na2vs0mg"},{"bike_id":"6a493eff-9915-41b8-9ec4-b22c1d7b64c4","system_id":"levelo_inurba_marseille","lat":43.26191,"lon":5.37457,"is_reserved":false,"is_disabled":false,"rental_uris":{"android":"levelo://app?vid=6a493eff-9915-41b8-9ec4-b22c1d7b64c4","ios":"levelo://app?vid=6a493eff-9915-41b8-9ec4-b22c1d7b64c4"},"vehicle_type_id":"4","last_reported":1729267862,"current_range_meters":38800,"station_id":"ce4bhgp2rcd13ifvqfc0","pricing_plan_id":"cebpf4jnsgd1na2vs0mg"},{"bike_id":"310dc4d8-21a4-4d74-926f-4ffe3f0ed12b","system_id":"levelo_inurba_marseille","lat":43.27376,"lon":5.36263,"is_reserved":false,"is_disabled":false,"rental_uris":{"android":"levelo://app?vid=310dc4d8-21a4-4d74-926f-4ffe3f0ed12b","ios":"levelo://app?vid=310dc4d8-21a4-4d74-926f-4ffe3f0ed12b"},"vehicle_type_id":"4","last_reported":1729267862,"current_range_meters":31200,"station_id":"ce4bhbh2rcd13ifvqeo0","pricing_plan_id":"cebpf4jnsgd1na2vs0mg"},{"bike_id":"04cb7446-ee98-4560-8432-b144922aafe7","system_id":"levelo_inurba_marseille","lat":43.303985,"lon":5.38126,"is_reserved":false,"is_disabled":false,"rental_uris":{"android":"levelo://app?vid=04cb7446-ee98-4560-8432-b144922aafe7","ios":"levelo://app?vid=04cb7446-ee98-4560-8432-b144922aafe7"},"vehicle_type_id":"4","last_reported":1729267862,"current_range_meters":9600,"station_id":"","pricing_plan_id":"cebpf4jnsgd1na2vs0mg"},{"bike_id":"6925b9a1-dcd5-44fa-a331-92eaef316add","system_id":"levelo_inurba_marseille","lat":43.27374,"lon":5.36275,"is_reserved":false,"is_disabled":false,"rental_uris":{"android":"levelo://app?vid=6925b9a1-dcd5-44fa-a331-92eaef316add","ios":"levelo://app?vid=6925b9a1-dcd5-44fa-a331-92eaef316add"},"vehicle_type_id":"4","last_reported":1729267862,"current_range_meters":37600,"station_id":"ce4bhbh2rcd13ifvqeo0","pricing_plan_id":"cebpf4jnsgd1na2vs0mg"},{"bike_id":"555ff3cf-777b-4ff4-b149-9575fc002950","system_id":"levelo_inurba_marseille","lat":43.241808,"lon":5.397232,"is_reserved":false,"is_disabled":false,"rental_uris":{"android":"levelo://app?vid=555ff3cf-777b-4ff4-b149-9575fc002950","ios":"levelo://app?vid=555ff3cf-777b-4ff4-b149-9575fc002950"},"vehicle_type_id":"4","last_reported":1729267862,"current_range_meters":31200,"station_id":"ce4bhn12rcd13ifvqgpg","pricing_plan_id":"cebpf4jnsgd1na2vs0mg"},{"bike_id":"b64362e2-b043-4f67-8e42-f68524e828ed","system_id":"levelo_inurba_marseille","lat":43.24175,"lon":5.39713,"is_reserved":false,"is_disabled":false,"rental_uris":{"android":"levelo://app?vid=b64362e2-b043-4f67-8e42-f68524e828ed","ios":"levelo://app?vid=b64362e2-b043-4f67-8e42-f68524e828ed"},"vehicle_type_id":"4","last_reported":1729267862,"current_range_meters":24400,"station_id":"ce4bhn12rcd13ifvqgpg","pricing_plan_id":"cebpf4jnsgd1na2vs0mg"},{"bike_id":"fa7bbdc9-afbe-404d-8676-647037cc76a9","system_id":"levelo_inurba_marseille","lat":43.23193,"lon":5.35543,"is_reserved":false,"is_disabled":false,"rental_uris":{"android":"levelo://app?vid=fa7bbdc9-afbe-404d-8676-647037cc76a9","ios":"levelo://app?vid=fa7bbdc9-afbe-404d-8676-647037cc76a9"},"vehicle_type_id":"4","last_reported":1729267862,"current_range_meters":28400,"station_id":"ce4bhu92rcd13ifvqi70","pricing_plan_id":"cebpf4jnsgd1na2vs0mg"},{"bike_id":"ae72d7e7-44c5-4936-b652-a590a2ba24a2","system_id":"levelo_inurba_marseille","lat":43.28033,"lon":5.36933,"is_reserved":false,"is_disabled":false,"rental_uris":{"android":"levelo://app?vid=ae72d7e7-44c5-4936-b652-a590a2ba24a2","ios":"levelo://app?vid=ae72d7e7-44c5-4936-b652-a590a2ba24a2"},"vehicle_type_id":"4","last_reported":1729267862,"current_range_meters":35600,"station_id":"ce4bha12rcd13ifvqef0","pricing_plan_id":"cebpf4jnsgd1na2vs0mg"},{"bike_id":"f8d2e239-573b-4f9d-8955-e6720aa9663e","system_id":"levelo_inurba_marseille","lat":43.24647,"lon":5.38897,"is_reserved":false,"is_disabled":false,"rental_uris":{"android":"levelo://app?vid=f8d2e239-573b-4f9d-8955-e6720aa9663e","ios":"levelo://app?vid=f8d2e239-573b-4f9d-8955-e6720aa9663e"},"vehicle_type_id":"4","last_reported":1729267862,"current_range_meters":30400,"station_id":"ce4bhg12rcd13ifvqf60","pricing_plan_id":"cebpf4jnsgd1na2vs0mg"},{"bike_id":"d88aeb6e-c2cc-4a3f-be09-bedf13f1d5fa","system_id":"levelo_inurba_marseille","lat":43.31996,"lon":5.38156,"is_reserved":false,"is_disabled":false,"rental_uris":{"android":"levelo://app?vid=d88aeb6e-c2cc-4a3f-be09-bedf13f1d5fa","ios":"levelo://app?vid=d88aeb6e-c2cc-4a3f-be09-bedf13f1d5fa"},"vehicle_type_id":"4","last_reported":1729267862,"current_range_meters":38800,"station_id":"ce4bhr12rcd13ifvqhpg","pricing_plan_id":"cebpf4jnsgd1na2vs0mg"},{"bike_id":"8c1ec6cb-2291-4814-837b-be8625c706f3","system_id":"levelo_inurba_marseille","lat":43.23195,"lon":5.35544,"is_reserved":false,"is_disabled":false,"rental_uris":{"android":"levelo://app?vid=8c1ec6cb-2291-4814-837b-be8625c706f3","ios":"levelo://app?vid=8c1ec6cb-2291-4814-837b-be8625c706f3"},"vehicle_type_id":"4","last_reported":1729267862,"current_range_meters":32000,"station_id":"ce4bhu92rcd13ifvqi70","pricing_plan_id":"cebpf4jnsgd1na2vs0mg"},{"bike_id":"d0c71c4c-d9d7-4039-98ee-101791d1091b","system_id":"levelo_inurba_marseille","lat":43.28991,"lon":5.37847,"is_reserved":false,"is_disabled":false,"rental_uris":{"android":"levelo://app?vid=d0c71c4c-d9d7-4039-98ee-101791d1091b","ios":"levelo://app?vid=d0c71c4c-d9d7-4039-98ee-101791d1091b"},"vehicle_type_id":"4","last_reported":1729267862,"current_range_meters":12800,"station_id":"ce4bh9p2rcd13ifvqed0","pricing_plan_id":"cebpf4jnsgd1na2vs0mg"},{"bike_id":"42fed90f-d5a8-4a70-ad12-e25499f1803c","system_id":"levelo_inurba_marseille","lat":43.26787,"lon":5.39419,"is_reserved":false,"is_disabled":false,"rental_uris":{"android":"levelo://app?vid=42fed90f-d5a8-4a70-ad12-e25499f1803c","ios":"levelo://app?vid=42fed90f-d5a8-4a70-ad12-e25499f1803c"},"vehicle_type_id":"4","last_reported":1729267862,"current_range_meters":2000,"station_id":"ce4bhh12rcd13ifvqfg0","pricing_plan_id":"cebpf4jnsgd1na2vs0mg"},{"bike_id":"8429a31c-77f3-41b6-b710-38d8ca6d27dc","system_id":"levelo_inurba_marseille","lat":43.25086,"lon":5.39526,"is_reserved":false,"is_disabled":false,"rental_uris":{"android":"levelo://app?vid=8429a31c-77f3-41b6-b710-38d8ca6d27dc","ios":"levelo://app?vid=8429a31c-77f3-41b6-b710-38d8ca6d27dc"},"vehicle_type_id":"4","last_reported":1729267862,"current_range_meters":10800,"station_id":"ce4bhm12rcd13ifvqgkg","pricing_plan_id":"cebpf4jnsgd1na2vs0mg"},{"bike_id":"237d7f97-c455-4e9c-921e-eac7b8d93fcf","system_id":"levelo_inurba_marseille","lat":43.24809,"lon":5.37461,"is_reserved":false,"is_disabled":false,"rental_uris":{"android":"levelo://app?vid=237d7f97-c455-4e9c-921e-eac7b8d93fcf","ios":"levelo://app?vid=237d7f97-c455-4e9c-921e-eac7b8d93fcf"},"vehicle_type_id":"4","last_reported":1729267862,"current_range_meters":37600,"station_id":"ce4bhgh2rcd13ifvqfb0","pricing_plan_id":"cebpf4jnsgd1na2vs0mg"},{"bike_id":"eaed7f2d-cac9-4d3f-b60a-14d8619bfcc4","system_id":"levelo_inurba_marseille","lat":43.2815,"lon":5.4265,"is_reserved":false,"is_disabled":false,"rental_uris":{"android":"levelo://app?vid=eaed7f2d-cac9-4d3f-b60a-14d8619bfcc4","ios":"levelo://app?vid=eaed7f2d-cac9-4d3f-b60a-14d8619bfcc4"},"vehicle_type_id":"4","last_reported":1729267862,"current_range_meters":36800,"station_id":"ce4bhnh2rcd13ifvqgug","pricing_plan_id":"cebpf4jnsgd1na2vs0mg"},{"bike_id":"ba9bd7c4-d1e3-4f57-8f18-78d353422ae9","system_id":"levelo_inurba_marseille","lat":43.23063,"lon":5.35496,"is_reserved":false,"is_disabled":false,"rental_uris":{"android":"levelo://app?vid=ba9bd7c4-d1e3-4f57-8f18-78d353422ae9","ios":"levelo://app?vid=ba9bd7c4-d1e3-4f57-8f18-78d353422ae9"},"vehicle_type_id":"4","last_reported":1729267862,"current_range_meters":32000,"station_id":"cpo3342slgdg3j2ifvpg","pricing_plan_id":"cebpf4jnsgd1na2vs0mg"},{"bike_id":"4646113a-6ca3-4e8c-a869-f68165c50f39","system_id":"levelo_inurba_marseille","lat":43.30286,"lon":5.37698,"is_reserved":false,"is_disabled":false,"rental_uris":{"android":"levelo://app?vid=4646113a-6ca3-4e8c-a869-f68165c50f39","ios":"levelo://app?vid=4646113a-6ca3-4e8c-a869-f68165c50f39"},"vehicle_type_id":"4","last_reported":1729267862,"current_range_meters":9600,"station_id":"ce4bguh2rcd13ifvqcj0","pricing_plan_id":"cebpf4jnsgd1na2vs0mg"},{"bike_id":"c28dcc41-e290-4ac5-920f-78c8b4b9a18e","system_id":"levelo_inurba_marseille","lat":43.27606,"lon":5.36115,"is_reserved":false,"is_disabled":false,"rental_uris":{"android":"levelo://app?vid=c28dcc41-e290-4ac5-920f-78c8b4b9a18e","ios":"levelo://app?vid=c28dcc41-e290-4ac5-920f-78c8b4b9a18e"},"vehicle_type_id":"4","last_reported":1729267862,"current_range_meters":36800,"station_id":"ce4bgj92rcd13ifvqbe0","pricing_plan_id":"cebpf4jnsgd1na2vs0mg"},{"bike_id":"8b33911e-5d42-46bd-b00d-c1d5ce72f577","system_id":"levelo_inurba_marseille","lat":43.23188,"lon":5.39989,"is_reserved":false,"is_disabled":false,"rental_uris":{"android":"levelo://app?vid=8b33911e-5d42-46bd-b00d-c1d5ce72f577","ios":"levelo://app?vid=8b33911e-5d42-46bd-b00d-c1d5ce72f577"},"vehicle_type_id":"4","last_reported":1729267862,"current_range_meters":39200,"station_id":"ce4bhn12rcd13ifvqgqg","pricing_plan_id":"cebpf4jnsgd1na2vs0mg"},{"bike_id":"a8429f7f-dabb-4334-ba3e-4915e33a8325","system_id":"levelo_inurba_marseille","lat":43.30598,"lon":5.393658,"is_reserved":false,"is_disabled":false,"rental_uris":{"android":"levelo://app?vid=a8429f7f-dabb-4334-ba3e-4915e33a8325","ios":"levelo://app?vid=a8429f7f-dabb-4334-ba3e-4915e33a8325"},"vehicle_type_id":"4","last_reported":1729267862,"current_range_meters":18000,"station_id":"ce4bh0p2rcd13ifvqd80","pricing_plan_id":"cebpf4jnsgd1na2vs0mg"},{"bike_id":"a8bebfd9-4735-4de6-a49d-9bdc4ff748d1","system_id":"levelo_inurba_marseille","lat":43.30798,"lon":5.43525,"is_reserved":false,"is_disabled":false,"rental_uris":{"android":"levelo://app?vid=a8bebfd9-4735-4de6-a49d-9bdc4ff748d1","ios":"levelo://app?vid=a8bebfd9-4735-4de6-a49d-9bdc4ff748d1"},"vehicle_type_id":"4","last_reported":1729267862,"current_range_meters":16400,"station_id":"ce4bhph2rcd13ifvqheg","pricing_plan_id":"cebpf4jnsgd1na2vs0mg"},{"bike_id":"0994d7f0-fa2e-480f-b967-2b1e1b476b78","system_id":"levelo_inurba_marseille","lat":43.23183,"lon":5.35563,"is_reserved":false,"is_disabled":false,"rental_uris":{"android":"levelo://app?vid=0994d7f0-fa2e-480f-b967-2b1e1b476b78","ios":"levelo://app?vid=0994d7f0-fa2e-480f-b967-2b1e1b476b78"},"vehicle_type_id":"4","last_reported":1729267862,"current_range_meters":8000,"station_id":"ce4bhu92rcd13ifvqi70","pricing_plan_id":"cebpf4jnsgd1na2vs0mg"},{"bike_id":"059726b5-9f72-47a0-a7b4-53e69e204f60","system_id":"levelo_inurba_marseille","lat":43.27068,"lon":5.42282,"is_reserved":false,"is_disabled":false,"rental_uris":{"android":"levelo://app?vid=059726b5-9f72-47a0-a7b4-53e69e204f60","ios":"levelo://app?vid=059726b5-9f72-47a0-a7b4-53e69e204f60"},"vehicle_type_id":"4","last_reported":1729267862,"current_range_meters":8000,"station_id":"ce4bhk92rcd13ifvqgb0","pricing_plan_id":"cebpf4jnsgd1na2vs0mg"},{"bike_id":"350d5c82-77b3-4406-a0db-05f9d2d9a3d8","system_id":"levelo_inurba_marseille","lat":43.23054,"lon":5.35497,"is_reserved":false,"is_disabled":false,"rental_uris":{"android":"levelo://app?vid=350d5c82-77b3-4406-a0db-05f9d2d9a3d8","ios":"levelo://app?vid=350d5c82-77b3-4406-a0db-05f9d2d9a3d8"},"vehicle_type_id":"4","last_reported":1729267862,"current_range_meters":7200,"station_id":"cpo3342slgdg3j2ifvpg","pricing_plan_id":"cebpf4jnsgd1na2vs0mg"},{"bike_id":"66ccc46d-618e-4760-b09c-27382152bdab","system_id":"levelo_inurba_marseille","lat":43.23188,"lon":5.35546,"is_reserved":false,"is_disabled":false,"rental_uris":{"android":"levelo://app?vid=66ccc46d-618e-4760-b09c-27382152bdab","ios":"levelo://app?vid=66ccc46d-618e-4760-b09c-27382152bdab"},"vehicle_type_id":"4","last_reported":1729267862,"current_range_meters":27600,"station_id":"ce4bhu92rcd13ifvqi70","pricing_plan_id":"cebpf4jnsgd1na2vs0mg"},{"bike_id":"a5c945e7-d3e1-4dea-bda1-7bfd35434d2f","system_id":"levelo_inurba_marseille","lat":43.29304,"lon":5.37457,"is_reserved":false,"is_disabled":false,"rental_uris":{"android":"levelo://app?vid=a5c945e7-d3e1-4dea-bda1-7bfd35434d2f","ios":"levelo://app?vid=a5c945e7-d3e1-4dea-bda1-7bfd35434d2f"},"vehicle_type_id":"4","last_reported":1729267862,"current_range_meters":12400,"station_id":"ce4bgi12rcd13ifvqb70","pricing_plan_id":"cebpf4jnsgd1na2vs0mg"},{"bike_id":"b571ece2-0455-4618-8033-e41ae9d62874","system_id":"levelo_inurba_marseille","lat":43.29843,"lon":5.36275,"is_reserved":false,"is_disabled":false,"rental_uris":{"android":"levelo://app?vid=b571ece2-0455-4618-8033-e41ae9d62874","ios":"levelo://app?vid=b571ece2-0455-4618-8033-e41ae9d62874"},"vehicle_type_id":"4","last_reported":1729267862,"current_range_meters":800,"station_id":"ce4bgpp2rcd13ifvqc3g","pricing_plan_id":"cebpf4jnsgd1na2vs0mg"},{"bike_id":"e9e06989-753d-4795-b8db-5902cb11facd","system_id":"levelo_inurba_marseille","lat":43.29162,"lon":5.37159,"is_reserved":false,"is_disabled":false,"rental_uris":{"android":"levelo://app?vid=e9e06989-753d-4795-b8db-5902cb11facd","ios":"levelo://app?vid=e9e06989-753d-4795-b8db-5902cb11facd"},"vehicle_type_id":"4","last_reported":1729267862,"current_range_meters":3200,"station_id":"ce4bha92rcd13ifvqeh0","pricing_plan_id":"cebpf4jnsgd1na2vs0mg"},{"bike_id":"fc262b45-2b88-4d3d-8020-e7c946d1fec3","system_id":"levelo_inurba_marseille","lat":43.32111,"lon":5.36778,"is_reserved":false,"is_disabled":false,"rental_uris":{"android":"levelo://app?vid=fc262b45-2b88-4d3d-8020-e7c946d1fec3","ios":"levelo://app?vid=fc262b45-2b88-4d3d-8020-e7c946d1fec3"},"vehicle_type_id":"4","last_reported":1729267862,"current_range_meters":37600,"station_id":"ce4bhrh2rcd13ifvqhug","pricing_plan_id":"cebpf4jnsgd1na2vs0mg"},{"bike_id":"907d90e2-7e08-4846-bbc2-01977b54a9bd","system_id":"levelo_inurba_marseille","lat":43.24167,"lon":5.36392,"is_reserved":false,"is_disabled":false,"rental_uris":{"android":"levelo://app?vid=907d90e2-7e08-4846-bbc2-01977b54a9bd","ios":"levelo://app?vid=907d90e2-7e08-4846-bbc2-01977b54a9bd"},"vehicle_type_id":"4","last_reported":1729267862,"current_range_meters":16800,"station_id":"cpo36qri1sfpv3e86is0","pricing_plan_id":"cebpf4jnsgd1na2vs0mg"},{"bike_id":"b96c03cf-7095-4dfd-8c3e-5af68909045c","system_id":"levelo_inurba_marseille","lat":43.31335,"lon":5.37633,"is_reserved":false,"is_disabled":false,"rental_uris":{"android":"levelo://app?vid=b96c03cf-7095-4dfd-8c3e-5af68909045c","ios":"levelo://app?vid=b96c03cf-7095-4dfd-8c3e-5af68909045c"},"vehicle_type_id":"4","last_reported":1729267862,"current_range_meters":15200,"station_id":"ce4bgv92rcd13ifvqcq0","pricing_plan_id":"cebpf4jnsgd1na2vs0mg"},{"bike_id":"3a0c4ebb-e26e-4836-8ec7-5670dd5ca693","system_id":"levelo_inurba_marseille","lat":43.28459,"lon":5.35894,"is_reserved":false,"is_disabled":false,"rental_uris":{"android":"levelo://app?vid=3a0c4ebb-e26e-4836-8ec7-5670dd5ca693","ios":"levelo://app?vid=3a0c4ebb-e26e-4836-8ec7-5670dd5ca693"},"vehicle_type_id":"4","last_reported":1729267862,"current_range_meters":16800,"station_id":"ce4bhah2rcd13ifvqei0","pricing_plan_id":"cebpf4jnsgd1na2vs0mg"},{"bike_id":"d5453104-4e26-49cc-8e26-384ccaaff964","system_id":"levelo_inurba_marseille","lat":43.26562,"lon":5.37287,"is_reserved":false,"is_disabled":false,"rental_uris":{"android":"levelo://app?vid=d5453104-4e26-49cc-8e26-384ccaaff964","ios":"levelo://app?vid=d5453104-4e26-49cc-8e26-384ccaaff964"},"vehicle_type_id":"4","last_reported":1729267862,"current_range_meters":30000,"station_id":"ce4bhg12rcd13ifvqf70","pricing_plan_id":"cebpf4jnsgd1na2vs0mg"},{"bike_id":"9602c068-e1a6-4a8f-9559-ed50a826ad91","system_id":"levelo_inurba_marseille","lat":43.25715,"lon":5.41115,"is_reserved":false,"is_disabled":false,"rental_uris":{"android":"levelo://app?vid=9602c068-e1a6-4a8f-9559-ed50a826ad91","ios":"levelo://app?vid=9602c068-e1a6-4a8f-9559-ed50a826ad91"},"vehicle_type_id":"4","last_reported":1729267862,"current_range_meters":6400,"station_id":"ce4bhkp2rcd13ifvqgd0","pricing_plan_id":"cebpf4jnsgd1na2vs0mg"},{"bike_id":"646e2cf2-8282-4589-a194-12e4d373c2b1","system_id":"levelo_inurba_marseille","lat":43.23187,"lon":5.35561,"is_reserved":false,"is_disabled":false,"rental_uris":{"android":"levelo://app?vid=646e2cf2-8282-4589-a194-12e4d373c2b1","ios":"levelo://app?vid=646e2cf2-8282-4589-a194-12e4d373c2b1"},"vehicle_type_id":"4","last_reported":1729267862,"current_range_meters":38400,"station_id":"ce4bhu92rcd13ifvqi70","pricing_plan_id":"cebpf4jnsgd1na2vs0mg"},{"bike_id":"94dad7f8-6585-4b37-b691-74420d23ef13","system_id":"levelo_inurba_marseille","lat":43.30794,"lon":5.43528,"is_reserved":false,"is_disabled":false,"rental_uris":{"android":"levelo://app?vid=94dad7f8-6585-4b37-b691-74420d23ef13","ios":"levelo://app?vid=94dad7f8-6585-4b37-b691-74420d23ef13"},"vehicle_type_id":"4","last_reported":1729267862,"current_range_meters":36000,"station_id":"ce4bhph2rcd13ifvqheg","pricing_plan_id":"cebpf4jnsgd1na2vs0mg"},{"bike_id":"2b852c90-2861-49b0-a3c4-2ea781e71c41","system_id":"levelo_inurba_marseille","lat":43.29515,"lon":5.38367,"is_reserved":false,"is_disabled":false,"rental_uris":{"android":"levelo://app?vid=2b852c90-2861-49b0-a3c4-2ea781e71c41","ios":"levelo://app?vid=2b852c90-2861-49b0-a3c4-2ea781e71c41"},"vehicle_type_id":"4","last_reported":1729267862,"current_range_meters":11200,"station_id":"","pricing_plan_id":"cebpf4jnsgd1na2vs0mg"},{"bike_id":"4562e9bb-7c1e-4e0e-95e1-858d0f8d86d1","system_id":"levelo_inurba_marseille","lat":43.2319,"lon":5.35563,"is_reserved":false,"is_disabled":false,"rental_uris":{"android":"levelo://app?vid=4562e9bb-7c1e-4e0e-95e1-858d0f8d86d1","ios":"levelo://app?vid=4562e9bb-7c1e-4e0e-95e1-858d0f8d86d1"},"vehicle_type_id":"4","last_reported":1729267862,"current_range_meters":32800,"station_id":"ce4bhu92rcd13ifvqi70","pricing_plan_id":"cebpf4jnsgd1na2vs0mg"},{"bike_id":"929eb065-4c1f-4848-ae85-8f0b274ffa04","system_id":"levelo_inurba_marseille","lat":43.2756,"lon":5.38421,"is_reserved":false,"is_disabled":false,"rental_uris":{"android":"levelo://app?vid=929eb065-4c1f-4848-ae85-8f0b274ffa04","ios":"levelo://app?vid=929eb065-4c1f-4848-ae85-8f0b274ffa04"},"vehicle_type_id":"4","last_reported":1729267862,"current_range_meters":3200,"station_id":"ce4bhh92rcd13ifvqfi0","pricing_plan_id":"cebpf4jnsgd1na2vs0mg"},{"bike_id":"6837ac97-30a8-4145-8047-b6d6df61ac48","system_id":"levelo_inurba_marseille","lat":43.23185,"lon":5.39993,"is_reserved":false,"is_disabled":false,"rental_uris":{"android":"levelo://app?vid=6837ac97-30a8-4145-8047-b6d6df61ac48","ios":"levelo://app?vid=6837ac97-30a8-4145-8047-b6d6df61ac48"},"vehicle_type_id":"4","last_reported":1729267862,"current_range_meters":38800,"station_id":"ce4bhn12rcd13ifvqgqg","pricing_plan_id":"cebpf4jnsgd1na2vs0mg"},{"bike_id":"2140b6a3-5118-4150-823e-9225aeb56201","system_id":"levelo_inurba_marseille","lat":43.23187,"lon":5.35548,"is_reserved":false,"is_disabled":false,"rental_uris":{"android":"levelo://app?vid=2140b6a3-5118-4150-823e-9225aeb56201","ios":"levelo://app?vid=2140b6a3-5118-4150-823e-9225aeb56201"},"vehicle_type_id":"4","last_reported":1729267862,"current_range_meters":30800,"station_id":"ce4bhu92rcd13ifvqi70","pricing_plan_id":"cebpf4jnsgd1na2vs0mg"},{"bike_id":"c39f6517-4c78-47b8-ad26-803d664ab942","system_id":"levelo_inurba_marseille","lat":43.23178,"lon":5.39998,"is_reserved":false,"is_disabled":false,"rental_uris":{"android":"levelo://app?vid=c39f6517-4c78-47b8-ad26-803d664ab942","ios":"levelo://app?vid=c39f6517-4c78-47b8-ad26-803d664ab942"},"vehicle_type_id":"4","last_reported":1729267862,"current_range_meters":28000,"station_id":"ce4bhn12rcd13ifvqgqg","pricing_plan_id":"cebpf4jnsgd1na2vs0mg"},{"bike_id":"1e3c51a8-0d40-415a-8233-52636f942e3c","system_id":"levelo_inurba_marseille","lat":43.29524,"lon":5.38539,"is_reserved":false,"is_disabled":false,"rental_uris":{"android":"levelo://app?vid=1e3c51a8-0d40-415a-8233-52636f942e3c","ios":"levelo://app?vid=1e3c51a8-0d40-415a-8233-52636f942e3c"},"vehicle_type_id":"4","last_reported":1729267862,"current_range_meters":19200,"station_id":"ce4bgih2rcd13ifvqba0","pricing_plan_id":"cebpf4jnsgd1na2vs0mg"},{"bike_id":"8a5db82b-aa2f-4e9a-9994-a37e8d469f6b","system_id":"levelo_inurba_marseille","lat":43.3041,"lon":5.41292,"is_reserved":false,"is_disabled":false,"rental_uris":{"android":"levelo://app?vid=8a5db82b-aa2f-4e9a-9994-a37e8d469f6b","ios":"levelo://app?vid=8a5db82b-aa2f-4e9a-9994-a37e8d469f6b"},"vehicle_type_id":"4","last_reported":1729267862,"current_range_meters":8000,"station_id":"ce4bhop2rcd13ifvqh8g","pricing_plan_id":"cebpf4jnsgd1na2vs0mg"},{"bike_id":"73571360-6624-497e-ae84-61a3fbd766b0","system_id":"levelo_inurba_marseille","lat":43.25493,"lon":5.37661,"is_reserved":false,"is_disabled":false,"rental_uris":{"android":"levelo://app?vid=73571360-6624-497e-ae84-61a3fbd766b0","ios":"levelo://app?vid=73571360-6624-497e-ae84-61a3fbd766b0"},"vehicle_type_id":"4","last_reported":1729267862,"current_range_meters":39200,"station_id":"ce4bhh12rcd13ifvqff0","pricing_plan_id":"cebpf4jnsgd1na2vs0mg"},{"bike_id":"3fb6a5f8-ead9-4b09-8f54-11b28f2835a7","system_id":"levelo_inurba_marseille","lat":43.3013,"lon":5.39878,"is_reserved":false,"is_disabled":false,"rental_uris":{"android":"levelo://app?vid=3fb6a5f8-ead9-4b09-8f54-11b28f2835a7","ios":"levelo://app?vid=3fb6a5f8-ead9-4b09-8f54-11b28f2835a7"},"vehicle_type_id":"4","last_reported":1729267862,"current_range_meters":12800,"station_id":"ce4bh0h2rcd13ifvqd40","pricing_plan_id":"cebpf4jnsgd1na2vs0mg"},{"bike_id":"ddff7144-cf39-425d-a9c5-128b10fe5e3d","system_id":"levelo_inurba_marseille","lat":43.28462,"lon":5.359,"is_reserved":false,"is_disabled":false,"rental_uris":{"android":"levelo://app?vid=ddff7144-cf39-425d-a9c5-128b10fe5e3d","ios":"levelo://app?vid=ddff7144-cf39-425d-a9c5-128b10fe5e3d"},"vehicle_type_id":"4","last_reported":1729267862,"current_range_meters":30000,"station_id":"ce4bhah2rcd13ifvqei0","pricing_plan_id":"cebpf4jnsgd1na2vs0mg"},{"bike_id":"46b0fbb2-0f8d-45a6-9ca7-5ace7f4a92ab","system_id":"levelo_inurba_marseille","lat":43.33023,"lon":5.39047,"is_reserved":false,"is_disabled":false,"rental_uris":{"android":"levelo://app?vid=46b0fbb2-0f8d-45a6-9ca7-5ace7f4a92ab","ios":"levelo://app?vid=46b0fbb2-0f8d-45a6-9ca7-5ace7f4a92ab"},"vehicle_type_id":"4","last_reported":1729267862,"current_range_meters":29600,"station_id":"ce4bhr92rcd13ifvqhrg","pricing_plan_id":"cebpf4jnsgd1na2vs0mg"},{"bike_id":"7772d39f-5e28-445c-af91-069b0cf63793","system_id":"levelo_inurba_marseille","lat":43.33765,"lon":5.37438,"is_reserved":false,"is_disabled":false,"rental_uris":{"android":"levelo://app?vid=7772d39f-5e28-445c-af91-069b0cf63793","ios":"levelo://app?vid=7772d39f-5e28-445c-af91-069b0cf63793"},"vehicle_type_id":"4","last_reported":1729267862,"current_range_meters":12800,"station_id":"","pricing_plan_id":"cebpf4jnsgd1na2vs0mg"},{"bike_id":"e0ab6bb6-c6b9-4385-b41c-27bea5d9c0cb","system_id":"levelo_inurba_marseille","lat":43.33031,"lon":5.39041,"is_reserved":false,"is_disabled":false,"rental_uris":{"android":"levelo://app?vid=e0ab6bb6-c6b9-4385-b41c-27bea5d9c0cb","ios":"levelo://app?vid=e0ab6bb6-c6b9-4385-b41c-27bea5d9c0cb"},"vehicle_type_id":"4","last_reported":1729267862,"current_range_meters":22000,"station_id":"ce4bhr92rcd13ifvqhrg","pricing_plan_id":"cebpf4jnsgd1na2vs0mg"},{"bike_id":"058ec527-60b8-4877-8817-19590c3cd4f5","system_id":"levelo_inurba_marseille","lat":43.32287,"lon":5.38286,"is_reserved":false,"is_disabled":false,"rental_uris":{"android":"levelo://app?vid=058ec527-60b8-4877-8817-19590c3cd4f5","ios":"levelo://app?vid=058ec527-60b8-4877-8817-19590c3cd4f5"},"vehicle_type_id":"4","last_reported":1729267862,"current_range_meters":32800,"station_id":"ce4bhr12rcd13ifvqhqg","pricing_plan_id":"cebpf4jnsgd1na2vs0mg"},{"bike_id":"3213665e-989c-4d22-9f5a-31c8522597dd","system_id":"levelo_inurba_marseille","lat":43.296,"lon":5.36142,"is_reserved":false,"is_disabled":false,"rental_uris":{"android":"levelo://app?vid=3213665e-989c-4d22-9f5a-31c8522597dd","ios":"levelo://app?vid=3213665e-989c-4d22-9f5a-31c8522597dd"},"vehicle_type_id":"4","last_reported":1729267862,"current_range_meters":23200,"station_id":"","pricing_plan_id":"cebpf4jnsgd1na2vs0mg"},{"bike_id":"cddb2538-acdb-46a5-bc95-6e0a8d74ef0c","system_id":"levelo_inurba_marseille","lat":43.30797,"lon":5.43526,"is_reserved":false,"is_disabled":false,"rental_uris":{"android":"levelo://app?vid=cddb2538-acdb-46a5-bc95-6e0a8d74ef0c","ios":"levelo://app?vid=cddb2538-acdb-46a5-bc95-6e0a8d74ef0c"},"vehicle_type_id":"4","last_reported":1729267862,"current_range_meters":30400,"station_id":"ce4bhph2rcd13ifvqheg","pricing_plan_id":"cebpf4jnsgd1na2vs0mg"},{"bike_id":"cb2ec929-aa52-43f5-8abf-4740c81f58cc","system_id":"levelo_inurba_marseille","lat":43.309082,"lon":5.368475,"is_reserved":false,"is_disabled":false,"rental_uris":{"android":"levelo://app?vid=cb2ec929-aa52-43f5-8abf-4740c81f58cc","ios":"levelo://app?vid=cb2ec929-aa52-43f5-8abf-4740c81f58cc"},"vehicle_type_id":"4","last_reported":1729267862,"current_range_meters":4800,"station_id":"ce4bgn92rcd13ifvqbvg","pricing_plan_id":"cebpf4jnsgd1na2vs0mg"},{"bike_id":"f76424cd-77cd-4cb7-8fc1-28326ff52110","system_id":"levelo_inurba_marseille","lat":43.246124,"lon":5.39884,"is_reserved":false,"is_disabled":false,"rental_uris":{"android":"levelo://app?vid=f76424cd-77cd-4cb7-8fc1-28326ff52110","ios":"levelo://app?vid=f76424cd-77cd-4cb7-8fc1-28326ff52110"},"vehicle_type_id":"4","last_reported":1729267862,"current_range_meters":12400,"station_id":"ce4bhlp2rcd13ifvqgjg","pricing_plan_id":"cebpf4jnsgd1na2vs0mg"},{"bike_id":"ea6e9ea3-c192-46ed-96fc-5a2fd9c43012","system_id":"levelo_inurba_marseille","lat":43.25577,"lon":5.38238,"is_reserved":false,"is_disabled":false,"rental_uris":{"android":"levelo://app?vid=ea6e9ea3-c192-46ed-96fc-5a2fd9c43012","ios":"levelo://app?vid=ea6e9ea3-c192-46ed-96fc-5a2fd9c43012"},"vehicle_type_id":"4","last_reported":1729267862,"current_range_meters":3200,"station_id":"ce4bhih2rcd13ifvqfs0","pricing_plan_id":"cebpf4jnsgd1na2vs0mg"},{"bike_id":"1641b826-604a-4181-8231-dca386f637a6","system_id":"levelo_inurba_marseille","lat":43.23189,"lon":5.35564,"is_reserved":false,"is_disabled":false,"rental_uris":{"android":"levelo://app?vid=1641b826-604a-4181-8231-dca386f637a6","ios":"levelo://app?vid=1641b826-604a-4181-8231-dca386f637a6"},"vehicle_type_id":"4","last_reported":1729267862,"current_range_meters":28800,"station_id":"ce4bhu92rcd13ifvqi70","pricing_plan_id":"cebpf4jnsgd1na2vs0mg"},{"bike_id":"89211ee2-076f-4df3-92bd-cd8885f2e76d","system_id":"levelo_inurba_marseille","lat":43.23194,"lon":5.35556,"is_reserved":false,"is_disabled":false,"rental_uris":{"android":"levelo://app?vid=89211ee2-076f-4df3-92bd-cd8885f2e76d","ios":"levelo://app?vid=89211ee2-076f-4df3-92bd-cd8885f2e76d"},"vehicle_type_id":"4","last_reported":1729267862,"current_range_meters":27600,"station_id":"ce4bhu92rcd13ifvqi70","pricing_plan_id":"cebpf4jnsgd1na2vs0mg"},{"bike_id":"97b0361f-4195-4717-a5b9-f4ec18b7bbcc","system_id":"levelo_inurba_marseille","lat":43.26561,"lon":5.39014,"is_reserved":false,"is_disabled":false,"rental_uris":{"android":"levelo://app?vid=97b0361f-4195-4717-a5b9-f4ec18b7bbcc","ios":"levelo://app?vid=97b0361f-4195-4717-a5b9-f4ec18b7bbcc"},"vehicle_type_id":"4","last_reported":1729267862,"current_range_meters":6400,"station_id":"ce4bhe12rcd13ifvqf30","pricing_plan_id":"cebpf4jnsgd1na2vs0mg"},{"bike_id":"48f2469d-4594-4ecb-a7ea-698cf7713650","system_id":"levelo_inurba_marseille","lat":43.33022,"lon":5.39036,"is_reserved":false,"is_disabled":false,"rental_uris":{"android":"levelo://app?vid=48f2469d-4594-4ecb-a7ea-698cf7713650","ios":"levelo://app?vid=48f2469d-4594-4ecb-a7ea-698cf7713650"},"vehicle_type_id":"4","last_reported":1729267862,"current_range_meters":28000,"station_id":"ce4bhr92rcd13ifvqhrg","pricing_plan_id":"cebpf4jnsgd1na2vs0mg"},{"bike_id":"046d643b-fcc2-46d3-92a6-523981d5ab5f","system_id":"levelo_inurba_marseille","lat":43.3018,"lon":5.36782,"is_reserved":false,"is_disabled":false,"rental_uris":{"android":"levelo://app?vid=046d643b-fcc2-46d3-92a6-523981d5ab5f","ios":"levelo://app?vid=046d643b-fcc2-46d3-92a6-523981d5ab5f"},"vehicle_type_id":"4","last_reported":1729267862,"current_range_meters":28400,"station_id":"ce4bh612rcd13ifvqe6g","pricing_plan_id":"cebpf4jnsgd1na2vs0mg"},{"bike_id":"87440bd7-4730-412f-b52f-03b263c3d6ba","system_id":"levelo_inurba_marseille","lat":43.23191,"lon":5.35557,"is_reserved":false,"is_disabled":false,"rental_uris":{"android":"levelo://app?vid=87440bd7-4730-412f-b52f-03b263c3d6ba","ios":"levelo://app?vid=87440bd7-4730-412f-b52f-03b263c3d6ba"},"vehicle_type_id":"4","last_reported":1729267862,"current_range_meters":12000,"station_id":"ce4bhu92rcd13ifvqi70","pricing_plan_id":"cebpf4jnsgd1na2vs0mg"},{"bike_id":"ee809cfb-a764-4306-a083-5bf272a296e9","system_id":"levelo_inurba_marseille","lat":43.31552,"lon":5.38008,"is_reserved":false,"is_disabled":false,"rental_uris":{"android":"levelo://app?vid=ee809cfb-a764-4306-a083-5bf272a296e9","ios":"levelo://app?vid=ee809cfb-a764-4306-a083-5bf272a296e9"},"vehicle_type_id":"4","last_reported":1729267862,"current_range_meters":36400,"station_id":"ce4bgth2rcd13ifvqch0","pricing_plan_id":"cebpf4jnsgd1na2vs0mg"},{"bike_id":"b8bca2f7-bf67-47b3-b627-1b08fd33f8ab","system_id":"levelo_inurba_marseille","lat":43.31706,"lon":5.37745,"is_reserved":false,"is_disabled":false,"rental_uris":{"android":"levelo://app?vid=b8bca2f7-bf67-47b3-b627-1b08fd33f8ab","ios":"levelo://app?vid=b8bca2f7-bf67-47b3-b627-1b08fd33f8ab"},"vehicle_type_id":"4","last_reported":1729267862,"current_range_meters":38400,"station_id":"ce4bgth2rcd13ifvqch0","pricing_plan_id":"cebpf4jnsgd1na2vs0mg"},{"bike_id":"0cd1c707-301e-402c-b76b-0129f07942fb","system_id":"levelo_inurba_marseille","lat":43.25727,"lon":5.41112,"is_reserved":false,"is_disabled":false,"rental_uris":{"android":"levelo://app?vid=0cd1c707-301e-402c-b76b-0129f07942fb","ios":"levelo://app?vid=0cd1c707-301e-402c-b76b-0129f07942fb"},"vehicle_type_id":"4","last_reported":1729267862,"current_range_meters":8400,"station_id":"ce4bhkp2rcd13ifvqgd0","pricing_plan_id":"cebpf4jnsgd1na2vs0mg"},{"bike_id":"df50999f-2c36-4645-8915-f1b914616dfc","system_id":"levelo_inurba_marseille","lat":43.32111,"lon":5.36777,"is_reserved":false,"is_disabled":false,"rental_uris":{"android":"levelo://app?vid=df50999f-2c36-4645-8915-f1b914616dfc","ios":"levelo://app?vid=df50999f-2c36-4645-8915-f1b914616dfc"},"vehicle_type_id":"4","last_reported":1729267862,"current_range_meters":27600,"station_id":"ce4bhrh2rcd13ifvqhug","pricing_plan_id":"cebpf4jnsgd1na2vs0mg"},{"bike_id":"485ba0db-e383-4d4e-bc5a-763004e7d121","system_id":"levelo_inurba_marseille","lat":43.31356,"lon":5.38494,"is_reserved":false,"is_disabled":false,"rental_uris":{"android":"levelo://app?vid=485ba0db-e383-4d4e-bc5a-763004e7d121","ios":"levelo://app?vid=485ba0db-e383-4d4e-bc5a-763004e7d121"},"vehicle_type_id":"4","last_reported":1729267862,"current_range_meters":24400,"station_id":"ce4bgt92rcd13ifvqcf0","pricing_plan_id":"cebpf4jnsgd1na2vs0mg"},{"bike_id":"1b1a444a-1a66-4302-8189-a77ce483f46d","system_id":"levelo_inurba_marseille","lat":43.26212,"lon":5.37448,"is_reserved":false,"is_disabled":false,"rental_uris":{"android":"levelo://app?vid=1b1a444a-1a66-4302-8189-a77ce483f46d","ios":"levelo://app?vid=1b1a444a-1a66-4302-8189-a77ce483f46d"},"vehicle_type_id":"4","last_reported":1729267862,"current_range_meters":33600,"station_id":"ce4bhgp2rcd13ifvqfc0","pricing_plan_id":"cebpf4jnsgd1na2vs0mg"},{"bike_id":"68497032-a480-4bd3-a6a9-aba3a1a91d0b","system_id":"levelo_inurba_marseille","lat":43.25857,"lon":5.39908,"is_reserved":false,"is_disabled":false,"rental_uris":{"android":"levelo://app?vid=68497032-a480-4bd3-a6a9-aba3a1a91d0b","ios":"levelo://app?vid=68497032-a480-4bd3-a6a9-aba3a1a91d0b"},"vehicle_type_id":"4","last_reported":1729267862,"current_range_meters":3600,"station_id":"ce4bhl92rcd13ifvqghg","pricing_plan_id":"cebpf4jnsgd1na2vs0mg"},{"bike_id":"68260051-7a69-4548-8d29-3433558b8d67","system_id":"levelo_inurba_marseille","lat":43.31079,"lon":5.38361,"is_reserved":false,"is_disabled":false,"rental_uris":{"android":"levelo://app?vid=68260051-7a69-4548-8d29-3433558b8d67","ios":"levelo://app?vid=68260051-7a69-4548-8d29-3433558b8d67"},"vehicle_type_id":"4","last_reported":1729267862,"current_range_meters":23200,"station_id":"ce4bgv92rcd13ifvqcr0","pricing_plan_id":"cebpf4jnsgd1na2vs0mg"},{"bike_id":"5dea50a4-1d92-4427-a32b-1890395130ff","system_id":"levelo_inurba_marseille","lat":43.27371,"lon":5.36265,"is_reserved":false,"is_disabled":false,"rental_uris":{"android":"levelo://app?vid=5dea50a4-1d92-4427-a32b-1890395130ff","ios":"levelo://app?vid=5dea50a4-1d92-4427-a32b-1890395130ff"},"vehicle_type_id":"4","last_reported":1729267862,"current_range_meters":38800,"station_id":"ce4bhbh2rcd13ifvqeo0","pricing_plan_id":"cebpf4jnsgd1na2vs0mg"},{"bike_id":"1587ccd8-8f8e-4d60-a55e-5334118ed115","system_id":"levelo_inurba_marseille","lat":43.27572,"lon":5.38417,"is_reserved":false,"is_disabled":false,"rental_uris":{"android":"levelo://app?vid=1587ccd8-8f8e-4d60-a55e-5334118ed115","ios":"levelo://app?vid=1587ccd8-8f8e-4d60-a55e-5334118ed115"},"vehicle_type_id":"4","last_reported":1729267862,"current_range_meters":25600,"station_id":"ce4bhh92rcd13ifvqfi0","pricing_plan_id":"cebpf4jnsgd1na2vs0mg"},{"bike_id":"a0d1f48f-4d8d-4385-8400-04795ef1f250","system_id":"levelo_inurba_marseille","lat":43.26559,"lon":5.37285,"is_reserved":false,"is_disabled":false,"rental_uris":{"android":"levelo://app?vid=a0d1f48f-4d8d-4385-8400-04795ef1f250","ios":"levelo://app?vid=a0d1f48f-4d8d-4385-8400-04795ef1f250"},"vehicle_type_id":"4","last_reported":1729267862,"current_range_meters":38000,"station_id":"ce4bhg12rcd13ifvqf70","pricing_plan_id":"cebpf4jnsgd1na2vs0mg"},{"bike_id":"8fe9c50d-0ff4-4dd0-ac17-fdd016a0be4f","system_id":"levelo_inurba_marseille","lat":43.28999,"lon":5.35618,"is_reserved":false,"is_disabled":false,"rental_uris":{"android":"levelo://app?vid=8fe9c50d-0ff4-4dd0-ac17-fdd016a0be4f","ios":"levelo://app?vid=8fe9c50d-0ff4-4dd0-ac17-fdd016a0be4f"},"vehicle_type_id":"4","last_reported":1729267862,"current_range_meters":30800,"station_id":"ce4bhb92rcd13ifvqen0","pricing_plan_id":"cebpf4jnsgd1na2vs0mg"},{"bike_id":"f56994ba-f167-4e0c-946e-1bc27fbb2192","system_id":"levelo_inurba_marseille","lat":43.28934,"lon":5.38396,"is_reserved":false,"is_disabled":false,"rental_uris":{"android":"levelo://app?vid=f56994ba-f167-4e0c-946e-1bc27fbb2192","ios":"levelo://app?vid=f56994ba-f167-4e0c-946e-1bc27fbb2192"},"vehicle_type_id":"4","last_reported":1729267862,"current_range_meters":25600,"station_id":"ce4bh612rcd13ifvqe6g","pricing_plan_id":"cebpf4jnsgd1na2vs0mg"},{"bike_id":"ce69f5a3-381f-4fe0-85a4-5e734388eafa","system_id":"levelo_inurba_marseille","lat":43.27807,"lon":5.40717,"is_reserved":false,"is_disabled":false,"rental_uris":{"android":"levelo://app?vid=ce69f5a3-381f-4fe0-85a4-5e734388eafa","ios":"levelo://app?vid=ce69f5a3-381f-4fe0-85a4-5e734388eafa"},"vehicle_type_id":"4","last_reported":1729267862,"current_range_meters":29600,"station_id":"ce4bhnh2rcd13ifvqgtg","pricing_plan_id":"cebpf4jnsgd1na2vs0mg"},{"bike_id":"b45deb77-5a2f-4959-a9c9-736119b28fb6","system_id":"levelo_inurba_marseille","lat":43.28427,"lon":5.34988,"is_reserved":false,"is_disabled":false,"rental_uris":{"android":"levelo://app?vid=b45deb77-5a2f-4959-a9c9-736119b28fb6","ios":"levelo://app?vid=b45deb77-5a2f-4959-a9c9-736119b28fb6"},"vehicle_type_id":"4","last_reported":1729267862,"current_range_meters":36400,"station_id":"ce4bhbh2rcd13ifvqepg","pricing_plan_id":"cebpf4jnsgd1na2vs0mg"},{"bike_id":"2e02d0d1-9a24-4310-bfab-62bd2a313704","system_id":"levelo_inurba_marseille","lat":43.28613,"lon":5.35108,"is_reserved":false,"is_disabled":false,"rental_uris":{"android":"levelo://app?vid=2e02d0d1-9a24-4310-bfab-62bd2a313704","ios":"levelo://app?vid=2e02d0d1-9a24-4310-bfab-62bd2a313704"},"vehicle_type_id":"4","last_reported":1729267862,"current_range_meters":10000,"station_id":"ce4bhch2rcd13ifvqeug","pricing_plan_id":"cebpf4jnsgd1na2vs0mg"},{"bike_id":"e3ca7803-aaa7-4ddf-8937-86afb5d1cee8","system_id":"levelo_inurba_marseille","lat":43.31705,"lon":5.43711,"is_reserved":false,"is_disabled":false,"rental_uris":{"android":"levelo://app?vid=e3ca7803-aaa7-4ddf-8937-86afb5d1cee8","ios":"levelo://app?vid=e3ca7803-aaa7-4ddf-8937-86afb5d1cee8"},"vehicle_type_id":"4","last_reported":1729267862,"current_range_meters":38800,"station_id":"ce4bhp92rcd13ifvqhcg","pricing_plan_id":"cebpf4jnsgd1na2vs0mg"},{"bike_id":"87a62a5a-6731-4ae0-88c0-85b276181ce1","system_id":"levelo_inurba_marseille","lat":43.2621,"lon":5.37441,"is_reserved":false,"is_disabled":false,"rental_uris":{"android":"levelo://app?vid=87a62a5a-6731-4ae0-88c0-85b276181ce1","ios":"levelo://app?vid=87a62a5a-6731-4ae0-88c0-85b276181ce1"},"vehicle_type_id":"4","last_reported":1729267862,"current_range_meters":26800,"station_id":"ce4bhgp2rcd13ifvqfc0","pricing_plan_id":"cebpf4jnsgd1na2vs0mg"},{"bike_id":"f2c18d7b-cf22-461b-a7e7-9332bc00de40","system_id":"levelo_inurba_marseille","lat":43.28071,"lon":5.3966,"is_reserved":false,"is_disabled":false,"rental_uris":{"android":"levelo://app?vid=f2c18d7b-cf22-461b-a7e7-9332bc00de40","ios":"levelo://app?vid=f2c18d7b-cf22-461b-a7e7-9332bc00de40"},"vehicle_type_id":"4","last_reported":1729267862,"current_range_meters":4800,"station_id":"ce4bho12rcd13ifvqh2g","pricing_plan_id":"cebpf4jnsgd1na2vs0mg"},{"bike_id":"19389fe6-838b-410a-886d-e2d15f6134b7","system_id":"levelo_inurba_marseille","lat":43.29672,"lon":5.36332,"is_reserved":false,"is_disabled":false,"rental_uris":{"android":"levelo://app?vid=19389fe6-838b-410a-886d-e2d15f6134b7","ios":"levelo://app?vid=19389fe6-838b-410a-886d-e2d15f6134b7"},"vehicle_type_id":"4","last_reported":1729267862,"current_range_meters":3600,"station_id":"","pricing_plan_id":"cebpf4jnsgd1na2vs0mg"},{"bike_id":"3664398f-378f-46f2-bd12-30042ad8db9d","system_id":"levelo_inurba_marseille","lat":43.23185,"lon":5.39977,"is_reserved":false,"is_disabled":false,"rental_uris":{"android":"levelo://app?vid=3664398f-378f-46f2-bd12-30042ad8db9d","ios":"levelo://app?vid=3664398f-378f-46f2-bd12-30042ad8db9d"},"vehicle_type_id":"4","last_reported":1729267862,"current_range_meters":28800,"station_id":"ce4bhn12rcd13ifvqgqg","pricing_plan_id":"cebpf4jnsgd1na2vs0mg"},{"bike_id":"5b94dd0d-f532-4567-b45b-3ae60db62ea5","system_id":"levelo_inurba_marseille","lat":43.3211,"lon":5.3677,"is_reserved":false,"is_disabled":false,"rental_uris":{"android":"levelo://app?vid=5b94dd0d-f532-4567-b45b-3ae60db62ea5","ios":"levelo://app?vid=5b94dd0d-f532-4567-b45b-3ae60db62ea5"},"vehicle_type_id":"4","last_reported":1729267862,"current_range_meters":36800,"station_id":"ce4bhrh2rcd13ifvqhug","pricing_plan_id":"cebpf4jnsgd1na2vs0mg"},{"bike_id":"a9d80141-cb04-4f88-bcc5-9763572e3517","system_id":"levelo_inurba_marseille","lat":43.23194,"lon":5.35546,"is_reserved":false,"is_disabled":false,"rental_uris":{"android":"levelo://app?vid=a9d80141-cb04-4f88-bcc5-9763572e3517","ios":"levelo://app?vid=a9d80141-cb04-4f88-bcc5-9763572e3517"},"vehicle_type_id":"4","last_reported":1729267862,"current_range_meters":28000,"station_id":"ce4bhu92rcd13ifvqi70","pricing_plan_id":"cebpf4jnsgd1na2vs0mg"},{"bike_id":"ff1470ce-d8da-408f-ac57-6985e9debd8c","system_id":"levelo_inurba_marseille","lat":43.29533,"lon":5.385564,"is_reserved":false,"is_disabled":false,"rental_uris":{"android":"levelo://app?vid=ff1470ce-d8da-408f-ac57-6985e9debd8c","ios":"levelo://app?vid=ff1470ce-d8da-408f-ac57-6985e9debd8c"},"vehicle_type_id":"4","last_reported":1729267862,"current_range_meters":2800,"station_id":"ce4bgih2rcd13ifvqba0","pricing_plan_id":"cebpf4jnsgd1na2vs0mg"},{"bike_id":"c0058689-30df-472b-b66c-bd420119669b","system_id":"levelo_inurba_marseille","lat":43.27169,"lon":5.40996,"is_reserved":false,"is_disabled":false,"rental_uris":{"android":"levelo://app?vid=c0058689-30df-472b-b66c-bd420119669b","ios":"levelo://app?vid=c0058689-30df-472b-b66c-bd420119669b"},"vehicle_type_id":"4","last_reported":1729267862,"current_range_meters":34000,"station_id":"ce4bhl12rcd13ifvqgf0","pricing_plan_id":"cebpf4jnsgd1na2vs0mg"},{"bike_id":"4494673c-ebac-42b3-884d-4d7420fce07c","system_id":"levelo_inurba_marseille","lat":43.23951,"lon":5.36642,"is_reserved":false,"is_disabled":false,"rental_uris":{"android":"levelo://app?vid=4494673c-ebac-42b3-884d-4d7420fce07c","ios":"levelo://app?vid=4494673c-ebac-42b3-884d-4d7420fce07c"},"vehicle_type_id":"4","last_reported":1729267862,"current_range_meters":4800,"station_id":"ce4bhi12rcd13ifvqfp0","pricing_plan_id":"cebpf4jnsgd1na2vs0mg"},{"bike_id":"1185016f-df9b-4e61-b964-54bd7386f7c9","system_id":"levelo_inurba_marseille","lat":43.33022,"lon":5.39048,"is_reserved":false,"is_disabled":false,"rental_uris":{"android":"levelo://app?vid=1185016f-df9b-4e61-b964-54bd7386f7c9","ios":"levelo://app?vid=1185016f-df9b-4e61-b964-54bd7386f7c9"},"vehicle_type_id":"4","last_reported":1729267862,"current_range_meters":32400,"station_id":"ce4bhr92rcd13ifvqhrg","pricing_plan_id":"cebpf4jnsgd1na2vs0mg"},{"bike_id":"d41309ab-1a1f-4395-acaa-455483c3f8e1","system_id":"levelo_inurba_marseille","lat":43.2319,"lon":5.35561,"is_reserved":false,"is_disabled":false,"rental_uris":{"android":"levelo://app?vid=d41309ab-1a1f-4395-acaa-455483c3f8e1","ios":"levelo://app?vid=d41309ab-1a1f-4395-acaa-455483c3f8e1"},"vehicle_type_id":"4","last_reported":1729267862,"current_range_meters":30400,"station_id":"ce4bhu92rcd13ifvqi70","pricing_plan_id":"cebpf4jnsgd1na2vs0mg"},{"bike_id":"f6fe0307-80dc-4a6c-843b-c64526c2ac49","system_id":"levelo_inurba_marseille","lat":43.29619,"lon":5.37156,"is_reserved":false,"is_disabled":false,"rental_uris":{"android":"levelo://app?vid=f6fe0307-80dc-4a6c-843b-c64526c2ac49","ios":"levelo://app?vid=f6fe0307-80dc-4a6c-843b-c64526c2ac49"},"vehicle_type_id":"4","last_reported":1729267862,"current_range_meters":36400,"station_id":"ce4bgnh2rcd13ifvqc0g","pricing_plan_id":"cebpf4jnsgd1na2vs0mg"},{"bike_id":"abd734a5-72d0-49e5-8c15-c525d81ece91","system_id":"levelo_inurba_marseille","lat":43.30139,"lon":5.39868,"is_reserved":false,"is_disabled":false,"rental_uris":{"android":"levelo://app?vid=abd734a5-72d0-49e5-8c15-c525d81ece91","ios":"levelo://app?vid=abd734a5-72d0-49e5-8c15-c525d81ece91"},"vehicle_type_id":"4","last_reported":1729267862,"current_range_meters":37600,"station_id":"ce4bh0h2rcd13ifvqd40","pricing_plan_id":"cebpf4jnsgd1na2vs0mg"},{"bike_id":"3ac4e1db-5f51-4fa2-b030-da86679eea43","system_id":"levelo_inurba_marseille","lat":43.28614,"lon":5.35104,"is_reserved":false,"is_disabled":false,"rental_uris":{"android":"levelo://app?vid=3ac4e1db-5f51-4fa2-b030-da86679eea43","ios":"levelo://app?vid=3ac4e1db-5f51-4fa2-b030-da86679eea43"},"vehicle_type_id":"4","last_reported":1729267862,"current_range_meters":12000,"station_id":"ce4bhch2rcd13ifvqeug","pricing_plan_id":"cebpf4jnsgd1na2vs0mg"},{"bike_id":"42089fd0-1e71-4f89-9f4d-71906d405a17","system_id":"levelo_inurba_marseille","lat":43.23194,"lon":5.35553,"is_reserved":false,"is_disabled":false,"rental_uris":{"android":"levelo://app?vid=42089fd0-1e71-4f89-9f4d-71906d405a17","ios":"levelo://app?vid=42089fd0-1e71-4f89-9f4d-71906d405a17"},"vehicle_type_id":"4","last_reported":1729267862,"current_range_meters":38800,"station_id":"ce4bhu92rcd13ifvqi70","pricing_plan_id":"cebpf4jnsgd1na2vs0mg"},{"bike_id":"70a93539-f111-4383-85bd-6d80bce71ecd","system_id":"levelo_inurba_marseille","lat":43.27943,"lon":5.41051,"is_reserved":false,"is_disabled":false,"rental_uris":{"android":"levelo://app?vid=70a93539-f111-4383-85bd-6d80bce71ecd","ios":"levelo://app?vid=70a93539-f111-4383-85bd-6d80bce71ecd"},"vehicle_type_id":"4","last_reported":1729267862,"current_range_meters":18800,"station_id":"ce4bhnp2rcd13ifvqh0g","pricing_plan_id":"cebpf4jnsgd1na2vs0mg"},{"bike_id":"12567185-2752-4c7c-9eda-58f3fa710c41","system_id":"levelo_inurba_marseille","lat":43.26186,"lon":5.37454,"is_reserved":false,"is_disabled":false,"rental_uris":{"android":"levelo://app?vid=12567185-2752-4c7c-9eda-58f3fa710c41","ios":"levelo://app?vid=12567185-2752-4c7c-9eda-58f3fa710c41"},"vehicle_type_id":"4","last_reported":1729267862,"current_range_meters":35200,"station_id":"ce4bhgp2rcd13ifvqfc0","pricing_plan_id":"cebpf4jnsgd1na2vs0mg"},{"bike_id":"a417ea90-2677-4128-ad80-9d6526661d0d","system_id":"levelo_inurba_marseille","lat":43.23956,"lon":5.36631,"is_reserved":false,"is_disabled":false,"rental_uris":{"android":"levelo://app?vid=a417ea90-2677-4128-ad80-9d6526661d0d","ios":"levelo://app?vid=a417ea90-2677-4128-ad80-9d6526661d0d"},"vehicle_type_id":"4","last_reported":1729267862,"current_range_meters":22000,"station_id":"ce4bhi12rcd13ifvqfp0","pricing_plan_id":"cebpf4jnsgd1na2vs0mg"},{"bike_id":"20a7cc4c-8cf9-4286-99b0-89129c6c6b3a","system_id":"levelo_inurba_marseille","lat":43.32363,"lon":5.38887,"is_reserved":false,"is_disabled":false,"rental_uris":{"android":"levelo://app?vid=20a7cc4c-8cf9-4286-99b0-89129c6c6b3a","ios":"levelo://app?vid=20a7cc4c-8cf9-4286-99b0-89129c6c6b3a"},"vehicle_type_id":"4","last_reported":1729267862,"current_range_meters":30400,"station_id":"ce4bhqp2rcd13ifvqhog","pricing_plan_id":"cebpf4jnsgd1na2vs0mg"},{"bike_id":"f93454e1-a669-4c63-a4ca-b572042c7971","system_id":"levelo_inurba_marseille","lat":43.23194,"lon":5.35554,"is_reserved":false,"is_disabled":false,"rental_uris":{"android":"levelo://app?vid=f93454e1-a669-4c63-a4ca-b572042c7971","ios":"levelo://app?vid=f93454e1-a669-4c63-a4ca-b572042c7971"},"vehicle_type_id":"4","last_reported":1729267862,"current_range_meters":8000,"station_id":"ce4bhu92rcd13ifvqi70","pricing_plan_id":"cebpf4jnsgd1na2vs0mg"},{"bike_id":"9feebf6a-cf06-4283-9475-cface9a88761","system_id":"levelo_inurba_marseille","lat":43.30801,"lon":5.43526,"is_reserved":false,"is_disabled":false,"rental_uris":{"android":"levelo://app?vid=9feebf6a-cf06-4283-9475-cface9a88761","ios":"levelo://app?vid=9feebf6a-cf06-4283-9475-cface9a88761"},"vehicle_type_id":"4","last_reported":1729267862,"current_range_meters":32800,"station_id":"ce4bhph2rcd13ifvqheg","pricing_plan_id":"cebpf4jnsgd1na2vs0mg"},{"bike_id":"d32525c3-3720-49b9-b81d-ca00305e8fbe","system_id":"levelo_inurba_marseille","lat":43.287231,"lon":5.360914,"is_reserved":false,"is_disabled":false,"rental_uris":{"android":"levelo://app?vid=d32525c3-3720-49b9-b81d-ca00305e8fbe","ios":"levelo://app?vid=d32525c3-3720-49b9-b81d-ca00305e8fbe"},"vehicle_type_id":"4","last_reported":1729267862,"current_range_meters":24000,"station_id":"cki0cbj6b192h4jlfktg","pricing_plan_id":"cebpf4jnsgd1na2vs0mg"},{"bike_id":"2c2204fc-2d2e-4e76-be27-ef4a028d3200","system_id":"levelo_inurba_marseille","lat":43.23179,"lon":5.39995,"is_reserved":false,"is_disabled":false,"rental_uris":{"android":"levelo://app?vid=2c2204fc-2d2e-4e76-be27-ef4a028d3200","ios":"levelo://app?vid=2c2204fc-2d2e-4e76-be27-ef4a028d3200"},"vehicle_type_id":"4","last_reported":1729267862,"current_range_meters":6800,"station_id":"ce4bhn12rcd13ifvqgqg","pricing_plan_id":"cebpf4jnsgd1na2vs0mg"},{"bike_id":"22b37876-70ac-4ba0-9001-79de88a5c4f9","system_id":"levelo_inurba_marseille","lat":43.33758,"lon":5.37436,"is_reserved":false,"is_disabled":false,"rental_uris":{"android":"levelo://app?vid=22b37876-70ac-4ba0-9001-79de88a5c4f9","ios":"levelo://app?vid=22b37876-70ac-4ba0-9001-79de88a5c4f9"},"vehicle_type_id":"4","last_reported":1729267862,"current_range_meters":32400,"station_id":"","pricing_plan_id":"cebpf4jnsgd1na2vs0mg"},{"bike_id":"ffb4b7ad-b1db-4660-bb94-0034f6be7db5","system_id":"levelo_inurba_marseille","lat":43.32535,"lon":5.4143,"is_reserved":false,"is_disabled":false,"rental_uris":{"android":"levelo://app?vid=ffb4b7ad-b1db-4660-bb94-0034f6be7db5","ios":"levelo://app?vid=ffb4b7ad-b1db-4660-bb94-0034f6be7db5"},"vehicle_type_id":"4","last_reported":1729267862,"current_range_meters":39200,"station_id":"ce4bhq12rcd13ifvqhhg","pricing_plan_id":"cebpf4jnsgd1na2vs0mg"},{"bike_id":"64fb070a-305a-4522-85d0-029207afb7e6","system_id":"levelo_inurba_marseille","lat":43.27618,"lon":5.36108,"is_reserved":false,"is_disabled":false,"rental_uris":{"android":"levelo://app?vid=64fb070a-305a-4522-85d0-029207afb7e6","ios":"levelo://app?vid=64fb070a-305a-4522-85d0-029207afb7e6"},"vehicle_type_id":"4","last_reported":1729267862,"current_range_meters":2800,"station_id":"ce4bgj92rcd13ifvqbe0","pricing_plan_id":"cebpf4jnsgd1na2vs0mg"},{"bike_id":"9b78167b-ae5a-47c9-9d1b-58b45505fd1c","system_id":"levelo_inurba_marseille","lat":43.24169,"lon":5.36393,"is_reserved":false,"is_disabled":false,"rental_uris":{"android":"levelo://app?vid=9b78167b-ae5a-47c9-9d1b-58b45505fd1c","ios":"levelo://app?vid=9b78167b-ae5a-47c9-9d1b-58b45505fd1c"},"vehicle_type_id":"4","last_reported":1729267862,"current_range_meters":38800,"station_id":"cpo36qri1sfpv3e86is0","pricing_plan_id":"cebpf4jnsgd1na2vs0mg"},{"bike_id":"896fe0e3-6026-4192-bb2f-f919775be63d","system_id":"levelo_inurba_marseille","lat":43.30778,"lon":5.37652,"is_reserved":false,"is_disabled":false,"rental_uris":{"android":"levelo://app?vid=896fe0e3-6026-4192-bb2f-f919775be63d","ios":"levelo://app?vid=896fe0e3-6026-4192-bb2f-f919775be63d"},"vehicle_type_id":"4","last_reported":1729267862,"current_range_meters":40000,"station_id":"ce4bgv92rcd13ifvqcq0","pricing_plan_id":"cebpf4jnsgd1na2vs0mg"},{"bike_id":"61a20f03-84a6-401a-891c-1cde4c01a6cf","system_id":"levelo_inurba_marseille","lat":43.33021,"lon":5.39039,"is_reserved":false,"is_disabled":false,"rental_uris":{"android":"levelo://app?vid=61a20f03-84a6-401a-891c-1cde4c01a6cf","ios":"levelo://app?vid=61a20f03-84a6-401a-891c-1cde4c01a6cf"},"vehicle_type_id":"4","last_reported":1729267862,"current_range_meters":28800,"station_id":"ce4bhr92rcd13ifvqhrg","pricing_plan_id":"cebpf4jnsgd1na2vs0mg"},{"bike_id":"a8ecee7c-184f-4a9a-a799-bd630c76e135","system_id":"levelo_inurba_marseille","lat":43.31711,"lon":5.43707,"is_reserved":false,"is_disabled":false,"rental_uris":{"android":"levelo://app?vid=a8ecee7c-184f-4a9a-a799-bd630c76e135","ios":"levelo://app?vid=a8ecee7c-184f-4a9a-a799-bd630c76e135"},"vehicle_type_id":"4","last_reported":1729267862,"current_range_meters":25200,"station_id":"ce4bhp92rcd13ifvqhcg","pricing_plan_id":"cebpf4jnsgd1na2vs0mg"},{"bike_id":"0efb87e6-e6db-4887-8631-8d7539cd2cd9","system_id":"levelo_inurba_marseille","lat":43.26553,"lon":5.37285,"is_reserved":false,"is_disabled":false,"rental_uris":{"android":"levelo://app?vid=0efb87e6-e6db-4887-8631-8d7539cd2cd9","ios":"levelo://app?vid=0efb87e6-e6db-4887-8631-8d7539cd2cd9"},"vehicle_type_id":"4","last_reported":1729267862,"current_range_meters":31200,"station_id":"ce4bhg12rcd13ifvqf70","pricing_plan_id":"cebpf4jnsgd1na2vs0mg"},{"bike_id":"c8fa6f39-e07d-463d-8d01-7ccf9e86f944","system_id":"levelo_inurba_marseille","lat":43.23194,"lon":5.35554,"is_reserved":false,"is_disabled":false,"rental_uris":{"android":"levelo://app?vid=c8fa6f39-e07d-463d-8d01-7ccf9e86f944","ios":"levelo://app?vid=c8fa6f39-e07d-463d-8d01-7ccf9e86f944"},"vehicle_type_id":"4","last_reported":1729267862,"current_range_meters":23200,"station_id":"ce4bhu92rcd13ifvqi70","pricing_plan_id":"cebpf4jnsgd1na2vs0mg"},{"bike_id":"b1b20f6e-0716-43fb-ac17-e3baadd6bd01","system_id":"levelo_inurba_marseille","lat":43.31528,"lon":5.38036,"is_reserved":false,"is_disabled":false,"rental_uris":{"android":"levelo://app?vid=b1b20f6e-0716-43fb-ac17-e3baadd6bd01","ios":"levelo://app?vid=b1b20f6e-0716-43fb-ac17-e3baadd6bd01"},"vehicle_type_id":"4","last_reported":1729267862,"current_range_meters":16800,"station_id":"ce4bhsp2rcd13ifvqi50","pricing_plan_id":"cebpf4jnsgd1na2vs0mg"},{"bike_id":"7083d6dd-62a3-40cd-bc95-f4d44769330f","system_id":"levelo_inurba_marseille","lat":43.32199,"lon":5.38732,"is_reserved":false,"is_disabled":false,"rental_uris":{"android":"levelo://app?vid=7083d6dd-62a3-40cd-bc95-f4d44769330f","ios":"levelo://app?vid=7083d6dd-62a3-40cd-bc95-f4d44769330f"},"vehicle_type_id":"4","last_reported":1729267862,"current_range_meters":7200,"station_id":"","pricing_plan_id":"cebpf4jnsgd1na2vs0mg"},{"bike_id":"5bae1dba-000c-4862-83ae-51ae269489bd","system_id":"levelo_inurba_marseille","lat":43.26207,"lon":5.37446,"is_reserved":false,"is_disabled":false,"rental_uris":{"android":"levelo://app?vid=5bae1dba-000c-4862-83ae-51ae269489bd","ios":"levelo://app?vid=5bae1dba-000c-4862-83ae-51ae269489bd"},"vehicle_type_id":"4","last_reported":1729267862,"current_range_meters":5600,"station_id":"ce4bhgp2rcd13ifvqfc0","pricing_plan_id":"cebpf4jnsgd1na2vs0mg"},{"bike_id":"8e64bd4c-4dab-43cb-abd6-34094e53dd41","system_id":"levelo_inurba_marseille","lat":43.26196,"lon":5.37935,"is_reserved":false,"is_disabled":false,"rental_uris":{"android":"levelo://app?vid=8e64bd4c-4dab-43cb-abd6-34094e53dd41","ios":"levelo://app?vid=8e64bd4c-4dab-43cb-abd6-34094e53dd41"},"vehicle_type_id":"4","last_reported":1729267862,"current_range_meters":3200,"station_id":"ce4bhjp2rcd13ifvqg90","pricing_plan_id":"cebpf4jnsgd1na2vs0mg"},{"bike_id":"67031a9f-a45a-4453-b372-b6261c43b5c9","system_id":"levelo_inurba_marseille","lat":43.33026,"lon":5.39041,"is_reserved":false,"is_disabled":false,"rental_uris":{"android":"levelo://app?vid=67031a9f-a45a-4453-b372-b6261c43b5c9","ios":"levelo://app?vid=67031a9f-a45a-4453-b372-b6261c43b5c9"},"vehicle_type_id":"4","last_reported":1729267862,"current_range_meters":13600,"station_id":"ce4bhr92rcd13ifvqhrg","pricing_plan_id":"cebpf4jnsgd1na2vs0mg"},{"bike_id":"631bcd5a-8a5c-4a24-8eff-d671338d6944","system_id":"levelo_inurba_marseille","lat":43.31714,"lon":5.37759,"is_reserved":false,"is_disabled":false,"rental_uris":{"android":"levelo://app?vid=631bcd5a-8a5c-4a24-8eff-d671338d6944","ios":"levelo://app?vid=631bcd5a-8a5c-4a24-8eff-d671338d6944"},"vehicle_type_id":"4","last_reported":1729267862,"current_range_meters":38800,"station_id":"ce4bgth2rcd13ifvqch0","pricing_plan_id":"cebpf4jnsgd1na2vs0mg"},{"bike_id":"2ef3c146-6149-4f20-a548-4ad339334f04","system_id":"levelo_inurba_marseille","lat":43.28719,"lon":5.36079,"is_reserved":false,"is_disabled":false,"rental_uris":{"android":"levelo://app?vid=2ef3c146-6149-4f20-a548-4ad339334f04","ios":"levelo://app?vid=2ef3c146-6149-4f20-a548-4ad339334f04"},"vehicle_type_id":"4","last_reported":1729267862,"current_range_meters":19200,"station_id":"cki0cbj6b192h4jlfktg","pricing_plan_id":"cebpf4jnsgd1na2vs0mg"},{"bike_id":"63c9eefa-c78b-48f4-8302-7305b6cf0604","system_id":"levelo_inurba_marseille","lat":43.31706,"lon":5.37758,"is_reserved":false,"is_disabled":false,"rental_uris":{"android":"levelo://app?vid=63c9eefa-c78b-48f4-8302-7305b6cf0604","ios":"levelo://app?vid=63c9eefa-c78b-48f4-8302-7305b6cf0604"},"vehicle_type_id":"4","last_reported":1729267862,"current_range_meters":6800,"station_id":"ce4bgth2rcd13ifvqch0","pricing_plan_id":"cebpf4jnsgd1na2vs0mg"},{"bike_id":"5a84c37d-f060-4ec6-a5d9-fc683482ee54","system_id":"levelo_inurba_marseille","lat":43.278351,"lon":5.382365,"is_reserved":false,"is_disabled":false,"rental_uris":{"android":"levelo://app?vid=5a84c37d-f060-4ec6-a5d9-fc683482ee54","ios":"levelo://app?vid=5a84c37d-f060-4ec6-a5d9-fc683482ee54"},"vehicle_type_id":"4","last_reported":1729267862,"current_range_meters":10800,"station_id":"","pricing_plan_id":"cebpf4jnsgd1na2vs0mg"},{"bike_id":"50f887b9-93c7-45f4-bec1-ce9bb99e7f1f","system_id":"levelo_inurba_marseille","lat":43.30931,"lon":5.40149,"is_reserved":false,"is_disabled":false,"rental_uris":{"android":"levelo://app?vid=50f887b9-93c7-45f4-bec1-ce9bb99e7f1f","ios":"levelo://app?vid=50f887b9-93c7-45f4-bec1-ce9bb99e7f1f"},"vehicle_type_id":"4","last_reported":1729267862,"current_range_meters":7200,"station_id":"ce4bgvp2rcd13ifvqct0","pricing_plan_id":"cebpf4jnsgd1na2vs0mg"},{"bike_id":"527bc5af-a70d-4bb7-a529-cce61f55da98","system_id":"levelo_inurba_marseille","lat":43.33724,"lon":5.39187,"is_reserved":false,"is_disabled":false,"rental_uris":{"android":"levelo://app?vid=527bc5af-a70d-4bb7-a529-cce61f55da98","ios":"levelo://app?vid=527bc5af-a70d-4bb7-a529-cce61f55da98"},"vehicle_type_id":"4","last_reported":1729267862,"current_range_meters":39200,"station_id":"ce4bhr92rcd13ifvqhsg","pricing_plan_id":"cebpf4jnsgd1na2vs0mg"},{"bike_id":"a56dd8aa-f6fd-42c7-b0c2-23a347d557fc","system_id":"levelo_inurba_marseille","lat":43.32408,"lon":5.38887,"is_reserved":false,"is_disabled":false,"rental_uris":{"android":"levelo://app?vid=a56dd8aa-f6fd-42c7-b0c2-23a347d557fc","ios":"levelo://app?vid=a56dd8aa-f6fd-42c7-b0c2-23a347d557fc"},"vehicle_type_id":"4","last_reported":1729267862,"current_range_meters":27600,"station_id":"ce4bhqp2rcd13ifvqhog","pricing_plan_id":"cebpf4jnsgd1na2vs0mg"},{"bike_id":"045e21b8-e9d7-484d-bbeb-6e6fd7dea2bb","system_id":"levelo_inurba_marseille","lat":43.31751,"lon":5.39027,"is_reserved":false,"is_disabled":false,"rental_uris":{"android":"levelo://app?vid=045e21b8-e9d7-484d-bbeb-6e6fd7dea2bb","ios":"levelo://app?vid=045e21b8-e9d7-484d-bbeb-6e6fd7dea2bb"},"vehicle_type_id":"4","last_reported":1729267862,"current_range_meters":8400,"station_id":"ce4bhqp2rcd13ifvqhng","pricing_plan_id":"cebpf4jnsgd1na2vs0mg"},{"bike_id":"c3fe07dc-ac18-46f5-bcab-19eb83c77839","system_id":"levelo_inurba_marseille","lat":43.23181,"lon":5.39991,"is_reserved":false,"is_disabled":false,"rental_uris":{"android":"levelo://app?vid=c3fe07dc-ac18-46f5-bcab-19eb83c77839","ios":"levelo://app?vid=c3fe07dc-ac18-46f5-bcab-19eb83c77839"},"vehicle_type_id":"4","last_reported":1729267862,"current_range_meters":9200,"station_id":"ce4bhn12rcd13ifvqgqg","pricing_plan_id":"cebpf4jnsgd1na2vs0mg"},{"bike_id":"39c68386-735b-4a45-8797-f79a716f89a3","system_id":"levelo_inurba_marseille","lat":43.27311,"lon":5.39081,"is_reserved":false,"is_disabled":false,"rental_uris":{"android":"levelo://app?vid=39c68386-735b-4a45-8797-f79a716f89a3","ios":"levelo://app?vid=39c68386-735b-4a45-8797-f79a716f89a3"},"vehicle_type_id":"4","last_reported":1729267862,"current_range_meters":38400,"station_id":"ce4bhgp2rcd13ifvqfe0","pricing_plan_id":"cebpf4jnsgd1na2vs0mg"},{"bike_id":"5f535540-0305-478d-b11d-effada38adf5","system_id":"levelo_inurba_marseille","lat":43.28267,"lon":5.35076,"is_reserved":false,"is_disabled":false,"rental_uris":{"android":"levelo://app?vid=5f535540-0305-478d-b11d-effada38adf5","ios":"levelo://app?vid=5f535540-0305-478d-b11d-effada38adf5"},"vehicle_type_id":"4","last_reported":1729267862,"current_range_meters":2800,"station_id":"ce4bhbp2rcd13ifvqerg","pricing_plan_id":"cebpf4jnsgd1na2vs0mg"},{"bike_id":"47dd6184-e3f0-42ca-ab63-2d2fe631273e","system_id":"levelo_inurba_marseille","lat":43.29628,"lon":5.40595,"is_reserved":false,"is_disabled":false,"rental_uris":{"android":"levelo://app?vid=47dd6184-e3f0-42ca-ab63-2d2fe631273e","ios":"levelo://app?vid=47dd6184-e3f0-42ca-ab63-2d2fe631273e"},"vehicle_type_id":"4","last_reported":1729267862,"current_range_meters":15200,"station_id":"ce4bh0h2rcd13ifvqd60","pricing_plan_id":"cebpf4jnsgd1na2vs0mg"},{"bike_id":"1bea34f6-95cd-47a8-8206-ca6ebee4f30e","system_id":"levelo_inurba_marseille","lat":43.25501,"lon":5.3765,"is_reserved":false,"is_disabled":false,"rental_uris":{"android":"levelo://app?vid=1bea34f6-95cd-47a8-8206-ca6ebee4f30e","ios":"levelo://app?vid=1bea34f6-95cd-47a8-8206-ca6ebee4f30e"},"vehicle_type_id":"4","last_reported":1729267862,"current_range_meters":16400,"station_id":"ce4bhh12rcd13ifvqff0","pricing_plan_id":"cebpf4jnsgd1na2vs0mg"},{"bike_id":"f1a5e72b-ae18-43f4-b110-c8295490aba1","system_id":"levelo_inurba_marseille","lat":43.28414,"lon":5.37513,"is_reserved":false,"is_disabled":false,"rental_uris":{"android":"levelo://app?vid=f1a5e72b-ae18-43f4-b110-c8295490aba1","ios":"levelo://app?vid=f1a5e72b-ae18-43f4-b110-c8295490aba1"},"vehicle_type_id":"4","last_reported":1729267862,"current_range_meters":4800,"station_id":"ce4bh412rcd13ifvqds0","pricing_plan_id":"cebpf4jnsgd1na2vs0mg"},{"bike_id":"e1824bf1-f4bf-438b-80c9-7837e30484fe","system_id":"levelo_inurba_marseille","lat":43.25498,"lon":5.37652,"is_reserved":false,"is_disabled":false,"rental_uris":{"android":"levelo://app?vid=e1824bf1-f4bf-438b-80c9-7837e30484fe","ios":"levelo://app?vid=e1824bf1-f4bf-438b-80c9-7837e30484fe"},"vehicle_type_id":"4","last_reported":1729267862,"current_range_meters":39200,"station_id":"ce4bhh12rcd13ifvqff0","pricing_plan_id":"cebpf4jnsgd1na2vs0mg"},{"bike_id":"f269126c-1b0b-4a1a-a1d6-f8c3716f5336","system_id":"levelo_inurba_marseille","lat":43.23192,"lon":5.35551,"is_reserved":false,"is_disabled":false,"rental_uris":{"android":"levelo://app?vid=f269126c-1b0b-4a1a-a1d6-f8c3716f5336","ios":"levelo://app?vid=f269126c-1b0b-4a1a-a1d6-f8c3716f5336"},"vehicle_type_id":"4","last_reported":1729267862,"current_range_meters":16000,"station_id":"ce4bhu92rcd13ifvqi70","pricing_plan_id":"cebpf4jnsgd1na2vs0mg"},{"bike_id":"6504c83e-ee5c-44f6-b566-d985f5f17132","system_id":"levelo_inurba_marseille","lat":43.26207,"lon":5.37447,"is_reserved":false,"is_disabled":false,"rental_uris":{"android":"levelo://app?vid=6504c83e-ee5c-44f6-b566-d985f5f17132","ios":"levelo://app?vid=6504c83e-ee5c-44f6-b566-d985f5f17132"},"vehicle_type_id":"4","last_reported":1729267862,"current_range_meters":14400,"station_id":"ce4bhgp2rcd13ifvqfc0","pricing_plan_id":"cebpf4jnsgd1na2vs0mg"},{"bike_id":"9fa89a42-d400-4bda-b8bb-c82b746756b3","system_id":"levelo_inurba_marseille","lat":43.28915,"lon":5.40003,"is_reserved":false,"is_disabled":false,"rental_uris":{"android":"levelo://app?vid=9fa89a42-d400-4bda-b8bb-c82b746756b3","ios":"levelo://app?vid=9fa89a42-d400-4bda-b8bb-c82b746756b3"},"vehicle_type_id":"4","last_reported":1729267862,"current_range_meters":28400,"station_id":"ce4bhh92rcd13ifvqfh0","pricing_plan_id":"cebpf4jnsgd1na2vs0mg"},{"bike_id":"72e0fc83-44c9-4939-86ad-1087913a57aa","system_id":"levelo_inurba_marseille","lat":43.24078,"lon":5.37755,"is_reserved":false,"is_disabled":false,"rental_uris":{"android":"levelo://app?vid=72e0fc83-44c9-4939-86ad-1087913a57aa","ios":"levelo://app?vid=72e0fc83-44c9-4939-86ad-1087913a57aa"},"vehicle_type_id":"4","last_reported":1729267862,"current_range_meters":32800,"station_id":"ce4bhnp2rcd13ifvqgvg","pricing_plan_id":"cebpf4jnsgd1na2vs0mg"},{"bike_id":"90a5597d-6c5b-4e9e-96f1-e3d0280e3f8d","system_id":"levelo_inurba_marseille","lat":43.2971,"lon":5.37688,"is_reserved":false,"is_disabled":false,"rental_uris":{"android":"levelo://app?vid=90a5597d-6c5b-4e9e-96f1-e3d0280e3f8d","ios":"levelo://app?vid=90a5597d-6c5b-4e9e-96f1-e3d0280e3f8d"},"vehicle_type_id":"4","last_reported":1729267862,"current_range_meters":24000,"station_id":"ce4bgkh2rcd13ifvqbl0","pricing_plan_id":"cebpf4jnsgd1na2vs0mg"},{"bike_id":"a5cf9039-f0b2-4e59-b3ff-2e77524f69e0","system_id":"levelo_inurba_marseille","lat":43.25499,"lon":5.37661,"is_reserved":false,"is_disabled":false,"rental_uris":{"android":"levelo://app?vid=a5cf9039-f0b2-4e59-b3ff-2e77524f69e0","ios":"levelo://app?vid=a5cf9039-f0b2-4e59-b3ff-2e77524f69e0"},"vehicle_type_id":"4","last_reported":1729267862,"current_range_meters":27200,"station_id":"ce4bhh12rcd13ifvqff0","pricing_plan_id":"cebpf4jnsgd1na2vs0mg"},{"bike_id":"dfe02e30-ce36-4709-b8c9-2b5d34663be6","system_id":"levelo_inurba_marseille","lat":43.26551,"lon":5.37294,"is_reserved":false,"is_disabled":false,"rental_uris":{"android":"levelo://app?vid=dfe02e30-ce36-4709-b8c9-2b5d34663be6","ios":"levelo://app?vid=dfe02e30-ce36-4709-b8c9-2b5d34663be6"},"vehicle_type_id":"4","last_reported":1729267862,"current_range_meters":28000,"station_id":"ce4bhg12rcd13ifvqf70","pricing_plan_id":"cebpf4jnsgd1na2vs0mg"},{"bike_id":"9137c440-91ae-4958-97d7-188597cb2681","system_id":"levelo_inurba_marseille","lat":43.31528,"lon":5.38042,"is_reserved":false,"is_disabled":false,"rental_uris":{"android":"levelo://app?vid=9137c440-91ae-4958-97d7-188597cb2681","ios":"levelo://app?vid=9137c440-91ae-4958-97d7-188597cb2681"},"vehicle_type_id":"4","last_reported":1729267862,"current_range_meters":16000,"station_id":"ce4bhsp2rcd13ifvqi50","pricing_plan_id":"cebpf4jnsgd1na2vs0mg"},{"bike_id":"ebd02eac-6cc5-4413-b022-ab085dda9557","system_id":"levelo_inurba_marseille","lat":43.27378,"lon":5.36271,"is_reserved":false,"is_disabled":false,"rental_uris":{"android":"levelo://app?vid=ebd02eac-6cc5-4413-b022-ab085dda9557","ios":"levelo://app?vid=ebd02eac-6cc5-4413-b022-ab085dda9557"},"vehicle_type_id":"4","last_reported":1729267862,"current_range_meters":18800,"station_id":"ce4bhbh2rcd13ifvqeo0","pricing_plan_id":"cebpf4jnsgd1na2vs0mg"},{"bike_id":"beb2b015-a9ff-4610-86fa-e4d473163a4e","system_id":"levelo_inurba_marseille","lat":43.22927,"lon":5.35375,"is_reserved":false,"is_disabled":false,"rental_uris":{"android":"levelo://app?vid=beb2b015-a9ff-4610-86fa-e4d473163a4e","ios":"levelo://app?vid=beb2b015-a9ff-4610-86fa-e4d473163a4e"},"vehicle_type_id":"4","last_reported":1729267862,"current_range_meters":38800,"station_id":"cpo3532slgdg3j2ikp40","pricing_plan_id":"cebpf4jnsgd1na2vs0mg"},{"bike_id":"85a82f04-5b14-424a-a675-c951a9a3f3b8","system_id":"levelo_inurba_marseille","lat":43.24548,"lon":5.39525,"is_reserved":false,"is_disabled":false,"rental_uris":{"android":"levelo://app?vid=85a82f04-5b14-424a-a675-c951a9a3f3b8","ios":"levelo://app?vid=85a82f04-5b14-424a-a675-c951a9a3f3b8"},"vehicle_type_id":"4","last_reported":1729267862,"current_range_meters":14400,"station_id":"ce4bhlp2rcd13ifvqgjg","pricing_plan_id":"cebpf4jnsgd1na2vs0mg"},{"bike_id":"c6a46c08-5e3b-4e20-a889-5656cebc26a5","system_id":"levelo_inurba_marseille","lat":43.26211,"lon":5.37443,"is_reserved":false,"is_disabled":false,"rental_uris":{"android":"levelo://app?vid=c6a46c08-5e3b-4e20-a889-5656cebc26a5","ios":"levelo://app?vid=c6a46c08-5e3b-4e20-a889-5656cebc26a5"},"vehicle_type_id":"4","last_reported":1729267862,"current_range_meters":23200,"station_id":"ce4bhgp2rcd13ifvqfc0","pricing_plan_id":"cebpf4jnsgd1na2vs0mg"},{"bike_id":"a7ab37b5-ce85-49fd-9d82-673e5b889613","system_id":"levelo_inurba_marseille","lat":43.24546,"lon":5.39526,"is_reserved":false,"is_disabled":false,"rental_uris":{"android":"levelo://app?vid=a7ab37b5-ce85-49fd-9d82-673e5b889613","ios":"levelo://app?vid=a7ab37b5-ce85-49fd-9d82-673e5b889613"},"vehicle_type_id":"4","last_reported":1729267862,"current_range_meters":10800,"station_id":"ce4bhlp2rcd13ifvqgjg","pricing_plan_id":"cebpf4jnsgd1na2vs0mg"},{"bike_id":"4298edc5-387f-4336-abd9-06cfa2771599","system_id":"levelo_inurba_marseille","lat":43.29554,"lon":5.42295,"is_reserved":false,"is_disabled":false,"rental_uris":{"android":"levelo://app?vid=4298edc5-387f-4336-abd9-06cfa2771599","ios":"levelo://app?vid=4298edc5-387f-4336-abd9-06cfa2771599"},"vehicle_type_id":"4","last_reported":1729267862,"current_range_meters":39200,"station_id":"ce4bhph2rcd13ifvqhdg","pricing_plan_id":"cebpf4jnsgd1na2vs0mg"},{"bike_id":"d20262c8-4239-4244-8d3e-c29521b401a0","system_id":"levelo_inurba_marseille","lat":43.23964,"lon":5.36644,"is_reserved":false,"is_disabled":false,"rental_uris":{"android":"levelo://app?vid=d20262c8-4239-4244-8d3e-c29521b401a0","ios":"levelo://app?vid=d20262c8-4239-4244-8d3e-c29521b401a0"},"vehicle_type_id":"4","last_reported":1729267862,"current_range_meters":8800,"station_id":"ce4bhi12rcd13ifvqfp0","pricing_plan_id":"cebpf4jnsgd1na2vs0mg"},{"bike_id":"01ed2b44-13c5-4370-91ac-05bc0dbeffba","system_id":"levelo_inurba_marseille","lat":43.29268,"lon":5.36857,"is_reserved":false,"is_disabled":false,"rental_uris":{"android":"levelo://app?vid=01ed2b44-13c5-4370-91ac-05bc0dbeffba","ios":"levelo://app?vid=01ed2b44-13c5-4370-91ac-05bc0dbeffba"},"vehicle_type_id":"4","last_reported":1729267862,"current_range_meters":25600,"station_id":"ce4bhbp2rcd13ifvqesg","pricing_plan_id":"cebpf4jnsgd1na2vs0mg"},{"bike_id":"ff7f12f7-fae2-475f-8880-fbe6ec3cd326","system_id":"levelo_inurba_marseille","lat":43.28032,"lon":5.36951,"is_reserved":false,"is_disabled":false,"rental_uris":{"android":"levelo://app?vid=ff7f12f7-fae2-475f-8880-fbe6ec3cd326","ios":"levelo://app?vid=ff7f12f7-fae2-475f-8880-fbe6ec3cd326"},"vehicle_type_id":"4","last_reported":1729267862,"current_range_meters":40000,"station_id":"ce4bha12rcd13ifvqef0","pricing_plan_id":"cebpf4jnsgd1na2vs0mg"},{"bike_id":"0df7d5aa-e0a9-45c4-907e-215003444b89","system_id":"levelo_inurba_marseille","lat":43.30876,"lon":5.37199,"is_reserved":false,"is_disabled":false,"rental_uris":{"android":"levelo://app?vid=0df7d5aa-e0a9-45c4-907e-215003444b89","ios":"levelo://app?vid=0df7d5aa-e0a9-45c4-907e-215003444b89"},"vehicle_type_id":"4","last_reported":1729267862,"current_range_meters":7200,"station_id":"ce4bguh2rcd13ifvqckg","pricing_plan_id":"cebpf4jnsgd1na2vs0mg"},{"bike_id":"9bc83f69-0768-49da-b663-1d3e063c9e13","system_id":"levelo_inurba_marseille","lat":43.337666,"lon":5.374568,"is_reserved":false,"is_disabled":false,"rental_uris":{"android":"levelo://app?vid=9bc83f69-0768-49da-b663-1d3e063c9e13","ios":"levelo://app?vid=9bc83f69-0768-49da-b663-1d3e063c9e13"},"vehicle_type_id":"4","last_reported":1729267862,"current_range_meters":2800,"station_id":"","pricing_plan_id":"cebpf4jnsgd1na2vs0mg"},{"bike_id":"91992031-7942-453d-bbca-637c88fbaa72","system_id":"levelo_inurba_marseille","lat":43.294365,"lon":5.386078,"is_reserved":false,"is_disabled":false,"rental_uris":{"android":"levelo://app?vid=91992031-7942-453d-bbca-637c88fbaa72","ios":"levelo://app?vid=91992031-7942-453d-bbca-637c88fbaa72"},"vehicle_type_id":"4","last_reported":1729267862,"current_range_meters":14000,"station_id":"ce4bh2h2rcd13ifvqdh0","pricing_plan_id":"cebpf4jnsgd1na2vs0mg"},{"bike_id":"715ec4b1-4de6-4685-93a9-53128235b7d4","system_id":"levelo_inurba_marseille","lat":43.31754,"lon":5.39019,"is_reserved":false,"is_disabled":false,"rental_uris":{"android":"levelo://app?vid=715ec4b1-4de6-4685-93a9-53128235b7d4","ios":"levelo://app?vid=715ec4b1-4de6-4685-93a9-53128235b7d4"},"vehicle_type_id":"4","last_reported":1729267862,"current_range_meters":2800,"station_id":"ce4bhqp2rcd13ifvqhng","pricing_plan_id":"cebpf4jnsgd1na2vs0mg"},{"bike_id":"250d5588-1022-4006-bd30-347fd60e2885","system_id":"levelo_inurba_marseille","lat":43.28448,"lon":5.39202,"is_reserved":false,"is_disabled":false,"rental_uris":{"android":"levelo://app?vid=250d5588-1022-4006-bd30-347fd60e2885","ios":"levelo://app?vid=250d5588-1022-4006-bd30-347fd60e2885"},"vehicle_type_id":"4","last_reported":1729267862,"current_range_meters":9600,"station_id":"ce4bhoh2rcd13ifvqh5g","pricing_plan_id":"cebpf4jnsgd1na2vs0mg"},{"bike_id":"8d88c93f-5a0f-4b3b-99b3-28abe9b1ee7e","system_id":"levelo_inurba_marseille","lat":43.25489,"lon":5.37647,"is_reserved":false,"is_disabled":false,"rental_uris":{"android":"levelo://app?vid=8d88c93f-5a0f-4b3b-99b3-28abe9b1ee7e","ios":"levelo://app?vid=8d88c93f-5a0f-4b3b-99b3-28abe9b1ee7e"},"vehicle_type_id":"4","last_reported":1729267862,"current_range_meters":6000,"station_id":"ce4bhh12rcd13ifvqff0","pricing_plan_id":"cebpf4jnsgd1na2vs0mg"},{"bike_id":"69c78ed1-854b-47d7-aaa8-26a907aa52ef","system_id":"levelo_inurba_marseille","lat":43.27817,"lon":5.40715,"is_reserved":false,"is_disabled":false,"rental_uris":{"android":"levelo://app?vid=69c78ed1-854b-47d7-aaa8-26a907aa52ef","ios":"levelo://app?vid=69c78ed1-854b-47d7-aaa8-26a907aa52ef"},"vehicle_type_id":"4","last_reported":1729267862,"current_range_meters":27600,"station_id":"ce4bhnh2rcd13ifvqgtg","pricing_plan_id":"cebpf4jnsgd1na2vs0mg"},{"bike_id":"fdae055b-7289-4e7b-b86a-f32b10b6fc7e","system_id":"levelo_inurba_marseille","lat":43.28695,"lon":5.3999,"is_reserved":false,"is_disabled":false,"rental_uris":{"android":"levelo://app?vid=fdae055b-7289-4e7b-b86a-f32b10b6fc7e","ios":"levelo://app?vid=fdae055b-7289-4e7b-b86a-f32b10b6fc7e"},"vehicle_type_id":"4","last_reported":1729267862,"current_range_meters":5600,"station_id":"ce4bho92rcd13ifvqh3g","pricing_plan_id":"cebpf4jnsgd1na2vs0mg"},{"bike_id":"8bc1dc5c-1157-497a-8329-05b1a23ddfb2","system_id":"levelo_inurba_marseille","lat":43.27562,"lon":5.38432,"is_reserved":false,"is_disabled":false,"rental_uris":{"android":"levelo://app?vid=8bc1dc5c-1157-497a-8329-05b1a23ddfb2","ios":"levelo://app?vid=8bc1dc5c-1157-497a-8329-05b1a23ddfb2"},"vehicle_type_id":"4","last_reported":1729267862,"current_range_meters":30000,"station_id":"ce4bhh92rcd13ifvqfi0","pricing_plan_id":"cebpf4jnsgd1na2vs0mg"},{"bike_id":"1cea25e3-c03d-40c2-9b82-cac6c297a0f9","system_id":"levelo_inurba_marseille","lat":43.23054,"lon":5.35501,"is_reserved":false,"is_disabled":false,"rental_uris":{"android":"levelo://app?vid=1cea25e3-c03d-40c2-9b82-cac6c297a0f9","ios":"levelo://app?vid=1cea25e3-c03d-40c2-9b82-cac6c297a0f9"},"vehicle_type_id":"4","last_reported":1729267862,"current_range_meters":38800,"station_id":"cpo3342slgdg3j2ifvpg","pricing_plan_id":"cebpf4jnsgd1na2vs0mg"},{"bike_id":"e155cf4e-c352-41d3-b653-ae04ff2e99f9","system_id":"levelo_inurba_marseille","lat":43.28936,"lon":5.36642,"is_reserved":false,"is_disabled":false,"rental_uris":{"android":"levelo://app?vid=e155cf4e-c352-41d3-b653-ae04ff2e99f9","ios":"levelo://app?vid=e155cf4e-c352-41d3-b653-ae04ff2e99f9"},"vehicle_type_id":"4","last_reported":1729267862,"current_range_meters":10800,"station_id":"ce4bhap2rcd13ifvqek0","pricing_plan_id":"cebpf4jnsgd1na2vs0mg"},{"bike_id":"ee5ed142-7211-4433-b316-eb20516250ee","system_id":"levelo_inurba_marseille","lat":43.3302,"lon":5.39038,"is_reserved":false,"is_disabled":false,"rental_uris":{"android":"levelo://app?vid=ee5ed142-7211-4433-b316-eb20516250ee","ios":"levelo://app?vid=ee5ed142-7211-4433-b316-eb20516250ee"},"vehicle_type_id":"4","last_reported":1729267862,"current_range_meters":16000,"station_id":"ce4bhr92rcd13ifvqhrg","pricing_plan_id":"cebpf4jnsgd1na2vs0mg"},{"bike_id":"3e36ccc4-8a14-4a9c-a0e9-82a2c603fa2c","system_id":"levelo_inurba_marseille","lat":43.24648,"lon":5.38901,"is_reserved":false,"is_disabled":false,"rental_uris":{"android":"levelo://app?vid=3e36ccc4-8a14-4a9c-a0e9-82a2c603fa2c","ios":"levelo://app?vid=3e36ccc4-8a14-4a9c-a0e9-82a2c603fa2c"},"vehicle_type_id":"4","last_reported":1729267862,"current_range_meters":11600,"station_id":"ce4bhg12rcd13ifvqf60","pricing_plan_id":"cebpf4jnsgd1na2vs0mg"},{"bike_id":"e7bded9d-b56b-472d-afce-d736cf77a6b9","system_id":"levelo_inurba_marseille","lat":43.254456,"lon":5.376604,"is_reserved":false,"is_disabled":false,"rental_uris":{"android":"levelo://app?vid=e7bded9d-b56b-472d-afce-d736cf77a6b9","ios":"levelo://app?vid=e7bded9d-b56b-472d-afce-d736cf77a6b9"},"vehicle_type_id":"4","last_reported":1729267862,"current_range_meters":28000,"station_id":"ce4bhh12rcd13ifvqff0","pricing_plan_id":"cebpf4jnsgd1na2vs0mg"},{"bike_id":"1a96d551-ac93-44fd-8a4e-8f6097cf8414","system_id":"levelo_inurba_marseille","lat":43.27372,"lon":5.36255,"is_reserved":false,"is_disabled":false,"rental_uris":{"android":"levelo://app?vid=1a96d551-ac93-44fd-8a4e-8f6097cf8414","ios":"levelo://app?vid=1a96d551-ac93-44fd-8a4e-8f6097cf8414"},"vehicle_type_id":"4","last_reported":1729267862,"current_range_meters":16000,"station_id":"ce4bhbh2rcd13ifvqeo0","pricing_plan_id":"cebpf4jnsgd1na2vs0mg"},{"bike_id":"a1e0278e-920e-4eea-a381-891331e8e403","system_id":"levelo_inurba_marseille","lat":43.23198,"lon":5.35547,"is_reserved":false,"is_disabled":false,"rental_uris":{"android":"levelo://app?vid=a1e0278e-920e-4eea-a381-891331e8e403","ios":"levelo://app?vid=a1e0278e-920e-4eea-a381-891331e8e403"},"vehicle_type_id":"4","last_reported":1729267862,"current_range_meters":26800,"station_id":"ce4bhu92rcd13ifvqi70","pricing_plan_id":"cebpf4jnsgd1na2vs0mg"},{"bike_id":"be0de43b-ddfd-41e0-9990-4d4eed1b625d","system_id":"levelo_inurba_marseille","lat":43.26556,"lon":5.37288,"is_reserved":false,"is_disabled":false,"rental_uris":{"android":"levelo://app?vid=be0de43b-ddfd-41e0-9990-4d4eed1b625d","ios":"levelo://app?vid=be0de43b-ddfd-41e0-9990-4d4eed1b625d"},"vehicle_type_id":"4","last_reported":1729267862,"current_range_meters":16800,"station_id":"ce4bhg12rcd13ifvqf70","pricing_plan_id":"cebpf4jnsgd1na2vs0mg"},{"bike_id":"1dc2efc4-5cdd-4907-983c-f89552c4dd61","system_id":"levelo_inurba_marseille","lat":43.24167,"lon":5.36399,"is_reserved":false,"is_disabled":false,"rental_uris":{"android":"levelo://app?vid=1dc2efc4-5cdd-4907-983c-f89552c4dd61","ios":"levelo://app?vid=1dc2efc4-5cdd-4907-983c-f89552c4dd61"},"vehicle_type_id":"4","last_reported":1729267862,"current_range_meters":38000,"station_id":"cpo36qri1sfpv3e86is0","pricing_plan_id":"cebpf4jnsgd1na2vs0mg"},{"bike_id":"9d40e33f-9e46-4f7b-a172-ac51f99950bd","system_id":"levelo_inurba_marseille","lat":43.24169,"lon":5.364,"is_reserved":false,"is_disabled":false,"rental_uris":{"android":"levelo://app?vid=9d40e33f-9e46-4f7b-a172-ac51f99950bd","ios":"levelo://app?vid=9d40e33f-9e46-4f7b-a172-ac51f99950bd"},"vehicle_type_id":"4","last_reported":1729267862,"current_range_meters":22000,"station_id":"cpo36qri1sfpv3e86is0","pricing_plan_id":"cebpf4jnsgd1na2vs0mg"},{"bike_id":"d6fa7525-5a33-4f6a-8ea6-aa0119a554c1","system_id":"levelo_inurba_marseille","lat":43.2988,"lon":5.38904,"is_reserved":false,"is_disabled":false,"rental_uris":{"android":"levelo://app?vid=d6fa7525-5a33-4f6a-8ea6-aa0119a554c1","ios":"levelo://app?vid=d6fa7525-5a33-4f6a-8ea6-aa0119a554c1"},"vehicle_type_id":"4","last_reported":1729267862,"current_range_meters":28000,"station_id":"ce4bh392rcd13ifvqdl0","pricing_plan_id":"cebpf4jnsgd1na2vs0mg"},{"bike_id":"ca211680-1948-4a56-8443-41e91b970256","system_id":"levelo_inurba_marseille","lat":43.260223,"lon":5.375531,"is_reserved":false,"is_disabled":false,"rental_uris":{"android":"levelo://app?vid=ca211680-1948-4a56-8443-41e91b970256","ios":"levelo://app?vid=ca211680-1948-4a56-8443-41e91b970256"},"vehicle_type_id":"4","last_reported":1729267862,"current_range_meters":28000,"station_id":"ce4bhgh2rcd13ifvqfa0","pricing_plan_id":"cebpf4jnsgd1na2vs0mg"},{"bike_id":"aa93ae9d-e68b-4a05-b7e2-daeabc87ed1e","system_id":"levelo_inurba_marseille","lat":43.23189,"lon":5.35558,"is_reserved":false,"is_disabled":false,"rental_uris":{"android":"levelo://app?vid=aa93ae9d-e68b-4a05-b7e2-daeabc87ed1e","ios":"levelo://app?vid=aa93ae9d-e68b-4a05-b7e2-daeabc87ed1e"},"vehicle_type_id":"4","last_reported":1729267862,"current_range_meters":24800,"station_id":"ce4bhu92rcd13ifvqi70","pricing_plan_id":"cebpf4jnsgd1na2vs0mg"},{"bike_id":"74962af8-42b6-4fa9-836a-18c929de7409","system_id":"levelo_inurba_marseille","lat":43.25488,"lon":5.37655,"is_reserved":false,"is_disabled":false,"rental_uris":{"android":"levelo://app?vid=74962af8-42b6-4fa9-836a-18c929de7409","ios":"levelo://app?vid=74962af8-42b6-4fa9-836a-18c929de7409"},"vehicle_type_id":"4","last_reported":1729267862,"current_range_meters":29600,"station_id":"ce4bhh12rcd13ifvqff0","pricing_plan_id":"cebpf4jnsgd1na2vs0mg"},{"bike_id":"7d2cc36a-bde3-432a-84d6-b5f392f5e258","system_id":"levelo_inurba_marseille","lat":43.33027,"lon":5.39042,"is_reserved":false,"is_disabled":false,"rental_uris":{"android":"levelo://app?vid=7d2cc36a-bde3-432a-84d6-b5f392f5e258","ios":"levelo://app?vid=7d2cc36a-bde3-432a-84d6-b5f392f5e258"},"vehicle_type_id":"4","last_reported":1729267862,"current_range_meters":9600,"station_id":"ce4bhr92rcd13ifvqhrg","pricing_plan_id":"cebpf4jnsgd1na2vs0mg"},