{"last_updated":1757880586,"ttl":60,"version":"2.2","data":{"bikes":[{"bike_id":"f6819f0a-4c1e-4029-af20-6942dd119639","system_id":"levelo_inurba_marseille","lat":43.29953,"lon":5.38489,"is_reserved":false,"is_disabled":true,"rental_uris":{"android":"levelo://app?vid=f6819f0a-4c1e-4029-af20-6942dd119639","ios":"levelo://app?vid=f6819f0a-4c1e-4029-af20-6942dd119639"},"vehicle_type_id":"4","last_reported":1757880586,"current_range_meters":2800,"station_id":"ce4bgj92rcd13ifvqbd0","pricing_plan_id":"cebpf4jnsgd1na2vs0mg"},{"bike_id":"f0ac94e0-97b5-445e-97c6-90c7cfec6401","system_id":"levelo_inurba_marseille","lat":43.288547,"lon":5.393095,"is_reserved":false,"is_disabled":false,"rental_uris":{"android":"levelo://app?vid=f0ac94e0-97b5-445e-97c6-90c7cfec6401","ios":"levelo://app?vid=f0ac94e0-97b5-445e-97c6-90c7cfec6401"},"vehicle_type_id":"4","last_reported":1757880586,"current_range_meters":2800,"station_id":"ce4bh2p2rcd13ifvqdi0","pricing_plan_id":"cebpf4jnsgd1na2vs0mg"},{"bike_id":"feda5e19-2027-450d-aa03-3e0c987650f5","system_id":"levelo_inurba_marseille","lat":43.27759,"lon":5.38849,"is_reserved":false,"is_disabled":false,"rental_uris":{"android":"levelo://app?vid=feda5e19-2027-450d-aa03-3e0c987650f5","ios":"levelo://app?vid=feda5e19-2027-450d-aa03-3e0c987650f5"},"vehicle_type_id":"4","last_reported":1757880586,"current_range_meters":2800,"station_id":"","pricing_plan_id":"cebpf4jnsgd1na2vs0mg"},{"bike_id":"29939e1d-7683-455b-aa01-8621cf17f4fa","system_id":"levelo_inurba_marseille","lat":43.24951,"lon":5.40512,"is_reserved":false,"is_disabled":true,"rental_uris":{"android":"levelo://app?vid=29939e1d-7683-455b-aa01-8621cf17f4fa","ios":"levelo://app?vid=29939e1d-7683-455b-aa01-8621cf17f4fa"},"vehicle_type_id":"4","last_reported":1757880586,"current_range_meters":2800,"station_id":"st_d2ngiaodas8pm72gd1h0","pricing_plan_id":"cebpf4jnsgd1na2vs0mg"},{"bike_id":"a3977072-5f91-4a68-b0d6-dc3cb909a337","system_id":"levelo_inurba_marseille","lat":43.337717,"lon":5.374722,"is_reserved":false,"is_disabled":false,"rental_uris":{"android":"levelo://app?vid=a3977072-5f91-4a68-b0d6-dc3cb909a337","ios":"levelo://app?vid=a3977072-5f91-4a68-b0d6-dc3cb909a337"},"vehicle_type_id":"4","last_reported":1757880586,"current_range_meters":3600,"station_id":"","pricing_plan_id":"cebpf4jnsgd1na2vs0mg"},{"bike_id":"055a1d38-cd71-4ae7-9ac1-6e9e1aa59543","system_id":"levelo_inurba_marseille","lat":43.32371,"lon":5.3888,"is_reserved":false,"is_disabled":false,"rental_uris":{"android":"levelo://app?vid=055a1d38-cd71-4ae7-9ac1-6e9e1aa59543","ios":"levelo://app?vid=055a1d38-cd71-4ae7-9ac1-6e9e1aa59543"},"vehicle_type_id":"4","last_reported":1757880586,"current_range_meters":3200,"station_id":"ce4bhqp2rcd13ifvqhog","pricing_plan_id":"cebpf4jnsgd1na2vs0mg"},{"bike_id":"3bd595b7-af3b-43b1-8697-1bcb2a61af6f","system_id":"levelo_inurba_marseille","lat":43.27999,"lon":5.40003,"is_reserved":false,"is_disabled":true,"rental_uris":{"android":"levelo://app?vid=3bd595b7-af3b-43b1-8697-1bcb2a61af6f","ios":"levelo://app?vid=3bd595b7-af3b-43b1-8697-1bcb2a61af6f"},"vehicle_type_id":"4","last_reported":1757880586,"current_range_meters":3200,"station_id":"ce4bho92rcd13ifvqh4g","pricing_plan_id":"cebpf4jnsgd1na2vs0mg"},{"bike_id":"972b4c5f-3a00-4bb2-9116-b81f2cecc9f2","system_id":"levelo_inurba_marseille","lat":43.33764,"lon":5.37483,"is_reserved":false,"is_disabled":false,"rental_uris":{"android":"levelo://app?vid=972b4c5f-3a00-4bb2-9116-b81f2cecc9f2","ios":"levelo://app?vid=972b4c5f-3a00-4bb2-9116-b81f2cecc9f2"},"vehicle_type_id":"4","last_reported":1757880586,"current_range_meters":3200,"station_id":"","pricing_plan_id":"cebpf4jnsgd1na2vs0mg"},{"bike_id":"cf748cb2-4829-46b9-a8c6-3340bc895f09","system_id":"levelo_inurba_marseille","lat":43.28361,"lon":5.38097,"is_reserved":false,"is_disabled":false,"rental_uris":{"android":"levelo://app?vid=cf748cb2-4829-46b9-a8c6-3340bc895f09","ios":"levelo://app?vid=cf748cb2-4829-46b9-a8c6-3340bc895f09"},"vehicle_type_id":"4","last_reported":1757880586,"current_range_meters":3600,"station_id":"ce4bh412rcd13ifvqdr0","pricing_plan_id":"cebpf4jnsgd1na2vs0mg"},{"bike_id":"485b7fd6-1a7a-4d66-a43d-61017c9efcc9","system_id":"levelo_inurba_marseille","lat":43.24641,"lon":5.38672,"is_reserved":false,"is_disabled":false,"rental_uris":{"android":"levelo://app?vid=485b7fd6-1a7a-4d66-a43d-61017c9efcc9","ios":"levelo://app?vid=485b7fd6-1a7a-4d66-a43d-61017c9efcc9"},"vehicle_type_id":"4","last_reported":1757880586,"current_range_meters":3200,"station_id":"ce4bhlp2rcd13ifvqgjg","pricing_plan_id":"cebpf4jnsgd1na2vs0mg"},{"bike_id":"8337cea4-f5e4-4695-9f53-fd47b9a8f3dd","system_id":"levelo_inurba_marseille","lat":43.29447,"lon":5.39762,"is_reserved":false,"is_disabled":false,"rental_uris":{"android":"levelo://app?vid=8337cea4-f5e4-4695-9f53-fd47b9a8f3dd","ios":"levelo://app?vid=8337cea4-f5e4-4695-9f53-fd47b9a8f3dd"},"vehicle_type_id":"4","last_reported":1757880586,"current_range_meters":3600,"station_id":"ce4bh3h2rcd13ifvqdo0","pricing_plan_id":"cebpf4jnsgd1na2vs0mg"},{"bike_id":"91dea22c-8e1a-44ca-81b9-4260c19699cb","system_id":"levelo_inurba_marseille","lat":43.31356,"lon":5.38484,"is_reserved":false,"is_disabled":false,"rental_uris":{"android":"levelo://app?vid=91dea22c-8e1a-44ca-81b9-4260c19699cb","ios":"levelo://app?vid=91dea22c-8e1a-44ca-81b9-4260c19699cb"},"vehicle_type_id":"4","last_reported":1757880586,"current_range_meters":3600,"station_id":"ce4bgt92rcd13ifvqcf0","pricing_plan_id":"cebpf4jnsgd1na2vs0mg"},{"bike_id":"c182fe92-e941-4eb8-bbb5-aa4e338afdc6","system_id":"levelo_inurba_marseille","lat":43.29626,"lon":5.37716,"is_reserved":false,"is_disabled":false,"rental_uris":{"android":"levelo://app?vid=c182fe92-e941-4eb8-bbb5-aa4e338afdc6","ios":"levelo://app?vid=c182fe92-e941-4eb8-bbb5-aa4e338afdc6"},"vehicle_type_id":"4","last_reported":1757880586,"current_range_meters":3600,"station_id":"ce4bgi92rcd13ifvqb90","pricing_plan_id":"cebpf4jnsgd1na2vs0mg"},{"bike_id":"74f7e9b1-a3ed-4486-a31b-2bcc580f832f","system_id":"levelo_inurba_marseille","lat":43.31747,"lon":5.39006,"is_reserved":false,"is_disabled":false,"rental_uris":{"android":"levelo://app?vid=74f7e9b1-a3ed-4486-a31b-2bcc580f832f","ios":"levelo://app?vid=74f7e9b1-a3ed-4486-a31b-2bcc580f832f"},"vehicle_type_id":"4","last_reported":1757880586,"current_range_meters":4000,"station_id":"ce4bhqp2rcd13ifvqhng","pricing_plan_id":"cebpf4jnsgd1na2vs0mg"},{"bike_id":"fb711292-2f69-45a1-8fb3-91bc2d4a91b5","system_id":"levelo_inurba_marseille","lat":43.3021,"lon":5.39465,"is_reserved":false,"is_disabled":false,"rental_uris":{"android":"levelo://app?vid=fb711292-2f69-45a1-8fb3-91bc2d4a91b5","ios":"levelo://app?vid=fb711292-2f69-45a1-8fb3-91bc2d4a91b5"},"vehicle_type_id":"4","last_reported":1757880586,"current_range_meters":4000,"station_id":"ce4bh0p2rcd13ifvqd70","pricing_plan_id":"cebpf4jnsgd1na2vs0mg"},{"bike_id":"12738a33-f211-44be-9419-e30902ce41d5","system_id":"levelo_inurba_marseille","lat":43.29528,"lon":5.39031,"is_reserved":false,"is_disabled":false,"rental_uris":{"android":"levelo://app?vid=12738a33-f211-44be-9419-e30902ce41d5","ios":"levelo://app?vid=12738a33-f211-44be-9419-e30902ce41d5"},"vehicle_type_id":"4","last_reported":1757880586,"current_range_meters":4400,"station_id":"ce4bh3p2rcd13ifvqdp0","pricing_plan_id":"cebpf4jnsgd1na2vs0mg"},{"bike_id":"775af279-8ac9-4585-9121-809be9b13265","system_id":"levelo_inurba_marseille","lat":43.337775,"lon":5.374412,"is_reserved":false,"is_disabled":false,"rental_uris":{"android":"levelo://app?vid=775af279-8ac9-4585-9121-809be9b13265","ios":"levelo://app?vid=775af279-8ac9-4585-9121-809be9b13265"},"vehicle_type_id":"4","last_reported":1757880586,"current_range_meters":4400,"station_id":"","pricing_plan_id":"cebpf4jnsgd1na2vs0mg"},{"bike_id":"ce843d71-de50-4675-8d68-968fa16763f3","system_id":"levelo_inurba_marseille","lat":43.28488,"lon":5.3843,"is_reserved":false,"is_disabled":false,"rental_uris":{"android":"levelo://app?vid=ce843d71-de50-4675-8d68-968fa16763f3","ios":"levelo://app?vid=ce843d71-de50-4675-8d68-968fa16763f3"},"vehicle_type_id":"4","last_reported":1757880586,"current_range_meters":4400,"station_id":"ce4bh512rcd13ifvqe3g","pricing_plan_id":"cebpf4jnsgd1na2vs0mg"},{"bike_id":"e03bd15c-c472-4f08-bc2f-c1b8a57b70fb","system_id":"levelo_inurba_marseille","lat":43.32966,"lon":5.39205,"is_reserved":false,"is_disabled":false,"rental_uris":{"android":"levelo://app?vid=e03bd15c-c472-4f08-bc2f-c1b8a57b70fb","ios":"levelo://app?vid=e03bd15c-c472-4f08-bc2f-c1b8a57b70fb"},"vehicle_type_id":"4","last_reported":1757880586,"current_range_meters":4400,"station_id":"","pricing_plan_id":"cebpf4jnsgd1na2vs0mg"},{"bike_id":"8f5fb0be-52e8-4626-8758-ea1874700852","system_id":"levelo_inurba_marseille","lat":43.27819,"lon":5.40715,"is_reserved":false,"is_disabled":false,"rental_uris":{"android":"levelo://app?vid=8f5fb0be-52e8-4626-8758-ea1874700852","ios":"levelo://app?vid=8f5fb0be-52e8-4626-8758-ea1874700852"},"vehicle_type_id":"4","last_reported":1757880586,"current_range_meters":4400,"station_id":"ce4bhnh2rcd13ifvqgtg","pricing_plan_id":"cebpf4jnsgd1na2vs0mg"},{"bike_id":"235c67f5-0bcf-40ba-b5be-c9022a5d846b","system_id":"levelo_inurba_marseille","lat":43.30423,"lon":5.38892,"is_reserved":false,"is_disabled":false,"rental_uris":{"android":"levelo://app?vid=235c67f5-0bcf-40ba-b5be-c9022a5d846b","ios":"levelo://app?vid=235c67f5-0bcf-40ba-b5be-c9022a5d846b"},"vehicle_type_id":"4","last_reported":1757880586,"current_range_meters":5600,"station_id":"ce4bgk12rcd13ifvqbi0","pricing_plan_id":"cebpf4jnsgd1na2vs0mg"},{"bike_id":"fd6abdfd-7dbb-418a-bd02-e158eb256023","system_id":"levelo_inurba_marseille","lat":43.31165,"lon":5.38717,"is_reserved":false,"is_disabled":false,"rental_uris":{"android":"levelo://app?vid=fd6abdfd-7dbb-418a-bd02-e158eb256023","ios":"levelo://app?vid=fd6abdfd-7dbb-418a-bd02-e158eb256023"},"vehicle_type_id":"4","last_reported":1757880586,"current_range_meters":5600,"station_id":"ce4bgv12rcd13ifvqcp0","pricing_plan_id":"cebpf4jnsgd1na2vs0mg"},{"bike_id":"bb5f7e65-2431-44dd-9225-2a224273e325","system_id":"levelo_inurba_marseille","lat":43.24078,"lon":5.37758,"is_reserved":false,"is_disabled":false,"rental_uris":{"android":"levelo://app?vid=bb5f7e65-2431-44dd-9225-2a224273e325","ios":"levelo://app?vid=bb5f7e65-2431-44dd-9225-2a224273e325"},"vehicle_type_id":"4","last_reported":1757880586,"current_range_meters":5600,"station_id":"ce4bhnp2rcd13ifvqgvg","pricing_plan_id":"cebpf4jnsgd1na2vs0mg"},{"bike_id":"fd7857d7-bf8a-458f-a7c8-bee7413fc0cf","system_id":"levelo_inurba_marseille","lat":43.30917,"lon":5.3964,"is_reserved":false,"is_disabled":false,"rental_uris":{"android":"levelo://app?vid=fd7857d7-bf8a-458f-a7c8-bee7413fc0cf","ios":"levelo://app?vid=fd7857d7-bf8a-458f-a7c8-bee7413fc0cf"},"vehicle_type_id":"4","last_reported":1757880586,"current_range_meters":5600,"station_id":"ce4bh012rcd13ifvqcv0","pricing_plan_id":"cebpf4jnsgd1na2vs0mg"},{"bike_id":"eb317f54-7173-4f51-8f16-331f24156aed","system_id":"levelo_inurba_marseille","lat":43.29279,"lon":5.36842,"is_reserved":false,"is_disabled":false,"rental_uris":{"android":"levelo://app?vid=eb317f54-7173-4f51-8f16-331f24156aed","ios":"levelo://app?vid=eb317f54-7173-4f51-8f16-331f24156aed"},"vehicle_type_id":"4","last_reported":1757880586,"current_range_meters":5600,"station_id":"ce4bhbp2rcd13ifvqesg","pricing_plan_id":"cebpf4jnsgd1na2vs0mg"},{"bike_id":"0eac0c05-dbf1-4c0b-af6d-53c5df91e290","system_id":"levelo_inurba_marseille","lat":43.29684,"lon":5.37141,"is_reserved":false,"is_disabled":false,"rental_uris":{"android":"levelo://app?vid=0eac0c05-dbf1-4c0b-af6d-53c5df91e290","ios":"levelo://app?vid=0eac0c05-dbf1-4c0b-af6d-53c5df91e290"},"vehicle_type_id":"4","last_reported":1757880586,"current_range_meters":6000,"station_id":"","pricing_plan_id":"cebpf4jnsgd1na2vs0mg"},{"bike_id":"ae2200e0-55fa-4d16-87bf-72ca65d67371","system_id":"levelo_inurba_marseille","lat":43.28372,"lon":5.38444,"is_reserved":false,"is_disabled":false,"rental_uris":{"android":"levelo://app?vid=ae2200e0-55fa-4d16-87bf-72ca65d67371","ios":"levelo://app?vid=ae2200e0-55fa-4d16-87bf-72ca65d67371"},"vehicle_type_id":"4","last_reported":1757880586,"current_range_meters":6000,"station_id":"","pricing_plan_id":"cebpf4jnsgd1na2vs0mg"},{"bike_id":"963e6d85-80fd-4383-9731-2a852cd4832a","system_id":"levelo_inurba_marseille","lat":43.29033,"lon":5.38146,"is_reserved":false,"is_disabled":false,"rental_uris":{"android":"levelo://app?vid=963e6d85-80fd-4383-9731-2a852cd4832a","ios":"levelo://app?vid=963e6d85-80fd-4383-9731-2a852cd4832a"},"vehicle_type_id":"4","last_reported":1757880586,"current_range_meters":6000,"station_id":"ce4bh4p2rcd13ifvqe1g","pricing_plan_id":"cebpf4jnsgd1na2vs0mg"},{"bike_id":"e1d2e4b0-dcc3-4ec6-8f60-71a0707cd0fe","system_id":"levelo_inurba_marseille","lat":43.217374,"lon":5.34605,"is_reserved":false,"is_disabled":true,"rental_uris":{"android":"levelo://app?vid=e1d2e4b0-dcc3-4ec6-8f60-71a0707cd0fe","ios":"levelo://app?vid=e1d2e4b0-dcc3-4ec6-8f60-71a0707cd0fe"},"vehicle_type_id":"4","last_reported":1757880586,"current_range_meters":6000,"station_id":"st_cvj6r9ubvosntc0bgbag","pricing_plan_id":"cebpf4jnsgd1na2vs0mg"},{"bike_id":"a24c4696-920b-4645-847f-87e0b46915a6","system_id":"levelo_inurba_marseille","lat":43.32475,"lon":5.42488,"is_reserved":false,"is_disabled":false,"rental_uris":{"android":"levelo://app?vid=a24c4696-920b-4645-847f-87e0b46915a6","ios":"levelo://app?vid=a24c4696-920b-4645-847f-87e0b46915a6"},"vehicle_type_id":"4","last_reported":1757880586,"current_range_meters":6400,"station_id":"","pricing_plan_id":"cebpf4jnsgd1na2vs0mg"},{"bike_id":"915cd121-8f21-4222-98e2-1e09f40ec491","system_id":"levelo_inurba_marseille","lat":43.3137,"lon":5.3849,"is_reserved":false,"is_disabled":false,"rental_uris":{"android":"levelo://app?vid=915cd121-8f21-4222-98e2-1e09f40ec491","ios":"levelo://app?vid=915cd121-8f21-4222-98e2-1e09f40ec491"},"vehicle_type_id":"4","last_reported":1757880586,"current_range_meters":6400,"station_id":"ce4bgt92rcd13ifvqcf0","pricing_plan_id":"cebpf4jnsgd1na2vs0mg"},{"bike_id":"52f7214f-3667-4c40-8950-751e4a3e14cb","system_id":"levelo_inurba_marseille","lat":43.29578,"lon":5.375254,"is_reserved":false,"is_disabled":false,"rental_uris":{"android":"levelo://app?vid=52f7214f-3667-4c40-8950-751e4a3e14cb","ios":"levelo://app?vid=52f7214f-3667-4c40-8950-751e4a3e14cb"},"vehicle_type_id":"4","last_reported":1757880586,"current_range_meters":6400,"station_id":"","pricing_plan_id":"cebpf4jnsgd1na2vs0mg"},{"bike_id":"404fd4bf-5e80-41a0-b2fe-5499b9bd7279","system_id":"levelo_inurba_marseille","lat":43.29235,"lon":5.4091,"is_reserved":false,"is_disabled":false,"rental_uris":{"android":"levelo://app?vid=404fd4bf-5e80-41a0-b2fe-5499b9bd7279","ios":"levelo://app?vid=404fd4bf-5e80-41a0-b2fe-5499b9bd7279"},"vehicle_type_id":"4","last_reported":1757880586,"current_range_meters":6800,"station_id":"ce4bh192rcd13ifvqdc0","pricing_plan_id":"cebpf4jnsgd1na2vs0mg"},{"bike_id":"266da9b6-c0ee-4bd9-961e-febaccc9829f","system_id":"levelo_inurba_marseille","lat":43.31533,"lon":5.38039,"is_reserved":false,"is_disabled":false,"rental_uris":{"android":"levelo://app?vid=266da9b6-c0ee-4bd9-961e-febaccc9829f","ios":"levelo://app?vid=266da9b6-c0ee-4bd9-961e-febaccc9829f"},"vehicle_type_id":"4","last_reported":1757880586,"current_range_meters":6800,"station_id":"ce4bhsp2rcd13ifvqi50","pricing_plan_id":"cebpf4jnsgd1na2vs0mg"},{"bike_id":"cbd6e891-6ea4-484c-b167-fec7ec71ecdc","system_id":"levelo_inurba_marseille","lat":43.2719,"lon":5.409924,"is_reserved":false,"is_disabled":false,"rental_uris":{"android":"levelo://app?vid=cbd6e891-6ea4-484c-b167-fec7ec71ecdc","ios":"levelo://app?vid=cbd6e891-6ea4-484c-b167-fec7ec71ecdc"},"vehicle_type_id":"4","last_reported":1757880586,"current_range_meters":6800,"station_id":"ce4bhl12rcd13ifvqgf0","pricing_plan_id":"cebpf4jnsgd1na2vs0mg"},{"bike_id":"e7d5b05b-7279-4c29-a4da-f000d1e487cc","system_id":"levelo_inurba_marseille","lat":43.25077,"lon":5.40316,"is_reserved":false,"is_disabled":false,"rental_uris":{"android":"levelo://app?vid=e7d5b05b-7279-4c29-a4da-f000d1e487cc","ios":"levelo://app?vid=e7d5b05b-7279-4c29-a4da-f000d1e487cc"},"vehicle_type_id":"4","last_reported":1757880586,"current_range_meters":6800,"station_id":"ce4bhlh2rcd13ifvqgig","pricing_plan_id":"cebpf4jnsgd1na2vs0mg"},{"bike_id":"0d0da5b5-971d-4dc1-850b-ba128cb99207","system_id":"levelo_inurba_marseille","lat":43.28068,"lon":5.39646,"is_reserved":false,"is_disabled":true,"rental_uris":{"android":"levelo://app?vid=0d0da5b5-971d-4dc1-850b-ba128cb99207","ios":"levelo://app?vid=0d0da5b5-971d-4dc1-850b-ba128cb99207"},"vehicle_type_id":"4","last_reported":1757880586,"current_range_meters":6800,"station_id":"ce4bho12rcd13ifvqh2g","pricing_plan_id":"cebpf4jnsgd1na2vs0mg"},{"bike_id":"f85a8c4d-f9d0-4136-9b57-8bfb28db950c","system_id":"levelo_inurba_marseille","lat":43.29687,"lon":5.37755,"is_reserved":false,"is_disabled":false,"rental_uris":{"android":"levelo://app?vid=f85a8c4d-f9d0-4136-9b57-8bfb28db950c","ios":"levelo://app?vid=f85a8c4d-f9d0-4136-9b57-8bfb28db950c"},"vehicle_type_id":"4","last_reported":1757880586,"current_range_meters":7200,"station_id":"","pricing_plan_id":"cebpf4jnsgd1na2vs0mg"},{"bike_id":"4891d751-b66c-4a3d-89d5-78926b795844","system_id":"levelo_inurba_marseille","lat":43.30255,"lon":5.44827,"is_reserved":false,"is_disabled":false,"rental_uris":{"android":"levelo://app?vid=4891d751-b66c-4a3d-89d5-78926b795844","ios":"levelo://app?vid=4891d751-b66c-4a3d-89d5-78926b795844"},"vehicle_type_id":"4","last_reported":1757880586,"current_range_meters":7200,"station_id":"","pricing_plan_id":"cebpf4jnsgd1na2vs0mg"},{"bike_id":"9a45254c-c77a-469d-8fa3-a3fa05a580ba","system_id":"levelo_inurba_marseille","lat":43.27177,"lon":5.38679,"is_reserved":false,"is_disabled":false,"rental_uris":{"android":"levelo://app?vid=9a45254c-c77a-469d-8fa3-a3fa05a580ba","ios":"levelo://app?vid=9a45254c-c77a-469d-8fa3-a3fa05a580ba"},"vehicle_type_id":"4","last_reported":1757880586,"current_range_meters":7200,"station_id":"","pricing_plan_id":"cebpf4jnsgd1na2vs0mg"},{"bike_id":"84be000e-b186-4e60-8aaa-b7a0f42a7175","system_id":"levelo_inurba_marseille","lat":43.337616,"lon":5.374353,"is_reserved":false,"is_disabled":false,"rental_uris":{"android":"levelo://app?vid=84be000e-b186-4e60-8aaa-b7a0f42a7175","ios":"levelo://app?vid=84be000e-b186-4e60-8aaa-b7a0f42a7175"},"vehicle_type_id":"4","last_reported":1757880586,"current_range_meters":7200,"station_id":"","pricing_plan_id":"cebpf4jnsgd1na2vs0mg"},{"bike_id":"463345a6-2d4f-4448-8488-9cab1efda713","system_id":"levelo_inurba_marseille","lat":43.254403,"lon":5.401516,"is_reserved":false,"is_disabled":false,"rental_uris":{"android":"levelo://app?vid=463345a6-2d4f-4448-8488-9cab1efda713","ios":"levelo://app?vid=463345a6-2d4f-4448-8488-9cab1efda713"},"vehicle_type_id":"4","last_reported":1757880586,"current_range_meters":7200,"station_id":"","pricing_plan_id":"cebpf4jnsgd1na2vs0mg"},{"bike_id":"56cbd8e0-6e29-4688-a181-df8ca658b863","system_id":"levelo_inurba_marseille","lat":43.28699,"lon":5.39997,"is_reserved":false,"is_disabled":false,"rental_uris":{"android":"levelo://app?vid=56cbd8e0-6e29-4688-a181-df8ca658b863","ios":"levelo://app?vid=56cbd8e0-6e29-4688-a181-df8ca658b863"},"vehicle_type_id":"4","last_reported":1757880586,"current_range_meters":7200,"station_id":"ce4bho92rcd13ifvqh3g","pricing_plan_id":"cebpf4jnsgd1na2vs0mg"},{"bike_id":"28cd0836-9552-4269-93ae-dc9528018e3c","system_id":"levelo_inurba_marseille","lat":43.267771,"lon":5.396845,"is_reserved":false,"is_disabled":false,"rental_uris":{"android":"levelo://app?vid=28cd0836-9552-4269-93ae-dc9528018e3c","ios":"levelo://app?vid=28cd0836-9552-4269-93ae-dc9528018e3c"},"vehicle_type_id":"4","last_reported":1757880586,"current_range_meters":8000,"station_id":"ce4bhl12rcd13ifvqgf0","pricing_plan_id":"cebpf4jnsgd1na2vs0mg"},{"bike_id":"38193a70-2ce0-4df3-8e83-dbda80bb6624","system_id":"levelo_inurba_marseille","lat":43.30133,"lon":5.39867,"is_reserved":false,"is_disabled":false,"rental_uris":{"android":"levelo://app?vid=38193a70-2ce0-4df3-8e83-dbda80bb6624","ios":"levelo://app?vid=38193a70-2ce0-4df3-8e83-dbda80bb6624"},"vehicle_type_id":"4","last_reported":1757880586,"current_range_meters":8000,"station_id":"","pricing_plan_id":"cebpf4jnsgd1na2vs0mg"},{"bike_id":"324bae87-392c-435e-8ab3-27b3349b91af","system_id":"levelo_inurba_marseille","lat":43.290013,"lon":5.356119,"is_reserved":false,"is_disabled":false,"rental_uris":{"android":"levelo://app?vid=324bae87-392c-435e-8ab3-27b3349b91af","ios":"levelo://app?vid=324bae87-392c-435e-8ab3-27b3349b91af"},"vehicle_type_id":"4","last_reported":1757880586,"current_range_meters":8000,"station_id":"ce4bhb92rcd13ifvqen0","pricing_plan_id":"cebpf4jnsgd1na2vs0mg"},{"bike_id":"78f84639-56f9-4c15-8768-49ed5cee722d","system_id":"levelo_inurba_marseille","lat":43.2602,"lon":5.37554,"is_reserved":false,"is_disabled":true,"rental_uris":{"android":"levelo://app?vid=78f84639-56f9-4c15-8768-49ed5cee722d","ios":"levelo://app?vid=78f84639-56f9-4c15-8768-49ed5cee722d"},"vehicle_type_id":"4","last_reported":1757880586,"current_range_meters":8000,"station_id":"ce4bhgh2rcd13ifvqfa0","pricing_plan_id":"cebpf4jnsgd1na2vs0mg"},{"bike_id":"d5c98035-fc72-4062-a3ec-13203f68e8ed","system_id":"levelo_inurba_marseille","lat":43.2885,"lon":5.42517,"is_reserved":false,"is_disabled":false,"rental_uris":{"android":"levelo://app?vid=d5c98035-fc72-4062-a3ec-13203f68e8ed","ios":"levelo://app?vid=d5c98035-fc72-4062-a3ec-13203f68e8ed"},"vehicle_type_id":"4","last_reported":1757880586,"current_range_meters":8000,"station_id":"","pricing_plan_id":"cebpf4jnsgd1na2vs0mg"},{"bike_id":"02dbb44c-70e3-4a7a-b86e-6159cc35ba47","system_id":"levelo_inurba_marseille","lat":43.29587,"lon":5.38689,"is_reserved":false,"is_disabled":false,"rental_uris":{"android":"levelo://app?vid=02dbb44c-70e3-4a7a-b86e-6159cc35ba47","ios":"levelo://app?vid=02dbb44c-70e3-4a7a-b86e-6159cc35ba47"},"vehicle_type_id":"4","last_reported":1757880586,"current_range_meters":8000,"station_id":"ce4bgih2rcd13ifvqba0","pricing_plan_id":"cebpf4jnsgd1na2vs0mg"},{"bike_id":"2a102aaa-6bf8-431d-ab29-e0d925d18ce2","system_id":"levelo_inurba_marseille","lat":43.31313,"lon":5.39705,"is_reserved":false,"is_disabled":false,"rental_uris":{"android":"levelo://app?vid=2a102aaa-6bf8-431d-ab29-e0d925d18ce2","ios":"levelo://app?vid=2a102aaa-6bf8-431d-ab29-e0d925d18ce2"},"vehicle_type_id":"4","last_reported":1757880586,"current_range_meters":8000,"station_id":"ce4bgvp2rcd13ifvqcu0","pricing_plan_id":"cebpf4jnsgd1na2vs0mg"},{"bike_id":"d224ab29-3000-4bbf-8c7a-2737b8f93d8e","system_id":"levelo_inurba_marseille","lat":43.24827,"lon":5.37489,"is_reserved":false,"is_disabled":true,"rental_uris":{"android":"levelo://app?vid=d224ab29-3000-4bbf-8c7a-2737b8f93d8e","ios":"levelo://app?vid=d224ab29-3000-4bbf-8c7a-2737b8f93d8e"},"vehicle_type_id":"4","last_reported":1757880586,"current_range_meters":8000,"station_id":"","pricing_plan_id":"cebpf4jnsgd1na2vs0mg"},{"bike_id":"5b6d0aa1-fa85-4774-9448-b56dc4782190","system_id":"levelo_inurba_marseille","lat":43.28945,"lon":5.39633,"is_reserved":false,"is_disabled":false,"rental_uris":{"android":"levelo://app?vid=5b6d0aa1-fa85-4774-9448-b56dc4782190","ios":"levelo://app?vid=5b6d0aa1-fa85-4774-9448-b56dc4782190"},"vehicle_type_id":"4","last_reported":1757880586,"current_range_meters":8400,"station_id":"ce4bh3h2rcd13ifvqdn0","pricing_plan_id":"cebpf4jnsgd1na2vs0mg"},{"bike_id":"d3625cc4-db37-459c-9dac-dad0b2105747","system_id":"levelo_inurba_marseille","lat":43.284,"lon":5.34978,"is_reserved":false,"is_disabled":true,"rental_uris":{"android":"levelo://app?vid=d3625cc4-db37-459c-9dac-dad0b2105747","ios":"levelo://app?vid=d3625cc4-db37-459c-9dac-dad0b2105747"},"vehicle_type_id":"4","last_reported":1757880586,"current_range_meters":8000,"station_id":"ce4bhbh2rcd13ifvqepg","pricing_plan_id":"cebpf4jnsgd1na2vs0mg"},{"bike_id":"799abdac-8495-45a0-8bb6-09e6179469d5","system_id":"levelo_inurba_marseille","lat":43.25564,"lon":5.37703,"is_reserved":false,"is_disabled":true,"rental_uris":{"android":"levelo://app?vid=799abdac-8495-45a0-8bb6-09e6179469d5","ios":"levelo://app?vid=799abdac-8495-45a0-8bb6-09e6179469d5"},"vehicle_type_id":"4","last_reported":1757880586,"current_range_meters":8400,"station_id":"","pricing_plan_id":"cebpf4jnsgd1na2vs0mg"},{"bike_id":"6515536f-56de-4109-b7a1-24c742aed225","system_id":"levelo_inurba_marseille","lat":43.31997,"lon":5.37234,"is_reserved":false,"is_disabled":true,"rental_uris":{"android":"levelo://app?vid=6515536f-56de-4109-b7a1-24c742aed225","ios":"levelo://app?vid=6515536f-56de-4109-b7a1-24c742aed225"},"vehicle_type_id":"4","last_reported":1757880586,"current_range_meters":8400,"station_id":"","pricing_plan_id":"cebpf4jnsgd1na2vs0mg"},{"bike_id":"55d59e02-f5a5-4e1a-9360-556e842fa2a4","system_id":"levelo_inurba_marseille","lat":43.33764,"lon":5.37496,"is_reserved":false,"is_disabled":false,"rental_uris":{"android":"levelo://app?vid=55d59e02-f5a5-4e1a-9360-556e842fa2a4","ios":"levelo://app?vid=55d59e02-f5a5-4e1a-9360-556e842fa2a4"},"vehicle_type_id":"4","last_reported":1757880586,"current_range_meters":8400,"station_id":"","pricing_plan_id":"cebpf4jnsgd1na2vs0mg"},{"bike_id":"b43495c4-2096-40d9-b249-5144717ad98c","system_id":"levelo_inurba_marseille","lat":43.28707,"lon":5.37393,"is_reserved":false,"is_disabled":false,"rental_uris":{"android":"levelo://app?vid=b43495c4-2096-40d9-b249-5144717ad98c","ios":"levelo://app?vid=b43495c4-2096-40d9-b249-5144717ad98c"},"vehicle_type_id":"4","last_reported":1757880586,"current_range_meters":8400,"station_id":"ce4bh3p2rcd13ifvqdq0","pricing_plan_id":"cebpf4jnsgd1na2vs0mg"},{"bike_id":"64fd3338-9664-4eab-9d69-526a809f8c3c","system_id":"levelo_inurba_marseille","lat":43.33797,"lon":5.367,"is_reserved":false,"is_disabled":false,"rental_uris":{"android":"levelo://app?vid=64fd3338-9664-4eab-9d69-526a809f8c3c","ios":"levelo://app?vid=64fd3338-9664-4eab-9d69-526a809f8c3c"},"vehicle_type_id":"4","last_reported":1757880586,"current_range_meters":8400,"station_id":"","pricing_plan_id":"cebpf4jnsgd1na2vs0mg"},{"bike_id":"a1fc60a7-4027-4201-b9b1-462aa7536f94","system_id":"levelo_inurba_marseille","lat":43.27169,"lon":5.4099,"is_reserved":false,"is_disabled":false,"rental_uris":{"android":"levelo://app?vid=a1fc60a7-4027-4201-b9b1-462aa7536f94","ios":"levelo://app?vid=a1fc60a7-4027-4201-b9b1-462aa7536f94"},"vehicle_type_id":"4","last_reported":1757880586,"current_range_meters":8000,"station_id":"ce4bhl12rcd13ifvqgf0","pricing_plan_id":"cebpf4jnsgd1na2vs0mg"},{"bike_id":"312d1202-5943-43b9-a805-a645ad324f51","system_id":"levelo_inurba_marseille","lat":43.29261,"lon":5.40114,"is_reserved":false,"is_disabled":true,"rental_uris":{"android":"levelo://app?vid=312d1202-5943-43b9-a805-a645ad324f51","ios":"levelo://app?vid=312d1202-5943-43b9-a805-a645ad324f51"},"vehicle_type_id":"4","last_reported":1757880586,"current_range_meters":8800,"station_id":"ce4bh312rcd13ifvqdk0","pricing_plan_id":"cebpf4jnsgd1na2vs0mg"},{"bike_id":"5a659908-eaf5-49bb-b178-7d39825cc5c5","system_id":"levelo_inurba_marseille","lat":43.28265,"lon":5.35072,"is_reserved":false,"is_disabled":false,"rental_uris":{"android":"levelo://app?vid=5a659908-eaf5-49bb-b178-7d39825cc5c5","ios":"levelo://app?vid=5a659908-eaf5-49bb-b178-7d39825cc5c5"},"vehicle_type_id":"4","last_reported":1757880586,"current_range_meters":8800,"station_id":"ce4bhbp2rcd13ifvqerg","pricing_plan_id":"cebpf4jnsgd1na2vs0mg"},{"bike_id":"af855c88-100f-429f-ba0c-3dad51b30928","system_id":"levelo_inurba_marseille","lat":43.21189,"lon":5.35062,"is_reserved":false,"is_disabled":true,"rental_uris":{"android":"levelo://app?vid=af855c88-100f-429f-ba0c-3dad51b30928","ios":"levelo://app?vid=af855c88-100f-429f-ba0c-3dad51b30928"},"vehicle_type_id":"4","last_reported":1757880586,"current_range_meters":8800,"station_id":"st_cvj6sg6p6f1abm77japg","pricing_plan_id":"cebpf4jnsgd1na2vs0mg"},{"bike_id":"182289c1-d8ed-492c-a287-70c8f4e5e1b2","system_id":"levelo_inurba_marseille","lat":43.32402,"lon":5.38931,"is_reserved":false,"is_disabled":false,"rental_uris":{"android":"levelo://app?vid=182289c1-d8ed-492c-a287-70c8f4e5e1b2","ios":"levelo://app?vid=182289c1-d8ed-492c-a287-70c8f4e5e1b2"},"vehicle_type_id":"4","last_reported":1757880586,"current_range_meters":8800,"station_id":"","pricing_plan_id":"cebpf4jnsgd1na2vs0mg"},{"bike_id":"d4aa44ab-29cd-4a5f-ae40-12b791637fad","system_id":"levelo_inurba_marseille","lat":43.28405,"lon":5.37522,"is_reserved":false,"is_disabled":false,"rental_uris":{"android":"levelo://app?vid=d4aa44ab-29cd-4a5f-ae40-12b791637fad","ios":"levelo://app?vid=d4aa44ab-29cd-4a5f-ae40-12b791637fad"},"vehicle_type_id":"4","last_reported":1757880586,"current_range_meters":8800,"station_id":"ce4bh412rcd13ifvqds0","pricing_plan_id":"cebpf4jnsgd1na2vs0mg"},{"bike_id":"d5fe8587-d577-4927-9f03-bf5f1fa338f3","system_id":"levelo_inurba_marseille","lat":43.32562,"lon":5.37577,"is_reserved":false,"is_disabled":false,"rental_uris":{"android":"levelo://app?vid=d5fe8587-d577-4927-9f03-bf5f1fa338f3","ios":"levelo://app?vid=d5fe8587-d577-4927-9f03-bf5f1fa338f3"},"vehicle_type_id":"4","last_reported":1757880586,"current_range_meters":8800,"station_id":"","pricing_plan_id":"cebpf4jnsgd1na2vs0mg"},{"bike_id":"406f6607-363d-4cf0-95ae-26829ed0307c","system_id":"levelo_inurba_marseille","lat":43.26213,"lon":5.40439,"is_reserved":false,"is_disabled":true,"rental_uris":{"android":"levelo://app?vid=406f6607-363d-4cf0-95ae-26829ed0307c","ios":"levelo://app?vid=406f6607-363d-4cf0-95ae-26829ed0307c"},"vehicle_type_id":"4","last_reported":1757880586,"current_range_meters":8800,"station_id":"ce4bhmh2rcd13ifvqgmg","pricing_plan_id":"cebpf4jnsgd1na2vs0mg"},{"bike_id":"974e0192-4f9e-4803-b6bc-e5f6e12940e1","system_id":"levelo_inurba_marseille","lat":43.316344,"lon":5.389434,"is_reserved":false,"is_disabled":false,"rental_uris":{"android":"levelo://app?vid=974e0192-4f9e-4803-b6bc-e5f6e12940e1","ios":"levelo://app?vid=974e0192-4f9e-4803-b6bc-e5f6e12940e1"},"vehicle_type_id":"4","last_reported":1757880586,"current_range_meters":9200,"station_id":"","pricing_plan_id":"cebpf4jnsgd1na2vs0mg"},{"bike_id":"58e4d2c3-ca5a-414f-acc3-c631f749869c","system_id":"levelo_inurba_marseille","lat":43.31367,"lon":5.38511,"is_reserved":false,"is_disabled":true,"rental_uris":{"android":"levelo://app?vid=58e4d2c3-ca5a-414f-acc3-c631f749869c","ios":"levelo://app?vid=58e4d2c3-ca5a-414f-acc3-c631f749869c"},"vehicle_type_id":"4","last_reported":1757880586,"current_range_meters":9200,"station_id":"ce4bgt92rcd13ifvqcf0","pricing_plan_id":"cebpf4jnsgd1na2vs0mg"},{"bike_id":"d9c11a94-d122-4240-b95b-24fdee8810ac","system_id":"levelo_inurba_marseille","lat":43.28268,"lon":5.39919,"is_reserved":false,"is_disabled":false,"rental_uris":{"android":"levelo://app?vid=d9c11a94-d122-4240-b95b-24fdee8810ac","ios":"levelo://app?vid=d9c11a94-d122-4240-b95b-24fdee8810ac"},"vehicle_type_id":"4","last_reported":1757880586,"current_range_meters":9200,"station_id":"","pricing_plan_id":"cebpf4jnsgd1na2vs0mg"},{"bike_id":"87bb7dd4-42db-415f-81f0-a82f80f7ce19","system_id":"levelo_inurba_marseille","lat":43.30427,"lon":5.39761,"is_reserved":false,"is_disabled":false,"rental_uris":{"android":"levelo://app?vid=87bb7dd4-42db-415f-81f0-a82f80f7ce19","ios":"levelo://app?vid=87bb7dd4-42db-415f-81f0-a82f80f7ce19"},"vehicle_type_id":"4","last_reported":1757880586,"current_range_meters":9200,"station_id":"ce4bh092rcd13ifvqd20","pricing_plan_id":"cebpf4jnsgd1na2vs0mg"},{"bike_id":"f07d1a34-6972-4c1d-8ed8-100dd0fc1e78","system_id":"levelo_inurba_marseille","lat":43.32985,"lon":5.39052,"is_reserved":false,"is_disabled":false,"rental_uris":{"android":"levelo://app?vid=f07d1a34-6972-4c1d-8ed8-100dd0fc1e78","ios":"levelo://app?vid=f07d1a34-6972-4c1d-8ed8-100dd0fc1e78"},"vehicle_type_id":"4","last_reported":1757880586,"current_range_meters":9200,"station_id":"ce4bhr92rcd13ifvqhrg","pricing_plan_id":"cebpf4jnsgd1na2vs0mg"},{"bike_id":"30e85da9-4a4e-420a-bc64-cfe1eeea89eb","system_id":"levelo_inurba_marseille","lat":43.28352,"lon":5.37641,"is_reserved":false,"is_disabled":false,"rental_uris":{"android":"levelo://app?vid=30e85da9-4a4e-420a-bc64-cfe1eeea89eb","ios":"levelo://app?vid=30e85da9-4a4e-420a-bc64-cfe1eeea89eb"},"vehicle_type_id":"4","last_reported":1757880586,"current_range_meters":9200,"station_id":"","pricing_plan_id":"cebpf4jnsgd1na2vs0mg"},{"bike_id":"31f4578e-18c6-48fb-9fec-123fce0578f9","system_id":"levelo_inurba_marseille","lat":43.33805,"lon":5.37419,"is_reserved":false,"is_disabled":false,"rental_uris":{"android":"levelo://app?vid=31f4578e-18c6-48fb-9fec-123fce0578f9","ios":"levelo://app?vid=31f4578e-18c6-48fb-9fec-123fce0578f9"},"vehicle_type_id":"4","last_reported":1757880586,"current_range_meters":9200,"station_id":"","pricing_plan_id":"cebpf4jnsgd1na2vs0mg"},{"bike_id":"54756892-40fc-40da-862a-36f475f86070","system_id":"levelo_inurba_marseille","lat":43.29707,"lon":5.37145,"is_reserved":false,"is_disabled":false,"rental_uris":{"android":"levelo://app?vid=54756892-40fc-40da-862a-36f475f86070","ios":"levelo://app?vid=54756892-40fc-40da-862a-36f475f86070"},"vehicle_type_id":"4","last_reported":1757880586,"current_range_meters":9200,"station_id":"","pricing_plan_id":"cebpf4jnsgd1na2vs0mg"},{"bike_id":"f1f385ae-d2ac-4770-bbf7-3fa54c58ae48","system_id":"levelo_inurba_marseille","lat":43.286938,"lon":5.399962,"is_reserved":false,"is_disabled":false,"rental_uris":{"android":"levelo://app?vid=f1f385ae-d2ac-4770-bbf7-3fa54c58ae48","ios":"levelo://app?vid=f1f385ae-d2ac-4770-bbf7-3fa54c58ae48"},"vehicle_type_id":"4","last_reported":1757880586,"current_range_meters":9600,"station_id":"ce4bho92rcd13ifvqh3g","pricing_plan_id":"cebpf4jnsgd1na2vs0mg"},{"bike_id":"09f0a1db-3dcf-43b8-81a5-946aa3b1d882","system_id":"levelo_inurba_marseille","lat":43.30636,"lon":5.40095,"is_reserved":false,"is_disabled":false,"rental_uris":{"android":"levelo://app?vid=09f0a1db-3dcf-43b8-81a5-946aa3b1d882","ios":"levelo://app?vid=09f0a1db-3dcf-43b8-81a5-946aa3b1d882"},"vehicle_type_id":"4","last_reported":1757880586,"current_range_meters":9600,"station_id":"ce4bh112rcd13ifvqda0","pricing_plan_id":"cebpf4jnsgd1na2vs0mg"},{"bike_id":"cd104b68-7370-4e88-ba9c-1edeee0f6c77","system_id":"levelo_inurba_marseille","lat":43.25223,"lon":5.42507,"is_reserved":false,"is_disabled":true,"rental_uris":{"android":"levelo://app?vid=cd104b68-7370-4e88-ba9c-1edeee0f6c77","ios":"levelo://app?vid=cd104b68-7370-4e88-ba9c-1edeee0f6c77"},"vehicle_type_id":"4","last_reported":1757880586,"current_range_meters":9600,"station_id":"","pricing_plan_id":"cebpf4jnsgd1na2vs0mg"},{"bike_id":"8246abdf-3458-433a-851f-de71a65da7bb","system_id":"levelo_inurba_marseille","lat":43.31999,"lon":5.38148,"is_reserved":false,"is_disabled":false,"rental_uris":{"android":"levelo://app?vid=8246abdf-3458-433a-851f-de71a65da7bb","ios":"levelo://app?vid=8246abdf-3458-433a-851f-de71a65da7bb"},"vehicle_type_id":"4","last_reported":1757880586,"current_range_meters":9600,"station_id":"ce4bhr12rcd13ifvqhpg","pricing_plan_id":"cebpf4jnsgd1na2vs0mg"},{"bike_id":"ee42c31a-b74b-4b2d-917a-cd50dc10c6ce","system_id":"levelo_inurba_marseille","lat":43.32955,"lon":5.39297,"is_reserved":false,"is_disabled":false,"rental_uris":{"android":"levelo://app?vid=ee42c31a-b74b-4b2d-917a-cd50dc10c6ce","ios":"levelo://app?vid=ee42c31a-b74b-4b2d-917a-cd50dc10c6ce"},"vehicle_type_id":"4","last_reported":1757880586,"current_range_meters":9600,"station_id":"","pricing_plan_id":"cebpf4jnsgd1na2vs0mg"},{"bike_id":"c059e0b6-d93b-4f95-b7ef-3ad516be3d14","system_id":"levelo_inurba_marseille","lat":43.30772,"lon":5.37655,"is_reserved":false,"is_disabled":false,"rental_uris":{"android":"levelo://app?vid=c059e0b6-d93b-4f95-b7ef-3ad516be3d14","ios":"levelo://app?vid=c059e0b6-d93b-4f95-b7ef-3ad516be3d14"},"vehicle_type_id":"4","last_reported":1757880586,"current_range_meters":9600,"station_id":"ce4bgv92rcd13ifvqcq0","pricing_plan_id":"cebpf4jnsgd1na2vs0mg"},{"bike_id":"267ebac7-2dad-43eb-83a4-ff1f4de88f77","system_id":"levelo_inurba_marseille","lat":43.29946,"lon":5.41324,"is_reserved":false,"is_disabled":false,"rental_uris":{"android":"levelo://app?vid=267ebac7-2dad-43eb-83a4-ff1f4de88f77","ios":"levelo://app?vid=267ebac7-2dad-43eb-83a4-ff1f4de88f77"},"vehicle_type_id":"4","last_reported":1757880586,"current_range_meters":9600,"station_id":"ce4bhp12rcd13ifvqh9g","pricing_plan_id":"cebpf4jnsgd1na2vs0mg"},{"bike_id":"6dc9bd4c-0a31-4df5-bdb2-b10071d86820","system_id":"levelo_inurba_marseille","lat":43.292701,"lon":5.392842,"is_reserved":false,"is_disabled":false,"rental_uris":{"android":"levelo://app?vid=6dc9bd4c-0a31-4df5-bdb2-b10071d86820","ios":"levelo://app?vid=6dc9bd4c-0a31-4df5-bdb2-b10071d86820"},"vehicle_type_id":"4","last_reported":1757880586,"current_range_meters":9600,"station_id":"ce4bh192rcd13ifvqdd0","pricing_plan_id":"cebpf4jnsgd1na2vs0mg"},{"bike_id":"c5cba6d7-e282-4417-a818-5fc0802dcb08","system_id":"levelo_inurba_marseille","lat":43.33761,"lon":5.3745,"is_reserved":false,"is_disabled":false,"rental_uris":{"android":"levelo://app?vid=c5cba6d7-e282-4417-a818-5fc0802dcb08","ios":"levelo://app?vid=c5cba6d7-e282-4417-a818-5fc0802dcb08"},"vehicle_type_id":"4","last_reported":1757880586,"current_range_meters":9600,"station_id":"","pricing_plan_id":"cebpf4jnsgd1na2vs0mg"},{"bike_id":"6f964061-c184-4258-a3bc-6f2485e83f0f","system_id":"levelo_inurba_marseille","lat":43.30803,"lon":5.43528,"is_reserved":false,"is_disabled":false,"rental_uris":{"android":"levelo://app?vid=6f964061-c184-4258-a3bc-6f2485e83f0f","ios":"levelo://app?vid=6f964061-c184-4258-a3bc-6f2485e83f0f"},"vehicle_type_id":"4","last_reported":1757880586,"current_range_meters":9200,"station_id":"ce4bhph2rcd13ifvqheg","pricing_plan_id":"cebpf4jnsgd1na2vs0mg"},{"bike_id":"6003f28f-490c-4a21-92bd-077224fb6eba","system_id":"levelo_inurba_marseille","lat":43.31753,"lon":5.39012,"is_reserved":false,"is_disabled":false,"rental_uris":{"android":"levelo://app?vid=6003f28f-490c-4a21-92bd-077224fb6eba","ios":"levelo://app?vid=6003f28f-490c-4a21-92bd-077224fb6eba"},"vehicle_type_id":"4","last_reported":1757880586,"current_range_meters":9600,"station_id":"ce4bhqp2rcd13ifvqhng","pricing_plan_id":"cebpf4jnsgd1na2vs0mg"},{"bike_id":"5c1e55d9-decd-426f-89d8-b98a558f3809","system_id":"levelo_inurba_marseille","lat":43.316978,"lon":5.404728,"is_reserved":false,"is_disabled":true,"rental_uris":{"android":"levelo://app?vid=5c1e55d9-decd-426f-89d8-b98a558f3809","ios":"levelo://app?vid=5c1e55d9-decd-426f-89d8-b98a558f3809"},"vehicle_type_id":"4","last_reported":1757880586,"current_range_meters":10000,"station_id":"ce4bh012rcd13ifvqd00","pricing_plan_id":"cebpf4jnsgd1na2vs0mg"},{"bike_id":"b5e3cd4d-2dd7-4015-ae05-e5fd4b1c81e8","system_id":"levelo_inurba_marseille","lat":43.28722,"lon":5.37393,"is_reserved":false,"is_disabled":false,"rental_uris":{"android":"levelo://app?vid=b5e3cd4d-2dd7-4015-ae05-e5fd4b1c81e8","ios":"levelo://app?vid=b5e3cd4d-2dd7-4015-ae05-e5fd4b1c81e8"},"vehicle_type_id":"4","last_reported":1757880586,"current_range_meters":10000,"station_id":"ce4bh3p2rcd13ifvqdq0","pricing_plan_id":"cebpf4jnsgd1na2vs0mg"},{"bike_id":"92328f20-9c61-4621-aefd-c280af7d31a0","system_id":"levelo_inurba_marseille","lat":43.28848,"lon":5.42536,"is_reserved":false,"is_disabled":false,"rental_uris":{"android":"levelo://app?vid=92328f20-9c61-4621-aefd-c280af7d31a0","ios":"levelo://app?vid=92328f20-9c61-4621-aefd-c280af7d31a0"},"vehicle_type_id":"4","last_reported":1757880586,"current_range_meters":10000,"station_id":"","pricing_plan_id":"cebpf4jnsgd1na2vs0mg"},{"bike_id":"f89d71e3-2fdb-4e87-85ff-28900a3c5b04","system_id":"levelo_inurba_marseille","lat":43.28681,"lon":5.39971,"is_reserved":false,"is_disabled":false,"rental_uris":{"android":"levelo://app?vid=f89d71e3-2fdb-4e87-85ff-28900a3c5b04","ios":"levelo://app?vid=f89d71e3-2fdb-4e87-85ff-28900a3c5b04"},"vehicle_type_id":"4","last_reported":1757880586,"current_range_meters":10800,"station_id":"ce4bho92rcd13ifvqh3g","pricing_plan_id":"cebpf4jnsgd1na2vs0mg"},{"bike_id":"d0a1739a-c22f-4203-9f71-a089f4b367e4","system_id":"levelo_inurba_marseille","lat":43.31994,"lon":5.38141,"is_reserved":false,"is_disabled":true,"rental_uris":{"android":"levelo://app?vid=d0a1739a-c22f-4203-9f71-a089f4b367e4","ios":"levelo://app?vid=d0a1739a-c22f-4203-9f71-a089f4b367e4"},"vehicle_type_id":"4","last_reported":1757880586,"current_range_meters":10800,"station_id":"ce4bhr12rcd13ifvqhpg","pricing_plan_id":"cebpf4jnsgd1na2vs0mg"},{"bike_id":"d3fd236f-5afc-4e1c-af55-a14801a59766","system_id":"levelo_inurba_marseille","lat":43.26232,"lon":5.40474,"is_reserved":false,"is_disabled":false,"rental_uris":{"android":"levelo://app?vid=d3fd236f-5afc-4e1c-af55-a14801a59766","ios":"levelo://app?vid=d3fd236f-5afc-4e1c-af55-a14801a59766"},"vehicle_type_id":"4","last_reported":1757880586,"current_range_meters":10800,"station_id":"ce4bhmh2rcd13ifvqgmg","pricing_plan_id":"cebpf4jnsgd1na2vs0mg"},{"bike_id":"5dd39672-388b-4c5e-8326-3403b96a4944","system_id":"levelo_inurba_marseille","lat":43.28464,"lon":5.358903,"is_reserved":false,"is_disabled":false,"rental_uris":{"android":"levelo://app?vid=5dd39672-388b-4c5e-8326-3403b96a4944","ios":"levelo://app?vid=5dd39672-388b-4c5e-8326-3403b96a4944"},"vehicle_type_id":"4","last_reported":1757880586,"current_range_meters":10800,"station_id":"ce4bhah2rcd13ifvqei0","pricing_plan_id":"cebpf4jnsgd1na2vs0mg"},{"bike_id":"de24ce5e-c9de-4cfc-a66a-83ecb9cfee6c","system_id":"levelo_inurba_marseille","lat":43.25908,"lon":5.40891,"is_reserved":false,"is_disabled":false,"rental_uris":{"android":"levelo://app?vid=de24ce5e-c9de-4cfc-a66a-83ecb9cfee6c","ios":"levelo://app?vid=de24ce5e-c9de-4cfc-a66a-83ecb9cfee6c"},"vehicle_type_id":"4","last_reported":1757880586,"current_range_meters":10800,"station_id":"ce4bhm92rcd13ifvqglg","pricing_plan_id":"cebpf4jnsgd1na2vs0mg"},{"bike_id":"3bc338fd-b3c5-4caa-b6e6-3c70a52689ba","system_id":"levelo_inurba_marseille","lat":43.31625,"lon":5.38949,"is_reserved":false,"is_disabled":false,"rental_uris":{"android":"levelo://app?vid=3bc338fd-b3c5-4caa-b6e6-3c70a52689ba","ios":"levelo://app?vid=3bc338fd-b3c5-4caa-b6e6-3c70a52689ba"},"vehicle_type_id":"4","last_reported":1757880586,"current_range_meters":10800,"station_id":"","pricing_plan_id":"cebpf4jnsgd1na2vs0mg"},{"bike_id":"d0c41d76-b33d-4925-9f87-e154772ac90c","system_id":"levelo_inurba_marseille","lat":43.30588,"lon":5.39358,"is_reserved":false,"is_disabled":false,"rental_uris":{"android":"levelo://app?vid=d0c41d76-b33d-4925-9f87-e154772ac90c","ios":"levelo://app?vid=d0c41d76-b33d-4925-9f87-e154772ac90c"},"vehicle_type_id":"4","last_reported":1757880586,"current_range_meters":11200,"station_id":"ce4bh0p2rcd13ifvqd80","pricing_plan_id":"cebpf4jnsgd1na2vs0mg"},{"bike_id":"e69b3cd9-6905-406b-ba3d-3eae9bb1d12b","system_id":"levelo_inurba_marseille","lat":43.2868,"lon":5.38672,"is_reserved":false,"is_disabled":false,"rental_uris":{"android":"levelo://app?vid=e69b3cd9-6905-406b-ba3d-3eae9bb1d12b","ios":"levelo://app?vid=e69b3cd9-6905-406b-ba3d-3eae9bb1d12b"},"vehicle_type_id":"4","last_reported":1757880586,"current_range_meters":10800,"station_id":"ce4bh492rcd13ifvqdug","pricing_plan_id":"cebpf4jnsgd1na2vs0mg"},{"bike_id":"00116d8e-b6b8-4878-a446-acc27e6cecc1","system_id":"levelo_inurba_marseille","lat":43.317228,"lon":5.423965,"is_reserved":false,"is_disabled":false,"rental_uris":{"android":"levelo://app?vid=00116d8e-b6b8-4878-a446-acc27e6cecc1","ios":"levelo://app?vid=00116d8e-b6b8-4878-a446-acc27e6cecc1"},"vehicle_type_id":"4","last_reported":1757880586,"current_range_meters":11200,"station_id":"ce4bhp92rcd13ifvqhbg","pricing_plan_id":"cebpf4jnsgd1na2vs0mg"},{"bike_id":"085d05ba-62e9-4d6a-ba17-ba01269eb378","system_id":"levelo_inurba_marseille","lat":43.29445,"lon":5.39744,"is_reserved":false,"is_disabled":false,"rental_uris":{"android":"levelo://app?vid=085d05ba-62e9-4d6a-ba17-ba01269eb378","ios":"levelo://app?vid=085d05ba-62e9-4d6a-ba17-ba01269eb378"},"vehicle_type_id":"4","last_reported":1757880586,"current_range_meters":11200,"station_id":"ce4bh3h2rcd13ifvqdo0","pricing_plan_id":"cebpf4jnsgd1na2vs0mg"},{"bike_id":"90b99ccf-2b3c-4d75-9e45-7dd3a550aac1","system_id":"levelo_inurba_marseille","lat":43.23569,"lon":5.39891,"is_reserved":false,"is_disabled":false,"rental_uris":{"android":"levelo://app?vid=90b99ccf-2b3c-4d75-9e45-7dd3a550aac1","ios":"levelo://app?vid=90b99ccf-2b3c-4d75-9e45-7dd3a550aac1"},"vehicle_type_id":"4","last_reported":1757880586,"current_range_meters":11200,"station_id":"","pricing_plan_id":"cebpf4jnsgd1na2vs0mg"},{"bike_id":"ba5ec91e-17a3-49a5-b2ec-7f19e0ddb3fd","system_id":"levelo_inurba_marseille","lat":43.31513,"lon":5.37299,"is_reserved":false,"is_disabled":true,"rental_uris":{"android":"levelo://app?vid=ba5ec91e-17a3-49a5-b2ec-7f19e0ddb3fd","ios":"levelo://app?vid=ba5ec91e-17a3-49a5-b2ec-7f19e0ddb3fd"},"vehicle_type_id":"4","last_reported":1757880586,"current_range_meters":11200,"station_id":"ce4bgt12rcd13ifvqcd0","pricing_plan_id":"cebpf4jnsgd1na2vs0mg"},{"bike_id":"deba709c-fd12-4231-a979-71a054c8494d","system_id":"levelo_inurba_marseille","lat":43.28413,"lon":5.37518,"is_reserved":false,"is_disabled":false,"rental_uris":{"android":"levelo://app?vid=deba709c-fd12-4231-a979-71a054c8494d","ios":"levelo://app?vid=deba709c-fd12-4231-a979-71a054c8494d"},"vehicle_type_id":"4","last_reported":1757880586,"current_range_meters":11200,"station_id":"ce4bh412rcd13ifvqds0","pricing_plan_id":"cebpf4jnsgd1na2vs0mg"},{"bike_id":"3ea095f9-3ba8-46ae-881a-be8043cb9d15","system_id":"levelo_inurba_marseille","lat":43.31077,"lon":5.42448,"is_reserved":false,"is_disabled":false,"rental_uris":{"android":"levelo://app?vid=3ea095f9-3ba8-46ae-881a-be8043cb9d15","ios":"levelo://app?vid=3ea095f9-3ba8-46ae-881a-be8043cb9d15"},"vehicle_type_id":"4","last_reported":1757880586,"current_range_meters":11200,"station_id":"ce4bhp92rcd13ifvqhag","pricing_plan_id":"cebpf4jnsgd1na2vs0mg"},{"bike_id":"f0f91981-97a4-4847-ba72-080bc75ab7b1","system_id":"levelo_inurba_marseille","lat":43.253301,"lon":5.421695,"is_reserved":false,"is_disabled":true,"rental_uris":{"android":"levelo://app?vid=f0f91981-97a4-4847-ba72-080bc75ab7b1","ios":"levelo://app?vid=f0f91981-97a4-4847-ba72-080bc75ab7b1"},"vehicle_type_id":"4","last_reported":1757880586,"current_range_meters":11200,"station_id":"st_d2m65c5bi1j21697t3ng","pricing_plan_id":"cebpf4jnsgd1na2vs0mg"},{"bike_id":"2fd12127-fd9d-47b7-864e-4956bcd024bb","system_id":"levelo_inurba_marseille","lat":43.27619,"lon":5.36111,"is_reserved":false,"is_disabled":false,"rental_uris":{"android":"levelo://app?vid=2fd12127-fd9d-47b7-864e-4956bcd024bb","ios":"levelo://app?vid=2fd12127-fd9d-47b7-864e-4956bcd024bb"},"vehicle_type_id":"4","last_reported":1757880586,"current_range_meters":11200,"station_id":"ce4bgj92rcd13ifvqbe0","pricing_plan_id":"cebpf4jnsgd1na2vs0mg"},{"bike_id":"8b50b6ca-96e7-4008-8623-e9806c787b50","system_id":"levelo_inurba_marseille","lat":43.24951,"lon":5.40484,"is_reserved":false,"is_disabled":false,"rental_uris":{"android":"levelo://app?vid=8b50b6ca-96e7-4008-8623-e9806c787b50","ios":"levelo://app?vid=8b50b6ca-96e7-4008-8623-e9806c787b50"},"vehicle_type_id":"4","last_reported":1757880586,"current_range_meters":11600,"station_id":"st_d2ngiaodas8pm72gd1h0","pricing_plan_id":"cebpf4jnsgd1na2vs0mg"},{"bike_id":"67d6447e-2627-4eeb-8c49-278e1adbc740","system_id":"levelo_inurba_marseille","lat":43.29273,"lon":5.40112,"is_reserved":false,"is_disabled":false,"rental_uris":{"android":"levelo://app?vid=67d6447e-2627-4eeb-8c49-278e1adbc740","ios":"levelo://app?vid=67d6447e-2627-4eeb-8c49-278e1adbc740"},"vehicle_type_id":"4","last_reported":1757880586,"current_range_meters":11600,"station_id":"ce4bh312rcd13ifvqdk0","pricing_plan_id":"cebpf4jnsgd1na2vs0mg"},{"bike_id":"bcbd8e73-099e-4fe9-936f-1722757fe752","system_id":"levelo_inurba_marseille","lat":43.31854,"lon":5.37463,"is_reserved":false,"is_disabled":false,"rental_uris":{"android":"levelo://app?vid=bcbd8e73-099e-4fe9-936f-1722757fe752","ios":"levelo://app?vid=bcbd8e73-099e-4fe9-936f-1722757fe752"},"vehicle_type_id":"4","last_reported":1757880586,"current_range_meters":11600,"station_id":"","pricing_plan_id":"cebpf4jnsgd1na2vs0mg"},{"bike_id":"a8a09358-2290-4c7f-93c8-1eb2c329bf6a","system_id":"levelo_inurba_marseille","lat":43.28694,"lon":5.39986,"is_reserved":false,"is_disabled":false,"rental_uris":{"android":"levelo://app?vid=a8a09358-2290-4c7f-93c8-1eb2c329bf6a","ios":"levelo://app?vid=a8a09358-2290-4c7f-93c8-1eb2c329bf6a"},"vehicle_type_id":"4","last_reported":1757880586,"current_range_meters":11600,"station_id":"ce4bho92rcd13ifvqh3g","pricing_plan_id":"cebpf4jnsgd1na2vs0mg"},{"bike_id":"ca369377-5757-4bd8-81d1-f2b5d121fc14","system_id":"levelo_inurba_marseille","lat":43.27175,"lon":5.40986,"is_reserved":false,"is_disabled":false,"rental_uris":{"android":"levelo://app?vid=ca369377-5757-4bd8-81d1-f2b5d121fc14","ios":"levelo://app?vid=ca369377-5757-4bd8-81d1-f2b5d121fc14"},"vehicle_type_id":"4","last_reported":1757880586,"current_range_meters":12400,"station_id":"ce4bhl12rcd13ifvqgf0","pricing_plan_id":"cebpf4jnsgd1na2vs0mg"},{"bike_id":"b27aec61-2b96-4707-bde6-1d443762f6ae","system_id":"levelo_inurba_marseille","lat":43.28693,"lon":5.37388,"is_reserved":false,"is_disabled":false,"rental_uris":{"android":"levelo://app?vid=b27aec61-2b96-4707-bde6-1d443762f6ae","ios":"levelo://app?vid=b27aec61-2b96-4707-bde6-1d443762f6ae"},"vehicle_type_id":"4","last_reported":1757880586,"current_range_meters":12000,"station_id":"ce4bh3p2rcd13ifvqdq0","pricing_plan_id":"cebpf4jnsgd1na2vs0mg"},{"bike_id":"cc716ff6-5349-4ce0-92d0-293b720b8106","system_id":"levelo_inurba_marseille","lat":43.2744,"lon":5.39395,"is_reserved":false,"is_disabled":false,"rental_uris":{"android":"levelo://app?vid=cc716ff6-5349-4ce0-92d0-293b720b8106","ios":"levelo://app?vid=cc716ff6-5349-4ce0-92d0-293b720b8106"},"vehicle_type_id":"4","last_reported":1757880586,"current_range_meters":12000,"station_id":"ce4bhdp2rcd13ifvqf20","pricing_plan_id":"cebpf4jnsgd1na2vs0mg"},{"bike_id":"8ab60a89-bd14-40d7-b359-020ea126cfef","system_id":"levelo_inurba_marseille","lat":43.32347,"lon":5.36746,"is_reserved":false,"is_disabled":false,"rental_uris":{"android":"levelo://app?vid=8ab60a89-bd14-40d7-b359-020ea126cfef","ios":"levelo://app?vid=8ab60a89-bd14-40d7-b359-020ea126cfef"},"vehicle_type_id":"4","last_reported":1757880586,"current_range_meters":12000,"station_id":"ce4bhsh2rcd13ifvqi2g","pricing_plan_id":"cebpf4jnsgd1na2vs0mg"},{"bike_id":"fbd0328c-4ce4-4080-b126-d2d47d815fa6","system_id":"levelo_inurba_marseille","lat":43.21733,"lon":5.34637,"is_reserved":false,"is_disabled":true,"rental_uris":{"android":"levelo://app?vid=fbd0328c-4ce4-4080-b126-d2d47d815fa6","ios":"levelo://app?vid=fbd0328c-4ce4-4080-b126-d2d47d815fa6"},"vehicle_type_id":"4","last_reported":1757880586,"current_range_meters":12000,"station_id":"st_cvj6r9ubvosntc0bgbag","pricing_plan_id":"cebpf4jnsgd1na2vs0mg"},{"bike_id":"91f1b25b-3efb-4af3-97a3-697b4f31631e","system_id":"levelo_inurba_marseille","lat":43.29377,"lon":5.37854,"is_reserved":false,"is_disabled":false,"rental_uris":{"android":"levelo://app?vid=91f1b25b-3efb-4af3-97a3-697b4f31631e","ios":"levelo://app?vid=91f1b25b-3efb-4af3-97a3-697b4f31631e"},"vehicle_type_id":"4","last_reported":1757880586,"current_range_meters":12000,"station_id":"ce4bgjh2rcd13ifvqbf0","pricing_plan_id":"cebpf4jnsgd1na2vs0mg"},{"bike_id":"7c48decd-622e-426a-96e8-3c58227e80b8","system_id":"levelo_inurba_marseille","lat":43.29254,"lon":5.38444,"is_reserved":false,"is_disabled":false,"rental_uris":{"android":"levelo://app?vid=7c48decd-622e-426a-96e8-3c58227e80b8","ios":"levelo://app?vid=7c48decd-622e-426a-96e8-3c58227e80b8"},"vehicle_type_id":"4","last_reported":1757880586,"current_range_meters":12400,"station_id":"ce4bh692rcd13ifvqea0","pricing_plan_id":"cebpf4jnsgd1na2vs0mg"},{"bike_id":"85db8ab9-6b24-4c23-8762-109e948df9cd","system_id":"levelo_inurba_marseille","lat":43.30621,"lon":5.40457,"is_reserved":false,"is_disabled":false,"rental_uris":{"android":"levelo://app?vid=85db8ab9-6b24-4c23-8762-109e948df9cd","ios":"levelo://app?vid=85db8ab9-6b24-4c23-8762-109e948df9cd"},"vehicle_type_id":"4","last_reported":1757880586,"current_range_meters":12400,"station_id":"","pricing_plan_id":"cebpf4jnsgd1na2vs0mg"},{"bike_id":"53e261c9-8d2a-4316-ba8f-ee6d9e6b7616","system_id":"levelo_inurba_marseille","lat":43.28608,"lon":5.35086,"is_reserved":false,"is_disabled":true,"rental_uris":{"android":"levelo://app?vid=53e261c9-8d2a-4316-ba8f-ee6d9e6b7616","ios":"levelo://app?vid=53e261c9-8d2a-4316-ba8f-ee6d9e6b7616"},"vehicle_type_id":"4","last_reported":1757880586,"current_range_meters":12400,"station_id":"ce4bhch2rcd13ifvqeug","pricing_plan_id":"cebpf4jnsgd1na2vs0mg"},{"bike_id":"17594996-e307-4ceb-a307-c89bb2e113e9","system_id":"levelo_inurba_marseille","lat":43.29571,"lon":5.39979,"is_reserved":false,"is_disabled":false,"rental_uris":{"android":"levelo://app?vid=17594996-e307-4ceb-a307-c89bb2e113e9","ios":"levelo://app?vid=17594996-e307-4ceb-a307-c89bb2e113e9"},"vehicle_type_id":"4","last_reported":1757880586,"current_range_meters":12000,"station_id":"ce4bh312rcd13ifvqdj0","pricing_plan_id":"cebpf4jnsgd1na2vs0mg"},{"bike_id":"05e3320f-36a7-4f88-8346-2754b84ec6da","system_id":"levelo_inurba_marseille","lat":43.24077,"lon":5.37759,"is_reserved":false,"is_disabled":false,"rental_uris":{"android":"levelo://app?vid=05e3320f-36a7-4f88-8346-2754b84ec6da","ios":"levelo://app?vid=05e3320f-36a7-4f88-8346-2754b84ec6da"},"vehicle_type_id":"4","last_reported":1757880586,"current_range_meters":12400,"station_id":"ce4bhnp2rcd13ifvqgvg","pricing_plan_id":"cebpf4jnsgd1na2vs0mg"},{"bike_id":"a094e012-db53-4441-bc6e-21fdf6020528","system_id":"levelo_inurba_marseille","lat":43.2996,"lon":5.38501,"is_reserved":false,"is_disabled":false,"rental_uris":{"android":"levelo://app?vid=a094e012-db53-4441-bc6e-21fdf6020528","ios":"levelo://app?vid=a094e012-db53-4441-bc6e-21fdf6020528"},"vehicle_type_id":"4","last_reported":1757880586,"current_range_meters":12400,"station_id":"ce4bgj92rcd13ifvqbd0","pricing_plan_id":"cebpf4jnsgd1na2vs0mg"},{"bike_id":"f335deec-0683-4247-91e5-52e52ac1b126","system_id":"levelo_inurba_marseille","lat":43.2918,"lon":5.39321,"is_reserved":false,"is_disabled":false,"rental_uris":{"android":"levelo://app?vid=f335deec-0683-4247-91e5-52e52ac1b126","ios":"levelo://app?vid=f335deec-0683-4247-91e5-52e52ac1b126"},"vehicle_type_id":"4","last_reported":1757880586,"current_range_meters":12400,"station_id":"ce4bh192rcd13ifvqdd0","pricing_plan_id":"cebpf4jnsgd1na2vs0mg"},{"bike_id":"867a06c4-c507-468c-a42b-66dfa736196d","system_id":"levelo_inurba_marseille","lat":43.28419,"lon":5.34993,"is_reserved":false,"is_disabled":true,"rental_uris":{"android":"levelo://app?vid=867a06c4-c507-468c-a42b-66dfa736196d","ios":"levelo://app?vid=867a06c4-c507-468c-a42b-66dfa736196d"},"vehicle_type_id":"4","last_reported":1757880586,"current_range_meters":12800,"station_id":"ce4bhbh2rcd13ifvqepg","pricing_plan_id":"cebpf4jnsgd1na2vs0mg"},{"bike_id":"d9c4202c-de13-4428-8c40-40d90faf1618","system_id":"levelo_inurba_marseille","lat":43.31356,"lon":5.3707,"is_reserved":false,"is_disabled":false,"rental_uris":{"android":"levelo://app?vid=d9c4202c-de13-4428-8c40-40d90faf1618","ios":"levelo://app?vid=d9c4202c-de13-4428-8c40-40d90faf1618"},"vehicle_type_id":"4","last_reported":1757880586,"current_range_meters":12800,"station_id":"","pricing_plan_id":"cebpf4jnsgd1na2vs0mg"},{"bike_id":"e8930cfa-2c36-4dbf-ab3e-6afdedf38824","system_id":"levelo_inurba_marseille","lat":43.22565,"lon":5.41624,"is_reserved":false,"is_disabled":false,"rental_uris":{"android":"levelo://app?vid=e8930cfa-2c36-4dbf-ab3e-6afdedf38824","ios":"levelo://app?vid=e8930cfa-2c36-4dbf-ab3e-6afdedf38824"},"vehicle_type_id":"4","last_reported":1757880586,"current_range_meters":12800,"station_id":"st_d2o4gvlbi1j2169b742g","pricing_plan_id":"cebpf4jnsgd1na2vs0mg"},{"bike_id":"01fd85c2-5e53-4a4d-9c3b-416c59308b0a","system_id":"levelo_inurba_marseille","lat":43.31522,"lon":5.37294,"is_reserved":false,"is_disabled":false,"rental_uris":{"android":"levelo://app?vid=01fd85c2-5e53-4a4d-9c3b-416c59308b0a","ios":"levelo://app?vid=01fd85c2-5e53-4a4d-9c3b-416c59308b0a"},"vehicle_type_id":"4","last_reported":1757880586,"current_range_meters":12800,"station_id":"ce4bgt12rcd13ifvqcd0","pricing_plan_id":"cebpf4jnsgd1na2vs0mg"},{"bike_id":"8e3a9e83-812e-4b5d-8c7b-5119699e81be","system_id":"levelo_inurba_marseille","lat":43.31564,"lon":5.40588,"is_reserved":false,"is_disabled":false,"rental_uris":{"android":"levelo://app?vid=8e3a9e83-812e-4b5d-8c7b-5119699e81be","ios":"levelo://app?vid=8e3a9e83-812e-4b5d-8c7b-5119699e81be"},"vehicle_type_id":"4","last_reported":1757880586,"current_range_meters":12800,"station_id":"","pricing_plan_id":"cebpf4jnsgd1na2vs0mg"},{"bike_id":"e06d2e94-3ae2-4b4b-9d7e-05d3f806365a","system_id":"levelo_inurba_marseille","lat":43.25839,"lon":5.39429,"is_reserved":false,"is_disabled":false,"rental_uris":{"android":"levelo://app?vid=e06d2e94-3ae2-4b4b-9d7e-05d3f806365a","ios":"levelo://app?vid=e06d2e94-3ae2-4b4b-9d7e-05d3f806365a"},"vehicle_type_id":"4","last_reported":1757880586,"current_range_meters":12800,"station_id":"ce4bhip2rcd13ifvqft0","pricing_plan_id":"cebpf4jnsgd1na2vs0mg"},{"bike_id":"7d7b03c9-f46f-4377-b089-b2019aae399f","system_id":"levelo_inurba_marseille","lat":43.23186,"lon":5.39993,"is_reserved":false,"is_disabled":true,"rental_uris":{"android":"levelo://app?vid=7d7b03c9-f46f-4377-b089-b2019aae399f","ios":"levelo://app?vid=7d7b03c9-f46f-4377-b089-b2019aae399f"},"vehicle_type_id":"4","last_reported":1757880586,"current_range_meters":12800,"station_id":"ce4bhn12rcd13ifvqgqg","pricing_plan_id":"cebpf4jnsgd1na2vs0mg"},{"bike_id":"977a54bb-5aae-4c4e-8490-df2cbb1d1c81","system_id":"levelo_inurba_marseille","lat":43.2558,"lon":5.38231,"is_reserved":false,"is_disabled":false,"rental_uris":{"android":"levelo://app?vid=977a54bb-5aae-4c4e-8490-df2cbb1d1c81","ios":"levelo://app?vid=977a54bb-5aae-4c4e-8490-df2cbb1d1c81"},"vehicle_type_id":"4","last_reported":1757880586,"current_range_meters":12400,"station_id":"ce4bhih2rcd13ifvqfs0","pricing_plan_id":"cebpf4jnsgd1na2vs0mg"},{"bike_id":"77b7289b-dd73-44ea-a10f-65a8b03de89f","system_id":"levelo_inurba_marseille","lat":43.28693,"lon":5.37396,"is_reserved":false,"is_disabled":false,"rental_uris":{"android":"levelo://app?vid=77b7289b-dd73-44ea-a10f-65a8b03de89f","ios":"levelo://app?vid=77b7289b-dd73-44ea-a10f-65a8b03de89f"},"vehicle_type_id":"4","last_reported":1757880586,"current_range_meters":12800,"station_id":"ce4bh3p2rcd13ifvqdq0","pricing_plan_id":"cebpf4jnsgd1na2vs0mg"},{"bike_id":"f8841c9f-52a8-4c0c-a99d-134d1130e1ad","system_id":"levelo_inurba_marseille","lat":43.29971,"lon":5.38493,"is_reserved":false,"is_disabled":false,"rental_uris":{"android":"levelo://app?vid=f8841c9f-52a8-4c0c-a99d-134d1130e1ad","ios":"levelo://app?vid=f8841c9f-52a8-4c0c-a99d-134d1130e1ad"},"vehicle_type_id":"4","last_reported":1757880586,"current_range_meters":13600,"station_id":"ce4bgj92rcd13ifvqbd0","pricing_plan_id":"cebpf4jnsgd1na2vs0mg"},{"bike_id":"0989768c-308a-4245-b72a-35ef13b3ea25","system_id":"levelo_inurba_marseille","lat":43.27048,"lon":5.42264,"is_reserved":false,"is_disabled":false,"rental_uris":{"android":"levelo://app?vid=0989768c-308a-4245-b72a-35ef13b3ea25","ios":"levelo://app?vid=0989768c-308a-4245-b72a-35ef13b3ea25"},"vehicle_type_id":"4","last_reported":1757880586,"current_range_meters":13600,"station_id":"ce4bhk92rcd13ifvqgb0","pricing_plan_id":"cebpf4jnsgd1na2vs0mg"},{"bike_id":"d79c11d9-ba24-4f1a-b5ad-f5d96b23f9dc","system_id":"levelo_inurba_marseille","lat":43.30256,"lon":5.40057,"is_reserved":false,"is_disabled":false,"rental_uris":{"android":"levelo://app?vid=d79c11d9-ba24-4f1a-b5ad-f5d96b23f9dc","ios":"levelo://app?vid=d79c11d9-ba24-4f1a-b5ad-f5d96b23f9dc"},"vehicle_type_id":"4","last_reported":1757880586,"current_range_meters":13600,"station_id":"ce4bgvh2rcd13ifvqcs0","pricing_plan_id":"cebpf4jnsgd1na2vs0mg"},{"bike_id":"4d6e6605-7f16-44fa-a19a-c138ee7cb360","system_id":"levelo_inurba_marseille","lat":43.33799,"lon":5.37446,"is_reserved":false,"is_disabled":false,"rental_uris":{"android":"levelo://app?vid=4d6e6605-7f16-44fa-a19a-c138ee7cb360","ios":"levelo://app?vid=4d6e6605-7f16-44fa-a19a-c138ee7cb360"},"vehicle_type_id":"4","last_reported":1757880586,"current_range_meters":13600,"station_id":"","pricing_plan_id":"cebpf4jnsgd1na2vs0mg"},{"bike_id":"486575e4-561c-44c2-aee6-ae1577d678e7","system_id":"levelo_inurba_marseille","lat":43.25869,"lon":5.39911,"is_reserved":false,"is_disabled":false,"rental_uris":{"android":"levelo://app?vid=486575e4-561c-44c2-aee6-ae1577d678e7","ios":"levelo://app?vid=486575e4-561c-44c2-aee6-ae1577d678e7"},"vehicle_type_id":"4","last_reported":1757880586,"current_range_meters":14000,"station_id":"ce4bhl92rcd13ifvqghg","pricing_plan_id":"cebpf4jnsgd1na2vs0mg"},{"bike_id":"1b52574b-d721-4027-8150-740e079862d9","system_id":"levelo_inurba_marseille","lat":43.2944,"lon":5.39745,"is_reserved":false,"is_disabled":false,"rental_uris":{"android":"levelo://app?vid=1b52574b-d721-4027-8150-740e079862d9","ios":"levelo://app?vid=1b52574b-d721-4027-8150-740e079862d9"},"vehicle_type_id":"4","last_reported":1757880586,"current_range_meters":14000,"station_id":"ce4bh3h2rcd13ifvqdo0","pricing_plan_id":"cebpf4jnsgd1na2vs0mg"},{"bike_id":"58d8cd95-917c-438e-864b-c167ff63eb01","system_id":"levelo_inurba_marseille","lat":43.28699,"lon":5.37389,"is_reserved":false,"is_disabled":false,"rental_uris":{"android":"levelo://app?vid=58d8cd95-917c-438e-864b-c167ff63eb01","ios":"levelo://app?vid=58d8cd95-917c-438e-864b-c167ff63eb01"},"vehicle_type_id":"4","last_reported":1757880586,"current_range_meters":14000,"station_id":"ce4bh3p2rcd13ifvqdq0","pricing_plan_id":"cebpf4jnsgd1na2vs0mg"},{"bike_id":"21439e61-ffaa-41db-9522-0d96c9d9e2e3","system_id":"levelo_inurba_marseille","lat":43.28416,"lon":5.3753,"is_reserved":false,"is_disabled":false,"rental_uris":{"android":"levelo://app?vid=21439e61-ffaa-41db-9522-0d96c9d9e2e3","ios":"levelo://app?vid=21439e61-ffaa-41db-9522-0d96c9d9e2e3"},"vehicle_type_id":"4","last_reported":1757880586,"current_range_meters":14000,"station_id":"ce4bh412rcd13ifvqds0","pricing_plan_id":"cebpf4jnsgd1na2vs0mg"},{"bike_id":"746f8f66-7f46-4e2a-8f64-942936320bf9","system_id":"levelo_inurba_marseille","lat":43.23956,"lon":5.36626,"is_reserved":false,"is_disabled":true,"rental_uris":{"android":"levelo://app?vid=746f8f66-7f46-4e2a-8f64-942936320bf9","ios":"levelo://app?vid=746f8f66-7f46-4e2a-8f64-942936320bf9"},"vehicle_type_id":"4","last_reported":1757880586,"current_range_meters":14000,"station_id":"ce4bhi12rcd13ifvqfp0","pricing_plan_id":"cebpf4jnsgd1na2vs0mg"},{"bike_id":"98c1a434-d7d4-4ae7-bb04-0ded001d318d","system_id":"levelo_inurba_marseille","lat":43.30106,"lon":5.37412,"is_reserved":false,"is_disabled":false,"rental_uris":{"android":"levelo://app?vid=98c1a434-d7d4-4ae7-bb04-0ded001d318d","ios":"levelo://app?vid=98c1a434-d7d4-4ae7-bb04-0ded001d318d"},"vehicle_type_id":"4","last_reported":1757880586,"current_range_meters":14000,"station_id":"","pricing_plan_id":"cebpf4jnsgd1na2vs0mg"},{"bike_id":"c07bc48f-7ecd-42df-919d-d83d1bd6c00e","system_id":"levelo_inurba_marseille","lat":43.279103,"lon":5.380096,"is_reserved":false,"is_disabled":false,"rental_uris":{"android":"levelo://app?vid=c07bc48f-7ecd-42df-919d-d83d1bd6c00e","ios":"levelo://app?vid=c07bc48f-7ecd-42df-919d-d83d1bd6c00e"},"vehicle_type_id":"4","last_reported":1757880586,"current_range_meters":14400,"station_id":"ce4bhf92rcd13ifvqf50","pricing_plan_id":"cebpf4jnsgd1na2vs0mg"},{"bike_id":"2cf8055a-ea2f-4f1b-a82e-0d2de697f05b","system_id":"levelo_inurba_marseille","lat":43.284798,"lon":5.384188,"is_reserved":false,"is_disabled":false,"rental_uris":{"android":"levelo://app?vid=2cf8055a-ea2f-4f1b-a82e-0d2de697f05b","ios":"levelo://app?vid=2cf8055a-ea2f-4f1b-a82e-0d2de697f05b"},"vehicle_type_id":"4","last_reported":1757880586,"current_range_meters":14400,"station_id":"ce4bh512rcd13ifvqe3g","pricing_plan_id":"cebpf4jnsgd1na2vs0mg"},{"bike_id":"f75319f4-d3a6-440f-9c89-5af7f4acd041","system_id":"levelo_inurba_marseille","lat":43.22565,"lon":5.41634,"is_reserved":false,"is_disabled":false,"rental_uris":{"android":"levelo://app?vid=f75319f4-d3a6-440f-9c89-5af7f4acd041","ios":"levelo://app?vid=f75319f4-d3a6-440f-9c89-5af7f4acd041"},"vehicle_type_id":"4","last_reported":1757880586,"current_range_meters":14400,"station_id":"st_d2o4gvlbi1j2169b742g","pricing_plan_id":"cebpf4jnsgd1na2vs0mg"},{"bike_id":"319a870a-15ff-4a5d-90ce-1278355c75c3","system_id":"levelo_inurba_marseille","lat":43.28095,"lon":5.39666,"is_reserved":false,"is_disabled":false,"rental_uris":{"android":"levelo://app?vid=319a870a-15ff-4a5d-90ce-1278355c75c3","ios":"levelo://app?vid=319a870a-15ff-4a5d-90ce-1278355c75c3"},"vehicle_type_id":"4","last_reported":1757880586,"current_range_meters":14400,"station_id":"ce4bho12rcd13ifvqh2g","pricing_plan_id":"cebpf4jnsgd1na2vs0mg"},{"bike_id":"55e342a4-9255-4e06-9dbb-e9e744bc3425","system_id":"levelo_inurba_marseille","lat":43.23193,"lon":5.35553,"is_reserved":false,"is_disabled":false,"rental_uris":{"android":"levelo://app?vid=55e342a4-9255-4e06-9dbb-e9e744bc3425","ios":"levelo://app?vid=55e342a4-9255-4e06-9dbb-e9e744bc3425"},"vehicle_type_id":"4","last_reported":1757880586,"current_range_meters":14400,"station_id":"ce4bhu92rcd13ifvqi70","pricing_plan_id":"cebpf4jnsgd1na2vs0mg"},{"bike_id":"b404b7fa-20c8-47a8-8c3f-d0cb57ebe4a8","system_id":"levelo_inurba_marseille","lat":43.3118,"lon":5.38723,"is_reserved":false,"is_disabled":false,"rental_uris":{"android":"levelo://app?vid=b404b7fa-20c8-47a8-8c3f-d0cb57ebe4a8","ios":"levelo://app?vid=b404b7fa-20c8-47a8-8c3f-d0cb57ebe4a8"},"vehicle_type_id":"4","last_reported":1757880586,"current_range_meters":14400,"station_id":"ce4bgv12rcd13ifvqcp0","pricing_plan_id":"cebpf4jnsgd1na2vs0mg"},{"bike_id":"9f472284-f2ed-49af-a1af-8299e7386437","system_id":"levelo_inurba_marseille","lat":43.31479,"lon":5.3731,"is_reserved":false,"is_disabled":false,"rental_uris":{"android":"levelo://app?vid=9f472284-f2ed-49af-a1af-8299e7386437","ios":"levelo://app?vid=9f472284-f2ed-49af-a1af-8299e7386437"},"vehicle_type_id":"4","last_reported":1757880586,"current_range_meters":14400,"station_id":"ce4bgt12rcd13ifvqcd0","pricing_plan_id":"cebpf4jnsgd1na2vs0mg"},{"bike_id":"26a836dd-34cc-4a8a-8356-2242ca6e7901","system_id":"levelo_inurba_marseille","lat":43.30249,"lon":5.40069,"is_reserved":false,"is_disabled":false,"rental_uris":{"android":"levelo://app?vid=26a836dd-34cc-4a8a-8356-2242ca6e7901","ios":"levelo://app?vid=26a836dd-34cc-4a8a-8356-2242ca6e7901"},"vehicle_type_id":"4","last_reported":1757880586,"current_range_meters":14800,"station_id":"ce4bgvh2rcd13ifvqcs0","pricing_plan_id":"cebpf4jnsgd1na2vs0mg"},{"bike_id":"93bed4bd-75ce-4182-9b5b-1c82872353ca","system_id":"levelo_inurba_marseille","lat":43.30122,"lon":5.39881,"is_reserved":false,"is_disabled":false,"rental_uris":{"android":"levelo://app?vid=93bed4bd-75ce-4182-9b5b-1c82872353ca","ios":"levelo://app?vid=93bed4bd-75ce-4182-9b5b-1c82872353ca"},"vehicle_type_id":"4","last_reported":1757880586,"current_range_meters":14800,"station_id":"ce4bh0h2rcd13ifvqd40","pricing_plan_id":"cebpf4jnsgd1na2vs0mg"},{"bike_id":"96dcfce9-8263-409b-8205-b4bbdac3cbf4","system_id":"levelo_inurba_marseille","lat":43.29255,"lon":5.40911,"is_reserved":false,"is_disabled":false,"rental_uris":{"android":"levelo://app?vid=96dcfce9-8263-409b-8205-b4bbdac3cbf4","ios":"levelo://app?vid=96dcfce9-8263-409b-8205-b4bbdac3cbf4"},"vehicle_type_id":"4","last_reported":1757880586,"current_range_meters":14800,"station_id":"ce4bh192rcd13ifvqdc0","pricing_plan_id":"cebpf4jnsgd1na2vs0mg"},{"bike_id":"b002a392-08fa-4b2e-b212-3e002cd96c5d","system_id":"levelo_inurba_marseille","lat":43.23961,"lon":5.36615,"is_reserved":false,"is_disabled":false,"rental_uris":{"android":"levelo://app?vid=b002a392-08fa-4b2e-b212-3e002cd96c5d","ios":"levelo://app?vid=b002a392-08fa-4b2e-b212-3e002cd96c5d"},"vehicle_type_id":"4","last_reported":1757880586,"current_range_meters":14800,"station_id":"ce4bhi12rcd13ifvqfp0","pricing_plan_id":"cebpf4jnsgd1na2vs0mg"},{"bike_id":"464834ca-6263-4da4-82c1-57ebffce5b09","system_id":"levelo_inurba_marseille","lat":43.31272,"lon":5.4017,"is_reserved":false,"is_disabled":false,"rental_uris":{"android":"levelo://app?vid=464834ca-6263-4da4-82c1-57ebffce5b09","ios":"levelo://app?vid=464834ca-6263-4da4-82c1-57ebffce5b09"},"vehicle_type_id":"4","last_reported":1757880586,"current_range_meters":14400,"station_id":"ce4bh092rcd13ifvqd30","pricing_plan_id":"cebpf4jnsgd1na2vs0mg"},{"bike_id":"37f187f1-e7b5-4d7f-b6f8-90a8aa395574","system_id":"levelo_inurba_marseille","lat":43.24061,"lon":5.37765,"is_reserved":false,"is_disabled":false,"rental_uris":{"android":"levelo://app?vid=37f187f1-e7b5-4d7f-b6f8-90a8aa395574","ios":"levelo://app?vid=37f187f1-e7b5-4d7f-b6f8-90a8aa395574"},"vehicle_type_id":"4","last_reported":1757880586,"current_range_meters":14800,"station_id":"ce4bhnp2rcd13ifvqgvg","pricing_plan_id":"cebpf4jnsgd1na2vs0mg"},{"bike_id":"b2fba456-5a3b-40c6-8765-ad84661db187","system_id":"levelo_inurba_marseille","lat":43.257205,"lon":5.411136,"is_reserved":false,"is_disabled":true,"rental_uris":{"android":"levelo://app?vid=b2fba456-5a3b-40c6-8765-ad84661db187","ios":"levelo://app?vid=b2fba456-5a3b-40c6-8765-ad84661db187"},"vehicle_type_id":"4","last_reported":1757880586,"current_range_meters":14800,"station_id":"ce4bhkp2rcd13ifvqgd0","pricing_plan_id":"cebpf4jnsgd1na2vs0mg"},{"bike_id":"24768f65-7e0a-4250-91d1-9962c5885feb","system_id":"levelo_inurba_marseille","lat":43.28668,"lon":5.3867,"is_reserved":false,"is_disabled":false,"rental_uris":{"android":"levelo://app?vid=24768f65-7e0a-4250-91d1-9962c5885feb","ios":"levelo://app?vid=24768f65-7e0a-4250-91d1-9962c5885feb"},"vehicle_type_id":"4","last_reported":1757880586,"current_range_meters":14800,"station_id":"ce4bh492rcd13ifvqdug","pricing_plan_id":"cebpf4jnsgd1na2vs0mg"},{"bike_id":"e05eea5e-3ede-4b75-8a49-e9854c3d159d","system_id":"levelo_inurba_marseille","lat":43.28727,"lon":5.35085,"is_reserved":false,"is_disabled":true,"rental_uris":{"android":"levelo://app?vid=e05eea5e-3ede-4b75-8a49-e9854c3d159d","ios":"levelo://app?vid=e05eea5e-3ede-4b75-8a49-e9854c3d159d"},"vehicle_type_id":"4","last_reported":1757880586,"current_range_meters":15200,"station_id":"","pricing_plan_id":"cebpf4jnsgd1na2vs0mg"},{"bike_id":"f2716c8e-a615-422e-8355-a217d6b8fc45","system_id":"levelo_inurba_marseille","lat":43.299745,"lon":5.371875,"is_reserved":false,"is_disabled":false,"rental_uris":{"android":"levelo://app?vid=f2716c8e-a615-422e-8355-a217d6b8fc45","ios":"levelo://app?vid=f2716c8e-a615-422e-8355-a217d6b8fc45"},"vehicle_type_id":"4","last_reported":1757880586,"current_range_meters":15200,"station_id":"ce4bgr92rcd13ifvqc7g","pricing_plan_id":"cebpf4jnsgd1na2vs0mg"},{"bike_id":"1831c7b6-b53b-45a1-b165-2ba305869cc0","system_id":"levelo_inurba_marseille","lat":43.32487,"lon":5.3656,"is_reserved":false,"is_disabled":false,"rental_uris":{"android":"levelo://app?vid=1831c7b6-b53b-45a1-b165-2ba305869cc0","ios":"levelo://app?vid=1831c7b6-b53b-45a1-b165-2ba305869cc0"},"vehicle_type_id":"4","last_reported":1757880586,"current_range_meters":15200,"station_id":"ce4bhs12rcd13ifvqhvg","pricing_plan_id":"cebpf4jnsgd1na2vs0mg"},{"bike_id":"15c12f1b-150c-43be-9134-ac05fb9a1bef","system_id":"levelo_inurba_marseille","lat":43.2906,"lon":5.37151,"is_reserved":false,"is_disabled":true,"rental_uris":{"android":"levelo://app?vid=15c12f1b-150c-43be-9134-ac05fb9a1bef","ios":"levelo://app?vid=15c12f1b-150c-43be-9134-ac05fb9a1bef"},"vehicle_type_id":"4","last_reported":1757880586,"current_range_meters":15200,"station_id":"ce4bh5p2rcd13ifvqe4g","pricing_plan_id":"cebpf4jnsgd1na2vs0mg"},{"bike_id":"046ba709-b940-4fa3-9690-1d81db536e4b","system_id":"levelo_inurba_marseille","lat":43.22567,"lon":5.41624,"is_reserved":false,"is_disabled":false,"rental_uris":{"android":"levelo://app?vid=046ba709-b940-4fa3-9690-1d81db536e4b","ios":"levelo://app?vid=046ba709-b940-4fa3-9690-1d81db536e4b"},"vehicle_type_id":"4","last_reported":1757880586,"current_range_meters":15200,"station_id":"st_d2o4gvlbi1j2169b742g","pricing_plan_id":"cebpf4jnsgd1na2vs0mg"},{"bike_id":"e7a329bd-ed66-4ac7-aaba-63f2810ddd86","system_id":"levelo_inurba_marseille","lat":43.31859,"lon":5.37206,"is_reserved":false,"is_disabled":false,"rental_uris":{"android":"levelo://app?vid=e7a329bd-ed66-4ac7-aaba-63f2810ddd86","ios":"levelo://app?vid=e7a329bd-ed66-4ac7-aaba-63f2810ddd86"},"vehicle_type_id":"4","last_reported":1757880586,"current_range_meters":15200,"station_id":"","pricing_plan_id":"cebpf4jnsgd1na2vs0mg"},{"bike_id":"aed94804-5250-41d7-949a-c0183f18f35b","system_id":"levelo_inurba_marseille","lat":43.28416,"lon":5.37506,"is_reserved":false,"is_disabled":false,"rental_uris":{"android":"levelo://app?vid=aed94804-5250-41d7-949a-c0183f18f35b","ios":"levelo://app?vid=aed94804-5250-41d7-949a-c0183f18f35b"},"vehicle_type_id":"4","last_reported":1757880586,"current_range_meters":15200,"station_id":"ce4bh412rcd13ifvqds0","pricing_plan_id":"cebpf4jnsgd1na2vs0mg"},{"bike_id":"3fe444ee-ee08-420b-ad9e-7f03855712c3","system_id":"levelo_inurba_marseille","lat":43.28417,"lon":5.37577,"is_reserved":false,"is_disabled":false,"rental_uris":{"android":"levelo://app?vid=3fe444ee-ee08-420b-ad9e-7f03855712c3","ios":"levelo://app?vid=3fe444ee-ee08-420b-ad9e-7f03855712c3"},"vehicle_type_id":"4","last_reported":1757880586,"current_range_meters":15200,"station_id":"","pricing_plan_id":"cebpf4jnsgd1na2vs0mg"},{"bike_id":"3443a5d9-dd42-4e4c-b4b8-bdf728ea2712","system_id":"levelo_inurba_marseille","lat":43.279,"lon":5.38008,"is_reserved":false,"is_disabled":false,"rental_uris":{"android":"levelo://app?vid=3443a5d9-dd42-4e4c-b4b8-bdf728ea2712","ios":"levelo://app?vid=3443a5d9-dd42-4e4c-b4b8-bdf728ea2712"},"vehicle_type_id":"4","last_reported":1757880586,"current_range_meters":16000,"station_id":"ce4bhf92rcd13ifvqf50","pricing_plan_id":"cebpf4jnsgd1na2vs0mg"},{"bike_id":"5b449894-2527-4d03-8059-f6c1df015834","system_id":"levelo_inurba_marseille","lat":43.30777,"lon":5.37649,"is_reserved":false,"is_disabled":false,"rental_uris":{"android":"levelo://app?vid=5b449894-2527-4d03-8059-f6c1df015834","ios":"levelo://app?vid=5b449894-2527-4d03-8059-f6c1df015834"},"vehicle_type_id":"4","last_reported":1757880586,"current_range_meters":16000,"station_id":"ce4bgv92rcd13ifvqcq0","pricing_plan_id":"cebpf4jnsgd1na2vs0mg"},{"bike_id":"950a5f0c-6122-4d8d-a42b-4763023d14f2","system_id":"levelo_inurba_marseille","lat":43.25486,"lon":5.3765,"is_reserved":false,"is_disabled":true,"rental_uris":{"android":"levelo://app?vid=950a5f0c-6122-4d8d-a42b-4763023d14f2","ios":"levelo://app?vid=950a5f0c-6122-4d8d-a42b-4763023d14f2"},"vehicle_type_id":"4","last_reported":1757880586,"current_range_meters":16000,"station_id":"ce4bhh12rcd13ifvqff0","pricing_plan_id":"cebpf4jnsgd1na2vs0mg"},{"bike_id":"f268f86e-19f4-4d8a-88dd-839cf11d87c7","system_id":"levelo_inurba_marseille","lat":43.27486,"lon":5.42457,"is_reserved":false,"is_disabled":false,"rental_uris":{"android":"levelo://app?vid=f268f86e-19f4-4d8a-88dd-839cf11d87c7","ios":"levelo://app?vid=f268f86e-19f4-4d8a-88dd-839cf11d87c7"},"vehicle_type_id":"4","last_reported":1757880586,"current_range_meters":16000,"station_id":"ce4bhn92rcd13ifvqgrg","pricing_plan_id":"cebpf4jnsgd1na2vs0mg"},{"bike_id":"8f04fe6a-b496-4a33-88d0-7a57c81f211d","system_id":"levelo_inurba_marseille","lat":43.24375,"lon":5.37084,"is_reserved":false,"is_disabled":true,"rental_uris":{"android":"levelo://app?vid=8f04fe6a-b496-4a33-88d0-7a57c81f211d","ios":"levelo://app?vid=8f04fe6a-b496-4a33-88d0-7a57c81f211d"},"vehicle_type_id":"4","last_reported":1757880586,"current_range_meters":16000,"station_id":"ce4bhhh2rcd13ifvqfk0","pricing_plan_id":"cebpf4jnsgd1na2vs0mg"},{"bike_id":"6c54d954-dfe9-4d39-b096-0b00749019bc","system_id":"levelo_inurba_marseille","lat":43.27988,"lon":5.41656,"is_reserved":false,"is_disabled":false,"rental_uris":{"android":"levelo://app?vid=6c54d954-dfe9-4d39-b096-0b00749019bc","ios":"levelo://app?vid=6c54d954-dfe9-4d39-b096-0b00749019bc"},"vehicle_type_id":"4","last_reported":1757880586,"current_range_meters":16000,"station_id":"ce4bho12rcd13ifvqh1g","pricing_plan_id":"cebpf4jnsgd1na2vs0mg"},{"bike_id":"27463000-479c-4d4a-9644-2fd7b800a0e6","system_id":"levelo_inurba_marseille","lat":43.31114,"lon":5.37787,"is_reserved":false,"is_disabled":false,"rental_uris":{"android":"levelo://app?vid=27463000-479c-4d4a-9644-2fd7b800a0e6","ios":"levelo://app?vid=27463000-479c-4d4a-9644-2fd7b800a0e6"},"vehicle_type_id":"4","last_reported":1757880586,"current_range_meters":16400,"station_id":"ce4bgt92rcd13ifvqcg0","pricing_plan_id":"cebpf4jnsgd1na2vs0mg"},{"bike_id":"795543a3-4d40-47a2-ba91-0c0d7988d4cf","system_id":"levelo_inurba_marseille","lat":43.27375,"lon":5.36254,"is_reserved":false,"is_disabled":true,"rental_uris":{"android":"levelo://app?vid=795543a3-4d40-47a2-ba91-0c0d7988d4cf","ios":"levelo://app?vid=795543a3-4d40-47a2-ba91-0c0d7988d4cf"},"vehicle_type_id":"4","last_reported":1757880586,"current_range_meters":16400,"station_id":"ce4bhbh2rcd13ifvqeo0","pricing_plan_id":"cebpf4jnsgd1na2vs0mg"},{"bike_id":"0c6fe877-1024-4901-84e8-0fbaefe45584","system_id":"levelo_inurba_marseille","lat":43.33415,"lon":5.400568,"is_reserved":false,"is_disabled":false,"rental_uris":{"android":"levelo://app?vid=0c6fe877-1024-4901-84e8-0fbaefe45584","ios":"levelo://app?vid=0c6fe877-1024-4901-84e8-0fbaefe45584"},"vehicle_type_id":"4","last_reported":1757880586,"current_range_meters":16400,"station_id":"","pricing_plan_id":"cebpf4jnsgd1na2vs0mg"},{"bike_id":"61ead066-3191-48f3-bccf-4d377df32a71","system_id":"levelo_inurba_marseille","lat":43.25713,"lon":5.41101,"is_reserved":false,"is_disabled":false,"rental_uris":{"android":"levelo://app?vid=61ead066-3191-48f3-bccf-4d377df32a71","ios":"levelo://app?vid=61ead066-3191-48f3-bccf-4d377df32a71"},"vehicle_type_id":"4","last_reported":1757880586,"current_range_meters":16400,"station_id":"ce4bhkp2rcd13ifvqgd0","pricing_plan_id":"cebpf4jnsgd1na2vs0mg"},{"bike_id":"ebc28d3f-48e0-4c19-84dd-0c3a04a1ca62","system_id":"levelo_inurba_marseille","lat":43.25841,"lon":5.39922,"is_reserved":false,"is_disabled":true,"rental_uris":{"android":"levelo://app?vid=ebc28d3f-48e0-4c19-84dd-0c3a04a1ca62","ios":"levelo://app?vid=ebc28d3f-48e0-4c19-84dd-0c3a04a1ca62"},"vehicle_type_id":"4","last_reported":1757880586,"current_range_meters":16400,"station_id":"ce4bhl92rcd13ifvqghg","pricing_plan_id":"cebpf4jnsgd1na2vs0mg"},{"bike_id":"322c1f5a-85db-4ef6-bcd4-1b5c417c8ee0","system_id":"levelo_inurba_marseille","lat":43.3377,"lon":5.37488,"is_reserved":false,"is_disabled":false,"rental_uris":{"android":"levelo://app?vid=322c1f5a-85db-4ef6-bcd4-1b5c417c8ee0","ios":"levelo://app?vid=322c1f5a-85db-4ef6-bcd4-1b5c417c8ee0"},"vehicle_type_id":"4","last_reported":1757880586,"current_range_meters":16400,"station_id":"","pricing_plan_id":"cebpf4jnsgd1na2vs0mg"},{"bike_id":"e7be409c-2c55-4721-bedf-c51eadba9377","system_id":"levelo_inurba_marseille","lat":43.29778,"lon":5.39343,"is_reserved":false,"is_disabled":false,"rental_uris":{"android":"levelo://app?vid=e7be409c-2c55-4721-bedf-c51eadba9377","ios":"levelo://app?vid=e7be409c-2c55-4721-bedf-c51eadba9377"},"vehicle_type_id":"4","last_reported":1757880586,"current_range_meters":16400,"station_id":"chh1huq6cuj3fo74tm60","pricing_plan_id":"cebpf4jnsgd1na2vs0mg"},{"bike_id":"95251c11-6699-4aa0-8909-a444151e2dc9","system_id":"levelo_inurba_marseille","lat":43.24074,"lon":5.3777,"is_reserved":false,"is_disabled":false,"rental_uris":{"android":"levelo://app?vid=95251c11-6699-4aa0-8909-a444151e2dc9","ios":"levelo://app?vid=95251c11-6699-4aa0-8909-a444151e2dc9"},"vehicle_type_id":"4","last_reported":1757880586,"current_range_meters":16400,"station_id":"ce4bhnp2rcd13ifvqgvg","pricing_plan_id":"cebpf4jnsgd1na2vs0mg"},{"bike_id":"c9f82b86-7ced-43c5-8bc4-fa83f1b9c33c","system_id":"levelo_inurba_marseille","lat":43.24672,"lon":5.38163,"is_reserved":false,"is_disabled":false,"rental_uris":{"android":"levelo://app?vid=c9f82b86-7ced-43c5-8bc4-fa83f1b9c33c","ios":"levelo://app?vid=c9f82b86-7ced-43c5-8bc4-fa83f1b9c33c"},"vehicle_type_id":"4","last_reported":1757880586,"current_range_meters":16400,"station_id":"ce4bhih2rcd13ifvqfr0","pricing_plan_id":"cebpf4jnsgd1na2vs0mg"},{"bike_id":"3b7e34ab-d721-4131-9c05-67b14754d65c","system_id":"levelo_inurba_marseille","lat":43.2955,"lon":5.38538,"is_reserved":false,"is_disabled":false,"rental_uris":{"android":"levelo://app?vid=3b7e34ab-d721-4131-9c05-67b14754d65c","ios":"levelo://app?vid=3b7e34ab-d721-4131-9c05-67b14754d65c"},"vehicle_type_id":"4","last_reported":1757880586,"current_range_meters":16400,"station_id":"ce4bgih2rcd13ifvqba0","pricing_plan_id":"cebpf4jnsgd1na2vs0mg"},{"bike_id":"cfc53d46-af02-4815-b86f-2fac1e0d2dc9","system_id":"levelo_inurba_marseille","lat":43.30929,"lon":5.40144,"is_reserved":false,"is_disabled":false,"rental_uris":{"android":"levelo://app?vid=cfc53d46-af02-4815-b86f-2fac1e0d2dc9","ios":"levelo://app?vid=cfc53d46-af02-4815-b86f-2fac1e0d2dc9"},"vehicle_type_id":"4","last_reported":1757880586,"current_range_meters":16400,"station_id":"ce4bgvp2rcd13ifvqct0","pricing_plan_id":"cebpf4jnsgd1na2vs0mg"},{"bike_id":"44564570-57aa-40e0-98e6-ad97f0fb0c97","system_id":"levelo_inurba_marseille","lat":43.28362,"lon":5.38632,"is_reserved":false,"is_disabled":false,"rental_uris":{"android":"levelo://app?vid=44564570-57aa-40e0-98e6-ad97f0fb0c97","ios":"levelo://app?vid=44564570-57aa-40e0-98e6-ad97f0fb0c97"},"vehicle_type_id":"4","last_reported":1757880586,"current_range_meters":16400,"station_id":"ce4bh492rcd13ifvqdvg","pricing_plan_id":"cebpf4jnsgd1na2vs0mg"},{"bike_id":"ad63778a-4fbe-4846-9db4-c91f5d909fa2","system_id":"levelo_inurba_marseille","lat":43.24947,"lon":5.4051,"is_reserved":false,"is_disabled":false,"rental_uris":{"android":"levelo://app?vid=ad63778a-4fbe-4846-9db4-c91f5d909fa2","ios":"levelo://app?vid=ad63778a-4fbe-4846-9db4-c91f5d909fa2"},"vehicle_type_id":"4","last_reported":1757880586,"current_range_meters":16400,"station_id":"st_d2ngiaodas8pm72gd1h0","pricing_plan_id":"cebpf4jnsgd1na2vs0mg"},{"bike_id":"e6dfeeed-cb7b-44ef-9fd7-cd73911e4f4a","system_id":"levelo_inurba_marseille","lat":43.29976,"lon":5.38494,"is_reserved":false,"is_disabled":false,"rental_uris":{"android":"levelo://app?vid=e6dfeeed-cb7b-44ef-9fd7-cd73911e4f4a","ios":"levelo://app?vid=e6dfeeed-cb7b-44ef-9fd7-cd73911e4f4a"},"vehicle_type_id":"4","last_reported":1757880586,"current_range_meters":16400,"station_id":"ce4bgj92rcd13ifvqbd0","pricing_plan_id":"cebpf4jnsgd1na2vs0mg"},{"bike_id":"5e581963-3891-4b03-af7b-7a23d2f2f778","system_id":"levelo_inurba_marseille","lat":43.2972,"lon":5.37685,"is_reserved":false,"is_disabled":false,"rental_uris":{"android":"levelo://app?vid=5e581963-3891-4b03-af7b-7a23d2f2f778","ios":"levelo://app?vid=5e581963-3891-4b03-af7b-7a23d2f2f778"},"vehicle_type_id":"4","last_reported":1757880586,"current_range_meters":16000,"station_id":"ce4bgkh2rcd13ifvqbl0","pricing_plan_id":"cebpf4jnsgd1na2vs0mg"},{"bike_id":"79b58960-208e-4b49-9d65-8bb1ffb5b6a2","system_id":"levelo_inurba_marseille","lat":43.30878,"lon":5.39636,"is_reserved":false,"is_disabled":false,"rental_uris":{"android":"levelo://app?vid=79b58960-208e-4b49-9d65-8bb1ffb5b6a2","ios":"levelo://app?vid=79b58960-208e-4b49-9d65-8bb1ffb5b6a2"},"vehicle_type_id":"4","last_reported":1757880586,"current_range_meters":16400,"station_id":"ce4bh012rcd13ifvqcv0","pricing_plan_id":"cebpf4jnsgd1na2vs0mg"},{"bike_id":"61b9ca63-58d9-4a34-ab51-c1e222bf0cb8","system_id":"levelo_inurba_marseille","lat":43.29445,"lon":5.39757,"is_reserved":false,"is_disabled":false,"rental_uris":{"android":"levelo://app?vid=61b9ca63-58d9-4a34-ab51-c1e222bf0cb8","ios":"levelo://app?vid=61b9ca63-58d9-4a34-ab51-c1e222bf0cb8"},"vehicle_type_id":"4","last_reported":1757880586,"current_range_meters":16800,"station_id":"ce4bh3h2rcd13ifvqdo0","pricing_plan_id":"cebpf4jnsgd1na2vs0mg"},{"bike_id":"35939cb7-a84c-45d8-bbf1-a92242803d38","system_id":"levelo_inurba_marseille","lat":43.28702,"lon":5.37398,"is_reserved":false,"is_disabled":false,"rental_uris":{"android":"levelo://app?vid=35939cb7-a84c-45d8-bbf1-a92242803d38","ios":"levelo://app?vid=35939cb7-a84c-45d8-bbf1-a92242803d38"},"vehicle_type_id":"4","last_reported":1757880586,"current_range_meters":16800,"station_id":"ce4bh3p2rcd13ifvqdq0","pricing_plan_id":"cebpf4jnsgd1na2vs0mg"},{"bike_id":"60df5be0-868d-496d-a7cc-2e097de1a47a","system_id":"levelo_inurba_marseille","lat":43.22561,"lon":5.41632,"is_reserved":false,"is_disabled":false,"rental_uris":{"android":"levelo://app?vid=60df5be0-868d-496d-a7cc-2e097de1a47a","ios":"levelo://app?vid=60df5be0-868d-496d-a7cc-2e097de1a47a"},"vehicle_type_id":"4","last_reported":1757880586,"current_range_meters":16800,"station_id":"st_d2o4gvlbi1j2169b742g","pricing_plan_id":"cebpf4jnsgd1na2vs0mg"},{"bike_id":"fef4f0a8-5cf7-4872-a9fc-871ccba2faf2","system_id":"levelo_inurba_marseille","lat":43.304248,"lon":5.38884,"is_reserved":false,"is_disabled":false,"rental_uris":{"android":"levelo://app?vid=fef4f0a8-5cf7-4872-a9fc-871ccba2faf2","ios":"levelo://app?vid=fef4f0a8-5cf7-4872-a9fc-871ccba2faf2"},"vehicle_type_id":"4","last_reported":1757880586,"current_range_meters":16400,"station_id":"ce4bgk12rcd13ifvqbi0","pricing_plan_id":"cebpf4jnsgd1na2vs0mg"},{"bike_id":"582285b2-ae40-4d3e-95af-f95513b979ec","system_id":"levelo_inurba_marseille","lat":43.29533,"lon":5.3855,"is_reserved":false,"is_disabled":false,"rental_uris":{"android":"levelo://app?vid=582285b2-ae40-4d3e-95af-f95513b979ec","ios":"levelo://app?vid=582285b2-ae40-4d3e-95af-f95513b979ec"},"vehicle_type_id":"4","last_reported":1757880586,"current_range_meters":16800,"station_id":"ce4bgih2rcd13ifvqba0","pricing_plan_id":"cebpf4jnsgd1na2vs0mg"},{"bike_id":"61242a27-0db1-42cc-9fb5-dd86bf5c6a93","system_id":"levelo_inurba_marseille","lat":43.24643,"lon":5.38896,"is_reserved":false,"is_disabled":false,"rental_uris":{"android":"levelo://app?vid=61242a27-0db1-42cc-9fb5-dd86bf5c6a93","ios":"levelo://app?vid=61242a27-0db1-42cc-9fb5-dd86bf5c6a93"},"vehicle_type_id":"4","last_reported":1757880586,"current_range_meters":16800,"station_id":"ce4bhg12rcd13ifvqf60","pricing_plan_id":"cebpf4jnsgd1na2vs0mg"},{"bike_id":"5b5379f2-6b26-4741-a1b0-feb22b61a585","system_id":"levelo_inurba_marseille","lat":43.21166,"lon":5.3507,"is_reserved":false,"is_disabled":true,"rental_uris":{"android":"levelo://app?vid=5b5379f2-6b26-4741-a1b0-feb22b61a585","ios":"levelo://app?vid=5b5379f2-6b26-4741-a1b0-feb22b61a585"},"vehicle_type_id":"4","last_reported":1757880586,"current_range_meters":17200,"station_id":"st_cvj6sg6p6f1abm77japg","pricing_plan_id":"cebpf4jnsgd1na2vs0mg"},{"bike_id":"a155e67d-bec0-4326-ae57-c035ef5e1c81","system_id":"levelo_inurba_marseille","lat":43.298925,"lon":5.436747,"is_reserved":false,"is_disabled":false,"rental_uris":{"android":"levelo://app?vid=a155e67d-bec0-4326-ae57-c035ef5e1c81","ios":"levelo://app?vid=a155e67d-bec0-4326-ae57-c035ef5e1c81"},"vehicle_type_id":"4","last_reported":1757880586,"current_range_meters":17200,"station_id":"ce4bhpp2rcd13ifvqhfg","pricing_plan_id":"cebpf4jnsgd1na2vs0mg"},{"bike_id":"7c4184d3-21aa-437f-8fc8-eb3a0ff23afe","system_id":"levelo_inurba_marseille","lat":43.23196,"lon":5.35552,"is_reserved":false,"is_disabled":false,"rental_uris":{"android":"levelo://app?vid=7c4184d3-21aa-437f-8fc8-eb3a0ff23afe","ios":"levelo://app?vid=7c4184d3-21aa-437f-8fc8-eb3a0ff23afe"},"vehicle_type_id":"4","last_reported":1757880586,"current_range_meters":16800,"station_id":"ce4bhu92rcd13ifvqi70","pricing_plan_id":"cebpf4jnsgd1na2vs0mg"},{"bike_id":"89da9848-1a94-4815-a7dd-dffa7b2da0a0","system_id":"levelo_inurba_marseille","lat":43.3043,"lon":5.3889,"is_reserved":false,"is_disabled":false,"rental_uris":{"android":"levelo://app?vid=89da9848-1a94-4815-a7dd-dffa7b2da0a0","ios":"levelo://app?vid=89da9848-1a94-4815-a7dd-dffa7b2da0a0"},"vehicle_type_id":"4","last_reported":1757880586,"current_range_meters":17200,"station_id":"ce4bgk12rcd13ifvqbi0","pricing_plan_id":"cebpf4jnsgd1na2vs0mg"},{"bike_id":"e73470b2-f46f-4f87-989f-53f8372e4317","system_id":"levelo_inurba_marseille","lat":43.33356,"lon":5.39788,"is_reserved":false,"is_disabled":false,"rental_uris":{"android":"levelo://app?vid=e73470b2-f46f-4f87-989f-53f8372e4317","ios":"levelo://app?vid=e73470b2-f46f-4f87-989f-53f8372e4317"},"vehicle_type_id":"4","last_reported":1757880586,"current_range_meters":17200,"station_id":"","pricing_plan_id":"cebpf4jnsgd1na2vs0mg"},{"bike_id":"38f93d78-f6e7-4fc0-ac99-606a9b08ef63","system_id":"levelo_inurba_marseille","lat":43.29556,"lon":5.42295,"is_reserved":false,"is_disabled":false,"rental_uris":{"android":"levelo://app?vid=38f93d78-f6e7-4fc0-ac99-606a9b08ef63","ios":"levelo://app?vid=38f93d78-f6e7-4fc0-ac99-606a9b08ef63"},"vehicle_type_id":"4","last_reported":1757880586,"current_range_meters":16800,"station_id":"ce4bhph2rcd13ifvqhdg","pricing_plan_id":"cebpf4jnsgd1na2vs0mg"},{"bike_id":"d27a3574-c668-415b-ad3b-c0a1e10e6cf4","system_id":"levelo_inurba_marseille","lat":43.337444,"lon":5.374475,"is_reserved":false,"is_disabled":false,"rental_uris":{"android":"levelo://app?vid=d27a3574-c668-415b-ad3b-c0a1e10e6cf4","ios":"levelo://app?vid=d27a3574-c668-415b-ad3b-c0a1e10e6cf4"},"vehicle_type_id":"4","last_reported":1757880586,"current_range_meters":17200,"station_id":"","pricing_plan_id":"cebpf4jnsgd1na2vs0mg"},{"bike_id":"3137af61-56d0-45d5-96aa-49a4a0bc14c1","system_id":"levelo_inurba_marseille","lat":43.32336,"lon":5.38966,"is_reserved":false,"is_disabled":false,"rental_uris":{"android":"levelo://app?vid=3137af61-56d0-45d5-96aa-49a4a0bc14c1","ios":"levelo://app?vid=3137af61-56d0-45d5-96aa-49a4a0bc14c1"},"vehicle_type_id":"4","last_reported":1757880586,"current_range_meters":17600,"station_id":"ce4bhqp2rcd13ifvqhog","pricing_plan_id":"cebpf4jnsgd1na2vs0mg"},{"bike_id":"f10a4125-ea58-4e63-b38e-ac18ed551e3a","system_id":"levelo_inurba_marseille","lat":43.32983,"lon":5.39129,"is_reserved":false,"is_disabled":false,"rental_uris":{"android":"levelo://app?vid=f10a4125-ea58-4e63-b38e-ac18ed551e3a","ios":"levelo://app?vid=f10a4125-ea58-4e63-b38e-ac18ed551e3a"},"vehicle_type_id":"4","last_reported":1757880586,"current_range_meters":17600,"station_id":"","pricing_plan_id":"cebpf4jnsgd1na2vs0mg"},{"bike_id":"a2037d5d-efdc-4084-bc10-efef38a713df","system_id":"levelo_inurba_marseille","lat":43.29593,"lon":5.36749,"is_reserved":false,"is_disabled":true,"rental_uris":{"android":"levelo://app?vid=a2037d5d-efdc-4084-bc10-efef38a713df","ios":"levelo://app?vid=a2037d5d-efdc-4084-bc10-efef38a713df"},"vehicle_type_id":"4","last_reported":1757880586,"current_range_meters":17600,"station_id":"ce4bgph2rcd13ifvqc2g","pricing_plan_id":"cebpf4jnsgd1na2vs0mg"},{"bike_id":"787ed88f-5c4b-429c-800e-59d399cff4f3","system_id":"levelo_inurba_marseille","lat":43.28347,"lon":5.38109,"is_reserved":false,"is_disabled":false,"rental_uris":{"android":"levelo://app?vid=787ed88f-5c4b-429c-800e-59d399cff4f3","ios":"levelo://app?vid=787ed88f-5c4b-429c-800e-59d399cff4f3"},"vehicle_type_id":"4","last_reported":1757880586,"current_range_meters":14800,"station_id":"ce4bh412rcd13ifvqdr0","pricing_plan_id":"cebpf4jnsgd1na2vs0mg"},{"bike_id":"512d6552-2c9e-4c40-b1ca-537e9b0175b2","system_id":"levelo_inurba_marseille","lat":43.27993,"lon":5.41666,"is_reserved":false,"is_disabled":false,"rental_uris":{"android":"levelo://app?vid=512d6552-2c9e-4c40-b1ca-537e9b0175b2","ios":"levelo://app?vid=512d6552-2c9e-4c40-b1ca-537e9b0175b2"},"vehicle_type_id":"4","last_reported":1757880586,"current_range_meters":17600,"station_id":"ce4bho12rcd13ifvqh1g","pricing_plan_id":"cebpf4jnsgd1na2vs0mg"},{"bike_id":"6eb1d464-8a64-4d06-8a8d-7bc649f64278","system_id":"levelo_inurba_marseille","lat":43.28692,"lon":5.39958,"is_reserved":false,"is_disabled":false,"rental_uris":{"android":"levelo://app?vid=6eb1d464-8a64-4d06-8a8d-7bc649f64278","ios":"levelo://app?vid=6eb1d464-8a64-4d06-8a8d-7bc649f64278"},"vehicle_type_id":"4","last_reported":1757880586,"current_range_meters":17600,"station_id":"ce4bho92rcd13ifvqh3g","pricing_plan_id":"cebpf4jnsgd1na2vs0mg"},{"bike_id":"1f21dc2e-bcb1-4be9-9de8-d7deb121d9c0","system_id":"levelo_inurba_marseille","lat":43.23179,"lon":5.39992,"is_reserved":false,"is_disabled":false,"rental_uris":{"android":"levelo://app?vid=1f21dc2e-bcb1-4be9-9de8-d7deb121d9c0","ios":"levelo://app?vid=1f21dc2e-bcb1-4be9-9de8-d7deb121d9c0"},"vehicle_type_id":"4","last_reported":1757880586,"current_range_meters":17600,"station_id":"ce4bhn12rcd13ifvqgqg","pricing_plan_id":"cebpf4jnsgd1na2vs0mg"},{"bike_id":"de013e7e-beff-4ca1-8414-61e7774571cd","system_id":"levelo_inurba_marseille","lat":43.292547,"lon":5.409027,"is_reserved":false,"is_disabled":false,"rental_uris":{"android":"levelo://app?vid=de013e7e-beff-4ca1-8414-61e7774571cd","ios":"levelo://app?vid=de013e7e-beff-4ca1-8414-61e7774571cd"},"vehicle_type_id":"4","last_reported":1757880586,"current_range_meters":17600,"station_id":"ce4bh192rcd13ifvqdc0","pricing_plan_id":"cebpf4jnsgd1na2vs0mg"},{"bike_id":"beabf360-1f00-470a-82d1-85e66e8327d3","system_id":"levelo_inurba_marseille","lat":43.30587,"lon":5.39357,"is_reserved":false,"is_disabled":false,"rental_uris":{"android":"levelo://app?vid=beabf360-1f00-470a-82d1-85e66e8327d3","ios":"levelo://app?vid=beabf360-1f00-470a-82d1-85e66e8327d3"},"vehicle_type_id":"4","last_reported":1757880586,"current_range_meters":17600,"station_id":"ce4bh0p2rcd13ifvqd80","pricing_plan_id":"cebpf4jnsgd1na2vs0mg"},{"bike_id":"9f7fd2f9-e277-4298-a3b5-28508f7412b9","system_id":"levelo_inurba_marseille","lat":43.28091,"lon":5.37873,"is_reserved":false,"is_disabled":false,"rental_uris":{"android":"levelo://app?vid=9f7fd2f9-e277-4298-a3b5-28508f7412b9","ios":"levelo://app?vid=9f7fd2f9-e277-4298-a3b5-28508f7412b9"},"vehicle_type_id":"4","last_reported":1757880586,"current_range_meters":17600,"station_id":"ce4bha12rcd13ifvqee0","pricing_plan_id":"cebpf4jnsgd1na2vs0mg"},{"bike_id":"8ff9053a-ee4c-4d32-97ee-95c3dc6b4b18","system_id":"levelo_inurba_marseille","lat":43.283558,"lon":5.386272,"is_reserved":false,"is_disabled":false,"rental_uris":{"android":"levelo://app?vid=8ff9053a-ee4c-4d32-97ee-95c3dc6b4b18","ios":"levelo://app?vid=8ff9053a-ee4c-4d32-97ee-95c3dc6b4b18"},"vehicle_type_id":"4","last_reported":1757880586,"current_range_meters":17600,"station_id":"ce4bh492rcd13ifvqdvg","pricing_plan_id":"cebpf4jnsgd1na2vs0mg"},{"bike_id":"41de12a2-5382-4da2-9751-1300a8df4dc1","system_id":"levelo_inurba_marseille","lat":43.22559,"lon":5.41636,"is_reserved":false,"is_disabled":false,"rental_uris":{"android":"levelo://app?vid=41de12a2-5382-4da2-9751-1300a8df4dc1","ios":"levelo://app?vid=41de12a2-5382-4da2-9751-1300a8df4dc1"},"vehicle_type_id":"4","last_reported":1757880586,"current_range_meters":17600,"station_id":"st_d2o4gvlbi1j2169b742g","pricing_plan_id":"cebpf4jnsgd1na2vs0mg"},{"bike_id":"6e736c6d-1c05-4fb0-a5e0-4de5b315d013","system_id":"levelo_inurba_marseille","lat":43.28449,"lon":5.35908,"is_reserved":false,"is_disabled":false,"rental_uris":{"android":"levelo://app?vid=6e736c6d-1c05-4fb0-a5e0-4de5b315d013","ios":"levelo://app?vid=6e736c6d-1c05-4fb0-a5e0-4de5b315d013"},"vehicle_type_id":"4","last_reported":1757880586,"current_range_meters":17600,"station_id":"ce4bhah2rcd13ifvqei0","pricing_plan_id":"cebpf4jnsgd1na2vs0mg"},{"bike_id":"8e170f66-2b1a-4a5b-8568-a742133e6deb","system_id":"levelo_inurba_marseille","lat":43.30621,"lon":5.40059,"is_reserved":false,"is_disabled":false,"rental_uris":{"android":"levelo://app?vid=8e170f66-2b1a-4a5b-8568-a742133e6deb","ios":"levelo://app?vid=8e170f66-2b1a-4a5b-8568-a742133e6deb"},"vehicle_type_id":"4","last_reported":1757880586,"current_range_meters":18000,"station_id":"ce4bh112rcd13ifvqda0","pricing_plan_id":"cebpf4jnsgd1na2vs0mg"},{"bike_id":"a0d705d0-6074-481d-9ac9-1991d7f24d8d","system_id":"levelo_inurba_marseille","lat":43.31506,"lon":5.37312,"is_reserved":false,"is_disabled":true,"rental_uris":{"android":"levelo://app?vid=a0d705d0-6074-481d-9ac9-1991d7f24d8d","ios":"levelo://app?vid=a0d705d0-6074-481d-9ac9-1991d7f24d8d"},"vehicle_type_id":"4","last_reported":1757880586,"current_range_meters":18000,"station_id":"ce4bgt12rcd13ifvqcd0","pricing_plan_id":"cebpf4jnsgd1na2vs0mg"},{"bike_id":"d144a3e3-5b04-428a-9996-e8549547b230","system_id":"levelo_inurba_marseille","lat":43.29435,"lon":5.39758,"is_reserved":false,"is_disabled":false,"rental_uris":{"android":"levelo://app?vid=d144a3e3-5b04-428a-9996-e8549547b230","ios":"levelo://app?vid=d144a3e3-5b04-428a-9996-e8549547b230"},"vehicle_type_id":"4","last_reported":1757880586,"current_range_meters":18000,"station_id":"ce4bh3h2rcd13ifvqdo0","pricing_plan_id":"cebpf4jnsgd1na2vs0mg"},{"bike_id":"d433f65c-48c2-4aa1-b7a0-61a992e3054a","system_id":"levelo_inurba_marseille","lat":43.29184,"lon":5.39308,"is_reserved":false,"is_disabled":true,"rental_uris":{"android":"levelo://app?vid=d433f65c-48c2-4aa1-b7a0-61a992e3054a","ios":"levelo://app?vid=d433f65c-48c2-4aa1-b7a0-61a992e3054a"},"vehicle_type_id":"4","last_reported":1757880586,"current_range_meters":18000,"station_id":"ce4bh192rcd13ifvqdd0","pricing_plan_id":"cebpf4jnsgd1na2vs0mg"},{"bike_id":"b7dcc8e0-3c4d-43c6-b52d-b9be14b0a639","system_id":"levelo_inurba_marseille","lat":43.29103,"lon":5.38171,"is_reserved":false,"is_disabled":false,"rental_uris":{"android":"levelo://app?vid=b7dcc8e0-3c4d-43c6-b52d-b9be14b0a639","ios":"levelo://app?vid=b7dcc8e0-3c4d-43c6-b52d-b9be14b0a639"},"vehicle_type_id":"4","last_reported":1757880586,"current_range_meters":17600,"station_id":"ce4bh512rcd13ifvqe2g","pricing_plan_id":"cebpf4jnsgd1na2vs0mg"},{"bike_id":"e1cfd1a9-7e68-4366-9217-b71f2ed366c1","system_id":"levelo_inurba_marseille","lat":43.2494,"lon":5.40504,"is_reserved":false,"is_disabled":false,"rental_uris":{"android":"levelo://app?vid=e1cfd1a9-7e68-4366-9217-b71f2ed366c1","ios":"levelo://app?vid=e1cfd1a9-7e68-4366-9217-b71f2ed366c1"},"vehicle_type_id":"4","last_reported":1757880586,"current_range_meters":18000,"station_id":"st_d2ngiaodas8pm72gd1h0","pricing_plan_id":"cebpf4jnsgd1na2vs0mg"},{"bike_id":"4826cbd9-df74-4636-ae1c-69ee49e74125","system_id":"levelo_inurba_marseille","lat":43.29041,"lon":5.39946,"is_reserved":false,"is_disabled":false,"rental_uris":{"android":"levelo://app?vid=4826cbd9-df74-4636-ae1c-69ee49e74125","ios":"levelo://app?vid=4826cbd9-df74-4636-ae1c-69ee49e74125"},"vehicle_type_id":"4","last_reported":1757880586,"current_range_meters":18000,"station_id":"ce4bh392rcd13ifvqdm0","pricing_plan_id":"cebpf4jnsgd1na2vs0mg"},{"bike_id":"3c42427d-7d0e-49d8-8a02-1e7cd476347b","system_id":"levelo_inurba_marseille","lat":43.28682,"lon":5.38655,"is_reserved":false,"is_disabled":false,"rental_uris":{"android":"levelo://app?vid=3c42427d-7d0e-49d8-8a02-1e7cd476347b","ios":"levelo://app?vid=3c42427d-7d0e-49d8-8a02-1e7cd476347b"},"vehicle_type_id":"4","last_reported":1757880586,"current_range_meters":18000,"station_id":"ce4bh492rcd13ifvqdug","pricing_plan_id":"cebpf4jnsgd1na2vs0mg"},{"bike_id":"10aee154-fc62-488b-ae63-5c545be34e9c","system_id":"levelo_inurba_marseille","lat":43.29199,"lon":5.393182,"is_reserved":false,"is_disabled":false,"rental_uris":{"android":"levelo://app?vid=10aee154-fc62-488b-ae63-5c545be34e9c","ios":"levelo://app?vid=10aee154-fc62-488b-ae63-5c545be34e9c"},"vehicle_type_id":"4","last_reported":1757880586,"current_range_meters":18800,"station_id":"ce4bh192rcd13ifvqdd0","pricing_plan_id":"cebpf4jnsgd1na2vs0mg"},{"bike_id":"c0e656b8-c7c1-4c02-9b4b-cfa4eb6bd121","system_id":"levelo_inurba_marseille","lat":43.23962,"lon":5.36622,"is_reserved":false,"is_disabled":false,"rental_uris":{"android":"levelo://app?vid=c0e656b8-c7c1-4c02-9b4b-cfa4eb6bd121","ios":"levelo://app?vid=c0e656b8-c7c1-4c02-9b4b-cfa4eb6bd121"},