{"last_updated":1701328004,"ttl":30,"version":"2.2","data":{"bikes":[{"bike_id":"0f541c23-7577-4ad0-8e90-c9b79b156f9b","system_id":"levelo_inurba_marseille","lat":43.313391,"lon":5.36706,"is_reserved":false,"is_disabled":false,"rental_uris":{"android":"levelo://app?vid=0f541c23-7577-4ad0-8e90-c9b79b156f9b","ios":"levelo://app?vid=0f541c23-7577-4ad0-8e90-c9b79b156f9b"},"vehicle_type_id":"4","last_reported":1701328004,"current_range_meters":24000,"station_id":"ce4bgr92rcd13ifvqc6g","pricing_plan_id":"free"},{"bike_id":"de6fc00f-35ef-4ecc-ac8f-233d13501e24","system_id":"levelo_inurba_marseille","lat":43.313391,"lon":5.36706,"is_reserved":false,"is_disabled":false,"rental_uris":{"android":"levelo://app?vid=de6fc00f-35ef-4ecc-ac8f-233d13501e24","ios":"levelo://app?vid=de6fc00f-35ef-4ecc-ac8f-233d13501e24"},"vehicle_type_id":"4","last_reported":1701328004,"current_range_meters":30400,"station_id":"ce4bgr92rcd13ifvqc6g","pricing_plan_id":"free"},{"bike_id":"d647e152-1033-4d6c-a8b6-f0456676aa1a","system_id":"levelo_inurba_marseille","lat":43.309076,"lon":5.368465,"is_reserved":false,"is_disabled":false,"rental_uris":{"android":"levelo://app?vid=d647e152-1033-4d6c-a8b6-f0456676aa1a","ios":"levelo://app?vid=d647e152-1033-4d6c-a8b6-f0456676aa1a"},"vehicle_type_id":"4","last_reported":1701328004,"current_range_meters":21600,"station_id":"ce4bgn92rcd13ifvqbvg","pricing_plan_id":"free"},{"bike_id":"f54eedfd-603c-42cf-b084-d047335ff135","system_id":"levelo_inurba_marseille","lat":43.309076,"lon":5.368465,"is_reserved":false,"is_disabled":false,"rental_uris":{"android":"levelo://app?vid=f54eedfd-603c-42cf-b084-d047335ff135","ios":"levelo://app?vid=f54eedfd-603c-42cf-b084-d047335ff135"},"vehicle_type_id":"4","last_reported":1701328004,"current_range_meters":30800,"station_id":"ce4bgn92rcd13ifvqbvg","pricing_plan_id":"free"},{"bike_id":"5ccc757b-55ba-497f-8a04-9995def58564","system_id":"levelo_inurba_marseille","lat":43.309076,"lon":5.368465,"is_reserved":false,"is_disabled":false,"rental_uris":{"android":"levelo://app?vid=5ccc757b-55ba-497f-8a04-9995def58564","ios":"levelo://app?vid=5ccc757b-55ba-497f-8a04-9995def58564"},"vehicle_type_id":"4","last_reported":1701328004,"current_range_meters":22000,"station_id":"ce4bgn92rcd13ifvqbvg","pricing_plan_id":"free"},{"bike_id":"67da3b1b-73ab-4891-8c6d-be55db134bd7","system_id":"levelo_inurba_marseille","lat":43.309076,"lon":5.368465,"is_reserved":false,"is_disabled":false,"rental_uris":{"android":"levelo://app?vid=67da3b1b-73ab-4891-8c6d-be55db134bd7","ios":"levelo://app?vid=67da3b1b-73ab-4891-8c6d-be55db134bd7"},"vehicle_type_id":"4","last_reported":1701328004,"current_range_meters":24800,"station_id":"ce4bgn92rcd13ifvqbvg","pricing_plan_id":"free"},{"bike_id":"e0ed4152-83c6-48a0-8da6-adae3254e07e","system_id":"levelo_inurba_marseille","lat":43.309076,"lon":5.368465,"is_reserved":false,"is_disabled":false,"rental_uris":{"android":"levelo://app?vid=e0ed4152-83c6-48a0-8da6-adae3254e07e","ios":"levelo://app?vid=e0ed4152-83c6-48a0-8da6-adae3254e07e"},"vehicle_type_id":"4","last_reported":1701328004,"current_range_meters":30400,"station_id":"ce4bgn92rcd13ifvqbvg","pricing_plan_id":"free"},{"bike_id":"69907837-c36c-4c49-b90d-f2943933288a","system_id":"levelo_inurba_marseille","lat":43.309076,"lon":5.368465,"is_reserved":false,"is_disabled":false,"rental_uris":{"android":"levelo://app?vid=69907837-c36c-4c49-b90d-f2943933288a","ios":"levelo://app?vid=69907837-c36c-4c49-b90d-f2943933288a"},"vehicle_type_id":"4","last_reported":1701328004,"current_range_meters":31600,"station_id":"ce4bgn92rcd13ifvqbvg","pricing_plan_id":"free"},{"bike_id":"1e969908-02cc-4239-a406-be8b96ae7498","system_id":"levelo_inurba_marseille","lat":43.309076,"lon":5.368465,"is_reserved":false,"is_disabled":false,"rental_uris":{"android":"levelo://app?vid=1e969908-02cc-4239-a406-be8b96ae7498","ios":"levelo://app?vid=1e969908-02cc-4239-a406-be8b96ae7498"},"vehicle_type_id":"4","last_reported":1701328004,"current_range_meters":21600,"station_id":"ce4bgn92rcd13ifvqbvg","pricing_plan_id":"free"},{"bike_id":"c7c48787-3d7e-43b9-b81f-84fb064e67f4","system_id":"levelo_inurba_marseille","lat":43.305465,"lon":5.367017,"is_reserved":false,"is_disabled":false,"rental_uris":{"android":"levelo://app?vid=c7c48787-3d7e-43b9-b81f-84fb064e67f4","ios":"levelo://app?vid=c7c48787-3d7e-43b9-b81f-84fb064e67f4"},"vehicle_type_id":"4","last_reported":1701328004,"current_range_meters":27200,"station_id":"ce4bgrp2rcd13ifvqc9g","pricing_plan_id":"free"},{"bike_id":"4018703d-6392-4991-a38b-9aa527259db0","system_id":"levelo_inurba_marseille","lat":43.305462,"lon":5.367096,"is_reserved":false,"is_disabled":false,"rental_uris":{"android":"levelo://app?vid=4018703d-6392-4991-a38b-9aa527259db0","ios":"levelo://app?vid=4018703d-6392-4991-a38b-9aa527259db0"},"vehicle_type_id":"4","last_reported":1701328004,"current_range_meters":28400,"station_id":"ce4bgrp2rcd13ifvqc9g","pricing_plan_id":"free"},{"bike_id":"c26c883e-256f-4721-a6ed-b6b2646ceba3","system_id":"levelo_inurba_marseille","lat":43.30545,"lon":5.367068,"is_reserved":false,"is_disabled":false,"rental_uris":{"android":"levelo://app?vid=c26c883e-256f-4721-a6ed-b6b2646ceba3","ios":"levelo://app?vid=c26c883e-256f-4721-a6ed-b6b2646ceba3"},"vehicle_type_id":"4","last_reported":1701328004,"current_range_meters":26000,"station_id":"ce4bgrp2rcd13ifvqc9g","pricing_plan_id":"free"},{"bike_id":"25a7966d-18b8-4331-a19c-926a59620a84","system_id":"levelo_inurba_marseille","lat":43.305368,"lon":5.367343,"is_reserved":false,"is_disabled":false,"rental_uris":{"android":"levelo://app?vid=25a7966d-18b8-4331-a19c-926a59620a84","ios":"levelo://app?vid=25a7966d-18b8-4331-a19c-926a59620a84"},"vehicle_type_id":"4","last_reported":1701328004,"current_range_meters":24000,"station_id":"ce4bgrp2rcd13ifvqc9g","pricing_plan_id":"free"},{"bike_id":"26b59c2e-5b06-4966-abe5-0c4de09fd476","system_id":"levelo_inurba_marseille","lat":43.30537,"lon":5.36723,"is_reserved":false,"is_disabled":false,"rental_uris":{"android":"levelo://app?vid=26b59c2e-5b06-4966-abe5-0c4de09fd476","ios":"levelo://app?vid=26b59c2e-5b06-4966-abe5-0c4de09fd476"},"vehicle_type_id":"4","last_reported":1701328004,"current_range_meters":0,"station_id":"ce4bgrp2rcd13ifvqc9g","pricing_plan_id":"free"},{"bike_id":"f8fabd24-8415-412c-bbf8-869ed52a9e9d","system_id":"levelo_inurba_marseille","lat":43.305706,"lon":5.365654,"is_reserved":false,"is_disabled":false,"rental_uris":{"android":"levelo://app?vid=f8fabd24-8415-412c-bbf8-869ed52a9e9d","ios":"levelo://app?vid=f8fabd24-8415-412c-bbf8-869ed52a9e9d"},"vehicle_type_id":"4","last_reported":1701328004,"current_range_meters":26400,"station_id":"ce4bgs12rcd13ifvqcag","pricing_plan_id":"free"},{"bike_id":"d85a16b5-acfb-4b00-ae52-f5b6dd90856a","system_id":"levelo_inurba_marseille","lat":43.30525,"lon":5.36715,"is_reserved":false,"is_disabled":false,"rental_uris":{"android":"levelo://app?vid=d85a16b5-acfb-4b00-ae52-f5b6dd90856a","ios":"levelo://app?vid=d85a16b5-acfb-4b00-ae52-f5b6dd90856a"},"vehicle_type_id":"4","last_reported":1701328004,"current_range_meters":22000,"station_id":"ce4bgrp2rcd13ifvqc9g","pricing_plan_id":"free"},{"bike_id":"df66779a-7a98-43a0-a906-040d9076a654","system_id":"levelo_inurba_marseille","lat":43.30519,"lon":5.36716,"is_reserved":false,"is_disabled":false,"rental_uris":{"android":"levelo://app?vid=df66779a-7a98-43a0-a906-040d9076a654","ios":"levelo://app?vid=df66779a-7a98-43a0-a906-040d9076a654"},"vehicle_type_id":"4","last_reported":1701328004,"current_range_meters":22400,"station_id":"ce4bgrp2rcd13ifvqc9g","pricing_plan_id":"free"},{"bike_id":"8ddbe663-31ab-400f-a2b2-be13cebcedc4","system_id":"levelo_inurba_marseille","lat":43.305706,"lon":5.365654,"is_reserved":false,"is_disabled":false,"rental_uris":{"android":"levelo://app?vid=8ddbe663-31ab-400f-a2b2-be13cebcedc4","ios":"levelo://app?vid=8ddbe663-31ab-400f-a2b2-be13cebcedc4"},"vehicle_type_id":"4","last_reported":1701328004,"current_range_meters":31200,"station_id":"ce4bgs12rcd13ifvqcag","pricing_plan_id":"free"},{"bike_id":"f427a2c3-6e4a-446b-ae2f-9be8aa7f4122","system_id":"levelo_inurba_marseille","lat":43.31719,"lon":5.376813,"is_reserved":false,"is_disabled":false,"rental_uris":{"android":"levelo://app?vid=f427a2c3-6e4a-446b-ae2f-9be8aa7f4122","ios":"levelo://app?vid=f427a2c3-6e4a-446b-ae2f-9be8aa7f4122"},"vehicle_type_id":"4","last_reported":1701328004,"current_range_meters":6800,"station_id":"ce4bgth2rcd13ifvqch0","pricing_plan_id":"free"},{"bike_id":"e913f328-1e31-4c22-bd87-f809ea246de4","system_id":"levelo_inurba_marseille","lat":43.317168,"lon":5.376883,"is_reserved":false,"is_disabled":false,"rental_uris":{"android":"levelo://app?vid=e913f328-1e31-4c22-bd87-f809ea246de4","ios":"levelo://app?vid=e913f328-1e31-4c22-bd87-f809ea246de4"},"vehicle_type_id":"4","last_reported":1701328004,"current_range_meters":8800,"station_id":"ce4bgth2rcd13ifvqch0","pricing_plan_id":"free"},{"bike_id":"b672c96f-58e6-4971-9ff0-8597eb8e9328","system_id":"levelo_inurba_marseille","lat":43.317075,"lon":5.377367,"is_reserved":false,"is_disabled":false,"rental_uris":{"android":"levelo://app?vid=b672c96f-58e6-4971-9ff0-8597eb8e9328","ios":"levelo://app?vid=b672c96f-58e6-4971-9ff0-8597eb8e9328"},"vehicle_type_id":"4","last_reported":1701328004,"current_range_meters":27600,"station_id":"ce4bgth2rcd13ifvqch0","pricing_plan_id":"free"},{"bike_id":"641e8679-9960-4bc9-bcd9-96303ccac9ad","system_id":"levelo_inurba_marseille","lat":43.301939,"lon":5.366286,"is_reserved":false,"is_disabled":false,"rental_uris":{"android":"levelo://app?vid=641e8679-9960-4bc9-bcd9-96303ccac9ad","ios":"levelo://app?vid=641e8679-9960-4bc9-bcd9-96303ccac9ad"},"vehicle_type_id":"4","last_reported":1701328004,"current_range_meters":28000,"station_id":"ce4bgrh2rcd13ifvqc8g","pricing_plan_id":"free"},{"bike_id":"6639ae4d-4269-4b5b-9426-c9e56d79bc2b","system_id":"levelo_inurba_marseille","lat":43.304606,"lon":5.379026,"is_reserved":false,"is_disabled":false,"rental_uris":{"android":"levelo://app?vid=6639ae4d-4269-4b5b-9426-c9e56d79bc2b","ios":"levelo://app?vid=6639ae4d-4269-4b5b-9426-c9e56d79bc2b"},"vehicle_type_id":"4","last_reported":1701328004,"current_range_meters":14400,"station_id":"ce4bgup2rcd13ifvqcn0","pricing_plan_id":"free"},{"bike_id":"52b240cd-859f-4d08-aeac-1bc539eec2de","system_id":"levelo_inurba_marseille","lat":43.304606,"lon":5.379026,"is_reserved":false,"is_disabled":false,"rental_uris":{"android":"levelo://app?vid=52b240cd-859f-4d08-aeac-1bc539eec2de","ios":"levelo://app?vid=52b240cd-859f-4d08-aeac-1bc539eec2de"},"vehicle_type_id":"4","last_reported":1701328004,"current_range_meters":17600,"station_id":"ce4bgup2rcd13ifvqcn0","pricing_plan_id":"free"},{"bike_id":"9d78a0ed-a195-4886-84c1-25b23a412a40","system_id":"levelo_inurba_marseille","lat":43.304606,"lon":5.379026,"is_reserved":false,"is_disabled":false,"rental_uris":{"android":"levelo://app?vid=9d78a0ed-a195-4886-84c1-25b23a412a40","ios":"levelo://app?vid=9d78a0ed-a195-4886-84c1-25b23a412a40"},"vehicle_type_id":"4","last_reported":1701328004,"current_range_meters":4000,"station_id":"ce4bgup2rcd13ifvqcn0","pricing_plan_id":"free"},{"bike_id":"d371d2ae-ba63-4f15-a9a4-faaff7173407","system_id":"levelo_inurba_marseille","lat":43.304606,"lon":5.379026,"is_reserved":false,"is_disabled":false,"rental_uris":{"android":"levelo://app?vid=d371d2ae-ba63-4f15-a9a4-faaff7173407","ios":"levelo://app?vid=d371d2ae-ba63-4f15-a9a4-faaff7173407"},"vehicle_type_id":"4","last_reported":1701328004,"current_range_meters":31200,"station_id":"ce4bgup2rcd13ifvqcn0","pricing_plan_id":"free"},{"bike_id":"e8308f7f-e8ce-4c3a-8226-369ec33f1aba","system_id":"levelo_inurba_marseille","lat":43.304606,"lon":5.379026,"is_reserved":false,"is_disabled":false,"rental_uris":{"android":"levelo://app?vid=e8308f7f-e8ce-4c3a-8226-369ec33f1aba","ios":"levelo://app?vid=e8308f7f-e8ce-4c3a-8226-369ec33f1aba"},"vehicle_type_id":"4","last_reported":1701328004,"current_range_meters":17200,"station_id":"ce4bgup2rcd13ifvqcn0","pricing_plan_id":"free"},{"bike_id":"50693e4f-487a-4df5-908c-dfa8afc087d0","system_id":"levelo_inurba_marseille","lat":43.304606,"lon":5.379026,"is_reserved":false,"is_disabled":false,"rental_uris":{"android":"levelo://app?vid=50693e4f-487a-4df5-908c-dfa8afc087d0","ios":"levelo://app?vid=50693e4f-487a-4df5-908c-dfa8afc087d0"},"vehicle_type_id":"4","last_reported":1701328004,"current_range_meters":26800,"station_id":"ce4bgup2rcd13ifvqcn0","pricing_plan_id":"free"},{"bike_id":"50b40bb0-0f88-41df-8c25-d5574bd4cc82","system_id":"levelo_inurba_marseille","lat":43.304606,"lon":5.379026,"is_reserved":false,"is_disabled":false,"rental_uris":{"android":"levelo://app?vid=50b40bb0-0f88-41df-8c25-d5574bd4cc82","ios":"levelo://app?vid=50b40bb0-0f88-41df-8c25-d5574bd4cc82"},"vehicle_type_id":"4","last_reported":1701328004,"current_range_meters":31200,"station_id":"ce4bgup2rcd13ifvqcn0","pricing_plan_id":"free"},{"bike_id":"989a5556-65f8-45ec-ae76-28489a736b33","system_id":"levelo_inurba_marseille","lat":43.304606,"lon":5.379026,"is_reserved":false,"is_disabled":false,"rental_uris":{"android":"levelo://app?vid=989a5556-65f8-45ec-ae76-28489a736b33","ios":"levelo://app?vid=989a5556-65f8-45ec-ae76-28489a736b33"},"vehicle_type_id":"4","last_reported":1701328004,"current_range_meters":17200,"station_id":"ce4bgup2rcd13ifvqcn0","pricing_plan_id":"free"},{"bike_id":"792690f7-442f-46a5-8707-76a11ef9215a","system_id":"levelo_inurba_marseille","lat":43.304606,"lon":5.379026,"is_reserved":false,"is_disabled":false,"rental_uris":{"android":"levelo://app?vid=792690f7-442f-46a5-8707-76a11ef9215a","ios":"levelo://app?vid=792690f7-442f-46a5-8707-76a11ef9215a"},"vehicle_type_id":"4","last_reported":1701328004,"current_range_meters":22800,"station_id":"ce4bgup2rcd13ifvqcn0","pricing_plan_id":"free"},{"bike_id":"7698e9c3-cba2-4208-95d6-52b07709b8a8","system_id":"levelo_inurba_marseille","lat":43.324771,"lon":5.36557,"is_reserved":false,"is_disabled":false,"rental_uris":{"android":"levelo://app?vid=7698e9c3-cba2-4208-95d6-52b07709b8a8","ios":"levelo://app?vid=7698e9c3-cba2-4208-95d6-52b07709b8a8"},"vehicle_type_id":"4","last_reported":1701328004,"current_range_meters":17200,"station_id":"ce4bhs12rcd13ifvqhvg","pricing_plan_id":"free"},{"bike_id":"5f0dcc7e-fe2f-41ae-b9b7-07b5430b86ee","system_id":"levelo_inurba_marseille","lat":43.324763,"lon":5.365605,"is_reserved":false,"is_disabled":false,"rental_uris":{"android":"levelo://app?vid=5f0dcc7e-fe2f-41ae-b9b7-07b5430b86ee","ios":"levelo://app?vid=5f0dcc7e-fe2f-41ae-b9b7-07b5430b86ee"},"vehicle_type_id":"4","last_reported":1701328004,"current_range_meters":15600,"station_id":"ce4bhs12rcd13ifvqhvg","pricing_plan_id":"free"},{"bike_id":"67e25596-7f2d-4561-8607-41da5077935c","system_id":"levelo_inurba_marseille","lat":43.304606,"lon":5.379026,"is_reserved":false,"is_disabled":false,"rental_uris":{"android":"levelo://app?vid=67e25596-7f2d-4561-8607-41da5077935c","ios":"levelo://app?vid=67e25596-7f2d-4561-8607-41da5077935c"},"vehicle_type_id":"4","last_reported":1701328004,"current_range_meters":26400,"station_id":"ce4bgup2rcd13ifvqcn0","pricing_plan_id":"free"},{"bike_id":"ee5ec98d-f950-4624-a5ef-e0005a4bf5ac","system_id":"levelo_inurba_marseille","lat":43.30141,"lon":5.37409,"is_reserved":false,"is_disabled":false,"rental_uris":{"android":"levelo://app?vid=ee5ec98d-f950-4624-a5ef-e0005a4bf5ac","ios":"levelo://app?vid=ee5ec98d-f950-4624-a5ef-e0005a4bf5ac"},"vehicle_type_id":"4","last_reported":1701328004,"current_range_meters":17200,"station_id":"ce4bgs92rcd13ifvqcc0","pricing_plan_id":"free"},{"bike_id":"49393165-7c5d-4763-8d38-57576d52bf4e","system_id":"levelo_inurba_marseille","lat":43.302784,"lon":5.377158,"is_reserved":false,"is_disabled":false,"rental_uris":{"android":"levelo://app?vid=49393165-7c5d-4763-8d38-57576d52bf4e","ios":"levelo://app?vid=49393165-7c5d-4763-8d38-57576d52bf4e"},"vehicle_type_id":"4","last_reported":1701328004,"current_range_meters":7200,"station_id":"ce4bguh2rcd13ifvqcj0","pricing_plan_id":"free"},{"bike_id":"3e01df68-27f0-42b4-ac09-2ec4a13acda6","system_id":"levelo_inurba_marseille","lat":43.319965,"lon":5.381519,"is_reserved":false,"is_disabled":false,"rental_uris":{"android":"levelo://app?vid=3e01df68-27f0-42b4-ac09-2ec4a13acda6","ios":"levelo://app?vid=3e01df68-27f0-42b4-ac09-2ec4a13acda6"},"vehicle_type_id":"4","last_reported":1701328004,"current_range_meters":8800,"station_id":"ce4bhr12rcd13ifvqhpg","pricing_plan_id":"free"},{"bike_id":"2275aca5-3158-4c2c-8022-ca5d2714bc86","system_id":"levelo_inurba_marseille","lat":43.319997,"lon":5.381594,"is_reserved":false,"is_disabled":false,"rental_uris":{"android":"levelo://app?vid=2275aca5-3158-4c2c-8022-ca5d2714bc86","ios":"levelo://app?vid=2275aca5-3158-4c2c-8022-ca5d2714bc86"},"vehicle_type_id":"4","last_reported":1701328004,"current_range_meters":24000,"station_id":"ce4bhr12rcd13ifvqhpg","pricing_plan_id":"free"},{"bike_id":"a701b73d-3c23-40f8-915a-bc61bd35564e","system_id":"levelo_inurba_marseille","lat":43.313571,"lon":5.384829,"is_reserved":false,"is_disabled":false,"rental_uris":{"android":"levelo://app?vid=a701b73d-3c23-40f8-915a-bc61bd35564e","ios":"levelo://app?vid=a701b73d-3c23-40f8-915a-bc61bd35564e"},"vehicle_type_id":"4","last_reported":1701328004,"current_range_meters":14400,"station_id":"ce4bgt92rcd13ifvqcf0","pricing_plan_id":"free"},{"bike_id":"a0738d56-0bbf-4a8b-b3e2-e6717ff4c64f","system_id":"levelo_inurba_marseille","lat":43.29922,"lon":5.36545,"is_reserved":false,"is_disabled":false,"rental_uris":{"android":"levelo://app?vid=a0738d56-0bbf-4a8b-b3e2-e6717ff4c64f","ios":"levelo://app?vid=a0738d56-0bbf-4a8b-b3e2-e6717ff4c64f"},"vehicle_type_id":"4","last_reported":1701328004,"current_range_meters":22800,"station_id":"ce4bgm92rcd13ifvqbr0","pricing_plan_id":"free"},{"bike_id":"5c739bf8-bfa1-4b0e-94f4-ba6c49272f9d","system_id":"levelo_inurba_marseille","lat":43.305364,"lon":5.384119,"is_reserved":false,"is_disabled":false,"rental_uris":{"android":"levelo://app?vid=5c739bf8-bfa1-4b0e-94f4-ba6c49272f9d","ios":"levelo://app?vid=5c739bf8-bfa1-4b0e-94f4-ba6c49272f9d"},"vehicle_type_id":"4","last_reported":1701328004,"current_range_meters":28000,"station_id":"ce4bgg92rcd13ifvqb30","pricing_plan_id":"free"},{"bike_id":"573f3171-2cec-428b-a84d-7a0ffba7026d","system_id":"levelo_inurba_marseille","lat":43.305502,"lon":5.384266,"is_reserved":false,"is_disabled":false,"rental_uris":{"android":"levelo://app?vid=573f3171-2cec-428b-a84d-7a0ffba7026d","ios":"levelo://app?vid=573f3171-2cec-428b-a84d-7a0ffba7026d"},"vehicle_type_id":"4","last_reported":1701328004,"current_range_meters":29600,"station_id":"","pricing_plan_id":"free"},{"bike_id":"89ba0db7-01be-4076-b543-0fb57eaf773a","system_id":"levelo_inurba_marseille","lat":43.305456,"lon":5.384273,"is_reserved":false,"is_disabled":false,"rental_uris":{"android":"levelo://app?vid=89ba0db7-01be-4076-b543-0fb57eaf773a","ios":"levelo://app?vid=89ba0db7-01be-4076-b543-0fb57eaf773a"},"vehicle_type_id":"4","last_reported":1701328004,"current_range_meters":29200,"station_id":"ce4bgg92rcd13ifvqb30","pricing_plan_id":"free"},{"bike_id":"16e6443f-19f8-49b2-aa9e-a51aac55a40c","system_id":"levelo_inurba_marseille","lat":43.299243,"lon":5.37481,"is_reserved":false,"is_disabled":false,"rental_uris":{"android":"levelo://app?vid=16e6443f-19f8-49b2-aa9e-a51aac55a40c","ios":"levelo://app?vid=16e6443f-19f8-49b2-aa9e-a51aac55a40c"},"vehicle_type_id":"4","last_reported":1701328004,"current_range_meters":24800,"station_id":"ce4bgjh2rcd13ifvqbg0","pricing_plan_id":"free"},{"bike_id":"aebb5f1f-3a1e-4323-a4f0-ae83e0b78d14","system_id":"levelo_inurba_marseille","lat":43.327603,"lon":5.36705,"is_reserved":false,"is_disabled":false,"rental_uris":{"android":"levelo://app?vid=aebb5f1f-3a1e-4323-a4f0-ae83e0b78d14","ios":"levelo://app?vid=aebb5f1f-3a1e-4323-a4f0-ae83e0b78d14"},"vehicle_type_id":"4","last_reported":1701328004,"current_range_meters":25600,"station_id":"","pricing_plan_id":"free"},{"bike_id":"83402a6e-620e-45bb-ad59-8f1fb1471e51","system_id":"levelo_inurba_marseille","lat":43.309039,"lon":5.371797,"is_reserved":false,"is_disabled":false,"rental_uris":{"android":"levelo://app?vid=83402a6e-620e-45bb-ad59-8f1fb1471e51","ios":"levelo://app?vid=83402a6e-620e-45bb-ad59-8f1fb1471e51"},"vehicle_type_id":"4","last_reported":1701328004,"current_range_meters":25600,"station_id":"ce4bguh2rcd13ifvqckg","pricing_plan_id":"free"},{"bike_id":"b0326e4f-330e-4b8e-9951-d56b8105d8bc","system_id":"levelo_inurba_marseille","lat":43.322872,"lon":5.382756,"is_reserved":false,"is_disabled":false,"rental_uris":{"android":"levelo://app?vid=b0326e4f-330e-4b8e-9951-d56b8105d8bc","ios":"levelo://app?vid=b0326e4f-330e-4b8e-9951-d56b8105d8bc"},"vehicle_type_id":"4","last_reported":1701328004,"current_range_meters":26800,"station_id":"ce4bhr12rcd13ifvqhqg","pricing_plan_id":"free"},{"bike_id":"b1f1c99b-ffc0-4368-813e-ae4d547f1040","system_id":"levelo_inurba_marseille","lat":43.328067,"lon":5.366903,"is_reserved":false,"is_disabled":false,"rental_uris":{"android":"levelo://app?vid=b1f1c99b-ffc0-4368-813e-ae4d547f1040","ios":"levelo://app?vid=b1f1c99b-ffc0-4368-813e-ae4d547f1040"},"vehicle_type_id":"4","last_reported":1701328004,"current_range_meters":24800,"station_id":"ce4bhs92rcd13ifvqi0g","pricing_plan_id":"free"},{"bike_id":"80161041-4fde-43fb-92bd-e0888f9d143a","system_id":"levelo_inurba_marseille","lat":43.328371,"lon":5.366909,"is_reserved":false,"is_disabled":false,"rental_uris":{"android":"levelo://app?vid=80161041-4fde-43fb-92bd-e0888f9d143a","ios":"levelo://app?vid=80161041-4fde-43fb-92bd-e0888f9d143a"},"vehicle_type_id":"4","last_reported":1701328004,"current_range_meters":19200,"station_id":"ce4bhs92rcd13ifvqi0g","pricing_plan_id":"free"},{"bike_id":"1d9fae11-35ad-46fc-8f9d-876bf0b6de3e","system_id":"levelo_inurba_marseille","lat":43.2968,"lon":5.37291,"is_reserved":false,"is_disabled":false,"rental_uris":{"android":"levelo://app?vid=1d9fae11-35ad-46fc-8f9d-876bf0b6de3e","ios":"levelo://app?vid=1d9fae11-35ad-46fc-8f9d-876bf0b6de3e"},"vehicle_type_id":"4","last_reported":1701328004,"current_range_meters":11200,"station_id":"ce4bgk12rcd13ifvqbj0","pricing_plan_id":"free"},{"bike_id":"1e846073-94bd-493d-9cbc-4afff49bca73","system_id":"levelo_inurba_marseille","lat":43.299028,"lon":5.381509,"is_reserved":false,"is_disabled":false,"rental_uris":{"android":"levelo://app?vid=1e846073-94bd-493d-9cbc-4afff49bca73","ios":"levelo://app?vid=1e846073-94bd-493d-9cbc-4afff49bca73"},"vehicle_type_id":"4","last_reported":1701328004,"current_range_meters":17600,"station_id":"ce4bgj12rcd13ifvqbc0","pricing_plan_id":"free"},{"bike_id":"6b016fb6-a579-4bf7-85f0-29559f95c836","system_id":"levelo_inurba_marseille","lat":43.309589,"lon":5.390258,"is_reserved":false,"is_disabled":false,"rental_uris":{"android":"levelo://app?vid=6b016fb6-a579-4bf7-85f0-29559f95c836","ios":"levelo://app?vid=6b016fb6-a579-4bf7-85f0-29559f95c836"},"vehicle_type_id":"4","last_reported":1701328004,"current_range_meters":26400,"station_id":"ce4bgup2rcd13ifvqco0","pricing_plan_id":"free"},{"bike_id":"2c0e03ff-e1ae-4ae4-87f2-f2bcfff5bd31","system_id":"levelo_inurba_marseille","lat":43.298037,"lon":5.381066,"is_reserved":false,"is_disabled":false,"rental_uris":{"android":"levelo://app?vid=2c0e03ff-e1ae-4ae4-87f2-f2bcfff5bd31","ios":"levelo://app?vid=2c0e03ff-e1ae-4ae4-87f2-f2bcfff5bd31"},"vehicle_type_id":"4","last_reported":1701328004,"current_range_meters":21200,"station_id":"ce4bgip2rcd13ifvqbb0","pricing_plan_id":"free"},{"bike_id":"4dcb858d-9111-4af7-8bca-9b15cac0d6c5","system_id":"levelo_inurba_marseille","lat":43.298037,"lon":5.381066,"is_reserved":false,"is_disabled":false,"rental_uris":{"android":"levelo://app?vid=4dcb858d-9111-4af7-8bca-9b15cac0d6c5","ios":"levelo://app?vid=4dcb858d-9111-4af7-8bca-9b15cac0d6c5"},"vehicle_type_id":"4","last_reported":1701328004,"current_range_meters":11600,"station_id":"ce4bgip2rcd13ifvqbb0","pricing_plan_id":"free"},{"bike_id":"16b92119-362a-4acb-8664-c8c2c9e54cfa","system_id":"levelo_inurba_marseille","lat":43.304278,"lon":5.388868,"is_reserved":false,"is_disabled":false,"rental_uris":{"android":"levelo://app?vid=16b92119-362a-4acb-8664-c8c2c9e54cfa","ios":"levelo://app?vid=16b92119-362a-4acb-8664-c8c2c9e54cfa"},"vehicle_type_id":"4","last_reported":1701328004,"current_range_meters":26800,"station_id":"ce4bgk12rcd13ifvqbi0","pricing_plan_id":"free"},{"bike_id":"f91d4f46-ec1f-400f-9741-28fd199760de","system_id":"levelo_inurba_marseille","lat":43.295279,"lon":5.375048,"is_reserved":false,"is_disabled":false,"rental_uris":{"android":"levelo://app?vid=f91d4f46-ec1f-400f-9741-28fd199760de","ios":"levelo://app?vid=f91d4f46-ec1f-400f-9741-28fd199760de"},"vehicle_type_id":"4","last_reported":1701328004,"current_range_meters":8000,"station_id":"ce4bgkp2rcd13ifvqbmg","pricing_plan_id":"free"},{"bike_id":"95fa445b-a903-4b51-bf41-9561a9f3da93","system_id":"levelo_inurba_marseille","lat":43.29602,"lon":5.381084,"is_reserved":false,"is_disabled":false,"rental_uris":{"android":"levelo://app?vid=95fa445b-a903-4b51-bf41-9561a9f3da93","ios":"levelo://app?vid=95fa445b-a903-4b51-bf41-9561a9f3da93"},"vehicle_type_id":"4","last_reported":1701328004,"current_range_meters":26800,"station_id":"ce4bgl12rcd13ifvqbo0","pricing_plan_id":"free"},{"bike_id":"24181b92-ad62-459d-81e5-4f94db7b85de","system_id":"levelo_inurba_marseille","lat":43.305994,"lon":5.393687,"is_reserved":false,"is_disabled":false,"rental_uris":{"android":"levelo://app?vid=24181b92-ad62-459d-81e5-4f94db7b85de","ios":"levelo://app?vid=24181b92-ad62-459d-81e5-4f94db7b85de"},"vehicle_type_id":"4","last_reported":1701328004,"current_range_meters":26000,"station_id":"ce4bh0p2rcd13ifvqd80","pricing_plan_id":"free"},{"bike_id":"7e2086cd-d734-4b2c-a1e0-a6bd9448a494","system_id":"levelo_inurba_marseille","lat":43.305994,"lon":5.393687,"is_reserved":false,"is_disabled":false,"rental_uris":{"android":"levelo://app?vid=7e2086cd-d734-4b2c-a1e0-a6bd9448a494","ios":"levelo://app?vid=7e2086cd-d734-4b2c-a1e0-a6bd9448a494"},"vehicle_type_id":"4","last_reported":1701328004,"current_range_meters":24800,"station_id":"ce4bh0p2rcd13ifvqd80","pricing_plan_id":"free"},{"bike_id":"193b3ec9-503a-4390-8102-72178a2eaa3c","system_id":"levelo_inurba_marseille","lat":43.305994,"lon":5.393687,"is_reserved":false,"is_disabled":false,"rental_uris":{"android":"levelo://app?vid=193b3ec9-503a-4390-8102-72178a2eaa3c","ios":"levelo://app?vid=193b3ec9-503a-4390-8102-72178a2eaa3c"},"vehicle_type_id":"4","last_reported":1701328004,"current_range_meters":31200,"station_id":"ce4bh0p2rcd13ifvqd80","pricing_plan_id":"free"},{"bike_id":"910d33fb-a9f9-4ec3-8242-9489713a7fa3","system_id":"levelo_inurba_marseille","lat":43.302992,"lon":5.392136,"is_reserved":false,"is_disabled":false,"rental_uris":{"android":"levelo://app?vid=910d33fb-a9f9-4ec3-8242-9489713a7fa3","ios":"levelo://app?vid=910d33fb-a9f9-4ec3-8242-9489713a7fa3"},"vehicle_type_id":"4","last_reported":1701328004,"current_range_meters":20000,"station_id":"ce4bgkh2rcd13ifvqbk0","pricing_plan_id":"free"},{"bike_id":"b09c2edc-f27f-4ead-b7d7-c1ece57ab58d","system_id":"levelo_inurba_marseille","lat":43.292311,"lon":5.360731,"is_reserved":false,"is_disabled":false,"rental_uris":{"android":"levelo://app?vid=b09c2edc-f27f-4ead-b7d7-c1ece57ab58d","ios":"levelo://app?vid=b09c2edc-f27f-4ead-b7d7-c1ece57ab58d"},"vehicle_type_id":"4","last_reported":1701328004,"current_range_meters":0,"station_id":"ce4bhbh2rcd13ifvqeqg","pricing_plan_id":"free"},{"bike_id":"a8d9ab87-0f69-4539-b468-81bf0df397a1","system_id":"levelo_inurba_marseille","lat":43.29193,"lon":5.35808,"is_reserved":false,"is_disabled":false,"rental_uris":{"android":"levelo://app?vid=a8d9ab87-0f69-4539-b468-81bf0df397a1","ios":"levelo://app?vid=a8d9ab87-0f69-4539-b468-81bf0df397a1"},"vehicle_type_id":"4","last_reported":1701328004,"current_range_meters":22800,"station_id":"ce4bhb12rcd13ifvqel0","pricing_plan_id":"free"},{"bike_id":"f897ba12-239b-433c-83b2-f199dd43a135","system_id":"levelo_inurba_marseille","lat":43.302008,"lon":5.394694,"is_reserved":false,"is_disabled":false,"rental_uris":{"android":"levelo://app?vid=f897ba12-239b-433c-83b2-f199dd43a135","ios":"levelo://app?vid=f897ba12-239b-433c-83b2-f199dd43a135"},"vehicle_type_id":"4","last_reported":1701328004,"current_range_meters":31200,"station_id":"ce4bh0p2rcd13ifvqd70","pricing_plan_id":"free"},{"bike_id":"8ac94971-aaf2-492d-ac51-ecaca456e397","system_id":"levelo_inurba_marseille","lat":43.289184,"lon":5.366408,"is_reserved":false,"is_disabled":false,"rental_uris":{"android":"levelo://app?vid=8ac94971-aaf2-492d-ac51-ecaca456e397","ios":"levelo://app?vid=8ac94971-aaf2-492d-ac51-ecaca456e397"},"vehicle_type_id":"4","last_reported":1701328004,"current_range_meters":30400,"station_id":"ce4bhap2rcd13ifvqek0","pricing_plan_id":"free"},{"bike_id":"d4209970-bdb0-4044-aebb-85751088a024","system_id":"levelo_inurba_marseille","lat":43.28938,"lon":5.36415,"is_reserved":false,"is_disabled":false,"rental_uris":{"android":"levelo://app?vid=d4209970-bdb0-4044-aebb-85751088a024","ios":"levelo://app?vid=d4209970-bdb0-4044-aebb-85751088a024"},"vehicle_type_id":"4","last_reported":1701328004,"current_range_meters":19200,"station_id":"ce4bhc92rcd13ifvqetg","pricing_plan_id":"free"},{"bike_id":"2cc6c5f9-5262-42f6-9209-99b6b69d2b35","system_id":"levelo_inurba_marseille","lat":43.292644,"lon":5.384257,"is_reserved":false,"is_disabled":false,"rental_uris":{"android":"levelo://app?vid=2cc6c5f9-5262-42f6-9209-99b6b69d2b35","ios":"levelo://app?vid=2cc6c5f9-5262-42f6-9209-99b6b69d2b35"},"vehicle_type_id":"4","last_reported":1701328004,"current_range_meters":25600,"station_id":"ce4bh692rcd13ifvqea0","pricing_plan_id":"free"},{"bike_id":"b5bcb23f-16bd-45a5-9f78-5327dda772d5","system_id":"levelo_inurba_marseille","lat":43.290995,"lon":5.381361,"is_reserved":false,"is_disabled":false,"rental_uris":{"android":"levelo://app?vid=b5bcb23f-16bd-45a5-9f78-5327dda772d5","ios":"levelo://app?vid=b5bcb23f-16bd-45a5-9f78-5327dda772d5"},"vehicle_type_id":"4","last_reported":1701328004,"current_range_meters":29200,"station_id":"ce4bh512rcd13ifvqe2g","pricing_plan_id":"free"},{"bike_id":"9ce21be5-bbc3-412b-9a52-911aa37f6d99","system_id":"levelo_inurba_marseille","lat":43.290995,"lon":5.381361,"is_reserved":false,"is_disabled":false,"rental_uris":{"android":"levelo://app?vid=9ce21be5-bbc3-412b-9a52-911aa37f6d99","ios":"levelo://app?vid=9ce21be5-bbc3-412b-9a52-911aa37f6d99"},"vehicle_type_id":"4","last_reported":1701328004,"current_range_meters":27200,"station_id":"ce4bh512rcd13ifvqe2g","pricing_plan_id":"free"},{"bike_id":"ab79ef21-c912-428d-b4e1-f9b2b704384b","system_id":"levelo_inurba_marseille","lat":43.295169,"lon":5.390426,"is_reserved":false,"is_disabled":false,"rental_uris":{"android":"levelo://app?vid=ab79ef21-c912-428d-b4e1-f9b2b704384b","ios":"levelo://app?vid=ab79ef21-c912-428d-b4e1-f9b2b704384b"},"vehicle_type_id":"4","last_reported":1701328004,"current_range_meters":17600,"station_id":"ce4bh3p2rcd13ifvqdp0","pricing_plan_id":"free"},{"bike_id":"5a66a71b-ca54-4870-9e51-c28a19937f0c","system_id":"levelo_inurba_marseille","lat":43.28856,"lon":5.358371,"is_reserved":false,"is_disabled":false,"rental_uris":{"android":"levelo://app?vid=5a66a71b-ca54-4870-9e51-c28a19937f0c","ios":"levelo://app?vid=5a66a71b-ca54-4870-9e51-c28a19937f0c"},"vehicle_type_id":"4","last_reported":1701328004,"current_range_meters":29600,"station_id":"ce4bhb12rcd13ifvqem0","pricing_plan_id":"free"},{"bike_id":"8836ff8d-5b96-4054-8146-ac7d8b3830b5","system_id":"levelo_inurba_marseille","lat":43.28856,"lon":5.358371,"is_reserved":false,"is_disabled":false,"rental_uris":{"android":"levelo://app?vid=8836ff8d-5b96-4054-8146-ac7d8b3830b5","ios":"levelo://app?vid=8836ff8d-5b96-4054-8146-ac7d8b3830b5"},"vehicle_type_id":"4","last_reported":1701328004,"current_range_meters":27200,"station_id":"ce4bhb12rcd13ifvqem0","pricing_plan_id":"free"},{"bike_id":"8c347477-75ee-4a61-9fca-a99e7c3315fd","system_id":"levelo_inurba_marseille","lat":43.312609,"lon":5.401662,"is_reserved":false,"is_disabled":false,"rental_uris":{"android":"levelo://app?vid=8c347477-75ee-4a61-9fca-a99e7c3315fd","ios":"levelo://app?vid=8c347477-75ee-4a61-9fca-a99e7c3315fd"},"vehicle_type_id":"4","last_reported":1701328004,"current_range_meters":14400,"station_id":"ce4bh092rcd13ifvqd30","pricing_plan_id":"free"},{"bike_id":"e1f0eac7-7cc1-4b90-89f7-84c9d3398748","system_id":"levelo_inurba_marseille","lat":43.312804,"lon":5.401702,"is_reserved":false,"is_disabled":false,"rental_uris":{"android":"levelo://app?vid=e1f0eac7-7cc1-4b90-89f7-84c9d3398748","ios":"levelo://app?vid=e1f0eac7-7cc1-4b90-89f7-84c9d3398748"},"vehicle_type_id":"4","last_reported":1701328004,"current_range_meters":30800,"station_id":"ce4bh092rcd13ifvqd30","pricing_plan_id":"free"},{"bike_id":"3ed736de-4ff5-40f8-82ed-6682e0fe9097","system_id":"levelo_inurba_marseille","lat":43.31275,"lon":5.40175,"is_reserved":false,"is_disabled":false,"rental_uris":{"android":"levelo://app?vid=3ed736de-4ff5-40f8-82ed-6682e0fe9097","ios":"levelo://app?vid=3ed736de-4ff5-40f8-82ed-6682e0fe9097"},"vehicle_type_id":"4","last_reported":1701328004,"current_range_meters":30800,"station_id":"ce4bh092rcd13ifvqd30","pricing_plan_id":"free"},{"bike_id":"ecdbc40c-eb0d-41d0-a69f-ac5b430fc7de","system_id":"levelo_inurba_marseille","lat":43.309281,"lon":5.401461,"is_reserved":false,"is_disabled":false,"rental_uris":{"android":"levelo://app?vid=ecdbc40c-eb0d-41d0-a69f-ac5b430fc7de","ios":"levelo://app?vid=ecdbc40c-eb0d-41d0-a69f-ac5b430fc7de"},"vehicle_type_id":"4","last_reported":1701328004,"current_range_meters":30400,"station_id":"ce4bgvp2rcd13ifvqct0","pricing_plan_id":"free"},{"bike_id":"c1648df4-0061-4373-a7d3-47094b0a7720","system_id":"levelo_inurba_marseille","lat":43.30934,"lon":5.40154,"is_reserved":false,"is_disabled":false,"rental_uris":{"android":"levelo://app?vid=c1648df4-0061-4373-a7d3-47094b0a7720","ios":"levelo://app?vid=c1648df4-0061-4373-a7d3-47094b0a7720"},"vehicle_type_id":"4","last_reported":1701328004,"current_range_meters":22000,"station_id":"ce4bgvp2rcd13ifvqct0","pricing_plan_id":"free"},{"bike_id":"e2a0a17b-ac11-4673-8591-79812fec47ca","system_id":"levelo_inurba_marseille","lat":43.29036,"lon":5.38631,"is_reserved":false,"is_disabled":false,"rental_uris":{"android":"levelo://app?vid=e2a0a17b-ac11-4673-8591-79812fec47ca","ios":"levelo://app?vid=e2a0a17b-ac11-4673-8591-79812fec47ca"},"vehicle_type_id":"4","last_reported":1701328004,"current_range_meters":22800,"station_id":"ce4bh4p2rcd13ifvqe0g","pricing_plan_id":"free"},{"bike_id":"c8155f93-f075-4d6b-8a65-2ba46ee73eac","system_id":"levelo_inurba_marseille","lat":43.286039,"lon":5.370681,"is_reserved":false,"is_disabled":false,"rental_uris":{"android":"levelo://app?vid=c8155f93-f075-4d6b-8a65-2ba46ee73eac","ios":"levelo://app?vid=c8155f93-f075-4d6b-8a65-2ba46ee73eac"},"vehicle_type_id":"4","last_reported":1701328004,"current_range_meters":14400,"station_id":"ce4bht12rcd13ifvqi60","pricing_plan_id":"free"},{"bike_id":"05bae8f6-fbba-4bae-bbac-21fd76c4f3b4","system_id":"levelo_inurba_marseille","lat":43.31644,"lon":5.40439,"is_reserved":false,"is_disabled":false,"rental_uris":{"android":"levelo://app?vid=05bae8f6-fbba-4bae-bbac-21fd76c4f3b4","ios":"levelo://app?vid=05bae8f6-fbba-4bae-bbac-21fd76c4f3b4"},"vehicle_type_id":"4","last_reported":1701328004,"current_range_meters":30400,"station_id":"ce4bh012rcd13ifvqd00","pricing_plan_id":"free"},{"bike_id":"7bb029db-f924-4156-b0e3-8dd65455676d","system_id":"levelo_inurba_marseille","lat":43.29196,"lon":5.39321,"is_reserved":false,"is_disabled":false,"rental_uris":{"android":"levelo://app?vid=7bb029db-f924-4156-b0e3-8dd65455676d","ios":"levelo://app?vid=7bb029db-f924-4156-b0e3-8dd65455676d"},"vehicle_type_id":"4","last_reported":1701328004,"current_range_meters":0,"station_id":"ce4bh192rcd13ifvqdd0","pricing_plan_id":"free"},{"bike_id":"f9601311-7b5a-45ca-b201-3634bd08062d","system_id":"levelo_inurba_marseille","lat":43.286141,"lon":5.35095,"is_reserved":false,"is_disabled":false,"rental_uris":{"android":"levelo://app?vid=f9601311-7b5a-45ca-b201-3634bd08062d","ios":"levelo://app?vid=f9601311-7b5a-45ca-b201-3634bd08062d"},"vehicle_type_id":"4","last_reported":1701328004,"current_range_meters":18000,"station_id":"ce4bhch2rcd13ifvqeug","pricing_plan_id":"free"},{"bike_id":"2392c922-7f5f-4d5c-a8eb-574c0563c248","system_id":"levelo_inurba_marseille","lat":43.319179,"lon":5.407725,"is_reserved":false,"is_disabled":false,"rental_uris":{"android":"levelo://app?vid=2392c922-7f5f-4d5c-a8eb-574c0563c248","ios":"levelo://app?vid=2392c922-7f5f-4d5c-a8eb-574c0563c248"},"vehicle_type_id":"4","last_reported":1701328004,"current_range_meters":9200,"station_id":"ce4bhq12rcd13ifvqhig","pricing_plan_id":"free"},{"bike_id":"139d20b0-887e-4861-8fc7-21371d349bd4","system_id":"levelo_inurba_marseille","lat":43.319179,"lon":5.407725,"is_reserved":false,"is_disabled":false,"rental_uris":{"android":"levelo://app?vid=139d20b0-887e-4861-8fc7-21371d349bd4","ios":"levelo://app?vid=139d20b0-887e-4861-8fc7-21371d349bd4"},"vehicle_type_id":"4","last_reported":1701328004,"current_range_meters":0,"station_id":"ce4bhq12rcd13ifvqhig","pricing_plan_id":"free"},{"bike_id":"fbe2ee04-6883-40fc-8995-5278d4267842","system_id":"levelo_inurba_marseille","lat":43.284793,"lon":5.384119,"is_reserved":false,"is_disabled":false,"rental_uris":{"android":"levelo://app?vid=fbe2ee04-6883-40fc-8995-5278d4267842","ios":"levelo://app?vid=fbe2ee04-6883-40fc-8995-5278d4267842"},"vehicle_type_id":"4","last_reported":1701328004,"current_range_meters":28000,"station_id":"ce4bh512rcd13ifvqe3g","pricing_plan_id":"free"},{"bike_id":"9f750989-6a72-4dcb-91cf-da28f201d315","system_id":"levelo_inurba_marseille","lat":43.284793,"lon":5.384119,"is_reserved":false,"is_disabled":false,"rental_uris":{"android":"levelo://app?vid=9f750989-6a72-4dcb-91cf-da28f201d315","ios":"levelo://app?vid=9f750989-6a72-4dcb-91cf-da28f201d315"},"vehicle_type_id":"4","last_reported":1701328004,"current_range_meters":26400,"station_id":"ce4bh512rcd13ifvqe3g","pricing_plan_id":"free"},{"bike_id":"1abfd896-e4ae-47eb-be1e-89472eb5553a","system_id":"levelo_inurba_marseille","lat":43.284793,"lon":5.384119,"is_reserved":false,"is_disabled":false,"rental_uris":{"android":"levelo://app?vid=1abfd896-e4ae-47eb-be1e-89472eb5553a","ios":"levelo://app?vid=1abfd896-e4ae-47eb-be1e-89472eb5553a"},"vehicle_type_id":"4","last_reported":1701328004,"current_range_meters":14000,"station_id":"ce4bh512rcd13ifvqe3g","pricing_plan_id":"free"},{"bike_id":"971a775e-4b00-4248-8565-295bc10d1ba9","system_id":"levelo_inurba_marseille","lat":43.289363,"lon":5.396322,"is_reserved":false,"is_disabled":false,"rental_uris":{"android":"levelo://app?vid=971a775e-4b00-4248-8565-295bc10d1ba9","ios":"levelo://app?vid=971a775e-4b00-4248-8565-295bc10d1ba9"},"vehicle_type_id":"4","last_reported":1701328004,"current_range_meters":15600,"station_id":"ce4bh3h2rcd13ifvqdn0","pricing_plan_id":"free"},{"bike_id":"963d6a9c-7612-4a37-803a-3af335937e69","system_id":"levelo_inurba_marseille","lat":43.282754,"lon":5.350519,"is_reserved":false,"is_disabled":false,"rental_uris":{"android":"levelo://app?vid=963d6a9c-7612-4a37-803a-3af335937e69","ios":"levelo://app?vid=963d6a9c-7612-4a37-803a-3af335937e69"},"vehicle_type_id":"4","last_reported":1701328004,"current_range_meters":23200,"station_id":"ce4bhbp2rcd13ifvqerg","pricing_plan_id":"free"},{"bike_id":"905fede1-9d8a-4cff-9c7f-900efd540e3d","system_id":"levelo_inurba_marseille","lat":43.282744,"lon":5.350533,"is_reserved":false,"is_disabled":false,"rental_uris":{"android":"levelo://app?vid=905fede1-9d8a-4cff-9c7f-900efd540e3d","ios":"levelo://app?vid=905fede1-9d8a-4cff-9c7f-900efd540e3d"},"vehicle_type_id":"4","last_reported":1701328004,"current_range_meters":30800,"station_id":"ce4bhbp2rcd13ifvqerg","pricing_plan_id":"free"},{"bike_id":"f3edfa28-1f6b-4879-b4f7-158bdbbdee95","system_id":"levelo_inurba_marseille","lat":43.280382,"lon":5.369291,"is_reserved":false,"is_disabled":false,"rental_uris":{"android":"levelo://app?vid=f3edfa28-1f6b-4879-b4f7-158bdbbdee95","ios":"levelo://app?vid=f3edfa28-1f6b-4879-b4f7-158bdbbdee95"},"vehicle_type_id":"4","last_reported":1701328004,"current_range_meters":30400,"station_id":"ce4bha12rcd13ifvqef0","pricing_plan_id":"free"},{"bike_id":"b39cf2b2-ecca-4141-a4e9-def827cec38f","system_id":"levelo_inurba_marseille","lat":43.28037,"lon":5.36943,"is_reserved":false,"is_disabled":false,"rental_uris":{"android":"levelo://app?vid=b39cf2b2-ecca-4141-a4e9-def827cec38f","ios":"levelo://app?vid=b39cf2b2-ecca-4141-a4e9-def827cec38f"},"vehicle_type_id":"4","last_reported":1701328004,"current_range_meters":4000,"station_id":"ce4bha12rcd13ifvqef0","pricing_plan_id":"free"},{"bike_id":"275d6402-0ea6-4af0-8fc5-9b35462d469f","system_id":"levelo_inurba_marseille","lat":43.280382,"lon":5.369291,"is_reserved":false,"is_disabled":false,"rental_uris":{"android":"levelo://app?vid=275d6402-0ea6-4af0-8fc5-9b35462d469f","ios":"levelo://app?vid=275d6402-0ea6-4af0-8fc5-9b35462d469f"},"vehicle_type_id":"4","last_reported":1701328004,"current_range_meters":28800,"station_id":"ce4bha12rcd13ifvqef0","pricing_plan_id":"free"},{"bike_id":"b78d8feb-fb49-441d-8899-bff0281620e8","system_id":"levelo_inurba_marseille","lat":43.280332,"lon":5.369446,"is_reserved":false,"is_disabled":false,"rental_uris":{"android":"levelo://app?vid=b78d8feb-fb49-441d-8899-bff0281620e8","ios":"levelo://app?vid=b78d8feb-fb49-441d-8899-bff0281620e8"},"vehicle_type_id":"4","last_reported":1701328004,"current_range_meters":0,"station_id":"ce4bha12rcd13ifvqef0","pricing_plan_id":"free"},{"bike_id":"976331ec-d378-428f-b5fd-227a938977ed","system_id":"levelo_inurba_marseille","lat":43.29041,"lon":5.399634,"is_reserved":false,"is_disabled":false,"rental_uris":{"android":"levelo://app?vid=976331ec-d378-428f-b5fd-227a938977ed","ios":"levelo://app?vid=976331ec-d378-428f-b5fd-227a938977ed"},"vehicle_type_id":"4","last_reported":1701328004,"current_range_meters":18000,"station_id":"ce4bh392rcd13ifvqdm0","pricing_plan_id":"free"},{"bike_id":"54c2c0f2-f96a-4832-9f75-238572f6609c","system_id":"levelo_inurba_marseille","lat":43.29041,"lon":5.399634,"is_reserved":false,"is_disabled":false,"rental_uris":{"android":"levelo://app?vid=54c2c0f2-f96a-4832-9f75-238572f6609c","ios":"levelo://app?vid=54c2c0f2-f96a-4832-9f75-238572f6609c"},"vehicle_type_id":"4","last_reported":1701328004,"current_range_meters":1600,"station_id":"ce4bh392rcd13ifvqdm0","pricing_plan_id":"free"},{"bike_id":"825c5d6b-6936-4665-b6ab-c2f5f4b09a8d","system_id":"levelo_inurba_marseille","lat":43.284462,"lon":5.392121,"is_reserved":false,"is_disabled":false,"rental_uris":{"android":"levelo://app?vid=825c5d6b-6936-4665-b6ab-c2f5f4b09a8d","ios":"levelo://app?vid=825c5d6b-6936-4665-b6ab-c2f5f4b09a8d"},"vehicle_type_id":"4","last_reported":1701328004,"current_range_meters":19200,"station_id":"ce4bhoh2rcd13ifvqh5g","pricing_plan_id":"free"},{"bike_id":"0aeed88b-ac5d-4613-933a-094f364a63e7","system_id":"levelo_inurba_marseille","lat":43.284317,"lon":5.391844,"is_reserved":false,"is_disabled":false,"rental_uris":{"android":"levelo://app?vid=0aeed88b-ac5d-4613-933a-094f364a63e7","ios":"levelo://app?vid=0aeed88b-ac5d-4613-933a-094f364a63e7"},"vehicle_type_id":"4","last_reported":1701328004,"current_range_meters":4400,"station_id":"ce4bhoh2rcd13ifvqh5g","pricing_plan_id":"free"},{"bike_id":"dec95bca-6e2c-4768-a173-128059aecf98","system_id":"levelo_inurba_marseille","lat":43.299577,"lon":5.413277,"is_reserved":false,"is_disabled":false,"rental_uris":{"android":"levelo://app?vid=dec95bca-6e2c-4768-a173-128059aecf98","ios":"levelo://app?vid=dec95bca-6e2c-4768-a173-128059aecf98"},"vehicle_type_id":"4","last_reported":1701328004,"current_range_meters":30000,"station_id":"ce4bhp12rcd13ifvqh9g","pricing_plan_id":"free"},{"bike_id":"f77d73ee-9361-4225-9180-f76859b44483","system_id":"levelo_inurba_marseille","lat":43.292571,"lon":5.409107,"is_reserved":false,"is_disabled":false,"rental_uris":{"android":"levelo://app?vid=f77d73ee-9361-4225-9180-f76859b44483","ios":"levelo://app?vid=f77d73ee-9361-4225-9180-f76859b44483"},"vehicle_type_id":"4","last_reported":1701328004,"current_range_meters":25200,"station_id":"ce4bh192rcd13ifvqdc0","pricing_plan_id":"free"},{"bike_id":"9229b367-7d4c-4e40-90da-2e8c83a58aab","system_id":"levelo_inurba_marseille","lat":43.325233,"lon":5.414318,"is_reserved":false,"is_disabled":false,"rental_uris":{"android":"levelo://app?vid=9229b367-7d4c-4e40-90da-2e8c83a58aab","ios":"levelo://app?vid=9229b367-7d4c-4e40-90da-2e8c83a58aab"},"vehicle_type_id":"4","last_reported":1701328004,"current_range_meters":26000,"station_id":"ce4bhq12rcd13ifvqhhg","pricing_plan_id":"free"},{"bike_id":"467805e3-bedf-4a3f-a5ea-c8edce9c2b11","system_id":"levelo_inurba_marseille","lat":43.303837,"lon":5.418724,"is_reserved":false,"is_disabled":false,"rental_uris":{"android":"levelo://app?vid=467805e3-bedf-4a3f-a5ea-c8edce9c2b11","ios":"levelo://app?vid=467805e3-bedf-4a3f-a5ea-c8edce9c2b11"},"vehicle_type_id":"4","last_reported":1701328004,"current_range_meters":21200,"station_id":"ce4bhop2rcd13ifvqh7g","pricing_plan_id":"free"},{"bike_id":"9a0a29ad-7574-42cb-a4fc-de7c094c3a31","system_id":"levelo_inurba_marseille","lat":43.273613,"lon":5.362705,"is_reserved":false,"is_disabled":false,"rental_uris":{"android":"levelo://app?vid=9a0a29ad-7574-42cb-a4fc-de7c094c3a31","ios":"levelo://app?vid=9a0a29ad-7574-42cb-a4fc-de7c094c3a31"},"vehicle_type_id":"4","last_reported":1701328004,"current_range_meters":31200,"station_id":"ce4bhbh2rcd13ifvqeo0","pricing_plan_id":"free"},{"bike_id":"ae944ce2-e7fe-407f-a11d-0561779717d0","system_id":"levelo_inurba_marseille","lat":43.273613,"lon":5.362705,"is_reserved":false,"is_disabled":false,"rental_uris":{"android":"levelo://app?vid=ae944ce2-e7fe-407f-a11d-0561779717d0","ios":"levelo://app?vid=ae944ce2-e7fe-407f-a11d-0561779717d0"},"vehicle_type_id":"4","last_reported":1701328004,"current_range_meters":0,"station_id":"ce4bhbh2rcd13ifvqeo0","pricing_plan_id":"free"},{"bike_id":"b31b3a6b-bb9f-4671-ba5b-d6d4fae1a59e","system_id":"levelo_inurba_marseille","lat":43.273613,"lon":5.362705,"is_reserved":false,"is_disabled":false,"rental_uris":{"android":"levelo://app?vid=b31b3a6b-bb9f-4671-ba5b-d6d4fae1a59e","ios":"levelo://app?vid=b31b3a6b-bb9f-4671-ba5b-d6d4fae1a59e"},"vehicle_type_id":"4","last_reported":1701328004,"current_range_meters":18000,"station_id":"ce4bhbh2rcd13ifvqeo0","pricing_plan_id":"free"},{"bike_id":"b2dce51d-ce4e-40fb-9ef2-73d9b2b72d52","system_id":"levelo_inurba_marseille","lat":43.273609,"lon":5.362708,"is_reserved":false,"is_disabled":false,"rental_uris":{"android":"levelo://app?vid=b2dce51d-ce4e-40fb-9ef2-73d9b2b72d52","ios":"levelo://app?vid=b2dce51d-ce4e-40fb-9ef2-73d9b2b72d52"},"vehicle_type_id":"4","last_reported":1701328004,"current_range_meters":30000,"station_id":"ce4bhbh2rcd13ifvqeo0","pricing_plan_id":"free"},{"bike_id":"02bbaec1-5fe3-4433-9407-81171b2a94ea","system_id":"levelo_inurba_marseille","lat":43.275625,"lon":5.384392,"is_reserved":false,"is_disabled":false,"rental_uris":{"android":"levelo://app?vid=02bbaec1-5fe3-4433-9407-81171b2a94ea","ios":"levelo://app?vid=02bbaec1-5fe3-4433-9407-81171b2a94ea"},"vehicle_type_id":"4","last_reported":1701328004,"current_range_meters":31200,"station_id":"ce4bhh92rcd13ifvqfi0","pricing_plan_id":"free"},{"bike_id":"c1e44421-14e7-489a-ab6d-baed33d7b377","system_id":"levelo_inurba_marseille","lat":43.336148,"lon":5.410349,"is_reserved":false,"is_disabled":false,"rental_uris":{"android":"levelo://app?vid=c1e44421-14e7-489a-ab6d-baed33d7b377","ios":"levelo://app?vid=c1e44421-14e7-489a-ab6d-baed33d7b377"},"vehicle_type_id":"4","last_reported":1701328004,"current_range_meters":18400,"station_id":"ce4bhqh2rcd13ifvqhmg","pricing_plan_id":"free"},{"bike_id":"48ed652b-5335-4f82-b348-b840890479b0","system_id":"levelo_inurba_marseille","lat":43.276769,"lon":5.388787,"is_reserved":false,"is_disabled":false,"rental_uris":{"android":"levelo://app?vid=48ed652b-5335-4f82-b348-b840890479b0","ios":"levelo://app?vid=48ed652b-5335-4f82-b348-b840890479b0"},"vehicle_type_id":"4","last_reported":1701328004,"current_range_meters":27600,"station_id":"ce4bhi12rcd13ifvqfo0","pricing_plan_id":"free"},{"bike_id":"ebda0b6e-7465-4608-841e-9d7a331ae123","system_id":"levelo_inurba_marseille","lat":43.28001,"lon":5.40011,"is_reserved":false,"is_disabled":false,"rental_uris":{"android":"levelo://app?vid=ebda0b6e-7465-4608-841e-9d7a331ae123","ios":"levelo://app?vid=ebda0b6e-7465-4608-841e-9d7a331ae123"},"vehicle_type_id":"4","last_reported":1701328004,"current_range_meters":26000,"station_id":"ce4bho92rcd13ifvqh4g","pricing_plan_id":"free"},{"bike_id":"33449a5f-4b78-4140-9f71-bb6c5c9ecf3a","system_id":"levelo_inurba_marseille","lat":43.310785,"lon":5.424305,"is_reserved":false,"is_disabled":false,"rental_uris":{"android":"levelo://app?vid=33449a5f-4b78-4140-9f71-bb6c5c9ecf3a","ios":"levelo://app?vid=33449a5f-4b78-4140-9f71-bb6c5c9ecf3a"},"vehicle_type_id":"4","last_reported":1701328004,"current_range_meters":6000,"station_id":"ce4bhp92rcd13ifvqhag","pricing_plan_id":"free"},{"bike_id":"be089778-fb34-4c77-a00c-8d5c4b16068c","system_id":"levelo_inurba_marseille","lat":43.317121,"lon":5.423936,"is_reserved":false,"is_disabled":false,"rental_uris":{"android":"levelo://app?vid=be089778-fb34-4c77-a00c-8d5c4b16068c","ios":"levelo://app?vid=be089778-fb34-4c77-a00c-8d5c4b16068c"},"vehicle_type_id":"4","last_reported":1701328004,"current_range_meters":30400,"station_id":"ce4bhp92rcd13ifvqhbg","pricing_plan_id":"free"},{"bike_id":"521ca7fa-ebdc-45ea-85a3-99d902329c35","system_id":"levelo_inurba_marseille","lat":43.310785,"lon":5.424305,"is_reserved":false,"is_disabled":false,"rental_uris":{"android":"levelo://app?vid=521ca7fa-ebdc-45ea-85a3-99d902329c35","ios":"levelo://app?vid=521ca7fa-ebdc-45ea-85a3-99d902329c35"},"vehicle_type_id":"4","last_reported":1701328004,"current_range_meters":800,"station_id":"ce4bhp92rcd13ifvqhag","pricing_plan_id":"free"},{"bike_id":"f90b9288-c97c-459e-9c77-8f5800ca3e46","system_id":"levelo_inurba_marseille","lat":43.340804,"lon":5.410219,"is_reserved":false,"is_disabled":false,"rental_uris":{"android":"levelo://app?vid=f90b9288-c97c-459e-9c77-8f5800ca3e46","ios":"levelo://app?vid=f90b9288-c97c-459e-9c77-8f5800ca3e46"},"vehicle_type_id":"4","last_reported":1701328004,"current_range_meters":6400,"station_id":"ce4bhqh2rcd13ifvqhlg","pricing_plan_id":"free"},{"bike_id":"153453b6-a713-4b05-af53-bd51362e9ae5","system_id":"levelo_inurba_marseille","lat":43.340804,"lon":5.410219,"is_reserved":false,"is_disabled":false,"rental_uris":{"android":"levelo://app?vid=153453b6-a713-4b05-af53-bd51362e9ae5","ios":"levelo://app?vid=153453b6-a713-4b05-af53-bd51362e9ae5"},"vehicle_type_id":"4","last_reported":1701328004,"current_range_meters":28800,"station_id":"ce4bhqh2rcd13ifvqhlg","pricing_plan_id":"free"},{"bike_id":"1995b353-3df8-4744-9047-31035e4532a5","system_id":"levelo_inurba_marseille","lat":43.273164,"lon":5.390923,"is_reserved":false,"is_disabled":false,"rental_uris":{"android":"levelo://app?vid=1995b353-3df8-4744-9047-31035e4532a5","ios":"levelo://app?vid=1995b353-3df8-4744-9047-31035e4532a5"},"vehicle_type_id":"4","last_reported":1701328004,"current_range_meters":24000,"station_id":"ce4bhgp2rcd13ifvqfe0","pricing_plan_id":"free"},{"bike_id":"04312cdf-d24e-4d10-a7ad-8c7d78c27169","system_id":"levelo_inurba_marseille","lat":43.273125,"lon":5.390731,"is_reserved":false,"is_disabled":false,"rental_uris":{"android":"levelo://app?vid=04312cdf-d24e-4d10-a7ad-8c7d78c27169","ios":"levelo://app?vid=04312cdf-d24e-4d10-a7ad-8c7d78c27169"},"vehicle_type_id":"4","last_reported":1701328004,"current_range_meters":27200,"station_id":"ce4bhgp2rcd13ifvqfe0","pricing_plan_id":"free"},{"bike_id":"683bd8d4-f58d-4fcf-abe8-82e651d1be63","system_id":"levelo_inurba_marseille","lat":43.273129,"lon":5.390725,"is_reserved":false,"is_disabled":false,"rental_uris":{"android":"levelo://app?vid=683bd8d4-f58d-4fcf-abe8-82e651d1be63","ios":"levelo://app?vid=683bd8d4-f58d-4fcf-abe8-82e651d1be63"},"vehicle_type_id":"4","last_reported":1701328004,"current_range_meters":21600,"station_id":"ce4bhgp2rcd13ifvqfe0","pricing_plan_id":"free"},{"bike_id":"d6196e04-2494-4446-a9da-1bc4c12e52ee","system_id":"levelo_inurba_marseille","lat":43.295523,"lon":5.422926,"is_reserved":false,"is_disabled":false,"rental_uris":{"android":"levelo://app?vid=d6196e04-2494-4446-a9da-1bc4c12e52ee","ios":"levelo://app?vid=d6196e04-2494-4446-a9da-1bc4c12e52ee"},"vehicle_type_id":"4","last_reported":1701328004,"current_range_meters":27600,"station_id":"ce4bhph2rcd13ifvqhdg","pricing_plan_id":"free"},{"bike_id":"879eaebb-d472-4bcc-a56a-f7ff06b82be3","system_id":"levelo_inurba_marseille","lat":43.29552,"lon":5.42284,"is_reserved":false,"is_disabled":false,"rental_uris":{"android":"levelo://app?vid=879eaebb-d472-4bcc-a56a-f7ff06b82be3","ios":"levelo://app?vid=879eaebb-d472-4bcc-a56a-f7ff06b82be3"},"vehicle_type_id":"4","last_reported":1701328004,"current_range_meters":26800,"station_id":"ce4bhph2rcd13ifvqhdg","pricing_plan_id":"free"},{"bike_id":"7335a393-cc37-4e1d-b729-82d3cd0e69fb","system_id":"levelo_inurba_marseille","lat":43.29524,"lon":5.42268,"is_reserved":false,"is_disabled":false,"rental_uris":{"android":"levelo://app?vid=7335a393-cc37-4e1d-b729-82d3cd0e69fb","ios":"levelo://app?vid=7335a393-cc37-4e1d-b729-82d3cd0e69fb"},"vehicle_type_id":"4","last_reported":1701328004,"current_range_meters":21600,"station_id":"ce4bhph2rcd13ifvqhdg","pricing_plan_id":"free"},{"bike_id":"b8ac119b-2ede-465e-97c1-82f1ffabe1de","system_id":"levelo_inurba_marseille","lat":43.269467,"lon":5.386439,"is_reserved":false,"is_disabled":false,"rental_uris":{"android":"levelo://app?vid=b8ac119b-2ede-465e-97c1-82f1ffabe1de","ios":"levelo://app?vid=b8ac119b-2ede-465e-97c1-82f1ffabe1de"},"vehicle_type_id":"4","last_reported":1701328004,"current_range_meters":25200,"station_id":"ce4bhh92rcd13ifvqfh0","pricing_plan_id":"free"},{"bike_id":"7a9dec7b-44e5-45db-bd7a-9b0292724e5a","system_id":"levelo_inurba_marseille","lat":43.269467,"lon":5.386439,"is_reserved":false,"is_disabled":false,"rental_uris":{"android":"levelo://app?vid=7a9dec7b-44e5-45db-bd7a-9b0292724e5a","ios":"levelo://app?vid=7a9dec7b-44e5-45db-bd7a-9b0292724e5a"},"vehicle_type_id":"4","last_reported":1701328004,"current_range_meters":23600,"station_id":"ce4bhh92rcd13ifvqfh0","pricing_plan_id":"free"},{"bike_id":"7071c0fd-56c0-47d2-800a-7502c9dd45e2","system_id":"levelo_inurba_marseille","lat":43.269467,"lon":5.386439,"is_reserved":false,"is_disabled":false,"rental_uris":{"android":"levelo://app?vid=7071c0fd-56c0-47d2-800a-7502c9dd45e2","ios":"levelo://app?vid=7071c0fd-56c0-47d2-800a-7502c9dd45e2"},"vehicle_type_id":"4","last_reported":1701328004,"current_range_meters":29200,"station_id":"ce4bhh92rcd13ifvqfh0","pricing_plan_id":"free"},{"bike_id":"fdf5a1b8-80f2-448b-9d64-e8c03726b7c2","system_id":"levelo_inurba_marseille","lat":43.269467,"lon":5.386439,"is_reserved":false,"is_disabled":false,"rental_uris":{"android":"levelo://app?vid=fdf5a1b8-80f2-448b-9d64-e8c03726b7c2","ios":"levelo://app?vid=fdf5a1b8-80f2-448b-9d64-e8c03726b7c2"},"vehicle_type_id":"4","last_reported":1701328004,"current_range_meters":26400,"station_id":"ce4bhh92rcd13ifvqfh0","pricing_plan_id":"free"},{"bike_id":"c04ae61d-4500-45ef-93f4-0b7e30c301bb","system_id":"levelo_inurba_marseille","lat":43.269467,"lon":5.386439,"is_reserved":false,"is_disabled":false,"rental_uris":{"android":"levelo://app?vid=c04ae61d-4500-45ef-93f4-0b7e30c301bb","ios":"levelo://app?vid=c04ae61d-4500-45ef-93f4-0b7e30c301bb"},"vehicle_type_id":"4","last_reported":1701328004,"current_range_meters":11600,"station_id":"ce4bhh92rcd13ifvqfh0","pricing_plan_id":"free"},{"bike_id":"ab5194c2-cad7-43ae-81da-1fb8b0f15931","system_id":"levelo_inurba_marseille","lat":43.269467,"lon":5.386439,"is_reserved":false,"is_disabled":false,"rental_uris":{"android":"levelo://app?vid=ab5194c2-cad7-43ae-81da-1fb8b0f15931","ios":"levelo://app?vid=ab5194c2-cad7-43ae-81da-1fb8b0f15931"},"vehicle_type_id":"4","last_reported":1701328004,"current_range_meters":22400,"station_id":"ce4bhh92rcd13ifvqfh0","pricing_plan_id":"free"},{"bike_id":"4cc519dc-54e9-4025-8e64-c917627c7f50","system_id":"levelo_inurba_marseille","lat":43.26681,"lon":5.382694,"is_reserved":false,"is_disabled":false,"rental_uris":{"android":"levelo://app?vid=4cc519dc-54e9-4025-8e64-c917627c7f50","ios":"levelo://app?vid=4cc519dc-54e9-4025-8e64-c917627c7f50"},"vehicle_type_id":"4","last_reported":1701328004,"current_range_meters":30000,"station_id":"ce4bhg92rcd13ifvqf90","pricing_plan_id":"free"},{"bike_id":"897c7477-704f-4ada-86df-3c153fdea6b8","system_id":"levelo_inurba_marseille","lat":43.265519,"lon":5.372846,"is_reserved":false,"is_disabled":false,"rental_uris":{"android":"levelo://app?vid=897c7477-704f-4ada-86df-3c153fdea6b8","ios":"levelo://app?vid=897c7477-704f-4ada-86df-3c153fdea6b8"},"vehicle_type_id":"4","last_reported":1701328004,"current_range_meters":0,"station_id":"ce4bhg12rcd13ifvqf70","pricing_plan_id":"free"},{"bike_id":"c007ce51-eefe-425c-8646-246d9e89808e","system_id":"levelo_inurba_marseille","lat":43.267966,"lon":5.393976,"is_reserved":false,"is_disabled":false,"rental_uris":{"android":"levelo://app?vid=c007ce51-eefe-425c-8646-246d9e89808e","ios":"levelo://app?vid=c007ce51-eefe-425c-8646-246d9e89808e"},"vehicle_type_id":"4","last_reported":1701328004,"current_range_meters":28800,"station_id":"ce4bhh12rcd13ifvqfg0","pricing_plan_id":"free"},{"bike_id":"552efd11-792a-4aca-94cd-9a2270d7c677","system_id":"levelo_inurba_marseille","lat":43.265569,"lon":5.390047,"is_reserved":false,"is_disabled":false,"rental_uris":{"android":"levelo://app?vid=552efd11-792a-4aca-94cd-9a2270d7c677","ios":"levelo://app?vid=552efd11-792a-4aca-94cd-9a2270d7c677"},"vehicle_type_id":"4","last_reported":1701328004,"current_range_meters":19200,"station_id":"ce4bhe12rcd13ifvqf30","pricing_plan_id":"free"},{"bike_id":"1c859d8c-6823-4772-9abb-da577a635321","system_id":"levelo_inurba_marseille","lat":43.317104,"lon":5.436818,"is_reserved":false,"is_disabled":false,"rental_uris":{"android":"levelo://app?vid=1c859d8c-6823-4772-9abb-da577a635321","ios":"levelo://app?vid=1c859d8c-6823-4772-9abb-da577a635321"},"vehicle_type_id":"4","last_reported":1701328004,"current_range_meters":20400,"station_id":"ce4bhp92rcd13ifvqhcg","pricing_plan_id":"free"},{"bike_id":"3b0c0bb4-5989-4886-a288-42d1a3878a2b","system_id":"levelo_inurba_marseille","lat":43.271779,"lon":5.409849,"is_reserved":false,"is_disabled":false,"rental_uris":{"android":"levelo://app?vid=3b0c0bb4-5989-4886-a288-42d1a3878a2b","ios":"levelo://app?vid=3b0c0bb4-5989-4886-a288-42d1a3878a2b"},"vehicle_type_id":"4","last_reported":1701328004,"current_range_meters":0,"station_id":"ce4bhl12rcd13ifvqgf0","pricing_plan_id":"free"},{"bike_id":"c088f36c-1525-465b-ab7a-4bd6a788c702","system_id":"levelo_inurba_marseille","lat":43.271368,"lon":5.40928,"is_reserved":false,"is_disabled":false,"rental_uris":{"android":"levelo://app?vid=c088f36c-1525-465b-ab7a-4bd6a788c702","ios":"levelo://app?vid=c088f36c-1525-465b-ab7a-4bd6a788c702"},"vehicle_type_id":"4","last_reported":1701328004,"current_range_meters":3200,"station_id":"ce4bhl12rcd13ifvqgf0","pricing_plan_id":"free"},{"bike_id":"54e7103a-044b-433e-9f97-9f60b9ff0bee","system_id":"levelo_inurba_marseille","lat":43.281548,"lon":5.42643,"is_reserved":false,"is_disabled":false,"rental_uris":{"android":"levelo://app?vid=54e7103a-044b-433e-9f97-9f60b9ff0bee","ios":"levelo://app?vid=54e7103a-044b-433e-9f97-9f60b9ff0bee"},"vehicle_type_id":"4","last_reported":1701328004,"current_range_meters":31200,"station_id":"ce4bhnh2rcd13ifvqgug","pricing_plan_id":"free"},{"bike_id":"00d1bf49-5f2f-40eb-ba1c-6d61ac984990","system_id":"levelo_inurba_marseille","lat":43.281548,"lon":5.42643,"is_reserved":false,"is_disabled":false,"rental_uris":{"android":"levelo://app?vid=00d1bf49-5f2f-40eb-ba1c-6d61ac984990","ios":"levelo://app?vid=00d1bf49-5f2f-40eb-ba1c-6d61ac984990"},"vehicle_type_id":"4","last_reported":1701328004,"current_range_meters":30400,"station_id":"ce4bhnh2rcd13ifvqgug","pricing_plan_id":"free"},{"bike_id":"bd71c321-451e-4db9-9483-b3fea5f99947","system_id":"levelo_inurba_marseille","lat":43.2815,"lon":5.42643,"is_reserved":false,"is_disabled":false,"rental_uris":{"android":"levelo://app?vid=bd71c321-451e-4db9-9483-b3fea5f99947","ios":"levelo://app?vid=bd71c321-451e-4db9-9483-b3fea5f99947"},"vehicle_type_id":"4","last_reported":1701328004,"current_range_meters":25600,"station_id":"ce4bhnh2rcd13ifvqgug","pricing_plan_id":"free"},{"bike_id":"7dd4c909-c4b2-400f-9b7a-caa808388dc4","system_id":"levelo_inurba_marseille","lat":43.281533,"lon":5.426484,"is_reserved":false,"is_disabled":false,"rental_uris":{"android":"levelo://app?vid=7dd4c909-c4b2-400f-9b7a-caa808388dc4","ios":"levelo://app?vid=7dd4c909-c4b2-400f-9b7a-caa808388dc4"},"vehicle_type_id":"4","last_reported":1701328004,"current_range_meters":10000,"station_id":"ce4bhnh2rcd13ifvqgug","pricing_plan_id":"free"},{"bike_id":"85158950-5b86-488b-bdb1-726b8dfbb936","system_id":"levelo_inurba_marseille","lat":43.281548,"lon":5.42643,"is_reserved":false,"is_disabled":false,"rental_uris":{"android":"levelo://app?vid=85158950-5b86-488b-bdb1-726b8dfbb936","ios":"levelo://app?vid=85158950-5b86-488b-bdb1-726b8dfbb936"},"vehicle_type_id":"4","last_reported":1701328004,"current_range_meters":14000,"station_id":"ce4bhnh2rcd13ifvqgug","pricing_plan_id":"free"},{"bike_id":"06649a1b-ff2e-4306-b52c-558b8a515e74","system_id":"levelo_inurba_marseille","lat":43.275028,"lon":5.424534,"is_reserved":false,"is_disabled":false,"rental_uris":{"android":"levelo://app?vid=06649a1b-ff2e-4306-b52c-558b8a515e74","ios":"levelo://app?vid=06649a1b-ff2e-4306-b52c-558b8a515e74"},"vehicle_type_id":"4","last_reported":1701328004,"current_range_meters":21200,"station_id":"ce4bhn92rcd13ifvqgrg","pricing_plan_id":"free"},{"bike_id":"3e84e335-f49b-4e96-838e-92191173e0d3","system_id":"levelo_inurba_marseille","lat":43.275028,"lon":5.424534,"is_reserved":false,"is_disabled":false,"rental_uris":{"android":"levelo://app?vid=3e84e335-f49b-4e96-838e-92191173e0d3","ios":"levelo://app?vid=3e84e335-f49b-4e96-838e-92191173e0d3"},"vehicle_type_id":"4","last_reported":1701328004,"current_range_meters":24400,"station_id":"ce4bhn92rcd13ifvqgrg","pricing_plan_id":"free"},{"bike_id":"a13368f5-c039-45e6-b328-5b0525422ef3","system_id":"levelo_inurba_marseille","lat":43.275028,"lon":5.424534,"is_reserved":false,"is_disabled":false,"rental_uris":{"android":"levelo://app?vid=a13368f5-c039-45e6-b328-5b0525422ef3","ios":"levelo://app?vid=a13368f5-c039-45e6-b328-5b0525422ef3"},"vehicle_type_id":"4","last_reported":1701328004,"current_range_meters":30000,"station_id":"ce4bhn92rcd13ifvqgrg","pricing_plan_id":"free"},{"bike_id":"5a50ac88-b032-40f9-b513-d51cece3fc4f","system_id":"levelo_inurba_marseille","lat":43.275028,"lon":5.424534,"is_reserved":false,"is_disabled":false,"rental_uris":{"android":"levelo://app?vid=5a50ac88-b032-40f9-b513-d51cece3fc4f","ios":"levelo://app?vid=5a50ac88-b032-40f9-b513-d51cece3fc4f"},"vehicle_type_id":"4","last_reported":1701328004,"current_range_meters":17600,"station_id":"ce4bhn92rcd13ifvqgrg","pricing_plan_id":"free"},{"bike_id":"d48d94a6-b95a-4f55-b08b-d4ab5df729f0","system_id":"levelo_inurba_marseille","lat":43.275028,"lon":5.424534,"is_reserved":false,"is_disabled":false,"rental_uris":{"android":"levelo://app?vid=d48d94a6-b95a-4f55-b08b-d4ab5df729f0","ios":"levelo://app?vid=d48d94a6-b95a-4f55-b08b-d4ab5df729f0"},"vehicle_type_id":"4","last_reported":1701328004,"current_range_meters":29600,"station_id":"ce4bhn92rcd13ifvqgrg","pricing_plan_id":"free"},{"bike_id":"20b80d22-44d9-4ebb-951b-30777f1c5188","system_id":"levelo_inurba_marseille","lat":43.275028,"lon":5.424534,"is_reserved":false,"is_disabled":false,"rental_uris":{"android":"levelo://app?vid=20b80d22-44d9-4ebb-951b-30777f1c5188","ios":"levelo://app?vid=20b80d22-44d9-4ebb-951b-30777f1c5188"},"vehicle_type_id":"4","last_reported":1701328004,"current_range_meters":20800,"station_id":"ce4bhn92rcd13ifvqgrg","pricing_plan_id":"free"},{"bike_id":"a0ad5954-4678-4ed0-a699-84d1b14aeda3","system_id":"levelo_inurba_marseille","lat":43.275028,"lon":5.424534,"is_reserved":false,"is_disabled":false,"rental_uris":{"android":"levelo://app?vid=a0ad5954-4678-4ed0-a699-84d1b14aeda3","ios":"levelo://app?vid=a0ad5954-4678-4ed0-a699-84d1b14aeda3"},"vehicle_type_id":"4","last_reported":1701328004,"current_range_meters":13600,"station_id":"ce4bhn92rcd13ifvqgrg","pricing_plan_id":"free"},{"bike_id":"3e726b25-b1d7-4463-8496-a2bd49c6b10a","system_id":"levelo_inurba_marseille","lat":43.275028,"lon":5.424534,"is_reserved":false,"is_disabled":false,"rental_uris":{"android":"levelo://app?vid=3e726b25-b1d7-4463-8496-a2bd49c6b10a","ios":"levelo://app?vid=3e726b25-b1d7-4463-8496-a2bd49c6b10a"},"vehicle_type_id":"4","last_reported":1701328004,"current_range_meters":28400,"station_id":"ce4bhn92rcd13ifvqgrg","pricing_plan_id":"free"},{"bike_id":"8f3588f2-94a0-44a8-85c2-7e867afa0df0","system_id":"levelo_inurba_marseille","lat":43.275028,"lon":5.424534,"is_reserved":false,"is_disabled":false,"rental_uris":{"android":"levelo://app?vid=8f3588f2-94a0-44a8-85c2-7e867afa0df0","ios":"levelo://app?vid=8f3588f2-94a0-44a8-85c2-7e867afa0df0"},"vehicle_type_id":"4","last_reported":1701328004,"current_range_meters":20400,"station_id":"ce4bhn92rcd13ifvqgrg","pricing_plan_id":"free"},{"bike_id":"8e378a9d-faf9-4e9a-acaa-685bc6c1a918","system_id":"levelo_inurba_marseille","lat":43.275028,"lon":5.424534,"is_reserved":false,"is_disabled":false,"rental_uris":{"android":"levelo://app?vid=8e378a9d-faf9-4e9a-acaa-685bc6c1a918","ios":"levelo://app?vid=8e378a9d-faf9-4e9a-acaa-685bc6c1a918"},"vehicle_type_id":"4","last_reported":1701328004,"current_range_meters":19200,"station_id":"ce4bhn92rcd13ifvqgrg","pricing_plan_id":"free"},{"bike_id":"14fb25f5-4f89-46d6-96cf-5e324572837b","system_id":"levelo_inurba_marseille","lat":43.275028,"lon":5.424534,"is_reserved":false,"is_disabled":false,"rental_uris":{"android":"levelo://app?vid=14fb25f5-4f89-46d6-96cf-5e324572837b","ios":"levelo://app?vid=14fb25f5-4f89-46d6-96cf-5e324572837b"},"vehicle_type_id":"4","last_reported":1701328004,"current_range_meters":21200,"station_id":"ce4bhn92rcd13ifvqgrg","pricing_plan_id":"free"},{"bike_id":"54fac5fe-0c7e-4943-897d-31a01d6d8c11","system_id":"levelo_inurba_marseille","lat":43.260819,"lon":5.397656,"is_reserved":false,"is_disabled":false,"rental_uris":{"android":"levelo://app?vid=54fac5fe-0c7e-4943-897d-31a01d6d8c11","ios":"levelo://app?vid=54fac5fe-0c7e-4943-897d-31a01d6d8c11"},"vehicle_type_id":"4","last_reported":1701328004,"current_range_meters":0,"station_id":"ce4bhi12rcd13ifvqfq0","pricing_plan_id":"free"},{"bike_id":"1f6ca2d1-c3f2-408b-8085-b2506504cddb","system_id":"levelo_inurba_marseille","lat":43.25582,"lon":5.38234,"is_reserved":false,"is_disabled":false,"rental_uris":{"android":"levelo://app?vid=1f6ca2d1-c3f2-408b-8085-b2506504cddb","ios":"levelo://app?vid=1f6ca2d1-c3f2-408b-8085-b2506504cddb"},"vehicle_type_id":"4","last_reported":1701328004,"current_range_meters":25200,"station_id":"ce4bhih2rcd13ifvqfs0","pricing_plan_id":"free"},{"bike_id":"0e904d10-9ecb-4f79-883b-a75ae068ad82","system_id":"levelo_inurba_marseille","lat":43.2558,"lon":5.38236,"is_reserved":false,"is_disabled":false,"rental_uris":{"android":"levelo://app?vid=0e904d10-9ecb-4f79-883b-a75ae068ad82","ios":"levelo://app?vid=0e904d10-9ecb-4f79-883b-a75ae068ad82"},"vehicle_type_id":"4","last_reported":1701328004,"current_range_meters":16800,"station_id":"ce4bhih2rcd13ifvqfs0","pricing_plan_id":"free"},{"bike_id":"39623ebf-a3b7-4fb2-99b1-0c72cfeab56b","system_id":"levelo_inurba_marseille","lat":43.2558,"lon":5.38237,"is_reserved":false,"is_disabled":false,"rental_uris":{"android":"levelo://app?vid=39623ebf-a3b7-4fb2-99b1-0c72cfeab56b","ios":"levelo://app?vid=39623ebf-a3b7-4fb2-99b1-0c72cfeab56b"},"vehicle_type_id":"4","last_reported":1701328004,"current_range_meters":27600,"station_id":"ce4bhih2rcd13ifvqfs0","pricing_plan_id":"free"},{"bike_id":"8c4fe141-b4a5-437f-8e59-f3691bb625ba","system_id":"levelo_inurba_marseille","lat":43.25581,"lon":5.38244,"is_reserved":false,"is_disabled":false,"rental_uris":{"android":"levelo://app?vid=8c4fe141-b4a5-437f-8e59-f3691bb625ba","ios":"levelo://app?vid=8c4fe141-b4a5-437f-8e59-f3691bb625ba"},"vehicle_type_id":"4","last_reported":1701328004,"current_range_meters":27200,"station_id":"ce4bhih2rcd13ifvqfs0","pricing_plan_id":"free"},{"bike_id":"5e330dc8-4f5e-462a-81be-656850ec1d84","system_id":"levelo_inurba_marseille","lat":43.25579,"lon":5.38231,"is_reserved":false,"is_disabled":false,"rental_uris":{"android":"levelo://app?vid=5e330dc8-4f5e-462a-81be-656850ec1d84","ios":"levelo://app?vid=5e330dc8-4f5e-462a-81be-656850ec1d84"},"vehicle_type_id":"4","last_reported":1701328004,"current_range_meters":14800,"station_id":"ce4bhih2rcd13ifvqfs0","pricing_plan_id":"free"},{"bike_id":"f73d726e-89f6-4cd6-8727-6ae7a9ed309c","system_id":"levelo_inurba_marseille","lat":43.258224,"lon":5.394369,"is_reserved":false,"is_disabled":false,"rental_uris":{"android":"levelo://app?vid=f73d726e-89f6-4cd6-8727-6ae7a9ed309c","ios":"levelo://app?vid=f73d726e-89f6-4cd6-8727-6ae7a9ed309c"},"vehicle_type_id":"4","last_reported":1701328004,"current_range_meters":18800,"station_id":"ce4bhip2rcd13ifvqft0","pricing_plan_id":"free"},{"bike_id":"385dd4c6-ae10-46f5-9544-067cd77e486c","system_id":"levelo_inurba_marseille","lat":43.255793,"lon":5.382433,"is_reserved":false,"is_disabled":false,"rental_uris":{"android":"levelo://app?vid=385dd4c6-ae10-46f5-9544-067cd77e486c","ios":"levelo://app?vid=385dd4c6-ae10-46f5-9544-067cd77e486c"},"vehicle_type_id":"4","last_reported":1701328004,"current_range_meters":21600,"station_id":"ce4bhih2rcd13ifvqfs0","pricing_plan_id":"free"},{"bike_id":"14613f07-98ca-439a-9a3c-031c29b99e12","system_id":"levelo_inurba_marseille","lat":43.258224,"lon":5.394369,"is_reserved":false,"is_disabled":false,"rental_uris":{"android":"levelo://app?vid=14613f07-98ca-439a-9a3c-031c29b99e12","ios":"levelo://app?vid=14613f07-98ca-439a-9a3c-031c29b99e12"},"vehicle_type_id":"4","last_reported":1701328004,"current_range_meters":23600,"station_id":"ce4bhip2rcd13ifvqft0","pricing_plan_id":"free"},{"bike_id":"072735fc-7166-45e4-ab1b-a3fa626d7d29","system_id":"levelo_inurba_marseille","lat":43.254947,"lon":5.376454,"is_reserved":false,"is_disabled":false,"rental_uris":{"android":"levelo://app?vid=072735fc-7166-45e4-ab1b-a3fa626d7d29","ios":"levelo://app?vid=072735fc-7166-45e4-ab1b-a3fa626d7d29"},"vehicle_type_id":"4","last_reported":1701328004,"current_range_meters":23600,"station_id":"ce4bhh12rcd13ifvqff0","pricing_plan_id":"free"},{"bike_id":"4e0bd320-2cd9-4caa-8a11-234b11e8d880","system_id":"levelo_inurba_marseille","lat":43.254947,"lon":5.376454,"is_reserved":false,"is_disabled":false,"rental_uris":{"android":"levelo://app?vid=4e0bd320-2cd9-4caa-8a11-234b11e8d880","ios":"levelo://app?vid=4e0bd320-2cd9-4caa-8a11-234b11e8d880"},"vehicle_type_id":"4","last_reported":1701328004,"current_range_meters":31200,"station_id":"ce4bhh12rcd13ifvqff0","pricing_plan_id":"free"},{"bike_id":"30565658-e7be-4be7-92bf-bc263e190872","system_id":"levelo_inurba_marseille","lat":43.25491,"lon":5.37648,"is_reserved":false,"is_disabled":false,"rental_uris":{"android":"levelo://app?vid=30565658-e7be-4be7-92bf-bc263e190872","ios":"levelo://app?vid=30565658-e7be-4be7-92bf-bc263e190872"},"vehicle_type_id":"4","last_reported":1701328004,"current_range_meters":30400,"station_id":"ce4bhh12rcd13ifvqff0","pricing_plan_id":"free"},{"bike_id":"19029ed7-bf97-4f4d-a8c2-7d27e70ef7f7","system_id":"levelo_inurba_marseille","lat":43.270721,"lon":5.422764,"is_reserved":false,"is_disabled":false,"rental_uris":{"android":"levelo://app?vid=19029ed7-bf97-4f4d-a8c2-7d27e70ef7f7","ios":"levelo://app?vid=19029ed7-bf97-4f4d-a8c2-7d27e70ef7f7"},"vehicle_type_id":"4","last_reported":1701328004,"current_range_meters":31200,"station_id":"ce4bhk92rcd13ifvqgb0","pricing_plan_id":"free"},{"bike_id":"99146ece-9565-48d2-b906-5b123994a71d","system_id":"levelo_inurba_marseille","lat":43.258658,"lon":5.398935,"is_reserved":false,"is_disabled":false,"rental_uris":{"android":"levelo://app?vid=99146ece-9565-48d2-b906-5b123994a71d","ios":"levelo://app?vid=99146ece-9565-48d2-b906-5b123994a71d"},"vehicle_type_id":"4","last_reported":1701328004,"current_range_meters":23600,"station_id":"ce4bhl92rcd13ifvqghg","pricing_plan_id":"free"},{"bike_id":"f9626908-7216-4e15-8b13-8f5bf2183ebe","system_id":"levelo_inurba_marseille","lat":43.25936,"lon":5.40906,"is_reserved":false,"is_disabled":false,"rental_uris":{"android":"levelo://app?vid=f9626908-7216-4e15-8b13-8f5bf2183ebe","ios":"levelo://app?vid=f9626908-7216-4e15-8b13-8f5bf2183ebe"},"vehicle_type_id":"4","last_reported":1701328004,"current_range_meters":22800,"station_id":"ce4bhm92rcd13ifvqglg","pricing_plan_id":"free"},{"bike_id":"528e9404-447d-443d-91f8-36795cb971ba","system_id":"levelo_inurba_marseille","lat":43.25928,"lon":5.40911,"is_reserved":false,"is_disabled":false,"rental_uris":{"android":"levelo://app?vid=528e9404-447d-443d-91f8-36795cb971ba","ios":"levelo://app?vid=528e9404-447d-443d-91f8-36795cb971ba"},"vehicle_type_id":"4","last_reported":1701328004,"current_range_meters":22800,"station_id":"ce4bhm92rcd13ifvqglg","pricing_plan_id":"free"},{"bike_id":"4967ab4e-a884-4957-bdb9-f89f823e0acd","system_id":"levelo_inurba_marseille","lat":43.25086,"lon":5.39511,"is_reserved":false,"is_disabled":false,"rental_uris":{"android":"levelo://app?vid=4967ab4e-a884-4957-bdb9-f89f823e0acd","ios":"levelo://app?vid=4967ab4e-a884-4957-bdb9-f89f823e0acd"},"vehicle_type_id":"4","last_reported":1701328004,"current_range_meters":28000,"station_id":"ce4bhm12rcd13ifvqgkg","pricing_plan_id":"free"},{"bike_id":"6f884cfe-31b1-4883-8e5f-6ba485de8f60","system_id":"levelo_inurba_marseille","lat":43.24693,"lon":5.382096,"is_reserved":false,"is_disabled":false,"rental_uris":{"android":"levelo://app?vid=6f884cfe-31b1-4883-8e5f-6ba485de8f60","ios":"levelo://app?vid=6f884cfe-31b1-4883-8e5f-6ba485de8f60"},"vehicle_type_id":"4","last_reported":1701328004,"current_range_meters":31200,"station_id":"ce4bhih2rcd13ifvqfr0","pricing_plan_id":"free"},{"bike_id":"9bb75b10-3fc0-4d7a-827d-eb73d536dc93","system_id":"levelo_inurba_marseille","lat":43.25103,"lon":5.40329,"is_reserved":false,"is_disabled":false,"rental_uris":{"android":"levelo://app?vid=9bb75b10-3fc0-4d7a-827d-eb73d536dc93","ios":"levelo://app?vid=9bb75b10-3fc0-4d7a-827d-eb73d536dc93"},"vehicle_type_id":"4","last_reported":1701328004,"current_range_meters":20000,"station_id":"ce4bhlh2rcd13ifvqgig","pricing_plan_id":"free"},{"bike_id":"e3d09a6b-46f8-4049-9245-e5b95a6446e7","system_id":"levelo_inurba_marseille","lat":43.246461,"lon":5.389014,"is_reserved":false,"is_disabled":false,"rental_uris":{"android":"levelo://app?vid=e3d09a6b-46f8-4049-9245-e5b95a6446e7","ios":"levelo://app?vid=e3d09a6b-46f8-4049-9245-e5b95a6446e7"},"vehicle_type_id":"4","last_reported":1701328004,"current_range_meters":30000,"station_id":"ce4bhg12rcd13ifvqf60","pricing_plan_id":"free"},{"bike_id":"ec109e4e-1865-4150-80e4-902f92ec2efb","system_id":"levelo_inurba_marseille","lat":43.246467,"lon":5.388984,"is_reserved":false,"is_disabled":false,"rental_uris":{"android":"levelo://app?vid=ec109e4e-1865-4150-80e4-902f92ec2efb","ios":"levelo://app?vid=ec109e4e-1865-4150-80e4-902f92ec2efb"},"vehicle_type_id":"4","last_reported":1701328004,"current_range_meters":26400,"station_id":"ce4bhg12rcd13ifvqf60","pricing_plan_id":"free"},{"bike_id":"8813d7ad-7245-4ad9-ae27-052093603bf9","system_id":"levelo_inurba_marseille","lat":43.246461,"lon":5.389014,"is_reserved":false,"is_disabled":false,"rental_uris":{"android":"levelo://app?vid=8813d7ad-7245-4ad9-ae27-052093603bf9","ios":"levelo://app?vid=8813d7ad-7245-4ad9-ae27-052093603bf9"},"vehicle_type_id":"4","last_reported":1701328004,"current_range_meters":28400,"station_id":"ce4bhg12rcd13ifvqf60","pricing_plan_id":"free"},{"bike_id":"d24d75ab-5b89-4fed-aec9-cdbe284f48f5","system_id":"levelo_inurba_marseille","lat":43.246467,"lon":5.388984,"is_reserved":false,"is_disabled":false,"rental_uris":{"android":"levelo://app?vid=d24d75ab-5b89-4fed-aec9-cdbe284f48f5","ios":"levelo://app?vid=d24d75ab-5b89-4fed-aec9-cdbe284f48f5"},"vehicle_type_id":"4","last_reported":1701328004,"current_range_meters":29600,"station_id":"ce4bhg12rcd13ifvqf60","pricing_plan_id":"free"},{"bike_id":"28857faa-ba18-4872-a4ea-bfc77cd54e50","system_id":"levelo_inurba_marseille","lat":43.24074,"lon":5.37761,"is_reserved":false,"is_disabled":false,"rental_uris":{"android":"levelo://app?vid=28857faa-ba18-4872-a4ea-bfc77cd54e50","ios":"levelo://app?vid=28857faa-ba18-4872-a4ea-bfc77cd54e50"},"vehicle_type_id":"4","last_reported":1701328004,"current_range_meters":27200,"station_id":"ce4bhnp2rcd13ifvqgvg","pricing_plan_id":"free"},{"bike_id":"a64f06f4-435a-4274-9457-d88f81e77a38","system_id":"levelo_inurba_marseille","lat":43.24073,"lon":5.37759,"is_reserved":false,"is_disabled":false,"rental_uris":{"android":"levelo://app?vid=a64f06f4-435a-4274-9457-d88f81e77a38","ios":"levelo://app?vid=a64f06f4-435a-4274-9457-d88f81e77a38"},"vehicle_type_id":"4","last_reported":1701328004,"current_range_meters":7200,"station_id":"ce4bhnp2rcd13ifvqgvg","pricing_plan_id":"free"},{"bike_id":"346577f1-cf8b-49af-9f85-ef25a078a4c9","system_id":"levelo_inurba_marseille","lat":43.24073,"lon":5.37761,"is_reserved":false,"is_disabled":false,"rental_uris":{"android":"levelo://app?vid=346577f1-cf8b-49af-9f85-ef25a078a4c9","ios":"levelo://app?vid=346577f1-cf8b-49af-9f85-ef25a078a4c9"},"vehicle_type_id":"4","last_reported":1701328004,"current_range_meters":19600,"station_id":"ce4bhnp2rcd13ifvqgvg","pricing_plan_id":"free"},{"bike_id":"c912dfb9-b9e1-4490-ba70-4926b3071cf6","system_id":"levelo_inurba_marseille","lat":43.24072,"lon":5.3776,"is_reserved":false,"is_disabled":false,"rental_uris":{"android":"levelo://app?vid=c912dfb9-b9e1-4490-ba70-4926b3071cf6","ios":"levelo://app?vid=c912dfb9-b9e1-4490-ba70-4926b3071cf6"},"vehicle_type_id":"4","last_reported":1701328004,"current_range_meters":26800,"station_id":"ce4bhnp2rcd13ifvqgvg","pricing_plan_id":"free"},{"bike_id":"31477cac-dad9-40da-a8f0-2b06ddb732dc","system_id":"levelo_inurba_marseille","lat":43.24072,"lon":5.3776,"is_reserved":false,"is_disabled":false,"rental_uris":{"android":"levelo://app?vid=31477cac-dad9-40da-a8f0-2b06ddb732dc","ios":"levelo://app?vid=31477cac-dad9-40da-a8f0-2b06ddb732dc"},"vehicle_type_id":"4","last_reported":1701328004,"current_range_meters":22800,"station_id":"ce4bhnp2rcd13ifvqgvg","pricing_plan_id":"free"},{"bike_id":"6891fcde-2fef-433a-bf09-da9c3692e4cc","system_id":"levelo_inurba_marseille","lat":43.240623,"lon":5.377642,"is_reserved":false,"is_disabled":false,"rental_uris":{"android":"levelo://app?vid=6891fcde-2fef-433a-bf09-da9c3692e4cc","ios":"levelo://app?vid=6891fcde-2fef-433a-bf09-da9c3692e4cc"},"vehicle_type_id":"4","last_reported":1701328004,"current_range_meters":28800,"station_id":"ce4bhnp2rcd13ifvqgvg","pricing_plan_id":"free"},{"bike_id":"226c9a43-4a54-4ac9-a198-198c18713b5c","system_id":"levelo_inurba_marseille","lat":43.240623,"lon":5.377642,"is_reserved":false,"is_disabled":false,"rental_uris":{"android":"levelo://app?vid=226c9a43-4a54-4ac9-a198-198c18713b5c","ios":"levelo://app?vid=226c9a43-4a54-4ac9-a198-198c18713b5c"},"vehicle_type_id":"4","last_reported":1701328004,"current_range_meters":10800,"station_id":"ce4bhnp2rcd13ifvqgvg","pricing_plan_id":"free"},{"bike_id":"6987b0ed-c98f-4734-95c6-9dc3e1739ca2","system_id":"levelo_inurba_marseille","lat":43.24072,"lon":5.37762,"is_reserved":false,"is_disabled":false,"rental_uris":{"android":"levelo://app?vid=6987b0ed-c98f-4734-95c6-9dc3e1739ca2","ios":"levelo://app?vid=6987b0ed-c98f-4734-95c6-9dc3e1739ca2"},"vehicle_type_id":"4","last_reported":1701328004,"current_range_meters":19200,"station_id":"ce4bhnp2rcd13ifvqgvg","pricing_plan_id":"free"},{"bike_id":"92924a84-7917-4a0d-8142-c584d6c9e058","system_id":"levelo_inurba_marseille","lat":43.24072,"lon":5.37763,"is_reserved":false,"is_disabled":false,"rental_uris":{"android":"levelo://app?vid=92924a84-7917-4a0d-8142-c584d6c9e058","ios":"levelo://app?vid=92924a84-7917-4a0d-8142-c584d6c9e058"},"vehicle_type_id":"4","last_reported":1701328004,"current_range_meters":15200,"station_id":"ce4bhnp2rcd13ifvqgvg","pricing_plan_id":"free"},{"bike_id":"6b2e1e84-56f7-4156-bda5-48632a027605","system_id":"levelo_inurba_marseille","lat":43.24072,"lon":5.37765,"is_reserved":false,"is_disabled":false,"rental_uris":{"android":"levelo://app?vid=6b2e1e84-56f7-4156-bda5-48632a027605","ios":"levelo://app?vid=6b2e1e84-56f7-4156-bda5-48632a027605"},"vehicle_type_id":"4","last_reported":1701328004,"current_range_meters":17600,"station_id":"ce4bhnp2rcd13ifvqgvg","pricing_plan_id":"free"},{"bike_id":"43bdbb96-ecd2-49a2-84a3-578cdb3630c8","system_id":"levelo_inurba_marseille","lat":43.24071,"lon":5.37762,"is_reserved":false,"is_disabled":false,"rental_uris":{"android":"levelo://app?vid=43bdbb96-ecd2-49a2-84a3-578cdb3630c8","ios":"levelo://app?vid=43bdbb96-ecd2-49a2-84a3-578cdb3630c8"},"vehicle_type_id":"4","last_reported":1701328004,"current_range_meters":26800,"station_id":"ce4bhnp2rcd13ifvqgvg","pricing_plan_id":"free"},{"bike_id":"70128eba-c96e-406a-99d4-bd940b82da31","system_id":"levelo_inurba_marseille","lat":43.240623,"lon":5.377642,"is_reserved":false,"is_disabled":false,"rental_uris":{"android":"levelo://app?vid=70128eba-c96e-406a-99d4-bd940b82da31","ios":"levelo://app?vid=70128eba-c96e-406a-99d4-bd940b82da31"},"vehicle_type_id":"4","last_reported":1701328004,"current_range_meters":30400,"station_id":"ce4bhnp2rcd13ifvqgvg","pricing_plan_id":"free"},{"bike_id":"a9f9907b-0d2c-429d-8514-98f08adfb882","system_id":"levelo_inurba_marseille","lat":43.2407,"lon":5.3776,"is_reserved":false,"is_disabled":false,"rental_uris":{"android":"levelo://app?vid=a9f9907b-0d2c-429d-8514-98f08adfb882","ios":"levelo://app?vid=a9f9907b-0d2c-429d-8514-98f08adfb882"},"vehicle_type_id":"4","last_reported":1701328004,"current_range_meters":19600,"station_id":"ce4bhnp2rcd13ifvqgvg","pricing_plan_id":"free"},{"bike_id":"2ab6544b-cda1-42f2-a05e-5f1370e63f0a","system_id":"levelo_inurba_marseille","lat":43.2407,"lon":5.3776,"is_reserved":false,"is_disabled":false,"rental_uris":{"android":"levelo://app?vid=2ab6544b-cda1-42f2-a05e-5f1370e63f0a","ios":"levelo://app?vid=2ab6544b-cda1-42f2-a05e-5f1370e63f0a"},"vehicle_type_id":"4","last_reported":1701328004,"current_range_meters":27200,"station_id":"ce4bhnp2rcd13ifvqgvg","pricing_plan_id":"free"},{"bike_id":"601fb19c-051b-41ac-935a-02b6947d873b","system_id":"levelo_inurba_marseille","lat":43.2407,"lon":5.37764,"is_reserved":false,"is_disabled":false,"rental_uris":{"android":"levelo://app?vid=601fb19c-051b-41ac-935a-02b6947d873b","ios":"levelo://app?vid=601fb19c-051b-41ac-935a-02b6947d873b"},"vehicle_type_id":"4","last_reported":1701328004,"current_range_meters":0,"station_id":"ce4bhnp2rcd13ifvqgvg","pricing_plan_id":"free"},{"bike_id":"400c98ab-27d5-4a71-9ad2-be2f7de72f64","system_id":"levelo_inurba_marseille","lat":43.2407,"lon":5.37766,"is_reserved":false,"is_disabled":false,"rental_uris":{"android":"levelo://app?vid=400c98ab-27d5-4a71-9ad2-be2f7de72f64","ios":"levelo://app?vid=400c98ab-27d5-4a71-9ad2-be2f7de72f64"},"vehicle_type_id":"4","last_reported":1701328004,"current_range_meters":28800,"station_id":"ce4bhnp2rcd13ifvqgvg","pricing_plan_id":"free"},{"bike_id":"b729d806-ea14-4f65-9f1f-16c379189b1d","system_id":"levelo_inurba_marseille","lat":43.240623,"lon":5.377642,"is_reserved":false,"is_disabled":false,"rental_uris":{"android":"levelo://app?vid=b729d806-ea14-4f65-9f1f-16c379189b1d","ios":"levelo://app?vid=b729d806-ea14-4f65-9f1f-16c379189b1d"},"vehicle_type_id":"4","last_reported":1701328004,"current_range_meters":20800,"station_id":"ce4bhnp2rcd13ifvqgvg","pricing_plan_id":"free"},{"bike_id":"bcc93469-dac7-4061-b03e-a1e648dc5717","system_id":"levelo_inurba_marseille","lat":43.24069,"lon":5.37762,"is_reserved":false,"is_disabled":false,"rental_uris":{"android":"levelo://app?vid=bcc93469-dac7-4061-b03e-a1e648dc5717","ios":"levelo://app?vid=bcc93469-dac7-4061-b03e-a1e648dc5717"},"vehicle_type_id":"4","last_reported":1701328004,"current_range_meters":800,"station_id":"ce4bhnp2rcd13ifvqgvg","pricing_plan_id":"free"},{"bike_id":"3937f540-f8cb-4cf6-bb83-250d07d7789d","system_id":"levelo_inurba_marseille","lat":43.240623,"lon":5.377642,"is_reserved":false,"is_disabled":false,"rental_uris":{"android":"levelo://app?vid=3937f540-f8cb-4cf6-bb83-250d07d7789d","ios":"levelo://app?vid=3937f540-f8cb-4cf6-bb83-250d07d7789d"},"vehicle_type_id":"4","last_reported":1701328004,"current_range_meters":25200,"station_id":"ce4bhnp2rcd13ifvqgvg","pricing_plan_id":"free"},{"bike_id":"46274338-7531-44ee-8066-1fb7da05be34","system_id":"levelo_inurba_marseille","lat":43.24067,"lon":5.3777,"is_reserved":false,"is_disabled":false,"rental_uris":{"android":"levelo://app?vid=46274338-7531-44ee-8066-1fb7da05be34","ios":"levelo://app?vid=46274338-7531-44ee-8066-1fb7da05be34"},"vehicle_type_id":"4","last_reported":1701328004,"current_range_meters":31200,"station_id":"ce4bhnp2rcd13ifvqgvg","pricing_plan_id":"free"},{"bike_id":"580aa9b2-462f-4c7b-90f8-ce31fba87ebf","system_id":"levelo_inurba_marseille","lat":43.240623,"lon":5.377642,"is_reserved":false,"is_disabled":false,"rental_uris":{"android":"levelo://app?vid=580aa9b2-462f-4c7b-90f8-ce31fba87ebf","ios":"levelo://app?vid=580aa9b2-462f-4c7b-90f8-ce31fba87ebf"},"vehicle_type_id":"4","last_reported":1701328004,"current_range_meters":27200,"station_id":"ce4bhnp2rcd13ifvqgvg","pricing_plan_id":"free"},{"bike_id":"c86c154b-164f-47cc-bcca-cd39bf48d6e4","system_id":"levelo_inurba_marseille","lat":43.240623,"lon":5.377642,"is_reserved":false,"is_disabled":false,"rental_uris":{"android":"levelo://app?vid=c86c154b-164f-47cc-bcca-cd39bf48d6e4","ios":"levelo://app?vid=c86c154b-164f-47cc-bcca-cd39bf48d6e4"},"vehicle_type_id":"4","last_reported":1701328004,"current_range_meters":17200,"station_id":"ce4bhnp2rcd13ifvqgvg","pricing_plan_id":"free"},{"bike_id":"c0f80aba-5e52-4d39-8d9c-e4dd952afa90","system_id":"levelo_inurba_marseille","lat":43.241784,"lon":5.397269,"is_reserved":false,"is_disabled":false,"rental_uris":{"android":"levelo://app?vid=c0f80aba-5e52-4d39-8d9c-e4dd952afa90","ios":"levelo://app?vid=c0f80aba-5e52-4d39-8d9c-e4dd952afa90"},"vehicle_type_id":"4","last_reported":1701328004,"current_range_meters":26000,"station_id":"ce4bhn12rcd13ifvqgpg","pricing_plan_id":"free"},{"bike_id":"675c970c-c0cf-4822-a023-175273da4489","system_id":"levelo_inurba_marseille","lat":43.231923,"lon":5.355545,"is_reserved":false,"is_disabled":false,"rental_uris":{"android":"levelo://app?vid=675c970c-c0cf-4822-a023-175273da4489","ios":"levelo://app?vid=675c970c-c0cf-4822-a023-175273da4489"},"vehicle_type_id":"4","last_reported":1701328004,"current_range_meters":31200,"station_id":"ce4bhu92rcd13ifvqi70","pricing_plan_id":"free"},{"bike_id":"d1703505-b125-4a98-a807-11024241bc04","system_id":"levelo_inurba_marseille","lat":43.231923,"lon":5.355545,"is_reserved":false,"is_disabled":false,"rental_uris":{"android":"levelo://app?vid=d1703505-b125-4a98-a807-11024241bc04","ios":"levelo://app?vid=d1703505-b125-4a98-a807-11024241bc04"},"vehicle_type_id":"4","last_reported":1701328004,"current_range_meters":31200,"station_id":"ce4bhu92rcd13ifvqi70","pricing_plan_id":"free"},{"bike_id":"be42eec5-4aaf-4f1c-8445-219a8901db92","system_id":"levelo_inurba_marseille","lat":43.231923,"lon":5.355545,"is_reserved":false,"is_disabled":false,"rental_uris":{"android":"levelo://app?vid=be42eec5-4aaf-4f1c-8445-219a8901db92","ios":"levelo://app?vid=be42eec5-4aaf-4f1c-8445-219a8901db92"},"vehicle_type_id":"4","last_reported":1701328004,"current_range_meters":31200,"station_id":"ce4bhu92rcd13ifvqi70","pricing_plan_id":"free"},{"bike_id":"26cd3036-9e31-4635-8449-e01c086f6041","system_id":"levelo_inurba_marseille","lat":43.231923,"lon":5.355545,"is_reserved":false,"is_disabled":false,"rental_uris":{"android":"levelo://app?vid=26cd3036-9e31-4635-8449-e01c086f6041","ios":"levelo://app?vid=26cd3036-9e31-4635-8449-e01c086f6041"},"vehicle_type_id":"4","last_reported":1701328004,"current_range_meters":20000,"station_id":"ce4bhu92rcd13ifvqi70","pricing_plan_id":"free"},{"bike_id":"fb39f2af-5ba4-443c-b834-bb19663edadc","system_id":"levelo_inurba_marseille","lat":43.231923,"lon":5.355545,"is_reserved":false,"is_disabled":false,"rental_uris":{"android":"levelo://app?vid=fb39f2af-5ba4-443c-b834-bb19663edadc","ios":"levelo://app?vid=fb39f2af-5ba4-443c-b834-bb19663edadc"},"vehicle_type_id":"4","last_reported":1701328004,"current_range_meters":31200,"station_id":"ce4bhu92rcd13ifvqi70","pricing_plan_id":"free"},{"bike_id":"b37cf8bc-ef87-4960-b38c-3279b894369f","system_id":"levelo_inurba_marseille","lat":43.231923,"lon":5.355545,"is_reserved":false,"is_disabled":false,"rental_uris":{"android":"levelo://app?vid=b37cf8bc-ef87-4960-b38c-3279b894369f","ios":"levelo://app?vid=b37cf8bc-ef87-4960-b38c-3279b894369f"},"vehicle_type_id":"4","last_reported":1701328004,"current_range_meters":31200,"station_id":"ce4bhu92rcd13ifvqi70","pricing_plan_id":"free"},{"bike_id":"3bbe1fd5-b7d2-484c-969b-f57a381950c3","system_id":"levelo_inurba_marseille","lat":43.231923,"lon":5.355545,"is_reserved":false,"is_disabled":false,"rental_uris":{"android":"levelo://app?vid=3bbe1fd5-b7d2-484c-969b-f57a381950c3","ios":"levelo://app?vid=3bbe1fd5-b7d2-484c-969b-f57a381950c3"},"vehicle_type_id":"4","last_reported":1701328004,"current_range_meters":12000,"station_id":"ce4bhu92rcd13ifvqi70","pricing_plan_id":"free"},{"bike_id":"5823558f-5e45-4b8f-8bb1-5079aaae37c9","system_id":"levelo_inurba_marseille","lat":43.231923,"lon":5.355545,"is_reserved":false,"is_disabled":false,"rental_uris":{"android":"levelo://app?vid=5823558f-5e45-4b8f-8bb1-5079aaae37c9","ios":"levelo://app?vid=5823558f-5e45-4b8f-8bb1-5079aaae37c9"},"vehicle_type_id":"4","last_reported":1701328004,"current_range_meters":14800,"station_id":"ce4bhu92rcd13ifvqi70","pricing_plan_id":"free"},{"bike_id":"06853db6-aa55-4d29-9d8f-a856bd2de594","system_id":"levelo_inurba_marseille","lat":43.231793,"lon":5.400044,"is_reserved":false,"is_disabled":false,"rental_uris":{"android":"levelo://app?vid=06853db6-aa55-4d29-9d8f-a856bd2de594","ios":"levelo://app?vid=06853db6-aa55-4d29-9d8f-a856bd2de594"},"vehicle_type_id":"4","last_reported":1701328004,"current_range_meters":22800,"station_id":"ce4bhn12rcd13ifvqgqg","pricing_plan_id":"free"},{"bike_id":"aa92b96d-64d8-4c3b-a126-5fd9d905cd28","system_id":"levelo_inurba_marseille","lat":43.231793,"lon":5.400044,"is_reserved":false,"is_disabled":false,"rental_uris":{"android":"levelo://app?vid=aa92b96d-64d8-4c3b-a126-5fd9d905cd28","ios":"levelo://app?vid=aa92b96d-64d8-4c3b-a126-5fd9d905cd28"},"vehicle_type_id":"4","last_reported":1701328004,"current_range_meters":31200,"station_id":"ce4bhn12rcd13ifvqgqg","pricing_plan_id":"free"},{"bike_id":"1cc950d9-b775-4678-93c4-e31b06221635","system_id":"levelo_inurba_marseille","lat":43.231855,"lon":5.399805,"is_reserved":false,"is_disabled":false,"rental_uris":{"android":"levelo://app?vid=1cc950d9-b775-4678-93c4-e31b06221635","ios":"levelo://app?vid=1cc950d9-b775-4678-93c4-e31b06221635"},"vehicle_type_id":"4","last_reported":1701328004,"current_range_meters":7600,"station_id":"ce4bhn12rcd13ifvqgqg","pricing_plan_id":"free"},{"bike_id":"5ff68776-d431-4895-866c-f190f6faec3c","system_id":"levelo_inurba_marseille","lat":43.231793,"lon":5.400044,"is_reserved":false,"is_disabled":false,"rental_uris":{"android":"levelo://app?vid=5ff68776-d431-4895-866c-f190f6faec3c","ios":"levelo://app?vid=5ff68776-d431-4895-866c-f190f6faec3c"},"vehicle_type_id":"4","last_reported":1701328004,"current_range_meters":31200,"station_id":"ce4bhn12rcd13ifvqgqg","pricing_plan_id":"free"},{"bike_id":"467763e3-88e0-4ee5-aac2-334a595be8f9","system_id":"levelo_inurba_marseille","lat":43.231845,"lon":5.399922,"is_reserved":false,"is_disabled":false,"rental_uris":{"android":"levelo://app?vid=467763e3-88e0-4ee5-aac2-334a595be8f9","ios":"levelo://app?vid=467763e3-88e0-4ee5-aac2-334a595be8f9"},"vehicle_type_id":"4","last_reported":1701328004,"current_range_meters":24800,"station_id":"ce4bhn12rcd13ifvqgqg","pricing_plan_id":"free"},{"bike_id":"7ccd67b9-63b4-44c4-962f-e558f1b86670","system_id":"levelo_inurba_marseille","lat":43.231562,"lon":5.436933,"is_reserved":false,"is_disabled":false,"rental_uris":{"android":"levelo://app?vid=7ccd67b9-63b4-44c4-962f-e558f1b86670","ios":"levelo://app?vid=7ccd67b9-63b4-44c4-962f-e558f1b86670"},"vehicle_type_id":"4","last_reported":1701328004,"current_range_meters":15600,"station_id":"ce4bhmp2rcd13ifvqgog","pricing_plan_id":"free"}]}}