{"last_updated":1704211694,"ttl":30,"version":"2.2","data":{"bikes":[{"bike_id":"4c023bb4-c6e3-4bbc-8b6a-fe9e9bf3bd10","system_id":"levelo_inurba_marseille","lat":43.312239,"lon":5.368562,"is_reserved":false,"is_disabled":false,"rental_uris":{"android":"levelo://app?vid=4c023bb4-c6e3-4bbc-8b6a-fe9e9bf3bd10","ios":"levelo://app?vid=4c023bb4-c6e3-4bbc-8b6a-fe9e9bf3bd10"},"vehicle_type_id":"4","last_reported":1704211694,"current_range_meters":7600,"station_id":"ce4bgl92rcd13ifvqbq0","pricing_plan_id":"free"},{"bike_id":"d49c604e-2ed6-47e7-be81-b257b9bf3d80","system_id":"levelo_inurba_marseille","lat":43.312239,"lon":5.368562,"is_reserved":false,"is_disabled":false,"rental_uris":{"android":"levelo://app?vid=d49c604e-2ed6-47e7-be81-b257b9bf3d80","ios":"levelo://app?vid=d49c604e-2ed6-47e7-be81-b257b9bf3d80"},"vehicle_type_id":"4","last_reported":1704211694,"current_range_meters":18800,"station_id":"ce4bgl92rcd13ifvqbq0","pricing_plan_id":"free"},{"bike_id":"de148717-95f8-4dbe-96be-5dd135e16fa8","system_id":"levelo_inurba_marseille","lat":43.309076,"lon":5.368465,"is_reserved":false,"is_disabled":false,"rental_uris":{"android":"levelo://app?vid=de148717-95f8-4dbe-96be-5dd135e16fa8","ios":"levelo://app?vid=de148717-95f8-4dbe-96be-5dd135e16fa8"},"vehicle_type_id":"4","last_reported":1704211694,"current_range_meters":28400,"station_id":"ce4bgn92rcd13ifvqbvg","pricing_plan_id":"free"},{"bike_id":"daad1603-ca52-4bb0-b2b5-a04ff26d316f","system_id":"levelo_inurba_marseille","lat":43.309076,"lon":5.368465,"is_reserved":false,"is_disabled":false,"rental_uris":{"android":"levelo://app?vid=daad1603-ca52-4bb0-b2b5-a04ff26d316f","ios":"levelo://app?vid=daad1603-ca52-4bb0-b2b5-a04ff26d316f"},"vehicle_type_id":"4","last_reported":1704211694,"current_range_meters":24400,"station_id":"ce4bgn92rcd13ifvqbvg","pricing_plan_id":"free"},{"bike_id":"01b57536-5594-4344-addc-e0d1e69453ae","system_id":"levelo_inurba_marseille","lat":43.314811,"lon":5.373104,"is_reserved":false,"is_disabled":false,"rental_uris":{"android":"levelo://app?vid=01b57536-5594-4344-addc-e0d1e69453ae","ios":"levelo://app?vid=01b57536-5594-4344-addc-e0d1e69453ae"},"vehicle_type_id":"4","last_reported":1704211694,"current_range_meters":10400,"station_id":"ce4bgt12rcd13ifvqcd0","pricing_plan_id":"free"},{"bike_id":"3ffc8943-b7c6-4e24-96c6-c62f97e44c10","system_id":"levelo_inurba_marseille","lat":43.309039,"lon":5.371797,"is_reserved":false,"is_disabled":false,"rental_uris":{"android":"levelo://app?vid=3ffc8943-b7c6-4e24-96c6-c62f97e44c10","ios":"levelo://app?vid=3ffc8943-b7c6-4e24-96c6-c62f97e44c10"},"vehicle_type_id":"4","last_reported":1704211694,"current_range_meters":22000,"station_id":"ce4bguh2rcd13ifvqckg","pricing_plan_id":"free"},{"bike_id":"51649fa7-e6c0-4b90-bc21-69b5e29fd97f","system_id":"levelo_inurba_marseille","lat":43.309039,"lon":5.371797,"is_reserved":false,"is_disabled":false,"rental_uris":{"android":"levelo://app?vid=51649fa7-e6c0-4b90-bc21-69b5e29fd97f","ios":"levelo://app?vid=51649fa7-e6c0-4b90-bc21-69b5e29fd97f"},"vehicle_type_id":"4","last_reported":1704211694,"current_range_meters":23600,"station_id":"ce4bguh2rcd13ifvqckg","pricing_plan_id":"free"},{"bike_id":"6a9f4531-fa7b-41a3-b5a4-90923256291a","system_id":"levelo_inurba_marseille","lat":43.305714,"lon":5.365633,"is_reserved":false,"is_disabled":false,"rental_uris":{"android":"levelo://app?vid=6a9f4531-fa7b-41a3-b5a4-90923256291a","ios":"levelo://app?vid=6a9f4531-fa7b-41a3-b5a4-90923256291a"},"vehicle_type_id":"4","last_reported":1704211694,"current_range_meters":22400,"station_id":"ce4bgs12rcd13ifvqcag","pricing_plan_id":"free"},{"bike_id":"26b78f87-b7c6-4919-a18c-a2750138a567","system_id":"levelo_inurba_marseille","lat":43.305714,"lon":5.365633,"is_reserved":false,"is_disabled":false,"rental_uris":{"android":"levelo://app?vid=26b78f87-b7c6-4919-a18c-a2750138a567","ios":"levelo://app?vid=26b78f87-b7c6-4919-a18c-a2750138a567"},"vehicle_type_id":"4","last_reported":1704211694,"current_range_meters":800,"station_id":"ce4bgs12rcd13ifvqcag","pricing_plan_id":"free"},{"bike_id":"8ce5bd4d-2efa-4b37-a100-3df24b3d1c1f","system_id":"levelo_inurba_marseille","lat":43.305515,"lon":5.366921,"is_reserved":false,"is_disabled":false,"rental_uris":{"android":"levelo://app?vid=8ce5bd4d-2efa-4b37-a100-3df24b3d1c1f","ios":"levelo://app?vid=8ce5bd4d-2efa-4b37-a100-3df24b3d1c1f"},"vehicle_type_id":"4","last_reported":1704211694,"current_range_meters":27200,"station_id":"","pricing_plan_id":"free"},{"bike_id":"c3c6b8c0-a1d7-4ea7-a9b0-7908d05f2011","system_id":"levelo_inurba_marseille","lat":43.305712,"lon":5.365641,"is_reserved":false,"is_disabled":false,"rental_uris":{"android":"levelo://app?vid=c3c6b8c0-a1d7-4ea7-a9b0-7908d05f2011","ios":"levelo://app?vid=c3c6b8c0-a1d7-4ea7-a9b0-7908d05f2011"},"vehicle_type_id":"4","last_reported":1704211694,"current_range_meters":24800,"station_id":"ce4bgs12rcd13ifvqcag","pricing_plan_id":"free"},{"bike_id":"891d8ba3-b100-446d-847d-6ce913bdf3af","system_id":"levelo_inurba_marseille","lat":43.305714,"lon":5.365633,"is_reserved":false,"is_disabled":false,"rental_uris":{"android":"levelo://app?vid=891d8ba3-b100-446d-847d-6ce913bdf3af","ios":"levelo://app?vid=891d8ba3-b100-446d-847d-6ce913bdf3af"},"vehicle_type_id":"4","last_reported":1704211694,"current_range_meters":10000,"station_id":"ce4bgs12rcd13ifvqcag","pricing_plan_id":"free"},{"bike_id":"2d54cb29-aae8-4895-ac44-e51021bc2ed3","system_id":"levelo_inurba_marseille","lat":43.305714,"lon":5.365633,"is_reserved":false,"is_disabled":false,"rental_uris":{"android":"levelo://app?vid=2d54cb29-aae8-4895-ac44-e51021bc2ed3","ios":"levelo://app?vid=2d54cb29-aae8-4895-ac44-e51021bc2ed3"},"vehicle_type_id":"4","last_reported":1704211694,"current_range_meters":7600,"station_id":"ce4bgs12rcd13ifvqcag","pricing_plan_id":"free"},{"bike_id":"89c9626e-e832-4885-91d0-3d86fe3cd45c","system_id":"levelo_inurba_marseille","lat":43.305706,"lon":5.365654,"is_reserved":false,"is_disabled":false,"rental_uris":{"android":"levelo://app?vid=89c9626e-e832-4885-91d0-3d86fe3cd45c","ios":"levelo://app?vid=89c9626e-e832-4885-91d0-3d86fe3cd45c"},"vehicle_type_id":"4","last_reported":1704211694,"current_range_meters":18000,"station_id":"ce4bgs12rcd13ifvqcag","pricing_plan_id":"free"},{"bike_id":"d5e76b06-c978-42e3-8007-74d419b2457f","system_id":"levelo_inurba_marseille","lat":43.305714,"lon":5.365633,"is_reserved":false,"is_disabled":false,"rental_uris":{"android":"levelo://app?vid=d5e76b06-c978-42e3-8007-74d419b2457f","ios":"levelo://app?vid=d5e76b06-c978-42e3-8007-74d419b2457f"},"vehicle_type_id":"4","last_reported":1704211694,"current_range_meters":29600,"station_id":"ce4bgs12rcd13ifvqcag","pricing_plan_id":"free"},{"bike_id":"7fd661c3-fcb0-405d-a6cc-58635fe10085","system_id":"levelo_inurba_marseille","lat":43.30533,"lon":5.36553,"is_reserved":false,"is_disabled":false,"rental_uris":{"android":"levelo://app?vid=7fd661c3-fcb0-405d-a6cc-58635fe10085","ios":"levelo://app?vid=7fd661c3-fcb0-405d-a6cc-58635fe10085"},"vehicle_type_id":"4","last_reported":1704211694,"current_range_meters":3600,"station_id":"ce4bgs12rcd13ifvqcag","pricing_plan_id":"free"},{"bike_id":"7217c437-b9c8-4a4a-aa49-77ad5fa045bd","system_id":"levelo_inurba_marseille","lat":43.305706,"lon":5.365654,"is_reserved":false,"is_disabled":false,"rental_uris":{"android":"levelo://app?vid=7217c437-b9c8-4a4a-aa49-77ad5fa045bd","ios":"levelo://app?vid=7217c437-b9c8-4a4a-aa49-77ad5fa045bd"},"vehicle_type_id":"4","last_reported":1704211694,"current_range_meters":4800,"station_id":"ce4bgs12rcd13ifvqcag","pricing_plan_id":"free"},{"bike_id":"66606ac8-e12d-4a05-b5a5-b1f3b85138d5","system_id":"levelo_inurba_marseille","lat":43.305706,"lon":5.365654,"is_reserved":false,"is_disabled":false,"rental_uris":{"android":"levelo://app?vid=66606ac8-e12d-4a05-b5a5-b1f3b85138d5","ios":"levelo://app?vid=66606ac8-e12d-4a05-b5a5-b1f3b85138d5"},"vehicle_type_id":"4","last_reported":1704211694,"current_range_meters":29600,"station_id":"ce4bgs12rcd13ifvqcag","pricing_plan_id":"free"},{"bike_id":"c7b84929-b4e6-451e-81d4-26c2964e0c40","system_id":"levelo_inurba_marseille","lat":43.31074,"lon":5.37809,"is_reserved":false,"is_disabled":false,"rental_uris":{"android":"levelo://app?vid=c7b84929-b4e6-451e-81d4-26c2964e0c40","ios":"levelo://app?vid=c7b84929-b4e6-451e-81d4-26c2964e0c40"},"vehicle_type_id":"4","last_reported":1704211694,"current_range_meters":27600,"station_id":"","pricing_plan_id":"free"},{"bike_id":"25af9e1c-886c-4f64-92f2-5ca68e46ae4a","system_id":"levelo_inurba_marseille","lat":43.31722,"lon":5.37668,"is_reserved":false,"is_disabled":false,"rental_uris":{"android":"levelo://app?vid=25af9e1c-886c-4f64-92f2-5ca68e46ae4a","ios":"levelo://app?vid=25af9e1c-886c-4f64-92f2-5ca68e46ae4a"},"vehicle_type_id":"4","last_reported":1704211694,"current_range_meters":14000,"station_id":"","pricing_plan_id":"free"},{"bike_id":"dbda180e-dd5e-4e64-b254-cd9dffbaa5e1","system_id":"levelo_inurba_marseille","lat":43.317075,"lon":5.377367,"is_reserved":false,"is_disabled":false,"rental_uris":{"android":"levelo://app?vid=dbda180e-dd5e-4e64-b254-cd9dffbaa5e1","ios":"levelo://app?vid=dbda180e-dd5e-4e64-b254-cd9dffbaa5e1"},"vehicle_type_id":"4","last_reported":1704211694,"current_range_meters":18400,"station_id":"ce4bgth2rcd13ifvqch0","pricing_plan_id":"free"},{"bike_id":"82ecf291-1af6-4e8a-9a27-2895a2c1ff19","system_id":"levelo_inurba_marseille","lat":43.30304,"lon":5.368987,"is_reserved":false,"is_disabled":false,"rental_uris":{"android":"levelo://app?vid=82ecf291-1af6-4e8a-9a27-2895a2c1ff19","ios":"levelo://app?vid=82ecf291-1af6-4e8a-9a27-2895a2c1ff19"},"vehicle_type_id":"4","last_reported":1704211694,"current_range_meters":24400,"station_id":"ce4bgqh2rcd13ifvqc5g","pricing_plan_id":"free"},{"bike_id":"ae0f7a89-7d60-48a4-a1a8-43feb7c4ff69","system_id":"levelo_inurba_marseille","lat":43.30304,"lon":5.368987,"is_reserved":false,"is_disabled":false,"rental_uris":{"android":"levelo://app?vid=ae0f7a89-7d60-48a4-a1a8-43feb7c4ff69","ios":"levelo://app?vid=ae0f7a89-7d60-48a4-a1a8-43feb7c4ff69"},"vehicle_type_id":"4","last_reported":1704211694,"current_range_meters":14800,"station_id":"ce4bgqh2rcd13ifvqc5g","pricing_plan_id":"free"},{"bike_id":"22fea2e2-9756-4a18-9d60-3a9946ae98d5","system_id":"levelo_inurba_marseille","lat":43.303046,"lon":5.368981,"is_reserved":false,"is_disabled":false,"rental_uris":{"android":"levelo://app?vid=22fea2e2-9756-4a18-9d60-3a9946ae98d5","ios":"levelo://app?vid=22fea2e2-9756-4a18-9d60-3a9946ae98d5"},"vehicle_type_id":"4","last_reported":1704211694,"current_range_meters":29600,"station_id":"ce4bgqh2rcd13ifvqc5g","pricing_plan_id":"free"},{"bike_id":"5377074b-30e2-4d67-825b-9deb3b1dbed3","system_id":"levelo_inurba_marseille","lat":43.304708,"lon":5.379039,"is_reserved":false,"is_disabled":false,"rental_uris":{"android":"levelo://app?vid=5377074b-30e2-4d67-825b-9deb3b1dbed3","ios":"levelo://app?vid=5377074b-30e2-4d67-825b-9deb3b1dbed3"},"vehicle_type_id":"4","last_reported":1704211694,"current_range_meters":10400,"station_id":"","pricing_plan_id":"free"},{"bike_id":"ad0b54f6-a0d7-48f1-973a-d58d6337d191","system_id":"levelo_inurba_marseille","lat":43.324771,"lon":5.36557,"is_reserved":false,"is_disabled":false,"rental_uris":{"android":"levelo://app?vid=ad0b54f6-a0d7-48f1-973a-d58d6337d191","ios":"levelo://app?vid=ad0b54f6-a0d7-48f1-973a-d58d6337d191"},"vehicle_type_id":"4","last_reported":1704211694,"current_range_meters":22400,"station_id":"ce4bhs12rcd13ifvqhvg","pricing_plan_id":"free"},{"bike_id":"e6ce07c6-28d6-4d1f-91c0-66ea415e8c5f","system_id":"levelo_inurba_marseille","lat":43.30284,"lon":5.37697,"is_reserved":false,"is_disabled":false,"rental_uris":{"android":"levelo://app?vid=e6ce07c6-28d6-4d1f-91c0-66ea415e8c5f","ios":"levelo://app?vid=e6ce07c6-28d6-4d1f-91c0-66ea415e8c5f"},"vehicle_type_id":"4","last_reported":1704211694,"current_range_meters":9200,"station_id":"","pricing_plan_id":"free"},{"bike_id":"50b70607-eab0-445d-bd93-8314486c0eaf","system_id":"levelo_inurba_marseille","lat":43.301429,"lon":5.37413,"is_reserved":false,"is_disabled":false,"rental_uris":{"android":"levelo://app?vid=50b70607-eab0-445d-bd93-8314486c0eaf","ios":"levelo://app?vid=50b70607-eab0-445d-bd93-8314486c0eaf"},"vehicle_type_id":"4","last_reported":1704211694,"current_range_meters":30000,"station_id":"ce4bgs92rcd13ifvqcc0","pricing_plan_id":"free"},{"bike_id":"22ee3f39-8c80-4c5c-b1ab-638bab7249c9","system_id":"levelo_inurba_marseille","lat":43.30144,"lon":5.37417,"is_reserved":false,"is_disabled":false,"rental_uris":{"android":"levelo://app?vid=22ee3f39-8c80-4c5c-b1ab-638bab7249c9","ios":"levelo://app?vid=22ee3f39-8c80-4c5c-b1ab-638bab7249c9"},"vehicle_type_id":"4","last_reported":1704211694,"current_range_meters":24800,"station_id":"ce4bgs92rcd13ifvqcc0","pricing_plan_id":"free"},{"bike_id":"20ddd5aa-63ad-4009-b38b-e296487b2e37","system_id":"levelo_inurba_marseille","lat":43.319935,"lon":5.381699,"is_reserved":false,"is_disabled":false,"rental_uris":{"android":"levelo://app?vid=20ddd5aa-63ad-4009-b38b-e296487b2e37","ios":"levelo://app?vid=20ddd5aa-63ad-4009-b38b-e296487b2e37"},"vehicle_type_id":"4","last_reported":1704211694,"current_range_meters":25200,"station_id":"ce4bhr12rcd13ifvqhpg","pricing_plan_id":"free"},{"bike_id":"3ed074c1-93d6-4055-a16c-e315eb6a8b75","system_id":"levelo_inurba_marseille","lat":43.319935,"lon":5.381699,"is_reserved":false,"is_disabled":false,"rental_uris":{"android":"levelo://app?vid=3ed074c1-93d6-4055-a16c-e315eb6a8b75","ios":"levelo://app?vid=3ed074c1-93d6-4055-a16c-e315eb6a8b75"},"vehicle_type_id":"4","last_reported":1704211694,"current_range_meters":11200,"station_id":"ce4bhr12rcd13ifvqhpg","pricing_plan_id":"free"},{"bike_id":"072f1425-6373-4b0f-891a-99a6505137ee","system_id":"levelo_inurba_marseille","lat":43.319935,"lon":5.381699,"is_reserved":false,"is_disabled":false,"rental_uris":{"android":"levelo://app?vid=072f1425-6373-4b0f-891a-99a6505137ee","ios":"levelo://app?vid=072f1425-6373-4b0f-891a-99a6505137ee"},"vehicle_type_id":"4","last_reported":1704211694,"current_range_meters":27200,"station_id":"ce4bhr12rcd13ifvqhpg","pricing_plan_id":"free"},{"bike_id":"17504bde-947a-4cd6-98b3-9a4c66aca99b","system_id":"levelo_inurba_marseille","lat":43.313827,"lon":5.385007,"is_reserved":false,"is_disabled":false,"rental_uris":{"android":"levelo://app?vid=17504bde-947a-4cd6-98b3-9a4c66aca99b","ios":"levelo://app?vid=17504bde-947a-4cd6-98b3-9a4c66aca99b"},"vehicle_type_id":"4","last_reported":1704211694,"current_range_meters":20400,"station_id":"ce4bgt92rcd13ifvqcf0","pricing_plan_id":"free"},{"bike_id":"51f410c6-3f1c-44f7-89d7-d9f7d1eb75dc","system_id":"levelo_inurba_marseille","lat":43.299222,"lon":5.365554,"is_reserved":false,"is_disabled":false,"rental_uris":{"android":"levelo://app?vid=51f410c6-3f1c-44f7-89d7-d9f7d1eb75dc","ios":"levelo://app?vid=51f410c6-3f1c-44f7-89d7-d9f7d1eb75dc"},"vehicle_type_id":"4","last_reported":1704211694,"current_range_meters":16400,"station_id":"ce4bgm92rcd13ifvqbr0","pricing_plan_id":"free"},{"bike_id":"e7f568a0-849e-4dfe-9cbd-ff3f1581ada7","system_id":"levelo_inurba_marseille","lat":43.299576,"lon":5.371705,"is_reserved":false,"is_disabled":false,"rental_uris":{"android":"levelo://app?vid=e7f568a0-849e-4dfe-9cbd-ff3f1581ada7","ios":"levelo://app?vid=e7f568a0-849e-4dfe-9cbd-ff3f1581ada7"},"vehicle_type_id":"4","last_reported":1704211694,"current_range_meters":16400,"station_id":"","pricing_plan_id":"free"},{"bike_id":"c4dd0fc8-deef-41e7-b27c-22966b31197e","system_id":"levelo_inurba_marseille","lat":43.298433,"lon":5.362774,"is_reserved":false,"is_disabled":false,"rental_uris":{"android":"levelo://app?vid=c4dd0fc8-deef-41e7-b27c-22966b31197e","ios":"levelo://app?vid=c4dd0fc8-deef-41e7-b27c-22966b31197e"},"vehicle_type_id":"4","last_reported":1704211694,"current_range_meters":23200,"station_id":"ce4bgpp2rcd13ifvqc3g","pricing_plan_id":"free"},{"bike_id":"640504ed-5d89-42b1-96e5-72a894ea8728","system_id":"levelo_inurba_marseille","lat":43.298433,"lon":5.362774,"is_reserved":false,"is_disabled":false,"rental_uris":{"android":"levelo://app?vid=640504ed-5d89-42b1-96e5-72a894ea8728","ios":"levelo://app?vid=640504ed-5d89-42b1-96e5-72a894ea8728"},"vehicle_type_id":"4","last_reported":1704211694,"current_range_meters":20000,"station_id":"ce4bgpp2rcd13ifvqc3g","pricing_plan_id":"free"},{"bike_id":"daba59b9-d1fb-4e65-8e81-ffca7fcc7173","system_id":"levelo_inurba_marseille","lat":43.299243,"lon":5.374807,"is_reserved":false,"is_disabled":false,"rental_uris":{"android":"levelo://app?vid=daba59b9-d1fb-4e65-8e81-ffca7fcc7173","ios":"levelo://app?vid=daba59b9-d1fb-4e65-8e81-ffca7fcc7173"},"vehicle_type_id":"4","last_reported":1704211694,"current_range_meters":6000,"station_id":"ce4bgjh2rcd13ifvqbg0","pricing_plan_id":"free"},{"bike_id":"c4c6da75-332e-4e93-bc21-23e06c773a54","system_id":"levelo_inurba_marseille","lat":43.305364,"lon":5.384119,"is_reserved":false,"is_disabled":false,"rental_uris":{"android":"levelo://app?vid=c4c6da75-332e-4e93-bc21-23e06c773a54","ios":"levelo://app?vid=c4c6da75-332e-4e93-bc21-23e06c773a54"},"vehicle_type_id":"4","last_reported":1704211694,"current_range_meters":3600,"station_id":"ce4bgg92rcd13ifvqb30","pricing_plan_id":"free"},{"bike_id":"f5822aaf-782d-4f3c-8e2d-1e15c3cdc52b","system_id":"levelo_inurba_marseille","lat":43.298433,"lon":5.362774,"is_reserved":false,"is_disabled":false,"rental_uris":{"android":"levelo://app?vid=f5822aaf-782d-4f3c-8e2d-1e15c3cdc52b","ios":"levelo://app?vid=f5822aaf-782d-4f3c-8e2d-1e15c3cdc52b"},"vehicle_type_id":"4","last_reported":1704211694,"current_range_meters":24800,"station_id":"ce4bgpp2rcd13ifvqc3g","pricing_plan_id":"free"},{"bike_id":"25c20116-9dfa-4a2a-9b06-f040530fd032","system_id":"levelo_inurba_marseille","lat":43.299243,"lon":5.37481,"is_reserved":false,"is_disabled":false,"rental_uris":{"android":"levelo://app?vid=25c20116-9dfa-4a2a-9b06-f040530fd032","ios":"levelo://app?vid=25c20116-9dfa-4a2a-9b06-f040530fd032"},"vehicle_type_id":"4","last_reported":1704211694,"current_range_meters":21200,"station_id":"ce4bgjh2rcd13ifvqbg0","pricing_plan_id":"free"},{"bike_id":"8bf4d4a3-ce6b-4bee-8998-2abdf4b64eac","system_id":"levelo_inurba_marseille","lat":43.299243,"lon":5.37481,"is_reserved":false,"is_disabled":false,"rental_uris":{"android":"levelo://app?vid=8bf4d4a3-ce6b-4bee-8998-2abdf4b64eac","ios":"levelo://app?vid=8bf4d4a3-ce6b-4bee-8998-2abdf4b64eac"},"vehicle_type_id":"4","last_reported":1704211694,"current_range_meters":10000,"station_id":"ce4bgjh2rcd13ifvqbg0","pricing_plan_id":"free"},{"bike_id":"8752a032-5a63-4551-8b69-590b5f45408e","system_id":"levelo_inurba_marseille","lat":43.322872,"lon":5.382756,"is_reserved":false,"is_disabled":false,"rental_uris":{"android":"levelo://app?vid=8752a032-5a63-4551-8b69-590b5f45408e","ios":"levelo://app?vid=8752a032-5a63-4551-8b69-590b5f45408e"},"vehicle_type_id":"4","last_reported":1704211694,"current_range_meters":24400,"station_id":"ce4bhr12rcd13ifvqhqg","pricing_plan_id":"free"},{"bike_id":"0a99af18-dfe6-49d4-bc90-0038ead01ebf","system_id":"levelo_inurba_marseille","lat":43.328371,"lon":5.366909,"is_reserved":false,"is_disabled":false,"rental_uris":{"android":"levelo://app?vid=0a99af18-dfe6-49d4-bc90-0038ead01ebf","ios":"levelo://app?vid=0a99af18-dfe6-49d4-bc90-0038ead01ebf"},"vehicle_type_id":"4","last_reported":1704211694,"current_range_meters":22400,"station_id":"ce4bhs92rcd13ifvqi0g","pricing_plan_id":"free"},{"bike_id":"465b2ff6-40c8-4baa-943f-25a2da8799da","system_id":"levelo_inurba_marseille","lat":43.328371,"lon":5.366909,"is_reserved":false,"is_disabled":false,"rental_uris":{"android":"levelo://app?vid=465b2ff6-40c8-4baa-943f-25a2da8799da","ios":"levelo://app?vid=465b2ff6-40c8-4baa-943f-25a2da8799da"},"vehicle_type_id":"4","last_reported":1704211694,"current_range_meters":22400,"station_id":"ce4bhs92rcd13ifvqi0g","pricing_plan_id":"free"},{"bike_id":"370cccf7-c9ba-46c2-819b-c8e8cacc4c21","system_id":"levelo_inurba_marseille","lat":43.3277,"lon":5.37458,"is_reserved":false,"is_disabled":false,"rental_uris":{"android":"levelo://app?vid=370cccf7-c9ba-46c2-819b-c8e8cacc4c21","ios":"levelo://app?vid=370cccf7-c9ba-46c2-819b-c8e8cacc4c21"},"vehicle_type_id":"4","last_reported":1704211694,"current_range_meters":8400,"station_id":"","pricing_plan_id":"free"},{"bike_id":"0583be3a-8d44-4b6b-b3fb-7b86cc269f57","system_id":"levelo_inurba_marseille","lat":43.2968,"lon":5.37291,"is_reserved":false,"is_disabled":false,"rental_uris":{"android":"levelo://app?vid=0583be3a-8d44-4b6b-b3fb-7b86cc269f57","ios":"levelo://app?vid=0583be3a-8d44-4b6b-b3fb-7b86cc269f57"},"vehicle_type_id":"4","last_reported":1704211694,"current_range_meters":21600,"station_id":"ce4bgk12rcd13ifvqbj0","pricing_plan_id":"free"},{"bike_id":"9531fe1b-19f8-4840-a390-d888c9030ca7","system_id":"levelo_inurba_marseille","lat":43.296131,"lon":5.370791,"is_reserved":false,"is_disabled":false,"rental_uris":{"android":"levelo://app?vid=9531fe1b-19f8-4840-a390-d888c9030ca7","ios":"levelo://app?vid=9531fe1b-19f8-4840-a390-d888c9030ca7"},"vehicle_type_id":"4","last_reported":1704211694,"current_range_meters":9200,"station_id":"ce4bgnh2rcd13ifvqc0g","pricing_plan_id":"free"},{"bike_id":"7d9655ba-ff1c-4716-9271-feca8286defb","system_id":"levelo_inurba_marseille","lat":43.29573,"lon":5.367355,"is_reserved":false,"is_disabled":false,"rental_uris":{"android":"levelo://app?vid=7d9655ba-ff1c-4716-9271-feca8286defb","ios":"levelo://app?vid=7d9655ba-ff1c-4716-9271-feca8286defb"},"vehicle_type_id":"4","last_reported":1704211694,"current_range_meters":10800,"station_id":"ce4bgph2rcd13ifvqc2g","pricing_plan_id":"free"},{"bike_id":"f26d4c1c-6f0a-4566-a402-30f1cc57c9d1","system_id":"levelo_inurba_marseille","lat":43.296935,"lon":5.376544,"is_reserved":false,"is_disabled":false,"rental_uris":{"android":"levelo://app?vid=f26d4c1c-6f0a-4566-a402-30f1cc57c9d1","ios":"levelo://app?vid=f26d4c1c-6f0a-4566-a402-30f1cc57c9d1"},"vehicle_type_id":"4","last_reported":1704211694,"current_range_meters":21600,"station_id":"ce4bgkh2rcd13ifvqbl0","pricing_plan_id":"free"},{"bike_id":"adff06b0-4d11-4333-8d24-04ee0e3516ad","system_id":"levelo_inurba_marseille","lat":43.309589,"lon":5.390258,"is_reserved":false,"is_disabled":false,"rental_uris":{"android":"levelo://app?vid=adff06b0-4d11-4333-8d24-04ee0e3516ad","ios":"levelo://app?vid=adff06b0-4d11-4333-8d24-04ee0e3516ad"},"vehicle_type_id":"4","last_reported":1704211694,"current_range_meters":28400,"station_id":"ce4bgup2rcd13ifvqco0","pricing_plan_id":"free"},{"bike_id":"fb16a385-ee3d-43c9-87d2-caca4e30deed","system_id":"levelo_inurba_marseille","lat":43.295748,"lon":5.37522,"is_reserved":false,"is_disabled":false,"rental_uris":{"android":"levelo://app?vid=fb16a385-ee3d-43c9-87d2-caca4e30deed","ios":"levelo://app?vid=fb16a385-ee3d-43c9-87d2-caca4e30deed"},"vehicle_type_id":"4","last_reported":1704211694,"current_range_meters":12800,"station_id":"ce4bgh92rcd13ifvqb50","pricing_plan_id":"free"},{"bike_id":"52c546a6-7445-4e7d-9fcb-46c7f72f3dd6","system_id":"levelo_inurba_marseille","lat":43.304278,"lon":5.388868,"is_reserved":false,"is_disabled":false,"rental_uris":{"android":"levelo://app?vid=52c546a6-7445-4e7d-9fcb-46c7f72f3dd6","ios":"levelo://app?vid=52c546a6-7445-4e7d-9fcb-46c7f72f3dd6"},"vehicle_type_id":"4","last_reported":1704211694,"current_range_meters":17200,"station_id":"ce4bgk12rcd13ifvqbi0","pricing_plan_id":"free"},{"bike_id":"d60802d6-4f47-444a-b234-883690eec05b","system_id":"levelo_inurba_marseille","lat":43.33062,"lon":5.3627,"is_reserved":false,"is_disabled":false,"rental_uris":{"android":"levelo://app?vid=d60802d6-4f47-444a-b234-883690eec05b","ios":"levelo://app?vid=d60802d6-4f47-444a-b234-883690eec05b"},"vehicle_type_id":"4","last_reported":1704211694,"current_range_meters":15200,"station_id":"","pricing_plan_id":"free"},{"bike_id":"f67b4ce4-0c9c-4cd2-b119-b472dfee5204","system_id":"levelo_inurba_marseille","lat":43.29538,"lon":5.375,"is_reserved":false,"is_disabled":false,"rental_uris":{"android":"levelo://app?vid=f67b4ce4-0c9c-4cd2-b119-b472dfee5204","ios":"levelo://app?vid=f67b4ce4-0c9c-4cd2-b119-b472dfee5204"},"vehicle_type_id":"4","last_reported":1704211694,"current_range_meters":21600,"station_id":"ce4bgi92rcd13ifvqb90","pricing_plan_id":"free"},{"bike_id":"7119845d-00aa-4d9f-be8c-fc97d41f1380","system_id":"levelo_inurba_marseille","lat":43.297594,"lon":5.381134,"is_reserved":false,"is_disabled":false,"rental_uris":{"android":"levelo://app?vid=7119845d-00aa-4d9f-be8c-fc97d41f1380","ios":"levelo://app?vid=7119845d-00aa-4d9f-be8c-fc97d41f1380"},"vehicle_type_id":"4","last_reported":1704211694,"current_range_meters":3600,"station_id":"ce4bgip2rcd13ifvqbb0","pricing_plan_id":"free"},{"bike_id":"fa25b405-4921-444d-8f61-1aac90135501","system_id":"levelo_inurba_marseille","lat":43.299717,"lon":5.384845,"is_reserved":false,"is_disabled":false,"rental_uris":{"android":"levelo://app?vid=fa25b405-4921-444d-8f61-1aac90135501","ios":"levelo://app?vid=fa25b405-4921-444d-8f61-1aac90135501"},"vehicle_type_id":"4","last_reported":1704211694,"current_range_meters":23600,"station_id":"ce4bgj92rcd13ifvqbd0","pricing_plan_id":"free"},{"bike_id":"8a7099b1-57c5-4cbd-9c76-06198554009d","system_id":"levelo_inurba_marseille","lat":43.299724,"lon":5.384848,"is_reserved":false,"is_disabled":false,"rental_uris":{"android":"levelo://app?vid=8a7099b1-57c5-4cbd-9c76-06198554009d","ios":"levelo://app?vid=8a7099b1-57c5-4cbd-9c76-06198554009d"},"vehicle_type_id":"4","last_reported":1704211694,"current_range_meters":9600,"station_id":"ce4bgj92rcd13ifvqbd0","pricing_plan_id":"free"},{"bike_id":"8ffaec97-e3cc-4362-a316-1757fff84537","system_id":"levelo_inurba_marseille","lat":43.299717,"lon":5.384845,"is_reserved":false,"is_disabled":false,"rental_uris":{"android":"levelo://app?vid=8ffaec97-e3cc-4362-a316-1757fff84537","ios":"levelo://app?vid=8ffaec97-e3cc-4362-a316-1757fff84537"},"vehicle_type_id":"4","last_reported":1704211694,"current_range_meters":29200,"station_id":"ce4bgj92rcd13ifvqbd0","pricing_plan_id":"free"},{"bike_id":"a55577d6-7e4d-4aa5-9e28-0d522ca62619","system_id":"levelo_inurba_marseille","lat":43.292749,"lon":5.368398,"is_reserved":false,"is_disabled":false,"rental_uris":{"android":"levelo://app?vid=a55577d6-7e4d-4aa5-9e28-0d522ca62619","ios":"levelo://app?vid=a55577d6-7e4d-4aa5-9e28-0d522ca62619"},"vehicle_type_id":"4","last_reported":1704211694,"current_range_meters":16400,"station_id":"ce4bhbp2rcd13ifvqesg","pricing_plan_id":"free"},{"bike_id":"9227cca3-3cfd-4a35-a174-795b6355120f","system_id":"levelo_inurba_marseille","lat":43.292749,"lon":5.368398,"is_reserved":false,"is_disabled":false,"rental_uris":{"android":"levelo://app?vid=9227cca3-3cfd-4a35-a174-795b6355120f","ios":"levelo://app?vid=9227cca3-3cfd-4a35-a174-795b6355120f"},"vehicle_type_id":"4","last_reported":1704211694,"current_range_meters":20000,"station_id":"ce4bhbp2rcd13ifvqesg","pricing_plan_id":"free"},{"bike_id":"710c0b72-da7d-4ca7-b09d-3c04b2ecd64b","system_id":"levelo_inurba_marseille","lat":43.2936,"lon":5.37835,"is_reserved":false,"is_disabled":false,"rental_uris":{"android":"levelo://app?vid=710c0b72-da7d-4ca7-b09d-3c04b2ecd64b","ios":"levelo://app?vid=710c0b72-da7d-4ca7-b09d-3c04b2ecd64b"},"vehicle_type_id":"4","last_reported":1704211694,"current_range_meters":11200,"station_id":"ce4bgjh2rcd13ifvqbf0","pricing_plan_id":"free"},{"bike_id":"f4cec07f-16dd-4612-82b0-9b0b850dded3","system_id":"levelo_inurba_marseille","lat":43.29263,"lon":5.37623,"is_reserved":false,"is_disabled":false,"rental_uris":{"android":"levelo://app?vid=f4cec07f-16dd-4612-82b0-9b0b850dded3","ios":"levelo://app?vid=f4cec07f-16dd-4612-82b0-9b0b850dded3"},"vehicle_type_id":"4","last_reported":1704211694,"current_range_meters":21200,"station_id":"ce4bgi12rcd13ifvqb70","pricing_plan_id":"free"},{"bike_id":"b4ff5e33-977e-4e39-97b4-e8a4cd5bbf4a","system_id":"levelo_inurba_marseille","lat":43.2988,"lon":5.38901,"is_reserved":false,"is_disabled":false,"rental_uris":{"android":"levelo://app?vid=b4ff5e33-977e-4e39-97b4-e8a4cd5bbf4a","ios":"levelo://app?vid=b4ff5e33-977e-4e39-97b4-e8a4cd5bbf4a"},"vehicle_type_id":"4","last_reported":1704211694,"current_range_meters":19600,"station_id":"","pricing_plan_id":"free"},{"bike_id":"52f3e613-64d4-42d6-b698-9e71563a5f03","system_id":"levelo_inurba_marseille","lat":43.298767,"lon":5.389293,"is_reserved":false,"is_disabled":false,"rental_uris":{"android":"levelo://app?vid=52f3e613-64d4-42d6-b698-9e71563a5f03","ios":"levelo://app?vid=52f3e613-64d4-42d6-b698-9e71563a5f03"},"vehicle_type_id":"4","last_reported":1704211694,"current_range_meters":0,"station_id":"","pricing_plan_id":"free"},{"bike_id":"6abc35eb-8f16-41b8-a3f4-573c73a40574","system_id":"levelo_inurba_marseille","lat":43.291994,"lon":5.357886,"is_reserved":false,"is_disabled":false,"rental_uris":{"android":"levelo://app?vid=6abc35eb-8f16-41b8-a3f4-573c73a40574","ios":"levelo://app?vid=6abc35eb-8f16-41b8-a3f4-573c73a40574"},"vehicle_type_id":"4","last_reported":1704211694,"current_range_meters":24400,"station_id":"ce4bhb12rcd13ifvqel0","pricing_plan_id":"free"},{"bike_id":"6a81b50f-ae4b-4c12-a481-44b003323491","system_id":"levelo_inurba_marseille","lat":43.312944,"lon":5.39679,"is_reserved":false,"is_disabled":false,"rental_uris":{"android":"levelo://app?vid=6a81b50f-ae4b-4c12-a481-44b003323491","ios":"levelo://app?vid=6a81b50f-ae4b-4c12-a481-44b003323491"},"vehicle_type_id":"4","last_reported":1704211694,"current_range_meters":18000,"station_id":"ce4bgvp2rcd13ifvqcu0","pricing_plan_id":"free"},{"bike_id":"59fad7fb-091a-4006-8953-86d69b717eb1","system_id":"levelo_inurba_marseille","lat":43.309038,"lon":5.396546,"is_reserved":false,"is_disabled":false,"rental_uris":{"android":"levelo://app?vid=59fad7fb-091a-4006-8953-86d69b717eb1","ios":"levelo://app?vid=59fad7fb-091a-4006-8953-86d69b717eb1"},"vehicle_type_id":"4","last_reported":1704211694,"current_range_meters":21600,"station_id":"ce4bh012rcd13ifvqcv0","pricing_plan_id":"free"},{"bike_id":"e814a9f3-8e68-43db-835d-66f3a9de6c6a","system_id":"levelo_inurba_marseille","lat":43.309038,"lon":5.396546,"is_reserved":false,"is_disabled":false,"rental_uris":{"android":"levelo://app?vid=e814a9f3-8e68-43db-835d-66f3a9de6c6a","ios":"levelo://app?vid=e814a9f3-8e68-43db-835d-66f3a9de6c6a"},"vehicle_type_id":"4","last_reported":1704211694,"current_range_meters":23200,"station_id":"ce4bh012rcd13ifvqcv0","pricing_plan_id":"free"},{"bike_id":"ad27937c-744c-4e07-9a0d-21ce12b83195","system_id":"levelo_inurba_marseille","lat":43.29529,"lon":5.385581,"is_reserved":false,"is_disabled":false,"rental_uris":{"android":"levelo://app?vid=ad27937c-744c-4e07-9a0d-21ce12b83195","ios":"levelo://app?vid=ad27937c-744c-4e07-9a0d-21ce12b83195"},"vehicle_type_id":"4","last_reported":1704211694,"current_range_meters":9600,"station_id":"ce4bgih2rcd13ifvqba0","pricing_plan_id":"free"},{"bike_id":"2b1ca1b8-27f9-4bda-9165-2ec1558fe18f","system_id":"levelo_inurba_marseille","lat":43.29529,"lon":5.385581,"is_reserved":false,"is_disabled":false,"rental_uris":{"android":"levelo://app?vid=2b1ca1b8-27f9-4bda-9165-2ec1558fe18f","ios":"levelo://app?vid=2b1ca1b8-27f9-4bda-9165-2ec1558fe18f"},"vehicle_type_id":"4","last_reported":1704211694,"current_range_meters":14800,"station_id":"ce4bgih2rcd13ifvqba0","pricing_plan_id":"free"},{"bike_id":"1f0fbb36-897b-43ae-a838-8f0268248b45","system_id":"levelo_inurba_marseille","lat":43.29529,"lon":5.385581,"is_reserved":false,"is_disabled":false,"rental_uris":{"android":"levelo://app?vid=1f0fbb36-897b-43ae-a838-8f0268248b45","ios":"levelo://app?vid=1f0fbb36-897b-43ae-a838-8f0268248b45"},"vehicle_type_id":"4","last_reported":1704211694,"current_range_meters":19600,"station_id":"ce4bgih2rcd13ifvqba0","pricing_plan_id":"free"},{"bike_id":"e0394f20-5d09-4b53-ba0a-1c79e33f8dab","system_id":"levelo_inurba_marseille","lat":43.289468,"lon":5.363719,"is_reserved":false,"is_disabled":false,"rental_uris":{"android":"levelo://app?vid=e0394f20-5d09-4b53-ba0a-1c79e33f8dab","ios":"levelo://app?vid=e0394f20-5d09-4b53-ba0a-1c79e33f8dab"},"vehicle_type_id":"4","last_reported":1704211694,"current_range_meters":9600,"station_id":"ce4bhc92rcd13ifvqetg","pricing_plan_id":"free"},{"bike_id":"d44e8ba7-1473-4fe7-a1c2-7dc642fc3b0c","system_id":"levelo_inurba_marseille","lat":43.289184,"lon":5.366408,"is_reserved":false,"is_disabled":false,"rental_uris":{"android":"levelo://app?vid=d44e8ba7-1473-4fe7-a1c2-7dc642fc3b0c","ios":"levelo://app?vid=d44e8ba7-1473-4fe7-a1c2-7dc642fc3b0c"},"vehicle_type_id":"4","last_reported":1704211694,"current_range_meters":1200,"station_id":"ce4bhap2rcd13ifvqek0","pricing_plan_id":"free"},{"bike_id":"aa6d1a11-46fe-4000-a286-7bf082917c4b","system_id":"levelo_inurba_marseille","lat":43.292644,"lon":5.384257,"is_reserved":false,"is_disabled":false,"rental_uris":{"android":"levelo://app?vid=aa6d1a11-46fe-4000-a286-7bf082917c4b","ios":"levelo://app?vid=aa6d1a11-46fe-4000-a286-7bf082917c4b"},"vehicle_type_id":"4","last_reported":1704211694,"current_range_meters":20400,"station_id":"ce4bh692rcd13ifvqea0","pricing_plan_id":"free"},{"bike_id":"52d2dbbd-9075-4829-9c77-532286d776e4","system_id":"levelo_inurba_marseille","lat":43.292642,"lon":5.384254,"is_reserved":false,"is_disabled":false,"rental_uris":{"android":"levelo://app?vid=52d2dbbd-9075-4829-9c77-532286d776e4","ios":"levelo://app?vid=52d2dbbd-9075-4829-9c77-532286d776e4"},"vehicle_type_id":"4","last_reported":1704211694,"current_range_meters":9200,"station_id":"ce4bh692rcd13ifvqea0","pricing_plan_id":"free"},{"bike_id":"4fb67d0f-49ab-4046-b1da-abd8f8df204b","system_id":"levelo_inurba_marseille","lat":43.290104,"lon":5.356111,"is_reserved":false,"is_disabled":false,"rental_uris":{"android":"levelo://app?vid=4fb67d0f-49ab-4046-b1da-abd8f8df204b","ios":"levelo://app?vid=4fb67d0f-49ab-4046-b1da-abd8f8df204b"},"vehicle_type_id":"4","last_reported":1704211694,"current_range_meters":22800,"station_id":"ce4bhb92rcd13ifvqen0","pricing_plan_id":"free"},{"bike_id":"b8da92e6-9b82-41f5-b439-96817b8f99d5","system_id":"levelo_inurba_marseille","lat":43.289743,"lon":5.378304,"is_reserved":false,"is_disabled":false,"rental_uris":{"android":"levelo://app?vid=b8da92e6-9b82-41f5-b439-96817b8f99d5","ios":"levelo://app?vid=b8da92e6-9b82-41f5-b439-96817b8f99d5"},"vehicle_type_id":"4","last_reported":1704211694,"current_range_meters":26400,"station_id":"ce4bh9p2rcd13ifvqed0","pricing_plan_id":"free"},{"bike_id":"eaedc98d-b129-4ecb-ab5e-728ba48d7627","system_id":"levelo_inurba_marseille","lat":43.289743,"lon":5.378304,"is_reserved":false,"is_disabled":false,"rental_uris":{"android":"levelo://app?vid=eaedc98d-b129-4ecb-ab5e-728ba48d7627","ios":"levelo://app?vid=eaedc98d-b129-4ecb-ab5e-728ba48d7627"},"vehicle_type_id":"4","last_reported":1704211694,"current_range_meters":27200,"station_id":"ce4bh9p2rcd13ifvqed0","pricing_plan_id":"free"},{"bike_id":"d5ac8ca8-d49b-4867-a3ef-fc4ee1210e7c","system_id":"levelo_inurba_marseille","lat":43.29778,"lon":5.39341,"is_reserved":false,"is_disabled":false,"rental_uris":{"android":"levelo://app?vid=d5ac8ca8-d49b-4867-a3ef-fc4ee1210e7c","ios":"levelo://app?vid=d5ac8ca8-d49b-4867-a3ef-fc4ee1210e7c"},"vehicle_type_id":"4","last_reported":1704211694,"current_range_meters":31200,"station_id":"chh1huq6cuj3fo74tm60","pricing_plan_id":"free"},{"bike_id":"dbdb9d76-b507-4957-aaa9-2585ee60a514","system_id":"levelo_inurba_marseille","lat":43.28856,"lon":5.358371,"is_reserved":false,"is_disabled":false,"rental_uris":{"android":"levelo://app?vid=dbdb9d76-b507-4957-aaa9-2585ee60a514","ios":"levelo://app?vid=dbdb9d76-b507-4957-aaa9-2585ee60a514"},"vehicle_type_id":"4","last_reported":1704211694,"current_range_meters":21600,"station_id":"ce4bhb12rcd13ifvqem0","pricing_plan_id":"free"},{"bike_id":"fded3938-12e3-40cd-9ea1-482f470c5024","system_id":"levelo_inurba_marseille","lat":43.309371,"lon":5.401449,"is_reserved":false,"is_disabled":false,"rental_uris":{"android":"levelo://app?vid=fded3938-12e3-40cd-9ea1-482f470c5024","ios":"levelo://app?vid=fded3938-12e3-40cd-9ea1-482f470c5024"},"vehicle_type_id":"4","last_reported":1704211694,"current_range_meters":16000,"station_id":"ce4bgvp2rcd13ifvqct0","pricing_plan_id":"free"},{"bike_id":"dc04173c-0dd1-4399-9a19-ab9853c742c0","system_id":"levelo_inurba_marseille","lat":43.312609,"lon":5.401662,"is_reserved":false,"is_disabled":false,"rental_uris":{"android":"levelo://app?vid=dc04173c-0dd1-4399-9a19-ab9853c742c0","ios":"levelo://app?vid=dc04173c-0dd1-4399-9a19-ab9853c742c0"},"vehicle_type_id":"4","last_reported":1704211694,"current_range_meters":23200,"station_id":"ce4bh092rcd13ifvqd30","pricing_plan_id":"free"},{"bike_id":"1b55c50c-04c6-490e-ba7b-7b95b41dd60f","system_id":"levelo_inurba_marseille","lat":43.33749,"lon":5.37465,"is_reserved":false,"is_disabled":false,"rental_uris":{"android":"levelo://app?vid=1b55c50c-04c6-490e-ba7b-7b95b41dd60f","ios":"levelo://app?vid=1b55c50c-04c6-490e-ba7b-7b95b41dd60f"},"vehicle_type_id":"4","last_reported":1704211694,"current_range_meters":30800,"station_id":"","pricing_plan_id":"free"},{"bike_id":"775bebf0-60dd-4589-9959-186588d50ea9","system_id":"levelo_inurba_marseille","lat":43.312609,"lon":5.401662,"is_reserved":false,"is_disabled":false,"rental_uris":{"android":"levelo://app?vid=775bebf0-60dd-4589-9959-186588d50ea9","ios":"levelo://app?vid=775bebf0-60dd-4589-9959-186588d50ea9"},"vehicle_type_id":"4","last_reported":1704211694,"current_range_meters":0,"station_id":"ce4bh092rcd13ifvqd30","pricing_plan_id":"free"},{"bike_id":"7bff5d96-c9da-413f-9076-7fbeec946e12","system_id":"levelo_inurba_marseille","lat":43.33757,"lon":5.37467,"is_reserved":false,"is_disabled":false,"rental_uris":{"android":"levelo://app?vid=7bff5d96-c9da-413f-9076-7fbeec946e12","ios":"levelo://app?vid=7bff5d96-c9da-413f-9076-7fbeec946e12"},"vehicle_type_id":"4","last_reported":1704211694,"current_range_meters":26800,"station_id":"","pricing_plan_id":"free"},{"bike_id":"1c86c5a0-cffc-4faa-94a1-6cf5f93206ea","system_id":"levelo_inurba_marseille","lat":43.337605,"lon":5.374572,"is_reserved":false,"is_disabled":false,"rental_uris":{"android":"levelo://app?vid=1c86c5a0-cffc-4faa-94a1-6cf5f93206ea","ios":"levelo://app?vid=1c86c5a0-cffc-4faa-94a1-6cf5f93206ea"},"vehicle_type_id":"4","last_reported":1704211694,"current_range_meters":6000,"station_id":"","pricing_plan_id":"free"},{"bike_id":"5b6ca32e-bb6e-4cae-9b9d-13ca8d87545e","system_id":"levelo_inurba_marseille","lat":43.306412,"lon":5.401035,"is_reserved":false,"is_disabled":false,"rental_uris":{"android":"levelo://app?vid=5b6ca32e-bb6e-4cae-9b9d-13ca8d87545e","ios":"levelo://app?vid=5b6ca32e-bb6e-4cae-9b9d-13ca8d87545e"},"vehicle_type_id":"4","last_reported":1704211694,"current_range_meters":12800,"station_id":"ce4bh112rcd13ifvqda0","pricing_plan_id":"free"},{"bike_id":"46bcbd8a-0b5f-4b89-aac9-34812a85cd49","system_id":"levelo_inurba_marseille","lat":43.337681,"lon":5.374847,"is_reserved":false,"is_disabled":false,"rental_uris":{"android":"levelo://app?vid=46bcbd8a-0b5f-4b89-aac9-34812a85cd49","ios":"levelo://app?vid=46bcbd8a-0b5f-4b89-aac9-34812a85cd49"},"vehicle_type_id":"4","last_reported":1704211694,"current_range_meters":14400,"station_id":"","pricing_plan_id":"free"},{"bike_id":"2698b1cc-9d8f-4af1-9d41-a07e93bd5755","system_id":"levelo_inurba_marseille","lat":43.33767,"lon":5.37497,"is_reserved":false,"is_disabled":false,"rental_uris":{"android":"levelo://app?vid=2698b1cc-9d8f-4af1-9d41-a07e93bd5755","ios":"levelo://app?vid=2698b1cc-9d8f-4af1-9d41-a07e93bd5755"},"vehicle_type_id":"4","last_reported":1704211694,"current_range_meters":28800,"station_id":"","pricing_plan_id":"free"},{"bike_id":"48648c20-0baa-4183-a292-a62cef42eb01","system_id":"levelo_inurba_marseille","lat":43.28727,"lon":5.36078,"is_reserved":false,"is_disabled":false,"rental_uris":{"android":"levelo://app?vid=48648c20-0baa-4183-a292-a62cef42eb01","ios":"levelo://app?vid=48648c20-0baa-4183-a292-a62cef42eb01"},"vehicle_type_id":"4","last_reported":1704211694,"current_range_meters":26000,"station_id":"cki0cbj6b192h4jlfktg","pricing_plan_id":"free"},{"bike_id":"d2b0774a-5f91-4399-bd06-a52f3e5a4cc8","system_id":"levelo_inurba_marseille","lat":43.302759,"lon":5.400793,"is_reserved":false,"is_disabled":false,"rental_uris":{"android":"levelo://app?vid=d2b0774a-5f91-4399-bd06-a52f3e5a4cc8","ios":"levelo://app?vid=d2b0774a-5f91-4399-bd06-a52f3e5a4cc8"},"vehicle_type_id":"4","last_reported":1704211694,"current_range_meters":5600,"station_id":"ce4bgvh2rcd13ifvqcs0","pricing_plan_id":"free"},{"bike_id":"37ecd018-bc8b-4a26-beb0-b393ebb87906","system_id":"levelo_inurba_marseille","lat":43.286039,"lon":5.370679,"is_reserved":false,"is_disabled":false,"rental_uris":{"android":"levelo://app?vid=37ecd018-bc8b-4a26-beb0-b393ebb87906","ios":"levelo://app?vid=37ecd018-bc8b-4a26-beb0-b393ebb87906"},"vehicle_type_id":"4","last_reported":1704211694,"current_range_meters":13600,"station_id":"ce4bht12rcd13ifvqi60","pricing_plan_id":"free"},{"bike_id":"4f016438-e3c1-4492-aa06-12a8986790b1","system_id":"levelo_inurba_marseille","lat":43.286039,"lon":5.370681,"is_reserved":false,"is_disabled":false,"rental_uris":{"android":"levelo://app?vid=4f016438-e3c1-4492-aa06-12a8986790b1","ios":"levelo://app?vid=4f016438-e3c1-4492-aa06-12a8986790b1"},"vehicle_type_id":"4","last_reported":1704211694,"current_range_meters":24000,"station_id":"ce4bht12rcd13ifvqi60","pricing_plan_id":"free"},{"bike_id":"f04c0197-8bb7-4d15-ac5b-e74e1042e935","system_id":"levelo_inurba_marseille","lat":43.286039,"lon":5.370679,"is_reserved":false,"is_disabled":false,"rental_uris":{"android":"levelo://app?vid=f04c0197-8bb7-4d15-ac5b-e74e1042e935","ios":"levelo://app?vid=f04c0197-8bb7-4d15-ac5b-e74e1042e935"},"vehicle_type_id":"4","last_reported":1704211694,"current_range_meters":28800,"station_id":"ce4bht12rcd13ifvqi60","pricing_plan_id":"free"},{"bike_id":"e8db0db8-cd86-45a8-9569-a62e79f848d6","system_id":"levelo_inurba_marseille","lat":43.286039,"lon":5.370681,"is_reserved":false,"is_disabled":false,"rental_uris":{"android":"levelo://app?vid=e8db0db8-cd86-45a8-9569-a62e79f848d6","ios":"levelo://app?vid=e8db0db8-cd86-45a8-9569-a62e79f848d6"},"vehicle_type_id":"4","last_reported":1704211694,"current_range_meters":18800,"station_id":"ce4bht12rcd13ifvqi60","pricing_plan_id":"free"},{"bike_id":"40579999-f28a-4f53-8fc1-32606a609e63","system_id":"levelo_inurba_marseille","lat":43.286039,"lon":5.370679,"is_reserved":false,"is_disabled":false,"rental_uris":{"android":"levelo://app?vid=40579999-f28a-4f53-8fc1-32606a609e63","ios":"levelo://app?vid=40579999-f28a-4f53-8fc1-32606a609e63"},"vehicle_type_id":"4","last_reported":1704211694,"current_range_meters":31200,"station_id":"ce4bht12rcd13ifvqi60","pricing_plan_id":"free"},{"bike_id":"2ec99638-0270-4021-81ad-d95dddfc6da9","system_id":"levelo_inurba_marseille","lat":43.286039,"lon":5.370681,"is_reserved":false,"is_disabled":false,"rental_uris":{"android":"levelo://app?vid=2ec99638-0270-4021-81ad-d95dddfc6da9","ios":"levelo://app?vid=2ec99638-0270-4021-81ad-d95dddfc6da9"},"vehicle_type_id":"4","last_reported":1704211694,"current_range_meters":10800,"station_id":"ce4bht12rcd13ifvqi60","pricing_plan_id":"free"},{"bike_id":"102b8121-ee53-408e-8829-c9b9fc6aef90","system_id":"levelo_inurba_marseille","lat":43.286039,"lon":5.370679,"is_reserved":false,"is_disabled":false,"rental_uris":{"android":"levelo://app?vid=102b8121-ee53-408e-8829-c9b9fc6aef90","ios":"levelo://app?vid=102b8121-ee53-408e-8829-c9b9fc6aef90"},"vehicle_type_id":"4","last_reported":1704211694,"current_range_meters":13200,"station_id":"ce4bht12rcd13ifvqi60","pricing_plan_id":"free"},{"bike_id":"f5848cb3-3252-40dc-8b48-306adc920d9a","system_id":"levelo_inurba_marseille","lat":43.286039,"lon":5.370679,"is_reserved":false,"is_disabled":false,"rental_uris":{"android":"levelo://app?vid=f5848cb3-3252-40dc-8b48-306adc920d9a","ios":"levelo://app?vid=f5848cb3-3252-40dc-8b48-306adc920d9a"},"vehicle_type_id":"4","last_reported":1704211694,"current_range_meters":20800,"station_id":"ce4bht12rcd13ifvqi60","pricing_plan_id":"free"},{"bike_id":"f85de722-797b-4778-985d-fffc4c45127d","system_id":"levelo_inurba_marseille","lat":43.287184,"lon":5.37937,"is_reserved":false,"is_disabled":false,"rental_uris":{"android":"levelo://app?vid=f85de722-797b-4778-985d-fffc4c45127d","ios":"levelo://app?vid=f85de722-797b-4778-985d-fffc4c45127d"},"vehicle_type_id":"4","last_reported":1704211694,"current_range_meters":23600,"station_id":"ce4bh9p2rcd13ifvqec0","pricing_plan_id":"free"},{"bike_id":"8dd26f48-10c6-41d0-b714-22e81ce0128b","system_id":"levelo_inurba_marseille","lat":43.287185,"lon":5.379373,"is_reserved":false,"is_disabled":false,"rental_uris":{"android":"levelo://app?vid=8dd26f48-10c6-41d0-b714-22e81ce0128b","ios":"levelo://app?vid=8dd26f48-10c6-41d0-b714-22e81ce0128b"},"vehicle_type_id":"4","last_reported":1704211694,"current_range_meters":15600,"station_id":"ce4bh9p2rcd13ifvqec0","pricing_plan_id":"free"},{"bike_id":"9b0c9e9e-977c-43ca-8676-217c423ef706","system_id":"levelo_inurba_marseille","lat":43.316915,"lon":5.404645,"is_reserved":false,"is_disabled":false,"rental_uris":{"android":"levelo://app?vid=9b0c9e9e-977c-43ca-8676-217c423ef706","ios":"levelo://app?vid=9b0c9e9e-977c-43ca-8676-217c423ef706"},"vehicle_type_id":"4","last_reported":1704211694,"current_range_meters":27600,"station_id":"ce4bh012rcd13ifvqd00","pricing_plan_id":"free"},{"bike_id":"9f52947c-1966-441d-b0ba-fe90d70fe329","system_id":"levelo_inurba_marseille","lat":43.316905,"lon":5.404665,"is_reserved":false,"is_disabled":false,"rental_uris":{"android":"levelo://app?vid=9f52947c-1966-441d-b0ba-fe90d70fe329","ios":"levelo://app?vid=9f52947c-1966-441d-b0ba-fe90d70fe329"},"vehicle_type_id":"4","last_reported":1704211694,"current_range_meters":18400,"station_id":"ce4bh012rcd13ifvqd00","pricing_plan_id":"free"},{"bike_id":"fe9d9231-9266-42cd-b245-ed8ea3c0bdbb","system_id":"levelo_inurba_marseille","lat":43.31689,"lon":5.4047,"is_reserved":false,"is_disabled":false,"rental_uris":{"android":"levelo://app?vid=fe9d9231-9266-42cd-b245-ed8ea3c0bdbb","ios":"levelo://app?vid=fe9d9231-9266-42cd-b245-ed8ea3c0bdbb"},"vehicle_type_id":"4","last_reported":1704211694,"current_range_meters":19200,"station_id":"ce4bh012rcd13ifvqd00","pricing_plan_id":"free"},{"bike_id":"7630d77c-ac04-4c93-83c5-347d8d464ac3","system_id":"levelo_inurba_marseille","lat":43.316821,"lon":5.404737,"is_reserved":false,"is_disabled":false,"rental_uris":{"android":"levelo://app?vid=7630d77c-ac04-4c93-83c5-347d8d464ac3","ios":"levelo://app?vid=7630d77c-ac04-4c93-83c5-347d8d464ac3"},"vehicle_type_id":"4","last_reported":1704211694,"current_range_meters":14400,"station_id":"ce4bh012rcd13ifvqd00","pricing_plan_id":"free"},{"bike_id":"1a3ab528-3a04-4d9f-b6fe-4091400b2ca0","system_id":"levelo_inurba_marseille","lat":43.29196,"lon":5.39316,"is_reserved":false,"is_disabled":false,"rental_uris":{"android":"levelo://app?vid=1a3ab528-3a04-4d9f-b6fe-4091400b2ca0","ios":"levelo://app?vid=1a3ab528-3a04-4d9f-b6fe-4091400b2ca0"},"vehicle_type_id":"4","last_reported":1704211694,"current_range_meters":27600,"station_id":"ce4bh192rcd13ifvqdd0","pricing_plan_id":"free"},{"bike_id":"22934d60-132f-4da6-b603-4d65ee06cad2","system_id":"levelo_inurba_marseille","lat":43.284538,"lon":5.358657,"is_reserved":false,"is_disabled":false,"rental_uris":{"android":"levelo://app?vid=22934d60-132f-4da6-b603-4d65ee06cad2","ios":"levelo://app?vid=22934d60-132f-4da6-b603-4d65ee06cad2"},"vehicle_type_id":"4","last_reported":1704211694,"current_range_meters":5200,"station_id":"ce4bhah2rcd13ifvqei0","pricing_plan_id":"free"},{"bike_id":"bb02ee41-176d-477e-9222-28c686e1903d","system_id":"levelo_inurba_marseille","lat":43.289184,"lon":5.366408,"is_reserved":false,"is_disabled":false,"rental_uris":{"android":"levelo://app?vid=bb02ee41-176d-477e-9222-28c686e1903d","ios":"levelo://app?vid=bb02ee41-176d-477e-9222-28c686e1903d"},"vehicle_type_id":"4","last_reported":1704211694,"current_range_meters":18400,"station_id":"ce4bhap2rcd13ifvqek0","pricing_plan_id":"free"},{"bike_id":"cc2cf791-ab7a-42fe-930f-b9eb4fd02270","system_id":"levelo_inurba_marseille","lat":43.294314,"lon":5.397498,"is_reserved":false,"is_disabled":false,"rental_uris":{"android":"levelo://app?vid=cc2cf791-ab7a-42fe-930f-b9eb4fd02270","ios":"levelo://app?vid=cc2cf791-ab7a-42fe-930f-b9eb4fd02270"},"vehicle_type_id":"4","last_reported":1704211694,"current_range_meters":28800,"station_id":"ce4bh3h2rcd13ifvqdo0","pricing_plan_id":"free"},{"bike_id":"198b03a6-0350-47db-b014-8668c58cf8b6","system_id":"levelo_inurba_marseille","lat":43.285856,"lon":5.350771,"is_reserved":false,"is_disabled":false,"rental_uris":{"android":"levelo://app?vid=198b03a6-0350-47db-b014-8668c58cf8b6","ios":"levelo://app?vid=198b03a6-0350-47db-b014-8668c58cf8b6"},"vehicle_type_id":"4","last_reported":1704211694,"current_range_meters":16800,"station_id":"ce4bhch2rcd13ifvqeug","pricing_plan_id":"free"},{"bike_id":"97e92938-306c-4fc1-a5b7-65119605db59","system_id":"levelo_inurba_marseille","lat":43.28619,"lon":5.35107,"is_reserved":false,"is_disabled":false,"rental_uris":{"android":"levelo://app?vid=97e92938-306c-4fc1-a5b7-65119605db59","ios":"levelo://app?vid=97e92938-306c-4fc1-a5b7-65119605db59"},"vehicle_type_id":"4","last_reported":1704211694,"current_range_meters":13600,"station_id":"ce4bhch2rcd13ifvqeug","pricing_plan_id":"free"},{"bike_id":"48e908df-9ca7-4c39-be98-5f1da33c5b54","system_id":"levelo_inurba_marseille","lat":43.285856,"lon":5.350771,"is_reserved":false,"is_disabled":false,"rental_uris":{"android":"levelo://app?vid=48e908df-9ca7-4c39-be98-5f1da33c5b54","ios":"levelo://app?vid=48e908df-9ca7-4c39-be98-5f1da33c5b54"},"vehicle_type_id":"4","last_reported":1704211694,"current_range_meters":30800,"station_id":"ce4bhch2rcd13ifvqeug","pricing_plan_id":"free"},{"bike_id":"da83c696-1560-46ef-849a-744338060e2d","system_id":"levelo_inurba_marseille","lat":43.285856,"lon":5.350771,"is_reserved":false,"is_disabled":false,"rental_uris":{"android":"levelo://app?vid=da83c696-1560-46ef-849a-744338060e2d","ios":"levelo://app?vid=da83c696-1560-46ef-849a-744338060e2d"},"vehicle_type_id":"4","last_reported":1704211694,"current_range_meters":3200,"station_id":"ce4bhch2rcd13ifvqeug","pricing_plan_id":"free"},{"bike_id":"bc3b2dea-6094-46e3-ba1f-789fbaf8b479","system_id":"levelo_inurba_marseille","lat":43.285856,"lon":5.350771,"is_reserved":false,"is_disabled":false,"rental_uris":{"android":"levelo://app?vid=bc3b2dea-6094-46e3-ba1f-789fbaf8b479","ios":"levelo://app?vid=bc3b2dea-6094-46e3-ba1f-789fbaf8b479"},"vehicle_type_id":"4","last_reported":1704211694,"current_range_meters":19200,"station_id":"ce4bhch2rcd13ifvqeug","pricing_plan_id":"free"},{"bike_id":"36752dc0-e885-4ca3-a377-6f11418eb425","system_id":"levelo_inurba_marseille","lat":43.285856,"lon":5.350771,"is_reserved":false,"is_disabled":false,"rental_uris":{"android":"levelo://app?vid=36752dc0-e885-4ca3-a377-6f11418eb425","ios":"levelo://app?vid=36752dc0-e885-4ca3-a377-6f11418eb425"},"vehicle_type_id":"4","last_reported":1704211694,"current_range_meters":19600,"station_id":"ce4bhch2rcd13ifvqeug","pricing_plan_id":"free"},{"bike_id":"9423f118-3264-4b78-9939-2290b8c63632","system_id":"levelo_inurba_marseille","lat":43.285856,"lon":5.350771,"is_reserved":false,"is_disabled":false,"rental_uris":{"android":"levelo://app?vid=9423f118-3264-4b78-9939-2290b8c63632","ios":"levelo://app?vid=9423f118-3264-4b78-9939-2290b8c63632"},"vehicle_type_id":"4","last_reported":1704211694,"current_range_meters":6400,"station_id":"ce4bhch2rcd13ifvqeug","pricing_plan_id":"free"},{"bike_id":"75235d9d-94d4-498e-9590-5b7cc6f03aab","system_id":"levelo_inurba_marseille","lat":43.283998,"lon":5.375062,"is_reserved":false,"is_disabled":false,"rental_uris":{"android":"levelo://app?vid=75235d9d-94d4-498e-9590-5b7cc6f03aab","ios":"levelo://app?vid=75235d9d-94d4-498e-9590-5b7cc6f03aab"},"vehicle_type_id":"4","last_reported":1704211694,"current_range_meters":23600,"station_id":"ce4bh412rcd13ifvqds0","pricing_plan_id":"free"},{"bike_id":"969f0058-8d79-40b1-970f-6b20dd6e2076","system_id":"levelo_inurba_marseille","lat":43.283998,"lon":5.375062,"is_reserved":false,"is_disabled":false,"rental_uris":{"android":"levelo://app?vid=969f0058-8d79-40b1-970f-6b20dd6e2076","ios":"levelo://app?vid=969f0058-8d79-40b1-970f-6b20dd6e2076"},"vehicle_type_id":"4","last_reported":1704211694,"current_range_meters":2400,"station_id":"ce4bh412rcd13ifvqds0","pricing_plan_id":"free"},{"bike_id":"b303dbda-f31d-4737-8503-5c74ab1c7fc6","system_id":"levelo_inurba_marseille","lat":43.286595,"lon":5.386795,"is_reserved":false,"is_disabled":false,"rental_uris":{"android":"levelo://app?vid=b303dbda-f31d-4737-8503-5c74ab1c7fc6","ios":"levelo://app?vid=b303dbda-f31d-4737-8503-5c74ab1c7fc6"},"vehicle_type_id":"4","last_reported":1704211694,"current_range_meters":10800,"station_id":"ce4bh492rcd13ifvqdug","pricing_plan_id":"free"},{"bike_id":"78635e7c-6d4d-44a8-8d79-c0ae5f625d69","system_id":"levelo_inurba_marseille","lat":43.286595,"lon":5.386795,"is_reserved":false,"is_disabled":false,"rental_uris":{"android":"levelo://app?vid=78635e7c-6d4d-44a8-8d79-c0ae5f625d69","ios":"levelo://app?vid=78635e7c-6d4d-44a8-8d79-c0ae5f625d69"},"vehicle_type_id":"4","last_reported":1704211694,"current_range_meters":25200,"station_id":"ce4bh492rcd13ifvqdug","pricing_plan_id":"free"},{"bike_id":"07b0f9d7-1a85-4fc0-aa1a-1d5860169b97","system_id":"levelo_inurba_marseille","lat":43.284462,"lon":5.392121,"is_reserved":false,"is_disabled":false,"rental_uris":{"android":"levelo://app?vid=07b0f9d7-1a85-4fc0-aa1a-1d5860169b97","ios":"levelo://app?vid=07b0f9d7-1a85-4fc0-aa1a-1d5860169b97"},"vehicle_type_id":"4","last_reported":1704211694,"current_range_meters":16800,"station_id":"ce4bhoh2rcd13ifvqh5g","pricing_plan_id":"free"},{"bike_id":"d9021e6f-4184-423b-89dc-ea986f91c20e","system_id":"levelo_inurba_marseille","lat":43.286595,"lon":5.386795,"is_reserved":false,"is_disabled":false,"rental_uris":{"android":"levelo://app?vid=d9021e6f-4184-423b-89dc-ea986f91c20e","ios":"levelo://app?vid=d9021e6f-4184-423b-89dc-ea986f91c20e"},"vehicle_type_id":"4","last_reported":1704211694,"current_range_meters":28000,"station_id":"ce4bh492rcd13ifvqdug","pricing_plan_id":"free"},{"bike_id":"1860c054-e673-4084-804e-8832a59aeb53","system_id":"levelo_inurba_marseille","lat":43.33727,"lon":5.3918,"is_reserved":false,"is_disabled":false,"rental_uris":{"android":"levelo://app?vid=1860c054-e673-4084-804e-8832a59aeb53","ios":"levelo://app?vid=1860c054-e673-4084-804e-8832a59aeb53"},"vehicle_type_id":"4","last_reported":1704211694,"current_range_meters":23200,"station_id":"ce4bhr92rcd13ifvqhsg","pricing_plan_id":"free"},{"bike_id":"f38d7302-1d50-43dc-a25d-fca4fb84faed","system_id":"levelo_inurba_marseille","lat":43.323464,"lon":5.406297,"is_reserved":false,"is_disabled":false,"rental_uris":{"android":"levelo://app?vid=f38d7302-1d50-43dc-a25d-fca4fb84faed","ios":"levelo://app?vid=f38d7302-1d50-43dc-a25d-fca4fb84faed"},"vehicle_type_id":"4","last_reported":1704211694,"current_range_meters":24000,"station_id":"ce4bhq92rcd13ifvqhjg","pricing_plan_id":"free"},{"bike_id":"021949ab-8f7b-4d61-866e-98fd25e422a5","system_id":"levelo_inurba_marseille","lat":43.284793,"lon":5.384113,"is_reserved":false,"is_disabled":false,"rental_uris":{"android":"levelo://app?vid=021949ab-8f7b-4d61-866e-98fd25e422a5","ios":"levelo://app?vid=021949ab-8f7b-4d61-866e-98fd25e422a5"},"vehicle_type_id":"4","last_reported":1704211694,"current_range_meters":16400,"station_id":"ce4bh512rcd13ifvqe3g","pricing_plan_id":"free"},{"bike_id":"b12e41e3-5262-4965-86f7-a3e15f2f998d","system_id":"levelo_inurba_marseille","lat":43.297946,"lon":5.404063,"is_reserved":false,"is_disabled":false,"rental_uris":{"android":"levelo://app?vid=b12e41e3-5262-4965-86f7-a3e15f2f998d","ios":"levelo://app?vid=b12e41e3-5262-4965-86f7-a3e15f2f998d"},"vehicle_type_id":"4","last_reported":1704211694,"current_range_meters":6800,"station_id":"ce4bh112rcd13ifvqd90","pricing_plan_id":"free"},{"bike_id":"ac82021a-b9d0-4382-97ef-b00f4b9d252a","system_id":"levelo_inurba_marseille","lat":43.283498,"lon":5.380948,"is_reserved":false,"is_disabled":false,"rental_uris":{"android":"levelo://app?vid=ac82021a-b9d0-4382-97ef-b00f4b9d252a","ios":"levelo://app?vid=ac82021a-b9d0-4382-97ef-b00f4b9d252a"},"vehicle_type_id":"4","last_reported":1704211694,"current_range_meters":16400,"station_id":"ce4bh412rcd13ifvqdr0","pricing_plan_id":"free"},{"bike_id":"bb23f799-7e0f-4179-a9c6-6881bd3f3df3","system_id":"levelo_inurba_marseille","lat":43.289363,"lon":5.396322,"is_reserved":false,"is_disabled":false,"rental_uris":{"android":"levelo://app?vid=bb23f799-7e0f-4179-a9c6-6881bd3f3df3","ios":"levelo://app?vid=bb23f799-7e0f-4179-a9c6-6881bd3f3df3"},"vehicle_type_id":"4","last_reported":1704211694,"current_range_meters":11600,"station_id":"ce4bh3h2rcd13ifvqdn0","pricing_plan_id":"free"},{"bike_id":"0c5582b1-fafd-4419-98b1-42f5db902a19","system_id":"levelo_inurba_marseille","lat":43.292724,"lon":5.401131,"is_reserved":false,"is_disabled":false,"rental_uris":{"android":"levelo://app?vid=0c5582b1-fafd-4419-98b1-42f5db902a19","ios":"levelo://app?vid=0c5582b1-fafd-4419-98b1-42f5db902a19"},"vehicle_type_id":"4","last_reported":1704211694,"current_range_meters":3200,"station_id":"ce4bh312rcd13ifvqdk0","pricing_plan_id":"free"},{"bike_id":"4adb851f-6f31-4581-adae-eb22bf01d23f","system_id":"levelo_inurba_marseille","lat":43.283502,"lon":5.386471,"is_reserved":false,"is_disabled":false,"rental_uris":{"android":"levelo://app?vid=4adb851f-6f31-4581-adae-eb22bf01d23f","ios":"levelo://app?vid=4adb851f-6f31-4581-adae-eb22bf01d23f"},"vehicle_type_id":"4","last_reported":1704211694,"current_range_meters":23200,"station_id":"ce4bh492rcd13ifvqdvg","pricing_plan_id":"free"},{"bike_id":"530efe1a-ce1b-4fa9-b3d8-88ef16850d58","system_id":"levelo_inurba_marseille","lat":43.283502,"lon":5.386471,"is_reserved":false,"is_disabled":false,"rental_uris":{"android":"levelo://app?vid=530efe1a-ce1b-4fa9-b3d8-88ef16850d58","ios":"levelo://app?vid=530efe1a-ce1b-4fa9-b3d8-88ef16850d58"},"vehicle_type_id":"4","last_reported":1704211694,"current_range_meters":23600,"station_id":"ce4bh492rcd13ifvqdvg","pricing_plan_id":"free"},{"bike_id":"7ad34f02-7211-474e-8adf-9015f44721b1","system_id":"levelo_inurba_marseille","lat":43.282744,"lon":5.350533,"is_reserved":false,"is_disabled":false,"rental_uris":{"android":"levelo://app?vid=7ad34f02-7211-474e-8adf-9015f44721b1","ios":"levelo://app?vid=7ad34f02-7211-474e-8adf-9015f44721b1"},"vehicle_type_id":"4","last_reported":1704211694,"current_range_meters":27200,"station_id":"ce4bhbp2rcd13ifvqerg","pricing_plan_id":"free"},{"bike_id":"0ca22e72-f567-4508-9f62-7167043e0544","system_id":"levelo_inurba_marseille","lat":43.283502,"lon":5.386471,"is_reserved":false,"is_disabled":false,"rental_uris":{"android":"levelo://app?vid=0ca22e72-f567-4508-9f62-7167043e0544","ios":"levelo://app?vid=0ca22e72-f567-4508-9f62-7167043e0544"},"vehicle_type_id":"4","last_reported":1704211694,"current_range_meters":22400,"station_id":"ce4bh492rcd13ifvqdvg","pricing_plan_id":"free"},{"bike_id":"b963f740-d912-40f5-b9fb-5fd7846cca73","system_id":"levelo_inurba_marseille","lat":43.282744,"lon":5.350533,"is_reserved":false,"is_disabled":false,"rental_uris":{"android":"levelo://app?vid=b963f740-d912-40f5-b9fb-5fd7846cca73","ios":"levelo://app?vid=b963f740-d912-40f5-b9fb-5fd7846cca73"},"vehicle_type_id":"4","last_reported":1704211694,"current_range_meters":31200,"station_id":"ce4bhbp2rcd13ifvqerg","pricing_plan_id":"free"},{"bike_id":"56c1105d-9bac-4e47-9c92-44289fbbbde2","system_id":"levelo_inurba_marseille","lat":43.280382,"lon":5.369291,"is_reserved":false,"is_disabled":false,"rental_uris":{"android":"levelo://app?vid=56c1105d-9bac-4e47-9c92-44289fbbbde2","ios":"levelo://app?vid=56c1105d-9bac-4e47-9c92-44289fbbbde2"},"vehicle_type_id":"4","last_reported":1704211694,"current_range_meters":22000,"station_id":"ce4bha12rcd13ifvqef0","pricing_plan_id":"free"},{"bike_id":"4949fb9c-9c95-4496-9139-6e930b5a7726","system_id":"levelo_inurba_marseille","lat":43.296263,"lon":5.40601,"is_reserved":false,"is_disabled":false,"rental_uris":{"android":"levelo://app?vid=4949fb9c-9c95-4496-9139-6e930b5a7726","ios":"levelo://app?vid=4949fb9c-9c95-4496-9139-6e930b5a7726"},"vehicle_type_id":"4","last_reported":1704211694,"current_range_meters":29200,"station_id":"ce4bh0h2rcd13ifvqd60","pricing_plan_id":"free"},{"bike_id":"7bfec8a1-8c45-4357-82f2-681a582694ea","system_id":"levelo_inurba_marseille","lat":43.296263,"lon":5.40601,"is_reserved":false,"is_disabled":false,"rental_uris":{"android":"levelo://app?vid=7bfec8a1-8c45-4357-82f2-681a582694ea","ios":"levelo://app?vid=7bfec8a1-8c45-4357-82f2-681a582694ea"},"vehicle_type_id":"4","last_reported":1704211694,"current_range_meters":3600,"station_id":"ce4bh0h2rcd13ifvqd60","pricing_plan_id":"free"},{"bike_id":"241fb648-a1f3-4e07-bcad-f3d37c8e5218","system_id":"levelo_inurba_marseille","lat":43.281044,"lon":5.378308,"is_reserved":false,"is_disabled":false,"rental_uris":{"android":"levelo://app?vid=241fb648-a1f3-4e07-bcad-f3d37c8e5218","ios":"levelo://app?vid=241fb648-a1f3-4e07-bcad-f3d37c8e5218"},"vehicle_type_id":"4","last_reported":1704211694,"current_range_meters":24400,"station_id":"ce4bha12rcd13ifvqee0","pricing_plan_id":"free"},{"bike_id":"d7a6fce4-5f88-406f-a6f9-c84226277240","system_id":"levelo_inurba_marseille","lat":43.284462,"lon":5.392121,"is_reserved":false,"is_disabled":false,"rental_uris":{"android":"levelo://app?vid=d7a6fce4-5f88-406f-a6f9-c84226277240","ios":"levelo://app?vid=d7a6fce4-5f88-406f-a6f9-c84226277240"},"vehicle_type_id":"4","last_reported":1704211694,"current_range_meters":26800,"station_id":"ce4bhoh2rcd13ifvqh5g","pricing_plan_id":"free"},{"bike_id":"78520a80-a019-4653-b63e-49070e0a2b11","system_id":"levelo_inurba_marseille","lat":43.284462,"lon":5.392121,"is_reserved":false,"is_disabled":false,"rental_uris":{"android":"levelo://app?vid=78520a80-a019-4653-b63e-49070e0a2b11","ios":"levelo://app?vid=78520a80-a019-4653-b63e-49070e0a2b11"},"vehicle_type_id":"4","last_reported":1704211694,"current_range_meters":30400,"station_id":"ce4bhoh2rcd13ifvqh5g","pricing_plan_id":"free"},{"bike_id":"13d9c6b2-0169-45b2-af5b-778a01e2f06b","system_id":"levelo_inurba_marseille","lat":43.285742,"lon":5.395004,"is_reserved":false,"is_disabled":false,"rental_uris":{"android":"levelo://app?vid=13d9c6b2-0169-45b2-af5b-778a01e2f06b","ios":"levelo://app?vid=13d9c6b2-0169-45b2-af5b-778a01e2f06b"},"vehicle_type_id":"4","last_reported":1704211694,"current_range_meters":28800,"station_id":"ce4bh292rcd13ifvqdg0","pricing_plan_id":"free"},{"bike_id":"7871ae4f-93f2-45c4-8d9f-380c191a8888","system_id":"levelo_inurba_marseille","lat":43.285742,"lon":5.395004,"is_reserved":false,"is_disabled":false,"rental_uris":{"android":"levelo://app?vid=7871ae4f-93f2-45c4-8d9f-380c191a8888","ios":"levelo://app?vid=7871ae4f-93f2-45c4-8d9f-380c191a8888"},"vehicle_type_id":"4","last_reported":1704211694,"current_range_meters":30400,"station_id":"ce4bh292rcd13ifvqdg0","pricing_plan_id":"free"},{"bike_id":"b2d47e27-8ad4-40f8-94a5-51558d9c1ca6","system_id":"levelo_inurba_marseille","lat":43.30415,"lon":5.41283,"is_reserved":false,"is_disabled":false,"rental_uris":{"android":"levelo://app?vid=b2d47e27-8ad4-40f8-94a5-51558d9c1ca6","ios":"levelo://app?vid=b2d47e27-8ad4-40f8-94a5-51558d9c1ca6"},"vehicle_type_id":"4","last_reported":1704211694,"current_range_meters":22000,"station_id":"ce4bhop2rcd13ifvqh8g","pricing_plan_id":"free"},{"bike_id":"fcf5eff5-55a0-4afa-9285-6bf588544984","system_id":"levelo_inurba_marseille","lat":43.304188,"lon":5.412904,"is_reserved":false,"is_disabled":false,"rental_uris":{"android":"levelo://app?vid=fcf5eff5-55a0-4afa-9285-6bf588544984","ios":"levelo://app?vid=fcf5eff5-55a0-4afa-9285-6bf588544984"},"vehicle_type_id":"4","last_reported":1704211694,"current_range_meters":26800,"station_id":"ce4bhop2rcd13ifvqh8g","pricing_plan_id":"free"},{"bike_id":"8571ddf1-8157-46ba-b747-ea46713afd05","system_id":"levelo_inurba_marseille","lat":43.292786,"lon":5.406518,"is_reserved":false,"is_disabled":false,"rental_uris":{"android":"levelo://app?vid=8571ddf1-8157-46ba-b747-ea46713afd05","ios":"levelo://app?vid=8571ddf1-8157-46ba-b747-ea46713afd05"},"vehicle_type_id":"4","last_reported":1704211694,"current_range_meters":0,"station_id":"","pricing_plan_id":"free"},{"bike_id":"249acaa2-4e10-4340-9808-b9a721925c9d","system_id":"levelo_inurba_marseille","lat":43.287154,"lon":5.399979,"is_reserved":false,"is_disabled":false,"rental_uris":{"android":"levelo://app?vid=249acaa2-4e10-4340-9808-b9a721925c9d","ios":"levelo://app?vid=249acaa2-4e10-4340-9808-b9a721925c9d"},"vehicle_type_id":"4","last_reported":1704211694,"current_range_meters":20000,"station_id":"ce4bho92rcd13ifvqh3g","pricing_plan_id":"free"},{"bike_id":"0f75aa3e-f11e-4ec3-b2f8-af7963c581f0","system_id":"levelo_inurba_marseille","lat":43.320045,"lon":5.415048,"is_reserved":false,"is_disabled":false,"rental_uris":{"android":"levelo://app?vid=0f75aa3e-f11e-4ec3-b2f8-af7963c581f0","ios":"levelo://app?vid=0f75aa3e-f11e-4ec3-b2f8-af7963c581f0"},"vehicle_type_id":"4","last_reported":1704211694,"current_range_meters":24400,"station_id":"ce4bhq92rcd13ifvqhkg","pricing_plan_id":"free"},{"bike_id":"855d63c3-f1aa-42f8-9e80-29b3170e03f8","system_id":"levelo_inurba_marseille","lat":43.27622,"lon":5.36109,"is_reserved":false,"is_disabled":false,"rental_uris":{"android":"levelo://app?vid=855d63c3-f1aa-42f8-9e80-29b3170e03f8","ios":"levelo://app?vid=855d63c3-f1aa-42f8-9e80-29b3170e03f8"},"vehicle_type_id":"4","last_reported":1704211694,"current_range_meters":4000,"station_id":"ce4bgj92rcd13ifvqbe0","pricing_plan_id":"free"},{"bike_id":"e6d21c46-7bc7-4002-a519-a150ece6596b","system_id":"levelo_inurba_marseille","lat":43.27618,"lon":5.361009,"is_reserved":false,"is_disabled":false,"rental_uris":{"android":"levelo://app?vid=e6d21c46-7bc7-4002-a519-a150ece6596b","ios":"levelo://app?vid=e6d21c46-7bc7-4002-a519-a150ece6596b"},"vehicle_type_id":"4","last_reported":1704211694,"current_range_meters":0,"station_id":"ce4bgj92rcd13ifvqbe0","pricing_plan_id":"free"},{"bike_id":"28a3be69-201f-4a78-b660-684b3e4a2a16","system_id":"levelo_inurba_marseille","lat":43.292569,"lon":5.409107,"is_reserved":false,"is_disabled":false,"rental_uris":{"android":"levelo://app?vid=28a3be69-201f-4a78-b660-684b3e4a2a16","ios":"levelo://app?vid=28a3be69-201f-4a78-b660-684b3e4a2a16"},"vehicle_type_id":"4","last_reported":1704211694,"current_range_meters":31200,"station_id":"ce4bh192rcd13ifvqdc0","pricing_plan_id":"free"},{"bike_id":"93965c1d-cbd8-4a4c-953d-b0143e662572","system_id":"levelo_inurba_marseille","lat":43.303837,"lon":5.418724,"is_reserved":false,"is_disabled":false,"rental_uris":{"android":"levelo://app?vid=93965c1d-cbd8-4a4c-953d-b0143e662572","ios":"levelo://app?vid=93965c1d-cbd8-4a4c-953d-b0143e662572"},"vehicle_type_id":"4","last_reported":1704211694,"current_range_meters":31200,"station_id":"ce4bhop2rcd13ifvqh7g","pricing_plan_id":"free"},{"bike_id":"b13ce715-afe3-4955-a7e8-d85c9743f75a","system_id":"levelo_inurba_marseille","lat":43.303837,"lon":5.418724,"is_reserved":false,"is_disabled":false,"rental_uris":{"android":"levelo://app?vid=b13ce715-afe3-4955-a7e8-d85c9743f75a","ios":"levelo://app?vid=b13ce715-afe3-4955-a7e8-d85c9743f75a"},"vehicle_type_id":"4","last_reported":1704211694,"current_range_meters":24800,"station_id":"ce4bhop2rcd13ifvqh7g","pricing_plan_id":"free"},{"bike_id":"e210fc4c-198a-40b0-92b6-c60aed39dcfc","system_id":"levelo_inurba_marseille","lat":43.303837,"lon":5.418724,"is_reserved":false,"is_disabled":false,"rental_uris":{"android":"levelo://app?vid=e210fc4c-198a-40b0-92b6-c60aed39dcfc","ios":"levelo://app?vid=e210fc4c-198a-40b0-92b6-c60aed39dcfc"},"vehicle_type_id":"4","last_reported":1704211694,"current_range_meters":25600,"station_id":"ce4bhop2rcd13ifvqh7g","pricing_plan_id":"free"},{"bike_id":"cd951221-ae7b-4416-ac8a-54fcd01a0002","system_id":"levelo_inurba_marseille","lat":43.278401,"lon":5.392152,"is_reserved":false,"is_disabled":false,"rental_uris":{"android":"levelo://app?vid=cd951221-ae7b-4416-ac8a-54fcd01a0002","ios":"levelo://app?vid=cd951221-ae7b-4416-ac8a-54fcd01a0002"},"vehicle_type_id":"4","last_reported":1704211694,"current_range_meters":10800,"station_id":"ce4bhjp2rcd13ifvqga0","pricing_plan_id":"free"},{"bike_id":"cf2277dd-c4f8-4ede-9fd4-4c6d314043c7","system_id":"levelo_inurba_marseille","lat":43.278401,"lon":5.392152,"is_reserved":false,"is_disabled":false,"rental_uris":{"android":"levelo://app?vid=cf2277dd-c4f8-4ede-9fd4-4c6d314043c7","ios":"levelo://app?vid=cf2277dd-c4f8-4ede-9fd4-4c6d314043c7"},"vehicle_type_id":"4","last_reported":1704211694,"current_range_meters":22400,"station_id":"ce4bhjp2rcd13ifvqga0","pricing_plan_id":"free"},{"bike_id":"9b625edb-5869-4c26-8682-c488819676b1","system_id":"levelo_inurba_marseille","lat":43.278401,"lon":5.392152,"is_reserved":false,"is_disabled":false,"rental_uris":{"android":"levelo://app?vid=9b625edb-5869-4c26-8682-c488819676b1","ios":"levelo://app?vid=9b625edb-5869-4c26-8682-c488819676b1"},"vehicle_type_id":"4","last_reported":1704211694,"current_range_meters":18000,"station_id":"ce4bhjp2rcd13ifvqga0","pricing_plan_id":"free"},{"bike_id":"c20858e7-3841-41cc-b337-1d8790e2f344","system_id":"levelo_inurba_marseille","lat":43.278399,"lon":5.392139,"is_reserved":false,"is_disabled":false,"rental_uris":{"android":"levelo://app?vid=c20858e7-3841-41cc-b337-1d8790e2f344","ios":"levelo://app?vid=c20858e7-3841-41cc-b337-1d8790e2f344"},"vehicle_type_id":"4","last_reported":1704211694,"current_range_meters":26000,"station_id":"ce4bhjp2rcd13ifvqga0","pricing_plan_id":"free"},{"bike_id":"95aee3de-6546-4fcf-9293-ec10dbd78c69","system_id":"levelo_inurba_marseille","lat":43.27376,"lon":5.36255,"is_reserved":false,"is_disabled":false,"rental_uris":{"android":"levelo://app?vid=95aee3de-6546-4fcf-9293-ec10dbd78c69","ios":"levelo://app?vid=95aee3de-6546-4fcf-9293-ec10dbd78c69"},"vehicle_type_id":"4","last_reported":1704211694,"current_range_meters":15200,"station_id":"ce4bhbh2rcd13ifvqeo0","pricing_plan_id":"free"},{"bike_id":"2d5ce2bb-3d31-4b2b-9bb9-2fc351d62837","system_id":"levelo_inurba_marseille","lat":43.273609,"lon":5.362708,"is_reserved":false,"is_disabled":false,"rental_uris":{"android":"levelo://app?vid=2d5ce2bb-3d31-4b2b-9bb9-2fc351d62837","ios":"levelo://app?vid=2d5ce2bb-3d31-4b2b-9bb9-2fc351d62837"},"vehicle_type_id":"4","last_reported":1704211694,"current_range_meters":20400,"station_id":"ce4bhbh2rcd13ifvqeo0","pricing_plan_id":"free"},{"bike_id":"9eb590b6-637c-4451-9a93-c49a9b18688b","system_id":"levelo_inurba_marseille","lat":43.273609,"lon":5.362708,"is_reserved":false,"is_disabled":false,"rental_uris":{"android":"levelo://app?vid=9eb590b6-637c-4451-9a93-c49a9b18688b","ios":"levelo://app?vid=9eb590b6-637c-4451-9a93-c49a9b18688b"},"vehicle_type_id":"4","last_reported":1704211694,"current_range_meters":20000,"station_id":"ce4bhbh2rcd13ifvqeo0","pricing_plan_id":"free"},{"bike_id":"05a6bdc6-fd1e-4c5c-9cc1-67c397c1bd9b","system_id":"levelo_inurba_marseille","lat":43.33604,"lon":5.41027,"is_reserved":false,"is_disabled":false,"rental_uris":{"android":"levelo://app?vid=05a6bdc6-fd1e-4c5c-9cc1-67c397c1bd9b","ios":"levelo://app?vid=05a6bdc6-fd1e-4c5c-9cc1-67c397c1bd9b"},"vehicle_type_id":"4","last_reported":1704211694,"current_range_meters":15200,"station_id":"ce4bhqh2rcd13ifvqhmg","pricing_plan_id":"free"},{"bike_id":"a444d6e2-8b2f-4c06-a832-f8458cd681a6","system_id":"levelo_inurba_marseille","lat":43.336134,"lon":5.410341,"is_reserved":false,"is_disabled":false,"rental_uris":{"android":"levelo://app?vid=a444d6e2-8b2f-4c06-a832-f8458cd681a6","ios":"levelo://app?vid=a444d6e2-8b2f-4c06-a832-f8458cd681a6"},"vehicle_type_id":"4","last_reported":1704211694,"current_range_meters":28400,"station_id":"ce4bhqh2rcd13ifvqhmg","pricing_plan_id":"free"},{"bike_id":"575b6d9b-a4a0-41dc-b74e-55c4cf814ef6","system_id":"levelo_inurba_marseille","lat":43.33609,"lon":5.4103,"is_reserved":false,"is_disabled":false,"rental_uris":{"android":"levelo://app?vid=575b6d9b-a4a0-41dc-b74e-55c4cf814ef6","ios":"levelo://app?vid=575b6d9b-a4a0-41dc-b74e-55c4cf814ef6"},"vehicle_type_id":"4","last_reported":1704211694,"current_range_meters":26400,"station_id":"ce4bhqh2rcd13ifvqhmg","pricing_plan_id":"free"},{"bike_id":"10931a1c-698d-4383-a166-88e4d288eafd","system_id":"levelo_inurba_marseille","lat":43.28005,"lon":5.40011,"is_reserved":false,"is_disabled":false,"rental_uris":{"android":"levelo://app?vid=10931a1c-698d-4383-a166-88e4d288eafd","ios":"levelo://app?vid=10931a1c-698d-4383-a166-88e4d288eafd"},"vehicle_type_id":"4","last_reported":1704211694,"current_range_meters":30400,"station_id":"ce4bho92rcd13ifvqh4g","pricing_plan_id":"free"},{"bike_id":"c2f050c8-5829-4d0e-9d3b-560f9daeb30d","system_id":"levelo_inurba_marseille","lat":43.310785,"lon":5.424305,"is_reserved":false,"is_disabled":false,"rental_uris":{"android":"levelo://app?vid=c2f050c8-5829-4d0e-9d3b-560f9daeb30d","ios":"levelo://app?vid=c2f050c8-5829-4d0e-9d3b-560f9daeb30d"},"vehicle_type_id":"4","last_reported":1704211694,"current_range_meters":31200,"station_id":"ce4bhp92rcd13ifvqhag","pricing_plan_id":"free"},{"bike_id":"5e3452d0-bbc8-463b-8852-ec98e809d5a0","system_id":"levelo_inurba_marseille","lat":43.317121,"lon":5.423936,"is_reserved":false,"is_disabled":false,"rental_uris":{"android":"levelo://app?vid=5e3452d0-bbc8-463b-8852-ec98e809d5a0","ios":"levelo://app?vid=5e3452d0-bbc8-463b-8852-ec98e809d5a0"},"vehicle_type_id":"4","last_reported":1704211694,"current_range_meters":31200,"station_id":"ce4bhp92rcd13ifvqhbg","pricing_plan_id":"free"},{"bike_id":"4760841b-4fd7-4b7d-aef3-782de75b0909","system_id":"levelo_inurba_marseille","lat":43.317121,"lon":5.423936,"is_reserved":false,"is_disabled":false,"rental_uris":{"android":"levelo://app?vid=4760841b-4fd7-4b7d-aef3-782de75b0909","ios":"levelo://app?vid=4760841b-4fd7-4b7d-aef3-782de75b0909"},"vehicle_type_id":"4","last_reported":1704211694,"current_range_meters":21200,"station_id":"ce4bhp92rcd13ifvqhbg","pricing_plan_id":"free"},{"bike_id":"f3e351f0-7ca3-497e-a450-69da3118abd7","system_id":"levelo_inurba_marseille","lat":43.317147,"lon":5.424068,"is_reserved":false,"is_disabled":false,"rental_uris":{"android":"levelo://app?vid=f3e351f0-7ca3-497e-a450-69da3118abd7","ios":"levelo://app?vid=f3e351f0-7ca3-497e-a450-69da3118abd7"},"vehicle_type_id":"4","last_reported":1704211694,"current_range_meters":24000,"station_id":"ce4bhp92rcd13ifvqhbg","pricing_plan_id":"free"},{"bike_id":"631dbf73-7707-4210-bb68-6471796fccb3","system_id":"levelo_inurba_marseille","lat":43.310785,"lon":5.424305,"is_reserved":false,"is_disabled":false,"rental_uris":{"android":"levelo://app?vid=631dbf73-7707-4210-bb68-6471796fccb3","ios":"levelo://app?vid=631dbf73-7707-4210-bb68-6471796fccb3"},"vehicle_type_id":"4","last_reported":1704211694,"current_range_meters":31200,"station_id":"ce4bhp92rcd13ifvqhag","pricing_plan_id":"free"},{"bike_id":"65179593-0d97-4074-9fea-cfecd33adb90","system_id":"levelo_inurba_marseille","lat":43.310785,"lon":5.424305,"is_reserved":false,"is_disabled":false,"rental_uris":{"android":"levelo://app?vid=65179593-0d97-4074-9fea-cfecd33adb90","ios":"levelo://app?vid=65179593-0d97-4074-9fea-cfecd33adb90"},"vehicle_type_id":"4","last_reported":1704211694,"current_range_meters":16000,"station_id":"ce4bhp92rcd13ifvqhag","pricing_plan_id":"free"},{"bike_id":"27069f3d-7d0a-4623-9f37-1f04f341a2d7","system_id":"levelo_inurba_marseille","lat":43.31083,"lon":5.42433,"is_reserved":false,"is_disabled":false,"rental_uris":{"android":"levelo://app?vid=27069f3d-7d0a-4623-9f37-1f04f341a2d7","ios":"levelo://app?vid=27069f3d-7d0a-4623-9f37-1f04f341a2d7"},"vehicle_type_id":"4","last_reported":1704211694,"current_range_meters":16400,"station_id":"ce4bhp92rcd13ifvqhag","pricing_plan_id":"free"},{"bike_id":"3a0291b4-7ea5-48dc-b7bb-d7f678bb3e9b","system_id":"levelo_inurba_marseille","lat":43.31081,"lon":5.42435,"is_reserved":false,"is_disabled":false,"rental_uris":{"android":"levelo://app?vid=3a0291b4-7ea5-48dc-b7bb-d7f678bb3e9b","ios":"levelo://app?vid=3a0291b4-7ea5-48dc-b7bb-d7f678bb3e9b"},"vehicle_type_id":"4","last_reported":1704211694,"current_range_meters":16000,"station_id":"ce4bhp92rcd13ifvqhag","pricing_plan_id":"free"},{"bike_id":"16332610-6d03-4244-a9d6-f27236f43554","system_id":"levelo_inurba_marseille","lat":43.340804,"lon":5.410219,"is_reserved":false,"is_disabled":false,"rental_uris":{"android":"levelo://app?vid=16332610-6d03-4244-a9d6-f27236f43554","ios":"levelo://app?vid=16332610-6d03-4244-a9d6-f27236f43554"},"vehicle_type_id":"4","last_reported":1704211694,"current_range_meters":17200,"station_id":"ce4bhqh2rcd13ifvqhlg","pricing_plan_id":"free"},{"bike_id":"47f8cb60-186e-4e83-96aa-050d47af2974","system_id":"levelo_inurba_marseille","lat":43.34137,"lon":5.409068,"is_reserved":false,"is_disabled":false,"rental_uris":{"android":"levelo://app?vid=47f8cb60-186e-4e83-96aa-050d47af2974","ios":"levelo://app?vid=47f8cb60-186e-4e83-96aa-050d47af2974"},"vehicle_type_id":"4","last_reported":1704211694,"current_range_meters":12000,"station_id":"ce4bhqh2rcd13ifvqhlg","pricing_plan_id":"free"},{"bike_id":"d7a0f436-4a10-430d-9dfa-fb613b9a9e9c","system_id":"levelo_inurba_marseille","lat":43.340804,"lon":5.410219,"is_reserved":false,"is_disabled":false,"rental_uris":{"android":"levelo://app?vid=d7a0f436-4a10-430d-9dfa-fb613b9a9e9c","ios":"levelo://app?vid=d7a0f436-4a10-430d-9dfa-fb613b9a9e9c"},"vehicle_type_id":"4","last_reported":1704211694,"current_range_meters":20000,"station_id":"ce4bhqh2rcd13ifvqhlg","pricing_plan_id":"free"},{"bike_id":"982b7103-5f2c-462c-8e58-c7eaeed464c8","system_id":"levelo_inurba_marseille","lat":43.273129,"lon":5.390725,"is_reserved":false,"is_disabled":false,"rental_uris":{"android":"levelo://app?vid=982b7103-5f2c-462c-8e58-c7eaeed464c8","ios":"levelo://app?vid=982b7103-5f2c-462c-8e58-c7eaeed464c8"},"vehicle_type_id":"4","last_reported":1704211694,"current_range_meters":30000,"station_id":"ce4bhgp2rcd13ifvqfe0","pricing_plan_id":"free"},{"bike_id":"63ffe5be-fdc6-454d-8bdc-d4e9ccf37b71","system_id":"levelo_inurba_marseille","lat":43.274285,"lon":5.39416,"is_reserved":false,"is_disabled":false,"rental_uris":{"android":"levelo://app?vid=63ffe5be-fdc6-454d-8bdc-d4e9ccf37b71","ios":"levelo://app?vid=63ffe5be-fdc6-454d-8bdc-d4e9ccf37b71"},"vehicle_type_id":"4","last_reported":1704211694,"current_range_meters":11600,"station_id":"ce4bhdp2rcd13ifvqf20","pricing_plan_id":"free"},{"bike_id":"772afe21-b0fa-4490-b243-03642772cd17","system_id":"levelo_inurba_marseille","lat":43.273129,"lon":5.390725,"is_reserved":false,"is_disabled":false,"rental_uris":{"android":"levelo://app?vid=772afe21-b0fa-4490-b243-03642772cd17","ios":"levelo://app?vid=772afe21-b0fa-4490-b243-03642772cd17"},"vehicle_type_id":"4","last_reported":1704211694,"current_range_meters":27200,"station_id":"ce4bhgp2rcd13ifvqfe0","pricing_plan_id":"free"},{"bike_id":"6429fc1c-6e83-4645-ae89-e825baacb53f","system_id":"levelo_inurba_marseille","lat":43.272124,"lon":5.391768,"is_reserved":false,"is_disabled":false,"rental_uris":{"android":"levelo://app?vid=6429fc1c-6e83-4645-ae89-e825baacb53f","ios":"levelo://app?vid=6429fc1c-6e83-4645-ae89-e825baacb53f"},"vehicle_type_id":"4","last_reported":1704211694,"current_range_meters":25600,"station_id":"ce4bhhp2rcd13ifvqfm0","pricing_plan_id":"free"},{"bike_id":"bee378e0-7933-4b92-9133-4ab5f473ed73","system_id":"levelo_inurba_marseille","lat":43.272124,"lon":5.391768,"is_reserved":false,"is_disabled":false,"rental_uris":{"android":"levelo://app?vid=bee378e0-7933-4b92-9133-4ab5f473ed73","ios":"levelo://app?vid=bee378e0-7933-4b92-9133-4ab5f473ed73"},"vehicle_type_id":"4","last_reported":1704211694,"current_range_meters":29200,"station_id":"ce4bhhp2rcd13ifvqfm0","pricing_plan_id":"free"},{"bike_id":"966696a7-a4aa-498d-8065-9183e382cd57","system_id":"levelo_inurba_marseille","lat":43.272124,"lon":5.391768,"is_reserved":false,"is_disabled":false,"rental_uris":{"android":"levelo://app?vid=966696a7-a4aa-498d-8065-9183e382cd57","ios":"levelo://app?vid=966696a7-a4aa-498d-8065-9183e382cd57"},"vehicle_type_id":"4","last_reported":1704211694,"current_range_meters":29200,"station_id":"ce4bhhp2rcd13ifvqfm0","pricing_plan_id":"free"},{"bike_id":"d81e1391-d921-48bd-b980-898c1b495fad","system_id":"levelo_inurba_marseille","lat":43.272116,"lon":5.391747,"is_reserved":false,"is_disabled":false,"rental_uris":{"android":"levelo://app?vid=d81e1391-d921-48bd-b980-898c1b495fad","ios":"levelo://app?vid=d81e1391-d921-48bd-b980-898c1b495fad"},"vehicle_type_id":"4","last_reported":1704211694,"current_range_meters":20400,"station_id":"ce4bhhp2rcd13ifvqfm0","pricing_plan_id":"free"},{"bike_id":"0981adf6-92c5-4e1b-820e-2802de113eaa","system_id":"levelo_inurba_marseille","lat":43.27103,"lon":5.38952,"is_reserved":false,"is_disabled":false,"rental_uris":{"android":"levelo://app?vid=0981adf6-92c5-4e1b-820e-2802de113eaa","ios":"levelo://app?vid=0981adf6-92c5-4e1b-820e-2802de113eaa"},"vehicle_type_id":"4","last_reported":1704211694,"current_range_meters":24000,"station_id":"","pricing_plan_id":"free"},{"bike_id":"aa5f56cb-8ab9-4a2e-a412-48f9ab65de73","system_id":"levelo_inurba_marseille","lat":43.269467,"lon":5.386439,"is_reserved":false,"is_disabled":false,"rental_uris":{"android":"levelo://app?vid=aa5f56cb-8ab9-4a2e-a412-48f9ab65de73","ios":"levelo://app?vid=aa5f56cb-8ab9-4a2e-a412-48f9ab65de73"},"vehicle_type_id":"4","last_reported":1704211694,"current_range_meters":17600,"station_id":"ce4bhh92rcd13ifvqfh0","pricing_plan_id":"free"},{"bike_id":"b6c45ef2-9691-485f-8179-10fa71486c8a","system_id":"levelo_inurba_marseille","lat":43.279465,"lon":5.410561,"is_reserved":false,"is_disabled":false,"rental_uris":{"android":"levelo://app?vid=b6c45ef2-9691-485f-8179-10fa71486c8a","ios":"levelo://app?vid=b6c45ef2-9691-485f-8179-10fa71486c8a"},"vehicle_type_id":"4","last_reported":1704211694,"current_range_meters":25600,"station_id":"ce4bhnp2rcd13ifvqh0g","pricing_plan_id":"free"},{"bike_id":"9330153e-64f6-4ee9-a869-aa9ca216a65f","system_id":"levelo_inurba_marseille","lat":43.279465,"lon":5.410561,"is_reserved":false,"is_disabled":false,"rental_uris":{"android":"levelo://app?vid=9330153e-64f6-4ee9-a869-aa9ca216a65f","ios":"levelo://app?vid=9330153e-64f6-4ee9-a869-aa9ca216a65f"},"vehicle_type_id":"4","last_reported":1704211694,"current_range_meters":28000,"station_id":"ce4bhnp2rcd13ifvqh0g","pricing_plan_id":"free"},{"bike_id":"7e432e9d-55d3-4fba-822f-e80ea86465d8","system_id":"levelo_inurba_marseille","lat":43.269319,"lon":5.389397,"is_reserved":false,"is_disabled":false,"rental_uris":{"android":"levelo://app?vid=7e432e9d-55d3-4fba-822f-e80ea86465d8","ios":"levelo://app?vid=7e432e9d-55d3-4fba-822f-e80ea86465d8"},"vehicle_type_id":"4","last_reported":1704211694,"current_range_meters":25200,"station_id":"ce4bhhh2rcd13ifvqfl0","pricing_plan_id":"free"},{"bike_id":"6beee4bc-9e90-4161-be63-15ce7dd5d717","system_id":"levelo_inurba_marseille","lat":43.26684,"lon":5.38266,"is_reserved":false,"is_disabled":false,"rental_uris":{"android":"levelo://app?vid=6beee4bc-9e90-4161-be63-15ce7dd5d717","ios":"levelo://app?vid=6beee4bc-9e90-4161-be63-15ce7dd5d717"},"vehicle_type_id":"4","last_reported":1704211694,"current_range_meters":31200,"station_id":"ce4bhg92rcd13ifvqf90","pricing_plan_id":"free"},{"bike_id":"5c3ff558-bdff-4a53-a387-7ee7228a9144","system_id":"levelo_inurba_marseille","lat":43.26681,"lon":5.382694,"is_reserved":false,"is_disabled":false,"rental_uris":{"android":"levelo://app?vid=5c3ff558-bdff-4a53-a387-7ee7228a9144","ios":"levelo://app?vid=5c3ff558-bdff-4a53-a387-7ee7228a9144"},"vehicle_type_id":"4","last_reported":1704211694,"current_range_meters":31200,"station_id":"ce4bhg92rcd13ifvqf90","pricing_plan_id":"free"},{"bike_id":"5a669397-3d7e-4ea5-ac52-98ad619398b4","system_id":"levelo_inurba_marseille","lat":43.2668,"lon":5.38266,"is_reserved":false,"is_disabled":false,"rental_uris":{"android":"levelo://app?vid=5a669397-3d7e-4ea5-ac52-98ad619398b4","ios":"levelo://app?vid=5a669397-3d7e-4ea5-ac52-98ad619398b4"},"vehicle_type_id":"4","last_reported":1704211694,"current_range_meters":31200,"station_id":"ce4bhg92rcd13ifvqf90","pricing_plan_id":"free"},{"bike_id":"8e6cbcf7-c4be-4889-bc29-dae010c820e1","system_id":"levelo_inurba_marseille","lat":43.265588,"lon":5.372958,"is_reserved":false,"is_disabled":false,"rental_uris":{"android":"levelo://app?vid=8e6cbcf7-c4be-4889-bc29-dae010c820e1","ios":"levelo://app?vid=8e6cbcf7-c4be-4889-bc29-dae010c820e1"},"vehicle_type_id":"4","last_reported":1704211694,"current_range_meters":24800,"station_id":"ce4bhg12rcd13ifvqf70","pricing_plan_id":"free"},{"bike_id":"e7eddb2f-e2c9-47ad-b39a-faa09ae6cda1","system_id":"levelo_inurba_marseille","lat":43.265562,"lon":5.372912,"is_reserved":false,"is_disabled":false,"rental_uris":{"android":"levelo://app?vid=e7eddb2f-e2c9-47ad-b39a-faa09ae6cda1","ios":"levelo://app?vid=e7eddb2f-e2c9-47ad-b39a-faa09ae6cda1"},"vehicle_type_id":"4","last_reported":1704211694,"current_range_meters":31200,"station_id":"ce4bhg12rcd13ifvqf70","pricing_plan_id":"free"},{"bike_id":"cd6f2f3e-9585-43f5-b881-381b3bdf7910","system_id":"levelo_inurba_marseille","lat":43.26556,"lon":5.37289,"is_reserved":false,"is_disabled":false,"rental_uris":{"android":"levelo://app?vid=cd6f2f3e-9585-43f5-b881-381b3bdf7910","ios":"levelo://app?vid=cd6f2f3e-9585-43f5-b881-381b3bdf7910"},"vehicle_type_id":"4","last_reported":1704211694,"current_range_meters":29600,"station_id":"ce4bhg12rcd13ifvqf70","pricing_plan_id":"free"},{"bike_id":"e14bc4a6-c07b-47be-b599-c1b9be32a9dc","system_id":"levelo_inurba_marseille","lat":43.265714,"lon":5.372891,"is_reserved":false,"is_disabled":false,"rental_uris":{"android":"levelo://app?vid=e14bc4a6-c07b-47be-b599-c1b9be32a9dc","ios":"levelo://app?vid=e14bc4a6-c07b-47be-b599-c1b9be32a9dc"},"vehicle_type_id":"4","last_reported":1704211694,"current_range_meters":30800,"station_id":"ce4bhg12rcd13ifvqf70","pricing_plan_id":"free"},{"bike_id":"7c3c75f3-2f79-4900-bc2d-1b5579762775","system_id":"levelo_inurba_marseille","lat":43.265714,"lon":5.372891,"is_reserved":false,"is_disabled":false,"rental_uris":{"android":"levelo://app?vid=7c3c75f3-2f79-4900-bc2d-1b5579762775","ios":"levelo://app?vid=7c3c75f3-2f79-4900-bc2d-1b5579762775"},"vehicle_type_id":"4","last_reported":1704211694,"current_range_meters":31200,"station_id":"ce4bhg12rcd13ifvqf70","pricing_plan_id":"free"},{"bike_id":"0ad653b2-b3f3-407a-b5c6-cadc5064e792","system_id":"levelo_inurba_marseille","lat":43.26554,"lon":5.37288,"is_reserved":false,"is_disabled":false,"rental_uris":{"android":"levelo://app?vid=0ad653b2-b3f3-407a-b5c6-cadc5064e792","ios":"levelo://app?vid=0ad653b2-b3f3-407a-b5c6-cadc5064e792"},"vehicle_type_id":"4","last_reported":1704211694,"current_range_meters":23200,"station_id":"","pricing_plan_id":"free"},{"bike_id":"cce0e60c-e2c2-456a-96ca-f0a93fb4d8bd","system_id":"levelo_inurba_marseille","lat":43.26681,"lon":5.382694,"is_reserved":false,"is_disabled":false,"rental_uris":{"android":"levelo://app?vid=cce0e60c-e2c2-456a-96ca-f0a93fb4d8bd","ios":"levelo://app?vid=cce0e60c-e2c2-456a-96ca-f0a93fb4d8bd"},"vehicle_type_id":"4","last_reported":1704211694,"current_range_meters":31200,"station_id":"ce4bhg92rcd13ifvqf90","pricing_plan_id":"free"},{"bike_id":"2c9b8f30-e007-4d80-b81d-c49d909fc04d","system_id":"levelo_inurba_marseille","lat":43.265519,"lon":5.372859,"is_reserved":false,"is_disabled":false,"rental_uris":{"android":"levelo://app?vid=2c9b8f30-e007-4d80-b81d-c49d909fc04d","ios":"levelo://app?vid=2c9b8f30-e007-4d80-b81d-c49d909fc04d"},"vehicle_type_id":"4","last_reported":1704211694,"current_range_meters":16800,"station_id":"ce4bhg12rcd13ifvqf70","pricing_plan_id":"free"},{"bike_id":"311ad92f-d5ba-419f-bfdd-b31627b40f3c","system_id":"levelo_inurba_marseille","lat":43.2655,"lon":5.37287,"is_reserved":false,"is_disabled":false,"rental_uris":{"android":"levelo://app?vid=311ad92f-d5ba-419f-bfdd-b31627b40f3c","ios":"levelo://app?vid=311ad92f-d5ba-419f-bfdd-b31627b40f3c"},"vehicle_type_id":"4","last_reported":1704211694,"current_range_meters":20800,"station_id":"ce4bhg12rcd13ifvqf70","pricing_plan_id":"free"},{"bike_id":"7552dc67-1782-4263-8825-10c5b00b31be","system_id":"levelo_inurba_marseille","lat":43.27993,"lon":5.41667,"is_reserved":false,"is_disabled":false,"rental_uris":{"android":"levelo://app?vid=7552dc67-1782-4263-8825-10c5b00b31be","ios":"levelo://app?vid=7552dc67-1782-4263-8825-10c5b00b31be"},"vehicle_type_id":"4","last_reported":1704211694,"current_range_meters":28400,"station_id":"ce4bho12rcd13ifvqh1g","pricing_plan_id":"free"},{"bike_id":"6d56746b-555d-485f-9bc0-520c69e5e465","system_id":"levelo_inurba_marseille","lat":43.2799,"lon":5.41666,"is_reserved":false,"is_disabled":false,"rental_uris":{"android":"levelo://app?vid=6d56746b-555d-485f-9bc0-520c69e5e465","ios":"levelo://app?vid=6d56746b-555d-485f-9bc0-520c69e5e465"},"vehicle_type_id":"4","last_reported":1704211694,"current_range_meters":31200,"station_id":"ce4bho12rcd13ifvqh1g","pricing_plan_id":"free"},{"bike_id":"58b1eeaa-1ab8-4268-9baa-dbe3c214c82c","system_id":"levelo_inurba_marseille","lat":43.265714,"lon":5.372891,"is_reserved":false,"is_disabled":false,"rental_uris":{"android":"levelo://app?vid=58b1eeaa-1ab8-4268-9baa-dbe3c214c82c","ios":"levelo://app?vid=58b1eeaa-1ab8-4268-9baa-dbe3c214c82c"},"vehicle_type_id":"4","last_reported":1704211694,"current_range_meters":5600,"station_id":"ce4bhg12rcd13ifvqf70","pricing_plan_id":"free"},{"bike_id":"6c07c2d1-b6a4-455c-bccb-f97ecba2c0ea","system_id":"levelo_inurba_marseille","lat":43.265714,"lon":5.372891,"is_reserved":false,"is_disabled":false,"rental_uris":{"android":"levelo://app?vid=6c07c2d1-b6a4-455c-bccb-f97ecba2c0ea","ios":"levelo://app?vid=6c07c2d1-b6a4-455c-bccb-f97ecba2c0ea"},"vehicle_type_id":"4","last_reported":1704211694,"current_range_meters":30400,"station_id":"ce4bhg12rcd13ifvqf70","pricing_plan_id":"free"},{"bike_id":"cf6bf0be-24ac-4fbc-85d1-b0eb66876d57","system_id":"levelo_inurba_marseille","lat":43.267966,"lon":5.393976,"is_reserved":false,"is_disabled":false,"rental_uris":{"android":"levelo://app?vid=cf6bf0be-24ac-4fbc-85d1-b0eb66876d57","ios":"levelo://app?vid=cf6bf0be-24ac-4fbc-85d1-b0eb66876d57"},"vehicle_type_id":"4","last_reported":1704211694,"current_range_meters":18400,"station_id":"ce4bhh12rcd13ifvqfg0","pricing_plan_id":"free"},{"bike_id":"4e7b82a4-f271-4a72-bdbd-460d1cfbd58d","system_id":"levelo_inurba_marseille","lat":43.27181,"lon":5.404997,"is_reserved":false,"is_disabled":false,"rental_uris":{"android":"levelo://app?vid=4e7b82a4-f271-4a72-bdbd-460d1cfbd58d","ios":"levelo://app?vid=4e7b82a4-f271-4a72-bdbd-460d1cfbd58d"},"vehicle_type_id":"4","last_reported":1704211694,"current_range_meters":5200,"station_id":"","pricing_plan_id":"free"},{"bike_id":"460910cc-aef6-4f7e-be46-c5e79eaea7ec","system_id":"levelo_inurba_marseille","lat":43.308051,"lon":5.43527,"is_reserved":false,"is_disabled":false,"rental_uris":{"android":"levelo://app?vid=460910cc-aef6-4f7e-be46-c5e79eaea7ec","ios":"levelo://app?vid=460910cc-aef6-4f7e-be46-c5e79eaea7ec"},"vehicle_type_id":"4","last_reported":1704211694,"current_range_meters":14000,"station_id":"ce4bhph2rcd13ifvqheg","pricing_plan_id":"free"},{"bike_id":"5c05b849-2463-4263-b883-be7f7993b67d","system_id":"levelo_inurba_marseille","lat":43.265569,"lon":5.390047,"is_reserved":false,"is_disabled":false,"rental_uris":{"android":"levelo://app?vid=5c05b849-2463-4263-b883-be7f7993b67d","ios":"levelo://app?vid=5c05b849-2463-4263-b883-be7f7993b67d"},"vehicle_type_id":"4","last_reported":1704211694,"current_range_meters":16400,"station_id":"ce4bhe12rcd13ifvqf30","pricing_plan_id":"free"},{"bike_id":"4acdea58-b679-4180-9812-65bb718e8387","system_id":"levelo_inurba_marseille","lat":43.308051,"lon":5.43527,"is_reserved":false,"is_disabled":false,"rental_uris":{"android":"levelo://app?vid=4acdea58-b679-4180-9812-65bb718e8387","ios":"levelo://app?vid=4acdea58-b679-4180-9812-65bb718e8387"},"vehicle_type_id":"4","last_reported":1704211694,"current_range_meters":31600,"station_id":"ce4bhph2rcd13ifvqheg","pricing_plan_id":"free"},{"bike_id":"dac5ea74-92f7-462e-b536-31f322bb01c0","system_id":"levelo_inurba_marseille","lat":43.331893,"lon":5.431791,"is_reserved":false,"is_disabled":false,"rental_uris":{"android":"levelo://app?vid=dac5ea74-92f7-462e-b536-31f322bb01c0","ios":"levelo://app?vid=dac5ea74-92f7-462e-b536-31f322bb01c0"},"vehicle_type_id":"4","last_reported":1704211694,"current_range_meters":3200,"station_id":"","pricing_plan_id":"free"},{"bike_id":"12e2949a-e9b6-4590-971a-fac9a5e624a8","system_id":"levelo_inurba_marseille","lat":43.261782,"lon":5.374515,"is_reserved":false,"is_disabled":false,"rental_uris":{"android":"levelo://app?vid=12e2949a-e9b6-4590-971a-fac9a5e624a8","ios":"levelo://app?vid=12e2949a-e9b6-4590-971a-fac9a5e624a8"},"vehicle_type_id":"4","last_reported":1704211694,"current_range_meters":25200,"station_id":"ce4bhgp2rcd13ifvqfc0","pricing_plan_id":"free"},{"bike_id":"d493ff4f-dda3-4ce4-9b3b-476a48540548","system_id":"levelo_inurba_marseille","lat":43.261782,"lon":5.374515,"is_reserved":false,"is_disabled":false,"rental_uris":{"android":"levelo://app?vid=d493ff4f-dda3-4ce4-9b3b-476a48540548","ios":"levelo://app?vid=d493ff4f-dda3-4ce4-9b3b-476a48540548"},"vehicle_type_id":"4","last_reported":1704211694,"current_range_meters":27600,"station_id":"ce4bhgp2rcd13ifvqfc0","pricing_plan_id":"free"},{"bike_id":"57aa4e80-760d-4e3c-a199-3d58309f5f3c","system_id":"levelo_inurba_marseille","lat":43.261782,"lon":5.374515,"is_reserved":false,"is_disabled":false,"rental_uris":{"android":"levelo://app?vid=57aa4e80-760d-4e3c-a199-3d58309f5f3c","ios":"levelo://app?vid=57aa4e80-760d-4e3c-a199-3d58309f5f3c"},"vehicle_type_id":"4","last_reported":1704211694,"current_range_meters":31200,"station_id":"ce4bhgp2rcd13ifvqfc0","pricing_plan_id":"free"},{"bike_id":"019c7a05-8505-48d8-8bae-87ff678ffcde","system_id":"levelo_inurba_marseille","lat":43.261782,"lon":5.374515,"is_reserved":false,"is_disabled":false,"rental_uris":{"android":"levelo://app?vid=019c7a05-8505-48d8-8bae-87ff678ffcde","ios":"levelo://app?vid=019c7a05-8505-48d8-8bae-87ff678ffcde"},"vehicle_type_id":"4","last_reported":1704211694,"current_range_meters":28800,"station_id":"ce4bhgp2rcd13ifvqfc0","pricing_plan_id":"free"},{"bike_id":"ca2ca02b-ee54-439e-8b0b-054b30c80630","system_id":"levelo_inurba_marseille","lat":43.26202,"lon":5.379299,"is_reserved":false,"is_disabled":false,"rental_uris":{"android":"levelo://app?vid=ca2ca02b-ee54-439e-8b0b-054b30c80630","ios":"levelo://app?vid=ca2ca02b-ee54-439e-8b0b-054b30c80630"},"vehicle_type_id":"4","last_reported":1704211694,"current_range_meters":22800,"station_id":"ce4bhjp2rcd13ifvqg90","pricing_plan_id":"free"},{"bike_id":"ea574fdc-3932-4f0e-ba06-6b2f8ace1f04","system_id":"levelo_inurba_marseille","lat":43.26202,"lon":5.379299,"is_reserved":false,"is_disabled":false,"rental_uris":{"android":"levelo://app?vid=ea574fdc-3932-4f0e-ba06-6b2f8ace1f04","ios":"levelo://app?vid=ea574fdc-3932-4f0e-ba06-6b2f8ace1f04"},"vehicle_type_id":"4","last_reported":1704211694,"current_range_meters":0,"station_id":"ce4bhjp2rcd13ifvqg90","pricing_plan_id":"free"},{"bike_id":"76b9d88f-075f-4bfc-8843-14d74158a41a","system_id":"levelo_inurba_marseille","lat":43.271388,"lon":5.409269,"is_reserved":false,"is_disabled":false,"rental_uris":{"android":"levelo://app?vid=76b9d88f-075f-4bfc-8843-14d74158a41a","ios":"levelo://app?vid=76b9d88f-075f-4bfc-8843-14d74158a41a"},"vehicle_type_id":"4","last_reported":1704211694,"current_range_meters":15600,"station_id":"ce4bhl12rcd13ifvqgf0","pricing_plan_id":"free"},{"bike_id":"8e62e469-3383-4b1b-900e-4e54b7147643","system_id":"levelo_inurba_marseille","lat":43.271388,"lon":5.409269,"is_reserved":false,"is_disabled":false,"rental_uris":{"android":"levelo://app?vid=8e62e469-3383-4b1b-900e-4e54b7147643","ios":"levelo://app?vid=8e62e469-3383-4b1b-900e-4e54b7147643"},"vehicle_type_id":"4","last_reported":1704211694,"current_range_meters":20800,"station_id":"ce4bhl12rcd13ifvqgf0","pricing_plan_id":"free"},{"bike_id":"f2ff20d9-dcf3-42aa-a825-60c83579f7bd","system_id":"levelo_inurba_marseille","lat":43.271368,"lon":5.40928,"is_reserved":false,"is_disabled":false,"rental_uris":{"android":"levelo://app?vid=f2ff20d9-dcf3-42aa-a825-60c83579f7bd","ios":"levelo://app?vid=f2ff20d9-dcf3-42aa-a825-60c83579f7bd"},"vehicle_type_id":"4","last_reported":1704211694,"current_range_meters":28800,"station_id":"ce4bhl12rcd13ifvqgf0","pricing_plan_id":"free"},{"bike_id":"50c51303-4125-4045-aa21-332542ac74f4","system_id":"levelo_inurba_marseille","lat":43.2651,"lon":5.39469,"is_reserved":false,"is_disabled":false,"rental_uris":{"android":"levelo://app?vid=50c51303-4125-4045-aa21-332542ac74f4","ios":"levelo://app?vid=50c51303-4125-4045-aa21-332542ac74f4"},"vehicle_type_id":"4","last_reported":1704211694,"current_range_meters":1200,"station_id":"ce4bhi12rcd13ifvqfq0","pricing_plan_id":"free"},{"bike_id":"f359195f-f069-42a0-b818-68741f0dae01","system_id":"levelo_inurba_marseille","lat":43.29898,"lon":5.4366,"is_reserved":false,"is_disabled":false,"rental_uris":{"android":"levelo://app?vid=f359195f-f069-42a0-b818-68741f0dae01","ios":"levelo://app?vid=f359195f-f069-42a0-b818-68741f0dae01"},"vehicle_type_id":"4","last_reported":1704211694,"current_range_meters":26800,"station_id":"ce4bhpp2rcd13ifvqhfg","pricing_plan_id":"free"},{"bike_id":"9e79ebbd-8b93-4b65-ab2b-5fb82f1c880a","system_id":"levelo_inurba_marseille","lat":43.29893,"lon":5.43659,"is_reserved":false,"is_disabled":false,"rental_uris":{"android":"levelo://app?vid=9e79ebbd-8b93-4b65-ab2b-5fb82f1c880a","ios":"levelo://app?vid=9e79ebbd-8b93-4b65-ab2b-5fb82f1c880a"},"vehicle_type_id":"4","last_reported":1704211694,"current_range_meters":31200,"station_id":"ce4bhpp2rcd13ifvqhfg","pricing_plan_id":"free"},{"bike_id":"ec17f12b-76f2-4e38-bdf0-2f3dcd905333","system_id":"levelo_inurba_marseille","lat":43.29891,"lon":5.43661,"is_reserved":false,"is_disabled":false,"rental_uris":{"android":"levelo://app?vid=ec17f12b-76f2-4e38-bdf0-2f3dcd905333","ios":"levelo://app?vid=ec17f12b-76f2-4e38-bdf0-2f3dcd905333"},"vehicle_type_id":"4","last_reported":1704211694,"current_range_meters":25600,"station_id":"ce4bhpp2rcd13ifvqhfg","pricing_plan_id":"free"},{"bike_id":"b551bd27-27d0-45d3-8517-8a313545a924","system_id":"levelo_inurba_marseille","lat":43.298967,"lon":5.436689,"is_reserved":false,"is_disabled":false,"rental_uris":{"android":"levelo://app?vid=b551bd27-27d0-45d3-8517-8a313545a924","ios":"levelo://app?vid=b551bd27-27d0-45d3-8517-8a313545a924"},"vehicle_type_id":"4","last_reported":1704211694,"current_range_meters":31200,"station_id":"ce4bhpp2rcd13ifvqhfg","pricing_plan_id":"free"},{"bike_id":"4e8de535-e2c7-4acf-8fe4-4894de059ac8","system_id":"levelo_inurba_marseille","lat":43.29893,"lon":5.43671,"is_reserved":false,"is_disabled":false,"rental_uris":{"android":"levelo://app?vid=4e8de535-e2c7-4acf-8fe4-4894de059ac8","ios":"levelo://app?vid=4e8de535-e2c7-4acf-8fe4-4894de059ac8"},"vehicle_type_id":"4","last_reported":1704211694,"current_range_meters":31200,"station_id":"ce4bhpp2rcd13ifvqhfg","pricing_plan_id":"free"},{"bike_id":"8f11ba04-eec0-4df9-96e8-fe3b5f598f50","system_id":"levelo_inurba_marseille","lat":43.281548,"lon":5.42643,"is_reserved":false,"is_disabled":false,"rental_uris":{"android":"levelo://app?vid=8f11ba04-eec0-4df9-96e8-fe3b5f598f50","ios":"levelo://app?vid=8f11ba04-eec0-4df9-96e8-fe3b5f598f50"},"vehicle_type_id":"4","last_reported":1704211694,"current_range_meters":20000,"station_id":"ce4bhnh2rcd13ifvqgug","pricing_plan_id":"free"},{"bike_id":"5a04ea17-eb41-4e08-b828-ac0858829f65","system_id":"levelo_inurba_marseille","lat":43.281548,"lon":5.42643,"is_reserved":false,"is_disabled":false,"rental_uris":{"android":"levelo://app?vid=5a04ea17-eb41-4e08-b828-ac0858829f65","ios":"levelo://app?vid=5a04ea17-eb41-4e08-b828-ac0858829f65"},