{"last_updated":1770637072,"ttl":60,"version":"2.2","data":{"bikes":[{"bike_id":"16c5dc4a-b33e-45fb-a371-93d1beb7da83","system_id":"levelo_inurba_marseille","lat":43.26562,"lon":5.40332,"is_reserved":false,"is_disabled":true,"rental_uris":{"android":"levelo://app?vid=16c5dc4a-b33e-45fb-a371-93d1beb7da83","ios":"levelo://app?vid=16c5dc4a-b33e-45fb-a371-93d1beb7da83"},"vehicle_type_id":"4","last_reported":1770637073,"current_range_meters":2800,"station_id":"ce4bhmp2rcd13ifvqgng","pricing_plan_id":"cebpf4jnsgd1na2vs0mg"},{"bike_id":"daab287f-a808-42a9-9a3c-13ea8f2a6e4b","system_id":"levelo_inurba_marseille","lat":43.335471,"lon":5.374727,"is_reserved":false,"is_disabled":false,"rental_uris":{"android":"levelo://app?vid=daab287f-a808-42a9-9a3c-13ea8f2a6e4b","ios":"levelo://app?vid=daab287f-a808-42a9-9a3c-13ea8f2a6e4b"},"vehicle_type_id":"4","last_reported":1770637073,"current_range_meters":2800,"station_id":"st_d46tts09ee8s73dlu43g","pricing_plan_id":"cebpf4jnsgd1na2vs0mg"},{"bike_id":"f3f7bfc8-934b-4d38-8dc0-6afe94cc9f05","system_id":"levelo_inurba_marseille","lat":43.29766,"lon":5.37378,"is_reserved":false,"is_disabled":false,"rental_uris":{"android":"levelo://app?vid=f3f7bfc8-934b-4d38-8dc0-6afe94cc9f05","ios":"levelo://app?vid=f3f7bfc8-934b-4d38-8dc0-6afe94cc9f05"},"vehicle_type_id":"4","last_reported":1770637073,"current_range_meters":2800,"station_id":"","pricing_plan_id":"cebpf4jnsgd1na2vs0mg"},{"bike_id":"d4451d30-c48c-44da-a789-dbad5081ff1e","system_id":"levelo_inurba_marseille","lat":43.23394,"lon":5.41247,"is_reserved":false,"is_disabled":false,"rental_uris":{"android":"levelo://app?vid=d4451d30-c48c-44da-a789-dbad5081ff1e","ios":"levelo://app?vid=d4451d30-c48c-44da-a789-dbad5081ff1e"},"vehicle_type_id":"4","last_reported":1770637073,"current_range_meters":2800,"station_id":"","pricing_plan_id":"cebpf4jnsgd1na2vs0mg"},{"bike_id":"ba8ef613-96d2-49bc-ac95-731a5078ae82","system_id":"levelo_inurba_marseille","lat":43.301404,"lon":5.387689,"is_reserved":false,"is_disabled":true,"rental_uris":{"android":"levelo://app?vid=ba8ef613-96d2-49bc-ac95-731a5078ae82","ios":"levelo://app?vid=ba8ef613-96d2-49bc-ac95-731a5078ae82"},"vehicle_type_id":"4","last_reported":1770637073,"current_range_meters":3200,"station_id":"ce4bgkh2rcd13ifvqbk0","pricing_plan_id":"cebpf4jnsgd1na2vs0mg"},{"bike_id":"e9238960-d4ac-4a8e-9976-8813d9f67878","system_id":"levelo_inurba_marseille","lat":43.24925,"lon":5.40272,"is_reserved":false,"is_disabled":false,"rental_uris":{"android":"levelo://app?vid=e9238960-d4ac-4a8e-9976-8813d9f67878","ios":"levelo://app?vid=e9238960-d4ac-4a8e-9976-8813d9f67878"},"vehicle_type_id":"4","last_reported":1770637073,"current_range_meters":3200,"station_id":"","pricing_plan_id":"cebpf4jnsgd1na2vs0mg"},{"bike_id":"a9de86c6-f619-4313-9ebc-5fa5305f1682","system_id":"levelo_inurba_marseille","lat":43.24476,"lon":5.42549,"is_reserved":false,"is_disabled":false,"rental_uris":{"android":"levelo://app?vid=a9de86c6-f619-4313-9ebc-5fa5305f1682","ios":"levelo://app?vid=a9de86c6-f619-4313-9ebc-5fa5305f1682"},"vehicle_type_id":"4","last_reported":1770637073,"current_range_meters":3200,"station_id":"st_d4a3vfp97mjs738cd8kg","pricing_plan_id":"cebpf4jnsgd1na2vs0mg"},{"bike_id":"cb2de75c-6daa-4a4e-bbee-83853f0e755e","system_id":"levelo_inurba_marseille","lat":43.331582,"lon":5.37697,"is_reserved":false,"is_disabled":false,"rental_uris":{"android":"levelo://app?vid=cb2de75c-6daa-4a4e-bbee-83853f0e755e","ios":"levelo://app?vid=cb2de75c-6daa-4a4e-bbee-83853f0e755e"},"vehicle_type_id":"4","last_reported":1770637073,"current_range_meters":3200,"station_id":"st_d46cu089ee8s73dldbu0","pricing_plan_id":"cebpf4jnsgd1na2vs0mg"},{"bike_id":"09bf1b5a-5c7f-4c10-aadd-75daf4135afd","system_id":"levelo_inurba_marseille","lat":43.30949,"lon":5.39024,"is_reserved":false,"is_disabled":false,"rental_uris":{"android":"levelo://app?vid=09bf1b5a-5c7f-4c10-aadd-75daf4135afd","ios":"levelo://app?vid=09bf1b5a-5c7f-4c10-aadd-75daf4135afd"},"vehicle_type_id":"4","last_reported":1770637073,"current_range_meters":3200,"station_id":"ce4bgup2rcd13ifvqco0","pricing_plan_id":"cebpf4jnsgd1na2vs0mg"},{"bike_id":"c620e79b-7199-4607-a8a8-fb72ed4a1c27","system_id":"levelo_inurba_marseille","lat":43.28117,"lon":5.42646,"is_reserved":false,"is_disabled":false,"rental_uris":{"android":"levelo://app?vid=c620e79b-7199-4607-a8a8-fb72ed4a1c27","ios":"levelo://app?vid=c620e79b-7199-4607-a8a8-fb72ed4a1c27"},"vehicle_type_id":"4","last_reported":1770637073,"current_range_meters":3200,"station_id":"ce4bhnh2rcd13ifvqgug","pricing_plan_id":"cebpf4jnsgd1na2vs0mg"},{"bike_id":"d896e061-9356-46a7-8e21-9b23aa89cf4f","system_id":"levelo_inurba_marseille","lat":43.33551,"lon":5.37461,"is_reserved":false,"is_disabled":false,"rental_uris":{"android":"levelo://app?vid=d896e061-9356-46a7-8e21-9b23aa89cf4f","ios":"levelo://app?vid=d896e061-9356-46a7-8e21-9b23aa89cf4f"},"vehicle_type_id":"4","last_reported":1770637073,"current_range_meters":3200,"station_id":"","pricing_plan_id":"cebpf4jnsgd1na2vs0mg"},{"bike_id":"0cf9e626-18c0-4501-9386-e2edb3330bc9","system_id":"levelo_inurba_marseille","lat":43.28717,"lon":5.36091,"is_reserved":false,"is_disabled":false,"rental_uris":{"android":"levelo://app?vid=0cf9e626-18c0-4501-9386-e2edb3330bc9","ios":"levelo://app?vid=0cf9e626-18c0-4501-9386-e2edb3330bc9"},"vehicle_type_id":"4","last_reported":1770637073,"current_range_meters":3200,"station_id":"cki0cbj6b192h4jlfktg","pricing_plan_id":"cebpf4jnsgd1na2vs0mg"},{"bike_id":"d82f5ff6-e535-4212-898e-1318cc4df2f2","system_id":"levelo_inurba_marseille","lat":43.27085,"lon":5.42273,"is_reserved":false,"is_disabled":false,"rental_uris":{"android":"levelo://app?vid=d82f5ff6-e535-4212-898e-1318cc4df2f2","ios":"levelo://app?vid=d82f5ff6-e535-4212-898e-1318cc4df2f2"},"vehicle_type_id":"4","last_reported":1770637073,"current_range_meters":3200,"station_id":"ce4bhk92rcd13ifvqgb0","pricing_plan_id":"cebpf4jnsgd1na2vs0mg"},{"bike_id":"607d9d08-a5ec-46e8-bae5-bbc6524f155a","system_id":"levelo_inurba_marseille","lat":43.29574,"lon":5.37506,"is_reserved":false,"is_disabled":false,"rental_uris":{"android":"levelo://app?vid=607d9d08-a5ec-46e8-bae5-bbc6524f155a","ios":"levelo://app?vid=607d9d08-a5ec-46e8-bae5-bbc6524f155a"},"vehicle_type_id":"4","last_reported":1770637073,"current_range_meters":3600,"station_id":"ce4bgh92rcd13ifvqb50","pricing_plan_id":"cebpf4jnsgd1na2vs0mg"},{"bike_id":"a5f7b14c-7bed-4ffe-9ed6-ae04eb384654","system_id":"levelo_inurba_marseille","lat":43.31272,"lon":5.40159,"is_reserved":false,"is_disabled":false,"rental_uris":{"android":"levelo://app?vid=a5f7b14c-7bed-4ffe-9ed6-ae04eb384654","ios":"levelo://app?vid=a5f7b14c-7bed-4ffe-9ed6-ae04eb384654"},"vehicle_type_id":"4","last_reported":1770637073,"current_range_meters":3600,"station_id":"ce4bh092rcd13ifvqd30","pricing_plan_id":"cebpf4jnsgd1na2vs0mg"},{"bike_id":"1efe1a19-fbf0-44a6-870c-a91345e7555b","system_id":"levelo_inurba_marseille","lat":43.337444,"lon":5.374475,"is_reserved":false,"is_disabled":false,"rental_uris":{"android":"levelo://app?vid=1efe1a19-fbf0-44a6-870c-a91345e7555b","ios":"levelo://app?vid=1efe1a19-fbf0-44a6-870c-a91345e7555b"},"vehicle_type_id":"4","last_reported":1770637073,"current_range_meters":3600,"station_id":"","pricing_plan_id":"cebpf4jnsgd1na2vs0mg"},{"bike_id":"f031ebdc-e7fd-4860-b35e-fca828d7b97e","system_id":"levelo_inurba_marseille","lat":43.32052,"lon":5.36767,"is_reserved":false,"is_disabled":false,"rental_uris":{"android":"levelo://app?vid=f031ebdc-e7fd-4860-b35e-fca828d7b97e","ios":"levelo://app?vid=f031ebdc-e7fd-4860-b35e-fca828d7b97e"},"vehicle_type_id":"4","last_reported":1770637073,"current_range_meters":3600,"station_id":"ce4bhrh2rcd13ifvqhug","pricing_plan_id":"cebpf4jnsgd1na2vs0mg"},{"bike_id":"b53d9915-f11b-4811-a206-40b080ce7525","system_id":"levelo_inurba_marseille","lat":43.28075,"lon":5.39661,"is_reserved":false,"is_disabled":false,"rental_uris":{"android":"levelo://app?vid=b53d9915-f11b-4811-a206-40b080ce7525","ios":"levelo://app?vid=b53d9915-f11b-4811-a206-40b080ce7525"},"vehicle_type_id":"4","last_reported":1770637073,"current_range_meters":3600,"station_id":"ce4bho12rcd13ifvqh2g","pricing_plan_id":"cebpf4jnsgd1na2vs0mg"},{"bike_id":"24cc7bdb-5261-4fff-80e2-27bfd8421313","system_id":"levelo_inurba_marseille","lat":43.24073,"lon":5.37761,"is_reserved":false,"is_disabled":false,"rental_uris":{"android":"levelo://app?vid=24cc7bdb-5261-4fff-80e2-27bfd8421313","ios":"levelo://app?vid=24cc7bdb-5261-4fff-80e2-27bfd8421313"},"vehicle_type_id":"4","last_reported":1770637073,"current_range_meters":4000,"station_id":"ce4bhnp2rcd13ifvqgvg","pricing_plan_id":"cebpf4jnsgd1na2vs0mg"},{"bike_id":"d9c49242-2714-4c46-9072-ad91dfc1418d","system_id":"levelo_inurba_marseille","lat":43.31461,"lon":5.45389,"is_reserved":false,"is_disabled":false,"rental_uris":{"android":"levelo://app?vid=d9c49242-2714-4c46-9072-ad91dfc1418d","ios":"levelo://app?vid=d9c49242-2714-4c46-9072-ad91dfc1418d"},"vehicle_type_id":"4","last_reported":1770637073,"current_range_meters":4000,"station_id":"","pricing_plan_id":"cebpf4jnsgd1na2vs0mg"},{"bike_id":"7234f890-6455-4b46-8576-820d2b9cf766","system_id":"levelo_inurba_marseille","lat":43.23154,"lon":5.43712,"is_reserved":false,"is_disabled":false,"rental_uris":{"android":"levelo://app?vid=7234f890-6455-4b46-8576-820d2b9cf766","ios":"levelo://app?vid=7234f890-6455-4b46-8576-820d2b9cf766"},"vehicle_type_id":"4","last_reported":1770637073,"current_range_meters":4000,"station_id":"ce4bhmp2rcd13ifvqgog","pricing_plan_id":"cebpf4jnsgd1na2vs0mg"},{"bike_id":"a2f08b7b-3148-4ae3-b1d5-0ad2ed6e132c","system_id":"levelo_inurba_marseille","lat":43.28601,"lon":5.44356,"is_reserved":false,"is_disabled":false,"rental_uris":{"android":"levelo://app?vid=a2f08b7b-3148-4ae3-b1d5-0ad2ed6e132c","ios":"levelo://app?vid=a2f08b7b-3148-4ae3-b1d5-0ad2ed6e132c"},"vehicle_type_id":"4","last_reported":1770637073,"current_range_meters":4000,"station_id":"","pricing_plan_id":"cebpf4jnsgd1na2vs0mg"},{"bike_id":"246df7b9-b415-48a3-ab14-00051be0a019","system_id":"levelo_inurba_marseille","lat":43.28935,"lon":5.38392,"is_reserved":false,"is_disabled":false,"rental_uris":{"android":"levelo://app?vid=246df7b9-b415-48a3-ab14-00051be0a019","ios":"levelo://app?vid=246df7b9-b415-48a3-ab14-00051be0a019"},"vehicle_type_id":"4","last_reported":1770637073,"current_range_meters":4000,"station_id":"ce4bh612rcd13ifvqe6g","pricing_plan_id":"cebpf4jnsgd1na2vs0mg"},{"bike_id":"05280667-4306-4a3c-89fe-64debd7d10a7","system_id":"levelo_inurba_marseille","lat":43.25003,"lon":5.38928,"is_reserved":false,"is_disabled":false,"rental_uris":{"android":"levelo://app?vid=05280667-4306-4a3c-89fe-64debd7d10a7","ios":"levelo://app?vid=05280667-4306-4a3c-89fe-64debd7d10a7"},"vehicle_type_id":"4","last_reported":1770637073,"current_range_meters":4000,"station_id":"ce4bhgp2rcd13ifvqfd0","pricing_plan_id":"cebpf4jnsgd1na2vs0mg"},{"bike_id":"6dedaafe-5ee7-4a4b-b764-f1f9e016d363","system_id":"levelo_inurba_marseille","lat":43.29823,"lon":5.44073,"is_reserved":false,"is_disabled":false,"rental_uris":{"android":"levelo://app?vid=6dedaafe-5ee7-4a4b-b764-f1f9e016d363","ios":"levelo://app?vid=6dedaafe-5ee7-4a4b-b764-f1f9e016d363"},"vehicle_type_id":"4","last_reported":1770637073,"current_range_meters":4400,"station_id":"st_d3jp68qikq2c7381ktn0","pricing_plan_id":"cebpf4jnsgd1na2vs0mg"},{"bike_id":"62468bc0-7c46-4734-a9fc-6c79792208c6","system_id":"levelo_inurba_marseille","lat":43.275629,"lon":5.384192,"is_reserved":false,"is_disabled":false,"rental_uris":{"android":"levelo://app?vid=62468bc0-7c46-4734-a9fc-6c79792208c6","ios":"levelo://app?vid=62468bc0-7c46-4734-a9fc-6c79792208c6"},"vehicle_type_id":"4","last_reported":1770637073,"current_range_meters":4400,"station_id":"ce4bh0h2rcd13ifvqd60","pricing_plan_id":"cebpf4jnsgd1na2vs0mg"},{"bike_id":"ffcfb0a6-be0d-4d3d-b9ec-3a4698a83e7b","system_id":"levelo_inurba_marseille","lat":43.25941,"lon":5.409,"is_reserved":false,"is_disabled":false,"rental_uris":{"android":"levelo://app?vid=ffcfb0a6-be0d-4d3d-b9ec-3a4698a83e7b","ios":"levelo://app?vid=ffcfb0a6-be0d-4d3d-b9ec-3a4698a83e7b"},"vehicle_type_id":"4","last_reported":1770637073,"current_range_meters":4800,"station_id":"ce4bhm92rcd13ifvqglg","pricing_plan_id":"cebpf4jnsgd1na2vs0mg"},{"bike_id":"13bd5b3e-064b-4d66-83ab-440ad34b9b18","system_id":"levelo_inurba_marseille","lat":43.2319,"lon":5.35553,"is_reserved":false,"is_disabled":false,"rental_uris":{"android":"levelo://app?vid=13bd5b3e-064b-4d66-83ab-440ad34b9b18","ios":"levelo://app?vid=13bd5b3e-064b-4d66-83ab-440ad34b9b18"},"vehicle_type_id":"4","last_reported":1770637073,"current_range_meters":4800,"station_id":"ce4bhu92rcd13ifvqi70","pricing_plan_id":"cebpf4jnsgd1na2vs0mg"},{"bike_id":"716c4e80-e8b9-4c75-80e7-583969387289","system_id":"levelo_inurba_marseille","lat":43.285267,"lon":5.440989,"is_reserved":false,"is_disabled":false,"rental_uris":{"android":"levelo://app?vid=716c4e80-e8b9-4c75-80e7-583969387289","ios":"levelo://app?vid=716c4e80-e8b9-4c75-80e7-583969387289"},"vehicle_type_id":"4","last_reported":1770637073,"current_range_meters":4800,"station_id":"st_d3j3df2ikq2c7380ej80","pricing_plan_id":"cebpf4jnsgd1na2vs0mg"},{"bike_id":"b7aa4800-191c-4648-bad5-b25ea71c984e","system_id":"levelo_inurba_marseille","lat":43.29007,"lon":5.35599,"is_reserved":false,"is_disabled":false,"rental_uris":{"android":"levelo://app?vid=b7aa4800-191c-4648-bad5-b25ea71c984e","ios":"levelo://app?vid=b7aa4800-191c-4648-bad5-b25ea71c984e"},"vehicle_type_id":"4","last_reported":1770637073,"current_range_meters":5600,"station_id":"ce4bhb92rcd13ifvqen0","pricing_plan_id":"cebpf4jnsgd1na2vs0mg"},{"bike_id":"d5242b4a-769b-48b8-8522-816e7c28d15b","system_id":"levelo_inurba_marseille","lat":43.262179,"lon":5.374431,"is_reserved":false,"is_disabled":false,"rental_uris":{"android":"levelo://app?vid=d5242b4a-769b-48b8-8522-816e7c28d15b","ios":"levelo://app?vid=d5242b4a-769b-48b8-8522-816e7c28d15b"},"vehicle_type_id":"4","last_reported":1770637073,"current_range_meters":5600,"station_id":"ce4bhgp2rcd13ifvqfc0","pricing_plan_id":"cebpf4jnsgd1na2vs0mg"},{"bike_id":"26d7c725-c8cf-43a0-af15-0ec272e88ca6","system_id":"levelo_inurba_marseille","lat":43.28688,"lon":5.38665,"is_reserved":false,"is_disabled":false,"rental_uris":{"android":"levelo://app?vid=26d7c725-c8cf-43a0-af15-0ec272e88ca6","ios":"levelo://app?vid=26d7c725-c8cf-43a0-af15-0ec272e88ca6"},"vehicle_type_id":"4","last_reported":1770637073,"current_range_meters":5600,"station_id":"ce4bh492rcd13ifvqdug","pricing_plan_id":"cebpf4jnsgd1na2vs0mg"},{"bike_id":"cb4e831c-6025-4234-bd44-dc892f6a6133","system_id":"levelo_inurba_marseille","lat":43.26591,"lon":5.40313,"is_reserved":false,"is_disabled":false,"rental_uris":{"android":"levelo://app?vid=cb4e831c-6025-4234-bd44-dc892f6a6133","ios":"levelo://app?vid=cb4e831c-6025-4234-bd44-dc892f6a6133"},"vehicle_type_id":"4","last_reported":1770637073,"current_range_meters":5600,"station_id":"ce4bhmp2rcd13ifvqgng","pricing_plan_id":"cebpf4jnsgd1na2vs0mg"},{"bike_id":"61003dcb-1e04-4ea0-9829-a482153db859","system_id":"levelo_inurba_marseille","lat":43.29822,"lon":5.37592,"is_reserved":false,"is_disabled":false,"rental_uris":{"android":"levelo://app?vid=61003dcb-1e04-4ea0-9829-a482153db859","ios":"levelo://app?vid=61003dcb-1e04-4ea0-9829-a482153db859"},"vehicle_type_id":"4","last_reported":1770637073,"current_range_meters":5600,"station_id":"","pricing_plan_id":"cebpf4jnsgd1na2vs0mg"},{"bike_id":"74e1b701-71d8-4a58-8006-b2aaef453c24","system_id":"levelo_inurba_marseille","lat":43.28606,"lon":5.39868,"is_reserved":false,"is_disabled":false,"rental_uris":{"android":"levelo://app?vid=74e1b701-71d8-4a58-8006-b2aaef453c24","ios":"levelo://app?vid=74e1b701-71d8-4a58-8006-b2aaef453c24"},"vehicle_type_id":"4","last_reported":1770637073,"current_range_meters":5600,"station_id":"st_d4a7ka997mjs738ck50g","pricing_plan_id":"cebpf4jnsgd1na2vs0mg"},{"bike_id":"d756b69a-f89e-45e9-8367-cec99ad981ec","system_id":"levelo_inurba_marseille","lat":43.29578,"lon":5.39965,"is_reserved":false,"is_disabled":true,"rental_uris":{"android":"levelo://app?vid=d756b69a-f89e-45e9-8367-cec99ad981ec","ios":"levelo://app?vid=d756b69a-f89e-45e9-8367-cec99ad981ec"},"vehicle_type_id":"4","last_reported":1770637073,"current_range_meters":6000,"station_id":"ce4bh312rcd13ifvqdj0","pricing_plan_id":"cebpf4jnsgd1na2vs0mg"},{"bike_id":"9c5847f8-2630-4e30-96ca-9059778cf36a","system_id":"levelo_inurba_marseille","lat":43.29284,"lon":5.36836,"is_reserved":false,"is_disabled":false,"rental_uris":{"android":"levelo://app?vid=9c5847f8-2630-4e30-96ca-9059778cf36a","ios":"levelo://app?vid=9c5847f8-2630-4e30-96ca-9059778cf36a"},"vehicle_type_id":"4","last_reported":1770637073,"current_range_meters":6000,"station_id":"ce4bhbp2rcd13ifvqesg","pricing_plan_id":"cebpf4jnsgd1na2vs0mg"},{"bike_id":"fb42dd14-8842-4c1b-bf3c-4ce250e467ea","system_id":"levelo_inurba_marseille","lat":43.2572,"lon":5.41123,"is_reserved":false,"is_disabled":false,"rental_uris":{"android":"levelo://app?vid=fb42dd14-8842-4c1b-bf3c-4ce250e467ea","ios":"levelo://app?vid=fb42dd14-8842-4c1b-bf3c-4ce250e467ea"},"vehicle_type_id":"4","last_reported":1770637073,"current_range_meters":6000,"station_id":"ce4bhkp2rcd13ifvqgd0","pricing_plan_id":"cebpf4jnsgd1na2vs0mg"},{"bike_id":"eb4c876b-88dd-43ec-8628-44a384f402f0","system_id":"levelo_inurba_marseille","lat":43.33538,"lon":5.37451,"is_reserved":false,"is_disabled":false,"rental_uris":{"android":"levelo://app?vid=eb4c876b-88dd-43ec-8628-44a384f402f0","ios":"levelo://app?vid=eb4c876b-88dd-43ec-8628-44a384f402f0"},"vehicle_type_id":"4","last_reported":1770637073,"current_range_meters":6000,"station_id":"st_d46tts09ee8s73dlu43g","pricing_plan_id":"cebpf4jnsgd1na2vs0mg"},{"bike_id":"89b99a3d-1f2b-4844-80de-72e6b7013b18","system_id":"levelo_inurba_marseille","lat":43.28943,"lon":5.39635,"is_reserved":false,"is_disabled":false,"rental_uris":{"android":"levelo://app?vid=89b99a3d-1f2b-4844-80de-72e6b7013b18","ios":"levelo://app?vid=89b99a3d-1f2b-4844-80de-72e6b7013b18"},"vehicle_type_id":"4","last_reported":1770637073,"current_range_meters":6000,"station_id":"ce4bh3h2rcd13ifvqdn0","pricing_plan_id":"cebpf4jnsgd1na2vs0mg"},{"bike_id":"c88a56b7-93cb-4228-bcff-c78517066df8","system_id":"levelo_inurba_marseille","lat":43.26536,"lon":5.37293,"is_reserved":false,"is_disabled":false,"rental_uris":{"android":"levelo://app?vid=c88a56b7-93cb-4228-bcff-c78517066df8","ios":"levelo://app?vid=c88a56b7-93cb-4228-bcff-c78517066df8"},"vehicle_type_id":"4","last_reported":1770637073,"current_range_meters":6000,"station_id":"ce4bhg12rcd13ifvqf70","pricing_plan_id":"cebpf4jnsgd1na2vs0mg"},{"bike_id":"77738d8a-6194-4037-8d55-cd09700450fc","system_id":"levelo_inurba_marseille","lat":43.28102,"lon":5.3783,"is_reserved":false,"is_disabled":false,"rental_uris":{"android":"levelo://app?vid=77738d8a-6194-4037-8d55-cd09700450fc","ios":"levelo://app?vid=77738d8a-6194-4037-8d55-cd09700450fc"},"vehicle_type_id":"4","last_reported":1770637073,"current_range_meters":6000,"station_id":"ce4bha12rcd13ifvqee0","pricing_plan_id":"cebpf4jnsgd1na2vs0mg"},{"bike_id":"9ef2f7f3-370e-4278-ade9-8a6e704bfb90","system_id":"levelo_inurba_marseille","lat":43.24401,"lon":5.37073,"is_reserved":false,"is_disabled":false,"rental_uris":{"android":"levelo://app?vid=9ef2f7f3-370e-4278-ade9-8a6e704bfb90","ios":"levelo://app?vid=9ef2f7f3-370e-4278-ade9-8a6e704bfb90"},"vehicle_type_id":"4","last_reported":1770637073,"current_range_meters":6000,"station_id":"ce4bhhh2rcd13ifvqfk0","pricing_plan_id":"cebpf4jnsgd1na2vs0mg"},{"bike_id":"822e5c69-0f22-40ec-abb1-cf711ea349a4","system_id":"levelo_inurba_marseille","lat":43.26528,"lon":5.37375,"is_reserved":false,"is_disabled":false,"rental_uris":{"android":"levelo://app?vid=822e5c69-0f22-40ec-abb1-cf711ea349a4","ios":"levelo://app?vid=822e5c69-0f22-40ec-abb1-cf711ea349a4"},"vehicle_type_id":"4","last_reported":1770637073,"current_range_meters":6000,"station_id":"","pricing_plan_id":"cebpf4jnsgd1na2vs0mg"},{"bike_id":"eab93a8a-5504-4a51-b4b2-4e2f94859117","system_id":"levelo_inurba_marseille","lat":43.27209,"lon":5.39177,"is_reserved":false,"is_disabled":false,"rental_uris":{"android":"levelo://app?vid=eab93a8a-5504-4a51-b4b2-4e2f94859117","ios":"levelo://app?vid=eab93a8a-5504-4a51-b4b2-4e2f94859117"},"vehicle_type_id":"4","last_reported":1770637073,"current_range_meters":6000,"station_id":"ce4bhhp2rcd13ifvqfm0","pricing_plan_id":"cebpf4jnsgd1na2vs0mg"},{"bike_id":"2bd2f347-3f90-42b9-8e50-1564e6d953ce","system_id":"levelo_inurba_marseille","lat":43.27347,"lon":5.39098,"is_reserved":false,"is_disabled":false,"rental_uris":{"android":"levelo://app?vid=2bd2f347-3f90-42b9-8e50-1564e6d953ce","ios":"levelo://app?vid=2bd2f347-3f90-42b9-8e50-1564e6d953ce"},"vehicle_type_id":"4","last_reported":1770637073,"current_range_meters":6400,"station_id":"ce4bhgp2rcd13ifvqfe0","pricing_plan_id":"cebpf4jnsgd1na2vs0mg"},{"bike_id":"7793efe0-796a-47b9-b395-f00d6d2ba2f3","system_id":"levelo_inurba_marseille","lat":43.33527,"lon":5.37478,"is_reserved":false,"is_disabled":false,"rental_uris":{"android":"levelo://app?vid=7793efe0-796a-47b9-b395-f00d6d2ba2f3","ios":"levelo://app?vid=7793efe0-796a-47b9-b395-f00d6d2ba2f3"},"vehicle_type_id":"4","last_reported":1770637073,"current_range_meters":6400,"station_id":"st_d46tts09ee8s73dlu43g","pricing_plan_id":"cebpf4jnsgd1na2vs0mg"},{"bike_id":"4b6ae7cf-a20c-45bf-93e3-f78d3a6e7a98","system_id":"levelo_inurba_marseille","lat":43.25937,"lon":5.40914,"is_reserved":false,"is_disabled":false,"rental_uris":{"android":"levelo://app?vid=4b6ae7cf-a20c-45bf-93e3-f78d3a6e7a98","ios":"levelo://app?vid=4b6ae7cf-a20c-45bf-93e3-f78d3a6e7a98"},"vehicle_type_id":"4","last_reported":1770637073,"current_range_meters":6400,"station_id":"ce4bhm92rcd13ifvqglg","pricing_plan_id":"cebpf4jnsgd1na2vs0mg"},{"bike_id":"42d14ae0-b057-4881-a435-4d88ebb79611","system_id":"levelo_inurba_marseille","lat":43.26675,"lon":5.38263,"is_reserved":false,"is_disabled":false,"rental_uris":{"android":"levelo://app?vid=42d14ae0-b057-4881-a435-4d88ebb79611","ios":"levelo://app?vid=42d14ae0-b057-4881-a435-4d88ebb79611"},"vehicle_type_id":"4","last_reported":1770637073,"current_range_meters":6400,"station_id":"ce4bhg92rcd13ifvqf90","pricing_plan_id":"cebpf4jnsgd1na2vs0mg"},{"bike_id":"ac645712-adb7-427c-9a1d-bbc03b4ccac1","system_id":"levelo_inurba_marseille","lat":43.211877,"lon":5.35074,"is_reserved":false,"is_disabled":false,"rental_uris":{"android":"levelo://app?vid=ac645712-adb7-427c-9a1d-bbc03b4ccac1","ios":"levelo://app?vid=ac645712-adb7-427c-9a1d-bbc03b4ccac1"},"vehicle_type_id":"4","last_reported":1770637073,"current_range_meters":6400,"station_id":"st_cvj6sg6p6f1abm77japg","pricing_plan_id":"cebpf4jnsgd1na2vs0mg"},{"bike_id":"19d8982e-e70c-4b5b-98db-88bf29b75db0","system_id":"levelo_inurba_marseille","lat":43.27376,"lon":5.36251,"is_reserved":false,"is_disabled":false,"rental_uris":{"android":"levelo://app?vid=19d8982e-e70c-4b5b-98db-88bf29b75db0","ios":"levelo://app?vid=19d8982e-e70c-4b5b-98db-88bf29b75db0"},"vehicle_type_id":"4","last_reported":1770637073,"current_range_meters":6400,"station_id":"ce4bhbh2rcd13ifvqeo0","pricing_plan_id":"cebpf4jnsgd1na2vs0mg"},{"bike_id":"5aba6095-7643-4143-8b09-182d2f94183c","system_id":"levelo_inurba_marseille","lat":43.29845,"lon":5.36261,"is_reserved":false,"is_disabled":false,"rental_uris":{"android":"levelo://app?vid=5aba6095-7643-4143-8b09-182d2f94183c","ios":"levelo://app?vid=5aba6095-7643-4143-8b09-182d2f94183c"},"vehicle_type_id":"4","last_reported":1770637073,"current_range_meters":6800,"station_id":"ce4bgpp2rcd13ifvqc3g","pricing_plan_id":"cebpf4jnsgd1na2vs0mg"},{"bike_id":"ea5b640c-f9cc-4437-aff2-20b9a17b6db1","system_id":"levelo_inurba_marseille","lat":43.25939,"lon":5.40892,"is_reserved":false,"is_disabled":false,"rental_uris":{"android":"levelo://app?vid=ea5b640c-f9cc-4437-aff2-20b9a17b6db1","ios":"levelo://app?vid=ea5b640c-f9cc-4437-aff2-20b9a17b6db1"},"vehicle_type_id":"4","last_reported":1770637073,"current_range_meters":6800,"station_id":"ce4bhm92rcd13ifvqglg","pricing_plan_id":"cebpf4jnsgd1na2vs0mg"},{"bike_id":"bddfa4ac-4f29-4731-b507-2ef144d2a352","system_id":"levelo_inurba_marseille","lat":43.26217,"lon":5.37448,"is_reserved":false,"is_disabled":false,"rental_uris":{"android":"levelo://app?vid=bddfa4ac-4f29-4731-b507-2ef144d2a352","ios":"levelo://app?vid=bddfa4ac-4f29-4731-b507-2ef144d2a352"},"vehicle_type_id":"4","last_reported":1770637073,"current_range_meters":6800,"station_id":"ce4bhgp2rcd13ifvqfc0","pricing_plan_id":"cebpf4jnsgd1na2vs0mg"},{"bike_id":"3677d988-5978-44c4-82e7-a7994579bc69","system_id":"levelo_inurba_marseille","lat":43.28479,"lon":5.3843,"is_reserved":false,"is_disabled":true,"rental_uris":{"android":"levelo://app?vid=3677d988-5978-44c4-82e7-a7994579bc69","ios":"levelo://app?vid=3677d988-5978-44c4-82e7-a7994579bc69"},"vehicle_type_id":"4","last_reported":1770637073,"current_range_meters":6800,"station_id":"ce4bh512rcd13ifvqe3g","pricing_plan_id":"cebpf4jnsgd1na2vs0mg"},{"bike_id":"f3573b32-a1f6-406b-8e19-a08eafd3553f","system_id":"levelo_inurba_marseille","lat":43.27493,"lon":5.42458,"is_reserved":false,"is_disabled":false,"rental_uris":{"android":"levelo://app?vid=f3573b32-a1f6-406b-8e19-a08eafd3553f","ios":"levelo://app?vid=f3573b32-a1f6-406b-8e19-a08eafd3553f"},"vehicle_type_id":"4","last_reported":1770637073,"current_range_meters":6800,"station_id":"ce4bhn92rcd13ifvqgrg","pricing_plan_id":"cebpf4jnsgd1na2vs0mg"},{"bike_id":"2a41a4e7-1277-4985-ba78-22bce5859488","system_id":"levelo_inurba_marseille","lat":43.25947,"lon":5.40908,"is_reserved":false,"is_disabled":false,"rental_uris":{"android":"levelo://app?vid=2a41a4e7-1277-4985-ba78-22bce5859488","ios":"levelo://app?vid=2a41a4e7-1277-4985-ba78-22bce5859488"},"vehicle_type_id":"4","last_reported":1770637073,"current_range_meters":6800,"station_id":"ce4bhm92rcd13ifvqglg","pricing_plan_id":"cebpf4jnsgd1na2vs0mg"},{"bike_id":"27c29ef9-6971-4a98-8030-2f3da3364f50","system_id":"levelo_inurba_marseille","lat":43.27518,"lon":5.42462,"is_reserved":false,"is_disabled":false,"rental_uris":{"android":"levelo://app?vid=27c29ef9-6971-4a98-8030-2f3da3364f50","ios":"levelo://app?vid=27c29ef9-6971-4a98-8030-2f3da3364f50"},"vehicle_type_id":"4","last_reported":1770637073,"current_range_meters":7200,"station_id":"ce4bhn92rcd13ifvqgrg","pricing_plan_id":"cebpf4jnsgd1na2vs0mg"},{"bike_id":"245f3a00-5ae9-48cf-b7da-8774ff9b41ba","system_id":"levelo_inurba_marseille","lat":43.28476,"lon":5.48392,"is_reserved":false,"is_disabled":false,"rental_uris":{"android":"levelo://app?vid=245f3a00-5ae9-48cf-b7da-8774ff9b41ba","ios":"levelo://app?vid=245f3a00-5ae9-48cf-b7da-8774ff9b41ba"},"vehicle_type_id":"4","last_reported":1770637073,"current_range_meters":7200,"station_id":"","pricing_plan_id":"cebpf4jnsgd1na2vs0mg"},{"bike_id":"a0031dff-ef69-495e-a40e-21326973f320","system_id":"levelo_inurba_marseille","lat":43.27548,"lon":5.38374,"is_reserved":false,"is_disabled":false,"rental_uris":{"android":"levelo://app?vid=a0031dff-ef69-495e-a40e-21326973f320","ios":"levelo://app?vid=a0031dff-ef69-495e-a40e-21326973f320"},"vehicle_type_id":"4","last_reported":1770637073,"current_range_meters":7200,"station_id":"ce4bhh92rcd13ifvqfi0","pricing_plan_id":"cebpf4jnsgd1na2vs0mg"},{"bike_id":"78b3f7d4-843b-4b5e-bbc5-1ef21eeeada0","system_id":"levelo_inurba_marseille","lat":43.29291,"lon":5.37451,"is_reserved":false,"is_disabled":false,"rental_uris":{"android":"levelo://app?vid=78b3f7d4-843b-4b5e-bbc5-1ef21eeeada0","ios":"levelo://app?vid=78b3f7d4-843b-4b5e-bbc5-1ef21eeeada0"},"vehicle_type_id":"4","last_reported":1770637073,"current_range_meters":7200,"station_id":"ce4bgi12rcd13ifvqb70","pricing_plan_id":"cebpf4jnsgd1na2vs0mg"},{"bike_id":"f13b8832-1f22-4cab-8f5d-b649a53f8630","system_id":"levelo_inurba_marseille","lat":43.2836,"lon":5.38616,"is_reserved":false,"is_disabled":false,"rental_uris":{"android":"levelo://app?vid=f13b8832-1f22-4cab-8f5d-b649a53f8630","ios":"levelo://app?vid=f13b8832-1f22-4cab-8f5d-b649a53f8630"},"vehicle_type_id":"4","last_reported":1770637073,"current_range_meters":7200,"station_id":"ce4bh492rcd13ifvqdvg","pricing_plan_id":"cebpf4jnsgd1na2vs0mg"},{"bike_id":"fc830711-c6c4-41fc-8c3c-a2ef4151426a","system_id":"levelo_inurba_marseille","lat":43.267959,"lon":5.402712,"is_reserved":false,"is_disabled":false,"rental_uris":{"android":"levelo://app?vid=fc830711-c6c4-41fc-8c3c-a2ef4151426a","ios":"levelo://app?vid=fc830711-c6c4-41fc-8c3c-a2ef4151426a"},"vehicle_type_id":"4","last_reported":1770637073,"current_range_meters":7200,"station_id":"ce501612rcd8frsf0b60","pricing_plan_id":"cebpf4jnsgd1na2vs0mg"},{"bike_id":"1b84052b-00e3-425a-8137-55e6c3c51687","system_id":"levelo_inurba_marseille","lat":43.27567,"lon":5.3841,"is_reserved":false,"is_disabled":false,"rental_uris":{"android":"levelo://app?vid=1b84052b-00e3-425a-8137-55e6c3c51687","ios":"levelo://app?vid=1b84052b-00e3-425a-8137-55e6c3c51687"},"vehicle_type_id":"4","last_reported":1770637073,"current_range_meters":7200,"station_id":"ce4bhh92rcd13ifvqfi0","pricing_plan_id":"cebpf4jnsgd1na2vs0mg"},{"bike_id":"f6a0fc22-d80a-4031-abbc-7a663bb38332","system_id":"levelo_inurba_marseille","lat":43.23146,"lon":5.43708,"is_reserved":false,"is_disabled":false,"rental_uris":{"android":"levelo://app?vid=f6a0fc22-d80a-4031-abbc-7a663bb38332","ios":"levelo://app?vid=f6a0fc22-d80a-4031-abbc-7a663bb38332"},"vehicle_type_id":"4","last_reported":1770637073,"current_range_meters":7200,"station_id":"ce4bhmp2rcd13ifvqgog","pricing_plan_id":"cebpf4jnsgd1na2vs0mg"},{"bike_id":"cf016afa-8583-400e-9a37-9cb1dbcd7006","system_id":"levelo_inurba_marseille","lat":43.31202,"lon":5.36856,"is_reserved":false,"is_disabled":false,"rental_uris":{"android":"levelo://app?vid=cf016afa-8583-400e-9a37-9cb1dbcd7006","ios":"levelo://app?vid=cf016afa-8583-400e-9a37-9cb1dbcd7006"},"vehicle_type_id":"4","last_reported":1770637073,"current_range_meters":7200,"station_id":"ce4bgl92rcd13ifvqbq0","pricing_plan_id":"cebpf4jnsgd1na2vs0mg"},{"bike_id":"210923d6-98fe-4f0a-baba-3cc94a178193","system_id":"levelo_inurba_marseille","lat":43.26951,"lon":5.3864,"is_reserved":false,"is_disabled":false,"rental_uris":{"android":"levelo://app?vid=210923d6-98fe-4f0a-baba-3cc94a178193","ios":"levelo://app?vid=210923d6-98fe-4f0a-baba-3cc94a178193"},"vehicle_type_id":"4","last_reported":1770637073,"current_range_meters":7200,"station_id":"ce4bhh92rcd13ifvqfh0","pricing_plan_id":"cebpf4jnsgd1na2vs0mg"},{"bike_id":"c446e9fb-ec3f-4041-86cb-476841641b4a","system_id":"levelo_inurba_marseille","lat":43.336,"lon":5.4101,"is_reserved":false,"is_disabled":false,"rental_uris":{"android":"levelo://app?vid=c446e9fb-ec3f-4041-86cb-476841641b4a","ios":"levelo://app?vid=c446e9fb-ec3f-4041-86cb-476841641b4a"},"vehicle_type_id":"4","last_reported":1770637073,"current_range_meters":7200,"station_id":"ce4bhqh2rcd13ifvqhmg","pricing_plan_id":"cebpf4jnsgd1na2vs0mg"},{"bike_id":"d6aee196-cc92-4d64-b6e5-12dab2bf06f5","system_id":"levelo_inurba_marseille","lat":43.33542,"lon":5.37451,"is_reserved":false,"is_disabled":false,"rental_uris":{"android":"levelo://app?vid=d6aee196-cc92-4d64-b6e5-12dab2bf06f5","ios":"levelo://app?vid=d6aee196-cc92-4d64-b6e5-12dab2bf06f5"},"vehicle_type_id":"4","last_reported":1770637073,"current_range_meters":7200,"station_id":"st_d46tts09ee8s73dlu43g","pricing_plan_id":"cebpf4jnsgd1na2vs0mg"},{"bike_id":"8c139d21-9d12-4792-a44d-13109cee3e0a","system_id":"levelo_inurba_marseille","lat":43.26559,"lon":5.41884,"is_reserved":false,"is_disabled":false,"rental_uris":{"android":"levelo://app?vid=8c139d21-9d12-4792-a44d-13109cee3e0a","ios":"levelo://app?vid=8c139d21-9d12-4792-a44d-13109cee3e0a"},"vehicle_type_id":"4","last_reported":1770637073,"current_range_meters":7200,"station_id":"","pricing_plan_id":"cebpf4jnsgd1na2vs0mg"},{"bike_id":"660eccfb-5611-468b-99ec-ac7e67fffa78","system_id":"levelo_inurba_marseille","lat":43.25614,"lon":5.38277,"is_reserved":false,"is_disabled":false,"rental_uris":{"android":"levelo://app?vid=660eccfb-5611-468b-99ec-ac7e67fffa78","ios":"levelo://app?vid=660eccfb-5611-468b-99ec-ac7e67fffa78"},"vehicle_type_id":"4","last_reported":1770637073,"current_range_meters":7200,"station_id":"","pricing_plan_id":"cebpf4jnsgd1na2vs0mg"},{"bike_id":"777f1f50-9ccf-46db-a1bf-cfe765ca1373","system_id":"levelo_inurba_marseille","lat":43.26089,"lon":5.39387,"is_reserved":false,"is_disabled":false,"rental_uris":{"android":"levelo://app?vid=777f1f50-9ccf-46db-a1bf-cfe765ca1373","ios":"levelo://app?vid=777f1f50-9ccf-46db-a1bf-cfe765ca1373"},"vehicle_type_id":"4","last_reported":1770637073,"current_range_meters":7200,"station_id":"ce4bhh92rcd13ifvqfj0","pricing_plan_id":"cebpf4jnsgd1na2vs0mg"},{"bike_id":"f30e0345-389d-4598-aa88-9f89109b8708","system_id":"levelo_inurba_marseille","lat":43.29881,"lon":5.36306,"is_reserved":false,"is_disabled":true,"rental_uris":{"android":"levelo://app?vid=f30e0345-389d-4598-aa88-9f89109b8708","ios":"levelo://app?vid=f30e0345-389d-4598-aa88-9f89109b8708"},"vehicle_type_id":"4","last_reported":1770637073,"current_range_meters":8000,"station_id":"ce4bgpp2rcd13ifvqc3g","pricing_plan_id":"cebpf4jnsgd1na2vs0mg"},{"bike_id":"eab405ca-0f7d-43bd-ad4b-10c554108ac0","system_id":"levelo_inurba_marseille","lat":43.27915,"lon":5.39585,"is_reserved":false,"is_disabled":false,"rental_uris":{"android":"levelo://app?vid=eab405ca-0f7d-43bd-ad4b-10c554108ac0","ios":"levelo://app?vid=eab405ca-0f7d-43bd-ad4b-10c554108ac0"},"vehicle_type_id":"4","last_reported":1770637073,"current_range_meters":8000,"station_id":"ce4bhf92rcd13ifvqf40","pricing_plan_id":"cebpf4jnsgd1na2vs0mg"},{"bike_id":"b65a7e72-9e74-4b3f-b167-e422d10fb3a2","system_id":"levelo_inurba_marseille","lat":43.29941,"lon":5.385147,"is_reserved":false,"is_disabled":false,"rental_uris":{"android":"levelo://app?vid=b65a7e72-9e74-4b3f-b167-e422d10fb3a2","ios":"levelo://app?vid=b65a7e72-9e74-4b3f-b167-e422d10fb3a2"},"vehicle_type_id":"4","last_reported":1770637073,"current_range_meters":8000,"station_id":"ce4bgj92rcd13ifvqbd0","pricing_plan_id":"cebpf4jnsgd1na2vs0mg"},{"bike_id":"1ff19854-8b52-40ac-85c6-cf1062d56b89","system_id":"levelo_inurba_marseille","lat":43.23196,"lon":5.40009,"is_reserved":false,"is_disabled":false,"rental_uris":{"android":"levelo://app?vid=1ff19854-8b52-40ac-85c6-cf1062d56b89","ios":"levelo://app?vid=1ff19854-8b52-40ac-85c6-cf1062d56b89"},"vehicle_type_id":"4","last_reported":1770637073,"current_range_meters":8000,"station_id":"ce4bhn12rcd13ifvqgqg","pricing_plan_id":"cebpf4jnsgd1na2vs0mg"},{"bike_id":"68db5110-1cfd-4904-97ca-6d30a554e468","system_id":"levelo_inurba_marseille","lat":43.23151,"lon":5.43721,"is_reserved":false,"is_disabled":false,"rental_uris":{"android":"levelo://app?vid=68db5110-1cfd-4904-97ca-6d30a554e468","ios":"levelo://app?vid=68db5110-1cfd-4904-97ca-6d30a554e468"},"vehicle_type_id":"4","last_reported":1770637073,"current_range_meters":8000,"station_id":"ce4bhmp2rcd13ifvqgog","pricing_plan_id":"cebpf4jnsgd1na2vs0mg"},{"bike_id":"89d77ec3-bd2a-4597-9f78-059f61c79d0d","system_id":"levelo_inurba_marseille","lat":43.28494,"lon":5.38451,"is_reserved":false,"is_disabled":false,"rental_uris":{"android":"levelo://app?vid=89d77ec3-bd2a-4597-9f78-059f61c79d0d","ios":"levelo://app?vid=89d77ec3-bd2a-4597-9f78-059f61c79d0d"},"vehicle_type_id":"4","last_reported":1770637073,"current_range_meters":8000,"station_id":"ce4bh512rcd13ifvqe3g","pricing_plan_id":"cebpf4jnsgd1na2vs0mg"},{"bike_id":"c494ea00-8657-431c-b02a-5c614eac3be3","system_id":"levelo_inurba_marseille","lat":43.28424,"lon":5.39543,"is_reserved":false,"is_disabled":false,"rental_uris":{"android":"levelo://app?vid=c494ea00-8657-431c-b02a-5c614eac3be3","ios":"levelo://app?vid=c494ea00-8657-431c-b02a-5c614eac3be3"},"vehicle_type_id":"4","last_reported":1770637073,"current_range_meters":8000,"station_id":"","pricing_plan_id":"cebpf4jnsgd1na2vs0mg"},{"bike_id":"db2e5c22-9f82-4c32-b356-f06e3f0ce6ed","system_id":"levelo_inurba_marseille","lat":43.24083,"lon":5.37747,"is_reserved":false,"is_disabled":false,"rental_uris":{"android":"levelo://app?vid=db2e5c22-9f82-4c32-b356-f06e3f0ce6ed","ios":"levelo://app?vid=db2e5c22-9f82-4c32-b356-f06e3f0ce6ed"},"vehicle_type_id":"4","last_reported":1770637073,"current_range_meters":8000,"station_id":"ce4bhnp2rcd13ifvqgvg","pricing_plan_id":"cebpf4jnsgd1na2vs0mg"},{"bike_id":"9698c60d-d86e-4dca-bf44-9776b34ffa52","system_id":"levelo_inurba_marseille","lat":43.26681,"lon":5.3827,"is_reserved":false,"is_disabled":false,"rental_uris":{"android":"levelo://app?vid=9698c60d-d86e-4dca-bf44-9776b34ffa52","ios":"levelo://app?vid=9698c60d-d86e-4dca-bf44-9776b34ffa52"},"vehicle_type_id":"4","last_reported":1770637073,"current_range_meters":8000,"station_id":"ce4bhg92rcd13ifvqf90","pricing_plan_id":"cebpf4jnsgd1na2vs0mg"},{"bike_id":"e83d9e2f-7571-4d83-99bc-489b34ff4643","system_id":"levelo_inurba_marseille","lat":43.2534,"lon":5.42161,"is_reserved":false,"is_disabled":false,"rental_uris":{"android":"levelo://app?vid=e83d9e2f-7571-4d83-99bc-489b34ff4643","ios":"levelo://app?vid=e83d9e2f-7571-4d83-99bc-489b34ff4643"},"vehicle_type_id":"4","last_reported":1770637073,"current_range_meters":8000,"station_id":"st_d2m65c5bi1j21697t3ng","pricing_plan_id":"cebpf4jnsgd1na2vs0mg"},{"bike_id":"c0b6c3eb-4055-48c5-be4e-2f3633e2e95f","system_id":"levelo_inurba_marseille","lat":43.22569,"lon":5.41643,"is_reserved":false,"is_disabled":false,"rental_uris":{"android":"levelo://app?vid=c0b6c3eb-4055-48c5-be4e-2f3633e2e95f","ios":"levelo://app?vid=c0b6c3eb-4055-48c5-be4e-2f3633e2e95f"},"vehicle_type_id":"4","last_reported":1770637073,"current_range_meters":8000,"station_id":"st_d2o4gvlbi1j2169b742g","pricing_plan_id":"cebpf4jnsgd1na2vs0mg"},{"bike_id":"91fdd7ab-d339-4963-8616-9757378509a7","system_id":"levelo_inurba_marseille","lat":43.28605,"lon":5.37066,"is_reserved":false,"is_disabled":false,"rental_uris":{"android":"levelo://app?vid=91fdd7ab-d339-4963-8616-9757378509a7","ios":"levelo://app?vid=91fdd7ab-d339-4963-8616-9757378509a7"},"vehicle_type_id":"4","last_reported":1770637073,"current_range_meters":8000,"station_id":"ce4bht12rcd13ifvqi60","pricing_plan_id":"cebpf4jnsgd1na2vs0mg"},{"bike_id":"0c19d373-6eb2-4333-8212-205e194a0e67","system_id":"levelo_inurba_marseille","lat":43.24389,"lon":5.37068,"is_reserved":false,"is_disabled":false,"rental_uris":{"android":"levelo://app?vid=0c19d373-6eb2-4333-8212-205e194a0e67","ios":"levelo://app?vid=0c19d373-6eb2-4333-8212-205e194a0e67"},"vehicle_type_id":"4","last_reported":1770637073,"current_range_meters":8000,"station_id":"ce4bhhh2rcd13ifvqfk0","pricing_plan_id":"cebpf4jnsgd1na2vs0mg"},{"bike_id":"f2ecef77-dbca-409e-b9f5-4670ffea621f","system_id":"levelo_inurba_marseille","lat":43.27489,"lon":5.42446,"is_reserved":false,"is_disabled":false,"rental_uris":{"android":"levelo://app?vid=f2ecef77-dbca-409e-b9f5-4670ffea621f","ios":"levelo://app?vid=f2ecef77-dbca-409e-b9f5-4670ffea621f"},"vehicle_type_id":"4","last_reported":1770637073,"current_range_meters":8000,"station_id":"ce4bhn92rcd13ifvqgrg","pricing_plan_id":"cebpf4jnsgd1na2vs0mg"},{"bike_id":"e1242b72-e1d7-481b-8195-5c5f6d9a0b11","system_id":"levelo_inurba_marseille","lat":43.246312,"lon":5.431464,"is_reserved":false,"is_disabled":false,"rental_uris":{"android":"levelo://app?vid=e1242b72-e1d7-481b-8195-5c5f6d9a0b11","ios":"levelo://app?vid=e1242b72-e1d7-481b-8195-5c5f6d9a0b11"},"vehicle_type_id":"4","last_reported":1770637073,"current_range_meters":8000,"station_id":"st_d2m6c4gdas8pm72e190g","pricing_plan_id":"cebpf4jnsgd1na2vs0mg"},{"bike_id":"7e01f57b-ade8-4cc3-81c3-76e88fac1321","system_id":"levelo_inurba_marseille","lat":43.28481,"lon":5.48386,"is_reserved":false,"is_disabled":false,"rental_uris":{"android":"levelo://app?vid=7e01f57b-ade8-4cc3-81c3-76e88fac1321","ios":"levelo://app?vid=7e01f57b-ade8-4cc3-81c3-76e88fac1321"},"vehicle_type_id":"4","last_reported":1770637073,"current_range_meters":8000,"station_id":"st_d3svhcjqgbts73a3dn0g","pricing_plan_id":"cebpf4jnsgd1na2vs0mg"},{"bike_id":"cc7c725c-badb-41ba-b925-0f8178f5d1f8","system_id":"levelo_inurba_marseille","lat":43.289305,"lon":5.396288,"is_reserved":false,"is_disabled":false,"rental_uris":{"android":"levelo://app?vid=cc7c725c-badb-41ba-b925-0f8178f5d1f8","ios":"levelo://app?vid=cc7c725c-badb-41ba-b925-0f8178f5d1f8"},"vehicle_type_id":"4","last_reported":1770637073,"current_range_meters":8000,"station_id":"ce4bh3h2rcd13ifvqdn0","pricing_plan_id":"cebpf4jnsgd1na2vs0mg"},{"bike_id":"d9dd74ac-36a1-4118-ba80-6d740c082c46","system_id":"levelo_inurba_marseille","lat":43.305558,"lon":5.367678,"is_reserved":false,"is_disabled":false,"rental_uris":{"android":"levelo://app?vid=d9dd74ac-36a1-4118-ba80-6d740c082c46","ios":"levelo://app?vid=d9dd74ac-36a1-4118-ba80-6d740c082c46"},"vehicle_type_id":"4","last_reported":1770637073,"current_range_meters":8000,"station_id":"ce4bgr92rcd13ifvqc6g","pricing_plan_id":"cebpf4jnsgd1na2vs0mg"},{"bike_id":"40ca09fe-7866-480e-ac60-f7b7f539bb36","system_id":"levelo_inurba_marseille","lat":43.23368,"lon":5.41257,"is_reserved":false,"is_disabled":false,"rental_uris":{"android":"levelo://app?vid=40ca09fe-7866-480e-ac60-f7b7f539bb36","ios":"levelo://app?vid=40ca09fe-7866-480e-ac60-f7b7f539bb36"},"vehicle_type_id":"4","last_reported":1770637073,"current_range_meters":8000,"station_id":"","pricing_plan_id":"cebpf4jnsgd1na2vs0mg"},{"bike_id":"9a0a4f5b-d5f2-4be0-a4fa-450256499716","system_id":"levelo_inurba_marseille","lat":43.2698,"lon":5.39886,"is_reserved":false,"is_disabled":false,"rental_uris":{"android":"levelo://app?vid=9a0a4f5b-d5f2-4be0-a4fa-450256499716","ios":"levelo://app?vid=9a0a4f5b-d5f2-4be0-a4fa-450256499716"},"vehicle_type_id":"4","last_reported":1770637073,"current_range_meters":8000,"station_id":"","pricing_plan_id":"cebpf4jnsgd1na2vs0mg"},{"bike_id":"0e13c5d2-3105-4dd4-870f-243a1451a020","system_id":"levelo_inurba_marseille","lat":43.32499,"lon":5.38298,"is_reserved":false,"is_disabled":false,"rental_uris":{"android":"levelo://app?vid=0e13c5d2-3105-4dd4-870f-243a1451a020","ios":"levelo://app?vid=0e13c5d2-3105-4dd4-870f-243a1451a020"},"vehicle_type_id":"4","last_reported":1770637073,"current_range_meters":8000,"station_id":"st_d4asgbiv49dc73anf9m0","pricing_plan_id":"cebpf4jnsgd1na2vs0mg"},{"bike_id":"3b51b137-b0f5-4720-8050-df6e6c8f19ea","system_id":"levelo_inurba_marseille","lat":43.25934,"lon":5.40909,"is_reserved":false,"is_disabled":false,"rental_uris":{"android":"levelo://app?vid=3b51b137-b0f5-4720-8050-df6e6c8f19ea","ios":"levelo://app?vid=3b51b137-b0f5-4720-8050-df6e6c8f19ea"},"vehicle_type_id":"4","last_reported":1770637073,"current_range_meters":8400,"station_id":"ce4bhm92rcd13ifvqglg","pricing_plan_id":"cebpf4jnsgd1na2vs0mg"},{"bike_id":"7d59f1f1-2621-4853-91a8-34ee2eea3bf8","system_id":"levelo_inurba_marseille","lat":43.24398,"lon":5.37067,"is_reserved":false,"is_disabled":false,"rental_uris":{"android":"levelo://app?vid=7d59f1f1-2621-4853-91a8-34ee2eea3bf8","ios":"levelo://app?vid=7d59f1f1-2621-4853-91a8-34ee2eea3bf8"},"vehicle_type_id":"4","last_reported":1770637073,"current_range_meters":8400,"station_id":"ce4bhhh2rcd13ifvqfk0","pricing_plan_id":"cebpf4jnsgd1na2vs0mg"},{"bike_id":"fe6f8294-65ba-45f1-a4f6-c1ee0f12ef18","system_id":"levelo_inurba_marseille","lat":43.22564,"lon":5.41629,"is_reserved":false,"is_disabled":false,"rental_uris":{"android":"levelo://app?vid=fe6f8294-65ba-45f1-a4f6-c1ee0f12ef18","ios":"levelo://app?vid=fe6f8294-65ba-45f1-a4f6-c1ee0f12ef18"},"vehicle_type_id":"4","last_reported":1770637073,"current_range_meters":8400,"station_id":"st_d2o4gvlbi1j2169b742g","pricing_plan_id":"cebpf4jnsgd1na2vs0mg"},{"bike_id":"796e7660-fef7-4e29-8905-a11ff50ebcf9","system_id":"levelo_inurba_marseille","lat":43.30585,"lon":5.39362,"is_reserved":false,"is_disabled":false,"rental_uris":{"android":"levelo://app?vid=796e7660-fef7-4e29-8905-a11ff50ebcf9","ios":"levelo://app?vid=796e7660-fef7-4e29-8905-a11ff50ebcf9"},"vehicle_type_id":"4","last_reported":1770637073,"current_range_meters":8400,"station_id":"ce4bh0p2rcd13ifvqd80","pricing_plan_id":"cebpf4jnsgd1na2vs0mg"},{"bike_id":"f1a9e62c-bfe0-42e4-ab84-82eb9e1c47d6","system_id":"levelo_inurba_marseille","lat":43.26679,"lon":5.38252,"is_reserved":false,"is_disabled":false,"rental_uris":{"android":"levelo://app?vid=f1a9e62c-bfe0-42e4-ab84-82eb9e1c47d6","ios":"levelo://app?vid=f1a9e62c-bfe0-42e4-ab84-82eb9e1c47d6"},"vehicle_type_id":"4","last_reported":1770637073,"current_range_meters":8400,"station_id":"ce4bhg92rcd13ifvqf90","pricing_plan_id":"cebpf4jnsgd1na2vs0mg"},{"bike_id":"5f8199e3-96b8-4f8c-bc87-d14e0794b6c0","system_id":"levelo_inurba_marseille","lat":43.28474,"lon":5.38419,"is_reserved":false,"is_disabled":false,"rental_uris":{"android":"levelo://app?vid=5f8199e3-96b8-4f8c-bc87-d14e0794b6c0","ios":"levelo://app?vid=5f8199e3-96b8-4f8c-bc87-d14e0794b6c0"},"vehicle_type_id":"4","last_reported":1770637073,"current_range_meters":8400,"station_id":"ce4bh512rcd13ifvqe3g","pricing_plan_id":"cebpf4jnsgd1na2vs0mg"},{"bike_id":"8f91f29e-0897-43d8-a3cf-8b8240b92337","system_id":"levelo_inurba_marseille","lat":43.299042,"lon":5.436591,"is_reserved":false,"is_disabled":false,"rental_uris":{"android":"levelo://app?vid=8f91f29e-0897-43d8-a3cf-8b8240b92337","ios":"levelo://app?vid=8f91f29e-0897-43d8-a3cf-8b8240b92337"},"vehicle_type_id":"4","last_reported":1770637073,"current_range_meters":8400,"station_id":"ce4bhpp2rcd13ifvqhfg","pricing_plan_id":"cebpf4jnsgd1na2vs0mg"},{"bike_id":"15b58f47-748f-41df-af35-c90ad9f44241","system_id":"levelo_inurba_marseille","lat":43.31363,"lon":5.36791,"is_reserved":false,"is_disabled":false,"rental_uris":{"android":"levelo://app?vid=15b58f47-748f-41df-af35-c90ad9f44241","ios":"levelo://app?vid=15b58f47-748f-41df-af35-c90ad9f44241"},"vehicle_type_id":"4","last_reported":1770637073,"current_range_meters":8400,"station_id":"","pricing_plan_id":"cebpf4jnsgd1na2vs0mg"},{"bike_id":"a6ac5bf6-fd73-4284-9bef-ae3d5e3079de","system_id":"levelo_inurba_marseille","lat":43.240745,"lon":5.37752,"is_reserved":false,"is_disabled":false,"rental_uris":{"android":"levelo://app?vid=a6ac5bf6-fd73-4284-9bef-ae3d5e3079de","ios":"levelo://app?vid=a6ac5bf6-fd73-4284-9bef-ae3d5e3079de"},"vehicle_type_id":"4","last_reported":1770637073,"current_range_meters":8400,"station_id":"ce4bhnp2rcd13ifvqgvg","pricing_plan_id":"cebpf4jnsgd1na2vs0mg"},{"bike_id":"caf1dcac-fc86-4d80-b5eb-bd2c680959d3","system_id":"levelo_inurba_marseille","lat":43.25352,"lon":5.42156,"is_reserved":false,"is_disabled":false,"rental_uris":{"android":"levelo://app?vid=caf1dcac-fc86-4d80-b5eb-bd2c680959d3","ios":"levelo://app?vid=caf1dcac-fc86-4d80-b5eb-bd2c680959d3"},"vehicle_type_id":"4","last_reported":1770637073,"current_range_meters":8400,"station_id":"st_d2m65c5bi1j21697t3ng","pricing_plan_id":"cebpf4jnsgd1na2vs0mg"},{"bike_id":"c529f179-8f0a-437e-9aac-6b2fe17106ae","system_id":"levelo_inurba_marseille","lat":43.290306,"lon":5.386544,"is_reserved":false,"is_disabled":false,"rental_uris":{"android":"levelo://app?vid=c529f179-8f0a-437e-9aac-6b2fe17106ae","ios":"levelo://app?vid=c529f179-8f0a-437e-9aac-6b2fe17106ae"},"vehicle_type_id":"4","last_reported":1770637073,"current_range_meters":8400,"station_id":"ce4bh4p2rcd13ifvqe0g","pricing_plan_id":"cebpf4jnsgd1na2vs0mg"},{"bike_id":"d1063cda-4030-42f1-a993-2a2f1608e6d6","system_id":"levelo_inurba_marseille","lat":43.29196,"lon":5.39331,"is_reserved":false,"is_disabled":false,"rental_uris":{"android":"levelo://app?vid=d1063cda-4030-42f1-a993-2a2f1608e6d6","ios":"levelo://app?vid=d1063cda-4030-42f1-a993-2a2f1608e6d6"},"vehicle_type_id":"4","last_reported":1770637073,"current_range_meters":8400,"station_id":"ce4bh192rcd13ifvqdd0","pricing_plan_id":"cebpf4jnsgd1na2vs0mg"},{"bike_id":"eb7b89f2-b5c9-4236-bac4-e69244d87b10","system_id":"levelo_inurba_marseille","lat":43.25012,"lon":5.38924,"is_reserved":false,"is_disabled":false,"rental_uris":{"android":"levelo://app?vid=eb7b89f2-b5c9-4236-bac4-e69244d87b10","ios":"levelo://app?vid=eb7b89f2-b5c9-4236-bac4-e69244d87b10"},"vehicle_type_id":"4","last_reported":1770637073,"current_range_meters":8400,"station_id":"ce4bhgp2rcd13ifvqfd0","pricing_plan_id":"cebpf4jnsgd1na2vs0mg"},{"bike_id":"ef119ca9-2608-47b7-8b3b-0c4ca2501263","system_id":"levelo_inurba_marseille","lat":43.29257,"lon":5.3843,"is_reserved":false,"is_disabled":false,"rental_uris":{"android":"levelo://app?vid=ef119ca9-2608-47b7-8b3b-0c4ca2501263","ios":"levelo://app?vid=ef119ca9-2608-47b7-8b3b-0c4ca2501263"},"vehicle_type_id":"4","last_reported":1770637073,"current_range_meters":8400,"station_id":"ce4bh692rcd13ifvqea0","pricing_plan_id":"cebpf4jnsgd1na2vs0mg"},{"bike_id":"3020e5bf-c011-4b5f-920c-0fd0cf4f8af0","system_id":"levelo_inurba_marseille","lat":43.28001,"lon":5.39993,"is_reserved":false,"is_disabled":false,"rental_uris":{"android":"levelo://app?vid=3020e5bf-c011-4b5f-920c-0fd0cf4f8af0","ios":"levelo://app?vid=3020e5bf-c011-4b5f-920c-0fd0cf4f8af0"},"vehicle_type_id":"4","last_reported":1770637073,"current_range_meters":8800,"station_id":"ce4bho92rcd13ifvqh4g","pricing_plan_id":"cebpf4jnsgd1na2vs0mg"},{"bike_id":"54bd52e6-912c-41e4-90a6-85e5c05a7d3d","system_id":"levelo_inurba_marseille","lat":43.22581,"lon":5.41621,"is_reserved":false,"is_disabled":false,"rental_uris":{"android":"levelo://app?vid=54bd52e6-912c-41e4-90a6-85e5c05a7d3d","ios":"levelo://app?vid=54bd52e6-912c-41e4-90a6-85e5c05a7d3d"},"vehicle_type_id":"4","last_reported":1770637073,"current_range_meters":8800,"station_id":"st_d2o4gvlbi1j2169b742g","pricing_plan_id":"cebpf4jnsgd1na2vs0mg"},{"bike_id":"8fb04c3b-a8ab-4065-ad23-c60c7dfc0177","system_id":"levelo_inurba_marseille","lat":43.29542,"lon":5.37509,"is_reserved":false,"is_disabled":false,"rental_uris":{"android":"levelo://app?vid=8fb04c3b-a8ab-4065-ad23-c60c7dfc0177","ios":"levelo://app?vid=8fb04c3b-a8ab-4065-ad23-c60c7dfc0177"},"vehicle_type_id":"4","last_reported":1770637073,"current_range_meters":8800,"station_id":"ce4bgkp2rcd13ifvqbmg","pricing_plan_id":"cebpf4jnsgd1na2vs0mg"},{"bike_id":"fd158031-c8ec-435b-b315-8360533800f5","system_id":"levelo_inurba_marseille","lat":43.262428,"lon":5.404434,"is_reserved":false,"is_disabled":true,"rental_uris":{"android":"levelo://app?vid=fd158031-c8ec-435b-b315-8360533800f5","ios":"levelo://app?vid=fd158031-c8ec-435b-b315-8360533800f5"},"vehicle_type_id":"4","last_reported":1770637073,"current_range_meters":8800,"station_id":"ce4bhmh2rcd13ifvqgmg","pricing_plan_id":"cebpf4jnsgd1na2vs0mg"},{"bike_id":"a07cd24c-7e73-437e-917a-60bdbc1072fc","system_id":"levelo_inurba_marseille","lat":43.24459,"lon":5.37015,"is_reserved":false,"is_disabled":false,"rental_uris":{"android":"levelo://app?vid=a07cd24c-7e73-437e-917a-60bdbc1072fc","ios":"levelo://app?vid=a07cd24c-7e73-437e-917a-60bdbc1072fc"},"vehicle_type_id":"4","last_reported":1770637073,"current_range_meters":8800,"station_id":"ce4bhhh2rcd13ifvqfk0","pricing_plan_id":"cebpf4jnsgd1na2vs0mg"},{"bike_id":"f23a5ea8-cccd-472e-abcc-91e4bbd449a7","system_id":"levelo_inurba_marseille","lat":43.30304,"lon":5.36913,"is_reserved":false,"is_disabled":true,"rental_uris":{"android":"levelo://app?vid=f23a5ea8-cccd-472e-abcc-91e4bbd449a7","ios":"levelo://app?vid=f23a5ea8-cccd-472e-abcc-91e4bbd449a7"},"vehicle_type_id":"4","last_reported":1770637073,"current_range_meters":8800,"station_id":"ce4bgqh2rcd13ifvqc5g","pricing_plan_id":"cebpf4jnsgd1na2vs0mg"},{"bike_id":"8d65ea59-159e-4e8e-8acb-244f43059bc9","system_id":"levelo_inurba_marseille","lat":43.24182,"lon":5.36407,"is_reserved":false,"is_disabled":false,"rental_uris":{"android":"levelo://app?vid=8d65ea59-159e-4e8e-8acb-244f43059bc9","ios":"levelo://app?vid=8d65ea59-159e-4e8e-8acb-244f43059bc9"},"vehicle_type_id":"4","last_reported":1770637073,"current_range_meters":8800,"station_id":"cpo36qri1sfpv3e86is0","pricing_plan_id":"cebpf4jnsgd1na2vs0mg"},{"bike_id":"d917330e-8029-461a-95c3-ed551a62a88f","system_id":"levelo_inurba_marseille","lat":43.22557,"lon":5.41634,"is_reserved":false,"is_disabled":false,"rental_uris":{"android":"levelo://app?vid=d917330e-8029-461a-95c3-ed551a62a88f","ios":"levelo://app?vid=d917330e-8029-461a-95c3-ed551a62a88f"},"vehicle_type_id":"4","last_reported":1770637073,"current_range_meters":8800,"station_id":"st_d2o4gvlbi1j2169b742g","pricing_plan_id":"cebpf4jnsgd1na2vs0mg"},{"bike_id":"83062ade-c076-467d-b125-720c7e101dca","system_id":"levelo_inurba_marseille","lat":43.2961,"lon":5.37742,"is_reserved":false,"is_disabled":true,"rental_uris":{"android":"levelo://app?vid=83062ade-c076-467d-b125-720c7e101dca","ios":"levelo://app?vid=83062ade-c076-467d-b125-720c7e101dca"},"vehicle_type_id":"4","last_reported":1770637073,"current_range_meters":8800,"station_id":"ce4bgi92rcd13ifvqb90","pricing_plan_id":"cebpf4jnsgd1na2vs0mg"},{"bike_id":"738ace95-69b5-422f-91a8-940bb61d6675","system_id":"levelo_inurba_marseille","lat":43.32127,"lon":5.368,"is_reserved":false,"is_disabled":false,"rental_uris":{"android":"levelo://app?vid=738ace95-69b5-422f-91a8-940bb61d6675","ios":"levelo://app?vid=738ace95-69b5-422f-91a8-940bb61d6675"},"vehicle_type_id":"4","last_reported":1770637073,"current_range_meters":8800,"station_id":"ce4bhrh2rcd13ifvqhug","pricing_plan_id":"cebpf4jnsgd1na2vs0mg"},{"bike_id":"b1429378-b93e-4184-b373-85f0415c9919","system_id":"levelo_inurba_marseille","lat":43.24623,"lon":5.43145,"is_reserved":false,"is_disabled":false,"rental_uris":{"android":"levelo://app?vid=b1429378-b93e-4184-b373-85f0415c9919","ios":"levelo://app?vid=b1429378-b93e-4184-b373-85f0415c9919"},"vehicle_type_id":"4","last_reported":1770637073,"current_range_meters":8800,"station_id":"st_d2m6c4gdas8pm72e190g","pricing_plan_id":"cebpf4jnsgd1na2vs0mg"},{"bike_id":"e2c3118e-ecc2-476a-9be9-aafebb10c1c9","system_id":"levelo_inurba_marseille","lat":43.246314,"lon":5.431424,"is_reserved":false,"is_disabled":false,"rental_uris":{"android":"levelo://app?vid=e2c3118e-ecc2-476a-9be9-aafebb10c1c9","ios":"levelo://app?vid=e2c3118e-ecc2-476a-9be9-aafebb10c1c9"},"vehicle_type_id":"4","last_reported":1770637073,"current_range_meters":8800,"station_id":"st_d2m6c4gdas8pm72e190g","pricing_plan_id":"cebpf4jnsgd1na2vs0mg"},{"bike_id":"73320306-7966-4f19-87ef-d184d89d1baf","system_id":"levelo_inurba_marseille","lat":43.2732,"lon":5.39063,"is_reserved":false,"is_disabled":false,"rental_uris":{"android":"levelo://app?vid=73320306-7966-4f19-87ef-d184d89d1baf","ios":"levelo://app?vid=73320306-7966-4f19-87ef-d184d89d1baf"},"vehicle_type_id":"4","last_reported":1770637073,"current_range_meters":8800,"station_id":"ce4bhgp2rcd13ifvqfe0","pricing_plan_id":"cebpf4jnsgd1na2vs0mg"},{"bike_id":"2cdec53d-6be2-4404-91f9-bfd63ab928a6","system_id":"levelo_inurba_marseille","lat":43.25573,"lon":5.38228,"is_reserved":false,"is_disabled":false,"rental_uris":{"android":"levelo://app?vid=2cdec53d-6be2-4404-91f9-bfd63ab928a6","ios":"levelo://app?vid=2cdec53d-6be2-4404-91f9-bfd63ab928a6"},"vehicle_type_id":"4","last_reported":1770637073,"current_range_meters":8800,"station_id":"ce4bhih2rcd13ifvqfs0","pricing_plan_id":"cebpf4jnsgd1na2vs0mg"},{"bike_id":"f8c8c74c-aee3-4b52-a42f-cddfe270a480","system_id":"levelo_inurba_marseille","lat":43.25728,"lon":5.41114,"is_reserved":false,"is_disabled":false,"rental_uris":{"android":"levelo://app?vid=f8c8c74c-aee3-4b52-a42f-cddfe270a480","ios":"levelo://app?vid=f8c8c74c-aee3-4b52-a42f-cddfe270a480"},"vehicle_type_id":"4","last_reported":1770637073,"current_range_meters":8800,"station_id":"ce4bhkp2rcd13ifvqgd0","pricing_plan_id":"cebpf4jnsgd1na2vs0mg"},{"bike_id":"e20506fc-81c8-45aa-af10-6b0aa01b93ce","system_id":"levelo_inurba_marseille","lat":43.25584,"lon":5.38229,"is_reserved":false,"is_disabled":false,"rental_uris":{"android":"levelo://app?vid=e20506fc-81c8-45aa-af10-6b0aa01b93ce","ios":"levelo://app?vid=e20506fc-81c8-45aa-af10-6b0aa01b93ce"},"vehicle_type_id":"4","last_reported":1770637073,"current_range_meters":8800,"station_id":"ce4bhih2rcd13ifvqfs0","pricing_plan_id":"cebpf4jnsgd1na2vs0mg"},{"bike_id":"a36b6f8e-e657-434c-ae48-b869c309949f","system_id":"levelo_inurba_marseille","lat":43.28594,"lon":5.39469,"is_reserved":false,"is_disabled":true,"rental_uris":{"android":"levelo://app?vid=a36b6f8e-e657-434c-ae48-b869c309949f","ios":"levelo://app?vid=a36b6f8e-e657-434c-ae48-b869c309949f"},"vehicle_type_id":"4","last_reported":1770637073,"current_range_meters":8800,"station_id":"ce4bh292rcd13ifvqdg0","pricing_plan_id":"cebpf4jnsgd1na2vs0mg"},{"bike_id":"97baf141-ab6b-4a08-bebe-b0f0b4c42187","system_id":"levelo_inurba_marseille","lat":43.241705,"lon":5.36395,"is_reserved":false,"is_disabled":false,"rental_uris":{"android":"levelo://app?vid=97baf141-ab6b-4a08-bebe-b0f0b4c42187","ios":"levelo://app?vid=97baf141-ab6b-4a08-bebe-b0f0b4c42187"},"vehicle_type_id":"4","last_reported":1770637073,"current_range_meters":8800,"station_id":"cpo36qri1sfpv3e86is0","pricing_plan_id":"cebpf4jnsgd1na2vs0mg"},{"bike_id":"6e79fd0f-9e8e-4459-8240-57d4fd86c647","system_id":"levelo_inurba_marseille","lat":43.29763,"lon":5.38141,"is_reserved":false,"is_disabled":false,"rental_uris":{"android":"levelo://app?vid=6e79fd0f-9e8e-4459-8240-57d4fd86c647","ios":"levelo://app?vid=6e79fd0f-9e8e-4459-8240-57d4fd86c647"},"vehicle_type_id":"4","last_reported":1770637073,"current_range_meters":8800,"station_id":"","pricing_plan_id":"cebpf4jnsgd1na2vs0mg"},{"bike_id":"b6ef09ed-d357-4465-bd2f-ee587e4263cc","system_id":"levelo_inurba_marseille","lat":43.28418,"lon":5.40995,"is_reserved":false,"is_disabled":false,"rental_uris":{"android":"levelo://app?vid=b6ef09ed-d357-4465-bd2f-ee587e4263cc","ios":"levelo://app?vid=b6ef09ed-d357-4465-bd2f-ee587e4263cc"},"vehicle_type_id":"4","last_reported":1770637073,"current_range_meters":8800,"station_id":"","pricing_plan_id":"cebpf4jnsgd1na2vs0mg"},{"bike_id":"6316a440-6079-4cd7-8710-8e12c6c0a2b7","system_id":"levelo_inurba_marseille","lat":43.29917,"lon":5.43651,"is_reserved":false,"is_disabled":false,"rental_uris":{"android":"levelo://app?vid=6316a440-6079-4cd7-8710-8e12c6c0a2b7","ios":"levelo://app?vid=6316a440-6079-4cd7-8710-8e12c6c0a2b7"},"vehicle_type_id":"4","last_reported":1770637073,"current_range_meters":8800,"station_id":"ce4bhpp2rcd13ifvqhfg","pricing_plan_id":"cebpf4jnsgd1na2vs0mg"},{"bike_id":"af109b45-02d2-41f8-be4b-42b484fd3394","system_id":"levelo_inurba_marseille","lat":43.299036,"lon":5.436712,"is_reserved":false,"is_disabled":false,"rental_uris":{"android":"levelo://app?vid=af109b45-02d2-41f8-be4b-42b484fd3394","ios":"levelo://app?vid=af109b45-02d2-41f8-be4b-42b484fd3394"},"vehicle_type_id":"4","last_reported":1770637073,"current_range_meters":8800,"station_id":"ce4bhpp2rcd13ifvqhfg","pricing_plan_id":"cebpf4jnsgd1na2vs0mg"},{"bike_id":"7750374d-5c9a-454f-b78c-169bddbed9b0","system_id":"levelo_inurba_marseille","lat":43.29585,"lon":5.3673,"is_reserved":false,"is_disabled":false,"rental_uris":{"android":"levelo://app?vid=7750374d-5c9a-454f-b78c-169bddbed9b0","ios":"levelo://app?vid=7750374d-5c9a-454f-b78c-169bddbed9b0"},"vehicle_type_id":"4","last_reported":1770637073,"current_range_meters":9200,"station_id":"ce4bgph2rcd13ifvqc2g","pricing_plan_id":"cebpf4jnsgd1na2vs0mg"},{"bike_id":"654a8c69-e34e-48fa-b792-a1983317de36","system_id":"levelo_inurba_marseille","lat":43.28451,"lon":5.48427,"is_reserved":false,"is_disabled":false,"rental_uris":{"android":"levelo://app?vid=654a8c69-e34e-48fa-b792-a1983317de36","ios":"levelo://app?vid=654a8c69-e34e-48fa-b792-a1983317de36"},"vehicle_type_id":"4","last_reported":1770637073,"current_range_meters":9200,"station_id":"","pricing_plan_id":"cebpf4jnsgd1na2vs0mg"},{"bike_id":"eb988073-8fe7-4bb4-897d-222ac9bc4a1f","system_id":"levelo_inurba_marseille","lat":43.25873,"lon":5.39894,"is_reserved":false,"is_disabled":false,"rental_uris":{"android":"levelo://app?vid=eb988073-8fe7-4bb4-897d-222ac9bc4a1f","ios":"levelo://app?vid=eb988073-8fe7-4bb4-897d-222ac9bc4a1f"},"vehicle_type_id":"4","last_reported":1770637073,"current_range_meters":9200,"station_id":"ce4bhl92rcd13ifvqghg","pricing_plan_id":"cebpf4jnsgd1na2vs0mg"},{"bike_id":"0d435044-39b2-4402-857a-610b31675306","system_id":"levelo_inurba_marseille","lat":43.31075,"lon":5.37458,"is_reserved":false,"is_disabled":true,"rental_uris":{"android":"levelo://app?vid=0d435044-39b2-4402-857a-610b31675306","ios":"levelo://app?vid=0d435044-39b2-4402-857a-610b31675306"},"vehicle_type_id":"4","last_reported":1770637073,"current_range_meters":9200,"station_id":"","pricing_plan_id":"cebpf4jnsgd1na2vs0mg"},{"bike_id":"36ac8fb1-1e6b-4c04-8e8e-9441a471d5f6","system_id":"levelo_inurba_marseille","lat":43.28477,"lon":5.48396,"is_reserved":false,"is_disabled":false,"rental_uris":{"android":"levelo://app?vid=36ac8fb1-1e6b-4c04-8e8e-9441a471d5f6","ios":"levelo://app?vid=36ac8fb1-1e6b-4c04-8e8e-9441a471d5f6"},"vehicle_type_id":"4","last_reported":1770637073,"current_range_meters":9200,"station_id":"","pricing_plan_id":"cebpf4jnsgd1na2vs0mg"},{"bike_id":"d90864a0-3e39-4d6f-a6b9-5dcbde7b93cd","system_id":"levelo_inurba_marseille","lat":43.331603,"lon":5.376853,"is_reserved":false,"is_disabled":false,"rental_uris":{"android":"levelo://app?vid=d90864a0-3e39-4d6f-a6b9-5dcbde7b93cd","ios":"levelo://app?vid=d90864a0-3e39-4d6f-a6b9-5dcbde7b93cd"},"vehicle_type_id":"4","last_reported":1770637073,"current_range_meters":9200,"station_id":"st_d46cu089ee8s73dldbu0","pricing_plan_id":"cebpf4jnsgd1na2vs0mg"},{"bike_id":"8789a082-40b6-4b48-a7ba-4195da8e2f77","system_id":"levelo_inurba_marseille","lat":43.23149,"lon":5.43711,"is_reserved":false,"is_disabled":false,"rental_uris":{"android":"levelo://app?vid=8789a082-40b6-4b48-a7ba-4195da8e2f77","ios":"levelo://app?vid=8789a082-40b6-4b48-a7ba-4195da8e2f77"},"vehicle_type_id":"4","last_reported":1770637073,"current_range_meters":9200,"station_id":"ce4bhmp2rcd13ifvqgog","pricing_plan_id":"cebpf4jnsgd1na2vs0mg"},{"bike_id":"ab2f3432-4c0e-4e17-b057-2c32757d53e2","system_id":"levelo_inurba_marseille","lat":43.24468,"lon":5.42537,"is_reserved":false,"is_disabled":false,"rental_uris":{"android":"levelo://app?vid=ab2f3432-4c0e-4e17-b057-2c32757d53e2","ios":"levelo://app?vid=ab2f3432-4c0e-4e17-b057-2c32757d53e2"},"vehicle_type_id":"4","last_reported":1770637073,"current_range_meters":9200,"station_id":"st_d4a3vfp97mjs738cd8kg","pricing_plan_id":"cebpf4jnsgd1na2vs0mg"},{"bike_id":"30513758-c61b-4fc7-a14e-4781c9806bbc","system_id":"levelo_inurba_marseille","lat":43.31716,"lon":5.42404,"is_reserved":false,"is_disabled":false,"rental_uris":{"android":"levelo://app?vid=30513758-c61b-4fc7-a14e-4781c9806bbc","ios":"levelo://app?vid=30513758-c61b-4fc7-a14e-4781c9806bbc"},"vehicle_type_id":"4","last_reported":1770637073,"current_range_meters":9200,"station_id":"ce4bhp92rcd13ifvqhbg","pricing_plan_id":"cebpf4jnsgd1na2vs0mg"},{"bike_id":"e60a504d-2633-407b-ab82-e9486a72275e","system_id":"levelo_inurba_marseille","lat":43.30855,"lon":5.37405,"is_reserved":false,"is_disabled":false,"rental_uris":{"android":"levelo://app?vid=e60a504d-2633-407b-ab82-e9486a72275e","ios":"levelo://app?vid=e60a504d-2633-407b-ab82-e9486a72275e"},"vehicle_type_id":"4","last_reported":1770637073,"current_range_meters":9200,"station_id":"","pricing_plan_id":"cebpf4jnsgd1na2vs0mg"},{"bike_id":"98fe643a-2789-4fb0-9cb9-57bbe23f949f","system_id":"levelo_inurba_marseille","lat":43.284771,"lon":5.483969,"is_reserved":false,"is_disabled":false,"rental_uris":{"android":"levelo://app?vid=98fe643a-2789-4fb0-9cb9-57bbe23f949f","ios":"levelo://app?vid=98fe643a-2789-4fb0-9cb9-57bbe23f949f"},"vehicle_type_id":"4","last_reported":1770637073,"current_range_meters":9200,"station_id":"st_d3svhcjqgbts73a3dn0g","pricing_plan_id":"cebpf4jnsgd1na2vs0mg"},{"bike_id":"dcffb64c-9bea-40cd-a5fe-c7eeb8475cd8","system_id":"levelo_inurba_marseille","lat":43.30312,"lon":5.3775,"is_reserved":false,"is_disabled":true,"rental_uris":{"android":"levelo://app?vid=dcffb64c-9bea-40cd-a5fe-c7eeb8475cd8","ios":"levelo://app?vid=dcffb64c-9bea-40cd-a5fe-c7eeb8475cd8"},"vehicle_type_id":"4","last_reported":1770637073,"current_range_meters":9600,"station_id":"ce4bguh2rcd13ifvqcj0","pricing_plan_id":"cebpf4jnsgd1na2vs0mg"},{"bike_id":"4240880d-88bf-48aa-91ea-700e773e4fa1","system_id":"levelo_inurba_marseille","lat":43.255733,"lon":5.382359,"is_reserved":false,"is_disabled":false,"rental_uris":{"android":"levelo://app?vid=4240880d-88bf-48aa-91ea-700e773e4fa1","ios":"levelo://app?vid=4240880d-88bf-48aa-91ea-700e773e4fa1"},"vehicle_type_id":"4","last_reported":1770637073,"current_range_meters":9600,"station_id":"","pricing_plan_id":"cebpf4jnsgd1na2vs0mg"},{"bike_id":"54368038-1aa5-4bac-a318-02c8e4c449fa","system_id":"levelo_inurba_marseille","lat":43.23149,"lon":5.43712,"is_reserved":false,"is_disabled":false,"rental_uris":{"android":"levelo://app?vid=54368038-1aa5-4bac-a318-02c8e4c449fa","ios":"levelo://app?vid=54368038-1aa5-4bac-a318-02c8e4c449fa"},"vehicle_type_id":"4","last_reported":1770637073,"current_range_meters":9600,"station_id":"ce4bhmp2rcd13ifvqgog","pricing_plan_id":"cebpf4jnsgd1na2vs0mg"},{"bike_id":"04566f04-5f37-4847-8fd9-aad36a20879f","system_id":"levelo_inurba_marseille","lat":43.28951,"lon":5.39643,"is_reserved":false,"is_disabled":false,"rental_uris":{"android":"levelo://app?vid=04566f04-5f37-4847-8fd9-aad36a20879f","ios":"levelo://app?vid=04566f04-5f37-4847-8fd9-aad36a20879f"},"vehicle_type_id":"4","last_reported":1770637073,"current_range_meters":9600,"station_id":"ce4bh3h2rcd13ifvqdn0","pricing_plan_id":"cebpf4jnsgd1na2vs0mg"},{"bike_id":"cf60cc3b-e0ae-4fed-9dce-60af07927064","system_id":"levelo_inurba_marseille","lat":43.29605,"lon":5.3772,"is_reserved":false,"is_disabled":false,"rental_uris":{"android":"levelo://app?vid=cf60cc3b-e0ae-4fed-9dce-60af07927064","ios":"levelo://app?vid=cf60cc3b-e0ae-4fed-9dce-60af07927064"},"vehicle_type_id":"4","last_reported":1770637073,"current_range_meters":9600,"station_id":"ce4bgi92rcd13ifvqb90","pricing_plan_id":"cebpf4jnsgd1na2vs0mg"},{"bike_id":"f1fc2053-4395-4376-9224-a3696af091bf","system_id":"levelo_inurba_marseille","lat":43.30554,"lon":5.36527,"is_reserved":false,"is_disabled":false,"rental_uris":{"android":"levelo://app?vid=f1fc2053-4395-4376-9224-a3696af091bf","ios":"levelo://app?vid=f1fc2053-4395-4376-9224-a3696af091bf"},"vehicle_type_id":"4","last_reported":1770637073,"current_range_meters":9600,"station_id":"ce4bgs12rcd13ifvqcag","pricing_plan_id":"cebpf4jnsgd1na2vs0mg"},{"bike_id":"05d628e9-781f-4f77-a9a7-087d759ed084","system_id":"levelo_inurba_marseille","lat":43.22936,"lon":5.35376,"is_reserved":false,"is_disabled":false,"rental_uris":{"android":"levelo://app?vid=05d628e9-781f-4f77-a9a7-087d759ed084","ios":"levelo://app?vid=05d628e9-781f-4f77-a9a7-087d759ed084"},"vehicle_type_id":"4","last_reported":1770637073,"current_range_meters":9600,"station_id":"cpo3532slgdg3j2ikp40","pricing_plan_id":"cebpf4jnsgd1na2vs0mg"},{"bike_id":"5f7df976-2770-4b0d-bd16-1a5d3e4bd86a","system_id":"levelo_inurba_marseille","lat":43.26027,"lon":5.37556,"is_reserved":false,"is_disabled":false,"rental_uris":{"android":"levelo://app?vid=5f7df976-2770-4b0d-bd16-1a5d3e4bd86a","ios":"levelo://app?vid=5f7df976-2770-4b0d-bd16-1a5d3e4bd86a"},"vehicle_type_id":"4","last_reported":1770637073,"current_range_meters":9600,"station_id":"ce4bhgh2rcd13ifvqfa0","pricing_plan_id":"cebpf4jnsgd1na2vs0mg"},{"bike_id":"7b190d17-d91e-4195-bf16-1efb23870c75","system_id":"levelo_inurba_marseille","lat":43.29522,"lon":5.37497,"is_reserved":false,"is_disabled":false,"rental_uris":{"android":"levelo://app?vid=7b190d17-d91e-4195-bf16-1efb23870c75","ios":"levelo://app?vid=7b190d17-d91e-4195-bf16-1efb23870c75"},"vehicle_type_id":"4","last_reported":1770637073,"current_range_meters":9600,"station_id":"ce4bgkp2rcd13ifvqbmg","pricing_plan_id":"cebpf4jnsgd1na2vs0mg"},{"bike_id":"3b5567a6-efa3-498b-ad01-b9c12c6390c4","system_id":"levelo_inurba_marseille","lat":43.317153,"lon":5.423964,"is_reserved":false,"is_disabled":false,"rental_uris":{"android":"levelo://app?vid=3b5567a6-efa3-498b-ad01-b9c12c6390c4","ios":"levelo://app?vid=3b5567a6-efa3-498b-ad01-b9c12c6390c4"},"vehicle_type_id":"4","last_reported":1770637073,"current_range_meters":9600,"station_id":"ce4bhp92rcd13ifvqhbg","pricing_plan_id":"cebpf4jnsgd1na2vs0mg"},{"bike_id":"88f0075a-4fe2-4763-bf2c-585ea83a418b","system_id":"levelo_inurba_marseille","lat":43.231578,"lon":5.436898,"is_reserved":false,"is_disabled":false,"rental_uris":{"android":"levelo://app?vid=88f0075a-4fe2-4763-bf2c-585ea83a418b","ios":"levelo://app?vid=88f0075a-4fe2-4763-bf2c-585ea83a418b"},"vehicle_type_id":"4","last_reported":1770637073,"current_range_meters":9600,"station_id":"ce4bhmp2rcd13ifvqgog","pricing_plan_id":"cebpf4jnsgd1na2vs0mg"},{"bike_id":"0ce7b4c2-2b0b-4cd4-abef-9a2969948b92","system_id":"levelo_inurba_marseille","lat":43.25104,"lon":5.40322,"is_reserved":false,"is_disabled":false,"rental_uris":{"android":"levelo://app?vid=0ce7b4c2-2b0b-4cd4-abef-9a2969948b92","ios":"levelo://app?vid=0ce7b4c2-2b0b-4cd4-abef-9a2969948b92"},"vehicle_type_id":"4","last_reported":1770637073,"current_range_meters":9600,"station_id":"ce4bhlh2rcd13ifvqgig","pricing_plan_id":"cebpf4jnsgd1na2vs0mg"},{"bike_id":"f12f6f11-1feb-482e-8dc3-a79b8963e979","system_id":"levelo_inurba_marseille","lat":43.33541,"lon":5.37477,"is_reserved":false,"is_disabled":false,"rental_uris":{"android":"levelo://app?vid=f12f6f11-1feb-482e-8dc3-a79b8963e979","ios":"levelo://app?vid=f12f6f11-1feb-482e-8dc3-a79b8963e979"},"vehicle_type_id":"4","last_reported":1770637073,"current_range_meters":9600,"station_id":"st_d46tts09ee8s73dlu43g","pricing_plan_id":"cebpf4jnsgd1na2vs0mg"},{"bike_id":"4897c4ec-e698-4aca-9b35-e9523f667dcc","system_id":"levelo_inurba_marseille","lat":43.30194,"lon":5.38023,"is_reserved":false,"is_disabled":false,"rental_uris":{"android":"levelo://app?vid=4897c4ec-e698-4aca-9b35-e9523f667dcc","ios":"levelo://app?vid=4897c4ec-e698-4aca-9b35-e9523f667dcc"},"vehicle_type_id":"4","last_reported":1770637073,"current_range_meters":9600,"station_id":"ce4bgjp2rcd13ifvqbh0","pricing_plan_id":"cebpf4jnsgd1na2vs0mg"},{"bike_id":"38808137-f260-497c-9245-4d4b4bede09d","system_id":"levelo_inurba_marseille","lat":43.27205,"lon":5.39169,"is_reserved":false,"is_disabled":false,"rental_uris":{"android":"levelo://app?vid=38808137-f260-497c-9245-4d4b4bede09d","ios":"levelo://app?vid=38808137-f260-497c-9245-4d4b4bede09d"},"vehicle_type_id":"4","last_reported":1770637073,"current_range_meters":9600,"station_id":"ce4bhhp2rcd13ifvqfm0","pricing_plan_id":"cebpf4jnsgd1na2vs0mg"},{"bike_id":"a948137a-4200-4a90-ae91-35161837f029","system_id":"levelo_inurba_marseille","lat":43.30619,"lon":5.37644,"is_reserved":false,"is_disabled":false,"rental_uris":{"android":"levelo://app?vid=a948137a-4200-4a90-ae91-35161837f029","ios":"levelo://app?vid=a948137a-4200-4a90-ae91-35161837f029"},"vehicle_type_id":"4","last_reported":1770637073,"current_range_meters":9600,"station_id":"","pricing_plan_id":"cebpf4jnsgd1na2vs0mg"},{"bike_id":"bfc07130-be47-4eef-8325-e33d6610d729","system_id":"levelo_inurba_marseille","lat":43.301211,"lon":5.43115,"is_reserved":false,"is_disabled":false,"rental_uris":{"android":"levelo://app?vid=bfc07130-be47-4eef-8325-e33d6610d729","ios":"levelo://app?vid=bfc07130-be47-4eef-8325-e33d6610d729"},"vehicle_type_id":"4","last_reported":1770637073,"current_range_meters":10000,"station_id":"st_d3js3co5814s73ftftug","pricing_plan_id":"cebpf4jnsgd1na2vs0mg"},{"bike_id":"c704a501-b920-4ba5-82ac-cf3939b9400d","system_id":"levelo_inurba_marseille","lat":43.31241,"lon":5.3685,"is_reserved":false,"is_disabled":false,"rental_uris":{"android":"levelo://app?vid=c704a501-b920-4ba5-82ac-cf3939b9400d","ios":"levelo://app?vid=c704a501-b920-4ba5-82ac-cf3939b9400d"},"vehicle_type_id":"4","last_reported":1770637073,"current_range_meters":10000,"station_id":"ce4bgl92rcd13ifvqbq0","pricing_plan_id":"cebpf4jnsgd1na2vs0mg"},{"bike_id":"652029fd-7389-40d5-a0bd-e85f7aa43d7c","system_id":"levelo_inurba_marseille","lat":43.22563,"lon":5.4162,"is_reserved":false,"is_disabled":false,"rental_uris":{"android":"levelo://app?vid=652029fd-7389-40d5-a0bd-e85f7aa43d7c","ios":"levelo://app?vid=652029fd-7389-40d5-a0bd-e85f7aa43d7c"},"vehicle_type_id":"4","last_reported":1770637073,"current_range_meters":10000,"station_id":"st_d2o4gvlbi1j2169b742g","pricing_plan_id":"cebpf4jnsgd1na2vs0mg"},{"bike_id":"ee213b40-802c-442b-9390-5e22834db5df","system_id":"levelo_inurba_marseille","lat":43.24148,"lon":5.3642,"is_reserved":false,"is_disabled":false,"rental_uris":{"android":"levelo://app?vid=ee213b40-802c-442b-9390-5e22834db5df","ios":"levelo://app?vid=ee213b40-802c-442b-9390-5e22834db5df"},"vehicle_type_id":"4","last_reported":1770637073,"current_range_meters":10000,"station_id":"cpo36qri1sfpv3e86is0","pricing_plan_id":"cebpf4jnsgd1na2vs0mg"},{"bike_id":"c16532d7-35e9-4973-8863-d40625b15b1d","system_id":"levelo_inurba_marseille","lat":43.279427,"lon":5.41046,"is_reserved":false,"is_disabled":false,"rental_uris":{"android":"levelo://app?vid=c16532d7-35e9-4973-8863-d40625b15b1d","ios":"levelo://app?vid=c16532d7-35e9-4973-8863-d40625b15b1d"},"vehicle_type_id":"4","last_reported":1770637073,"current_range_meters":10000,"station_id":"ce4bhnp2rcd13ifvqh0g","pricing_plan_id":"cebpf4jnsgd1na2vs0mg"},{"bike_id":"cc9d8b4e-9bda-47b4-8088-3f93b11014d1","system_id":"levelo_inurba_marseille","lat":43.25206,"lon":5.40711,"is_reserved":false,"is_disabled":false,"rental_uris":{"android":"levelo://app?vid=cc9d8b4e-9bda-47b4-8088-3f93b11014d1","ios":"levelo://app?vid=cc9d8b4e-9bda-47b4-8088-3f93b11014d1"},"vehicle_type_id":"4","last_reported":1770637073,"current_range_meters":10000,"station_id":"","pricing_plan_id":"cebpf4jnsgd1na2vs0mg"},{"bike_id":"85dd1ff3-48fb-473b-a6b8-2f438c995677","system_id":"levelo_inurba_marseille","lat":43.29907,"lon":5.43659,"is_reserved":false,"is_disabled":false,"rental_uris":{"android":"levelo://app?vid=85dd1ff3-48fb-473b-a6b8-2f438c995677","ios":"levelo://app?vid=85dd1ff3-48fb-473b-a6b8-2f438c995677"},"vehicle_type_id":"4","last_reported":1770637073,"current_range_meters":10000,"station_id":"ce4bhpp2rcd13ifvqhfg","pricing_plan_id":"cebpf4jnsgd1na2vs0mg"},{"bike_id":"39f707c4-5e5e-4fe0-ac4f-37476ec8c9fb","system_id":"levelo_inurba_marseille","lat":43.23185,"lon":5.39987,"is_reserved":false,"is_disabled":false,"rental_uris":{"android":"levelo://app?vid=39f707c4-5e5e-4fe0-ac4f-37476ec8c9fb","ios":"levelo://app?vid=39f707c4-5e5e-4fe0-ac4f-37476ec8c9fb"},"vehicle_type_id":"4","last_reported":1770637073,"current_range_meters":10000,"station_id":"ce4bhn12rcd13ifvqgqg","pricing_plan_id":"cebpf4jnsgd1na2vs0mg"},{"bike_id":"a436b0d9-1e07-4c53-9cc8-5a5bdae45c8a","system_id":"levelo_inurba_marseille","lat":43.2848,"lon":5.3842,"is_reserved":false,"is_disabled":false,"rental_uris":{"android":"levelo://app?vid=a436b0d9-1e07-4c53-9cc8-5a5bdae45c8a","ios":"levelo://app?vid=a436b0d9-1e07-4c53-9cc8-5a5bdae45c8a"},"vehicle_type_id":"4","last_reported":1770637073,"current_range_meters":10000,"station_id":"ce4bh512rcd13ifvqe3g","pricing_plan_id":"cebpf4jnsgd1na2vs0mg"},{"bike_id":"6da7b2c8-ded6-41b1-b326-7acbfdccc073","system_id":"levelo_inurba_marseille","lat":43.2966,"lon":5.38013,"is_reserved":false,"is_disabled":false,"rental_uris":{"android":"levelo://app?vid=6da7b2c8-ded6-41b1-b326-7acbfdccc073","ios":"levelo://app?vid=6da7b2c8-ded6-41b1-b326-7acbfdccc073"},"vehicle_type_id":"4","last_reported":1770637073,"current_range_meters":10000,"station_id":"","pricing_plan_id":"cebpf4jnsgd1na2vs0mg"},{"bike_id":"9afb2f8c-959c-475c-aee4-864089796f55","system_id":"levelo_inurba_marseille","lat":43.28542,"lon":5.44082,"is_reserved":false,"is_disabled":false,"rental_uris":{"android":"levelo://app?vid=9afb2f8c-959c-475c-aee4-864089796f55","ios":"levelo://app?vid=9afb2f8c-959c-475c-aee4-864089796f55"},"vehicle_type_id":"4","last_reported":1770637073,"current_range_meters":10000,"station_id":"st_d3j3df2ikq2c7380ej80","pricing_plan_id":"cebpf4jnsgd1na2vs0mg"},{"bike_id":"8421ab96-057e-4c56-8da9-39ca27ce7356","system_id":"levelo_inurba_marseille","lat":43.29969,"lon":5.41324,"is_reserved":false,"is_disabled":false,"rental_uris":{"android":"levelo://app?vid=8421ab96-057e-4c56-8da9-39ca27ce7356","ios":"levelo://app?vid=8421ab96-057e-4c56-8da9-39ca27ce7356"},"vehicle_type_id":"4","last_reported":1770637073,"current_range_meters":10000,"station_id":"ce4bhp12rcd13ifvqh9g","pricing_plan_id":"cebpf4jnsgd1na2vs0mg"},{"bike_id":"6f387dae-813b-46d7-a64a-f5ba6a352621","system_id":"levelo_inurba_marseille","lat":43.2667,"lon":5.38263,"is_reserved":false,"is_disabled":false,"rental_uris":{"android":"levelo://app?vid=6f387dae-813b-46d7-a64a-f5ba6a352621","ios":"levelo://app?vid=6f387dae-813b-46d7-a64a-f5ba6a352621"},"vehicle_type_id":"4","last_reported":1770637073,"current_range_meters":10000,"station_id":"ce4bhg92rcd13ifvqf90","pricing_plan_id":"cebpf4jnsgd1na2vs0mg"},{"bike_id":"41489d1d-8f65-4acc-ad4a-a6a8dc9439fd","system_id":"levelo_inurba_marseille","lat":43.29418,"lon":5.41325,"is_reserved":false,"is_disabled":false,"rental_uris":{"android":"levelo://app?vid=41489d1d-8f65-4acc-ad4a-a6a8dc9439fd","ios":"levelo://app?vid=41489d1d-8f65-4acc-ad4a-a6a8dc9439fd"},"vehicle_type_id":"4","last_reported":1770637073,"current_range_meters":10000,"station_id":"","pricing_plan_id":"cebpf4jnsgd1na2vs0mg"},{"bike_id":"dd7795df-2cd3-4bb3-9960-bddcca17ad6f","system_id":"levelo_inurba_marseille","lat":43.27966,"lon":5.38727,"is_reserved":false,"is_disabled":false,"rental_uris":{"android":"levelo://app?vid=dd7795df-2cd3-4bb3-9960-bddcca17ad6f","ios":"levelo://app?vid=dd7795df-2cd3-4bb3-9960-bddcca17ad6f"},"vehicle_type_id":"4","last_reported":1770637073,"current_range_meters":10000,"station_id":"ce4bhg12rcd13ifvqf80","pricing_plan_id":"cebpf4jnsgd1na2vs0mg"},{"bike_id":"d0a5394f-bd4b-4d2d-bc44-bf329428d920","system_id":"levelo_inurba_marseille","lat":43.29846,"lon":5.36279,"is_reserved":false,"is_disabled":false,"rental_uris":{"android":"levelo://app?vid=d0a5394f-bd4b-4d2d-bc44-bf329428d920","ios":"levelo://app?vid=d0a5394f-bd4b-4d2d-bc44-bf329428d920"},"vehicle_type_id":"4","last_reported":1770637073,"current_range_meters":10800,"station_id":"ce4bgpp2rcd13ifvqc3g","pricing_plan_id":"cebpf4jnsgd1na2vs0mg"},{"bike_id":"8ae17b81-0000-4570-ac79-fe68f254c27c","system_id":"levelo_inurba_marseille","lat":43.29594,"lon":5.37732,"is_reserved":false,"is_disabled":true,"rental_uris":{"android":"levelo://app?vid=8ae17b81-0000-4570-ac79-fe68f254c27c","ios":"levelo://app?vid=8ae17b81-0000-4570-ac79-fe68f254c27c"},"vehicle_type_id":"4","last_reported":1770637073,"current_range_meters":10800,"station_id":"ce4bgi92rcd13ifvqb90","pricing_plan_id":"cebpf4jnsgd1na2vs0mg"},{"bike_id":"81089c31-0f23-400c-91cf-65461521d37b","system_id":"levelo_inurba_marseille","lat":43.25848,"lon":5.39411,"is_reserved":false,"is_disabled":false,"rental_uris":{"android":"levelo://app?vid=81089c31-0f23-400c-91cf-65461521d37b","ios":"levelo://app?vid=81089c31-0f23-400c-91cf-65461521d37b"},"vehicle_type_id":"4","last_reported":1770637073,"current_range_meters":10800,"station_id":"ce4bhip2rcd13ifvqft0","pricing_plan_id":"cebpf4jnsgd1na2vs0mg"},{"bike_id":"d587feeb-d002-423c-a60d-ce0bbea9f2cb","system_id":"levelo_inurba_marseille","lat":43.28899,"lon":5.40157,"is_reserved":false,"is_disabled":false,"rental_uris":{"android":"levelo://app?vid=d587feeb-d002-423c-a60d-ce0bbea9f2cb","ios":"levelo://app?vid=d587feeb-d002-423c-a60d-ce0bbea9f2cb"},"vehicle_type_id":"4","last_reported":1770637073,"current_range_meters":10800,"station_id":"","pricing_plan_id":"cebpf4jnsgd1na2vs0mg"},{"bike_id":"c11b48aa-5b4e-4ac0-bbcc-eafa246b4e92","system_id":"levelo_inurba_marseille","lat":43.27604,"lon":5.36123,"is_reserved":false,"is_disabled":false,"rental_uris":{"android":"levelo://app?vid=c11b48aa-5b4e-4ac0-bbcc-eafa246b4e92","ios":"levelo://app?vid=c11b48aa-5b4e-4ac0-bbcc-eafa246b4e92"},"vehicle_type_id":"4","last_reported":1770637073,"current_range_meters":10800,"station_id":"ce4bgj92rcd13ifvqbe0","pricing_plan_id":"cebpf4jnsgd1na2vs0mg"},{"bike_id":"7567a805-153d-4b4b-a47a-6eadf92f1c66","system_id":"levelo_inurba_marseille","lat":43.23059,"lon":5.35492,"is_reserved":false,"is_disabled":false,"rental_uris":{"android":"levelo://app?vid=7567a805-153d-4b4b-a47a-6eadf92f1c66","ios":"levelo://app?vid=7567a805-153d-4b4b-a47a-6eadf92f1c66"},"vehicle_type_id":"4","last_reported":1770637073,"current_range_meters":10800,"station_id":"cpo3342slgdg3j2ifvpg","pricing_plan_id":"cebpf4jnsgd1na2vs0mg"},{"bike_id":"89446920-5bad-4011-b083-61088b42ddfa","system_id":"levelo_inurba_marseille","lat":43.248088,"lon":5.37459,"is_reserved":false,"is_disabled":false,"rental_uris":{"android":"levelo://app?vid=89446920-5bad-4011-b083-61088b42ddfa","ios":"levelo://app?vid=89446920-5bad-4011-b083-61088b42ddfa"},"vehicle_type_id":"4","last_reported":1770637073,"current_range_meters":10800,"station_id":"ce4bhgh2rcd13ifvqfb0","pricing_plan_id":"cebpf4jnsgd1na2vs0mg"},{"bike_id":"f62a384c-82ea-406f-b454-65dc89a8251e","system_id":"levelo_inurba_marseille","lat":43.27351,"lon":5.41034,"is_reserved":false,"is_disabled":false,"rental_uris":{"android":"levelo://app?vid=f62a384c-82ea-406f-b454-65dc89a8251e","ios":"levelo://app?vid=f62a384c-82ea-406f-b454-65dc89a8251e"},"vehicle_type_id":"4","last_reported":1770637073,"current_range_meters":10800,"station_id":"","pricing_plan_id":"cebpf4jnsgd1na2vs0mg"},{"bike_id":"8e65acab-6d68-40b3-abe0-aa99c6fae4df","system_id":"levelo_inurba_marseille","lat":43.25827,"lon":5.39439,"is_reserved":false,"is_disabled":false,"rental_uris":{"android":"levelo://app?vid=8e65acab-6d68-40b3-abe0-aa99c6fae4df","ios":"levelo://app?vid=8e65acab-6d68-40b3-abe0-aa99c6fae4df"},"vehicle_type_id":"4","last_reported":1770637073,"current_range_meters":10800,"station_id":"ce4bhip2rcd13ifvqft0","pricing_plan_id":"cebpf4jnsgd1na2vs0mg"},{"bike_id":"fbf2ee9c-6bb8-4094-8b37-53871d20f3ba","system_id":"levelo_inurba_marseille","lat":43.31395,"lon":5.36696,"is_reserved":false,"is_disabled":false,"rental_uris":{"android":"levelo://app?vid=fbf2ee9c-6bb8-4094-8b37-53871d20f3ba","ios":"levelo://app?vid=fbf2ee9c-6bb8-4094-8b37-53871d20f3ba"},"vehicle_type_id":"4","last_reported":1770637073,"current_range_meters":10800,"station_id":"","pricing_plan_id":"cebpf4jnsgd1na2vs0mg"},{"bike_id":"35b5b530-7c77-4903-bc8b-8aa65c5eda20","system_id":"levelo_inurba_marseille","lat":43.33601,"lon":5.41015,"is_reserved":false,"is_disabled":false,"rental_uris":{"android":"levelo://app?vid=35b5b530-7c77-4903-bc8b-8aa65c5eda20","ios":"levelo://app?vid=35b5b530-7c77-4903-bc8b-8aa65c5eda20"},"vehicle_type_id":"4","last_reported":1770637073,"current_range_meters":10800,"station_id":"ce4bhqh2rcd13ifvqhmg","pricing_plan_id":"cebpf4jnsgd1na2vs0mg"},{"bike_id":"c067ca78-bad6-401b-90fb-e71f131a6d8e","system_id":"levelo_inurba_marseille","lat":43.24462,"lon":5.42545,"is_reserved":false,"is_disabled":false,"rental_uris":{"android":"levelo://app?vid=c067ca78-bad6-401b-90fb-e71f131a6d8e","ios":"levelo://app?vid=c067ca78-bad6-401b-90fb-e71f131a6d8e"},"vehicle_type_id":"4","last_reported":1770637073,"current_range_meters":10800,"station_id":"st_d4a3vfp97mjs738cd8kg","pricing_plan_id":"cebpf4jnsgd1na2vs0mg"},{"bike_id":"534d0005-0d9d-4965-ae77-43e2af08857e","system_id":"levelo_inurba_marseille","lat":43.26371,"lon":5.4105,"is_reserved":false,"is_disabled":false,"rental_uris":{"android":"levelo://app?vid=534d0005-0d9d-4965-ae77-43e2af08857e","ios":"levelo://app?vid=534d0005-0d9d-4965-ae77-43e2af08857e"},"vehicle_type_id":"4","last_reported":1770637073,"current_range_meters":10800,"station_id":"st_d4e5ca6na9uc73bfl5fg","pricing_plan_id":"cebpf4jnsgd1na2vs0mg"},{"bike_id":"1d84a6a9-53dd-4546-9d02-4bb696d8451e","system_id":"levelo_inurba_marseille","lat":43.31698,"lon":5.37682,"is_reserved":false,"is_disabled":false,"rental_uris":{"android":"levelo://app?vid=1d84a6a9-53dd-4546-9d02-4bb696d8451e","ios":"levelo://app?vid=1d84a6a9-53dd-4546-9d02-4bb696d8451e"},"vehicle_type_id":"4","last_reported":1770637073,"current_range_meters":10800,"station_id":"ce4bgth2rcd13ifvqch0","pricing_plan_id":"cebpf4jnsgd1na2vs0mg"},{"bike_id":"855a3475-1980-4d64-b472-752292241c3d","system_id":"levelo_inurba_marseille","lat":43.294977,"lon":5.432997,"is_reserved":false,"is_disabled":false,"rental_uris":{"android":"levelo://app?vid=855a3475-1980-4d64-b472-752292241c3d","ios":"levelo://app?vid=855a3475-1980-4d64-b472-752292241c3d"},"vehicle_type_id":"4","last_reported":1770637073,"current_range_meters":10800,"station_id":"st_d3j5ugp08ojc73fj9d10","pricing_plan_id":"cebpf4jnsgd1na2vs0mg"},{"bike_id":"f98434fa-bf6c-41c9-9e4e-431aea2a6104","system_id":"levelo_inurba_marseille","lat":43.23143,"lon":5.43731,"is_reserved":false,"is_disabled":false,"rental_uris":{"android":"levelo://app?vid=f98434fa-bf6c-41c9-9e4e-431aea2a6104","ios":"levelo://app?vid=f98434fa-bf6c-41c9-9e4e-431aea2a6104"},"vehicle_type_id":"4","last_reported":1770637073,"current_range_meters":11200,"station_id":"ce4bhmp2rcd13ifvqgog","pricing_plan_id":"cebpf4jnsgd1na2vs0mg"},{"bike_id":"29dced35-e380-4021-a625-fb42f9a9138f","system_id":"levelo_inurba_marseille","lat":43.2439,"lon":5.370473,"is_reserved":false,"is_disabled":false,"rental_uris":{"android":"levelo://app?vid=29dced35-e380-4021-a625-fb42f9a9138f","ios":"levelo://app?vid=29dced35-e380-4021-a625-fb42f9a9138f"},"vehicle_type_id":"4","last_reported":1770637073,"current_range_meters":11200,"station_id":"ce4bhhh2rcd13ifvqfk0","pricing_plan_id":"cebpf4jnsgd1na2vs0mg"},{"bike_id":"05abb5d5-7a0f-4692-a6b6-119f614f1bb6","system_id":"levelo_inurba_marseille","lat":43.255798,"lon":5.382432,"is_reserved":false,"is_disabled":false,"rental_uris":{"android":"levelo://app?vid=05abb5d5-7a0f-4692-a6b6-119f614f1bb6","ios":"levelo://app?vid=05abb5d5-7a0f-4692-a6b6-119f614f1bb6"},"vehicle_type_id":"4","last_reported":1770637073,"current_range_meters":11200,"station_id":"ce4bhih2rcd13ifvqfs0","pricing_plan_id":"cebpf4jnsgd1na2vs0mg"},{"bike_id":"389ec4ca-6e75-4d67-8274-10b33caca106","system_id":"levelo_inurba_marseille","lat":43.25124,"lon":5.40326,"is_reserved":false,"is_disabled":false,"rental_uris":{"android":"levelo://app?vid=389ec4ca-6e75-4d67-8274-10b33caca106","ios":"levelo://app?vid=389ec4ca-6e75-4d67-8274-10b33caca106"},"vehicle_type_id":"4","last_reported":1770637073,"current_range_meters":11200,"station_id":"ce4bhlh2rcd13ifvqgig","pricing_plan_id":"cebpf4jnsgd1na2vs0mg"},{"bike_id":"30dcf271-c66c-4ee7-94a9-1e221751bad2","system_id":"levelo_inurba_marseille","lat":43.259284,"lon":5.409116,"is_reserved":false,"is_disabled":false,"rental_uris":{"android":"levelo://app?vid=30dcf271-c66c-4ee7-94a9-1e221751bad2","ios":"levelo://app?vid=30dcf271-c66c-4ee7-94a9-1e221751bad2"},"vehicle_type_id":"4","last_reported":1770637073,"current_range_meters":11200,"station_id":"ce4bhm92rcd13ifvqglg","pricing_plan_id":"cebpf4jnsgd1na2vs0mg"},{"bike_id":"6aa6da6f-1976-49d0-ac99-282daecf7451","system_id":"levelo_inurba_marseille","lat":43.24081,"lon":5.37748,"is_reserved":false,"is_disabled":false,"rental_uris":{"android":"levelo://app?vid=6aa6da6f-1976-49d0-ac99-282daecf7451","ios":"levelo://app?vid=6aa6da6f-1976-49d0-ac99-282daecf7451"},"vehicle_type_id":"4","last_reported":1770637073,"current_range_meters":11200,"station_id":"ce4bhnp2rcd13ifvqgvg","pricing_plan_id":"cebpf4jnsgd1na2vs0mg"},{"bike_id":"a1a1e459-dc33-458a-a156-5735d4cb79a9","system_id":"levelo_inurba_marseille","lat":43.2957,"lon":5.423,"is_reserved":false,"is_disabled":false,"rental_uris":{"android":"levelo://app?vid=a1a1e459-dc33-458a-a156-5735d4cb79a9","ios":"levelo://app?vid=a1a1e459-dc33-458a-a156-5735d4cb79a9"},"vehicle_type_id":"4","last_reported":1770637073,"current_range_meters":11200,"station_id":"ce4bhph2rcd13ifvqhdg","pricing_plan_id":"cebpf4jnsgd1na2vs0mg"},{"bike_id":"ffbe3718-fb64-481b-bbfe-6664f18f61cb","system_id":"levelo_inurba_marseille","lat":43.2463,"lon":5.43144,"is_reserved":false,"is_disabled":false,"rental_uris":{"android":"levelo://app?vid=ffbe3718-fb64-481b-bbfe-6664f18f61cb","ios":"levelo://app?vid=ffbe3718-fb64-481b-bbfe-6664f18f61cb"},"vehicle_type_id":"4","last_reported":1770637073,"current_range_meters":11200,"station_id":"st_d2m6c4gdas8pm72e190g","pricing_plan_id":"cebpf4jnsgd1na2vs0mg"},{"bike_id":"259eb163-286b-41f2-bfa5-dc66d1571623","system_id":"levelo_inurba_marseille","lat":43.2961,"lon":5.36734,"is_reserved":false,"is_disabled":false,"rental_uris":{"android":"levelo://app?vid=259eb163-286b-41f2-bfa5-dc66d1571623","ios":"levelo://app?vid=259eb163-286b-41f2-bfa5-dc66d1571623"},"vehicle_type_id":"4","last_reported":1770637073,"current_range_meters":11200,"station_id":"ce4bgph2rcd13ifvqc2g","pricing_plan_id":"cebpf4jnsgd1na2vs0mg"},{"bike_id":"46b69bcd-f35a-433e-b9f1-16ab03d0ac0e","system_id":"levelo_inurba_marseille","lat":43.25857,"lon":5.39917,"is_reserved":false,"is_disabled":false,"rental_uris":{"android":"levelo://app?vid=46b69bcd-f35a-433e-b9f1-16ab03d0ac0e","ios":"levelo://app?vid=46b69bcd-f35a-433e-b9f1-16ab03d0ac0e"},"vehicle_type_id":"4","last_reported":1770637073,"current_range_meters":11200,"station_id":"ce4bhl92rcd13ifvqghg","pricing_plan_id":"cebpf4jnsgd1na2vs0mg"},{"bike_id":"cbc40f0e-c367-448b-90ea-5a0e1e4f4ac2","system_id":"levelo_inurba_marseille","lat":43.26565,"lon":5.40331,"is_reserved":false,"is_disabled":false,"rental_uris":{"android":"levelo://app?vid=cbc40f0e-c367-448b-90ea-5a0e1e4f4ac2","ios":"levelo://app?vid=cbc40f0e-c367-448b-90ea-5a0e1e4f4ac2"},"vehicle_type_id":"4","last_reported":1770637073,"current_range_meters":11200,"station_id":"ce4bhmp2rcd13ifvqgng","pricing_plan_id":"cebpf4jnsgd1na2vs0mg"},{"bike_id":"5d86506f-f4ce-4e04-998c-995692a6b98c","system_id":"levelo_inurba_marseille","lat":43.21202,"lon":5.35067,"is_reserved":false,"is_disabled":false,"rental_uris":{"android":"levelo://app?vid=5d86506f-f4ce-4e04-998c-995692a6b98c","ios":"levelo://app?vid=5d86506f-f4ce-4e04-998c-995692a6b98c"},"vehicle_type_id":"4","last_reported":1770637073,"current_range_meters":11200,"station_id":"st_cvj6sg6p6f1abm77japg","pricing_plan_id":"cebpf4jnsgd1na2vs0mg"},{"bike_id":"3f613fb8-4a1c-4997-ac2c-693b9c75a794","system_id":"levelo_inurba_marseille","lat":43.30557,"lon":5.36655,"is_reserved":false,"is_disabled":false,"rental_uris":{"android":"levelo://app?vid=3f613fb8-4a1c-4997-ac2c-693b9c75a794","ios":"levelo://app?vid=3f613fb8-4a1c-4997-ac2c-693b9c75a794"},"vehicle_type_id":"4","last_reported":1770637073,"current_range_meters":11200,"station_id":"","pricing_plan_id":"cebpf4jnsgd1na2vs0mg"},{"bike_id":"990e96c3-1411-40db-8c41-21f5095438bf","system_id":"levelo_inurba_marseille","lat":43.305959,"lon":5.365596,"is_reserved":false,"is_disabled":false,"rental_uris":{"android":"levelo://app?vid=990e96c3-1411-40db-8c41-21f5095438bf","ios":"levelo://app?vid=990e96c3-1411-40db-8c41-21f5095438bf"},"vehicle_type_id":"4","last_reported":1770637073,"current_range_meters":11200,"station_id":"ce4bgs12rcd13ifvqcag","pricing_plan_id":"cebpf4jnsgd1na2vs0mg"},{"bike_id":"fd26d1c5-b1c5-423d-91d3-56da6f563925","system_id":"levelo_inurba_marseille","lat":43.33149,"lon":5.37688,"is_reserved":false,"is_disabled":false,"rental_uris":{"android":"levelo://app?vid=fd26d1c5-b1c5-423d-91d3-56da6f563925","ios":"levelo://app?vid=fd26d1c5-b1c5-423d-91d3-56da6f563925"},"vehicle_type_id":"4","last_reported":1770637073,"current_range_meters":11200,"station_id":"st_d46cu089ee8s73dldbu0","pricing_plan_id":"cebpf4jnsgd1na2vs0mg"},{"bike_id":"b0577ca1-afa8-48fa-be5c-f4673c1a2294","system_id":"levelo_inurba_marseille","lat":43.27979,"lon":5.41307,"is_reserved":false,"is_disabled":false,"rental_uris":{"android":"levelo://app?vid=b0577ca1-afa8-48fa-be5c-f4673c1a2294","ios":"levelo://app?vid=b0577ca1-afa8-48fa-be5c-f4673c1a2294"},"vehicle_type_id":"4","last_reported":1770637073,"current_range_meters":11200,"station_id":"","pricing_plan_id":"cebpf4jnsgd1na2vs0mg"},{"bike_id":"22d8d839-db4c-4efa-bd5d-d78efaca55ca","system_id":"levelo_inurba_marseille","lat":43.25575,"lon":5.3824,"is_reserved":false,"is_disabled":false,"rental_uris":{"android":"levelo://app?vid=22d8d839-db4c-4efa-bd5d-d78efaca55ca","ios":"levelo://app?vid=22d8d839-db4c-4efa-bd5d-d78efaca55ca"},"vehicle_type_id":"4","last_reported":1770637073,"current_range_meters":11200,"station_id":"ce4bhih2rcd13ifvqfs0","pricing_plan_id":"cebpf4jnsgd1na2vs0mg"},{"bike_id":"1033425d-154c-4c12-8e89-fad1291dbc92","system_id":"levelo_inurba_marseille","lat":43.24387,"lon":5.37051,"is_reserved":false,"is_disabled":false,"rental_uris":{"android":"levelo://app?vid=1033425d-154c-4c12-8e89-fad1291dbc92","ios":"levelo://app?vid=1033425d-154c-4c12-8e89-fad1291dbc92"},"vehicle_type_id":"4","last_reported":1770637073,"current_range_meters":11200,"station_id":"ce4bhhh2rcd13ifvqfk0","pricing_plan_id":"cebpf4jnsgd1na2vs0mg"},{"bike_id":"914bd365-2174-44e8-81f6-c3c68ba64874","system_id":"levelo_inurba_marseille","lat":43.23189,"lon":5.39978,"is_reserved":false,"is_disabled":false,"rental_uris":{"android":"levelo://app?vid=914bd365-2174-44e8-81f6-c3c68ba64874","ios":"levelo://app?vid=914bd365-2174-44e8-81f6-c3c68ba64874"},"vehicle_type_id":"4","last_reported":1770637073,"current_range_meters":11200,"station_id":"ce4bhn12rcd13ifvqgqg","pricing_plan_id":"cebpf4jnsgd1na2vs0mg"},{"bike_id":"e0450db0-c8b3-4403-bc43-ed5a007877b8","system_id":"levelo_inurba_marseille","lat":43.24635,"lon":5.43153,"is_reserved":false,"is_disabled":false,"rental_uris":{"android":"levelo://app?vid=e0450db0-c8b3-4403-bc43-ed5a007877b8","ios":"levelo://app?vid=e0450db0-c8b3-4403-bc43-ed5a007877b8"},"vehicle_type_id":"4","last_reported":1770637073,"current_range_meters":11600,"station_id":"st_d2m6c4gdas8pm72e190g","pricing_plan_id":"cebpf4jnsgd1na2vs0mg"},{"bike_id":"50b635d3-0b93-40ca-af60-8fdd9b2f83d2","system_id":"levelo_inurba_marseille","lat":43.29787,"lon":5.3809,"is_reserved":false,"is_disabled":true,"rental_uris":{"android":"levelo://app?vid=50b635d3-0b93-40ca-af60-8fdd9b2f83d2","ios":"levelo://app?vid=50b635d3-0b93-40ca-af60-8fdd9b2f83d2"},"vehicle_type_id":"4","last_reported":1770637073,"current_range_meters":11600,"station_id":"ce4bgip2rcd13ifvqbb0","pricing_plan_id":"cebpf4jnsgd1na2vs0mg"},{"bike_id":"38370158-fe74-49c7-b2b0-0072e2c97500","system_id":"levelo_inurba_marseille","lat":43.22939,"lon":5.35394,"is_reserved":false,"is_disabled":false,"rental_uris":{"android":"levelo://app?vid=38370158-fe74-49c7-b2b0-0072e2c97500","ios":"levelo://app?vid=38370158-fe74-49c7-b2b0-0072e2c97500"},"vehicle_type_id":"4","last_reported":1770637073,"current_range_meters":11600,"station_id":"cpo3532slgdg3j2ikp40","pricing_plan_id":"cebpf4jnsgd1na2vs0mg"},{"bike_id":"27267fc6-f735-4e4b-a5ed-432bd8592e5c","system_id":"levelo_inurba_marseille","lat":43.29605,"lon":5.37729,"is_reserved":false,"is_disabled":false,"rental_uris":{"android":"levelo://app?vid=27267fc6-f735-4e4b-a5ed-432bd8592e5c","ios":"levelo://app?vid=27267fc6-f735-4e4b-a5ed-432bd8592e5c"},"vehicle_type_id":"4","last_reported":1770637073,"current_range_meters":11600,"station_id":"ce4bgi92rcd13ifvqb90","pricing_plan_id":"cebpf4jnsgd1na2vs0mg"},{"bike_id":"cba79721-252d-4ca3-9ddf-886e7fa37f44","system_id":"levelo_inurba_marseille","lat":43.29933,"lon":5.36548,"is_reserved":false,"is_disabled":false,"rental_uris":{"android":"levelo://app?vid=cba79721-252d-4ca3-9ddf-886e7fa37f44","ios":"levelo://app?vid=cba79721-252d-4ca3-9ddf-886e7fa37f44"},"vehicle_type_id":"4","last_reported":1770637073,"current_range_meters":11600,"station_id":"ce4bgm92rcd13ifvqbr0","pricing_plan_id":"cebpf4jnsgd1na2vs0mg"},{"bike_id":"95d0f8ca-a629-4758-be9a-59b507d1030d","system_id":"levelo_inurba_marseille","lat":43.273195,"lon":5.390565,"is_reserved":false,"is_disabled":false,"rental_uris":{"android":"levelo://app?vid=95d0f8ca-a629-4758-be9a-59b507d1030d","ios":"levelo://app?vid=95d0f8ca-a629-4758-be9a-59b507d1030d"},"vehicle_type_id":"4","last_reported":1770637073,"current_range_meters":11600,"station_id":"ce4bhgp2rcd13ifvqfe0","pricing_plan_id":"cebpf4jnsgd1na2vs0mg"},{"bike_id":"98f0713e-6402-4600-9353-a72594fc6185","system_id":"levelo_inurba_marseille","lat":43.24664,"lon":5.38155,"is_reserved":false,"is_disabled":false,"rental_uris":{"android":"levelo://app?vid=98f0713e-6402-4600-9353-a72594fc6185","ios":"levelo://app?vid=98f0713e-6402-4600-9353-a72594fc6185"},"vehicle_type_id":"4","last_reported":1770637073,"current_range_meters":11600,"station_id":"ce4bhih2rcd13ifvqfr0","pricing_plan_id":"cebpf4jnsgd1na2vs0mg"},{"bike_id":"9ea94610-2776-4012-8e86-4e06f9c62206","system_id":"levelo_inurba_marseille","lat":43.3105,"lon":5.3717,"is_reserved":false,"is_disabled":false,"rental_uris":{"android":"levelo://app?vid=9ea94610-2776-4012-8e86-4e06f9c62206","ios":"levelo://app?vid=9ea94610-2776-4012-8e86-4e06f9c62206"},"vehicle_type_id":"4","last_reported":1770637073,"current_range_meters":11600,"station_id":"st_d4kl2rp97mjs73e7tdfg","pricing_plan_id":"cebpf4jnsgd1na2vs0mg"},{"bike_id":"f91f91e7-cb75-4d46-ab53-f570e2e26557","system_id":"levelo_inurba_marseille","lat":43.27671,"lon":5.38084,"is_reserved":false,"is_disabled":false,"rental_uris":{"android":"levelo://app?vid=f91f91e7-cb75-4d46-ab53-f570e2e26557","ios":"levelo://app?vid=f91f91e7-cb75-4d46-ab53-f570e2e26557"},"vehicle_type_id":"4","last_reported":1770637073,"current_range_meters":11600,"station_id":"","pricing_plan_id":"cebpf4jnsgd1na2vs0mg"},{"bike_id":"4659f5f2-43a6-4213-b84f-184d5dec64b3","system_id":"levelo_inurba_marseille","lat":43.33548,"lon":5.37468,"is_reserved":false,"is_disabled":false,"rental_uris":{"android":"levelo://app?vid=4659f5f2-43a6-4213-b84f-184d5dec64b3","ios":"levelo://app?vid=4659f5f2-43a6-4213-b84f-184d5dec64b3"},"vehicle_type_id":"4","last_reported":1770637073,"current_range_meters":12000,"station_id":"st_d46tts09ee8s73dlu43g","pricing_plan_id":"cebpf4jnsgd1na2vs0mg"},{"bike_id":"61e7a56e-a3a9-4b6a-8720-cb799648adf1","system_id":"levelo_inurba_marseille","lat":43.30332,"lon":5.369,"is_reserved":false,"is_disabled":false,"rental_uris":{"android":"levelo://app?vid=61e7a56e-a3a9-4b6a-8720-cb799648adf1","ios":"levelo://app?vid=61e7a56e-a3a9-4b6a-8720-cb799648adf1"},"vehicle_type_id":"4","last_reported":1770637073,"current_range_meters":12000,"station_id":"ce4bgqh2rcd13ifvqc5g","pricing_plan_id":"cebpf4jnsgd1na2vs0mg"},{"bike_id":"87056c0a-278d-470f-af70-99a4eb084f35","system_id":"levelo_inurba_marseille","lat":43.24619,"lon":5.43153,"is_reserved":false,"is_disabled":false,"rental_uris":{"android":"levelo://app?vid=87056c0a-278d-470f-af70-99a4eb084f35","ios":"levelo://app?vid=87056c0a-278d-470f-af70-99a4eb084f35"},"vehicle_type_id":"4","last_reported":1770637073,"current_range_meters":12000,"station_id":"st_d2m6c4gdas8pm72e190g","pricing_plan_id":"cebpf4jnsgd1na2vs0mg"},{"bike_id":"7343da53-e0f6-46fb-9d3a-881263a42ffd","system_id":"levelo_inurba_marseille","lat":43.26569,"lon":5.37295,"is_reserved":false,"is_disabled":false,"rental_uris":{"android":"levelo://app?vid=7343da53-e0f6-46fb-9d3a-881263a42ffd","ios":"levelo://app?vid=7343da53-e0f6-46fb-9d3a-881263a42ffd"},"vehicle_type_id":"4","last_reported":1770637073,"current_range_meters":12000,"station_id":"ce4bhg12rcd13ifvqf70","pricing_plan_id":"cebpf4jnsgd1na2vs0mg"},{"bike_id":"314cf606-959e-4bfc-a027-5525307a5cc4","system_id":"levelo_inurba_marseille","lat":43.24643,"lon":5.43137,"is_reserved":false,"is_disabled":false,"rental_uris":{"android":"levelo://app?vid=314cf606-959e-4bfc-a027-5525307a5cc4","ios":"levelo://app?vid=314cf606-959e-4bfc-a027-5525307a5cc4"},"vehicle_type_id":"4","last_reported":1770637073,"current_range_meters":12000,"station_id":"st_d2m6c4gdas8pm72e190g","pricing_plan_id":"cebpf4jnsgd1na2vs0mg"},{"bike_id":"2e963579-6757-4d72-a199-9c8b3393322f","system_id":"levelo_inurba_marseille","lat":43.27215,"lon":5.39182,"is_reserved":false,"is_disabled":false,"rental_uris":{"android":"levelo://app?vid=2e963579-6757-4d72-a199-9c8b3393322f","ios":"levelo://app?vid=2e963579-6757-4d72-a199-9c8b3393322f"},"vehicle_type_id":"4","last_reported":1770637073,"current_range_meters":12000,"station_id":"ce4bhhp2rcd13ifvqfm0","pricing_plan_id":"cebpf4jnsgd1na2vs0mg"},