{"last_updated":1740762507,"ttl":60,"version":"2.2","data":{"bikes":[{"bike_id":"2cfa6ec0-86ed-48de-827b-59384a049deb","system_id":"levelo_inurba_marseille","lat":43.25,"lon":5.38925,"is_reserved":false,"is_disabled":false,"rental_uris":{"android":"levelo://app?vid=2cfa6ec0-86ed-48de-827b-59384a049deb","ios":"levelo://app?vid=2cfa6ec0-86ed-48de-827b-59384a049deb"},"vehicle_type_id":"4","last_reported":1740762508,"current_range_meters":2000,"station_id":"ce4bhgp2rcd13ifvqfd0","pricing_plan_id":"cebpf4jnsgd1na2vs0mg"},{"bike_id":"0d4ed567-037a-4bcd-92a0-d9b74f3a6834","system_id":"levelo_inurba_marseille","lat":43.29899,"lon":5.38135,"is_reserved":false,"is_disabled":false,"rental_uris":{"android":"levelo://app?vid=0d4ed567-037a-4bcd-92a0-d9b74f3a6834","ios":"levelo://app?vid=0d4ed567-037a-4bcd-92a0-d9b74f3a6834"},"vehicle_type_id":"4","last_reported":1740762508,"current_range_meters":2800,"station_id":"ce4bgj12rcd13ifvqbc0","pricing_plan_id":"cebpf4jnsgd1na2vs0mg"},{"bike_id":"47918c0e-6ad6-441f-9682-56ed02470652","system_id":"levelo_inurba_marseille","lat":43.29616,"lon":5.38111,"is_reserved":false,"is_disabled":false,"rental_uris":{"android":"levelo://app?vid=47918c0e-6ad6-441f-9682-56ed02470652","ios":"levelo://app?vid=47918c0e-6ad6-441f-9682-56ed02470652"},"vehicle_type_id":"4","last_reported":1740762508,"current_range_meters":2800,"station_id":"ce4bgl12rcd13ifvqbo0","pricing_plan_id":"cebpf4jnsgd1na2vs0mg"},{"bike_id":"338efb8a-2227-497d-b110-897e71185043","system_id":"levelo_inurba_marseille","lat":43.31997,"lon":5.38162,"is_reserved":false,"is_disabled":false,"rental_uris":{"android":"levelo://app?vid=338efb8a-2227-497d-b110-897e71185043","ios":"levelo://app?vid=338efb8a-2227-497d-b110-897e71185043"},"vehicle_type_id":"4","last_reported":1740762508,"current_range_meters":2800,"station_id":"ce4bhr12rcd13ifvqhpg","pricing_plan_id":"cebpf4jnsgd1na2vs0mg"},{"bike_id":"008ca1f5-64ad-4228-948f-8fe4803cf37a","system_id":"levelo_inurba_marseille","lat":43.29861,"lon":5.38904,"is_reserved":false,"is_disabled":false,"rental_uris":{"android":"levelo://app?vid=008ca1f5-64ad-4228-948f-8fe4803cf37a","ios":"levelo://app?vid=008ca1f5-64ad-4228-948f-8fe4803cf37a"},"vehicle_type_id":"4","last_reported":1740762508,"current_range_meters":1200,"station_id":"ce4bh392rcd13ifvqdl0","pricing_plan_id":"cebpf4jnsgd1na2vs0mg"},{"bike_id":"1f3f1c01-8dbf-4149-b3bd-1d8cba9ac806","system_id":"levelo_inurba_marseille","lat":43.28155,"lon":5.42649,"is_reserved":false,"is_disabled":false,"rental_uris":{"android":"levelo://app?vid=1f3f1c01-8dbf-4149-b3bd-1d8cba9ac806","ios":"levelo://app?vid=1f3f1c01-8dbf-4149-b3bd-1d8cba9ac806"},"vehicle_type_id":"4","last_reported":1740762508,"current_range_meters":3200,"station_id":"ce4bhnh2rcd13ifvqgug","pricing_plan_id":"cebpf4jnsgd1na2vs0mg"},{"bike_id":"0b23288b-e684-42e0-b77d-440d66158f2a","system_id":"levelo_inurba_marseille","lat":43.280823,"lon":5.396555,"is_reserved":false,"is_disabled":false,"rental_uris":{"android":"levelo://app?vid=0b23288b-e684-42e0-b77d-440d66158f2a","ios":"levelo://app?vid=0b23288b-e684-42e0-b77d-440d66158f2a"},"vehicle_type_id":"4","last_reported":1740762508,"current_range_meters":3200,"station_id":"ce4bh492rcd13ifvqdug","pricing_plan_id":"cebpf4jnsgd1na2vs0mg"},{"bike_id":"56c46306-5039-4a45-ab6b-739b9c6780b8","system_id":"levelo_inurba_marseille","lat":43.28613,"lon":5.35101,"is_reserved":false,"is_disabled":false,"rental_uris":{"android":"levelo://app?vid=56c46306-5039-4a45-ab6b-739b9c6780b8","ios":"levelo://app?vid=56c46306-5039-4a45-ab6b-739b9c6780b8"},"vehicle_type_id":"4","last_reported":1740762508,"current_range_meters":1200,"station_id":"ce4bhch2rcd13ifvqeug","pricing_plan_id":"cebpf4jnsgd1na2vs0mg"},{"bike_id":"2a96978a-b7da-42ea-a5c9-306cc325ca4a","system_id":"levelo_inurba_marseille","lat":43.27058,"lon":5.40274,"is_reserved":false,"is_disabled":false,"rental_uris":{"android":"levelo://app?vid=2a96978a-b7da-42ea-a5c9-306cc325ca4a","ios":"levelo://app?vid=2a96978a-b7da-42ea-a5c9-306cc325ca4a"},"vehicle_type_id":"4","last_reported":1740762508,"current_range_meters":3200,"station_id":"ce4bhk92rcd13ifvqgc0","pricing_plan_id":"cebpf4jnsgd1na2vs0mg"},{"bike_id":"eb3dccc6-e6c6-4e7e-b12a-93e1d498dd72","system_id":"levelo_inurba_marseille","lat":43.28454,"lon":5.35906,"is_reserved":false,"is_disabled":false,"rental_uris":{"android":"levelo://app?vid=eb3dccc6-e6c6-4e7e-b12a-93e1d498dd72","ios":"levelo://app?vid=eb3dccc6-e6c6-4e7e-b12a-93e1d498dd72"},"vehicle_type_id":"4","last_reported":1740762508,"current_range_meters":3200,"station_id":"ce4bhah2rcd13ifvqei0","pricing_plan_id":"cebpf4jnsgd1na2vs0mg"},{"bike_id":"17635321-397b-4f8b-9d46-58a5891c7b21","system_id":"levelo_inurba_marseille","lat":43.28081,"lon":5.39666,"is_reserved":false,"is_disabled":false,"rental_uris":{"android":"levelo://app?vid=17635321-397b-4f8b-9d46-58a5891c7b21","ios":"levelo://app?vid=17635321-397b-4f8b-9d46-58a5891c7b21"},"vehicle_type_id":"4","last_reported":1740762508,"current_range_meters":3200,"station_id":"ce4bho12rcd13ifvqh2g","pricing_plan_id":"cebpf4jnsgd1na2vs0mg"},{"bike_id":"73b631e1-cfbd-4583-b087-cb1709d5c203","system_id":"levelo_inurba_marseille","lat":43.28607,"lon":5.35096,"is_reserved":false,"is_disabled":false,"rental_uris":{"android":"levelo://app?vid=73b631e1-cfbd-4583-b087-cb1709d5c203","ios":"levelo://app?vid=73b631e1-cfbd-4583-b087-cb1709d5c203"},"vehicle_type_id":"4","last_reported":1740762508,"current_range_meters":0,"station_id":"ce4bhch2rcd13ifvqeug","pricing_plan_id":"cebpf4jnsgd1na2vs0mg"},{"bike_id":"812edfc3-02cf-48a9-ab31-ed5f47ffaeea","system_id":"levelo_inurba_marseille","lat":43.24671,"lon":5.38151,"is_reserved":false,"is_disabled":false,"rental_uris":{"android":"levelo://app?vid=812edfc3-02cf-48a9-ab31-ed5f47ffaeea","ios":"levelo://app?vid=812edfc3-02cf-48a9-ab31-ed5f47ffaeea"},"vehicle_type_id":"4","last_reported":1740762508,"current_range_meters":3600,"station_id":"ce4bhih2rcd13ifvqfr0","pricing_plan_id":"cebpf4jnsgd1na2vs0mg"},{"bike_id":"0b327e51-fcae-4517-9cf7-b504899e55b9","system_id":"levelo_inurba_marseille","lat":43.29982,"lon":5.38494,"is_reserved":false,"is_disabled":false,"rental_uris":{"android":"levelo://app?vid=0b327e51-fcae-4517-9cf7-b504899e55b9","ios":"levelo://app?vid=0b327e51-fcae-4517-9cf7-b504899e55b9"},"vehicle_type_id":"4","last_reported":1740762508,"current_range_meters":4000,"station_id":"ce4bgj92rcd13ifvqbd0","pricing_plan_id":"cebpf4jnsgd1na2vs0mg"},{"bike_id":"98da8dab-f7b1-4b0b-a1a3-f5c245d53c2f","system_id":"levelo_inurba_marseille","lat":43.28845,"lon":5.39314,"is_reserved":false,"is_disabled":false,"rental_uris":{"android":"levelo://app?vid=98da8dab-f7b1-4b0b-a1a3-f5c245d53c2f","ios":"levelo://app?vid=98da8dab-f7b1-4b0b-a1a3-f5c245d53c2f"},"vehicle_type_id":"4","last_reported":1740762508,"current_range_meters":4000,"station_id":"ce4bh2p2rcd13ifvqdi0","pricing_plan_id":"cebpf4jnsgd1na2vs0mg"},{"bike_id":"451d103e-557c-4d34-b6a8-77bc2cd00139","system_id":"levelo_inurba_marseille","lat":43.2918,"lon":5.35793,"is_reserved":false,"is_disabled":false,"rental_uris":{"android":"levelo://app?vid=451d103e-557c-4d34-b6a8-77bc2cd00139","ios":"levelo://app?vid=451d103e-557c-4d34-b6a8-77bc2cd00139"},"vehicle_type_id":"4","last_reported":1740762508,"current_range_meters":0,"station_id":"ce4bhb12rcd13ifvqel0","pricing_plan_id":"cebpf4jnsgd1na2vs0mg"},{"bike_id":"80c7b970-6455-470a-89d9-c60746c3905f","system_id":"levelo_inurba_marseille","lat":43.25583,"lon":5.38234,"is_reserved":false,"is_disabled":false,"rental_uris":{"android":"levelo://app?vid=80c7b970-6455-470a-89d9-c60746c3905f","ios":"levelo://app?vid=80c7b970-6455-470a-89d9-c60746c3905f"},"vehicle_type_id":"4","last_reported":1740762508,"current_range_meters":4400,"station_id":"ce4bhih2rcd13ifvqfs0","pricing_plan_id":"cebpf4jnsgd1na2vs0mg"},{"bike_id":"2b5eba4f-7db8-47dd-b11d-eccbd9e479ba","system_id":"levelo_inurba_marseille","lat":43.29023,"lon":5.38635,"is_reserved":false,"is_disabled":false,"rental_uris":{"android":"levelo://app?vid=2b5eba4f-7db8-47dd-b11d-eccbd9e479ba","ios":"levelo://app?vid=2b5eba4f-7db8-47dd-b11d-eccbd9e479ba"},"vehicle_type_id":"4","last_reported":1740762508,"current_range_meters":4000,"station_id":"ce4bh4p2rcd13ifvqe0g","pricing_plan_id":"cebpf4jnsgd1na2vs0mg"},{"bike_id":"f1443908-1c43-4450-adbc-7bd54ce2381f","system_id":"levelo_inurba_marseille","lat":43.29523,"lon":5.39038,"is_reserved":false,"is_disabled":false,"rental_uris":{"android":"levelo://app?vid=f1443908-1c43-4450-adbc-7bd54ce2381f","ios":"levelo://app?vid=f1443908-1c43-4450-adbc-7bd54ce2381f"},"vehicle_type_id":"4","last_reported":1740762508,"current_range_meters":4000,"station_id":"ce4bh3p2rcd13ifvqdp0","pricing_plan_id":"cebpf4jnsgd1na2vs0mg"},{"bike_id":"4aad4967-2834-45db-8eaf-48ebeead28f1","system_id":"levelo_inurba_marseille","lat":43.3043,"lon":5.38884,"is_reserved":false,"is_disabled":false,"rental_uris":{"android":"levelo://app?vid=4aad4967-2834-45db-8eaf-48ebeead28f1","ios":"levelo://app?vid=4aad4967-2834-45db-8eaf-48ebeead28f1"},"vehicle_type_id":"4","last_reported":1740762508,"current_range_meters":4400,"station_id":"ce4bgk12rcd13ifvqbi0","pricing_plan_id":"cebpf4jnsgd1na2vs0mg"},{"bike_id":"07caf26a-be4f-4aa3-bcc6-0de3c672ab0f","system_id":"levelo_inurba_marseille","lat":43.29005,"lon":5.35607,"is_reserved":false,"is_disabled":false,"rental_uris":{"android":"levelo://app?vid=07caf26a-be4f-4aa3-bcc6-0de3c672ab0f","ios":"levelo://app?vid=07caf26a-be4f-4aa3-bcc6-0de3c672ab0f"},"vehicle_type_id":"4","last_reported":1740762508,"current_range_meters":4000,"station_id":"ce4bhb92rcd13ifvqen0","pricing_plan_id":"cebpf4jnsgd1na2vs0mg"},{"bike_id":"5b7dff33-3897-453e-8549-1a6e9c2dc1be","system_id":"levelo_inurba_marseille","lat":43.25583,"lon":5.38228,"is_reserved":false,"is_disabled":false,"rental_uris":{"android":"levelo://app?vid=5b7dff33-3897-453e-8549-1a6e9c2dc1be","ios":"levelo://app?vid=5b7dff33-3897-453e-8549-1a6e9c2dc1be"},"vehicle_type_id":"4","last_reported":1740762508,"current_range_meters":4400,"station_id":"ce4bhih2rcd13ifvqfs0","pricing_plan_id":"cebpf4jnsgd1na2vs0mg"},{"bike_id":"be15f8a1-d9d7-4033-a575-69024781008c","system_id":"levelo_inurba_marseille","lat":43.28616,"lon":5.35106,"is_reserved":false,"is_disabled":false,"rental_uris":{"android":"levelo://app?vid=be15f8a1-d9d7-4033-a575-69024781008c","ios":"levelo://app?vid=be15f8a1-d9d7-4033-a575-69024781008c"},"vehicle_type_id":"4","last_reported":1740762508,"current_range_meters":4400,"station_id":"ce4bhch2rcd13ifvqeug","pricing_plan_id":"cebpf4jnsgd1na2vs0mg"},{"bike_id":"a31b9563-4e24-4241-945c-c420eba6d456","system_id":"levelo_inurba_marseille","lat":43.28458,"lon":5.35899,"is_reserved":false,"is_disabled":false,"rental_uris":{"android":"levelo://app?vid=a31b9563-4e24-4241-945c-c420eba6d456","ios":"levelo://app?vid=a31b9563-4e24-4241-945c-c420eba6d456"},"vehicle_type_id":"4","last_reported":1740762508,"current_range_meters":4400,"station_id":"ce4bhah2rcd13ifvqei0","pricing_plan_id":"cebpf4jnsgd1na2vs0mg"},{"bike_id":"c788a4de-23d9-4e7c-b2eb-c283cc147747","system_id":"levelo_inurba_marseille","lat":43.28343,"lon":5.38101,"is_reserved":false,"is_disabled":false,"rental_uris":{"android":"levelo://app?vid=c788a4de-23d9-4e7c-b2eb-c283cc147747","ios":"levelo://app?vid=c788a4de-23d9-4e7c-b2eb-c283cc147747"},"vehicle_type_id":"4","last_reported":1740762508,"current_range_meters":4400,"station_id":"ce4bh412rcd13ifvqdr0","pricing_plan_id":"cebpf4jnsgd1na2vs0mg"},{"bike_id":"f0196df5-865d-4411-92e5-fa7cf23e09f3","system_id":"levelo_inurba_marseille","lat":43.30602,"lon":5.3934,"is_reserved":false,"is_disabled":false,"rental_uris":{"android":"levelo://app?vid=f0196df5-865d-4411-92e5-fa7cf23e09f3","ios":"levelo://app?vid=f0196df5-865d-4411-92e5-fa7cf23e09f3"},"vehicle_type_id":"4","last_reported":1740762508,"current_range_meters":4800,"station_id":"ce4bh0p2rcd13ifvqd80","pricing_plan_id":"cebpf4jnsgd1na2vs0mg"},{"bike_id":"43c32004-94fe-4598-87ba-734917dbcf43","system_id":"levelo_inurba_marseille","lat":43.29264,"lon":5.37634,"is_reserved":false,"is_disabled":false,"rental_uris":{"android":"levelo://app?vid=43c32004-94fe-4598-87ba-734917dbcf43","ios":"levelo://app?vid=43c32004-94fe-4598-87ba-734917dbcf43"},"vehicle_type_id":"4","last_reported":1740762508,"current_range_meters":4800,"station_id":"ce4bgi12rcd13ifvqb80","pricing_plan_id":"cebpf4jnsgd1na2vs0mg"},{"bike_id":"8a72fd36-7518-4e8b-90c3-294112d9307e","system_id":"levelo_inurba_marseille","lat":43.24742,"lon":5.41162,"is_reserved":false,"is_disabled":false,"rental_uris":{"android":"levelo://app?vid=8a72fd36-7518-4e8b-90c3-294112d9307e","ios":"levelo://app?vid=8a72fd36-7518-4e8b-90c3-294112d9307e"},"vehicle_type_id":"4","last_reported":1740762508,"current_range_meters":4800,"station_id":"","pricing_plan_id":"cebpf4jnsgd1na2vs0mg"},{"bike_id":"0de1b41b-90bb-45cd-b36a-bab9cba14eee","system_id":"levelo_inurba_marseille","lat":43.28695,"lon":5.37394,"is_reserved":false,"is_disabled":false,"rental_uris":{"android":"levelo://app?vid=0de1b41b-90bb-45cd-b36a-bab9cba14eee","ios":"levelo://app?vid=0de1b41b-90bb-45cd-b36a-bab9cba14eee"},"vehicle_type_id":"4","last_reported":1740762508,"current_range_meters":4800,"station_id":"ce4bh3p2rcd13ifvqdq0","pricing_plan_id":"cebpf4jnsgd1na2vs0mg"},{"bike_id":"7e47b8ad-81ca-4b17-b3cc-0d0f1a2a4815","system_id":"levelo_inurba_marseille","lat":43.27612,"lon":5.36116,"is_reserved":false,"is_disabled":false,"rental_uris":{"android":"levelo://app?vid=7e47b8ad-81ca-4b17-b3cc-0d0f1a2a4815","ios":"levelo://app?vid=7e47b8ad-81ca-4b17-b3cc-0d0f1a2a4815"},"vehicle_type_id":"4","last_reported":1740762508,"current_range_meters":4800,"station_id":"ce4bgj92rcd13ifvqbe0","pricing_plan_id":"cebpf4jnsgd1na2vs0mg"},{"bike_id":"f487088e-7433-4e52-ad52-6fb8d2f6e6f8","system_id":"levelo_inurba_marseille","lat":43.30424,"lon":5.41284,"is_reserved":false,"is_disabled":false,"rental_uris":{"android":"levelo://app?vid=f487088e-7433-4e52-ad52-6fb8d2f6e6f8","ios":"levelo://app?vid=f487088e-7433-4e52-ad52-6fb8d2f6e6f8"},"vehicle_type_id":"4","last_reported":1740762508,"current_range_meters":4800,"station_id":"ce4bhop2rcd13ifvqh8g","pricing_plan_id":"cebpf4jnsgd1na2vs0mg"},{"bike_id":"3213d89e-51d9-44b4-9b5d-0d1fc0990b7d","system_id":"levelo_inurba_marseille","lat":43.2737,"lon":5.36239,"is_reserved":false,"is_disabled":false,"rental_uris":{"android":"levelo://app?vid=3213d89e-51d9-44b4-9b5d-0d1fc0990b7d","ios":"levelo://app?vid=3213d89e-51d9-44b4-9b5d-0d1fc0990b7d"},"vehicle_type_id":"4","last_reported":1740762508,"current_range_meters":5600,"station_id":"ce4bhbh2rcd13ifvqeo0","pricing_plan_id":"cebpf4jnsgd1na2vs0mg"},{"bike_id":"e7586cea-74d2-40fc-bd3c-cb14c7ba7506","system_id":"levelo_inurba_marseille","lat":43.29586,"lon":5.37509,"is_reserved":false,"is_disabled":false,"rental_uris":{"android":"levelo://app?vid=e7586cea-74d2-40fc-bd3c-cb14c7ba7506","ios":"levelo://app?vid=e7586cea-74d2-40fc-bd3c-cb14c7ba7506"},"vehicle_type_id":"4","last_reported":1740762508,"current_range_meters":6000,"station_id":"ce4bgh92rcd13ifvqb50","pricing_plan_id":"cebpf4jnsgd1na2vs0mg"},{"bike_id":"2a25b51c-78ff-46de-9b5b-ba9f06e974ae","system_id":"levelo_inurba_marseille","lat":43.29363,"lon":5.37847,"is_reserved":false,"is_disabled":false,"rental_uris":{"android":"levelo://app?vid=2a25b51c-78ff-46de-9b5b-ba9f06e974ae","ios":"levelo://app?vid=2a25b51c-78ff-46de-9b5b-ba9f06e974ae"},"vehicle_type_id":"4","last_reported":1740762508,"current_range_meters":6000,"station_id":"ce4bgjh2rcd13ifvqbf0","pricing_plan_id":"cebpf4jnsgd1na2vs0mg"},{"bike_id":"9bb38112-ed29-48ff-a018-d0bc52b50edd","system_id":"levelo_inurba_marseille","lat":43.29791,"lon":5.38112,"is_reserved":false,"is_disabled":false,"rental_uris":{"android":"levelo://app?vid=9bb38112-ed29-48ff-a018-d0bc52b50edd","ios":"levelo://app?vid=9bb38112-ed29-48ff-a018-d0bc52b50edd"},"vehicle_type_id":"4","last_reported":1740762508,"current_range_meters":5600,"station_id":"ce4bgip2rcd13ifvqbb0","pricing_plan_id":"cebpf4jnsgd1na2vs0mg"},{"bike_id":"7714ebf7-a785-40d7-8f01-4d8999005ff5","system_id":"levelo_inurba_marseille","lat":43.31065,"lon":5.3836,"is_reserved":false,"is_disabled":false,"rental_uris":{"android":"levelo://app?vid=7714ebf7-a785-40d7-8f01-4d8999005ff5","ios":"levelo://app?vid=7714ebf7-a785-40d7-8f01-4d8999005ff5"},"vehicle_type_id":"4","last_reported":1740762508,"current_range_meters":6000,"station_id":"ce4bgv92rcd13ifvqcr0","pricing_plan_id":"cebpf4jnsgd1na2vs0mg"},{"bike_id":"a77b1aa1-8c99-4e8c-8bdf-9c348e406778","system_id":"levelo_inurba_marseille","lat":43.30539,"lon":5.36719,"is_reserved":false,"is_disabled":false,"rental_uris":{"android":"levelo://app?vid=a77b1aa1-8c99-4e8c-8bdf-9c348e406778","ios":"levelo://app?vid=a77b1aa1-8c99-4e8c-8bdf-9c348e406778"},"vehicle_type_id":"4","last_reported":1740762508,"current_range_meters":5600,"station_id":"ce4bgrp2rcd13ifvqc9g","pricing_plan_id":"cebpf4jnsgd1na2vs0mg"},{"bike_id":"baa4f0c2-1367-415a-8de6-ed404d46bb66","system_id":"levelo_inurba_marseille","lat":43.24652,"lon":5.38894,"is_reserved":false,"is_disabled":false,"rental_uris":{"android":"levelo://app?vid=baa4f0c2-1367-415a-8de6-ed404d46bb66","ios":"levelo://app?vid=baa4f0c2-1367-415a-8de6-ed404d46bb66"},"vehicle_type_id":"4","last_reported":1740762508,"current_range_meters":6000,"station_id":"ce4bhg12rcd13ifvqf60","pricing_plan_id":"cebpf4jnsgd1na2vs0mg"},{"bike_id":"54a667ee-6d08-4b96-a85f-315a744d7be3","system_id":"levelo_inurba_marseille","lat":43.30797,"lon":5.43528,"is_reserved":false,"is_disabled":false,"rental_uris":{"android":"levelo://app?vid=54a667ee-6d08-4b96-a85f-315a744d7be3","ios":"levelo://app?vid=54a667ee-6d08-4b96-a85f-315a744d7be3"},"vehicle_type_id":"4","last_reported":1740762508,"current_range_meters":10000,"station_id":"ce4bhph2rcd13ifvqheg","pricing_plan_id":"cebpf4jnsgd1na2vs0mg"},{"bike_id":"07f7cd25-3783-48d4-ba50-1cd1f95fd0ec","system_id":"levelo_inurba_marseille","lat":43.29169,"lon":5.37144,"is_reserved":false,"is_disabled":false,"rental_uris":{"android":"levelo://app?vid=07f7cd25-3783-48d4-ba50-1cd1f95fd0ec","ios":"levelo://app?vid=07f7cd25-3783-48d4-ba50-1cd1f95fd0ec"},"vehicle_type_id":"4","last_reported":1740762508,"current_range_meters":6000,"station_id":"ce4bha92rcd13ifvqeh0","pricing_plan_id":"cebpf4jnsgd1na2vs0mg"},{"bike_id":"57f2e04c-4903-4ea5-8b21-d69bbc0f6fa6","system_id":"levelo_inurba_marseille","lat":43.29026,"lon":5.39977,"is_reserved":false,"is_disabled":false,"rental_uris":{"android":"levelo://app?vid=57f2e04c-4903-4ea5-8b21-d69bbc0f6fa6","ios":"levelo://app?vid=57f2e04c-4903-4ea5-8b21-d69bbc0f6fa6"},"vehicle_type_id":"4","last_reported":1740762508,"current_range_meters":6400,"station_id":"ce4bh392rcd13ifvqdm0","pricing_plan_id":"cebpf4jnsgd1na2vs0mg"},{"bike_id":"a402dcb0-63b6-4569-b9e8-ad825500c3f8","system_id":"levelo_inurba_marseille","lat":43.29013,"lon":5.35918,"is_reserved":false,"is_disabled":false,"rental_uris":{"android":"levelo://app?vid=a402dcb0-63b6-4569-b9e8-ad825500c3f8","ios":"levelo://app?vid=a402dcb0-63b6-4569-b9e8-ad825500c3f8"},"vehicle_type_id":"4","last_reported":1740762508,"current_range_meters":6000,"station_id":"","pricing_plan_id":"cebpf4jnsgd1na2vs0mg"},{"bike_id":"490e7fc6-a470-4269-a0d3-1806d7e0e81f","system_id":"levelo_inurba_marseille","lat":43.30273,"lon":5.37719,"is_reserved":false,"is_disabled":false,"rental_uris":{"android":"levelo://app?vid=490e7fc6-a470-4269-a0d3-1806d7e0e81f","ios":"levelo://app?vid=490e7fc6-a470-4269-a0d3-1806d7e0e81f"},"vehicle_type_id":"4","last_reported":1740762508,"current_range_meters":4000,"station_id":"ce4bguh2rcd13ifvqcj0","pricing_plan_id":"cebpf4jnsgd1na2vs0mg"},{"bike_id":"fd747008-1a4a-45eb-99b9-32aa9bf8d6e1","system_id":"levelo_inurba_marseille","lat":43.24646,"lon":5.38896,"is_reserved":false,"is_disabled":false,"rental_uris":{"android":"levelo://app?vid=fd747008-1a4a-45eb-99b9-32aa9bf8d6e1","ios":"levelo://app?vid=fd747008-1a4a-45eb-99b9-32aa9bf8d6e1"},"vehicle_type_id":"4","last_reported":1740762508,"current_range_meters":6400,"station_id":"ce4bhg12rcd13ifvqf60","pricing_plan_id":"cebpf4jnsgd1na2vs0mg"},{"bike_id":"b7135d4b-3834-48c3-9975-c2dedcf17318","system_id":"levelo_inurba_marseille","lat":43.2846,"lon":5.35887,"is_reserved":false,"is_disabled":false,"rental_uris":{"android":"levelo://app?vid=b7135d4b-3834-48c3-9975-c2dedcf17318","ios":"levelo://app?vid=b7135d4b-3834-48c3-9975-c2dedcf17318"},"vehicle_type_id":"4","last_reported":1740762508,"current_range_meters":6400,"station_id":"ce4bhah2rcd13ifvqei0","pricing_plan_id":"cebpf4jnsgd1na2vs0mg"},{"bike_id":"e61c558e-70bf-4486-b29e-74b2bb22ec44","system_id":"levelo_inurba_marseille","lat":43.25581,"lon":5.38252,"is_reserved":false,"is_disabled":false,"rental_uris":{"android":"levelo://app?vid=e61c558e-70bf-4486-b29e-74b2bb22ec44","ios":"levelo://app?vid=e61c558e-70bf-4486-b29e-74b2bb22ec44"},"vehicle_type_id":"4","last_reported":1740762508,"current_range_meters":6800,"station_id":"ce4bhih2rcd13ifvqfs0","pricing_plan_id":"cebpf4jnsgd1na2vs0mg"},{"bike_id":"b9a3c178-dfdf-4b26-a5a3-dd0dd2869b8b","system_id":"levelo_inurba_marseille","lat":43.31712,"lon":5.37744,"is_reserved":false,"is_disabled":false,"rental_uris":{"android":"levelo://app?vid=b9a3c178-dfdf-4b26-a5a3-dd0dd2869b8b","ios":"levelo://app?vid=b9a3c178-dfdf-4b26-a5a3-dd0dd2869b8b"},"vehicle_type_id":"4","last_reported":1740762508,"current_range_meters":6400,"station_id":"ce4bgth2rcd13ifvqch0","pricing_plan_id":"cebpf4jnsgd1na2vs0mg"},{"bike_id":"8dea0861-aa39-4e67-8048-48c592f4b141","system_id":"levelo_inurba_marseille","lat":43.27998,"lon":5.40017,"is_reserved":false,"is_disabled":false,"rental_uris":{"android":"levelo://app?vid=8dea0861-aa39-4e67-8048-48c592f4b141","ios":"levelo://app?vid=8dea0861-aa39-4e67-8048-48c592f4b141"},"vehicle_type_id":"4","last_reported":1740762508,"current_range_meters":6400,"station_id":"ce4bho92rcd13ifvqh4g","pricing_plan_id":"cebpf4jnsgd1na2vs0mg"},{"bike_id":"f5ae325b-0951-4d75-ab24-a98aae53fd0a","system_id":"levelo_inurba_marseille","lat":43.28415,"lon":5.34979,"is_reserved":false,"is_disabled":false,"rental_uris":{"android":"levelo://app?vid=f5ae325b-0951-4d75-ab24-a98aae53fd0a","ios":"levelo://app?vid=f5ae325b-0951-4d75-ab24-a98aae53fd0a"},"vehicle_type_id":"4","last_reported":1740762508,"current_range_meters":6400,"station_id":"ce4bhbh2rcd13ifvqepg","pricing_plan_id":"cebpf4jnsgd1na2vs0mg"},{"bike_id":"1c969825-c3bf-446b-b0c8-1ed557834a24","system_id":"levelo_inurba_marseille","lat":43.2846,"lon":5.35886,"is_reserved":false,"is_disabled":false,"rental_uris":{"android":"levelo://app?vid=1c969825-c3bf-446b-b0c8-1ed557834a24","ios":"levelo://app?vid=1c969825-c3bf-446b-b0c8-1ed557834a24"},"vehicle_type_id":"4","last_reported":1740762508,"current_range_meters":6400,"station_id":"ce4bhah2rcd13ifvqei0","pricing_plan_id":"cebpf4jnsgd1na2vs0mg"},{"bike_id":"7014c432-abbd-4d0c-a544-4b85583b8686","system_id":"levelo_inurba_marseille","lat":43.29091,"lon":5.38147,"is_reserved":false,"is_disabled":false,"rental_uris":{"android":"levelo://app?vid=7014c432-abbd-4d0c-a544-4b85583b8686","ios":"levelo://app?vid=7014c432-abbd-4d0c-a544-4b85583b8686"},"vehicle_type_id":"4","last_reported":1740762508,"current_range_meters":6400,"station_id":"ce4bh512rcd13ifvqe2g","pricing_plan_id":"cebpf4jnsgd1na2vs0mg"},{"bike_id":"2a5ea275-faed-49f6-8439-54255ad7499b","system_id":"levelo_inurba_marseille","lat":43.29003,"lon":5.35614,"is_reserved":false,"is_disabled":false,"rental_uris":{"android":"levelo://app?vid=2a5ea275-faed-49f6-8439-54255ad7499b","ios":"levelo://app?vid=2a5ea275-faed-49f6-8439-54255ad7499b"},"vehicle_type_id":"4","last_reported":1740762508,"current_range_meters":6000,"station_id":"ce4bhb92rcd13ifvqen0","pricing_plan_id":"cebpf4jnsgd1na2vs0mg"},{"bike_id":"89a7517e-6658-46c5-a615-9e427ec79029","system_id":"levelo_inurba_marseille","lat":43.25715,"lon":5.41797,"is_reserved":false,"is_disabled":false,"rental_uris":{"android":"levelo://app?vid=89a7517e-6658-46c5-a615-9e427ec79029","ios":"levelo://app?vid=89a7517e-6658-46c5-a615-9e427ec79029"},"vehicle_type_id":"4","last_reported":1740762508,"current_range_meters":3200,"station_id":"","pricing_plan_id":"cebpf4jnsgd1na2vs0mg"},{"bike_id":"c3b9d76e-ecb5-4f62-9ef6-02fa1d8cf1ad","system_id":"levelo_inurba_marseille","lat":43.29063,"lon":5.35587,"is_reserved":false,"is_disabled":true,"rental_uris":{"android":"levelo://app?vid=c3b9d76e-ecb5-4f62-9ef6-02fa1d8cf1ad","ios":"levelo://app?vid=c3b9d76e-ecb5-4f62-9ef6-02fa1d8cf1ad"},"vehicle_type_id":"4","last_reported":1740762508,"current_range_meters":6400,"station_id":"","pricing_plan_id":"cebpf4jnsgd1na2vs0mg"},{"bike_id":"91bec8cf-da50-4779-bacb-d87920308f47","system_id":"levelo_inurba_marseille","lat":43.294389,"lon":5.397459,"is_reserved":false,"is_disabled":false,"rental_uris":{"android":"levelo://app?vid=91bec8cf-da50-4779-bacb-d87920308f47","ios":"levelo://app?vid=91bec8cf-da50-4779-bacb-d87920308f47"},"vehicle_type_id":"4","last_reported":1740762508,"current_range_meters":4800,"station_id":"ce4bh292rcd13ifvqdg0","pricing_plan_id":"cebpf4jnsgd1na2vs0mg"},{"bike_id":"5e0e22b0-e973-48d0-8bed-a771273f721a","system_id":"levelo_inurba_marseille","lat":43.27378,"lon":5.36237,"is_reserved":false,"is_disabled":false,"rental_uris":{"android":"levelo://app?vid=5e0e22b0-e973-48d0-8bed-a771273f721a","ios":"levelo://app?vid=5e0e22b0-e973-48d0-8bed-a771273f721a"},"vehicle_type_id":"4","last_reported":1740762508,"current_range_meters":6800,"station_id":"ce4bhbh2rcd13ifvqeo0","pricing_plan_id":"cebpf4jnsgd1na2vs0mg"},{"bike_id":"96ed44dc-ddc8-4f71-982d-539ef467fdaf","system_id":"levelo_inurba_marseille","lat":43.28683,"lon":5.38657,"is_reserved":false,"is_disabled":false,"rental_uris":{"android":"levelo://app?vid=96ed44dc-ddc8-4f71-982d-539ef467fdaf","ios":"levelo://app?vid=96ed44dc-ddc8-4f71-982d-539ef467fdaf"},"vehicle_type_id":"4","last_reported":1740762508,"current_range_meters":6800,"station_id":"ce4bh492rcd13ifvqdug","pricing_plan_id":"cebpf4jnsgd1na2vs0mg"},{"bike_id":"57efed4d-3019-4c72-8315-237983d3c89e","system_id":"levelo_inurba_marseille","lat":43.28957,"lon":5.36395,"is_reserved":false,"is_disabled":false,"rental_uris":{"android":"levelo://app?vid=57efed4d-3019-4c72-8315-237983d3c89e","ios":"levelo://app?vid=57efed4d-3019-4c72-8315-237983d3c89e"},"vehicle_type_id":"4","last_reported":1740762508,"current_range_meters":6800,"station_id":"ce4bhc92rcd13ifvqetg","pricing_plan_id":"cebpf4jnsgd1na2vs0mg"},{"bike_id":"701026c9-526c-4cb4-a3a3-47c0faad2d8e","system_id":"levelo_inurba_marseille","lat":43.298661,"lon":5.397358,"is_reserved":false,"is_disabled":false,"rental_uris":{"android":"levelo://app?vid=701026c9-526c-4cb4-a3a3-47c0faad2d8e","ios":"levelo://app?vid=701026c9-526c-4cb4-a3a3-47c0faad2d8e"},"vehicle_type_id":"4","last_reported":1740762508,"current_range_meters":6800,"station_id":"ce4bh0h2rcd13ifvqd50","pricing_plan_id":"cebpf4jnsgd1na2vs0mg"},{"bike_id":"4e21c123-fed3-4db6-ad81-45cccdae0542","system_id":"levelo_inurba_marseille","lat":43.24167,"lon":5.36413,"is_reserved":false,"is_disabled":true,"rental_uris":{"android":"levelo://app?vid=4e21c123-fed3-4db6-ad81-45cccdae0542","ios":"levelo://app?vid=4e21c123-fed3-4db6-ad81-45cccdae0542"},"vehicle_type_id":"4","last_reported":1740762508,"current_range_meters":6400,"station_id":"cpo36qri1sfpv3e86is0","pricing_plan_id":"cebpf4jnsgd1na2vs0mg"},{"bike_id":"a907bf55-fa14-4e1c-bda1-c3c5af387aee","system_id":"levelo_inurba_marseille","lat":43.26215,"lon":5.37437,"is_reserved":false,"is_disabled":false,"rental_uris":{"android":"levelo://app?vid=a907bf55-fa14-4e1c-bda1-c3c5af387aee","ios":"levelo://app?vid=a907bf55-fa14-4e1c-bda1-c3c5af387aee"},"vehicle_type_id":"4","last_reported":1740762508,"current_range_meters":5600,"station_id":"ce4bhgp2rcd13ifvqfc0","pricing_plan_id":"cebpf4jnsgd1na2vs0mg"},{"bike_id":"93ac7207-ef75-4b8e-a682-97b854a04b05","system_id":"levelo_inurba_marseille","lat":43.31368,"lon":5.38496,"is_reserved":false,"is_disabled":false,"rental_uris":{"android":"levelo://app?vid=93ac7207-ef75-4b8e-a682-97b854a04b05","ios":"levelo://app?vid=93ac7207-ef75-4b8e-a682-97b854a04b05"},"vehicle_type_id":"4","last_reported":1740762508,"current_range_meters":7200,"station_id":"ce4bgt92rcd13ifvqcf0","pricing_plan_id":"cebpf4jnsgd1na2vs0mg"},{"bike_id":"c92539cc-8019-4544-8354-9dadb7a95e21","system_id":"levelo_inurba_marseille","lat":43.28842,"lon":5.39321,"is_reserved":false,"is_disabled":false,"rental_uris":{"android":"levelo://app?vid=c92539cc-8019-4544-8354-9dadb7a95e21","ios":"levelo://app?vid=c92539cc-8019-4544-8354-9dadb7a95e21"},"vehicle_type_id":"4","last_reported":1740762508,"current_range_meters":6800,"station_id":"ce4bh2p2rcd13ifvqdi0","pricing_plan_id":"cebpf4jnsgd1na2vs0mg"},{"bike_id":"357294cf-b295-4d7f-85a5-56cf7ff584dd","system_id":"levelo_inurba_marseille","lat":43.29565,"lon":5.37517,"is_reserved":false,"is_disabled":false,"rental_uris":{"android":"levelo://app?vid=357294cf-b295-4d7f-85a5-56cf7ff584dd","ios":"levelo://app?vid=357294cf-b295-4d7f-85a5-56cf7ff584dd"},"vehicle_type_id":"4","last_reported":1740762508,"current_range_meters":8000,"station_id":"ce4bgh92rcd13ifvqb50","pricing_plan_id":"cebpf4jnsgd1na2vs0mg"},{"bike_id":"5f95bd87-4afa-49ef-aeff-25620f3dd3b2","system_id":"levelo_inurba_marseille","lat":43.31264,"lon":5.4017,"is_reserved":false,"is_disabled":false,"rental_uris":{"android":"levelo://app?vid=5f95bd87-4afa-49ef-aeff-25620f3dd3b2","ios":"levelo://app?vid=5f95bd87-4afa-49ef-aeff-25620f3dd3b2"},"vehicle_type_id":"4","last_reported":1740762508,"current_range_meters":7200,"station_id":"ce4bh092rcd13ifvqd30","pricing_plan_id":"cebpf4jnsgd1na2vs0mg"},{"bike_id":"048889bf-861b-45fc-8e8b-55d474c3801a","system_id":"levelo_inurba_marseille","lat":43.28618,"lon":5.35098,"is_reserved":false,"is_disabled":false,"rental_uris":{"android":"levelo://app?vid=048889bf-861b-45fc-8e8b-55d474c3801a","ios":"levelo://app?vid=048889bf-861b-45fc-8e8b-55d474c3801a"},"vehicle_type_id":"4","last_reported":1740762508,"current_range_meters":7200,"station_id":"ce4bhch2rcd13ifvqeug","pricing_plan_id":"cebpf4jnsgd1na2vs0mg"},{"bike_id":"eb5abb84-d8ff-4beb-97b2-eeb5619da53f","system_id":"levelo_inurba_marseille","lat":43.2815,"lon":5.42639,"is_reserved":false,"is_disabled":false,"rental_uris":{"android":"levelo://app?vid=eb5abb84-d8ff-4beb-97b2-eeb5619da53f","ios":"levelo://app?vid=eb5abb84-d8ff-4beb-97b2-eeb5619da53f"},"vehicle_type_id":"4","last_reported":1740762508,"current_range_meters":6800,"station_id":"ce4bhnh2rcd13ifvqgug","pricing_plan_id":"cebpf4jnsgd1na2vs0mg"},{"bike_id":"4c3cbff4-8fcd-449f-9462-8524115108b2","system_id":"levelo_inurba_marseille","lat":43.26203,"lon":5.37923,"is_reserved":false,"is_disabled":false,"rental_uris":{"android":"levelo://app?vid=4c3cbff4-8fcd-449f-9462-8524115108b2","ios":"levelo://app?vid=4c3cbff4-8fcd-449f-9462-8524115108b2"},"vehicle_type_id":"4","last_reported":1740762508,"current_range_meters":7200,"station_id":"ce4bhjp2rcd13ifvqg90","pricing_plan_id":"cebpf4jnsgd1na2vs0mg"},{"bike_id":"6452e9b8-2bdd-4b52-9cfc-d53425a1ea67","system_id":"levelo_inurba_marseille","lat":43.26503,"lon":5.39565,"is_reserved":false,"is_disabled":false,"rental_uris":{"android":"levelo://app?vid=6452e9b8-2bdd-4b52-9cfc-d53425a1ea67","ios":"levelo://app?vid=6452e9b8-2bdd-4b52-9cfc-d53425a1ea67"},"vehicle_type_id":"4","last_reported":1740762508,"current_range_meters":5600,"station_id":"ce4bhi12rcd13ifvqfq0","pricing_plan_id":"cebpf4jnsgd1na2vs0mg"},{"bike_id":"b1636e21-58f4-4e5e-af95-15fc09faa409","system_id":"levelo_inurba_marseille","lat":43.28357,"lon":5.38096,"is_reserved":false,"is_disabled":false,"rental_uris":{"android":"levelo://app?vid=b1636e21-58f4-4e5e-af95-15fc09faa409","ios":"levelo://app?vid=b1636e21-58f4-4e5e-af95-15fc09faa409"},"vehicle_type_id":"4","last_reported":1740762508,"current_range_meters":8000,"station_id":"ce4bh412rcd13ifvqdr0","pricing_plan_id":"cebpf4jnsgd1na2vs0mg"},{"bike_id":"03b9c765-b020-4f41-911d-c55b84f3ca81","system_id":"levelo_inurba_marseille","lat":43.29359,"lon":5.37849,"is_reserved":false,"is_disabled":false,"rental_uris":{"android":"levelo://app?vid=03b9c765-b020-4f41-911d-c55b84f3ca81","ios":"levelo://app?vid=03b9c765-b020-4f41-911d-c55b84f3ca81"},"vehicle_type_id":"4","last_reported":1740762508,"current_range_meters":6400,"station_id":"ce4bgjh2rcd13ifvqbf0","pricing_plan_id":"cebpf4jnsgd1na2vs0mg"},{"bike_id":"67ce8cfb-6f6b-425f-bc83-c1ca88627e6b","system_id":"levelo_inurba_marseille","lat":43.29261,"lon":5.37632,"is_reserved":false,"is_disabled":false,"rental_uris":{"android":"levelo://app?vid=67ce8cfb-6f6b-425f-bc83-c1ca88627e6b","ios":"levelo://app?vid=67ce8cfb-6f6b-425f-bc83-c1ca88627e6b"},"vehicle_type_id":"4","last_reported":1740762508,"current_range_meters":8400,"station_id":"ce4bgi12rcd13ifvqb80","pricing_plan_id":"cebpf4jnsgd1na2vs0mg"},{"bike_id":"74ac8b7f-f3ed-41d1-9814-269602a8adc4","system_id":"levelo_inurba_marseille","lat":43.32286,"lon":5.38268,"is_reserved":false,"is_disabled":false,"rental_uris":{"android":"levelo://app?vid=74ac8b7f-f3ed-41d1-9814-269602a8adc4","ios":"levelo://app?vid=74ac8b7f-f3ed-41d1-9814-269602a8adc4"},"vehicle_type_id":"4","last_reported":1740762508,"current_range_meters":8000,"station_id":"ce4bhr12rcd13ifvqhqg","pricing_plan_id":"cebpf4jnsgd1na2vs0mg"},{"bike_id":"17ddbbb5-11e9-4dea-8d48-8df35a23e77a","system_id":"levelo_inurba_marseille","lat":43.3175,"lon":5.39011,"is_reserved":false,"is_disabled":false,"rental_uris":{"android":"levelo://app?vid=17ddbbb5-11e9-4dea-8d48-8df35a23e77a","ios":"levelo://app?vid=17ddbbb5-11e9-4dea-8d48-8df35a23e77a"},"vehicle_type_id":"4","last_reported":1740762508,"current_range_meters":8000,"station_id":"ce4bhqp2rcd13ifvqhng","pricing_plan_id":"cebpf4jnsgd1na2vs0mg"},{"bike_id":"1d423b7c-95b0-4f07-a5c0-fe88800182f7","system_id":"levelo_inurba_marseille","lat":43.33119,"lon":5.38449,"is_reserved":false,"is_disabled":false,"rental_uris":{"android":"levelo://app?vid=1d423b7c-95b0-4f07-a5c0-fe88800182f7","ios":"levelo://app?vid=1d423b7c-95b0-4f07-a5c0-fe88800182f7"},"vehicle_type_id":"4","last_reported":1740762508,"current_range_meters":8000,"station_id":"","pricing_plan_id":"cebpf4jnsgd1na2vs0mg"},{"bike_id":"751e7859-cb05-4480-b21d-6cb359167f70","system_id":"levelo_inurba_marseille","lat":43.28039,"lon":5.36947,"is_reserved":false,"is_disabled":false,"rental_uris":{"android":"levelo://app?vid=751e7859-cb05-4480-b21d-6cb359167f70","ios":"levelo://app?vid=751e7859-cb05-4480-b21d-6cb359167f70"},"vehicle_type_id":"4","last_reported":1740762508,"current_range_meters":8000,"station_id":"ce4bha12rcd13ifvqef0","pricing_plan_id":"cebpf4jnsgd1na2vs0mg"},{"bike_id":"0e07936b-b5f4-4ce0-90ff-73c063994f1c","system_id":"levelo_inurba_marseille","lat":43.30491,"lon":5.37239,"is_reserved":false,"is_disabled":false,"rental_uris":{"android":"levelo://app?vid=0e07936b-b5f4-4ce0-90ff-73c063994f1c","ios":"levelo://app?vid=0e07936b-b5f4-4ce0-90ff-73c063994f1c"},"vehicle_type_id":"4","last_reported":1740762508,"current_range_meters":8000,"station_id":"","pricing_plan_id":"cebpf4jnsgd1na2vs0mg"},{"bike_id":"34da2345-4c21-45ae-94c4-a91830f85598","system_id":"levelo_inurba_marseille","lat":43.31096,"lon":5.42423,"is_reserved":false,"is_disabled":false,"rental_uris":{"android":"levelo://app?vid=34da2345-4c21-45ae-94c4-a91830f85598","ios":"levelo://app?vid=34da2345-4c21-45ae-94c4-a91830f85598"},"vehicle_type_id":"4","last_reported":1740762508,"current_range_meters":7200,"station_id":"ce4bhp92rcd13ifvqhag","pricing_plan_id":"cebpf4jnsgd1na2vs0mg"},{"bike_id":"f94a0c04-69d3-4f50-87e7-d1516da22390","system_id":"levelo_inurba_marseille","lat":43.3234,"lon":5.4063,"is_reserved":false,"is_disabled":false,"rental_uris":{"android":"levelo://app?vid=f94a0c04-69d3-4f50-87e7-d1516da22390","ios":"levelo://app?vid=f94a0c04-69d3-4f50-87e7-d1516da22390"},"vehicle_type_id":"4","last_reported":1740762508,"current_range_meters":8000,"station_id":"ce4bhq92rcd13ifvqhjg","pricing_plan_id":"cebpf4jnsgd1na2vs0mg"},{"bike_id":"a56382e5-76c7-4c06-be10-51490c8f3ddf","system_id":"levelo_inurba_marseille","lat":43.27617,"lon":5.36114,"is_reserved":false,"is_disabled":false,"rental_uris":{"android":"levelo://app?vid=a56382e5-76c7-4c06-be10-51490c8f3ddf","ios":"levelo://app?vid=a56382e5-76c7-4c06-be10-51490c8f3ddf"},"vehicle_type_id":"4","last_reported":1740762508,"current_range_meters":8000,"station_id":"ce4bgj92rcd13ifvqbe0","pricing_plan_id":"cebpf4jnsgd1na2vs0mg"},{"bike_id":"ef9246f6-a7af-4d7e-90b7-37d8da7bb09d","system_id":"levelo_inurba_marseille","lat":43.28154,"lon":5.42648,"is_reserved":false,"is_disabled":false,"rental_uris":{"android":"levelo://app?vid=ef9246f6-a7af-4d7e-90b7-37d8da7bb09d","ios":"levelo://app?vid=ef9246f6-a7af-4d7e-90b7-37d8da7bb09d"},"vehicle_type_id":"4","last_reported":1740762508,"current_range_meters":7200,"station_id":"ce4bhnh2rcd13ifvqgug","pricing_plan_id":"cebpf4jnsgd1na2vs0mg"},{"bike_id":"121f184f-90a0-4e66-9d33-06a22d0922f3","system_id":"levelo_inurba_marseille","lat":43.24169,"lon":5.36392,"is_reserved":false,"is_disabled":false,"rental_uris":{"android":"levelo://app?vid=121f184f-90a0-4e66-9d33-06a22d0922f3","ios":"levelo://app?vid=121f184f-90a0-4e66-9d33-06a22d0922f3"},"vehicle_type_id":"4","last_reported":1740762508,"current_range_meters":8400,"station_id":"cpo36qri1sfpv3e86is0","pricing_plan_id":"cebpf4jnsgd1na2vs0mg"},{"bike_id":"7d7c3645-a1b8-4cba-8ed4-36c4931e6932","system_id":"levelo_inurba_marseille","lat":43.25453,"lon":5.37851,"is_reserved":false,"is_disabled":false,"rental_uris":{"android":"levelo://app?vid=7d7c3645-a1b8-4cba-8ed4-36c4931e6932","ios":"levelo://app?vid=7d7c3645-a1b8-4cba-8ed4-36c4931e6932"},"vehicle_type_id":"4","last_reported":1740762508,"current_range_meters":8400,"station_id":"","pricing_plan_id":"cebpf4jnsgd1na2vs0mg"},{"bike_id":"159019e6-6e2d-422e-a225-f9e0404ffa88","system_id":"levelo_inurba_marseille","lat":43.289382,"lon":5.366441,"is_reserved":false,"is_disabled":false,"rental_uris":{"android":"levelo://app?vid=159019e6-6e2d-422e-a225-f9e0404ffa88","ios":"levelo://app?vid=159019e6-6e2d-422e-a225-f9e0404ffa88"},"vehicle_type_id":"4","last_reported":1740762508,"current_range_meters":8000,"station_id":"ce4bhap2rcd13ifvqek0","pricing_plan_id":"cebpf4jnsgd1na2vs0mg"},{"bike_id":"bea646a0-35f1-435c-ae74-38fb002ee5d3","system_id":"levelo_inurba_marseille","lat":43.298707,"lon":5.362971,"is_reserved":false,"is_disabled":false,"rental_uris":{"android":"levelo://app?vid=bea646a0-35f1-435c-ae74-38fb002ee5d3","ios":"levelo://app?vid=bea646a0-35f1-435c-ae74-38fb002ee5d3"},"vehicle_type_id":"4","last_reported":1740762508,"current_range_meters":10000,"station_id":"ce4bgpp2rcd13ifvqc3g","pricing_plan_id":"cebpf4jnsgd1na2vs0mg"},{"bike_id":"947a23a6-9d82-4d06-91c7-65c5f245d098","system_id":"levelo_inurba_marseille","lat":43.29932,"lon":5.3655,"is_reserved":false,"is_disabled":false,"rental_uris":{"android":"levelo://app?vid=947a23a6-9d82-4d06-91c7-65c5f245d098","ios":"levelo://app?vid=947a23a6-9d82-4d06-91c7-65c5f245d098"},"vehicle_type_id":"4","last_reported":1740762508,"current_range_meters":8800,"station_id":"ce4bgm92rcd13ifvqbr0","pricing_plan_id":"cebpf4jnsgd1na2vs0mg"},{"bike_id":"619398ee-1fd0-46aa-952b-9b70fed45d5f","system_id":"levelo_inurba_marseille","lat":43.27049,"lon":5.40273,"is_reserved":false,"is_disabled":false,"rental_uris":{"android":"levelo://app?vid=619398ee-1fd0-46aa-952b-9b70fed45d5f","ios":"levelo://app?vid=619398ee-1fd0-46aa-952b-9b70fed45d5f"},"vehicle_type_id":"4","last_reported":1740762508,"current_range_meters":8800,"station_id":"ce4bhk92rcd13ifvqgc0","pricing_plan_id":"cebpf4jnsgd1na2vs0mg"},{"bike_id":"d61b0c26-fcfe-408b-be8f-ed0fe76807a1","system_id":"levelo_inurba_marseille","lat":43.3025,"lon":5.39114,"is_reserved":false,"is_disabled":false,"rental_uris":{"android":"levelo://app?vid=d61b0c26-fcfe-408b-be8f-ed0fe76807a1","ios":"levelo://app?vid=d61b0c26-fcfe-408b-be8f-ed0fe76807a1"},"vehicle_type_id":"4","last_reported":1740762508,"current_range_meters":8800,"station_id":"","pricing_plan_id":"cebpf4jnsgd1na2vs0mg"},{"bike_id":"e2002dc7-8529-4007-bfdf-b903f22cf884","system_id":"levelo_inurba_marseille","lat":43.30803,"lon":5.43523,"is_reserved":false,"is_disabled":false,"rental_uris":{"android":"levelo://app?vid=e2002dc7-8529-4007-bfdf-b903f22cf884","ios":"levelo://app?vid=e2002dc7-8529-4007-bfdf-b903f22cf884"},"vehicle_type_id":"4","last_reported":1740762508,"current_range_meters":8400,"station_id":"ce4bhph2rcd13ifvqheg","pricing_plan_id":"cebpf4jnsgd1na2vs0mg"},{"bike_id":"13a25ae7-e821-439b-afbc-3c32c17de936","system_id":"levelo_inurba_marseille","lat":43.27996,"lon":5.40031,"is_reserved":false,"is_disabled":false,"rental_uris":{"android":"levelo://app?vid=13a25ae7-e821-439b-afbc-3c32c17de936","ios":"levelo://app?vid=13a25ae7-e821-439b-afbc-3c32c17de936"},"vehicle_type_id":"4","last_reported":1740762508,"current_range_meters":8800,"station_id":"ce4bho92rcd13ifvqh4g","pricing_plan_id":"cebpf4jnsgd1na2vs0mg"},{"bike_id":"c378f726-37cf-4c4e-9b89-d4c24e05d0ac","system_id":"levelo_inurba_marseille","lat":43.28421,"lon":5.35002,"is_reserved":false,"is_disabled":false,"rental_uris":{"android":"levelo://app?vid=c378f726-37cf-4c4e-9b89-d4c24e05d0ac","ios":"levelo://app?vid=c378f726-37cf-4c4e-9b89-d4c24e05d0ac"},"vehicle_type_id":"4","last_reported":1740762508,"current_range_meters":8800,"station_id":"ce4bhbh2rcd13ifvqepg","pricing_plan_id":"cebpf4jnsgd1na2vs0mg"},{"bike_id":"44a48d6d-00f7-495a-b391-507b5c0d2b99","system_id":"levelo_inurba_marseille","lat":43.3035,"lon":5.41876,"is_reserved":false,"is_disabled":false,"rental_uris":{"android":"levelo://app?vid=44a48d6d-00f7-495a-b391-507b5c0d2b99","ios":"levelo://app?vid=44a48d6d-00f7-495a-b391-507b5c0d2b99"},"vehicle_type_id":"4","last_reported":1740762508,"current_range_meters":8400,"station_id":"ce4bhop2rcd13ifvqh7g","pricing_plan_id":"cebpf4jnsgd1na2vs0mg"},{"bike_id":"0ef9bab2-0577-4e44-987e-b396fab73567","system_id":"levelo_inurba_marseille","lat":43.27621,"lon":5.36109,"is_reserved":false,"is_disabled":false,"rental_uris":{"android":"levelo://app?vid=0ef9bab2-0577-4e44-987e-b396fab73567","ios":"levelo://app?vid=0ef9bab2-0577-4e44-987e-b396fab73567"},"vehicle_type_id":"4","last_reported":1740762508,"current_range_meters":8800,"station_id":"ce4bgj92rcd13ifvqbe0","pricing_plan_id":"cebpf4jnsgd1na2vs0mg"},{"bike_id":"dade4a91-0320-485f-9863-3b3bed4cdcd2","system_id":"levelo_inurba_marseille","lat":43.29579,"lon":5.36743,"is_reserved":false,"is_disabled":false,"rental_uris":{"android":"levelo://app?vid=dade4a91-0320-485f-9863-3b3bed4cdcd2","ios":"levelo://app?vid=dade4a91-0320-485f-9863-3b3bed4cdcd2"},"vehicle_type_id":"4","last_reported":1740762508,"current_range_meters":9200,"station_id":"ce4bgph2rcd13ifvqc2g","pricing_plan_id":"cebpf4jnsgd1na2vs0mg"},{"bike_id":"7739bec0-a54b-475f-8d31-7a7d84e6e158","system_id":"levelo_inurba_marseille","lat":43.28354,"lon":5.38106,"is_reserved":false,"is_disabled":false,"rental_uris":{"android":"levelo://app?vid=7739bec0-a54b-475f-8d31-7a7d84e6e158","ios":"levelo://app?vid=7739bec0-a54b-475f-8d31-7a7d84e6e158"},"vehicle_type_id":"4","last_reported":1740762508,"current_range_meters":8800,"station_id":"ce4bh412rcd13ifvqdr0","pricing_plan_id":"cebpf4jnsgd1na2vs0mg"},{"bike_id":"47726b75-0d3e-44b4-80be-f2aaa44b8723","system_id":"levelo_inurba_marseille","lat":43.27995,"lon":5.41664,"is_reserved":false,"is_disabled":false,"rental_uris":{"android":"levelo://app?vid=47726b75-0d3e-44b4-80be-f2aaa44b8723","ios":"levelo://app?vid=47726b75-0d3e-44b4-80be-f2aaa44b8723"},"vehicle_type_id":"4","last_reported":1740762508,"current_range_meters":8800,"station_id":"ce4bho12rcd13ifvqh1g","pricing_plan_id":"cebpf4jnsgd1na2vs0mg"},{"bike_id":"fadd3e26-6605-45b6-87d1-543673adaa29","system_id":"levelo_inurba_marseille","lat":43.330224,"lon":5.390382,"is_reserved":false,"is_disabled":false,"rental_uris":{"android":"levelo://app?vid=fadd3e26-6605-45b6-87d1-543673adaa29","ios":"levelo://app?vid=fadd3e26-6605-45b6-87d1-543673adaa29"},"vehicle_type_id":"4","last_reported":1740762508,"current_range_meters":8800,"station_id":"ce4bhr92rcd13ifvqhrg","pricing_plan_id":"cebpf4jnsgd1na2vs0mg"},{"bike_id":"3de9aeda-1f9a-4bbc-8b90-e02a49e56ca9","system_id":"levelo_inurba_marseille","lat":43.23189,"lon":5.35558,"is_reserved":false,"is_disabled":false,"rental_uris":{"android":"levelo://app?vid=3de9aeda-1f9a-4bbc-8b90-e02a49e56ca9","ios":"levelo://app?vid=3de9aeda-1f9a-4bbc-8b90-e02a49e56ca9"},"vehicle_type_id":"4","last_reported":1740762508,"current_range_meters":8800,"station_id":"ce4bhu92rcd13ifvqi70","pricing_plan_id":"cebpf4jnsgd1na2vs0mg"},{"bike_id":"4e558766-0131-495b-b827-8f9514d68a2a","system_id":"levelo_inurba_marseille","lat":43.25493,"lon":5.37649,"is_reserved":false,"is_disabled":false,"rental_uris":{"android":"levelo://app?vid=4e558766-0131-495b-b827-8f9514d68a2a","ios":"levelo://app?vid=4e558766-0131-495b-b827-8f9514d68a2a"},"vehicle_type_id":"4","last_reported":1740762508,"current_range_meters":8400,"station_id":"ce4bhh12rcd13ifvqff0","pricing_plan_id":"cebpf4jnsgd1na2vs0mg"},{"bike_id":"dab3b5a2-4bf0-40c8-bde3-34d0de423253","system_id":"levelo_inurba_marseille","lat":43.29629,"lon":5.3774,"is_reserved":false,"is_disabled":false,"rental_uris":{"android":"levelo://app?vid=dab3b5a2-4bf0-40c8-bde3-34d0de423253","ios":"levelo://app?vid=dab3b5a2-4bf0-40c8-bde3-34d0de423253"},"vehicle_type_id":"4","last_reported":1740762508,"current_range_meters":8800,"station_id":"ce4bgi92rcd13ifvqb90","pricing_plan_id":"cebpf4jnsgd1na2vs0mg"},{"bike_id":"7afff6e0-e7c3-4527-b3fe-4456ecc9303b","system_id":"levelo_inurba_marseille","lat":43.30783,"lon":5.3764,"is_reserved":false,"is_disabled":false,"rental_uris":{"android":"levelo://app?vid=7afff6e0-e7c3-4527-b3fe-4456ecc9303b","ios":"levelo://app?vid=7afff6e0-e7c3-4527-b3fe-4456ecc9303b"},"vehicle_type_id":"4","last_reported":1740762508,"current_range_meters":8800,"station_id":"ce4bgv92rcd13ifvqcq0","pricing_plan_id":"cebpf4jnsgd1na2vs0mg"},{"bike_id":"c66536df-db1d-4419-9c42-301c3dd6c23c","system_id":"levelo_inurba_marseille","lat":43.31433,"lon":5.36952,"is_reserved":false,"is_disabled":false,"rental_uris":{"android":"levelo://app?vid=c66536df-db1d-4419-9c42-301c3dd6c23c","ios":"levelo://app?vid=c66536df-db1d-4419-9c42-301c3dd6c23c"},"vehicle_type_id":"4","last_reported":1740762508,"current_range_meters":9200,"station_id":"","pricing_plan_id":"cebpf4jnsgd1na2vs0mg"},{"bike_id":"80836df6-052c-4bcc-9fb8-ff6999fcd234","system_id":"levelo_inurba_marseille","lat":43.27176,"lon":5.40994,"is_reserved":false,"is_disabled":false,"rental_uris":{"android":"levelo://app?vid=80836df6-052c-4bcc-9fb8-ff6999fcd234","ios":"levelo://app?vid=80836df6-052c-4bcc-9fb8-ff6999fcd234"},"vehicle_type_id":"4","last_reported":1740762508,"current_range_meters":9200,"station_id":"ce4bhl12rcd13ifvqgf0","pricing_plan_id":"cebpf4jnsgd1na2vs0mg"},{"bike_id":"08eead74-da0c-4ce9-9af8-c3212eb58cf9","system_id":"levelo_inurba_marseille","lat":43.23949,"lon":5.36655,"is_reserved":false,"is_disabled":false,"rental_uris":{"android":"levelo://app?vid=08eead74-da0c-4ce9-9af8-c3212eb58cf9","ios":"levelo://app?vid=08eead74-da0c-4ce9-9af8-c3212eb58cf9"},"vehicle_type_id":"4","last_reported":1740762508,"current_range_meters":9600,"station_id":"ce4bhi12rcd13ifvqfp0","pricing_plan_id":"cebpf4jnsgd1na2vs0mg"},{"bike_id":"2c3bf2fe-f081-4685-9d04-5171a9f43f10","system_id":"levelo_inurba_marseille","lat":43.28616,"lon":5.35107,"is_reserved":false,"is_disabled":false,"rental_uris":{"android":"levelo://app?vid=2c3bf2fe-f081-4685-9d04-5171a9f43f10","ios":"levelo://app?vid=2c3bf2fe-f081-4685-9d04-5171a9f43f10"},"vehicle_type_id":"4","last_reported":1740762508,"current_range_meters":9200,"station_id":"ce4bhch2rcd13ifvqeug","pricing_plan_id":"cebpf4jnsgd1na2vs0mg"},{"bike_id":"ae97e652-e9d7-4a94-bf72-aaa7f8dc405a","system_id":"levelo_inurba_marseille","lat":43.26218,"lon":5.37434,"is_reserved":false,"is_disabled":false,"rental_uris":{"android":"levelo://app?vid=ae97e652-e9d7-4a94-bf72-aaa7f8dc405a","ios":"levelo://app?vid=ae97e652-e9d7-4a94-bf72-aaa7f8dc405a"},"vehicle_type_id":"4","last_reported":1740762508,"current_range_meters":9600,"station_id":"ce4bhgp2rcd13ifvqfc0","pricing_plan_id":"cebpf4jnsgd1na2vs0mg"},{"bike_id":"d4918d6a-5525-4be8-b0c4-7af64b54343d","system_id":"levelo_inurba_marseille","lat":43.24172,"lon":5.36396,"is_reserved":false,"is_disabled":false,"rental_uris":{"android":"levelo://app?vid=d4918d6a-5525-4be8-b0c4-7af64b54343d","ios":"levelo://app?vid=d4918d6a-5525-4be8-b0c4-7af64b54343d"},"vehicle_type_id":"4","last_reported":1740762508,"current_range_meters":9600,"station_id":"cpo36qri1sfpv3e86is0","pricing_plan_id":"cebpf4jnsgd1na2vs0mg"},{"bike_id":"bc9cd85b-f582-4fce-9d11-e0f882e4b7e5","system_id":"levelo_inurba_marseille","lat":43.29871,"lon":5.38904,"is_reserved":false,"is_disabled":false,"rental_uris":{"android":"levelo://app?vid=bc9cd85b-f582-4fce-9d11-e0f882e4b7e5","ios":"levelo://app?vid=bc9cd85b-f582-4fce-9d11-e0f882e4b7e5"},"vehicle_type_id":"4","last_reported":1740762508,"current_range_meters":9200,"station_id":"ce4bh392rcd13ifvqdl0","pricing_plan_id":"cebpf4jnsgd1na2vs0mg"},{"bike_id":"07956527-bf33-4726-a7c3-d2c25e3cbe7e","system_id":"levelo_inurba_marseille","lat":43.272,"lon":5.40997,"is_reserved":false,"is_disabled":false,"rental_uris":{"android":"levelo://app?vid=07956527-bf33-4726-a7c3-d2c25e3cbe7e","ios":"levelo://app?vid=07956527-bf33-4726-a7c3-d2c25e3cbe7e"},"vehicle_type_id":"4","last_reported":1740762508,"current_range_meters":9600,"station_id":"ce4bhl12rcd13ifvqgf0","pricing_plan_id":"cebpf4jnsgd1na2vs0mg"},{"bike_id":"e14ff570-d0af-4399-8997-6b435e538ddd","system_id":"levelo_inurba_marseille","lat":43.24389,"lon":5.37056,"is_reserved":false,"is_disabled":false,"rental_uris":{"android":"levelo://app?vid=e14ff570-d0af-4399-8997-6b435e538ddd","ios":"levelo://app?vid=e14ff570-d0af-4399-8997-6b435e538ddd"},"vehicle_type_id":"4","last_reported":1740762508,"current_range_meters":9200,"station_id":"ce4bhhh2rcd13ifvqfk0","pricing_plan_id":"cebpf4jnsgd1na2vs0mg"},{"bike_id":"10be055f-dd9f-4dc6-8d3f-7aba3762d29b","system_id":"levelo_inurba_marseille","lat":43.32106,"lon":5.36803,"is_reserved":false,"is_disabled":false,"rental_uris":{"android":"levelo://app?vid=10be055f-dd9f-4dc6-8d3f-7aba3762d29b","ios":"levelo://app?vid=10be055f-dd9f-4dc6-8d3f-7aba3762d29b"},"vehicle_type_id":"4","last_reported":1740762508,"current_range_meters":9600,"station_id":"ce4bhrh2rcd13ifvqhug","pricing_plan_id":"cebpf4jnsgd1na2vs0mg"},{"bike_id":"4f4b687a-8aca-4216-9bb6-c62fbdabfc11","system_id":"levelo_inurba_marseille","lat":43.33024,"lon":5.39045,"is_reserved":false,"is_disabled":false,"rental_uris":{"android":"levelo://app?vid=4f4b687a-8aca-4216-9bb6-c62fbdabfc11","ios":"levelo://app?vid=4f4b687a-8aca-4216-9bb6-c62fbdabfc11"},"vehicle_type_id":"4","last_reported":1740762508,"current_range_meters":9600,"station_id":"ce4bhr92rcd13ifvqhrg","pricing_plan_id":"cebpf4jnsgd1na2vs0mg"},{"bike_id":"049db40f-9671-427d-a719-a144438e004b","system_id":"levelo_inurba_marseille","lat":43.27828,"lon":5.40696,"is_reserved":false,"is_disabled":false,"rental_uris":{"android":"levelo://app?vid=049db40f-9671-427d-a719-a144438e004b","ios":"levelo://app?vid=049db40f-9671-427d-a719-a144438e004b"},"vehicle_type_id":"4","last_reported":1740762508,"current_range_meters":9600,"station_id":"ce4bhnh2rcd13ifvqgtg","pricing_plan_id":"cebpf4jnsgd1na2vs0mg"},{"bike_id":"ee3eeee7-009d-476b-af8c-87edbcb901b9","system_id":"levelo_inurba_marseille","lat":43.32368,"lon":5.38889,"is_reserved":false,"is_disabled":false,"rental_uris":{"android":"levelo://app?vid=ee3eeee7-009d-476b-af8c-87edbcb901b9","ios":"levelo://app?vid=ee3eeee7-009d-476b-af8c-87edbcb901b9"},"vehicle_type_id":"4","last_reported":1740762508,"current_range_meters":10000,"station_id":"ce4bhqp2rcd13ifvqhog","pricing_plan_id":"cebpf4jnsgd1na2vs0mg"},{"bike_id":"153e6d56-01e6-48e8-a2c2-f8a296098b62","system_id":"levelo_inurba_marseille","lat":43.31707,"lon":5.37757,"is_reserved":false,"is_disabled":false,"rental_uris":{"android":"levelo://app?vid=153e6d56-01e6-48e8-a2c2-f8a296098b62","ios":"levelo://app?vid=153e6d56-01e6-48e8-a2c2-f8a296098b62"},"vehicle_type_id":"4","last_reported":1740762508,"current_range_meters":10000,"station_id":"ce4bgth2rcd13ifvqch0","pricing_plan_id":"cebpf4jnsgd1na2vs0mg"},{"bike_id":"f03fd246-703e-4bb4-a114-205558723d67","system_id":"levelo_inurba_marseille","lat":43.28336,"lon":5.38108,"is_reserved":false,"is_disabled":false,"rental_uris":{"android":"levelo://app?vid=f03fd246-703e-4bb4-a114-205558723d67","ios":"levelo://app?vid=f03fd246-703e-4bb4-a114-205558723d67"},"vehicle_type_id":"4","last_reported":1740762508,"current_range_meters":10000,"station_id":"ce4bh412rcd13ifvqdr0","pricing_plan_id":"cebpf4jnsgd1na2vs0mg"},{"bike_id":"07218d0c-edee-4927-8301-a0b5a1c7809f","system_id":"levelo_inurba_marseille","lat":43.25573,"lon":5.38234,"is_reserved":false,"is_disabled":false,"rental_uris":{"android":"levelo://app?vid=07218d0c-edee-4927-8301-a0b5a1c7809f","ios":"levelo://app?vid=07218d0c-edee-4927-8301-a0b5a1c7809f"},"vehicle_type_id":"4","last_reported":1740762508,"current_range_meters":10000,"station_id":"ce4bhih2rcd13ifvqfs0","pricing_plan_id":"cebpf4jnsgd1na2vs0mg"},{"bike_id":"c06eef6f-caa3-4e5e-b73b-05f5d0c1e6d3","system_id":"levelo_inurba_marseille","lat":43.29614,"lon":5.38108,"is_reserved":false,"is_disabled":false,"rental_uris":{"android":"levelo://app?vid=c06eef6f-caa3-4e5e-b73b-05f5d0c1e6d3","ios":"levelo://app?vid=c06eef6f-caa3-4e5e-b73b-05f5d0c1e6d3"},"vehicle_type_id":"4","last_reported":1740762508,"current_range_meters":10000,"station_id":"ce4bgl12rcd13ifvqbo0","pricing_plan_id":"cebpf4jnsgd1na2vs0mg"},{"bike_id":"2c533ade-2d8f-49f8-8a60-07ce601f0484","system_id":"levelo_inurba_marseille","lat":43.27948,"lon":5.41046,"is_reserved":false,"is_disabled":false,"rental_uris":{"android":"levelo://app?vid=2c533ade-2d8f-49f8-8a60-07ce601f0484","ios":"levelo://app?vid=2c533ade-2d8f-49f8-8a60-07ce601f0484"},"vehicle_type_id":"4","last_reported":1740762508,"current_range_meters":10800,"station_id":"ce4bhnp2rcd13ifvqh0g","pricing_plan_id":"cebpf4jnsgd1na2vs0mg"},{"bike_id":"eecf051f-2bc3-4954-a2d7-84fafb4feddf","system_id":"levelo_inurba_marseille","lat":43.27436,"lon":5.39417,"is_reserved":false,"is_disabled":false,"rental_uris":{"android":"levelo://app?vid=eecf051f-2bc3-4954-a2d7-84fafb4feddf","ios":"levelo://app?vid=eecf051f-2bc3-4954-a2d7-84fafb4feddf"},"vehicle_type_id":"4","last_reported":1740762508,"current_range_meters":10800,"station_id":"ce4bhdp2rcd13ifvqf20","pricing_plan_id":"cebpf4jnsgd1na2vs0mg"},{"bike_id":"c776e964-75a1-4343-b453-0b5fc1f76818","system_id":"levelo_inurba_marseille","lat":43.33467,"lon":5.38157,"is_reserved":false,"is_disabled":false,"rental_uris":{"android":"levelo://app?vid=c776e964-75a1-4343-b453-0b5fc1f76818","ios":"levelo://app?vid=c776e964-75a1-4343-b453-0b5fc1f76818"},"vehicle_type_id":"4","last_reported":1740762508,"current_range_meters":10800,"station_id":"","pricing_plan_id":"cebpf4jnsgd1na2vs0mg"},{"bike_id":"90fa531f-40e5-4dbd-8945-3f992142b8c6","system_id":"levelo_inurba_marseille","lat":43.29839,"lon":5.36269,"is_reserved":false,"is_disabled":false,"rental_uris":{"android":"levelo://app?vid=90fa531f-40e5-4dbd-8945-3f992142b8c6","ios":"levelo://app?vid=90fa531f-40e5-4dbd-8945-3f992142b8c6"},"vehicle_type_id":"4","last_reported":1740762508,"current_range_meters":10800,"station_id":"ce4bgpp2rcd13ifvqc3g","pricing_plan_id":"cebpf4jnsgd1na2vs0mg"},{"bike_id":"f695a7bb-361c-4630-909d-3bcd352230a5","system_id":"levelo_inurba_marseille","lat":43.31076,"lon":5.38343,"is_reserved":false,"is_disabled":false,"rental_uris":{"android":"levelo://app?vid=f695a7bb-361c-4630-909d-3bcd352230a5","ios":"levelo://app?vid=f695a7bb-361c-4630-909d-3bcd352230a5"},"vehicle_type_id":"4","last_reported":1740762508,"current_range_meters":10800,"station_id":"ce4bgv92rcd13ifvqcr0","pricing_plan_id":"cebpf4jnsgd1na2vs0mg"},{"bike_id":"7ce538c5-e8c8-443a-8237-657d160ca797","system_id":"levelo_inurba_marseille","lat":43.2623,"lon":5.40454,"is_reserved":false,"is_disabled":false,"rental_uris":{"android":"levelo://app?vid=7ce538c5-e8c8-443a-8237-657d160ca797","ios":"levelo://app?vid=7ce538c5-e8c8-443a-8237-657d160ca797"},"vehicle_type_id":"4","last_reported":1740762508,"current_range_meters":10800,"station_id":"ce4bhmh2rcd13ifvqgmg","pricing_plan_id":"cebpf4jnsgd1na2vs0mg"},{"bike_id":"6daece57-4844-4f8c-939b-ef394958d5b9","system_id":"levelo_inurba_marseille","lat":43.30332,"lon":5.40441,"is_reserved":false,"is_disabled":false,"rental_uris":{"android":"levelo://app?vid=6daece57-4844-4f8c-939b-ef394958d5b9","ios":"levelo://app?vid=6daece57-4844-4f8c-939b-ef394958d5b9"},"vehicle_type_id":"4","last_reported":1740762508,"current_range_meters":10000,"station_id":"ce4bh012rcd13ifvqd10","pricing_plan_id":"cebpf4jnsgd1na2vs0mg"},{"bike_id":"f903fd24-6696-43fd-9b6e-a49dd31530b7","system_id":"levelo_inurba_marseille","lat":43.30807,"lon":5.43522,"is_reserved":false,"is_disabled":false,"rental_uris":{"android":"levelo://app?vid=f903fd24-6696-43fd-9b6e-a49dd31530b7","ios":"levelo://app?vid=f903fd24-6696-43fd-9b6e-a49dd31530b7"},"vehicle_type_id":"4","last_reported":1740762508,"current_range_meters":10800,"station_id":"ce4bhph2rcd13ifvqheg","pricing_plan_id":"cebpf4jnsgd1na2vs0mg"},{"bike_id":"41938993-d3e4-495d-98f7-b64359fad662","system_id":"levelo_inurba_marseille","lat":43.27171,"lon":5.40996,"is_reserved":false,"is_disabled":false,"rental_uris":{"android":"levelo://app?vid=41938993-d3e4-495d-98f7-b64359fad662","ios":"levelo://app?vid=41938993-d3e4-495d-98f7-b64359fad662"},"vehicle_type_id":"4","last_reported":1740762508,"current_range_meters":10000,"station_id":"ce4bhl12rcd13ifvqgf0","pricing_plan_id":"cebpf4jnsgd1na2vs0mg"},{"bike_id":"4d7bf0ba-ddc6-4e5a-bdb9-eb4d6f9e47fe","system_id":"levelo_inurba_marseille","lat":43.27056,"lon":5.40257,"is_reserved":false,"is_disabled":false,"rental_uris":{"android":"levelo://app?vid=4d7bf0ba-ddc6-4e5a-bdb9-eb4d6f9e47fe","ios":"levelo://app?vid=4d7bf0ba-ddc6-4e5a-bdb9-eb4d6f9e47fe"},"vehicle_type_id":"4","last_reported":1740762508,"current_range_meters":14000,"station_id":"ce4bhk92rcd13ifvqgc0","pricing_plan_id":"cebpf4jnsgd1na2vs0mg"},{"bike_id":"6764331c-4ed8-4992-882c-95eaf1354c07","system_id":"levelo_inurba_marseille","lat":43.30595,"lon":5.37189,"is_reserved":false,"is_disabled":false,"rental_uris":{"android":"levelo://app?vid=6764331c-4ed8-4992-882c-95eaf1354c07","ios":"levelo://app?vid=6764331c-4ed8-4992-882c-95eaf1354c07"},"vehicle_type_id":"4","last_reported":1740762508,"current_range_meters":11200,"station_id":"ce4bgqh2rcd13ifvqc4g","pricing_plan_id":"cebpf4jnsgd1na2vs0mg"},{"bike_id":"43d6aa6f-20c7-4a1b-bcb8-31b660876567","system_id":"levelo_inurba_marseille","lat":43.26558,"lon":5.37291,"is_reserved":false,"is_disabled":false,"rental_uris":{"android":"levelo://app?vid=43d6aa6f-20c7-4a1b-bcb8-31b660876567","ios":"levelo://app?vid=43d6aa6f-20c7-4a1b-bcb8-31b660876567"},"vehicle_type_id":"4","last_reported":1740762508,"current_range_meters":11200,"station_id":"ce4bhg12rcd13ifvqf70","pricing_plan_id":"cebpf4jnsgd1na2vs0mg"},{"bike_id":"a84bc08d-0bec-434f-b976-ef6318d19f74","system_id":"levelo_inurba_marseille","lat":43.290607,"lon":5.377823,"is_reserved":false,"is_disabled":false,"rental_uris":{"android":"levelo://app?vid=a84bc08d-0bec-434f-b976-ef6318d19f74","ios":"levelo://app?vid=a84bc08d-0bec-434f-b976-ef6318d19f74"},"vehicle_type_id":"4","last_reported":1740762508,"current_range_meters":10800,"station_id":"ce4bh9p2rcd13ifvqed0","pricing_plan_id":"cebpf4jnsgd1na2vs0mg"},{"bike_id":"a8491c1d-2364-406e-946f-98d58f145a67","system_id":"levelo_inurba_marseille","lat":43.32288,"lon":5.38283,"is_reserved":false,"is_disabled":false,"rental_uris":{"android":"levelo://app?vid=a8491c1d-2364-406e-946f-98d58f145a67","ios":"levelo://app?vid=a8491c1d-2364-406e-946f-98d58f145a67"},"vehicle_type_id":"4","last_reported":1740762508,"current_range_meters":11600,"station_id":"ce4bhr12rcd13ifvqhqg","pricing_plan_id":"cebpf4jnsgd1na2vs0mg"},{"bike_id":"db55f66d-0cfa-48a9-a5b0-03bbc222a160","system_id":"levelo_inurba_marseille","lat":43.26198,"lon":5.37929,"is_reserved":false,"is_disabled":false,"rental_uris":{"android":"levelo://app?vid=db55f66d-0cfa-48a9-a5b0-03bbc222a160","ios":"levelo://app?vid=db55f66d-0cfa-48a9-a5b0-03bbc222a160"},"vehicle_type_id":"4","last_reported":1740762508,"current_range_meters":11200,"station_id":"ce4bhjp2rcd13ifvqg90","pricing_plan_id":"cebpf4jnsgd1na2vs0mg"},{"bike_id":"b67f3b2c-7c9b-4e08-a4d6-93f89a78ad66","system_id":"levelo_inurba_marseille","lat":43.30933,"lon":5.40147,"is_reserved":false,"is_disabled":false,"rental_uris":{"android":"levelo://app?vid=b67f3b2c-7c9b-4e08-a4d6-93f89a78ad66","ios":"levelo://app?vid=b67f3b2c-7c9b-4e08-a4d6-93f89a78ad66"},"vehicle_type_id":"4","last_reported":1740762508,"current_range_meters":10800,"station_id":"ce4bgvp2rcd13ifvqct0","pricing_plan_id":"cebpf4jnsgd1na2vs0mg"},{"bike_id":"3f5e4c77-943b-4a46-b257-614bf13afec4","system_id":"levelo_inurba_marseille","lat":43.24169,"lon":5.3638,"is_reserved":false,"is_disabled":false,"rental_uris":{"android":"levelo://app?vid=3f5e4c77-943b-4a46-b257-614bf13afec4","ios":"levelo://app?vid=3f5e4c77-943b-4a46-b257-614bf13afec4"},"vehicle_type_id":"4","last_reported":1740762508,"current_range_meters":11200,"station_id":"cpo36qri1sfpv3e86is0","pricing_plan_id":"cebpf4jnsgd1na2vs0mg"},{"bike_id":"f9389bc5-4a8f-4bff-99cc-305689e79466","system_id":"levelo_inurba_marseille","lat":43.27072,"lon":5.42282,"is_reserved":false,"is_disabled":false,"rental_uris":{"android":"levelo://app?vid=f9389bc5-4a8f-4bff-99cc-305689e79466","ios":"levelo://app?vid=f9389bc5-4a8f-4bff-99cc-305689e79466"},"vehicle_type_id":"4","last_reported":1740762508,"current_range_meters":11200,"station_id":"ce4bhk92rcd13ifvqgb0","pricing_plan_id":"cebpf4jnsgd1na2vs0mg"},{"bike_id":"6ab47e25-d64c-4853-82bb-3ecdd04e5a58","system_id":"levelo_inurba_marseille","lat":43.28093,"lon":5.37831,"is_reserved":false,"is_disabled":false,"rental_uris":{"android":"levelo://app?vid=6ab47e25-d64c-4853-82bb-3ecdd04e5a58","ios":"levelo://app?vid=6ab47e25-d64c-4853-82bb-3ecdd04e5a58"},"vehicle_type_id":"4","last_reported":1740762508,"current_range_meters":11200,"station_id":"ce4bha12rcd13ifvqee0","pricing_plan_id":"cebpf4jnsgd1na2vs0mg"},{"bike_id":"fbb578c6-bc58-4f39-a675-f75212c7ad17","system_id":"levelo_inurba_marseille","lat":43.25583,"lon":5.38232,"is_reserved":false,"is_disabled":false,"rental_uris":{"android":"levelo://app?vid=fbb578c6-bc58-4f39-a675-f75212c7ad17","ios":"levelo://app?vid=fbb578c6-bc58-4f39-a675-f75212c7ad17"},"vehicle_type_id":"4","last_reported":1740762508,"current_range_meters":11200,"station_id":"ce4bhih2rcd13ifvqfs0","pricing_plan_id":"cebpf4jnsgd1na2vs0mg"},{"bike_id":"e539e494-fa17-4683-9bd7-83b731a11d93","system_id":"levelo_inurba_marseille","lat":43.24164,"lon":5.36388,"is_reserved":false,"is_disabled":false,"rental_uris":{"android":"levelo://app?vid=e539e494-fa17-4683-9bd7-83b731a11d93","ios":"levelo://app?vid=e539e494-fa17-4683-9bd7-83b731a11d93"},"vehicle_type_id":"4","last_reported":1740762508,"current_range_meters":11200,"station_id":"cpo36qri1sfpv3e86is0","pricing_plan_id":"cebpf4jnsgd1na2vs0mg"},{"bike_id":"92151e43-236e-4006-978e-1626eb4f41f0","system_id":"levelo_inurba_marseille","lat":43.25558,"lon":5.38249,"is_reserved":false,"is_disabled":false,"rental_uris":{"android":"levelo://app?vid=92151e43-236e-4006-978e-1626eb4f41f0","ios":"levelo://app?vid=92151e43-236e-4006-978e-1626eb4f41f0"},"vehicle_type_id":"4","last_reported":1740762508,"current_range_meters":11600,"station_id":"ce4bhih2rcd13ifvqfs0","pricing_plan_id":"cebpf4jnsgd1na2vs0mg"},{"bike_id":"856c6ff1-da1a-4c5d-8875-26ca7e25d0ae","system_id":"levelo_inurba_marseille","lat":43.26505,"lon":5.39555,"is_reserved":false,"is_disabled":false,"rental_uris":{"android":"levelo://app?vid=856c6ff1-da1a-4c5d-8875-26ca7e25d0ae","ios":"levelo://app?vid=856c6ff1-da1a-4c5d-8875-26ca7e25d0ae"},"vehicle_type_id":"4","last_reported":1740762508,"current_range_meters":11200,"station_id":"ce4bhi12rcd13ifvqfq0","pricing_plan_id":"cebpf4jnsgd1na2vs0mg"},{"bike_id":"ef88a474-c522-409f-968d-5fc089264a9d","system_id":"levelo_inurba_marseille","lat":43.28431,"lon":5.34985,"is_reserved":false,"is_disabled":false,"rental_uris":{"android":"levelo://app?vid=ef88a474-c522-409f-968d-5fc089264a9d","ios":"levelo://app?vid=ef88a474-c522-409f-968d-5fc089264a9d"},"vehicle_type_id":"4","last_reported":1740762508,"current_range_meters":14400,"station_id":"ce4bhbh2rcd13ifvqepg","pricing_plan_id":"cebpf4jnsgd1na2vs0mg"},{"bike_id":"9fd0e2b0-97df-489d-acf3-7c821d42c233","system_id":"levelo_inurba_marseille","lat":43.26039,"lon":5.41752,"is_reserved":false,"is_disabled":false,"rental_uris":{"android":"levelo://app?vid=9fd0e2b0-97df-489d-acf3-7c821d42c233","ios":"levelo://app?vid=9fd0e2b0-97df-489d-acf3-7c821d42c233"},"vehicle_type_id":"4","last_reported":1740762508,"current_range_meters":9200,"station_id":"","pricing_plan_id":"cebpf4jnsgd1na2vs0mg"},{"bike_id":"79726db7-c387-4133-8fbd-3fe3662fdad0","system_id":"levelo_inurba_marseille","lat":43.29051,"lon":5.35916,"is_reserved":false,"is_disabled":false,"rental_uris":{"android":"levelo://app?vid=79726db7-c387-4133-8fbd-3fe3662fdad0","ios":"levelo://app?vid=79726db7-c387-4133-8fbd-3fe3662fdad0"},"vehicle_type_id":"4","last_reported":1740762508,"current_range_meters":12400,"station_id":"ce4bha92rcd13ifvqeg0","pricing_plan_id":"cebpf4jnsgd1na2vs0mg"},{"bike_id":"c2f2b3b4-d49c-4ec1-ba6e-6f1aa3318777","system_id":"levelo_inurba_marseille","lat":43.27912,"lon":5.39584,"is_reserved":false,"is_disabled":false,"rental_uris":{"android":"levelo://app?vid=c2f2b3b4-d49c-4ec1-ba6e-6f1aa3318777","ios":"levelo://app?vid=c2f2b3b4-d49c-4ec1-ba6e-6f1aa3318777"},"vehicle_type_id":"4","last_reported":1740762508,"current_range_meters":12400,"station_id":"ce4bhf92rcd13ifvqf40","pricing_plan_id":"cebpf4jnsgd1na2vs0mg"},{"bike_id":"0ba7bdbb-a3de-44a1-956b-a7d2b97e2b45","system_id":"levelo_inurba_marseille","lat":43.25498,"lon":5.376478,"is_reserved":false,"is_disabled":false,"rental_uris":{"android":"levelo://app?vid=0ba7bdbb-a3de-44a1-956b-a7d2b97e2b45","ios":"levelo://app?vid=0ba7bdbb-a3de-44a1-956b-a7d2b97e2b45"},"vehicle_type_id":"4","last_reported":1740762508,"current_range_meters":12400,"station_id":"ce4bhb92rcd13ifvqen0","pricing_plan_id":"cebpf4jnsgd1na2vs0mg"},{"bike_id":"bcf10ec7-0dc7-4b31-90db-9fddabad3e7a","system_id":"levelo_inurba_marseille","lat":43.30545,"lon":5.36713,"is_reserved":false,"is_disabled":true,"rental_uris":{"android":"levelo://app?vid=bcf10ec7-0dc7-4b31-90db-9fddabad3e7a","ios":"levelo://app?vid=bcf10ec7-0dc7-4b31-90db-9fddabad3e7a"},"vehicle_type_id":"4","last_reported":1740762508,"current_range_meters":12400,"station_id":"ce4bgrp2rcd13ifvqc9g","pricing_plan_id":"cebpf4jnsgd1na2vs0mg"},{"bike_id":"593edb3c-7add-4a3d-9dbe-95cef549de0d","system_id":"levelo_inurba_marseille","lat":43.23064,"lon":5.35495,"is_reserved":false,"is_disabled":false,"rental_uris":{"android":"levelo://app?vid=593edb3c-7add-4a3d-9dbe-95cef549de0d","ios":"levelo://app?vid=593edb3c-7add-4a3d-9dbe-95cef549de0d"},"vehicle_type_id":"4","last_reported":1740762508,"current_range_meters":12800,"station_id":"cpo3342slgdg3j2ifvpg","pricing_plan_id":"cebpf4jnsgd1na2vs0mg"},{"bike_id":"0e24310e-f2aa-4854-b26f-a8f533813473","system_id":"levelo_inurba_marseille","lat":43.2395,"lon":5.36643,"is_reserved":false,"is_disabled":false,"rental_uris":{"android":"levelo://app?vid=0e24310e-f2aa-4854-b26f-a8f533813473","ios":"levelo://app?vid=0e24310e-f2aa-4854-b26f-a8f533813473"},"vehicle_type_id":"4","last_reported":1740762508,"current_range_meters":14000,"station_id":"ce4bhi12rcd13ifvqfp0","pricing_plan_id":"cebpf4jnsgd1na2vs0mg"},{"bike_id":"2cecf2d1-3905-4a5a-9338-ebf0e15f72ff","system_id":"levelo_inurba_marseille","lat":43.29781,"lon":5.38112,"is_reserved":false,"is_disabled":false,"rental_uris":{"android":"levelo://app?vid=2cecf2d1-3905-4a5a-9338-ebf0e15f72ff","ios":"levelo://app?vid=2cecf2d1-3905-4a5a-9338-ebf0e15f72ff"},"vehicle_type_id":"4","last_reported":1740762508,"current_range_meters":14800,"station_id":"ce4bgip2rcd13ifvqbb0","pricing_plan_id":"cebpf4jnsgd1na2vs0mg"},{"bike_id":"52a6e4a8-8ebb-4569-9981-ed75f4ddfe0a","system_id":"levelo_inurba_marseille","lat":43.25088,"lon":5.3952,"is_reserved":false,"is_disabled":false,"rental_uris":{"android":"levelo://app?vid=52a6e4a8-8ebb-4569-9981-ed75f4ddfe0a","ios":"levelo://app?vid=52a6e4a8-8ebb-4569-9981-ed75f4ddfe0a"},"vehicle_type_id":"4","last_reported":1740762508,"current_range_meters":10000,"station_id":"ce4bhm12rcd13ifvqgkg","pricing_plan_id":"cebpf4jnsgd1na2vs0mg"},{"bike_id":"0f25a25e-9f25-4449-af31-b7f28519980d","system_id":"levelo_inurba_marseille","lat":43.29098,"lon":5.38161,"is_reserved":false,"is_disabled":false,"rental_uris":{"android":"levelo://app?vid=0f25a25e-9f25-4449-af31-b7f28519980d","ios":"levelo://app?vid=0f25a25e-9f25-4449-af31-b7f28519980d"},"vehicle_type_id":"4","last_reported":1740762508,"current_range_meters":13600,"station_id":"ce4bh512rcd13ifvqe2g","pricing_plan_id":"cebpf4jnsgd1na2vs0mg"},{"bike_id":"364b209e-752e-45ea-b26c-06b2552c1833","system_id":"levelo_inurba_marseille","lat":43.23195,"lon":5.35537,"is_reserved":false,"is_disabled":false,"rental_uris":{"android":"levelo://app?vid=364b209e-752e-45ea-b26c-06b2552c1833","ios":"levelo://app?vid=364b209e-752e-45ea-b26c-06b2552c1833"},"vehicle_type_id":"4","last_reported":1740762508,"current_range_meters":13600,"station_id":"ce4bhu92rcd13ifvqi70","pricing_plan_id":"cebpf4jnsgd1na2vs0mg"},{"bike_id":"f5fe4361-1d3d-4314-a7e8-95ca49fcf6f9","system_id":"levelo_inurba_marseille","lat":43.32211,"lon":5.38764,"is_reserved":false,"is_disabled":false,"rental_uris":{"android":"levelo://app?vid=f5fe4361-1d3d-4314-a7e8-95ca49fcf6f9","ios":"levelo://app?vid=f5fe4361-1d3d-4314-a7e8-95ca49fcf6f9"},"vehicle_type_id":"4","last_reported":1740762508,"current_range_meters":13600,"station_id":"","pricing_plan_id":"cebpf4jnsgd1na2vs0mg"},{"bike_id":"49e9cdc7-76a5-4b66-ae2d-61c73beb73a8","system_id":"levelo_inurba_marseille","lat":43.24177,"lon":5.36396,"is_reserved":false,"is_disabled":false,"rental_uris":{"android":"levelo://app?vid=49e9cdc7-76a5-4b66-ae2d-61c73beb73a8","ios":"levelo://app?vid=49e9cdc7-76a5-4b66-ae2d-61c73beb73a8"},"vehicle_type_id":"4","last_reported":1740762508,"current_range_meters":14000,"station_id":"cpo36qri1sfpv3e86is0","pricing_plan_id":"cebpf4jnsgd1na2vs0mg"},{"bike_id":"065c7153-6139-43a1-904e-b13074f820fa","system_id":"levelo_inurba_marseille","lat":43.29864,"lon":5.39732,"is_reserved":false,"is_disabled":false,"rental_uris":{"android":"levelo://app?vid=065c7153-6139-43a1-904e-b13074f820fa","ios":"levelo://app?vid=065c7153-6139-43a1-904e-b13074f820fa"},"vehicle_type_id":"4","last_reported":1740762508,"current_range_meters":10000,"station_id":"ce4bh0h2rcd13ifvqd50","pricing_plan_id":"cebpf4jnsgd1na2vs0mg"},{"bike_id":"57a2000c-37af-4993-afa8-d5c384551597","system_id":"levelo_inurba_marseille","lat":43.30642,"lon":5.40102,"is_reserved":false,"is_disabled":false,"rental_uris":{"android":"levelo://app?vid=57a2000c-37af-4993-afa8-d5c384551597","ios":"levelo://app?vid=57a2000c-37af-4993-afa8-d5c384551597"},"vehicle_type_id":"4","last_reported":1740762508,"current_range_meters":14400,"station_id":"ce4bh112rcd13ifvqda0","pricing_plan_id":"cebpf4jnsgd1na2vs0mg"},{"bike_id":"591298d4-767e-4523-958c-11da1f18c6a4","system_id":"levelo_inurba_marseille","lat":43.2762,"lon":5.36112,"is_reserved":false,"is_disabled":false,"rental_uris":{"android":"levelo://app?vid=591298d4-767e-4523-958c-11da1f18c6a4","ios":"levelo://app?vid=591298d4-767e-4523-958c-11da1f18c6a4"},"vehicle_type_id":"4","last_reported":1740762508,"current_range_meters":14000,"station_id":"ce4bgj92rcd13ifvqbe0","pricing_plan_id":"cebpf4jnsgd1na2vs0mg"},{"bike_id":"f63b7400-7efe-4dbb-821b-d2276ce9752b","system_id":"levelo_inurba_marseille","lat":43.28616,"lon":5.35107,"is_reserved":false,"is_disabled":false,"rental_uris":{"android":"levelo://app?vid=f63b7400-7efe-4dbb-821b-d2276ce9752b","ios":"levelo://app?vid=f63b7400-7efe-4dbb-821b-d2276ce9752b"},"vehicle_type_id":"4","last_reported":1740762508,"current_range_meters":14000,"station_id":"ce4bhch2rcd13ifvqeug","pricing_plan_id":"cebpf4jnsgd1na2vs0mg"},{"bike_id":"43b4ba4f-c857-4e5e-a746-5fa5e749b88e","system_id":"levelo_inurba_marseille","lat":43.24177,"lon":5.39734,"is_reserved":false,"is_disabled":false,"rental_uris":{"android":"levelo://app?vid=43b4ba4f-c857-4e5e-a746-5fa5e749b88e","ios":"levelo://app?vid=43b4ba4f-c857-4e5e-a746-5fa5e749b88e"},"vehicle_type_id":"4","last_reported":1740762508,"current_range_meters":14000,"station_id":"ce4bhn12rcd13ifvqgpg","pricing_plan_id":"cebpf4jnsgd1na2vs0mg"},{"bike_id":"eb8cb07e-72ab-41d8-94bf-80478cf843d2","system_id":"levelo_inurba_marseille","lat":43.26498,"lon":5.39538,"is_reserved":false,"is_disabled":false,"rental_uris":{"android":"levelo://app?vid=eb8cb07e-72ab-41d8-94bf-80478cf843d2","ios":"levelo://app?vid=eb8cb07e-72ab-41d8-94bf-80478cf843d2"},"vehicle_type_id":"4","last_reported":1740762508,"current_range_meters":14400,"station_id":"ce4bhi12rcd13ifvqfq0","pricing_plan_id":"cebpf4jnsgd1na2vs0mg"},{"bike_id":"ba6dac88-ce2f-4c50-8b21-840bb19ed1c6","system_id":"levelo_inurba_marseille","lat":43.29419,"lon":5.38629,"is_reserved":false,"is_disabled":false,"rental_uris":{"android":"levelo://app?vid=ba6dac88-ce2f-4c50-8b21-840bb19ed1c6","ios":"levelo://app?vid=ba6dac88-ce2f-4c50-8b21-840bb19ed1c6"},"vehicle_type_id":"4","last_reported":1740762508,"current_range_meters":13600,"station_id":"ce4bh2h2rcd13ifvqdh0","pricing_plan_id":"cebpf4jnsgd1na2vs0mg"},{"bike_id":"fd48a179-8fdb-4492-97ca-e6b0191ee3c2","system_id":"levelo_inurba_marseille","lat":43.28614,"lon":5.37059,"is_reserved":false,"is_disabled":false,"rental_uris":{"android":"levelo://app?vid=fd48a179-8fdb-4492-97ca-e6b0191ee3c2","ios":"levelo://app?vid=fd48a179-8fdb-4492-97ca-e6b0191ee3c2"},"vehicle_type_id":"4","last_reported":1740762508,"current_range_meters":14000,"station_id":"ce4bht12rcd13ifvqi60","pricing_plan_id":"cebpf4jnsgd1na2vs0mg"},{"bike_id":"46e7feee-cdb5-4f5e-b790-15cda11b2426","system_id":"levelo_inurba_marseille","lat":43.28454,"lon":5.35894,"is_reserved":false,"is_disabled":false,"rental_uris":{"android":"levelo://app?vid=46e7feee-cdb5-4f5e-b790-15cda11b2426","ios":"levelo://app?vid=46e7feee-cdb5-4f5e-b790-15cda11b2426"},"vehicle_type_id":"4","last_reported":1740762508,"current_range_meters":13600,"station_id":"ce4bhah2rcd13ifvqei0","pricing_plan_id":"cebpf4jnsgd1na2vs0mg"},{"bike_id":"270fd64e-3580-4e26-8ed0-24bd78f1716a","system_id":"levelo_inurba_marseille","lat":43.28346,"lon":5.38101,"is_reserved":false,"is_disabled":false,"rental_uris":{"android":"levelo://app?vid=270fd64e-3580-4e26-8ed0-24bd78f1716a","ios":"levelo://app?vid=270fd64e-3580-4e26-8ed0-24bd78f1716a"},"vehicle_type_id":"4","last_reported":1740762508,"current_range_meters":16800,"station_id":"ce4bh412rcd13ifvqdr0","pricing_plan_id":"cebpf4jnsgd1na2vs0mg"},{"bike_id":"94aea717-4d87-4d75-a3fe-1a580f102aeb","system_id":"levelo_inurba_marseille","lat":43.28038,"lon":5.36945,"is_reserved":false,"is_disabled":false,"rental_uris":{"android":"levelo://app?vid=94aea717-4d87-4d75-a3fe-1a580f102aeb","ios":"levelo://app?vid=94aea717-4d87-4d75-a3fe-1a580f102aeb"},"vehicle_type_id":"4","last_reported":1740762508,"current_range_meters":16400,"station_id":"ce4bha12rcd13ifvqef0","pricing_plan_id":"cebpf4jnsgd1na2vs0mg"},{"bike_id":"17bc577a-25d6-4631-bb2e-9b54c762b57c","system_id":"levelo_inurba_marseille","lat":43.25503,"lon":5.37657,"is_reserved":false,"is_disabled":false,"rental_uris":{"android":"levelo://app?vid=17bc577a-25d6-4631-bb2e-9b54c762b57c","ios":"levelo://app?vid=17bc577a-25d6-4631-bb2e-9b54c762b57c"},"vehicle_type_id":"4","last_reported":1740762508,"current_range_meters":14000,"station_id":"ce4bhh12rcd13ifvqff0","pricing_plan_id":"cebpf4jnsgd1na2vs0mg"},{"bike_id":"42a32040-7739-414f-b9dd-2f37263f803c","system_id":"levelo_inurba_marseille","lat":43.2418,"lon":5.3973,"is_reserved":false,"is_disabled":false,"rental_uris":{"android":"levelo://app?vid=42a32040-7739-414f-b9dd-2f37263f803c","ios":"levelo://app?vid=42a32040-7739-414f-b9dd-2f37263f803c"},"vehicle_type_id":"4","last_reported":1740762508,"current_range_meters":14400,"station_id":"ce4bhn12rcd13ifvqgpg","pricing_plan_id":"cebpf4jnsgd1na2vs0mg"},{"bike_id":"488f6cd5-cb77-4caf-8e95-0bcfdbb2f6d9","system_id":"levelo_inurba_marseille","lat":43.29932,"lon":5.36557,"is_reserved":false,"is_disabled":false,"rental_uris":{"android":"levelo://app?vid=488f6cd5-cb77-4caf-8e95-0bcfdbb2f6d9","ios":"levelo://app?vid=488f6cd5-cb77-4caf-8e95-0bcfdbb2f6d9"},"vehicle_type_id":"4","last_reported":1740762508,"current_range_meters":14800,"station_id":"ce4bgm92rcd13ifvqbr0","pricing_plan_id":"cebpf4jnsgd1na2vs0mg"},{"bike_id":"6bbab6b1-f56f-40c0-9ead-763c1175d216","system_id":"levelo_inurba_marseille","lat":43.28617,"lon":5.351,"is_reserved":false,"is_disabled":false,"rental_uris":{"android":"levelo://app?vid=6bbab6b1-f56f-40c0-9ead-763c1175d216","ios":"levelo://app?vid=6bbab6b1-f56f-40c0-9ead-763c1175d216"},"vehicle_type_id":"4","last_reported":1740762508,"current_range_meters":11200,"station_id":"ce4bhch2rcd13ifvqeug","pricing_plan_id":"cebpf4jnsgd1na2vs0mg"},{"bike_id":"597c78d8-1097-48db-b3be-fafc8754eab9","system_id":"levelo_inurba_marseille","lat":43.2417,"lon":5.36395,"is_reserved":false,"is_disabled":false,"rental_uris":{"android":"levelo://app?vid=597c78d8-1097-48db-b3be-fafc8754eab9","ios":"levelo://app?vid=597c78d8-1097-48db-b3be-fafc8754eab9"},"vehicle_type_id":"4","last_reported":1740762508,"current_range_meters":14800,"station_id":"cpo36qri1sfpv3e86is0","pricing_plan_id":"cebpf4jnsgd1na2vs0mg"},{"bike_id":"3456d514-fe36-451b-ac71-29d937054c70","system_id":"levelo_inurba_marseille","lat":43.31343,"lon":5.36704,"is_reserved":false,"is_disabled":false,"rental_uris":{"android":"levelo://app?vid=3456d514-fe36-451b-ac71-29d937054c70","ios":"levelo://app?vid=3456d514-fe36-451b-ac71-29d937054c70"},"vehicle_type_id":"4","last_reported":1740762508,"current_range_meters":15200,"station_id":"ce4bgr92rcd13ifvqc6g","pricing_plan_id":"cebpf4jnsgd1na2vs0mg"},{"bike_id":"412fb57c-6ad1-4217-b80a-38cb7548912d","system_id":"levelo_inurba_marseille","lat":43.28618,"lon":5.35108,"is_reserved":false,"is_disabled":false,"rental_uris":{"android":"levelo://app?vid=412fb57c-6ad1-4217-b80a-38cb7548912d","ios":"levelo://app?vid=412fb57c-6ad1-4217-b80a-38cb7548912d"},"vehicle_type_id":"4","last_reported":1740762508,"current_range_meters":14800,"station_id":"ce4bhch2rcd13ifvqeug","pricing_plan_id":"cebpf4jnsgd1na2vs0mg"},{"bike_id":"53c61e28-eb89-47f7-b6c5-b769bdbce1c9","system_id":"levelo_inurba_marseille","lat":43.29073,"lon":5.37142,"is_reserved":false,"is_disabled":false,"rental_uris":{"android":"levelo://app?vid=53c61e28-eb89-47f7-b6c5-b769bdbce1c9","ios":"levelo://app?vid=53c61e28-eb89-47f7-b6c5-b769bdbce1c9"},"vehicle_type_id":"4","last_reported":1740762508,"current_range_meters":14800,"station_id":"ce4bh5p2rcd13ifvqe4g","pricing_plan_id":"cebpf4jnsgd1na2vs0mg"},{"bike_id":"36a77ec4-fbda-45c6-92d7-ad9ecc981f56","system_id":"levelo_inurba_marseille","lat":43.30138,"lon":5.39862,"is_reserved":false,"is_disabled":false,"rental_uris":{"android":"levelo://app?vid=36a77ec4-fbda-45c6-92d7-ad9ecc981f56","ios":"levelo://app?vid=36a77ec4-fbda-45c6-92d7-ad9ecc981f56"},"vehicle_type_id":"4","last_reported":1740762508,"current_range_meters":14800,"station_id":"ce4bh0h2rcd13ifvqd40","pricing_plan_id":"cebpf4jnsgd1na2vs0mg"},{"bike_id":"c12942ae-263f-4f7e-b7c3-3f1f4a07ce17","system_id":"levelo_inurba_marseille","lat":43.31733,"lon":5.404,"is_reserved":false,"is_disabled":false,"rental_uris":{"android":"levelo://app?vid=c12942ae-263f-4f7e-b7c3-3f1f4a07ce17","ios":"levelo://app?vid=c12942ae-263f-4f7e-b7c3-3f1f4a07ce17"},"vehicle_type_id":"4","last_reported":1740762508,"current_range_meters":14800,"station_id":"ce4bh012rcd13ifvqd00","pricing_plan_id":"cebpf4jnsgd1na2vs0mg"},{"bike_id":"fa1db882-731a-481c-b800-1c556e635e57","system_id":"levelo_inurba_marseille","lat":43.29538,"lon":5.39024,"is_reserved":false,"is_disabled":false,"rental_uris":{"android":"levelo://app?vid=fa1db882-731a-481c-b800-1c556e635e57","ios":"levelo://app?vid=fa1db882-731a-481c-b800-1c556e635e57"},"vehicle_type_id":"4","last_reported":1740762508,"current_range_meters":14800,"station_id":"ce4bh3p2rcd13ifvqdp0","pricing_plan_id":"cebpf4jnsgd1na2vs0mg"},{"bike_id":"bf1eed92-676b-451d-aed6-59b23a557ad1","system_id":"levelo_inurba_marseille","lat":43.26196,"lon":5.37456,"is_reserved":false,"is_disabled":false,"rental_uris":{"android":"levelo://app?vid=bf1eed92-676b-451d-aed6-59b23a557ad1","ios":"levelo://app?vid=bf1eed92-676b-451d-aed6-59b23a557ad1"},"vehicle_type_id":"4","last_reported":1740762508,"current_range_meters":16400,"station_id":"ce4bhgp2rcd13ifvqfc0","pricing_plan_id":"cebpf4jnsgd1na2vs0mg"},{"bike_id":"c8d4262f-3f94-4d6d-9d53-13252f646c21","system_id":"levelo_inurba_marseille","lat":43.26212,"lon":5.37441,"is_reserved":false,"is_disabled":false,"rental_uris":{"android":"levelo://app?vid=c8d4262f-3f94-4d6d-9d53-13252f646c21","ios":"levelo://app?vid=c8d4262f-3f94-4d6d-9d53-13252f646c21"},"vehicle_type_id":"4","last_reported":1740762508,"current_range_meters":14800,"station_id":"ce4bhgp2rcd13ifvqfc0","pricing_plan_id":"cebpf4jnsgd1na2vs0mg"},{"bike_id":"192adea5-a213-4231-85f9-987063f5c28a","system_id":"levelo_inurba_marseille","lat":43.232,"lon":5.35554,"is_reserved":false,"is_disabled":false,"rental_uris":{"android":"levelo://app?vid=192adea5-a213-4231-85f9-987063f5c28a","ios":"levelo://app?vid=192adea5-a213-4231-85f9-987063f5c28a"},"vehicle_type_id":"4","last_reported":1740762508,"current_range_meters":15200,"station_id":"ce4bhu92rcd13ifvqi70","pricing_plan_id":"cebpf4jnsgd1na2vs0mg"},{"bike_id":"62937bba-5dce-4ce1-86a9-2ed46b281fa7","system_id":"levelo_inurba_marseille","lat":43.26943,"lon":5.40252,"is_reserved":false,"is_disabled":false,"rental_uris":{"android":"levelo://app?vid=62937bba-5dce-4ce1-86a9-2ed46b281fa7","ios":"levelo://app?vid=62937bba-5dce-4ce1-86a9-2ed46b281fa7"},"vehicle_type_id":"4","last_reported":1740762508,"current_range_meters":14800,"station_id":"cjm6bp8fraef2m0cb0m0","pricing_plan_id":"cebpf4jnsgd1na2vs0mg"},{"bike_id":"7fe3b8af-0b0a-40fb-9e8c-373c1d67a6e2","system_id":"levelo_inurba_marseille","lat":43.23185,"lon":5.39981,"is_reserved":false,"is_disabled":false,"rental_uris":{"android":"levelo://app?vid=7fe3b8af-0b0a-40fb-9e8c-373c1d67a6e2","ios":"levelo://app?vid=7fe3b8af-0b0a-40fb-9e8c-373c1d67a6e2"},"vehicle_type_id":"4","last_reported":1740762508,"current_range_meters":15200,"station_id":"ce4bhn12rcd13ifvqgqg","pricing_plan_id":"cebpf4jnsgd1na2vs0mg"},{"bike_id":"48eded8c-e02e-439a-8af6-f6fc488f3a49","system_id":"levelo_inurba_marseille","lat":43.28427,"lon":5.34987,"is_reserved":false,"is_disabled":false,"rental_uris":{"android":"levelo://app?vid=48eded8c-e02e-439a-8af6-f6fc488f3a49","ios":"levelo://app?vid=48eded8c-e02e-439a-8af6-f6fc488f3a49"},"vehicle_type_id":"4","last_reported":1740762508,"current_range_meters":16000,"station_id":"ce4bhbh2rcd13ifvqepg","pricing_plan_id":"cebpf4jnsgd1na2vs0mg"},{"bike_id":"8c86cb21-5e53-44c8-a766-70640a93721c","system_id":"levelo_inurba_marseille","lat":43.291892,"lon":5.375556,"is_reserved":false,"is_disabled":false,"rental_uris":{"android":"levelo://app?vid=8c86cb21-5e53-44c8-a766-70640a93721c","ios":"levelo://app?vid=8c86cb21-5e53-44c8-a766-70640a93721c"},"vehicle_type_id":"4","last_reported":1740762508,"current_range_meters":16000,"station_id":"","pricing_plan_id":"cebpf4jnsgd1na2vs0mg"},{"bike_id":"64fc1650-f3a1-4993-be35-bbc0c55c0232","system_id":"levelo_inurba_marseille","lat":43.27806,"lon":5.36268,"is_reserved":false,"is_disabled":false,"rental_uris":{"android":"levelo://app?vid=64fc1650-f3a1-4993-be35-bbc0c55c0232","ios":"levelo://app?vid=64fc1650-f3a1-4993-be35-bbc0c55c0232"},"vehicle_type_id":"4","last_reported":1740762508,"current_range_meters":16000,"station_id":"","pricing_plan_id":"cebpf4jnsgd1na2vs0mg"},{"bike_id":"87548d49-efa3-4556-b3a3-cc826408ee0e","system_id":"levelo_inurba_marseille","lat":43.30589,"lon":5.39353,"is_reserved":false,"is_disabled":false,"rental_uris":{"android":"levelo://app?vid=87548d49-efa3-4556-b3a3-cc826408ee0e","ios":"levelo://app?vid=87548d49-efa3-4556-b3a3-cc826408ee0e"},"vehicle_type_id":"4","last_reported":1740762508,"current_range_meters":16000,"station_id":"ce4bh0p2rcd13ifvqd80","pricing_plan_id":"cebpf4jnsgd1na2vs0mg"},{"bike_id":"695e9a27-d903-4bbc-b050-bcc463be80aa","system_id":"levelo_inurba_marseille","lat":43.24176,"lon":5.36399,"is_reserved":false,"is_disabled":false,"rental_uris":{"android":"levelo://app?vid=695e9a27-d903-4bbc-b050-bcc463be80aa","ios":"levelo://app?vid=695e9a27-d903-4bbc-b050-bcc463be80aa"},"vehicle_type_id":"4","last_reported":1740762508,"current_range_meters":16000,"station_id":"cpo36qri1sfpv3e86is0","pricing_plan_id":"cebpf4jnsgd1na2vs0mg"},{"bike_id":"ce0e1720-b3d0-4caf-a54e-8d2c569d20ec","system_id":"levelo_inurba_marseille","lat":43.33594,"lon":5.41021,"is_reserved":false,"is_disabled":false,"rental_uris":{"android":"levelo://app?vid=ce0e1720-b3d0-4caf-a54e-8d2c569d20ec","ios":"levelo://app?vid=ce0e1720-b3d0-4caf-a54e-8d2c569d20ec"},"vehicle_type_id":"4","last_reported":1740762508,"current_range_meters":16000,"station_id":"ce4bhqh2rcd13ifvqhmg","pricing_plan_id":"cebpf4jnsgd1na2vs0mg"},{"bike_id":"3c35677d-bfcc-4f02-afa9-2b733f39b21d","system_id":"levelo_inurba_marseille","lat":43.29849,"lon":5.36285,"is_reserved":false,"is_disabled":false,"rental_uris":{"android":"levelo://app?vid=3c35677d-bfcc-4f02-afa9-2b733f39b21d","ios":"levelo://app?vid=3c35677d-bfcc-4f02-afa9-2b733f39b21d"},"vehicle_type_id":"4","last_reported":1740762508,"current_range_meters":15200,"station_id":"ce4bgpp2rcd13ifvqc3g","pricing_plan_id":"cebpf4jnsgd1na2vs0mg"},{"bike_id":"9d0546b9-abb6-4ae3-9ed7-8d418444c7ba","system_id":"levelo_inurba_marseille","lat":43.23198,"lon":5.35553,"is_reserved":false,"is_disabled":false,"rental_uris":{"android":"levelo://app?vid=9d0546b9-abb6-4ae3-9ed7-8d418444c7ba","ios":"levelo://app?vid=9d0546b9-abb6-4ae3-9ed7-8d418444c7ba"},"vehicle_type_id":"4","last_reported":1740762508,"current_range_meters":16000,"station_id":"ce4bhu92rcd13ifvqi70","pricing_plan_id":"cebpf4jnsgd1na2vs0mg"},{"bike_id":"27f8d61f-de01-4772-8b8c-ceceaf4de61e","system_id":"levelo_inurba_marseille","lat":43.290617,"lon":5.37161,"is_reserved":false,"is_disabled":true,"rental_uris":{"android":"levelo://app?vid=27f8d61f-de01-4772-8b8c-ceceaf4de61e","ios":"levelo://app?vid=27f8d61f-de01-4772-8b8c-ceceaf4de61e"},"vehicle_type_id":"4","last_reported":1740762508,"current_range_meters":16000,"station_id":"ce4bh5p2rcd13ifvqe4g","pricing_plan_id":"cebpf4jnsgd1na2vs0mg"},{"bike_id":"d332001a-10e4-4a2b-991a-6c0614b3e7fa","system_id":"levelo_inurba_marseille","lat":43.27051,"lon":5.40266,"is_reserved":false,"is_disabled":false,"rental_uris":{"android":"levelo://app?vid=d332001a-10e4-4a2b-991a-6c0614b3e7fa","ios":"levelo://app?vid=d332001a-10e4-4a2b-991a-6c0614b3e7fa"},"vehicle_type_id":"4","last_reported":1740762508,"current_range_meters":18000,"station_id":"ce4bhk92rcd13ifvqgc0","pricing_plan_id":"cebpf4jnsgd1na2vs0mg"},{"bike_id":"0693b9d6-4a9d-4e38-bfa2-80f934bcc2e3","system_id":"levelo_inurba_marseille","lat":43.241726,"lon":5.36407,"is_reserved":false,"is_disabled":false,"rental_uris":{"android":"levelo://app?vid=0693b9d6-4a9d-4e38-bfa2-80f934bcc2e3","ios":"levelo://app?vid=0693b9d6-4a9d-4e38-bfa2-80f934bcc2e3"},"vehicle_type_id":"4","last_reported":1740762508,"current_range_meters":16400,"station_id":"cpo36qri1sfpv3e86is0","pricing_plan_id":"cebpf4jnsgd1na2vs0mg"},{"bike_id":"6f3df57a-2d51-4bfb-b7a0-affa017fbb17","system_id":"levelo_inurba_marseille","lat":43.31883,"lon":5.40741,"is_reserved":false,"is_disabled":false,"rental_uris":{"android":"levelo://app?vid=6f3df57a-2d51-4bfb-b7a0-affa017fbb17","ios":"levelo://app?vid=6f3df57a-2d51-4bfb-b7a0-affa017fbb17"},"vehicle_type_id":"4","last_reported":1740762508,"current_range_meters":16000,"station_id":"ce4bhq12rcd13ifvqhig","pricing_plan_id":"cebpf4jnsgd1na2vs0mg"},{"bike_id":"291052b8-103c-46fa-8bde-f728238e0ef8","system_id":"levelo_inurba_marseille","lat":43.286111,"lon":5.351111,"is_reserved":false,"is_disabled":false,"rental_uris":{"android":"levelo://app?vid=291052b8-103c-46fa-8bde-f728238e0ef8","ios":"levelo://app?vid=291052b8-103c-46fa-8bde-f728238e0ef8"},"vehicle_type_id":"4","last_reported":1740762508,"current_range_meters":16000,"station_id":"ce4bh9p2rcd13ifvqed0","pricing_plan_id":"cebpf4jnsgd1na2vs0mg"},{"bike_id":"cdd1903a-bb45-4307-a73c-fe79844ca002","system_id":"levelo_inurba_marseille","lat":43.27996,"lon":5.40014,"is_reserved":false,"is_disabled":false,"rental_uris":{"android":"levelo://app?vid=cdd1903a-bb45-4307-a73c-fe79844ca002","ios":"levelo://app?vid=cdd1903a-bb45-4307-a73c-fe79844ca002"},"vehicle_type_id":"4","last_reported":1740762508,"current_range_meters":16800,"station_id":"ce4bho92rcd13ifvqh4g","pricing_plan_id":"cebpf4jnsgd1na2vs0mg"},{"bike_id":"a43d23d2-0d6e-4cf7-8691-8ab079a8ff69","system_id":"levelo_inurba_marseille","lat":43.29903,"lon":5.43668,"is_reserved":false,"is_disabled":false,"rental_uris":{"android":"levelo://app?vid=a43d23d2-0d6e-4cf7-8691-8ab079a8ff69","ios":"levelo://app?vid=a43d23d2-0d6e-4cf7-8691-8ab079a8ff69"},"vehicle_type_id":"4","last_reported":1740762508,"current_range_meters":16400,"station_id":"ce4bhpp2rcd13ifvqhfg","pricing_plan_id":"cebpf4jnsgd1na2vs0mg"},{"bike_id":"1c05c9eb-a923-464b-b8e2-a210bd9c428d","system_id":"levelo_inurba_marseille","lat":43.28422,"lon":5.35003,"is_reserved":false,"is_disabled":false,"rental_uris":{"android":"levelo://app?vid=1c05c9eb-a923-464b-b8e2-a210bd9c428d","ios":"levelo://app?vid=1c05c9eb-a923-464b-b8e2-a210bd9c428d"},"vehicle_type_id":"4","last_reported":1740762508,"current_range_meters":16400,"station_id":"ce4bhbh2rcd13ifvqepg","pricing_plan_id":"cebpf4jnsgd1na2vs0mg"},{"bike_id":"4015c440-7267-44b4-8be2-f4b87cb51aa9","system_id":"levelo_inurba_marseille","lat":43.25582,"lon":5.38207,"is_reserved":false,"is_disabled":false,"rental_uris":{"android":"levelo://app?vid=4015c440-7267-44b4-8be2-f4b87cb51aa9","ios":"levelo://app?vid=4015c440-7267-44b4-8be2-f4b87cb51aa9"},"vehicle_type_id":"4","last_reported":1740762508,"current_range_meters":16400,"station_id":"ce4bhih2rcd13ifvqfs0","pricing_plan_id":"cebpf4jnsgd1na2vs0mg"},{"bike_id":"199f6953-90bf-452d-a70b-9790e3c9500e","system_id":"levelo_inurba_marseille","lat":43.28417,"lon":5.34989,"is_reserved":false,"is_disabled":false,"rental_uris":{"android":"levelo://app?vid=199f6953-90bf-452d-a70b-9790e3c9500e","ios":"levelo://app?vid=199f6953-90bf-452d-a70b-9790e3c9500e"},"vehicle_type_id":"4","last_reported":1740762508,"current_range_meters":16400,"station_id":"ce4bhbh2rcd13ifvqepg","pricing_plan_id":"cebpf4jnsgd1na2vs0mg"},{"bike_id":"2db2542e-45d2-4fc9-b998-6b4b504e1c56","system_id":"levelo_inurba_marseille","lat":43.27615,"lon":5.36113,"is_reserved":false,"is_disabled":false,"rental_uris":{"android":"levelo://app?vid=2db2542e-45d2-4fc9-b998-6b4b504e1c56","ios":"levelo://app?vid=2db2542e-45d2-4fc9-b998-6b4b504e1c56"},"vehicle_type_id":"4","last_reported":1740762508,"current_range_meters":16400,"station_id":"ce4bgj92rcd13ifvqbe0","pricing_plan_id":"cebpf4jnsgd1na2vs0mg"},{"bike_id":"eaa98765-8913-45dc-a4b8-edde079508f9","system_id":"levelo_inurba_marseille","lat":43.29042,"lon":5.37559,"is_reserved":false,"is_disabled":false,"rental_uris":{"android":"levelo://app?vid=eaa98765-8913-45dc-a4b8-edde079508f9","ios":"levelo://app?vid=eaa98765-8913-45dc-a4b8-edde079508f9"},"vehicle_type_id":"4","last_reported":1740762508,"current_range_meters":16800,"station_id":"ce4bh692rcd13ifvqe90","pricing_plan_id":"cebpf4jnsgd1na2vs0mg"},{"bike_id":"f9f4593d-ec14-43c6-ac64-d227a2c444e7","system_id":"levelo_inurba_marseille","lat":43.29936,"lon":5.38544,"is_reserved":false,"is_disabled":true,"rental_uris":{"android":"levelo://app?vid=f9f4593d-ec14-43c6-ac64-d227a2c444e7","ios":"levelo://app?vid=f9f4593d-ec14-43c6-ac64-d227a2c444e7"},"vehicle_type_id":"4","last_reported":1740762508,"current_range_meters":16800,"station_id":"","pricing_plan_id":"cebpf4jnsgd1na2vs0mg"},{"bike_id":"0f9705fd-90c3-4091-99d2-9b14f6107e0b","system_id":"levelo_inurba_marseille","lat":43.27402,"lon":5.4193,"is_reserved":false,"is_disabled":false,"rental_uris":{"android":"levelo://app?vid=0f9705fd-90c3-4091-99d2-9b14f6107e0b","ios":"levelo://app?vid=0f9705fd-90c3-4091-99d2-9b14f6107e0b"},"vehicle_type_id":"4","last_reported":1740762508,"current_range_meters":16800,"station_id":"","pricing_plan_id":"cebpf4jnsgd1na2vs0mg"},{"bike_id":"6836dadf-edd1-4d31-8205-ebea2ce2adee","system_id":"levelo_inurba_marseille","lat":43.29373,"lon":5.3786,"is_reserved":false,"is_disabled":false,"rental_uris":{"android":"levelo://app?vid=6836dadf-edd1-4d31-8205-ebea2ce2adee","ios":"levelo://app?vid=6836dadf-edd1-4d31-8205-ebea2ce2adee"},"vehicle_type_id":"4","last_reported":1740762508,"current_range_meters":23200,"station_id":"ce4bgjh2rcd13ifvqbf0","pricing_plan_id":"cebpf4jnsgd1na2vs0mg"},{"bike_id":"161d70e9-e213-4bf5-bde1-9c3d7296d89c","system_id":"levelo_inurba_marseille","lat":43.27805,"lon":5.39209,"is_reserved":false,"is_disabled":true,"rental_uris":{"android":"levelo://app?vid=161d70e9-e213-4bf5-bde1-9c3d7296d89c","ios":"levelo://app?vid=161d70e9-e213-4bf5-bde1-9c3d7296d89c"},"vehicle_type_id":"4","last_reported":1740762508,"current_range_meters":16800,"station_id":"ce4bhjp2rcd13ifvqga0","pricing_plan_id":"cebpf4jnsgd1na2vs0mg"},{"bike_id":"0627d4ba-db68-4842-877f-b92f955eb870","system_id":"levelo_inurba_marseille","lat":43.26197,"lon":5.37451,"is_reserved":false,"is_disabled":false,"rental_uris":{"android":"levelo://app?vid=0627d4ba-db68-4842-877f-b92f955eb870","ios":"levelo://app?vid=0627d4ba-db68-4842-877f-b92f955eb870"},"vehicle_type_id":"4","last_reported":1740762508,"current_range_meters":16800,"station_id":"ce4bhgp2rcd13ifvqfc0","pricing_plan_id":"cebpf4jnsgd1na2vs0mg"},{"bike_id":"5afe3ca4-4293-472f-af4b-7206f75b5a44","system_id":"levelo_inurba_marseille","lat":43.298424,"lon":5.362693,"is_reserved":false,"is_disabled":false,"rental_uris":{"android":"levelo://app?vid=5afe3ca4-4293-472f-af4b-7206f75b5a44","ios":"levelo://app?vid=5afe3ca4-4293-472f-af4b-7206f75b5a44"},"vehicle_type_id":"4","last_reported":1740762508,"current_range_meters":16800,"station_id":"ce4bgpp2rcd13ifvqc3g","pricing_plan_id":"cebpf4jnsgd1na2vs0mg"},{"bike_id":"ccf9d1d2-f79e-4c72-965b-8581b45fceff","system_id":"levelo_inurba_marseille","lat":43.296235,"lon":5.377146,"is_reserved":false,"is_disabled":false,"rental_uris":{"android":"levelo://app?vid=ccf9d1d2-f79e-4c72-965b-8581b45fceff","ios":"levelo://app?vid=ccf9d1d2-f79e-4c72-965b-8581b45fceff"},"vehicle_type_id":"4","last_reported":1740762508,"current_range_meters":16800,"station_id":"ce4bh112rcd13ifvqda0","pricing_plan_id":"cebpf4jnsgd1na2vs0mg"},{"bike_id":"9dbad41f-5b6e-4733-990b-e95cba213dca","system_id":"levelo_inurba_marseille","lat":43.31743,"lon":5.39009,"is_reserved":false,"is_disabled":false,"rental_uris":{"android":"levelo://app?vid=9dbad41f-5b6e-4733-990b-e95cba213dca","ios":"levelo://app?vid=9dbad41f-5b6e-4733-990b-e95cba213dca"},"vehicle_type_id":"4","last_reported":1740762508,"current_range_meters":17200,"station_id":"ce4bhqp2rcd13ifvqhng","pricing_plan_id":"cebpf4jnsgd1na2vs0mg"},{"bike_id":"e8fc41c6-2912-4c3c-bcee-60249cb035f4","system_id":"levelo_inurba_marseille","lat":43.29557,"lon":5.42291,"is_reserved":false,"is_disabled":false,"rental_uris":{"android":"levelo://app?vid=e8fc41c6-2912-4c3c-bcee-60249cb035f4","ios":"levelo://app?vid=e8fc41c6-2912-4c3c-bcee-60249cb035f4"},"vehicle_type_id":"4","last_reported":1740762508,"current_range_meters":17200,"station_id":"ce4bhph2rcd13ifvqhdg","pricing_plan_id":"cebpf4jnsgd1na2vs0mg"},{"bike_id":"5fcd1678-e53a-4926-9dfc-4de28408a25a","system_id":"levelo_inurba_marseille","lat":43.27064,"lon":5.40261,"is_reserved":false,"is_disabled":false,"rental_uris":{"android":"levelo://app?vid=5fcd1678-e53a-4926-9dfc-4de28408a25a","ios":"levelo://app?vid=5fcd1678-e53a-4926-9dfc-4de28408a25a"},"vehicle_type_id":"4","last_reported":1740762508,"current_range_meters":17200,"station_id":"ce4bhk92rcd13ifvqgc0","pricing_plan_id":"cebpf4jnsgd1na2vs0mg"},{"bike_id":"b8fb36a6-b5b0-4d37-a55d-b4e6fdf79f28","system_id":"levelo_inurba_marseille","lat":43.27182,"lon":5.40984,"is_reserved":false,"is_disabled":false,"rental_uris":{"android":"levelo://app?vid=b8fb36a6-b5b0-4d37-a55d-b4e6fdf79f28","ios":"levelo://app?vid=b8fb36a6-b5b0-4d37-a55d-b4e6fdf79f28"},"vehicle_type_id":"4","last_reported":1740762508,"current_range_meters":17600,"station_id":"ce4bhl12rcd13ifvqgf0","pricing_plan_id":"cebpf4jnsgd1na2vs0mg"},{"bike_id":"3b36b226-98d2-4af8-91f8-8c77480fbe2d","system_id":"levelo_inurba_marseille","lat":43.29963,"lon":5.38504,"is_reserved":false,"is_disabled":false,"rental_uris":{"android":"levelo://app?vid=3b36b226-98d2-4af8-91f8-8c77480fbe2d","ios":"levelo://app?vid=3b36b226-98d2-4af8-91f8-8c77480fbe2d"},"vehicle_type_id":"4","last_reported":1740762508,"current_range_meters":17600,"station_id":"ce4bgj92rcd13ifvqbd0","pricing_plan_id":"cebpf4jnsgd1na2vs0mg"},{"bike_id":"1a95b01e-896d-4994-9fd3-6841efe0da32","system_id":"levelo_inurba_marseille","lat":43.28109,"lon":5.37835,"is_reserved":false,"is_disabled":false,"rental_uris":{"android":"levelo://app?vid=1a95b01e-896d-4994-9fd3-6841efe0da32","ios":"levelo://app?vid=1a95b01e-896d-4994-9fd3-6841efe0da32"},"vehicle_type_id":"4","last_reported":1740762508,"current_range_meters":17200,"station_id":"ce4bha12rcd13ifvqee0","pricing_plan_id":"cebpf4jnsgd1na2vs0mg"},{"bike_id":"e4d8aea3-ca93-43b3-b49c-2c9bc9cbc59f","system_id":"levelo_inurba_marseille","lat":43.27807,"lon":5.40706,"is_reserved":false,"is_disabled":false,"rental_uris":{"android":"levelo://app?vid=e4d8aea3-ca93-43b3-b49c-2c9bc9cbc59f","ios":"levelo://app?vid=e4d8aea3-ca93-43b3-b49c-2c9bc9cbc59f"},"vehicle_type_id":"4","last_reported":1740762508,"current_range_meters":18000,"station_id":"ce4bhnh2rcd13ifvqgtg","pricing_plan_id":"cebpf4jnsgd1na2vs0mg"},{"bike_id":"0fa9de02-d4e3-46a1-9135-52dc14e5e5d2","system_id":"levelo_inurba_marseille","lat":43.28411,"lon":5.3499,"is_reserved":false,"is_disabled":false,"rental_uris":{"android":"levelo://app?vid=0fa9de02-d4e3-46a1-9135-52dc14e5e5d2","ios":"levelo://app?vid=0fa9de02-d4e3-46a1-9135-52dc14e5e5d2"},"vehicle_type_id":"4","last_reported":1740762508,"current_range_meters":18000,"station_id":"ce4bhbh2rcd13ifvqepg","pricing_plan_id":"cebpf4jnsgd1na2vs0mg"},{"bike_id":"6db91927-3fd6-4bee-ba5c-6a25356eca33","system_id":"levelo_inurba_marseille","lat":43.2952,"lon":5.394044,"is_reserved":false,"is_disabled":false,"rental_uris":{"android":"levelo://app?vid=6db91927-3fd6-4bee-ba5c-6a25356eca33","ios":"levelo://app?vid=6db91927-3fd6-4bee-ba5c-6a25356eca33"},"vehicle_type_id":"4","last_reported":1740762508,"current_range_meters":17600,"station_id":"","pricing_plan_id":"cebpf4jnsgd1na2vs0mg"},{"bike_id":"40934b71-845e-4f3a-bef6-a23530397ee7","system_id":"levelo_inurba_marseille","lat":43.28274,"lon":5.35071,"is_reserved":false,"is_disabled":false,"rental_uris":{"android":"levelo://app?vid=40934b71-845e-4f3a-bef6-a23530397ee7","ios":"levelo://app?vid=40934b71-845e-4f3a-bef6-a23530397ee7"},"vehicle_type_id":"4","last_reported":1740762508,"current_range_meters":18000,"station_id":"ce4bhbp2rcd13ifvqerg","pricing_plan_id":"cebpf4jnsgd1na2vs0mg"},{"bike_id":"7bc504c5-1042-4a1e-987e-3cf57aa9874d","system_id":"levelo_inurba_marseille","lat":43.26941,"lon":5.40246,"is_reserved":false,"is_disabled":false,"rental_uris":{"android":"levelo://app?vid=7bc504c5-1042-4a1e-987e-3cf57aa9874d","ios":"levelo://app?vid=7bc504c5-1042-4a1e-987e-3cf57aa9874d"},