{"last_updated":1770662550,"ttl":60,"version":"2.2","data":{"bikes":[{"bike_id":"1efe1a19-fbf0-44a6-870c-a91345e7555b","system_id":"levelo_inurba_marseille","lat":43.337444,"lon":5.374475,"is_reserved":false,"is_disabled":false,"rental_uris":{"android":"levelo://app?vid=1efe1a19-fbf0-44a6-870c-a91345e7555b","ios":"levelo://app?vid=1efe1a19-fbf0-44a6-870c-a91345e7555b"},"vehicle_type_id":"4","last_reported":1770662551,"current_range_meters":2800,"station_id":"","pricing_plan_id":"cebpf4jnsgd1na2vs0mg"},{"bike_id":"4b6ae7cf-a20c-45bf-93e3-f78d3a6e7a98","system_id":"levelo_inurba_marseille","lat":43.25931,"lon":5.40893,"is_reserved":false,"is_disabled":false,"rental_uris":{"android":"levelo://app?vid=4b6ae7cf-a20c-45bf-93e3-f78d3a6e7a98","ios":"levelo://app?vid=4b6ae7cf-a20c-45bf-93e3-f78d3a6e7a98"},"vehicle_type_id":"4","last_reported":1770662551,"current_range_meters":2800,"station_id":"ce4bhm92rcd13ifvqglg","pricing_plan_id":"cebpf4jnsgd1na2vs0mg"},{"bike_id":"be47d4e3-2289-4735-b882-955a4216eaf9","system_id":"levelo_inurba_marseille","lat":43.25485,"lon":5.37653,"is_reserved":false,"is_disabled":false,"rental_uris":{"android":"levelo://app?vid=be47d4e3-2289-4735-b882-955a4216eaf9","ios":"levelo://app?vid=be47d4e3-2289-4735-b882-955a4216eaf9"},"vehicle_type_id":"4","last_reported":1770662551,"current_range_meters":2800,"station_id":"ce4bhh12rcd13ifvqff0","pricing_plan_id":"cebpf4jnsgd1na2vs0mg"},{"bike_id":"442d3514-6080-4e1b-8c33-6ac18aef8c96","system_id":"levelo_inurba_marseille","lat":43.31224,"lon":5.38688,"is_reserved":false,"is_disabled":false,"rental_uris":{"android":"levelo://app?vid=442d3514-6080-4e1b-8c33-6ac18aef8c96","ios":"levelo://app?vid=442d3514-6080-4e1b-8c33-6ac18aef8c96"},"vehicle_type_id":"4","last_reported":1770662551,"current_range_meters":2800,"station_id":"ce4bgv12rcd13ifvqcp0","pricing_plan_id":"cebpf4jnsgd1na2vs0mg"},{"bike_id":"a2f08b7b-3148-4ae3-b1d5-0ad2ed6e132c","system_id":"levelo_inurba_marseille","lat":43.286279,"lon":5.443341,"is_reserved":false,"is_disabled":false,"rental_uris":{"android":"levelo://app?vid=a2f08b7b-3148-4ae3-b1d5-0ad2ed6e132c","ios":"levelo://app?vid=a2f08b7b-3148-4ae3-b1d5-0ad2ed6e132c"},"vehicle_type_id":"4","last_reported":1770662551,"current_range_meters":2800,"station_id":"","pricing_plan_id":"cebpf4jnsgd1na2vs0mg"},{"bike_id":"9b5fcc90-aa12-4a54-b6fd-12d35137fbce","system_id":"levelo_inurba_marseille","lat":43.30935,"lon":5.40166,"is_reserved":false,"is_disabled":false,"rental_uris":{"android":"levelo://app?vid=9b5fcc90-aa12-4a54-b6fd-12d35137fbce","ios":"levelo://app?vid=9b5fcc90-aa12-4a54-b6fd-12d35137fbce"},"vehicle_type_id":"4","last_reported":1770662551,"current_range_meters":2800,"station_id":"ce4bgvp2rcd13ifvqct0","pricing_plan_id":"cebpf4jnsgd1na2vs0mg"},{"bike_id":"482352ee-a4fe-4be9-9c66-ecb7d435c8fc","system_id":"levelo_inurba_marseille","lat":43.28473,"lon":5.35877,"is_reserved":false,"is_disabled":false,"rental_uris":{"android":"levelo://app?vid=482352ee-a4fe-4be9-9c66-ecb7d435c8fc","ios":"levelo://app?vid=482352ee-a4fe-4be9-9c66-ecb7d435c8fc"},"vehicle_type_id":"4","last_reported":1770662551,"current_range_meters":2800,"station_id":"ce4bhah2rcd13ifvqei0","pricing_plan_id":"cebpf4jnsgd1na2vs0mg"},{"bike_id":"05280667-4306-4a3c-89fe-64debd7d10a7","system_id":"levelo_inurba_marseille","lat":43.25003,"lon":5.38928,"is_reserved":false,"is_disabled":false,"rental_uris":{"android":"levelo://app?vid=05280667-4306-4a3c-89fe-64debd7d10a7","ios":"levelo://app?vid=05280667-4306-4a3c-89fe-64debd7d10a7"},"vehicle_type_id":"4","last_reported":1770662551,"current_range_meters":2800,"station_id":"ce4bhgp2rcd13ifvqfd0","pricing_plan_id":"cebpf4jnsgd1na2vs0mg"},{"bike_id":"ec0956ce-ee45-4ce3-8424-01e54fd6dda2","system_id":"levelo_inurba_marseille","lat":43.23181,"lon":5.39984,"is_reserved":false,"is_disabled":false,"rental_uris":{"android":"levelo://app?vid=ec0956ce-ee45-4ce3-8424-01e54fd6dda2","ios":"levelo://app?vid=ec0956ce-ee45-4ce3-8424-01e54fd6dda2"},"vehicle_type_id":"4","last_reported":1770662551,"current_range_meters":2800,"station_id":"ce4bhn12rcd13ifvqgqg","pricing_plan_id":"cebpf4jnsgd1na2vs0mg"},{"bike_id":"5663c11a-36c1-4fce-9564-f08c26e3fd38","system_id":"levelo_inurba_marseille","lat":43.27573,"lon":5.38445,"is_reserved":false,"is_disabled":false,"rental_uris":{"android":"levelo://app?vid=5663c11a-36c1-4fce-9564-f08c26e3fd38","ios":"levelo://app?vid=5663c11a-36c1-4fce-9564-f08c26e3fd38"},"vehicle_type_id":"4","last_reported":1770662551,"current_range_meters":3200,"station_id":"ce4bhh92rcd13ifvqfi0","pricing_plan_id":"cebpf4jnsgd1na2vs0mg"},{"bike_id":"56196338-22d2-4f99-8767-75c30566deea","system_id":"levelo_inurba_marseille","lat":43.28941,"lon":5.3664,"is_reserved":false,"is_disabled":false,"rental_uris":{"android":"levelo://app?vid=56196338-22d2-4f99-8767-75c30566deea","ios":"levelo://app?vid=56196338-22d2-4f99-8767-75c30566deea"},"vehicle_type_id":"4","last_reported":1770662551,"current_range_meters":3200,"station_id":"ce4bhap2rcd13ifvqek0","pricing_plan_id":"cebpf4jnsgd1na2vs0mg"},{"bike_id":"d5242b4a-769b-48b8-8522-816e7c28d15b","system_id":"levelo_inurba_marseille","lat":43.26214,"lon":5.37454,"is_reserved":false,"is_disabled":false,"rental_uris":{"android":"levelo://app?vid=d5242b4a-769b-48b8-8522-816e7c28d15b","ios":"levelo://app?vid=d5242b4a-769b-48b8-8522-816e7c28d15b"},"vehicle_type_id":"4","last_reported":1770662551,"current_range_meters":3200,"station_id":"ce4bhgp2rcd13ifvqfc0","pricing_plan_id":"cebpf4jnsgd1na2vs0mg"},{"bike_id":"77a82100-2277-4b58-9b15-14c337bb7326","system_id":"levelo_inurba_marseille","lat":43.31367,"lon":5.38496,"is_reserved":false,"is_disabled":false,"rental_uris":{"android":"levelo://app?vid=77a82100-2277-4b58-9b15-14c337bb7326","ios":"levelo://app?vid=77a82100-2277-4b58-9b15-14c337bb7326"},"vehicle_type_id":"4","last_reported":1770662551,"current_range_meters":3200,"station_id":"ce4bgt92rcd13ifvqcf0","pricing_plan_id":"cebpf4jnsgd1na2vs0mg"},{"bike_id":"62468bc0-7c46-4734-a9fc-6c79792208c6","system_id":"levelo_inurba_marseille","lat":43.275629,"lon":5.384192,"is_reserved":false,"is_disabled":false,"rental_uris":{"android":"levelo://app?vid=62468bc0-7c46-4734-a9fc-6c79792208c6","ios":"levelo://app?vid=62468bc0-7c46-4734-a9fc-6c79792208c6"},"vehicle_type_id":"4","last_reported":1770662551,"current_range_meters":3200,"station_id":"ce4bh0h2rcd13ifvqd60","pricing_plan_id":"cebpf4jnsgd1na2vs0mg"},{"bike_id":"4798e218-731f-4f1f-b812-458e019ae4db","system_id":"levelo_inurba_marseille","lat":43.27999,"lon":5.40018,"is_reserved":false,"is_disabled":false,"rental_uris":{"android":"levelo://app?vid=4798e218-731f-4f1f-b812-458e019ae4db","ios":"levelo://app?vid=4798e218-731f-4f1f-b812-458e019ae4db"},"vehicle_type_id":"4","last_reported":1770662551,"current_range_meters":3200,"station_id":"ce4bho92rcd13ifvqh4g","pricing_plan_id":"cebpf4jnsgd1na2vs0mg"},{"bike_id":"7fb9800c-8931-4829-bd49-50f2334ec3cf","system_id":"levelo_inurba_marseille","lat":43.3267,"lon":5.40998,"is_reserved":false,"is_disabled":false,"rental_uris":{"android":"levelo://app?vid=7fb9800c-8931-4829-bd49-50f2334ec3cf","ios":"levelo://app?vid=7fb9800c-8931-4829-bd49-50f2334ec3cf"},"vehicle_type_id":"4","last_reported":1770662551,"current_range_meters":3200,"station_id":"ce4bhpp2rcd13ifvqhgg","pricing_plan_id":"cebpf4jnsgd1na2vs0mg"},{"bike_id":"eb4f3087-f321-48ae-b659-58b78ed944bf","system_id":"levelo_inurba_marseille","lat":43.26203,"lon":5.37934,"is_reserved":false,"is_disabled":false,"rental_uris":{"android":"levelo://app?vid=eb4f3087-f321-48ae-b659-58b78ed944bf","ios":"levelo://app?vid=eb4f3087-f321-48ae-b659-58b78ed944bf"},"vehicle_type_id":"4","last_reported":1770662551,"current_range_meters":3200,"station_id":"ce4bhjp2rcd13ifvqg90","pricing_plan_id":"cebpf4jnsgd1na2vs0mg"},{"bike_id":"d88ce57b-6c1a-4907-835b-0207dd464ff7","system_id":"levelo_inurba_marseille","lat":43.29068,"lon":5.37155,"is_reserved":false,"is_disabled":false,"rental_uris":{"android":"levelo://app?vid=d88ce57b-6c1a-4907-835b-0207dd464ff7","ios":"levelo://app?vid=d88ce57b-6c1a-4907-835b-0207dd464ff7"},"vehicle_type_id":"4","last_reported":1770662551,"current_range_meters":3200,"station_id":"ce4bh5p2rcd13ifvqe4g","pricing_plan_id":"cebpf4jnsgd1na2vs0mg"},{"bike_id":"a31fc7e8-c033-49bd-b807-7cba43703f2f","system_id":"levelo_inurba_marseille","lat":43.30997,"lon":5.39274,"is_reserved":false,"is_disabled":false,"rental_uris":{"android":"levelo://app?vid=a31fc7e8-c033-49bd-b807-7cba43703f2f","ios":"levelo://app?vid=a31fc7e8-c033-49bd-b807-7cba43703f2f"},"vehicle_type_id":"4","last_reported":1770662551,"current_range_meters":3200,"station_id":"","pricing_plan_id":"cebpf4jnsgd1na2vs0mg"},{"bike_id":"9ddf953c-b18f-4547-ae58-68cc5bf19c96","system_id":"levelo_inurba_marseille","lat":43.292615,"lon":5.38435,"is_reserved":false,"is_disabled":false,"rental_uris":{"android":"levelo://app?vid=9ddf953c-b18f-4547-ae58-68cc5bf19c96","ios":"levelo://app?vid=9ddf953c-b18f-4547-ae58-68cc5bf19c96"},"vehicle_type_id":"4","last_reported":1770662551,"current_range_meters":3600,"station_id":"ce4bh692rcd13ifvqea0","pricing_plan_id":"cebpf4jnsgd1na2vs0mg"},{"bike_id":"fb42dd14-8842-4c1b-bf3c-4ce250e467ea","system_id":"levelo_inurba_marseille","lat":43.25698,"lon":5.4108,"is_reserved":false,"is_disabled":false,"rental_uris":{"android":"levelo://app?vid=fb42dd14-8842-4c1b-bf3c-4ce250e467ea","ios":"levelo://app?vid=fb42dd14-8842-4c1b-bf3c-4ce250e467ea"},"vehicle_type_id":"4","last_reported":1770662551,"current_range_meters":3600,"station_id":"ce4bhkp2rcd13ifvqgd0","pricing_plan_id":"cebpf4jnsgd1na2vs0mg"},{"bike_id":"7e4e4351-b952-45a3-b7cb-4c8f97834c19","system_id":"levelo_inurba_marseille","lat":43.28147,"lon":5.42627,"is_reserved":false,"is_disabled":false,"rental_uris":{"android":"levelo://app?vid=7e4e4351-b952-45a3-b7cb-4c8f97834c19","ios":"levelo://app?vid=7e4e4351-b952-45a3-b7cb-4c8f97834c19"},"vehicle_type_id":"4","last_reported":1770662551,"current_range_meters":3600,"station_id":"ce4bhnh2rcd13ifvqgug","pricing_plan_id":"cebpf4jnsgd1na2vs0mg"},{"bike_id":"ffcfb0a6-be0d-4d3d-b9ec-3a4698a83e7b","system_id":"levelo_inurba_marseille","lat":43.25935,"lon":5.4092,"is_reserved":false,"is_disabled":false,"rental_uris":{"android":"levelo://app?vid=ffcfb0a6-be0d-4d3d-b9ec-3a4698a83e7b","ios":"levelo://app?vid=ffcfb0a6-be0d-4d3d-b9ec-3a4698a83e7b"},"vehicle_type_id":"4","last_reported":1770662551,"current_range_meters":3600,"station_id":"ce4bhm92rcd13ifvqglg","pricing_plan_id":"cebpf4jnsgd1na2vs0mg"},{"bike_id":"cb4e831c-6025-4234-bd44-dc892f6a6133","system_id":"levelo_inurba_marseille","lat":43.26561,"lon":5.40323,"is_reserved":false,"is_disabled":false,"rental_uris":{"android":"levelo://app?vid=cb4e831c-6025-4234-bd44-dc892f6a6133","ios":"levelo://app?vid=cb4e831c-6025-4234-bd44-dc892f6a6133"},"vehicle_type_id":"4","last_reported":1770662551,"current_range_meters":3600,"station_id":"ce4bhmp2rcd13ifvqgng","pricing_plan_id":"cebpf4jnsgd1na2vs0mg"},{"bike_id":"ef6ce157-048a-4fc1-8f31-c823377f5d47","system_id":"levelo_inurba_marseille","lat":43.249505,"lon":5.404876,"is_reserved":false,"is_disabled":false,"rental_uris":{"android":"levelo://app?vid=ef6ce157-048a-4fc1-8f31-c823377f5d47","ios":"levelo://app?vid=ef6ce157-048a-4fc1-8f31-c823377f5d47"},"vehicle_type_id":"4","last_reported":1770662551,"current_range_meters":3600,"station_id":"st_d2ngiaodas8pm72gd1h0","pricing_plan_id":"cebpf4jnsgd1na2vs0mg"},{"bike_id":"673315b3-7d24-4f4f-a2e6-bee5f439653e","system_id":"levelo_inurba_marseille","lat":43.24817,"lon":5.37461,"is_reserved":false,"is_disabled":false,"rental_uris":{"android":"levelo://app?vid=673315b3-7d24-4f4f-a2e6-bee5f439653e","ios":"levelo://app?vid=673315b3-7d24-4f4f-a2e6-bee5f439653e"},"vehicle_type_id":"4","last_reported":1770662551,"current_range_meters":3600,"station_id":"ce4bhgh2rcd13ifvqfb0","pricing_plan_id":"cebpf4jnsgd1na2vs0mg"},{"bike_id":"1684ebc7-97c1-4d21-a426-28e2e12e0ca9","system_id":"levelo_inurba_marseille","lat":43.29282,"lon":5.40103,"is_reserved":false,"is_disabled":false,"rental_uris":{"android":"levelo://app?vid=1684ebc7-97c1-4d21-a426-28e2e12e0ca9","ios":"levelo://app?vid=1684ebc7-97c1-4d21-a426-28e2e12e0ca9"},"vehicle_type_id":"4","last_reported":1770662551,"current_range_meters":3600,"station_id":"ce4bh312rcd13ifvqdk0","pricing_plan_id":"cebpf4jnsgd1na2vs0mg"},{"bike_id":"733294e4-f91f-4521-b232-9f24c48af8a6","system_id":"levelo_inurba_marseille","lat":43.24671,"lon":5.38146,"is_reserved":false,"is_disabled":false,"rental_uris":{"android":"levelo://app?vid=733294e4-f91f-4521-b232-9f24c48af8a6","ios":"levelo://app?vid=733294e4-f91f-4521-b232-9f24c48af8a6"},"vehicle_type_id":"4","last_reported":1770662551,"current_range_meters":3600,"station_id":"ce4bhih2rcd13ifvqfr0","pricing_plan_id":"cebpf4jnsgd1na2vs0mg"},{"bike_id":"af6169d9-8227-4bc2-a9c8-ba41309791d6","system_id":"levelo_inurba_marseille","lat":43.28606,"lon":5.39871,"is_reserved":false,"is_disabled":false,"rental_uris":{"android":"levelo://app?vid=af6169d9-8227-4bc2-a9c8-ba41309791d6","ios":"levelo://app?vid=af6169d9-8227-4bc2-a9c8-ba41309791d6"},"vehicle_type_id":"4","last_reported":1770662551,"current_range_meters":3600,"station_id":"st_d4a7ka997mjs738ck50g","pricing_plan_id":"cebpf4jnsgd1na2vs0mg"},{"bike_id":"7dd2d399-6383-4a0d-a881-e62efd3ea562","system_id":"levelo_inurba_marseille","lat":43.23211,"lon":5.35556,"is_reserved":false,"is_disabled":false,"rental_uris":{"android":"levelo://app?vid=7dd2d399-6383-4a0d-a881-e62efd3ea562","ios":"levelo://app?vid=7dd2d399-6383-4a0d-a881-e62efd3ea562"},"vehicle_type_id":"4","last_reported":1770662551,"current_range_meters":3600,"station_id":"ce4bhu92rcd13ifvqi70","pricing_plan_id":"cebpf4jnsgd1na2vs0mg"},{"bike_id":"73d40cef-8833-4f02-88bd-429ead79640e","system_id":"levelo_inurba_marseille","lat":43.27817,"lon":5.40711,"is_reserved":false,"is_disabled":false,"rental_uris":{"android":"levelo://app?vid=73d40cef-8833-4f02-88bd-429ead79640e","ios":"levelo://app?vid=73d40cef-8833-4f02-88bd-429ead79640e"},"vehicle_type_id":"4","last_reported":1770662551,"current_range_meters":4000,"station_id":"ce4bhnh2rcd13ifvqgtg","pricing_plan_id":"cebpf4jnsgd1na2vs0mg"},{"bike_id":"2b060739-8a17-4d09-a229-369f0d4dc051","system_id":"levelo_inurba_marseille","lat":43.309356,"lon":5.401399,"is_reserved":false,"is_disabled":false,"rental_uris":{"android":"levelo://app?vid=2b060739-8a17-4d09-a229-369f0d4dc051","ios":"levelo://app?vid=2b060739-8a17-4d09-a229-369f0d4dc051"},"vehicle_type_id":"4","last_reported":1770662551,"current_range_meters":4000,"station_id":"ce4bgvp2rcd13ifvqct0","pricing_plan_id":"cebpf4jnsgd1na2vs0mg"},{"bike_id":"a075a52d-7b9c-4afa-a54b-d6c37a4d3c13","system_id":"levelo_inurba_marseille","lat":43.2835,"lon":5.381,"is_reserved":false,"is_disabled":false,"rental_uris":{"android":"levelo://app?vid=a075a52d-7b9c-4afa-a54b-d6c37a4d3c13","ios":"levelo://app?vid=a075a52d-7b9c-4afa-a54b-d6c37a4d3c13"},"vehicle_type_id":"4","last_reported":1770662551,"current_range_meters":4000,"station_id":"ce4bh412rcd13ifvqdr0","pricing_plan_id":"cebpf4jnsgd1na2vs0mg"},{"bike_id":"50c59f61-1fd1-4eb2-bab2-cdbd2b887f2f","system_id":"levelo_inurba_marseille","lat":43.26251,"lon":5.40448,"is_reserved":false,"is_disabled":false,"rental_uris":{"android":"levelo://app?vid=50c59f61-1fd1-4eb2-bab2-cdbd2b887f2f","ios":"levelo://app?vid=50c59f61-1fd1-4eb2-bab2-cdbd2b887f2f"},"vehicle_type_id":"4","last_reported":1770662551,"current_range_meters":4000,"station_id":"ce4bhmh2rcd13ifvqgmg","pricing_plan_id":"cebpf4jnsgd1na2vs0mg"},{"bike_id":"71451140-6a66-4e0a-adf3-3d833054c886","system_id":"levelo_inurba_marseille","lat":43.297801,"lon":5.371078,"is_reserved":false,"is_disabled":false,"rental_uris":{"android":"levelo://app?vid=71451140-6a66-4e0a-adf3-3d833054c886","ios":"levelo://app?vid=71451140-6a66-4e0a-adf3-3d833054c886"},"vehicle_type_id":"4","last_reported":1770662551,"current_range_meters":4000,"station_id":"ce4bgop2rcd13ifvqc1g","pricing_plan_id":"cebpf4jnsgd1na2vs0mg"},{"bike_id":"db1998cd-95a3-4e79-8d30-39cac85db9a9","system_id":"levelo_inurba_marseille","lat":43.29859,"lon":5.36282,"is_reserved":false,"is_disabled":false,"rental_uris":{"android":"levelo://app?vid=db1998cd-95a3-4e79-8d30-39cac85db9a9","ios":"levelo://app?vid=db1998cd-95a3-4e79-8d30-39cac85db9a9"},"vehicle_type_id":"4","last_reported":1770662551,"current_range_meters":4000,"station_id":"ce4bgpp2rcd13ifvqc3g","pricing_plan_id":"cebpf4jnsgd1na2vs0mg"},{"bike_id":"becb79b5-93e2-44f0-a94f-424a8d20f18a","system_id":"levelo_inurba_marseille","lat":43.28004,"lon":5.40014,"is_reserved":false,"is_disabled":false,"rental_uris":{"android":"levelo://app?vid=becb79b5-93e2-44f0-a94f-424a8d20f18a","ios":"levelo://app?vid=becb79b5-93e2-44f0-a94f-424a8d20f18a"},"vehicle_type_id":"4","last_reported":1770662551,"current_range_meters":4000,"station_id":"ce4bho92rcd13ifvqh4g","pricing_plan_id":"cebpf4jnsgd1na2vs0mg"},{"bike_id":"93970335-4470-4a5f-a484-02ad1983c213","system_id":"levelo_inurba_marseille","lat":43.30606,"lon":5.39354,"is_reserved":false,"is_disabled":true,"rental_uris":{"android":"levelo://app?vid=93970335-4470-4a5f-a484-02ad1983c213","ios":"levelo://app?vid=93970335-4470-4a5f-a484-02ad1983c213"},"vehicle_type_id":"4","last_reported":1770662551,"current_range_meters":4000,"station_id":"ce4bh0p2rcd13ifvqd80","pricing_plan_id":"cebpf4jnsgd1na2vs0mg"},{"bike_id":"0c2cc3de-7273-4c5b-9461-1e559706be6c","system_id":"levelo_inurba_marseille","lat":43.30312,"lon":5.39214,"is_reserved":false,"is_disabled":false,"rental_uris":{"android":"levelo://app?vid=0c2cc3de-7273-4c5b-9461-1e559706be6c","ios":"levelo://app?vid=0c2cc3de-7273-4c5b-9461-1e559706be6c"},"vehicle_type_id":"4","last_reported":1770662551,"current_range_meters":4000,"station_id":"ce4bgkh2rcd13ifvqbk0","pricing_plan_id":"cebpf4jnsgd1na2vs0mg"},{"bike_id":"6e033c35-dbfc-4ffc-a036-eedd79c14d36","system_id":"levelo_inurba_marseille","lat":43.217527,"lon":5.346061,"is_reserved":false,"is_disabled":true,"rental_uris":{"android":"levelo://app?vid=6e033c35-dbfc-4ffc-a036-eedd79c14d36","ios":"levelo://app?vid=6e033c35-dbfc-4ffc-a036-eedd79c14d36"},"vehicle_type_id":"4","last_reported":1770662551,"current_range_meters":4000,"station_id":"st_cvj6r9ubvosntc0bgbag","pricing_plan_id":"cebpf4jnsgd1na2vs0mg"},{"bike_id":"247da1c9-e7a2-4c2a-8eaf-e2f0d137bc9f","system_id":"levelo_inurba_marseille","lat":43.26683,"lon":5.38265,"is_reserved":false,"is_disabled":false,"rental_uris":{"android":"levelo://app?vid=247da1c9-e7a2-4c2a-8eaf-e2f0d137bc9f","ios":"levelo://app?vid=247da1c9-e7a2-4c2a-8eaf-e2f0d137bc9f"},"vehicle_type_id":"4","last_reported":1770662551,"current_range_meters":4400,"station_id":"ce4bhg92rcd13ifvqf90","pricing_plan_id":"cebpf4jnsgd1na2vs0mg"},{"bike_id":"81f5a16d-a2f0-4cd2-a5c9-53e69bf4cd2c","system_id":"levelo_inurba_marseille","lat":43.295436,"lon":5.422767,"is_reserved":false,"is_disabled":false,"rental_uris":{"android":"levelo://app?vid=81f5a16d-a2f0-4cd2-a5c9-53e69bf4cd2c","ios":"levelo://app?vid=81f5a16d-a2f0-4cd2-a5c9-53e69bf4cd2c"},"vehicle_type_id":"4","last_reported":1770662551,"current_range_meters":4400,"station_id":"ce4bhph2rcd13ifvqhdg","pricing_plan_id":"cebpf4jnsgd1na2vs0mg"},{"bike_id":"ded75624-1bc3-4275-a536-d876f34410c8","system_id":"levelo_inurba_marseille","lat":43.31181,"lon":5.38722,"is_reserved":false,"is_disabled":false,"rental_uris":{"android":"levelo://app?vid=ded75624-1bc3-4275-a536-d876f34410c8","ios":"levelo://app?vid=ded75624-1bc3-4275-a536-d876f34410c8"},"vehicle_type_id":"4","last_reported":1770662551,"current_range_meters":4400,"station_id":"ce4bgv12rcd13ifvqcp0","pricing_plan_id":"cebpf4jnsgd1na2vs0mg"},{"bike_id":"7793efe0-796a-47b9-b395-f00d6d2ba2f3","system_id":"levelo_inurba_marseille","lat":43.335393,"lon":5.374646,"is_reserved":false,"is_disabled":false,"rental_uris":{"android":"levelo://app?vid=7793efe0-796a-47b9-b395-f00d6d2ba2f3","ios":"levelo://app?vid=7793efe0-796a-47b9-b395-f00d6d2ba2f3"},"vehicle_type_id":"4","last_reported":1770662551,"current_range_meters":4400,"station_id":"st_d46tts09ee8s73dlu43g","pricing_plan_id":"cebpf4jnsgd1na2vs0mg"},{"bike_id":"eb4c876b-88dd-43ec-8628-44a384f402f0","system_id":"levelo_inurba_marseille","lat":43.33573,"lon":5.37453,"is_reserved":false,"is_disabled":false,"rental_uris":{"android":"levelo://app?vid=eb4c876b-88dd-43ec-8628-44a384f402f0","ios":"levelo://app?vid=eb4c876b-88dd-43ec-8628-44a384f402f0"},"vehicle_type_id":"4","last_reported":1770662551,"current_range_meters":4400,"station_id":"st_d46tts09ee8s73dlu43g","pricing_plan_id":"cebpf4jnsgd1na2vs0mg"},{"bike_id":"41c56df1-4a12-41aa-b1b3-97e3cd6db9f0","system_id":"levelo_inurba_marseille","lat":43.28156,"lon":5.42645,"is_reserved":false,"is_disabled":false,"rental_uris":{"android":"levelo://app?vid=41c56df1-4a12-41aa-b1b3-97e3cd6db9f0","ios":"levelo://app?vid=41c56df1-4a12-41aa-b1b3-97e3cd6db9f0"},"vehicle_type_id":"4","last_reported":1770662551,"current_range_meters":4400,"station_id":"ce4bhnh2rcd13ifvqgug","pricing_plan_id":"cebpf4jnsgd1na2vs0mg"},{"bike_id":"8c139d21-9d12-4792-a44d-13109cee3e0a","system_id":"levelo_inurba_marseille","lat":43.27048,"lon":5.41994,"is_reserved":false,"is_disabled":false,"rental_uris":{"android":"levelo://app?vid=8c139d21-9d12-4792-a44d-13109cee3e0a","ios":"levelo://app?vid=8c139d21-9d12-4792-a44d-13109cee3e0a"},"vehicle_type_id":"4","last_reported":1770662551,"current_range_meters":4400,"station_id":"","pricing_plan_id":"cebpf4jnsgd1na2vs0mg"},{"bike_id":"571ca71f-8b56-4d58-bc5a-5c7066e60a3b","system_id":"levelo_inurba_marseille","lat":43.29025,"lon":5.3865,"is_reserved":false,"is_disabled":false,"rental_uris":{"android":"levelo://app?vid=571ca71f-8b56-4d58-bc5a-5c7066e60a3b","ios":"levelo://app?vid=571ca71f-8b56-4d58-bc5a-5c7066e60a3b"},"vehicle_type_id":"4","last_reported":1770662551,"current_range_meters":4400,"station_id":"ce4bh4p2rcd13ifvqe0g","pricing_plan_id":"cebpf4jnsgd1na2vs0mg"},{"bike_id":"420225de-91ed-4962-8a53-71817ed386e2","system_id":"levelo_inurba_marseille","lat":43.295435,"lon":5.38534,"is_reserved":false,"is_disabled":false,"rental_uris":{"android":"levelo://app?vid=420225de-91ed-4962-8a53-71817ed386e2","ios":"levelo://app?vid=420225de-91ed-4962-8a53-71817ed386e2"},"vehicle_type_id":"4","last_reported":1770662551,"current_range_meters":4800,"station_id":"ce4bgih2rcd13ifvqba0","pricing_plan_id":"cebpf4jnsgd1na2vs0mg"},{"bike_id":"ee9abad9-80fc-4ecb-ab21-8845cb825978","system_id":"levelo_inurba_marseille","lat":43.3119,"lon":5.3873,"is_reserved":false,"is_disabled":false,"rental_uris":{"android":"levelo://app?vid=ee9abad9-80fc-4ecb-ab21-8845cb825978","ios":"levelo://app?vid=ee9abad9-80fc-4ecb-ab21-8845cb825978"},"vehicle_type_id":"4","last_reported":1770662551,"current_range_meters":4800,"station_id":"ce4bgv12rcd13ifvqcp0","pricing_plan_id":"cebpf4jnsgd1na2vs0mg"},{"bike_id":"d621f5e7-8acc-4ff4-a69d-a1422860881c","system_id":"levelo_inurba_marseille","lat":43.29521,"lon":5.39416,"is_reserved":false,"is_disabled":false,"rental_uris":{"android":"levelo://app?vid=d621f5e7-8acc-4ff4-a69d-a1422860881c","ios":"levelo://app?vid=d621f5e7-8acc-4ff4-a69d-a1422860881c"},"vehicle_type_id":"4","last_reported":1770662551,"current_range_meters":4800,"station_id":"ce4bh292rcd13ifvqdf0","pricing_plan_id":"cebpf4jnsgd1na2vs0mg"},{"bike_id":"db9f4bfe-422b-4ecc-92fd-207eb0ffeb86","system_id":"levelo_inurba_marseille","lat":43.28315,"lon":5.35081,"is_reserved":false,"is_disabled":false,"rental_uris":{"android":"levelo://app?vid=db9f4bfe-422b-4ecc-92fd-207eb0ffeb86","ios":"levelo://app?vid=db9f4bfe-422b-4ecc-92fd-207eb0ffeb86"},"vehicle_type_id":"4","last_reported":1770662551,"current_range_meters":4800,"station_id":"","pricing_plan_id":"cebpf4jnsgd1na2vs0mg"},{"bike_id":"707dd2c5-36da-401a-beac-91d3b45ec1bb","system_id":"levelo_inurba_marseille","lat":43.24662,"lon":5.3815,"is_reserved":false,"is_disabled":false,"rental_uris":{"android":"levelo://app?vid=707dd2c5-36da-401a-beac-91d3b45ec1bb","ios":"levelo://app?vid=707dd2c5-36da-401a-beac-91d3b45ec1bb"},"vehicle_type_id":"4","last_reported":1770662551,"current_range_meters":4800,"station_id":"ce4bhih2rcd13ifvqfr0","pricing_plan_id":"cebpf4jnsgd1na2vs0mg"},{"bike_id":"c0233929-846b-4349-9303-07b216c9c12b","system_id":"levelo_inurba_marseille","lat":43.30224,"lon":5.39464,"is_reserved":false,"is_disabled":false,"rental_uris":{"android":"levelo://app?vid=c0233929-846b-4349-9303-07b216c9c12b","ios":"levelo://app?vid=c0233929-846b-4349-9303-07b216c9c12b"},"vehicle_type_id":"4","last_reported":1770662551,"current_range_meters":4800,"station_id":"ce4bh0p2rcd13ifvqd70","pricing_plan_id":"cebpf4jnsgd1na2vs0mg"},{"bike_id":"cce409e3-e6c0-4194-832c-ffe927c88385","system_id":"levelo_inurba_marseille","lat":43.29561,"lon":5.42283,"is_reserved":false,"is_disabled":false,"rental_uris":{"android":"levelo://app?vid=cce409e3-e6c0-4194-832c-ffe927c88385","ios":"levelo://app?vid=cce409e3-e6c0-4194-832c-ffe927c88385"},"vehicle_type_id":"4","last_reported":1770662551,"current_range_meters":4800,"station_id":"ce4bhph2rcd13ifvqhdg","pricing_plan_id":"cebpf4jnsgd1na2vs0mg"},{"bike_id":"ac645712-adb7-427c-9a1d-bbc03b4ccac1","system_id":"levelo_inurba_marseille","lat":43.211935,"lon":5.350689,"is_reserved":false,"is_disabled":false,"rental_uris":{"android":"levelo://app?vid=ac645712-adb7-427c-9a1d-bbc03b4ccac1","ios":"levelo://app?vid=ac645712-adb7-427c-9a1d-bbc03b4ccac1"},"vehicle_type_id":"4","last_reported":1770662551,"current_range_meters":4800,"station_id":"st_cvj6sg6p6f1abm77japg","pricing_plan_id":"cebpf4jnsgd1na2vs0mg"},{"bike_id":"7f82acb8-924f-41f5-9119-b3d7e4dcf745","system_id":"levelo_inurba_marseille","lat":43.24364,"lon":5.37067,"is_reserved":false,"is_disabled":false,"rental_uris":{"android":"levelo://app?vid=7f82acb8-924f-41f5-9119-b3d7e4dcf745","ios":"levelo://app?vid=7f82acb8-924f-41f5-9119-b3d7e4dcf745"},"vehicle_type_id":"4","last_reported":1770662551,"current_range_meters":4800,"station_id":"ce4bhhh2rcd13ifvqfk0","pricing_plan_id":"cebpf4jnsgd1na2vs0mg"},{"bike_id":"6ee62591-f47f-488d-a40a-8e4940a468ba","system_id":"levelo_inurba_marseille","lat":43.29909,"lon":5.37482,"is_reserved":false,"is_disabled":false,"rental_uris":{"android":"levelo://app?vid=6ee62591-f47f-488d-a40a-8e4940a468ba","ios":"levelo://app?vid=6ee62591-f47f-488d-a40a-8e4940a468ba"},"vehicle_type_id":"4","last_reported":1770662551,"current_range_meters":4800,"station_id":"ce4bgjh2rcd13ifvqbg0","pricing_plan_id":"cebpf4jnsgd1na2vs0mg"},{"bike_id":"ebbf03a2-93dc-485f-ae0e-4ece0e7270d8","system_id":"levelo_inurba_marseille","lat":43.289875,"lon":5.378308,"is_reserved":false,"is_disabled":false,"rental_uris":{"android":"levelo://app?vid=ebbf03a2-93dc-485f-ae0e-4ece0e7270d8","ios":"levelo://app?vid=ebbf03a2-93dc-485f-ae0e-4ece0e7270d8"},"vehicle_type_id":"4","last_reported":1770662551,"current_range_meters":4800,"station_id":"ce4bh9p2rcd13ifvqed0","pricing_plan_id":"cebpf4jnsgd1na2vs0mg"},{"bike_id":"5aba6095-7643-4143-8b09-182d2f94183c","system_id":"levelo_inurba_marseille","lat":43.29849,"lon":5.36273,"is_reserved":false,"is_disabled":false,"rental_uris":{"android":"levelo://app?vid=5aba6095-7643-4143-8b09-182d2f94183c","ios":"levelo://app?vid=5aba6095-7643-4143-8b09-182d2f94183c"},"vehicle_type_id":"4","last_reported":1770662551,"current_range_meters":5600,"station_id":"ce4bgpp2rcd13ifvqc3g","pricing_plan_id":"cebpf4jnsgd1na2vs0mg"},{"bike_id":"70519adb-911c-4120-b6a7-3660c44ac45b","system_id":"levelo_inurba_marseille","lat":43.247305,"lon":5.392665,"is_reserved":false,"is_disabled":false,"rental_uris":{"android":"levelo://app?vid=70519adb-911c-4120-b6a7-3660c44ac45b","ios":"levelo://app?vid=70519adb-911c-4120-b6a7-3660c44ac45b"},"vehicle_type_id":"4","last_reported":1770662551,"current_range_meters":5600,"station_id":"","pricing_plan_id":"cebpf4jnsgd1na2vs0mg"},{"bike_id":"c84e4d83-04e3-449f-9895-86dc4df2d6fd","system_id":"levelo_inurba_marseille","lat":43.28274,"lon":5.39454,"is_reserved":false,"is_disabled":false,"rental_uris":{"android":"levelo://app?vid=c84e4d83-04e3-449f-9895-86dc4df2d6fd","ios":"levelo://app?vid=c84e4d83-04e3-449f-9895-86dc4df2d6fd"},"vehicle_type_id":"4","last_reported":1770662551,"current_range_meters":5600,"station_id":"","pricing_plan_id":"cebpf4jnsgd1na2vs0mg"},{"bike_id":"135e37bf-e788-40d7-8c14-f78f3c264d3f","system_id":"levelo_inurba_marseille","lat":43.341417,"lon":5.409045,"is_reserved":false,"is_disabled":false,"rental_uris":{"android":"levelo://app?vid=135e37bf-e788-40d7-8c14-f78f3c264d3f","ios":"levelo://app?vid=135e37bf-e788-40d7-8c14-f78f3c264d3f"},"vehicle_type_id":"4","last_reported":1770662551,"current_range_meters":5600,"station_id":"ce4bhqh2rcd13ifvqhlg","pricing_plan_id":"cebpf4jnsgd1na2vs0mg"},{"bike_id":"1b602401-e360-4051-aa45-5d98f5d2a9d7","system_id":"levelo_inurba_marseille","lat":43.29929,"lon":5.36529,"is_reserved":false,"is_disabled":false,"rental_uris":{"android":"levelo://app?vid=1b602401-e360-4051-aa45-5d98f5d2a9d7","ios":"levelo://app?vid=1b602401-e360-4051-aa45-5d98f5d2a9d7"},"vehicle_type_id":"4","last_reported":1770662551,"current_range_meters":5600,"station_id":"ce4bgm92rcd13ifvqbr0","pricing_plan_id":"cebpf4jnsgd1na2vs0mg"},{"bike_id":"e30b3334-061e-44e7-87aa-ca122a1fda19","system_id":"levelo_inurba_marseille","lat":43.27553,"lon":5.3838,"is_reserved":false,"is_disabled":false,"rental_uris":{"android":"levelo://app?vid=e30b3334-061e-44e7-87aa-ca122a1fda19","ios":"levelo://app?vid=e30b3334-061e-44e7-87aa-ca122a1fda19"},"vehicle_type_id":"4","last_reported":1770662551,"current_range_meters":5600,"station_id":"ce4bhh92rcd13ifvqfi0","pricing_plan_id":"cebpf4jnsgd1na2vs0mg"},{"bike_id":"734603e4-7167-4eb1-a2c2-c433b17c8065","system_id":"levelo_inurba_marseille","lat":43.28359,"lon":5.38102,"is_reserved":false,"is_disabled":false,"rental_uris":{"android":"levelo://app?vid=734603e4-7167-4eb1-a2c2-c433b17c8065","ios":"levelo://app?vid=734603e4-7167-4eb1-a2c2-c433b17c8065"},"vehicle_type_id":"4","last_reported":1770662551,"current_range_meters":5600,"station_id":"ce4bh412rcd13ifvqdr0","pricing_plan_id":"cebpf4jnsgd1na2vs0mg"},{"bike_id":"2eb397c1-afb8-4bc9-b9c0-106a6c812bb3","system_id":"levelo_inurba_marseille","lat":43.23197,"lon":5.39988,"is_reserved":false,"is_disabled":false,"rental_uris":{"android":"levelo://app?vid=2eb397c1-afb8-4bc9-b9c0-106a6c812bb3","ios":"levelo://app?vid=2eb397c1-afb8-4bc9-b9c0-106a6c812bb3"},"vehicle_type_id":"4","last_reported":1770662551,"current_range_meters":6000,"station_id":"ce4bhn12rcd13ifvqgqg","pricing_plan_id":"cebpf4jnsgd1na2vs0mg"},{"bike_id":"e261bb0b-89cd-4db4-a981-e239137e6052","system_id":"levelo_inurba_marseille","lat":43.31998,"lon":5.38144,"is_reserved":false,"is_disabled":false,"rental_uris":{"android":"levelo://app?vid=e261bb0b-89cd-4db4-a981-e239137e6052","ios":"levelo://app?vid=e261bb0b-89cd-4db4-a981-e239137e6052"},"vehicle_type_id":"4","last_reported":1770662551,"current_range_meters":6000,"station_id":"ce4bhr12rcd13ifvqhpg","pricing_plan_id":"cebpf4jnsgd1na2vs0mg"},{"bike_id":"5e688da2-67b0-48bc-80b9-604219c1ec21","system_id":"levelo_inurba_marseille","lat":43.2962,"lon":5.37754,"is_reserved":false,"is_disabled":false,"rental_uris":{"android":"levelo://app?vid=5e688da2-67b0-48bc-80b9-604219c1ec21","ios":"levelo://app?vid=5e688da2-67b0-48bc-80b9-604219c1ec21"},"vehicle_type_id":"4","last_reported":1770662551,"current_range_meters":6000,"station_id":"ce4bgi92rcd13ifvqb90","pricing_plan_id":"cebpf4jnsgd1na2vs0mg"},{"bike_id":"0443e993-9f5a-4259-8c74-9ebdf133e470","system_id":"levelo_inurba_marseille","lat":43.31277,"lon":5.40173,"is_reserved":false,"is_disabled":false,"rental_uris":{"android":"levelo://app?vid=0443e993-9f5a-4259-8c74-9ebdf133e470","ios":"levelo://app?vid=0443e993-9f5a-4259-8c74-9ebdf133e470"},"vehicle_type_id":"4","last_reported":1770662551,"current_range_meters":6000,"station_id":"ce4bh092rcd13ifvqd30","pricing_plan_id":"cebpf4jnsgd1na2vs0mg"},{"bike_id":"d14ace5a-186c-45f9-b6a2-20b407091f63","system_id":"levelo_inurba_marseille","lat":43.31082,"lon":5.38352,"is_reserved":false,"is_disabled":false,"rental_uris":{"android":"levelo://app?vid=d14ace5a-186c-45f9-b6a2-20b407091f63","ios":"levelo://app?vid=d14ace5a-186c-45f9-b6a2-20b407091f63"},"vehicle_type_id":"4","last_reported":1770662551,"current_range_meters":6000,"station_id":"ce4bgv92rcd13ifvqcr0","pricing_plan_id":"cebpf4jnsgd1na2vs0mg"},{"bike_id":"d170295b-b012-4c46-b19c-e51dfc05c763","system_id":"levelo_inurba_marseille","lat":43.3117,"lon":5.38713,"is_reserved":false,"is_disabled":false,"rental_uris":{"android":"levelo://app?vid=d170295b-b012-4c46-b19c-e51dfc05c763","ios":"levelo://app?vid=d170295b-b012-4c46-b19c-e51dfc05c763"},"vehicle_type_id":"4","last_reported":1770662551,"current_range_meters":6000,"station_id":"ce4bgv12rcd13ifvqcp0","pricing_plan_id":"cebpf4jnsgd1na2vs0mg"},{"bike_id":"1b5e959b-ee6d-43cf-92ed-2612365986d8","system_id":"levelo_inurba_marseille","lat":43.282654,"lon":5.350606,"is_reserved":false,"is_disabled":false,"rental_uris":{"android":"levelo://app?vid=1b5e959b-ee6d-43cf-92ed-2612365986d8","ios":"levelo://app?vid=1b5e959b-ee6d-43cf-92ed-2612365986d8"},"vehicle_type_id":"4","last_reported":1770662551,"current_range_meters":6000,"station_id":"ce4bhbp2rcd13ifvqerg","pricing_plan_id":"cebpf4jnsgd1na2vs0mg"},{"bike_id":"9f6686fa-6a64-4fb0-b355-40c440a1d791","system_id":"levelo_inurba_marseille","lat":43.26198,"lon":5.37918,"is_reserved":false,"is_disabled":true,"rental_uris":{"android":"levelo://app?vid=9f6686fa-6a64-4fb0-b355-40c440a1d791","ios":"levelo://app?vid=9f6686fa-6a64-4fb0-b355-40c440a1d791"},"vehicle_type_id":"4","last_reported":1770662551,"current_range_meters":6000,"station_id":"ce4bhjp2rcd13ifvqg90","pricing_plan_id":"cebpf4jnsgd1na2vs0mg"},{"bike_id":"d5d0ae74-54fa-4b09-99f0-8e82e1b973d1","system_id":"levelo_inurba_marseille","lat":43.21745,"lon":5.34611,"is_reserved":false,"is_disabled":false,"rental_uris":{"android":"levelo://app?vid=d5d0ae74-54fa-4b09-99f0-8e82e1b973d1","ios":"levelo://app?vid=d5d0ae74-54fa-4b09-99f0-8e82e1b973d1"},"vehicle_type_id":"4","last_reported":1770662551,"current_range_meters":6000,"station_id":"","pricing_plan_id":"cebpf4jnsgd1na2vs0mg"},{"bike_id":"1adcbe6f-803a-426b-a2c4-f29ead84fbe1","system_id":"levelo_inurba_marseille","lat":43.28682,"lon":5.3635,"is_reserved":false,"is_disabled":false,"rental_uris":{"android":"levelo://app?vid=1adcbe6f-803a-426b-a2c4-f29ead84fbe1","ios":"levelo://app?vid=1adcbe6f-803a-426b-a2c4-f29ead84fbe1"},"vehicle_type_id":"4","last_reported":1770662551,"current_range_meters":6000,"station_id":"ce4bhah2rcd13ifvqej0","pricing_plan_id":"cebpf4jnsgd1na2vs0mg"},{"bike_id":"ac7c06d8-98f4-495d-9230-95cec4728eae","system_id":"levelo_inurba_marseille","lat":43.30144,"lon":5.39867,"is_reserved":false,"is_disabled":false,"rental_uris":{"android":"levelo://app?vid=ac7c06d8-98f4-495d-9230-95cec4728eae","ios":"levelo://app?vid=ac7c06d8-98f4-495d-9230-95cec4728eae"},"vehicle_type_id":"4","last_reported":1770662551,"current_range_meters":6000,"station_id":"ce4bh0h2rcd13ifvqd40","pricing_plan_id":"cebpf4jnsgd1na2vs0mg"},{"bike_id":"2a41a4e7-1277-4985-ba78-22bce5859488","system_id":"levelo_inurba_marseille","lat":43.25963,"lon":5.4091,"is_reserved":false,"is_disabled":false,"rental_uris":{"android":"levelo://app?vid=2a41a4e7-1277-4985-ba78-22bce5859488","ios":"levelo://app?vid=2a41a4e7-1277-4985-ba78-22bce5859488"},"vehicle_type_id":"4","last_reported":1770662551,"current_range_meters":6000,"station_id":"ce4bhm92rcd13ifvqglg","pricing_plan_id":"cebpf4jnsgd1na2vs0mg"},{"bike_id":"ea5b640c-f9cc-4437-aff2-20b9a17b6db1","system_id":"levelo_inurba_marseille","lat":43.25944,"lon":5.40916,"is_reserved":false,"is_disabled":false,"rental_uris":{"android":"levelo://app?vid=ea5b640c-f9cc-4437-aff2-20b9a17b6db1","ios":"levelo://app?vid=ea5b640c-f9cc-4437-aff2-20b9a17b6db1"},"vehicle_type_id":"4","last_reported":1770662551,"current_range_meters":6400,"station_id":"ce4bhm92rcd13ifvqglg","pricing_plan_id":"cebpf4jnsgd1na2vs0mg"},{"bike_id":"7b23c59a-e91f-4ebf-b287-e184212eaf2b","system_id":"levelo_inurba_marseille","lat":43.24651,"lon":5.38892,"is_reserved":false,"is_disabled":false,"rental_uris":{"android":"levelo://app?vid=7b23c59a-e91f-4ebf-b287-e184212eaf2b","ios":"levelo://app?vid=7b23c59a-e91f-4ebf-b287-e184212eaf2b"},"vehicle_type_id":"4","last_reported":1770662551,"current_range_meters":6400,"station_id":"ce4bhg12rcd13ifvqf60","pricing_plan_id":"cebpf4jnsgd1na2vs0mg"},{"bike_id":"fc830711-c6c4-41fc-8c3c-a2ef4151426a","system_id":"levelo_inurba_marseille","lat":43.26785,"lon":5.4028,"is_reserved":false,"is_disabled":false,"rental_uris":{"android":"levelo://app?vid=fc830711-c6c4-41fc-8c3c-a2ef4151426a","ios":"levelo://app?vid=fc830711-c6c4-41fc-8c3c-a2ef4151426a"},"vehicle_type_id":"4","last_reported":1770662551,"current_range_meters":6400,"station_id":"ce501612rcd8frsf0b60","pricing_plan_id":"cebpf4jnsgd1na2vs0mg"},{"bike_id":"a5acbbd9-5f45-4e0f-9727-2ba8aeddbdbb","system_id":"levelo_inurba_marseille","lat":43.307359,"lon":5.424297,"is_reserved":false,"is_disabled":false,"rental_uris":{"android":"levelo://app?vid=a5acbbd9-5f45-4e0f-9727-2ba8aeddbdbb","ios":"levelo://app?vid=a5acbbd9-5f45-4e0f-9727-2ba8aeddbdbb"},"vehicle_type_id":"4","last_reported":1770662551,"current_range_meters":6400,"station_id":"st_cvj6ca6bvosntc0bfgr0","pricing_plan_id":"cebpf4jnsgd1na2vs0mg"},{"bike_id":"850fbaea-5507-4282-b072-61ec19df6173","system_id":"levelo_inurba_marseille","lat":43.2784,"lon":5.39215,"is_reserved":false,"is_disabled":false,"rental_uris":{"android":"levelo://app?vid=850fbaea-5507-4282-b072-61ec19df6173","ios":"levelo://app?vid=850fbaea-5507-4282-b072-61ec19df6173"},"vehicle_type_id":"4","last_reported":1770662551,"current_range_meters":6400,"station_id":"ce4bhjp2rcd13ifvqga0","pricing_plan_id":"cebpf4jnsgd1na2vs0mg"},{"bike_id":"e2c3118e-ecc2-476a-9be9-aafebb10c1c9","system_id":"levelo_inurba_marseille","lat":43.24639,"lon":5.43148,"is_reserved":false,"is_disabled":false,"rental_uris":{"android":"levelo://app?vid=e2c3118e-ecc2-476a-9be9-aafebb10c1c9","ios":"levelo://app?vid=e2c3118e-ecc2-476a-9be9-aafebb10c1c9"},"vehicle_type_id":"4","last_reported":1770662551,"current_range_meters":6400,"station_id":"st_d2m6c4gdas8pm72e190g","pricing_plan_id":"cebpf4jnsgd1na2vs0mg"},{"bike_id":"4ed74a89-631e-4f3d-9ffb-104dbcec7ce5","system_id":"levelo_inurba_marseille","lat":43.279975,"lon":5.400005,"is_reserved":false,"is_disabled":false,"rental_uris":{"android":"levelo://app?vid=4ed74a89-631e-4f3d-9ffb-104dbcec7ce5","ios":"levelo://app?vid=4ed74a89-631e-4f3d-9ffb-104dbcec7ce5"},"vehicle_type_id":"4","last_reported":1770662551,"current_range_meters":6400,"station_id":"ce4bho92rcd13ifvqh4g","pricing_plan_id":"cebpf4jnsgd1na2vs0mg"},{"bike_id":"714adb90-f1ac-4859-ab1e-d48f2b2680c0","system_id":"levelo_inurba_marseille","lat":43.24794,"lon":5.37454,"is_reserved":false,"is_disabled":false,"rental_uris":{"android":"levelo://app?vid=714adb90-f1ac-4859-ab1e-d48f2b2680c0","ios":"levelo://app?vid=714adb90-f1ac-4859-ab1e-d48f2b2680c0"},"vehicle_type_id":"4","last_reported":1770662551,"current_range_meters":6400,"station_id":"ce4bhgh2rcd13ifvqfb0","pricing_plan_id":"cebpf4jnsgd1na2vs0mg"},{"bike_id":"da4cf99a-d90e-4cf7-bf05-638d81e2cbfe","system_id":"levelo_inurba_marseille","lat":43.26213,"lon":5.37442,"is_reserved":false,"is_disabled":false,"rental_uris":{"android":"levelo://app?vid=da4cf99a-d90e-4cf7-bf05-638d81e2cbfe","ios":"levelo://app?vid=da4cf99a-d90e-4cf7-bf05-638d81e2cbfe"},"vehicle_type_id":"4","last_reported":1770662551,"current_range_meters":6400,"station_id":"ce4bhgp2rcd13ifvqfc0","pricing_plan_id":"cebpf4jnsgd1na2vs0mg"},{"bike_id":"777f1f50-9ccf-46db-a1bf-cfe765ca1373","system_id":"levelo_inurba_marseille","lat":43.26063,"lon":5.39387,"is_reserved":false,"is_disabled":false,"rental_uris":{"android":"levelo://app?vid=777f1f50-9ccf-46db-a1bf-cfe765ca1373","ios":"levelo://app?vid=777f1f50-9ccf-46db-a1bf-cfe765ca1373"},"vehicle_type_id":"4","last_reported":1770662551,"current_range_meters":6400,"station_id":"ce4bhh92rcd13ifvqfj0","pricing_plan_id":"cebpf4jnsgd1na2vs0mg"},{"bike_id":"aa2bf0cd-9661-4d84-8b59-aed68b60696e","system_id":"levelo_inurba_marseille","lat":43.21758,"lon":5.3462,"is_reserved":false,"is_disabled":false,"rental_uris":{"android":"levelo://app?vid=aa2bf0cd-9661-4d84-8b59-aed68b60696e","ios":"levelo://app?vid=aa2bf0cd-9661-4d84-8b59-aed68b60696e"},"vehicle_type_id":"4","last_reported":1770662551,"current_range_meters":6400,"station_id":"st_cvj6r9ubvosntc0bgbag","pricing_plan_id":"cebpf4jnsgd1na2vs0mg"},{"bike_id":"ed8676f0-40a0-4d98-a871-3be27e2c8c37","system_id":"levelo_inurba_marseille","lat":43.31591,"lon":5.38954,"is_reserved":false,"is_disabled":false,"rental_uris":{"android":"levelo://app?vid=ed8676f0-40a0-4d98-a871-3be27e2c8c37","ios":"levelo://app?vid=ed8676f0-40a0-4d98-a871-3be27e2c8c37"},"vehicle_type_id":"4","last_reported":1770662551,"current_range_meters":6400,"station_id":"","pricing_plan_id":"cebpf4jnsgd1na2vs0mg"},{"bike_id":"631ca18a-8f45-4674-bb51-5eec2347caad","system_id":"levelo_inurba_marseille","lat":43.246567,"lon":5.38157,"is_reserved":false,"is_disabled":false,"rental_uris":{"android":"levelo://app?vid=631ca18a-8f45-4674-bb51-5eec2347caad","ios":"levelo://app?vid=631ca18a-8f45-4674-bb51-5eec2347caad"},"vehicle_type_id":"4","last_reported":1770662551,"current_range_meters":6400,"station_id":"ce4bhih2rcd13ifvqfr0","pricing_plan_id":"cebpf4jnsgd1na2vs0mg"},{"bike_id":"62ed1767-69ec-440e-aea2-43b45126861f","system_id":"levelo_inurba_marseille","lat":43.30429,"lon":5.4128,"is_reserved":false,"is_disabled":false,"rental_uris":{"android":"levelo://app?vid=62ed1767-69ec-440e-aea2-43b45126861f","ios":"levelo://app?vid=62ed1767-69ec-440e-aea2-43b45126861f"},"vehicle_type_id":"4","last_reported":1770662551,"current_range_meters":6400,"station_id":"ce4bhop2rcd13ifvqh8g","pricing_plan_id":"cebpf4jnsgd1na2vs0mg"},{"bike_id":"245f3a00-5ae9-48cf-b7da-8774ff9b41ba","system_id":"levelo_inurba_marseille","lat":43.28493,"lon":5.48405,"is_reserved":false,"is_disabled":false,"rental_uris":{"android":"levelo://app?vid=245f3a00-5ae9-48cf-b7da-8774ff9b41ba","ios":"levelo://app?vid=245f3a00-5ae9-48cf-b7da-8774ff9b41ba"},"vehicle_type_id":"4","last_reported":1770662551,"current_range_meters":6800,"station_id":"","pricing_plan_id":"cebpf4jnsgd1na2vs0mg"},{"bike_id":"b65a7e72-9e74-4b3f-b167-e422d10fb3a2","system_id":"levelo_inurba_marseille","lat":43.29941,"lon":5.38544,"is_reserved":false,"is_disabled":false,"rental_uris":{"android":"levelo://app?vid=b65a7e72-9e74-4b3f-b167-e422d10fb3a2","ios":"levelo://app?vid=b65a7e72-9e74-4b3f-b167-e422d10fb3a2"},"vehicle_type_id":"4","last_reported":1770662551,"current_range_meters":6800,"station_id":"","pricing_plan_id":"cebpf4jnsgd1na2vs0mg"},{"bike_id":"16a1688f-c2f5-4bf5-96dc-0466fbc0522d","system_id":"levelo_inurba_marseille","lat":43.27966,"lon":5.3868,"is_reserved":false,"is_disabled":false,"rental_uris":{"android":"levelo://app?vid=16a1688f-c2f5-4bf5-96dc-0466fbc0522d","ios":"levelo://app?vid=16a1688f-c2f5-4bf5-96dc-0466fbc0522d"},"vehicle_type_id":"4","last_reported":1770662551,"current_range_meters":6800,"station_id":"","pricing_plan_id":"cebpf4jnsgd1na2vs0mg"},{"bike_id":"6051b31d-701e-49ad-8b8c-d5a67a21069c","system_id":"levelo_inurba_marseille","lat":43.279983,"lon":5.400081,"is_reserved":false,"is_disabled":false,"rental_uris":{"android":"levelo://app?vid=6051b31d-701e-49ad-8b8c-d5a67a21069c","ios":"levelo://app?vid=6051b31d-701e-49ad-8b8c-d5a67a21069c"},"vehicle_type_id":"4","last_reported":1770662551,"current_range_meters":6800,"station_id":"ce4bho92rcd13ifvqh4g","pricing_plan_id":"cebpf4jnsgd1na2vs0mg"},{"bike_id":"64e54b0d-de33-4b3c-b578-3152d73f8fbd","system_id":"levelo_inurba_marseille","lat":43.29,"lon":5.35605,"is_reserved":false,"is_disabled":false,"rental_uris":{"android":"levelo://app?vid=64e54b0d-de33-4b3c-b578-3152d73f8fbd","ios":"levelo://app?vid=64e54b0d-de33-4b3c-b578-3152d73f8fbd"},"vehicle_type_id":"4","last_reported":1770662551,"current_range_meters":6800,"station_id":"ce4bhb92rcd13ifvqen0","pricing_plan_id":"cebpf4jnsgd1na2vs0mg"},{"bike_id":"305c973d-c195-4cac-9209-0747c6e138cd","system_id":"levelo_inurba_marseille","lat":43.29094,"lon":5.38144,"is_reserved":false,"is_disabled":false,"rental_uris":{"android":"levelo://app?vid=305c973d-c195-4cac-9209-0747c6e138cd","ios":"levelo://app?vid=305c973d-c195-4cac-9209-0747c6e138cd"},"vehicle_type_id":"4","last_reported":1770662551,"current_range_meters":6800,"station_id":"ce4bh512rcd13ifvqe2g","pricing_plan_id":"cebpf4jnsgd1na2vs0mg"},{"bike_id":"e392d9e4-679d-49ea-8209-6cc157225cab","system_id":"levelo_inurba_marseille","lat":43.25113,"lon":5.40331,"is_reserved":false,"is_disabled":false,"rental_uris":{"android":"levelo://app?vid=e392d9e4-679d-49ea-8209-6cc157225cab","ios":"levelo://app?vid=e392d9e4-679d-49ea-8209-6cc157225cab"},"vehicle_type_id":"4","last_reported":1770662551,"current_range_meters":6800,"station_id":"ce4bhlh2rcd13ifvqgig","pricing_plan_id":"cebpf4jnsgd1na2vs0mg"},{"bike_id":"e83d9e2f-7571-4d83-99bc-489b34ff4643","system_id":"levelo_inurba_marseille","lat":43.25336,"lon":5.42155,"is_reserved":false,"is_disabled":false,"rental_uris":{"android":"levelo://app?vid=e83d9e2f-7571-4d83-99bc-489b34ff4643","ios":"levelo://app?vid=e83d9e2f-7571-4d83-99bc-489b34ff4643"},"vehicle_type_id":"4","last_reported":1770662551,"current_range_meters":6800,"station_id":"st_d2m65c5bi1j21697t3ng","pricing_plan_id":"cebpf4jnsgd1na2vs0mg"},{"bike_id":"ade951fe-8fde-4fca-b8bd-34fd1a5c5b08","system_id":"levelo_inurba_marseille","lat":43.30573,"lon":5.36733,"is_reserved":false,"is_disabled":false,"rental_uris":{"android":"levelo://app?vid=ade951fe-8fde-4fca-b8bd-34fd1a5c5b08","ios":"levelo://app?vid=ade951fe-8fde-4fca-b8bd-34fd1a5c5b08"},"vehicle_type_id":"4","last_reported":1770662551,"current_range_meters":6800,"station_id":"","pricing_plan_id":"cebpf4jnsgd1na2vs0mg"},{"bike_id":"c0b6c3eb-4055-48c5-be4e-2f3633e2e95f","system_id":"levelo_inurba_marseille","lat":43.22568,"lon":5.4163,"is_reserved":false,"is_disabled":false,"rental_uris":{"android":"levelo://app?vid=c0b6c3eb-4055-48c5-be4e-2f3633e2e95f","ios":"levelo://app?vid=c0b6c3eb-4055-48c5-be4e-2f3633e2e95f"},"vehicle_type_id":"4","last_reported":1770662551,"current_range_meters":6800,"station_id":"st_d2o4gvlbi1j2169b742g","pricing_plan_id":"cebpf4jnsgd1na2vs0mg"},{"bike_id":"0c19d373-6eb2-4333-8212-205e194a0e67","system_id":"levelo_inurba_marseille","lat":43.24396,"lon":5.37076,"is_reserved":false,"is_disabled":false,"rental_uris":{"android":"levelo://app?vid=0c19d373-6eb2-4333-8212-205e194a0e67","ios":"levelo://app?vid=0c19d373-6eb2-4333-8212-205e194a0e67"},"vehicle_type_id":"4","last_reported":1770662551,"current_range_meters":6800,"station_id":"ce4bhhh2rcd13ifvqfk0","pricing_plan_id":"cebpf4jnsgd1na2vs0mg"},{"bike_id":"e1242b72-e1d7-481b-8195-5c5f6d9a0b11","system_id":"levelo_inurba_marseille","lat":43.24639,"lon":5.43139,"is_reserved":false,"is_disabled":false,"rental_uris":{"android":"levelo://app?vid=e1242b72-e1d7-481b-8195-5c5f6d9a0b11","ios":"levelo://app?vid=e1242b72-e1d7-481b-8195-5c5f6d9a0b11"},"vehicle_type_id":"4","last_reported":1770662551,"current_range_meters":6800,"station_id":"st_d2m6c4gdas8pm72e190g","pricing_plan_id":"cebpf4jnsgd1na2vs0mg"},{"bike_id":"0fe979d3-632e-4cc6-8d34-fa4baa89f844","system_id":"levelo_inurba_marseille","lat":43.28442,"lon":5.39206,"is_reserved":false,"is_disabled":false,"rental_uris":{"android":"levelo://app?vid=0fe979d3-632e-4cc6-8d34-fa4baa89f844","ios":"levelo://app?vid=0fe979d3-632e-4cc6-8d34-fa4baa89f844"},"vehicle_type_id":"4","last_reported":1770662551,"current_range_meters":6800,"station_id":"ce4bhoh2rcd13ifvqh5g","pricing_plan_id":"cebpf4jnsgd1na2vs0mg"},{"bike_id":"c7bbf095-123b-4bee-ad41-9c67326d6c8c","system_id":"levelo_inurba_marseille","lat":43.26229,"lon":5.40456,"is_reserved":false,"is_disabled":false,"rental_uris":{"android":"levelo://app?vid=c7bbf095-123b-4bee-ad41-9c67326d6c8c","ios":"levelo://app?vid=c7bbf095-123b-4bee-ad41-9c67326d6c8c"},"vehicle_type_id":"4","last_reported":1770662551,"current_range_meters":6800,"station_id":"ce4bhmh2rcd13ifvqgmg","pricing_plan_id":"cebpf4jnsgd1na2vs0mg"},{"bike_id":"b0437b95-ba96-479d-b093-d1fdf30e7bf6","system_id":"levelo_inurba_marseille","lat":43.3146,"lon":5.40425,"is_reserved":false,"is_disabled":false,"rental_uris":{"android":"levelo://app?vid=b0437b95-ba96-479d-b093-d1fdf30e7bf6","ios":"levelo://app?vid=b0437b95-ba96-479d-b093-d1fdf30e7bf6"},"vehicle_type_id":"4","last_reported":1770662551,"current_range_meters":6800,"station_id":"","pricing_plan_id":"cebpf4jnsgd1na2vs0mg"},{"bike_id":"a53d40b7-9b7e-4bab-bd76-6b4ef0af6f1b","system_id":"levelo_inurba_marseille","lat":43.30813,"lon":5.38157,"is_reserved":false,"is_disabled":false,"rental_uris":{"android":"levelo://app?vid=a53d40b7-9b7e-4bab-bd76-6b4ef0af6f1b","ios":"levelo://app?vid=a53d40b7-9b7e-4bab-bd76-6b4ef0af6f1b"},"vehicle_type_id":"4","last_reported":1770662551,"current_range_meters":6800,"station_id":"ce4bgt12rcd13ifvqce0","pricing_plan_id":"cebpf4jnsgd1na2vs0mg"},{"bike_id":"8275bb2a-6cd2-4420-ab99-150ea7d0a3eb","system_id":"levelo_inurba_marseille","lat":43.29846,"lon":5.36272,"is_reserved":false,"is_disabled":false,"rental_uris":{"android":"levelo://app?vid=8275bb2a-6cd2-4420-ab99-150ea7d0a3eb","ios":"levelo://app?vid=8275bb2a-6cd2-4420-ab99-150ea7d0a3eb"},"vehicle_type_id":"4","last_reported":1770662551,"current_range_meters":6800,"station_id":"ce4bgpp2rcd13ifvqc3g","pricing_plan_id":"cebpf4jnsgd1na2vs0mg"},{"bike_id":"7d59f1f1-2621-4853-91a8-34ee2eea3bf8","system_id":"levelo_inurba_marseille","lat":43.24399,"lon":5.37066,"is_reserved":false,"is_disabled":false,"rental_uris":{"android":"levelo://app?vid=7d59f1f1-2621-4853-91a8-34ee2eea3bf8","ios":"levelo://app?vid=7d59f1f1-2621-4853-91a8-34ee2eea3bf8"},"vehicle_type_id":"4","last_reported":1770662551,"current_range_meters":7200,"station_id":"ce4bhhh2rcd13ifvqfk0","pricing_plan_id":"cebpf4jnsgd1na2vs0mg"},{"bike_id":"54bd52e6-912c-41e4-90a6-85e5c05a7d3d","system_id":"levelo_inurba_marseille","lat":43.22582,"lon":5.41632,"is_reserved":false,"is_disabled":false,"rental_uris":{"android":"levelo://app?vid=54bd52e6-912c-41e4-90a6-85e5c05a7d3d","ios":"levelo://app?vid=54bd52e6-912c-41e4-90a6-85e5c05a7d3d"},"vehicle_type_id":"4","last_reported":1770662551,"current_range_meters":7200,"station_id":"st_d2o4gvlbi1j2169b742g","pricing_plan_id":"cebpf4jnsgd1na2vs0mg"},{"bike_id":"0460d08b-9eee-490e-a660-bbd5c5041233","system_id":"levelo_inurba_marseille","lat":43.25002,"lon":5.38932,"is_reserved":false,"is_disabled":false,"rental_uris":{"android":"levelo://app?vid=0460d08b-9eee-490e-a660-bbd5c5041233","ios":"levelo://app?vid=0460d08b-9eee-490e-a660-bbd5c5041233"},"vehicle_type_id":"4","last_reported":1770662551,"current_range_meters":7200,"station_id":"ce4bhgp2rcd13ifvqfd0","pricing_plan_id":"cebpf4jnsgd1na2vs0mg"},{"bike_id":"db2e5c22-9f82-4c32-b356-f06e3f0ce6ed","system_id":"levelo_inurba_marseille","lat":43.240817,"lon":5.377479,"is_reserved":false,"is_disabled":false,"rental_uris":{"android":"levelo://app?vid=db2e5c22-9f82-4c32-b356-f06e3f0ce6ed","ios":"levelo://app?vid=db2e5c22-9f82-4c32-b356-f06e3f0ce6ed"},"vehicle_type_id":"4","last_reported":1770662551,"current_range_meters":7200,"station_id":"ce4bhnp2rcd13ifvqgvg","pricing_plan_id":"cebpf4jnsgd1na2vs0mg"},{"bike_id":"fe6f8294-65ba-45f1-a4f6-c1ee0f12ef18","system_id":"levelo_inurba_marseille","lat":43.22576,"lon":5.41634,"is_reserved":false,"is_disabled":false,"rental_uris":{"android":"levelo://app?vid=fe6f8294-65ba-45f1-a4f6-c1ee0f12ef18","ios":"levelo://app?vid=fe6f8294-65ba-45f1-a4f6-c1ee0f12ef18"},"vehicle_type_id":"4","last_reported":1770662551,"current_range_meters":7200,"station_id":"st_d2o4gvlbi1j2169b742g","pricing_plan_id":"cebpf4jnsgd1na2vs0mg"},{"bike_id":"d6e0f210-46b5-4d7e-8bfd-97815e82e64a","system_id":"levelo_inurba_marseille","lat":43.28676,"lon":5.36349,"is_reserved":false,"is_disabled":false,"rental_uris":{"android":"levelo://app?vid=d6e0f210-46b5-4d7e-8bfd-97815e82e64a","ios":"levelo://app?vid=d6e0f210-46b5-4d7e-8bfd-97815e82e64a"},"vehicle_type_id":"4","last_reported":1770662551,"current_range_meters":7200,"station_id":"ce4bhah2rcd13ifvqej0","pricing_plan_id":"cebpf4jnsgd1na2vs0mg"},{"bike_id":"d917330e-8029-461a-95c3-ed551a62a88f","system_id":"levelo_inurba_marseille","lat":43.22562,"lon":5.41619,"is_reserved":false,"is_disabled":false,"rental_uris":{"android":"levelo://app?vid=d917330e-8029-461a-95c3-ed551a62a88f","ios":"levelo://app?vid=d917330e-8029-461a-95c3-ed551a62a88f"},"vehicle_type_id":"4","last_reported":1770662551,"current_range_meters":7200,"station_id":"st_d2o4gvlbi1j2169b742g","pricing_plan_id":"cebpf4jnsgd1na2vs0mg"},{"bike_id":"91fdd7ab-d339-4963-8616-9757378509a7","system_id":"levelo_inurba_marseille","lat":43.28613,"lon":5.37066,"is_reserved":false,"is_disabled":false,"rental_uris":{"android":"levelo://app?vid=91fdd7ab-d339-4963-8616-9757378509a7","ios":"levelo://app?vid=91fdd7ab-d339-4963-8616-9757378509a7"},"vehicle_type_id":"4","last_reported":1770662551,"current_range_meters":7200,"station_id":"ce4bht12rcd13ifvqi60","pricing_plan_id":"cebpf4jnsgd1na2vs0mg"},{"bike_id":"6e043c13-5a31-4e0d-9658-13d292ba1363","system_id":"levelo_inurba_marseille","lat":43.26209,"lon":5.37917,"is_reserved":false,"is_disabled":false,"rental_uris":{"android":"levelo://app?vid=6e043c13-5a31-4e0d-9658-13d292ba1363","ios":"levelo://app?vid=6e043c13-5a31-4e0d-9658-13d292ba1363"},"vehicle_type_id":"4","last_reported":1770662551,"current_range_meters":7200,"station_id":"ce4bhjp2rcd13ifvqg90","pricing_plan_id":"cebpf4jnsgd1na2vs0mg"},{"bike_id":"7e01f57b-ade8-4cc3-81c3-76e88fac1321","system_id":"levelo_inurba_marseille","lat":43.28498,"lon":5.48525,"is_reserved":false,"is_disabled":false,"rental_uris":{"android":"levelo://app?vid=7e01f57b-ade8-4cc3-81c3-76e88fac1321","ios":"levelo://app?vid=7e01f57b-ade8-4cc3-81c3-76e88fac1321"},"vehicle_type_id":"4","last_reported":1770662551,"current_range_meters":7200,"station_id":"st_d3svhcjqgbts73a3dn0g","pricing_plan_id":"cebpf4jnsgd1na2vs0mg"},{"bike_id":"1bb4961b-847e-4e52-9c5c-ace4decf80fe","system_id":"levelo_inurba_marseille","lat":43.31764,"lon":5.39016,"is_reserved":false,"is_disabled":false,"rental_uris":{"android":"levelo://app?vid=1bb4961b-847e-4e52-9c5c-ace4decf80fe","ios":"levelo://app?vid=1bb4961b-847e-4e52-9c5c-ace4decf80fe"},"vehicle_type_id":"4","last_reported":1770662551,"current_range_meters":7200,"station_id":"ce4bhqp2rcd13ifvqhng","pricing_plan_id":"cebpf4jnsgd1na2vs0mg"},{"bike_id":"d2b08d55-e060-41a0-aaa4-bc9c182a4af7","system_id":"levelo_inurba_marseille","lat":43.26495,"lon":5.39557,"is_reserved":false,"is_disabled":false,"rental_uris":{"android":"levelo://app?vid=d2b08d55-e060-41a0-aaa4-bc9c182a4af7","ios":"levelo://app?vid=d2b08d55-e060-41a0-aaa4-bc9c182a4af7"},"vehicle_type_id":"4","last_reported":1770662551,"current_range_meters":7200,"station_id":"ce4bhi12rcd13ifvqfq0","pricing_plan_id":"cebpf4jnsgd1na2vs0mg"},{"bike_id":"40ca09fe-7866-480e-ac60-f7b7f539bb36","system_id":"levelo_inurba_marseille","lat":43.233831,"lon":5.412268,"is_reserved":false,"is_disabled":false,"rental_uris":{"android":"levelo://app?vid=40ca09fe-7866-480e-ac60-f7b7f539bb36","ios":"levelo://app?vid=40ca09fe-7866-480e-ac60-f7b7f539bb36"},"vehicle_type_id":"4","last_reported":1770662551,"current_range_meters":7200,"station_id":"","pricing_plan_id":"cebpf4jnsgd1na2vs0mg"},{"bike_id":"9a0a4f5b-d5f2-4be0-a4fa-450256499716","system_id":"levelo_inurba_marseille","lat":43.26992,"lon":5.39886,"is_reserved":false,"is_disabled":false,"rental_uris":{"android":"levelo://app?vid=9a0a4f5b-d5f2-4be0-a4fa-450256499716","ios":"levelo://app?vid=9a0a4f5b-d5f2-4be0-a4fa-450256499716"},"vehicle_type_id":"4","last_reported":1770662551,"current_range_meters":7200,"station_id":"","pricing_plan_id":"cebpf4jnsgd1na2vs0mg"},{"bike_id":"c47f9d06-e2e7-4f1a-9efa-21197e8b1082","system_id":"levelo_inurba_marseille","lat":43.28469,"lon":5.38545,"is_reserved":false,"is_disabled":false,"rental_uris":{"android":"levelo://app?vid=c47f9d06-e2e7-4f1a-9efa-21197e8b1082","ios":"levelo://app?vid=c47f9d06-e2e7-4f1a-9efa-21197e8b1082"},"vehicle_type_id":"4","last_reported":1770662551,"current_range_meters":7200,"station_id":"ce4bh8p2rcd13ifvqeb0","pricing_plan_id":"cebpf4jnsgd1na2vs0mg"},{"bike_id":"4f801ac8-7e18-4f4e-813d-e2c4b2346d28","system_id":"levelo_inurba_marseille","lat":43.26569,"lon":5.3902,"is_reserved":false,"is_disabled":false,"rental_uris":{"android":"levelo://app?vid=4f801ac8-7e18-4f4e-813d-e2c4b2346d28","ios":"levelo://app?vid=4f801ac8-7e18-4f4e-813d-e2c4b2346d28"},"vehicle_type_id":"4","last_reported":1770662551,"current_range_meters":7200,"station_id":"ce4bhe12rcd13ifvqf30","pricing_plan_id":"cebpf4jnsgd1na2vs0mg"},{"bike_id":"45428745-084f-4d94-90a8-b99c21b31972","system_id":"levelo_inurba_marseille","lat":43.280029,"lon":5.400117,"is_reserved":false,"is_disabled":false,"rental_uris":{"android":"levelo://app?vid=45428745-084f-4d94-90a8-b99c21b31972","ios":"levelo://app?vid=45428745-084f-4d94-90a8-b99c21b31972"},"vehicle_type_id":"4","last_reported":1770662551,"current_range_meters":7200,"station_id":"ce4bho92rcd13ifvqh4g","pricing_plan_id":"cebpf4jnsgd1na2vs0mg"},{"bike_id":"ad1c73a7-80cd-4fd9-9cbe-bd9c902be31f","system_id":"levelo_inurba_marseille","lat":43.2456,"lon":5.39528,"is_reserved":false,"is_disabled":false,"rental_uris":{"android":"levelo://app?vid=ad1c73a7-80cd-4fd9-9cbe-bd9c902be31f","ios":"levelo://app?vid=ad1c73a7-80cd-4fd9-9cbe-bd9c902be31f"},"vehicle_type_id":"4","last_reported":1770662551,"current_range_meters":8000,"station_id":"ce4bhlp2rcd13ifvqgjg","pricing_plan_id":"cebpf4jnsgd1na2vs0mg"},{"bike_id":"5d65d118-bfe3-45a6-bc02-e9bc31682ede","system_id":"levelo_inurba_marseille","lat":43.31329,"lon":5.39689,"is_reserved":false,"is_disabled":false,"rental_uris":{"android":"levelo://app?vid=5d65d118-bfe3-45a6-bc02-e9bc31682ede","ios":"levelo://app?vid=5d65d118-bfe3-45a6-bc02-e9bc31682ede"},"vehicle_type_id":"4","last_reported":1770662551,"current_range_meters":8000,"station_id":"ce4bgvp2rcd13ifvqcu0","pricing_plan_id":"cebpf4jnsgd1na2vs0mg"},{"bike_id":"fd158031-c8ec-435b-b315-8360533800f5","system_id":"levelo_inurba_marseille","lat":43.26233,"lon":5.40465,"is_reserved":false,"is_disabled":true,"rental_uris":{"android":"levelo://app?vid=fd158031-c8ec-435b-b315-8360533800f5","ios":"levelo://app?vid=fd158031-c8ec-435b-b315-8360533800f5"},"vehicle_type_id":"4","last_reported":1770662551,"current_range_meters":8000,"station_id":"ce4bhmh2rcd13ifvqgmg","pricing_plan_id":"cebpf4jnsgd1na2vs0mg"},{"bike_id":"4d2c7af6-11db-47a7-970e-59a6b732d3fa","system_id":"levelo_inurba_marseille","lat":43.31185,"lon":5.38713,"is_reserved":false,"is_disabled":false,"rental_uris":{"android":"levelo://app?vid=4d2c7af6-11db-47a7-970e-59a6b732d3fa","ios":"levelo://app?vid=4d2c7af6-11db-47a7-970e-59a6b732d3fa"},"vehicle_type_id":"4","last_reported":1770662551,"current_range_meters":8000,"station_id":"ce4bgv12rcd13ifvqcp0","pricing_plan_id":"cebpf4jnsgd1na2vs0mg"},{"bike_id":"a07cd24c-7e73-437e-917a-60bdbc1072fc","system_id":"levelo_inurba_marseille","lat":43.24445,"lon":5.37079,"is_reserved":false,"is_disabled":false,"rental_uris":{"android":"levelo://app?vid=a07cd24c-7e73-437e-917a-60bdbc1072fc","ios":"levelo://app?vid=a07cd24c-7e73-437e-917a-60bdbc1072fc"},"vehicle_type_id":"4","last_reported":1770662551,"current_range_meters":8000,"station_id":"ce4bhhh2rcd13ifvqfk0","pricing_plan_id":"cebpf4jnsgd1na2vs0mg"},{"bike_id":"f23a5ea8-cccd-472e-abcc-91e4bbd449a7","system_id":"levelo_inurba_marseille","lat":43.30297,"lon":5.36921,"is_reserved":false,"is_disabled":true,"rental_uris":{"android":"levelo://app?vid=f23a5ea8-cccd-472e-abcc-91e4bbd449a7","ios":"levelo://app?vid=f23a5ea8-cccd-472e-abcc-91e4bbd449a7"},"vehicle_type_id":"4","last_reported":1770662551,"current_range_meters":8000,"station_id":"ce4bgqh2rcd13ifvqc5g","pricing_plan_id":"cebpf4jnsgd1na2vs0mg"},{"bike_id":"0d435044-39b2-4402-857a-610b31675306","system_id":"levelo_inurba_marseille","lat":43.31078,"lon":5.37462,"is_reserved":false,"is_disabled":false,"rental_uris":{"android":"levelo://app?vid=0d435044-39b2-4402-857a-610b31675306","ios":"levelo://app?vid=0d435044-39b2-4402-857a-610b31675306"},"vehicle_type_id":"4","last_reported":1770662551,"current_range_meters":8000,"station_id":"","pricing_plan_id":"cebpf4jnsgd1na2vs0mg"},{"bike_id":"9b51a2e6-7390-417b-8756-92f08ca0518f","system_id":"levelo_inurba_marseille","lat":43.31118,"lon":5.3776,"is_reserved":false,"is_disabled":false,"rental_uris":{"android":"levelo://app?vid=9b51a2e6-7390-417b-8756-92f08ca0518f","ios":"levelo://app?vid=9b51a2e6-7390-417b-8756-92f08ca0518f"},"vehicle_type_id":"4","last_reported":1770662551,"current_range_meters":8000,"station_id":"ce4bgt92rcd13ifvqcg0","pricing_plan_id":"cebpf4jnsgd1na2vs0mg"},{"bike_id":"8d65ea59-159e-4e8e-8acb-244f43059bc9","system_id":"levelo_inurba_marseille","lat":43.24137,"lon":5.36413,"is_reserved":false,"is_disabled":false,"rental_uris":{"android":"levelo://app?vid=8d65ea59-159e-4e8e-8acb-244f43059bc9","ios":"levelo://app?vid=8d65ea59-159e-4e8e-8acb-244f43059bc9"},"vehicle_type_id":"4","last_reported":1770662551,"current_range_meters":8000,"station_id":"cpo36qri1sfpv3e86is0","pricing_plan_id":"cebpf4jnsgd1na2vs0mg"},{"bike_id":"36ac8fb1-1e6b-4c04-8e8e-9441a471d5f6","system_id":"levelo_inurba_marseille","lat":43.28481,"lon":5.48394,"is_reserved":false,"is_disabled":false,"rental_uris":{"android":"levelo://app?vid=36ac8fb1-1e6b-4c04-8e8e-9441a471d5f6","ios":"levelo://app?vid=36ac8fb1-1e6b-4c04-8e8e-9441a471d5f6"},"vehicle_type_id":"4","last_reported":1770662551,"current_range_meters":8000,"station_id":"","pricing_plan_id":"cebpf4jnsgd1na2vs0mg"},{"bike_id":"83062ade-c076-467d-b125-720c7e101dca","system_id":"levelo_inurba_marseille","lat":43.29607,"lon":5.37728,"is_reserved":false,"is_disabled":true,"rental_uris":{"android":"levelo://app?vid=83062ade-c076-467d-b125-720c7e101dca","ios":"levelo://app?vid=83062ade-c076-467d-b125-720c7e101dca"},"vehicle_type_id":"4","last_reported":1770662551,"current_range_meters":8000,"station_id":"ce4bgi92rcd13ifvqb90","pricing_plan_id":"cebpf4jnsgd1na2vs0mg"},{"bike_id":"f62a384c-82ea-406f-b454-65dc89a8251e","system_id":"levelo_inurba_marseille","lat":43.27589,"lon":5.41737,"is_reserved":false,"is_disabled":false,"rental_uris":{"android":"levelo://app?vid=f62a384c-82ea-406f-b454-65dc89a8251e","ios":"levelo://app?vid=f62a384c-82ea-406f-b454-65dc89a8251e"},"vehicle_type_id":"4","last_reported":1770662551,"current_range_meters":8000,"station_id":"","pricing_plan_id":"cebpf4jnsgd1na2vs0mg"},{"bike_id":"eaca9557-fe9a-4434-a101-769f46e9bc51","system_id":"levelo_inurba_marseille","lat":43.29974,"lon":5.3715,"is_reserved":false,"is_disabled":false,"rental_uris":{"android":"levelo://app?vid=eaca9557-fe9a-4434-a101-769f46e9bc51","ios":"levelo://app?vid=eaca9557-fe9a-4434-a101-769f46e9bc51"},"vehicle_type_id":"4","last_reported":1770662551,"current_range_meters":8000,"station_id":"ce4bgr92rcd13ifvqc7g","pricing_plan_id":"cebpf4jnsgd1na2vs0mg"},{"bike_id":"8f91f29e-0897-43d8-a3cf-8b8240b92337","system_id":"levelo_inurba_marseille","lat":43.29898,"lon":5.43659,"is_reserved":false,"is_disabled":false,"rental_uris":{"android":"levelo://app?vid=8f91f29e-0897-43d8-a3cf-8b8240b92337","ios":"levelo://app?vid=8f91f29e-0897-43d8-a3cf-8b8240b92337"},"vehicle_type_id":"4","last_reported":1770662551,"current_range_meters":8000,"station_id":"ce4bhpp2rcd13ifvqhfg","pricing_plan_id":"cebpf4jnsgd1na2vs0mg"},{"bike_id":"cc3264f7-a3be-4553-8fa5-6bd52a1622a2","system_id":"levelo_inurba_marseille","lat":43.28709,"lon":5.37916,"is_reserved":false,"is_disabled":false,"rental_uris":{"android":"levelo://app?vid=cc3264f7-a3be-4553-8fa5-6bd52a1622a2","ios":"levelo://app?vid=cc3264f7-a3be-4553-8fa5-6bd52a1622a2"},"vehicle_type_id":"4","last_reported":1770662551,"current_range_meters":8000,"station_id":"ce4bh9p2rcd13ifvqec0","pricing_plan_id":"cebpf4jnsgd1na2vs0mg"},{"bike_id":"286b6ff3-cad3-40cc-8457-9f3961da585f","system_id":"levelo_inurba_marseille","lat":43.26042,"lon":5.37574,"is_reserved":false,"is_disabled":false,"rental_uris":{"android":"levelo://app?vid=286b6ff3-cad3-40cc-8457-9f3961da585f","ios":"levelo://app?vid=286b6ff3-cad3-40cc-8457-9f3961da585f"},"vehicle_type_id":"4","last_reported":1770662551,"current_range_meters":8000,"station_id":"ce4bhgh2rcd13ifvqfa0","pricing_plan_id":"cebpf4jnsgd1na2vs0mg"},{"bike_id":"2deb45fa-cb82-48cc-9169-0ddc074570fe","system_id":"levelo_inurba_marseille","lat":43.31163,"lon":5.44666,"is_reserved":false,"is_disabled":false,"rental_uris":{"android":"levelo://app?vid=2deb45fa-cb82-48cc-9169-0ddc074570fe","ios":"levelo://app?vid=2deb45fa-cb82-48cc-9169-0ddc074570fe"},"vehicle_type_id":"4","last_reported":1770662551,"current_range_meters":8000,"station_id":"","pricing_plan_id":"cebpf4jnsgd1na2vs0mg"},{"bike_id":"d1b2713f-c9d4-4d91-ba75-7051b95a5311","system_id":"levelo_inurba_marseille","lat":43.30595,"lon":5.39356,"is_reserved":false,"is_disabled":false,"rental_uris":{"android":"levelo://app?vid=d1b2713f-c9d4-4d91-ba75-7051b95a5311","ios":"levelo://app?vid=d1b2713f-c9d4-4d91-ba75-7051b95a5311"},"vehicle_type_id":"4","last_reported":1770662551,"current_range_meters":8000,"station_id":"ce4bh0p2rcd13ifvqd80","pricing_plan_id":"cebpf4jnsgd1na2vs0mg"},{"bike_id":"6e79fd0f-9e8e-4459-8240-57d4fd86c647","system_id":"levelo_inurba_marseille","lat":43.29773,"lon":5.38131,"is_reserved":false,"is_disabled":false,"rental_uris":{"android":"levelo://app?vid=6e79fd0f-9e8e-4459-8240-57d4fd86c647","ios":"levelo://app?vid=6e79fd0f-9e8e-4459-8240-57d4fd86c647"},"vehicle_type_id":"4","last_reported":1770662551,"current_range_meters":8000,"station_id":"ce4bgip2rcd13ifvqbb0","pricing_plan_id":"cebpf4jnsgd1na2vs0mg"},{"bike_id":"6316a440-6079-4cd7-8710-8e12c6c0a2b7","system_id":"levelo_inurba_marseille","lat":43.298948,"lon":5.436649,"is_reserved":false,"is_disabled":false,"rental_uris":{"android":"levelo://app?vid=6316a440-6079-4cd7-8710-8e12c6c0a2b7","ios":"levelo://app?vid=6316a440-6079-4cd7-8710-8e12c6c0a2b7"},"vehicle_type_id":"4","last_reported":1770662551,"current_range_meters":8000,"station_id":"ce4bhpp2rcd13ifvqhfg","pricing_plan_id":"cebpf4jnsgd1na2vs0mg"},{"bike_id":"af109b45-02d2-41f8-be4b-42b484fd3394","system_id":"levelo_inurba_marseille","lat":43.298991,"lon":5.436684,"is_reserved":false,"is_disabled":false,"rental_uris":{"android":"levelo://app?vid=af109b45-02d2-41f8-be4b-42b484fd3394","ios":"levelo://app?vid=af109b45-02d2-41f8-be4b-42b484fd3394"},"vehicle_type_id":"4","last_reported":1770662551,"current_range_meters":8000,"station_id":"ce4bhpp2rcd13ifvqhfg","pricing_plan_id":"cebpf4jnsgd1na2vs0mg"},{"bike_id":"4ce19275-dc8e-40e7-b2a8-ab9389bfaeed","system_id":"levelo_inurba_marseille","lat":43.31326,"lon":5.39697,"is_reserved":false,"is_disabled":false,"rental_uris":{"android":"levelo://app?vid=4ce19275-dc8e-40e7-b2a8-ab9389bfaeed","ios":"levelo://app?vid=4ce19275-dc8e-40e7-b2a8-ab9389bfaeed"},"vehicle_type_id":"4","last_reported":1770662551,"current_range_meters":8000,"station_id":"ce4bgvp2rcd13ifvqcu0","pricing_plan_id":"cebpf4jnsgd1na2vs0mg"},{"bike_id":"049c7684-2f28-47ad-a78d-03ca57aa1cef","system_id":"levelo_inurba_marseille","lat":43.30208,"lon":5.39465,"is_reserved":false,"is_disabled":false,"rental_uris":{"android":"levelo://app?vid=049c7684-2f28-47ad-a78d-03ca57aa1cef","ios":"levelo://app?vid=049c7684-2f28-47ad-a78d-03ca57aa1cef"},"vehicle_type_id":"4","last_reported":1770662551,"current_range_meters":8000,"station_id":"ce4bh0p2rcd13ifvqd70","pricing_plan_id":"cebpf4jnsgd1na2vs0mg"},{"bike_id":"70407290-f7d0-4e44-8a57-94400ff98d60","system_id":"levelo_inurba_marseille","lat":43.27604,"lon":5.36075,"is_reserved":false,"is_disabled":false,"rental_uris":{"android":"levelo://app?vid=70407290-f7d0-4e44-8a57-94400ff98d60","ios":"levelo://app?vid=70407290-f7d0-4e44-8a57-94400ff98d60"},"vehicle_type_id":"4","last_reported":1770662551,"current_range_meters":8000,"station_id":"ce4bgj92rcd13ifvqbe0","pricing_plan_id":"cebpf4jnsgd1na2vs0mg"},{"bike_id":"7f6ef8fc-1579-4912-b00d-edf7547220b9","system_id":"levelo_inurba_marseille","lat":43.2708,"lon":5.42281,"is_reserved":false,"is_disabled":false,"rental_uris":{"android":"levelo://app?vid=7f6ef8fc-1579-4912-b00d-edf7547220b9","ios":"levelo://app?vid=7f6ef8fc-1579-4912-b00d-edf7547220b9"},"vehicle_type_id":"4","last_reported":1770662551,"current_range_meters":8400,"station_id":"ce4bhk92rcd13ifvqgb0","pricing_plan_id":"cebpf4jnsgd1na2vs0mg"},{"bike_id":"654a8c69-e34e-48fa-b792-a1983317de36","system_id":"levelo_inurba_marseille","lat":43.284788,"lon":5.48421,"is_reserved":false,"is_disabled":false,"rental_uris":{"android":"levelo://app?vid=654a8c69-e34e-48fa-b792-a1983317de36","ios":"levelo://app?vid=654a8c69-e34e-48fa-b792-a1983317de36"},"vehicle_type_id":"4","last_reported":1770662551,"current_range_meters":8400,"station_id":"","pricing_plan_id":"cebpf4jnsgd1na2vs0mg"},{"bike_id":"1867ef81-cf62-4e81-bfa8-83561c8efb53","system_id":"levelo_inurba_marseille","lat":43.3013,"lon":5.3989,"is_reserved":false,"is_disabled":false,"rental_uris":{"android":"levelo://app?vid=1867ef81-cf62-4e81-bfa8-83561c8efb53","ios":"levelo://app?vid=1867ef81-cf62-4e81-bfa8-83561c8efb53"},"vehicle_type_id":"4","last_reported":1770662551,"current_range_meters":8400,"station_id":"ce4bh0h2rcd13ifvqd40","pricing_plan_id":"cebpf4jnsgd1na2vs0mg"},{"bike_id":"c905e704-6f56-4fbe-8269-605a142ba243","system_id":"levelo_inurba_marseille","lat":43.24642,"lon":5.38901,"is_reserved":false,"is_disabled":true,"rental_uris":{"android":"levelo://app?vid=c905e704-6f56-4fbe-8269-605a142ba243","ios":"levelo://app?vid=c905e704-6f56-4fbe-8269-605a142ba243"},"vehicle_type_id":"4","last_reported":1770662551,"current_range_meters":8400,"station_id":"ce4bhg12rcd13ifvqf60","pricing_plan_id":"cebpf4jnsgd1na2vs0mg"},{"bike_id":"f3d824e5-75b7-4f30-9709-e01495830ce5","system_id":"levelo_inurba_marseille","lat":43.25588,"lon":5.3821,"is_reserved":false,"is_disabled":false,"rental_uris":{"android":"levelo://app?vid=f3d824e5-75b7-4f30-9709-e01495830ce5","ios":"levelo://app?vid=f3d824e5-75b7-4f30-9709-e01495830ce5"},"vehicle_type_id":"4","last_reported":1770662551,"current_range_meters":8400,"station_id":"ce4bhih2rcd13ifvqfs0","pricing_plan_id":"cebpf4jnsgd1na2vs0mg"},{"bike_id":"85dd1ff3-48fb-473b-a6b8-2f438c995677","system_id":"levelo_inurba_marseille","lat":43.29891,"lon":5.43661,"is_reserved":false,"is_disabled":false,"rental_uris":{"android":"levelo://app?vid=85dd1ff3-48fb-473b-a6b8-2f438c995677","ios":"levelo://app?vid=85dd1ff3-48fb-473b-a6b8-2f438c995677"},"vehicle_type_id":"4","last_reported":1770662551,"current_range_meters":8400,"station_id":"ce4bhpp2rcd13ifvqhfg","pricing_plan_id":"cebpf4jnsgd1na2vs0mg"},{"bike_id":"1fa76a45-f289-437d-94cc-e8c22daeef5f","system_id":"levelo_inurba_marseille","lat":43.28871,"lon":5.42523,"is_reserved":false,"is_disabled":false,"rental_uris":{"android":"levelo://app?vid=1fa76a45-f289-437d-94cc-e8c22daeef5f","ios":"levelo://app?vid=1fa76a45-f289-437d-94cc-e8c22daeef5f"},"vehicle_type_id":"4","last_reported":1770662551,"current_range_meters":8400,"station_id":"st_d3b462108ojc7389ooeg","pricing_plan_id":"cebpf4jnsgd1na2vs0mg"},{"bike_id":"738ace95-69b5-422f-91a8-940bb61d6675","system_id":"levelo_inurba_marseille","lat":43.32113,"lon":5.36807,"is_reserved":false,"is_disabled":false,"rental_uris":{"android":"levelo://app?vid=738ace95-69b5-422f-91a8-940bb61d6675","ios":"levelo://app?vid=738ace95-69b5-422f-91a8-940bb61d6675"},"vehicle_type_id":"4","last_reported":1770662551,"current_range_meters":8400,"station_id":"ce4bhrh2rcd13ifvqhug","pricing_plan_id":"cebpf4jnsgd1na2vs0mg"},{"bike_id":"971b48dd-c7a4-4deb-8d64-56d2c1c381de","system_id":"levelo_inurba_marseille","lat":43.26367,"lon":5.41037,"is_reserved":false,"is_disabled":false,"rental_uris":{"android":"levelo://app?vid=971b48dd-c7a4-4deb-8d64-56d2c1c381de","ios":"levelo://app?vid=971b48dd-c7a4-4deb-8d64-56d2c1c381de"},"vehicle_type_id":"4","last_reported":1770662551,"current_range_meters":8400,"station_id":"st_d4e5ca6na9uc73bfl5fg","pricing_plan_id":"cebpf4jnsgd1na2vs0mg"},{"bike_id":"b1429378-b93e-4184-b373-85f0415c9919","system_id":"levelo_inurba_marseille","lat":43.24654,"lon":5.43163,"is_reserved":false,"is_disabled":false,"rental_uris":{"android":"levelo://app?vid=b1429378-b93e-4184-b373-85f0415c9919","ios":"levelo://app?vid=b1429378-b93e-4184-b373-85f0415c9919"},"vehicle_type_id":"4","last_reported":1770662551,"current_range_meters":8400,"station_id":"st_d2m6c4gdas8pm72e190g","pricing_plan_id":"cebpf4jnsgd1na2vs0mg"},{"bike_id":"9533a531-4a7e-4ec1-b21c-db7254dcbea4","system_id":"levelo_inurba_marseille","lat":43.29529,"lon":5.37503,"is_reserved":false,"is_disabled":false,"rental_uris":{"android":"levelo://app?vid=9533a531-4a7e-4ec1-b21c-db7254dcbea4","ios":"levelo://app?vid=9533a531-4a7e-4ec1-b21c-db7254dcbea4"},"vehicle_type_id":"4","last_reported":1770662551,"current_range_meters":8400,"station_id":"ce4bgkp2rcd13ifvqbmg","pricing_plan_id":"cebpf4jnsgd1na2vs0mg"},{"bike_id":"9181861d-3c4b-4770-b545-363c30923e26","system_id":"levelo_inurba_marseille","lat":43.28482,"lon":5.4839,"is_reserved":false,"is_disabled":false,"rental_uris":{"android":"levelo://app?vid=9181861d-3c4b-4770-b545-363c30923e26","ios":"levelo://app?vid=9181861d-3c4b-4770-b545-363c30923e26"},"vehicle_type_id":"4","last_reported":1770662551,"current_range_meters":8400,"station_id":"","pricing_plan_id":"cebpf4jnsgd1na2vs0mg"},{"bike_id":"ea8ff26c-ce45-4c92-aeb9-847e4e6ffd97","system_id":"levelo_inurba_marseille","lat":43.29238,"lon":5.4091,"is_reserved":false,"is_disabled":false,"rental_uris":{"android":"levelo://app?vid=ea8ff26c-ce45-4c92-aeb9-847e4e6ffd97","ios":"levelo://app?vid=ea8ff26c-ce45-4c92-aeb9-847e4e6ffd97"},"vehicle_type_id":"4","last_reported":1770662551,"current_range_meters":8400,"station_id":"ce4bh192rcd13ifvqdc0","pricing_plan_id":"cebpf4jnsgd1na2vs0mg"},{"bike_id":"aa5720cd-65ca-4624-904a-af45fcf7dd86","system_id":"levelo_inurba_marseille","lat":43.28927,"lon":5.39618,"is_reserved":false,"is_disabled":false,"rental_uris":{"android":"levelo://app?vid=aa5720cd-65ca-4624-904a-af45fcf7dd86","ios":"levelo://app?vid=aa5720cd-65ca-4624-904a-af45fcf7dd86"},"vehicle_type_id":"4","last_reported":1770662551,"current_range_meters":8400,"station_id":"ce4bh3h2rcd13ifvqdn0","pricing_plan_id":"cebpf4jnsgd1na2vs0mg"},{"bike_id":"e20506fc-81c8-45aa-af10-6b0aa01b93ce","system_id":"levelo_inurba_marseille","lat":43.25586,"lon":5.38249,"is_reserved":false,"is_disabled":false,"rental_uris":{"android":"levelo://app?vid=e20506fc-81c8-45aa-af10-6b0aa01b93ce","ios":"levelo://app?vid=e20506fc-81c8-45aa-af10-6b0aa01b93ce"},"vehicle_type_id":"4","last_reported":1770662551,"current_range_meters":8400,"station_id":"ce4bhih2rcd13ifvqfs0","pricing_plan_id":"cebpf4jnsgd1na2vs0mg"},{"bike_id":"3e1c1a76-0035-4af4-884d-43dbcb7bca0c","system_id":"levelo_inurba_marseille","lat":43.24059,"lon":5.37772,"is_reserved":false,"is_disabled":false,"rental_uris":{"android":"levelo://app?vid=3e1c1a76-0035-4af4-884d-43dbcb7bca0c","ios":"levelo://app?vid=3e1c1a76-0035-4af4-884d-43dbcb7bca0c"},"vehicle_type_id":"4","last_reported":1770662551,"current_range_meters":8400,"station_id":"ce4bhnp2rcd13ifvqgvg","pricing_plan_id":"cebpf4jnsgd1na2vs0mg"},{"bike_id":"a9fe2d72-1712-4105-9b2f-186b266b47ec","system_id":"levelo_inurba_marseille","lat":43.278621,"lon":5.388335,"is_reserved":false,"is_disabled":false,"rental_uris":{"android":"levelo://app?vid=a9fe2d72-1712-4105-9b2f-186b266b47ec","ios":"levelo://app?vid=a9fe2d72-1712-4105-9b2f-186b266b47ec"},"vehicle_type_id":"4","last_reported":1770662551,"current_range_meters":8400,"station_id":"ce4bh2p2rcd13ifvqdi0","pricing_plan_id":"cebpf4jnsgd1na2vs0mg"},{"bike_id":"b6ef09ed-d357-4465-bd2f-ee587e4263cc","system_id":"levelo_inurba_marseille","lat":43.284527,"lon":5.409938,"is_reserved":false,"is_disabled":false,"rental_uris":{"android":"levelo://app?vid=b6ef09ed-d357-4465-bd2f-ee587e4263cc","ios":"levelo://app?vid=b6ef09ed-d357-4465-bd2f-ee587e4263cc"},"vehicle_type_id":"4","last_reported":1770662551,"current_range_meters":8400,"station_id":"","pricing_plan_id":"cebpf4jnsgd1na2vs0mg"},{"bike_id":"1ab54603-eb85-490c-90cb-a450a9e9e1ac","system_id":"levelo_inurba_marseille","lat":43.28685,"lon":5.37928,"is_reserved":false,"is_disabled":false,"rental_uris":{"android":"levelo://app?vid=1ab54603-eb85-490c-90cb-a450a9e9e1ac","ios":"levelo://app?vid=1ab54603-eb85-490c-90cb-a450a9e9e1ac"},"vehicle_type_id":"4","last_reported":1770662551,"current_range_meters":8400,"station_id":"ce4bh9p2rcd13ifvqec0","pricing_plan_id":"cebpf4jnsgd1na2vs0mg"},{"bike_id":"30b3134b-ba74-4819-8947-e54b8db9bbcc","system_id":"levelo_inurba_marseille","lat":43.32021,"lon":5.38168,"is_reserved":false,"is_disabled":false,"rental_uris":{"android":"levelo://app?vid=30b3134b-ba74-4819-8947-e54b8db9bbcc","ios":"levelo://app?vid=30b3134b-ba74-4819-8947-e54b8db9bbcc"},"vehicle_type_id":"4","last_reported":1770662551,"current_range_meters":8400,"station_id":"ce4bhr12rcd13ifvqhpg","pricing_plan_id":"cebpf4jnsgd1na2vs0mg"},{"bike_id":"b1ab8746-59ff-4015-838a-04796cde0a9e","system_id":"levelo_inurba_marseille","lat":43.30319,"lon":5.40441,"is_reserved":false,"is_disabled":false,"rental_uris":{"android":"levelo://app?vid=b1ab8746-59ff-4015-838a-04796cde0a9e","ios":"levelo://app?vid=b1ab8746-59ff-4015-838a-04796cde0a9e"},"vehicle_type_id":"4","last_reported":1770662551,"current_range_meters":8400,"station_id":"ce4bh012rcd13ifvqd10","pricing_plan_id":"cebpf4jnsgd1na2vs0mg"},{"bike_id":"f3fcdd89-327e-4ac3-a791-371eabd3b54c","system_id":"levelo_inurba_marseille","lat":43.24395,"lon":5.37059,"is_reserved":false,"is_disabled":false,"rental_uris":{"android":"levelo://app?vid=f3fcdd89-327e-4ac3-a791-371eabd3b54c","ios":"levelo://app?vid=f3fcdd89-327e-4ac3-a791-371eabd3b54c"},"vehicle_type_id":"4","last_reported":1770662551,"current_range_meters":8400,"station_id":"ce4bhhh2rcd13ifvqfk0","pricing_plan_id":"cebpf4jnsgd1na2vs0mg"},{"bike_id":"ca292b8d-7fe0-4666-9b81-5c680f81de00","system_id":"levelo_inurba_marseille","lat":43.31159,"lon":5.38558,"is_reserved":false,"is_disabled":false,"rental_uris":{"android":"levelo://app?vid=ca292b8d-7fe0-4666-9b81-5c680f81de00","ios":"levelo://app?vid=ca292b8d-7fe0-4666-9b81-5c680f81de00"},"vehicle_type_id":"4","last_reported":1770662551,"current_range_meters":8400,"station_id":"","pricing_plan_id":"cebpf4jnsgd1na2vs0mg"},{"bike_id":"95c180d1-12e9-4e6e-80fe-326238cc4047","system_id":"levelo_inurba_marseille","lat":43.2808,"lon":5.39666,"is_reserved":false,"is_disabled":false,"rental_uris":{"android":"levelo://app?vid=95c180d1-12e9-4e6e-80fe-326238cc4047","ios":"levelo://app?vid=95c180d1-12e9-4e6e-80fe-326238cc4047"},"vehicle_type_id":"4","last_reported":1770662551,"current_range_meters":8400,"station_id":"ce4bho12rcd13ifvqh2g","pricing_plan_id":"cebpf4jnsgd1na2vs0mg"},{"bike_id":"a8884623-21c3-480b-b686-be7ac751028f","system_id":"levelo_inurba_marseille","lat":43.29591,"lon":5.38108,"is_reserved":false,"is_disabled":false,"rental_uris":{"android":"levelo://app?vid=a8884623-21c3-480b-b686-be7ac751028f","ios":"levelo://app?vid=a8884623-21c3-480b-b686-be7ac751028f"},"vehicle_type_id":"4","last_reported":1770662551,"current_range_meters":8400,"station_id":"ce4bgl12rcd13ifvqbo0","pricing_plan_id":"cebpf4jnsgd1na2vs0mg"},{"bike_id":"dcffb64c-9bea-40cd-a5fe-c7eeb8475cd8","system_id":"levelo_inurba_marseille","lat":43.302941,"lon":5.37679,"is_reserved":false,"is_disabled":true,"rental_uris":{"android":"levelo://app?vid=dcffb64c-9bea-40cd-a5fe-c7eeb8475cd8","ios":"levelo://app?vid=dcffb64c-9bea-40cd-a5fe-c7eeb8475cd8"},"vehicle_type_id":"4","last_reported":1770662551,"current_range_meters":8800,"station_id":"ce4bguh2rcd13ifvqcj0","pricing_plan_id":"cebpf4jnsgd1na2vs0mg"},{"bike_id":"70c39e83-a3c1-4f2e-b79d-d0cfca73541a","system_id":"levelo_inurba_marseille","lat":43.266863,"lon":5.382727,"is_reserved":false,"is_disabled":false,"rental_uris":{"android":"levelo://app?vid=70c39e83-a3c1-4f2e-b79d-d0cfca73541a","ios":"levelo://app?vid=70c39e83-a3c1-4f2e-b79d-d0cfca73541a"},"vehicle_type_id":"4","last_reported":1770662551,"current_range_meters":8800,"station_id":"ce4bhg92rcd13ifvqf90","pricing_plan_id":"cebpf4jnsgd1na2vs0mg"},{"bike_id":"4240880d-88bf-48aa-91ea-700e773e4fa1","system_id":"levelo_inurba_marseille","lat":43.25559,"lon":5.38219,"is_reserved":false,"is_disabled":false,"rental_uris":{"android":"levelo://app?vid=4240880d-88bf-48aa-91ea-700e773e4fa1","ios":"levelo://app?vid=4240880d-88bf-48aa-91ea-700e773e4fa1"},"vehicle_type_id":"4","last_reported":1770662551,"current_range_meters":8800,"station_id":"ce4bhih2rcd13ifvqfs0","pricing_plan_id":"cebpf4jnsgd1na2vs0mg"},{"bike_id":"81089c31-0f23-400c-91cf-65461521d37b","system_id":"levelo_inurba_marseille","lat":43.25823,"lon":5.39436,"is_reserved":false,"is_disabled":false,"rental_uris":{"android":"levelo://app?vid=81089c31-0f23-400c-91cf-65461521d37b","ios":"levelo://app?vid=81089c31-0f23-400c-91cf-65461521d37b"},"vehicle_type_id":"4","last_reported":1770662551,"current_range_meters":8800,"station_id":"ce4bhip2rcd13ifvqft0","pricing_plan_id":"cebpf4jnsgd1na2vs0mg"},{"bike_id":"540e51c4-6acd-4f4f-845d-a5ff43766d3a","system_id":"levelo_inurba_marseille","lat":43.29855,"lon":5.36279,"is_reserved":false,"is_disabled":false,"rental_uris":{"android":"levelo://app?vid=540e51c4-6acd-4f4f-845d-a5ff43766d3a","ios":"levelo://app?vid=540e51c4-6acd-4f4f-845d-a5ff43766d3a"},"vehicle_type_id":"4","last_reported":1770662551,"current_range_meters":8800,"station_id":"ce4bgpp2rcd13ifvqc3g","pricing_plan_id":"cebpf4jnsgd1na2vs0mg"},{"bike_id":"5b06ef92-3497-4203-bad8-e8b7cf69ff18","system_id":"levelo_inurba_marseille","lat":43.30293,"lon":5.39213,"is_reserved":false,"is_disabled":false,"rental_uris":{"android":"levelo://app?vid=5b06ef92-3497-4203-bad8-e8b7cf69ff18","ios":"levelo://app?vid=5b06ef92-3497-4203-bad8-e8b7cf69ff18"},"vehicle_type_id":"4","last_reported":1770662551,"current_range_meters":8800,"station_id":"ce4bgkh2rcd13ifvqbk0","pricing_plan_id":"cebpf4jnsgd1na2vs0mg"},{"bike_id":"eb988073-8fe7-4bb4-897d-222ac9bc4a1f","system_id":"levelo_inurba_marseille","lat":43.25855,"lon":5.39913,"is_reserved":false,"is_disabled":false,"rental_uris":{"android":"levelo://app?vid=eb988073-8fe7-4bb4-897d-222ac9bc4a1f","ios":"levelo://app?vid=eb988073-8fe7-4bb4-897d-222ac9bc4a1f"},"vehicle_type_id":"4","last_reported":1770662551,"current_range_meters":8800,"station_id":"ce4bhl92rcd13ifvqghg","pricing_plan_id":"cebpf4jnsgd1na2vs0mg"},{"bike_id":"078d0ed4-a358-47b5-8816-babd3c36a963","system_id":"levelo_inurba_marseille","lat":43.29287,"lon":5.37457,"is_reserved":false,"is_disabled":false,"rental_uris":{"android":"levelo://app?vid=078d0ed4-a358-47b5-8816-babd3c36a963","ios":"levelo://app?vid=078d0ed4-a358-47b5-8816-babd3c36a963"},"vehicle_type_id":"4","last_reported":1770662551,"current_range_meters":8800,"station_id":"ce4bgi12rcd13ifvqb70","pricing_plan_id":"cebpf4jnsgd1na2vs0mg"},{"bike_id":"05d628e9-781f-4f77-a9a7-087d759ed084","system_id":"levelo_inurba_marseille","lat":43.229327,"lon":5.35382,"is_reserved":false,"is_disabled":false,"rental_uris":{"android":"levelo://app?vid=05d628e9-781f-4f77-a9a7-087d759ed084","ios":"levelo://app?vid=05d628e9-781f-4f77-a9a7-087d759ed084"},"vehicle_type_id":"4","last_reported":1770662551,"current_range_meters":8800,"station_id":"cpo3532slgdg3j2ikp40","pricing_plan_id":"cebpf4jnsgd1na2vs0mg"},{"bike_id":"2bd44504-1f62-4ff3-937f-28169a9c3d6c","system_id":"levelo_inurba_marseille","lat":43.305424,"lon":5.365181,"is_reserved":false,"is_disabled":false,"rental_uris":{"android":"levelo://app?vid=2bd44504-1f62-4ff3-937f-28169a9c3d6c","ios":"levelo://app?vid=2bd44504-1f62-4ff3-937f-28169a9c3d6c"},"vehicle_type_id":"4","last_reported":1770662551,"current_range_meters":8800,"station_id":"ce4bgs12rcd13ifvqcag","pricing_plan_id":"cebpf4jnsgd1na2vs0mg"},{"bike_id":"be63cc99-1c52-4721-971f-21149e5b7d72","system_id":"levelo_inurba_marseille","lat":43.276749,"lon":5.388652,"is_reserved":false,"is_disabled":false,"rental_uris":{"android":"levelo://app?vid=be63cc99-1c52-4721-971f-21149e5b7d72","ios":"levelo://app?vid=be63cc99-1c52-4721-971f-21149e5b7d72"},"vehicle_type_id":"4","last_reported":1770662551,"current_range_meters":8800,"station_id":"ce4bhi12rcd13ifvqfo0","pricing_plan_id":"cebpf4jnsgd1na2vs0mg"},{"bike_id":"3b5567a6-efa3-498b-ad01-b9c12c6390c4","system_id":"levelo_inurba_marseille","lat":43.31722,"lon":5.42399,"is_reserved":false,"is_disabled":false,"rental_uris":{"android":"levelo://app?vid=3b5567a6-efa3-498b-ad01-b9c12c6390c4","ios":"levelo://app?vid=3b5567a6-efa3-498b-ad01-b9c12c6390c4"},"vehicle_type_id":"4","last_reported":1770662551,"current_range_meters":8800,"station_id":"ce4bhp92rcd13ifvqhbg","pricing_plan_id":"cebpf4jnsgd1na2vs0mg"},{"bike_id":"b4cb28a3-69b9-4830-bf82-d25cf98f86cd","system_id":"levelo_inurba_marseille","lat":43.28358,"lon":5.38105,"is_reserved":false,"is_disabled":false,"rental_uris":{"android":"levelo://app?vid=b4cb28a3-69b9-4830-bf82-d25cf98f86cd","ios":"levelo://app?vid=b4cb28a3-69b9-4830-bf82-d25cf98f86cd"},"vehicle_type_id":"4","last_reported":1770662551,"current_range_meters":8800,"station_id":"ce4bh412rcd13ifvqdr0","pricing_plan_id":"cebpf4jnsgd1na2vs0mg"},{"bike_id":"4bf6681a-e3b6-487c-9124-2e1e805c6af1","system_id":"levelo_inurba_marseille","lat":43.28461,"lon":5.35899,"is_reserved":false,"is_disabled":false,"rental_uris":{"android":"levelo://app?vid=4bf6681a-e3b6-487c-9124-2e1e805c6af1","ios":"levelo://app?vid=4bf6681a-e3b6-487c-9124-2e1e805c6af1"},"vehicle_type_id":"4","last_reported":1770662551,"current_range_meters":8800,"station_id":"ce4bhah2rcd13ifvqei0","pricing_plan_id":"cebpf4jnsgd1na2vs0mg"},{"bike_id":"1f92b173-2f38-44eb-8a9e-3af801615029","system_id":"levelo_inurba_marseille","lat":43.28938,"lon":5.36394,"is_reserved":false,"is_disabled":false,"rental_uris":{"android":"levelo://app?vid=1f92b173-2f38-44eb-8a9e-3af801615029","ios":"levelo://app?vid=1f92b173-2f38-44eb-8a9e-3af801615029"},"vehicle_type_id":"4","last_reported":1770662551,"current_range_meters":8800,"station_id":"ce4bhc92rcd13ifvqetg","pricing_plan_id":"cebpf4jnsgd1na2vs0mg"},{"bike_id":"58727422-ac1d-461d-8326-ead3ab6a5bb0","system_id":"levelo_inurba_marseille","lat":43.258471,"lon":5.39898,"is_reserved":false,"is_disabled":false,"rental_uris":{"android":"levelo://app?vid=58727422-ac1d-461d-8326-ead3ab6a5bb0","ios":"levelo://app?vid=58727422-ac1d-461d-8326-ead3ab6a5bb0"},"vehicle_type_id":"4","last_reported":1770662551,"current_range_meters":8800,"station_id":"ce4bhl92rcd13ifvqghg","pricing_plan_id":"cebpf4jnsgd1na2vs0mg"},{"bike_id":"568cb148-cf57-4c51-b58a-b353f74c5bf1","system_id":"levelo_inurba_marseille","lat":43.27837,"lon":5.39214,"is_reserved":false,"is_disabled":false,"rental_uris":{"android":"levelo://app?vid=568cb148-cf57-4c51-b58a-b353f74c5bf1","ios":"levelo://app?vid=568cb148-cf57-4c51-b58a-b353f74c5bf1"},"vehicle_type_id":"4","last_reported":1770662551,"current_range_meters":8800,"station_id":"ce4bhjp2rcd13ifvqga0","pricing_plan_id":"cebpf4jnsgd1na2vs0mg"},{"bike_id":"de3c212d-0fb9-473a-a86c-66f8df44a604","system_id":"levelo_inurba_marseille","lat":43.2466,"lon":5.38154,"is_reserved":false,"is_disabled":false,"rental_uris":{"android":"levelo://app?vid=de3c212d-0fb9-473a-a86c-66f8df44a604","ios":"levelo://app?vid=de3c212d-0fb9-473a-a86c-66f8df44a604"},"vehicle_type_id":"4","last_reported":1770662551,"current_range_meters":8800,"station_id":"ce4bhih2rcd13ifvqfr0","pricing_plan_id":"cebpf4jnsgd1na2vs0mg"},{"bike_id":"7807558b-cd3e-48a4-b886-e8764e7295bf","system_id":"levelo_inurba_marseille","lat":43.24469,"lon":5.42529,"is_reserved":false,"is_disabled":false,"rental_uris":{"android":"levelo://app?vid=7807558b-cd3e-48a4-b886-e8764e7295bf","ios":"levelo://app?vid=7807558b-cd3e-48a4-b886-e8764e7295bf"},"vehicle_type_id":"4","last_reported":1770662551,"current_range_meters":8800,"station_id":"st_d4a3vfp97mjs738cd8kg","pricing_plan_id":"cebpf4jnsgd1na2vs0mg"},{"bike_id":"20973e6d-e7cb-4d67-a4f7-83799fb139ca","system_id":"levelo_inurba_marseille","lat":43.29614,"lon":5.38118,"is_reserved":false,"is_disabled":false,"rental_uris":{"android":"levelo://app?vid=20973e6d-e7cb-4d67-a4f7-83799fb139ca","ios":"levelo://app?vid=20973e6d-e7cb-4d67-a4f7-83799fb139ca"},"vehicle_type_id":"4","last_reported":1770662551,"current_range_meters":8800,"station_id":"ce4bgl12rcd13ifvqbo0","pricing_plan_id":"cebpf4jnsgd1na2vs0mg"},{"bike_id":"f12f6f11-1feb-482e-8dc3-a79b8963e979","system_id":"levelo_inurba_marseille","lat":43.33549,"lon":5.37469,"is_reserved":false,"is_disabled":false,"rental_uris":{"android":"levelo://app?vid=f12f6f11-1feb-482e-8dc3-a79b8963e979","ios":"levelo://app?vid=f12f6f11-1feb-482e-8dc3-a79b8963e979"},"vehicle_type_id":"4","last_reported":1770662551,"current_range_meters":8800,"station_id":"st_d46tts09ee8s73dlu43g","pricing_plan_id":"cebpf4jnsgd1na2vs0mg"},{"bike_id":"c583560a-77a9-496f-bff4-8abe7a8e3cb2","system_id":"levelo_inurba_marseille","lat":43.30202,"lon":5.36636,"is_reserved":false,"is_disabled":false,"rental_uris":{"android":"levelo://app?vid=c583560a-77a9-496f-bff4-8abe7a8e3cb2","ios":"levelo://app?vid=c583560a-77a9-496f-bff4-8abe7a8e3cb2"},"vehicle_type_id":"4","last_reported":1770662551,"current_range_meters":8800,"station_id":"ce4bgrh2rcd13ifvqc8g","pricing_plan_id":"cebpf4jnsgd1na2vs0mg"},{"bike_id":"65653ad0-a964-4762-8fd7-873f72cb3e9d","system_id":"levelo_inurba_marseille","lat":43.28703,"lon":5.37927,"is_reserved":false,"is_disabled":false,"rental_uris":{"android":"levelo://app?vid=65653ad0-a964-4762-8fd7-873f72cb3e9d","ios":"levelo://app?vid=65653ad0-a964-4762-8fd7-873f72cb3e9d"},"vehicle_type_id":"4","last_reported":1770662551,"current_range_meters":8800,"station_id":"ce4bh9p2rcd13ifvqec0","pricing_plan_id":"cebpf4jnsgd1na2vs0mg"},{"bike_id":"f1450451-4461-4c11-b967-8147e72832fb","system_id":"levelo_inurba_marseille","lat":43.29858,"lon":5.36285,"is_reserved":false,"is_disabled":false,"rental_uris":{"android":"levelo://app?vid=f1450451-4461-4c11-b967-8147e72832fb","ios":"levelo://app?vid=f1450451-4461-4c11-b967-8147e72832fb"},"vehicle_type_id":"4","last_reported":1770662551,"current_range_meters":8800,"station_id":"ce4bgpp2rcd13ifvqc3g","pricing_plan_id":"cebpf4jnsgd1na2vs0mg"},{"bike_id":"50dd5c4d-4398-43b8-90de-000c6b8255c2","system_id":"levelo_inurba_marseille","lat":43.294148,"lon":5.412762,"is_reserved":false,"is_disabled":false,"rental_uris":{"android":"levelo://app?vid=50dd5c4d-4398-43b8-90de-000c6b8255c2","ios":"levelo://app?vid=50dd5c4d-4398-43b8-90de-000c6b8255c2"},"vehicle_type_id":"4","last_reported":1770662551,"current_range_meters":8800,"station_id":"","pricing_plan_id":"cebpf4jnsgd1na2vs0mg"},{"bike_id":"a2a22745-56e6-4e97-9cfe-226d0e4c1d76","system_id":"levelo_inurba_marseille","lat":43.25583,"lon":5.38243,"is_reserved":false,"is_disabled":false,"rental_uris":{"android":"levelo://app?vid=a2a22745-56e6-4e97-9cfe-226d0e4c1d76","ios":"levelo://app?vid=a2a22745-56e6-4e97-9cfe-226d0e4c1d76"},"vehicle_type_id":"4","last_reported":1770662551,"current_range_meters":8800,"station_id":"ce4bhih2rcd13ifvqfs0","pricing_plan_id":"cebpf4jnsgd1na2vs0mg"},{"bike_id":"ca6aa475-a706-4201-b880-332143dae191","system_id":"levelo_inurba_marseille","lat":43.28668,"lon":5.38674,"is_reserved":false,"is_disabled":false,"rental_uris":{"android":"levelo://app?vid=ca6aa475-a706-4201-b880-332143dae191","ios":"levelo://app?vid=ca6aa475-a706-4201-b880-332143dae191"},"vehicle_type_id":"4","last_reported":1770662551,"current_range_meters":8800,"station_id":"ce4bh492rcd13ifvqdug","pricing_plan_id":"cebpf4jnsgd1na2vs0mg"},{"bike_id":"98fe643a-2789-4fb0-9cb9-57bbe23f949f","system_id":"levelo_inurba_marseille","lat":43.284774,"lon":5.483905,"is_reserved":false,"is_disabled":false,"rental_uris":{"android":"levelo://app?vid=98fe643a-2789-4fb0-9cb9-57bbe23f949f","ios":"levelo://app?vid=98fe643a-2789-4fb0-9cb9-57bbe23f949f"},"vehicle_type_id":"4","last_reported":1770662551,"current_range_meters":8800,"station_id":"","pricing_plan_id":"cebpf4jnsgd1na2vs0mg"},{"bike_id":"8c4fa143-5387-41b5-b9e5-5e6155ee3567","system_id":"levelo_inurba_marseille","lat":43.2837,"lon":5.38616,"is_reserved":false,"is_disabled":false,"rental_uris":{"android":"levelo://app?vid=8c4fa143-5387-41b5-b9e5-5e6155ee3567","ios":"levelo://app?vid=8c4fa143-5387-41b5-b9e5-5e6155ee3567"},"vehicle_type_id":"4","last_reported":1770662551,"current_range_meters":8800,"station_id":"ce4bh492rcd13ifvqdvg","pricing_plan_id":"cebpf4jnsgd1na2vs0mg"},{"bike_id":"77dfdb07-7c8a-408a-b8b3-78dbf29adf26","system_id":"levelo_inurba_marseille","lat":43.299328,"lon":5.37174,"is_reserved":false,"is_disabled":false,"rental_uris":{"android":"levelo://app?vid=77dfdb07-7c8a-408a-b8b3-78dbf29adf26","ios":"levelo://app?vid=77dfdb07-7c8a-408a-b8b3-78dbf29adf26"},"vehicle_type_id":"4","last_reported":1770662551,"current_range_meters":8800,"station_id":"ce4bgr92rcd13ifvqc7g","pricing_plan_id":"cebpf4jnsgd1na2vs0mg"},{"bike_id":"9ed8aed5-a532-46b0-aced-16133eee57c8","system_id":"levelo_inurba_marseille","lat":43.29912,"lon":5.37477,"is_reserved":false,"is_disabled":false,"rental_uris":{"android":"levelo://app?vid=9ed8aed5-a532-46b0-aced-16133eee57c8","ios":"levelo://app?vid=9ed8aed5-a532-46b0-aced-16133eee57c8"},"vehicle_type_id":"4","last_reported":1770662551,"current_range_meters":8800,"station_id":"ce4bgjh2rcd13ifvqbg0","pricing_plan_id":"cebpf4jnsgd1na2vs0mg"},{"bike_id":"bfc07130-be47-4eef-8325-e33d6610d729","system_id":"levelo_inurba_marseille","lat":43.301204,"lon":5.431153,"is_reserved":false,"is_disabled":false,"rental_uris":{"android":"levelo://app?vid=bfc07130-be47-4eef-8325-e33d6610d729","ios":"levelo://app?vid=bfc07130-be47-4eef-8325-e33d6610d729"},"vehicle_type_id":"4","last_reported":1770662551,"current_range_meters":9200,"station_id":"st_d3js3co5814s73ftftug","pricing_plan_id":"cebpf4jnsgd1na2vs0mg"},{"bike_id":"b9262157-d9a1-47cd-a87b-e8ea7e81f110","system_id":"levelo_inurba_marseille","lat":43.28708,"lon":5.39998,"is_reserved":false,"is_disabled":false,"rental_uris":{"android":"levelo://app?vid=b9262157-d9a1-47cd-a87b-e8ea7e81f110","ios":"levelo://app?vid=b9262157-d9a1-47cd-a87b-e8ea7e81f110"},"vehicle_type_id":"4","last_reported":1770662551,"current_range_meters":9200,"station_id":"ce4bho92rcd13ifvqh3g","pricing_plan_id":"cebpf4jnsgd1na2vs0mg"},{"bike_id":"6aa6da6f-1976-49d0-ac99-282daecf7451","system_id":"levelo_inurba_marseille","lat":43.24093,"lon":5.37782,"is_reserved":false,"is_disabled":false,"rental_uris":{"android":"levelo://app?vid=6aa6da6f-1976-49d0-ac99-282daecf7451","ios":"levelo://app?vid=6aa6da6f-1976-49d0-ac99-282daecf7451"},"vehicle_type_id":"4","last_reported":1770662551,"current_range_meters":9200,"station_id":"ce4bhnp2rcd13ifvqgvg","pricing_plan_id":"cebpf4jnsgd1na2vs0mg"},{"bike_id":"5f7df976-2770-4b0d-bd16-1a5d3e4bd86a","system_id":"levelo_inurba_marseille","lat":43.260294,"lon":5.375411,"is_reserved":false,"is_disabled":false,"rental_uris":{"android":"levelo://app?vid=5f7df976-2770-4b0d-bd16-1a5d3e4bd86a","ios":"levelo://app?vid=5f7df976-2770-4b0d-bd16-1a5d3e4bd86a"},"vehicle_type_id":"4","last_reported":1770662551,"current_range_meters":9200,"station_id":"ce4bhgh2rcd13ifvqfa0","pricing_plan_id":"cebpf4jnsgd1na2vs0mg"},{"bike_id":"a49184a7-524a-45ee-a649-336d42511412","system_id":"levelo_inurba_marseille","lat":43.27971,"lon":5.3872,"is_reserved":false,"is_disabled":false,"rental_uris":{"android":"levelo://app?vid=a49184a7-524a-45ee-a649-336d42511412","ios":"levelo://app?vid=a49184a7-524a-45ee-a649-336d42511412"},"vehicle_type_id":"4","last_reported":1770662551,"current_range_meters":9200,"station_id":"","pricing_plan_id":"cebpf4jnsgd1na2vs0mg"},{"bike_id":"46b69bcd-f35a-433e-b9f1-16ab03d0ac0e","system_id":"levelo_inurba_marseille","lat":43.25886,"lon":5.3992,"is_reserved":false,"is_disabled":false,"rental_uris":{"android":"levelo://app?vid=46b69bcd-f35a-433e-b9f1-16ab03d0ac0e","ios":"levelo://app?vid=46b69bcd-f35a-433e-b9f1-16ab03d0ac0e"},"vehicle_type_id":"4","last_reported":1770662551,"current_range_meters":9200,"station_id":"ce4bhl92rcd13ifvqghg","pricing_plan_id":"cebpf4jnsgd1na2vs0mg"},{"bike_id":"6da7b2c8-ded6-41b1-b326-7acbfdccc073","system_id":"levelo_inurba_marseille","lat":43.29657,"lon":5.38051,"is_reserved":false,"is_disabled":false,"rental_uris":{"android":"levelo://app?vid=6da7b2c8-ded6-41b1-b326-7acbfdccc073","ios":"levelo://app?vid=6da7b2c8-ded6-41b1-b326-7acbfdccc073"},"vehicle_type_id":"4","last_reported":1770662551,"current_range_meters":9200,"station_id":"","pricing_plan_id":"cebpf4jnsgd1na2vs0mg"},{"bike_id":"89446920-5bad-4011-b083-61088b42ddfa","system_id":"levelo_inurba_marseille","lat":43.24828,"lon":5.37486,"is_reserved":false,"is_disabled":false,"rental_uris":{"android":"levelo://app?vid=89446920-5bad-4011-b083-61088b42ddfa","ios":"levelo://app?vid=89446920-5bad-4011-b083-61088b42ddfa"},"vehicle_type_id":"4","last_reported":1770662551,"current_range_meters":9200,"station_id":"ce4bhgh2rcd13ifvqfb0","pricing_plan_id":"cebpf4jnsgd1na2vs0mg"},{"bike_id":"0e4b7dd1-df8a-4919-8d1a-9562179c8c91","system_id":"levelo_inurba_marseille","lat":43.31678,"lon":5.38993,"is_reserved":false,"is_disabled":false,"rental_uris":{"android":"levelo://app?vid=0e4b7dd1-df8a-4919-8d1a-9562179c8c91","ios":"levelo://app?vid=0e4b7dd1-df8a-4919-8d1a-9562179c8c91"},"vehicle_type_id":"4","last_reported":1770662551,"current_range_meters":9200,"station_id":"","pricing_plan_id":"cebpf4jnsgd1na2vs0mg"},{"bike_id":"433349a6-da3f-4021-b862-845a138e7600","system_id":"levelo_inurba_marseille","lat":43.284637,"lon":5.359021,"is_reserved":false,"is_disabled":false,"rental_uris":{"android":"levelo://app?vid=433349a6-da3f-4021-b862-845a138e7600","ios":"levelo://app?vid=433349a6-da3f-4021-b862-845a138e7600"},"vehicle_type_id":"4","last_reported":1770662551,"current_range_meters":9200,"station_id":"ce4bhah2rcd13ifvqei0","pricing_plan_id":"cebpf4jnsgd1na2vs0mg"},{"bike_id":"8421ab96-057e-4c56-8da9-39ca27ce7356","system_id":"levelo_inurba_marseille","lat":43.29969,"lon":5.41325,"is_reserved":false,"is_disabled":false,"rental_uris":{"android":"levelo://app?vid=8421ab96-057e-4c56-8da9-39ca27ce7356","ios":"levelo://app?vid=8421ab96-057e-4c56-8da9-39ca27ce7356"},"vehicle_type_id":"4","last_reported":1770662551,"current_range_meters":9200,"station_id":"ce4bhp12rcd13ifvqh9g","pricing_plan_id":"cebpf4jnsgd1na2vs0mg"},{"bike_id":"23faf02b-28d8-4a14-a292-ffbec7ab0604","system_id":"levelo_inurba_marseille","lat":43.26802,"lon":5.40259,"is_reserved":false,"is_disabled":false,"rental_uris":{"android":"levelo://app?vid=23faf02b-28d8-4a14-a292-ffbec7ab0604","ios":"levelo://app?vid=23faf02b-28d8-4a14-a292-ffbec7ab0604"},"vehicle_type_id":"4","last_reported":1770662551,"current_range_meters":9200,"station_id":"ce501612rcd8frsf0b60","pricing_plan_id":"cebpf4jnsgd1na2vs0mg"},{"bike_id":"3ffc8ed0-24b7-49ec-b390-276a9dc78730","system_id":"levelo_inurba_marseille","lat":43.29491,"lon":5.43322,"is_reserved":false,"is_disabled":false,"rental_uris":{"android":"levelo://app?vid=3ffc8ed0-24b7-49ec-b390-276a9dc78730","ios":"levelo://app?vid=3ffc8ed0-24b7-49ec-b390-276a9dc78730"},"vehicle_type_id":"4","last_reported":1770662551,"current_range_meters":9200,"station_id":"st_d3j5ugp08ojc73fj9d10","pricing_plan_id":"cebpf4jnsgd1na2vs0mg"},{"bike_id":"b2b3c599-18d6-447e-baaa-6da6b96c2039","system_id":"levelo_inurba_marseille","lat":43.28946,"lon":5.36636,"is_reserved":false,"is_disabled":false,"rental_uris":{"android":"levelo://app?vid=b2b3c599-18d6-447e-baaa-6da6b96c2039","ios":"levelo://app?vid=b2b3c599-18d6-447e-baaa-6da6b96c2039"},"vehicle_type_id":"4","last_reported":1770662551,"current_range_meters":9200,"station_id":"ce4bhap2rcd13ifvqek0","pricing_plan_id":"cebpf4jnsgd1na2vs0mg"},