{"last_updated":1751987469,"ttl":60,"version":"2.2","data":{"bikes":[{"bike_id":"cd20cfea-2f2f-444d-a882-a49b6cf370eb","system_id":"levelo_inurba_marseille","lat":43.337444,"lon":5.374475,"is_reserved":false,"is_disabled":true,"rental_uris":{"android":"levelo://app?vid=cd20cfea-2f2f-444d-a882-a49b6cf370eb","ios":"levelo://app?vid=cd20cfea-2f2f-444d-a882-a49b6cf370eb"},"vehicle_type_id":"4","last_reported":1751987469,"current_range_meters":0,"station_id":"","pricing_plan_id":"cebpf4jnsgd1na2vs0mg"},{"bike_id":"3da29fb8-fc97-44c6-b9ac-31dd456b2fd4","system_id":"levelo_inurba_marseille","lat":43.33771,"lon":5.37424,"is_reserved":false,"is_disabled":true,"rental_uris":{"android":"levelo://app?vid=3da29fb8-fc97-44c6-b9ac-31dd456b2fd4","ios":"levelo://app?vid=3da29fb8-fc97-44c6-b9ac-31dd456b2fd4"},"vehicle_type_id":"4","last_reported":1751987469,"current_range_meters":0,"station_id":"","pricing_plan_id":"cebpf4jnsgd1na2vs0mg"},{"bike_id":"01861ad8-a8d7-4be6-816e-651927c87584","system_id":"levelo_inurba_marseille","lat":43.33751,"lon":5.37456,"is_reserved":false,"is_disabled":true,"rental_uris":{"android":"levelo://app?vid=01861ad8-a8d7-4be6-816e-651927c87584","ios":"levelo://app?vid=01861ad8-a8d7-4be6-816e-651927c87584"},"vehicle_type_id":"4","last_reported":1751987469,"current_range_meters":0,"station_id":"","pricing_plan_id":"cebpf4jnsgd1na2vs0mg"},{"bike_id":"3d508917-55ee-42b6-894b-89c2a444dc06","system_id":"levelo_inurba_marseille","lat":43.33748,"lon":5.37473,"is_reserved":false,"is_disabled":true,"rental_uris":{"android":"levelo://app?vid=3d508917-55ee-42b6-894b-89c2a444dc06","ios":"levelo://app?vid=3d508917-55ee-42b6-894b-89c2a444dc06"},"vehicle_type_id":"4","last_reported":1751987469,"current_range_meters":0,"station_id":"","pricing_plan_id":"cebpf4jnsgd1na2vs0mg"},{"bike_id":"f168c062-5ddd-448d-89d5-b00b66e91b47","system_id":"levelo_inurba_marseille","lat":43.279169,"lon":5.395794,"is_reserved":false,"is_disabled":true,"rental_uris":{"android":"levelo://app?vid=f168c062-5ddd-448d-89d5-b00b66e91b47","ios":"levelo://app?vid=f168c062-5ddd-448d-89d5-b00b66e91b47"},"vehicle_type_id":"4","last_reported":1751987469,"current_range_meters":0,"station_id":"","pricing_plan_id":"cebpf4jnsgd1na2vs0mg"},{"bike_id":"88b70842-e5f4-43b5-82c9-59710f455632","system_id":"levelo_inurba_marseille","lat":43.29354,"lon":5.37841,"is_reserved":false,"is_disabled":true,"rental_uris":{"android":"levelo://app?vid=88b70842-e5f4-43b5-82c9-59710f455632","ios":"levelo://app?vid=88b70842-e5f4-43b5-82c9-59710f455632"},"vehicle_type_id":"4","last_reported":1751987469,"current_range_meters":0,"station_id":"ce4bgjh2rcd13ifvqbf0","pricing_plan_id":"cebpf4jnsgd1na2vs0mg"},{"bike_id":"b15069ae-feac-4da0-a8f1-0d098051d002","system_id":"levelo_inurba_marseille","lat":43.305389,"lon":5.36547,"is_reserved":false,"is_disabled":true,"rental_uris":{"android":"levelo://app?vid=b15069ae-feac-4da0-a8f1-0d098051d002","ios":"levelo://app?vid=b15069ae-feac-4da0-a8f1-0d098051d002"},"vehicle_type_id":"4","last_reported":1751987469,"current_range_meters":0,"station_id":"ce4bgs12rcd13ifvqcag","pricing_plan_id":"cebpf4jnsgd1na2vs0mg"},{"bike_id":"55534af5-2975-4bf3-aca1-ab440ade13d4","system_id":"levelo_inurba_marseille","lat":43.30592,"lon":5.39355,"is_reserved":false,"is_disabled":true,"rental_uris":{"android":"levelo://app?vid=55534af5-2975-4bf3-aca1-ab440ade13d4","ios":"levelo://app?vid=55534af5-2975-4bf3-aca1-ab440ade13d4"},"vehicle_type_id":"4","last_reported":1751987469,"current_range_meters":0,"station_id":"ce4bh0p2rcd13ifvqd80","pricing_plan_id":"cebpf4jnsgd1na2vs0mg"},{"bike_id":"469d5d22-1928-4bd3-88ee-6be19ee6fae3","system_id":"levelo_inurba_marseille","lat":43.30597,"lon":5.3936,"is_reserved":false,"is_disabled":true,"rental_uris":{"android":"levelo://app?vid=469d5d22-1928-4bd3-88ee-6be19ee6fae3","ios":"levelo://app?vid=469d5d22-1928-4bd3-88ee-6be19ee6fae3"},"vehicle_type_id":"4","last_reported":1751987469,"current_range_meters":0,"station_id":"ce4bh0p2rcd13ifvqd80","pricing_plan_id":"cebpf4jnsgd1na2vs0mg"},{"bike_id":"ef860fb4-6c7f-4fe0-b0ec-d72492f2565f","system_id":"levelo_inurba_marseille","lat":43.2885,"lon":5.39294,"is_reserved":false,"is_disabled":true,"rental_uris":{"android":"levelo://app?vid=ef860fb4-6c7f-4fe0-b0ec-d72492f2565f","ios":"levelo://app?vid=ef860fb4-6c7f-4fe0-b0ec-d72492f2565f"},"vehicle_type_id":"4","last_reported":1751987469,"current_range_meters":0,"station_id":"ce4bh2p2rcd13ifvqdi0","pricing_plan_id":"cebpf4jnsgd1na2vs0mg"},{"bike_id":"bbdbafc5-7950-4893-babe-3069850a834b","system_id":"levelo_inurba_marseille","lat":43.29579,"lon":5.39985,"is_reserved":false,"is_disabled":true,"rental_uris":{"android":"levelo://app?vid=bbdbafc5-7950-4893-babe-3069850a834b","ios":"levelo://app?vid=bbdbafc5-7950-4893-babe-3069850a834b"},"vehicle_type_id":"4","last_reported":1751987469,"current_range_meters":0,"station_id":"ce4bh312rcd13ifvqdj0","pricing_plan_id":"cebpf4jnsgd1na2vs0mg"},{"bike_id":"ce6acd4d-3b9d-4d62-9488-15a9a3b4be70","system_id":"levelo_inurba_marseille","lat":43.26561,"lon":5.3901,"is_reserved":false,"is_disabled":true,"rental_uris":{"android":"levelo://app?vid=ce6acd4d-3b9d-4d62-9488-15a9a3b4be70","ios":"levelo://app?vid=ce6acd4d-3b9d-4d62-9488-15a9a3b4be70"},"vehicle_type_id":"4","last_reported":1751987469,"current_range_meters":0,"station_id":"ce4bhe12rcd13ifvqf30","pricing_plan_id":"cebpf4jnsgd1na2vs0mg"},{"bike_id":"56d732e3-4049-417f-95e5-f598f2f9cfcf","system_id":"levelo_inurba_marseille","lat":43.30923,"lon":5.40146,"is_reserved":false,"is_disabled":true,"rental_uris":{"android":"levelo://app?vid=56d732e3-4049-417f-95e5-f598f2f9cfcf","ios":"levelo://app?vid=56d732e3-4049-417f-95e5-f598f2f9cfcf"},"vehicle_type_id":"4","last_reported":1751987469,"current_range_meters":400,"station_id":"ce4bgvp2rcd13ifvqct0","pricing_plan_id":"cebpf4jnsgd1na2vs0mg"},{"bike_id":"ddfdbc14-c1b2-41e5-9800-45695936a8cd","system_id":"levelo_inurba_marseille","lat":43.29021,"lon":5.38132,"is_reserved":false,"is_disabled":true,"rental_uris":{"android":"levelo://app?vid=ddfdbc14-c1b2-41e5-9800-45695936a8cd","ios":"levelo://app?vid=ddfdbc14-c1b2-41e5-9800-45695936a8cd"},"vehicle_type_id":"4","last_reported":1751987469,"current_range_meters":400,"station_id":"ce4bh4p2rcd13ifvqe1g","pricing_plan_id":"cebpf4jnsgd1na2vs0mg"},{"bike_id":"07776292-a328-471d-a8be-92d2382b012f","system_id":"levelo_inurba_marseille","lat":43.28181,"lon":5.42671,"is_reserved":false,"is_disabled":true,"rental_uris":{"android":"levelo://app?vid=07776292-a328-471d-a8be-92d2382b012f","ios":"levelo://app?vid=07776292-a328-471d-a8be-92d2382b012f"},"vehicle_type_id":"4","last_reported":1751987469,"current_range_meters":400,"station_id":"ce4bhnh2rcd13ifvqgug","pricing_plan_id":"cebpf4jnsgd1na2vs0mg"},{"bike_id":"d5e1f863-d7a6-47bd-9ca5-36dc3f89931d","system_id":"levelo_inurba_marseille","lat":43.28454,"lon":5.35895,"is_reserved":false,"is_disabled":true,"rental_uris":{"android":"levelo://app?vid=d5e1f863-d7a6-47bd-9ca5-36dc3f89931d","ios":"levelo://app?vid=d5e1f863-d7a6-47bd-9ca5-36dc3f89931d"},"vehicle_type_id":"4","last_reported":1751987469,"current_range_meters":800,"station_id":"ce4bhah2rcd13ifvqei0","pricing_plan_id":"cebpf4jnsgd1na2vs0mg"},{"bike_id":"787e5b87-ff15-44cd-9158-14f692dbc32a","system_id":"levelo_inurba_marseille","lat":43.33023,"lon":5.39039,"is_reserved":false,"is_disabled":true,"rental_uris":{"android":"levelo://app?vid=787e5b87-ff15-44cd-9158-14f692dbc32a","ios":"levelo://app?vid=787e5b87-ff15-44cd-9158-14f692dbc32a"},"vehicle_type_id":"4","last_reported":1751987469,"current_range_meters":1200,"station_id":"ce4bhr92rcd13ifvqhrg","pricing_plan_id":"cebpf4jnsgd1na2vs0mg"},{"bike_id":"ed290504-6948-4f69-8584-2e2b0286febf","system_id":"levelo_inurba_marseille","lat":43.21192,"lon":5.35065,"is_reserved":false,"is_disabled":true,"rental_uris":{"android":"levelo://app?vid=ed290504-6948-4f69-8584-2e2b0286febf","ios":"levelo://app?vid=ed290504-6948-4f69-8584-2e2b0286febf"},"vehicle_type_id":"4","last_reported":1751987469,"current_range_meters":1200,"station_id":"st_cvj6sg6p6f1abm77japg","pricing_plan_id":"cebpf4jnsgd1na2vs0mg"},{"bike_id":"f019955e-f7a1-4a35-8f42-1fdf08ee12bc","system_id":"levelo_inurba_marseille","lat":43.29737,"lon":5.37787,"is_reserved":false,"is_disabled":true,"rental_uris":{"android":"levelo://app?vid=f019955e-f7a1-4a35-8f42-1fdf08ee12bc","ios":"levelo://app?vid=f019955e-f7a1-4a35-8f42-1fdf08ee12bc"},"vehicle_type_id":"4","last_reported":1751987469,"current_range_meters":1600,"station_id":"","pricing_plan_id":"cebpf4jnsgd1na2vs0mg"},{"bike_id":"127e5075-c54b-499f-81c9-1d995821fcaa","system_id":"levelo_inurba_marseille","lat":43.29362,"lon":5.3785,"is_reserved":false,"is_disabled":true,"rental_uris":{"android":"levelo://app?vid=127e5075-c54b-499f-81c9-1d995821fcaa","ios":"levelo://app?vid=127e5075-c54b-499f-81c9-1d995821fcaa"},"vehicle_type_id":"4","last_reported":1751987469,"current_range_meters":1600,"station_id":"ce4bgjh2rcd13ifvqbf0","pricing_plan_id":"cebpf4jnsgd1na2vs0mg"},{"bike_id":"b9f3be9f-2fbf-4cd2-8fbe-abe044ea0ca3","system_id":"levelo_inurba_marseille","lat":43.28504,"lon":5.38565,"is_reserved":false,"is_disabled":true,"rental_uris":{"android":"levelo://app?vid=b9f3be9f-2fbf-4cd2-8fbe-abe044ea0ca3","ios":"levelo://app?vid=b9f3be9f-2fbf-4cd2-8fbe-abe044ea0ca3"},"vehicle_type_id":"4","last_reported":1751987469,"current_range_meters":1600,"station_id":"ce4bh8p2rcd13ifvqeb0","pricing_plan_id":"cebpf4jnsgd1na2vs0mg"},{"bike_id":"6661cbd2-6ba2-4b46-b15e-1188df0f29d7","system_id":"levelo_inurba_marseille","lat":43.21182,"lon":5.35101,"is_reserved":false,"is_disabled":true,"rental_uris":{"android":"levelo://app?vid=6661cbd2-6ba2-4b46-b15e-1188df0f29d7","ios":"levelo://app?vid=6661cbd2-6ba2-4b46-b15e-1188df0f29d7"},"vehicle_type_id":"4","last_reported":1751987469,"current_range_meters":1600,"station_id":"st_cvj6sg6p6f1abm77japg","pricing_plan_id":"cebpf4jnsgd1na2vs0mg"},{"bike_id":"2283e916-ba21-4026-a3ee-839525a72bc4","system_id":"levelo_inurba_marseille","lat":43.296816,"lon":5.37278,"is_reserved":false,"is_disabled":true,"rental_uris":{"android":"levelo://app?vid=2283e916-ba21-4026-a3ee-839525a72bc4","ios":"levelo://app?vid=2283e916-ba21-4026-a3ee-839525a72bc4"},"vehicle_type_id":"4","last_reported":1751987469,"current_range_meters":2000,"station_id":"ce4bgk12rcd13ifvqbj0","pricing_plan_id":"cebpf4jnsgd1na2vs0mg"},{"bike_id":"95b8eaf9-8332-4365-863a-afcd1bb9064e","system_id":"levelo_inurba_marseille","lat":43.29276,"lon":5.38448,"is_reserved":false,"is_disabled":true,"rental_uris":{"android":"levelo://app?vid=95b8eaf9-8332-4365-863a-afcd1bb9064e","ios":"levelo://app?vid=95b8eaf9-8332-4365-863a-afcd1bb9064e"},"vehicle_type_id":"4","last_reported":1751987469,"current_range_meters":2000,"station_id":"ce4bh692rcd13ifvqea0","pricing_plan_id":"cebpf4jnsgd1na2vs0mg"},{"bike_id":"67a9f60d-d5b3-40cb-9ea1-e2f4127ac3ce","system_id":"levelo_inurba_marseille","lat":43.28464,"lon":5.35878,"is_reserved":false,"is_disabled":true,"rental_uris":{"android":"levelo://app?vid=67a9f60d-d5b3-40cb-9ea1-e2f4127ac3ce","ios":"levelo://app?vid=67a9f60d-d5b3-40cb-9ea1-e2f4127ac3ce"},"vehicle_type_id":"4","last_reported":1751987469,"current_range_meters":2000,"station_id":"ce4bhah2rcd13ifvqei0","pricing_plan_id":"cebpf4jnsgd1na2vs0mg"},{"bike_id":"3b638e02-6a55-403d-b500-cc62d0041fbc","system_id":"levelo_inurba_marseille","lat":43.26937,"lon":5.38905,"is_reserved":false,"is_disabled":true,"rental_uris":{"android":"levelo://app?vid=3b638e02-6a55-403d-b500-cc62d0041fbc","ios":"levelo://app?vid=3b638e02-6a55-403d-b500-cc62d0041fbc"},"vehicle_type_id":"4","last_reported":1751987469,"current_range_meters":2000,"station_id":"ce4bhhh2rcd13ifvqfl0","pricing_plan_id":"cebpf4jnsgd1na2vs0mg"},{"bike_id":"5dca33cf-60d9-40cd-bafd-b8058d47bcb2","system_id":"levelo_inurba_marseille","lat":43.284067,"lon":5.375113,"is_reserved":false,"is_disabled":false,"rental_uris":{"android":"levelo://app?vid=5dca33cf-60d9-40cd-bafd-b8058d47bcb2","ios":"levelo://app?vid=5dca33cf-60d9-40cd-bafd-b8058d47bcb2"},"vehicle_type_id":"4","last_reported":1751987469,"current_range_meters":2800,"station_id":"ce4bh412rcd13ifvqds0","pricing_plan_id":"cebpf4jnsgd1na2vs0mg"},{"bike_id":"47cc12e9-1f9d-4b29-b948-db655857089a","system_id":"levelo_inurba_marseille","lat":43.22531,"lon":5.34797,"is_reserved":false,"is_disabled":false,"rental_uris":{"android":"levelo://app?vid=47cc12e9-1f9d-4b29-b948-db655857089a","ios":"levelo://app?vid=47cc12e9-1f9d-4b29-b948-db655857089a"},"vehicle_type_id":"4","last_reported":1751987469,"current_range_meters":2800,"station_id":"st_cvj5dfep6f1abm77gieg","pricing_plan_id":"cebpf4jnsgd1na2vs0mg"},{"bike_id":"affe03df-5fa5-443e-b7f4-0027e267ca1c","system_id":"levelo_inurba_marseille","lat":43.3013,"lon":5.39847,"is_reserved":false,"is_disabled":false,"rental_uris":{"android":"levelo://app?vid=affe03df-5fa5-443e-b7f4-0027e267ca1c","ios":"levelo://app?vid=affe03df-5fa5-443e-b7f4-0027e267ca1c"},"vehicle_type_id":"4","last_reported":1751987469,"current_range_meters":3200,"station_id":"ce4bh0h2rcd13ifvqd40","pricing_plan_id":"cebpf4jnsgd1na2vs0mg"},{"bike_id":"79da8375-8fc3-4e29-9a82-c8ae1aafdb35","system_id":"levelo_inurba_marseille","lat":43.279028,"lon":5.379975,"is_reserved":false,"is_disabled":false,"rental_uris":{"android":"levelo://app?vid=79da8375-8fc3-4e29-9a82-c8ae1aafdb35","ios":"levelo://app?vid=79da8375-8fc3-4e29-9a82-c8ae1aafdb35"},"vehicle_type_id":"4","last_reported":1751987469,"current_range_meters":3200,"station_id":"ce4bhf92rcd13ifvqf50","pricing_plan_id":"cebpf4jnsgd1na2vs0mg"},{"bike_id":"ff6969fc-5512-4edf-a61d-6936ccb9a278","system_id":"levelo_inurba_marseille","lat":43.330142,"lon":5.36378,"is_reserved":false,"is_disabled":false,"rental_uris":{"android":"levelo://app?vid=ff6969fc-5512-4edf-a61d-6936ccb9a278","ios":"levelo://app?vid=ff6969fc-5512-4edf-a61d-6936ccb9a278"},"vehicle_type_id":"4","last_reported":1751987469,"current_range_meters":3600,"station_id":"","pricing_plan_id":"cebpf4jnsgd1na2vs0mg"},{"bike_id":"75f4c562-06b0-4140-ae84-4f58c6356f22","system_id":"levelo_inurba_marseille","lat":43.30426,"lon":5.38891,"is_reserved":false,"is_disabled":false,"rental_uris":{"android":"levelo://app?vid=75f4c562-06b0-4140-ae84-4f58c6356f22","ios":"levelo://app?vid=75f4c562-06b0-4140-ae84-4f58c6356f22"},"vehicle_type_id":"4","last_reported":1751987469,"current_range_meters":3600,"station_id":"ce4bgk12rcd13ifvqbi0","pricing_plan_id":"cebpf4jnsgd1na2vs0mg"},{"bike_id":"e562ad4e-a577-4b7b-a74e-7e00b9c0f52f","system_id":"levelo_inurba_marseille","lat":43.22504,"lon":5.3478,"is_reserved":false,"is_disabled":false,"rental_uris":{"android":"levelo://app?vid=e562ad4e-a577-4b7b-a74e-7e00b9c0f52f","ios":"levelo://app?vid=e562ad4e-a577-4b7b-a74e-7e00b9c0f52f"},"vehicle_type_id":"4","last_reported":1751987469,"current_range_meters":4000,"station_id":"st_cvj5dfep6f1abm77gieg","pricing_plan_id":"cebpf4jnsgd1na2vs0mg"},{"bike_id":"787a6567-8715-4b66-9b13-797c66ea2ea1","system_id":"levelo_inurba_marseille","lat":43.292786,"lon":5.401129,"is_reserved":false,"is_disabled":false,"rental_uris":{"android":"levelo://app?vid=787a6567-8715-4b66-9b13-797c66ea2ea1","ios":"levelo://app?vid=787a6567-8715-4b66-9b13-797c66ea2ea1"},"vehicle_type_id":"4","last_reported":1751987469,"current_range_meters":4400,"station_id":"ce4bh312rcd13ifvqdk0","pricing_plan_id":"cebpf4jnsgd1na2vs0mg"},{"bike_id":"3e2df717-1a2e-404f-8006-bac9d93a677e","system_id":"levelo_inurba_marseille","lat":43.29357,"lon":5.37848,"is_reserved":false,"is_disabled":false,"rental_uris":{"android":"levelo://app?vid=3e2df717-1a2e-404f-8006-bac9d93a677e","ios":"levelo://app?vid=3e2df717-1a2e-404f-8006-bac9d93a677e"},"vehicle_type_id":"4","last_reported":1751987469,"current_range_meters":4800,"station_id":"ce4bgjh2rcd13ifvqbf0","pricing_plan_id":"cebpf4jnsgd1na2vs0mg"},{"bike_id":"ead9b05d-3059-4eec-b92c-6a6467703521","system_id":"levelo_inurba_marseille","lat":43.29787,"lon":5.37103,"is_reserved":false,"is_disabled":false,"rental_uris":{"android":"levelo://app?vid=ead9b05d-3059-4eec-b92c-6a6467703521","ios":"levelo://app?vid=ead9b05d-3059-4eec-b92c-6a6467703521"},"vehicle_type_id":"4","last_reported":1751987469,"current_range_meters":4800,"station_id":"ce4bgop2rcd13ifvqc1g","pricing_plan_id":"cebpf4jnsgd1na2vs0mg"},{"bike_id":"8e9804c0-ad1f-455c-9b7a-634696c70a84","system_id":"levelo_inurba_marseille","lat":43.30209,"lon":5.39478,"is_reserved":false,"is_disabled":false,"rental_uris":{"android":"levelo://app?vid=8e9804c0-ad1f-455c-9b7a-634696c70a84","ios":"levelo://app?vid=8e9804c0-ad1f-455c-9b7a-634696c70a84"},"vehicle_type_id":"4","last_reported":1751987469,"current_range_meters":5600,"station_id":"ce4bh0p2rcd13ifvqd70","pricing_plan_id":"cebpf4jnsgd1na2vs0mg"},{"bike_id":"7b527f00-f6ea-4963-b59d-8da04a2feedb","system_id":"levelo_inurba_marseille","lat":43.32081,"lon":5.40121,"is_reserved":false,"is_disabled":false,"rental_uris":{"android":"levelo://app?vid=7b527f00-f6ea-4963-b59d-8da04a2feedb","ios":"levelo://app?vid=7b527f00-f6ea-4963-b59d-8da04a2feedb"},"vehicle_type_id":"4","last_reported":1751987469,"current_range_meters":6000,"station_id":"","pricing_plan_id":"cebpf4jnsgd1na2vs0mg"},{"bike_id":"505840c2-0e34-47f4-a875-7017b731ed27","system_id":"levelo_inurba_marseille","lat":43.26962,"lon":5.38634,"is_reserved":false,"is_disabled":false,"rental_uris":{"android":"levelo://app?vid=505840c2-0e34-47f4-a875-7017b731ed27","ios":"levelo://app?vid=505840c2-0e34-47f4-a875-7017b731ed27"},"vehicle_type_id":"4","last_reported":1751987469,"current_range_meters":6000,"station_id":"ce4bhh92rcd13ifvqfh0","pricing_plan_id":"cebpf4jnsgd1na2vs0mg"},{"bike_id":"e97ee5c0-87e5-403c-92ed-929b14d6ff8f","system_id":"levelo_inurba_marseille","lat":43.283309,"lon":5.38503,"is_reserved":false,"is_disabled":false,"rental_uris":{"android":"levelo://app?vid=e97ee5c0-87e5-403c-92ed-929b14d6ff8f","ios":"levelo://app?vid=e97ee5c0-87e5-403c-92ed-929b14d6ff8f"},"vehicle_type_id":"4","last_reported":1751987469,"current_range_meters":6400,"station_id":"","pricing_plan_id":"cebpf4jnsgd1na2vs0mg"},{"bike_id":"88ea42cb-cf0f-4e4a-8442-732645bc4ba5","system_id":"levelo_inurba_marseille","lat":43.31106,"lon":5.36687,"is_reserved":false,"is_disabled":false,"rental_uris":{"android":"levelo://app?vid=88ea42cb-cf0f-4e4a-8442-732645bc4ba5","ios":"levelo://app?vid=88ea42cb-cf0f-4e4a-8442-732645bc4ba5"},"vehicle_type_id":"4","last_reported":1751987469,"current_range_meters":6400,"station_id":"","pricing_plan_id":"cebpf4jnsgd1na2vs0mg"},{"bike_id":"fc7dedcc-0e8b-4cc5-a268-673f700dad54","system_id":"levelo_inurba_marseille","lat":43.28727,"lon":5.40032,"is_reserved":false,"is_disabled":false,"rental_uris":{"android":"levelo://app?vid=fc7dedcc-0e8b-4cc5-a268-673f700dad54","ios":"levelo://app?vid=fc7dedcc-0e8b-4cc5-a268-673f700dad54"},"vehicle_type_id":"4","last_reported":1751987469,"current_range_meters":6400,"station_id":"ce4bho92rcd13ifvqh3g","pricing_plan_id":"cebpf4jnsgd1na2vs0mg"},{"bike_id":"3b22f952-d0bc-4c00-8fd3-7e27b88aea23","system_id":"levelo_inurba_marseille","lat":43.29659,"lon":5.36245,"is_reserved":false,"is_disabled":false,"rental_uris":{"android":"levelo://app?vid=3b22f952-d0bc-4c00-8fd3-7e27b88aea23","ios":"levelo://app?vid=3b22f952-d0bc-4c00-8fd3-7e27b88aea23"},"vehicle_type_id":"4","last_reported":1751987469,"current_range_meters":6800,"station_id":"","pricing_plan_id":"cebpf4jnsgd1na2vs0mg"},{"bike_id":"cfa5bb1b-a0ba-4a30-94e2-782a083220b5","system_id":"levelo_inurba_marseille","lat":43.30604,"lon":5.39353,"is_reserved":false,"is_disabled":false,"rental_uris":{"android":"levelo://app?vid=cfa5bb1b-a0ba-4a30-94e2-782a083220b5","ios":"levelo://app?vid=cfa5bb1b-a0ba-4a30-94e2-782a083220b5"},"vehicle_type_id":"4","last_reported":1751987469,"current_range_meters":6800,"station_id":"ce4bh0p2rcd13ifvqd80","pricing_plan_id":"cebpf4jnsgd1na2vs0mg"},{"bike_id":"37f2becd-23f9-4f13-a711-38b8024eeec7","system_id":"levelo_inurba_marseille","lat":43.33768,"lon":5.37516,"is_reserved":false,"is_disabled":false,"rental_uris":{"android":"levelo://app?vid=37f2becd-23f9-4f13-a711-38b8024eeec7","ios":"levelo://app?vid=37f2becd-23f9-4f13-a711-38b8024eeec7"},"vehicle_type_id":"4","last_reported":1751987469,"current_range_meters":7200,"station_id":"","pricing_plan_id":"cebpf4jnsgd1na2vs0mg"},{"bike_id":"52e21b79-2cb7-47e8-a334-8220c9a32fb7","system_id":"levelo_inurba_marseille","lat":43.30376,"lon":5.42485,"is_reserved":false,"is_disabled":false,"rental_uris":{"android":"levelo://app?vid=52e21b79-2cb7-47e8-a334-8220c9a32fb7","ios":"levelo://app?vid=52e21b79-2cb7-47e8-a334-8220c9a32fb7"},"vehicle_type_id":"4","last_reported":1751987469,"current_range_meters":7200,"station_id":"ce4bhoh2rcd13ifvqh6g","pricing_plan_id":"cebpf4jnsgd1na2vs0mg"},{"bike_id":"ef555217-bd2c-402e-b3c9-55f050045c01","system_id":"levelo_inurba_marseille","lat":43.30526,"lon":5.36726,"is_reserved":false,"is_disabled":false,"rental_uris":{"android":"levelo://app?vid=ef555217-bd2c-402e-b3c9-55f050045c01","ios":"levelo://app?vid=ef555217-bd2c-402e-b3c9-55f050045c01"},"vehicle_type_id":"4","last_reported":1751987469,"current_range_meters":8000,"station_id":"ce4bgrp2rcd13ifvqc9g","pricing_plan_id":"cebpf4jnsgd1na2vs0mg"},{"bike_id":"f386750a-c2ec-4f5d-9a50-0178b32ef1fc","system_id":"levelo_inurba_marseille","lat":43.290039,"lon":5.356313,"is_reserved":false,"is_disabled":false,"rental_uris":{"android":"levelo://app?vid=f386750a-c2ec-4f5d-9a50-0178b32ef1fc","ios":"levelo://app?vid=f386750a-c2ec-4f5d-9a50-0178b32ef1fc"},"vehicle_type_id":"4","last_reported":1751987469,"current_range_meters":8000,"station_id":"ce4bhb92rcd13ifvqen0","pricing_plan_id":"cebpf4jnsgd1na2vs0mg"},{"bike_id":"b2254882-941e-42b1-be36-ebc1c96e0473","system_id":"levelo_inurba_marseille","lat":43.30014,"lon":5.36402,"is_reserved":false,"is_disabled":false,"rental_uris":{"android":"levelo://app?vid=b2254882-941e-42b1-be36-ebc1c96e0473","ios":"levelo://app?vid=b2254882-941e-42b1-be36-ebc1c96e0473"},"vehicle_type_id":"4","last_reported":1751987469,"current_range_meters":8400,"station_id":"","pricing_plan_id":"cebpf4jnsgd1na2vs0mg"},{"bike_id":"4338eecf-d6a1-438e-939f-044b36088e0b","system_id":"levelo_inurba_marseille","lat":43.31163,"lon":5.38718,"is_reserved":false,"is_disabled":false,"rental_uris":{"android":"levelo://app?vid=4338eecf-d6a1-438e-939f-044b36088e0b","ios":"levelo://app?vid=4338eecf-d6a1-438e-939f-044b36088e0b"},"vehicle_type_id":"4","last_reported":1751987469,"current_range_meters":8400,"station_id":"ce4bgv12rcd13ifvqcp0","pricing_plan_id":"cebpf4jnsgd1na2vs0mg"},{"bike_id":"50db2abd-8b60-4b37-9b24-4eccf10cdf46","system_id":"levelo_inurba_marseille","lat":43.286957,"lon":5.39989,"is_reserved":false,"is_disabled":false,"rental_uris":{"android":"levelo://app?vid=50db2abd-8b60-4b37-9b24-4eccf10cdf46","ios":"levelo://app?vid=50db2abd-8b60-4b37-9b24-4eccf10cdf46"},"vehicle_type_id":"4","last_reported":1751987469,"current_range_meters":8400,"station_id":"ce4bho92rcd13ifvqh3g","pricing_plan_id":"cebpf4jnsgd1na2vs0mg"},{"bike_id":"2c423baa-ecca-420a-87d7-ad0b7e0b9ebb","system_id":"levelo_inurba_marseille","lat":43.280377,"lon":5.353577,"is_reserved":false,"is_disabled":false,"rental_uris":{"android":"levelo://app?vid=2c423baa-ecca-420a-87d7-ad0b7e0b9ebb","ios":"levelo://app?vid=2c423baa-ecca-420a-87d7-ad0b7e0b9ebb"},"vehicle_type_id":"4","last_reported":1751987469,"current_range_meters":8800,"station_id":"","pricing_plan_id":"cebpf4jnsgd1na2vs0mg"},{"bike_id":"a70cfab5-f447-4d61-b80a-343a49825360","system_id":"levelo_inurba_marseille","lat":43.31684,"lon":5.37625,"is_reserved":false,"is_disabled":false,"rental_uris":{"android":"levelo://app?vid=a70cfab5-f447-4d61-b80a-343a49825360","ios":"levelo://app?vid=a70cfab5-f447-4d61-b80a-343a49825360"},"vehicle_type_id":"4","last_reported":1751987469,"current_range_meters":9200,"station_id":"","pricing_plan_id":"cebpf4jnsgd1na2vs0mg"},{"bike_id":"1a27e57d-1067-493a-b13a-be82387a9819","system_id":"levelo_inurba_marseille","lat":43.30926,"lon":5.40147,"is_reserved":false,"is_disabled":false,"rental_uris":{"android":"levelo://app?vid=1a27e57d-1067-493a-b13a-be82387a9819","ios":"levelo://app?vid=1a27e57d-1067-493a-b13a-be82387a9819"},"vehicle_type_id":"4","last_reported":1751987469,"current_range_meters":9200,"station_id":"ce4bgvp2rcd13ifvqct0","pricing_plan_id":"cebpf4jnsgd1na2vs0mg"},{"bike_id":"5d686dc8-965b-4e4d-affd-17fce7d0c213","system_id":"levelo_inurba_marseille","lat":43.265,"lon":5.39537,"is_reserved":false,"is_disabled":false,"rental_uris":{"android":"levelo://app?vid=5d686dc8-965b-4e4d-affd-17fce7d0c213","ios":"levelo://app?vid=5d686dc8-965b-4e4d-affd-17fce7d0c213"},"vehicle_type_id":"4","last_reported":1751987469,"current_range_meters":9200,"station_id":"ce4bhi12rcd13ifvqfq0","pricing_plan_id":"cebpf4jnsgd1na2vs0mg"},{"bike_id":"f79f8f41-2857-434e-930c-c10e408821bb","system_id":"levelo_inurba_marseille","lat":43.27075,"lon":5.42289,"is_reserved":false,"is_disabled":false,"rental_uris":{"android":"levelo://app?vid=f79f8f41-2857-434e-930c-c10e408821bb","ios":"levelo://app?vid=f79f8f41-2857-434e-930c-c10e408821bb"},"vehicle_type_id":"4","last_reported":1751987469,"current_range_meters":9200,"station_id":"ce4bhk92rcd13ifvqgb0","pricing_plan_id":"cebpf4jnsgd1na2vs0mg"},{"bike_id":"5cf20c13-ae28-4b18-9030-a8a871380cb9","system_id":"levelo_inurba_marseille","lat":43.29361,"lon":5.37841,"is_reserved":false,"is_disabled":false,"rental_uris":{"android":"levelo://app?vid=5cf20c13-ae28-4b18-9030-a8a871380cb9","ios":"levelo://app?vid=5cf20c13-ae28-4b18-9030-a8a871380cb9"},"vehicle_type_id":"4","last_reported":1751987469,"current_range_meters":9600,"station_id":"ce4bgjh2rcd13ifvqbf0","pricing_plan_id":"cebpf4jnsgd1na2vs0mg"},{"bike_id":"611061b1-5584-4d44-9ef4-c48249efad9e","system_id":"levelo_inurba_marseille","lat":43.30423,"lon":5.38893,"is_reserved":false,"is_disabled":false,"rental_uris":{"android":"levelo://app?vid=611061b1-5584-4d44-9ef4-c48249efad9e","ios":"levelo://app?vid=611061b1-5584-4d44-9ef4-c48249efad9e"},"vehicle_type_id":"4","last_reported":1751987469,"current_range_meters":9600,"station_id":"ce4bgk12rcd13ifvqbi0","pricing_plan_id":"cebpf4jnsgd1na2vs0mg"},{"bike_id":"5b12d895-8bc5-448d-a1f4-67da1239b51b","system_id":"levelo_inurba_marseille","lat":43.30588,"lon":5.39344,"is_reserved":false,"is_disabled":false,"rental_uris":{"android":"levelo://app?vid=5b12d895-8bc5-448d-a1f4-67da1239b51b","ios":"levelo://app?vid=5b12d895-8bc5-448d-a1f4-67da1239b51b"},"vehicle_type_id":"4","last_reported":1751987469,"current_range_meters":9600,"station_id":"ce4bh0p2rcd13ifvqd80","pricing_plan_id":"cebpf4jnsgd1na2vs0mg"},{"bike_id":"edc1622d-eed1-481f-bbe8-25d0c82940c7","system_id":"levelo_inurba_marseille","lat":43.2512,"lon":5.40316,"is_reserved":false,"is_disabled":false,"rental_uris":{"android":"levelo://app?vid=edc1622d-eed1-481f-bbe8-25d0c82940c7","ios":"levelo://app?vid=edc1622d-eed1-481f-bbe8-25d0c82940c7"},"vehicle_type_id":"4","last_reported":1751987469,"current_range_meters":9600,"station_id":"ce4bhlh2rcd13ifvqgig","pricing_plan_id":"cebpf4jnsgd1na2vs0mg"},{"bike_id":"3c94d2c6-2996-41de-9e54-fa8af7df6912","system_id":"levelo_inurba_marseille","lat":43.21743,"lon":5.34606,"is_reserved":false,"is_disabled":false,"rental_uris":{"android":"levelo://app?vid=3c94d2c6-2996-41de-9e54-fa8af7df6912","ios":"levelo://app?vid=3c94d2c6-2996-41de-9e54-fa8af7df6912"},"vehicle_type_id":"4","last_reported":1751987469,"current_range_meters":9600,"station_id":"st_cvj6r9ubvosntc0bgbag","pricing_plan_id":"cebpf4jnsgd1na2vs0mg"},{"bike_id":"3ce4e6c3-87af-4632-912b-b329b6f2813a","system_id":"levelo_inurba_marseille","lat":43.29859,"lon":5.39739,"is_reserved":false,"is_disabled":false,"rental_uris":{"android":"levelo://app?vid=3ce4e6c3-87af-4632-912b-b329b6f2813a","ios":"levelo://app?vid=3ce4e6c3-87af-4632-912b-b329b6f2813a"},"vehicle_type_id":"4","last_reported":1751987469,"current_range_meters":10000,"station_id":"ce4bh0h2rcd13ifvqd50","pricing_plan_id":"cebpf4jnsgd1na2vs0mg"},{"bike_id":"1dfe2a62-5151-4cd4-bb1b-c713bf0a102e","system_id":"levelo_inurba_marseille","lat":43.28458,"lon":5.3589,"is_reserved":false,"is_disabled":false,"rental_uris":{"android":"levelo://app?vid=1dfe2a62-5151-4cd4-bb1b-c713bf0a102e","ios":"levelo://app?vid=1dfe2a62-5151-4cd4-bb1b-c713bf0a102e"},"vehicle_type_id":"4","last_reported":1751987469,"current_range_meters":10000,"station_id":"ce4bhah2rcd13ifvqei0","pricing_plan_id":"cebpf4jnsgd1na2vs0mg"},{"bike_id":"d235f90d-771e-4f83-9b85-61d681131f7d","system_id":"levelo_inurba_marseille","lat":43.25119,"lon":5.40321,"is_reserved":false,"is_disabled":false,"rental_uris":{"android":"levelo://app?vid=d235f90d-771e-4f83-9b85-61d681131f7d","ios":"levelo://app?vid=d235f90d-771e-4f83-9b85-61d681131f7d"},"vehicle_type_id":"4","last_reported":1751987469,"current_range_meters":10000,"station_id":"ce4bhlh2rcd13ifvqgig","pricing_plan_id":"cebpf4jnsgd1na2vs0mg"},{"bike_id":"373f7154-05e4-4923-8d21-eb4b99691656","system_id":"levelo_inurba_marseille","lat":43.31536,"lon":5.3867,"is_reserved":false,"is_disabled":false,"rental_uris":{"android":"levelo://app?vid=373f7154-05e4-4923-8d21-eb4b99691656","ios":"levelo://app?vid=373f7154-05e4-4923-8d21-eb4b99691656"},"vehicle_type_id":"4","last_reported":1751987469,"current_range_meters":10800,"station_id":"","pricing_plan_id":"cebpf4jnsgd1na2vs0mg"},{"bike_id":"1483e374-faf4-4771-9a76-9ae15a78c0f7","system_id":"levelo_inurba_marseille","lat":43.29643,"lon":5.406,"is_reserved":false,"is_disabled":false,"rental_uris":{"android":"levelo://app?vid=1483e374-faf4-4771-9a76-9ae15a78c0f7","ios":"levelo://app?vid=1483e374-faf4-4771-9a76-9ae15a78c0f7"},"vehicle_type_id":"4","last_reported":1751987469,"current_range_meters":10800,"station_id":"ce4bh0h2rcd13ifvqd60","pricing_plan_id":"cebpf4jnsgd1na2vs0mg"},{"bike_id":"317ee0f1-4a6f-4645-a28a-da8c4f4e38c4","system_id":"levelo_inurba_marseille","lat":43.28454,"lon":5.3591,"is_reserved":false,"is_disabled":false,"rental_uris":{"android":"levelo://app?vid=317ee0f1-4a6f-4645-a28a-da8c4f4e38c4","ios":"levelo://app?vid=317ee0f1-4a6f-4645-a28a-da8c4f4e38c4"},"vehicle_type_id":"4","last_reported":1751987469,"current_range_meters":10800,"station_id":"ce4bhah2rcd13ifvqei0","pricing_plan_id":"cebpf4jnsgd1na2vs0mg"},{"bike_id":"e500e8b8-f582-4f61-bca2-cce2efcada32","system_id":"levelo_inurba_marseille","lat":43.27514,"lon":5.42463,"is_reserved":false,"is_disabled":false,"rental_uris":{"android":"levelo://app?vid=e500e8b8-f582-4f61-bca2-cce2efcada32","ios":"levelo://app?vid=e500e8b8-f582-4f61-bca2-cce2efcada32"},"vehicle_type_id":"4","last_reported":1751987469,"current_range_meters":10800,"station_id":"ce4bhn92rcd13ifvqgrg","pricing_plan_id":"cebpf4jnsgd1na2vs0mg"},{"bike_id":"c2ee7d66-374b-44cd-b9d7-9ad64301293b","system_id":"levelo_inurba_marseille","lat":43.3379,"lon":5.37462,"is_reserved":false,"is_disabled":false,"rental_uris":{"android":"levelo://app?vid=c2ee7d66-374b-44cd-b9d7-9ad64301293b","ios":"levelo://app?vid=c2ee7d66-374b-44cd-b9d7-9ad64301293b"},"vehicle_type_id":"4","last_reported":1751987469,"current_range_meters":11200,"station_id":"","pricing_plan_id":"cebpf4jnsgd1na2vs0mg"},{"bike_id":"98f46642-8fdc-43be-8379-a5bf33d8441b","system_id":"levelo_inurba_marseille","lat":43.211894,"lon":5.35071,"is_reserved":false,"is_disabled":false,"rental_uris":{"android":"levelo://app?vid=98f46642-8fdc-43be-8379-a5bf33d8441b","ios":"levelo://app?vid=98f46642-8fdc-43be-8379-a5bf33d8441b"},"vehicle_type_id":"4","last_reported":1751987469,"current_range_meters":11200,"station_id":"st_cvj6sg6p6f1abm77japg","pricing_plan_id":"cebpf4jnsgd1na2vs0mg"},{"bike_id":"ef37d4e2-0ac0-46be-951e-4995a78ba684","system_id":"levelo_inurba_marseille","lat":43.2551,"lon":5.37648,"is_reserved":false,"is_disabled":false,"rental_uris":{"android":"levelo://app?vid=ef37d4e2-0ac0-46be-951e-4995a78ba684","ios":"levelo://app?vid=ef37d4e2-0ac0-46be-951e-4995a78ba684"},"vehicle_type_id":"4","last_reported":1751987469,"current_range_meters":11600,"station_id":"ce4bhh12rcd13ifvqff0","pricing_plan_id":"cebpf4jnsgd1na2vs0mg"},{"bike_id":"2107bd1d-a23b-4040-956a-3a897e205142","system_id":"levelo_inurba_marseille","lat":43.26958,"lon":5.3863,"is_reserved":false,"is_disabled":false,"rental_uris":{"android":"levelo://app?vid=2107bd1d-a23b-4040-956a-3a897e205142","ios":"levelo://app?vid=2107bd1d-a23b-4040-956a-3a897e205142"},"vehicle_type_id":"4","last_reported":1751987469,"current_range_meters":11600,"station_id":"ce4bhh92rcd13ifvqfh0","pricing_plan_id":"cebpf4jnsgd1na2vs0mg"},{"bike_id":"361c5398-2978-4873-882e-a3172612449b","system_id":"levelo_inurba_marseille","lat":43.26231,"lon":5.40429,"is_reserved":false,"is_disabled":false,"rental_uris":{"android":"levelo://app?vid=361c5398-2978-4873-882e-a3172612449b","ios":"levelo://app?vid=361c5398-2978-4873-882e-a3172612449b"},"vehicle_type_id":"4","last_reported":1751987469,"current_range_meters":11600,"station_id":"ce4bhmh2rcd13ifvqgmg","pricing_plan_id":"cebpf4jnsgd1na2vs0mg"},{"bike_id":"338f3d7b-0158-4920-8c1e-0750ce30540a","system_id":"levelo_inurba_marseille","lat":43.32367,"lon":5.38889,"is_reserved":false,"is_disabled":false,"rental_uris":{"android":"levelo://app?vid=338f3d7b-0158-4920-8c1e-0750ce30540a","ios":"levelo://app?vid=338f3d7b-0158-4920-8c1e-0750ce30540a"},"vehicle_type_id":"4","last_reported":1751987469,"current_range_meters":11600,"station_id":"ce4bhqp2rcd13ifvqhog","pricing_plan_id":"cebpf4jnsgd1na2vs0mg"},{"bike_id":"e54a69bc-634c-4579-91a1-2ea1e7521c68","system_id":"levelo_inurba_marseille","lat":43.30142,"lon":5.37206,"is_reserved":false,"is_disabled":false,"rental_uris":{"android":"levelo://app?vid=e54a69bc-634c-4579-91a1-2ea1e7521c68","ios":"levelo://app?vid=e54a69bc-634c-4579-91a1-2ea1e7521c68"},"vehicle_type_id":"4","last_reported":1751987469,"current_range_meters":12000,"station_id":"","pricing_plan_id":"cebpf4jnsgd1na2vs0mg"},{"bike_id":"6ffc31bf-be63-440b-8353-4ff83386083b","system_id":"levelo_inurba_marseille","lat":43.29844,"lon":5.3639,"is_reserved":false,"is_disabled":false,"rental_uris":{"android":"levelo://app?vid=6ffc31bf-be63-440b-8353-4ff83386083b","ios":"levelo://app?vid=6ffc31bf-be63-440b-8353-4ff83386083b"},"vehicle_type_id":"4","last_reported":1751987469,"current_range_meters":12000,"station_id":"","pricing_plan_id":"cebpf4jnsgd1na2vs0mg"},{"bike_id":"888522e3-39b6-4ff3-ad74-ff6c6f771157","system_id":"levelo_inurba_marseille","lat":43.2951,"lon":5.40287,"is_reserved":false,"is_disabled":false,"rental_uris":{"android":"levelo://app?vid=888522e3-39b6-4ff3-ad74-ff6c6f771157","ios":"levelo://app?vid=888522e3-39b6-4ff3-ad74-ff6c6f771157"},"vehicle_type_id":"4","last_reported":1751987469,"current_range_meters":12000,"station_id":"","pricing_plan_id":"cebpf4jnsgd1na2vs0mg"},{"bike_id":"ac3e8669-9faa-4d2c-a668-643c8c77b8f6","system_id":"levelo_inurba_marseille","lat":43.29364,"lon":5.3788,"is_reserved":false,"is_disabled":false,"rental_uris":{"android":"levelo://app?vid=ac3e8669-9faa-4d2c-a668-643c8c77b8f6","ios":"levelo://app?vid=ac3e8669-9faa-4d2c-a668-643c8c77b8f6"},"vehicle_type_id":"4","last_reported":1751987469,"current_range_meters":12000,"station_id":"ce4bgjh2rcd13ifvqbf0","pricing_plan_id":"cebpf4jnsgd1na2vs0mg"},{"bike_id":"538e1b05-e2a4-4a42-9bc7-7ddbe3e776fc","system_id":"levelo_inurba_marseille","lat":43.30781,"lon":5.37643,"is_reserved":false,"is_disabled":false,"rental_uris":{"android":"levelo://app?vid=538e1b05-e2a4-4a42-9bc7-7ddbe3e776fc","ios":"levelo://app?vid=538e1b05-e2a4-4a42-9bc7-7ddbe3e776fc"},"vehicle_type_id":"4","last_reported":1751987469,"current_range_meters":12000,"station_id":"ce4bgv92rcd13ifvqcq0","pricing_plan_id":"cebpf4jnsgd1na2vs0mg"},{"bike_id":"d0c5d792-0761-4141-a0b1-6f288f3c6fc1","system_id":"levelo_inurba_marseille","lat":43.27197,"lon":5.3921,"is_reserved":false,"is_disabled":false,"rental_uris":{"android":"levelo://app?vid=d0c5d792-0761-4141-a0b1-6f288f3c6fc1","ios":"levelo://app?vid=d0c5d792-0761-4141-a0b1-6f288f3c6fc1"},"vehicle_type_id":"4","last_reported":1751987469,"current_range_meters":12000,"station_id":"ce4bhhp2rcd13ifvqfm0","pricing_plan_id":"cebpf4jnsgd1na2vs0mg"},{"bike_id":"624cb722-0a96-4b62-8eb0-82852e21331a","system_id":"levelo_inurba_marseille","lat":43.29016,"lon":5.37854,"is_reserved":false,"is_disabled":false,"rental_uris":{"android":"levelo://app?vid=624cb722-0a96-4b62-8eb0-82852e21331a","ios":"levelo://app?vid=624cb722-0a96-4b62-8eb0-82852e21331a"},"vehicle_type_id":"4","last_reported":1751987469,"current_range_meters":12400,"station_id":"","pricing_plan_id":"cebpf4jnsgd1na2vs0mg"},{"bike_id":"95150053-c77f-49ce-8976-03fbf21e7971","system_id":"levelo_inurba_marseille","lat":43.3021,"lon":5.39463,"is_reserved":false,"is_disabled":false,"rental_uris":{"android":"levelo://app?vid=95150053-c77f-49ce-8976-03fbf21e7971","ios":"levelo://app?vid=95150053-c77f-49ce-8976-03fbf21e7971"},"vehicle_type_id":"4","last_reported":1751987469,"current_range_meters":12800,"station_id":"ce4bh0p2rcd13ifvqd70","pricing_plan_id":"cebpf4jnsgd1na2vs0mg"},{"bike_id":"73b75ca7-2a3d-40c5-8a9f-dff1907c83eb","system_id":"levelo_inurba_marseille","lat":43.28401,"lon":5.37533,"is_reserved":false,"is_disabled":false,"rental_uris":{"android":"levelo://app?vid=73b75ca7-2a3d-40c5-8a9f-dff1907c83eb","ios":"levelo://app?vid=73b75ca7-2a3d-40c5-8a9f-dff1907c83eb"},"vehicle_type_id":"4","last_reported":1751987469,"current_range_meters":12800,"station_id":"ce4bh412rcd13ifvqds0","pricing_plan_id":"cebpf4jnsgd1na2vs0mg"},{"bike_id":"dd4a8e3b-2a25-4b4e-8f0f-ae4f129156ca","system_id":"levelo_inurba_marseille","lat":43.26195,"lon":5.37451,"is_reserved":false,"is_disabled":false,"rental_uris":{"android":"levelo://app?vid=dd4a8e3b-2a25-4b4e-8f0f-ae4f129156ca","ios":"levelo://app?vid=dd4a8e3b-2a25-4b4e-8f0f-ae4f129156ca"},"vehicle_type_id":"4","last_reported":1751987469,"current_range_meters":12800,"station_id":"ce4bhgp2rcd13ifvqfc0","pricing_plan_id":"cebpf4jnsgd1na2vs0mg"},{"bike_id":"5fc484a7-d5ff-41a0-a671-ee967b00f798","system_id":"levelo_inurba_marseille","lat":43.272083,"lon":5.391812,"is_reserved":false,"is_disabled":false,"rental_uris":{"android":"levelo://app?vid=5fc484a7-d5ff-41a0-a671-ee967b00f798","ios":"levelo://app?vid=5fc484a7-d5ff-41a0-a671-ee967b00f798"},"vehicle_type_id":"4","last_reported":1751987469,"current_range_meters":12800,"station_id":"ce4bhhp2rcd13ifvqfm0","pricing_plan_id":"cebpf4jnsgd1na2vs0mg"},{"bike_id":"a3653a29-bef8-4d42-8540-9b2bbd5cd893","system_id":"levelo_inurba_marseille","lat":43.324889,"lon":5.365588,"is_reserved":false,"is_disabled":false,"rental_uris":{"android":"levelo://app?vid=a3653a29-bef8-4d42-8540-9b2bbd5cd893","ios":"levelo://app?vid=a3653a29-bef8-4d42-8540-9b2bbd5cd893"},"vehicle_type_id":"4","last_reported":1751987469,"current_range_meters":12800,"station_id":"ce4bhs12rcd13ifvqhvg","pricing_plan_id":"cebpf4jnsgd1na2vs0mg"},{"bike_id":"b287377f-3d0b-47ac-86fe-9e0dfc1563de","system_id":"levelo_inurba_marseille","lat":43.22495,"lon":5.34789,"is_reserved":false,"is_disabled":false,"rental_uris":{"android":"levelo://app?vid=b287377f-3d0b-47ac-86fe-9e0dfc1563de","ios":"levelo://app?vid=b287377f-3d0b-47ac-86fe-9e0dfc1563de"},"vehicle_type_id":"4","last_reported":1751987469,"current_range_meters":12800,"station_id":"st_cvj5dfep6f1abm77gieg","pricing_plan_id":"cebpf4jnsgd1na2vs0mg"},{"bike_id":"94ee0226-6045-4461-a167-18aa1f20956e","system_id":"levelo_inurba_marseille","lat":43.284106,"lon":5.375067,"is_reserved":false,"is_disabled":false,"rental_uris":{"android":"levelo://app?vid=94ee0226-6045-4461-a167-18aa1f20956e","ios":"levelo://app?vid=94ee0226-6045-4461-a167-18aa1f20956e"},"vehicle_type_id":"4","last_reported":1751987469,"current_range_meters":13600,"station_id":"ce4bh412rcd13ifvqds0","pricing_plan_id":"cebpf4jnsgd1na2vs0mg"},{"bike_id":"75dff2a2-ec51-49e7-861f-ef41145f5831","system_id":"levelo_inurba_marseille","lat":43.29553,"lon":5.42293,"is_reserved":false,"is_disabled":false,"rental_uris":{"android":"levelo://app?vid=75dff2a2-ec51-49e7-861f-ef41145f5831","ios":"levelo://app?vid=75dff2a2-ec51-49e7-861f-ef41145f5831"},"vehicle_type_id":"4","last_reported":1751987469,"current_range_meters":13600,"station_id":"ce4bhph2rcd13ifvqhdg","pricing_plan_id":"cebpf4jnsgd1na2vs0mg"},{"bike_id":"77c63ecf-8ec4-46ab-b695-3fed0ff0fb70","system_id":"levelo_inurba_marseille","lat":43.29895,"lon":5.43663,"is_reserved":false,"is_disabled":false,"rental_uris":{"android":"levelo://app?vid=77c63ecf-8ec4-46ab-b695-3fed0ff0fb70","ios":"levelo://app?vid=77c63ecf-8ec4-46ab-b695-3fed0ff0fb70"},"vehicle_type_id":"4","last_reported":1751987469,"current_range_meters":13600,"station_id":"ce4bhpp2rcd13ifvqhfg","pricing_plan_id":"cebpf4jnsgd1na2vs0mg"},{"bike_id":"d5ef770d-9759-47e3-b3a5-7d2785ef76db","system_id":"levelo_inurba_marseille","lat":43.32929,"lon":5.39031,"is_reserved":false,"is_disabled":false,"rental_uris":{"android":"levelo://app?vid=d5ef770d-9759-47e3-b3a5-7d2785ef76db","ios":"levelo://app?vid=d5ef770d-9759-47e3-b3a5-7d2785ef76db"},"vehicle_type_id":"4","last_reported":1751987469,"current_range_meters":14000,"station_id":"","pricing_plan_id":"cebpf4jnsgd1na2vs0mg"},{"bike_id":"3030cb07-c041-4d87-a253-8c849c24aa85","system_id":"levelo_inurba_marseille","lat":43.32626,"lon":5.36225,"is_reserved":false,"is_disabled":false,"rental_uris":{"android":"levelo://app?vid=3030cb07-c041-4d87-a253-8c849c24aa85","ios":"levelo://app?vid=3030cb07-c041-4d87-a253-8c849c24aa85"},"vehicle_type_id":"4","last_reported":1751987469,"current_range_meters":14000,"station_id":"","pricing_plan_id":"cebpf4jnsgd1na2vs0mg"},{"bike_id":"160996d4-6e58-469d-9ba0-f14aae0652bb","system_id":"levelo_inurba_marseille","lat":43.296204,"lon":5.385369,"is_reserved":false,"is_disabled":false,"rental_uris":{"android":"levelo://app?vid=160996d4-6e58-469d-9ba0-f14aae0652bb","ios":"levelo://app?vid=160996d4-6e58-469d-9ba0-f14aae0652bb"},"vehicle_type_id":"4","last_reported":1751987469,"current_range_meters":14000,"station_id":"ce4bgih2rcd13ifvqba0","pricing_plan_id":"cebpf4jnsgd1na2vs0mg"},{"bike_id":"afd2c671-b274-4716-95f7-9abfdfc6dc55","system_id":"levelo_inurba_marseille","lat":43.31509,"lon":5.37301,"is_reserved":false,"is_disabled":false,"rental_uris":{"android":"levelo://app?vid=afd2c671-b274-4716-95f7-9abfdfc6dc55","ios":"levelo://app?vid=afd2c671-b274-4716-95f7-9abfdfc6dc55"},"vehicle_type_id":"4","last_reported":1751987469,"current_range_meters":14000,"station_id":"ce4bgt12rcd13ifvqcd0","pricing_plan_id":"cebpf4jnsgd1na2vs0mg"},{"bike_id":"0a0a5185-5d47-4ca5-9720-caa0ab2a836b","system_id":"levelo_inurba_marseille","lat":43.29868,"lon":5.39734,"is_reserved":false,"is_disabled":false,"rental_uris":{"android":"levelo://app?vid=0a0a5185-5d47-4ca5-9720-caa0ab2a836b","ios":"levelo://app?vid=0a0a5185-5d47-4ca5-9720-caa0ab2a836b"},"vehicle_type_id":"4","last_reported":1751987469,"current_range_meters":14000,"station_id":"ce4bh0h2rcd13ifvqd50","pricing_plan_id":"cebpf4jnsgd1na2vs0mg"},{"bike_id":"82f40aca-214c-480a-99d7-4df294448107","system_id":"levelo_inurba_marseille","lat":43.254895,"lon":5.376448,"is_reserved":false,"is_disabled":false,"rental_uris":{"android":"levelo://app?vid=82f40aca-214c-480a-99d7-4df294448107","ios":"levelo://app?vid=82f40aca-214c-480a-99d7-4df294448107"},"vehicle_type_id":"4","last_reported":1751987469,"current_range_meters":14000,"station_id":"ce4bhh12rcd13ifvqff0","pricing_plan_id":"cebpf4jnsgd1na2vs0mg"},{"bike_id":"142092c3-f392-44a3-b902-2cf19043ff93","system_id":"levelo_inurba_marseille","lat":43.23065,"lon":5.35491,"is_reserved":false,"is_disabled":false,"rental_uris":{"android":"levelo://app?vid=142092c3-f392-44a3-b902-2cf19043ff93","ios":"levelo://app?vid=142092c3-f392-44a3-b902-2cf19043ff93"},"vehicle_type_id":"4","last_reported":1751987469,"current_range_meters":14000,"station_id":"cpo3342slgdg3j2ifvpg","pricing_plan_id":"cebpf4jnsgd1na2vs0mg"},{"bike_id":"f5c5d48c-b7cf-48a8-84f0-a80044871d04","system_id":"levelo_inurba_marseille","lat":43.264907,"lon":5.395394,"is_reserved":false,"is_disabled":false,"rental_uris":{"android":"levelo://app?vid=f5c5d48c-b7cf-48a8-84f0-a80044871d04","ios":"levelo://app?vid=f5c5d48c-b7cf-48a8-84f0-a80044871d04"},"vehicle_type_id":"4","last_reported":1751987469,"current_range_meters":14400,"station_id":"","pricing_plan_id":"cebpf4jnsgd1na2vs0mg"},{"bike_id":"87c2d236-4978-4760-be77-27d7f5a212e4","system_id":"levelo_inurba_marseille","lat":43.29644,"lon":5.36205,"is_reserved":false,"is_disabled":false,"rental_uris":{"android":"levelo://app?vid=87c2d236-4978-4760-be77-27d7f5a212e4","ios":"levelo://app?vid=87c2d236-4978-4760-be77-27d7f5a212e4"},"vehicle_type_id":"4","last_reported":1751987469,"current_range_meters":14400,"station_id":"","pricing_plan_id":"cebpf4jnsgd1na2vs0mg"},{"bike_id":"bc91ac3b-909c-48b6-951a-ecee23e820fe","system_id":"levelo_inurba_marseille","lat":43.30604,"lon":5.37229,"is_reserved":false,"is_disabled":false,"rental_uris":{"android":"levelo://app?vid=bc91ac3b-909c-48b6-951a-ecee23e820fe","ios":"levelo://app?vid=bc91ac3b-909c-48b6-951a-ecee23e820fe"},"vehicle_type_id":"4","last_reported":1751987469,"current_range_meters":14400,"station_id":"ce4bgqh2rcd13ifvqc4g","pricing_plan_id":"cebpf4jnsgd1na2vs0mg"},{"bike_id":"0318ef22-a0e5-4e16-8a2a-054a8e8f2c80","system_id":"levelo_inurba_marseille","lat":43.28472,"lon":5.38417,"is_reserved":false,"is_disabled":false,"rental_uris":{"android":"levelo://app?vid=0318ef22-a0e5-4e16-8a2a-054a8e8f2c80","ios":"levelo://app?vid=0318ef22-a0e5-4e16-8a2a-054a8e8f2c80"},"vehicle_type_id":"4","last_reported":1751987469,"current_range_meters":14400,"station_id":"ce4bh512rcd13ifvqe3g","pricing_plan_id":"cebpf4jnsgd1na2vs0mg"},{"bike_id":"940f04f4-5dec-4ff8-8d1b-fd8eb1722f45","system_id":"levelo_inurba_marseille","lat":43.27547,"lon":5.42523,"is_reserved":false,"is_disabled":false,"rental_uris":{"android":"levelo://app?vid=940f04f4-5dec-4ff8-8d1b-fd8eb1722f45","ios":"levelo://app?vid=940f04f4-5dec-4ff8-8d1b-fd8eb1722f45"},"vehicle_type_id":"4","last_reported":1751987469,"current_range_meters":14800,"station_id":"","pricing_plan_id":"cebpf4jnsgd1na2vs0mg"},{"bike_id":"b20ebbbf-23a3-4f35-a4dd-08a28866ca86","system_id":"levelo_inurba_marseille","lat":43.28463,"lon":5.35892,"is_reserved":false,"is_disabled":false,"rental_uris":{"android":"levelo://app?vid=b20ebbbf-23a3-4f35-a4dd-08a28866ca86","ios":"levelo://app?vid=b20ebbbf-23a3-4f35-a4dd-08a28866ca86"},"vehicle_type_id":"4","last_reported":1751987469,"current_range_meters":14800,"station_id":"ce4bhah2rcd13ifvqei0","pricing_plan_id":"cebpf4jnsgd1na2vs0mg"},{"bike_id":"6e73990e-cf3c-42d9-83d7-7f39db0d7f27","system_id":"levelo_inurba_marseille","lat":43.30375,"lon":5.42484,"is_reserved":false,"is_disabled":false,"rental_uris":{"android":"levelo://app?vid=6e73990e-cf3c-42d9-83d7-7f39db0d7f27","ios":"levelo://app?vid=6e73990e-cf3c-42d9-83d7-7f39db0d7f27"},"vehicle_type_id":"4","last_reported":1751987469,"current_range_meters":14800,"station_id":"ce4bhoh2rcd13ifvqh6g","pricing_plan_id":"cebpf4jnsgd1na2vs0mg"},{"bike_id":"27ce66c3-f7a1-4f8d-8ada-c6cc58b48753","system_id":"levelo_inurba_marseille","lat":43.24802,"lon":5.37453,"is_reserved":false,"is_disabled":false,"rental_uris":{"android":"levelo://app?vid=27ce66c3-f7a1-4f8d-8ada-c6cc58b48753","ios":"levelo://app?vid=27ce66c3-f7a1-4f8d-8ada-c6cc58b48753"},"vehicle_type_id":"4","last_reported":1751987469,"current_range_meters":15200,"station_id":"ce4bhgh2rcd13ifvqfb0","pricing_plan_id":"cebpf4jnsgd1na2vs0mg"},{"bike_id":"13c84df3-55fc-4465-b582-17389625d267","system_id":"levelo_inurba_marseille","lat":43.26018,"lon":5.41742,"is_reserved":false,"is_disabled":false,"rental_uris":{"android":"levelo://app?vid=13c84df3-55fc-4465-b582-17389625d267","ios":"levelo://app?vid=13c84df3-55fc-4465-b582-17389625d267"},"vehicle_type_id":"4","last_reported":1751987469,"current_range_meters":16000,"station_id":"","pricing_plan_id":"cebpf4jnsgd1na2vs0mg"},{"bike_id":"f0f130eb-3b8a-4f4e-a0d7-09eec9a13a05","system_id":"levelo_inurba_marseille","lat":43.30296,"lon":5.39228,"is_reserved":false,"is_disabled":false,"rental_uris":{"android":"levelo://app?vid=f0f130eb-3b8a-4f4e-a0d7-09eec9a13a05","ios":"levelo://app?vid=f0f130eb-3b8a-4f4e-a0d7-09eec9a13a05"},"vehicle_type_id":"4","last_reported":1751987469,"current_range_meters":16000,"station_id":"ce4bgkh2rcd13ifvqbk0","pricing_plan_id":"cebpf4jnsgd1na2vs0mg"},{"bike_id":"865797cd-3648-4678-90af-fdb3236e61f3","system_id":"levelo_inurba_marseille","lat":43.30564,"lon":5.36748,"is_reserved":false,"is_disabled":false,"rental_uris":{"android":"levelo://app?vid=865797cd-3648-4678-90af-fdb3236e61f3","ios":"levelo://app?vid=865797cd-3648-4678-90af-fdb3236e61f3"},"vehicle_type_id":"4","last_reported":1751987469,"current_range_meters":16000,"station_id":"ce4bgrp2rcd13ifvqc9g","pricing_plan_id":"cebpf4jnsgd1na2vs0mg"},{"bike_id":"589ab234-675a-4d9a-b49f-995a3ed33c18","system_id":"levelo_inurba_marseille","lat":43.30775,"lon":5.37659,"is_reserved":false,"is_disabled":false,"rental_uris":{"android":"levelo://app?vid=589ab234-675a-4d9a-b49f-995a3ed33c18","ios":"levelo://app?vid=589ab234-675a-4d9a-b49f-995a3ed33c18"},"vehicle_type_id":"4","last_reported":1751987469,"current_range_meters":16000,"station_id":"ce4bgv92rcd13ifvqcq0","pricing_plan_id":"cebpf4jnsgd1na2vs0mg"},{"bike_id":"a5e334a0-263e-4c44-93ac-2c06917ae07b","system_id":"levelo_inurba_marseille","lat":43.30221,"lon":5.3947,"is_reserved":false,"is_disabled":false,"rental_uris":{"android":"levelo://app?vid=a5e334a0-263e-4c44-93ac-2c06917ae07b","ios":"levelo://app?vid=a5e334a0-263e-4c44-93ac-2c06917ae07b"},"vehicle_type_id":"4","last_reported":1751987469,"current_range_meters":16000,"station_id":"ce4bh0p2rcd13ifvqd70","pricing_plan_id":"cebpf4jnsgd1na2vs0mg"},{"bike_id":"5880566e-29ee-4fa8-953c-85d8388772d1","system_id":"levelo_inurba_marseille","lat":43.28934,"lon":5.36635,"is_reserved":false,"is_disabled":false,"rental_uris":{"android":"levelo://app?vid=5880566e-29ee-4fa8-953c-85d8388772d1","ios":"levelo://app?vid=5880566e-29ee-4fa8-953c-85d8388772d1"},"vehicle_type_id":"4","last_reported":1751987469,"current_range_meters":16000,"station_id":"ce4bhap2rcd13ifvqek0","pricing_plan_id":"cebpf4jnsgd1na2vs0mg"},{"bike_id":"f88b4eae-4d8b-41dd-86e2-a6d481fcdc2e","system_id":"levelo_inurba_marseille","lat":43.29966,"lon":5.41326,"is_reserved":false,"is_disabled":false,"rental_uris":{"android":"levelo://app?vid=f88b4eae-4d8b-41dd-86e2-a6d481fcdc2e","ios":"levelo://app?vid=f88b4eae-4d8b-41dd-86e2-a6d481fcdc2e"},"vehicle_type_id":"4","last_reported":1751987469,"current_range_meters":16000,"station_id":"ce4bhp12rcd13ifvqh9g","pricing_plan_id":"cebpf4jnsgd1na2vs0mg"},{"bike_id":"3c78f3be-0595-4cde-ab3a-21eba194a66a","system_id":"levelo_inurba_marseille","lat":43.2175,"lon":5.34593,"is_reserved":false,"is_disabled":false,"rental_uris":{"android":"levelo://app?vid=3c78f3be-0595-4cde-ab3a-21eba194a66a","ios":"levelo://app?vid=3c78f3be-0595-4cde-ab3a-21eba194a66a"},"vehicle_type_id":"4","last_reported":1751987469,"current_range_meters":16400,"station_id":"","pricing_plan_id":"cebpf4jnsgd1na2vs0mg"},{"bike_id":"e07099cc-ccdf-4511-aa53-76cc8d902771","system_id":"levelo_inurba_marseille","lat":43.28998,"lon":5.3562,"is_reserved":false,"is_disabled":false,"rental_uris":{"android":"levelo://app?vid=e07099cc-ccdf-4511-aa53-76cc8d902771","ios":"levelo://app?vid=e07099cc-ccdf-4511-aa53-76cc8d902771"},"vehicle_type_id":"4","last_reported":1751987469,"current_range_meters":16400,"station_id":"ce4bhb92rcd13ifvqen0","pricing_plan_id":"cebpf4jnsgd1na2vs0mg"},{"bike_id":"da9e0cc6-b739-410b-895b-cad8f90bf164","system_id":"levelo_inurba_marseille","lat":43.26207,"lon":5.3792,"is_reserved":false,"is_disabled":false,"rental_uris":{"android":"levelo://app?vid=da9e0cc6-b739-410b-895b-cad8f90bf164","ios":"levelo://app?vid=da9e0cc6-b739-410b-895b-cad8f90bf164"},"vehicle_type_id":"4","last_reported":1751987469,"current_range_meters":16400,"station_id":"ce4bhjp2rcd13ifvqg90","pricing_plan_id":"cebpf4jnsgd1na2vs0mg"},{"bike_id":"dfed5170-dd30-4c34-b10d-0827cb5726cb","system_id":"levelo_inurba_marseille","lat":43.23188,"lon":5.39983,"is_reserved":false,"is_disabled":false,"rental_uris":{"android":"levelo://app?vid=dfed5170-dd30-4c34-b10d-0827cb5726cb","ios":"levelo://app?vid=dfed5170-dd30-4c34-b10d-0827cb5726cb"},"vehicle_type_id":"4","last_reported":1751987469,"current_range_meters":16400,"station_id":"ce4bhn12rcd13ifvqgqg","pricing_plan_id":"cebpf4jnsgd1na2vs0mg"},{"bike_id":"ea7df389-5dc0-4c58-88fe-80a5af035925","system_id":"levelo_inurba_marseille","lat":43.29845,"lon":5.364329,"is_reserved":false,"is_disabled":false,"rental_uris":{"android":"levelo://app?vid=ea7df389-5dc0-4c58-88fe-80a5af035925","ios":"levelo://app?vid=ea7df389-5dc0-4c58-88fe-80a5af035925"},"vehicle_type_id":"4","last_reported":1751987469,"current_range_meters":16800,"station_id":"","pricing_plan_id":"cebpf4jnsgd1na2vs0mg"},{"bike_id":"4c9daaed-e8c5-45eb-bbde-22d95934e2c5","system_id":"levelo_inurba_marseille","lat":43.30139,"lon":5.38785,"is_reserved":false,"is_disabled":false,"rental_uris":{"android":"levelo://app?vid=4c9daaed-e8c5-45eb-bbde-22d95934e2c5","ios":"levelo://app?vid=4c9daaed-e8c5-45eb-bbde-22d95934e2c5"},"vehicle_type_id":"4","last_reported":1751987469,"current_range_meters":16800,"station_id":"ce4bghh2rcd13ifvqb60","pricing_plan_id":"cebpf4jnsgd1na2vs0mg"},{"bike_id":"dc6aa8ed-171a-411d-8ce9-8847acb1ad2b","system_id":"levelo_inurba_marseille","lat":43.29853,"lon":5.36282,"is_reserved":false,"is_disabled":false,"rental_uris":{"android":"levelo://app?vid=dc6aa8ed-171a-411d-8ce9-8847acb1ad2b","ios":"levelo://app?vid=dc6aa8ed-171a-411d-8ce9-8847acb1ad2b"},"vehicle_type_id":"4","last_reported":1751987469,"current_range_meters":16800,"station_id":"ce4bgpp2rcd13ifvqc3g","pricing_plan_id":"cebpf4jnsgd1na2vs0mg"},{"bike_id":"02ec3778-0df9-493b-af79-c8437b712a65","system_id":"levelo_inurba_marseille","lat":43.29266,"lon":5.38445,"is_reserved":false,"is_disabled":false,"rental_uris":{"android":"levelo://app?vid=02ec3778-0df9-493b-af79-c8437b712a65","ios":"levelo://app?vid=02ec3778-0df9-493b-af79-c8437b712a65"},"vehicle_type_id":"4","last_reported":1751987469,"current_range_meters":16800,"station_id":"ce4bh692rcd13ifvqea0","pricing_plan_id":"cebpf4jnsgd1na2vs0mg"},{"bike_id":"62acb8ef-9489-4b5f-9a8c-ac31b94308c4","system_id":"levelo_inurba_marseille","lat":43.28579,"lon":5.39491,"is_reserved":false,"is_disabled":false,"rental_uris":{"android":"levelo://app?vid=62acb8ef-9489-4b5f-9a8c-ac31b94308c4","ios":"levelo://app?vid=62acb8ef-9489-4b5f-9a8c-ac31b94308c4"},"vehicle_type_id":"4","last_reported":1751987469,"current_range_meters":17200,"station_id":"ce4bh292rcd13ifvqdg0","pricing_plan_id":"cebpf4jnsgd1na2vs0mg"},{"bike_id":"9bc90131-8557-499c-8da2-5d78913fe1e3","system_id":"levelo_inurba_marseille","lat":43.29282,"lon":5.40115,"is_reserved":false,"is_disabled":false,"rental_uris":{"android":"levelo://app?vid=9bc90131-8557-499c-8da2-5d78913fe1e3","ios":"levelo://app?vid=9bc90131-8557-499c-8da2-5d78913fe1e3"},"vehicle_type_id":"4","last_reported":1751987469,"current_range_meters":17200,"station_id":"ce4bh312rcd13ifvqdk0","pricing_plan_id":"cebpf4jnsgd1na2vs0mg"},{"bike_id":"d838120f-9a10-473d-beb1-c271315cae04","system_id":"levelo_inurba_marseille","lat":43.28425,"lon":5.34992,"is_reserved":false,"is_disabled":false,"rental_uris":{"android":"levelo://app?vid=d838120f-9a10-473d-beb1-c271315cae04","ios":"levelo://app?vid=d838120f-9a10-473d-beb1-c271315cae04"},"vehicle_type_id":"4","last_reported":1751987469,"current_range_meters":17200,"station_id":"ce4bhbh2rcd13ifvqepg","pricing_plan_id":"cebpf4jnsgd1na2vs0mg"},{"bike_id":"9959d7fa-4898-43a5-a1ec-b9fed544cad3","system_id":"levelo_inurba_marseille","lat":43.28416,"lon":5.35,"is_reserved":false,"is_disabled":false,"rental_uris":{"android":"levelo://app?vid=9959d7fa-4898-43a5-a1ec-b9fed544cad3","ios":"levelo://app?vid=9959d7fa-4898-43a5-a1ec-b9fed544cad3"},"vehicle_type_id":"4","last_reported":1751987469,"current_range_meters":17200,"station_id":"ce4bhbh2rcd13ifvqepg","pricing_plan_id":"cebpf4jnsgd1na2vs0mg"},{"bike_id":"5bed0d45-631d-4b51-bf21-315438cd51cd","system_id":"levelo_inurba_marseille","lat":43.28159,"lon":5.42639,"is_reserved":false,"is_disabled":false,"rental_uris":{"android":"levelo://app?vid=5bed0d45-631d-4b51-bf21-315438cd51cd","ios":"levelo://app?vid=5bed0d45-631d-4b51-bf21-315438cd51cd"},"vehicle_type_id":"4","last_reported":1751987469,"current_range_meters":17200,"station_id":"ce4bhnh2rcd13ifvqgug","pricing_plan_id":"cebpf4jnsgd1na2vs0mg"},{"bike_id":"730acc7c-d5c8-4dfa-992b-6204d9203e70","system_id":"levelo_inurba_marseille","lat":43.320553,"lon":5.415482,"is_reserved":false,"is_disabled":false,"rental_uris":{"android":"levelo://app?vid=730acc7c-d5c8-4dfa-992b-6204d9203e70","ios":"levelo://app?vid=730acc7c-d5c8-4dfa-992b-6204d9203e70"},"vehicle_type_id":"4","last_reported":1751987469,"current_range_meters":17200,"station_id":"ce4bhq92rcd13ifvqhkg","pricing_plan_id":"cebpf4jnsgd1na2vs0mg"},{"bike_id":"1d7fac14-2cca-4632-8110-30634afef477","system_id":"levelo_inurba_marseille","lat":43.30915,"lon":5.36855,"is_reserved":false,"is_disabled":false,"rental_uris":{"android":"levelo://app?vid=1d7fac14-2cca-4632-8110-30634afef477","ios":"levelo://app?vid=1d7fac14-2cca-4632-8110-30634afef477"},"vehicle_type_id":"4","last_reported":1751987469,"current_range_meters":17600,"station_id":"ce4bgn92rcd13ifvqbvg","pricing_plan_id":"cebpf4jnsgd1na2vs0mg"},{"bike_id":"f5993312-df83-434b-8105-91efbfa1e2bc","system_id":"levelo_inurba_marseille","lat":43.30562,"lon":5.36512,"is_reserved":false,"is_disabled":false,"rental_uris":{"android":"levelo://app?vid=f5993312-df83-434b-8105-91efbfa1e2bc","ios":"levelo://app?vid=f5993312-df83-434b-8105-91efbfa1e2bc"},"vehicle_type_id":"4","last_reported":1751987469,"current_range_meters":17600,"station_id":"ce4bgs12rcd13ifvqcag","pricing_plan_id":"cebpf4jnsgd1na2vs0mg"},{"bike_id":"7a5c3551-87a5-4df1-92b0-5dc01e94c9dc","system_id":"levelo_inurba_marseille","lat":43.30147,"lon":5.39871,"is_reserved":false,"is_disabled":false,"rental_uris":{"android":"levelo://app?vid=7a5c3551-87a5-4df1-92b0-5dc01e94c9dc","ios":"levelo://app?vid=7a5c3551-87a5-4df1-92b0-5dc01e94c9dc"},"vehicle_type_id":"4","last_reported":1751987469,"current_range_meters":17600,"station_id":"ce4bh0h2rcd13ifvqd40","pricing_plan_id":"cebpf4jnsgd1na2vs0mg"},{"bike_id":"418c6832-209e-47e8-bb49-c41f3469fca2","system_id":"levelo_inurba_marseille","lat":43.29521,"lon":5.39035,"is_reserved":false,"is_disabled":false,"rental_uris":{"android":"levelo://app?vid=418c6832-209e-47e8-bb49-c41f3469fca2","ios":"levelo://app?vid=418c6832-209e-47e8-bb49-c41f3469fca2"},"vehicle_type_id":"4","last_reported":1751987469,"current_range_meters":17600,"station_id":"ce4bh3p2rcd13ifvqdp0","pricing_plan_id":"cebpf4jnsgd1na2vs0mg"},{"bike_id":"1e112a52-32ff-42af-8077-893c4a6d3611","system_id":"levelo_inurba_marseille","lat":43.28436,"lon":5.34987,"is_reserved":false,"is_disabled":false,"rental_uris":{"android":"levelo://app?vid=1e112a52-32ff-42af-8077-893c4a6d3611","ios":"levelo://app?vid=1e112a52-32ff-42af-8077-893c4a6d3611"},"vehicle_type_id":"4","last_reported":1751987469,"current_range_meters":17600,"station_id":"ce4bhbh2rcd13ifvqepg","pricing_plan_id":"cebpf4jnsgd1na2vs0mg"},{"bike_id":"c0f78982-f764-4f75-9208-2e048219aeff","system_id":"levelo_inurba_marseille","lat":43.23153,"lon":5.43706,"is_reserved":false,"is_disabled":false,"rental_uris":{"android":"levelo://app?vid=c0f78982-f764-4f75-9208-2e048219aeff","ios":"levelo://app?vid=c0f78982-f764-4f75-9208-2e048219aeff"},"vehicle_type_id":"4","last_reported":1751987469,"current_range_meters":17600,"station_id":"ce4bhmp2rcd13ifvqgog","pricing_plan_id":"cebpf4jnsgd1na2vs0mg"},{"bike_id":"748ec2a0-6874-4a5b-bd8c-89522126e79b","system_id":"levelo_inurba_marseille","lat":43.28722,"lon":5.36094,"is_reserved":false,"is_disabled":false,"rental_uris":{"android":"levelo://app?vid=748ec2a0-6874-4a5b-bd8c-89522126e79b","ios":"levelo://app?vid=748ec2a0-6874-4a5b-bd8c-89522126e79b"},"vehicle_type_id":"4","last_reported":1751987469,"current_range_meters":17600,"station_id":"cki0cbj6b192h4jlfktg","pricing_plan_id":"cebpf4jnsgd1na2vs0mg"},{"bike_id":"d0f90c24-dd03-411b-9731-55305f76b7c8","system_id":"levelo_inurba_marseille","lat":43.211908,"lon":5.350822,"is_reserved":false,"is_disabled":false,"rental_uris":{"android":"levelo://app?vid=d0f90c24-dd03-411b-9731-55305f76b7c8","ios":"levelo://app?vid=d0f90c24-dd03-411b-9731-55305f76b7c8"},"vehicle_type_id":"4","last_reported":1751987469,"current_range_meters":17600,"station_id":"st_cvj6sg6p6f1abm77japg","pricing_plan_id":"cebpf4jnsgd1na2vs0mg"},{"bike_id":"c2b72fe0-bae6-4c7b-ad48-9e771b203dc8","system_id":"levelo_inurba_marseille","lat":43.31359,"lon":5.38475,"is_reserved":false,"is_disabled":false,"rental_uris":{"android":"levelo://app?vid=c2b72fe0-bae6-4c7b-ad48-9e771b203dc8","ios":"levelo://app?vid=c2b72fe0-bae6-4c7b-ad48-9e771b203dc8"},"vehicle_type_id":"4","last_reported":1751987469,"current_range_meters":18000,"station_id":"ce4bgt92rcd13ifvqcf0","pricing_plan_id":"cebpf4jnsgd1na2vs0mg"},{"bike_id":"f06ad9c1-4d2d-477f-9cf5-8a8b31168797","system_id":"levelo_inurba_marseille","lat":43.28703,"lon":5.37393,"is_reserved":false,"is_disabled":false,"rental_uris":{"android":"levelo://app?vid=f06ad9c1-4d2d-477f-9cf5-8a8b31168797","ios":"levelo://app?vid=f06ad9c1-4d2d-477f-9cf5-8a8b31168797"},"vehicle_type_id":"4","last_reported":1751987469,"current_range_meters":18000,"station_id":"ce4bh3p2rcd13ifvqdq0","pricing_plan_id":"cebpf4jnsgd1na2vs0mg"},{"bike_id":"1252423d-96c9-4cad-aac7-903440912485","system_id":"levelo_inurba_marseille","lat":43.28266,"lon":5.35059,"is_reserved":false,"is_disabled":false,"rental_uris":{"android":"levelo://app?vid=1252423d-96c9-4cad-aac7-903440912485","ios":"levelo://app?vid=1252423d-96c9-4cad-aac7-903440912485"},"vehicle_type_id":"4","last_reported":1751987469,"current_range_meters":18000,"station_id":"ce4bhbp2rcd13ifvqerg","pricing_plan_id":"cebpf4jnsgd1na2vs0mg"},{"bike_id":"0c505ed0-6f21-404c-a3d1-264c9a7d40d5","system_id":"levelo_inurba_marseille","lat":43.28279,"lon":5.35076,"is_reserved":false,"is_disabled":false,"rental_uris":{"android":"levelo://app?vid=0c505ed0-6f21-404c-a3d1-264c9a7d40d5","ios":"levelo://app?vid=0c505ed0-6f21-404c-a3d1-264c9a7d40d5"},"vehicle_type_id":"4","last_reported":1751987469,"current_range_meters":18000,"station_id":"ce4bhbp2rcd13ifvqerg","pricing_plan_id":"cebpf4jnsgd1na2vs0mg"},{"bike_id":"f187bca7-730c-495f-b36c-b985f85f6d76","system_id":"levelo_inurba_marseille","lat":43.28629,"lon":5.35101,"is_reserved":false,"is_disabled":false,"rental_uris":{"android":"levelo://app?vid=f187bca7-730c-495f-b36c-b985f85f6d76","ios":"levelo://app?vid=f187bca7-730c-495f-b36c-b985f85f6d76"},"vehicle_type_id":"4","last_reported":1751987469,"current_range_meters":18000,"station_id":"ce4bhch2rcd13ifvqeug","pricing_plan_id":"cebpf4jnsgd1na2vs0mg"},{"bike_id":"d6543ad0-16d4-4793-8970-3736097362b9","system_id":"levelo_inurba_marseille","lat":43.28617,"lon":5.35111,"is_reserved":false,"is_disabled":false,"rental_uris":{"android":"levelo://app?vid=d6543ad0-16d4-4793-8970-3736097362b9","ios":"levelo://app?vid=d6543ad0-16d4-4793-8970-3736097362b9"},"vehicle_type_id":"4","last_reported":1751987469,"current_range_meters":18000,"station_id":"ce4bhch2rcd13ifvqeug","pricing_plan_id":"cebpf4jnsgd1na2vs0mg"},{"bike_id":"b361cf8c-f0e8-4ad9-8e91-9458f68f3e3e","system_id":"levelo_inurba_marseille","lat":43.27877,"lon":5.38037,"is_reserved":false,"is_disabled":false,"rental_uris":{"android":"levelo://app?vid=b361cf8c-f0e8-4ad9-8e91-9458f68f3e3e","ios":"levelo://app?vid=b361cf8c-f0e8-4ad9-8e91-9458f68f3e3e"},"vehicle_type_id":"4","last_reported":1751987469,"current_range_meters":18000,"station_id":"ce4bhf92rcd13ifvqf50","pricing_plan_id":"cebpf4jnsgd1na2vs0mg"},{"bike_id":"1e91cee9-7d4a-458c-9805-68ef6c30eb40","system_id":"levelo_inurba_marseille","lat":43.217446,"lon":5.346033,"is_reserved":false,"is_disabled":false,"rental_uris":{"android":"levelo://app?vid=1e91cee9-7d4a-458c-9805-68ef6c30eb40","ios":"levelo://app?vid=1e91cee9-7d4a-458c-9805-68ef6c30eb40"},"vehicle_type_id":"4","last_reported":1751987469,"current_range_meters":18000,"station_id":"st_cvj6r9ubvosntc0bgbag","pricing_plan_id":"cebpf4jnsgd1na2vs0mg"},{"bike_id":"5e4b110f-4f34-4a9e-a5f5-7ace7520bbd5","system_id":"levelo_inurba_marseille","lat":43.29676,"lon":5.37424,"is_reserved":false,"is_disabled":false,"rental_uris":{"android":"levelo://app?vid=5e4b110f-4f34-4a9e-a5f5-7ace7520bbd5","ios":"levelo://app?vid=5e4b110f-4f34-4a9e-a5f5-7ace7520bbd5"},"vehicle_type_id":"4","last_reported":1751987469,"current_range_meters":18800,"station_id":"","pricing_plan_id":"cebpf4jnsgd1na2vs0mg"},{"bike_id":"f5c16f07-bc6f-4121-91a7-5ad90eec4f34","system_id":"levelo_inurba_marseille","lat":43.31217,"lon":5.37322,"is_reserved":false,"is_disabled":false,"rental_uris":{"android":"levelo://app?vid=f5c16f07-bc6f-4121-91a7-5ad90eec4f34","ios":"levelo://app?vid=f5c16f07-bc6f-4121-91a7-5ad90eec4f34"},"vehicle_type_id":"4","last_reported":1751987469,"current_range_meters":18800,"station_id":"","pricing_plan_id":"cebpf4jnsgd1na2vs0mg"},{"bike_id":"2a6147a1-7ffc-413b-a151-a52bdabf9322","system_id":"levelo_inurba_marseille","lat":43.30645,"lon":5.40098,"is_reserved":false,"is_disabled":false,"rental_uris":{"android":"levelo://app?vid=2a6147a1-7ffc-413b-a151-a52bdabf9322","ios":"levelo://app?vid=2a6147a1-7ffc-413b-a151-a52bdabf9322"},"vehicle_type_id":"4","last_reported":1751987469,"current_range_meters":18800,"station_id":"ce4bh112rcd13ifvqda0","pricing_plan_id":"cebpf4jnsgd1na2vs0mg"},{"bike_id":"237c3869-52e3-4415-9d79-30deec442fae","system_id":"levelo_inurba_marseille","lat":43.29255,"lon":5.38443,"is_reserved":false,"is_disabled":false,"rental_uris":{"android":"levelo://app?vid=237c3869-52e3-4415-9d79-30deec442fae","ios":"levelo://app?vid=237c3869-52e3-4415-9d79-30deec442fae"},"vehicle_type_id":"4","last_reported":1751987469,"current_range_meters":18800,"station_id":"ce4bh692rcd13ifvqea0","pricing_plan_id":"cebpf4jnsgd1na2vs0mg"},{"bike_id":"37837891-c1b3-4f57-9e03-157572e19c39","system_id":"levelo_inurba_marseille","lat":43.26055,"lon":5.39402,"is_reserved":false,"is_disabled":false,"rental_uris":{"android":"levelo://app?vid=37837891-c1b3-4f57-9e03-157572e19c39","ios":"levelo://app?vid=37837891-c1b3-4f57-9e03-157572e19c39"},"vehicle_type_id":"4","last_reported":1751987469,"current_range_meters":18800,"station_id":"ce4bhh92rcd13ifvqfj0","pricing_plan_id":"cebpf4jnsgd1na2vs0mg"},{"bike_id":"2bc7f28a-7c21-4378-b136-f60ebcf68c3d","system_id":"levelo_inurba_marseille","lat":43.25081,"lon":5.3951,"is_reserved":false,"is_disabled":false,"rental_uris":{"android":"levelo://app?vid=2bc7f28a-7c21-4378-b136-f60ebcf68c3d","ios":"levelo://app?vid=2bc7f28a-7c21-4378-b136-f60ebcf68c3d"},"vehicle_type_id":"4","last_reported":1751987469,"current_range_meters":18800,"station_id":"ce4bhm12rcd13ifvqgkg","pricing_plan_id":"cebpf4jnsgd1na2vs0mg"},{"bike_id":"56eb3fdf-ea87-4fcf-85df-3680fa66363e","system_id":"levelo_inurba_marseille","lat":43.22509,"lon":5.34758,"is_reserved":false,"is_disabled":false,"rental_uris":{"android":"levelo://app?vid=56eb3fdf-ea87-4fcf-85df-3680fa66363e","ios":"levelo://app?vid=56eb3fdf-ea87-4fcf-85df-3680fa66363e"},"vehicle_type_id":"4","last_reported":1751987469,"current_range_meters":18800,"station_id":"st_cvj5dfep6f1abm77gieg","pricing_plan_id":"cebpf4jnsgd1na2vs0mg"},{"bike_id":"4acaf512-a7d4-403d-9669-da010a61428f","system_id":"levelo_inurba_marseille","lat":43.30562,"lon":5.36574,"is_reserved":false,"is_disabled":false,"rental_uris":{"android":"levelo://app?vid=4acaf512-a7d4-403d-9669-da010a61428f","ios":"levelo://app?vid=4acaf512-a7d4-403d-9669-da010a61428f"},"vehicle_type_id":"4","last_reported":1751987469,"current_range_meters":19200,"station_id":"ce4bgs12rcd13ifvqcag","pricing_plan_id":"cebpf4jnsgd1na2vs0mg"},{"bike_id":"a8b07737-3991-4d25-81d8-778f30812c05","system_id":"levelo_inurba_marseille","lat":43.313215,"lon":5.396962,"is_reserved":false,"is_disabled":false,"rental_uris":{"android":"levelo://app?vid=a8b07737-3991-4d25-81d8-778f30812c05","ios":"levelo://app?vid=a8b07737-3991-4d25-81d8-778f30812c05"},"vehicle_type_id":"4","last_reported":1751987469,"current_range_meters":19200,"station_id":"ce4bgvp2rcd13ifvqcu0","pricing_plan_id":"cebpf4jnsgd1na2vs0mg"},{"bike_id":"3403c98d-9b8f-40d0-a10d-7f060eb788a2","system_id":"levelo_inurba_marseille","lat":43.26208,"lon":5.37444,"is_reserved":false,"is_disabled":false,"rental_uris":{"android":"levelo://app?vid=3403c98d-9b8f-40d0-a10d-7f060eb788a2","ios":"levelo://app?vid=3403c98d-9b8f-40d0-a10d-7f060eb788a2"},"vehicle_type_id":"4","last_reported":1751987469,"current_range_meters":19200,"station_id":"ce4bhgp2rcd13ifvqfc0","pricing_plan_id":"cebpf4jnsgd1na2vs0mg"},{"bike_id":"fb043b58-0b6c-46c1-8e2f-d3a5f0bfa5bf","system_id":"levelo_inurba_marseille","lat":43.27995,"lon":5.4166,"is_reserved":false,"is_disabled":false,"rental_uris":{"android":"levelo://app?vid=fb043b58-0b6c-46c1-8e2f-d3a5f0bfa5bf","ios":"levelo://app?vid=fb043b58-0b6c-46c1-8e2f-d3a5f0bfa5bf"},"vehicle_type_id":"4","last_reported":1751987469,"current_range_meters":19200,"station_id":"ce4bho12rcd13ifvqh1g","pricing_plan_id":"cebpf4jnsgd1na2vs0mg"},{"bike_id":"c0513ae1-cdb5-4a85-bad1-10aeed35b85c","system_id":"levelo_inurba_marseille","lat":43.29551,"lon":5.42293,"is_reserved":false,"is_disabled":false,"rental_uris":{"android":"levelo://app?vid=c0513ae1-cdb5-4a85-bad1-10aeed35b85c","ios":"levelo://app?vid=c0513ae1-cdb5-4a85-bad1-10aeed35b85c"},"vehicle_type_id":"4","last_reported":1751987469,"current_range_meters":19200,"station_id":"ce4bhph2rcd13ifvqhdg","pricing_plan_id":"cebpf4jnsgd1na2vs0mg"},{"bike_id":"697d5fc4-b988-4a4e-8323-c1ce5ed61a61","system_id":"levelo_inurba_marseille","lat":43.2122,"lon":5.35052,"is_reserved":false,"is_disabled":false,"rental_uris":{"android":"levelo://app?vid=697d5fc4-b988-4a4e-8323-c1ce5ed61a61","ios":"levelo://app?vid=697d5fc4-b988-4a4e-8323-c1ce5ed61a61"},"vehicle_type_id":"4","last_reported":1751987469,"current_range_meters":19600,"station_id":"","pricing_plan_id":"cebpf4jnsgd1na2vs0mg"},{"bike_id":"b757ffbb-2b71-4330-9f60-5f8a9d46d16e","system_id":"levelo_inurba_marseille","lat":43.296655,"lon":5.371081,"is_reserved":false,"is_disabled":false,"rental_uris":{"android":"levelo://app?vid=b757ffbb-2b71-4330-9f60-5f8a9d46d16e","ios":"levelo://app?vid=b757ffbb-2b71-4330-9f60-5f8a9d46d16e"},"vehicle_type_id":"4","last_reported":1751987469,"current_range_meters":19600,"station_id":"","pricing_plan_id":"cebpf4jnsgd1na2vs0mg"},{"bike_id":"b2caa530-bb19-4cc6-a6bd-61e3e1d7432e","system_id":"levelo_inurba_marseille","lat":43.33763,"lon":5.37461,"is_reserved":false,"is_disabled":false,"rental_uris":{"android":"levelo://app?vid=b2caa530-bb19-4cc6-a6bd-61e3e1d7432e","ios":"levelo://app?vid=b2caa530-bb19-4cc6-a6bd-61e3e1d7432e"},"vehicle_type_id":"4","last_reported":1751987469,"current_range_meters":19600,"station_id":"","pricing_plan_id":"cebpf4jnsgd1na2vs0mg"},{"bike_id":"ebe5fe73-e7ca-4264-9a98-61a1f36abc39","system_id":"levelo_inurba_marseille","lat":43.29535,"lon":5.38551,"is_reserved":false,"is_disabled":false,"rental_uris":{"android":"levelo://app?vid=ebe5fe73-e7ca-4264-9a98-61a1f36abc39","ios":"levelo://app?vid=ebe5fe73-e7ca-4264-9a98-61a1f36abc39"},"vehicle_type_id":"4","last_reported":1751987469,"current_range_meters":19600,"station_id":"ce4bgih2rcd13ifvqba0","pricing_plan_id":"cebpf4jnsgd1na2vs0mg"},{"bike_id":"3847300c-4af4-4dce-a443-be88af3301f5","system_id":"levelo_inurba_marseille","lat":43.29969,"lon":5.37176,"is_reserved":false,"is_disabled":false,"rental_uris":{"android":"levelo://app?vid=3847300c-4af4-4dce-a443-be88af3301f5","ios":"levelo://app?vid=3847300c-4af4-4dce-a443-be88af3301f5"},"vehicle_type_id":"4","last_reported":1751987469,"current_range_meters":19600,"station_id":"ce4bgr92rcd13ifvqc7g","pricing_plan_id":"cebpf4jnsgd1na2vs0mg"},{"bike_id":"67992a77-ffdb-4c9b-a59e-5ac4b0e21b3e","system_id":"levelo_inurba_marseille","lat":43.29275,"lon":5.40118,"is_reserved":false,"is_disabled":false,"rental_uris":{"android":"levelo://app?vid=67992a77-ffdb-4c9b-a59e-5ac4b0e21b3e","ios":"levelo://app?vid=67992a77-ffdb-4c9b-a59e-5ac4b0e21b3e"},"vehicle_type_id":"4","last_reported":1751987469,"current_range_meters":19600,"station_id":"ce4bh312rcd13ifvqdk0","pricing_plan_id":"cebpf4jnsgd1na2vs0mg"},{"bike_id":"15286feb-5dfb-498c-a584-add36819e4ef","system_id":"levelo_inurba_marseille","lat":43.21199,"lon":5.35067,"is_reserved":false,"is_disabled":false,"rental_uris":{"android":"levelo://app?vid=15286feb-5dfb-498c-a584-add36819e4ef","ios":"levelo://app?vid=15286feb-5dfb-498c-a584-add36819e4ef"},"vehicle_type_id":"4","last_reported":1751987469,"current_range_meters":19600,"station_id":"st_cvj6sg6p6f1abm77japg","pricing_plan_id":"cebpf4jnsgd1na2vs0mg"},{"bike_id":"19c552da-55bc-46d8-97cb-d1fbabdad01a","system_id":"levelo_inurba_marseille","lat":43.21208,"lon":5.35065,"is_reserved":false,"is_disabled":false,"rental_uris":{"android":"levelo://app?vid=19c552da-55bc-46d8-97cb-d1fbabdad01a","ios":"levelo://app?vid=19c552da-55bc-46d8-97cb-d1fbabdad01a"},"vehicle_type_id":"4","last_reported":1751987469,"current_range_meters":19600,"station_id":"st_cvj6sg6p6f1abm77japg","pricing_plan_id":"cebpf4jnsgd1na2vs0mg"},{"bike_id":"b6d9b946-f66a-4c6f-96e5-5d23e176360c","system_id":"levelo_inurba_marseille","lat":43.31315,"lon":5.38172,"is_reserved":false,"is_disabled":false,"rental_uris":{"android":"levelo://app?vid=b6d9b946-f66a-4c6f-96e5-5d23e176360c","ios":"levelo://app?vid=b6d9b946-f66a-4c6f-96e5-5d23e176360c"},"vehicle_type_id":"4","last_reported":1751987469,"current_range_meters":20000,"station_id":"","pricing_plan_id":"cebpf4jnsgd1na2vs0mg"},{"bike_id":"6fd8f94f-75f4-4fbb-a20f-b16dd4dbea3c","system_id":"levelo_inurba_marseille","lat":43.29525,"lon":5.39405,"is_reserved":false,"is_disabled":false,"rental_uris":{"android":"levelo://app?vid=6fd8f94f-75f4-4fbb-a20f-b16dd4dbea3c","ios":"levelo://app?vid=6fd8f94f-75f4-4fbb-a20f-b16dd4dbea3c"},"vehicle_type_id":"4","last_reported":1751987469,"current_range_meters":20000,"station_id":"ce4bh292rcd13ifvqdf0","pricing_plan_id":"cebpf4jnsgd1na2vs0mg"},{"bike_id":"11d51cde-b275-4a7f-947f-dd3cd1de3be0","system_id":"levelo_inurba_marseille","lat":43.29066,"lon":5.37171,"is_reserved":false,"is_disabled":false,"rental_uris":{"android":"levelo://app?vid=11d51cde-b275-4a7f-947f-dd3cd1de3be0","ios":"levelo://app?vid=11d51cde-b275-4a7f-947f-dd3cd1de3be0"},"vehicle_type_id":"4","last_reported":1751987469,"current_range_meters":20000,"station_id":"ce4bh5p2rcd13ifvqe4g","pricing_plan_id":"cebpf4jnsgd1na2vs0mg"},{"bike_id":"52b43456-8c69-4db0-a4f1-321218b998c0","system_id":"levelo_inurba_marseille","lat":43.28407,"lon":5.35001,"is_reserved":false,"is_disabled":false,"rental_uris":{"android":"levelo://app?vid=52b43456-8c69-4db0-a4f1-321218b998c0","ios":"levelo://app?vid=52b43456-8c69-4db0-a4f1-321218b998c0"},"vehicle_type_id":"4","last_reported":1751987469,"current_range_meters":20000,"station_id":"ce4bhbh2rcd13ifvqepg","pricing_plan_id":"cebpf4jnsgd1na2vs0mg"},{"bike_id":"b28aa0a0-791c-4a08-9a16-c7bf6ea0ed5a","system_id":"levelo_inurba_marseille","lat":43.22529,"lon":5.34767,"is_reserved":false,"is_disabled":false,"rental_uris":{"android":"levelo://app?vid=b28aa0a0-791c-4a08-9a16-c7bf6ea0ed5a","ios":"levelo://app?vid=b28aa0a0-791c-4a08-9a16-c7bf6ea0ed5a"},"vehicle_type_id":"4","last_reported":1751987469,"current_range_meters":20000,"station_id":"st_cvj5dfep6f1abm77gieg","pricing_plan_id":"cebpf4jnsgd1na2vs0mg"},{"bike_id":"1be39311-cfa5-4cbb-b93d-fb0870d6e611","system_id":"levelo_inurba_marseille","lat":43.21178,"lon":5.35074,"is_reserved":false,"is_disabled":false,"rental_uris":{"android":"levelo://app?vid=1be39311-cfa5-4cbb-b93d-fb0870d6e611","ios":"levelo://app?vid=1be39311-cfa5-4cbb-b93d-fb0870d6e611"},"vehicle_type_id":"4","last_reported":1751987469,"current_range_meters":20000,"station_id":"st_cvj6sg6p6f1abm77japg","pricing_plan_id":"cebpf4jnsgd1na2vs0mg"},{"bike_id":"320f2a33-deaa-4e0a-a3d5-c39ce8ad680a","system_id":"levelo_inurba_marseille","lat":43.31553,"lon":5.37434,"is_reserved":false,"is_disabled":false,"rental_uris":{"android":"levelo://app?vid=320f2a33-deaa-4e0a-a3d5-c39ce8ad680a","ios":"levelo://app?vid=320f2a33-deaa-4e0a-a3d5-c39ce8ad680a"},"vehicle_type_id":"4","last_reported":1751987469,"current_range_meters":20400,"station_id":"","pricing_plan_id":"cebpf4jnsgd1na2vs0mg"},{"bike_id":"5a5872c6-a97c-4e06-96d5-1828b33141df","system_id":"levelo_inurba_marseille","lat":43.31314,"lon":5.36865,"is_reserved":false,"is_disabled":false,"rental_uris":{"android":"levelo://app?vid=5a5872c6-a97c-4e06-96d5-1828b33141df","ios":"levelo://app?vid=5a5872c6-a97c-4e06-96d5-1828b33141df"},"vehicle_type_id":"4","last_reported":1751987469,"current_range_meters":20400,"station_id":"","pricing_plan_id":"cebpf4jnsgd1na2vs0mg"},{"bike_id":"34136e20-8bc3-4a64-bb34-0cfb08fa9713","system_id":"levelo_inurba_marseille","lat":43.30926,"lon":5.40142,"is_reserved":false,"is_disabled":false,"rental_uris":{"android":"levelo://app?vid=34136e20-8bc3-4a64-bb34-0cfb08fa9713","ios":"levelo://app?vid=34136e20-8bc3-4a64-bb34-0cfb08fa9713"},"vehicle_type_id":"4","last_reported":1751987469,"current_range_meters":20400,"station_id":"ce4bgvp2rcd13ifvqct0","pricing_plan_id":"cebpf4jnsgd1na2vs0mg"},{"bike_id":"dc18d69b-647c-4265-8fb7-6a2c9e77e09d","system_id":"levelo_inurba_marseille","lat":43.29566,"lon":5.39956,"is_reserved":false,"is_disabled":false,"rental_uris":{"android":"levelo://app?vid=dc18d69b-647c-4265-8fb7-6a2c9e77e09d","ios":"levelo://app?vid=dc18d69b-647c-4265-8fb7-6a2c9e77e09d"},"vehicle_type_id":"4","last_reported":1751987469,"current_range_meters":20400,"station_id":"ce4bh312rcd13ifvqdj0","pricing_plan_id":"cebpf4jnsgd1na2vs0mg"},{"bike_id":"fd2edbde-5e58-407d-a568-350df359bbe2","system_id":"levelo_inurba_marseille","lat":43.28857,"lon":5.35852,"is_reserved":false,"is_disabled":false,"rental_uris":{"android":"levelo://app?vid=fd2edbde-5e58-407d-a568-350df359bbe2","ios":"levelo://app?vid=fd2edbde-5e58-407d-a568-350df359bbe2"},"vehicle_type_id":"4","last_reported":1751987469,"current_range_meters":20400,"station_id":"ce4bhb12rcd13ifvqem0","pricing_plan_id":"cebpf4jnsgd1na2vs0mg"},{"bike_id":"18bde3a6-1e8b-4785-b203-a55dd84b4c4b","system_id":"levelo_inurba_marseille","lat":43.27911,"lon":5.39578,"is_reserved":false,"is_disabled":false,"rental_uris":{"android":"levelo://app?vid=18bde3a6-1e8b-4785-b203-a55dd84b4c4b","ios":"levelo://app?vid=18bde3a6-1e8b-4785-b203-a55dd84b4c4b"},"vehicle_type_id":"4","last_reported":1751987469,"current_range_meters":20400,"station_id":"ce4bhf92rcd13ifvqf40","pricing_plan_id":"cebpf4jnsgd1na2vs0mg"},{"bike_id":"fd7d08d0-d8e9-446a-9f54-3e0aa7641460","system_id":"levelo_inurba_marseille","lat":43.24401,"lon":5.37031,"is_reserved":false,"is_disabled":false,"rental_uris":{"android":"levelo://app?vid=fd7d08d0-d8e9-446a-9f54-3e0aa7641460","ios":"levelo://app?vid=fd7d08d0-d8e9-446a-9f54-3e0aa7641460"},"vehicle_type_id":"4","last_reported":1751987469,"current_range_meters":20400,"station_id":"ce4bhhh2rcd13ifvqfk0","pricing_plan_id":"cebpf4jnsgd1na2vs0mg"},{"bike_id":"9aa4ab5f-5d11-40fb-b329-694b38fd49cc","system_id":"levelo_inurba_marseille","lat":43.30301,"lon":5.37711,"is_reserved":false,"is_disabled":false,"rental_uris":{"android":"levelo://app?vid=9aa4ab5f-5d11-40fb-b329-694b38fd49cc","ios":"levelo://app?vid=9aa4ab5f-5d11-40fb-b329-694b38fd49cc"},"vehicle_type_id":"4","last_reported":1751987469,"current_range_meters":20800,"station_id":"ce4bguh2rcd13ifvqcj0","pricing_plan_id":"cebpf4jnsgd1na2vs0mg"},{"bike_id":"b82a4101-234b-49b2-91ae-c3c479ee413a","system_id":"levelo_inurba_marseille","lat":43.29036,"lon":5.39962,"is_reserved":false,"is_disabled":false,"rental_uris":{"android":"levelo://app?vid=b82a4101-234b-49b2-91ae-c3c479ee413a","ios":"levelo://app?vid=b82a4101-234b-49b2-91ae-c3c479ee413a"},"vehicle_type_id":"4","last_reported":1751987469,"current_range_meters":20800,"station_id":"ce4bh392rcd13ifvqdm0","pricing_plan_id":"cebpf4jnsgd1na2vs0mg"},{"bike_id":"5f4282b9-bb9d-418e-acfc-1abb66bf6f95","system_id":"levelo_inurba_marseille","lat":43.29029,"lon":5.35934,"is_reserved":false,"is_disabled":false,"rental_uris":{"android":"levelo://app?vid=5f4282b9-bb9d-418e-acfc-1abb66bf6f95","ios":"levelo://app?vid=5f4282b9-bb9d-418e-acfc-1abb66bf6f95"},"vehicle_type_id":"4","last_reported":1751987469,"current_range_meters":20800,"station_id":"ce4bha92rcd13ifvqeg0","pricing_plan_id":"cebpf4jnsgd1na2vs0mg"},{"bike_id":"1e19dd50-d7b0-43e3-b6af-1337ffe3b55d","system_id":"levelo_inurba_marseille","lat":43.27824,"lon":5.39226,"is_reserved":false,"is_disabled":false,"rental_uris":{"android":"levelo://app?vid=1e19dd50-d7b0-43e3-b6af-1337ffe3b55d","ios":"levelo://app?vid=1e19dd50-d7b0-43e3-b6af-1337ffe3b55d"},"vehicle_type_id":"4","last_reported":1751987469,"current_range_meters":20800,"station_id":"ce4bhjp2rcd13ifvqga0","pricing_plan_id":"cebpf4jnsgd1na2vs0mg"},{"bike_id":"d9c4b91f-745b-436a-9346-ea1d2786f6e6","system_id":"levelo_inurba_marseille","lat":43.23182,"lon":5.3999,"is_reserved":false,"is_disabled":false,"rental_uris":{"android":"levelo://app?vid=d9c4b91f-745b-436a-9346-ea1d2786f6e6","ios":"levelo://app?vid=d9c4b91f-745b-436a-9346-ea1d2786f6e6"},"vehicle_type_id":"4","last_reported":1751987469,"current_range_meters":20800,"station_id":"ce4bhn12rcd13ifvqgqg","pricing_plan_id":"cebpf4jnsgd1na2vs0mg"},{"bike_id":"306ce1a6-757b-4897-8796-d879ee9a33eb","system_id":"levelo_inurba_marseille","lat":43.29146,"lon":5.40846,"is_reserved":false,"is_disabled":false,"rental_uris":{"android":"levelo://app?vid=306ce1a6-757b-4897-8796-d879ee9a33eb","ios":"levelo://app?vid=306ce1a6-757b-4897-8796-d879ee9a33eb"},"vehicle_type_id":"4","last_reported":1751987469,"current_range_meters":21600,"station_id":"","pricing_plan_id":"cebpf4jnsgd1na2vs0mg"},{"bike_id":"2c284086-c96f-4e21-92f9-0be290fd2073","system_id":"levelo_inurba_marseille","lat":43.310767,"lon":5.383537,"is_reserved":false,"is_disabled":false,"rental_uris":{"android":"levelo://app?vid=2c284086-c96f-4e21-92f9-0be290fd2073","ios":"levelo://app?vid=2c284086-c96f-4e21-92f9-0be290fd2073"},"vehicle_type_id":"4","last_reported":1751987469,"current_range_meters":21600,"station_id":"ce4bgj92rcd13ifvqbd0","pricing_plan_id":"cebpf4jnsgd1na2vs0mg"},{"bike_id":"9b945d3c-e9a4-461e-8c25-4de9a4bf7a5a","system_id":"levelo_inurba_marseille","lat":43.30536,"lon":5.36715,"is_reserved":false,"is_disabled":false,"rental_uris":{"android":"levelo://app?vid=9b945d3c-e9a4-461e-8c25-4de9a4bf7a5a","ios":"levelo://app?vid=9b945d3c-e9a4-461e-8c25-4de9a4bf7a5a"},"vehicle_type_id":"4","last_reported":1751987469,"current_range_meters":21600,"station_id":"ce4bgrp2rcd13ifvqc9g","pricing_plan_id":"cebpf4jnsgd1na2vs0mg"},{"bike_id":"88bdd5e4-407e-4475-b50d-41526c3101a1","system_id":"levelo_inurba_marseille","lat":43.30269,"lon":5.37699,"is_reserved":false,"is_disabled":false,"rental_uris":{"android":"levelo://app?vid=88bdd5e4-407e-4475-b50d-41526c3101a1","ios":"levelo://app?vid=88bdd5e4-407e-4475-b50d-41526c3101a1"},"vehicle_type_id":"4","last_reported":1751987469,"current_range_meters":21600,"station_id":"ce4bguh2rcd13ifvqcj0","pricing_plan_id":"cebpf4jnsgd1na2vs0mg"},{"bike_id":"8b6556f0-b1a0-495a-9af8-2f63475c8a21","system_id":"levelo_inurba_marseille","lat":43.28717,"lon":5.37399,"is_reserved":false,"is_disabled":false,"rental_uris":{"android":"levelo://app?vid=8b6556f0-b1a0-495a-9af8-2f63475c8a21","ios":"levelo://app?vid=8b6556f0-b1a0-495a-9af8-2f63475c8a21"},"vehicle_type_id":"4","last_reported":1751987469,"current_range_meters":21600,"station_id":"ce4bh3p2rcd13ifvqdq0","pricing_plan_id":"cebpf4jnsgd1na2vs0mg"},{"bike_id":"604a98e9-353d-45d8-84ef-4338f352e782","system_id":"levelo_inurba_marseille","lat":43.28954,"lon":5.36389,"is_reserved":false,"is_disabled":false,"rental_uris":{"android":"levelo://app?vid=604a98e9-353d-45d8-84ef-4338f352e782","ios":"levelo://app?vid=604a98e9-353d-45d8-84ef-4338f352e782"},"vehicle_type_id":"4","last_reported":1751987469,"current_range_meters":21600,"station_id":"ce4bhc92rcd13ifvqetg","pricing_plan_id":"cebpf4jnsgd1na2vs0mg"},{"bike_id":"1e3bfec9-2668-4a4d-ad51-5402bd721c05","system_id":"levelo_inurba_marseille","lat":43.25487,"lon":5.37652,"is_reserved":false,"is_disabled":false,"rental_uris":{"android":"levelo://app?vid=1e3bfec9-2668-4a4d-ad51-5402bd721c05","ios":"levelo://app?vid=1e3bfec9-2668-4a4d-ad51-5402bd721c05"},"vehicle_type_id":"4","last_reported":1751987469,"current_range_meters":21600,"station_id":"ce4bhh12rcd13ifvqff0","pricing_plan_id":"cebpf4jnsgd1na2vs0mg"},{"bike_id":"4ebefc5e-d301-44cf-a5bf-6896ae2a3eba","system_id":"levelo_inurba_marseille","lat":43.23964,"lon":5.36636,"is_reserved":false,"is_disabled":false,"rental_uris":{"android":"levelo://app?vid=4ebefc5e-d301-44cf-a5bf-6896ae2a3eba","ios":"levelo://app?vid=4ebefc5e-d301-44cf-a5bf-6896ae2a3eba"},"vehicle_type_id":"4","last_reported":1751987469,"current_range_meters":21600,"station_id":"ce4bhi12rcd13ifvqfp0","pricing_plan_id":"cebpf4jnsgd1na2vs0mg"},{"bike_id":"779e1734-651e-4c56-840c-6d2319b7cadb","system_id":"levelo_inurba_marseille","lat":43.32348,"lon":5.36751,"is_reserved":false,"is_disabled":false,"rental_uris":{"android":"levelo://app?vid=779e1734-651e-4c56-840c-6d2319b7cadb","ios":"levelo://app?vid=779e1734-651e-4c56-840c-6d2319b7cadb"},"vehicle_type_id":"4","last_reported":1751987469,"current_range_meters":21600,"station_id":"ce4bhsh2rcd13ifvqi2g","pricing_plan_id":"cebpf4jnsgd1na2vs0mg"},{"bike_id":"cfe4010c-2112-4442-8740-784a76333861","system_id":"levelo_inurba_marseille","lat":43.21755,"lon":5.34598,"is_reserved":false,"is_disabled":false,"rental_uris":{"android":"levelo://app?vid=cfe4010c-2112-4442-8740-784a76333861","ios":"levelo://app?vid=cfe4010c-2112-4442-8740-784a76333861"},"vehicle_type_id":"4","last_reported":1751987469,"current_range_meters":21600,"station_id":"st_cvj6r9ubvosntc0bgbag","pricing_plan_id":"cebpf4jnsgd1na2vs0mg"},{"bike_id":"999f2a33-af15-4ca0-853a-d2550f2d6574","system_id":"levelo_inurba_marseille","lat":43.23446,"lon":5.35916,"is_reserved":false,"is_disabled":false,"rental_uris":{"android":"levelo://app?vid=999f2a33-af15-4ca0-853a-d2550f2d6574","ios":"levelo://app?vid=999f2a33-af15-4ca0-853a-d2550f2d6574"},"vehicle_type_id":"4","last_reported":1751987469,"current_range_meters":22000,"station_id":"","pricing_plan_id":"cebpf4jnsgd1na2vs0mg"},{"bike_id":"526e0670-a0b5-458a-941b-f9836401b915","system_id":"levelo_inurba_marseille","lat":43.30771,"lon":5.37653,"is_reserved":false,"is_disabled":false,"rental_uris":{"android":"levelo://app?vid=526e0670-a0b5-458a-941b-f9836401b915","ios":"levelo://app?vid=526e0670-a0b5-458a-941b-f9836401b915"},"vehicle_type_id":"4","last_reported":1751987469,"current_range_meters":22000,"station_id":"ce4bgv92rcd13ifvqcq0","pricing_plan_id":"cebpf4jnsgd1na2vs0mg"},{"bike_id":"01fd2969-88ba-423b-9244-ec06a5c1df66","system_id":"levelo_inurba_marseille","lat":43.26204,"lon":5.37451,"is_reserved":false,"is_disabled":false,"rental_uris":{"android":"levelo://app?vid=01fd2969-88ba-423b-9244-ec06a5c1df66","ios":"levelo://app?vid=01fd2969-88ba-423b-9244-ec06a5c1df66"},"vehicle_type_id":"4","last_reported":1751987469,"current_range_meters":22000,"station_id":"ce4bhgp2rcd13ifvqfc0","pricing_plan_id":"cebpf4jnsgd1na2vs0mg"},{"bike_id":"40fa92fc-f934-431e-b290-17833f63b829","system_id":"levelo_inurba_marseille","lat":43.232126,"lon":5.355582,"is_reserved":false,"is_disabled":false,"rental_uris":{"android":"levelo://app?vid=40fa92fc-f934-431e-b290-17833f63b829","ios":"levelo://app?vid=40fa92fc-f934-431e-b290-17833f63b829"},"vehicle_type_id":"4","last_reported":1751987469,"current_range_meters":22000,"station_id":"ce4bhu92rcd13ifvqi70","pricing_plan_id":"cebpf4jnsgd1na2vs0mg"},{"bike_id":"ee2269ef-86f9-4a32-af59-df38e7d1caf1","system_id":"levelo_inurba_marseille","lat":43.292123,"lon":5.360688,"is_reserved":false,"is_disabled":false,"rental_uris":{"android":"levelo://app?vid=ee2269ef-86f9-4a32-af59-df38e7d1caf1","ios":"levelo://app?vid=ee2269ef-86f9-4a32-af59-df38e7d1caf1"},"vehicle_type_id":"4","last_reported":1751987469,"current_range_meters":22400,"station_id":"ce4bhbh2rcd13ifvqeqg","pricing_plan_id":"cebpf4jnsgd1na2vs0mg"},{"bike_id":"8ad481a5-560f-492a-ac41-34cd7f11432a","system_id":"levelo_inurba_marseille","lat":43.27208,"lon":5.39181,"is_reserved":false,"is_disabled":false,"rental_uris":{"android":"levelo://app?vid=8ad481a5-560f-492a-ac41-34cd7f11432a","ios":"levelo://app?vid=8ad481a5-560f-492a-ac41-34cd7f11432a"},"vehicle_type_id":"4","last_reported":1751987469,"current_range_meters":22400,"station_id":"ce4bhhp2rcd13ifvqfm0","pricing_plan_id":"cebpf4jnsgd1na2vs0mg"},{"bike_id":"be267e43-0397-4682-a563-50872c208525","system_id":"levelo_inurba_marseille","lat":43.27204,"lon":5.39181,"is_reserved":false,"is_disabled":false,"rental_uris":{"android":"levelo://app?vid=be267e43-0397-4682-a563-50872c208525","ios":"levelo://app?vid=be267e43-0397-4682-a563-50872c208525"},"vehicle_type_id":"4","last_reported":1751987469,"current_range_meters":22400,"station_id":"ce4bhhp2rcd13ifvqfm0","pricing_plan_id":"cebpf4jnsgd1na2vs0mg"},{"bike_id":"c0e5ea6d-6519-4b9c-b592-7f06764d353c","system_id":"levelo_inurba_marseille","lat":43.26503,"lon":5.39532,"is_reserved":false,"is_disabled":false,"rental_uris":{"android":"levelo://app?vid=c0e5ea6d-6519-4b9c-b592-7f06764d353c","ios":"levelo://app?vid=c0e5ea6d-6519-4b9c-b592-7f06764d353c"},"vehicle_type_id":"4","last_reported":1751987469,"current_range_meters":22400,"station_id":"ce4bhi12rcd13ifvqfq0","pricing_plan_id":"cebpf4jnsgd1na2vs0mg"},{"bike_id":"72581149-efb0-4882-9501-362d5a12932e","system_id":"levelo_inurba_marseille","lat":43.3248,"lon":5.36579,"is_reserved":false,"is_disabled":false,"rental_uris":{"android":"levelo://app?vid=72581149-efb0-4882-9501-362d5a12932e","ios":"levelo://app?vid=72581149-efb0-4882-9501-362d5a12932e"},"vehicle_type_id":"4","last_reported":1751987469,"current_range_meters":22400,"station_id":"ce4bhs12rcd13ifvqhvg","pricing_plan_id":"cebpf4jnsgd1na2vs0mg"},{"bike_id":"c0735136-e0f1-410b-b7bc-03f3deffba27","system_id":"levelo_inurba_marseille","lat":43.21739,"lon":5.3461,"is_reserved":false,"is_disabled":false,"rental_uris":{"android":"levelo://app?vid=c0735136-e0f1-410b-b7bc-03f3deffba27","ios":"levelo://app?vid=c0735136-e0f1-410b-b7bc-03f3deffba27"},"vehicle_type_id":"4","last_reported":1751987469,"current_range_meters":22400,"station_id":"st_cvj6r9ubvosntc0bgbag","pricing_plan_id":"cebpf4jnsgd1na2vs0mg"},{"bike_id":"2b9cc6f0-8bc5-4dd3-8980-7c0523254678","system_id":"levelo_inurba_marseille","lat":43.31478,"lon":5.37314,"is_reserved":false,"is_disabled":false,"rental_uris":{"android":"levelo://app?vid=2b9cc6f0-8bc5-4dd3-8980-7c0523254678","ios":"levelo://app?vid=2b9cc6f0-8bc5-4dd3-8980-7c0523254678"},"vehicle_type_id":"4","last_reported":1751987469,"current_range_meters":22800,"station_id":"ce4bgt12rcd13ifvqcd0","pricing_plan_id":"cebpf4jnsgd1na2vs0mg"},{"bike_id":"550db861-9256-4413-a8fd-e415150ea037","system_id":"levelo_inurba_marseille","lat":43.30332,"lon":5.40419,"is_reserved":false,"is_disabled":false,"rental_uris":{"android":"levelo://app?vid=550db861-9256-4413-a8fd-e415150ea037","ios":"levelo://app?vid=550db861-9256-4413-a8fd-e415150ea037"},"vehicle_type_id":"4","last_reported":1751987469,"current_range_meters":22800,"station_id":"ce4bh012rcd13ifvqd10","pricing_plan_id":"cebpf4jnsgd1na2vs0mg"},{"bike_id":"7e54054d-e373-40eb-a45f-478da64e4988","system_id":"levelo_inurba_marseille","lat":43.30422,"lon":5.39744,"is_reserved":false,"is_disabled":false,"rental_uris":{"android":"levelo://app?vid=7e54054d-e373-40eb-a45f-478da64e4988","ios":"levelo://app?vid=7e54054d-e373-40eb-a45f-478da64e4988"},"vehicle_type_id":"4","last_reported":1751987469,"current_range_meters":22800,"station_id":"ce4bh092rcd13ifvqd20","pricing_plan_id":"cebpf4jnsgd1na2vs0mg"},{"bike_id":"7ad5cf36-3b8a-4642-a400-5599538fffac","system_id":"levelo_inurba_marseille","lat":43.29256,"lon":5.40914,"is_reserved":false,"is_disabled":false,"rental_uris":{"android":"levelo://app?vid=7ad5cf36-3b8a-4642-a400-5599538fffac","ios":"levelo://app?vid=7ad5cf36-3b8a-4642-a400-5599538fffac"},"vehicle_type_id":"4","last_reported":1751987469,"current_range_meters":22800,"station_id":"ce4bh192rcd13ifvqdc0","pricing_plan_id":"cebpf4jnsgd1na2vs0mg"},{"bike_id":"50a7658a-d4b7-4a9f-94be-c4ee3dd322ad","system_id":"levelo_inurba_marseille","lat":43.284111,"lon":5.349725,"is_reserved":false,"is_disabled":false,"rental_uris":{"android":"levelo://app?vid=50a7658a-d4b7-4a9f-94be-c4ee3dd322ad","ios":"levelo://app?vid=50a7658a-d4b7-4a9f-94be-c4ee3dd322ad"},"vehicle_type_id":"4","last_reported":1751987469,"current_range_meters":22800,"station_id":"ce4bh9p2rcd13ifvqed0","pricing_plan_id":"cebpf4jnsgd1na2vs0mg"},{"bike_id":"ad5fad1b-d597-4377-b517-ef77c5c5efc3","system_id":"levelo_inurba_marseille","lat":43.29007,"lon":5.3561,"is_reserved":false,"is_disabled":false,"rental_uris":{"android":"levelo://app?vid=ad5fad1b-d597-4377-b517-ef77c5c5efc3","ios":"levelo://app?vid=ad5fad1b-d597-4377-b517-ef77c5c5efc3"},"vehicle_type_id":"4","last_reported":1751987469,"current_range_meters":22800,"station_id":"ce4bhb92rcd13ifvqen0","pricing_plan_id":"cebpf4jnsgd1na2vs0mg"},{"bike_id":"c44e7516-c57b-408b-85f4-24e624de7b8b","system_id":"levelo_inurba_marseille","lat":43.269562,"lon":5.386329,"is_reserved":false,"is_disabled":false,"rental_uris":{"android":"levelo://app?vid=c44e7516-c57b-408b-85f4-24e624de7b8b","ios":"levelo://app?vid=c44e7516-c57b-408b-85f4-24e624de7b8b"},"vehicle_type_id":"4","last_reported":1751987469,"current_range_meters":22800,"station_id":"ce4bhh92rcd13ifvqfh0","pricing_plan_id":"cebpf4jnsgd1na2vs0mg"},{"bike_id":"87d13c3c-9453-4492-8a8f-f2b4c8e828c6","system_id":"levelo_inurba_marseille","lat":43.26177,"lon":5.37049,"is_reserved":false,"is_disabled":false,"rental_uris":{"android":"levelo://app?vid=87d13c3c-9453-4492-8a8f-f2b4c8e828c6","ios":"levelo://app?vid=87d13c3c-9453-4492-8a8f-f2b4c8e828c6"},"vehicle_type_id":"4","last_reported":1751987469,"current_range_meters":23200,"station_id":"","pricing_plan_id":"cebpf4jnsgd1na2vs0mg"},{"bike_id":"1c843fea-9154-4ab5-a997-10f28de62d5c","system_id":"levelo_inurba_marseille","lat":43.26547,"lon":5.37383,"is_reserved":false,"is_disabled":false,"rental_uris":{"android":"levelo://app?vid=1c843fea-9154-4ab5-a997-10f28de62d5c","ios":"levelo://app?vid=1c843fea-9154-4ab5-a997-10f28de62d5c"},"vehicle_type_id":"4","last_reported":1751987469,"current_range_meters":23200,"station_id":"","pricing_plan_id":"cebpf4jnsgd1na2vs0mg"},{"bike_id":"feaa7e3a-cbe4-4489-be11-8a12d7eec173","system_id":"levelo_inurba_marseille","lat":43.2513,"lon":5.42554,"is_reserved":false,"is_disabled":false,"rental_uris":{"android":"levelo://app?vid=feaa7e3a-cbe4-4489-be11-8a12d7eec173","ios":"levelo://app?vid=feaa7e3a-cbe4-4489-be11-8a12d7eec173"},"vehicle_type_id":"4","last_reported":1751987469,"current_range_meters":23200,"station_id":"","pricing_plan_id":"cebpf4jnsgd1na2vs0mg"},{"bike_id":"9986b38f-200d-4426-8d22-f3694f2f8d6a","system_id":"levelo_inurba_marseille","lat":43.304246,"lon":5.388922,"is_reserved":false,"is_disabled":false,"rental_uris":{"android":"levelo://app?vid=9986b38f-200d-4426-8d22-f3694f2f8d6a","ios":"levelo://app?vid=9986b38f-200d-4426-8d22-f3694f2f8d6a"},"vehicle_type_id":"4","last_reported":1751987469,"current_range_meters":23200,"station_id":"ce4bgk12rcd13ifvqbi0","pricing_plan_id":"cebpf4jnsgd1na2vs0mg"},{"bike_id":"d3a08de5-6c00-4efa-aecb-b69ef1c168ef","system_id":"levelo_inurba_marseille","lat":43.31327,"lon":5.39688,"is_reserved":false,"is_disabled":false,"rental_uris":{"android":"levelo://app?vid=d3a08de5-6c00-4efa-aecb-b69ef1c168ef","ios":"levelo://app?vid=d3a08de5-6c00-4efa-aecb-b69ef1c168ef"},"vehicle_type_id":"4","last_reported":1751987469,"current_range_meters":23200,"station_id":"ce4bgvp2rcd13ifvqcu0","pricing_plan_id":"cebpf4jnsgd1na2vs0mg"},{"bike_id":"f4a77456-ef31-4fff-9b52-565169b7d1fb","system_id":"levelo_inurba_marseille","lat":43.29276,"lon":5.40113,"is_reserved":false,"is_disabled":false,"rental_uris":{"android":"levelo://app?vid=f4a77456-ef31-4fff-9b52-565169b7d1fb","ios":"levelo://app?vid=f4a77456-ef31-4fff-9b52-565169b7d1fb"},"vehicle_type_id":"4","last_reported":1751987469,"current_range_meters":23200,"station_id":"ce4bh312rcd13ifvqdk0","pricing_plan_id":"cebpf4jnsgd1na2vs0mg"},{"bike_id":"506b4d92-5b60-424f-9e6a-b3b22729f069","system_id":"levelo_inurba_marseille","lat":43.28932,"lon":5.3663,"is_reserved":false,"is_disabled":false,"rental_uris":{"android":"levelo://app?vid=506b4d92-5b60-424f-9e6a-b3b22729f069","ios":"levelo://app?vid=506b4d92-5b60-424f-9e6a-b3b22729f069"},"vehicle_type_id":"4","last_reported":1751987469,"current_range_meters":23200,"station_id":"ce4bhap2rcd13ifvqek0","pricing_plan_id":"cebpf4jnsgd1na2vs0mg"},{"bike_id":"81b3d474-b5f2-48ef-a288-f85722873332","system_id":"levelo_inurba_marseille","lat":43.28409,"lon":5.35001,"is_reserved":false,"is_disabled":false,"rental_uris":{"android":"levelo://app?vid=81b3d474-b5f2-48ef-a288-f85722873332","ios":"levelo://app?vid=81b3d474-b5f2-48ef-a288-f85722873332"},"vehicle_type_id":"4","last_reported":1751987469,"current_range_meters":23200,"station_id":"ce4bhbh2rcd13ifvqepg","pricing_plan_id":"cebpf4jnsgd1na2vs0mg"},{"bike_id":"af11444c-436d-44d1-894f-30d150dbe91c","system_id":"levelo_inurba_marseille","lat":43.2621,"lon":5.37434,"is_reserved":false,"is_disabled":false,"rental_uris":{"android":"levelo://app?vid=af11444c-436d-44d1-894f-30d150dbe91c","ios":"levelo://app?vid=af11444c-436d-44d1-894f-30d150dbe91c"},"vehicle_type_id":"4","last_reported":1751987469,"current_range_meters":23200,"station_id":"ce4bhgp2rcd13ifvqfc0","pricing_plan_id":"cebpf4jnsgd1na2vs0mg"},{"bike_id":"ef6311b9-c394-4e85-b3f2-bf62d7fa6877","system_id":"levelo_inurba_marseille","lat":43.245477,"lon":5.395235,"is_reserved":false,"is_disabled":false,"rental_uris":{"android":"levelo://app?vid=ef6311b9-c394-4e85-b3f2-bf62d7fa6877","ios":"levelo://app?vid=ef6311b9-c394-4e85-b3f2-bf62d7fa6877"},"vehicle_type_id":"4","last_reported":1751987469,"current_range_meters":23200,"station_id":"ce4bhlp2rcd13ifvqgjg","pricing_plan_id":"cebpf4jnsgd1na2vs0mg"},{"bike_id":"b0da33a9-14f2-427d-8d55-dab494082b70","system_id":"levelo_inurba_marseille","lat":43.30418,"lon":5.41282,"is_reserved":false,"is_disabled":false,"rental_uris":{"android":"levelo://app?vid=b0da33a9-14f2-427d-8d55-dab494082b70","ios":"levelo://app?vid=b0da33a9-14f2-427d-8d55-dab494082b70"},"vehicle_type_id":"4","last_reported":1751987469,"current_range_meters":23200,"station_id":"ce4bhop2rcd13ifvqh8g","pricing_plan_id":"cebpf4jnsgd1na2vs0mg"},{"bike_id":"6e16d598-32b9-4a3d-81ec-a41d9db48e31","system_id":"levelo_inurba_marseille","lat":43.32656,"lon":5.40993,"is_reserved":false,"is_disabled":false,"rental_uris":{"android":"levelo://app?vid=6e16d598-32b9-4a3d-81ec-a41d9db48e31","ios":"levelo://app?vid=6e16d598-32b9-4a3d-81ec-a41d9db48e31"},"vehicle_type_id":"4","last_reported":1751987469,"current_range_meters":23200,"station_id":"ce4bhpp2rcd13ifvqhgg","pricing_plan_id":"cebpf4jnsgd1na2vs0mg"},{"bike_id":"eef02b0a-5ba6-43ba-8918-659e661f42f7","system_id":"levelo_inurba_marseille","lat":43.32112,"lon":5.36765,"is_reserved":false,"is_disabled":false,"rental_uris":{"android":"levelo://app?vid=eef02b0a-5ba6-43ba-8918-659e661f42f7","ios":"levelo://app?vid=eef02b0a-5ba6-43ba-8918-659e661f42f7"},"vehicle_type_id":"4","last_reported":1751987469,"current_range_meters":23200,"station_id":"ce4bhrh2rcd13ifvqhug","pricing_plan_id":"cebpf4jnsgd1na2vs0mg"},