{"last_updated":1686780383,"ttl":30,"version":"2.2","data":{"bikes":[{"bike_id":"a142fcc1-dd44-4e45-a4d3-f750f9811ffe","system_id":"levelo_inurba_marseille","lat":43.3123,"lon":5.36795,"is_reserved":false,"is_disabled":false,"rental_uris":{"android":"levelo://app?vid=a142fcc1-dd44-4e45-a4d3-f750f9811ffe","ios":"levelo://app?vid=a142fcc1-dd44-4e45-a4d3-f750f9811ffe"},"vehicle_type_id":"4","last_reported":1686780383,"current_range_meters":6000,"station_id":"","pricing_plan_id":"free"},{"bike_id":"4142e832-ce82-42de-be27-fe32b67d9d1b","system_id":"levelo_inurba_marseille","lat":43.312239,"lon":5.368562,"is_reserved":false,"is_disabled":false,"rental_uris":{"android":"levelo://app?vid=4142e832-ce82-42de-be27-fe32b67d9d1b","ios":"levelo://app?vid=4142e832-ce82-42de-be27-fe32b67d9d1b"},"vehicle_type_id":"4","last_reported":1686780383,"current_range_meters":22000,"station_id":"ce4bgl92rcd13ifvqbq0","pricing_plan_id":"free"},{"bike_id":"99e1f8d4-c2c5-4ff6-938b-88825c92e115","system_id":"levelo_inurba_marseille","lat":43.31221,"lon":5.3686,"is_reserved":false,"is_disabled":false,"rental_uris":{"android":"levelo://app?vid=99e1f8d4-c2c5-4ff6-938b-88825c92e115","ios":"levelo://app?vid=99e1f8d4-c2c5-4ff6-938b-88825c92e115"},"vehicle_type_id":"4","last_reported":1686780383,"current_range_meters":20400,"station_id":"ce4bgl92rcd13ifvqbq0","pricing_plan_id":"free"},{"bike_id":"be2509b5-8503-4d5f-9f94-7236dd30d9d3","system_id":"levelo_inurba_marseille","lat":43.309076,"lon":5.368465,"is_reserved":false,"is_disabled":false,"rental_uris":{"android":"levelo://app?vid=be2509b5-8503-4d5f-9f94-7236dd30d9d3","ios":"levelo://app?vid=be2509b5-8503-4d5f-9f94-7236dd30d9d3"},"vehicle_type_id":"4","last_reported":1686780383,"current_range_meters":29600,"station_id":"ce4bgn92rcd13ifvqbvg","pricing_plan_id":"free"},{"bike_id":"3c2e7821-4252-40a4-897c-0b3491e9b513","system_id":"levelo_inurba_marseille","lat":43.314811,"lon":5.373103,"is_reserved":false,"is_disabled":false,"rental_uris":{"android":"levelo://app?vid=3c2e7821-4252-40a4-897c-0b3491e9b513","ios":"levelo://app?vid=3c2e7821-4252-40a4-897c-0b3491e9b513"},"vehicle_type_id":"4","last_reported":1686780383,"current_range_meters":20800,"station_id":"ce4bgt12rcd13ifvqcd0","pricing_plan_id":"free"},{"bike_id":"c56a86c7-87b0-4143-a9c4-9497ed263d8d","system_id":"levelo_inurba_marseille","lat":43.30895,"lon":5.37184,"is_reserved":false,"is_disabled":false,"rental_uris":{"android":"levelo://app?vid=c56a86c7-87b0-4143-a9c4-9497ed263d8d","ios":"levelo://app?vid=c56a86c7-87b0-4143-a9c4-9497ed263d8d"},"vehicle_type_id":"4","last_reported":1686780383,"current_range_meters":20800,"station_id":"","pricing_plan_id":"free"},{"bike_id":"732bfb3b-220e-429b-93c4-426dd78ba978","system_id":"levelo_inurba_marseille","lat":43.308614,"lon":5.372098,"is_reserved":false,"is_disabled":false,"rental_uris":{"android":"levelo://app?vid=732bfb3b-220e-429b-93c4-426dd78ba978","ios":"levelo://app?vid=732bfb3b-220e-429b-93c4-426dd78ba978"},"vehicle_type_id":"4","last_reported":1686780383,"current_range_meters":23600,"station_id":"ce4bguh2rcd13ifvqckg","pricing_plan_id":"free"},{"bike_id":"a9d5aa93-00f9-437d-a5ca-15e722439c8a","system_id":"levelo_inurba_marseille","lat":43.31324,"lon":5.37489,"is_reserved":false,"is_disabled":false,"rental_uris":{"android":"levelo://app?vid=a9d5aa93-00f9-437d-a5ca-15e722439c8a","ios":"levelo://app?vid=a9d5aa93-00f9-437d-a5ca-15e722439c8a"},"vehicle_type_id":"4","last_reported":1686780383,"current_range_meters":7200,"station_id":"","pricing_plan_id":"free"},{"bike_id":"662a3c73-68c7-4157-95d5-a7685ae5e4f1","system_id":"levelo_inurba_marseille","lat":43.305989,"lon":5.37225,"is_reserved":false,"is_disabled":false,"rental_uris":{"android":"levelo://app?vid=662a3c73-68c7-4157-95d5-a7685ae5e4f1","ios":"levelo://app?vid=662a3c73-68c7-4157-95d5-a7685ae5e4f1"},"vehicle_type_id":"4","last_reported":1686780383,"current_range_meters":17600,"station_id":"ce4bgqh2rcd13ifvqc4g","pricing_plan_id":"free"},{"bike_id":"105eb405-6cd4-496f-99f5-1d90168352bc","system_id":"levelo_inurba_marseille","lat":43.30597,"lon":5.37226,"is_reserved":false,"is_disabled":false,"rental_uris":{"android":"levelo://app?vid=105eb405-6cd4-496f-99f5-1d90168352bc","ios":"levelo://app?vid=105eb405-6cd4-496f-99f5-1d90168352bc"},"vehicle_type_id":"4","last_reported":1686780383,"current_range_meters":18400,"station_id":"ce4bgqh2rcd13ifvqc4g","pricing_plan_id":"free"},{"bike_id":"0d271312-6ed4-42c0-803c-349081ae0856","system_id":"levelo_inurba_marseille","lat":43.31936,"lon":5.37291,"is_reserved":false,"is_disabled":false,"rental_uris":{"android":"levelo://app?vid=0d271312-6ed4-42c0-803c-349081ae0856","ios":"levelo://app?vid=0d271312-6ed4-42c0-803c-349081ae0856"},"vehicle_type_id":"4","last_reported":1686780383,"current_range_meters":14800,"station_id":"","pricing_plan_id":"free"},{"bike_id":"ac80f45f-3e9a-4c31-91e5-5e2f1e651c1e","system_id":"levelo_inurba_marseille","lat":43.311125,"lon":5.377624,"is_reserved":false,"is_disabled":false,"rental_uris":{"android":"levelo://app?vid=ac80f45f-3e9a-4c31-91e5-5e2f1e651c1e","ios":"levelo://app?vid=ac80f45f-3e9a-4c31-91e5-5e2f1e651c1e"},"vehicle_type_id":"4","last_reported":1686780383,"current_range_meters":7200,"station_id":"ce4bgt92rcd13ifvqcg0","pricing_plan_id":"free"},{"bike_id":"4a754460-fadd-46aa-8025-e29151f697b6","system_id":"levelo_inurba_marseille","lat":43.31704,"lon":5.37738,"is_reserved":false,"is_disabled":false,"rental_uris":{"android":"levelo://app?vid=4a754460-fadd-46aa-8025-e29151f697b6","ios":"levelo://app?vid=4a754460-fadd-46aa-8025-e29151f697b6"},"vehicle_type_id":"4","last_reported":1686780383,"current_range_meters":30400,"station_id":"ce4bgth2rcd13ifvqch0","pricing_plan_id":"free"},{"bike_id":"2424216c-0462-4ad0-b127-d0366c91b61c","system_id":"levelo_inurba_marseille","lat":43.317075,"lon":5.377367,"is_reserved":false,"is_disabled":false,"rental_uris":{"android":"levelo://app?vid=2424216c-0462-4ad0-b127-d0366c91b61c","ios":"levelo://app?vid=2424216c-0462-4ad0-b127-d0366c91b61c"},"vehicle_type_id":"4","last_reported":1686780383,"current_range_meters":29200,"station_id":"ce4bgth2rcd13ifvqch0","pricing_plan_id":"free"},{"bike_id":"ef612f7d-d6e9-4691-b523-b89b7eee898e","system_id":"levelo_inurba_marseille","lat":43.315293,"lon":5.380349,"is_reserved":false,"is_disabled":false,"rental_uris":{"android":"levelo://app?vid=ef612f7d-d6e9-4691-b523-b89b7eee898e","ios":"levelo://app?vid=ef612f7d-d6e9-4691-b523-b89b7eee898e"},"vehicle_type_id":"4","last_reported":1686780383,"current_range_meters":12000,"station_id":"ce4bhsp2rcd13ifvqi50","pricing_plan_id":"free"},{"bike_id":"e432d333-e251-4193-b8ef-a6ff9c1ebe26","system_id":"levelo_inurba_marseille","lat":43.315293,"lon":5.380349,"is_reserved":false,"is_disabled":false,"rental_uris":{"android":"levelo://app?vid=e432d333-e251-4193-b8ef-a6ff9c1ebe26","ios":"levelo://app?vid=e432d333-e251-4193-b8ef-a6ff9c1ebe26"},"vehicle_type_id":"4","last_reported":1686780383,"current_range_meters":14800,"station_id":"ce4bhsp2rcd13ifvqi50","pricing_plan_id":"free"},{"bike_id":"b25205f8-0d3a-4ac1-825e-e91c97cbf694","system_id":"levelo_inurba_marseille","lat":43.301939,"lon":5.366286,"is_reserved":false,"is_disabled":false,"rental_uris":{"android":"levelo://app?vid=b25205f8-0d3a-4ac1-825e-e91c97cbf694","ios":"levelo://app?vid=b25205f8-0d3a-4ac1-825e-e91c97cbf694"},"vehicle_type_id":"4","last_reported":1686780383,"current_range_meters":4000,"station_id":"ce4bgrh2rcd13ifvqc8g","pricing_plan_id":"free"},{"bike_id":"a0866956-2522-48be-8d4f-ca78bdd1208c","system_id":"levelo_inurba_marseille","lat":43.30798,"lon":5.38144,"is_reserved":false,"is_disabled":false,"rental_uris":{"android":"levelo://app?vid=a0866956-2522-48be-8d4f-ca78bdd1208c","ios":"levelo://app?vid=a0866956-2522-48be-8d4f-ca78bdd1208c"},"vehicle_type_id":"4","last_reported":1686780383,"current_range_meters":0,"station_id":"ce4bgt12rcd13ifvqce0","pricing_plan_id":"free"},{"bike_id":"1a3626b5-aecb-4692-bd50-26857f2df8ba","system_id":"levelo_inurba_marseille","lat":43.308012,"lon":5.381511,"is_reserved":false,"is_disabled":false,"rental_uris":{"android":"levelo://app?vid=1a3626b5-aecb-4692-bd50-26857f2df8ba","ios":"levelo://app?vid=1a3626b5-aecb-4692-bd50-26857f2df8ba"},"vehicle_type_id":"4","last_reported":1686780383,"current_range_meters":14000,"station_id":"ce4bgt12rcd13ifvqce0","pricing_plan_id":"free"},{"bike_id":"58eb5455-b45d-45c4-9850-c29e286995fc","system_id":"levelo_inurba_marseille","lat":43.308012,"lon":5.381511,"is_reserved":false,"is_disabled":false,"rental_uris":{"android":"levelo://app?vid=58eb5455-b45d-45c4-9850-c29e286995fc","ios":"levelo://app?vid=58eb5455-b45d-45c4-9850-c29e286995fc"},"vehicle_type_id":"4","last_reported":1686780383,"current_range_meters":13200,"station_id":"ce4bgt12rcd13ifvqce0","pricing_plan_id":"free"},{"bike_id":"ae33307b-fcd5-479b-9ae1-9002ed226c6e","system_id":"levelo_inurba_marseille","lat":43.308012,"lon":5.381511,"is_reserved":false,"is_disabled":false,"rental_uris":{"android":"levelo://app?vid=ae33307b-fcd5-479b-9ae1-9002ed226c6e","ios":"levelo://app?vid=ae33307b-fcd5-479b-9ae1-9002ed226c6e"},"vehicle_type_id":"4","last_reported":1686780383,"current_range_meters":22400,"station_id":"ce4bgt12rcd13ifvqce0","pricing_plan_id":"free"},{"bike_id":"e90d39f9-990d-4b51-8677-64cf34e2fb27","system_id":"levelo_inurba_marseille","lat":43.308012,"lon":5.381511,"is_reserved":false,"is_disabled":false,"rental_uris":{"android":"levelo://app?vid=e90d39f9-990d-4b51-8677-64cf34e2fb27","ios":"levelo://app?vid=e90d39f9-990d-4b51-8677-64cf34e2fb27"},"vehicle_type_id":"4","last_reported":1686780383,"current_range_meters":18000,"station_id":"ce4bgt12rcd13ifvqce0","pricing_plan_id":"free"},{"bike_id":"d0c16b77-129b-4acf-8eab-4b13542d3973","system_id":"levelo_inurba_marseille","lat":43.308012,"lon":5.381511,"is_reserved":false,"is_disabled":false,"rental_uris":{"android":"levelo://app?vid=d0c16b77-129b-4acf-8eab-4b13542d3973","ios":"levelo://app?vid=d0c16b77-129b-4acf-8eab-4b13542d3973"},"vehicle_type_id":"4","last_reported":1686780383,"current_range_meters":22000,"station_id":"ce4bgt12rcd13ifvqce0","pricing_plan_id":"free"},{"bike_id":"03dd8338-724e-46d4-8ac7-eb9b5a0caeea","system_id":"levelo_inurba_marseille","lat":43.308012,"lon":5.381511,"is_reserved":false,"is_disabled":false,"rental_uris":{"android":"levelo://app?vid=03dd8338-724e-46d4-8ac7-eb9b5a0caeea","ios":"levelo://app?vid=03dd8338-724e-46d4-8ac7-eb9b5a0caeea"},"vehicle_type_id":"4","last_reported":1686780383,"current_range_meters":15200,"station_id":"ce4bgt12rcd13ifvqce0","pricing_plan_id":"free"},{"bike_id":"5f8e9499-d3f6-4390-95da-e72254a0d27f","system_id":"levelo_inurba_marseille","lat":43.304678,"lon":5.379038,"is_reserved":false,"is_disabled":false,"rental_uris":{"android":"levelo://app?vid=5f8e9499-d3f6-4390-95da-e72254a0d27f","ios":"levelo://app?vid=5f8e9499-d3f6-4390-95da-e72254a0d27f"},"vehicle_type_id":"4","last_reported":1686780383,"current_range_meters":26400,"station_id":"ce4bgup2rcd13ifvqcn0","pricing_plan_id":"free"},{"bike_id":"5f9e92fc-1510-4e95-b251-e2e85948b5ed","system_id":"levelo_inurba_marseille","lat":43.304606,"lon":5.379026,"is_reserved":false,"is_disabled":false,"rental_uris":{"android":"levelo://app?vid=5f9e92fc-1510-4e95-b251-e2e85948b5ed","ios":"levelo://app?vid=5f9e92fc-1510-4e95-b251-e2e85948b5ed"},"vehicle_type_id":"4","last_reported":1686780383,"current_range_meters":31200,"station_id":"ce4bgup2rcd13ifvqcn0","pricing_plan_id":"free"},{"bike_id":"fc4a69da-5dee-4c68-8631-20ee11bc487b","system_id":"levelo_inurba_marseille","lat":43.304606,"lon":5.379026,"is_reserved":false,"is_disabled":false,"rental_uris":{"android":"levelo://app?vid=fc4a69da-5dee-4c68-8631-20ee11bc487b","ios":"levelo://app?vid=fc4a69da-5dee-4c68-8631-20ee11bc487b"},"vehicle_type_id":"4","last_reported":1686780383,"current_range_meters":27200,"station_id":"ce4bgup2rcd13ifvqcn0","pricing_plan_id":"free"},{"bike_id":"e987f850-540e-43a1-aabe-0e6eeb7d6110","system_id":"levelo_inurba_marseille","lat":43.304606,"lon":5.379026,"is_reserved":false,"is_disabled":false,"rental_uris":{"android":"levelo://app?vid=e987f850-540e-43a1-aabe-0e6eeb7d6110","ios":"levelo://app?vid=e987f850-540e-43a1-aabe-0e6eeb7d6110"},"vehicle_type_id":"4","last_reported":1686780383,"current_range_meters":31200,"station_id":"ce4bgup2rcd13ifvqcn0","pricing_plan_id":"free"},{"bike_id":"32827146-2d6b-4fb1-b00e-6b2f535ca544","system_id":"levelo_inurba_marseille","lat":43.304606,"lon":5.379026,"is_reserved":false,"is_disabled":false,"rental_uris":{"android":"levelo://app?vid=32827146-2d6b-4fb1-b00e-6b2f535ca544","ios":"levelo://app?vid=32827146-2d6b-4fb1-b00e-6b2f535ca544"},"vehicle_type_id":"4","last_reported":1686780383,"current_range_meters":31200,"station_id":"ce4bgup2rcd13ifvqcn0","pricing_plan_id":"free"},{"bike_id":"fb2957c8-697f-4c89-a2f5-f6ad5f444f9c","system_id":"levelo_inurba_marseille","lat":43.304748,"lon":5.379187,"is_reserved":false,"is_disabled":false,"rental_uris":{"android":"levelo://app?vid=fb2957c8-697f-4c89-a2f5-f6ad5f444f9c","ios":"levelo://app?vid=fb2957c8-697f-4c89-a2f5-f6ad5f444f9c"},"vehicle_type_id":"4","last_reported":1686780383,"current_range_meters":28400,"station_id":"","pricing_plan_id":"free"},{"bike_id":"6c931bbb-ed2d-455e-a1ad-fb8b005991db","system_id":"levelo_inurba_marseille","lat":43.304723,"lon":5.379179,"is_reserved":false,"is_disabled":false,"rental_uris":{"android":"levelo://app?vid=6c931bbb-ed2d-455e-a1ad-fb8b005991db","ios":"levelo://app?vid=6c931bbb-ed2d-455e-a1ad-fb8b005991db"},"vehicle_type_id":"4","last_reported":1686780383,"current_range_meters":15200,"station_id":"","pricing_plan_id":"free"},{"bike_id":"599d30bc-1527-4d76-9af8-35c376949378","system_id":"levelo_inurba_marseille","lat":43.304723,"lon":5.379181,"is_reserved":false,"is_disabled":false,"rental_uris":{"android":"levelo://app?vid=599d30bc-1527-4d76-9af8-35c376949378","ios":"levelo://app?vid=599d30bc-1527-4d76-9af8-35c376949378"},"vehicle_type_id":"4","last_reported":1686780383,"current_range_meters":28400,"station_id":"ce4bgup2rcd13ifvqcn0","pricing_plan_id":"free"},{"bike_id":"ce3abb9d-8eca-41d1-a86a-b98c5fed48d4","system_id":"levelo_inurba_marseille","lat":43.304706,"lon":5.379165,"is_reserved":false,"is_disabled":false,"rental_uris":{"android":"levelo://app?vid=ce3abb9d-8eca-41d1-a86a-b98c5fed48d4","ios":"levelo://app?vid=ce3abb9d-8eca-41d1-a86a-b98c5fed48d4"},"vehicle_type_id":"4","last_reported":1686780383,"current_range_meters":29600,"station_id":"ce4bgup2rcd13ifvqcn0","pricing_plan_id":"free"},{"bike_id":"0c806ee1-3cea-4cc6-b036-22bc0d9c8611","system_id":"levelo_inurba_marseille","lat":43.302784,"lon":5.377158,"is_reserved":false,"is_disabled":false,"rental_uris":{"android":"levelo://app?vid=0c806ee1-3cea-4cc6-b036-22bc0d9c8611","ios":"levelo://app?vid=0c806ee1-3cea-4cc6-b036-22bc0d9c8611"},"vehicle_type_id":"4","last_reported":1686780383,"current_range_meters":31200,"station_id":"ce4bguh2rcd13ifvqcj0","pricing_plan_id":"free"},{"bike_id":"69591c0a-ceb6-426d-aff0-506fd1c51201","system_id":"levelo_inurba_marseille","lat":43.302784,"lon":5.377158,"is_reserved":false,"is_disabled":false,"rental_uris":{"android":"levelo://app?vid=69591c0a-ceb6-426d-aff0-506fd1c51201","ios":"levelo://app?vid=69591c0a-ceb6-426d-aff0-506fd1c51201"},"vehicle_type_id":"4","last_reported":1686780383,"current_range_meters":22800,"station_id":"ce4bguh2rcd13ifvqcj0","pricing_plan_id":"free"},{"bike_id":"5f42bfde-9006-4fc2-a7d5-46fc71e87857","system_id":"levelo_inurba_marseille","lat":43.302784,"lon":5.377158,"is_reserved":false,"is_disabled":false,"rental_uris":{"android":"levelo://app?vid=5f42bfde-9006-4fc2-a7d5-46fc71e87857","ios":"levelo://app?vid=5f42bfde-9006-4fc2-a7d5-46fc71e87857"},"vehicle_type_id":"4","last_reported":1686780383,"current_range_meters":31200,"station_id":"ce4bguh2rcd13ifvqcj0","pricing_plan_id":"free"},{"bike_id":"fa8b8364-3e16-4860-ac15-1c08bfc950e9","system_id":"levelo_inurba_marseille","lat":43.32016,"lon":5.38143,"is_reserved":false,"is_disabled":false,"rental_uris":{"android":"levelo://app?vid=fa8b8364-3e16-4860-ac15-1c08bfc950e9","ios":"levelo://app?vid=fa8b8364-3e16-4860-ac15-1c08bfc950e9"},"vehicle_type_id":"4","last_reported":1686780383,"current_range_meters":11600,"station_id":"","pricing_plan_id":"free"},{"bike_id":"bda24669-0929-4d76-b661-01f7c78a68e6","system_id":"levelo_inurba_marseille","lat":43.319935,"lon":5.381699,"is_reserved":false,"is_disabled":false,"rental_uris":{"android":"levelo://app?vid=bda24669-0929-4d76-b661-01f7c78a68e6","ios":"levelo://app?vid=bda24669-0929-4d76-b661-01f7c78a68e6"},"vehicle_type_id":"4","last_reported":1686780383,"current_range_meters":17200,"station_id":"ce4bhr12rcd13ifvqhpg","pricing_plan_id":"free"},{"bike_id":"1e8a6aaf-2f6a-41bb-b4b6-6f85ca81452f","system_id":"levelo_inurba_marseille","lat":43.313571,"lon":5.384829,"is_reserved":false,"is_disabled":false,"rental_uris":{"android":"levelo://app?vid=1e8a6aaf-2f6a-41bb-b4b6-6f85ca81452f","ios":"levelo://app?vid=1e8a6aaf-2f6a-41bb-b4b6-6f85ca81452f"},"vehicle_type_id":"4","last_reported":1686780383,"current_range_meters":25600,"station_id":"ce4bgt92rcd13ifvqcf0","pricing_plan_id":"free"},{"bike_id":"f7dd2ae8-eac5-4509-aab4-4c1e804b0f04","system_id":"levelo_inurba_marseille","lat":43.299222,"lon":5.365554,"is_reserved":false,"is_disabled":false,"rental_uris":{"android":"levelo://app?vid=f7dd2ae8-eac5-4509-aab4-4c1e804b0f04","ios":"levelo://app?vid=f7dd2ae8-eac5-4509-aab4-4c1e804b0f04"},"vehicle_type_id":"4","last_reported":1686780383,"current_range_meters":22000,"station_id":"ce4bgm92rcd13ifvqbr0","pricing_plan_id":"free"},{"bike_id":"9930542d-01f4-4c4c-a822-dd2f4feb6a31","system_id":"levelo_inurba_marseille","lat":43.2993,"lon":5.36527,"is_reserved":false,"is_disabled":false,"rental_uris":{"android":"levelo://app?vid=9930542d-01f4-4c4c-a822-dd2f4feb6a31","ios":"levelo://app?vid=9930542d-01f4-4c4c-a822-dd2f4feb6a31"},"vehicle_type_id":"4","last_reported":1686780383,"current_range_meters":30000,"station_id":"","pricing_plan_id":"free"},{"bike_id":"2e7531b0-11fa-435d-9c68-67db9faad818","system_id":"levelo_inurba_marseille","lat":43.30048,"lon":5.37524,"is_reserved":false,"is_disabled":false,"rental_uris":{"android":"levelo://app?vid=2e7531b0-11fa-435d-9c68-67db9faad818","ios":"levelo://app?vid=2e7531b0-11fa-435d-9c68-67db9faad818"},"vehicle_type_id":"4","last_reported":1686780383,"current_range_meters":18000,"station_id":"","pricing_plan_id":"free"},{"bike_id":"20df03fc-8c81-4577-829e-d4d562d56a0c","system_id":"levelo_inurba_marseille","lat":43.30539,"lon":5.38425,"is_reserved":false,"is_disabled":false,"rental_uris":{"android":"levelo://app?vid=20df03fc-8c81-4577-829e-d4d562d56a0c","ios":"levelo://app?vid=20df03fc-8c81-4577-829e-d4d562d56a0c"},"vehicle_type_id":"4","last_reported":1686780383,"current_range_meters":22400,"station_id":"","pricing_plan_id":"free"},{"bike_id":"bd5bb788-41e4-47f8-8a77-64f4bec35d14","system_id":"levelo_inurba_marseille","lat":43.299243,"lon":5.37481,"is_reserved":false,"is_disabled":false,"rental_uris":{"android":"levelo://app?vid=bd5bb788-41e4-47f8-8a77-64f4bec35d14","ios":"levelo://app?vid=bd5bb788-41e4-47f8-8a77-64f4bec35d14"},"vehicle_type_id":"4","last_reported":1686780383,"current_range_meters":19200,"station_id":"ce4bgjh2rcd13ifvqbg0","pricing_plan_id":"free"},{"bike_id":"dd3df4bf-6bca-4fd7-a79d-559a8c3da3bc","system_id":"levelo_inurba_marseille","lat":43.299243,"lon":5.37481,"is_reserved":false,"is_disabled":false,"rental_uris":{"android":"levelo://app?vid=dd3df4bf-6bca-4fd7-a79d-559a8c3da3bc","ios":"levelo://app?vid=dd3df4bf-6bca-4fd7-a79d-559a8c3da3bc"},"vehicle_type_id":"4","last_reported":1686780383,"current_range_meters":17200,"station_id":"ce4bgjh2rcd13ifvqbg0","pricing_plan_id":"free"},{"bike_id":"e5e20eec-62c5-445e-a27f-d33fca43c1e9","system_id":"levelo_inurba_marseille","lat":43.299243,"lon":5.37481,"is_reserved":false,"is_disabled":false,"rental_uris":{"android":"levelo://app?vid=e5e20eec-62c5-445e-a27f-d33fca43c1e9","ios":"levelo://app?vid=e5e20eec-62c5-445e-a27f-d33fca43c1e9"},"vehicle_type_id":"4","last_reported":1686780383,"current_range_meters":6800,"station_id":"ce4bgjh2rcd13ifvqbg0","pricing_plan_id":"free"},{"bike_id":"617c77aa-6bb1-43e2-8672-434ef3d512d1","system_id":"levelo_inurba_marseille","lat":43.311722,"lon":5.387247,"is_reserved":false,"is_disabled":false,"rental_uris":{"android":"levelo://app?vid=617c77aa-6bb1-43e2-8672-434ef3d512d1","ios":"levelo://app?vid=617c77aa-6bb1-43e2-8672-434ef3d512d1"},"vehicle_type_id":"4","last_reported":1686780383,"current_range_meters":30400,"station_id":"ce4bgv12rcd13ifvqcp0","pricing_plan_id":"free"},{"bike_id":"b6b531d8-ed02-42a2-bb7f-70b9e608624a","system_id":"levelo_inurba_marseille","lat":43.311722,"lon":5.387247,"is_reserved":false,"is_disabled":false,"rental_uris":{"android":"levelo://app?vid=b6b531d8-ed02-42a2-bb7f-70b9e608624a","ios":"levelo://app?vid=b6b531d8-ed02-42a2-bb7f-70b9e608624a"},"vehicle_type_id":"4","last_reported":1686780383,"current_range_meters":23600,"station_id":"ce4bgv12rcd13ifvqcp0","pricing_plan_id":"free"},{"bike_id":"d71beb9a-427c-4bad-960e-55fdc1b35b3b","system_id":"levelo_inurba_marseille","lat":43.31531,"lon":5.38743,"is_reserved":false,"is_disabled":false,"rental_uris":{"android":"levelo://app?vid=d71beb9a-427c-4bad-960e-55fdc1b35b3b","ios":"levelo://app?vid=d71beb9a-427c-4bad-960e-55fdc1b35b3b"},"vehicle_type_id":"4","last_reported":1686780383,"current_range_meters":2400,"station_id":"","pricing_plan_id":"free"},{"bike_id":"b042e6b8-71b4-448b-b575-8d88152c6fa5","system_id":"levelo_inurba_marseille","lat":43.29787,"lon":5.37093,"is_reserved":false,"is_disabled":false,"rental_uris":{"android":"levelo://app?vid=b042e6b8-71b4-448b-b575-8d88152c6fa5","ios":"levelo://app?vid=b042e6b8-71b4-448b-b575-8d88152c6fa5"},"vehicle_type_id":"4","last_reported":1686780383,"current_range_meters":0,"station_id":"ce4bgop2rcd13ifvqc1g","pricing_plan_id":"free"},{"bike_id":"88146156-0566-4990-a431-3604a02feb1c","system_id":"levelo_inurba_marseille","lat":43.297774,"lon":5.370875,"is_reserved":false,"is_disabled":false,"rental_uris":{"android":"levelo://app?vid=88146156-0566-4990-a431-3604a02feb1c","ios":"levelo://app?vid=88146156-0566-4990-a431-3604a02feb1c"},"vehicle_type_id":"4","last_reported":1686780383,"current_range_meters":2400,"station_id":"ce4bgop2rcd13ifvqc1g","pricing_plan_id":"free"},{"bike_id":"6938353d-b323-4b5d-9339-e3d5397a084a","system_id":"levelo_inurba_marseille","lat":43.32819,"lon":5.36678,"is_reserved":false,"is_disabled":false,"rental_uris":{"android":"levelo://app?vid=6938353d-b323-4b5d-9339-e3d5397a084a","ios":"levelo://app?vid=6938353d-b323-4b5d-9339-e3d5397a084a"},"vehicle_type_id":"4","last_reported":1686780383,"current_range_meters":29600,"station_id":"ce4bhs92rcd13ifvqi0g","pricing_plan_id":"free"},{"bike_id":"54f6c840-8b46-407c-b594-3587fefcc3c5","system_id":"levelo_inurba_marseille","lat":43.328371,"lon":5.366909,"is_reserved":false,"is_disabled":false,"rental_uris":{"android":"levelo://app?vid=54f6c840-8b46-407c-b594-3587fefcc3c5","ios":"levelo://app?vid=54f6c840-8b46-407c-b594-3587fefcc3c5"},"vehicle_type_id":"4","last_reported":1686780383,"current_range_meters":26000,"station_id":"ce4bhs92rcd13ifvqi0g","pricing_plan_id":"free"},{"bike_id":"1944ddf8-6f52-408b-a2ec-f4ae0d72be9f","system_id":"levelo_inurba_marseille","lat":43.328371,"lon":5.366909,"is_reserved":false,"is_disabled":false,"rental_uris":{"android":"levelo://app?vid=1944ddf8-6f52-408b-a2ec-f4ae0d72be9f","ios":"levelo://app?vid=1944ddf8-6f52-408b-a2ec-f4ae0d72be9f"},"vehicle_type_id":"4","last_reported":1686780383,"current_range_meters":28000,"station_id":"ce4bhs92rcd13ifvqi0g","pricing_plan_id":"free"},{"bike_id":"1ad980b9-54d6-425f-bde9-1730a0efba00","system_id":"levelo_inurba_marseille","lat":43.328371,"lon":5.366909,"is_reserved":false,"is_disabled":false,"rental_uris":{"android":"levelo://app?vid=1ad980b9-54d6-425f-bde9-1730a0efba00","ios":"levelo://app?vid=1ad980b9-54d6-425f-bde9-1730a0efba00"},"vehicle_type_id":"4","last_reported":1686780383,"current_range_meters":15600,"station_id":"ce4bhs92rcd13ifvqi0g","pricing_plan_id":"free"},{"bike_id":"effe3cc0-05e6-44e5-8a1f-ad27c83e859e","system_id":"levelo_inurba_marseille","lat":43.2968,"lon":5.37291,"is_reserved":false,"is_disabled":false,"rental_uris":{"android":"levelo://app?vid=effe3cc0-05e6-44e5-8a1f-ad27c83e859e","ios":"levelo://app?vid=effe3cc0-05e6-44e5-8a1f-ad27c83e859e"},"vehicle_type_id":"4","last_reported":1686780383,"current_range_meters":15200,"station_id":"ce4bgk12rcd13ifvqbj0","pricing_plan_id":"free"},{"bike_id":"88d0330c-5bb0-4a19-9b65-d4683b42e015","system_id":"levelo_inurba_marseille","lat":43.29683,"lon":5.36046,"is_reserved":false,"is_disabled":false,"rental_uris":{"android":"levelo://app?vid=88d0330c-5bb0-4a19-9b65-d4683b42e015","ios":"levelo://app?vid=88d0330c-5bb0-4a19-9b65-d4683b42e015"},"vehicle_type_id":"4","last_reported":1686780383,"current_range_meters":16400,"station_id":"ce4bgpp2rcd13ifvqc3g","pricing_plan_id":"free"},{"bike_id":"27b08699-ec01-43fe-9ed2-85956c67b5e0","system_id":"levelo_inurba_marseille","lat":43.31834,"lon":5.38887,"is_reserved":false,"is_disabled":false,"rental_uris":{"android":"levelo://app?vid=27b08699-ec01-43fe-9ed2-85956c67b5e0","ios":"levelo://app?vid=27b08699-ec01-43fe-9ed2-85956c67b5e0"},"vehicle_type_id":"4","last_reported":1686780383,"current_range_meters":19600,"station_id":"","pricing_plan_id":"free"},{"bike_id":"b81dab5b-c6f3-4fe6-9c21-52a51dd26410","system_id":"levelo_inurba_marseille","lat":43.309589,"lon":5.390258,"is_reserved":false,"is_disabled":false,"rental_uris":{"android":"levelo://app?vid=b81dab5b-c6f3-4fe6-9c21-52a51dd26410","ios":"levelo://app?vid=b81dab5b-c6f3-4fe6-9c21-52a51dd26410"},"vehicle_type_id":"4","last_reported":1686780383,"current_range_meters":28400,"station_id":"ce4bgup2rcd13ifvqco0","pricing_plan_id":"free"},{"bike_id":"0573c44e-3ee4-482a-9ebe-82c0b59af85b","system_id":"levelo_inurba_marseille","lat":43.30956,"lon":5.39027,"is_reserved":false,"is_disabled":false,"rental_uris":{"android":"levelo://app?vid=0573c44e-3ee4-482a-9ebe-82c0b59af85b","ios":"levelo://app?vid=0573c44e-3ee4-482a-9ebe-82c0b59af85b"},"vehicle_type_id":"4","last_reported":1686780383,"current_range_meters":30000,"station_id":"ce4bgup2rcd13ifvqco0","pricing_plan_id":"free"},{"bike_id":"f0aed0bb-bd59-4d51-96ad-4cdd219490c1","system_id":"levelo_inurba_marseille","lat":43.309589,"lon":5.390258,"is_reserved":false,"is_disabled":false,"rental_uris":{"android":"levelo://app?vid=f0aed0bb-bd59-4d51-96ad-4cdd219490c1","ios":"levelo://app?vid=f0aed0bb-bd59-4d51-96ad-4cdd219490c1"},"vehicle_type_id":"4","last_reported":1686780383,"current_range_meters":0,"station_id":"ce4bgup2rcd13ifvqco0","pricing_plan_id":"free"},{"bike_id":"8db09f82-a335-4c87-bd05-28815e352838","system_id":"levelo_inurba_marseille","lat":43.299028,"lon":5.381509,"is_reserved":false,"is_disabled":false,"rental_uris":{"android":"levelo://app?vid=8db09f82-a335-4c87-bd05-28815e352838","ios":"levelo://app?vid=8db09f82-a335-4c87-bd05-28815e352838"},"vehicle_type_id":"4","last_reported":1686780383,"current_range_meters":25600,"station_id":"ce4bgj12rcd13ifvqbc0","pricing_plan_id":"free"},{"bike_id":"916d93a5-683d-4055-b1b0-87ee895896fd","system_id":"levelo_inurba_marseille","lat":43.317557,"lon":5.390173,"is_reserved":false,"is_disabled":false,"rental_uris":{"android":"levelo://app?vid=916d93a5-683d-4055-b1b0-87ee895896fd","ios":"levelo://app?vid=916d93a5-683d-4055-b1b0-87ee895896fd"},"vehicle_type_id":"4","last_reported":1686780383,"current_range_meters":16800,"station_id":"ce4bhqp2rcd13ifvqhng","pricing_plan_id":"free"},{"bike_id":"63e6700a-967e-4bfd-b830-4b8d7bac308e","system_id":"levelo_inurba_marseille","lat":43.317557,"lon":5.390173,"is_reserved":false,"is_disabled":false,"rental_uris":{"android":"levelo://app?vid=63e6700a-967e-4bfd-b830-4b8d7bac308e","ios":"levelo://app?vid=63e6700a-967e-4bfd-b830-4b8d7bac308e"},"vehicle_type_id":"4","last_reported":1686780383,"current_range_meters":31200,"station_id":"ce4bhqp2rcd13ifvqhng","pricing_plan_id":"free"},{"bike_id":"76cbad32-6c47-443c-a067-7631595bb1f2","system_id":"levelo_inurba_marseille","lat":43.317557,"lon":5.390173,"is_reserved":false,"is_disabled":false,"rental_uris":{"android":"levelo://app?vid=76cbad32-6c47-443c-a067-7631595bb1f2","ios":"levelo://app?vid=76cbad32-6c47-443c-a067-7631595bb1f2"},"vehicle_type_id":"4","last_reported":1686780383,"current_range_meters":17200,"station_id":"ce4bhqp2rcd13ifvqhng","pricing_plan_id":"free"},{"bike_id":"75883e3b-c7b8-41aa-afd7-fd1cf07c238e","system_id":"levelo_inurba_marseille","lat":43.317557,"lon":5.390173,"is_reserved":false,"is_disabled":false,"rental_uris":{"android":"levelo://app?vid=75883e3b-c7b8-41aa-afd7-fd1cf07c238e","ios":"levelo://app?vid=75883e3b-c7b8-41aa-afd7-fd1cf07c238e"},"vehicle_type_id":"4","last_reported":1686780383,"current_range_meters":14800,"station_id":"ce4bhqp2rcd13ifvqhng","pricing_plan_id":"free"},{"bike_id":"0f97cc92-228f-4d13-b179-54e36ba0a348","system_id":"levelo_inurba_marseille","lat":43.317557,"lon":5.390173,"is_reserved":false,"is_disabled":false,"rental_uris":{"android":"levelo://app?vid=0f97cc92-228f-4d13-b179-54e36ba0a348","ios":"levelo://app?vid=0f97cc92-228f-4d13-b179-54e36ba0a348"},"vehicle_type_id":"4","last_reported":1686780383,"current_range_meters":26400,"station_id":"ce4bhqp2rcd13ifvqhng","pricing_plan_id":"free"},{"bike_id":"9cf912ce-7b75-47d2-b89d-c9234cd4be73","system_id":"levelo_inurba_marseille","lat":43.317557,"lon":5.390173,"is_reserved":false,"is_disabled":false,"rental_uris":{"android":"levelo://app?vid=9cf912ce-7b75-47d2-b89d-c9234cd4be73","ios":"levelo://app?vid=9cf912ce-7b75-47d2-b89d-c9234cd4be73"},"vehicle_type_id":"4","last_reported":1686780383,"current_range_meters":16000,"station_id":"ce4bhqp2rcd13ifvqhng","pricing_plan_id":"free"},{"bike_id":"bac263b5-65d3-44bc-94a2-42e546d3fcd1","system_id":"levelo_inurba_marseille","lat":43.317557,"lon":5.390173,"is_reserved":false,"is_disabled":false,"rental_uris":{"android":"levelo://app?vid=bac263b5-65d3-44bc-94a2-42e546d3fcd1","ios":"levelo://app?vid=bac263b5-65d3-44bc-94a2-42e546d3fcd1"},"vehicle_type_id":"4","last_reported":1686780383,"current_range_meters":6400,"station_id":"ce4bhqp2rcd13ifvqhng","pricing_plan_id":"free"},{"bike_id":"e26d78b8-a64e-41b2-9052-f08dd3040ca8","system_id":"levelo_inurba_marseille","lat":43.317557,"lon":5.390173,"is_reserved":false,"is_disabled":false,"rental_uris":{"android":"levelo://app?vid=e26d78b8-a64e-41b2-9052-f08dd3040ca8","ios":"levelo://app?vid=e26d78b8-a64e-41b2-9052-f08dd3040ca8"},"vehicle_type_id":"4","last_reported":1686780383,"current_range_meters":15600,"station_id":"ce4bhqp2rcd13ifvqhng","pricing_plan_id":"free"},{"bike_id":"a699b4ac-c0e6-49e2-a6f4-189ebbcc94b5","system_id":"levelo_inurba_marseille","lat":43.317557,"lon":5.390173,"is_reserved":false,"is_disabled":false,"rental_uris":{"android":"levelo://app?vid=a699b4ac-c0e6-49e2-a6f4-189ebbcc94b5","ios":"levelo://app?vid=a699b4ac-c0e6-49e2-a6f4-189ebbcc94b5"},"vehicle_type_id":"4","last_reported":1686780383,"current_range_meters":22000,"station_id":"ce4bhqp2rcd13ifvqhng","pricing_plan_id":"free"},{"bike_id":"df0ae115-6211-4a40-8990-e627e9aa3eb6","system_id":"levelo_inurba_marseille","lat":43.298037,"lon":5.381066,"is_reserved":false,"is_disabled":false,"rental_uris":{"android":"levelo://app?vid=df0ae115-6211-4a40-8990-e627e9aa3eb6","ios":"levelo://app?vid=df0ae115-6211-4a40-8990-e627e9aa3eb6"},"vehicle_type_id":"4","last_reported":1686780383,"current_range_meters":13200,"station_id":"ce4bgip2rcd13ifvqbb0","pricing_plan_id":"free"},{"bike_id":"928107ba-4713-4754-bc6b-fc4e6e4264dc","system_id":"levelo_inurba_marseille","lat":43.298037,"lon":5.381066,"is_reserved":false,"is_disabled":false,"rental_uris":{"android":"levelo://app?vid=928107ba-4713-4754-bc6b-fc4e6e4264dc","ios":"levelo://app?vid=928107ba-4713-4754-bc6b-fc4e6e4264dc"},"vehicle_type_id":"4","last_reported":1686780383,"current_range_meters":4400,"station_id":"ce4bgip2rcd13ifvqbb0","pricing_plan_id":"free"},{"bike_id":"88ff849b-6e62-4669-a776-b993b2676d42","system_id":"levelo_inurba_marseille","lat":43.304278,"lon":5.388868,"is_reserved":false,"is_disabled":false,"rental_uris":{"android":"levelo://app?vid=88ff849b-6e62-4669-a776-b993b2676d42","ios":"levelo://app?vid=88ff849b-6e62-4669-a776-b993b2676d42"},"vehicle_type_id":"4","last_reported":1686780383,"current_range_meters":20400,"station_id":"ce4bgk12rcd13ifvqbi0","pricing_plan_id":"free"},{"bike_id":"ee1a572e-ba89-4214-83d4-5909187399bd","system_id":"levelo_inurba_marseille","lat":43.304363,"lon":5.388979,"is_reserved":false,"is_disabled":false,"rental_uris":{"android":"levelo://app?vid=ee1a572e-ba89-4214-83d4-5909187399bd","ios":"levelo://app?vid=ee1a572e-ba89-4214-83d4-5909187399bd"},"vehicle_type_id":"4","last_reported":1686780383,"current_range_meters":31200,"station_id":"ce4bgk12rcd13ifvqbi0","pricing_plan_id":"free"},{"bike_id":"dd6bb3f3-ddd9-4632-910c-cda80851d963","system_id":"levelo_inurba_marseille","lat":43.304383,"lon":5.389015,"is_reserved":false,"is_disabled":false,"rental_uris":{"android":"levelo://app?vid=dd6bb3f3-ddd9-4632-910c-cda80851d963","ios":"levelo://app?vid=dd6bb3f3-ddd9-4632-910c-cda80851d963"},"vehicle_type_id":"4","last_reported":1686780383,"current_range_meters":25600,"station_id":"ce4bgk12rcd13ifvqbi0","pricing_plan_id":"free"},{"bike_id":"9758a719-5687-4829-88e7-25a91c7bbd1b","system_id":"levelo_inurba_marseille","lat":43.304278,"lon":5.388868,"is_reserved":false,"is_disabled":false,"rental_uris":{"android":"levelo://app?vid=9758a719-5687-4829-88e7-25a91c7bbd1b","ios":"levelo://app?vid=9758a719-5687-4829-88e7-25a91c7bbd1b"},"vehicle_type_id":"4","last_reported":1686780383,"current_range_meters":27200,"station_id":"ce4bgk12rcd13ifvqbi0","pricing_plan_id":"free"},{"bike_id":"ab87c8f0-c459-4b08-9f59-6d6bf19fd1a5","system_id":"levelo_inurba_marseille","lat":43.313571,"lon":5.384829,"is_reserved":false,"is_disabled":false,"rental_uris":{"android":"levelo://app?vid=ab87c8f0-c459-4b08-9f59-6d6bf19fd1a5","ios":"levelo://app?vid=ab87c8f0-c459-4b08-9f59-6d6bf19fd1a5"},"vehicle_type_id":"4","last_reported":1686780383,"current_range_meters":18000,"station_id":"ce4bgt92rcd13ifvqcf0","pricing_plan_id":"free"},{"bike_id":"7a06672e-06fe-422c-b0ba-c17245fa9c9c","system_id":"levelo_inurba_marseille","lat":43.32367,"lon":5.388836,"is_reserved":false,"is_disabled":false,"rental_uris":{"android":"levelo://app?vid=7a06672e-06fe-422c-b0ba-c17245fa9c9c","ios":"levelo://app?vid=7a06672e-06fe-422c-b0ba-c17245fa9c9c"},"vehicle_type_id":"4","last_reported":1686780383,"current_range_meters":16800,"station_id":"ce4bhqp2rcd13ifvqhog","pricing_plan_id":"free"},{"bike_id":"928c8f19-7e0e-4aea-b1a6-34954bb55ba2","system_id":"levelo_inurba_marseille","lat":43.32367,"lon":5.388836,"is_reserved":false,"is_disabled":false,"rental_uris":{"android":"levelo://app?vid=928c8f19-7e0e-4aea-b1a6-34954bb55ba2","ios":"levelo://app?vid=928c8f19-7e0e-4aea-b1a6-34954bb55ba2"},"vehicle_type_id":"4","last_reported":1686780383,"current_range_meters":14800,"station_id":"ce4bhqp2rcd13ifvqhog","pricing_plan_id":"free"},{"bike_id":"2c9ad911-25e0-4222-8751-d809dfadd582","system_id":"levelo_inurba_marseille","lat":43.32367,"lon":5.388836,"is_reserved":false,"is_disabled":false,"rental_uris":{"android":"levelo://app?vid=2c9ad911-25e0-4222-8751-d809dfadd582","ios":"levelo://app?vid=2c9ad911-25e0-4222-8751-d809dfadd582"},"vehicle_type_id":"4","last_reported":1686780383,"current_range_meters":14000,"station_id":"ce4bhqp2rcd13ifvqhog","pricing_plan_id":"free"},{"bike_id":"d776aece-fea5-498d-a394-58e4b403919d","system_id":"levelo_inurba_marseille","lat":43.32367,"lon":5.388836,"is_reserved":false,"is_disabled":false,"rental_uris":{"android":"levelo://app?vid=d776aece-fea5-498d-a394-58e4b403919d","ios":"levelo://app?vid=d776aece-fea5-498d-a394-58e4b403919d"},"vehicle_type_id":"4","last_reported":1686780383,"current_range_meters":20800,"station_id":"ce4bhqp2rcd13ifvqhog","pricing_plan_id":"free"},{"bike_id":"d06456ec-a075-49ef-88a6-a611e3db32cf","system_id":"levelo_inurba_marseille","lat":43.32367,"lon":5.38886,"is_reserved":false,"is_disabled":false,"rental_uris":{"android":"levelo://app?vid=d06456ec-a075-49ef-88a6-a611e3db32cf","ios":"levelo://app?vid=d06456ec-a075-49ef-88a6-a611e3db32cf"},"vehicle_type_id":"4","last_reported":1686780383,"current_range_meters":16800,"station_id":"ce4bhqp2rcd13ifvqhog","pricing_plan_id":"free"},{"bike_id":"3896046a-18d4-4151-9fd4-0b0b9048de46","system_id":"levelo_inurba_marseille","lat":43.29594,"lon":5.3809,"is_reserved":false,"is_disabled":false,"rental_uris":{"android":"levelo://app?vid=3896046a-18d4-4151-9fd4-0b0b9048de46","ios":"levelo://app?vid=3896046a-18d4-4151-9fd4-0b0b9048de46"},"vehicle_type_id":"4","last_reported":1686780383,"current_range_meters":22400,"station_id":"","pricing_plan_id":"free"},{"bike_id":"b902aa51-a9ec-4954-9b92-469a9beb8f2f","system_id":"levelo_inurba_marseille","lat":43.309589,"lon":5.390258,"is_reserved":false,"is_disabled":false,"rental_uris":{"android":"levelo://app?vid=b902aa51-a9ec-4954-9b92-469a9beb8f2f","ios":"levelo://app?vid=b902aa51-a9ec-4954-9b92-469a9beb8f2f"},"vehicle_type_id":"4","last_reported":1686780383,"current_range_meters":12800,"station_id":"ce4bgup2rcd13ifvqco0","pricing_plan_id":"free"},{"bike_id":"6ee54b35-5062-431e-8ad7-4a572e5feaa6","system_id":"levelo_inurba_marseille","lat":43.29281,"lon":5.36845,"is_reserved":false,"is_disabled":false,"rental_uris":{"android":"levelo://app?vid=6ee54b35-5062-431e-8ad7-4a572e5feaa6","ios":"levelo://app?vid=6ee54b35-5062-431e-8ad7-4a572e5feaa6"},"vehicle_type_id":"4","last_reported":1686780383,"current_range_meters":15200,"station_id":"ce4bhbp2rcd13ifvqesg","pricing_plan_id":"free"},{"bike_id":"557e6f19-b01f-4da5-9a61-f16ab3863897","system_id":"levelo_inurba_marseille","lat":43.29543,"lon":5.3814,"is_reserved":false,"is_disabled":false,"rental_uris":{"android":"levelo://app?vid=557e6f19-b01f-4da5-9a61-f16ab3863897","ios":"levelo://app?vid=557e6f19-b01f-4da5-9a61-f16ab3863897"},"vehicle_type_id":"4","last_reported":1686780383,"current_range_meters":0,"station_id":"","pricing_plan_id":"free"},{"bike_id":"ffc74d72-7356-42fd-9735-1bfc1bae04a0","system_id":"levelo_inurba_marseille","lat":43.305994,"lon":5.393687,"is_reserved":false,"is_disabled":false,"rental_uris":{"android":"levelo://app?vid=ffc74d72-7356-42fd-9735-1bfc1bae04a0","ios":"levelo://app?vid=ffc74d72-7356-42fd-9735-1bfc1bae04a0"},"vehicle_type_id":"4","last_reported":1686780383,"current_range_meters":22400,"station_id":"ce4bh0p2rcd13ifvqd80","pricing_plan_id":"free"},{"bike_id":"deef2b09-ecf0-43cd-a759-f8cd8f7a0fae","system_id":"levelo_inurba_marseille","lat":43.305994,"lon":5.393687,"is_reserved":false,"is_disabled":false,"rental_uris":{"android":"levelo://app?vid=deef2b09-ecf0-43cd-a759-f8cd8f7a0fae","ios":"levelo://app?vid=deef2b09-ecf0-43cd-a759-f8cd8f7a0fae"},"vehicle_type_id":"4","last_reported":1686780383,"current_range_meters":13600,"station_id":"ce4bh0p2rcd13ifvqd80","pricing_plan_id":"free"},{"bike_id":"5baed6cc-3e93-4a59-beff-bab39f82097e","system_id":"levelo_inurba_marseille","lat":43.305994,"lon":5.393687,"is_reserved":false,"is_disabled":false,"rental_uris":{"android":"levelo://app?vid=5baed6cc-3e93-4a59-beff-bab39f82097e","ios":"levelo://app?vid=5baed6cc-3e93-4a59-beff-bab39f82097e"},"vehicle_type_id":"4","last_reported":1686780383,"current_range_meters":2000,"station_id":"ce4bh0p2rcd13ifvqd80","pricing_plan_id":"free"},{"bike_id":"52d9ae30-a7ea-44e1-8243-9eb239a2a9af","system_id":"levelo_inurba_marseille","lat":43.305994,"lon":5.393687,"is_reserved":false,"is_disabled":false,"rental_uris":{"android":"levelo://app?vid=52d9ae30-a7ea-44e1-8243-9eb239a2a9af","ios":"levelo://app?vid=52d9ae30-a7ea-44e1-8243-9eb239a2a9af"},"vehicle_type_id":"4","last_reported":1686780383,"current_range_meters":31200,"station_id":"ce4bh0p2rcd13ifvqd80","pricing_plan_id":"free"},{"bike_id":"349d482b-b6de-4fcc-8dfd-1bb14d5b206d","system_id":"levelo_inurba_marseille","lat":43.302992,"lon":5.392136,"is_reserved":false,"is_disabled":false,"rental_uris":{"android":"levelo://app?vid=349d482b-b6de-4fcc-8dfd-1bb14d5b206d","ios":"levelo://app?vid=349d482b-b6de-4fcc-8dfd-1bb14d5b206d"},"vehicle_type_id":"4","last_reported":1686780383,"current_range_meters":28400,"station_id":"ce4bgkh2rcd13ifvqbk0","pricing_plan_id":"free"},{"bike_id":"78412d65-39db-43c8-8df5-273fb8f69008","system_id":"levelo_inurba_marseille","lat":43.2936,"lon":5.37835,"is_reserved":false,"is_disabled":false,"rental_uris":{"android":"levelo://app?vid=78412d65-39db-43c8-8df5-273fb8f69008","ios":"levelo://app?vid=78412d65-39db-43c8-8df5-273fb8f69008"},"vehicle_type_id":"4","last_reported":1686780383,"current_range_meters":10000,"station_id":"ce4bgjh2rcd13ifvqbf0","pricing_plan_id":"free"},{"bike_id":"878797f0-2199-459d-85f6-59805c8919ff","system_id":"levelo_inurba_marseille","lat":43.2936,"lon":5.37835,"is_reserved":false,"is_disabled":false,"rental_uris":{"android":"levelo://app?vid=878797f0-2199-459d-85f6-59805c8919ff","ios":"levelo://app?vid=878797f0-2199-459d-85f6-59805c8919ff"},"vehicle_type_id":"4","last_reported":1686780383,"current_range_meters":29200,"station_id":"ce4bgjh2rcd13ifvqbf0","pricing_plan_id":"free"},{"bike_id":"8ccca87f-c8f8-455d-9d6a-1b5cb1861978","system_id":"levelo_inurba_marseille","lat":43.2936,"lon":5.37835,"is_reserved":false,"is_disabled":false,"rental_uris":{"android":"levelo://app?vid=8ccca87f-c8f8-455d-9d6a-1b5cb1861978","ios":"levelo://app?vid=8ccca87f-c8f8-455d-9d6a-1b5cb1861978"},"vehicle_type_id":"4","last_reported":1686780383,"current_range_meters":0,"station_id":"ce4bgjh2rcd13ifvqbf0","pricing_plan_id":"free"},{"bike_id":"7dbb29e8-cc91-4ba7-ab82-b10c9cc630a9","system_id":"levelo_inurba_marseille","lat":43.291675,"lon":5.371583,"is_reserved":false,"is_disabled":false,"rental_uris":{"android":"levelo://app?vid=7dbb29e8-cc91-4ba7-ab82-b10c9cc630a9","ios":"levelo://app?vid=7dbb29e8-cc91-4ba7-ab82-b10c9cc630a9"},"vehicle_type_id":"4","last_reported":1686780383,"current_range_meters":8000,"station_id":"ce4bha92rcd13ifvqeh0","pricing_plan_id":"free"},{"bike_id":"3ae7f5f6-a4db-4896-b31b-afdc9b4db92d","system_id":"levelo_inurba_marseille","lat":43.309038,"lon":5.396546,"is_reserved":false,"is_disabled":false,"rental_uris":{"android":"levelo://app?vid=3ae7f5f6-a4db-4896-b31b-afdc9b4db92d","ios":"levelo://app?vid=3ae7f5f6-a4db-4896-b31b-afdc9b4db92d"},"vehicle_type_id":"4","last_reported":1686780383,"current_range_meters":31200,"station_id":"ce4bh012rcd13ifvqcv0","pricing_plan_id":"free"},{"bike_id":"01a22bad-04c1-4729-ada7-74cebfcca3f4","system_id":"levelo_inurba_marseille","lat":43.309038,"lon":5.396546,"is_reserved":false,"is_disabled":false,"rental_uris":{"android":"levelo://app?vid=01a22bad-04c1-4729-ada7-74cebfcca3f4","ios":"levelo://app?vid=01a22bad-04c1-4729-ada7-74cebfcca3f4"},"vehicle_type_id":"4","last_reported":1686780383,"current_range_meters":29600,"station_id":"ce4bh012rcd13ifvqcv0","pricing_plan_id":"free"},{"bike_id":"ab50af03-6c60-4508-8c7b-6c23c98eae73","system_id":"levelo_inurba_marseille","lat":43.309038,"lon":5.396546,"is_reserved":false,"is_disabled":false,"rental_uris":{"android":"levelo://app?vid=ab50af03-6c60-4508-8c7b-6c23c98eae73","ios":"levelo://app?vid=ab50af03-6c60-4508-8c7b-6c23c98eae73"},"vehicle_type_id":"4","last_reported":1686780383,"current_range_meters":26000,"station_id":"ce4bh012rcd13ifvqcv0","pricing_plan_id":"free"},{"bike_id":"a4ab3a69-dbab-45d5-a4e0-bc50df68aa5a","system_id":"levelo_inurba_marseille","lat":43.309038,"lon":5.396546,"is_reserved":false,"is_disabled":false,"rental_uris":{"android":"levelo://app?vid=a4ab3a69-dbab-45d5-a4e0-bc50df68aa5a","ios":"levelo://app?vid=a4ab3a69-dbab-45d5-a4e0-bc50df68aa5a"},"vehicle_type_id":"4","last_reported":1686780383,"current_range_meters":31200,"station_id":"ce4bh012rcd13ifvqcv0","pricing_plan_id":"free"},{"bike_id":"72e4d3c3-37f7-4328-972f-63c39f2e6013","system_id":"levelo_inurba_marseille","lat":43.31323,"lon":5.39684,"is_reserved":false,"is_disabled":false,"rental_uris":{"android":"levelo://app?vid=72e4d3c3-37f7-4328-972f-63c39f2e6013","ios":"levelo://app?vid=72e4d3c3-37f7-4328-972f-63c39f2e6013"},"vehicle_type_id":"4","last_reported":1686780383,"current_range_meters":20400,"station_id":"ce4bgvp2rcd13ifvqcu0","pricing_plan_id":"free"},{"bike_id":"7a71974c-9d6b-4e31-868e-b68edd967fc5","system_id":"levelo_inurba_marseille","lat":43.29194,"lon":5.35799,"is_reserved":false,"is_disabled":false,"rental_uris":{"android":"levelo://app?vid=7a71974c-9d6b-4e31-868e-b68edd967fc5","ios":"levelo://app?vid=7a71974c-9d6b-4e31-868e-b68edd967fc5"},"vehicle_type_id":"4","last_reported":1686780383,"current_range_meters":25600,"station_id":"ce4bhb12rcd13ifvqel0","pricing_plan_id":"free"},{"bike_id":"f183fb39-3656-4072-8bd9-662f79efcc76","system_id":"levelo_inurba_marseille","lat":43.31323,"lon":5.39689,"is_reserved":false,"is_disabled":false,"rental_uris":{"android":"levelo://app?vid=f183fb39-3656-4072-8bd9-662f79efcc76","ios":"levelo://app?vid=f183fb39-3656-4072-8bd9-662f79efcc76"},"vehicle_type_id":"4","last_reported":1686780383,"current_range_meters":20800,"station_id":"ce4bgvp2rcd13ifvqcu0","pricing_plan_id":"free"},{"bike_id":"fc1e6273-eb93-4dd6-ae6b-58051196d2d5","system_id":"levelo_inurba_marseille","lat":43.31326,"lon":5.39689,"is_reserved":false,"is_disabled":false,"rental_uris":{"android":"levelo://app?vid=fc1e6273-eb93-4dd6-ae6b-58051196d2d5","ios":"levelo://app?vid=fc1e6273-eb93-4dd6-ae6b-58051196d2d5"},"vehicle_type_id":"4","last_reported":1686780383,"current_range_meters":22800,"station_id":"ce4bgvp2rcd13ifvqcu0","pricing_plan_id":"free"},{"bike_id":"a394d639-a933-48e7-b996-851ed2de8943","system_id":"levelo_inurba_marseille","lat":43.29193,"lon":5.35794,"is_reserved":false,"is_disabled":false,"rental_uris":{"android":"levelo://app?vid=a394d639-a933-48e7-b996-851ed2de8943","ios":"levelo://app?vid=a394d639-a933-48e7-b996-851ed2de8943"},"vehicle_type_id":"4","last_reported":1686780383,"current_range_meters":26000,"station_id":"ce4bhb12rcd13ifvqel0","pricing_plan_id":"free"},{"bike_id":"40ead807-2fbf-44ca-8459-3e42fa485502","system_id":"levelo_inurba_marseille","lat":43.313291,"lon":5.396838,"is_reserved":false,"is_disabled":false,"rental_uris":{"android":"levelo://app?vid=40ead807-2fbf-44ca-8459-3e42fa485502","ios":"levelo://app?vid=40ead807-2fbf-44ca-8459-3e42fa485502"},"vehicle_type_id":"4","last_reported":1686780383,"current_range_meters":22000,"station_id":"ce4bgvp2rcd13ifvqcu0","pricing_plan_id":"free"},{"bike_id":"193df8e4-323e-4d89-bbd3-2f40ce891b54","system_id":"levelo_inurba_marseille","lat":43.30888,"lon":5.39646,"is_reserved":false,"is_disabled":false,"rental_uris":{"android":"levelo://app?vid=193df8e4-323e-4d89-bbd3-2f40ce891b54","ios":"levelo://app?vid=193df8e4-323e-4d89-bbd3-2f40ce891b54"},"vehicle_type_id":"4","last_reported":1686780383,"current_range_meters":21200,"station_id":"ce4bh012rcd13ifvqcv0","pricing_plan_id":"free"},{"bike_id":"348f75e5-d5d0-4a12-8c33-10b8316eaf56","system_id":"levelo_inurba_marseille","lat":43.309038,"lon":5.396546,"is_reserved":false,"is_disabled":false,"rental_uris":{"android":"levelo://app?vid=348f75e5-d5d0-4a12-8c33-10b8316eaf56","ios":"levelo://app?vid=348f75e5-d5d0-4a12-8c33-10b8316eaf56"},"vehicle_type_id":"4","last_reported":1686780383,"current_range_meters":31200,"station_id":"ce4bh012rcd13ifvqcv0","pricing_plan_id":"free"},{"bike_id":"8983f7ad-5e3f-466b-9368-29c4a13a98e2","system_id":"levelo_inurba_marseille","lat":43.309038,"lon":5.396546,"is_reserved":false,"is_disabled":false,"rental_uris":{"android":"levelo://app?vid=8983f7ad-5e3f-466b-9368-29c4a13a98e2","ios":"levelo://app?vid=8983f7ad-5e3f-466b-9368-29c4a13a98e2"},"vehicle_type_id":"4","last_reported":1686780383,"current_range_meters":23200,"station_id":"ce4bh012rcd13ifvqcv0","pricing_plan_id":"free"},{"bike_id":"6cb24bd4-4dad-4302-a5e1-6408ee368ec1","system_id":"levelo_inurba_marseille","lat":43.309038,"lon":5.396546,"is_reserved":false,"is_disabled":false,"rental_uris":{"android":"levelo://app?vid=6cb24bd4-4dad-4302-a5e1-6408ee368ec1","ios":"levelo://app?vid=6cb24bd4-4dad-4302-a5e1-6408ee368ec1"},"vehicle_type_id":"4","last_reported":1686780383,"current_range_meters":25200,"station_id":"ce4bh012rcd13ifvqcv0","pricing_plan_id":"free"},{"bike_id":"93cc7bc0-3262-45e0-9503-396d4256d7fe","system_id":"levelo_inurba_marseille","lat":43.309038,"lon":5.396546,"is_reserved":false,"is_disabled":false,"rental_uris":{"android":"levelo://app?vid=93cc7bc0-3262-45e0-9503-396d4256d7fe","ios":"levelo://app?vid=93cc7bc0-3262-45e0-9503-396d4256d7fe"},"vehicle_type_id":"4","last_reported":1686780383,"current_range_meters":20400,"station_id":"ce4bh012rcd13ifvqcv0","pricing_plan_id":"free"},{"bike_id":"f4328036-7dc0-4007-9436-82b0c55ed233","system_id":"levelo_inurba_marseille","lat":43.309038,"lon":5.396546,"is_reserved":false,"is_disabled":false,"rental_uris":{"android":"levelo://app?vid=f4328036-7dc0-4007-9436-82b0c55ed233","ios":"levelo://app?vid=f4328036-7dc0-4007-9436-82b0c55ed233"},"vehicle_type_id":"4","last_reported":1686780383,"current_range_meters":8800,"station_id":"ce4bh012rcd13ifvqcv0","pricing_plan_id":"free"},{"bike_id":"8024cad8-63bc-4318-9465-5086dde40aec","system_id":"levelo_inurba_marseille","lat":43.31325,"lon":5.39702,"is_reserved":false,"is_disabled":false,"rental_uris":{"android":"levelo://app?vid=8024cad8-63bc-4318-9465-5086dde40aec","ios":"levelo://app?vid=8024cad8-63bc-4318-9465-5086dde40aec"},"vehicle_type_id":"4","last_reported":1686780383,"current_range_meters":31200,"station_id":"ce4bgvp2rcd13ifvqcu0","pricing_plan_id":"free"},{"bike_id":"a8049128-bfd0-4c38-9ce4-5c470f3b1d7a","system_id":"levelo_inurba_marseille","lat":43.309038,"lon":5.396546,"is_reserved":false,"is_disabled":false,"rental_uris":{"android":"levelo://app?vid=a8049128-bfd0-4c38-9ce4-5c470f3b1d7a","ios":"levelo://app?vid=a8049128-bfd0-4c38-9ce4-5c470f3b1d7a"},"vehicle_type_id":"4","last_reported":1686780383,"current_range_meters":31200,"station_id":"ce4bh012rcd13ifvqcv0","pricing_plan_id":"free"},{"bike_id":"a9b8aed9-5c5c-472a-b3a3-a540dc8fbafc","system_id":"levelo_inurba_marseille","lat":43.309038,"lon":5.396546,"is_reserved":false,"is_disabled":false,"rental_uris":{"android":"levelo://app?vid=a9b8aed9-5c5c-472a-b3a3-a540dc8fbafc","ios":"levelo://app?vid=a9b8aed9-5c5c-472a-b3a3-a540dc8fbafc"},"vehicle_type_id":"4","last_reported":1686780383,"current_range_meters":16800,"station_id":"ce4bh012rcd13ifvqcv0","pricing_plan_id":"free"},{"bike_id":"cde074b8-50ac-44c8-aa3c-678e028d375e","system_id":"levelo_inurba_marseille","lat":43.309038,"lon":5.396546,"is_reserved":false,"is_disabled":false,"rental_uris":{"android":"levelo://app?vid=cde074b8-50ac-44c8-aa3c-678e028d375e","ios":"levelo://app?vid=cde074b8-50ac-44c8-aa3c-678e028d375e"},"vehicle_type_id":"4","last_reported":1686780383,"current_range_meters":17200,"station_id":"ce4bh012rcd13ifvqcv0","pricing_plan_id":"free"},{"bike_id":"67972c90-6825-4814-bfbe-2118778fc930","system_id":"levelo_inurba_marseille","lat":43.290631,"lon":5.359244,"is_reserved":false,"is_disabled":false,"rental_uris":{"android":"levelo://app?vid=67972c90-6825-4814-bfbe-2118778fc930","ios":"levelo://app?vid=67972c90-6825-4814-bfbe-2118778fc930"},"vehicle_type_id":"4","last_reported":1686780383,"current_range_meters":30000,"station_id":"ce4bha92rcd13ifvqeg0","pricing_plan_id":"free"},{"bike_id":"eea8961e-5d5b-495e-b140-f86b2af75d4c","system_id":"levelo_inurba_marseille","lat":43.290624,"lon":5.359245,"is_reserved":false,"is_disabled":false,"rental_uris":{"android":"levelo://app?vid=eea8961e-5d5b-495e-b140-f86b2af75d4c","ios":"levelo://app?vid=eea8961e-5d5b-495e-b140-f86b2af75d4c"},"vehicle_type_id":"4","last_reported":1686780383,"current_range_meters":5600,"station_id":"ce4bha92rcd13ifvqeg0","pricing_plan_id":"free"},{"bike_id":"a2e60dba-b7dd-4ae0-8598-f5f219136376","system_id":"levelo_inurba_marseille","lat":43.290631,"lon":5.359244,"is_reserved":false,"is_disabled":false,"rental_uris":{"android":"levelo://app?vid=a2e60dba-b7dd-4ae0-8598-f5f219136376","ios":"levelo://app?vid=a2e60dba-b7dd-4ae0-8598-f5f219136376"},"vehicle_type_id":"4","last_reported":1686780383,"current_range_meters":19600,"station_id":"ce4bha92rcd13ifvqeg0","pricing_plan_id":"free"},{"bike_id":"e4e1d789-a6f3-4930-8d5f-4501aa04cdf2","system_id":"levelo_inurba_marseille","lat":43.289184,"lon":5.366408,"is_reserved":false,"is_disabled":false,"rental_uris":{"android":"levelo://app?vid=e4e1d789-a6f3-4930-8d5f-4501aa04cdf2","ios":"levelo://app?vid=e4e1d789-a6f3-4930-8d5f-4501aa04cdf2"},"vehicle_type_id":"4","last_reported":1686780383,"current_range_meters":26400,"station_id":"ce4bhap2rcd13ifvqek0","pricing_plan_id":"free"},{"bike_id":"2638e9a1-6a98-4d3c-8507-0074ed6105c0","system_id":"levelo_inurba_marseille","lat":43.289468,"lon":5.363719,"is_reserved":false,"is_disabled":false,"rental_uris":{"android":"levelo://app?vid=2638e9a1-6a98-4d3c-8507-0074ed6105c0","ios":"levelo://app?vid=2638e9a1-6a98-4d3c-8507-0074ed6105c0"},"vehicle_type_id":"4","last_reported":1686780383,"current_range_meters":12800,"station_id":"ce4bhc92rcd13ifvqetg","pricing_plan_id":"free"},{"bike_id":"1277340c-2b13-40e3-9cb8-fe520d809e85","system_id":"levelo_inurba_marseille","lat":43.289468,"lon":5.363719,"is_reserved":false,"is_disabled":false,"rental_uris":{"android":"levelo://app?vid=1277340c-2b13-40e3-9cb8-fe520d809e85","ios":"levelo://app?vid=1277340c-2b13-40e3-9cb8-fe520d809e85"},"vehicle_type_id":"4","last_reported":1686780383,"current_range_meters":31200,"station_id":"ce4bhc92rcd13ifvqetg","pricing_plan_id":"free"},{"bike_id":"bcaf00c6-45eb-4180-947b-915d11d77e37","system_id":"levelo_inurba_marseille","lat":43.29266,"lon":5.38432,"is_reserved":false,"is_disabled":false,"rental_uris":{"android":"levelo://app?vid=bcaf00c6-45eb-4180-947b-915d11d77e37","ios":"levelo://app?vid=bcaf00c6-45eb-4180-947b-915d11d77e37"},"vehicle_type_id":"4","last_reported":1686780383,"current_range_meters":29600,"station_id":"ce4bh692rcd13ifvqea0","pricing_plan_id":"free"},{"bike_id":"b03b2a4d-30b6-4a5d-ac6f-8f42f54d12cd","system_id":"levelo_inurba_marseille","lat":43.292685,"lon":5.384455,"is_reserved":false,"is_disabled":false,"rental_uris":{"android":"levelo://app?vid=b03b2a4d-30b6-4a5d-ac6f-8f42f54d12cd","ios":"levelo://app?vid=b03b2a4d-30b6-4a5d-ac6f-8f42f54d12cd"},"vehicle_type_id":"4","last_reported":1686780383,"current_range_meters":26400,"station_id":"","pricing_plan_id":"free"},{"bike_id":"a4e3c8bd-9e01-400a-9b31-3c7385885143","system_id":"levelo_inurba_marseille","lat":43.292642,"lon":5.384254,"is_reserved":false,"is_disabled":false,"rental_uris":{"android":"levelo://app?vid=a4e3c8bd-9e01-400a-9b31-3c7385885143","ios":"levelo://app?vid=a4e3c8bd-9e01-400a-9b31-3c7385885143"},"vehicle_type_id":"4","last_reported":1686780383,"current_range_meters":20800,"station_id":"ce4bh692rcd13ifvqea0","pricing_plan_id":"free"},{"bike_id":"b71a79d7-6502-42f9-bc43-318dbb6f0ad0","system_id":"levelo_inurba_marseille","lat":43.30428,"lon":5.39747,"is_reserved":false,"is_disabled":false,"rental_uris":{"android":"levelo://app?vid=b71a79d7-6502-42f9-bc43-318dbb6f0ad0","ios":"levelo://app?vid=b71a79d7-6502-42f9-bc43-318dbb6f0ad0"},"vehicle_type_id":"4","last_reported":1686780383,"current_range_meters":16000,"station_id":"","pricing_plan_id":"free"},{"bike_id":"bba27e26-12c9-40d1-b87c-32879dca9304","system_id":"levelo_inurba_marseille","lat":43.292642,"lon":5.384254,"is_reserved":false,"is_disabled":false,"rental_uris":{"android":"levelo://app?vid=bba27e26-12c9-40d1-b87c-32879dca9304","ios":"levelo://app?vid=bba27e26-12c9-40d1-b87c-32879dca9304"},"vehicle_type_id":"4","last_reported":1686780383,"current_range_meters":2400,"station_id":"ce4bh692rcd13ifvqea0","pricing_plan_id":"free"},{"bike_id":"1deaa64a-1bb9-434c-bee8-79314230939c","system_id":"levelo_inurba_marseille","lat":43.330442,"lon":5.389148,"is_reserved":false,"is_disabled":false,"rental_uris":{"android":"levelo://app?vid=1deaa64a-1bb9-434c-bee8-79314230939c","ios":"levelo://app?vid=1deaa64a-1bb9-434c-bee8-79314230939c"},"vehicle_type_id":"4","last_reported":1686780383,"current_range_meters":31200,"station_id":"ce4bhr92rcd13ifvqhrg","pricing_plan_id":"free"},{"bike_id":"88cc483c-779f-4384-b620-3abc1bb01f6f","system_id":"levelo_inurba_marseille","lat":43.33041,"lon":5.38909,"is_reserved":false,"is_disabled":false,"rental_uris":{"android":"levelo://app?vid=88cc483c-779f-4384-b620-3abc1bb01f6f","ios":"levelo://app?vid=88cc483c-779f-4384-b620-3abc1bb01f6f"},"vehicle_type_id":"4","last_reported":1686780383,"current_range_meters":31200,"station_id":"ce4bhr92rcd13ifvqhrg","pricing_plan_id":"free"},{"bike_id":"c4ba7ed4-9efc-4513-b354-1cef86fbee20","system_id":"levelo_inurba_marseille","lat":43.33041,"lon":5.3891,"is_reserved":false,"is_disabled":false,"rental_uris":{"android":"levelo://app?vid=c4ba7ed4-9efc-4513-b354-1cef86fbee20","ios":"levelo://app?vid=c4ba7ed4-9efc-4513-b354-1cef86fbee20"},"vehicle_type_id":"4","last_reported":1686780383,"current_range_meters":31200,"station_id":"ce4bhr92rcd13ifvqhrg","pricing_plan_id":"free"},{"bike_id":"2c0e0456-672a-41c8-bb59-55e68df99258","system_id":"levelo_inurba_marseille","lat":43.33041,"lon":5.3891,"is_reserved":false,"is_disabled":false,"rental_uris":{"android":"levelo://app?vid=2c0e0456-672a-41c8-bb59-55e68df99258","ios":"levelo://app?vid=2c0e0456-672a-41c8-bb59-55e68df99258"},"vehicle_type_id":"4","last_reported":1686780383,"current_range_meters":17600,"station_id":"ce4bhr92rcd13ifvqhrg","pricing_plan_id":"free"},{"bike_id":"51cec5a5-504e-448a-a78f-fa6f1461f9e0","system_id":"levelo_inurba_marseille","lat":43.3304,"lon":5.38914,"is_reserved":false,"is_disabled":false,"rental_uris":{"android":"levelo://app?vid=51cec5a5-504e-448a-a78f-fa6f1461f9e0","ios":"levelo://app?vid=51cec5a5-504e-448a-a78f-fa6f1461f9e0"},"vehicle_type_id":"4","last_reported":1686780383,"current_range_meters":800,"station_id":"ce4bhr92rcd13ifvqhrg","pricing_plan_id":"free"},{"bike_id":"334e6e65-18d9-4333-84c7-5d3fc2b13f4f","system_id":"levelo_inurba_marseille","lat":43.330442,"lon":5.389148,"is_reserved":false,"is_disabled":false,"rental_uris":{"android":"levelo://app?vid=334e6e65-18d9-4333-84c7-5d3fc2b13f4f","ios":"levelo://app?vid=334e6e65-18d9-4333-84c7-5d3fc2b13f4f"},"vehicle_type_id":"4","last_reported":1686780383,"current_range_meters":31200,"station_id":"ce4bhr92rcd13ifvqhrg","pricing_plan_id":"free"},{"bike_id":"8ae65085-bdfe-4231-89bf-09f7a6384a67","system_id":"levelo_inurba_marseille","lat":43.33044,"lon":5.38916,"is_reserved":false,"is_disabled":false,"rental_uris":{"android":"levelo://app?vid=8ae65085-bdfe-4231-89bf-09f7a6384a67","ios":"levelo://app?vid=8ae65085-bdfe-4231-89bf-09f7a6384a67"},"vehicle_type_id":"4","last_reported":1686780383,"current_range_meters":11200,"station_id":"ce4bhr92rcd13ifvqhrg","pricing_plan_id":"free"},{"bike_id":"23d5da44-9e66-478a-9c02-e43073d26caa","system_id":"levelo_inurba_marseille","lat":43.33046,"lon":5.38914,"is_reserved":false,"is_disabled":false,"rental_uris":{"android":"levelo://app?vid=23d5da44-9e66-478a-9c02-e43073d26caa","ios":"levelo://app?vid=23d5da44-9e66-478a-9c02-e43073d26caa"},"vehicle_type_id":"4","last_reported":1686780383,"current_range_meters":31200,"station_id":"ce4bhr92rcd13ifvqhrg","pricing_plan_id":"free"},{"bike_id":"4828fe20-4ccb-48a7-91cd-ef88cd86a8a1","system_id":"levelo_inurba_marseille","lat":43.33046,"lon":5.389158,"is_reserved":false,"is_disabled":false,"rental_uris":{"android":"levelo://app?vid=4828fe20-4ccb-48a7-91cd-ef88cd86a8a1","ios":"levelo://app?vid=4828fe20-4ccb-48a7-91cd-ef88cd86a8a1"},"vehicle_type_id":"4","last_reported":1686780383,"current_range_meters":27600,"station_id":"","pricing_plan_id":"free"},{"bike_id":"7d004a68-1ad7-47b0-87d7-52ad1f099811","system_id":"levelo_inurba_marseille","lat":43.33044,"lon":5.38921,"is_reserved":false,"is_disabled":false,"rental_uris":{"android":"levelo://app?vid=7d004a68-1ad7-47b0-87d7-52ad1f099811","ios":"levelo://app?vid=7d004a68-1ad7-47b0-87d7-52ad1f099811"},"vehicle_type_id":"4","last_reported":1686780383,"current_range_meters":8400,"station_id":"ce4bhr92rcd13ifvqhrg","pricing_plan_id":"free"},{"bike_id":"5b3697eb-b6ba-4d92-b5e6-b5ace909b50e","system_id":"levelo_inurba_marseille","lat":43.295169,"lon":5.390426,"is_reserved":false,"is_disabled":false,"rental_uris":{"android":"levelo://app?vid=5b3697eb-b6ba-4d92-b5e6-b5ace909b50e","ios":"levelo://app?vid=5b3697eb-b6ba-4d92-b5e6-b5ace909b50e"},"vehicle_type_id":"4","last_reported":1686780383,"current_range_meters":10400,"station_id":"ce4bh3p2rcd13ifvqdp0","pricing_plan_id":"free"},{"bike_id":"b4a79cc6-f730-48fc-9439-b94151e2e448","system_id":"levelo_inurba_marseille","lat":43.297814,"lon":5.393513,"is_reserved":false,"is_disabled":false,"rental_uris":{"android":"levelo://app?vid=b4a79cc6-f730-48fc-9439-b94151e2e448","ios":"levelo://app?vid=b4a79cc6-f730-48fc-9439-b94151e2e448"},"vehicle_type_id":"4","last_reported":1686780383,"current_range_meters":23200,"station_id":"chh1huq6cuj3fo74tm60","pricing_plan_id":"free"},{"bike_id":"ff330c44-dd11-4b34-887e-cffd48f13bcf","system_id":"levelo_inurba_marseille","lat":43.297814,"lon":5.393513,"is_reserved":false,"is_disabled":false,"rental_uris":{"android":"levelo://app?vid=ff330c44-dd11-4b34-887e-cffd48f13bcf","ios":"levelo://app?vid=ff330c44-dd11-4b34-887e-cffd48f13bcf"},"vehicle_type_id":"4","last_reported":1686780383,"current_range_meters":14800,"station_id":"chh1huq6cuj3fo74tm60","pricing_plan_id":"free"},{"bike_id":"fde5dfa1-fb1d-4f44-9e81-5cc90c151cff","system_id":"levelo_inurba_marseille","lat":43.28983,"lon":5.3783,"is_reserved":false,"is_disabled":false,"rental_uris":{"android":"levelo://app?vid=fde5dfa1-fb1d-4f44-9e81-5cc90c151cff","ios":"levelo://app?vid=fde5dfa1-fb1d-4f44-9e81-5cc90c151cff"},"vehicle_type_id":"4","last_reported":1686780383,"current_range_meters":3600,"station_id":"","pricing_plan_id":"free"},{"bike_id":"2623840d-7228-4fd2-a71f-080c6ed0a6b8","system_id":"levelo_inurba_marseille","lat":43.297814,"lon":5.393513,"is_reserved":false,"is_disabled":false,"rental_uris":{"android":"levelo://app?vid=2623840d-7228-4fd2-a71f-080c6ed0a6b8","ios":"levelo://app?vid=2623840d-7228-4fd2-a71f-080c6ed0a6b8"},"vehicle_type_id":"4","last_reported":1686780383,"current_range_meters":4800,"station_id":"chh1huq6cuj3fo74tm60","pricing_plan_id":"free"},{"bike_id":"c363d934-f90f-4853-abab-afe7e8df6567","system_id":"levelo_inurba_marseille","lat":43.28856,"lon":5.358371,"is_reserved":false,"is_disabled":false,"rental_uris":{"android":"levelo://app?vid=c363d934-f90f-4853-abab-afe7e8df6567","ios":"levelo://app?vid=c363d934-f90f-4853-abab-afe7e8df6567"},"vehicle_type_id":"4","last_reported":1686780383,"current_range_meters":17200,"station_id":"ce4bhb12rcd13ifvqem0","pricing_plan_id":"free"},{"bike_id":"c82677b7-6701-4f89-9fe9-d8baff75f5e6","system_id":"levelo_inurba_marseille","lat":43.28856,"lon":5.358371,"is_reserved":false,"is_disabled":false,"rental_uris":{"android":"levelo://app?vid=c82677b7-6701-4f89-9fe9-d8baff75f5e6","ios":"levelo://app?vid=c82677b7-6701-4f89-9fe9-d8baff75f5e6"},"vehicle_type_id":"4","last_reported":1686780383,"current_range_meters":14400,"station_id":"ce4bhb12rcd13ifvqem0","pricing_plan_id":"free"},{"bike_id":"5cc523d5-a86d-430d-b0cb-17972a310454","system_id":"levelo_inurba_marseille","lat":43.28856,"lon":5.358371,"is_reserved":false,"is_disabled":false,"rental_uris":{"android":"levelo://app?vid=5cc523d5-a86d-430d-b0cb-17972a310454","ios":"levelo://app?vid=5cc523d5-a86d-430d-b0cb-17972a310454"},"vehicle_type_id":"4","last_reported":1686780383,"current_range_meters":8800,"station_id":"ce4bhb12rcd13ifvqem0","pricing_plan_id":"free"},{"bike_id":"a43ddabc-089d-4d73-8515-6fcfa91fd945","system_id":"levelo_inurba_marseille","lat":43.28849,"lon":5.35848,"is_reserved":false,"is_disabled":false,"rental_uris":{"android":"levelo://app?vid=a43ddabc-089d-4d73-8515-6fcfa91fd945","ios":"levelo://app?vid=a43ddabc-089d-4d73-8515-6fcfa91fd945"},"vehicle_type_id":"4","last_reported":1686780383,"current_range_meters":31200,"station_id":"ce4bhb12rcd13ifvqem0","pricing_plan_id":"free"},{"bike_id":"c0fb8083-e02d-4dec-b1b9-fa095e6c5b75","system_id":"levelo_inurba_marseille","lat":43.337396,"lon":5.374526,"is_reserved":false,"is_disabled":false,"rental_uris":{"android":"levelo://app?vid=c0fb8083-e02d-4dec-b1b9-fa095e6c5b75","ios":"levelo://app?vid=c0fb8083-e02d-4dec-b1b9-fa095e6c5b75"},"vehicle_type_id":"4","last_reported":1686780383,"current_range_meters":7600,"station_id":"ce4bhp92rcd13ifvqhag","pricing_plan_id":"free"},{"bike_id":"f20120bb-e390-4aed-a38b-d37e4c3f4168","system_id":"levelo_inurba_marseille","lat":43.309371,"lon":5.401449,"is_reserved":false,"is_disabled":false,"rental_uris":{"android":"levelo://app?vid=f20120bb-e390-4aed-a38b-d37e4c3f4168","ios":"levelo://app?vid=f20120bb-e390-4aed-a38b-d37e4c3f4168"},"vehicle_type_id":"4","last_reported":1686780383,"current_range_meters":15200,"station_id":"ce4bgvp2rcd13ifvqct0","pricing_plan_id":"free"},{"bike_id":"13157fec-08c0-416d-9fd5-9bcc56ac758f","system_id":"levelo_inurba_marseille","lat":43.309371,"lon":5.401449,"is_reserved":false,"is_disabled":false,"rental_uris":{"android":"levelo://app?vid=13157fec-08c0-416d-9fd5-9bcc56ac758f","ios":"levelo://app?vid=13157fec-08c0-416d-9fd5-9bcc56ac758f"},"vehicle_type_id":"4","last_reported":1686780383,"current_range_meters":26000,"station_id":"ce4bgvp2rcd13ifvqct0","pricing_plan_id":"free"},{"bike_id":"bc842dbd-244e-499f-a912-8001455a1e92","system_id":"levelo_inurba_marseille","lat":43.309371,"lon":5.401449,"is_reserved":false,"is_disabled":false,"rental_uris":{"android":"levelo://app?vid=bc842dbd-244e-499f-a912-8001455a1e92","ios":"levelo://app?vid=bc842dbd-244e-499f-a912-8001455a1e92"},"vehicle_type_id":"4","last_reported":1686780383,"current_range_meters":31200,"station_id":"ce4bgvp2rcd13ifvqct0","pricing_plan_id":"free"},{"bike_id":"1a7080e9-89ff-4024-b618-f8e8bc0f95d9","system_id":"levelo_inurba_marseille","lat":43.309371,"lon":5.401449,"is_reserved":false,"is_disabled":false,"rental_uris":{"android":"levelo://app?vid=1a7080e9-89ff-4024-b618-f8e8bc0f95d9","ios":"levelo://app?vid=1a7080e9-89ff-4024-b618-f8e8bc0f95d9"},"vehicle_type_id":"4","last_reported":1686780383,"current_range_meters":27200,"station_id":"ce4bgvp2rcd13ifvqct0","pricing_plan_id":"free"},{"bike_id":"79cfbca1-9312-46f4-8be0-ea6a99e82973","system_id":"levelo_inurba_marseille","lat":43.309371,"lon":5.401449,"is_reserved":false,"is_disabled":false,"rental_uris":{"android":"levelo://app?vid=79cfbca1-9312-46f4-8be0-ea6a99e82973","ios":"levelo://app?vid=79cfbca1-9312-46f4-8be0-ea6a99e82973"},"vehicle_type_id":"4","last_reported":1686780383,"current_range_meters":31200,"station_id":"ce4bgvp2rcd13ifvqct0","pricing_plan_id":"free"},{"bike_id":"e18ee468-3e96-4af1-80d6-b46203a76389","system_id":"levelo_inurba_marseille","lat":43.309371,"lon":5.401449,"is_reserved":false,"is_disabled":false,"rental_uris":{"android":"levelo://app?vid=e18ee468-3e96-4af1-80d6-b46203a76389","ios":"levelo://app?vid=e18ee468-3e96-4af1-80d6-b46203a76389"},"vehicle_type_id":"4","last_reported":1686780383,"current_range_meters":18400,"station_id":"ce4bgvp2rcd13ifvqct0","pricing_plan_id":"free"},{"bike_id":"487555cd-cdad-4467-b06b-c1ae4288642f","system_id":"levelo_inurba_marseille","lat":43.30648,"lon":5.40073,"is_reserved":false,"is_disabled":false,"rental_uris":{"android":"levelo://app?vid=487555cd-cdad-4467-b06b-c1ae4288642f","ios":"levelo://app?vid=487555cd-cdad-4467-b06b-c1ae4288642f"},"vehicle_type_id":"4","last_reported":1686780383,"current_range_meters":18000,"station_id":"ce4bh112rcd13ifvqda0","pricing_plan_id":"free"},{"bike_id":"64380578-153a-4fe6-8817-03731999edb2","system_id":"levelo_inurba_marseille","lat":43.306412,"lon":5.401035,"is_reserved":false,"is_disabled":false,"rental_uris":{"android":"levelo://app?vid=64380578-153a-4fe6-8817-03731999edb2","ios":"levelo://app?vid=64380578-153a-4fe6-8817-03731999edb2"},"vehicle_type_id":"4","last_reported":1686780383,"current_range_meters":22400,"station_id":"ce4bh112rcd13ifvqda0","pricing_plan_id":"free"},{"bike_id":"0cd59010-b5c1-45d5-9273-ea6a66e9ed4f","system_id":"levelo_inurba_marseille","lat":43.33765,"lon":5.37427,"is_reserved":false,"is_disabled":false,"rental_uris":{"android":"levelo://app?vid=0cd59010-b5c1-45d5-9273-ea6a66e9ed4f","ios":"levelo://app?vid=0cd59010-b5c1-45d5-9273-ea6a66e9ed4f"},"vehicle_type_id":"4","last_reported":1686780383,"current_range_meters":28800,"station_id":"","pricing_plan_id":"free"},{"bike_id":"a07d406a-c089-425c-a52c-17e1e4c5b75a","system_id":"levelo_inurba_marseille","lat":43.306412,"lon":5.401035,"is_reserved":false,"is_disabled":false,"rental_uris":{"android":"levelo://app?vid=a07d406a-c089-425c-a52c-17e1e4c5b75a","ios":"levelo://app?vid=a07d406a-c089-425c-a52c-17e1e4c5b75a"},"vehicle_type_id":"4","last_reported":1686780383,"current_range_meters":26400,"station_id":"ce4bh112rcd13ifvqda0","pricing_plan_id":"free"},{"bike_id":"c4d1b73d-3ff0-4b03-9cd6-ca9a52cbf6f9","system_id":"levelo_inurba_marseille","lat":43.30119,"lon":5.39847,"is_reserved":false,"is_disabled":false,"rental_uris":{"android":"levelo://app?vid=c4d1b73d-3ff0-4b03-9cd6-ca9a52cbf6f9","ios":"levelo://app?vid=c4d1b73d-3ff0-4b03-9cd6-ca9a52cbf6f9"},"vehicle_type_id":"4","last_reported":1686780383,"current_range_meters":0,"station_id":"","pricing_plan_id":"free"},{"bike_id":"dd6b8e04-a53d-454c-b9fd-cf66d3d1eb80","system_id":"levelo_inurba_marseille","lat":43.30133,"lon":5.39861,"is_reserved":false,"is_disabled":false,"rental_uris":{"android":"levelo://app?vid=dd6b8e04-a53d-454c-b9fd-cf66d3d1eb80","ios":"levelo://app?vid=dd6b8e04-a53d-454c-b9fd-cf66d3d1eb80"},"vehicle_type_id":"4","last_reported":1686780383,"current_range_meters":0,"station_id":"","pricing_plan_id":"free"},{"bike_id":"9b1ab9a8-25b7-4334-8dd7-306054589c0e","system_id":"levelo_inurba_marseille","lat":43.28681,"lon":5.36342,"is_reserved":false,"is_disabled":false,"rental_uris":{"android":"levelo://app?vid=9b1ab9a8-25b7-4334-8dd7-306054589c0e","ios":"levelo://app?vid=9b1ab9a8-25b7-4334-8dd7-306054589c0e"},"vehicle_type_id":"4","last_reported":1686780383,"current_range_meters":10800,"station_id":"ce4bhah2rcd13ifvqej0","pricing_plan_id":"free"},{"bike_id":"9deb7dd3-8e49-4a31-b668-0c12f5bf32c9","system_id":"levelo_inurba_marseille","lat":43.298681,"lon":5.397225,"is_reserved":false,"is_disabled":false,"rental_uris":{"android":"levelo://app?vid=9deb7dd3-8e49-4a31-b668-0c12f5bf32c9","ios":"levelo://app?vid=9deb7dd3-8e49-4a31-b668-0c12f5bf32c9"},"vehicle_type_id":"4","last_reported":1686780383,"current_range_meters":0,"station_id":"ce4bh0h2rcd13ifvqd50","pricing_plan_id":"free"},{"bike_id":"7c565729-244f-4e45-a5d8-1a7fb3722f12","system_id":"levelo_inurba_marseille","lat":43.286591,"lon":5.363346,"is_reserved":false,"is_disabled":false,"rental_uris":{"android":"levelo://app?vid=7c565729-244f-4e45-a5d8-1a7fb3722f12","ios":"levelo://app?vid=7c565729-244f-4e45-a5d8-1a7fb3722f12"},"vehicle_type_id":"4","last_reported":1686780383,"current_range_meters":32000,"station_id":"ce4bhah2rcd13ifvqej0","pricing_plan_id":"free"},{"bike_id":"5646f79c-c963-4dd8-895f-f5129918f4a8","system_id":"levelo_inurba_marseille","lat":43.28672,"lon":5.36334,"is_reserved":false,"is_disabled":false,"rental_uris":{"android":"levelo://app?vid=5646f79c-c963-4dd8-895f-f5129918f4a8","ios":"levelo://app?vid=5646f79c-c963-4dd8-895f-f5129918f4a8"},"vehicle_type_id":"4","last_reported":1686780383,"current_range_meters":20800,"station_id":"ce4bhah2rcd13ifvqej0","pricing_plan_id":"free"},{"bike_id":"d9c0f563-2596-46fb-96f6-7917bf675017","system_id":"levelo_inurba_marseille","lat":43.298681,"lon":5.397225,"is_reserved":false,"is_disabled":false,"rental_uris":{"android":"levelo://app?vid=d9c0f563-2596-46fb-96f6-7917bf675017","ios":"levelo://app?vid=d9c0f563-2596-46fb-96f6-7917bf675017"},"vehicle_type_id":"4","last_reported":1686780383,"current_range_meters":26400,"station_id":"ce4bh0h2rcd13ifvqd50","pricing_plan_id":"free"},{"bike_id":"4c15f055-a994-4ca0-beb1-eb2570e5628b","system_id":"levelo_inurba_marseille","lat":43.28705,"lon":5.37383,"is_reserved":false,"is_disabled":false,"rental_uris":{"android":"levelo://app?vid=4c15f055-a994-4ca0-beb1-eb2570e5628b","ios":"levelo://app?vid=4c15f055-a994-4ca0-beb1-eb2570e5628b"},"vehicle_type_id":"4","last_reported":1686780383,"current_range_meters":2400,"station_id":"","pricing_plan_id":"free"},{"bike_id":"21300e6e-5679-4b8c-a3f6-a633168b1157","system_id":"levelo_inurba_marseille","lat":43.28704,"lon":5.37381,"is_reserved":false,"is_disabled":false,"rental_uris":{"android":"levelo://app?vid=21300e6e-5679-4b8c-a3f6-a633168b1157","ios":"levelo://app?vid=21300e6e-5679-4b8c-a3f6-a633168b1157"},"vehicle_type_id":"4","last_reported":1686780383,"current_range_meters":0,"station_id":"","pricing_plan_id":"free"},{"bike_id":"6d68bff2-9778-4b22-b78c-8c8676da9900","system_id":"levelo_inurba_marseille","lat":43.286591,"lon":5.363346,"is_reserved":false,"is_disabled":false,"rental_uris":{"android":"levelo://app?vid=6d68bff2-9778-4b22-b78c-8c8676da9900","ios":"levelo://app?vid=6d68bff2-9778-4b22-b78c-8c8676da9900"},"vehicle_type_id":"4","last_reported":1686780383,"current_range_meters":28800,"station_id":"ce4bhah2rcd13ifvqej0","pricing_plan_id":"free"},{"bike_id":"89126a8d-fdcb-4d12-909d-26b0567b1507","system_id":"levelo_inurba_marseille","lat":43.286591,"lon":5.363346,"is_reserved":false,"is_disabled":false,"rental_uris":{"android":"levelo://app?vid=89126a8d-fdcb-4d12-909d-26b0567b1507","ios":"levelo://app?vid=89126a8d-fdcb-4d12-909d-26b0567b1507"},"vehicle_type_id":"4","last_reported":1686780383,"current_range_meters":24000,"station_id":"ce4bhah2rcd13ifvqej0","pricing_plan_id":"free"},{"bike_id":"8c3ad1cd-0a67-4370-89f7-87163b1fd3e3","system_id":"levelo_inurba_marseille","lat":43.287013,"lon":5.373823,"is_reserved":false,"is_disabled":false,"rental_uris":{"android":"levelo://app?vid=8c3ad1cd-0a67-4370-89f7-87163b1fd3e3","ios":"levelo://app?vid=8c3ad1cd-0a67-4370-89f7-87163b1fd3e3"},"vehicle_type_id":"4","last_reported":1686780383,"current_range_meters":28800,"station_id":"","pricing_plan_id":"free"},{"bike_id":"c36f0685-d706-49b1-bd58-7ad8fe546162","system_id":"levelo_inurba_marseille","lat":43.287,"lon":5.37386,"is_reserved":false,"is_disabled":false,"rental_uris":{"android":"levelo://app?vid=c36f0685-d706-49b1-bd58-7ad8fe546162","ios":"levelo://app?vid=c36f0685-d706-49b1-bd58-7ad8fe546162"},"vehicle_type_id":"4","last_reported":1686780383,"current_range_meters":23600,"station_id":"","pricing_plan_id":"free"},{"bike_id":"f3313782-4f51-4f68-add3-3fcbb7c6fbbf","system_id":"levelo_inurba_marseille","lat":43.298681,"lon":5.397225,"is_reserved":false,"is_disabled":false,"rental_uris":{"android":"levelo://app?vid=f3313782-4f51-4f68-add3-3fcbb7c6fbbf","ios":"levelo://app?vid=f3313782-4f51-4f68-add3-3fcbb7c6fbbf"},"vehicle_type_id":"4","last_reported":1686780383,"current_range_meters":3200,"station_id":"ce4bh0h2rcd13ifvqd50","pricing_plan_id":"free"},{"bike_id":"f4c65bfc-13e5-4c2f-a818-596954b13064","system_id":"levelo_inurba_marseille","lat":43.286591,"lon":5.363346,"is_reserved":false,"is_disabled":false,"rental_uris":{"android":"levelo://app?vid=f4c65bfc-13e5-4c2f-a818-596954b13064","ios":"levelo://app?vid=f4c65bfc-13e5-4c2f-a818-596954b13064"},"vehicle_type_id":"4","last_reported":1686780383,"current_range_meters":18000,"station_id":"ce4bhah2rcd13ifvqej0","pricing_plan_id":"free"},{"bike_id":"ddf93bd2-eeab-4cb8-8396-8b99b61389f0","system_id":"levelo_inurba_marseille","lat":43.28688,"lon":5.374,"is_reserved":false,"is_disabled":false,"rental_uris":{"android":"levelo://app?vid=ddf93bd2-eeab-4cb8-8396-8b99b61389f0","ios":"levelo://app?vid=ddf93bd2-eeab-4cb8-8396-8b99b61389f0"},"vehicle_type_id":"4","last_reported":1686780383,"current_range_meters":18000,"station_id":"","pricing_plan_id":"free"},{"bike_id":"93bea01c-b416-45e8-af74-faa89d3255e9","system_id":"levelo_inurba_marseille","lat":43.295196,"lon":5.39397,"is_reserved":false,"is_disabled":false,"rental_uris":{"android":"levelo://app?vid=93bea01c-b416-45e8-af74-faa89d3255e9","ios":"levelo://app?vid=93bea01c-b416-45e8-af74-faa89d3255e9"},"vehicle_type_id":"4","last_reported":1686780383,"current_range_meters":28800,"station_id":"ce4bh292rcd13ifvqdf0","pricing_plan_id":"free"},{"bike_id":"8e97d668-b5e0-4b47-afc6-cda9386b36d4","system_id":"levelo_inurba_marseille","lat":43.295196,"lon":5.39397,"is_reserved":false,"is_disabled":false,"rental_uris":{"android":"levelo://app?vid=8e97d668-b5e0-4b47-afc6-cda9386b36d4","ios":"levelo://app?vid=8e97d668-b5e0-4b47-afc6-cda9386b36d4"},"vehicle_type_id":"4","last_reported":1686780383,"current_range_meters":8400,"station_id":"ce4bh292rcd13ifvqdf0","pricing_plan_id":"free"},{"bike_id":"bdb1dac7-45c6-47d6-82af-ecc1a8e231b6","system_id":"levelo_inurba_marseille","lat":43.302759,"lon":5.400793,"is_reserved":false,"is_disabled":false,"rental_uris":{"android":"levelo://app?vid=bdb1dac7-45c6-47d6-82af-ecc1a8e231b6","ios":"levelo://app?vid=bdb1dac7-45c6-47d6-82af-ecc1a8e231b6"},"vehicle_type_id":"4","last_reported":1686780383,"current_range_meters":29600,"station_id":"ce4bgvh2rcd13ifvqcs0","pricing_plan_id":"free"},{"bike_id":"40319d56-617b-40e6-bb3b-06ee44fa38d0","system_id":"levelo_inurba_marseille","lat":43.302759,"lon":5.400793,"is_reserved":false,"is_disabled":false,"rental_uris":{"android":"levelo://app?vid=40319d56-617b-40e6-bb3b-06ee44fa38d0","ios":"levelo://app?vid=40319d56-617b-40e6-bb3b-06ee44fa38d0"},"vehicle_type_id":"4","last_reported":1686780383,"current_range_meters":30000,"station_id":"ce4bgvh2rcd13ifvqcs0","pricing_plan_id":"free"},{"bike_id":"ed21d99a-5d8d-4967-a54c-42770ab08920","system_id":"levelo_inurba_marseille","lat":43.29025,"lon":5.38645,"is_reserved":false,"is_disabled":false,"rental_uris":{"android":"levelo://app?vid=ed21d99a-5d8d-4967-a54c-42770ab08920","ios":"levelo://app?vid=ed21d99a-5d8d-4967-a54c-42770ab08920"},"vehicle_type_id":"4","last_reported":1686780383,"current_range_meters":1200,"station_id":"ce4bh4p2rcd13ifvqe0g","pricing_plan_id":"free"},{"bike_id":"7c39ebf3-4864-4714-a47a-2064ab224af3","system_id":"levelo_inurba_marseille","lat":43.302759,"lon":5.400793,"is_reserved":false,"is_disabled":false,"rental_uris":{"android":"levelo://app?vid=7c39ebf3-4864-4714-a47a-2064ab224af3","ios":"levelo://app?vid=7c39ebf3-4864-4714-a47a-2064ab224af3"},"vehicle_type_id":"4","last_reported":1686780383,"current_range_meters":24000,"station_id":"ce4bgvh2rcd13ifvqcs0","pricing_plan_id":"free"},{"bike_id":"161c4fce-1dd2-4d1b-854d-14863bdb532d","system_id":"levelo_inurba_marseille","lat":43.302759,"lon":5.400793,"is_reserved":false,"is_disabled":false,"rental_uris":{"android":"levelo://app?vid=161c4fce-1dd2-4d1b-854d-14863bdb532d","ios":"levelo://app?vid=161c4fce-1dd2-4d1b-854d-14863bdb532d"},"vehicle_type_id":"4","last_reported":1686780383,"current_range_meters":32000,"station_id":"ce4bgvh2rcd13ifvqcs0","pricing_plan_id":"free"},{"bike_id":"33c9163e-d6dc-4dcf-8a93-ceb6295703c1","system_id":"levelo_inurba_marseille","lat":43.302759,"lon":5.400793,"is_reserved":false,"is_disabled":false,"rental_uris":{"android":"levelo://app?vid=33c9163e-d6dc-4dcf-8a93-ceb6295703c1","ios":"levelo://app?vid=33c9163e-d6dc-4dcf-8a93-ceb6295703c1"},"vehicle_type_id":"4","last_reported":1686780383,"current_range_meters":14000,"station_id":"ce4bgvh2rcd13ifvqcs0","pricing_plan_id":"free"},{"bike_id":"913a9713-68bc-49e1-af16-7ac939e23aba","system_id":"levelo_inurba_marseille","lat":43.302759,"lon":5.400793,"is_reserved":false,"is_disabled":false,"rental_uris":{"android":"levelo://app?vid=913a9713-68bc-49e1-af16-7ac939e23aba","ios":"levelo://app?vid=913a9713-68bc-49e1-af16-7ac939e23aba"},"vehicle_type_id":"4","last_reported":1686780383,"current_range_meters":24400,"station_id":"ce4bgvh2rcd13ifvqcs0","pricing_plan_id":"free"},{"bike_id":"26757ee1-3603-44ea-9357-eb6454c95075","system_id":"levelo_inurba_marseille","lat":43.302759,"lon":5.400793,"is_reserved":false,"is_disabled":false,"rental_uris":{"android":"levelo://app?vid=26757ee1-3603-44ea-9357-eb6454c95075","ios":"levelo://app?vid=26757ee1-3603-44ea-9357-eb6454c95075"},"vehicle_type_id":"4","last_reported":1686780383,"current_range_meters":31200,"station_id":"ce4bgvh2rcd13ifvqcs0","pricing_plan_id":"free"},{"bike_id":"d451b4a9-cc9c-4c4a-8af2-e0770aafa8af","system_id":"levelo_inurba_marseille","lat":43.2861,"lon":5.37059,"is_reserved":false,"is_disabled":false,"rental_uris":{"android":"levelo://app?vid=d451b4a9-cc9c-4c4a-8af2-e0770aafa8af","ios":"levelo://app?vid=d451b4a9-cc9c-4c4a-8af2-e0770aafa8af"},"vehicle_type_id":"4","last_reported":1686780383,"current_range_meters":9600,"station_id":"ce4bht12rcd13ifvqi60","pricing_plan_id":"free"},{"bike_id":"5cb17ea2-377a-46ab-9338-1a4d13a2ae46","system_id":"levelo_inurba_marseille","lat":43.30247,"lon":5.40108,"is_reserved":false,"is_disabled":false,"rental_uris":{"android":"levelo://app?vid=5cb17ea2-377a-46ab-9338-1a4d13a2ae46","ios":"levelo://app?vid=5cb17ea2-377a-46ab-9338-1a4d13a2ae46"},"vehicle_type_id":"4","last_reported":1686780383,"current_range_meters":31200,"station_id":"ce4bgvh2rcd13ifvqcs0","pricing_plan_id":"free"},{"bike_id":"6dedef8b-4c65-496c-bd27-2b330dcd395b","system_id":"levelo_inurba_marseille","lat":43.28594,"lon":5.37058,"is_reserved":false,"is_disabled":false,"rental_uris":{"android":"levelo://app?vid=6dedef8b-4c65-496c-bd27-2b330dcd395b","ios":"levelo://app?vid=6dedef8b-4c65-496c-bd27-2b330dcd395b"},"vehicle_type_id":"4","last_reported":1686780383,"current_range_meters":19600,"station_id":"ce4bht12rcd13ifvqi60","pricing_plan_id":"free"},{"bike_id":"d934393c-9966-4263-810a-ead7855b6604","system_id":"levelo_inurba_marseille","lat":43.316517,"lon":5.404375,"is_reserved":false,"is_disabled":false,"rental_uris":{"android":"levelo://app?vid=d934393c-9966-4263-810a-ead7855b6604","ios":"levelo://app?vid=d934393c-9966-4263-810a-ead7855b6604"},"vehicle_type_id":"4","last_reported":1686780383,"current_range_meters":28400,"station_id":"ce4bh012rcd13ifvqd00","pricing_plan_id":"free"},{"bike_id":"3e08537f-6a74-4159-a5ae-0448ed2b4e4c","system_id":"levelo_inurba_marseille","lat":43.316517,"lon":5.404375,"is_reserved":false,"is_disabled":false,"rental_uris":{"android":"levelo://app?vid=3e08537f-6a74-4159-a5ae-0448ed2b4e4c","ios":"levelo://app?vid=3e08537f-6a74-4159-a5ae-0448ed2b4e4c"},"vehicle_type_id":"4","last_reported":1686780383,"current_range_meters":8400,"station_id":"ce4bh012rcd13ifvqd00","pricing_plan_id":"free"},{"bike_id":"f0ef1c22-5d90-423b-846b-b89c6caa7d51","system_id":"levelo_inurba_marseille","lat":43.316517,"lon":5.404375,"is_reserved":false,"is_disabled":false,"rental_uris":{"android":"levelo://app?vid=f0ef1c22-5d90-423b-846b-b89c6caa7d51","ios":"levelo://app?vid=f0ef1c22-5d90-423b-846b-b89c6caa7d51"},"vehicle_type_id":"4","last_reported":1686780383,"current_range_meters":30400,"station_id":"ce4bh012rcd13ifvqd00","pricing_plan_id":"free"},{"bike_id":"f5573718-b119-46ba-b18e-4739341ba413","system_id":"levelo_inurba_marseille","lat":43.316517,"lon":5.404375,"is_reserved":false,"is_disabled":false,"rental_uris":{"android":"levelo://app?vid=f5573718-b119-46ba-b18e-4739341ba413","ios":"levelo://app?vid=f5573718-b119-46ba-b18e-4739341ba413"},"vehicle_type_id":"4","last_reported":1686780383,"current_range_meters":22800,"station_id":"ce4bh012rcd13ifvqd00","pricing_plan_id":"free"},{"bike_id":"11f57311-455a-4a25-a162-ef699deb2e82","system_id":"levelo_inurba_marseille","lat":43.316517,"lon":5.404375,"is_reserved":false,"is_disabled":false,"rental_uris":{"android":"levelo://app?vid=11f57311-455a-4a25-a162-ef699deb2e82","ios":"levelo://app?vid=11f57311-455a-4a25-a162-ef699deb2e82"},"vehicle_type_id":"4","last_reported":1686780383,"current_range_meters":16400,"station_id":"ce4bh012rcd13ifvqd00","pricing_plan_id":"free"},{"bike_id":"6264a488-ae27-48cf-a1f8-eb5050ca1f06","system_id":"levelo_inurba_marseille","lat":43.316517,"lon":5.404375,"is_reserved":false,"is_disabled":false,"rental_uris":{"android":"levelo://app?vid=6264a488-ae27-48cf-a1f8-eb5050ca1f06","ios":"levelo://app?vid=6264a488-ae27-48cf-a1f8-eb5050ca1f06"},"vehicle_type_id":"4","last_reported":1686780383,"current_range_meters":29600,"station_id":"ce4bh012rcd13ifvqd00","pricing_plan_id":"free"},{"bike_id":"27016919-79d5-4339-81ea-f768f456e0b1","system_id":"levelo_inurba_marseille","lat":43.316517,"lon":5.404375,"is_reserved":false,"is_disabled":false,"rental_uris":{"android":"levelo://app?vid=27016919-79d5-4339-81ea-f768f456e0b1","ios":"levelo://app?vid=27016919-79d5-4339-81ea-f768f456e0b1"},"vehicle_type_id":"4","last_reported":1686780383,"current_range_meters":25600,"station_id":"ce4bh012rcd13ifvqd00","pricing_plan_id":"free"},{"bike_id":"de36fd6b-ef0a-4508-8db4-2ff59dd1c81f","system_id":"levelo_inurba_marseille","lat":43.316517,"lon":5.404375,"is_reserved":false,"is_disabled":false,"rental_uris":{"android":"levelo://app?vid=de36fd6b-ef0a-4508-8db4-2ff59dd1c81f","ios":"levelo://app?vid=de36fd6b-ef0a-4508-8db4-2ff59dd1c81f"},"vehicle_type_id":"4","last_reported":1686780383,"current_range_meters":31200,"station_id":"ce4bh012rcd13ifvqd00","pricing_plan_id":"free"},{"bike_id":"edca878e-20c3-44db-8bd3-48898ea1b4af","system_id":"levelo_inurba_marseille","lat":43.316517,"lon":5.404375,"is_reserved":false,"is_disabled":false,"rental_uris":{"android":"levelo://app?vid=edca878e-20c3-44db-8bd3-48898ea1b4af","ios":"levelo://app?vid=edca878e-20c3-44db-8bd3-48898ea1b4af"},"vehicle_type_id":"4","last_reported":1686780383,"current_range_meters":13200,"station_id":"ce4bh012rcd13ifvqd00","pricing_plan_id":"free"},{"bike_id":"ff3bfb41-f8c2-4815-8762-86f495b6e92b","system_id":"levelo_inurba_marseille","lat":43.316517,"lon":5.404375,"is_reserved":false,"is_disabled":false,"rental_uris":{"android":"levelo://app?vid=ff3bfb41-f8c2-4815-8762-86f495b6e92b","ios":"levelo://app?vid=ff3bfb41-f8c2-4815-8762-86f495b6e92b"},"vehicle_type_id":"4","last_reported":1686780383,"current_range_meters":22400,"station_id":"ce4bh012rcd13ifvqd00","pricing_plan_id":"free"},{"bike_id":"6c9f3dd5-fb53-429f-9700-e3388568a33f","system_id":"levelo_inurba_marseille","lat":43.29211,"lon":5.39316,"is_reserved":false,"is_disabled":false,"rental_uris":{"android":"levelo://app?vid=6c9f3dd5-fb53-429f-9700-e3388568a33f","ios":"levelo://app?vid=6c9f3dd5-fb53-429f-9700-e3388568a33f"},"vehicle_type_id":"4","last_reported":1686780383,"current_range_meters":26400,"station_id":"","pricing_plan_id":"free"},{"bike_id":"587d0406-b061-47ce-8289-735cd0852af8","system_id":"levelo_inurba_marseille","lat":43.261782,"lon":5.374515,"is_reserved":false,"is_disabled":false,"rental_uris":{"android":"levelo://app?vid=587d0406-b061-47ce-8289-735cd0852af8","ios":"levelo://app?vid=587d0406-b061-47ce-8289-735cd0852af8"},"vehicle_type_id":"4","last_reported":1686780383,"current_range_meters":18800,"station_id":"ce4bhgp2rcd13ifvqfc0","pricing_plan_id":"free"},{"bike_id":"b7f11d68-f29b-4483-a0df-34bea97e4502","system_id":"levelo_inurba_marseille","lat":43.29201,"lon":5.39313,"is_reserved":false,"is_disabled":false,"rental_uris":{"android":"levelo://app?vid=b7f11d68-f29b-4483-a0df-34bea97e4502","ios":"levelo://app?vid=b7f11d68-f29b-4483-a0df-34bea97e4502"},"vehicle_type_id":"4","last_reported":1686780383,"current_range_meters":28800,"station_id":"ce4bh192rcd13ifvqdd0","pricing_plan_id":"free"},{"bike_id":"5fc5035f-2d58-490e-8cb1-873231c172db","system_id":"levelo_inurba_marseille","lat":43.29207,"lon":5.39324,"is_reserved":false,"is_disabled":false,"rental_uris":{"android":"levelo://app?vid=5fc5035f-2d58-490e-8cb1-873231c172db","ios":"levelo://app?vid=5fc5035f-2d58-490e-8cb1-873231c172db"},"vehicle_type_id":"4","last_reported":1686780383,"current_range_meters":24800,"station_id":"","pricing_plan_id":"free"},{"bike_id":"61a58159-15e4-4b20-90a8-55ee16080aac","system_id":"levelo_inurba_marseille","lat":43.284534,"lon":5.358662,"is_reserved":false,"is_disabled":false,"rental_uris":{"android":"levelo://app?vid=61a58159-15e4-4b20-90a8-55ee16080aac","ios":"levelo://app?vid=61a58159-15e4-4b20-90a8-55ee16080aac"},"vehicle_type_id":"4","last_reported":1686780383,"current_range_meters":12400,"station_id":"ce4bhah2rcd13ifvqei0","pricing_plan_id":"free"},{"bike_id":"4c6aed51-40a2-46d6-bad4-93ee0f4f046c","system_id":"levelo_inurba_marseille","lat":43.284534,"lon":5.358662,"is_reserved":false,"is_disabled":false,"rental_uris":{"android":"levelo://app?vid=4c6aed51-40a2-46d6-bad4-93ee0f4f046c","ios":"levelo://app?vid=4c6aed51-40a2-46d6-bad4-93ee0f4f046c"},"vehicle_type_id":"4","last_reported":1686780383,"current_range_meters":31200,"station_id":"ce4bhah2rcd13ifvqei0","pricing_plan_id":"free"},{"bike_id":"e4ccbc55-27a7-4588-b922-012488327a46","system_id":"levelo_inurba_marseille","lat":43.28459,"lon":5.35889,"is_reserved":false,"is_disabled":false,"rental_uris":{"android":"levelo://app?vid=e4ccbc55-27a7-4588-b922-012488327a46","ios":"levelo://app?vid=e4ccbc55-27a7-4588-b922-012488327a46"},"vehicle_type_id":"4","last_reported":1686780383,"current_range_meters":24000,"station_id":"ce4bhah2rcd13ifvqei0","pricing_plan_id":"free"},{"bike_id":"c8ed13f3-0838-4f0e-a033-08dac6e8da05","system_id":"levelo_inurba_marseille","lat":43.294314,"lon":5.397498,"is_reserved":false,"is_disabled":false,"rental_uris":{"android":"levelo://app?vid=c8ed13f3-0838-4f0e-a033-08dac6e8da05","ios":"levelo://app?vid=c8ed13f3-0838-4f0e-a033-08dac6e8da05"},"vehicle_type_id":"4","last_reported":1686780383,"current_range_meters":24800,"station_id":"ce4bh3h2rcd13ifvqdo0","pricing_plan_id":"free"},{"bike_id":"b36f24f8-a575-432a-9bc5-ee3efdd749f7","system_id":"levelo_inurba_marseille","lat":43.28457,"lon":5.35889,"is_reserved":false,"is_disabled":false,"rental_uris":{"android":"levelo://app?vid=b36f24f8-a575-432a-9bc5-ee3efdd749f7","ios":"levelo://app?vid=b36f24f8-a575-432a-9bc5-ee3efdd749f7"},"vehicle_type_id":"4","last_reported":1686780383,"current_range_meters":21200,"station_id":"ce4bhah2rcd13ifvqei0","pricing_plan_id":"free"},{"bike_id":"56691018-e492-4191-921b-5c73b4e47e2d","system_id":"levelo_inurba_marseille","lat":43.28457,"lon":5.35885,"is_reserved":false,"is_disabled":false,"rental_uris":{"android":"levelo://app?vid=56691018-e492-4191-921b-5c73b4e47e2d","ios":"levelo://app?vid=56691018-e492-4191-921b-5c73b4e47e2d"},"vehicle_type_id":"4","last_reported":1686780383,"current_range_meters":6000,"station_id":"ce4bhah2rcd13ifvqei0","pricing_plan_id":"free"},{"bike_id":"636ddd84-d243-4e2e-817f-af4762519928","system_id":"levelo_inurba_marseille","lat":43.28455,"lon":5.35893,"is_reserved":false,"is_disabled":false,"rental_uris":{"android":"levelo://app?vid=636ddd84-d243-4e2e-817f-af4762519928","ios":"levelo://app?vid=636ddd84-d243-4e2e-817f-af4762519928"},"vehicle_type_id":"4","last_reported":1686780383,"current_range_meters":14800,"station_id":"ce4bhah2rcd13ifvqei0","pricing_plan_id":"free"},{"bike_id":"00457d24-fcfd-47e0-9870-54b63d7ac5b8","system_id":"levelo_inurba_marseille","lat":43.28454,"lon":5.35891,"is_reserved":false,"is_disabled":false,"rental_uris":{"android":"levelo://app?vid=00457d24-fcfd-47e0-9870-54b63d7ac5b8","ios":"levelo://app?vid=00457d24-fcfd-47e0-9870-54b63d7ac5b8"},"vehicle_type_id":"4","last_reported":1686780383,"current_range_meters":1600,"station_id":"ce4bhah2rcd13ifvqei0","pricing_plan_id":"free"},{"bike_id":"04f22a19-ba0b-4647-bf95-cc1548cd6d5f","system_id":"levelo_inurba_marseille","lat":43.28454,"lon":5.35889,"is_reserved":false,"is_disabled":false,"rental_uris":{"android":"levelo://app?vid=04f22a19-ba0b-4647-bf95-cc1548cd6d5f","ios":"levelo://app?vid=04f22a19-ba0b-4647-bf95-cc1548cd6d5f"},"vehicle_type_id":"4","last_reported":1686780383,"current_range_meters":3600,"station_id":"ce4bhah2rcd13ifvqei0","pricing_plan_id":"free"},{"bike_id":"813dcde9-6de7-4fdf-9511-c969a4152351","system_id":"levelo_inurba_marseille","lat":43.285856,"lon":5.350771,"is_reserved":false,"is_disabled":false,"rental_uris":{"android":"levelo://app?vid=813dcde9-6de7-4fdf-9511-c969a4152351","ios":"levelo://app?vid=813dcde9-6de7-4fdf-9511-c969a4152351"},"vehicle_type_id":"4","last_reported":1686780383,"current_range_meters":19200,"station_id":"ce4bhch2rcd13ifvqeug","pricing_plan_id":"free"},{"bike_id":"10268b0b-bd9d-4286-8873-019a323d305e","system_id":"levelo_inurba_marseille","lat":43.285856,"lon":5.350771,"is_reserved":false,"is_disabled":false,"rental_uris":{"android":"levelo://app?vid=10268b0b-bd9d-4286-8873-019a323d305e","ios":"levelo://app?vid=10268b0b-bd9d-4286-8873-019a323d305e"},"vehicle_type_id":"4","last_reported":1686780383,"current_range_meters":28000,"station_id":"ce4bhch2rcd13ifvqeug","pricing_plan_id":"free"},{"bike_id":"71b9d691-2c11-446c-a2ec-5ca24fe033ae","system_id":"levelo_inurba_marseille","lat":43.285856,"lon":5.350771,"is_reserved":false,"is_disabled":false,"rental_uris":{"android":"levelo://app?vid=71b9d691-2c11-446c-a2ec-5ca24fe033ae","ios":"levelo://app?vid=71b9d691-2c11-446c-a2ec-5ca24fe033ae"},"vehicle_type_id":"4","last_reported":1686780383,"current_range_meters":800,"station_id":"ce4bhch2rcd13ifvqeug","pricing_plan_id":"free"},{"bike_id":"56a0d016-484d-443c-86e0-548005991559","system_id":"levelo_inurba_marseille","lat":43.285856,"lon":5.350771,"is_reserved":false,"is_disabled":false,"rental_uris":{"android":"levelo://app?vid=56a0d016-484d-443c-86e0-548005991559","ios":"levelo://app?vid=56a0d016-484d-443c-86e0-548005991559"},"vehicle_type_id":"4","last_reported":1686780383,"current_range_meters":16800,"station_id":"ce4bhch2rcd13ifvqeug","pricing_plan_id":"free"},{"bike_id":"a8c4691a-d629-4225-be92-4f38aab00c53","system_id":"levelo_inurba_marseille","lat":43.2861,"lon":5.35102,"is_reserved":false,"is_disabled":false,"rental_uris":{"android":"levelo://app?vid=a8c4691a-d629-4225-be92-4f38aab00c53","ios":"levelo://app?vid=a8c4691a-d629-4225-be92-4f38aab00c53"},"vehicle_type_id":"4","last_reported":1686780383,"current_range_meters":20400,"station_id":"","pricing_plan_id":"free"},{"bike_id":"380ad757-efeb-4cae-8a0e-61eb65bfb4e2","system_id":"levelo_inurba_marseille","lat":43.2861,"lon":5.35095,"is_reserved":false,"is_disabled":false,"rental_uris":{"android":"levelo://app?vid=380ad757-efeb-4cae-8a0e-61eb65bfb4e2","ios":"levelo://app?vid=380ad757-efeb-4cae-8a0e-61eb65bfb4e2"},"vehicle_type_id":"4","last_reported":1686780383,"current_range_meters":31200,"station_id":"","pricing_plan_id":"free"},{"bike_id":"b9fce8d2-04ea-499a-a674-7fc1e8ead4c5","system_id":"levelo_inurba_marseille","lat":43.283998,"lon":5.375062,"is_reserved":false,"is_disabled":false,"rental_uris":{"android":"levelo://app?vid=b9fce8d2-04ea-499a-a674-7fc1e8ead4c5","ios":"levelo://app?vid=b9fce8d2-04ea-499a-a674-7fc1e8ead4c5"},"vehicle_type_id":"4","last_reported":1686780383,"current_range_meters":23600,"station_id":"ce4bh412rcd13ifvqds0","pricing_plan_id":"free"},{"bike_id":"5accf09e-0c0a-4ac1-87e7-e22da4888152","system_id":"levelo_inurba_marseille","lat":43.295713,"lon":5.399639,"is_reserved":false,"is_disabled":false,"rental_uris":{"android":"levelo://app?vid=5accf09e-0c0a-4ac1-87e7-e22da4888152","ios":"levelo://app?vid=5accf09e-0c0a-4ac1-87e7-e22da4888152"},"vehicle_type_id":"4","last_reported":1686780383,"current_range_meters":12800,"station_id":"ce4bh312rcd13ifvqdj0","pricing_plan_id":"free"},{"bike_id":"fe3db8b2-dafd-4e30-9d28-e5a6b48ad8e5","system_id":"levelo_inurba_marseille","lat":43.29575,"lon":5.39968,"is_reserved":false,"is_disabled":false,"rental_uris":{"android":"levelo://app?vid=fe3db8b2-dafd-4e30-9d28-e5a6b48ad8e5","ios":"levelo://app?vid=fe3db8b2-dafd-4e30-9d28-e5a6b48ad8e5"},"vehicle_type_id":"4","last_reported":1686780383,"current_range_meters":31200,"station_id":"ce4bh312rcd13ifvqdj0","pricing_plan_id":"free"},{"bike_id":"67ead771-b53b-4443-91b7-45253aab17ca","system_id":"levelo_inurba_marseille","lat":43.295713,"lon":5.399639,"is_reserved":false,"is_disabled":false,"rental_uris":{"android":"levelo://app?vid=67ead771-b53b-4443-91b7-45253aab17ca","ios":"levelo://app?vid=67ead771-b53b-4443-91b7-45253aab17ca"},"vehicle_type_id":"4","last_reported":1686780383,"current_range_meters":1200,"station_id":"ce4bh312rcd13ifvqdj0","pricing_plan_id":"free"},{"bike_id":"bf0fc2ec-1aef-4950-8ec5-0666b1e9771f","system_id":"levelo_inurba_marseille","lat":43.295713,"lon":5.399639,"is_reserved":false,"is_disabled":false,"rental_uris":{"android":"levelo://app?vid=bf0fc2ec-1aef-4950-8ec5-0666b1e9771f","ios":"levelo://app?vid=bf0fc2ec-1aef-4950-8ec5-0666b1e9771f"},"vehicle_type_id":"4","last_reported":1686780383,"current_range_meters":14400,"station_id":"ce4bh312rcd13ifvqdj0","pricing_plan_id":"free"},{"bike_id":"dcda1c1a-ea16-45ec-8c5c-ced4884a6b94","system_id":"levelo_inurba_marseille","lat":43.283998,"lon":5.375062,"is_reserved":false,"is_disabled":false,"rental_uris":{"android":"levelo://app?vid=dcda1c1a-ea16-45ec-8c5c-ced4884a6b94","ios":"levelo://app?vid=dcda1c1a-ea16-45ec-8c5c-ced4884a6b94"},"vehicle_type_id":"4","last_reported":1686780383,"current_range_meters":21200,"station_id":"ce4bh412rcd13ifvqds0","pricing_plan_id":"free"},{"bike_id":"fee93c05-1f87-44c9-a401-46ef9bebb9c3","system_id":"levelo_inurba_marseille","lat":43.295713,"lon":5.399639,"is_reserved":false,"is_disabled":false,"rental_uris":{"android":"levelo://app?vid=fee93c05-1f87-44c9-a401-46ef9bebb9c3","ios":"levelo://app?vid=fee93c05-1f87-44c9-a401-46ef9bebb9c3"},"vehicle_type_id":"4","last_reported":1686780383,"current_range_meters":26000,"station_id":"ce4bh312rcd13ifvqdj0","pricing_plan_id":"free"},{"bike_id":"feb88d57-2da2-4044-8783-827239163e84","system_id":"levelo_inurba_marseille","lat":43.295713,"lon":5.399639,"is_reserved":false,"is_disabled":false,"rental_uris":{"android":"levelo://app?vid=feb88d57-2da2-4044-8783-827239163e84","ios":"levelo://app?vid=feb88d57-2da2-4044-8783-827239163e84"},"vehicle_type_id":"4","last_reported":1686780383,"current_range_meters":31200,"station_id":"ce4bh312rcd13ifvqdj0","pricing_plan_id":"free"},{"bike_id":"fb08a36d-7315-4f13-9b91-b88763ca33ae","system_id":"levelo_inurba_marseille","lat":43.295713,"lon":5.399639,"is_reserved":false,"is_disabled":false,"rental_uris":{"android":"levelo://app?vid=fb08a36d-7315-4f13-9b91-b88763ca33ae","ios":"levelo://app?vid=fb08a36d-7315-4f13-9b91-b88763ca33ae"},"vehicle_type_id":"4","last_reported":1686780383,"current_range_meters":31200,"station_id":"ce4bh312rcd13ifvqdj0","pricing_plan_id":"free"},{"bike_id":"29835563-a4a8-48ef-b219-2d89906dfcf6","system_id":"levelo_inurba_marseille","lat":43.295713,"lon":5.399639,"is_reserved":false,"is_disabled":false,"rental_uris":{"android":"levelo://app?vid=29835563-a4a8-48ef-b219-2d89906dfcf6","ios":"levelo://app?vid=29835563-a4a8-48ef-b219-2d89906dfcf6"},"vehicle_type_id":"4","last_reported":1686780383,"current_range_meters":20000,"station_id":"ce4bh312rcd13ifvqdj0","pricing_plan_id":"free"},{"bike_id":"6c3899d4-834f-45f3-a3e2-ce43553997a6","system_id":"levelo_inurba_marseille","lat":43.286595,"lon":5.386795,"is_reserved":false,"is_disabled":false,"rental_uris":{"android":"levelo://app?vid=6c3899d4-834f-45f3-a3e2-ce43553997a6","ios":"levelo://app?vid=6c3899d4-834f-45f3-a3e2-ce43553997a6"},"vehicle_type_id":"4","last_reported":1686780383,"current_range_meters":12000,"station_id":"ce4bh492rcd13ifvqdug","pricing_plan_id":"free"},{"bike_id":"252fd9d7-2a77-40a4-96d6-88b7015642f7","system_id":"levelo_inurba_marseille","lat":43.295713,"lon":5.399639,"is_reserved":false,"is_disabled":false,"rental_uris":{"android":"levelo://app?vid=252fd9d7-2a77-40a4-96d6-88b7015642f7","ios":"levelo://app?vid=252fd9d7-2a77-40a4-96d6-88b7015642f7"},"vehicle_type_id":"4","last_reported":1686780383,"current_range_meters":12000,"station_id":"ce4bh312rcd13ifvqdj0","pricing_plan_id":"free"},