{"last_updated":1744287597,"ttl":60,"version":"2.2","data":{"bikes":[{"bike_id":"395012d9-1e37-49cd-8621-a13ac10cd211","system_id":"levelo_inurba_marseille","lat":43.29415,"lon":5.38616,"is_reserved":false,"is_disabled":false,"rental_uris":{"android":"levelo://app?vid=395012d9-1e37-49cd-8621-a13ac10cd211","ios":"levelo://app?vid=395012d9-1e37-49cd-8621-a13ac10cd211"},"vehicle_type_id":"4","last_reported":1744287598,"current_range_meters":2800,"station_id":"ce4bh2h2rcd13ifvqdh0","pricing_plan_id":"cebpf4jnsgd1na2vs0mg"},{"bike_id":"eef0e21c-5c31-4a1b-87bc-2db4dd043739","system_id":"levelo_inurba_marseille","lat":43.289192,"lon":5.384177,"is_reserved":false,"is_disabled":false,"rental_uris":{"android":"levelo://app?vid=eef0e21c-5c31-4a1b-87bc-2db4dd043739","ios":"levelo://app?vid=eef0e21c-5c31-4a1b-87bc-2db4dd043739"},"vehicle_type_id":"4","last_reported":1744287598,"current_range_meters":800,"station_id":"ce4bh612rcd13ifvqe6g","pricing_plan_id":"cebpf4jnsgd1na2vs0mg"},{"bike_id":"56be35c1-5932-4ce3-81d5-023cf8a9e32a","system_id":"levelo_inurba_marseille","lat":43.29594,"lon":5.38095,"is_reserved":false,"is_disabled":false,"rental_uris":{"android":"levelo://app?vid=56be35c1-5932-4ce3-81d5-023cf8a9e32a","ios":"levelo://app?vid=56be35c1-5932-4ce3-81d5-023cf8a9e32a"},"vehicle_type_id":"4","last_reported":1744287598,"current_range_meters":3200,"station_id":"ce4bgl12rcd13ifvqbo0","pricing_plan_id":"cebpf4jnsgd1na2vs0mg"},{"bike_id":"f695138a-5db1-4fde-912a-f4d5b96944fa","system_id":"levelo_inurba_marseille","lat":43.31326,"lon":5.39703,"is_reserved":false,"is_disabled":false,"rental_uris":{"android":"levelo://app?vid=f695138a-5db1-4fde-912a-f4d5b96944fa","ios":"levelo://app?vid=f695138a-5db1-4fde-912a-f4d5b96944fa"},"vehicle_type_id":"4","last_reported":1744287598,"current_range_meters":6400,"station_id":"ce4bgvp2rcd13ifvqcu0","pricing_plan_id":"cebpf4jnsgd1na2vs0mg"},{"bike_id":"431c0275-4a04-46ef-945e-627c2cd0c7b8","system_id":"levelo_inurba_marseille","lat":43.28616,"lon":5.37064,"is_reserved":false,"is_disabled":false,"rental_uris":{"android":"levelo://app?vid=431c0275-4a04-46ef-945e-627c2cd0c7b8","ios":"levelo://app?vid=431c0275-4a04-46ef-945e-627c2cd0c7b8"},"vehicle_type_id":"4","last_reported":1744287598,"current_range_meters":3200,"station_id":"ce4bht12rcd13ifvqi60","pricing_plan_id":"cebpf4jnsgd1na2vs0mg"},{"bike_id":"145c69da-ac08-412e-938f-a86096f4ab75","system_id":"levelo_inurba_marseille","lat":43.29231,"lon":5.36093,"is_reserved":false,"is_disabled":false,"rental_uris":{"android":"levelo://app?vid=145c69da-ac08-412e-938f-a86096f4ab75","ios":"levelo://app?vid=145c69da-ac08-412e-938f-a86096f4ab75"},"vehicle_type_id":"4","last_reported":1744287598,"current_range_meters":3600,"station_id":"ce4bhbh2rcd13ifvqeqg","pricing_plan_id":"cebpf4jnsgd1na2vs0mg"},{"bike_id":"8e85f473-c571-4cb5-8edc-6aa03557441b","system_id":"levelo_inurba_marseille","lat":43.28464,"lon":5.38419,"is_reserved":false,"is_disabled":false,"rental_uris":{"android":"levelo://app?vid=8e85f473-c571-4cb5-8edc-6aa03557441b","ios":"levelo://app?vid=8e85f473-c571-4cb5-8edc-6aa03557441b"},"vehicle_type_id":"4","last_reported":1744287598,"current_range_meters":3600,"station_id":"ce4bh512rcd13ifvqe3g","pricing_plan_id":"cebpf4jnsgd1na2vs0mg"},{"bike_id":"a62aa682-f11c-4089-8eaa-febfa2b3e7c6","system_id":"levelo_inurba_marseille","lat":43.23142,"lon":5.43706,"is_reserved":false,"is_disabled":false,"rental_uris":{"android":"levelo://app?vid=a62aa682-f11c-4089-8eaa-febfa2b3e7c6","ios":"levelo://app?vid=a62aa682-f11c-4089-8eaa-febfa2b3e7c6"},"vehicle_type_id":"4","last_reported":1744287598,"current_range_meters":3600,"station_id":"ce4bhmp2rcd13ifvqgog","pricing_plan_id":"cebpf4jnsgd1na2vs0mg"},{"bike_id":"97d9f5c7-5601-4024-8218-e080850705e4","system_id":"levelo_inurba_marseille","lat":43.28418,"lon":5.35,"is_reserved":false,"is_disabled":true,"rental_uris":{"android":"levelo://app?vid=97d9f5c7-5601-4024-8218-e080850705e4","ios":"levelo://app?vid=97d9f5c7-5601-4024-8218-e080850705e4"},"vehicle_type_id":"4","last_reported":1744287598,"current_range_meters":4000,"station_id":"ce4bhbh2rcd13ifvqepg","pricing_plan_id":"cebpf4jnsgd1na2vs0mg"},{"bike_id":"e4e67622-b0d8-4f09-affe-60de3787151a","system_id":"levelo_inurba_marseille","lat":43.28044,"lon":5.36943,"is_reserved":false,"is_disabled":false,"rental_uris":{"android":"levelo://app?vid=e4e67622-b0d8-4f09-affe-60de3787151a","ios":"levelo://app?vid=e4e67622-b0d8-4f09-affe-60de3787151a"},"vehicle_type_id":"4","last_reported":1744287598,"current_range_meters":4000,"station_id":"ce4bha12rcd13ifvqef0","pricing_plan_id":"cebpf4jnsgd1na2vs0mg"},{"bike_id":"61b5c3a4-fd48-41b1-b6d9-784664a74add","system_id":"levelo_inurba_marseille","lat":43.28419,"lon":5.34977,"is_reserved":false,"is_disabled":false,"rental_uris":{"android":"levelo://app?vid=61b5c3a4-fd48-41b1-b6d9-784664a74add","ios":"levelo://app?vid=61b5c3a4-fd48-41b1-b6d9-784664a74add"},"vehicle_type_id":"4","last_reported":1744287598,"current_range_meters":4000,"station_id":"ce4bhbh2rcd13ifvqepg","pricing_plan_id":"cebpf4jnsgd1na2vs0mg"},{"bike_id":"6d58f8c5-5ca6-4710-b40d-80b0a7d90518","system_id":"levelo_inurba_marseille","lat":43.30599,"lon":5.37225,"is_reserved":false,"is_disabled":false,"rental_uris":{"android":"levelo://app?vid=6d58f8c5-5ca6-4710-b40d-80b0a7d90518","ios":"levelo://app?vid=6d58f8c5-5ca6-4710-b40d-80b0a7d90518"},"vehicle_type_id":"4","last_reported":1744287598,"current_range_meters":4400,"station_id":"ce4bgqh2rcd13ifvqc4g","pricing_plan_id":"cebpf4jnsgd1na2vs0mg"},{"bike_id":"80663e12-6b64-446d-88c9-20255bde1a8a","system_id":"levelo_inurba_marseille","lat":43.30883,"lon":5.39667,"is_reserved":false,"is_disabled":true,"rental_uris":{"android":"levelo://app?vid=80663e12-6b64-446d-88c9-20255bde1a8a","ios":"levelo://app?vid=80663e12-6b64-446d-88c9-20255bde1a8a"},"vehicle_type_id":"4","last_reported":1744287598,"current_range_meters":4400,"station_id":"ce4bh012rcd13ifvqcv0","pricing_plan_id":"cebpf4jnsgd1na2vs0mg"},{"bike_id":"1ffb0fe8-21da-4270-8c2a-45d8c3f944e7","system_id":"levelo_inurba_marseille","lat":43.28043,"lon":5.36958,"is_reserved":false,"is_disabled":false,"rental_uris":{"android":"levelo://app?vid=1ffb0fe8-21da-4270-8c2a-45d8c3f944e7","ios":"levelo://app?vid=1ffb0fe8-21da-4270-8c2a-45d8c3f944e7"},"vehicle_type_id":"4","last_reported":1744287598,"current_range_meters":4400,"station_id":"ce4bha12rcd13ifvqef0","pricing_plan_id":"cebpf4jnsgd1na2vs0mg"},{"bike_id":"a230a40a-3eee-4637-928e-466eaae46c49","system_id":"levelo_inurba_marseille","lat":43.29701,"lon":5.36623,"is_reserved":false,"is_disabled":false,"rental_uris":{"android":"levelo://app?vid=a230a40a-3eee-4637-928e-466eaae46c49","ios":"levelo://app?vid=a230a40a-3eee-4637-928e-466eaae46c49"},"vehicle_type_id":"4","last_reported":1744287598,"current_range_meters":4000,"station_id":"ce4bgn12rcd13ifvqbt0","pricing_plan_id":"cebpf4jnsgd1na2vs0mg"},{"bike_id":"7b7f7cf9-a9e6-427e-83e8-7625188164d8","system_id":"levelo_inurba_marseille","lat":43.28698,"lon":5.37399,"is_reserved":false,"is_disabled":false,"rental_uris":{"android":"levelo://app?vid=7b7f7cf9-a9e6-427e-83e8-7625188164d8","ios":"levelo://app?vid=7b7f7cf9-a9e6-427e-83e8-7625188164d8"},"vehicle_type_id":"4","last_reported":1744287598,"current_range_meters":4800,"station_id":"ce4bh3p2rcd13ifvqdq0","pricing_plan_id":"cebpf4jnsgd1na2vs0mg"},{"bike_id":"08f9c0c8-8b33-4578-8a03-20f44d582241","system_id":"levelo_inurba_marseille","lat":43.30555,"lon":5.36964,"is_reserved":false,"is_disabled":false,"rental_uris":{"android":"levelo://app?vid=08f9c0c8-8b33-4578-8a03-20f44d582241","ios":"levelo://app?vid=08f9c0c8-8b33-4578-8a03-20f44d582241"},"vehicle_type_id":"4","last_reported":1744287598,"current_range_meters":5600,"station_id":"","pricing_plan_id":"cebpf4jnsgd1na2vs0mg"},{"bike_id":"9f242ee2-e2b2-42e1-b1db-87ef97579b9f","system_id":"levelo_inurba_marseille","lat":43.296998,"lon":5.366273,"is_reserved":false,"is_disabled":false,"rental_uris":{"android":"levelo://app?vid=9f242ee2-e2b2-42e1-b1db-87ef97579b9f","ios":"levelo://app?vid=9f242ee2-e2b2-42e1-b1db-87ef97579b9f"},"vehicle_type_id":"4","last_reported":1744287598,"current_range_meters":3600,"station_id":"ce4bgn12rcd13ifvqbt0","pricing_plan_id":"cebpf4jnsgd1na2vs0mg"},{"bike_id":"7f78ef2f-07dd-4c1b-a1f5-5c2598f37fd7","system_id":"levelo_inurba_marseille","lat":43.23153,"lon":5.43708,"is_reserved":false,"is_disabled":false,"rental_uris":{"android":"levelo://app?vid=7f78ef2f-07dd-4c1b-a1f5-5c2598f37fd7","ios":"levelo://app?vid=7f78ef2f-07dd-4c1b-a1f5-5c2598f37fd7"},"vehicle_type_id":"4","last_reported":1744287598,"current_range_meters":5600,"station_id":"ce4bhmp2rcd13ifvqgog","pricing_plan_id":"cebpf4jnsgd1na2vs0mg"},{"bike_id":"683a81fc-5ac9-4887-8820-b268aea3cd9c","system_id":"levelo_inurba_marseille","lat":43.24408,"lon":5.3701,"is_reserved":false,"is_disabled":false,"rental_uris":{"android":"levelo://app?vid=683a81fc-5ac9-4887-8820-b268aea3cd9c","ios":"levelo://app?vid=683a81fc-5ac9-4887-8820-b268aea3cd9c"},"vehicle_type_id":"4","last_reported":1744287598,"current_range_meters":5600,"station_id":"","pricing_plan_id":"cebpf4jnsgd1na2vs0mg"},{"bike_id":"d9f82e19-ff07-4b57-8c29-0d94d9272609","system_id":"levelo_inurba_marseille","lat":43.29029,"lon":5.38653,"is_reserved":false,"is_disabled":false,"rental_uris":{"android":"levelo://app?vid=d9f82e19-ff07-4b57-8c29-0d94d9272609","ios":"levelo://app?vid=d9f82e19-ff07-4b57-8c29-0d94d9272609"},"vehicle_type_id":"4","last_reported":1744287598,"current_range_meters":5600,"station_id":"ce4bh4p2rcd13ifvqe0g","pricing_plan_id":"cebpf4jnsgd1na2vs0mg"},{"bike_id":"4a9a2a88-b7aa-410e-bfe8-10ac7056326d","system_id":"levelo_inurba_marseille","lat":43.28945,"lon":5.39637,"is_reserved":false,"is_disabled":true,"rental_uris":{"android":"levelo://app?vid=4a9a2a88-b7aa-410e-bfe8-10ac7056326d","ios":"levelo://app?vid=4a9a2a88-b7aa-410e-bfe8-10ac7056326d"},"vehicle_type_id":"4","last_reported":1744287598,"current_range_meters":6000,"station_id":"ce4bh3h2rcd13ifvqdn0","pricing_plan_id":"cebpf4jnsgd1na2vs0mg"},{"bike_id":"758e8708-ecd2-494d-80c8-3ff8f0fbc44b","system_id":"levelo_inurba_marseille","lat":43.29971,"lon":5.41327,"is_reserved":false,"is_disabled":false,"rental_uris":{"android":"levelo://app?vid=758e8708-ecd2-494d-80c8-3ff8f0fbc44b","ios":"levelo://app?vid=758e8708-ecd2-494d-80c8-3ff8f0fbc44b"},"vehicle_type_id":"4","last_reported":1744287598,"current_range_meters":6000,"station_id":"ce4bhp12rcd13ifvqh9g","pricing_plan_id":"cebpf4jnsgd1na2vs0mg"},{"bike_id":"f5e9ad40-a18c-4f06-937d-ca294a75b5c9","system_id":"levelo_inurba_marseille","lat":43.30785,"lon":5.43525,"is_reserved":false,"is_disabled":false,"rental_uris":{"android":"levelo://app?vid=f5e9ad40-a18c-4f06-937d-ca294a75b5c9","ios":"levelo://app?vid=f5e9ad40-a18c-4f06-937d-ca294a75b5c9"},"vehicle_type_id":"4","last_reported":1744287598,"current_range_meters":6000,"station_id":"ce4bhph2rcd13ifvqheg","pricing_plan_id":"cebpf4jnsgd1na2vs0mg"},{"bike_id":"1310fbc7-e018-4d6e-8568-90252c271ba1","system_id":"levelo_inurba_marseille","lat":43.312346,"lon":5.368551,"is_reserved":false,"is_disabled":false,"rental_uris":{"android":"levelo://app?vid=1310fbc7-e018-4d6e-8568-90252c271ba1","ios":"levelo://app?vid=1310fbc7-e018-4d6e-8568-90252c271ba1"},"vehicle_type_id":"4","last_reported":1744287598,"current_range_meters":6000,"station_id":"ce4bgl92rcd13ifvqbq0","pricing_plan_id":"cebpf4jnsgd1na2vs0mg"},{"bike_id":"a4753215-88e1-441f-b0d9-5416b7f15b32","system_id":"levelo_inurba_marseille","lat":43.28944,"lon":5.39638,"is_reserved":false,"is_disabled":false,"rental_uris":{"android":"levelo://app?vid=a4753215-88e1-441f-b0d9-5416b7f15b32","ios":"levelo://app?vid=a4753215-88e1-441f-b0d9-5416b7f15b32"},"vehicle_type_id":"4","last_reported":1744287598,"current_range_meters":6400,"station_id":"ce4bh3h2rcd13ifvqdn0","pricing_plan_id":"cebpf4jnsgd1na2vs0mg"},{"bike_id":"29088c05-6a89-4fd6-9d0c-ac76d8475e69","system_id":"levelo_inurba_marseille","lat":43.29502,"lon":5.37526,"is_reserved":false,"is_disabled":false,"rental_uris":{"android":"levelo://app?vid=29088c05-6a89-4fd6-9d0c-ac76d8475e69","ios":"levelo://app?vid=29088c05-6a89-4fd6-9d0c-ac76d8475e69"},"vehicle_type_id":"4","last_reported":1744287598,"current_range_meters":8800,"station_id":"ce4bgkp2rcd13ifvqbmg","pricing_plan_id":"cebpf4jnsgd1na2vs0mg"},{"bike_id":"f9fde33d-3e05-4f24-9670-2ad2d1cacdc1","system_id":"levelo_inurba_marseille","lat":43.28098,"lon":5.37869,"is_reserved":false,"is_disabled":true,"rental_uris":{"android":"levelo://app?vid=f9fde33d-3e05-4f24-9670-2ad2d1cacdc1","ios":"levelo://app?vid=f9fde33d-3e05-4f24-9670-2ad2d1cacdc1"},"vehicle_type_id":"4","last_reported":1744287598,"current_range_meters":6000,"station_id":"ce4bha12rcd13ifvqee0","pricing_plan_id":"cebpf4jnsgd1na2vs0mg"},{"bike_id":"e3fc118d-a8d4-4039-9ae5-bba749b708de","system_id":"levelo_inurba_marseille","lat":43.289313,"lon":5.366383,"is_reserved":false,"is_disabled":false,"rental_uris":{"android":"levelo://app?vid=e3fc118d-a8d4-4039-9ae5-bba749b708de","ios":"levelo://app?vid=e3fc118d-a8d4-4039-9ae5-bba749b708de"},"vehicle_type_id":"4","last_reported":1744287598,"current_range_meters":6400,"station_id":"ce4bhap2rcd13ifvqek0","pricing_plan_id":"cebpf4jnsgd1na2vs0mg"},{"bike_id":"43ee7472-b829-47d5-9401-ca080ce409eb","system_id":"levelo_inurba_marseille","lat":43.29934,"lon":5.36555,"is_reserved":false,"is_disabled":false,"rental_uris":{"android":"levelo://app?vid=43ee7472-b829-47d5-9401-ca080ce409eb","ios":"levelo://app?vid=43ee7472-b829-47d5-9401-ca080ce409eb"},"vehicle_type_id":"4","last_reported":1744287598,"current_range_meters":6400,"station_id":"ce4bgm92rcd13ifvqbr0","pricing_plan_id":"cebpf4jnsgd1na2vs0mg"},{"bike_id":"185e9537-006a-41b3-b3b9-d5207134b9e8","system_id":"levelo_inurba_marseille","lat":43.27962,"lon":5.38713,"is_reserved":false,"is_disabled":false,"rental_uris":{"android":"levelo://app?vid=185e9537-006a-41b3-b3b9-d5207134b9e8","ios":"levelo://app?vid=185e9537-006a-41b3-b3b9-d5207134b9e8"},"vehicle_type_id":"4","last_reported":1744287598,"current_range_meters":6800,"station_id":"ce4bhg12rcd13ifvqf80","pricing_plan_id":"cebpf4jnsgd1na2vs0mg"},{"bike_id":"f0bf4e59-5178-4232-9b12-802037eba459","system_id":"levelo_inurba_marseille","lat":43.31366,"lon":5.36732,"is_reserved":false,"is_disabled":false,"rental_uris":{"android":"levelo://app?vid=f0bf4e59-5178-4232-9b12-802037eba459","ios":"levelo://app?vid=f0bf4e59-5178-4232-9b12-802037eba459"},"vehicle_type_id":"4","last_reported":1744287598,"current_range_meters":6800,"station_id":"ce4bgr92rcd13ifvqc6g","pricing_plan_id":"cebpf4jnsgd1na2vs0mg"},{"bike_id":"89e4f37f-4514-4aed-8efe-39c5802fa8f4","system_id":"levelo_inurba_marseille","lat":43.29217,"lon":5.36053,"is_reserved":false,"is_disabled":false,"rental_uris":{"android":"levelo://app?vid=89e4f37f-4514-4aed-8efe-39c5802fa8f4","ios":"levelo://app?vid=89e4f37f-4514-4aed-8efe-39c5802fa8f4"},"vehicle_type_id":"4","last_reported":1744287598,"current_range_meters":6800,"station_id":"ce4bhbh2rcd13ifvqeqg","pricing_plan_id":"cebpf4jnsgd1na2vs0mg"},{"bike_id":"b5b01554-d5cd-47ac-aebb-d69c5dfa11ba","system_id":"levelo_inurba_marseille","lat":43.273812,"lon":5.362547,"is_reserved":false,"is_disabled":false,"rental_uris":{"android":"levelo://app?vid=b5b01554-d5cd-47ac-aebb-d69c5dfa11ba","ios":"levelo://app?vid=b5b01554-d5cd-47ac-aebb-d69c5dfa11ba"},"vehicle_type_id":"4","last_reported":1744287598,"current_range_meters":7200,"station_id":"ce4bgkp2rcd13ifvqbmg","pricing_plan_id":"cebpf4jnsgd1na2vs0mg"},{"bike_id":"f70f5ea5-36c1-49d2-b352-1bbd1cc9463b","system_id":"levelo_inurba_marseille","lat":43.29243,"lon":5.36066,"is_reserved":false,"is_disabled":false,"rental_uris":{"android":"levelo://app?vid=f70f5ea5-36c1-49d2-b352-1bbd1cc9463b","ios":"levelo://app?vid=f70f5ea5-36c1-49d2-b352-1bbd1cc9463b"},"vehicle_type_id":"4","last_reported":1744287598,"current_range_meters":7200,"station_id":"ce4bhbh2rcd13ifvqeqg","pricing_plan_id":"cebpf4jnsgd1na2vs0mg"},{"bike_id":"55a1e3e0-9f7d-4094-a33f-d38d06a29a08","system_id":"levelo_inurba_marseille","lat":43.21195,"lon":5.35077,"is_reserved":false,"is_disabled":false,"rental_uris":{"android":"levelo://app?vid=55a1e3e0-9f7d-4094-a33f-d38d06a29a08","ios":"levelo://app?vid=55a1e3e0-9f7d-4094-a33f-d38d06a29a08"},"vehicle_type_id":"4","last_reported":1744287598,"current_range_meters":7200,"station_id":"st_cvj6sg6p6f1abm77japg","pricing_plan_id":"cebpf4jnsgd1na2vs0mg"},{"bike_id":"4454e83a-891c-4f87-afcf-d70c54e0a71d","system_id":"levelo_inurba_marseille","lat":43.30944,"lon":5.3904,"is_reserved":false,"is_disabled":false,"rental_uris":{"android":"levelo://app?vid=4454e83a-891c-4f87-afcf-d70c54e0a71d","ios":"levelo://app?vid=4454e83a-891c-4f87-afcf-d70c54e0a71d"},"vehicle_type_id":"4","last_reported":1744287598,"current_range_meters":7200,"station_id":"ce4bgup2rcd13ifvqco0","pricing_plan_id":"cebpf4jnsgd1na2vs0mg"},{"bike_id":"0b14e020-b594-4567-92b1-5652d62501cd","system_id":"levelo_inurba_marseille","lat":43.24164,"lon":5.36401,"is_reserved":false,"is_disabled":false,"rental_uris":{"android":"levelo://app?vid=0b14e020-b594-4567-92b1-5652d62501cd","ios":"levelo://app?vid=0b14e020-b594-4567-92b1-5652d62501cd"},"vehicle_type_id":"4","last_reported":1744287598,"current_range_meters":8000,"station_id":"cpo36qri1sfpv3e86is0","pricing_plan_id":"cebpf4jnsgd1na2vs0mg"},{"bike_id":"0034db4b-efd6-4119-a358-80e858a45e83","system_id":"levelo_inurba_marseille","lat":43.31773,"lon":5.38899,"is_reserved":false,"is_disabled":false,"rental_uris":{"android":"levelo://app?vid=0034db4b-efd6-4119-a358-80e858a45e83","ios":"levelo://app?vid=0034db4b-efd6-4119-a358-80e858a45e83"},"vehicle_type_id":"4","last_reported":1744287598,"current_range_meters":8000,"station_id":"","pricing_plan_id":"cebpf4jnsgd1na2vs0mg"},{"bike_id":"953b6d28-9f79-4a07-a74c-a1ac9ea6a564","system_id":"levelo_inurba_marseille","lat":43.29263,"lon":5.38457,"is_reserved":false,"is_disabled":false,"rental_uris":{"android":"levelo://app?vid=953b6d28-9f79-4a07-a74c-a1ac9ea6a564","ios":"levelo://app?vid=953b6d28-9f79-4a07-a74c-a1ac9ea6a564"},"vehicle_type_id":"4","last_reported":1744287598,"current_range_meters":8000,"station_id":"ce4bh692rcd13ifvqea0","pricing_plan_id":"cebpf4jnsgd1na2vs0mg"},{"bike_id":"10a4b254-7355-4a63-9173-5e64693ec6c3","system_id":"levelo_inurba_marseille","lat":43.29277,"lon":5.36859,"is_reserved":false,"is_disabled":false,"rental_uris":{"android":"levelo://app?vid=10a4b254-7355-4a63-9173-5e64693ec6c3","ios":"levelo://app?vid=10a4b254-7355-4a63-9173-5e64693ec6c3"},"vehicle_type_id":"4","last_reported":1744287598,"current_range_meters":8000,"station_id":"ce4bhbp2rcd13ifvqesg","pricing_plan_id":"cebpf4jnsgd1na2vs0mg"},{"bike_id":"a057f007-182d-41b9-b153-06becde99af6","system_id":"levelo_inurba_marseille","lat":43.297974,"lon":5.404036,"is_reserved":false,"is_disabled":false,"rental_uris":{"android":"levelo://app?vid=a057f007-182d-41b9-b153-06becde99af6","ios":"levelo://app?vid=a057f007-182d-41b9-b153-06becde99af6"},"vehicle_type_id":"4","last_reported":1744287598,"current_range_meters":8400,"station_id":"ce4bh112rcd13ifvqd90","pricing_plan_id":"cebpf4jnsgd1na2vs0mg"},{"bike_id":"a21989ec-9f04-4674-bff3-ea3762ba55b8","system_id":"levelo_inurba_marseille","lat":43.25703,"lon":5.41112,"is_reserved":false,"is_disabled":false,"rental_uris":{"android":"levelo://app?vid=a21989ec-9f04-4674-bff3-ea3762ba55b8","ios":"levelo://app?vid=a21989ec-9f04-4674-bff3-ea3762ba55b8"},"vehicle_type_id":"4","last_reported":1744287598,"current_range_meters":8400,"station_id":"ce4bhkp2rcd13ifvqgd0","pricing_plan_id":"cebpf4jnsgd1na2vs0mg"},{"bike_id":"8549b0dc-bffd-4753-a3a8-a5636fa9dd52","system_id":"levelo_inurba_marseille","lat":43.27214,"lon":5.39186,"is_reserved":false,"is_disabled":false,"rental_uris":{"android":"levelo://app?vid=8549b0dc-bffd-4753-a3a8-a5636fa9dd52","ios":"levelo://app?vid=8549b0dc-bffd-4753-a3a8-a5636fa9dd52"},"vehicle_type_id":"4","last_reported":1744287598,"current_range_meters":8400,"station_id":"ce4bhhp2rcd13ifvqfm0","pricing_plan_id":"cebpf4jnsgd1na2vs0mg"},{"bike_id":"30045e66-82fd-4348-bd3e-4bb91bd22145","system_id":"levelo_inurba_marseille","lat":43.28154,"lon":5.42637,"is_reserved":false,"is_disabled":false,"rental_uris":{"android":"levelo://app?vid=30045e66-82fd-4348-bd3e-4bb91bd22145","ios":"levelo://app?vid=30045e66-82fd-4348-bd3e-4bb91bd22145"},"vehicle_type_id":"4","last_reported":1744287598,"current_range_meters":8400,"station_id":"ce4bhnh2rcd13ifvqgug","pricing_plan_id":"cebpf4jnsgd1na2vs0mg"},{"bike_id":"27edd29b-a653-4aa4-81a4-50ab7a005a26","system_id":"levelo_inurba_marseille","lat":43.26679,"lon":5.3828,"is_reserved":false,"is_disabled":false,"rental_uris":{"android":"levelo://app?vid=27edd29b-a653-4aa4-81a4-50ab7a005a26","ios":"levelo://app?vid=27edd29b-a653-4aa4-81a4-50ab7a005a26"},"vehicle_type_id":"4","last_reported":1744287598,"current_range_meters":8400,"station_id":"ce4bhg92rcd13ifvqf90","pricing_plan_id":"cebpf4jnsgd1na2vs0mg"},{"bike_id":"8522729a-2a07-4bc4-9ac2-893ab2b321ea","system_id":"levelo_inurba_marseille","lat":43.32478,"lon":5.3657,"is_reserved":false,"is_disabled":false,"rental_uris":{"android":"levelo://app?vid=8522729a-2a07-4bc4-9ac2-893ab2b321ea","ios":"levelo://app?vid=8522729a-2a07-4bc4-9ac2-893ab2b321ea"},"vehicle_type_id":"4","last_reported":1744287598,"current_range_meters":8400,"station_id":"ce4bhs12rcd13ifvqhvg","pricing_plan_id":"cebpf4jnsgd1na2vs0mg"},{"bike_id":"a8409b41-8d48-43b8-a051-8223393318dd","system_id":"levelo_inurba_marseille","lat":43.30886,"lon":5.39658,"is_reserved":false,"is_disabled":false,"rental_uris":{"android":"levelo://app?vid=a8409b41-8d48-43b8-a051-8223393318dd","ios":"levelo://app?vid=a8409b41-8d48-43b8-a051-8223393318dd"},"vehicle_type_id":"4","last_reported":1744287598,"current_range_meters":8400,"station_id":"ce4bh012rcd13ifvqcv0","pricing_plan_id":"cebpf4jnsgd1na2vs0mg"},{"bike_id":"79199855-ff2b-4c8c-a9d2-ea2ae948d719","system_id":"levelo_inurba_marseille","lat":43.282647,"lon":5.350549,"is_reserved":false,"is_disabled":false,"rental_uris":{"android":"levelo://app?vid=79199855-ff2b-4c8c-a9d2-ea2ae948d719","ios":"levelo://app?vid=79199855-ff2b-4c8c-a9d2-ea2ae948d719"},"vehicle_type_id":"4","last_reported":1744287598,"current_range_meters":8800,"station_id":"ce4bhbp2rcd13ifvqerg","pricing_plan_id":"cebpf4jnsgd1na2vs0mg"},{"bike_id":"01e31f15-bc9b-4d18-bebd-edf19bcedef2","system_id":"levelo_inurba_marseille","lat":43.287226,"lon":5.379377,"is_reserved":false,"is_disabled":true,"rental_uris":{"android":"levelo://app?vid=01e31f15-bc9b-4d18-bebd-edf19bcedef2","ios":"levelo://app?vid=01e31f15-bc9b-4d18-bebd-edf19bcedef2"},"vehicle_type_id":"4","last_reported":1744287598,"current_range_meters":8800,"station_id":"ce4bh9p2rcd13ifvqec0","pricing_plan_id":"cebpf4jnsgd1na2vs0mg"},{"bike_id":"5f30a5a4-de9f-499e-b151-b811ebb3b43a","system_id":"levelo_inurba_marseille","lat":43.31081,"lon":5.38356,"is_reserved":false,"is_disabled":true,"rental_uris":{"android":"levelo://app?vid=5f30a5a4-de9f-499e-b151-b811ebb3b43a","ios":"levelo://app?vid=5f30a5a4-de9f-499e-b151-b811ebb3b43a"},"vehicle_type_id":"4","last_reported":1744287598,"current_range_meters":8800,"station_id":"ce4bgv92rcd13ifvqcr0","pricing_plan_id":"cebpf4jnsgd1na2vs0mg"},{"bike_id":"ec6fd25a-17e1-48a8-8386-7ac5c595c2f6","system_id":"levelo_inurba_marseille","lat":43.31169,"lon":5.38714,"is_reserved":false,"is_disabled":false,"rental_uris":{"android":"levelo://app?vid=ec6fd25a-17e1-48a8-8386-7ac5c595c2f6","ios":"levelo://app?vid=ec6fd25a-17e1-48a8-8386-7ac5c595c2f6"},"vehicle_type_id":"4","last_reported":1744287598,"current_range_meters":9200,"station_id":"ce4bgv12rcd13ifvqcp0","pricing_plan_id":"cebpf4jnsgd1na2vs0mg"},{"bike_id":"6027e72d-dfe3-4ca5-96e6-f84f4770e625","system_id":"levelo_inurba_marseille","lat":43.284717,"lon":5.384241,"is_reserved":false,"is_disabled":false,"rental_uris":{"android":"levelo://app?vid=6027e72d-dfe3-4ca5-96e6-f84f4770e625","ios":"levelo://app?vid=6027e72d-dfe3-4ca5-96e6-f84f4770e625"},"vehicle_type_id":"4","last_reported":1744287598,"current_range_meters":9200,"station_id":"ce4bh512rcd13ifvqe3g","pricing_plan_id":"cebpf4jnsgd1na2vs0mg"},{"bike_id":"836c52e5-3313-4063-afe0-06643ed93c47","system_id":"levelo_inurba_marseille","lat":43.30146,"lon":5.37418,"is_reserved":false,"is_disabled":false,"rental_uris":{"android":"levelo://app?vid=836c52e5-3313-4063-afe0-06643ed93c47","ios":"levelo://app?vid=836c52e5-3313-4063-afe0-06643ed93c47"},"vehicle_type_id":"4","last_reported":1744287598,"current_range_meters":9200,"station_id":"ce4bgs92rcd13ifvqcc0","pricing_plan_id":"cebpf4jnsgd1na2vs0mg"},{"bike_id":"800d5909-daea-44ff-a7cd-18c4fe90c5ad","system_id":"levelo_inurba_marseille","lat":43.21201,"lon":5.3507,"is_reserved":false,"is_disabled":false,"rental_uris":{"android":"levelo://app?vid=800d5909-daea-44ff-a7cd-18c4fe90c5ad","ios":"levelo://app?vid=800d5909-daea-44ff-a7cd-18c4fe90c5ad"},"vehicle_type_id":"4","last_reported":1744287598,"current_range_meters":9200,"station_id":"st_cvj6sg6p6f1abm77japg","pricing_plan_id":"cebpf4jnsgd1na2vs0mg"},{"bike_id":"b19e5786-8da6-4fa6-89f5-e943e8791bb3","system_id":"levelo_inurba_marseille","lat":43.2737,"lon":5.36256,"is_reserved":false,"is_disabled":false,"rental_uris":{"android":"levelo://app?vid=b19e5786-8da6-4fa6-89f5-e943e8791bb3","ios":"levelo://app?vid=b19e5786-8da6-4fa6-89f5-e943e8791bb3"},"vehicle_type_id":"4","last_reported":1744287598,"current_range_meters":9200,"station_id":"ce4bhbh2rcd13ifvqeo0","pricing_plan_id":"cebpf4jnsgd1na2vs0mg"},{"bike_id":"c243072f-6bd2-4d94-ba83-04162cf2a05c","system_id":"levelo_inurba_marseille","lat":43.27205,"lon":5.40142,"is_reserved":false,"is_disabled":false,"rental_uris":{"android":"levelo://app?vid=c243072f-6bd2-4d94-ba83-04162cf2a05c","ios":"levelo://app?vid=c243072f-6bd2-4d94-ba83-04162cf2a05c"},"vehicle_type_id":"4","last_reported":1744287598,"current_range_meters":9200,"station_id":"","pricing_plan_id":"cebpf4jnsgd1na2vs0mg"},{"bike_id":"9fce7fb9-26b6-4832-9f96-ea1b75c489f0","system_id":"levelo_inurba_marseille","lat":43.21205,"lon":5.35084,"is_reserved":false,"is_disabled":false,"rental_uris":{"android":"levelo://app?vid=9fce7fb9-26b6-4832-9f96-ea1b75c489f0","ios":"levelo://app?vid=9fce7fb9-26b6-4832-9f96-ea1b75c489f0"},"vehicle_type_id":"4","last_reported":1744287598,"current_range_meters":9600,"station_id":"st_cvj6sg6p6f1abm77japg","pricing_plan_id":"cebpf4jnsgd1na2vs0mg"},{"bike_id":"3cfa414a-56ce-4678-b27b-88f21f1ddfeb","system_id":"levelo_inurba_marseille","lat":43.30284,"lon":5.37734,"is_reserved":false,"is_disabled":false,"rental_uris":{"android":"levelo://app?vid=3cfa414a-56ce-4678-b27b-88f21f1ddfeb","ios":"levelo://app?vid=3cfa414a-56ce-4678-b27b-88f21f1ddfeb"},"vehicle_type_id":"4","last_reported":1744287598,"current_range_meters":9600,"station_id":"ce4bguh2rcd13ifvqcj0","pricing_plan_id":"cebpf4jnsgd1na2vs0mg"},{"bike_id":"122cdde6-9512-4fc1-b3dd-8da01087c3ed","system_id":"levelo_inurba_marseille","lat":43.21186,"lon":5.35085,"is_reserved":false,"is_disabled":false,"rental_uris":{"android":"levelo://app?vid=122cdde6-9512-4fc1-b3dd-8da01087c3ed","ios":"levelo://app?vid=122cdde6-9512-4fc1-b3dd-8da01087c3ed"},"vehicle_type_id":"4","last_reported":1744287598,"current_range_meters":9600,"station_id":"st_cvj6sg6p6f1abm77japg","pricing_plan_id":"cebpf4jnsgd1na2vs0mg"},{"bike_id":"0e84bdce-95cd-4fd2-a8ef-ae69909a4237","system_id":"levelo_inurba_marseille","lat":43.282736,"lon":5.350653,"is_reserved":false,"is_disabled":false,"rental_uris":{"android":"levelo://app?vid=0e84bdce-95cd-4fd2-a8ef-ae69909a4237","ios":"levelo://app?vid=0e84bdce-95cd-4fd2-a8ef-ae69909a4237"},"vehicle_type_id":"4","last_reported":1744287598,"current_range_meters":9600,"station_id":"ce4bhbp2rcd13ifvqerg","pricing_plan_id":"cebpf4jnsgd1na2vs0mg"},{"bike_id":"3daf3483-c330-4563-ba63-4baa607346ed","system_id":"levelo_inurba_marseille","lat":43.30895,"lon":5.36867,"is_reserved":false,"is_disabled":false,"rental_uris":{"android":"levelo://app?vid=3daf3483-c330-4563-ba63-4baa607346ed","ios":"levelo://app?vid=3daf3483-c330-4563-ba63-4baa607346ed"},"vehicle_type_id":"4","last_reported":1744287598,"current_range_meters":9600,"station_id":"ce4bgn92rcd13ifvqbvg","pricing_plan_id":"cebpf4jnsgd1na2vs0mg"},{"bike_id":"6b383df4-9571-4b6b-8882-b1538f985b7f","system_id":"levelo_inurba_marseille","lat":43.30532,"lon":5.36561,"is_reserved":false,"is_disabled":false,"rental_uris":{"android":"levelo://app?vid=6b383df4-9571-4b6b-8882-b1538f985b7f","ios":"levelo://app?vid=6b383df4-9571-4b6b-8882-b1538f985b7f"},"vehicle_type_id":"4","last_reported":1744287598,"current_range_meters":9600,"station_id":"ce4bgs12rcd13ifvqcag","pricing_plan_id":"cebpf4jnsgd1na2vs0mg"},{"bike_id":"e6b27e51-7a6f-4c87-9cdb-e0dbaf392783","system_id":"levelo_inurba_marseille","lat":43.30984,"lon":5.39626,"is_reserved":false,"is_disabled":false,"rental_uris":{"android":"levelo://app?vid=e6b27e51-7a6f-4c87-9cdb-e0dbaf392783","ios":"levelo://app?vid=e6b27e51-7a6f-4c87-9cdb-e0dbaf392783"},"vehicle_type_id":"4","last_reported":1744287598,"current_range_meters":10000,"station_id":"","pricing_plan_id":"cebpf4jnsgd1na2vs0mg"},{"bike_id":"a05a32b9-b925-445e-a7c1-b77a036ed581","system_id":"levelo_inurba_marseille","lat":43.31371,"lon":5.38499,"is_reserved":false,"is_disabled":false,"rental_uris":{"android":"levelo://app?vid=a05a32b9-b925-445e-a7c1-b77a036ed581","ios":"levelo://app?vid=a05a32b9-b925-445e-a7c1-b77a036ed581"},"vehicle_type_id":"4","last_reported":1744287598,"current_range_meters":10000,"station_id":"ce4bgt92rcd13ifvqcf0","pricing_plan_id":"cebpf4jnsgd1na2vs0mg"},{"bike_id":"680dc35d-f5f1-4cdc-899b-eabd55db9342","system_id":"levelo_inurba_marseille","lat":43.21213,"lon":5.35058,"is_reserved":false,"is_disabled":false,"rental_uris":{"android":"levelo://app?vid=680dc35d-f5f1-4cdc-899b-eabd55db9342","ios":"levelo://app?vid=680dc35d-f5f1-4cdc-899b-eabd55db9342"},"vehicle_type_id":"4","last_reported":1744287598,"current_range_meters":10000,"station_id":"st_cvj6sg6p6f1abm77japg","pricing_plan_id":"cebpf4jnsgd1na2vs0mg"},{"bike_id":"db7daff2-97dc-4b0f-9934-b71af811fc00","system_id":"levelo_inurba_marseille","lat":43.2793,"lon":5.39602,"is_reserved":false,"is_disabled":false,"rental_uris":{"android":"levelo://app?vid=db7daff2-97dc-4b0f-9934-b71af811fc00","ios":"levelo://app?vid=db7daff2-97dc-4b0f-9934-b71af811fc00"},"vehicle_type_id":"4","last_reported":1744287598,"current_range_meters":10800,"station_id":"ce4bhf92rcd13ifvqf40","pricing_plan_id":"cebpf4jnsgd1na2vs0mg"},{"bike_id":"c66e0227-8dab-43f7-959d-ad39878fa71f","system_id":"levelo_inurba_marseille","lat":43.23059,"lon":5.35493,"is_reserved":false,"is_disabled":false,"rental_uris":{"android":"levelo://app?vid=c66e0227-8dab-43f7-959d-ad39878fa71f","ios":"levelo://app?vid=c66e0227-8dab-43f7-959d-ad39878fa71f"},"vehicle_type_id":"4","last_reported":1744287598,"current_range_meters":10800,"station_id":"cpo3342slgdg3j2ifvpg","pricing_plan_id":"cebpf4jnsgd1na2vs0mg"},{"bike_id":"e8e61ec0-24ba-41bc-af68-5ad4ae819140","system_id":"levelo_inurba_marseille","lat":43.2119,"lon":5.35073,"is_reserved":false,"is_disabled":false,"rental_uris":{"android":"levelo://app?vid=e8e61ec0-24ba-41bc-af68-5ad4ae819140","ios":"levelo://app?vid=e8e61ec0-24ba-41bc-af68-5ad4ae819140"},"vehicle_type_id":"4","last_reported":1744287598,"current_range_meters":10800,"station_id":"st_cvj6sg6p6f1abm77japg","pricing_plan_id":"cebpf4jnsgd1na2vs0mg"},{"bike_id":"d9f1ddc0-df3c-4b57-b8ac-d167305766a2","system_id":"levelo_inurba_marseille","lat":43.30424,"lon":5.397428,"is_reserved":false,"is_disabled":false,"rental_uris":{"android":"levelo://app?vid=d9f1ddc0-df3c-4b57-b8ac-d167305766a2","ios":"levelo://app?vid=d9f1ddc0-df3c-4b57-b8ac-d167305766a2"},"vehicle_type_id":"4","last_reported":1744287598,"current_range_meters":10800,"station_id":"ce4bh312rcd13ifvqdk0","pricing_plan_id":"cebpf4jnsgd1na2vs0mg"},{"bike_id":"172ebea0-2ec4-44ec-9a4e-36b62e3bb820","system_id":"levelo_inurba_marseille","lat":43.296096,"lon":5.380872,"is_reserved":false,"is_disabled":false,"rental_uris":{"android":"levelo://app?vid=172ebea0-2ec4-44ec-9a4e-36b62e3bb820","ios":"levelo://app?vid=172ebea0-2ec4-44ec-9a4e-36b62e3bb820"},"vehicle_type_id":"4","last_reported":1744287598,"current_range_meters":10800,"station_id":"ce4bgl12rcd13ifvqbo0","pricing_plan_id":"cebpf4jnsgd1na2vs0mg"},{"bike_id":"bff67837-c676-4b88-9fdc-8db7fe587121","system_id":"levelo_inurba_marseille","lat":43.30248,"lon":5.401,"is_reserved":false,"is_disabled":true,"rental_uris":{"android":"levelo://app?vid=bff67837-c676-4b88-9fdc-8db7fe587121","ios":"levelo://app?vid=bff67837-c676-4b88-9fdc-8db7fe587121"},"vehicle_type_id":"4","last_reported":1744287598,"current_range_meters":10800,"station_id":"ce4bgvh2rcd13ifvqcs0","pricing_plan_id":"cebpf4jnsgd1na2vs0mg"},{"bike_id":"47198e1f-7bec-4866-80f8-b60a2a4caca7","system_id":"levelo_inurba_marseille","lat":43.29241,"lon":5.36073,"is_reserved":false,"is_disabled":false,"rental_uris":{"android":"levelo://app?vid=47198e1f-7bec-4866-80f8-b60a2a4caca7","ios":"levelo://app?vid=47198e1f-7bec-4866-80f8-b60a2a4caca7"},"vehicle_type_id":"4","last_reported":1744287598,"current_range_meters":10800,"station_id":"ce4bhbh2rcd13ifvqeqg","pricing_plan_id":"cebpf4jnsgd1na2vs0mg"},{"bike_id":"3a9217d1-18bc-4b31-930c-3710c4c0ac7d","system_id":"levelo_inurba_marseille","lat":43.28106,"lon":5.37849,"is_reserved":false,"is_disabled":false,"rental_uris":{"android":"levelo://app?vid=3a9217d1-18bc-4b31-930c-3710c4c0ac7d","ios":"levelo://app?vid=3a9217d1-18bc-4b31-930c-3710c4c0ac7d"},"vehicle_type_id":"4","last_reported":1744287598,"current_range_meters":11200,"station_id":"ce4bha12rcd13ifvqee0","pricing_plan_id":"cebpf4jnsgd1na2vs0mg"},{"bike_id":"26e070c7-873a-43f6-b364-806985fd5224","system_id":"levelo_inurba_marseille","lat":43.297315,"lon":5.368511,"is_reserved":false,"is_disabled":false,"rental_uris":{"android":"levelo://app?vid=26e070c7-873a-43f6-b364-806985fd5224","ios":"levelo://app?vid=26e070c7-873a-43f6-b364-806985fd5224"},"vehicle_type_id":"4","last_reported":1744287598,"current_range_meters":11200,"station_id":"ce4bgn12rcd13ifvqbt0","pricing_plan_id":"cebpf4jnsgd1na2vs0mg"},{"bike_id":"245ce5fe-7351-4dcf-baad-550d47ea2d8a","system_id":"levelo_inurba_marseille","lat":43.2175,"lon":5.34598,"is_reserved":false,"is_disabled":false,"rental_uris":{"android":"levelo://app?vid=245ce5fe-7351-4dcf-baad-550d47ea2d8a","ios":"levelo://app?vid=245ce5fe-7351-4dcf-baad-550d47ea2d8a"},"vehicle_type_id":"4","last_reported":1744287598,"current_range_meters":11200,"station_id":"st_cvj6r9ubvosntc0bgbag","pricing_plan_id":"cebpf4jnsgd1na2vs0mg"},{"bike_id":"d960fd82-db96-4c98-9824-0146258f45fe","system_id":"levelo_inurba_marseille","lat":43.279957,"lon":5.40013,"is_reserved":false,"is_disabled":false,"rental_uris":{"android":"levelo://app?vid=d960fd82-db96-4c98-9824-0146258f45fe","ios":"levelo://app?vid=d960fd82-db96-4c98-9824-0146258f45fe"},"vehicle_type_id":"4","last_reported":1744287598,"current_range_meters":11200,"station_id":"ce4bho92rcd13ifvqh4g","pricing_plan_id":"cebpf4jnsgd1na2vs0mg"},{"bike_id":"2af03918-443f-4c15-a5e0-1383bc7a7fa8","system_id":"levelo_inurba_marseille","lat":43.26203,"lon":5.37453,"is_reserved":false,"is_disabled":false,"rental_uris":{"android":"levelo://app?vid=2af03918-443f-4c15-a5e0-1383bc7a7fa8","ios":"levelo://app?vid=2af03918-443f-4c15-a5e0-1383bc7a7fa8"},"vehicle_type_id":"4","last_reported":1744287598,"current_range_meters":11200,"station_id":"ce4bhgp2rcd13ifvqfc0","pricing_plan_id":"cebpf4jnsgd1na2vs0mg"},{"bike_id":"99260628-93ca-4816-84c2-7509aaf9aff8","system_id":"levelo_inurba_marseille","lat":43.312223,"lon":5.368711,"is_reserved":false,"is_disabled":false,"rental_uris":{"android":"levelo://app?vid=99260628-93ca-4816-84c2-7509aaf9aff8","ios":"levelo://app?vid=99260628-93ca-4816-84c2-7509aaf9aff8"},"vehicle_type_id":"4","last_reported":1744287598,"current_range_meters":11200,"station_id":"ce4bgl92rcd13ifvqbq0","pricing_plan_id":"cebpf4jnsgd1na2vs0mg"},{"bike_id":"117fc33b-93cd-43b3-9f5d-85709978c449","system_id":"levelo_inurba_marseille","lat":43.24388,"lon":5.37059,"is_reserved":false,"is_disabled":false,"rental_uris":{"android":"levelo://app?vid=117fc33b-93cd-43b3-9f5d-85709978c449","ios":"levelo://app?vid=117fc33b-93cd-43b3-9f5d-85709978c449"},"vehicle_type_id":"4","last_reported":1744287598,"current_range_meters":11600,"station_id":"ce4bhhh2rcd13ifvqfk0","pricing_plan_id":"cebpf4jnsgd1na2vs0mg"},{"bike_id":"646f7d52-efcb-4264-bf41-3e296e07b973","system_id":"levelo_inurba_marseille","lat":43.28674,"lon":5.38669,"is_reserved":false,"is_disabled":false,"rental_uris":{"android":"levelo://app?vid=646f7d52-efcb-4264-bf41-3e296e07b973","ios":"levelo://app?vid=646f7d52-efcb-4264-bf41-3e296e07b973"},"vehicle_type_id":"4","last_reported":1744287598,"current_range_meters":11600,"station_id":"ce4bh492rcd13ifvqdug","pricing_plan_id":"cebpf4jnsgd1na2vs0mg"},{"bike_id":"f54649ae-db43-4536-9d13-4a958af5317a","system_id":"levelo_inurba_marseille","lat":43.30311,"lon":5.36907,"is_reserved":false,"is_disabled":false,"rental_uris":{"android":"levelo://app?vid=f54649ae-db43-4536-9d13-4a958af5317a","ios":"levelo://app?vid=f54649ae-db43-4536-9d13-4a958af5317a"},"vehicle_type_id":"4","last_reported":1744287598,"current_range_meters":12000,"station_id":"ce4bgqh2rcd13ifvqc5g","pricing_plan_id":"cebpf4jnsgd1na2vs0mg"},{"bike_id":"54fd9e7d-d49b-4d31-a45c-3c21ef19c991","system_id":"levelo_inurba_marseille","lat":43.30427,"lon":5.41269,"is_reserved":false,"is_disabled":false,"rental_uris":{"android":"levelo://app?vid=54fd9e7d-d49b-4d31-a45c-3c21ef19c991","ios":"levelo://app?vid=54fd9e7d-d49b-4d31-a45c-3c21ef19c991"},"vehicle_type_id":"4","last_reported":1744287598,"current_range_meters":12000,"station_id":"ce4bhop2rcd13ifvqh8g","pricing_plan_id":"cebpf4jnsgd1na2vs0mg"},{"bike_id":"c856364e-658f-4831-9a1e-8592f55e1de7","system_id":"levelo_inurba_marseille","lat":43.31366,"lon":5.38496,"is_reserved":false,"is_disabled":false,"rental_uris":{"android":"levelo://app?vid=c856364e-658f-4831-9a1e-8592f55e1de7","ios":"levelo://app?vid=c856364e-658f-4831-9a1e-8592f55e1de7"},"vehicle_type_id":"4","last_reported":1744287598,"current_range_meters":12000,"station_id":"ce4bgt92rcd13ifvqcf0","pricing_plan_id":"cebpf4jnsgd1na2vs0mg"},{"bike_id":"5047455d-c97a-4875-9440-a0dd56a0356d","system_id":"levelo_inurba_marseille","lat":43.32359,"lon":5.36766,"is_reserved":false,"is_disabled":false,"rental_uris":{"android":"levelo://app?vid=5047455d-c97a-4875-9440-a0dd56a0356d","ios":"levelo://app?vid=5047455d-c97a-4875-9440-a0dd56a0356d"},"vehicle_type_id":"4","last_reported":1744287598,"current_range_meters":12000,"station_id":"ce4bhsh2rcd13ifvqi2g","pricing_plan_id":"cebpf4jnsgd1na2vs0mg"},{"bike_id":"c8550575-5ec0-4177-83b8-fcfc351113ab","system_id":"levelo_inurba_marseille","lat":43.290893,"lon":5.381393,"is_reserved":false,"is_disabled":false,"rental_uris":{"android":"levelo://app?vid=c8550575-5ec0-4177-83b8-fcfc351113ab","ios":"levelo://app?vid=c8550575-5ec0-4177-83b8-fcfc351113ab"},"vehicle_type_id":"4","last_reported":1744287598,"current_range_meters":12400,"station_id":"ce4bh512rcd13ifvqe2g","pricing_plan_id":"cebpf4jnsgd1na2vs0mg"},{"bike_id":"a7c3a0f9-fa44-4142-bbeb-0cac9979a26a","system_id":"levelo_inurba_marseille","lat":43.24164,"lon":5.36403,"is_reserved":false,"is_disabled":false,"rental_uris":{"android":"levelo://app?vid=a7c3a0f9-fa44-4142-bbeb-0cac9979a26a","ios":"levelo://app?vid=a7c3a0f9-fa44-4142-bbeb-0cac9979a26a"},"vehicle_type_id":"4","last_reported":1744287598,"current_range_meters":12400,"station_id":"cpo36qri1sfpv3e86is0","pricing_plan_id":"cebpf4jnsgd1na2vs0mg"},{"bike_id":"88b81c37-5f9b-494f-8b1a-584cc1caf0e2","system_id":"levelo_inurba_marseille","lat":43.28263,"lon":5.35079,"is_reserved":false,"is_disabled":false,"rental_uris":{"android":"levelo://app?vid=88b81c37-5f9b-494f-8b1a-584cc1caf0e2","ios":"levelo://app?vid=88b81c37-5f9b-494f-8b1a-584cc1caf0e2"},"vehicle_type_id":"4","last_reported":1744287598,"current_range_meters":12400,"station_id":"ce4bhbp2rcd13ifvqerg","pricing_plan_id":"cebpf4jnsgd1na2vs0mg"},{"bike_id":"7fe34dda-fd4b-4211-848c-dd4986e42f09","system_id":"levelo_inurba_marseille","lat":43.25579,"lon":5.3823,"is_reserved":false,"is_disabled":false,"rental_uris":{"android":"levelo://app?vid=7fe34dda-fd4b-4211-848c-dd4986e42f09","ios":"levelo://app?vid=7fe34dda-fd4b-4211-848c-dd4986e42f09"},"vehicle_type_id":"4","last_reported":1744287598,"current_range_meters":12800,"station_id":"ce4bhih2rcd13ifvqfs0","pricing_plan_id":"cebpf4jnsgd1na2vs0mg"},{"bike_id":"2892fda0-9170-492c-9d68-fd7a4ef0e9b1","system_id":"levelo_inurba_marseille","lat":43.28562,"lon":5.39498,"is_reserved":false,"is_disabled":false,"rental_uris":{"android":"levelo://app?vid=2892fda0-9170-492c-9d68-fd7a4ef0e9b1","ios":"levelo://app?vid=2892fda0-9170-492c-9d68-fd7a4ef0e9b1"},"vehicle_type_id":"4","last_reported":1744287598,"current_range_meters":12800,"station_id":"ce4bh292rcd13ifvqdg0","pricing_plan_id":"cebpf4jnsgd1na2vs0mg"},{"bike_id":"da0870d8-7fdf-4454-8a3f-e3e875b98dcb","system_id":"levelo_inurba_marseille","lat":43.29278,"lon":5.36843,"is_reserved":false,"is_disabled":false,"rental_uris":{"android":"levelo://app?vid=da0870d8-7fdf-4454-8a3f-e3e875b98dcb","ios":"levelo://app?vid=da0870d8-7fdf-4454-8a3f-e3e875b98dcb"},"vehicle_type_id":"4","last_reported":1744287598,"current_range_meters":12800,"station_id":"ce4bhbp2rcd13ifvqesg","pricing_plan_id":"cebpf4jnsgd1na2vs0mg"},{"bike_id":"55808732-cea7-48c3-81fd-6c7aac1f60e8","system_id":"levelo_inurba_marseille","lat":43.234741,"lon":5.410113,"is_reserved":false,"is_disabled":false,"rental_uris":{"android":"levelo://app?vid=55808732-cea7-48c3-81fd-6c7aac1f60e8","ios":"levelo://app?vid=55808732-cea7-48c3-81fd-6c7aac1f60e8"},"vehicle_type_id":"4","last_reported":1744287598,"current_range_meters":16400,"station_id":"ce4bhn12rcd13ifvqgqg","pricing_plan_id":"cebpf4jnsgd1na2vs0mg"},{"bike_id":"926f9a24-b6f9-4895-aa0e-12e8f485bdc0","system_id":"levelo_inurba_marseille","lat":43.28155,"lon":5.42645,"is_reserved":false,"is_disabled":false,"rental_uris":{"android":"levelo://app?vid=926f9a24-b6f9-4895-aa0e-12e8f485bdc0","ios":"levelo://app?vid=926f9a24-b6f9-4895-aa0e-12e8f485bdc0"},"vehicle_type_id":"4","last_reported":1744287598,"current_range_meters":13600,"station_id":"ce4bhnh2rcd13ifvqgug","pricing_plan_id":"cebpf4jnsgd1na2vs0mg"},{"bike_id":"1afd0676-ab37-4988-b3e2-82552444fc3e","system_id":"levelo_inurba_marseille","lat":43.32477,"lon":5.36569,"is_reserved":false,"is_disabled":false,"rental_uris":{"android":"levelo://app?vid=1afd0676-ab37-4988-b3e2-82552444fc3e","ios":"levelo://app?vid=1afd0676-ab37-4988-b3e2-82552444fc3e"},"vehicle_type_id":"4","last_reported":1744287598,"current_range_meters":13600,"station_id":"ce4bhs12rcd13ifvqhvg","pricing_plan_id":"cebpf4jnsgd1na2vs0mg"},{"bike_id":"2ca612c6-716f-4483-8510-3c51ff417c00","system_id":"levelo_inurba_marseille","lat":43.30158,"lon":5.38098,"is_reserved":false,"is_disabled":false,"rental_uris":{"android":"levelo://app?vid=2ca612c6-716f-4483-8510-3c51ff417c00","ios":"levelo://app?vid=2ca612c6-716f-4483-8510-3c51ff417c00"},"vehicle_type_id":"4","last_reported":1744287598,"current_range_meters":14000,"station_id":"ce4bgjp2rcd13ifvqbh0","pricing_plan_id":"cebpf4jnsgd1na2vs0mg"},{"bike_id":"58a06d5c-23f8-466b-a88d-449307d0c901","system_id":"levelo_inurba_marseille","lat":43.31497,"lon":5.36872,"is_reserved":false,"is_disabled":false,"rental_uris":{"android":"levelo://app?vid=58a06d5c-23f8-466b-a88d-449307d0c901","ios":"levelo://app?vid=58a06d5c-23f8-466b-a88d-449307d0c901"},"vehicle_type_id":"4","last_reported":1744287598,"current_range_meters":13600,"station_id":"","pricing_plan_id":"cebpf4jnsgd1na2vs0mg"},{"bike_id":"7c6e532a-0078-4f41-aa6d-9f0f94e10769","system_id":"levelo_inurba_marseille","lat":43.23963,"lon":5.3663,"is_reserved":false,"is_disabled":false,"rental_uris":{"android":"levelo://app?vid=7c6e532a-0078-4f41-aa6d-9f0f94e10769","ios":"levelo://app?vid=7c6e532a-0078-4f41-aa6d-9f0f94e10769"},"vehicle_type_id":"4","last_reported":1744287598,"current_range_meters":13600,"station_id":"ce4bhi12rcd13ifvqfp0","pricing_plan_id":"cebpf4jnsgd1na2vs0mg"},{"bike_id":"e65cfcc4-52d4-4018-b926-59584f3b4625","system_id":"levelo_inurba_marseille","lat":43.26198,"lon":5.37443,"is_reserved":false,"is_disabled":false,"rental_uris":{"android":"levelo://app?vid=e65cfcc4-52d4-4018-b926-59584f3b4625","ios":"levelo://app?vid=e65cfcc4-52d4-4018-b926-59584f3b4625"},"vehicle_type_id":"4","last_reported":1744287598,"current_range_meters":14000,"station_id":"ce4bhgp2rcd13ifvqfc0","pricing_plan_id":"cebpf4jnsgd1na2vs0mg"},{"bike_id":"bb230ead-8837-420f-ac68-3d15bdd7fd25","system_id":"levelo_inurba_marseille","lat":43.29616,"lon":5.37728,"is_reserved":false,"is_disabled":false,"rental_uris":{"android":"levelo://app?vid=bb230ead-8837-420f-ac68-3d15bdd7fd25","ios":"levelo://app?vid=bb230ead-8837-420f-ac68-3d15bdd7fd25"},"vehicle_type_id":"4","last_reported":1744287598,"current_range_meters":14000,"station_id":"ce4bgi92rcd13ifvqb90","pricing_plan_id":"cebpf4jnsgd1na2vs0mg"},{"bike_id":"e3c3a051-8134-4ed3-913b-374aa217874c","system_id":"levelo_inurba_marseille","lat":43.256115,"lon":5.405147,"is_reserved":false,"is_disabled":false,"rental_uris":{"android":"levelo://app?vid=e3c3a051-8134-4ed3-913b-374aa217874c","ios":"levelo://app?vid=e3c3a051-8134-4ed3-913b-374aa217874c"},"vehicle_type_id":"4","last_reported":1744287598,"current_range_meters":14000,"station_id":"","pricing_plan_id":"cebpf4jnsgd1na2vs0mg"},{"bike_id":"21fb439c-0575-41d2-a76d-002653a6a14e","system_id":"levelo_inurba_marseille","lat":43.29414,"lon":5.38631,"is_reserved":false,"is_disabled":false,"rental_uris":{"android":"levelo://app?vid=21fb439c-0575-41d2-a76d-002653a6a14e","ios":"levelo://app?vid=21fb439c-0575-41d2-a76d-002653a6a14e"},"vehicle_type_id":"4","last_reported":1744287598,"current_range_meters":14000,"station_id":"ce4bh2h2rcd13ifvqdh0","pricing_plan_id":"cebpf4jnsgd1na2vs0mg"},{"bike_id":"cb986afa-0706-475e-8f3c-11ee95eb1194","system_id":"levelo_inurba_marseille","lat":43.23144,"lon":5.43735,"is_reserved":false,"is_disabled":false,"rental_uris":{"android":"levelo://app?vid=cb986afa-0706-475e-8f3c-11ee95eb1194","ios":"levelo://app?vid=cb986afa-0706-475e-8f3c-11ee95eb1194"},"vehicle_type_id":"4","last_reported":1744287598,"current_range_meters":14000,"station_id":"ce4bhmp2rcd13ifvqgog","pricing_plan_id":"cebpf4jnsgd1na2vs0mg"},{"bike_id":"88aa7dca-4908-4e61-af03-a13659076425","system_id":"levelo_inurba_marseille","lat":43.26214,"lon":5.37442,"is_reserved":false,"is_disabled":false,"rental_uris":{"android":"levelo://app?vid=88aa7dca-4908-4e61-af03-a13659076425","ios":"levelo://app?vid=88aa7dca-4908-4e61-af03-a13659076425"},"vehicle_type_id":"4","last_reported":1744287598,"current_range_meters":14000,"station_id":"ce4bhgp2rcd13ifvqfc0","pricing_plan_id":"cebpf4jnsgd1na2vs0mg"},{"bike_id":"28f2cce3-7387-4471-8fa1-c023eec063a2","system_id":"levelo_inurba_marseille","lat":43.284298,"lon":5.349943,"is_reserved":false,"is_disabled":false,"rental_uris":{"android":"levelo://app?vid=28f2cce3-7387-4471-8fa1-c023eec063a2","ios":"levelo://app?vid=28f2cce3-7387-4471-8fa1-c023eec063a2"},"vehicle_type_id":"4","last_reported":1744287598,"current_range_meters":14000,"station_id":"","pricing_plan_id":"cebpf4jnsgd1na2vs0mg"},{"bike_id":"6d76978a-2740-4f57-9972-fcce06d4c9a8","system_id":"levelo_inurba_marseille","lat":43.31365,"lon":5.367,"is_reserved":false,"is_disabled":false,"rental_uris":{"android":"levelo://app?vid=6d76978a-2740-4f57-9972-fcce06d4c9a8","ios":"levelo://app?vid=6d76978a-2740-4f57-9972-fcce06d4c9a8"},"vehicle_type_id":"4","last_reported":1744287598,"current_range_meters":14400,"station_id":"ce4bgr92rcd13ifvqc6g","pricing_plan_id":"cebpf4jnsgd1na2vs0mg"},{"bike_id":"a20a6451-8d3a-4ff4-aba0-6a4367e7db94","system_id":"levelo_inurba_marseille","lat":43.2119,"lon":5.35083,"is_reserved":false,"is_disabled":false,"rental_uris":{"android":"levelo://app?vid=a20a6451-8d3a-4ff4-aba0-6a4367e7db94","ios":"levelo://app?vid=a20a6451-8d3a-4ff4-aba0-6a4367e7db94"},"vehicle_type_id":"4","last_reported":1744287598,"current_range_meters":14400,"station_id":"st_cvj6sg6p6f1abm77japg","pricing_plan_id":"cebpf4jnsgd1na2vs0mg"},{"bike_id":"7c86ebaf-c9fe-4bc4-bc7c-bb16ccfd1fa7","system_id":"levelo_inurba_marseille","lat":43.27377,"lon":5.36256,"is_reserved":false,"is_disabled":false,"rental_uris":{"android":"levelo://app?vid=7c86ebaf-c9fe-4bc4-bc7c-bb16ccfd1fa7","ios":"levelo://app?vid=7c86ebaf-c9fe-4bc4-bc7c-bb16ccfd1fa7"},"vehicle_type_id":"4","last_reported":1744287598,"current_range_meters":14400,"station_id":"ce4bhbh2rcd13ifvqeo0","pricing_plan_id":"cebpf4jnsgd1na2vs0mg"},{"bike_id":"d95b00ea-e68d-4dea-a2db-fa1e3f84f0a8","system_id":"levelo_inurba_marseille","lat":43.24995,"lon":5.38936,"is_reserved":false,"is_disabled":false,"rental_uris":{"android":"levelo://app?vid=d95b00ea-e68d-4dea-a2db-fa1e3f84f0a8","ios":"levelo://app?vid=d95b00ea-e68d-4dea-a2db-fa1e3f84f0a8"},"vehicle_type_id":"4","last_reported":1744287598,"current_range_meters":14400,"station_id":"ce4bhgp2rcd13ifvqfd0","pricing_plan_id":"cebpf4jnsgd1na2vs0mg"},{"bike_id":"082fdcfe-fa45-4fb0-aacb-e2bf496a2e2d","system_id":"levelo_inurba_marseille","lat":43.29535,"lon":5.38541,"is_reserved":false,"is_disabled":false,"rental_uris":{"android":"levelo://app?vid=082fdcfe-fa45-4fb0-aacb-e2bf496a2e2d","ios":"levelo://app?vid=082fdcfe-fa45-4fb0-aacb-e2bf496a2e2d"},"vehicle_type_id":"4","last_reported":1744287598,"current_range_meters":18000,"station_id":"ce4bgih2rcd13ifvqba0","pricing_plan_id":"cebpf4jnsgd1na2vs0mg"},{"bike_id":"4a87bf3d-9a91-48a9-95e3-4f3b3ee6cc5f","system_id":"levelo_inurba_marseille","lat":43.279389,"lon":5.410514,"is_reserved":false,"is_disabled":false,"rental_uris":{"android":"levelo://app?vid=4a87bf3d-9a91-48a9-95e3-4f3b3ee6cc5f","ios":"levelo://app?vid=4a87bf3d-9a91-48a9-95e3-4f3b3ee6cc5f"},"vehicle_type_id":"4","last_reported":1744287598,"current_range_meters":14800,"station_id":"ce4bhnp2rcd13ifvqh0g","pricing_plan_id":"cebpf4jnsgd1na2vs0mg"},{"bike_id":"078929e4-9f7b-4da2-ab34-72be03779a14","system_id":"levelo_inurba_marseille","lat":43.292972,"lon":5.374529,"is_reserved":false,"is_disabled":false,"rental_uris":{"android":"levelo://app?vid=078929e4-9f7b-4da2-ab34-72be03779a14","ios":"levelo://app?vid=078929e4-9f7b-4da2-ab34-72be03779a14"},"vehicle_type_id":"4","last_reported":1744287598,"current_range_meters":14800,"station_id":"ce4bgi12rcd13ifvqb70","pricing_plan_id":"cebpf4jnsgd1na2vs0mg"},{"bike_id":"facf8aff-b727-4ef1-9a55-754a95a70a1a","system_id":"levelo_inurba_marseille","lat":43.30947,"lon":5.39028,"is_reserved":false,"is_disabled":false,"rental_uris":{"android":"levelo://app?vid=facf8aff-b727-4ef1-9a55-754a95a70a1a","ios":"levelo://app?vid=facf8aff-b727-4ef1-9a55-754a95a70a1a"},"vehicle_type_id":"4","last_reported":1744287598,"current_range_meters":14800,"station_id":"ce4bgup2rcd13ifvqco0","pricing_plan_id":"cebpf4jnsgd1na2vs0mg"},{"bike_id":"fcbde0c5-adf1-44c5-a29c-825dbc5836bb","system_id":"levelo_inurba_marseille","lat":43.30602,"lon":5.37218,"is_reserved":false,"is_disabled":false,"rental_uris":{"android":"levelo://app?vid=fcbde0c5-adf1-44c5-a29c-825dbc5836bb","ios":"levelo://app?vid=fcbde0c5-adf1-44c5-a29c-825dbc5836bb"},"vehicle_type_id":"4","last_reported":1744287598,"current_range_meters":14800,"station_id":"ce4bgqh2rcd13ifvqc4g","pricing_plan_id":"cebpf4jnsgd1na2vs0mg"},{"bike_id":"f78bf8a8-b506-43e9-9fc4-9ec4cb688e82","system_id":"levelo_inurba_marseille","lat":43.32082,"lon":5.36761,"is_reserved":false,"is_disabled":false,"rental_uris":{"android":"levelo://app?vid=f78bf8a8-b506-43e9-9fc4-9ec4cb688e82","ios":"levelo://app?vid=f78bf8a8-b506-43e9-9fc4-9ec4cb688e82"},"vehicle_type_id":"4","last_reported":1744287598,"current_range_meters":15200,"station_id":"ce4bhrh2rcd13ifvqhug","pricing_plan_id":"cebpf4jnsgd1na2vs0mg"},{"bike_id":"8893789f-2f0d-46cd-b42a-0be77d78c555","system_id":"levelo_inurba_marseille","lat":43.28264,"lon":5.35061,"is_reserved":false,"is_disabled":false,"rental_uris":{"android":"levelo://app?vid=8893789f-2f0d-46cd-b42a-0be77d78c555","ios":"levelo://app?vid=8893789f-2f0d-46cd-b42a-0be77d78c555"},"vehicle_type_id":"4","last_reported":1744287598,"current_range_meters":15200,"station_id":"ce4bhbp2rcd13ifvqerg","pricing_plan_id":"cebpf4jnsgd1na2vs0mg"},{"bike_id":"c74893b0-7990-42e1-81ba-6333fadd7f5e","system_id":"levelo_inurba_marseille","lat":43.30566,"lon":5.36531,"is_reserved":false,"is_disabled":false,"rental_uris":{"android":"levelo://app?vid=c74893b0-7990-42e1-81ba-6333fadd7f5e","ios":"levelo://app?vid=c74893b0-7990-42e1-81ba-6333fadd7f5e"},"vehicle_type_id":"4","last_reported":1744287598,"current_range_meters":15200,"station_id":"ce4bgs12rcd13ifvqcag","pricing_plan_id":"cebpf4jnsgd1na2vs0mg"},{"bike_id":"083e46db-7202-4d81-a11b-6c85cd648e16","system_id":"levelo_inurba_marseille","lat":43.31763,"lon":5.39014,"is_reserved":false,"is_disabled":false,"rental_uris":{"android":"levelo://app?vid=083e46db-7202-4d81-a11b-6c85cd648e16","ios":"levelo://app?vid=083e46db-7202-4d81-a11b-6c85cd648e16"},"vehicle_type_id":"4","last_reported":1744287598,"current_range_meters":15200,"station_id":"ce4bhqp2rcd13ifvqhng","pricing_plan_id":"cebpf4jnsgd1na2vs0mg"},{"bike_id":"784f6f6f-9f28-47b2-878e-a7ec8d21c437","system_id":"levelo_inurba_marseille","lat":43.30466,"lon":5.37335,"is_reserved":false,"is_disabled":false,"rental_uris":{"android":"levelo://app?vid=784f6f6f-9f28-47b2-878e-a7ec8d21c437","ios":"levelo://app?vid=784f6f6f-9f28-47b2-878e-a7ec8d21c437"},"vehicle_type_id":"4","last_reported":1744287598,"current_range_meters":15200,"station_id":"","pricing_plan_id":"cebpf4jnsgd1na2vs0mg"},{"bike_id":"1d02745d-c564-46cf-946f-64f580be8c7c","system_id":"levelo_inurba_marseille","lat":43.28933,"lon":5.38396,"is_reserved":false,"is_disabled":false,"rental_uris":{"android":"levelo://app?vid=1d02745d-c564-46cf-946f-64f580be8c7c","ios":"levelo://app?vid=1d02745d-c564-46cf-946f-64f580be8c7c"},"vehicle_type_id":"4","last_reported":1744287598,"current_range_meters":14000,"station_id":"ce4bh292rcd13ifvqdg0","pricing_plan_id":"cebpf4jnsgd1na2vs0mg"},{"bike_id":"7217ea4b-d081-4d83-b44a-5c5d5e38b156","system_id":"levelo_inurba_marseille","lat":43.29259,"lon":5.36857,"is_reserved":false,"is_disabled":false,"rental_uris":{"android":"levelo://app?vid=7217ea4b-d081-4d83-b44a-5c5d5e38b156","ios":"levelo://app?vid=7217ea4b-d081-4d83-b44a-5c5d5e38b156"},"vehicle_type_id":"4","last_reported":1744287598,"current_range_meters":16000,"station_id":"ce4bhbp2rcd13ifvqesg","pricing_plan_id":"cebpf4jnsgd1na2vs0mg"},{"bike_id":"eab6cbfa-cb8e-47d7-b0d6-226ab7facec7","system_id":"levelo_inurba_marseille","lat":43.3171,"lon":5.42442,"is_reserved":false,"is_disabled":true,"rental_uris":{"android":"levelo://app?vid=eab6cbfa-cb8e-47d7-b0d6-226ab7facec7","ios":"levelo://app?vid=eab6cbfa-cb8e-47d7-b0d6-226ab7facec7"},"vehicle_type_id":"4","last_reported":1744287598,"current_range_meters":16000,"station_id":"ce4bhp92rcd13ifvqhbg","pricing_plan_id":"cebpf4jnsgd1na2vs0mg"},{"bike_id":"d1cd1b25-6432-4bde-87f0-3f927aac83c2","system_id":"levelo_inurba_marseille","lat":43.30534,"lon":5.3655,"is_reserved":false,"is_disabled":false,"rental_uris":{"android":"levelo://app?vid=d1cd1b25-6432-4bde-87f0-3f927aac83c2","ios":"levelo://app?vid=d1cd1b25-6432-4bde-87f0-3f927aac83c2"},"vehicle_type_id":"4","last_reported":1744287598,"current_range_meters":16000,"station_id":"ce4bgs12rcd13ifvqcag","pricing_plan_id":"cebpf4jnsgd1na2vs0mg"},{"bike_id":"8ecbc85f-3b18-4c5e-a8da-e58b9aea0390","system_id":"levelo_inurba_marseille","lat":43.28422,"lon":5.34992,"is_reserved":false,"is_disabled":false,"rental_uris":{"android":"levelo://app?vid=8ecbc85f-3b18-4c5e-a8da-e58b9aea0390","ios":"levelo://app?vid=8ecbc85f-3b18-4c5e-a8da-e58b9aea0390"},"vehicle_type_id":"4","last_reported":1744287598,"current_range_meters":16400,"station_id":"ce4bhbh2rcd13ifvqepg","pricing_plan_id":"cebpf4jnsgd1na2vs0mg"},{"bike_id":"de4669ff-b9cc-43d6-95d6-96a615c4f6f1","system_id":"levelo_inurba_marseille","lat":43.21208,"lon":5.35063,"is_reserved":false,"is_disabled":false,"rental_uris":{"android":"levelo://app?vid=de4669ff-b9cc-43d6-95d6-96a615c4f6f1","ios":"levelo://app?vid=de4669ff-b9cc-43d6-95d6-96a615c4f6f1"},"vehicle_type_id":"4","last_reported":1744287598,"current_range_meters":16400,"station_id":"st_cvj6sg6p6f1abm77japg","pricing_plan_id":"cebpf4jnsgd1na2vs0mg"},{"bike_id":"edcc2472-e7bf-4e0c-91d2-956f1c779ee1","system_id":"levelo_inurba_marseille","lat":43.24179,"lon":5.39733,"is_reserved":false,"is_disabled":false,"rental_uris":{"android":"levelo://app?vid=edcc2472-e7bf-4e0c-91d2-956f1c779ee1","ios":"levelo://app?vid=edcc2472-e7bf-4e0c-91d2-956f1c779ee1"},"vehicle_type_id":"4","last_reported":1744287598,"current_range_meters":16400,"station_id":"ce4bhn12rcd13ifvqgpg","pricing_plan_id":"cebpf4jnsgd1na2vs0mg"},{"bike_id":"7928f85f-6603-4b62-a9f0-1785aa6fb49a","system_id":"levelo_inurba_marseille","lat":43.30774,"lon":5.37402,"is_reserved":false,"is_disabled":true,"rental_uris":{"android":"levelo://app?vid=7928f85f-6603-4b62-a9f0-1785aa6fb49a","ios":"levelo://app?vid=7928f85f-6603-4b62-a9f0-1785aa6fb49a"},"vehicle_type_id":"4","last_reported":1744287598,"current_range_meters":16400,"station_id":"","pricing_plan_id":"cebpf4jnsgd1na2vs0mg"},{"bike_id":"958b363d-ffc7-4ece-b59b-0689b9e2f204","system_id":"levelo_inurba_marseille","lat":43.260329,"lon":5.375443,"is_reserved":false,"is_disabled":false,"rental_uris":{"android":"levelo://app?vid=958b363d-ffc7-4ece-b59b-0689b9e2f204","ios":"levelo://app?vid=958b363d-ffc7-4ece-b59b-0689b9e2f204"},"vehicle_type_id":"4","last_reported":1744287598,"current_range_meters":16400,"station_id":"ce4bhgh2rcd13ifvqfa0","pricing_plan_id":"cebpf4jnsgd1na2vs0mg"},{"bike_id":"b54ac630-7801-48cc-9785-f994a3cb6155","system_id":"levelo_inurba_marseille","lat":43.24176,"lon":5.397097,"is_reserved":false,"is_disabled":false,"rental_uris":{"android":"levelo://app?vid=b54ac630-7801-48cc-9785-f994a3cb6155","ios":"levelo://app?vid=b54ac630-7801-48cc-9785-f994a3cb6155"},"vehicle_type_id":"4","last_reported":1744287598,"current_range_meters":16400,"station_id":"ce4bhn12rcd13ifvqgpg","pricing_plan_id":"cebpf4jnsgd1na2vs0mg"},{"bike_id":"7e4a7553-9e57-4d7f-a5c8-6f5906c67be8","system_id":"levelo_inurba_marseille","lat":43.29728,"lon":5.37702,"is_reserved":false,"is_disabled":false,"rental_uris":{"android":"levelo://app?vid=7e4a7553-9e57-4d7f-a5c8-6f5906c67be8","ios":"levelo://app?vid=7e4a7553-9e57-4d7f-a5c8-6f5906c67be8"},"vehicle_type_id":"4","last_reported":1744287598,"current_range_meters":16800,"station_id":"ce4bgkh2rcd13ifvqbl0","pricing_plan_id":"cebpf4jnsgd1na2vs0mg"},{"bike_id":"99ba3dc1-9006-491c-a836-a36413969144","system_id":"levelo_inurba_marseille","lat":43.30264,"lon":5.4008,"is_reserved":false,"is_disabled":false,"rental_uris":{"android":"levelo://app?vid=99ba3dc1-9006-491c-a836-a36413969144","ios":"levelo://app?vid=99ba3dc1-9006-491c-a836-a36413969144"},"vehicle_type_id":"4","last_reported":1744287598,"current_range_meters":16400,"station_id":"ce4bgvh2rcd13ifvqcs0","pricing_plan_id":"cebpf4jnsgd1na2vs0mg"},{"bike_id":"d8769fc2-ea37-46c6-b6ce-546b6d8bb4ac","system_id":"levelo_inurba_marseille","lat":43.29275,"lon":5.40113,"is_reserved":false,"is_disabled":false,"rental_uris":{"android":"levelo://app?vid=d8769fc2-ea37-46c6-b6ce-546b6d8bb4ac","ios":"levelo://app?vid=d8769fc2-ea37-46c6-b6ce-546b6d8bb4ac"},"vehicle_type_id":"4","last_reported":1744287598,"current_range_meters":16800,"station_id":"ce4bh312rcd13ifvqdk0","pricing_plan_id":"cebpf4jnsgd1na2vs0mg"},{"bike_id":"73eb7f58-98f4-4138-b69f-d6820dfa2ce6","system_id":"levelo_inurba_marseille","lat":43.28569,"lon":5.39497,"is_reserved":false,"is_disabled":false,"rental_uris":{"android":"levelo://app?vid=73eb7f58-98f4-4138-b69f-d6820dfa2ce6","ios":"levelo://app?vid=73eb7f58-98f4-4138-b69f-d6820dfa2ce6"},"vehicle_type_id":"4","last_reported":1744287598,"current_range_meters":16800,"station_id":"ce4bh292rcd13ifvqdg0","pricing_plan_id":"cebpf4jnsgd1na2vs0mg"},{"bike_id":"d35409f6-4f7c-40ab-a7ea-5e5f79272eb6","system_id":"levelo_inurba_marseille","lat":43.29171,"lon":5.37149,"is_reserved":false,"is_disabled":false,"rental_uris":{"android":"levelo://app?vid=d35409f6-4f7c-40ab-a7ea-5e5f79272eb6","ios":"levelo://app?vid=d35409f6-4f7c-40ab-a7ea-5e5f79272eb6"},"vehicle_type_id":"4","last_reported":1744287598,"current_range_meters":16800,"station_id":"ce4bha92rcd13ifvqeh0","pricing_plan_id":"cebpf4jnsgd1na2vs0mg"},{"bike_id":"c1c56244-6132-4b56-a068-bb6e70484db1","system_id":"levelo_inurba_marseille","lat":43.28264,"lon":5.35063,"is_reserved":false,"is_disabled":false,"rental_uris":{"android":"levelo://app?vid=c1c56244-6132-4b56-a068-bb6e70484db1","ios":"levelo://app?vid=c1c56244-6132-4b56-a068-bb6e70484db1"},"vehicle_type_id":"4","last_reported":1744287598,"current_range_meters":16800,"station_id":"ce4bhbp2rcd13ifvqerg","pricing_plan_id":"cebpf4jnsgd1na2vs0mg"},{"bike_id":"0922821c-4e1d-4817-9469-860e55f8f0d1","system_id":"levelo_inurba_marseille","lat":43.337444,"lon":5.374475,"is_reserved":false,"is_disabled":false,"rental_uris":{"android":"levelo://app?vid=0922821c-4e1d-4817-9469-860e55f8f0d1","ios":"levelo://app?vid=0922821c-4e1d-4817-9469-860e55f8f0d1"},"vehicle_type_id":"4","last_reported":1744287598,"current_range_meters":16800,"station_id":"","pricing_plan_id":"cebpf4jnsgd1na2vs0mg"},{"bike_id":"579f457c-b45f-4871-a520-f2e97610bada","system_id":"levelo_inurba_marseille","lat":43.302199,"lon":5.39464,"is_reserved":false,"is_disabled":false,"rental_uris":{"android":"levelo://app?vid=579f457c-b45f-4871-a520-f2e97610bada","ios":"levelo://app?vid=579f457c-b45f-4871-a520-f2e97610bada"},"vehicle_type_id":"4","last_reported":1744287598,"current_range_meters":16800,"station_id":"ce4bh0p2rcd13ifvqd70","pricing_plan_id":"cebpf4jnsgd1na2vs0mg"},{"bike_id":"23718e9a-5ce7-4d28-99a5-8f754f56e13c","system_id":"levelo_inurba_marseille","lat":43.22503,"lon":5.34786,"is_reserved":false,"is_disabled":false,"rental_uris":{"android":"levelo://app?vid=23718e9a-5ce7-4d28-99a5-8f754f56e13c","ios":"levelo://app?vid=23718e9a-5ce7-4d28-99a5-8f754f56e13c"},"vehicle_type_id":"4","last_reported":1744287598,"current_range_meters":17200,"station_id":"","pricing_plan_id":"cebpf4jnsgd1na2vs0mg"},{"bike_id":"a034f737-c7d2-4943-9d22-7ee87c8de504","system_id":"levelo_inurba_marseille","lat":43.28423,"lon":5.34993,"is_reserved":false,"is_disabled":false,"rental_uris":{"android":"levelo://app?vid=a034f737-c7d2-4943-9d22-7ee87c8de504","ios":"levelo://app?vid=a034f737-c7d2-4943-9d22-7ee87c8de504"},"vehicle_type_id":"4","last_reported":1744287598,"current_range_meters":17200,"station_id":"ce4bhbh2rcd13ifvqepg","pricing_plan_id":"cebpf4jnsgd1na2vs0mg"},{"bike_id":"7636c260-c802-49a0-87fb-1f69cd30956b","system_id":"levelo_inurba_marseille","lat":43.29971,"lon":5.3655,"is_reserved":false,"is_disabled":false,"rental_uris":{"android":"levelo://app?vid=7636c260-c802-49a0-87fb-1f69cd30956b","ios":"levelo://app?vid=7636c260-c802-49a0-87fb-1f69cd30956b"},"vehicle_type_id":"4","last_reported":1744287598,"current_range_meters":17200,"station_id":"ce4bgm92rcd13ifvqbr0","pricing_plan_id":"cebpf4jnsgd1na2vs0mg"},{"bike_id":"0a81e3f0-21bb-4471-a967-d90a58035c47","system_id":"levelo_inurba_marseille","lat":43.27306,"lon":5.39083,"is_reserved":false,"is_disabled":false,"rental_uris":{"android":"levelo://app?vid=0a81e3f0-21bb-4471-a967-d90a58035c47","ios":"levelo://app?vid=0a81e3f0-21bb-4471-a967-d90a58035c47"},"vehicle_type_id":"4","last_reported":1744287598,"current_range_meters":18800,"station_id":"ce4bhgp2rcd13ifvqfe0","pricing_plan_id":"cebpf4jnsgd1na2vs0mg"},{"bike_id":"13be7fea-e9e2-4515-8179-954cc16a5aa1","system_id":"levelo_inurba_marseille","lat":43.30921,"lon":5.36863,"is_reserved":false,"is_disabled":false,"rental_uris":{"android":"levelo://app?vid=13be7fea-e9e2-4515-8179-954cc16a5aa1","ios":"levelo://app?vid=13be7fea-e9e2-4515-8179-954cc16a5aa1"},"vehicle_type_id":"4","last_reported":1744287598,"current_range_meters":17200,"station_id":"ce4bgn92rcd13ifvqbvg","pricing_plan_id":"cebpf4jnsgd1na2vs0mg"},{"bike_id":"1487c5e0-fefb-43fe-879d-c6f0a9e161c1","system_id":"levelo_inurba_marseille","lat":43.30892,"lon":5.39653,"is_reserved":false,"is_disabled":false,"rental_uris":{"android":"levelo://app?vid=1487c5e0-fefb-43fe-879d-c6f0a9e161c1","ios":"levelo://app?vid=1487c5e0-fefb-43fe-879d-c6f0a9e161c1"},"vehicle_type_id":"4","last_reported":1744287598,"current_range_meters":17200,"station_id":"ce4bh012rcd13ifvqcv0","pricing_plan_id":"cebpf4jnsgd1na2vs0mg"},{"bike_id":"14b0627b-178d-4dcd-9e08-02e1081ab018","system_id":"levelo_inurba_marseille","lat":43.231428,"lon":5.437231,"is_reserved":false,"is_disabled":false,"rental_uris":{"android":"levelo://app?vid=14b0627b-178d-4dcd-9e08-02e1081ab018","ios":"levelo://app?vid=14b0627b-178d-4dcd-9e08-02e1081ab018"},"vehicle_type_id":"4","last_reported":1744287598,"current_range_meters":17600,"station_id":"ce4bhmp2rcd13ifvqgog","pricing_plan_id":"cebpf4jnsgd1na2vs0mg"},{"bike_id":"a737f5db-dfb3-4dd8-aeff-67617975e190","system_id":"levelo_inurba_marseille","lat":43.29602,"lon":5.37717,"is_reserved":false,"is_disabled":true,"rental_uris":{"android":"levelo://app?vid=a737f5db-dfb3-4dd8-aeff-67617975e190","ios":"levelo://app?vid=a737f5db-dfb3-4dd8-aeff-67617975e190"},"vehicle_type_id":"4","last_reported":1744287598,"current_range_meters":17600,"station_id":"ce4bgi92rcd13ifvqb90","pricing_plan_id":"cebpf4jnsgd1na2vs0mg"},{"bike_id":"20f467f0-e90a-4df6-a85f-e9a05ca14bde","system_id":"levelo_inurba_marseille","lat":43.31171,"lon":5.38718,"is_reserved":false,"is_disabled":false,"rental_uris":{"android":"levelo://app?vid=20f467f0-e90a-4df6-a85f-e9a05ca14bde","ios":"levelo://app?vid=20f467f0-e90a-4df6-a85f-e9a05ca14bde"},"vehicle_type_id":"4","last_reported":1744287598,"current_range_meters":17600,"station_id":"ce4bgv12rcd13ifvqcp0","pricing_plan_id":"cebpf4jnsgd1na2vs0mg"},{"bike_id":"630ae79d-70f6-4f06-a76d-e79c5d557a7d","system_id":"levelo_inurba_marseille","lat":43.31415,"lon":5.36629,"is_reserved":false,"is_disabled":false,"rental_uris":{"android":"levelo://app?vid=630ae79d-70f6-4f06-a76d-e79c5d557a7d","ios":"levelo://app?vid=630ae79d-70f6-4f06-a76d-e79c5d557a7d"},"vehicle_type_id":"4","last_reported":1744287598,"current_range_meters":17600,"station_id":"ce4bgr92rcd13ifvqc6g","pricing_plan_id":"cebpf4jnsgd1na2vs0mg"},{"bike_id":"221b5d38-61dc-40aa-b23e-5b0391fc47a1","system_id":"levelo_inurba_marseille","lat":43.2623,"lon":5.40447,"is_reserved":false,"is_disabled":false,"rental_uris":{"android":"levelo://app?vid=221b5d38-61dc-40aa-b23e-5b0391fc47a1","ios":"levelo://app?vid=221b5d38-61dc-40aa-b23e-5b0391fc47a1"},"vehicle_type_id":"4","last_reported":1744287598,"current_range_meters":17600,"station_id":"ce4bhmh2rcd13ifvqgmg","pricing_plan_id":"cebpf4jnsgd1na2vs0mg"},{"bike_id":"24a9856b-f72b-4abe-8a6e-442641679aa0","system_id":"levelo_inurba_marseille","lat":43.30465,"lon":5.37869,"is_reserved":false,"is_disabled":false,"rental_uris":{"android":"levelo://app?vid=24a9856b-f72b-4abe-8a6e-442641679aa0","ios":"levelo://app?vid=24a9856b-f72b-4abe-8a6e-442641679aa0"},"vehicle_type_id":"4","last_reported":1744287598,"current_range_meters":17600,"station_id":"ce4bgup2rcd13ifvqcn0","pricing_plan_id":"cebpf4jnsgd1na2vs0mg"},{"bike_id":"f29b480a-d11a-4879-8894-1007cd7ab49c","system_id":"levelo_inurba_marseille","lat":43.28679,"lon":5.38667,"is_reserved":false,"is_disabled":false,"rental_uris":{"android":"levelo://app?vid=f29b480a-d11a-4879-8894-1007cd7ab49c","ios":"levelo://app?vid=f29b480a-d11a-4879-8894-1007cd7ab49c"},"vehicle_type_id":"4","last_reported":1744287598,"current_range_meters":17600,"station_id":"ce4bh492rcd13ifvqdug","pricing_plan_id":"cebpf4jnsgd1na2vs0mg"},{"bike_id":"94455896-0f19-4fae-bd72-9879f01fcd6e","system_id":"levelo_inurba_marseille","lat":43.29559,"lon":5.42288,"is_reserved":false,"is_disabled":true,"rental_uris":{"android":"levelo://app?vid=94455896-0f19-4fae-bd72-9879f01fcd6e","ios":"levelo://app?vid=94455896-0f19-4fae-bd72-9879f01fcd6e"},"vehicle_type_id":"4","last_reported":1744287598,"current_range_meters":17600,"station_id":"ce4bhph2rcd13ifvqhdg","pricing_plan_id":"cebpf4jnsgd1na2vs0mg"},{"bike_id":"182650a6-9433-4951-80ba-44b6e3878dab","system_id":"levelo_inurba_marseille","lat":43.30525,"lon":5.38446,"is_reserved":false,"is_disabled":true,"rental_uris":{"android":"levelo://app?vid=182650a6-9433-4951-80ba-44b6e3878dab","ios":"levelo://app?vid=182650a6-9433-4951-80ba-44b6e3878dab"},"vehicle_type_id":"4","last_reported":1744287598,"current_range_meters":17600,"station_id":"ce4bgg92rcd13ifvqb30","pricing_plan_id":"cebpf4jnsgd1na2vs0mg"},{"bike_id":"d2991d92-f477-4b31-b207-530975b736c1","system_id":"levelo_inurba_marseille","lat":43.330236,"lon":5.390456,"is_reserved":false,"is_disabled":false,"rental_uris":{"android":"levelo://app?vid=d2991d92-f477-4b31-b207-530975b736c1","ios":"levelo://app?vid=d2991d92-f477-4b31-b207-530975b736c1"},"vehicle_type_id":"4","last_reported":1744287598,"current_range_meters":17600,"station_id":"ce4bhr92rcd13ifvqhrg","pricing_plan_id":"cebpf4jnsgd1na2vs0mg"},{"bike_id":"64b45173-dd61-44cc-b0d1-227b5edc240b","system_id":"levelo_inurba_marseille","lat":43.30349,"lon":5.41885,"is_reserved":false,"is_disabled":false,"rental_uris":{"android":"levelo://app?vid=64b45173-dd61-44cc-b0d1-227b5edc240b","ios":"levelo://app?vid=64b45173-dd61-44cc-b0d1-227b5edc240b"},"vehicle_type_id":"4","last_reported":1744287598,"current_range_meters":17600,"station_id":"ce4bhop2rcd13ifvqh7g","pricing_plan_id":"cebpf4jnsgd1na2vs0mg"},{"bike_id":"cbc4d964-4d58-4891-a1a0-a908875052fd","system_id":"levelo_inurba_marseille","lat":43.26028,"lon":5.37555,"is_reserved":false,"is_disabled":false,"rental_uris":{"android":"levelo://app?vid=cbc4d964-4d58-4891-a1a0-a908875052fd","ios":"levelo://app?vid=cbc4d964-4d58-4891-a1a0-a908875052fd"},"vehicle_type_id":"4","last_reported":1744287598,"current_range_meters":17600,"station_id":"ce4bhgh2rcd13ifvqfa0","pricing_plan_id":"cebpf4jnsgd1na2vs0mg"},{"bike_id":"2417e5ef-850e-43fe-a91b-84b4806e624f","system_id":"levelo_inurba_marseille","lat":43.29971,"lon":5.38504,"is_reserved":false,"is_disabled":false,"rental_uris":{"android":"levelo://app?vid=2417e5ef-850e-43fe-a91b-84b4806e624f","ios":"levelo://app?vid=2417e5ef-850e-43fe-a91b-84b4806e624f"},"vehicle_type_id":"4","last_reported":1744287598,"current_range_meters":18000,"station_id":"ce4bgj92rcd13ifvqbd0","pricing_plan_id":"cebpf4jnsgd1na2vs0mg"},{"bike_id":"463b41fd-37bb-48c0-a6e4-12f737a3d7cf","system_id":"levelo_inurba_marseille","lat":43.26933,"lon":5.40287,"is_reserved":false,"is_disabled":true,"rental_uris":{"android":"levelo://app?vid=463b41fd-37bb-48c0-a6e4-12f737a3d7cf","ios":"levelo://app?vid=463b41fd-37bb-48c0-a6e4-12f737a3d7cf"},"vehicle_type_id":"4","last_reported":1744287598,"current_range_meters":18000,"station_id":"cjm6bp8fraef2m0cb0m0","pricing_plan_id":"cebpf4jnsgd1na2vs0mg"},{"bike_id":"aeb315f8-5663-4264-8421-f5acbb6ac33d","system_id":"levelo_inurba_marseille","lat":43.26229,"lon":5.4044,"is_reserved":false,"is_disabled":false,"rental_uris":{"android":"levelo://app?vid=aeb315f8-5663-4264-8421-f5acbb6ac33d","ios":"levelo://app?vid=aeb315f8-5663-4264-8421-f5acbb6ac33d"},"vehicle_type_id":"4","last_reported":1744287598,"current_range_meters":18000,"station_id":"ce4bhmh2rcd13ifvqgmg","pricing_plan_id":"cebpf4jnsgd1na2vs0mg"},{"bike_id":"35b36e91-763a-4885-8944-e030c3a30dcf","system_id":"levelo_inurba_marseille","lat":43.31234,"lon":5.36875,"is_reserved":false,"is_disabled":false,"rental_uris":{"android":"levelo://app?vid=35b36e91-763a-4885-8944-e030c3a30dcf","ios":"levelo://app?vid=35b36e91-763a-4885-8944-e030c3a30dcf"},"vehicle_type_id":"4","last_reported":1744287598,"current_range_meters":18000,"station_id":"ce4bgl92rcd13ifvqbq0","pricing_plan_id":"cebpf4jnsgd1na2vs0mg"},{"bike_id":"6f5a3fba-5124-42a7-b36e-1ce41590f370","system_id":"levelo_inurba_marseille","lat":43.32367,"lon":5.36755,"is_reserved":false,"is_disabled":false,"rental_uris":{"android":"levelo://app?vid=6f5a3fba-5124-42a7-b36e-1ce41590f370","ios":"levelo://app?vid=6f5a3fba-5124-42a7-b36e-1ce41590f370"},"vehicle_type_id":"4","last_reported":1744287598,"current_range_meters":18000,"station_id":"ce4bhsh2rcd13ifvqi2g","pricing_plan_id":"cebpf4jnsgd1na2vs0mg"},{"bike_id":"14a83748-2377-4940-a8cf-feb7e9075c0a","system_id":"levelo_inurba_marseille","lat":43.29217,"lon":5.36076,"is_reserved":false,"is_disabled":false,"rental_uris":{"android":"levelo://app?vid=14a83748-2377-4940-a8cf-feb7e9075c0a","ios":"levelo://app?vid=14a83748-2377-4940-a8cf-feb7e9075c0a"},"vehicle_type_id":"4","last_reported":1744287598,"current_range_meters":18000,"station_id":"ce4bhbh2rcd13ifvqeqg","pricing_plan_id":"cebpf4jnsgd1na2vs0mg"},{"bike_id":"0b73b15a-9d08-4a64-a420-9110a325b597","system_id":"levelo_inurba_marseille","lat":43.23154,"lon":5.43725,"is_reserved":false,"is_disabled":false,"rental_uris":{"android":"levelo://app?vid=0b73b15a-9d08-4a64-a420-9110a325b597","ios":"levelo://app?vid=0b73b15a-9d08-4a64-a420-9110a325b597"},"vehicle_type_id":"4","last_reported":1744287598,"current_range_meters":18000,"station_id":"ce4bhmp2rcd13ifvqgog","pricing_plan_id":"cebpf4jnsgd1na2vs0mg"},{"bike_id":"b3dbbc8e-06cd-470c-9491-641b39beba60","system_id":"levelo_inurba_marseille","lat":43.308909,"lon":5.391462,"is_reserved":false,"is_disabled":false,"rental_uris":{"android":"levelo://app?vid=b3dbbc8e-06cd-470c-9491-641b39beba60","ios":"levelo://app?vid=b3dbbc8e-06cd-470c-9491-641b39beba60"},"vehicle_type_id":"4","last_reported":1744287598,"current_range_meters":18800,"station_id":"ce4bgup2rcd13ifvqco0","pricing_plan_id":"cebpf4jnsgd1na2vs0mg"},{"bike_id":"4369130f-1b4b-4b39-ae6e-a798a3fd3f86","system_id":"levelo_inurba_marseille","lat":43.26943,"lon":5.40262,"is_reserved":false,"is_disabled":false,"rental_uris":{"android":"levelo://app?vid=4369130f-1b4b-4b39-ae6e-a798a3fd3f86","ios":"levelo://app?vid=4369130f-1b4b-4b39-ae6e-a798a3fd3f86"},"vehicle_type_id":"4","last_reported":1744287598,"current_range_meters":18800,"station_id":"cjm6bp8fraef2m0cb0m0","pricing_plan_id":"cebpf4jnsgd1na2vs0mg"},{"bike_id":"94c7794a-6d48-406f-b5c8-69da2480bb40","system_id":"levelo_inurba_marseille","lat":43.31419,"lon":5.36613,"is_reserved":false,"is_disabled":false,"rental_uris":{"android":"levelo://app?vid=94c7794a-6d48-406f-b5c8-69da2480bb40","ios":"levelo://app?vid=94c7794a-6d48-406f-b5c8-69da2480bb40"},"vehicle_type_id":"4","last_reported":1744287598,"current_range_meters":18800,"station_id":"","pricing_plan_id":"cebpf4jnsgd1na2vs0mg"},{"bike_id":"89e18915-d30e-41cb-bb03-ba8ebbb23625","system_id":"levelo_inurba_marseille","lat":43.26696,"lon":5.38273,"is_reserved":false,"is_disabled":false,"rental_uris":{"android":"levelo://app?vid=89e18915-d30e-41cb-bb03-ba8ebbb23625","ios":"levelo://app?vid=89e18915-d30e-41cb-bb03-ba8ebbb23625"},"vehicle_type_id":"4","last_reported":1744287598,"current_range_meters":18800,"station_id":"ce4bhg92rcd13ifvqf90","pricing_plan_id":"cebpf4jnsgd1na2vs0mg"},{"bike_id":"70333d08-b89a-4e2b-ae7b-375ce248ec2b","system_id":"levelo_inurba_marseille","lat":43.29303,"lon":5.37472,"is_reserved":false,"is_disabled":true,"rental_uris":{"android":"levelo://app?vid=70333d08-b89a-4e2b-ae7b-375ce248ec2b","ios":"levelo://app?vid=70333d08-b89a-4e2b-ae7b-375ce248ec2b"},"vehicle_type_id":"4","last_reported":1744287598,"current_range_meters":18800,"station_id":"","pricing_plan_id":"cebpf4jnsgd1na2vs0mg"},{"bike_id":"6d1f80b1-80e0-4012-99d1-3f8172cadb63","system_id":"levelo_inurba_marseille","lat":43.24192,"lon":5.36355,"is_reserved":false,"is_disabled":false,"rental_uris":{"android":"levelo://app?vid=6d1f80b1-80e0-4012-99d1-3f8172cadb63","ios":"levelo://app?vid=6d1f80b1-80e0-4012-99d1-3f8172cadb63"},"vehicle_type_id":"4","last_reported":1744287598,"current_range_meters":18800,"station_id":"cpo36qri1sfpv3e86is0","pricing_plan_id":"cebpf4jnsgd1na2vs0mg"},{"bike_id":"03fcd7f7-31d8-4eb7-827e-145a4c522e3d","system_id":"levelo_inurba_marseille","lat":43.27051,"lon":5.4027,"is_reserved":false,"is_disabled":false,"rental_uris":{"android":"levelo://app?vid=03fcd7f7-31d8-4eb7-827e-145a4c522e3d","ios":"levelo://app?vid=03fcd7f7-31d8-4eb7-827e-145a4c522e3d"},"vehicle_type_id":"4","last_reported":1744287598,"current_range_meters":18800,"station_id":"ce4bhk92rcd13ifvqgc0","pricing_plan_id":"cebpf4jnsgd1na2vs0mg"},{"bike_id":"278860d5-a125-48a5-ab18-10651ae580bc","system_id":"levelo_inurba_marseille","lat":43.21755,"lon":5.34604,"is_reserved":false,"is_disabled":false,"rental_uris":{"android":"levelo://app?vid=278860d5-a125-48a5-ab18-10651ae580bc","ios":"levelo://app?vid=278860d5-a125-48a5-ab18-10651ae580bc"},"vehicle_type_id":"4","last_reported":1744287598,"current_range_meters":18800,"station_id":"st_cvj6r9ubvosntc0bgbag","pricing_plan_id":"cebpf4jnsgd1na2vs0mg"},{"bike_id":"38dc129a-1396-455c-8873-947b0fa81c06","system_id":"levelo_inurba_marseille","lat":43.26922,"lon":5.38921,"is_reserved":false,"is_disabled":false,"rental_uris":{"android":"levelo://app?vid=38dc129a-1396-455c-8873-947b0fa81c06","ios":"levelo://app?vid=38dc129a-1396-455c-8873-947b0fa81c06"},"vehicle_type_id":"4","last_reported":1744287598,"current_range_meters":19200,"station_id":"ce4bhhh2rcd13ifvqfl0","pricing_plan_id":"cebpf4jnsgd1na2vs0mg"},{"bike_id":"6ebdd4fd-c1f4-49d7-b3a5-ebe0b7c54128","system_id":"levelo_inurba_marseille","lat":43.304559,"lon":5.379148,"is_reserved":false,"is_disabled":false,"rental_uris":{"android":"levelo://app?vid=6ebdd4fd-c1f4-49d7-b3a5-ebe0b7c54128","ios":"levelo://app?vid=6ebdd4fd-c1f4-49d7-b3a5-ebe0b7c54128"},"vehicle_type_id":"4","last_reported":1744287598,"current_range_meters":19200,"station_id":"ce4bhb12rcd13ifvqel0","pricing_plan_id":"cebpf4jnsgd1na2vs0mg"},{"bike_id":"b1ee2f60-4328-4282-bd37-761fb5f2d37b","system_id":"levelo_inurba_marseille","lat":43.31987,"lon":5.36306,"is_reserved":false,"is_disabled":false,"rental_uris":{"android":"levelo://app?vid=b1ee2f60-4328-4282-bd37-761fb5f2d37b","ios":"levelo://app?vid=b1ee2f60-4328-4282-bd37-761fb5f2d37b"},"vehicle_type_id":"4","last_reported":1744287598,"current_range_meters":19200,"station_id":"ce4bgr92rcd13ifvqc6g","pricing_plan_id":"cebpf4jnsgd1na2vs0mg"},{"bike_id":"460d6934-4ed6-4875-a124-f6ee6347a017","system_id":"levelo_inurba_marseille","lat":43.29283,"lon":5.3717,"is_reserved":false,"is_disabled":false,"rental_uris":{"android":"levelo://app?vid=460d6934-4ed6-4875-a124-f6ee6347a017","ios":"levelo://app?vid=460d6934-4ed6-4875-a124-f6ee6347a017"},"vehicle_type_id":"4","last_reported":1744287598,"current_range_meters":19200,"station_id":"ce4bgh92rcd13ifvqb40","pricing_plan_id":"cebpf4jnsgd1na2vs0mg"},{"bike_id":"74b26f4a-6d3d-4ac2-b681-1e6162ab2ff1","system_id":"levelo_inurba_marseille","lat":43.31205,"lon":5.36878,"is_reserved":false,"is_disabled":false,"rental_uris":{"android":"levelo://app?vid=74b26f4a-6d3d-4ac2-b681-1e6162ab2ff1","ios":"levelo://app?vid=74b26f4a-6d3d-4ac2-b681-1e6162ab2ff1"},"vehicle_type_id":"4","last_reported":1744287598,"current_range_meters":19200,"station_id":"ce4bgl92rcd13ifvqbq0","pricing_plan_id":"cebpf4jnsgd1na2vs0mg"},{"bike_id":"4d2f64b2-5cf7-464e-8bda-2b24d6c531ad","system_id":"levelo_inurba_marseille","lat":43.26213,"lon":5.37451,"is_reserved":false,"is_disabled":false,"rental_uris":{"android":"levelo://app?vid=4d2f64b2-5cf7-464e-8bda-2b24d6c531ad","ios":"levelo://app?vid=4d2f64b2-5cf7-464e-8bda-2b24d6c531ad"},"vehicle_type_id":"4","last_reported":1744287598,"current_range_meters":19200,"station_id":"ce4bhgp2rcd13ifvqfc0","pricing_plan_id":"cebpf4jnsgd1na2vs0mg"},{"bike_id":"8827bf17-30b7-4a29-95b3-73e783065886","system_id":"levelo_inurba_marseille","lat":43.29844,"lon":5.36278,"is_reserved":false,"is_disabled":false,"rental_uris":{"android":"levelo://app?vid=8827bf17-30b7-4a29-95b3-73e783065886","ios":"levelo://app?vid=8827bf17-30b7-4a29-95b3-73e783065886"},"vehicle_type_id":"4","last_reported":1744287598,"current_range_meters":18800,"station_id":"ce4bgpp2rcd13ifvqc3g","pricing_plan_id":"cebpf4jnsgd1na2vs0mg"},{"bike_id":"2dea5513-82d8-49fe-8be3-05b77a306f53","system_id":"levelo_inurba_marseille","lat":43.33735,"lon":5.3918,"is_reserved":false,"is_disabled":false,"rental_uris":{"android":"levelo://app?vid=2dea5513-82d8-49fe-8be3-05b77a306f53","ios":"levelo://app?vid=2dea5513-82d8-49fe-8be3-05b77a306f53"},"vehicle_type_id":"4","last_reported":1744287598,"current_range_meters":19600,"station_id":"ce4bhr92rcd13ifvqhsg","pricing_plan_id":"cebpf4jnsgd1na2vs0mg"},{"bike_id":"41296d85-37fc-42bb-838c-0d3e19348df6","system_id":"levelo_inurba_marseille","lat":43.22506,"lon":5.34783,"is_reserved":false,"is_disabled":false,"rental_uris":{"android":"levelo://app?vid=41296d85-37fc-42bb-838c-0d3e19348df6","ios":"levelo://app?vid=41296d85-37fc-42bb-838c-0d3e19348df6"},"vehicle_type_id":"4","last_reported":1744287598,"current_range_meters":19600,"station_id":"st_cvj5dfep6f1abm77gieg","pricing_plan_id":"cebpf4jnsgd1na2vs0mg"},{"bike_id":"3e405538-dbe1-4dcb-af44-a3d15512812d","system_id":"levelo_inurba_marseille","lat":43.33604,"lon":5.41036,"is_reserved":false,"is_disabled":false,"rental_uris":{"android":"levelo://app?vid=3e405538-dbe1-4dcb-af44-a3d15512812d","ios":"levelo://app?vid=3e405538-dbe1-4dcb-af44-a3d15512812d"},"vehicle_type_id":"4","last_reported":1744287598,"current_range_meters":19600,"station_id":"ce4bhqh2rcd13ifvqhmg","pricing_plan_id":"cebpf4jnsgd1na2vs0mg"},{"bike_id":"f8a75475-cf38-4522-966f-691ab70920f1","system_id":"levelo_inurba_marseille","lat":43.23962,"lon":5.36637,"is_reserved":false,"is_disabled":false,"rental_uris":{"android":"levelo://app?vid=f8a75475-cf38-4522-966f-691ab70920f1","ios":"levelo://app?vid=f8a75475-cf38-4522-966f-691ab70920f1"},"vehicle_type_id":"4","last_reported":1744287598,"current_range_meters":19600,"station_id":"ce4bhi12rcd13ifvqfp0","pricing_plan_id":"cebpf4jnsgd1na2vs0mg"},{"bike_id":"e61839bf-f681-4d70-a315-33f71f01e45f","system_id":"levelo_inurba_marseille","lat":43.30531,"lon":5.36677,"is_reserved":false,"is_disabled":false,"rental_uris":{"android":"levelo://app?vid=e61839bf-f681-4d70-a315-33f71f01e45f","ios":"levelo://app?vid=e61839bf-f681-4d70-a315-33f71f01e45f"},"vehicle_type_id":"4","last_reported":1744287598,"current_range_meters":19600,"station_id":"ce4bgrp2rcd13ifvqc9g","pricing_plan_id":"cebpf4jnsgd1na2vs0mg"},{"bike_id":"d43b77db-9bd3-4428-badc-36b3eeadc6b1","system_id":"levelo_inurba_marseille","lat":43.313559,"lon":5.367144,"is_reserved":false,"is_disabled":false,"rental_uris":{"android":"levelo://app?vid=d43b77db-9bd3-4428-badc-36b3eeadc6b1","ios":"levelo://app?vid=d43b77db-9bd3-4428-badc-36b3eeadc6b1"},"vehicle_type_id":"4","last_reported":1744287598,"current_range_meters":19600,"station_id":"ce4bgr92rcd13ifvqc6g","pricing_plan_id":"cebpf4jnsgd1na2vs0mg"},{"bike_id":"c754ecb9-0620-48ed-81c3-f72b1452916e","system_id":"levelo_inurba_marseille","lat":43.2868,"lon":5.38669,"is_reserved":false,"is_disabled":false,"rental_uris":{"android":"levelo://app?vid=c754ecb9-0620-48ed-81c3-f72b1452916e","ios":"levelo://app?vid=c754ecb9-0620-48ed-81c3-f72b1452916e"},"vehicle_type_id":"4","last_reported":1744287598,"current_range_meters":20000,"station_id":"ce4bh492rcd13ifvqdug","pricing_plan_id":"cebpf4jnsgd1na2vs0mg"},{"bike_id":"d41ae61a-63da-4c5b-9ca3-0fc5a06df94c","system_id":"levelo_inurba_marseille","lat":43.312234,"lon":5.368643,"is_reserved":false,"is_disabled":false,"rental_uris":{"android":"levelo://app?vid=d41ae61a-63da-4c5b-9ca3-0fc5a06df94c","ios":"levelo://app?vid=d41ae61a-63da-4c5b-9ca3-0fc5a06df94c"},"vehicle_type_id":"4","last_reported":1744287598,"current_range_meters":20000,"station_id":"ce4bgl92rcd13ifvqbq0","pricing_plan_id":"cebpf4jnsgd1na2vs0mg"},{"bike_id":"a834b914-d667-41d0-a80c-acbe5f6df75e","system_id":"levelo_inurba_marseille","lat":43.285974,"lon":5.399027,"is_reserved":false,"is_disabled":false,"rental_uris":{"android":"levelo://app?vid=a834b914-d667-41d0-a80c-acbe5f6df75e","ios":"levelo://app?vid=a834b914-d667-41d0-a80c-acbe5f6df75e"},"vehicle_type_id":"4","last_reported":1744287598,"current_range_meters":19200,"station_id":"ce4bho92rcd13ifvqh3g","pricing_plan_id":"cebpf4jnsgd1na2vs0mg"},{"bike_id":"25fb06f4-18a8-47b2-8f0c-a4e815a75645","system_id":"levelo_inurba_marseille","lat":43.33708,"lon":5.39168,"is_reserved":false,"is_disabled":false,"rental_uris":{"android":"levelo://app?vid=25fb06f4-18a8-47b2-8f0c-a4e815a75645","ios":"levelo://app?vid=25fb06f4-18a8-47b2-8f0c-a4e815a75645"},"vehicle_type_id":"4","last_reported":1744287598,"current_range_meters":20000,"station_id":"ce4bhr92rcd13ifvqhsg","pricing_plan_id":"cebpf4jnsgd1na2vs0mg"},{"bike_id":"ef291804-1477-432e-b153-82ea15725418","system_id":"levelo_inurba_marseille","lat":43.33742,"lon":5.37454,"is_reserved":false,"is_disabled":false,"rental_uris":{"android":"levelo://app?vid=ef291804-1477-432e-b153-82ea15725418","ios":"levelo://app?vid=ef291804-1477-432e-b153-82ea15725418"},"vehicle_type_id":"4","last_reported":1744287598,"current_range_meters":20000,"station_id":"","pricing_plan_id":"cebpf4jnsgd1na2vs0mg"},{"bike_id":"a8d00c5e-4323-45e9-8098-fe5d50266640","system_id":"levelo_inurba_marseille","lat":43.28793,"lon":5.40038,"is_reserved":false,"is_disabled":false,"rental_uris":{"android":"levelo://app?vid=a8d00c5e-4323-45e9-8098-fe5d50266640","ios":"levelo://app?vid=a8d00c5e-4323-45e9-8098-fe5d50266640"},"vehicle_type_id":"4","last_reported":1744287598,"current_range_meters":20000,"station_id":"ce4bho92rcd13ifvqh3g","pricing_plan_id":"cebpf4jnsgd1na2vs0mg"},{"bike_id":"6e9744df-a894-43cd-97a7-dc1cff75055b","system_id":"levelo_inurba_marseille","lat":43.29016,"lon":5.35608,"is_reserved":false,"is_disabled":false,"rental_uris":{"android":"levelo://app?vid=6e9744df-a894-43cd-97a7-dc1cff75055b","ios":"levelo://app?vid=6e9744df-a894-43cd-97a7-dc1cff75055b"},"vehicle_type_id":"4","last_reported":1744287598,"current_range_meters":20000,"station_id":"ce4bhb92rcd13ifvqen0","pricing_plan_id":"cebpf4jnsgd1na2vs0mg"},{"bike_id":"daea6e8e-8c40-4495-b604-85c5952f2ae0","system_id":"levelo_inurba_marseille","lat":43.29979,"lon":5.37181,"is_reserved":false,"is_disabled":false,"rental_uris":{"android":"levelo://app?vid=daea6e8e-8c40-4495-b604-85c5952f2ae0","ios":"levelo://app?vid=daea6e8e-8c40-4495-b604-85c5952f2ae0"},"vehicle_type_id":"4","last_reported":1744287598,"current_range_meters":20400,"station_id":"ce4bgr92rcd13ifvqc7g","pricing_plan_id":"cebpf4jnsgd1na2vs0mg"},{"bike_id":"5377d901-6e70-4d3e-9dad-bff6a774126a","system_id":"levelo_inurba_marseille","lat":43.280884,"lon":5.399259,"is_reserved":false,"is_disabled":false,"rental_uris":{"android":"levelo://app?vid=5377d901-6e70-4d3e-9dad-bff6a774126a","ios":"levelo://app?vid=5377d901-6e70-4d3e-9dad-bff6a774126a"},"vehicle_type_id":"4","last_reported":1744287598,"current_range_meters":20800,"station_id":"ce4bh312rcd13ifvqdk0","pricing_plan_id":"cebpf4jnsgd1na2vs0mg"},{"bike_id":"ab23986d-af42-4b4b-90d6-eff1a0998087","system_id":"levelo_inurba_marseille","lat":43.28265,"lon":5.35077,"is_reserved":false,"is_disabled":false,"rental_uris":{"android":"levelo://app?vid=ab23986d-af42-4b4b-90d6-eff1a0998087","ios":"levelo://app?vid=ab23986d-af42-4b4b-90d6-eff1a0998087"},"vehicle_type_id":"4","last_reported":1744287598,"current_range_meters":20400,"station_id":"ce4bhbp2rcd13ifvqerg","pricing_plan_id":"cebpf4jnsgd1na2vs0mg"},{"bike_id":"22ad6089-3aa1-48e2-a191-f7b3f0b57852","system_id":"levelo_inurba_marseille","lat":43.26195,"lon":5.37452,"is_reserved":false,"is_disabled":false,"rental_uris":{"android":"levelo://app?vid=22ad6089-3aa1-48e2-a191-f7b3f0b57852","ios":"levelo://app?vid=22ad6089-3aa1-48e2-a191-f7b3f0b57852"},"vehicle_type_id":"4","last_reported":1744287598,"current_range_meters":20400,"station_id":"ce4bhgp2rcd13ifvqfc0","pricing_plan_id":"cebpf4jnsgd1na2vs0mg"},{"bike_id":"75a9ad91-a188-4d71-b51a-0d8b6f29ed94","system_id":"levelo_inurba_marseille","lat":43.24674,"lon":5.3815,"is_reserved":false,"is_disabled":false,"rental_uris":{"android":"levelo://app?vid=75a9ad91-a188-4d71-b51a-0d8b6f29ed94","ios":"levelo://app?vid=75a9ad91-a188-4d71-b51a-0d8b6f29ed94"},"vehicle_type_id":"4","last_reported":1744287598,"current_range_meters":20400,"station_id":"ce4bhih2rcd13ifvqfr0","pricing_plan_id":"cebpf4jnsgd1na2vs0mg"},{"bike_id":"2352aeae-24d1-4caa-b236-67856ba122dc","system_id":"levelo_inurba_marseille","lat":43.290918,"lon":5.38133,"is_reserved":false,"is_disabled":false,"rental_uris":{"android":"levelo://app?vid=2352aeae-24d1-4caa-b236-67856ba122dc","ios":"levelo://app?vid=2352aeae-24d1-4caa-b236-67856ba122dc"},"vehicle_type_id":"4","last_reported":1744287598,"current_range_meters":20400,"station_id":"ce4bh512rcd13ifvqe2g","pricing_plan_id":"cebpf4jnsgd1na2vs0mg"},{"bike_id":"4c893399-b4ed-40ed-a49f-713da320f269","system_id":"levelo_inurba_marseille","lat":43.29861,"lon":5.37841,"is_reserved":false,"is_disabled":false,"rental_uris":{"android":"levelo://app?vid=4c893399-b4ed-40ed-a49f-713da320f269","ios":"levelo://app?vid=4c893399-b4ed-40ed-a49f-713da320f269"},"vehicle_type_id":"4","last_reported":1744287598,"current_range_meters":20400,"station_id":"","pricing_plan_id":"cebpf4jnsgd1na2vs0mg"},{"bike_id":"3cdf3ef8-4a9b-418f-8641-a78bfac68d2e","system_id":"levelo_inurba_marseille","lat":43.25937,"lon":5.40903,"is_reserved":false,"is_disabled":false,"rental_uris":{"android":"levelo://app?vid=3cdf3ef8-4a9b-418f-8641-a78bfac68d2e","ios":"levelo://app?vid=3cdf3ef8-4a9b-418f-8641-a78bfac68d2e"},"vehicle_type_id":"4","last_reported":1744287598,"current_range_meters":20400,"station_id":"ce4bhm92rcd13ifvqglg","pricing_plan_id":"cebpf4jnsgd1na2vs0mg"},{"bike_id":"49ed74e3-4908-4ed1-88f3-b97fd428f041","system_id":"levelo_inurba_marseille","lat":43.23138,"lon":5.43698,"is_reserved":false,"is_disabled":false,"rental_uris":{"android":"levelo://app?vid=49ed74e3-4908-4ed1-88f3-b97fd428f041","ios":"levelo://app?vid=49ed74e3-4908-4ed1-88f3-b97fd428f041"},"vehicle_type_id":"4","last_reported":1744287598,"current_range_meters":20400,"station_id":"ce4bhmp2rcd13ifvqgog","pricing_plan_id":"cebpf4jnsgd1na2vs0mg"},{"bike_id":"8c58f2fa-99e1-41f8-bf90-9c1648b679b1","system_id":"levelo_inurba_marseille","lat":43.27305,"lon":5.41429,"is_reserved":false,"is_disabled":false,"rental_uris":{"android":"levelo://app?vid=8c58f2fa-99e1-41f8-bf90-9c1648b679b1","ios":"levelo://app?vid=8c58f2fa-99e1-41f8-bf90-9c1648b679b1"},"vehicle_type_id":"4","last_reported":1744287598,"current_range_meters":20400,"station_id":"","pricing_plan_id":"cebpf4jnsgd1na2vs0mg"},{"bike_id":"b34a93be-4368-4412-8616-bda90a60fefb","system_id":"levelo_inurba_marseille","lat":43.22932,"lon":5.35388,"is_reserved":false,"is_disabled":false,"rental_uris":{"android":"levelo://app?vid=b34a93be-4368-4412-8616-bda90a60fefb","ios":"levelo://app?vid=b34a93be-4368-4412-8616-bda90a60fefb"},"vehicle_type_id":"4","last_reported":1744287598,"current_range_meters":20400,"station_id":"cpo3532slgdg3j2ikp40","pricing_plan_id":"cebpf4jnsgd1na2vs0mg"},{"bike_id":"d37408de-b5d7-4466-8973-ab7c2a7000bc","system_id":"levelo_inurba_marseille","lat":43.283558,"lon":5.350119,"is_reserved":false,"is_disabled":false,"rental_uris":{"android":"levelo://app?vid=d37408de-b5d7-4466-8973-ab7c2a7000bc","ios":"levelo://app?vid=d37408de-b5d7-4466-8973-ab7c2a7000bc"},"vehicle_type_id":"4","last_reported":1744287598,"current_range_meters":20800,"station_id":"","pricing_plan_id":"cebpf4jnsgd1na2vs0mg"},{"bike_id":"3184e0b3-4ab8-4348-9679-fb84c43d9309","system_id":"levelo_inurba_marseille","lat":43.28417,"lon":5.34983,"is_reserved":false,"is_disabled":false,"rental_uris":{"android":"levelo://app?vid=3184e0b3-4ab8-4348-9679-fb84c43d9309","ios":"levelo://app?vid=3184e0b3-4ab8-4348-9679-fb84c43d9309"},"vehicle_type_id":"4","last_reported":1744287598,"current_range_meters":20800,"station_id":"ce4bhbh2rcd13ifvqepg","pricing_plan_id":"cebpf4jnsgd1na2vs0mg"},{"bike_id":"333aabcc-37e3-4dc8-898f-ab100153bbd5","system_id":"levelo_inurba_marseille","lat":43.284394,"lon":5.392105,"is_reserved":false,"is_disabled":false,"rental_uris":{"android":"levelo://app?vid=333aabcc-37e3-4dc8-898f-ab100153bbd5","ios":"levelo://app?vid=333aabcc-37e3-4dc8-898f-ab100153bbd5"},"vehicle_type_id":"4","last_reported":1744287598,"current_range_meters":20800,"station_id":"ce4bhpp2rcd13ifvqhfg","pricing_plan_id":"cebpf4jnsgd1na2vs0mg"},{"bike_id":"3ec5fe56-99c9-47fb-a3bf-819633221465","system_id":"levelo_inurba_marseille","lat":43.24597,"lon":5.41949,"is_reserved":false,"is_disabled":false,"rental_uris":{"android":"levelo://app?vid=3ec5fe56-99c9-47fb-a3bf-819633221465","ios":"levelo://app?vid=3ec5fe56-99c9-47fb-a3bf-819633221465"},"vehicle_type_id":"4","last_reported":1744287598,"current_range_meters":20800,"station_id":"","pricing_plan_id":"cebpf4jnsgd1na2vs0mg"},{"bike_id":"53fa9bb7-f303-40ea-bf9b-7e57a079e550","system_id":"levelo_inurba_marseille","lat":43.30542,"lon":5.3654,"is_reserved":false,"is_disabled":false,"rental_uris":{"android":"levelo://app?vid=53fa9bb7-f303-40ea-bf9b-7e57a079e550","ios":"levelo://app?vid=53fa9bb7-f303-40ea-bf9b-7e57a079e550"},"vehicle_type_id":"4","last_reported":1744287598,"current_range_meters":20800,"station_id":"ce4bgs12rcd13ifvqcag","pricing_plan_id":"cebpf4jnsgd1na2vs0mg"},{"bike_id":"08baf44f-aaed-4950-a30a-b4352ddfb966","system_id":"levelo_inurba_marseille","lat":43.2803,"lon":5.39997,"is_reserved":false,"is_disabled":false,"rental_uris":{"android":"levelo://app?vid=08baf44f-aaed-4950-a30a-b4352ddfb966","ios":"levelo://app?vid=08baf44f-aaed-4950-a30a-b4352ddfb966"},"vehicle_type_id":"4","last_reported":1744287598,"current_range_meters":20800,"station_id":"ce4bho92rcd13ifvqh4g","pricing_plan_id":"cebpf4jnsgd1na2vs0mg"},{"bike_id":"7310c325-fd4c-4eef-ae75-b3f5434f15b3","system_id":"levelo_inurba_marseille","lat":43.28939,"lon":5.36644,"is_reserved":false,"is_disabled":false,"rental_uris":{"android":"levelo://app?vid=7310c325-fd4c-4eef-ae75-b3f5434f15b3","ios":"levelo://app?vid=7310c325-fd4c-4eef-ae75-b3f5434f15b3"},"vehicle_type_id":"4","last_reported":1744287598,"current_range_meters":20800,"station_id":"ce4bhap2rcd13ifvqek0","pricing_plan_id":"cebpf4jnsgd1na2vs0mg"},{"bike_id":"0eddff1a-0972-4a4e-b85a-1063353f9b77","system_id":"levelo_inurba_marseille","lat":43.32332,"lon":5.40623,"is_reserved":false,"is_disabled":false,"rental_uris":{"android":"levelo://app?vid=0eddff1a-0972-4a4e-b85a-1063353f9b77","ios":"levelo://app?vid=0eddff1a-0972-4a4e-b85a-1063353f9b77"},"vehicle_type_id":"4","last_reported":1744287598,"current_range_meters":20800,"station_id":"ce4bhq92rcd13ifvqhjg","pricing_plan_id":"cebpf4jnsgd1na2vs0mg"},{"bike_id":"f9f7ba89-976d-44d6-bfe6-0f792703cebf","system_id":"levelo_inurba_marseille","lat":43.2559,"lon":5.38235,"is_reserved":false,"is_disabled":false,"rental_uris":{"android":"levelo://app?vid=f9f7ba89-976d-44d6-bfe6-0f792703cebf","ios":"levelo://app?vid=f9f7ba89-976d-44d6-bfe6-0f792703cebf"},"vehicle_type_id":"4","last_reported":1744287598,"current_range_meters":20800,"station_id":"ce4bhih2rcd13ifvqfs0","pricing_plan_id":"cebpf4jnsgd1na2vs0mg"},{"bike_id":"b04e1ab1-8c7b-4573-a318-8a238d2e2a4d","system_id":"levelo_inurba_marseille","lat":43.31221,"lon":5.36853,"is_reserved":false,"is_disabled":false,"rental_uris":{"android":"levelo://app?vid=b04e1ab1-8c7b-4573-a318-8a238d2e2a4d","ios":"levelo://app?vid=b04e1ab1-8c7b-4573-a318-8a238d2e2a4d"},"vehicle_type_id":"4","last_reported":1744287598,"current_range_meters":20800,"station_id":"ce4bgl92rcd13ifvqbq0","pricing_plan_id":"cebpf4jnsgd1na2vs0mg"},{"bike_id":"d9a2dd31-4039-4980-94c6-1a09dd43982e","system_id":"levelo_inurba_marseille","lat":43.24387,"lon":5.37067,"is_reserved":false,"is_disabled":false,"rental_uris":{"android":"levelo://app?vid=d9a2dd31-4039-4980-94c6-1a09dd43982e","ios":"levelo://app?vid=d9a2dd31-4039-4980-94c6-1a09dd43982e"},"vehicle_type_id":"4","last_reported":1744287598,"current_range_meters":20800,"station_id":"ce4bhhh2rcd13ifvqfk0","pricing_plan_id":"cebpf4jnsgd1na2vs0mg"},{"bike_id":"2b60e293-fc6f-473b-a197-338a3683e1d5","system_id":"levelo_inurba_marseille","lat":43.296265,"lon":5.377196,"is_reserved":false,"is_disabled":false,"rental_uris":{"android":"levelo://app?vid=2b60e293-fc6f-473b-a197-338a3683e1d5","ios":"levelo://app?vid=2b60e293-fc6f-473b-a197-338a3683e1d5"},"vehicle_type_id":"4","last_reported":1744287598,"current_range_meters":20800,"station_id":"ce4bgi92rcd13ifvqb90","pricing_plan_id":"cebpf4jnsgd1na2vs0mg"},{"bike_id":"7d1e9f59-8037-4f52-9265-64d4d4e0eea3","system_id":"levelo_inurba_marseille","lat":43.30143,"lon":5.3742,"is_reserved":false,"is_disabled":false,"rental_uris":{"android":"levelo://app?vid=7d1e9f59-8037-4f52-9265-64d4d4e0eea3","ios":"levelo://app?vid=7d1e9f59-8037-4f52-9265-64d4d4e0eea3"},"vehicle_type_id":"4","last_reported":1744287598,"current_range_meters":20800,"station_id":"ce4bgs92rcd13ifvqcc0","pricing_plan_id":"cebpf4jnsgd1na2vs0mg"},{"bike_id":"f1a6a9c4-88a9-4a70-961d-af773f7dfc7f","system_id":"levelo_inurba_marseille","lat":43.30188,"lon":5.3661,"is_reserved":false,"is_disabled":false,"rental_uris":{"android":"levelo://app?vid=f1a6a9c4-88a9-4a70-961d-af773f7dfc7f","ios":"levelo://app?vid=f1a6a9c4-88a9-4a70-961d-af773f7dfc7f"},"vehicle_type_id":"4","last_reported":1744287598,"current_range_meters":21600,"station_id":"ce4bgrh2rcd13ifvqc8g","pricing_plan_id":"cebpf4jnsgd1na2vs0mg"},{"bike_id":"42fa9b5f-6f6b-4082-819c-685fedfb2608","system_id":"levelo_inurba_marseille","lat":43.24408,"lon":5.37106,"is_reserved":false,"is_disabled":false,"rental_uris":{"android":"levelo://app?vid=42fa9b5f-6f6b-4082-819c-685fedfb2608","ios":"levelo://app?vid=42fa9b5f-6f6b-4082-819c-685fedfb2608"},"vehicle_type_id":"4","last_reported":1744287598,"current_range_meters":21600,"station_id":"ce4bhhh2rcd13ifvqfk0","pricing_plan_id":"cebpf4jnsgd1na2vs0mg"},{"bike_id":"2f0d069d-30ba-4a42-9985-e94eb52e86a8","system_id":"levelo_inurba_marseille","lat":43.30536,"lon":5.36552,"is_reserved":false,"is_disabled":false,"rental_uris":{"android":"levelo://app?vid=2f0d069d-30ba-4a42-9985-e94eb52e86a8","ios":"levelo://app?vid=2f0d069d-30ba-4a42-9985-e94eb52e86a8"},"vehicle_type_id":"4","last_reported":1744287598,"current_range_meters":21600,"station_id":"ce4bgs12rcd13ifvqcag","pricing_plan_id":"cebpf4jnsgd1na2vs0mg"},{"bike_id":"7e63cfa5-3e4f-4b41-b1ee-3594dffb305a","system_id":"levelo_inurba_marseille","lat":43.25944,"lon":5.40909,"is_reserved":false,"is_disabled":false,"rental_uris":{"android":"levelo://app?vid=7e63cfa5-3e4f-4b41-b1ee-3594dffb305a","ios":"levelo://app?vid=7e63cfa5-3e4f-4b41-b1ee-3594dffb305a"},"vehicle_type_id":"4","last_reported":1744287598,"current_range_meters":21600,"station_id":"ce4bhm92rcd13ifvqglg","pricing_plan_id":"cebpf4jnsgd1na2vs0mg"},{"bike_id":"5b77a833-8185-45c2-9fe3-07eb40df54ca","system_id":"levelo_inurba_marseille","lat":43.33995,"lon":5.38057,"is_reserved":false,"is_disabled":false,"rental_uris":{"android":"levelo://app?vid=5b77a833-8185-45c2-9fe3-07eb40df54ca","ios":"levelo://app?vid=5b77a833-8185-45c2-9fe3-07eb40df54ca"},"vehicle_type_id":"4","last_reported":1744287598,"current_range_meters":21600,"station_id":"","pricing_plan_id":"cebpf4jnsgd1na2vs0mg"},{"bike_id":"09e56d85-06a1-437b-bc21-b1ab66639b45","system_id":"levelo_inurba_marseille","lat":43.270514,"lon":5.402606,"is_reserved":false,"is_disabled":false,"rental_uris":{"android":"levelo://app?vid=09e56d85-06a1-437b-bc21-b1ab66639b45","ios":"levelo://app?vid=09e56d85-06a1-437b-bc21-b1ab66639b45"},"vehicle_type_id":"4","last_reported":1744287598,"current_range_meters":23200,"station_id":"ce4bhh12rcd13ifvqfg0","pricing_plan_id":"cebpf4jnsgd1na2vs0mg"},