{"last_updated":1724522981,"ttl":30,"version":"2.2","data":{"bikes":[{"bike_id":"8d6c39de-e5af-467a-a5fa-3de886db948c","system_id":"levelo_inurba_marseille","lat":43.312239,"lon":5.368562,"is_reserved":false,"is_disabled":false,"rental_uris":{"android":"levelo://app?vid=8d6c39de-e5af-467a-a5fa-3de886db948c","ios":"levelo://app?vid=8d6c39de-e5af-467a-a5fa-3de886db948c"},"vehicle_type_id":"4","last_reported":1724522981,"current_range_meters":10000,"station_id":"ce4bgl92rcd13ifvqbq0","pricing_plan_id":"cebpf4jnsgd1na2vs0mg"},{"bike_id":"697293e1-0155-43fd-ba38-667602bb0d2d","system_id":"levelo_inurba_marseille","lat":43.31487,"lon":5.37306,"is_reserved":false,"is_disabled":false,"rental_uris":{"android":"levelo://app?vid=697293e1-0155-43fd-ba38-667602bb0d2d","ios":"levelo://app?vid=697293e1-0155-43fd-ba38-667602bb0d2d"},"vehicle_type_id":"4","last_reported":1724522981,"current_range_meters":0,"station_id":"ce4bgt12rcd13ifvqcd0","pricing_plan_id":"cebpf4jnsgd1na2vs0mg"},{"bike_id":"821965ad-6091-4cc6-81c8-2e8135c73e40","system_id":"levelo_inurba_marseille","lat":43.30544,"lon":5.36649,"is_reserved":false,"is_disabled":false,"rental_uris":{"android":"levelo://app?vid=821965ad-6091-4cc6-81c8-2e8135c73e40","ios":"levelo://app?vid=821965ad-6091-4cc6-81c8-2e8135c73e40"},"vehicle_type_id":"4","last_reported":1724522981,"current_range_meters":8800,"station_id":"","pricing_plan_id":"cebpf4jnsgd1na2vs0mg"},{"bike_id":"c4ca1073-0c8a-42ef-bf23-d3b1e62bf1ba","system_id":"levelo_inurba_marseille","lat":43.305989,"lon":5.37225,"is_reserved":false,"is_disabled":false,"rental_uris":{"android":"levelo://app?vid=c4ca1073-0c8a-42ef-bf23-d3b1e62bf1ba","ios":"levelo://app?vid=c4ca1073-0c8a-42ef-bf23-d3b1e62bf1ba"},"vehicle_type_id":"4","last_reported":1724522981,"current_range_meters":4800,"station_id":"ce4bgqh2rcd13ifvqc4g","pricing_plan_id":"cebpf4jnsgd1na2vs0mg"},{"bike_id":"e1ceb412-52fb-4673-878f-620c93e4ab9f","system_id":"levelo_inurba_marseille","lat":43.30597,"lon":5.37227,"is_reserved":false,"is_disabled":false,"rental_uris":{"android":"levelo://app?vid=e1ceb412-52fb-4673-878f-620c93e4ab9f","ios":"levelo://app?vid=e1ceb412-52fb-4673-878f-620c93e4ab9f"},"vehicle_type_id":"4","last_reported":1724522981,"current_range_meters":0,"station_id":"ce4bgqh2rcd13ifvqc4g","pricing_plan_id":"cebpf4jnsgd1na2vs0mg"},{"bike_id":"a410c101-bd39-417e-84e1-eeff931c409f","system_id":"levelo_inurba_marseille","lat":43.311131,"lon":5.377651,"is_reserved":false,"is_disabled":false,"rental_uris":{"android":"levelo://app?vid=a410c101-bd39-417e-84e1-eeff931c409f","ios":"levelo://app?vid=a410c101-bd39-417e-84e1-eeff931c409f"},"vehicle_type_id":"4","last_reported":1724522981,"current_range_meters":0,"station_id":"ce4bgt92rcd13ifvqcg0","pricing_plan_id":"cebpf4jnsgd1na2vs0mg"},{"bike_id":"0b76362b-e93a-4115-ba6c-08af35510a61","system_id":"levelo_inurba_marseille","lat":43.311131,"lon":5.377651,"is_reserved":false,"is_disabled":false,"rental_uris":{"android":"levelo://app?vid=0b76362b-e93a-4115-ba6c-08af35510a61","ios":"levelo://app?vid=0b76362b-e93a-4115-ba6c-08af35510a61"},"vehicle_type_id":"4","last_reported":1724522981,"current_range_meters":9200,"station_id":"ce4bgt92rcd13ifvqcg0","pricing_plan_id":"cebpf4jnsgd1na2vs0mg"},{"bike_id":"be480b19-77f2-4fde-a66a-7a819fe2ed24","system_id":"levelo_inurba_marseille","lat":43.307945,"lon":5.376487,"is_reserved":false,"is_disabled":false,"rental_uris":{"android":"levelo://app?vid=be480b19-77f2-4fde-a66a-7a819fe2ed24","ios":"levelo://app?vid=be480b19-77f2-4fde-a66a-7a819fe2ed24"},"vehicle_type_id":"4","last_reported":1724522981,"current_range_meters":15200,"station_id":"ce4bgv92rcd13ifvqcq0","pricing_plan_id":"cebpf4jnsgd1na2vs0mg"},{"bike_id":"59c57aa4-4860-4f24-ab53-9523236ee616","system_id":"levelo_inurba_marseille","lat":43.307945,"lon":5.376487,"is_reserved":false,"is_disabled":false,"rental_uris":{"android":"levelo://app?vid=59c57aa4-4860-4f24-ab53-9523236ee616","ios":"levelo://app?vid=59c57aa4-4860-4f24-ab53-9523236ee616"},"vehicle_type_id":"4","last_reported":1724522981,"current_range_meters":0,"station_id":"ce4bgv92rcd13ifvqcq0","pricing_plan_id":"cebpf4jnsgd1na2vs0mg"},{"bike_id":"4fcaf386-9f56-42e2-9535-f9229258390d","system_id":"levelo_inurba_marseille","lat":43.307945,"lon":5.376487,"is_reserved":false,"is_disabled":false,"rental_uris":{"android":"levelo://app?vid=4fcaf386-9f56-42e2-9535-f9229258390d","ios":"levelo://app?vid=4fcaf386-9f56-42e2-9535-f9229258390d"},"vehicle_type_id":"4","last_reported":1724522981,"current_range_meters":6800,"station_id":"ce4bgv92rcd13ifvqcq0","pricing_plan_id":"cebpf4jnsgd1na2vs0mg"},{"bike_id":"4a686552-b08f-48e4-a785-cd835a92478f","system_id":"levelo_inurba_marseille","lat":43.307945,"lon":5.376487,"is_reserved":false,"is_disabled":false,"rental_uris":{"android":"levelo://app?vid=4a686552-b08f-48e4-a785-cd835a92478f","ios":"levelo://app?vid=4a686552-b08f-48e4-a785-cd835a92478f"},"vehicle_type_id":"4","last_reported":1724522981,"current_range_meters":6000,"station_id":"ce4bgv92rcd13ifvqcq0","pricing_plan_id":"cebpf4jnsgd1na2vs0mg"},{"bike_id":"6ecfb292-2eda-41d9-9c8d-2664779eb1e4","system_id":"levelo_inurba_marseille","lat":43.315289,"lon":5.380349,"is_reserved":false,"is_disabled":false,"rental_uris":{"android":"levelo://app?vid=6ecfb292-2eda-41d9-9c8d-2664779eb1e4","ios":"levelo://app?vid=6ecfb292-2eda-41d9-9c8d-2664779eb1e4"},"vehicle_type_id":"4","last_reported":1724522981,"current_range_meters":22400,"station_id":"ce4bhsp2rcd13ifvqi50","pricing_plan_id":"cebpf4jnsgd1na2vs0mg"},{"bike_id":"7750d514-9907-454d-9511-898864a68920","system_id":"levelo_inurba_marseille","lat":43.308012,"lon":5.381511,"is_reserved":false,"is_disabled":false,"rental_uris":{"android":"levelo://app?vid=7750d514-9907-454d-9511-898864a68920","ios":"levelo://app?vid=7750d514-9907-454d-9511-898864a68920"},"vehicle_type_id":"4","last_reported":1724522981,"current_range_meters":2800,"station_id":"ce4bgt12rcd13ifvqce0","pricing_plan_id":"cebpf4jnsgd1na2vs0mg"},{"bike_id":"6c12f4c7-34c9-44f8-bfae-d9091bd6f84d","system_id":"levelo_inurba_marseille","lat":43.308012,"lon":5.381511,"is_reserved":false,"is_disabled":false,"rental_uris":{"android":"levelo://app?vid=6c12f4c7-34c9-44f8-bfae-d9091bd6f84d","ios":"levelo://app?vid=6c12f4c7-34c9-44f8-bfae-d9091bd6f84d"},"vehicle_type_id":"4","last_reported":1724522981,"current_range_meters":14800,"station_id":"ce4bgt12rcd13ifvqce0","pricing_plan_id":"cebpf4jnsgd1na2vs0mg"},{"bike_id":"3bea8dfb-6f70-4600-ba01-ac2cad40b64c","system_id":"levelo_inurba_marseille","lat":43.324771,"lon":5.36557,"is_reserved":false,"is_disabled":false,"rental_uris":{"android":"levelo://app?vid=3bea8dfb-6f70-4600-ba01-ac2cad40b64c","ios":"levelo://app?vid=3bea8dfb-6f70-4600-ba01-ac2cad40b64c"},"vehicle_type_id":"4","last_reported":1724522981,"current_range_meters":800,"station_id":"ce4bhs12rcd13ifvqhvg","pricing_plan_id":"cebpf4jnsgd1na2vs0mg"},{"bike_id":"4cc2080c-2720-43e9-a55a-8550022b2885","system_id":"levelo_inurba_marseille","lat":43.32478,"lon":5.36574,"is_reserved":false,"is_disabled":false,"rental_uris":{"android":"levelo://app?vid=4cc2080c-2720-43e9-a55a-8550022b2885","ios":"levelo://app?vid=4cc2080c-2720-43e9-a55a-8550022b2885"},"vehicle_type_id":"4","last_reported":1724522981,"current_range_meters":8800,"station_id":"ce4bhs12rcd13ifvqhvg","pricing_plan_id":"cebpf4jnsgd1na2vs0mg"},{"bike_id":"b3d46423-dc30-40b0-8f1e-7a39dfe6ae82","system_id":"levelo_inurba_marseille","lat":43.304606,"lon":5.379026,"is_reserved":false,"is_disabled":false,"rental_uris":{"android":"levelo://app?vid=b3d46423-dc30-40b0-8f1e-7a39dfe6ae82","ios":"levelo://app?vid=b3d46423-dc30-40b0-8f1e-7a39dfe6ae82"},"vehicle_type_id":"4","last_reported":1724522981,"current_range_meters":10800,"station_id":"ce4bgup2rcd13ifvqcn0","pricing_plan_id":"cebpf4jnsgd1na2vs0mg"},{"bike_id":"71e214bd-db6a-4022-bbcf-2f58c4fdce06","system_id":"levelo_inurba_marseille","lat":43.310804,"lon":5.38359,"is_reserved":false,"is_disabled":false,"rental_uris":{"android":"levelo://app?vid=71e214bd-db6a-4022-bbcf-2f58c4fdce06","ios":"levelo://app?vid=71e214bd-db6a-4022-bbcf-2f58c4fdce06"},"vehicle_type_id":"4","last_reported":1724522981,"current_range_meters":14000,"station_id":"ce4bgv92rcd13ifvqcr0","pricing_plan_id":"cebpf4jnsgd1na2vs0mg"},{"bike_id":"4b068ad2-1221-4476-9487-2b7eb5619d8a","system_id":"levelo_inurba_marseille","lat":43.31366,"lon":5.38364,"is_reserved":false,"is_disabled":false,"rental_uris":{"android":"levelo://app?vid=4b068ad2-1221-4476-9487-2b7eb5619d8a","ios":"levelo://app?vid=4b068ad2-1221-4476-9487-2b7eb5619d8a"},"vehicle_type_id":"4","last_reported":1724522981,"current_range_meters":4400,"station_id":"","pricing_plan_id":"cebpf4jnsgd1na2vs0mg"},{"bike_id":"9b6aa1c0-c2a9-42a6-9c36-460fe87e9d3c","system_id":"levelo_inurba_marseille","lat":43.30145,"lon":5.37406,"is_reserved":false,"is_disabled":false,"rental_uris":{"android":"levelo://app?vid=9b6aa1c0-c2a9-42a6-9c36-460fe87e9d3c","ios":"levelo://app?vid=9b6aa1c0-c2a9-42a6-9c36-460fe87e9d3c"},"vehicle_type_id":"4","last_reported":1724522981,"current_range_meters":22800,"station_id":"ce4bgs92rcd13ifvqcc0","pricing_plan_id":"cebpf4jnsgd1na2vs0mg"},{"bike_id":"84cfede5-06d8-43c1-86c5-99ae6519722e","system_id":"levelo_inurba_marseille","lat":43.302784,"lon":5.377158,"is_reserved":false,"is_disabled":false,"rental_uris":{"android":"levelo://app?vid=84cfede5-06d8-43c1-86c5-99ae6519722e","ios":"levelo://app?vid=84cfede5-06d8-43c1-86c5-99ae6519722e"},"vehicle_type_id":"4","last_reported":1724522981,"current_range_meters":22000,"station_id":"ce4bguh2rcd13ifvqcj0","pricing_plan_id":"cebpf4jnsgd1na2vs0mg"},{"bike_id":"4d7a3f4e-ae3a-46df-9c97-3b700c822b5b","system_id":"levelo_inurba_marseille","lat":43.319935,"lon":5.381699,"is_reserved":false,"is_disabled":false,"rental_uris":{"android":"levelo://app?vid=4d7a3f4e-ae3a-46df-9c97-3b700c822b5b","ios":"levelo://app?vid=4d7a3f4e-ae3a-46df-9c97-3b700c822b5b"},"vehicle_type_id":"4","last_reported":1724522981,"current_range_meters":6800,"station_id":"ce4bhr12rcd13ifvqhpg","pricing_plan_id":"cebpf4jnsgd1na2vs0mg"},{"bike_id":"2df781d1-2642-41fd-becd-85d66da66ebb","system_id":"levelo_inurba_marseille","lat":43.319935,"lon":5.381699,"is_reserved":false,"is_disabled":false,"rental_uris":{"android":"levelo://app?vid=2df781d1-2642-41fd-becd-85d66da66ebb","ios":"levelo://app?vid=2df781d1-2642-41fd-becd-85d66da66ebb"},"vehicle_type_id":"4","last_reported":1724522981,"current_range_meters":21200,"station_id":"ce4bhr12rcd13ifvqhpg","pricing_plan_id":"cebpf4jnsgd1na2vs0mg"},{"bike_id":"ddfbc639-14ae-43dc-8520-c245e087cb07","system_id":"levelo_inurba_marseille","lat":43.319935,"lon":5.381699,"is_reserved":false,"is_disabled":false,"rental_uris":{"android":"levelo://app?vid=ddfbc639-14ae-43dc-8520-c245e087cb07","ios":"levelo://app?vid=ddfbc639-14ae-43dc-8520-c245e087cb07"},"vehicle_type_id":"4","last_reported":1724522981,"current_range_meters":10800,"station_id":"ce4bhr12rcd13ifvqhpg","pricing_plan_id":"cebpf4jnsgd1na2vs0mg"},{"bike_id":"fe5ae110-a7f1-47b8-81e0-7e9d9cf52750","system_id":"levelo_inurba_marseille","lat":43.313571,"lon":5.384829,"is_reserved":false,"is_disabled":false,"rental_uris":{"android":"levelo://app?vid=fe5ae110-a7f1-47b8-81e0-7e9d9cf52750","ios":"levelo://app?vid=fe5ae110-a7f1-47b8-81e0-7e9d9cf52750"},"vehicle_type_id":"4","last_reported":1724522981,"current_range_meters":8000,"station_id":"ce4bgt92rcd13ifvqcf0","pricing_plan_id":"cebpf4jnsgd1na2vs0mg"},{"bike_id":"8a622e40-37ae-4d71-8828-65f85e3c2aa1","system_id":"levelo_inurba_marseille","lat":43.313571,"lon":5.384829,"is_reserved":false,"is_disabled":false,"rental_uris":{"android":"levelo://app?vid=8a622e40-37ae-4d71-8828-65f85e3c2aa1","ios":"levelo://app?vid=8a622e40-37ae-4d71-8828-65f85e3c2aa1"},"vehicle_type_id":"4","last_reported":1724522981,"current_range_meters":11600,"station_id":"ce4bgt92rcd13ifvqcf0","pricing_plan_id":"cebpf4jnsgd1na2vs0mg"},{"bike_id":"8ebb43ee-b5b7-4a4e-9d42-85b159c50b66","system_id":"levelo_inurba_marseille","lat":43.313571,"lon":5.384829,"is_reserved":false,"is_disabled":false,"rental_uris":{"android":"levelo://app?vid=8ebb43ee-b5b7-4a4e-9d42-85b159c50b66","ios":"levelo://app?vid=8ebb43ee-b5b7-4a4e-9d42-85b159c50b66"},"vehicle_type_id":"4","last_reported":1724522981,"current_range_meters":10400,"station_id":"ce4bgt92rcd13ifvqcf0","pricing_plan_id":"cebpf4jnsgd1na2vs0mg"},{"bike_id":"93d76b15-4ddf-4fb7-838b-e479fb0d7452","system_id":"levelo_inurba_marseille","lat":43.313571,"lon":5.384829,"is_reserved":false,"is_disabled":false,"rental_uris":{"android":"levelo://app?vid=93d76b15-4ddf-4fb7-838b-e479fb0d7452","ios":"levelo://app?vid=93d76b15-4ddf-4fb7-838b-e479fb0d7452"},"vehicle_type_id":"4","last_reported":1724522981,"current_range_meters":29200,"station_id":"ce4bgt92rcd13ifvqcf0","pricing_plan_id":"cebpf4jnsgd1na2vs0mg"},{"bike_id":"de252a37-6837-46fe-ba8c-b1a8d3183643","system_id":"levelo_inurba_marseille","lat":43.313571,"lon":5.384829,"is_reserved":false,"is_disabled":false,"rental_uris":{"android":"levelo://app?vid=de252a37-6837-46fe-ba8c-b1a8d3183643","ios":"levelo://app?vid=de252a37-6837-46fe-ba8c-b1a8d3183643"},"vehicle_type_id":"4","last_reported":1724522981,"current_range_meters":26800,"station_id":"ce4bgt92rcd13ifvqcf0","pricing_plan_id":"cebpf4jnsgd1na2vs0mg"},{"bike_id":"75d40d79-e285-4ea6-9831-28f839bbc3dc","system_id":"levelo_inurba_marseille","lat":43.313571,"lon":5.384829,"is_reserved":false,"is_disabled":false,"rental_uris":{"android":"levelo://app?vid=75d40d79-e285-4ea6-9831-28f839bbc3dc","ios":"levelo://app?vid=75d40d79-e285-4ea6-9831-28f839bbc3dc"},"vehicle_type_id":"4","last_reported":1724522981,"current_range_meters":20400,"station_id":"ce4bgt92rcd13ifvqcf0","pricing_plan_id":"cebpf4jnsgd1na2vs0mg"},{"bike_id":"c8f48312-0f44-4590-b92f-d900a9b4d177","system_id":"levelo_inurba_marseille","lat":43.299724,"lon":5.371829,"is_reserved":false,"is_disabled":false,"rental_uris":{"android":"levelo://app?vid=c8f48312-0f44-4590-b92f-d900a9b4d177","ios":"levelo://app?vid=c8f48312-0f44-4590-b92f-d900a9b4d177"},"vehicle_type_id":"4","last_reported":1724522981,"current_range_meters":24800,"station_id":"ce4bgr92rcd13ifvqc7g","pricing_plan_id":"cebpf4jnsgd1na2vs0mg"},{"bike_id":"f5f21568-704c-41b5-9f5b-6f49f1f22ee3","system_id":"levelo_inurba_marseille","lat":43.299724,"lon":5.371829,"is_reserved":false,"is_disabled":false,"rental_uris":{"android":"levelo://app?vid=f5f21568-704c-41b5-9f5b-6f49f1f22ee3","ios":"levelo://app?vid=f5f21568-704c-41b5-9f5b-6f49f1f22ee3"},"vehicle_type_id":"4","last_reported":1724522981,"current_range_meters":31200,"station_id":"ce4bgr92rcd13ifvqc7g","pricing_plan_id":"cebpf4jnsgd1na2vs0mg"},{"bike_id":"9614d27c-1a26-45c6-b911-833a4e12e03f","system_id":"levelo_inurba_marseille","lat":43.299724,"lon":5.371829,"is_reserved":false,"is_disabled":false,"rental_uris":{"android":"levelo://app?vid=9614d27c-1a26-45c6-b911-833a4e12e03f","ios":"levelo://app?vid=9614d27c-1a26-45c6-b911-833a4e12e03f"},"vehicle_type_id":"4","last_reported":1724522981,"current_range_meters":9200,"station_id":"ce4bgr92rcd13ifvqc7g","pricing_plan_id":"cebpf4jnsgd1na2vs0mg"},{"bike_id":"021fb60f-f7c7-4ae3-bfff-e394d1d45092","system_id":"levelo_inurba_marseille","lat":43.2996,"lon":5.37149,"is_reserved":false,"is_disabled":false,"rental_uris":{"android":"levelo://app?vid=021fb60f-f7c7-4ae3-bfff-e394d1d45092","ios":"levelo://app?vid=021fb60f-f7c7-4ae3-bfff-e394d1d45092"},"vehicle_type_id":"4","last_reported":1724522981,"current_range_meters":30800,"station_id":"ce4bgr92rcd13ifvqc7g","pricing_plan_id":"cebpf4jnsgd1na2vs0mg"},{"bike_id":"3ddc0864-1ffb-4965-9ce4-38b928031e05","system_id":"levelo_inurba_marseille","lat":43.299724,"lon":5.371829,"is_reserved":false,"is_disabled":false,"rental_uris":{"android":"levelo://app?vid=3ddc0864-1ffb-4965-9ce4-38b928031e05","ios":"levelo://app?vid=3ddc0864-1ffb-4965-9ce4-38b928031e05"},"vehicle_type_id":"4","last_reported":1724522981,"current_range_meters":29600,"station_id":"ce4bgr92rcd13ifvqc7g","pricing_plan_id":"cebpf4jnsgd1na2vs0mg"},{"bike_id":"1595b4b9-ae48-4cf5-b18f-d21b42e3cd97","system_id":"levelo_inurba_marseille","lat":43.32367,"lon":5.388836,"is_reserved":false,"is_disabled":false,"rental_uris":{"android":"levelo://app?vid=1595b4b9-ae48-4cf5-b18f-d21b42e3cd97","ios":"levelo://app?vid=1595b4b9-ae48-4cf5-b18f-d21b42e3cd97"},"vehicle_type_id":"4","last_reported":1724522981,"current_range_meters":21200,"station_id":"ce4bhqp2rcd13ifvqhog","pricing_plan_id":"cebpf4jnsgd1na2vs0mg"},{"bike_id":"554727fd-adfb-404a-bc6d-784387f06521","system_id":"levelo_inurba_marseille","lat":43.298433,"lon":5.362774,"is_reserved":false,"is_disabled":false,"rental_uris":{"android":"levelo://app?vid=554727fd-adfb-404a-bc6d-784387f06521","ios":"levelo://app?vid=554727fd-adfb-404a-bc6d-784387f06521"},"vehicle_type_id":"4","last_reported":1724522981,"current_range_meters":6800,"station_id":"ce4bgpp2rcd13ifvqc3g","pricing_plan_id":"cebpf4jnsgd1na2vs0mg"},{"bike_id":"224db490-a1d5-493e-9710-e6fbd13431d4","system_id":"levelo_inurba_marseille","lat":43.299243,"lon":5.37481,"is_reserved":false,"is_disabled":false,"rental_uris":{"android":"levelo://app?vid=224db490-a1d5-493e-9710-e6fbd13431d4","ios":"levelo://app?vid=224db490-a1d5-493e-9710-e6fbd13431d4"},"vehicle_type_id":"4","last_reported":1724522981,"current_range_meters":31200,"station_id":"ce4bgjh2rcd13ifvqbg0","pricing_plan_id":"cebpf4jnsgd1na2vs0mg"},{"bike_id":"d9b14cb6-9cb9-43e2-b491-c4593251d9d1","system_id":"levelo_inurba_marseille","lat":43.311722,"lon":5.387247,"is_reserved":false,"is_disabled":false,"rental_uris":{"android":"levelo://app?vid=d9b14cb6-9cb9-43e2-b491-c4593251d9d1","ios":"levelo://app?vid=d9b14cb6-9cb9-43e2-b491-c4593251d9d1"},"vehicle_type_id":"4","last_reported":1724522981,"current_range_meters":21200,"station_id":"ce4bgv12rcd13ifvqcp0","pricing_plan_id":"cebpf4jnsgd1na2vs0mg"},{"bike_id":"613e5020-b909-4c99-b304-5f3c12ec5818","system_id":"levelo_inurba_marseille","lat":43.311722,"lon":5.387247,"is_reserved":false,"is_disabled":false,"rental_uris":{"android":"levelo://app?vid=613e5020-b909-4c99-b304-5f3c12ec5818","ios":"levelo://app?vid=613e5020-b909-4c99-b304-5f3c12ec5818"},"vehicle_type_id":"4","last_reported":1724522981,"current_range_meters":21600,"station_id":"ce4bgv12rcd13ifvqcp0","pricing_plan_id":"cebpf4jnsgd1na2vs0mg"},{"bike_id":"4eea8c0d-5838-4fa2-9d19-c462e6b87db1","system_id":"levelo_inurba_marseille","lat":43.311722,"lon":5.387247,"is_reserved":false,"is_disabled":false,"rental_uris":{"android":"levelo://app?vid=4eea8c0d-5838-4fa2-9d19-c462e6b87db1","ios":"levelo://app?vid=4eea8c0d-5838-4fa2-9d19-c462e6b87db1"},"vehicle_type_id":"4","last_reported":1724522981,"current_range_meters":18400,"station_id":"ce4bgv12rcd13ifvqcp0","pricing_plan_id":"cebpf4jnsgd1na2vs0mg"},{"bike_id":"49d9ffbe-1e78-41bf-afca-7e3b1f9c1ea8","system_id":"levelo_inurba_marseille","lat":43.301417,"lon":5.3809,"is_reserved":false,"is_disabled":false,"rental_uris":{"android":"levelo://app?vid=49d9ffbe-1e78-41bf-afca-7e3b1f9c1ea8","ios":"levelo://app?vid=49d9ffbe-1e78-41bf-afca-7e3b1f9c1ea8"},"vehicle_type_id":"4","last_reported":1724522981,"current_range_meters":2000,"station_id":"ce4bgjp2rcd13ifvqbh0","pricing_plan_id":"cebpf4jnsgd1na2vs0mg"},{"bike_id":"0cb0f746-1a47-4923-a048-57856a74a62f","system_id":"levelo_inurba_marseille","lat":43.301417,"lon":5.3809,"is_reserved":false,"is_disabled":false,"rental_uris":{"android":"levelo://app?vid=0cb0f746-1a47-4923-a048-57856a74a62f","ios":"levelo://app?vid=0cb0f746-1a47-4923-a048-57856a74a62f"},"vehicle_type_id":"4","last_reported":1724522981,"current_range_meters":16000,"station_id":"ce4bgjp2rcd13ifvqbh0","pricing_plan_id":"cebpf4jnsgd1na2vs0mg"},{"bike_id":"43637faa-bc57-4af9-9031-ccf7137dafc6","system_id":"levelo_inurba_marseille","lat":43.322921,"lon":5.382579,"is_reserved":false,"is_disabled":false,"rental_uris":{"android":"levelo://app?vid=43637faa-bc57-4af9-9031-ccf7137dafc6","ios":"levelo://app?vid=43637faa-bc57-4af9-9031-ccf7137dafc6"},"vehicle_type_id":"4","last_reported":1724522981,"current_range_meters":22800,"station_id":"ce4bhr12rcd13ifvqhqg","pricing_plan_id":"cebpf4jnsgd1na2vs0mg"},{"bike_id":"71a6be29-e110-4447-8ae0-380afd58d27d","system_id":"levelo_inurba_marseille","lat":43.297774,"lon":5.370875,"is_reserved":false,"is_disabled":false,"rental_uris":{"android":"levelo://app?vid=71a6be29-e110-4447-8ae0-380afd58d27d","ios":"levelo://app?vid=71a6be29-e110-4447-8ae0-380afd58d27d"},"vehicle_type_id":"4","last_reported":1724522981,"current_range_meters":28400,"station_id":"ce4bgop2rcd13ifvqc1g","pricing_plan_id":"cebpf4jnsgd1na2vs0mg"},{"bike_id":"f879cfd5-887b-4e4f-ae81-369a70abc595","system_id":"levelo_inurba_marseille","lat":43.29776,"lon":5.37124,"is_reserved":false,"is_disabled":false,"rental_uris":{"android":"levelo://app?vid=f879cfd5-887b-4e4f-ae81-369a70abc595","ios":"levelo://app?vid=f879cfd5-887b-4e4f-ae81-369a70abc595"},"vehicle_type_id":"4","last_reported":1724522981,"current_range_meters":25600,"station_id":"ce4bgop2rcd13ifvqc1g","pricing_plan_id":"cebpf4jnsgd1na2vs0mg"},{"bike_id":"ad12d13e-3660-4fa0-a1dc-f29cc98b2f4d","system_id":"levelo_inurba_marseille","lat":43.297163,"lon":5.365866,"is_reserved":false,"is_disabled":false,"rental_uris":{"android":"levelo://app?vid=ad12d13e-3660-4fa0-a1dc-f29cc98b2f4d","ios":"levelo://app?vid=ad12d13e-3660-4fa0-a1dc-f29cc98b2f4d"},"vehicle_type_id":"4","last_reported":1724522981,"current_range_meters":7200,"station_id":"ce4bgn12rcd13ifvqbt0","pricing_plan_id":"cebpf4jnsgd1na2vs0mg"},{"bike_id":"019e4bd8-a39a-458f-a205-329b939e71ac","system_id":"levelo_inurba_marseille","lat":43.297163,"lon":5.365866,"is_reserved":false,"is_disabled":false,"rental_uris":{"android":"levelo://app?vid=019e4bd8-a39a-458f-a205-329b939e71ac","ios":"levelo://app?vid=019e4bd8-a39a-458f-a205-329b939e71ac"},"vehicle_type_id":"4","last_reported":1724522981,"current_range_meters":18400,"station_id":"ce4bgn12rcd13ifvqbt0","pricing_plan_id":"cebpf4jnsgd1na2vs0mg"},{"bike_id":"426598ec-7537-4296-a92d-e4c5ad5ce577","system_id":"levelo_inurba_marseille","lat":43.2968,"lon":5.37291,"is_reserved":false,"is_disabled":false,"rental_uris":{"android":"levelo://app?vid=426598ec-7537-4296-a92d-e4c5ad5ce577","ios":"levelo://app?vid=426598ec-7537-4296-a92d-e4c5ad5ce577"},"vehicle_type_id":"4","last_reported":1724522981,"current_range_meters":11200,"station_id":"ce4bgk12rcd13ifvqbj0","pricing_plan_id":"cebpf4jnsgd1na2vs0mg"},{"bike_id":"b5725681-74be-47ef-832b-8e38e1c0cc26","system_id":"levelo_inurba_marseille","lat":43.29573,"lon":5.367355,"is_reserved":false,"is_disabled":false,"rental_uris":{"android":"levelo://app?vid=b5725681-74be-47ef-832b-8e38e1c0cc26","ios":"levelo://app?vid=b5725681-74be-47ef-832b-8e38e1c0cc26"},"vehicle_type_id":"4","last_reported":1724522981,"current_range_meters":4800,"station_id":"ce4bgph2rcd13ifvqc2g","pricing_plan_id":"cebpf4jnsgd1na2vs0mg"},{"bike_id":"d9e83148-5673-4b1e-b4d5-9deb4cfc501d","system_id":"levelo_inurba_marseille","lat":43.29573,"lon":5.367355,"is_reserved":false,"is_disabled":false,"rental_uris":{"android":"levelo://app?vid=d9e83148-5673-4b1e-b4d5-9deb4cfc501d","ios":"levelo://app?vid=d9e83148-5673-4b1e-b4d5-9deb4cfc501d"},"vehicle_type_id":"4","last_reported":1724522981,"current_range_meters":13600,"station_id":"ce4bgph2rcd13ifvqc2g","pricing_plan_id":"cebpf4jnsgd1na2vs0mg"},{"bike_id":"f27aa495-64e6-4292-9999-5c71e6900231","system_id":"levelo_inurba_marseille","lat":43.29573,"lon":5.367355,"is_reserved":false,"is_disabled":false,"rental_uris":{"android":"levelo://app?vid=f27aa495-64e6-4292-9999-5c71e6900231","ios":"levelo://app?vid=f27aa495-64e6-4292-9999-5c71e6900231"},"vehicle_type_id":"4","last_reported":1724522981,"current_range_meters":7200,"station_id":"ce4bgph2rcd13ifvqc2g","pricing_plan_id":"cebpf4jnsgd1na2vs0mg"},{"bike_id":"1d90eb84-38a2-42f0-a2fe-ec51672ed6e7","system_id":"levelo_inurba_marseille","lat":43.29573,"lon":5.367355,"is_reserved":false,"is_disabled":false,"rental_uris":{"android":"levelo://app?vid=1d90eb84-38a2-42f0-a2fe-ec51672ed6e7","ios":"levelo://app?vid=1d90eb84-38a2-42f0-a2fe-ec51672ed6e7"},"vehicle_type_id":"4","last_reported":1724522981,"current_range_meters":2800,"station_id":"ce4bgph2rcd13ifvqc2g","pricing_plan_id":"cebpf4jnsgd1na2vs0mg"},{"bike_id":"ee279c22-cc27-4147-8c22-e23156e399b2","system_id":"levelo_inurba_marseille","lat":43.29573,"lon":5.367355,"is_reserved":false,"is_disabled":false,"rental_uris":{"android":"levelo://app?vid=ee279c22-cc27-4147-8c22-e23156e399b2","ios":"levelo://app?vid=ee279c22-cc27-4147-8c22-e23156e399b2"},"vehicle_type_id":"4","last_reported":1724522981,"current_range_meters":22800,"station_id":"ce4bgph2rcd13ifvqc2g","pricing_plan_id":"cebpf4jnsgd1na2vs0mg"},{"bike_id":"0f80e4a7-dd24-4bcb-898e-d82ea20cfec9","system_id":"levelo_inurba_marseille","lat":43.2963,"lon":5.36031,"is_reserved":false,"is_disabled":false,"rental_uris":{"android":"levelo://app?vid=0f80e4a7-dd24-4bcb-898e-d82ea20cfec9","ios":"levelo://app?vid=0f80e4a7-dd24-4bcb-898e-d82ea20cfec9"},"vehicle_type_id":"4","last_reported":1724522981,"current_range_meters":3200,"station_id":"","pricing_plan_id":"cebpf4jnsgd1na2vs0mg"},{"bike_id":"3fcc5583-433c-4f0e-ae13-015eb81fafbb","system_id":"levelo_inurba_marseille","lat":43.309589,"lon":5.390258,"is_reserved":false,"is_disabled":false,"rental_uris":{"android":"levelo://app?vid=3fcc5583-433c-4f0e-ae13-015eb81fafbb","ios":"levelo://app?vid=3fcc5583-433c-4f0e-ae13-015eb81fafbb"},"vehicle_type_id":"4","last_reported":1724522981,"current_range_meters":25200,"station_id":"ce4bgup2rcd13ifvqco0","pricing_plan_id":"cebpf4jnsgd1na2vs0mg"},{"bike_id":"36621461-505b-4d73-973c-0bc6b12b9adb","system_id":"levelo_inurba_marseille","lat":43.296935,"lon":5.376544,"is_reserved":false,"is_disabled":false,"rental_uris":{"android":"levelo://app?vid=36621461-505b-4d73-973c-0bc6b12b9adb","ios":"levelo://app?vid=36621461-505b-4d73-973c-0bc6b12b9adb"},"vehicle_type_id":"4","last_reported":1724522981,"current_range_meters":27600,"station_id":"ce4bgkh2rcd13ifvqbl0","pricing_plan_id":"cebpf4jnsgd1na2vs0mg"},{"bike_id":"45c19392-203a-45d0-bdef-6f23deb7bf48","system_id":"levelo_inurba_marseille","lat":43.29909,"lon":5.38137,"is_reserved":false,"is_disabled":false,"rental_uris":{"android":"levelo://app?vid=45c19392-203a-45d0-bdef-6f23deb7bf48","ios":"levelo://app?vid=45c19392-203a-45d0-bdef-6f23deb7bf48"},"vehicle_type_id":"4","last_reported":1724522981,"current_range_meters":16000,"station_id":"ce4bgj12rcd13ifvqbc0","pricing_plan_id":"cebpf4jnsgd1na2vs0mg"},{"bike_id":"c85da4cc-85aa-4389-b908-46df8e2312a3","system_id":"levelo_inurba_marseille","lat":43.309589,"lon":5.390258,"is_reserved":false,"is_disabled":false,"rental_uris":{"android":"levelo://app?vid=c85da4cc-85aa-4389-b908-46df8e2312a3","ios":"levelo://app?vid=c85da4cc-85aa-4389-b908-46df8e2312a3"},"vehicle_type_id":"4","last_reported":1724522981,"current_range_meters":0,"station_id":"ce4bgup2rcd13ifvqco0","pricing_plan_id":"cebpf4jnsgd1na2vs0mg"},{"bike_id":"92ea1144-8ded-49dc-a4c7-fb8bf73188ce","system_id":"levelo_inurba_marseille","lat":43.309589,"lon":5.390258,"is_reserved":false,"is_disabled":false,"rental_uris":{"android":"levelo://app?vid=92ea1144-8ded-49dc-a4c7-fb8bf73188ce","ios":"levelo://app?vid=92ea1144-8ded-49dc-a4c7-fb8bf73188ce"},"vehicle_type_id":"4","last_reported":1724522981,"current_range_meters":23600,"station_id":"ce4bgup2rcd13ifvqco0","pricing_plan_id":"cebpf4jnsgd1na2vs0mg"},{"bike_id":"989bfe0b-d354-422f-aeae-7ed0f54b147a","system_id":"levelo_inurba_marseille","lat":43.309589,"lon":5.390258,"is_reserved":false,"is_disabled":false,"rental_uris":{"android":"levelo://app?vid=989bfe0b-d354-422f-aeae-7ed0f54b147a","ios":"levelo://app?vid=989bfe0b-d354-422f-aeae-7ed0f54b147a"},"vehicle_type_id":"4","last_reported":1724522981,"current_range_meters":22000,"station_id":"ce4bgup2rcd13ifvqco0","pricing_plan_id":"cebpf4jnsgd1na2vs0mg"},{"bike_id":"24e60863-f82c-47d3-8c58-25d942be02ce","system_id":"levelo_inurba_marseille","lat":43.309589,"lon":5.390258,"is_reserved":false,"is_disabled":false,"rental_uris":{"android":"levelo://app?vid=24e60863-f82c-47d3-8c58-25d942be02ce","ios":"levelo://app?vid=24e60863-f82c-47d3-8c58-25d942be02ce"},"vehicle_type_id":"4","last_reported":1724522981,"current_range_meters":18000,"station_id":"ce4bgup2rcd13ifvqco0","pricing_plan_id":"cebpf4jnsgd1na2vs0mg"},{"bike_id":"35e48a9a-0152-49ad-8051-5e63fd284b38","system_id":"levelo_inurba_marseille","lat":43.309589,"lon":5.390258,"is_reserved":false,"is_disabled":false,"rental_uris":{"android":"levelo://app?vid=35e48a9a-0152-49ad-8051-5e63fd284b38","ios":"levelo://app?vid=35e48a9a-0152-49ad-8051-5e63fd284b38"},"vehicle_type_id":"4","last_reported":1724522981,"current_range_meters":0,"station_id":"ce4bgup2rcd13ifvqco0","pricing_plan_id":"cebpf4jnsgd1na2vs0mg"},{"bike_id":"5dd8dfef-bf27-4a0e-87de-dd53d43d090e","system_id":"levelo_inurba_marseille","lat":43.309589,"lon":5.390258,"is_reserved":false,"is_disabled":false,"rental_uris":{"android":"levelo://app?vid=5dd8dfef-bf27-4a0e-87de-dd53d43d090e","ios":"levelo://app?vid=5dd8dfef-bf27-4a0e-87de-dd53d43d090e"},"vehicle_type_id":"4","last_reported":1724522981,"current_range_meters":10000,"station_id":"ce4bgup2rcd13ifvqco0","pricing_plan_id":"cebpf4jnsgd1na2vs0mg"},{"bike_id":"e0c522ff-da09-4e78-9d93-6ccb956ec04d","system_id":"levelo_inurba_marseille","lat":43.309589,"lon":5.390258,"is_reserved":false,"is_disabled":false,"rental_uris":{"android":"levelo://app?vid=e0c522ff-da09-4e78-9d93-6ccb956ec04d","ios":"levelo://app?vid=e0c522ff-da09-4e78-9d93-6ccb956ec04d"},"vehicle_type_id":"4","last_reported":1724522981,"current_range_meters":31200,"station_id":"ce4bgup2rcd13ifvqco0","pricing_plan_id":"cebpf4jnsgd1na2vs0mg"},{"bike_id":"6fb85fc5-8215-4242-a89f-1e86d5325de3","system_id":"levelo_inurba_marseille","lat":43.309589,"lon":5.390258,"is_reserved":false,"is_disabled":false,"rental_uris":{"android":"levelo://app?vid=6fb85fc5-8215-4242-a89f-1e86d5325de3","ios":"levelo://app?vid=6fb85fc5-8215-4242-a89f-1e86d5325de3"},"vehicle_type_id":"4","last_reported":1724522981,"current_range_meters":400,"station_id":"ce4bgup2rcd13ifvqco0","pricing_plan_id":"cebpf4jnsgd1na2vs0mg"},{"bike_id":"b61c134e-ec20-47e8-b3ba-aafecdec5d8d","system_id":"levelo_inurba_marseille","lat":43.309589,"lon":5.390258,"is_reserved":false,"is_disabled":false,"rental_uris":{"android":"levelo://app?vid=b61c134e-ec20-47e8-b3ba-aafecdec5d8d","ios":"levelo://app?vid=b61c134e-ec20-47e8-b3ba-aafecdec5d8d"},"vehicle_type_id":"4","last_reported":1724522981,"current_range_meters":800,"station_id":"ce4bgup2rcd13ifvqco0","pricing_plan_id":"cebpf4jnsgd1na2vs0mg"},{"bike_id":"4735e798-061a-4583-8e86-ad45c8a48554","system_id":"levelo_inurba_marseille","lat":43.309589,"lon":5.390258,"is_reserved":false,"is_disabled":false,"rental_uris":{"android":"levelo://app?vid=4735e798-061a-4583-8e86-ad45c8a48554","ios":"levelo://app?vid=4735e798-061a-4583-8e86-ad45c8a48554"},"vehicle_type_id":"4","last_reported":1724522981,"current_range_meters":28400,"station_id":"ce4bgup2rcd13ifvqco0","pricing_plan_id":"cebpf4jnsgd1na2vs0mg"},{"bike_id":"41b34938-9c7a-4a05-bbe8-c8b64182c776","system_id":"levelo_inurba_marseille","lat":43.309589,"lon":5.390258,"is_reserved":false,"is_disabled":false,"rental_uris":{"android":"levelo://app?vid=41b34938-9c7a-4a05-bbe8-c8b64182c776","ios":"levelo://app?vid=41b34938-9c7a-4a05-bbe8-c8b64182c776"},"vehicle_type_id":"4","last_reported":1724522981,"current_range_meters":12000,"station_id":"ce4bgup2rcd13ifvqco0","pricing_plan_id":"cebpf4jnsgd1na2vs0mg"},{"bike_id":"4f4986e3-a20c-4fee-8fa1-130da3c2a2f6","system_id":"levelo_inurba_marseille","lat":43.309589,"lon":5.390258,"is_reserved":false,"is_disabled":false,"rental_uris":{"android":"levelo://app?vid=4f4986e3-a20c-4fee-8fa1-130da3c2a2f6","ios":"levelo://app?vid=4f4986e3-a20c-4fee-8fa1-130da3c2a2f6"},"vehicle_type_id":"4","last_reported":1724522981,"current_range_meters":19200,"station_id":"ce4bgup2rcd13ifvqco0","pricing_plan_id":"cebpf4jnsgd1na2vs0mg"},{"bike_id":"66f794da-c2a1-4d2e-8515-f13937689b11","system_id":"levelo_inurba_marseille","lat":43.309589,"lon":5.390258,"is_reserved":false,"is_disabled":false,"rental_uris":{"android":"levelo://app?vid=66f794da-c2a1-4d2e-8515-f13937689b11","ios":"levelo://app?vid=66f794da-c2a1-4d2e-8515-f13937689b11"},"vehicle_type_id":"4","last_reported":1724522981,"current_range_meters":27600,"station_id":"ce4bgup2rcd13ifvqco0","pricing_plan_id":"cebpf4jnsgd1na2vs0mg"},{"bike_id":"fcae7e7c-ee0d-482e-9622-822491cbd944","system_id":"levelo_inurba_marseille","lat":43.309589,"lon":5.390258,"is_reserved":false,"is_disabled":false,"rental_uris":{"android":"levelo://app?vid=fcae7e7c-ee0d-482e-9622-822491cbd944","ios":"levelo://app?vid=fcae7e7c-ee0d-482e-9622-822491cbd944"},"vehicle_type_id":"4","last_reported":1724522981,"current_range_meters":24000,"station_id":"ce4bgup2rcd13ifvqco0","pricing_plan_id":"cebpf4jnsgd1na2vs0mg"},{"bike_id":"b122fe4b-6a28-4985-bd85-dbb895b6fad1","system_id":"levelo_inurba_marseille","lat":43.309589,"lon":5.390258,"is_reserved":false,"is_disabled":false,"rental_uris":{"android":"levelo://app?vid=b122fe4b-6a28-4985-bd85-dbb895b6fad1","ios":"levelo://app?vid=b122fe4b-6a28-4985-bd85-dbb895b6fad1"},"vehicle_type_id":"4","last_reported":1724522981,"current_range_meters":7600,"station_id":"ce4bgup2rcd13ifvqco0","pricing_plan_id":"cebpf4jnsgd1na2vs0mg"},{"bike_id":"7279b04a-37fa-4d7b-883b-296b5256b4ee","system_id":"levelo_inurba_marseille","lat":43.309589,"lon":5.390258,"is_reserved":false,"is_disabled":false,"rental_uris":{"android":"levelo://app?vid=7279b04a-37fa-4d7b-883b-296b5256b4ee","ios":"levelo://app?vid=7279b04a-37fa-4d7b-883b-296b5256b4ee"},"vehicle_type_id":"4","last_reported":1724522981,"current_range_meters":14400,"station_id":"ce4bgup2rcd13ifvqco0","pricing_plan_id":"cebpf4jnsgd1na2vs0mg"},{"bike_id":"efd9a2b9-3c4f-47a1-8f42-67ff6a525b75","system_id":"levelo_inurba_marseille","lat":43.309589,"lon":5.390258,"is_reserved":false,"is_disabled":false,"rental_uris":{"android":"levelo://app?vid=efd9a2b9-3c4f-47a1-8f42-67ff6a525b75","ios":"levelo://app?vid=efd9a2b9-3c4f-47a1-8f42-67ff6a525b75"},"vehicle_type_id":"4","last_reported":1724522981,"current_range_meters":30000,"station_id":"ce4bgup2rcd13ifvqco0","pricing_plan_id":"cebpf4jnsgd1na2vs0mg"},{"bike_id":"5008b4d7-87c5-41bd-9a7e-cc3967941a3c","system_id":"levelo_inurba_marseille","lat":43.317557,"lon":5.390173,"is_reserved":false,"is_disabled":false,"rental_uris":{"android":"levelo://app?vid=5008b4d7-87c5-41bd-9a7e-cc3967941a3c","ios":"levelo://app?vid=5008b4d7-87c5-41bd-9a7e-cc3967941a3c"},"vehicle_type_id":"4","last_reported":1724522981,"current_range_meters":0,"station_id":"ce4bhqp2rcd13ifvqhng","pricing_plan_id":"cebpf4jnsgd1na2vs0mg"},{"bike_id":"ca612bce-7ff0-41d1-a601-3f73d977a0d6","system_id":"levelo_inurba_marseille","lat":43.304278,"lon":5.388868,"is_reserved":false,"is_disabled":false,"rental_uris":{"android":"levelo://app?vid=ca612bce-7ff0-41d1-a601-3f73d977a0d6","ios":"levelo://app?vid=ca612bce-7ff0-41d1-a601-3f73d977a0d6"},"vehicle_type_id":"4","last_reported":1724522981,"current_range_meters":29600,"station_id":"ce4bgk12rcd13ifvqbi0","pricing_plan_id":"cebpf4jnsgd1na2vs0mg"},{"bike_id":"57eb3f48-94de-488c-8edb-5dd8f395f883","system_id":"levelo_inurba_marseille","lat":43.304278,"lon":5.388868,"is_reserved":false,"is_disabled":false,"rental_uris":{"android":"levelo://app?vid=57eb3f48-94de-488c-8edb-5dd8f395f883","ios":"levelo://app?vid=57eb3f48-94de-488c-8edb-5dd8f395f883"},"vehicle_type_id":"4","last_reported":1724522981,"current_range_meters":6400,"station_id":"ce4bgk12rcd13ifvqbi0","pricing_plan_id":"cebpf4jnsgd1na2vs0mg"},{"bike_id":"35261f0b-9b3e-4d56-99b0-ae14ad889a48","system_id":"levelo_inurba_marseille","lat":43.295748,"lon":5.37522,"is_reserved":false,"is_disabled":false,"rental_uris":{"android":"levelo://app?vid=35261f0b-9b3e-4d56-99b0-ae14ad889a48","ios":"levelo://app?vid=35261f0b-9b3e-4d56-99b0-ae14ad889a48"},"vehicle_type_id":"4","last_reported":1724522981,"current_range_meters":29200,"station_id":"ce4bgh92rcd13ifvqb50","pricing_plan_id":"cebpf4jnsgd1na2vs0mg"},{"bike_id":"edcb3c41-0abe-4162-8009-a4d7b12427df","system_id":"levelo_inurba_marseille","lat":43.29571,"lon":5.375278,"is_reserved":false,"is_disabled":false,"rental_uris":{"android":"levelo://app?vid=edcb3c41-0abe-4162-8009-a4d7b12427df","ios":"levelo://app?vid=edcb3c41-0abe-4162-8009-a4d7b12427df"},"vehicle_type_id":"4","last_reported":1724522981,"current_range_meters":0,"station_id":"","pricing_plan_id":"cebpf4jnsgd1na2vs0mg"},{"bike_id":"d3e491ec-596d-48c8-a1c0-5f9e285a728b","system_id":"levelo_inurba_marseille","lat":43.295748,"lon":5.37522,"is_reserved":false,"is_disabled":false,"rental_uris":{"android":"levelo://app?vid=d3e491ec-596d-48c8-a1c0-5f9e285a728b","ios":"levelo://app?vid=d3e491ec-596d-48c8-a1c0-5f9e285a728b"},"vehicle_type_id":"4","last_reported":1724522981,"current_range_meters":10800,"station_id":"ce4bgh92rcd13ifvqb50","pricing_plan_id":"cebpf4jnsgd1na2vs0mg"},{"bike_id":"94883874-1234-4000-b068-c2d6714b1e4c","system_id":"levelo_inurba_marseille","lat":43.304278,"lon":5.388868,"is_reserved":false,"is_disabled":false,"rental_uris":{"android":"levelo://app?vid=94883874-1234-4000-b068-c2d6714b1e4c","ios":"levelo://app?vid=94883874-1234-4000-b068-c2d6714b1e4c"},"vehicle_type_id":"4","last_reported":1724522981,"current_range_meters":12000,"station_id":"ce4bgk12rcd13ifvqbi0","pricing_plan_id":"cebpf4jnsgd1na2vs0mg"},{"bike_id":"00942ea1-6dc7-42a5-8106-eab66a6bd8bc","system_id":"levelo_inurba_marseille","lat":43.295748,"lon":5.37522,"is_reserved":false,"is_disabled":false,"rental_uris":{"android":"levelo://app?vid=00942ea1-6dc7-42a5-8106-eab66a6bd8bc","ios":"levelo://app?vid=00942ea1-6dc7-42a5-8106-eab66a6bd8bc"},"vehicle_type_id":"4","last_reported":1724522981,"current_range_meters":21600,"station_id":"ce4bgh92rcd13ifvqb50","pricing_plan_id":"cebpf4jnsgd1na2vs0mg"},{"bike_id":"29e5b902-d48a-40c9-8576-b738a5eed32a","system_id":"levelo_inurba_marseille","lat":43.295748,"lon":5.37522,"is_reserved":false,"is_disabled":false,"rental_uris":{"android":"levelo://app?vid=29e5b902-d48a-40c9-8576-b738a5eed32a","ios":"levelo://app?vid=29e5b902-d48a-40c9-8576-b738a5eed32a"},"vehicle_type_id":"4","last_reported":1724522981,"current_range_meters":26800,"station_id":"ce4bgh92rcd13ifvqb50","pricing_plan_id":"cebpf4jnsgd1na2vs0mg"},{"bike_id":"e6ddf824-2143-4f4a-af7e-d8e025c5a9ee","system_id":"levelo_inurba_marseille","lat":43.296277,"lon":5.377108,"is_reserved":false,"is_disabled":false,"rental_uris":{"android":"levelo://app?vid=e6ddf824-2143-4f4a-af7e-d8e025c5a9ee","ios":"levelo://app?vid=e6ddf824-2143-4f4a-af7e-d8e025c5a9ee"},"vehicle_type_id":"4","last_reported":1724522981,"current_range_meters":31200,"station_id":"ce4bgi92rcd13ifvqb90","pricing_plan_id":"cebpf4jnsgd1na2vs0mg"},{"bike_id":"50026177-9a42-4844-ae0a-c896ac017329","system_id":"levelo_inurba_marseille","lat":43.296277,"lon":5.377108,"is_reserved":false,"is_disabled":false,"rental_uris":{"android":"levelo://app?vid=50026177-9a42-4844-ae0a-c896ac017329","ios":"levelo://app?vid=50026177-9a42-4844-ae0a-c896ac017329"},"vehicle_type_id":"4","last_reported":1724522981,"current_range_meters":31200,"station_id":"ce4bgi92rcd13ifvqb90","pricing_plan_id":"cebpf4jnsgd1na2vs0mg"},{"bike_id":"3804b472-0717-48e5-89d5-82c2f9fb5c3c","system_id":"levelo_inurba_marseille","lat":43.296263,"lon":5.377094,"is_reserved":false,"is_disabled":false,"rental_uris":{"android":"levelo://app?vid=3804b472-0717-48e5-89d5-82c2f9fb5c3c","ios":"levelo://app?vid=3804b472-0717-48e5-89d5-82c2f9fb5c3c"},"vehicle_type_id":"4","last_reported":1724522981,"current_range_meters":31200,"station_id":"ce4bgi92rcd13ifvqb90","pricing_plan_id":"cebpf4jnsgd1na2vs0mg"},{"bike_id":"29e65255-199c-4238-a8fd-80ec7f5f7b75","system_id":"levelo_inurba_marseille","lat":43.296263,"lon":5.377094,"is_reserved":false,"is_disabled":false,"rental_uris":{"android":"levelo://app?vid=29e65255-199c-4238-a8fd-80ec7f5f7b75","ios":"levelo://app?vid=29e65255-199c-4238-a8fd-80ec7f5f7b75"},"vehicle_type_id":"4","last_reported":1724522981,"current_range_meters":23200,"station_id":"ce4bgi92rcd13ifvqb90","pricing_plan_id":"cebpf4jnsgd1na2vs0mg"},{"bike_id":"7a014ed2-81e7-4afa-a56a-aec450b81b2f","system_id":"levelo_inurba_marseille","lat":43.296277,"lon":5.377108,"is_reserved":false,"is_disabled":false,"rental_uris":{"android":"levelo://app?vid=7a014ed2-81e7-4afa-a56a-aec450b81b2f","ios":"levelo://app?vid=7a014ed2-81e7-4afa-a56a-aec450b81b2f"},"vehicle_type_id":"4","last_reported":1724522981,"current_range_meters":26800,"station_id":"ce4bgi92rcd13ifvqb90","pricing_plan_id":"cebpf4jnsgd1na2vs0mg"},{"bike_id":"95e1bdc0-520a-47b6-b735-d10f460e85b0","system_id":"levelo_inurba_marseille","lat":43.29606,"lon":5.37729,"is_reserved":false,"is_disabled":false,"rental_uris":{"android":"levelo://app?vid=95e1bdc0-520a-47b6-b735-d10f460e85b0","ios":"levelo://app?vid=95e1bdc0-520a-47b6-b735-d10f460e85b0"},"vehicle_type_id":"4","last_reported":1724522981,"current_range_meters":16400,"station_id":"ce4bgi92rcd13ifvqb90","pricing_plan_id":"cebpf4jnsgd1na2vs0mg"},{"bike_id":"5d9143bc-b236-4f64-a648-a3ded34a4e9d","system_id":"levelo_inurba_marseille","lat":43.295279,"lon":5.375048,"is_reserved":false,"is_disabled":false,"rental_uris":{"android":"levelo://app?vid=5d9143bc-b236-4f64-a648-a3ded34a4e9d","ios":"levelo://app?vid=5d9143bc-b236-4f64-a648-a3ded34a4e9d"},"vehicle_type_id":"4","last_reported":1724522981,"current_range_meters":31200,"station_id":"ce4bgkp2rcd13ifvqbmg","pricing_plan_id":"cebpf4jnsgd1na2vs0mg"},{"bike_id":"0bc1b9a3-81bb-4a45-99e5-085870660d6d","system_id":"levelo_inurba_marseille","lat":43.295279,"lon":5.375048,"is_reserved":false,"is_disabled":false,"rental_uris":{"android":"levelo://app?vid=0bc1b9a3-81bb-4a45-99e5-085870660d6d","ios":"levelo://app?vid=0bc1b9a3-81bb-4a45-99e5-085870660d6d"},"vehicle_type_id":"4","last_reported":1724522981,"current_range_meters":15600,"station_id":"ce4bgkp2rcd13ifvqbmg","pricing_plan_id":"cebpf4jnsgd1na2vs0mg"},{"bike_id":"ce001855-a2a5-47a2-9aa6-15fc3d069b45","system_id":"levelo_inurba_marseille","lat":43.295279,"lon":5.375048,"is_reserved":false,"is_disabled":false,"rental_uris":{"android":"levelo://app?vid=ce001855-a2a5-47a2-9aa6-15fc3d069b45","ios":"levelo://app?vid=ce001855-a2a5-47a2-9aa6-15fc3d069b45"},"vehicle_type_id":"4","last_reported":1724522981,"current_range_meters":20800,"station_id":"ce4bgkp2rcd13ifvqbmg","pricing_plan_id":"cebpf4jnsgd1na2vs0mg"},{"bike_id":"4afa047a-5b1c-4c85-9ce4-97a306b26b0c","system_id":"levelo_inurba_marseille","lat":43.299707,"lon":5.384859,"is_reserved":false,"is_disabled":false,"rental_uris":{"android":"levelo://app?vid=4afa047a-5b1c-4c85-9ce4-97a306b26b0c","ios":"levelo://app?vid=4afa047a-5b1c-4c85-9ce4-97a306b26b0c"},"vehicle_type_id":"4","last_reported":1724522981,"current_range_meters":1600,"station_id":"ce4bgj92rcd13ifvqbd0","pricing_plan_id":"cebpf4jnsgd1na2vs0mg"},{"bike_id":"5660afaa-f6a9-47d4-b299-a7da03ac4335","system_id":"levelo_inurba_marseille","lat":43.299717,"lon":5.384845,"is_reserved":false,"is_disabled":false,"rental_uris":{"android":"levelo://app?vid=5660afaa-f6a9-47d4-b299-a7da03ac4335","ios":"levelo://app?vid=5660afaa-f6a9-47d4-b299-a7da03ac4335"},"vehicle_type_id":"4","last_reported":1724522981,"current_range_meters":22400,"station_id":"ce4bgj92rcd13ifvqbd0","pricing_plan_id":"cebpf4jnsgd1na2vs0mg"},{"bike_id":"ea192c61-8a12-4008-a8f8-ddd29c0ecc13","system_id":"levelo_inurba_marseille","lat":43.295279,"lon":5.375048,"is_reserved":false,"is_disabled":false,"rental_uris":{"android":"levelo://app?vid=ea192c61-8a12-4008-a8f8-ddd29c0ecc13","ios":"levelo://app?vid=ea192c61-8a12-4008-a8f8-ddd29c0ecc13"},"vehicle_type_id":"4","last_reported":1724522981,"current_range_meters":31600,"station_id":"ce4bgkp2rcd13ifvqbmg","pricing_plan_id":"cebpf4jnsgd1na2vs0mg"},{"bike_id":"02f299b2-7de5-4b18-a7d2-14e1fd74463e","system_id":"levelo_inurba_marseille","lat":43.299724,"lon":5.384848,"is_reserved":false,"is_disabled":false,"rental_uris":{"android":"levelo://app?vid=02f299b2-7de5-4b18-a7d2-14e1fd74463e","ios":"levelo://app?vid=02f299b2-7de5-4b18-a7d2-14e1fd74463e"},"vehicle_type_id":"4","last_reported":1724522981,"current_range_meters":21200,"station_id":"ce4bgj92rcd13ifvqbd0","pricing_plan_id":"cebpf4jnsgd1na2vs0mg"},{"bike_id":"77b8f512-ac92-4b8e-adbb-8459c087d70b","system_id":"levelo_inurba_marseille","lat":43.299724,"lon":5.384848,"is_reserved":false,"is_disabled":false,"rental_uris":{"android":"levelo://app?vid=77b8f512-ac92-4b8e-adbb-8459c087d70b","ios":"levelo://app?vid=77b8f512-ac92-4b8e-adbb-8459c087d70b"},"vehicle_type_id":"4","last_reported":1724522981,"current_range_meters":3200,"station_id":"ce4bgj92rcd13ifvqbd0","pricing_plan_id":"cebpf4jnsgd1na2vs0mg"},{"bike_id":"df850a44-191c-4fbc-9507-290798c73a1c","system_id":"levelo_inurba_marseille","lat":43.309589,"lon":5.390258,"is_reserved":false,"is_disabled":false,"rental_uris":{"android":"levelo://app?vid=df850a44-191c-4fbc-9507-290798c73a1c","ios":"levelo://app?vid=df850a44-191c-4fbc-9507-290798c73a1c"},"vehicle_type_id":"4","last_reported":1724522981,"current_range_meters":2000,"station_id":"ce4bgup2rcd13ifvqco0","pricing_plan_id":"cebpf4jnsgd1na2vs0mg"},{"bike_id":"b4ccf35c-ea03-482e-8394-d63e0453a204","system_id":"levelo_inurba_marseille","lat":43.32367,"lon":5.38886,"is_reserved":false,"is_disabled":false,"rental_uris":{"android":"levelo://app?vid=b4ccf35c-ea03-482e-8394-d63e0453a204","ios":"levelo://app?vid=b4ccf35c-ea03-482e-8394-d63e0453a204"},"vehicle_type_id":"4","last_reported":1724522981,"current_range_meters":14000,"station_id":"ce4bhqp2rcd13ifvqhog","pricing_plan_id":"cebpf4jnsgd1na2vs0mg"},{"bike_id":"57c88610-7d5f-4b3e-b0d8-ef0c6ce6c6f0","system_id":"levelo_inurba_marseille","lat":43.293259,"lon":5.371586,"is_reserved":false,"is_disabled":false,"rental_uris":{"android":"levelo://app?vid=57c88610-7d5f-4b3e-b0d8-ef0c6ce6c6f0","ios":"levelo://app?vid=57c88610-7d5f-4b3e-b0d8-ef0c6ce6c6f0"},"vehicle_type_id":"4","last_reported":1724522981,"current_range_meters":400,"station_id":"ce4bgh92rcd13ifvqb40","pricing_plan_id":"cebpf4jnsgd1na2vs0mg"},{"bike_id":"b99cfeba-3cd0-4162-a98f-5462853ea23c","system_id":"levelo_inurba_marseille","lat":43.29305,"lon":5.37181,"is_reserved":false,"is_disabled":false,"rental_uris":{"android":"levelo://app?vid=b99cfeba-3cd0-4162-a98f-5462853ea23c","ios":"levelo://app?vid=b99cfeba-3cd0-4162-a98f-5462853ea23c"},"vehicle_type_id":"4","last_reported":1724522981,"current_range_meters":10800,"station_id":"ce4bgh92rcd13ifvqb40","pricing_plan_id":"cebpf4jnsgd1na2vs0mg"},{"bike_id":"26c47aaa-c26d-4f13-a83a-1413d2b97b26","system_id":"levelo_inurba_marseille","lat":43.29294,"lon":5.37174,"is_reserved":false,"is_disabled":false,"rental_uris":{"android":"levelo://app?vid=26c47aaa-c26d-4f13-a83a-1413d2b97b26","ios":"levelo://app?vid=26c47aaa-c26d-4f13-a83a-1413d2b97b26"},"vehicle_type_id":"4","last_reported":1724522981,"current_range_meters":0,"station_id":"ce4bgh92rcd13ifvqb40","pricing_plan_id":"cebpf4jnsgd1na2vs0mg"},{"bike_id":"30f0d7b3-34d7-4f0c-921f-32c4261a90fc","system_id":"levelo_inurba_marseille","lat":43.293009,"lon":5.374584,"is_reserved":false,"is_disabled":false,"rental_uris":{"android":"levelo://app?vid=30f0d7b3-34d7-4f0c-921f-32c4261a90fc","ios":"levelo://app?vid=30f0d7b3-34d7-4f0c-921f-32c4261a90fc"},"vehicle_type_id":"4","last_reported":1724522981,"current_range_meters":15600,"station_id":"ce4bgi12rcd13ifvqb70","pricing_plan_id":"cebpf4jnsgd1na2vs0mg"},{"bike_id":"005560f9-7efa-452e-8803-215c978c518c","system_id":"levelo_inurba_marseille","lat":43.303002,"lon":5.392142,"is_reserved":false,"is_disabled":false,"rental_uris":{"android":"levelo://app?vid=005560f9-7efa-452e-8803-215c978c518c","ios":"levelo://app?vid=005560f9-7efa-452e-8803-215c978c518c"},"vehicle_type_id":"4","last_reported":1724522981,"current_range_meters":24800,"station_id":"ce4bgkh2rcd13ifvqbk0","pricing_plan_id":"cebpf4jnsgd1na2vs0mg"},{"bike_id":"119430cb-0749-4b79-9dfa-a3eeef1b9e26","system_id":"levelo_inurba_marseille","lat":43.2936,"lon":5.37835,"is_reserved":false,"is_disabled":false,"rental_uris":{"android":"levelo://app?vid=119430cb-0749-4b79-9dfa-a3eeef1b9e26","ios":"levelo://app?vid=119430cb-0749-4b79-9dfa-a3eeef1b9e26"},"vehicle_type_id":"4","last_reported":1724522981,"current_range_meters":30000,"station_id":"ce4bgjh2rcd13ifvqbf0","pricing_plan_id":"cebpf4jnsgd1na2vs0mg"},{"bike_id":"e6dfe8af-4c55-4344-8566-45cb6eb83eab","system_id":"levelo_inurba_marseille","lat":43.2936,"lon":5.37835,"is_reserved":false,"is_disabled":false,"rental_uris":{"android":"levelo://app?vid=e6dfe8af-4c55-4344-8566-45cb6eb83eab","ios":"levelo://app?vid=e6dfe8af-4c55-4344-8566-45cb6eb83eab"},"vehicle_type_id":"4","last_reported":1724522981,"current_range_meters":26000,"station_id":"ce4bgjh2rcd13ifvqbf0","pricing_plan_id":"cebpf4jnsgd1na2vs0mg"},{"bike_id":"d7af571c-eda0-42fb-a1e6-83af103f030f","system_id":"levelo_inurba_marseille","lat":43.2936,"lon":5.37835,"is_reserved":false,"is_disabled":false,"rental_uris":{"android":"levelo://app?vid=d7af571c-eda0-42fb-a1e6-83af103f030f","ios":"levelo://app?vid=d7af571c-eda0-42fb-a1e6-83af103f030f"},"vehicle_type_id":"4","last_reported":1724522981,"current_range_meters":7600,"station_id":"ce4bgjh2rcd13ifvqbf0","pricing_plan_id":"cebpf4jnsgd1na2vs0mg"},{"bike_id":"d9f40c14-4b53-4d3c-b088-d69b81d1a694","system_id":"levelo_inurba_marseille","lat":43.293703,"lon":5.378467,"is_reserved":false,"is_disabled":false,"rental_uris":{"android":"levelo://app?vid=d9f40c14-4b53-4d3c-b088-d69b81d1a694","ios":"levelo://app?vid=d9f40c14-4b53-4d3c-b088-d69b81d1a694"},"vehicle_type_id":"4","last_reported":1724522981,"current_range_meters":6400,"station_id":"ce4bgjh2rcd13ifvqbf0","pricing_plan_id":"cebpf4jnsgd1na2vs0mg"},{"bike_id":"9a99a0a9-691e-4755-8e17-416ab1da812f","system_id":"levelo_inurba_marseille","lat":43.2936,"lon":5.37835,"is_reserved":false,"is_disabled":false,"rental_uris":{"android":"levelo://app?vid=9a99a0a9-691e-4755-8e17-416ab1da812f","ios":"levelo://app?vid=9a99a0a9-691e-4755-8e17-416ab1da812f"},"vehicle_type_id":"4","last_reported":1724522981,"current_range_meters":800,"station_id":"ce4bgjh2rcd13ifvqbf0","pricing_plan_id":"cebpf4jnsgd1na2vs0mg"},{"bike_id":"fbc2cd5a-a965-4d1a-9756-682d45751227","system_id":"levelo_inurba_marseille","lat":43.292297,"lon":5.360743,"is_reserved":false,"is_disabled":false,"rental_uris":{"android":"levelo://app?vid=fbc2cd5a-a965-4d1a-9756-682d45751227","ios":"levelo://app?vid=fbc2cd5a-a965-4d1a-9756-682d45751227"},"vehicle_type_id":"4","last_reported":1724522981,"current_range_meters":11600,"station_id":"ce4bhbh2rcd13ifvqeqg","pricing_plan_id":"cebpf4jnsgd1na2vs0mg"},{"bike_id":"16efb021-d71e-416c-9d62-b436ed1230e4","system_id":"levelo_inurba_marseille","lat":43.29227,"lon":5.36064,"is_reserved":false,"is_disabled":false,"rental_uris":{"android":"levelo://app?vid=16efb021-d71e-416c-9d62-b436ed1230e4","ios":"levelo://app?vid=16efb021-d71e-416c-9d62-b436ed1230e4"},"vehicle_type_id":"4","last_reported":1724522981,"current_range_meters":18800,"station_id":"ce4bhbh2rcd13ifvqeqg","pricing_plan_id":"cebpf4jnsgd1na2vs0mg"},{"bike_id":"0b9bbaa6-bb87-4640-8a0f-c9821574537f","system_id":"levelo_inurba_marseille","lat":43.292311,"lon":5.360731,"is_reserved":false,"is_disabled":false,"rental_uris":{"android":"levelo://app?vid=0b9bbaa6-bb87-4640-8a0f-c9821574537f","ios":"levelo://app?vid=0b9bbaa6-bb87-4640-8a0f-c9821574537f"},"vehicle_type_id":"4","last_reported":1724522981,"current_range_meters":4400,"station_id":"ce4bhbh2rcd13ifvqeqg","pricing_plan_id":"cebpf4jnsgd1na2vs0mg"},{"bike_id":"1d7a4288-1c81-491c-b0af-2be532a6ce90","system_id":"levelo_inurba_marseille","lat":43.29224,"lon":5.36069,"is_reserved":false,"is_disabled":false,"rental_uris":{"android":"levelo://app?vid=1d7a4288-1c81-491c-b0af-2be532a6ce90","ios":"levelo://app?vid=1d7a4288-1c81-491c-b0af-2be532a6ce90"},"vehicle_type_id":"4","last_reported":1724522981,"current_range_meters":17200,"station_id":"ce4bhbh2rcd13ifvqeqg","pricing_plan_id":"cebpf4jnsgd1na2vs0mg"},{"bike_id":"14576c07-4e41-47a9-b7a1-ebdf01d5d07c","system_id":"levelo_inurba_marseille","lat":43.29221,"lon":5.36062,"is_reserved":false,"is_disabled":false,"rental_uris":{"android":"levelo://app?vid=14576c07-4e41-47a9-b7a1-ebdf01d5d07c","ios":"levelo://app?vid=14576c07-4e41-47a9-b7a1-ebdf01d5d07c"},"vehicle_type_id":"4","last_reported":1724522981,"current_range_meters":12800,"station_id":"ce4bhbh2rcd13ifvqeqg","pricing_plan_id":"cebpf4jnsgd1na2vs0mg"},{"bike_id":"cc24c95c-5e5c-4b0d-8964-ed84b7d08391","system_id":"levelo_inurba_marseille","lat":43.292311,"lon":5.360731,"is_reserved":false,"is_disabled":false,"rental_uris":{"android":"levelo://app?vid=cc24c95c-5e5c-4b0d-8964-ed84b7d08391","ios":"levelo://app?vid=cc24c95c-5e5c-4b0d-8964-ed84b7d08391"},"vehicle_type_id":"4","last_reported":1724522981,"current_range_meters":23200,"station_id":"ce4bhbh2rcd13ifvqeqg","pricing_plan_id":"cebpf4jnsgd1na2vs0mg"},{"bike_id":"88e9fd06-f17f-4ba7-bc32-96a2fe27de68","system_id":"levelo_inurba_marseille","lat":43.292227,"lon":5.36045,"is_reserved":false,"is_disabled":false,"rental_uris":{"android":"levelo://app?vid=88e9fd06-f17f-4ba7-bc32-96a2fe27de68","ios":"levelo://app?vid=88e9fd06-f17f-4ba7-bc32-96a2fe27de68"},"vehicle_type_id":"4","last_reported":1724522981,"current_range_meters":19200,"station_id":"ce4bhbh2rcd13ifvqeqg","pricing_plan_id":"cebpf4jnsgd1na2vs0mg"},{"bike_id":"f0e51bbd-4d53-46c4-a399-41739f206ada","system_id":"levelo_inurba_marseille","lat":43.292311,"lon":5.360731,"is_reserved":false,"is_disabled":false,"rental_uris":{"android":"levelo://app?vid=f0e51bbd-4d53-46c4-a399-41739f206ada","ios":"levelo://app?vid=f0e51bbd-4d53-46c4-a399-41739f206ada"},"vehicle_type_id":"4","last_reported":1724522981,"current_range_meters":13600,"station_id":"ce4bhbh2rcd13ifvqeqg","pricing_plan_id":"cebpf4jnsgd1na2vs0mg"},{"bike_id":"b20c7712-b1b8-4f3b-bd9b-c568718eb72e","system_id":"levelo_inurba_marseille","lat":43.292311,"lon":5.360731,"is_reserved":false,"is_disabled":false,"rental_uris":{"android":"levelo://app?vid=b20c7712-b1b8-4f3b-bd9b-c568718eb72e","ios":"levelo://app?vid=b20c7712-b1b8-4f3b-bd9b-c568718eb72e"},"vehicle_type_id":"4","last_reported":1724522981,"current_range_meters":27600,"station_id":"ce4bhbh2rcd13ifvqeqg","pricing_plan_id":"cebpf4jnsgd1na2vs0mg"},{"bike_id":"988ceb80-2bc5-4d3d-9ebc-6c4bf66a0792","system_id":"levelo_inurba_marseille","lat":43.292311,"lon":5.360731,"is_reserved":false,"is_disabled":false,"rental_uris":{"android":"levelo://app?vid=988ceb80-2bc5-4d3d-9ebc-6c4bf66a0792","ios":"levelo://app?vid=988ceb80-2bc5-4d3d-9ebc-6c4bf66a0792"},"vehicle_type_id":"4","last_reported":1724522981,"current_range_meters":31200,"station_id":"ce4bhbh2rcd13ifvqeqg","pricing_plan_id":"cebpf4jnsgd1na2vs0mg"},{"bike_id":"e2e728c7-e6d9-42a1-bc78-dbf3fff94c34","system_id":"levelo_inurba_marseille","lat":43.29217,"lon":5.36052,"is_reserved":false,"is_disabled":false,"rental_uris":{"android":"levelo://app?vid=e2e728c7-e6d9-42a1-bc78-dbf3fff94c34","ios":"levelo://app?vid=e2e728c7-e6d9-42a1-bc78-dbf3fff94c34"},"vehicle_type_id":"4","last_reported":1724522981,"current_range_meters":20400,"station_id":"ce4bhbh2rcd13ifvqeqg","pricing_plan_id":"cebpf4jnsgd1na2vs0mg"},{"bike_id":"4ea0015e-29d6-4601-9278-17717527a6db","system_id":"levelo_inurba_marseille","lat":43.292311,"lon":5.360731,"is_reserved":false,"is_disabled":false,"rental_uris":{"android":"levelo://app?vid=4ea0015e-29d6-4601-9278-17717527a6db","ios":"levelo://app?vid=4ea0015e-29d6-4601-9278-17717527a6db"},"vehicle_type_id":"4","last_reported":1724522981,"current_range_meters":0,"station_id":"ce4bhbh2rcd13ifvqeqg","pricing_plan_id":"cebpf4jnsgd1na2vs0mg"},{"bike_id":"494af154-e7f9-455d-8899-4d35f1840e20","system_id":"levelo_inurba_marseille","lat":43.292311,"lon":5.360731,"is_reserved":false,"is_disabled":false,"rental_uris":{"android":"levelo://app?vid=494af154-e7f9-455d-8899-4d35f1840e20","ios":"levelo://app?vid=494af154-e7f9-455d-8899-4d35f1840e20"},"vehicle_type_id":"4","last_reported":1724522981,"current_range_meters":4400,"station_id":"ce4bhbh2rcd13ifvqeqg","pricing_plan_id":"cebpf4jnsgd1na2vs0mg"},{"bike_id":"ce49daa7-87e4-4749-85e7-6dab91519271","system_id":"levelo_inurba_marseille","lat":43.292311,"lon":5.360731,"is_reserved":false,"is_disabled":false,"rental_uris":{"android":"levelo://app?vid=ce49daa7-87e4-4749-85e7-6dab91519271","ios":"levelo://app?vid=ce49daa7-87e4-4749-85e7-6dab91519271"},"vehicle_type_id":"4","last_reported":1724522981,"current_range_meters":25600,"station_id":"ce4bhbh2rcd13ifvqeqg","pricing_plan_id":"cebpf4jnsgd1na2vs0mg"},{"bike_id":"b0769f0c-6802-4525-9ccf-2b1b261ca58b","system_id":"levelo_inurba_marseille","lat":43.292311,"lon":5.360731,"is_reserved":false,"is_disabled":false,"rental_uris":{"android":"levelo://app?vid=b0769f0c-6802-4525-9ccf-2b1b261ca58b","ios":"levelo://app?vid=b0769f0c-6802-4525-9ccf-2b1b261ca58b"},"vehicle_type_id":"4","last_reported":1724522981,"current_range_meters":30000,"station_id":"ce4bhbh2rcd13ifvqeqg","pricing_plan_id":"cebpf4jnsgd1na2vs0mg"},{"bike_id":"e9919a79-8041-4346-9b42-59dc322dd97f","system_id":"levelo_inurba_marseille","lat":43.292311,"lon":5.360731,"is_reserved":false,"is_disabled":false,"rental_uris":{"android":"levelo://app?vid=e9919a79-8041-4346-9b42-59dc322dd97f","ios":"levelo://app?vid=e9919a79-8041-4346-9b42-59dc322dd97f"},"vehicle_type_id":"4","last_reported":1724522981,"current_range_meters":21200,"station_id":"ce4bhbh2rcd13ifvqeqg","pricing_plan_id":"cebpf4jnsgd1na2vs0mg"},{"bike_id":"f8642968-4431-4592-8d34-0827ee98284e","system_id":"levelo_inurba_marseille","lat":43.298764,"lon":5.388973,"is_reserved":false,"is_disabled":false,"rental_uris":{"android":"levelo://app?vid=f8642968-4431-4592-8d34-0827ee98284e","ios":"levelo://app?vid=f8642968-4431-4592-8d34-0827ee98284e"},"vehicle_type_id":"4","last_reported":1724522981,"current_range_meters":17600,"station_id":"ce4bh392rcd13ifvqdl0","pricing_plan_id":"cebpf4jnsgd1na2vs0mg"},{"bike_id":"27007e36-c711-43c0-8a7d-8828f17efe7e","system_id":"levelo_inurba_marseille","lat":43.29207,"lon":5.36024,"is_reserved":false,"is_disabled":false,"rental_uris":{"android":"levelo://app?vid=27007e36-c711-43c0-8a7d-8828f17efe7e","ios":"levelo://app?vid=27007e36-c711-43c0-8a7d-8828f17efe7e"},"vehicle_type_id":"4","last_reported":1724522981,"current_range_meters":18400,"station_id":"ce4bhbh2rcd13ifvqeqg","pricing_plan_id":"cebpf4jnsgd1na2vs0mg"},{"bike_id":"c412e057-8a98-46d7-ad26-d6b52baf911e","system_id":"levelo_inurba_marseille","lat":43.293451,"lon":5.379295,"is_reserved":false,"is_disabled":false,"rental_uris":{"android":"levelo://app?vid=c412e057-8a98-46d7-ad26-d6b52baf911e","ios":"levelo://app?vid=c412e057-8a98-46d7-ad26-d6b52baf911e"},"vehicle_type_id":"4","last_reported":1724522981,"current_range_meters":4800,"station_id":"","pricing_plan_id":"cebpf4jnsgd1na2vs0mg"},{"bike_id":"1e952660-a6b1-45bf-9e50-484a84a13909","system_id":"levelo_inurba_marseille","lat":43.298764,"lon":5.388973,"is_reserved":false,"is_disabled":false,"rental_uris":{"android":"levelo://app?vid=1e952660-a6b1-45bf-9e50-484a84a13909","ios":"levelo://app?vid=1e952660-a6b1-45bf-9e50-484a84a13909"},"vehicle_type_id":"4","last_reported":1724522981,"current_range_meters":22400,"station_id":"ce4bh392rcd13ifvqdl0","pricing_plan_id":"cebpf4jnsgd1na2vs0mg"},{"bike_id":"edcaeaaf-b491-491f-99a7-b7bc4446fec5","system_id":"levelo_inurba_marseille","lat":43.291675,"lon":5.371583,"is_reserved":false,"is_disabled":false,"rental_uris":{"android":"levelo://app?vid=edcaeaaf-b491-491f-99a7-b7bc4446fec5","ios":"levelo://app?vid=edcaeaaf-b491-491f-99a7-b7bc4446fec5"},"vehicle_type_id":"4","last_reported":1724522981,"current_range_meters":0,"station_id":"ce4bha92rcd13ifvqeh0","pricing_plan_id":"cebpf4jnsgd1na2vs0mg"},{"bike_id":"d5327e29-83b2-4eb2-a2d2-9f306e965c89","system_id":"levelo_inurba_marseille","lat":43.292005,"lon":5.357875,"is_reserved":false,"is_disabled":false,"rental_uris":{"android":"levelo://app?vid=d5327e29-83b2-4eb2-a2d2-9f306e965c89","ios":"levelo://app?vid=d5327e29-83b2-4eb2-a2d2-9f306e965c89"},"vehicle_type_id":"4","last_reported":1724522981,"current_range_meters":26400,"station_id":"ce4bhb12rcd13ifvqel0","pricing_plan_id":"cebpf4jnsgd1na2vs0mg"},{"bike_id":"ee67c8f0-ea8c-403c-8f6f-f99da97c73c4","system_id":"levelo_inurba_marseille","lat":43.292005,"lon":5.357875,"is_reserved":false,"is_disabled":false,"rental_uris":{"android":"levelo://app?vid=ee67c8f0-ea8c-403c-8f6f-f99da97c73c4","ios":"levelo://app?vid=ee67c8f0-ea8c-403c-8f6f-f99da97c73c4"},"vehicle_type_id":"4","last_reported":1724522981,"current_range_meters":11600,"station_id":"ce4bhb12rcd13ifvqel0","pricing_plan_id":"cebpf4jnsgd1na2vs0mg"},{"bike_id":"afd2fa21-eca5-40d9-bed4-f0b1e1e0a6b0","system_id":"levelo_inurba_marseille","lat":43.313291,"lon":5.396838,"is_reserved":false,"is_disabled":false,"rental_uris":{"android":"levelo://app?vid=afd2fa21-eca5-40d9-bed4-f0b1e1e0a6b0","ios":"levelo://app?vid=afd2fa21-eca5-40d9-bed4-f0b1e1e0a6b0"},"vehicle_type_id":"4","last_reported":1724522981,"current_range_meters":22400,"station_id":"ce4bgvp2rcd13ifvqcu0","pricing_plan_id":"cebpf4jnsgd1na2vs0mg"},{"bike_id":"d7a5a45b-88f3-48bb-9b39-c1ae3fe3d44a","system_id":"levelo_inurba_marseille","lat":43.292005,"lon":5.357875,"is_reserved":false,"is_disabled":false,"rental_uris":{"android":"levelo://app?vid=d7a5a45b-88f3-48bb-9b39-c1ae3fe3d44a","ios":"levelo://app?vid=d7a5a45b-88f3-48bb-9b39-c1ae3fe3d44a"},"vehicle_type_id":"4","last_reported":1724522981,"current_range_meters":10400,"station_id":"ce4bhb12rcd13ifvqel0","pricing_plan_id":"cebpf4jnsgd1na2vs0mg"},{"bike_id":"fdfe4c7b-0e5a-4c05-83bf-91c2916bf786","system_id":"levelo_inurba_marseille","lat":43.313291,"lon":5.396838,"is_reserved":false,"is_disabled":false,"rental_uris":{"android":"levelo://app?vid=fdfe4c7b-0e5a-4c05-83bf-91c2916bf786","ios":"levelo://app?vid=fdfe4c7b-0e5a-4c05-83bf-91c2916bf786"},"vehicle_type_id":"4","last_reported":1724522981,"current_range_meters":12800,"station_id":"ce4bgvp2rcd13ifvqcu0","pricing_plan_id":"cebpf4jnsgd1na2vs0mg"},{"bike_id":"9325e1f3-b891-4efd-9a53-f1d895edc8dd","system_id":"levelo_inurba_marseille","lat":43.292005,"lon":5.357875,"is_reserved":false,"is_disabled":false,"rental_uris":{"android":"levelo://app?vid=9325e1f3-b891-4efd-9a53-f1d895edc8dd","ios":"levelo://app?vid=9325e1f3-b891-4efd-9a53-f1d895edc8dd"},"vehicle_type_id":"4","last_reported":1724522981,"current_range_meters":30000,"station_id":"ce4bhb12rcd13ifvqel0","pricing_plan_id":"cebpf4jnsgd1na2vs0mg"},{"bike_id":"aab09905-fca4-4717-b9fa-78fd3dc49d32","system_id":"levelo_inurba_marseille","lat":43.313291,"lon":5.396838,"is_reserved":false,"is_disabled":false,"rental_uris":{"android":"levelo://app?vid=aab09905-fca4-4717-b9fa-78fd3dc49d32","ios":"levelo://app?vid=aab09905-fca4-4717-b9fa-78fd3dc49d32"},"vehicle_type_id":"4","last_reported":1724522981,"current_range_meters":9600,"station_id":"ce4bgvp2rcd13ifvqcu0","pricing_plan_id":"cebpf4jnsgd1na2vs0mg"},{"bike_id":"b51c3d01-cb2c-4da4-98fd-2e3189ee6e2a","system_id":"levelo_inurba_marseille","lat":43.313291,"lon":5.396838,"is_reserved":false,"is_disabled":false,"rental_uris":{"android":"levelo://app?vid=b51c3d01-cb2c-4da4-98fd-2e3189ee6e2a","ios":"levelo://app?vid=b51c3d01-cb2c-4da4-98fd-2e3189ee6e2a"},"vehicle_type_id":"4","last_reported":1724522981,"current_range_meters":14400,"station_id":"ce4bgvp2rcd13ifvqcu0","pricing_plan_id":"cebpf4jnsgd1na2vs0mg"},{"bike_id":"69bbbdd9-abc2-47ba-9f33-65c278de9ac8","system_id":"levelo_inurba_marseille","lat":43.30888,"lon":5.39654,"is_reserved":false,"is_disabled":false,"rental_uris":{"android":"levelo://app?vid=69bbbdd9-abc2-47ba-9f33-65c278de9ac8","ios":"levelo://app?vid=69bbbdd9-abc2-47ba-9f33-65c278de9ac8"},"vehicle_type_id":"4","last_reported":1724522981,"current_range_meters":0,"station_id":"ce4bh012rcd13ifvqcv0","pricing_plan_id":"cebpf4jnsgd1na2vs0mg"},{"bike_id":"af3dfaa9-0830-4117-8022-bde03ed8a796","system_id":"levelo_inurba_marseille","lat":43.29529,"lon":5.385581,"is_reserved":false,"is_disabled":false,"rental_uris":{"android":"levelo://app?vid=af3dfaa9-0830-4117-8022-bde03ed8a796","ios":"levelo://app?vid=af3dfaa9-0830-4117-8022-bde03ed8a796"},"vehicle_type_id":"4","last_reported":1724522981,"current_range_meters":9600,"station_id":"ce4bgih2rcd13ifvqba0","pricing_plan_id":"cebpf4jnsgd1na2vs0mg"},{"bike_id":"c20d6bde-64a8-422d-9eb6-d7589e092596","system_id":"levelo_inurba_marseille","lat":43.29529,"lon":5.385581,"is_reserved":false,"is_disabled":false,"rental_uris":{"android":"levelo://app?vid=c20d6bde-64a8-422d-9eb6-d7589e092596","ios":"levelo://app?vid=c20d6bde-64a8-422d-9eb6-d7589e092596"},"vehicle_type_id":"4","last_reported":1724522981,"current_range_meters":5200,"station_id":"ce4bgih2rcd13ifvqba0","pricing_plan_id":"cebpf4jnsgd1na2vs0mg"},{"bike_id":"0d7cdd30-948e-4189-88f3-2690f2f4f395","system_id":"levelo_inurba_marseille","lat":43.2953,"lon":5.38546,"is_reserved":false,"is_disabled":false,"rental_uris":{"android":"levelo://app?vid=0d7cdd30-948e-4189-88f3-2690f2f4f395","ios":"levelo://app?vid=0d7cdd30-948e-4189-88f3-2690f2f4f395"},"vehicle_type_id":"4","last_reported":1724522981,"current_range_meters":7600,"station_id":"ce4bgih2rcd13ifvqba0","pricing_plan_id":"cebpf4jnsgd1na2vs0mg"},{"bike_id":"77ba4754-8d9f-4d00-8501-ffeb97fdebd8","system_id":"levelo_inurba_marseille","lat":43.290717,"lon":5.37168,"is_reserved":false,"is_disabled":false,"rental_uris":{"android":"levelo://app?vid=77ba4754-8d9f-4d00-8501-ffeb97fdebd8","ios":"levelo://app?vid=77ba4754-8d9f-4d00-8501-ffeb97fdebd8"},"vehicle_type_id":"4","last_reported":1724522981,"current_range_meters":0,"station_id":"ce4bh5p2rcd13ifvqe4g","pricing_plan_id":"cebpf4jnsgd1na2vs0mg"},{"bike_id":"8054b0f6-4655-490e-ae2b-0829614d0eca","system_id":"levelo_inurba_marseille","lat":43.290779,"lon":5.371482,"is_reserved":false,"is_disabled":false,"rental_uris":{"android":"levelo://app?vid=8054b0f6-4655-490e-ae2b-0829614d0eca","ios":"levelo://app?vid=8054b0f6-4655-490e-ae2b-0829614d0eca"},"vehicle_type_id":"4","last_reported":1724522981,"current_range_meters":19200,"station_id":"ce4bh5p2rcd13ifvqe4g","pricing_plan_id":"cebpf4jnsgd1na2vs0mg"},{"bike_id":"0251c342-d95a-49cd-900e-e5671a65315e","system_id":"levelo_inurba_marseille","lat":43.31128,"lon":5.398096,"is_reserved":false,"is_disabled":false,"rental_uris":{"android":"levelo://app?vid=0251c342-d95a-49cd-900e-e5671a65315e","ios":"levelo://app?vid=0251c342-d95a-49cd-900e-e5671a65315e"},"vehicle_type_id":"4","last_reported":1724522981,"current_range_meters":16400,"station_id":"","pricing_plan_id":"cebpf4jnsgd1na2vs0mg"},{"bike_id":"0a283ee0-6bce-4139-b703-b35e58ef677b","system_id":"levelo_inurba_marseille","lat":43.302008,"lon":5.394694,"is_reserved":false,"is_disabled":false,"rental_uris":{"android":"levelo://app?vid=0a283ee0-6bce-4139-b703-b35e58ef677b","ios":"levelo://app?vid=0a283ee0-6bce-4139-b703-b35e58ef677b"},"vehicle_type_id":"4","last_reported":1724522981,"current_range_meters":4400,"station_id":"ce4bh0p2rcd13ifvqd70","pricing_plan_id":"cebpf4jnsgd1na2vs0mg"},{"bike_id":"2f7f0500-fbda-453c-9e53-0b2e8be4c809","system_id":"levelo_inurba_marseille","lat":43.302008,"lon":5.394694,"is_reserved":false,"is_disabled":false,"rental_uris":{"android":"levelo://app?vid=2f7f0500-fbda-453c-9e53-0b2e8be4c809","ios":"levelo://app?vid=2f7f0500-fbda-453c-9e53-0b2e8be4c809"},"vehicle_type_id":"4","last_reported":1724522981,"current_range_meters":8400,"station_id":"ce4bh0p2rcd13ifvqd70","pricing_plan_id":"cebpf4jnsgd1na2vs0mg"},{"bike_id":"52fd99d3-77f4-4c2f-8ab0-d1da59e6dfd1","system_id":"levelo_inurba_marseille","lat":43.290624,"lon":5.359245,"is_reserved":false,"is_disabled":false,"rental_uris":{"android":"levelo://app?vid=52fd99d3-77f4-4c2f-8ab0-d1da59e6dfd1","ios":"levelo://app?vid=52fd99d3-77f4-4c2f-8ab0-d1da59e6dfd1"},"vehicle_type_id":"4","last_reported":1724522981,"current_range_meters":26400,"station_id":"ce4bha92rcd13ifvqeg0","pricing_plan_id":"cebpf4jnsgd1na2vs0mg"},{"bike_id":"7c56328e-b437-4779-bdf8-82317e12b050","system_id":"levelo_inurba_marseille","lat":43.29038,"lon":5.35917,"is_reserved":false,"is_disabled":false,"rental_uris":{"android":"levelo://app?vid=7c56328e-b437-4779-bdf8-82317e12b050","ios":"levelo://app?vid=7c56328e-b437-4779-bdf8-82317e12b050"},"vehicle_type_id":"4","last_reported":1724522981,"current_range_meters":20800,"station_id":"ce4bha92rcd13ifvqeg0","pricing_plan_id":"cebpf4jnsgd1na2vs0mg"},{"bike_id":"ed01e051-7d1f-4d02-b4b8-3124733efc52","system_id":"levelo_inurba_marseille","lat":43.294153,"lon":5.386305,"is_reserved":false,"is_disabled":false,"rental_uris":{"android":"levelo://app?vid=ed01e051-7d1f-4d02-b4b8-3124733efc52","ios":"levelo://app?vid=ed01e051-7d1f-4d02-b4b8-3124733efc52"},"vehicle_type_id":"4","last_reported":1724522981,"current_range_meters":20400,"station_id":"ce4bh2h2rcd13ifvqdh0","pricing_plan_id":"cebpf4jnsgd1na2vs0mg"},{"bike_id":"6f87af91-644f-40e7-a228-6aa15033bae4","system_id":"levelo_inurba_marseille","lat":43.294153,"lon":5.386305,"is_reserved":false,"is_disabled":false,"rental_uris":{"android":"levelo://app?vid=6f87af91-644f-40e7-a228-6aa15033bae4","ios":"levelo://app?vid=6f87af91-644f-40e7-a228-6aa15033bae4"},"vehicle_type_id":"4","last_reported":1724522981,"current_range_meters":11200,"station_id":"ce4bh2h2rcd13ifvqdh0","pricing_plan_id":"cebpf4jnsgd1na2vs0mg"},{"bike_id":"abc2d885-87a7-458f-961d-c46ea71ee0b9","system_id":"levelo_inurba_marseille","lat":43.29417,"lon":5.38616,"is_reserved":false,"is_disabled":false,"rental_uris":{"android":"levelo://app?vid=abc2d885-87a7-458f-961d-c46ea71ee0b9","ios":"levelo://app?vid=abc2d885-87a7-458f-961d-c46ea71ee0b9"},"vehicle_type_id":"4","last_reported":1724522981,"current_range_meters":0,"station_id":"ce4bh2h2rcd13ifvqdh0","pricing_plan_id":"cebpf4jnsgd1na2vs0mg"},{"bike_id":"5ec8428f-6855-4f15-a896-8fbb723aced2","system_id":"levelo_inurba_marseille","lat":43.29417,"lon":5.3862,"is_reserved":false,"is_disabled":false,"rental_uris":{"android":"levelo://app?vid=5ec8428f-6855-4f15-a896-8fbb723aced2","ios":"levelo://app?vid=5ec8428f-6855-4f15-a896-8fbb723aced2"},"vehicle_type_id":"4","last_reported":1724522981,"current_range_meters":800,"station_id":"ce4bh2h2rcd13ifvqdh0","pricing_plan_id":"cebpf4jnsgd1na2vs0mg"},{"bike_id":"56e515bb-5771-4ab6-9b70-de8d347ae501","system_id":"levelo_inurba_marseille","lat":43.29414,"lon":5.3862,"is_reserved":false,"is_disabled":false,"rental_uris":{"android":"levelo://app?vid=56e515bb-5771-4ab6-9b70-de8d347ae501","ios":"levelo://app?vid=56e515bb-5771-4ab6-9b70-de8d347ae501"},"vehicle_type_id":"4","last_reported":1724522981,"current_range_meters":0,"station_id":"ce4bh2h2rcd13ifvqdh0","pricing_plan_id":"cebpf4jnsgd1na2vs0mg"},{"bike_id":"f1655e05-2793-4a62-89e0-9e90ae21d47e","system_id":"levelo_inurba_marseille","lat":43.29414,"lon":5.38626,"is_reserved":false,"is_disabled":false,"rental_uris":{"android":"levelo://app?vid=f1655e05-2793-4a62-89e0-9e90ae21d47e","ios":"levelo://app?vid=f1655e05-2793-4a62-89e0-9e90ae21d47e"},"vehicle_type_id":"4","last_reported":1724522981,"current_range_meters":0,"station_id":"ce4bh2h2rcd13ifvqdh0","pricing_plan_id":"cebpf4jnsgd1na2vs0mg"},{"bike_id":"aaafa1ad-f108-4068-b327-6a61e7fd522b","system_id":"levelo_inurba_marseille","lat":43.28941,"lon":5.36625,"is_reserved":false,"is_disabled":false,"rental_uris":{"android":"levelo://app?vid=aaafa1ad-f108-4068-b327-6a61e7fd522b","ios":"levelo://app?vid=aaafa1ad-f108-4068-b327-6a61e7fd522b"},"vehicle_type_id":"4","last_reported":1724522981,"current_range_meters":24000,"station_id":"ce4bhap2rcd13ifvqek0","pricing_plan_id":"cebpf4jnsgd1na2vs0mg"},{"bike_id":"0a0edc98-bcd9-408f-b201-6e638a8217df","system_id":"levelo_inurba_marseille","lat":43.29417,"lon":5.38636,"is_reserved":false,"is_disabled":false,"rental_uris":{"android":"levelo://app?vid=0a0edc98-bcd9-408f-b201-6e638a8217df","ios":"levelo://app?vid=0a0edc98-bcd9-408f-b201-6e638a8217df"},"vehicle_type_id":"4","last_reported":1724522981,"current_range_meters":400,"station_id":"ce4bh2h2rcd13ifvqdh0","pricing_plan_id":"cebpf4jnsgd1na2vs0mg"},{"bike_id":"759a1cab-c3f7-43b7-8110-ad995673fc4c","system_id":"levelo_inurba_marseille","lat":43.28935,"lon":5.36628,"is_reserved":false,"is_disabled":false,"rental_uris":{"android":"levelo://app?vid=759a1cab-c3f7-43b7-8110-ad995673fc4c","ios":"levelo://app?vid=759a1cab-c3f7-43b7-8110-ad995673fc4c"},"vehicle_type_id":"4","last_reported":1724522981,"current_range_meters":0,"station_id":"ce4bhap2rcd13ifvqek0","pricing_plan_id":"cebpf4jnsgd1na2vs0mg"},{"bike_id":"8e82796b-4a57-4aa5-a198-13a00faafa2b","system_id":"levelo_inurba_marseille","lat":43.28934,"lon":5.36638,"is_reserved":false,"is_disabled":false,"rental_uris":{"android":"levelo://app?vid=8e82796b-4a57-4aa5-a198-13a00faafa2b","ios":"levelo://app?vid=8e82796b-4a57-4aa5-a198-13a00faafa2b"},"vehicle_type_id":"4","last_reported":1724522981,"current_range_meters":0,"station_id":"ce4bhap2rcd13ifvqek0","pricing_plan_id":"cebpf4jnsgd1na2vs0mg"},{"bike_id":"3bd69113-338c-45b2-97d1-aa7094835f5a","system_id":"levelo_inurba_marseille","lat":43.289184,"lon":5.366408,"is_reserved":false,"is_disabled":false,"rental_uris":{"android":"levelo://app?vid=3bd69113-338c-45b2-97d1-aa7094835f5a","ios":"levelo://app?vid=3bd69113-338c-45b2-97d1-aa7094835f5a"},"vehicle_type_id":"4","last_reported":1724522981,"current_range_meters":10000,"station_id":"ce4bhap2rcd13ifvqek0","pricing_plan_id":"cebpf4jnsgd1na2vs0mg"},{"bike_id":"b317ce82-13e4-4710-902c-7d5bc95fb23c","system_id":"levelo_inurba_marseille","lat":43.28937,"lon":5.363947,"is_reserved":false,"is_disabled":false,"rental_uris":{"android":"levelo://app?vid=b317ce82-13e4-4710-902c-7d5bc95fb23c","ios":"levelo://app?vid=b317ce82-13e4-4710-902c-7d5bc95fb23c"},"vehicle_type_id":"4","last_reported":1724522981,"current_range_meters":0,"station_id":"ce4bhc92rcd13ifvqetg","pricing_plan_id":"cebpf4jnsgd1na2vs0mg"},{"bike_id":"e8353219-9d59-4d13-8654-987f79be995f","system_id":"levelo_inurba_marseille","lat":43.29226,"lon":5.383349,"is_reserved":false,"is_disabled":false,"rental_uris":{"android":"levelo://app?vid=e8353219-9d59-4d13-8654-987f79be995f","ios":"levelo://app?vid=e8353219-9d59-4d13-8654-987f79be995f"},"vehicle_type_id":"4","last_reported":1724522981,"current_range_meters":13200,"station_id":"","pricing_plan_id":"cebpf4jnsgd1na2vs0mg"},{"bike_id":"b127f1ae-f381-49ce-a8aa-b806f14e3b8a","system_id":"levelo_inurba_marseille","lat":43.292642,"lon":5.384254,"is_reserved":false,"is_disabled":false,"rental_uris":{"android":"levelo://app?vid=b127f1ae-f381-49ce-a8aa-b806f14e3b8a","ios":"levelo://app?vid=b127f1ae-f381-49ce-a8aa-b806f14e3b8a"},"vehicle_type_id":"4","last_reported":1724522981,"current_range_meters":14800,"station_id":"ce4bh692rcd13ifvqea0","pricing_plan_id":"cebpf4jnsgd1na2vs0mg"},{"bike_id":"a38025f1-602e-45b9-9720-b16f02f76143","system_id":"levelo_inurba_marseille","lat":43.304296,"lon":5.397513,"is_reserved":false,"is_disabled":false,"rental_uris":{"android":"levelo://app?vid=a38025f1-602e-45b9-9720-b16f02f76143","ios":"levelo://app?vid=a38025f1-602e-45b9-9720-b16f02f76143"},"vehicle_type_id":"4","last_reported":1724522981,"current_range_meters":13600,"station_id":"ce4bh092rcd13ifvqd20","pricing_plan_id":"cebpf4jnsgd1na2vs0mg"},{"bike_id":"cda13135-1fa9-4235-9693-140f21edc333","system_id":"levelo_inurba_marseille","lat":43.292642,"lon":5.384254,"is_reserved":false,"is_disabled":false,"rental_uris":{"android":"levelo://app?vid=cda13135-1fa9-4235-9693-140f21edc333","ios":"levelo://app?vid=cda13135-1fa9-4235-9693-140f21edc333"},"vehicle_type_id":"4","last_reported":1724522981,"current_range_meters":2000,"station_id":"ce4bh692rcd13ifvqea0","pricing_plan_id":"cebpf4jnsgd1na2vs0mg"},{"bike_id":"5f74f531-efe6-484d-9eaa-e813d3875d5a","system_id":"levelo_inurba_marseille","lat":43.29269,"lon":5.38448,"is_reserved":false,"is_disabled":false,"rental_uris":{"android":"levelo://app?vid=5f74f531-efe6-484d-9eaa-e813d3875d5a","ios":"levelo://app?vid=5f74f531-efe6-484d-9eaa-e813d3875d5a"},"vehicle_type_id":"4","last_reported":1724522981,"current_range_meters":0,"station_id":"ce4bh692rcd13ifvqea0","pricing_plan_id":"cebpf4jnsgd1na2vs0mg"},{"bike_id":"1ea23af6-6325-4620-8816-463a071d67c3","system_id":"levelo_inurba_marseille","lat":43.304296,"lon":5.397513,"is_reserved":false,"is_disabled":false,"rental_uris":{"android":"levelo://app?vid=1ea23af6-6325-4620-8816-463a071d67c3","ios":"levelo://app?vid=1ea23af6-6325-4620-8816-463a071d67c3"},"vehicle_type_id":"4","last_reported":1724522981,"current_range_meters":23200,"station_id":"ce4bh092rcd13ifvqd20","pricing_plan_id":"cebpf4jnsgd1na2vs0mg"},{"bike_id":"59cc9160-a068-4ba3-9517-c3e575b5d4a8","system_id":"levelo_inurba_marseille","lat":43.292644,"lon":5.384257,"is_reserved":false,"is_disabled":false,"rental_uris":{"android":"levelo://app?vid=59cc9160-a068-4ba3-9517-c3e575b5d4a8","ios":"levelo://app?vid=59cc9160-a068-4ba3-9517-c3e575b5d4a8"},"vehicle_type_id":"4","last_reported":1724522981,"current_range_meters":18000,"station_id":"ce4bh692rcd13ifvqea0","pricing_plan_id":"cebpf4jnsgd1na2vs0mg"},{"bike_id":"2a19696b-ff2a-4ffc-88d5-ad349968c85d","system_id":"levelo_inurba_marseille","lat":43.304296,"lon":5.397513,"is_reserved":false,"is_disabled":false,"rental_uris":{"android":"levelo://app?vid=2a19696b-ff2a-4ffc-88d5-ad349968c85d","ios":"levelo://app?vid=2a19696b-ff2a-4ffc-88d5-ad349968c85d"},"vehicle_type_id":"4","last_reported":1724522981,"current_range_meters":25200,"station_id":"ce4bh092rcd13ifvqd20","pricing_plan_id":"cebpf4jnsgd1na2vs0mg"},{"bike_id":"05a86a50-db92-4b8e-b9ac-a750184167c6","system_id":"levelo_inurba_marseille","lat":43.292624,"lon":5.38453,"is_reserved":false,"is_disabled":false,"rental_uris":{"android":"levelo://app?vid=05a86a50-db92-4b8e-b9ac-a750184167c6","ios":"levelo://app?vid=05a86a50-db92-4b8e-b9ac-a750184167c6"},"vehicle_type_id":"4","last_reported":1724522981,"current_range_meters":0,"station_id":"ce4bh692rcd13ifvqea0","pricing_plan_id":"cebpf4jnsgd1na2vs0mg"},{"bike_id":"02efab7b-f693-4c01-b7fe-e7f2b1c75e45","system_id":"levelo_inurba_marseille","lat":43.292644,"lon":5.384257,"is_reserved":false,"is_disabled":false,"rental_uris":{"android":"levelo://app?vid=02efab7b-f693-4c01-b7fe-e7f2b1c75e45","ios":"levelo://app?vid=02efab7b-f693-4c01-b7fe-e7f2b1c75e45"},"vehicle_type_id":"4","last_reported":1724522981,"current_range_meters":9600,"station_id":"ce4bh692rcd13ifvqea0","pricing_plan_id":"cebpf4jnsgd1na2vs0mg"},{"bike_id":"f8b13656-1442-412d-9529-fe2d4677013a","system_id":"levelo_inurba_marseille","lat":43.304296,"lon":5.397513,"is_reserved":false,"is_disabled":false,"rental_uris":{"android":"levelo://app?vid=f8b13656-1442-412d-9529-fe2d4677013a","ios":"levelo://app?vid=f8b13656-1442-412d-9529-fe2d4677013a"},"vehicle_type_id":"4","last_reported":1724522981,"current_range_meters":1200,"station_id":"ce4bh092rcd13ifvqd20","pricing_plan_id":"cebpf4jnsgd1na2vs0mg"},{"bike_id":"f4fd8e71-394b-4974-ac30-a00bce6de587","system_id":"levelo_inurba_marseille","lat":43.290104,"lon":5.356111,"is_reserved":false,"is_disabled":false,"rental_uris":{"android":"levelo://app?vid=f4fd8e71-394b-4974-ac30-a00bce6de587","ios":"levelo://app?vid=f4fd8e71-394b-4974-ac30-a00bce6de587"},"vehicle_type_id":"4","last_reported":1724522981,"current_range_meters":1600,"station_id":"ce4bhb92rcd13ifvqen0","pricing_plan_id":"cebpf4jnsgd1na2vs0mg"},{"bike_id":"68bd3011-7c02-4fe8-8423-db57191ff65b","system_id":"levelo_inurba_marseille","lat":43.290104,"lon":5.356111,"is_reserved":false,"is_disabled":false,"rental_uris":{"android":"levelo://app?vid=68bd3011-7c02-4fe8-8423-db57191ff65b","ios":"levelo://app?vid=68bd3011-7c02-4fe8-8423-db57191ff65b"},"vehicle_type_id":"4","last_reported":1724522981,"current_range_meters":0,"station_id":"ce4bhb92rcd13ifvqen0","pricing_plan_id":"cebpf4jnsgd1na2vs0mg"},{"bike_id":"94c8019c-2f1d-4912-9de7-a84bd8c87712","system_id":"levelo_inurba_marseille","lat":43.29005,"lon":5.35607,"is_reserved":false,"is_disabled":false,"rental_uris":{"android":"levelo://app?vid=94c8019c-2f1d-4912-9de7-a84bd8c87712","ios":"levelo://app?vid=94c8019c-2f1d-4912-9de7-a84bd8c87712"},"vehicle_type_id":"4","last_reported":1724522981,"current_range_meters":29600,"station_id":"ce4bhb92rcd13ifvqen0","pricing_plan_id":"cebpf4jnsgd1na2vs0mg"},{"bike_id":"46256870-6f10-4f30-bd84-d314787d2609","system_id":"levelo_inurba_marseille","lat":43.290995,"lon":5.381361,"is_reserved":false,"is_disabled":false,"rental_uris":{"android":"levelo://app?vid=46256870-6f10-4f30-bd84-d314787d2609","ios":"levelo://app?vid=46256870-6f10-4f30-bd84-d314787d2609"},"vehicle_type_id":"4","last_reported":1724522981,"current_range_meters":8000,"station_id":"ce4bh512rcd13ifvqe2g","pricing_plan_id":"cebpf4jnsgd1na2vs0mg"},{"bike_id":"58db5727-dc5f-43ff-86e3-b7b59cc48c2c","system_id":"levelo_inurba_marseille","lat":43.290104,"lon":5.356111,"is_reserved":false,"is_disabled":false,"rental_uris":{"android":"levelo://app?vid=58db5727-dc5f-43ff-86e3-b7b59cc48c2c","ios":"levelo://app?vid=58db5727-dc5f-43ff-86e3-b7b59cc48c2c"},"vehicle_type_id":"4","last_reported":1724522981,"current_range_meters":0,"station_id":"ce4bhb92rcd13ifvqen0","pricing_plan_id":"cebpf4jnsgd1na2vs0mg"},{"bike_id":"6fc8e116-2292-407b-b606-4384fe3ba4a6","system_id":"levelo_inurba_marseille","lat":43.290995,"lon":5.381361,"is_reserved":false,"is_disabled":false,"rental_uris":{"android":"levelo://app?vid=6fc8e116-2292-407b-b606-4384fe3ba4a6","ios":"levelo://app?vid=6fc8e116-2292-407b-b606-4384fe3ba4a6"},"vehicle_type_id":"4","last_reported":1724522981,"current_range_meters":12400,"station_id":"ce4bh512rcd13ifvqe2g","pricing_plan_id":"cebpf4jnsgd1na2vs0mg"},{"bike_id":"d690bdfb-010e-4c59-b07e-b2cf777a6ee3","system_id":"levelo_inurba_marseille","lat":43.290995,"lon":5.381361,"is_reserved":false,"is_disabled":false,"rental_uris":{"android":"levelo://app?vid=d690bdfb-010e-4c59-b07e-b2cf777a6ee3","ios":"levelo://app?vid=d690bdfb-010e-4c59-b07e-b2cf777a6ee3"},"vehicle_type_id":"4","last_reported":1724522981,"current_range_meters":0,"station_id":"ce4bh512rcd13ifvqe2g","pricing_plan_id":"cebpf4jnsgd1na2vs0mg"},{"bike_id":"59d62a59-ae70-434f-9b01-0e06a3ef50e9","system_id":"levelo_inurba_marseille","lat":43.290995,"lon":5.381361,"is_reserved":false,"is_disabled":false,"rental_uris":{"android":"levelo://app?vid=59d62a59-ae70-434f-9b01-0e06a3ef50e9","ios":"levelo://app?vid=59d62a59-ae70-434f-9b01-0e06a3ef50e9"},"vehicle_type_id":"4","last_reported":1724522981,"current_range_meters":2400,"station_id":"ce4bh512rcd13ifvqe2g","pricing_plan_id":"cebpf4jnsgd1na2vs0mg"},{"bike_id":"6e517f4d-a091-40ff-a3df-4553009d95d3","system_id":"levelo_inurba_marseille","lat":43.290995,"lon":5.381361,"is_reserved":false,"is_disabled":false,"rental_uris":{"android":"levelo://app?vid=6e517f4d-a091-40ff-a3df-4553009d95d3","ios":"levelo://app?vid=6e517f4d-a091-40ff-a3df-4553009d95d3"},"vehicle_type_id":"4","last_reported":1724522981,"current_range_meters":0,"station_id":"ce4bh512rcd13ifvqe2g","pricing_plan_id":"cebpf4jnsgd1na2vs0mg"},{"bike_id":"51453d8f-9068-495e-8305-e1fab1efa191","system_id":"levelo_inurba_marseille","lat":43.290995,"lon":5.381361,"is_reserved":false,"is_disabled":false,"rental_uris":{"android":"levelo://app?vid=51453d8f-9068-495e-8305-e1fab1efa191","ios":"levelo://app?vid=51453d8f-9068-495e-8305-e1fab1efa191"},"vehicle_type_id":"4","last_reported":1724522981,"current_range_meters":5200,"station_id":"ce4bh512rcd13ifvqe2g","pricing_plan_id":"cebpf4jnsgd1na2vs0mg"},{"bike_id":"e0809d1f-2499-482e-98cf-33fc187a8a86","system_id":"levelo_inurba_marseille","lat":43.297807,"lon":5.393533,"is_reserved":false,"is_disabled":false,"rental_uris":{"android":"levelo://app?vid=e0809d1f-2499-482e-98cf-33fc187a8a86","ios":"levelo://app?vid=e0809d1f-2499-482e-98cf-33fc187a8a86"},"vehicle_type_id":"4","last_reported":1724522981,"current_range_meters":0,"station_id":"chh1huq6cuj3fo74tm60","pricing_plan_id":"cebpf4jnsgd1na2vs0mg"},{"bike_id":"392a72c3-791d-44a9-a286-8b681828acff","system_id":"levelo_inurba_marseille","lat":43.33023,"lon":5.39039,"is_reserved":false,"is_disabled":false,"rental_uris":{"android":"levelo://app?vid=392a72c3-791d-44a9-a286-8b681828acff","ios":"levelo://app?vid=392a72c3-791d-44a9-a286-8b681828acff"},"vehicle_type_id":"4","last_reported":1724522981,"current_range_meters":6000,"station_id":"ce4bhr92rcd13ifvqhrg","pricing_plan_id":"cebpf4jnsgd1na2vs0mg"},{"bike_id":"a7cdaa49-6247-47c7-8331-98326a803469","system_id":"levelo_inurba_marseille","lat":43.33022,"lon":5.39043,"is_reserved":false,"is_disabled":false,"rental_uris":{"android":"levelo://app?vid=a7cdaa49-6247-47c7-8331-98326a803469","ios":"levelo://app?vid=a7cdaa49-6247-47c7-8331-98326a803469"},"vehicle_type_id":"4","last_reported":1724522981,"current_range_meters":28400,"station_id":"ce4bhr92rcd13ifvqhrg","pricing_plan_id":"cebpf4jnsgd1na2vs0mg"},{"bike_id":"8ae77951-e345-4ccc-995a-bdce70ecb243","system_id":"levelo_inurba_marseille","lat":43.295169,"lon":5.390426,"is_reserved":false,"is_disabled":false,"rental_uris":{"android":"levelo://app?vid=8ae77951-e345-4ccc-995a-bdce70ecb243","ios":"levelo://app?vid=8ae77951-e345-4ccc-995a-bdce70ecb243"},"vehicle_type_id":"4","last_reported":1724522981,"current_range_meters":16400,"station_id":"ce4bh3p2rcd13ifvqdp0","pricing_plan_id":"cebpf4jnsgd1na2vs0mg"},{"bike_id":"32c992fb-b627-49e7-860f-d653944557fd","system_id":"levelo_inurba_marseille","lat":43.330442,"lon":5.389148,"is_reserved":false,"is_disabled":false,"rental_uris":{"android":"levelo://app?vid=32c992fb-b627-49e7-860f-d653944557fd","ios":"levelo://app?vid=32c992fb-b627-49e7-860f-d653944557fd"},"vehicle_type_id":"4","last_reported":1724522981,"current_range_meters":12400,"station_id":"ce4bhr92rcd13ifvqhrg","pricing_plan_id":"cebpf4jnsgd1na2vs0mg"},{"bike_id":"a485477e-3312-4f09-b7a2-25acc725f23b","system_id":"levelo_inurba_marseille","lat":43.330442,"lon":5.389148,"is_reserved":false,"is_disabled":false,"rental_uris":{"android":"levelo://app?vid=a485477e-3312-4f09-b7a2-25acc725f23b","ios":"levelo://app?vid=a485477e-3312-4f09-b7a2-25acc725f23b"},"vehicle_type_id":"4","last_reported":1724522981,"current_range_meters":24000,"station_id":"ce4bhr92rcd13ifvqhrg","pricing_plan_id":"cebpf4jnsgd1na2vs0mg"},{"bike_id":"eabe0ae6-2e14-4783-a675-5ede6720c500","system_id":"levelo_inurba_marseille","lat":43.289741,"lon":5.378306,"is_reserved":false,"is_disabled":false,"rental_uris":{"android":"levelo://app?vid=eabe0ae6-2e14-4783-a675-5ede6720c500","ios":"levelo://app?vid=eabe0ae6-2e14-4783-a675-5ede6720c500"},"vehicle_type_id":"4","last_reported":1724522981,"current_range_meters":14400,"station_id":"ce4bh9p2rcd13ifvqed0","pricing_plan_id":"cebpf4jnsgd1na2vs0mg"},{"bike_id":"0b59cdb7-ddc5-415b-bdac-b7546be5f1f2","system_id":"levelo_inurba_marseille","lat":43.29024,"lon":5.38131,"is_reserved":false,"is_disabled":false,"rental_uris":{"android":"levelo://app?vid=0b59cdb7-ddc5-415b-bdac-b7546be5f1f2","ios":"levelo://app?vid=0b59cdb7-ddc5-415b-bdac-b7546be5f1f2"},"vehicle_type_id":"4","last_reported":1724522981,"current_range_meters":0,"station_id":"ce4bh4p2rcd13ifvqe1g","pricing_plan_id":"cebpf4jnsgd1na2vs0mg"},{"bike_id":"498b55cf-05b9-4811-9090-bc37bd275a49","system_id":"levelo_inurba_marseille","lat":43.29018,"lon":5.38144,"is_reserved":false,"is_disabled":false,"rental_uris":{"android":"levelo://app?vid=498b55cf-05b9-4811-9090-bc37bd275a49","ios":"levelo://app?vid=498b55cf-05b9-4811-9090-bc37bd275a49"},"vehicle_type_id":"4","last_reported":1724522981,"current_range_meters":0,"station_id":"ce4bh4p2rcd13ifvqe1g","pricing_plan_id":"cebpf4jnsgd1na2vs0mg"},{"bike_id":"ce4ea387-a406-48ee-8d5f-9562f4bffbb2","system_id":"levelo_inurba_marseille","lat":43.309371,"lon":5.401449,"is_reserved":false,"is_disabled":false,"rental_uris":{"android":"levelo://app?vid=ce4ea387-a406-48ee-8d5f-9562f4bffbb2","ios":"levelo://app?vid=ce4ea387-a406-48ee-8d5f-9562f4bffbb2"},"vehicle_type_id":"4","last_reported":1724522981,"current_range_meters":10000,"station_id":"ce4bgvp2rcd13ifvqct0","pricing_plan_id":"cebpf4jnsgd1na2vs0mg"},{"bike_id":"c594b3e3-1ba6-43b9-a1c1-be8533666e55","system_id":"levelo_inurba_marseille","lat":43.33751,"lon":5.37441,"is_reserved":false,"is_disabled":false,"rental_uris":{"android":"levelo://app?vid=c594b3e3-1ba6-43b9-a1c1-be8533666e55","ios":"levelo://app?vid=c594b3e3-1ba6-43b9-a1c1-be8533666e55"},"vehicle_type_id":"4","last_reported":1724522981,"current_range_meters":26400,"station_id":"","pricing_plan_id":"cebpf4jnsgd1na2vs0mg"},{"bike_id":"db399c75-49ad-4419-a288-38737e32025d","system_id":"levelo_inurba_marseille","lat":43.337552,"lon":5.374572,"is_reserved":false,"is_disabled":false,"rental_uris":{"android":"levelo://app?vid=db399c75-49ad-4419-a288-38737e32025d","ios":"levelo://app?vid=db399c75-49ad-4419-a288-38737e32025d"},"vehicle_type_id":"4","last_reported":1724522981,"current_range_meters":28000,"station_id":"","pricing_plan_id":"cebpf4jnsgd1na2vs0mg"},{"bike_id":"a6de0161-1a37-4484-af54-217f3b7611b4","system_id":"levelo_inurba_marseille","lat":43.3375,"lon":5.37493,"is_reserved":false,"is_disabled":false,"rental_uris":{"android":"levelo://app?vid=a6de0161-1a37-4484-af54-217f3b7611b4","ios":"levelo://app?vid=a6de0161-1a37-4484-af54-217f3b7611b4"},"vehicle_type_id":"4","last_reported":1724522981,"current_range_meters":30400,"station_id":"","pricing_plan_id":"cebpf4jnsgd1na2vs0mg"},{"bike_id":"cdc35d34-57e9-43e1-ac36-c0218dd5a9e1","system_id":"levelo_inurba_marseille","lat":43.337572,"lon":5.374876,"is_reserved":false,"is_disabled":false,"rental_uris":{"android":"levelo://app?vid=cdc35d34-57e9-43e1-ac36-c0218dd5a9e1","ios":"levelo://app?vid=cdc35d34-57e9-43e1-ac36-c0218dd5a9e1"},"vehicle_type_id":"4","last_reported":1724522981,"current_range_meters":17200,"station_id":"","pricing_plan_id":"cebpf4jnsgd1na2vs0mg"},{"bike_id":"e358a63e-204b-4bf9-a280-6d0c0f57da63","system_id":"levelo_inurba_marseille","lat":43.337621,"lon":5.374623,"is_reserved":false,"is_disabled":false,"rental_uris":{"android":"levelo://app?vid=e358a63e-204b-4bf9-a280-6d0c0f57da63","ios":"levelo://app?vid=e358a63e-204b-4bf9-a280-6d0c0f57da63"},"vehicle_type_id":"4","last_reported":1724522981,"current_range_meters":0,"station_id":"","pricing_plan_id":"cebpf4jnsgd1na2vs0mg"},{"bike_id":"1b635017-1f6d-4ccf-887c-5535d999fc49","system_id":"levelo_inurba_marseille","lat":43.33768,"lon":5.37436,"is_reserved":false,"is_disabled":false,"rental_uris":{"android":"levelo://app?vid=1b635017-1f6d-4ccf-887c-5535d999fc49","ios":"levelo://app?vid=1b635017-1f6d-4ccf-887c-5535d999fc49"},"vehicle_type_id":"4","last_reported":1724522981,"current_range_meters":13600,"station_id":"","pricing_plan_id":"cebpf4jnsgd1na2vs0mg"},{"bike_id":"95ac6da5-9f7f-43c0-bbc7-5481d5391285","system_id":"levelo_inurba_marseille","lat":43.306412,"lon":5.401035,"is_reserved":false,"is_disabled":false,"rental_uris":{"android":"levelo://app?vid=95ac6da5-9f7f-43c0-bbc7-5481d5391285","ios":"levelo://app?vid=95ac6da5-9f7f-43c0-bbc7-5481d5391285"},"vehicle_type_id":"4","last_reported":1724522981,"current_range_meters":23600,"station_id":"ce4bh112rcd13ifvqda0","pricing_plan_id":"cebpf4jnsgd1na2vs0mg"},{"bike_id":"5704676c-cb77-4a24-9611-29679b0eec90","system_id":"levelo_inurba_marseille","lat":43.3064,"lon":5.40104,"is_reserved":false,"is_disabled":false,"rental_uris":{"android":"levelo://app?vid=5704676c-cb77-4a24-9611-29679b0eec90","ios":"levelo://app?vid=5704676c-cb77-4a24-9611-29679b0eec90"},"vehicle_type_id":"4","last_reported":1724522981,"current_range_meters":0,"station_id":"ce4bh112rcd13ifvqda0","pricing_plan_id":"cebpf4jnsgd1na2vs0mg"},{"bike_id":"ca481ee1-2376-47e1-8487-f66dca3aba27","system_id":"levelo_inurba_marseille","lat":43.306412,"lon":5.401035,"is_reserved":false,"is_disabled":false,"rental_uris":{"android":"levelo://app?vid=ca481ee1-2376-47e1-8487-f66dca3aba27","ios":"levelo://app?vid=ca481ee1-2376-47e1-8487-f66dca3aba27"},"vehicle_type_id":"4","last_reported":1724522981,"current_range_meters":11200,"station_id":"ce4bh112rcd13ifvqda0","pricing_plan_id":"cebpf4jnsgd1na2vs0mg"},{"bike_id":"3aeec20d-cf72-434a-96d3-0816ca7fee37","system_id":"levelo_inurba_marseille","lat":43.301117,"lon":5.398795,"is_reserved":false,"is_disabled":false,"rental_uris":{"android":"levelo://app?vid=3aeec20d-cf72-434a-96d3-0816ca7fee37","ios":"levelo://app?vid=3aeec20d-cf72-434a-96d3-0816ca7fee37"},"vehicle_type_id":"4","last_reported":1724522981,"current_range_meters":11600,"station_id":"ce4bh0h2rcd13ifvqd40","pricing_plan_id":"cebpf4jnsgd1na2vs0mg"},{"bike_id":"4866d9bd-8b14-49c0-93bd-bcf6a40dbf49","system_id":"levelo_inurba_marseille","lat":43.301117,"lon":5.398795,"is_reserved":false,"is_disabled":false,"rental_uris":{"android":"levelo://app?vid=4866d9bd-8b14-49c0-93bd-bcf6a40dbf49","ios":"levelo://app?vid=4866d9bd-8b14-49c0-93bd-bcf6a40dbf49"},"vehicle_type_id":"4","last_reported":1724522981,"current_range_meters":31200,"station_id":"ce4bh0h2rcd13ifvqd40","pricing_plan_id":"cebpf4jnsgd1na2vs0mg"},{"bike_id":"c3162d6b-3edf-40b1-836a-3944fefb113a","system_id":"levelo_inurba_marseille","lat":43.28727,"lon":5.36078,"is_reserved":false,"is_disabled":false,"rental_uris":{"android":"levelo://app?vid=c3162d6b-3edf-40b1-836a-3944fefb113a","ios":"levelo://app?vid=c3162d6b-3edf-40b1-836a-3944fefb113a"},"vehicle_type_id":"4","last_reported":1724522981,"current_range_meters":800,"station_id":"cki0cbj6b192h4jlfktg","pricing_plan_id":"cebpf4jnsgd1na2vs0mg"},{"bike_id":"92630f12-f63c-49b4-b659-ab9550c7afec","system_id":"levelo_inurba_marseille","lat":43.28727,"lon":5.36078,"is_reserved":false,"is_disabled":false,"rental_uris":{"android":"levelo://app?vid=92630f12-f63c-49b4-b659-ab9550c7afec","ios":"levelo://app?vid=92630f12-f63c-49b4-b659-ab9550c7afec"},"vehicle_type_id":"4","last_reported":1724522981,"current_range_meters":18400,"station_id":"cki0cbj6b192h4jlfktg","pricing_plan_id":"cebpf4jnsgd1na2vs0mg"},{"bike_id":"d6d9dad6-9edc-4fa1-aaf1-120356a6629b","system_id":"levelo_inurba_marseille","lat":43.28727,"lon":5.36078,"is_reserved":false,"is_disabled":false,"rental_uris":{"android":"levelo://app?vid=d6d9dad6-9edc-4fa1-aaf1-120356a6629b","ios":"levelo://app?vid=d6d9dad6-9edc-4fa1-aaf1-120356a6629b"},"vehicle_type_id":"4","last_reported":1724522981,"current_range_meters":11200,"station_id":"cki0cbj6b192h4jlfktg","pricing_plan_id":"cebpf4jnsgd1na2vs0mg"},{"bike_id":"38a88d13-a402-41de-ae0a-d26f3d95db7b","system_id":"levelo_inurba_marseille","lat":43.28727,"lon":5.36078,"is_reserved":false,"is_disabled":false,"rental_uris":{"android":"levelo://app?vid=38a88d13-a402-41de-ae0a-d26f3d95db7b","ios":"levelo://app?vid=38a88d13-a402-41de-ae0a-d26f3d95db7b"},"vehicle_type_id":"4","last_reported":1724522981,"current_range_meters":12400,"station_id":"cki0cbj6b192h4jlfktg","pricing_plan_id":"cebpf4jnsgd1na2vs0mg"},{"bike_id":"5380564a-765e-4c59-a5b1-0c1c79adb4bf","system_id":"levelo_inurba_marseille","lat":43.28721,"lon":5.3608,"is_reserved":false,"is_disabled":false,"rental_uris":{"android":"levelo://app?vid=5380564a-765e-4c59-a5b1-0c1c79adb4bf","ios":"levelo://app?vid=5380564a-765e-4c59-a5b1-0c1c79adb4bf"},"vehicle_type_id":"4","last_reported":1724522981,"current_range_meters":0,"station_id":"cki0cbj6b192h4jlfktg","pricing_plan_id":"cebpf4jnsgd1na2vs0mg"},{"bike_id":"c71e8829-285a-436f-ab0a-1c573494a0ff","system_id":"levelo_inurba_marseille","lat":43.286961,"lon":5.373785,"is_reserved":false,"is_disabled":false,"rental_uris":{"android":"levelo://app?vid=c71e8829-285a-436f-ab0a-1c573494a0ff","ios":"levelo://app?vid=c71e8829-285a-436f-ab0a-1c573494a0ff"},"vehicle_type_id":"4","last_reported":1724522981,"current_range_meters":12800,"station_id":"ce4bh3p2rcd13ifvqdq0","pricing_plan_id":"cebpf4jnsgd1na2vs0mg"},{"bike_id":"bd3fa77b-5ae6-485c-8b13-a1df228644c9","system_id":"levelo_inurba_marseille","lat":43.28705,"lon":5.37399,"is_reserved":false,"is_disabled":false,"rental_uris":{"android":"levelo://app?vid=bd3fa77b-5ae6-485c-8b13-a1df228644c9","ios":"levelo://app?vid=bd3fa77b-5ae6-485c-8b13-a1df228644c9"},"vehicle_type_id":"4","last_reported":1724522981,"current_range_meters":26800,"station_id":"ce4bh3p2rcd13ifvqdq0","pricing_plan_id":"cebpf4jnsgd1na2vs0mg"},{"bike_id":"cfedc015-69f9-4499-903c-4d76c4e1d943","system_id":"levelo_inurba_marseille","lat":43.298741,"lon":5.397375,"is_reserved":false,"is_disabled":false,"rental_uris":{"android":"levelo://app?vid=cfedc015-69f9-4499-903c-4d76c4e1d943","ios":"levelo://app?vid=cfedc015-69f9-4499-903c-4d76c4e1d943"},"vehicle_type_id":"4","last_reported":1724522981,"current_range_meters":3200,"station_id":"ce4bh0h2rcd13ifvqd50","pricing_plan_id":"cebpf4jnsgd1na2vs0mg"},{"bike_id":"c79a6258-f0a6-4187-87f3-c9b0ca9719b5","system_id":"levelo_inurba_marseille","lat":43.286961,"lon":5.373785,"is_reserved":false,"is_disabled":false,"rental_uris":{"android":"levelo://app?vid=c79a6258-f0a6-4187-87f3-c9b0ca9719b5","ios":"levelo://app?vid=c79a6258-f0a6-4187-87f3-c9b0ca9719b5"},"vehicle_type_id":"4","last_reported":1724522981,"current_range_meters":17600,"station_id":"ce4bh3p2rcd13ifvqdq0","pricing_plan_id":"cebpf4jnsgd1na2vs0mg"},{"bike_id":"bc8bd382-87b2-4eac-93f8-a93af21d0286","system_id":"levelo_inurba_marseille","lat":43.286961,"lon":5.373785,"is_reserved":false,"is_disabled":false,"rental_uris":{"android":"levelo://app?vid=bc8bd382-87b2-4eac-93f8-a93af21d0286","ios":"levelo://app?vid=bc8bd382-87b2-4eac-93f8-a93af21d0286"},"vehicle_type_id":"4","last_reported":1724522981,"current_range_meters":3200,"station_id":"ce4bh3p2rcd13ifvqdq0","pricing_plan_id":"cebpf4jnsgd1na2vs0mg"},{"bike_id":"2c529954-21f6-44ac-93ee-83d3cf326d41","system_id":"levelo_inurba_marseille","lat":43.28699,"lon":5.37387,"is_reserved":false,"is_disabled":false,"rental_uris":{"android":"levelo://app?vid=2c529954-21f6-44ac-93ee-83d3cf326d41","ios":"levelo://app?vid=2c529954-21f6-44ac-93ee-83d3cf326d41"},"vehicle_type_id":"4","last_reported":1724522981,"current_range_meters":0,"station_id":"ce4bh3p2rcd13ifvqdq0","pricing_plan_id":"cebpf4jnsgd1na2vs0mg"},{"bike_id":"e27c3615-fb09-4e02-ab6a-8a9e6a0cdb79","system_id":"levelo_inurba_marseille","lat":43.286593,"lon":5.363346,"is_reserved":false,"is_disabled":false,"rental_uris":{"android":"levelo://app?vid=e27c3615-fb09-4e02-ab6a-8a9e6a0cdb79","ios":"levelo://app?vid=e27c3615-fb09-4e02-ab6a-8a9e6a0cdb79"},"vehicle_type_id":"4","last_reported":1724522981,"current_range_meters":11200,"station_id":"ce4bhah2rcd13ifvqej0","pricing_plan_id":"cebpf4jnsgd1na2vs0mg"},{"bike_id":"7a52a203-07c5-4dee-9e1b-cc49e8b49f6e","system_id":"levelo_inurba_marseille","lat":43.286961,"lon":5.373785,"is_reserved":false,"is_disabled":false,"rental_uris":{"android":"levelo://app?vid=7a52a203-07c5-4dee-9e1b-cc49e8b49f6e","ios":"levelo://app?vid=7a52a203-07c5-4dee-9e1b-cc49e8b49f6e"},"vehicle_type_id":"4","last_reported":1724522981,"current_range_meters":22800,"station_id":"ce4bh3p2rcd13ifvqdq0","pricing_plan_id":"cebpf4jnsgd1na2vs0mg"},{"bike_id":"6705794a-2210-446f-9aa7-e51ffb28f9d6","system_id":"levelo_inurba_marseille","lat":43.28694,"lon":5.37394,"is_reserved":false,"is_disabled":false,"rental_uris":{"android":"levelo://app?vid=6705794a-2210-446f-9aa7-e51ffb28f9d6","ios":"levelo://app?vid=6705794a-2210-446f-9aa7-e51ffb28f9d6"},"vehicle_type_id":"4","last_reported":1724522981,"current_range_meters":0,"station_id":"ce4bh3p2rcd13ifvqdq0","pricing_plan_id":"cebpf4jnsgd1na2vs0mg"},{"bike_id":"408fafbc-45b7-40d7-b50a-11cb0a9c2e84","system_id":"levelo_inurba_marseille","lat":43.289307,"lon":5.38406,"is_reserved":false,"is_disabled":false,"rental_uris":{"android":"levelo://app?vid=408fafbc-45b7-40d7-b50a-11cb0a9c2e84","ios":"levelo://app?vid=408fafbc-45b7-40d7-b50a-11cb0a9c2e84"},"vehicle_type_id":"4","last_reported":1724522981,"current_range_meters":6800,"station_id":"ce4bh612rcd13ifvqe6g","pricing_plan_id":"cebpf4jnsgd1na2vs0mg"},