{"last_updated":1736622402,"ttl":60,"version":"2.2","data":{"bikes":[{"bike_id":"6ed35b35-8795-4ca6-98a1-ae88041e3114","system_id":"levelo_inurba_marseille","lat":43.32292,"lon":5.38288,"is_reserved":false,"is_disabled":false,"rental_uris":{"android":"levelo://app?vid=6ed35b35-8795-4ca6-98a1-ae88041e3114","ios":"levelo://app?vid=6ed35b35-8795-4ca6-98a1-ae88041e3114"},"vehicle_type_id":"4","last_reported":1736622402,"current_range_meters":19600,"station_id":"ce4bhr12rcd13ifvqhqg","pricing_plan_id":"cebpf4jnsgd1na2vs0mg"},{"bike_id":"cd05ad6b-9049-4c36-beaa-cbcd669c935b","system_id":"levelo_inurba_marseille","lat":43.24545,"lon":5.39523,"is_reserved":false,"is_disabled":false,"rental_uris":{"android":"levelo://app?vid=cd05ad6b-9049-4c36-beaa-cbcd669c935b","ios":"levelo://app?vid=cd05ad6b-9049-4c36-beaa-cbcd669c935b"},"vehicle_type_id":"4","last_reported":1736622402,"current_range_meters":8400,"station_id":"ce4bhlp2rcd13ifvqgjg","pricing_plan_id":"cebpf4jnsgd1na2vs0mg"},{"bike_id":"890b5d7b-978d-46cb-b09d-6601be08fedd","system_id":"levelo_inurba_marseille","lat":43.293,"lon":5.37161,"is_reserved":false,"is_disabled":false,"rental_uris":{"android":"levelo://app?vid=890b5d7b-978d-46cb-b09d-6601be08fedd","ios":"levelo://app?vid=890b5d7b-978d-46cb-b09d-6601be08fedd"},"vehicle_type_id":"4","last_reported":1736622402,"current_range_meters":11200,"station_id":"ce4bgh92rcd13ifvqb40","pricing_plan_id":"cebpf4jnsgd1na2vs0mg"},{"bike_id":"7c29002f-9a08-4b0d-92e7-b3b710836f68","system_id":"levelo_inurba_marseille","lat":43.31078,"lon":5.38338,"is_reserved":false,"is_disabled":false,"rental_uris":{"android":"levelo://app?vid=7c29002f-9a08-4b0d-92e7-b3b710836f68","ios":"levelo://app?vid=7c29002f-9a08-4b0d-92e7-b3b710836f68"},"vehicle_type_id":"4","last_reported":1736622402,"current_range_meters":38800,"station_id":"ce4bgv92rcd13ifvqcr0","pricing_plan_id":"cebpf4jnsgd1na2vs0mg"},{"bike_id":"8f45f8b3-7b3a-4ec1-bf72-f4f991267cf4","system_id":"levelo_inurba_marseille","lat":43.29275,"lon":5.36851,"is_reserved":false,"is_disabled":false,"rental_uris":{"android":"levelo://app?vid=8f45f8b3-7b3a-4ec1-bf72-f4f991267cf4","ios":"levelo://app?vid=8f45f8b3-7b3a-4ec1-bf72-f4f991267cf4"},"vehicle_type_id":"4","last_reported":1736622402,"current_range_meters":17600,"station_id":"ce4bhbp2rcd13ifvqesg","pricing_plan_id":"cebpf4jnsgd1na2vs0mg"},{"bike_id":"111ad285-7ae6-4492-8424-06aaf1268407","system_id":"levelo_inurba_marseille","lat":43.29285,"lon":5.37188,"is_reserved":false,"is_disabled":false,"rental_uris":{"android":"levelo://app?vid=111ad285-7ae6-4492-8424-06aaf1268407","ios":"levelo://app?vid=111ad285-7ae6-4492-8424-06aaf1268407"},"vehicle_type_id":"4","last_reported":1736622402,"current_range_meters":19600,"station_id":"ce4bgh92rcd13ifvqb40","pricing_plan_id":"cebpf4jnsgd1na2vs0mg"},{"bike_id":"ed9a90a0-0476-4e36-adca-28b99300734b","system_id":"levelo_inurba_marseille","lat":43.30419,"lon":5.41291,"is_reserved":false,"is_disabled":false,"rental_uris":{"android":"levelo://app?vid=ed9a90a0-0476-4e36-adca-28b99300734b","ios":"levelo://app?vid=ed9a90a0-0476-4e36-adca-28b99300734b"},"vehicle_type_id":"4","last_reported":1736622402,"current_range_meters":38800,"station_id":"ce4bhop2rcd13ifvqh8g","pricing_plan_id":"cebpf4jnsgd1na2vs0mg"},{"bike_id":"51dd28c7-8247-4814-8521-b5aad4446db9","system_id":"levelo_inurba_marseille","lat":43.28106,"lon":5.37841,"is_reserved":false,"is_disabled":false,"rental_uris":{"android":"levelo://app?vid=51dd28c7-8247-4814-8521-b5aad4446db9","ios":"levelo://app?vid=51dd28c7-8247-4814-8521-b5aad4446db9"},"vehicle_type_id":"4","last_reported":1736622402,"current_range_meters":10000,"station_id":"ce4bha12rcd13ifvqee0","pricing_plan_id":"cebpf4jnsgd1na2vs0mg"},{"bike_id":"0ea60a2f-cda4-4308-83fa-1ed45460e073","system_id":"levelo_inurba_marseille","lat":43.3229,"lon":5.38265,"is_reserved":false,"is_disabled":false,"rental_uris":{"android":"levelo://app?vid=0ea60a2f-cda4-4308-83fa-1ed45460e073","ios":"levelo://app?vid=0ea60a2f-cda4-4308-83fa-1ed45460e073"},"vehicle_type_id":"4","last_reported":1736622402,"current_range_meters":34800,"station_id":"ce4bhr12rcd13ifvqhqg","pricing_plan_id":"cebpf4jnsgd1na2vs0mg"},{"bike_id":"c30fc675-0a47-4bd4-aa9e-12e0ee54301f","system_id":"levelo_inurba_marseille","lat":43.28102,"lon":5.37866,"is_reserved":false,"is_disabled":false,"rental_uris":{"android":"levelo://app?vid=c30fc675-0a47-4bd4-aa9e-12e0ee54301f","ios":"levelo://app?vid=c30fc675-0a47-4bd4-aa9e-12e0ee54301f"},"vehicle_type_id":"4","last_reported":1736622402,"current_range_meters":28400,"station_id":"ce4bha12rcd13ifvqee0","pricing_plan_id":"cebpf4jnsgd1na2vs0mg"},{"bike_id":"7b64ec25-751a-48cd-9609-57e6513e4188","system_id":"levelo_inurba_marseille","lat":43.29257,"lon":5.40902,"is_reserved":false,"is_disabled":true,"rental_uris":{"android":"levelo://app?vid=7b64ec25-751a-48cd-9609-57e6513e4188","ios":"levelo://app?vid=7b64ec25-751a-48cd-9609-57e6513e4188"},"vehicle_type_id":"4","last_reported":1736622402,"current_range_meters":1600,"station_id":"ce4bh192rcd13ifvqdc0","pricing_plan_id":"cebpf4jnsgd1na2vs0mg"},{"bike_id":"463c8012-e2a4-4c23-b992-b3720cabf411","system_id":"levelo_inurba_marseille","lat":43.29894,"lon":5.43675,"is_reserved":false,"is_disabled":false,"rental_uris":{"android":"levelo://app?vid=463c8012-e2a4-4c23-b992-b3720cabf411","ios":"levelo://app?vid=463c8012-e2a4-4c23-b992-b3720cabf411"},"vehicle_type_id":"4","last_reported":1736622402,"current_range_meters":19200,"station_id":"ce4bhpp2rcd13ifvqhfg","pricing_plan_id":"cebpf4jnsgd1na2vs0mg"},{"bike_id":"75ac131f-b1a2-43ec-8632-a213966b1b9a","system_id":"levelo_inurba_marseille","lat":43.31272,"lon":5.40165,"is_reserved":false,"is_disabled":false,"rental_uris":{"android":"levelo://app?vid=75ac131f-b1a2-43ec-8632-a213966b1b9a","ios":"levelo://app?vid=75ac131f-b1a2-43ec-8632-a213966b1b9a"},"vehicle_type_id":"4","last_reported":1736622402,"current_range_meters":21600,"station_id":"ce4bh092rcd13ifvqd30","pricing_plan_id":"cebpf4jnsgd1na2vs0mg"},{"bike_id":"39b70465-a85c-4200-b97a-8aac8d7f202f","system_id":"levelo_inurba_marseille","lat":43.25478,"lon":5.37659,"is_reserved":false,"is_disabled":false,"rental_uris":{"android":"levelo://app?vid=39b70465-a85c-4200-b97a-8aac8d7f202f","ios":"levelo://app?vid=39b70465-a85c-4200-b97a-8aac8d7f202f"},"vehicle_type_id":"4","last_reported":1736622402,"current_range_meters":39200,"station_id":"ce4bhh12rcd13ifvqff0","pricing_plan_id":"cebpf4jnsgd1na2vs0mg"},{"bike_id":"f4c1775f-57a5-41e1-9281-570509b61244","system_id":"levelo_inurba_marseille","lat":43.24652,"lon":5.38904,"is_reserved":false,"is_disabled":false,"rental_uris":{"android":"levelo://app?vid=f4c1775f-57a5-41e1-9281-570509b61244","ios":"levelo://app?vid=f4c1775f-57a5-41e1-9281-570509b61244"},"vehicle_type_id":"4","last_reported":1736622402,"current_range_meters":30000,"station_id":"ce4bhg12rcd13ifvqf60","pricing_plan_id":"cebpf4jnsgd1na2vs0mg"},{"bike_id":"4e192438-d0f2-467d-8b3c-c2fdeeec06de","system_id":"levelo_inurba_marseille","lat":43.30451,"lon":5.3888,"is_reserved":false,"is_disabled":false,"rental_uris":{"android":"levelo://app?vid=4e192438-d0f2-467d-8b3c-c2fdeeec06de","ios":"levelo://app?vid=4e192438-d0f2-467d-8b3c-c2fdeeec06de"},"vehicle_type_id":"4","last_reported":1736622402,"current_range_meters":10000,"station_id":"ce4bgk12rcd13ifvqbi0","pricing_plan_id":"cebpf4jnsgd1na2vs0mg"},{"bike_id":"203a274a-8061-4e3e-a5d3-8e9677d51a59","system_id":"levelo_inurba_marseille","lat":43.30301,"lon":5.39207,"is_reserved":false,"is_disabled":false,"rental_uris":{"android":"levelo://app?vid=203a274a-8061-4e3e-a5d3-8e9677d51a59","ios":"levelo://app?vid=203a274a-8061-4e3e-a5d3-8e9677d51a59"},"vehicle_type_id":"4","last_reported":1736622402,"current_range_meters":32000,"station_id":"ce4bgkh2rcd13ifvqbk0","pricing_plan_id":"cebpf4jnsgd1na2vs0mg"},{"bike_id":"c1d4f863-7b4c-4f45-ac1f-9511e47fc172","system_id":"levelo_inurba_marseille","lat":43.2465,"lon":5.38902,"is_reserved":false,"is_disabled":false,"rental_uris":{"android":"levelo://app?vid=c1d4f863-7b4c-4f45-ac1f-9511e47fc172","ios":"levelo://app?vid=c1d4f863-7b4c-4f45-ac1f-9511e47fc172"},"vehicle_type_id":"4","last_reported":1736622402,"current_range_meters":38800,"station_id":"ce4bhg12rcd13ifvqf60","pricing_plan_id":"cebpf4jnsgd1na2vs0mg"},{"bike_id":"ab3cede9-6893-464c-ac8b-2a932ab1a8af","system_id":"levelo_inurba_marseille","lat":43.29194,"lon":5.39332,"is_reserved":false,"is_disabled":false,"rental_uris":{"android":"levelo://app?vid=ab3cede9-6893-464c-ac8b-2a932ab1a8af","ios":"levelo://app?vid=ab3cede9-6893-464c-ac8b-2a932ab1a8af"},"vehicle_type_id":"4","last_reported":1736622402,"current_range_meters":26000,"station_id":"ce4bh192rcd13ifvqdd0","pricing_plan_id":"cebpf4jnsgd1na2vs0mg"},{"bike_id":"004c2ac5-7f25-4e48-8a80-9a02537f6ba6","system_id":"levelo_inurba_marseille","lat":43.32115,"lon":5.36773,"is_reserved":false,"is_disabled":false,"rental_uris":{"android":"levelo://app?vid=004c2ac5-7f25-4e48-8a80-9a02537f6ba6","ios":"levelo://app?vid=004c2ac5-7f25-4e48-8a80-9a02537f6ba6"},"vehicle_type_id":"4","last_reported":1736622402,"current_range_meters":28800,"station_id":"ce4bhrh2rcd13ifvqhug","pricing_plan_id":"cebpf4jnsgd1na2vs0mg"},{"bike_id":"6a8dc65c-8c47-4239-8815-8efa2acdc338","system_id":"levelo_inurba_marseille","lat":43.279942,"lon":5.416614,"is_reserved":false,"is_disabled":true,"rental_uris":{"android":"levelo://app?vid=6a8dc65c-8c47-4239-8815-8efa2acdc338","ios":"levelo://app?vid=6a8dc65c-8c47-4239-8815-8efa2acdc338"},"vehicle_type_id":"4","last_reported":1736622402,"current_range_meters":9600,"station_id":"ce4bho12rcd13ifvqh1g","pricing_plan_id":"cebpf4jnsgd1na2vs0mg"},{"bike_id":"e7f8def0-eb75-4456-88ed-b09541aab5de","system_id":"levelo_inurba_marseille","lat":43.26554,"lon":5.37288,"is_reserved":false,"is_disabled":false,"rental_uris":{"android":"levelo://app?vid=e7f8def0-eb75-4456-88ed-b09541aab5de","ios":"levelo://app?vid=e7f8def0-eb75-4456-88ed-b09541aab5de"},"vehicle_type_id":"4","last_reported":1736622402,"current_range_meters":38800,"station_id":"ce4bhg12rcd13ifvqf70","pricing_plan_id":"cebpf4jnsgd1na2vs0mg"},{"bike_id":"94d00723-79f7-443c-bc62-0c89ddbb1d1c","system_id":"levelo_inurba_marseille","lat":43.28152,"lon":5.42632,"is_reserved":false,"is_disabled":true,"rental_uris":{"android":"levelo://app?vid=94d00723-79f7-443c-bc62-0c89ddbb1d1c","ios":"levelo://app?vid=94d00723-79f7-443c-bc62-0c89ddbb1d1c"},"vehicle_type_id":"4","last_reported":1736622402,"current_range_meters":28400,"station_id":"ce4bhnh2rcd13ifvqgug","pricing_plan_id":"cebpf4jnsgd1na2vs0mg"},{"bike_id":"e573414d-a418-4c45-9346-9221944a1f48","system_id":"levelo_inurba_marseille","lat":43.25579,"lon":5.38242,"is_reserved":false,"is_disabled":false,"rental_uris":{"android":"levelo://app?vid=e573414d-a418-4c45-9346-9221944a1f48","ios":"levelo://app?vid=e573414d-a418-4c45-9346-9221944a1f48"},"vehicle_type_id":"4","last_reported":1736622402,"current_range_meters":23200,"station_id":"ce4bhih2rcd13ifvqfs0","pricing_plan_id":"cebpf4jnsgd1na2vs0mg"},{"bike_id":"cd6d2208-2ce7-4c3f-a18e-8f409506f7d1","system_id":"levelo_inurba_marseille","lat":43.230639,"lon":5.354888,"is_reserved":false,"is_disabled":false,"rental_uris":{"android":"levelo://app?vid=cd6d2208-2ce7-4c3f-a18e-8f409506f7d1","ios":"levelo://app?vid=cd6d2208-2ce7-4c3f-a18e-8f409506f7d1"},"vehicle_type_id":"4","last_reported":1736622402,"current_range_meters":23200,"station_id":"cpo3342slgdg3j2ifvpg","pricing_plan_id":"cebpf4jnsgd1na2vs0mg"},{"bike_id":"56f64cfd-5871-4083-9d0e-331cf1424bd2","system_id":"levelo_inurba_marseille","lat":43.29305,"lon":5.37462,"is_reserved":false,"is_disabled":false,"rental_uris":{"android":"levelo://app?vid=56f64cfd-5871-4083-9d0e-331cf1424bd2","ios":"levelo://app?vid=56f64cfd-5871-4083-9d0e-331cf1424bd2"},"vehicle_type_id":"4","last_reported":1736622402,"current_range_meters":30400,"station_id":"ce4bgi12rcd13ifvqb70","pricing_plan_id":"cebpf4jnsgd1na2vs0mg"},{"bike_id":"853c410a-8974-4843-988a-da842fce0080","system_id":"levelo_inurba_marseille","lat":43.29883,"lon":5.3891,"is_reserved":false,"is_disabled":false,"rental_uris":{"android":"levelo://app?vid=853c410a-8974-4843-988a-da842fce0080","ios":"levelo://app?vid=853c410a-8974-4843-988a-da842fce0080"},"vehicle_type_id":"4","last_reported":1736622402,"current_range_meters":20400,"station_id":"ce4bh392rcd13ifvqdl0","pricing_plan_id":"cebpf4jnsgd1na2vs0mg"},{"bike_id":"c1dea8eb-dedb-48c3-82b9-ba4d059a0755","system_id":"levelo_inurba_marseille","lat":43.26551,"lon":5.37313,"is_reserved":false,"is_disabled":true,"rental_uris":{"android":"levelo://app?vid=c1dea8eb-dedb-48c3-82b9-ba4d059a0755","ios":"levelo://app?vid=c1dea8eb-dedb-48c3-82b9-ba4d059a0755"},"vehicle_type_id":"4","last_reported":1736622402,"current_range_meters":8400,"station_id":"ce4bhg12rcd13ifvqf70","pricing_plan_id":"cebpf4jnsgd1na2vs0mg"},{"bike_id":"f7253ea7-1840-46d0-b4c6-8bc8303cef00","system_id":"levelo_inurba_marseille","lat":43.24408,"lon":5.37048,"is_reserved":false,"is_disabled":false,"rental_uris":{"android":"levelo://app?vid=f7253ea7-1840-46d0-b4c6-8bc8303cef00","ios":"levelo://app?vid=f7253ea7-1840-46d0-b4c6-8bc8303cef00"},"vehicle_type_id":"4","last_reported":1736622402,"current_range_meters":38800,"station_id":"ce4bhhh2rcd13ifvqfk0","pricing_plan_id":"cebpf4jnsgd1na2vs0mg"},{"bike_id":"824c4c31-cff3-42b3-877b-6f5243ac81c7","system_id":"levelo_inurba_marseille","lat":43.24647,"lon":5.38904,"is_reserved":false,"is_disabled":false,"rental_uris":{"android":"levelo://app?vid=824c4c31-cff3-42b3-877b-6f5243ac81c7","ios":"levelo://app?vid=824c4c31-cff3-42b3-877b-6f5243ac81c7"},"vehicle_type_id":"4","last_reported":1736622402,"current_range_meters":28000,"station_id":"ce4bhg12rcd13ifvqf60","pricing_plan_id":"cebpf4jnsgd1na2vs0mg"},{"bike_id":"8c2097f7-d240-4df9-b177-d55a0675758b","system_id":"levelo_inurba_marseille","lat":43.29419,"lon":5.38625,"is_reserved":false,"is_disabled":false,"rental_uris":{"android":"levelo://app?vid=8c2097f7-d240-4df9-b177-d55a0675758b","ios":"levelo://app?vid=8c2097f7-d240-4df9-b177-d55a0675758b"},"vehicle_type_id":"4","last_reported":1736622402,"current_range_meters":39200,"station_id":"ce4bh2h2rcd13ifvqdh0","pricing_plan_id":"cebpf4jnsgd1na2vs0mg"},{"bike_id":"2f222ba4-ac09-46d4-8ee2-013b716d4228","system_id":"levelo_inurba_marseille","lat":43.3176,"lon":5.39019,"is_reserved":false,"is_disabled":false,"rental_uris":{"android":"levelo://app?vid=2f222ba4-ac09-46d4-8ee2-013b716d4228","ios":"levelo://app?vid=2f222ba4-ac09-46d4-8ee2-013b716d4228"},"vehicle_type_id":"4","last_reported":1736622402,"current_range_meters":38800,"station_id":"ce4bhqp2rcd13ifvqhng","pricing_plan_id":"cebpf4jnsgd1na2vs0mg"},{"bike_id":"7c00141a-f008-4934-8693-ee2fc09f3640","system_id":"levelo_inurba_marseille","lat":43.29808,"lon":5.381112,"is_reserved":false,"is_disabled":false,"rental_uris":{"android":"levelo://app?vid=7c00141a-f008-4934-8693-ee2fc09f3640","ios":"levelo://app?vid=7c00141a-f008-4934-8693-ee2fc09f3640"},"vehicle_type_id":"4","last_reported":1736622402,"current_range_meters":8400,"station_id":"ce4bgip2rcd13ifvqbb0","pricing_plan_id":"cebpf4jnsgd1na2vs0mg"},{"bike_id":"ec5d37d5-fab3-4d05-af33-74e1b7f0244d","system_id":"levelo_inurba_marseille","lat":43.25087,"lon":5.39523,"is_reserved":false,"is_disabled":false,"rental_uris":{"android":"levelo://app?vid=ec5d37d5-fab3-4d05-af33-74e1b7f0244d","ios":"levelo://app?vid=ec5d37d5-fab3-4d05-af33-74e1b7f0244d"},"vehicle_type_id":"4","last_reported":1736622402,"current_range_meters":10000,"station_id":"ce4bhm12rcd13ifvqgkg","pricing_plan_id":"cebpf4jnsgd1na2vs0mg"},{"bike_id":"355061cd-d005-4f93-814d-f8c1cc32de39","system_id":"levelo_inurba_marseille","lat":43.2991,"lon":5.38131,"is_reserved":false,"is_disabled":false,"rental_uris":{"android":"levelo://app?vid=355061cd-d005-4f93-814d-f8c1cc32de39","ios":"levelo://app?vid=355061cd-d005-4f93-814d-f8c1cc32de39"},"vehicle_type_id":"4","last_reported":1736622402,"current_range_meters":16800,"station_id":"ce4bgj12rcd13ifvqbc0","pricing_plan_id":"cebpf4jnsgd1na2vs0mg"},{"bike_id":"6b750947-fb43-40e2-9931-495446cc2b3f","system_id":"levelo_inurba_marseille","lat":43.22927,"lon":5.3538,"is_reserved":false,"is_disabled":false,"rental_uris":{"android":"levelo://app?vid=6b750947-fb43-40e2-9931-495446cc2b3f","ios":"levelo://app?vid=6b750947-fb43-40e2-9931-495446cc2b3f"},"vehicle_type_id":"4","last_reported":1736622402,"current_range_meters":36800,"station_id":"cpo3532slgdg3j2ikp40","pricing_plan_id":"cebpf4jnsgd1na2vs0mg"},{"bike_id":"c8e997c0-8580-4d0f-8d9f-0766596381e1","system_id":"levelo_inurba_marseille","lat":43.34018,"lon":5.37528,"is_reserved":false,"is_disabled":false,"rental_uris":{"android":"levelo://app?vid=c8e997c0-8580-4d0f-8d9f-0766596381e1","ios":"levelo://app?vid=c8e997c0-8580-4d0f-8d9f-0766596381e1"},"vehicle_type_id":"4","last_reported":1736622402,"current_range_meters":5600,"station_id":"","pricing_plan_id":"cebpf4jnsgd1na2vs0mg"},{"bike_id":"ba5df164-d25c-4a1c-8679-1bd1a1db0642","system_id":"levelo_inurba_marseille","lat":43.3372,"lon":5.39186,"is_reserved":false,"is_disabled":false,"rental_uris":{"android":"levelo://app?vid=ba5df164-d25c-4a1c-8679-1bd1a1db0642","ios":"levelo://app?vid=ba5df164-d25c-4a1c-8679-1bd1a1db0642"},"vehicle_type_id":"4","last_reported":1736622402,"current_range_meters":27200,"station_id":"ce4bhr92rcd13ifvqhsg","pricing_plan_id":"cebpf4jnsgd1na2vs0mg"},{"bike_id":"087f784c-6451-4665-896b-9e7c7cacc314","system_id":"levelo_inurba_marseille","lat":43.30071,"lon":5.37541,"is_reserved":false,"is_disabled":false,"rental_uris":{"android":"levelo://app?vid=087f784c-6451-4665-896b-9e7c7cacc314","ios":"levelo://app?vid=087f784c-6451-4665-896b-9e7c7cacc314"},"vehicle_type_id":"4","last_reported":1736622402,"current_range_meters":6400,"station_id":"","pricing_plan_id":"cebpf4jnsgd1na2vs0mg"},{"bike_id":"f78a4d18-548e-4a54-8172-d6c97f6193fd","system_id":"levelo_inurba_marseille","lat":43.30298,"lon":5.39205,"is_reserved":false,"is_disabled":false,"rental_uris":{"android":"levelo://app?vid=f78a4d18-548e-4a54-8172-d6c97f6193fd","ios":"levelo://app?vid=f78a4d18-548e-4a54-8172-d6c97f6193fd"},"vehicle_type_id":"4","last_reported":1736622402,"current_range_meters":10800,"station_id":"ce4bgkh2rcd13ifvqbk0","pricing_plan_id":"cebpf4jnsgd1na2vs0mg"},{"bike_id":"eb9b2df2-fdc1-4d66-abed-6bda4748c4f1","system_id":"levelo_inurba_marseille","lat":43.26204,"lon":5.37924,"is_reserved":false,"is_disabled":false,"rental_uris":{"android":"levelo://app?vid=eb9b2df2-fdc1-4d66-abed-6bda4748c4f1","ios":"levelo://app?vid=eb9b2df2-fdc1-4d66-abed-6bda4748c4f1"},"vehicle_type_id":"4","last_reported":1736622402,"current_range_meters":26800,"station_id":"ce4bhjp2rcd13ifvqg90","pricing_plan_id":"cebpf4jnsgd1na2vs0mg"},{"bike_id":"7dd5dd5e-1d75-4c5b-b5b8-248a34302cca","system_id":"levelo_inurba_marseille","lat":43.304726,"lon":5.378958,"is_reserved":false,"is_disabled":true,"rental_uris":{"android":"levelo://app?vid=7dd5dd5e-1d75-4c5b-b5b8-248a34302cca","ios":"levelo://app?vid=7dd5dd5e-1d75-4c5b-b5b8-248a34302cca"},"vehicle_type_id":"4","last_reported":1736622402,"current_range_meters":33200,"station_id":"ce4bgup2rcd13ifvqcn0","pricing_plan_id":"cebpf4jnsgd1na2vs0mg"},{"bike_id":"4e6a1fdd-84f1-4ff7-9556-c133bbbd986f","system_id":"levelo_inurba_marseille","lat":43.26191,"lon":5.374505,"is_reserved":false,"is_disabled":false,"rental_uris":{"android":"levelo://app?vid=4e6a1fdd-84f1-4ff7-9556-c133bbbd986f","ios":"levelo://app?vid=4e6a1fdd-84f1-4ff7-9556-c133bbbd986f"},"vehicle_type_id":"4","last_reported":1736622402,"current_range_meters":31200,"station_id":"ce4bhgp2rcd13ifvqfc0","pricing_plan_id":"cebpf4jnsgd1na2vs0mg"},{"bike_id":"226e6ef0-a4fc-4895-9ad6-89f66438544b","system_id":"levelo_inurba_marseille","lat":43.28985,"lon":5.35603,"is_reserved":false,"is_disabled":true,"rental_uris":{"android":"levelo://app?vid=226e6ef0-a4fc-4895-9ad6-89f66438544b","ios":"levelo://app?vid=226e6ef0-a4fc-4895-9ad6-89f66438544b"},"vehicle_type_id":"4","last_reported":1736622402,"current_range_meters":19200,"station_id":"ce4bhb92rcd13ifvqen0","pricing_plan_id":"cebpf4jnsgd1na2vs0mg"},{"bike_id":"d8327471-e10e-4e1d-a46b-c43156fc0620","system_id":"levelo_inurba_marseille","lat":43.26793,"lon":5.39408,"is_reserved":false,"is_disabled":true,"rental_uris":{"android":"levelo://app?vid=d8327471-e10e-4e1d-a46b-c43156fc0620","ios":"levelo://app?vid=d8327471-e10e-4e1d-a46b-c43156fc0620"},"vehicle_type_id":"4","last_reported":1736622402,"current_range_meters":0,"station_id":"ce4bhh12rcd13ifvqfg0","pricing_plan_id":"cebpf4jnsgd1na2vs0mg"},{"bike_id":"4baed86d-b874-4c81-be38-360bba3c77fd","system_id":"levelo_inurba_marseille","lat":43.32481,"lon":5.36557,"is_reserved":false,"is_disabled":false,"rental_uris":{"android":"levelo://app?vid=4baed86d-b874-4c81-be38-360bba3c77fd","ios":"levelo://app?vid=4baed86d-b874-4c81-be38-360bba3c77fd"},"vehicle_type_id":"4","last_reported":1736622402,"current_range_meters":38800,"station_id":"ce4bhs12rcd13ifvqhvg","pricing_plan_id":"cebpf4jnsgd1na2vs0mg"},{"bike_id":"7d959c37-4d60-4094-901d-194afd224ca0","system_id":"levelo_inurba_marseille","lat":43.28359,"lon":5.38678,"is_reserved":false,"is_disabled":true,"rental_uris":{"android":"levelo://app?vid=7d959c37-4d60-4094-901d-194afd224ca0","ios":"levelo://app?vid=7d959c37-4d60-4094-901d-194afd224ca0"},"vehicle_type_id":"4","last_reported":1736622402,"current_range_meters":15200,"station_id":"ce4bh492rcd13ifvqdvg","pricing_plan_id":"cebpf4jnsgd1na2vs0mg"},{"bike_id":"20eca5b8-c692-4fcc-9447-bb6ba9929649","system_id":"levelo_inurba_marseille","lat":43.28932,"lon":5.38407,"is_reserved":false,"is_disabled":false,"rental_uris":{"android":"levelo://app?vid=20eca5b8-c692-4fcc-9447-bb6ba9929649","ios":"levelo://app?vid=20eca5b8-c692-4fcc-9447-bb6ba9929649"},"vehicle_type_id":"4","last_reported":1736622402,"current_range_meters":39200,"station_id":"ce4bh612rcd13ifvqe6g","pricing_plan_id":"cebpf4jnsgd1na2vs0mg"},{"bike_id":"4b38a823-9864-4de0-a2be-5930b1027ea3","system_id":"levelo_inurba_marseille","lat":43.31686,"lon":5.40472,"is_reserved":false,"is_disabled":false,"rental_uris":{"android":"levelo://app?vid=4b38a823-9864-4de0-a2be-5930b1027ea3","ios":"levelo://app?vid=4b38a823-9864-4de0-a2be-5930b1027ea3"},"vehicle_type_id":"4","last_reported":1736622402,"current_range_meters":12000,"station_id":"ce4bh012rcd13ifvqd00","pricing_plan_id":"cebpf4jnsgd1na2vs0mg"},{"bike_id":"f74ddea1-d53f-4724-a907-c71b1bbca23f","system_id":"levelo_inurba_marseille","lat":43.31371,"lon":5.38494,"is_reserved":false,"is_disabled":false,"rental_uris":{"android":"levelo://app?vid=f74ddea1-d53f-4724-a907-c71b1bbca23f","ios":"levelo://app?vid=f74ddea1-d53f-4724-a907-c71b1bbca23f"},"vehicle_type_id":"4","last_reported":1736622402,"current_range_meters":38000,"station_id":"ce4bgt92rcd13ifvqcf0","pricing_plan_id":"cebpf4jnsgd1na2vs0mg"},{"bike_id":"426ee80e-06b0-4d0f-86a5-ea8ad64aaa11","system_id":"levelo_inurba_marseille","lat":43.28914,"lon":5.43742,"is_reserved":false,"is_disabled":false,"rental_uris":{"android":"levelo://app?vid=426ee80e-06b0-4d0f-86a5-ea8ad64aaa11","ios":"levelo://app?vid=426ee80e-06b0-4d0f-86a5-ea8ad64aaa11"},"vehicle_type_id":"4","last_reported":1736622402,"current_range_meters":16800,"station_id":"","pricing_plan_id":"cebpf4jnsgd1na2vs0mg"},{"bike_id":"577578be-eee5-4f6e-b27f-2478012a219d","system_id":"levelo_inurba_marseille","lat":43.29526,"lon":5.39042,"is_reserved":false,"is_disabled":false,"rental_uris":{"android":"levelo://app?vid=577578be-eee5-4f6e-b27f-2478012a219d","ios":"levelo://app?vid=577578be-eee5-4f6e-b27f-2478012a219d"},"vehicle_type_id":"4","last_reported":1736622402,"current_range_meters":22800,"station_id":"ce4bh3p2rcd13ifvqdp0","pricing_plan_id":"cebpf4jnsgd1na2vs0mg"},{"bike_id":"b29dca30-1f99-4556-8d02-1cd94cfb8ea1","system_id":"levelo_inurba_marseille","lat":43.31683,"lon":5.36906,"is_reserved":false,"is_disabled":false,"rental_uris":{"android":"levelo://app?vid=b29dca30-1f99-4556-8d02-1cd94cfb8ea1","ios":"levelo://app?vid=b29dca30-1f99-4556-8d02-1cd94cfb8ea1"},"vehicle_type_id":"4","last_reported":1736622402,"current_range_meters":17600,"station_id":"","pricing_plan_id":"cebpf4jnsgd1na2vs0mg"},{"bike_id":"6b954aac-0bb4-4f19-ba7f-1c0ae994aecb","system_id":"levelo_inurba_marseille","lat":43.28119,"lon":5.3787,"is_reserved":false,"is_disabled":false,"rental_uris":{"android":"levelo://app?vid=6b954aac-0bb4-4f19-ba7f-1c0ae994aecb","ios":"levelo://app?vid=6b954aac-0bb4-4f19-ba7f-1c0ae994aecb"},"vehicle_type_id":"4","last_reported":1736622402,"current_range_meters":14800,"station_id":"ce4bha12rcd13ifvqee0","pricing_plan_id":"cebpf4jnsgd1na2vs0mg"},{"bike_id":"3729f538-7148-458e-bf57-af4b40fcbf2f","system_id":"levelo_inurba_marseille","lat":43.31538,"lon":5.38037,"is_reserved":false,"is_disabled":false,"rental_uris":{"android":"levelo://app?vid=3729f538-7148-458e-bf57-af4b40fcbf2f","ios":"levelo://app?vid=3729f538-7148-458e-bf57-af4b40fcbf2f"},"vehicle_type_id":"4","last_reported":1736622402,"current_range_meters":39200,"station_id":"ce4bhsp2rcd13ifvqi50","pricing_plan_id":"cebpf4jnsgd1na2vs0mg"},{"bike_id":"761a8de0-d6eb-433c-95a6-1808aa6c5e02","system_id":"levelo_inurba_marseille","lat":43.29254,"lon":5.38447,"is_reserved":false,"is_disabled":false,"rental_uris":{"android":"levelo://app?vid=761a8de0-d6eb-433c-95a6-1808aa6c5e02","ios":"levelo://app?vid=761a8de0-d6eb-433c-95a6-1808aa6c5e02"},"vehicle_type_id":"4","last_reported":1736622402,"current_range_meters":34800,"station_id":"ce4bh692rcd13ifvqea0","pricing_plan_id":"cebpf4jnsgd1na2vs0mg"},{"bike_id":"a1fb6a95-04bc-4479-9796-39e3694f4a56","system_id":"levelo_inurba_marseille","lat":43.29296,"lon":5.37162,"is_reserved":false,"is_disabled":false,"rental_uris":{"android":"levelo://app?vid=a1fb6a95-04bc-4479-9796-39e3694f4a56","ios":"levelo://app?vid=a1fb6a95-04bc-4479-9796-39e3694f4a56"},"vehicle_type_id":"4","last_reported":1736622402,"current_range_meters":38800,"station_id":"ce4bgh92rcd13ifvqb40","pricing_plan_id":"cebpf4jnsgd1na2vs0mg"},{"bike_id":"e17e8030-e1e0-48e9-8179-88c7c3f6f0b6","system_id":"levelo_inurba_marseille","lat":43.3229,"lon":5.38268,"is_reserved":false,"is_disabled":false,"rental_uris":{"android":"levelo://app?vid=e17e8030-e1e0-48e9-8179-88c7c3f6f0b6","ios":"levelo://app?vid=e17e8030-e1e0-48e9-8179-88c7c3f6f0b6"},"vehicle_type_id":"4","last_reported":1736622402,"current_range_meters":12400,"station_id":"ce4bhr12rcd13ifvqhqg","pricing_plan_id":"cebpf4jnsgd1na2vs0mg"},{"bike_id":"f4dbc556-58b0-4dfd-be99-18a51c032520","system_id":"levelo_inurba_marseille","lat":43.24166,"lon":5.39698,"is_reserved":false,"is_disabled":true,"rental_uris":{"android":"levelo://app?vid=f4dbc556-58b0-4dfd-be99-18a51c032520","ios":"levelo://app?vid=f4dbc556-58b0-4dfd-be99-18a51c032520"},"vehicle_type_id":"4","last_reported":1736622402,"current_range_meters":37600,"station_id":"ce4bhn12rcd13ifvqgpg","pricing_plan_id":"cebpf4jnsgd1na2vs0mg"},{"bike_id":"9c62e164-6cf9-4292-996f-7c2ed5673e8e","system_id":"levelo_inurba_marseille","lat":43.23965,"lon":5.3661,"is_reserved":false,"is_disabled":false,"rental_uris":{"android":"levelo://app?vid=9c62e164-6cf9-4292-996f-7c2ed5673e8e","ios":"levelo://app?vid=9c62e164-6cf9-4292-996f-7c2ed5673e8e"},"vehicle_type_id":"4","last_reported":1736622402,"current_range_meters":28800,"station_id":"ce4bhi12rcd13ifvqfp0","pricing_plan_id":"cebpf4jnsgd1na2vs0mg"},{"bike_id":"7fe94865-6280-4018-9df2-f872980e714b","system_id":"levelo_inurba_marseille","lat":43.29277,"lon":5.38439,"is_reserved":false,"is_disabled":false,"rental_uris":{"android":"levelo://app?vid=7fe94865-6280-4018-9df2-f872980e714b","ios":"levelo://app?vid=7fe94865-6280-4018-9df2-f872980e714b"},"vehicle_type_id":"4","last_reported":1736622402,"current_range_meters":10000,"station_id":"ce4bh692rcd13ifvqea0","pricing_plan_id":"cebpf4jnsgd1na2vs0mg"},{"bike_id":"c40e32f1-e45b-4314-a576-fffce4547384","system_id":"levelo_inurba_marseille","lat":43.31268,"lon":5.40165,"is_reserved":false,"is_disabled":true,"rental_uris":{"android":"levelo://app?vid=c40e32f1-e45b-4314-a576-fffce4547384","ios":"levelo://app?vid=c40e32f1-e45b-4314-a576-fffce4547384"},"vehicle_type_id":"4","last_reported":1736622402,"current_range_meters":0,"station_id":"ce4bh092rcd13ifvqd30","pricing_plan_id":"cebpf4jnsgd1na2vs0mg"},{"bike_id":"3330b161-84c7-4bdb-9915-84c83a5135fc","system_id":"levelo_inurba_marseille","lat":43.25017,"lon":5.38947,"is_reserved":false,"is_disabled":false,"rental_uris":{"android":"levelo://app?vid=3330b161-84c7-4bdb-9915-84c83a5135fc","ios":"levelo://app?vid=3330b161-84c7-4bdb-9915-84c83a5135fc"},"vehicle_type_id":"4","last_reported":1736622402,"current_range_meters":24000,"station_id":"ce4bhgp2rcd13ifvqfd0","pricing_plan_id":"cebpf4jnsgd1na2vs0mg"},{"bike_id":"4d2f8fd0-21ed-4425-9dc5-0ad45a59fb73","system_id":"levelo_inurba_marseille","lat":43.24669,"lon":5.38154,"is_reserved":false,"is_disabled":false,"rental_uris":{"android":"levelo://app?vid=4d2f8fd0-21ed-4425-9dc5-0ad45a59fb73","ios":"levelo://app?vid=4d2f8fd0-21ed-4425-9dc5-0ad45a59fb73"},"vehicle_type_id":"4","last_reported":1736622402,"current_range_meters":8800,"station_id":"ce4bhih2rcd13ifvqfr0","pricing_plan_id":"cebpf4jnsgd1na2vs0mg"},{"bike_id":"dff139cf-08bd-46c2-ad9d-82e646d1cde7","system_id":"levelo_inurba_marseille","lat":43.29079,"lon":5.3717,"is_reserved":false,"is_disabled":false,"rental_uris":{"android":"levelo://app?vid=dff139cf-08bd-46c2-ad9d-82e646d1cde7","ios":"levelo://app?vid=dff139cf-08bd-46c2-ad9d-82e646d1cde7"},"vehicle_type_id":"4","last_reported":1736622402,"current_range_meters":31200,"station_id":"ce4bh5p2rcd13ifvqe4g","pricing_plan_id":"cebpf4jnsgd1na2vs0mg"},{"bike_id":"80609ff8-7d7d-4ae2-9159-aea837c7c52b","system_id":"levelo_inurba_marseille","lat":43.23963,"lon":5.36628,"is_reserved":false,"is_disabled":false,"rental_uris":{"android":"levelo://app?vid=80609ff8-7d7d-4ae2-9159-aea837c7c52b","ios":"levelo://app?vid=80609ff8-7d7d-4ae2-9159-aea837c7c52b"},"vehicle_type_id":"4","last_reported":1736622402,"current_range_meters":9600,"station_id":"ce4bhi12rcd13ifvqfp0","pricing_plan_id":"cebpf4jnsgd1na2vs0mg"},{"bike_id":"4dce3ac7-2dca-4b1d-900e-e1bb360390a0","system_id":"levelo_inurba_marseille","lat":43.31352,"lon":5.36708,"is_reserved":false,"is_disabled":false,"rental_uris":{"android":"levelo://app?vid=4dce3ac7-2dca-4b1d-900e-e1bb360390a0","ios":"levelo://app?vid=4dce3ac7-2dca-4b1d-900e-e1bb360390a0"},"vehicle_type_id":"4","last_reported":1736622402,"current_range_meters":16400,"station_id":"ce4bgr92rcd13ifvqc6g","pricing_plan_id":"cebpf4jnsgd1na2vs0mg"},{"bike_id":"c2b657e0-67fb-4721-a4d6-0ebb2fa0fcbe","system_id":"levelo_inurba_marseille","lat":43.28623,"lon":5.35092,"is_reserved":false,"is_disabled":false,"rental_uris":{"android":"levelo://app?vid=c2b657e0-67fb-4721-a4d6-0ebb2fa0fcbe","ios":"levelo://app?vid=c2b657e0-67fb-4721-a4d6-0ebb2fa0fcbe"},"vehicle_type_id":"4","last_reported":1736622402,"current_range_meters":38800,"station_id":"ce4bhch2rcd13ifvqeug","pricing_plan_id":"cebpf4jnsgd1na2vs0mg"},{"bike_id":"ede110e2-d6d1-4df1-a22c-56141f38a63d","system_id":"levelo_inurba_marseille","lat":43.2926,"lon":5.40909,"is_reserved":false,"is_disabled":false,"rental_uris":{"android":"levelo://app?vid=ede110e2-d6d1-4df1-a22c-56141f38a63d","ios":"levelo://app?vid=ede110e2-d6d1-4df1-a22c-56141f38a63d"},"vehicle_type_id":"4","last_reported":1736622402,"current_range_meters":22800,"station_id":"ce4bh192rcd13ifvqdc0","pricing_plan_id":"cebpf4jnsgd1na2vs0mg"},{"bike_id":"3bf91848-c5d0-4524-ac3b-a43d812f5094","system_id":"levelo_inurba_marseille","lat":43.23067,"lon":5.35482,"is_reserved":false,"is_disabled":false,"rental_uris":{"android":"levelo://app?vid=3bf91848-c5d0-4524-ac3b-a43d812f5094","ios":"levelo://app?vid=3bf91848-c5d0-4524-ac3b-a43d812f5094"},"vehicle_type_id":"4","last_reported":1736622402,"current_range_meters":38800,"station_id":"cpo3342slgdg3j2ifvpg","pricing_plan_id":"cebpf4jnsgd1na2vs0mg"},{"bike_id":"baf74963-7d44-43cf-b2a2-efc3c98b4e82","system_id":"levelo_inurba_marseille","lat":43.27413,"lon":5.39404,"is_reserved":false,"is_disabled":false,"rental_uris":{"android":"levelo://app?vid=baf74963-7d44-43cf-b2a2-efc3c98b4e82","ios":"levelo://app?vid=baf74963-7d44-43cf-b2a2-efc3c98b4e82"},"vehicle_type_id":"4","last_reported":1736622402,"current_range_meters":38800,"station_id":"ce4bhdp2rcd13ifvqf20","pricing_plan_id":"cebpf4jnsgd1na2vs0mg"},{"bike_id":"23b937bc-faa6-4b07-807c-822251630e51","system_id":"levelo_inurba_marseille","lat":43.31157,"lon":5.38736,"is_reserved":false,"is_disabled":false,"rental_uris":{"android":"levelo://app?vid=23b937bc-faa6-4b07-807c-822251630e51","ios":"levelo://app?vid=23b937bc-faa6-4b07-807c-822251630e51"},"vehicle_type_id":"4","last_reported":1736622402,"current_range_meters":25200,"station_id":"ce4bgv12rcd13ifvqcp0","pricing_plan_id":"cebpf4jnsgd1na2vs0mg"},{"bike_id":"a77c7de9-6774-4d64-b631-3e81cf8f7432","system_id":"levelo_inurba_marseille","lat":43.29091,"lon":5.38149,"is_reserved":false,"is_disabled":false,"rental_uris":{"android":"levelo://app?vid=a77c7de9-6774-4d64-b631-3e81cf8f7432","ios":"levelo://app?vid=a77c7de9-6774-4d64-b631-3e81cf8f7432"},"vehicle_type_id":"4","last_reported":1736622402,"current_range_meters":24400,"station_id":"ce4bh512rcd13ifvqe2g","pricing_plan_id":"cebpf4jnsgd1na2vs0mg"},{"bike_id":"f38562e5-6fe7-4f2e-b291-cdbf5c41b76c","system_id":"levelo_inurba_marseille","lat":43.31223,"lon":5.36865,"is_reserved":false,"is_disabled":false,"rental_uris":{"android":"levelo://app?vid=f38562e5-6fe7-4f2e-b291-cdbf5c41b76c","ios":"levelo://app?vid=f38562e5-6fe7-4f2e-b291-cdbf5c41b76c"},"vehicle_type_id":"4","last_reported":1736622402,"current_range_meters":36800,"station_id":"ce4bgl92rcd13ifvqbq0","pricing_plan_id":"cebpf4jnsgd1na2vs0mg"},{"bike_id":"9e3e45cb-74c8-44ce-aa81-179009c6b5b8","system_id":"levelo_inurba_marseille","lat":43.28689,"lon":5.37389,"is_reserved":false,"is_disabled":false,"rental_uris":{"android":"levelo://app?vid=9e3e45cb-74c8-44ce-aa81-179009c6b5b8","ios":"levelo://app?vid=9e3e45cb-74c8-44ce-aa81-179009c6b5b8"},"vehicle_type_id":"4","last_reported":1736622402,"current_range_meters":24400,"station_id":"ce4bh3p2rcd13ifvqdq0","pricing_plan_id":"cebpf4jnsgd1na2vs0mg"},{"bike_id":"b7e2f4aa-3f2d-4412-937a-c1402990155a","system_id":"levelo_inurba_marseille","lat":43.30595,"lon":5.36699,"is_reserved":false,"is_disabled":false,"rental_uris":{"android":"levelo://app?vid=b7e2f4aa-3f2d-4412-937a-c1402990155a","ios":"levelo://app?vid=b7e2f4aa-3f2d-4412-937a-c1402990155a"},"vehicle_type_id":"4","last_reported":1736622402,"current_range_meters":38400,"station_id":"","pricing_plan_id":"cebpf4jnsgd1na2vs0mg"},{"bike_id":"aa42e0da-561c-445f-91dd-78b2e3705274","system_id":"levelo_inurba_marseille","lat":43.30936,"lon":5.40155,"is_reserved":false,"is_disabled":false,"rental_uris":{"android":"levelo://app?vid=aa42e0da-561c-445f-91dd-78b2e3705274","ios":"levelo://app?vid=aa42e0da-561c-445f-91dd-78b2e3705274"},"vehicle_type_id":"4","last_reported":1736622402,"current_range_meters":18000,"station_id":"ce4bgvp2rcd13ifvqct0","pricing_plan_id":"cebpf4jnsgd1na2vs0mg"},{"bike_id":"4d9f939a-35c5-4924-926b-9c69e60a6ae6","system_id":"levelo_inurba_marseille","lat":43.27834,"lon":5.39204,"is_reserved":false,"is_disabled":false,"rental_uris":{"android":"levelo://app?vid=4d9f939a-35c5-4924-926b-9c69e60a6ae6","ios":"levelo://app?vid=4d9f939a-35c5-4924-926b-9c69e60a6ae6"},"vehicle_type_id":"4","last_reported":1736622402,"current_range_meters":16400,"station_id":"ce4bhjp2rcd13ifvqga0","pricing_plan_id":"cebpf4jnsgd1na2vs0mg"},{"bike_id":"066fc890-cce1-4b7e-a941-320c51e991c9","system_id":"levelo_inurba_marseille","lat":43.23965,"lon":5.3662,"is_reserved":false,"is_disabled":false,"rental_uris":{"android":"levelo://app?vid=066fc890-cce1-4b7e-a941-320c51e991c9","ios":"levelo://app?vid=066fc890-cce1-4b7e-a941-320c51e991c9"},"vehicle_type_id":"4","last_reported":1736622402,"current_range_meters":20800,"station_id":"ce4bhi12rcd13ifvqfp0","pricing_plan_id":"cebpf4jnsgd1na2vs0mg"},{"bike_id":"75911712-e1fe-4582-8d3c-3a9f41d95fcc","system_id":"levelo_inurba_marseille","lat":43.27373,"lon":5.36251,"is_reserved":false,"is_disabled":false,"rental_uris":{"android":"levelo://app?vid=75911712-e1fe-4582-8d3c-3a9f41d95fcc","ios":"levelo://app?vid=75911712-e1fe-4582-8d3c-3a9f41d95fcc"},"vehicle_type_id":"4","last_reported":1736622402,"current_range_meters":16000,"station_id":"ce4bhbh2rcd13ifvqeo0","pricing_plan_id":"cebpf4jnsgd1na2vs0mg"},{"bike_id":"ca748e13-c89c-4b15-b000-93e5ef73481b","system_id":"levelo_inurba_marseille","lat":43.29295,"lon":5.37453,"is_reserved":false,"is_disabled":false,"rental_uris":{"android":"levelo://app?vid=ca748e13-c89c-4b15-b000-93e5ef73481b","ios":"levelo://app?vid=ca748e13-c89c-4b15-b000-93e5ef73481b"},"vehicle_type_id":"4","last_reported":1736622402,"current_range_meters":28400,"station_id":"ce4bgi12rcd13ifvqb70","pricing_plan_id":"cebpf4jnsgd1na2vs0mg"},{"bike_id":"f2fb027d-4b67-4e75-872d-0435d4ef7c06","system_id":"levelo_inurba_marseille","lat":43.30954,"lon":5.39045,"is_reserved":false,"is_disabled":false,"rental_uris":{"android":"levelo://app?vid=f2fb027d-4b67-4e75-872d-0435d4ef7c06","ios":"levelo://app?vid=f2fb027d-4b67-4e75-872d-0435d4ef7c06"},"vehicle_type_id":"4","last_reported":1736622402,"current_range_meters":2800,"station_id":"ce4bgup2rcd13ifvqco0","pricing_plan_id":"cebpf4jnsgd1na2vs0mg"},{"bike_id":"c4a9f4d8-3097-4c73-b16c-f476d0136944","system_id":"levelo_inurba_marseille","lat":43.25005,"lon":5.38935,"is_reserved":false,"is_disabled":false,"rental_uris":{"android":"levelo://app?vid=c4a9f4d8-3097-4c73-b16c-f476d0136944","ios":"levelo://app?vid=c4a9f4d8-3097-4c73-b16c-f476d0136944"},"vehicle_type_id":"4","last_reported":1736622402,"current_range_meters":21600,"station_id":"ce4bhgp2rcd13ifvqfd0","pricing_plan_id":"cebpf4jnsgd1na2vs0mg"},{"bike_id":"fd395c75-2eaf-4b9f-a85a-8af24558dbf6","system_id":"levelo_inurba_marseille","lat":43.28364,"lon":5.38632,"is_reserved":false,"is_disabled":true,"rental_uris":{"android":"levelo://app?vid=fd395c75-2eaf-4b9f-a85a-8af24558dbf6","ios":"levelo://app?vid=fd395c75-2eaf-4b9f-a85a-8af24558dbf6"},"vehicle_type_id":"4","last_reported":1736622402,"current_range_meters":0,"station_id":"ce4bh492rcd13ifvqdvg","pricing_plan_id":"cebpf4jnsgd1na2vs0mg"},{"bike_id":"54a3f591-d039-4614-bfe0-35b7e0054969","system_id":"levelo_inurba_marseille","lat":43.24664,"lon":5.38147,"is_reserved":false,"is_disabled":false,"rental_uris":{"android":"levelo://app?vid=54a3f591-d039-4614-bfe0-35b7e0054969","ios":"levelo://app?vid=54a3f591-d039-4614-bfe0-35b7e0054969"},"vehicle_type_id":"4","last_reported":1736622402,"current_range_meters":38800,"station_id":"ce4bhih2rcd13ifvqfr0","pricing_plan_id":"cebpf4jnsgd1na2vs0mg"},{"bike_id":"975b1f0f-a507-41b7-999b-38fd1f4a6a82","system_id":"levelo_inurba_marseille","lat":43.28679,"lon":5.38654,"is_reserved":false,"is_disabled":false,"rental_uris":{"android":"levelo://app?vid=975b1f0f-a507-41b7-999b-38fd1f4a6a82","ios":"levelo://app?vid=975b1f0f-a507-41b7-999b-38fd1f4a6a82"},"vehicle_type_id":"4","last_reported":1736622402,"current_range_meters":27200,"station_id":"ce4bh492rcd13ifvqdug","pricing_plan_id":"cebpf4jnsgd1na2vs0mg"},{"bike_id":"d94a648b-aa37-4bfd-90a8-e3f159492cba","system_id":"levelo_inurba_marseille","lat":43.29042,"lon":5.35918,"is_reserved":false,"is_disabled":false,"rental_uris":{"android":"levelo://app?vid=d94a648b-aa37-4bfd-90a8-e3f159492cba","ios":"levelo://app?vid=d94a648b-aa37-4bfd-90a8-e3f159492cba"},"vehicle_type_id":"4","last_reported":1736622402,"current_range_meters":34800,"station_id":"ce4bha92rcd13ifvqeg0","pricing_plan_id":"cebpf4jnsgd1na2vs0mg"},{"bike_id":"dc388f0e-5ba4-4401-b2b7-3e59da087469","system_id":"levelo_inurba_marseille","lat":43.28604,"lon":5.35094,"is_reserved":false,"is_disabled":false,"rental_uris":{"android":"levelo://app?vid=dc388f0e-5ba4-4401-b2b7-3e59da087469","ios":"levelo://app?vid=dc388f0e-5ba4-4401-b2b7-3e59da087469"},"vehicle_type_id":"4","last_reported":1736622402,"current_range_meters":22000,"station_id":"ce4bhch2rcd13ifvqeug","pricing_plan_id":"cebpf4jnsgd1na2vs0mg"},{"bike_id":"04f27c7a-b631-4d7f-b234-9e1358337d47","system_id":"levelo_inurba_marseille","lat":43.29988,"lon":5.38466,"is_reserved":false,"is_disabled":false,"rental_uris":{"android":"levelo://app?vid=04f27c7a-b631-4d7f-b234-9e1358337d47","ios":"levelo://app?vid=04f27c7a-b631-4d7f-b234-9e1358337d47"},"vehicle_type_id":"4","last_reported":1736622402,"current_range_meters":31200,"station_id":"ce4bgj92rcd13ifvqbd0","pricing_plan_id":"cebpf4jnsgd1na2vs0mg"},{"bike_id":"80d8dc24-3efc-4416-8d3b-017e44669f8e","system_id":"levelo_inurba_marseille","lat":43.2466,"lon":5.38164,"is_reserved":false,"is_disabled":false,"rental_uris":{"android":"levelo://app?vid=80d8dc24-3efc-4416-8d3b-017e44669f8e","ios":"levelo://app?vid=80d8dc24-3efc-4416-8d3b-017e44669f8e"},"vehicle_type_id":"4","last_reported":1736622402,"current_range_meters":12000,"station_id":"ce4bhih2rcd13ifvqfr0","pricing_plan_id":"cebpf4jnsgd1na2vs0mg"},{"bike_id":"eabf8fa3-7034-47ca-ac29-c6c3f424c9ec","system_id":"levelo_inurba_marseille","lat":43.3234,"lon":5.4063,"is_reserved":false,"is_disabled":false,"rental_uris":{"android":"levelo://app?vid=eabf8fa3-7034-47ca-ac29-c6c3f424c9ec","ios":"levelo://app?vid=eabf8fa3-7034-47ca-ac29-c6c3f424c9ec"},"vehicle_type_id":"4","last_reported":1736622402,"current_range_meters":38800,"station_id":"ce4bhq92rcd13ifvqhjg","pricing_plan_id":"cebpf4jnsgd1na2vs0mg"},{"bike_id":"194a3217-7226-4d0d-805e-ddf9685aeb44","system_id":"levelo_inurba_marseille","lat":43.29027,"lon":5.3865,"is_reserved":false,"is_disabled":false,"rental_uris":{"android":"levelo://app?vid=194a3217-7226-4d0d-805e-ddf9685aeb44","ios":"levelo://app?vid=194a3217-7226-4d0d-805e-ddf9685aeb44"},"vehicle_type_id":"4","last_reported":1736622402,"current_range_meters":38800,"station_id":"ce4bh4p2rcd13ifvqe0g","pricing_plan_id":"cebpf4jnsgd1na2vs0mg"},{"bike_id":"0c5d1f6a-1051-4884-a717-31dd41a15d9f","system_id":"levelo_inurba_marseille","lat":43.2978,"lon":5.38102,"is_reserved":false,"is_disabled":false,"rental_uris":{"android":"levelo://app?vid=0c5d1f6a-1051-4884-a717-31dd41a15d9f","ios":"levelo://app?vid=0c5d1f6a-1051-4884-a717-31dd41a15d9f"},"vehicle_type_id":"4","last_reported":1736622402,"current_range_meters":35200,"station_id":"ce4bgip2rcd13ifvqbb0","pricing_plan_id":"cebpf4jnsgd1na2vs0mg"},{"bike_id":"5b037463-e776-4f8a-b002-41b2aa90a2b6","system_id":"levelo_inurba_marseille","lat":43.23058,"lon":5.35488,"is_reserved":false,"is_disabled":false,"rental_uris":{"android":"levelo://app?vid=5b037463-e776-4f8a-b002-41b2aa90a2b6","ios":"levelo://app?vid=5b037463-e776-4f8a-b002-41b2aa90a2b6"},"vehicle_type_id":"4","last_reported":1736622402,"current_range_meters":38800,"station_id":"cpo3342slgdg3j2ifvpg","pricing_plan_id":"cebpf4jnsgd1na2vs0mg"},{"bike_id":"6c0e15ae-b224-4267-b2d0-c4dbda751799","system_id":"levelo_inurba_marseille","lat":43.29895,"lon":5.38929,"is_reserved":false,"is_disabled":false,"rental_uris":{"android":"levelo://app?vid=6c0e15ae-b224-4267-b2d0-c4dbda751799","ios":"levelo://app?vid=6c0e15ae-b224-4267-b2d0-c4dbda751799"},"vehicle_type_id":"4","last_reported":1736622402,"current_range_meters":8000,"station_id":"ce4bh392rcd13ifvqdl0","pricing_plan_id":"cebpf4jnsgd1na2vs0mg"},{"bike_id":"58ba27ab-c124-4665-ba9c-8ac9098850f3","system_id":"levelo_inurba_marseille","lat":43.26561,"lon":5.37297,"is_reserved":false,"is_disabled":false,"rental_uris":{"android":"levelo://app?vid=58ba27ab-c124-4665-ba9c-8ac9098850f3","ios":"levelo://app?vid=58ba27ab-c124-4665-ba9c-8ac9098850f3"},"vehicle_type_id":"4","last_reported":1736622402,"current_range_meters":38800,"station_id":"ce4bhg12rcd13ifvqf70","pricing_plan_id":"cebpf4jnsgd1na2vs0mg"},{"bike_id":"c1d2c66a-a65c-47f5-888f-7804f1f97a4e","system_id":"levelo_inurba_marseille","lat":43.2904,"lon":5.37572,"is_reserved":false,"is_disabled":false,"rental_uris":{"android":"levelo://app?vid=c1d2c66a-a65c-47f5-888f-7804f1f97a4e","ios":"levelo://app?vid=c1d2c66a-a65c-47f5-888f-7804f1f97a4e"},"vehicle_type_id":"4","last_reported":1736622402,"current_range_meters":36400,"station_id":"ce4bh692rcd13ifvqe90","pricing_plan_id":"cebpf4jnsgd1na2vs0mg"},{"bike_id":"c1c51f67-6348-4482-a3d4-31704cefaf37","system_id":"levelo_inurba_marseille","lat":43.28617,"lon":5.35107,"is_reserved":false,"is_disabled":false,"rental_uris":{"android":"levelo://app?vid=c1c51f67-6348-4482-a3d4-31704cefaf37","ios":"levelo://app?vid=c1c51f67-6348-4482-a3d4-31704cefaf37"},"vehicle_type_id":"4","last_reported":1736622402,"current_range_meters":9600,"station_id":"ce4bhch2rcd13ifvqeug","pricing_plan_id":"cebpf4jnsgd1na2vs0mg"},{"bike_id":"4a9587a4-9494-4dc4-942f-938536e77d82","system_id":"levelo_inurba_marseille","lat":43.317615,"lon":5.39017,"is_reserved":false,"is_disabled":false,"rental_uris":{"android":"levelo://app?vid=4a9587a4-9494-4dc4-942f-938536e77d82","ios":"levelo://app?vid=4a9587a4-9494-4dc4-942f-938536e77d82"},"vehicle_type_id":"4","last_reported":1736622402,"current_range_meters":38800,"station_id":"ce4bhqp2rcd13ifvqhng","pricing_plan_id":"cebpf4jnsgd1na2vs0mg"},{"bike_id":"ce2ae175-7561-4239-983e-d207a8930e0a","system_id":"levelo_inurba_marseille","lat":43.29234,"lon":5.36059,"is_reserved":false,"is_disabled":false,"rental_uris":{"android":"levelo://app?vid=ce2ae175-7561-4239-983e-d207a8930e0a","ios":"levelo://app?vid=ce2ae175-7561-4239-983e-d207a8930e0a"},"vehicle_type_id":"4","last_reported":1736622402,"current_range_meters":30400,"station_id":"ce4bhbh2rcd13ifvqeqg","pricing_plan_id":"cebpf4jnsgd1na2vs0mg"},{"bike_id":"4ad84d40-39b2-4e71-b97f-73ebabdfc3ec","system_id":"levelo_inurba_marseille","lat":43.29554,"lon":5.40011,"is_reserved":false,"is_disabled":false,"rental_uris":{"android":"levelo://app?vid=4ad84d40-39b2-4e71-b97f-73ebabdfc3ec","ios":"levelo://app?vid=4ad84d40-39b2-4e71-b97f-73ebabdfc3ec"},"vehicle_type_id":"4","last_reported":1736622402,"current_range_meters":38000,"station_id":"ce4bh312rcd13ifvqdj0","pricing_plan_id":"cebpf4jnsgd1na2vs0mg"},{"bike_id":"7e9a745e-c82d-4677-a3f0-c081269f42e9","system_id":"levelo_inurba_marseille","lat":43.29,"lon":5.35575,"is_reserved":false,"is_disabled":false,"rental_uris":{"android":"levelo://app?vid=7e9a745e-c82d-4677-a3f0-c081269f42e9","ios":"levelo://app?vid=7e9a745e-c82d-4677-a3f0-c081269f42e9"},"vehicle_type_id":"4","last_reported":1736622402,"current_range_meters":26000,"station_id":"ce4bhb92rcd13ifvqen0","pricing_plan_id":"cebpf4jnsgd1na2vs0mg"},{"bike_id":"1a93e2db-cfef-44c3-88cb-cf63f25e1865","system_id":"levelo_inurba_marseille","lat":43.24388,"lon":5.37057,"is_reserved":false,"is_disabled":false,"rental_uris":{"android":"levelo://app?vid=1a93e2db-cfef-44c3-88cb-cf63f25e1865","ios":"levelo://app?vid=1a93e2db-cfef-44c3-88cb-cf63f25e1865"},"vehicle_type_id":"4","last_reported":1736622402,"current_range_meters":32000,"station_id":"ce4bhhh2rcd13ifvqfk0","pricing_plan_id":"cebpf4jnsgd1na2vs0mg"},{"bike_id":"3db15e78-0259-4d3a-9775-04349b1aed30","system_id":"levelo_inurba_marseille","lat":43.30536,"lon":5.36523,"is_reserved":false,"is_disabled":true,"rental_uris":{"android":"levelo://app?vid=3db15e78-0259-4d3a-9775-04349b1aed30","ios":"levelo://app?vid=3db15e78-0259-4d3a-9775-04349b1aed30"},"vehicle_type_id":"4","last_reported":1736622402,"current_range_meters":29600,"station_id":"ce4bgs12rcd13ifvqcag","pricing_plan_id":"cebpf4jnsgd1na2vs0mg"},{"bike_id":"a754abf4-87cb-4915-a97f-0b4d0e8971f5","system_id":"levelo_inurba_marseille","lat":43.286225,"lon":5.351022,"is_reserved":false,"is_disabled":false,"rental_uris":{"android":"levelo://app?vid=a754abf4-87cb-4915-a97f-0b4d0e8971f5","ios":"levelo://app?vid=a754abf4-87cb-4915-a97f-0b4d0e8971f5"},"vehicle_type_id":"4","last_reported":1736622402,"current_range_meters":38800,"station_id":"ce4bhch2rcd13ifvqeug","pricing_plan_id":"cebpf4jnsgd1na2vs0mg"},{"bike_id":"08dd6bf0-eb91-4db1-910f-9e6a7e053032","system_id":"levelo_inurba_marseille","lat":43.30354,"lon":5.41882,"is_reserved":false,"is_disabled":true,"rental_uris":{"android":"levelo://app?vid=08dd6bf0-eb91-4db1-910f-9e6a7e053032","ios":"levelo://app?vid=08dd6bf0-eb91-4db1-910f-9e6a7e053032"},"vehicle_type_id":"4","last_reported":1736622402,"current_range_meters":28400,"station_id":"ce4bhop2rcd13ifvqh7g","pricing_plan_id":"cebpf4jnsgd1na2vs0mg"},{"bike_id":"5af0a39a-e4ee-41f7-90dc-05775b5e1b6d","system_id":"levelo_inurba_marseille","lat":43.3119,"lon":5.37214,"is_reserved":false,"is_disabled":false,"rental_uris":{"android":"levelo://app?vid=5af0a39a-e4ee-41f7-90dc-05775b5e1b6d","ios":"levelo://app?vid=5af0a39a-e4ee-41f7-90dc-05775b5e1b6d"},"vehicle_type_id":"4","last_reported":1736622402,"current_range_meters":25600,"station_id":"ce4bhrh2rcd13ifvqhug","pricing_plan_id":"cebpf4jnsgd1na2vs0mg"},{"bike_id":"78fc2529-851e-44ea-9e17-e5a76c9197b1","system_id":"levelo_inurba_marseille","lat":43.29729,"lon":5.37706,"is_reserved":false,"is_disabled":true,"rental_uris":{"android":"levelo://app?vid=78fc2529-851e-44ea-9e17-e5a76c9197b1","ios":"levelo://app?vid=78fc2529-851e-44ea-9e17-e5a76c9197b1"},"vehicle_type_id":"4","last_reported":1736622402,"current_range_meters":36800,"station_id":"ce4bgkh2rcd13ifvqbl0","pricing_plan_id":"cebpf4jnsgd1na2vs0mg"},{"bike_id":"6e0b7390-3f03-4896-850a-30b735b3a5fe","system_id":"levelo_inurba_marseille","lat":43.25497,"lon":5.37634,"is_reserved":false,"is_disabled":false,"rental_uris":{"android":"levelo://app?vid=6e0b7390-3f03-4896-850a-30b735b3a5fe","ios":"levelo://app?vid=6e0b7390-3f03-4896-850a-30b735b3a5fe"},"vehicle_type_id":"4","last_reported":1736622402,"current_range_meters":19600,"station_id":"ce4bhh12rcd13ifvqff0","pricing_plan_id":"cebpf4jnsgd1na2vs0mg"},{"bike_id":"14e4cf37-2f91-4583-bba0-df6827fa9242","system_id":"levelo_inurba_marseille","lat":43.30548,"lon":5.36687,"is_reserved":false,"is_disabled":false,"rental_uris":{"android":"levelo://app?vid=14e4cf37-2f91-4583-bba0-df6827fa9242","ios":"levelo://app?vid=14e4cf37-2f91-4583-bba0-df6827fa9242"},"vehicle_type_id":"4","last_reported":1736622402,"current_range_meters":33600,"station_id":"ce4bgrp2rcd13ifvqc9g","pricing_plan_id":"cebpf4jnsgd1na2vs0mg"},{"bike_id":"4ab8d84c-bcd6-4742-9f7d-3c739fc11a28","system_id":"levelo_inurba_marseille","lat":43.26428,"lon":5.39513,"is_reserved":false,"is_disabled":false,"rental_uris":{"android":"levelo://app?vid=4ab8d84c-bcd6-4742-9f7d-3c739fc11a28","ios":"levelo://app?vid=4ab8d84c-bcd6-4742-9f7d-3c739fc11a28"},"vehicle_type_id":"4","last_reported":1736622402,"current_range_meters":38800,"station_id":"","pricing_plan_id":"cebpf4jnsgd1na2vs0mg"},{"bike_id":"36326e7e-e844-4f12-9978-fc338533475f","system_id":"levelo_inurba_marseille","lat":43.28623,"lon":5.35106,"is_reserved":false,"is_disabled":false,"rental_uris":{"android":"levelo://app?vid=36326e7e-e844-4f12-9978-fc338533475f","ios":"levelo://app?vid=36326e7e-e844-4f12-9978-fc338533475f"},"vehicle_type_id":"4","last_reported":1736622402,"current_range_meters":31200,"station_id":"ce4bhch2rcd13ifvqeug","pricing_plan_id":"cebpf4jnsgd1na2vs0mg"},{"bike_id":"a55ab005-e2a1-477e-8260-948bea9beb32","system_id":"levelo_inurba_marseille","lat":43.27619,"lon":5.36093,"is_reserved":false,"is_disabled":false,"rental_uris":{"android":"levelo://app?vid=a55ab005-e2a1-477e-8260-948bea9beb32","ios":"levelo://app?vid=a55ab005-e2a1-477e-8260-948bea9beb32"},"vehicle_type_id":"4","last_reported":1736622402,"current_range_meters":38800,"station_id":"ce4bgj92rcd13ifvqbe0","pricing_plan_id":"cebpf4jnsgd1na2vs0mg"},{"bike_id":"ddb26e6d-71f7-42b8-bd32-1ee91f073019","system_id":"levelo_inurba_marseille","lat":43.24647,"lon":5.38906,"is_reserved":false,"is_disabled":false,"rental_uris":{"android":"levelo://app?vid=ddb26e6d-71f7-42b8-bd32-1ee91f073019","ios":"levelo://app?vid=ddb26e6d-71f7-42b8-bd32-1ee91f073019"},"vehicle_type_id":"4","last_reported":1736622402,"current_range_meters":28400,"station_id":"ce4bhg12rcd13ifvqf60","pricing_plan_id":"cebpf4jnsgd1na2vs0mg"},{"bike_id":"f34fc04b-b351-4ac8-a47c-a2006c27444b","system_id":"levelo_inurba_marseille","lat":43.31532,"lon":5.38026,"is_reserved":false,"is_disabled":true,"rental_uris":{"android":"levelo://app?vid=f34fc04b-b351-4ac8-a47c-a2006c27444b","ios":"levelo://app?vid=f34fc04b-b351-4ac8-a47c-a2006c27444b"},"vehicle_type_id":"4","last_reported":1736622402,"current_range_meters":37600,"station_id":"ce4bhsp2rcd13ifvqi50","pricing_plan_id":"cebpf4jnsgd1na2vs0mg"},{"bike_id":"7d0c47b6-dd7c-49e1-8aa9-85e41b743530","system_id":"levelo_inurba_marseille","lat":43.30933,"lon":5.40142,"is_reserved":false,"is_disabled":false,"rental_uris":{"android":"levelo://app?vid=7d0c47b6-dd7c-49e1-8aa9-85e41b743530","ios":"levelo://app?vid=7d0c47b6-dd7c-49e1-8aa9-85e41b743530"},"vehicle_type_id":"4","last_reported":1736622402,"current_range_meters":38800,"station_id":"ce4bgvp2rcd13ifvqct0","pricing_plan_id":"cebpf4jnsgd1na2vs0mg"},{"bike_id":"232ddff0-5c6a-4864-86e0-a2647961131d","system_id":"levelo_inurba_marseille","lat":43.294208,"lon":5.386158,"is_reserved":false,"is_disabled":false,"rental_uris":{"android":"levelo://app?vid=232ddff0-5c6a-4864-86e0-a2647961131d","ios":"levelo://app?vid=232ddff0-5c6a-4864-86e0-a2647961131d"},"vehicle_type_id":"4","last_reported":1736622402,"current_range_meters":30800,"station_id":"ce4bh2h2rcd13ifvqdh0","pricing_plan_id":"cebpf4jnsgd1na2vs0mg"},{"bike_id":"e2f3c546-7bc9-487d-9bf9-874647abcbcd","system_id":"levelo_inurba_marseille","lat":43.27616,"lon":5.36105,"is_reserved":false,"is_disabled":false,"rental_uris":{"android":"levelo://app?vid=e2f3c546-7bc9-487d-9bf9-874647abcbcd","ios":"levelo://app?vid=e2f3c546-7bc9-487d-9bf9-874647abcbcd"},"vehicle_type_id":"4","last_reported":1736622402,"current_range_meters":38800,"station_id":"ce4bgj92rcd13ifvqbe0","pricing_plan_id":"cebpf4jnsgd1na2vs0mg"},{"bike_id":"13ceb070-34c3-446f-a305-c6bb4a3ed14e","system_id":"levelo_inurba_marseille","lat":43.26683,"lon":5.38266,"is_reserved":false,"is_disabled":false,"rental_uris":{"android":"levelo://app?vid=13ceb070-34c3-446f-a305-c6bb4a3ed14e","ios":"levelo://app?vid=13ceb070-34c3-446f-a305-c6bb4a3ed14e"},"vehicle_type_id":"4","last_reported":1736622402,"current_range_meters":39200,"station_id":"ce4bhg92rcd13ifvqf90","pricing_plan_id":"cebpf4jnsgd1na2vs0mg"},{"bike_id":"d04cd2d1-575e-479a-80df-de9a65c1551d","system_id":"levelo_inurba_marseille","lat":43.27366,"lon":5.36244,"is_reserved":false,"is_disabled":false,"rental_uris":{"android":"levelo://app?vid=d04cd2d1-575e-479a-80df-de9a65c1551d","ios":"levelo://app?vid=d04cd2d1-575e-479a-80df-de9a65c1551d"},"vehicle_type_id":"4","last_reported":1736622402,"current_range_meters":32000,"station_id":"ce4bhbh2rcd13ifvqeo0","pricing_plan_id":"cebpf4jnsgd1na2vs0mg"},{"bike_id":"9d19643c-d149-49be-bc25-949474e6e069","system_id":"levelo_inurba_marseille","lat":43.290196,"lon":5.381096,"is_reserved":false,"is_disabled":true,"rental_uris":{"android":"levelo://app?vid=9d19643c-d149-49be-bc25-949474e6e069","ios":"levelo://app?vid=9d19643c-d149-49be-bc25-949474e6e069"},"vehicle_type_id":"4","last_reported":1736622402,"current_range_meters":38000,"station_id":"ce4bh4p2rcd13ifvqe1g","pricing_plan_id":"cebpf4jnsgd1na2vs0mg"},{"bike_id":"a7737a7a-6e8d-41c6-b296-81830e1c9581","system_id":"levelo_inurba_marseille","lat":43.28033,"lon":5.36939,"is_reserved":false,"is_disabled":false,"rental_uris":{"android":"levelo://app?vid=a7737a7a-6e8d-41c6-b296-81830e1c9581","ios":"levelo://app?vid=a7737a7a-6e8d-41c6-b296-81830e1c9581"},"vehicle_type_id":"4","last_reported":1736622402,"current_range_meters":19600,"station_id":"ce4bha12rcd13ifvqef0","pricing_plan_id":"cebpf4jnsgd1na2vs0mg"},{"bike_id":"7190806d-6efc-4d5f-adc8-8e7c04344e9c","system_id":"levelo_inurba_marseille","lat":43.30534,"lon":5.36503,"is_reserved":false,"is_disabled":true,"rental_uris":{"android":"levelo://app?vid=7190806d-6efc-4d5f-adc8-8e7c04344e9c","ios":"levelo://app?vid=7190806d-6efc-4d5f-adc8-8e7c04344e9c"},"vehicle_type_id":"4","last_reported":1736622402,"current_range_meters":1200,"station_id":"ce4bgs12rcd13ifvqcag","pricing_plan_id":"cebpf4jnsgd1na2vs0mg"},{"bike_id":"717c9b7d-e3d6-441e-a2b5-35caee37f8e8","system_id":"levelo_inurba_marseille","lat":43.28624,"lon":5.35102,"is_reserved":false,"is_disabled":false,"rental_uris":{"android":"levelo://app?vid=717c9b7d-e3d6-441e-a2b5-35caee37f8e8","ios":"levelo://app?vid=717c9b7d-e3d6-441e-a2b5-35caee37f8e8"},"vehicle_type_id":"4","last_reported":1736622402,"current_range_meters":6400,"station_id":"ce4bhch2rcd13ifvqeug","pricing_plan_id":"cebpf4jnsgd1na2vs0mg"},{"bike_id":"a66ed9f8-da03-4a0d-a6ac-a956dec5aa10","system_id":"levelo_inurba_marseille","lat":43.27616,"lon":5.36106,"is_reserved":false,"is_disabled":false,"rental_uris":{"android":"levelo://app?vid=a66ed9f8-da03-4a0d-a6ac-a956dec5aa10","ios":"levelo://app?vid=a66ed9f8-da03-4a0d-a6ac-a956dec5aa10"},"vehicle_type_id":"4","last_reported":1736622402,"current_range_meters":38800,"station_id":"ce4bgj92rcd13ifvqbe0","pricing_plan_id":"cebpf4jnsgd1na2vs0mg"},{"bike_id":"1ff4d6af-d168-4206-80a1-8f85ab0c0a00","system_id":"levelo_inurba_marseille","lat":43.25852,"lon":5.39898,"is_reserved":false,"is_disabled":true,"rental_uris":{"android":"levelo://app?vid=1ff4d6af-d168-4206-80a1-8f85ab0c0a00","ios":"levelo://app?vid=1ff4d6af-d168-4206-80a1-8f85ab0c0a00"},"vehicle_type_id":"4","last_reported":1736622402,"current_range_meters":16800,"station_id":"ce4bhl92rcd13ifvqghg","pricing_plan_id":"cebpf4jnsgd1na2vs0mg"},{"bike_id":"341384e5-d819-48c3-bf20-1143f8d8bf6b","system_id":"levelo_inurba_marseille","lat":43.2403,"lon":5.37668,"is_reserved":false,"is_disabled":false,"rental_uris":{"android":"levelo://app?vid=341384e5-d819-48c3-bf20-1143f8d8bf6b","ios":"levelo://app?vid=341384e5-d819-48c3-bf20-1143f8d8bf6b"},"vehicle_type_id":"4","last_reported":1736622402,"current_range_meters":38000,"station_id":"ce4bhnp2rcd13ifvqgvg","pricing_plan_id":"cebpf4jnsgd1na2vs0mg"},{"bike_id":"ad049bd8-c073-4c91-ad72-3c0d721b58f1","system_id":"levelo_inurba_marseille","lat":43.2795,"lon":5.39597,"is_reserved":false,"is_disabled":false,"rental_uris":{"android":"levelo://app?vid=ad049bd8-c073-4c91-ad72-3c0d721b58f1","ios":"levelo://app?vid=ad049bd8-c073-4c91-ad72-3c0d721b58f1"},"vehicle_type_id":"4","last_reported":1736622402,"current_range_meters":24800,"station_id":"ce4bhf92rcd13ifvqf40","pricing_plan_id":"cebpf4jnsgd1na2vs0mg"},{"bike_id":"86abeea7-c434-4e10-8df8-12c24097eeb0","system_id":"levelo_inurba_marseille","lat":43.3042,"lon":5.39752,"is_reserved":false,"is_disabled":true,"rental_uris":{"android":"levelo://app?vid=86abeea7-c434-4e10-8df8-12c24097eeb0","ios":"levelo://app?vid=86abeea7-c434-4e10-8df8-12c24097eeb0"},"vehicle_type_id":"4","last_reported":1736622402,"current_range_meters":27600,"station_id":"ce4bh092rcd13ifvqd20","pricing_plan_id":"cebpf4jnsgd1na2vs0mg"},{"bike_id":"5ae99943-0957-4b7a-a8c7-4f186661e292","system_id":"levelo_inurba_marseille","lat":43.30654,"lon":5.40068,"is_reserved":false,"is_disabled":false,"rental_uris":{"android":"levelo://app?vid=5ae99943-0957-4b7a-a8c7-4f186661e292","ios":"levelo://app?vid=5ae99943-0957-4b7a-a8c7-4f186661e292"},"vehicle_type_id":"4","last_reported":1736622402,"current_range_meters":30800,"station_id":"ce4bh112rcd13ifvqda0","pricing_plan_id":"cebpf4jnsgd1na2vs0mg"},{"bike_id":"c72bfc00-b8bb-4330-820c-edf0d16ec086","system_id":"levelo_inurba_marseille","lat":43.289205,"lon":5.384026,"is_reserved":false,"is_disabled":false,"rental_uris":{"android":"levelo://app?vid=c72bfc00-b8bb-4330-820c-edf0d16ec086","ios":"levelo://app?vid=c72bfc00-b8bb-4330-820c-edf0d16ec086"},"vehicle_type_id":"4","last_reported":1736622402,"current_range_meters":36000,"station_id":"","pricing_plan_id":"cebpf4jnsgd1na2vs0mg"},{"bike_id":"55b4859a-95e9-4620-878d-256b17f588ec","system_id":"levelo_inurba_marseille","lat":43.3229,"lon":5.3826,"is_reserved":false,"is_disabled":false,"rental_uris":{"android":"levelo://app?vid=55b4859a-95e9-4620-878d-256b17f588ec","ios":"levelo://app?vid=55b4859a-95e9-4620-878d-256b17f588ec"},"vehicle_type_id":"4","last_reported":1736622402,"current_range_meters":19200,"station_id":"ce4bhr12rcd13ifvqhqg","pricing_plan_id":"cebpf4jnsgd1na2vs0mg"},{"bike_id":"9b07f9ec-8588-4ee9-b731-3101c53572f2","system_id":"levelo_inurba_marseille","lat":43.29202,"lon":5.35805,"is_reserved":false,"is_disabled":false,"rental_uris":{"android":"levelo://app?vid=9b07f9ec-8588-4ee9-b731-3101c53572f2","ios":"levelo://app?vid=9b07f9ec-8588-4ee9-b731-3101c53572f2"},"vehicle_type_id":"4","last_reported":1736622402,"current_range_meters":34800,"station_id":"ce4bhb12rcd13ifvqel0","pricing_plan_id":"cebpf4jnsgd1na2vs0mg"},{"bike_id":"8e811dcf-6cca-44d1-8181-b2f074375b18","system_id":"levelo_inurba_marseille","lat":43.3046,"lon":5.37898,"is_reserved":false,"is_disabled":false,"rental_uris":{"android":"levelo://app?vid=8e811dcf-6cca-44d1-8181-b2f074375b18","ios":"levelo://app?vid=8e811dcf-6cca-44d1-8181-b2f074375b18"},"vehicle_type_id":"4","last_reported":1736622402,"current_range_meters":29600,"station_id":"ce4bgup2rcd13ifvqcn0","pricing_plan_id":"cebpf4jnsgd1na2vs0mg"},{"bike_id":"260e70fd-275a-4958-a9f1-10075dc51e0a","system_id":"levelo_inurba_marseille","lat":43.24803,"lon":5.37461,"is_reserved":false,"is_disabled":false,"rental_uris":{"android":"levelo://app?vid=260e70fd-275a-4958-a9f1-10075dc51e0a","ios":"levelo://app?vid=260e70fd-275a-4958-a9f1-10075dc51e0a"},"vehicle_type_id":"4","last_reported":1736622402,"current_range_meters":9600,"station_id":"ce4bhgh2rcd13ifvqfb0","pricing_plan_id":"cebpf4jnsgd1na2vs0mg"},{"bike_id":"10f7d31a-ef8d-4e8a-acbf-8aa9a8c72143","system_id":"levelo_inurba_marseille","lat":43.24396,"lon":5.37061,"is_reserved":false,"is_disabled":false,"rental_uris":{"android":"levelo://app?vid=10f7d31a-ef8d-4e8a-acbf-8aa9a8c72143","ios":"levelo://app?vid=10f7d31a-ef8d-4e8a-acbf-8aa9a8c72143"},"vehicle_type_id":"4","last_reported":1736622402,"current_range_meters":16800,"station_id":"ce4bhhh2rcd13ifvqfk0","pricing_plan_id":"cebpf4jnsgd1na2vs0mg"},{"bike_id":"1fedc598-f70f-4c41-a2c3-d78b434b4e36","system_id":"levelo_inurba_marseille","lat":43.2619,"lon":5.3745,"is_reserved":false,"is_disabled":false,"rental_uris":{"android":"levelo://app?vid=1fedc598-f70f-4c41-a2c3-d78b434b4e36","ios":"levelo://app?vid=1fedc598-f70f-4c41-a2c3-d78b434b4e36"},"vehicle_type_id":"4","last_reported":1736622402,"current_range_meters":24000,"station_id":"ce4bhgp2rcd13ifvqfc0","pricing_plan_id":"cebpf4jnsgd1na2vs0mg"},{"bike_id":"ebdfef80-55a0-460e-8df6-1b42215ac4bd","system_id":"levelo_inurba_marseille","lat":43.29309,"lon":5.37402,"is_reserved":false,"is_disabled":false,"rental_uris":{"android":"levelo://app?vid=ebdfef80-55a0-460e-8df6-1b42215ac4bd","ios":"levelo://app?vid=ebdfef80-55a0-460e-8df6-1b42215ac4bd"},"vehicle_type_id":"4","last_reported":1736622402,"current_range_meters":38800,"station_id":"ce4bgi12rcd13ifvqb70","pricing_plan_id":"cebpf4jnsgd1na2vs0mg"},{"bike_id":"9cda7140-cd76-4b76-af44-293be04b201c","system_id":"levelo_inurba_marseille","lat":43.287,"lon":5.37381,"is_reserved":false,"is_disabled":false,"rental_uris":{"android":"levelo://app?vid=9cda7140-cd76-4b76-af44-293be04b201c","ios":"levelo://app?vid=9cda7140-cd76-4b76-af44-293be04b201c"},"vehicle_type_id":"4","last_reported":1736622402,"current_range_meters":6000,"station_id":"ce4bh3p2rcd13ifvqdq0","pricing_plan_id":"cebpf4jnsgd1na2vs0mg"},{"bike_id":"295bd26f-64bb-4f9a-b1ce-9227768f18ec","system_id":"levelo_inurba_marseille","lat":43.29173,"lon":5.37137,"is_reserved":false,"is_disabled":true,"rental_uris":{"android":"levelo://app?vid=295bd26f-64bb-4f9a-b1ce-9227768f18ec","ios":"levelo://app?vid=295bd26f-64bb-4f9a-b1ce-9227768f18ec"},"vehicle_type_id":"4","last_reported":1736622402,"current_range_meters":36800,"station_id":"ce4bha92rcd13ifvqeh0","pricing_plan_id":"cebpf4jnsgd1na2vs0mg"},{"bike_id":"a896e660-f7f5-4610-b33d-5b0dbca261a6","system_id":"levelo_inurba_marseille","lat":43.31266,"lon":5.40158,"is_reserved":false,"is_disabled":false,"rental_uris":{"android":"levelo://app?vid=a896e660-f7f5-4610-b33d-5b0dbca261a6","ios":"levelo://app?vid=a896e660-f7f5-4610-b33d-5b0dbca261a6"},"vehicle_type_id":"4","last_reported":1736622402,"current_range_meters":35200,"station_id":"ce4bh092rcd13ifvqd30","pricing_plan_id":"cebpf4jnsgd1na2vs0mg"},{"bike_id":"1bff2bac-4883-4019-adbe-2dc598af8aad","system_id":"levelo_inurba_marseille","lat":43.274219,"lon":5.394089,"is_reserved":false,"is_disabled":true,"rental_uris":{"android":"levelo://app?vid=1bff2bac-4883-4019-adbe-2dc598af8aad","ios":"levelo://app?vid=1bff2bac-4883-4019-adbe-2dc598af8aad"},"vehicle_type_id":"4","last_reported":1736622402,"current_range_meters":28400,"station_id":"ce4bhdp2rcd13ifvqf20","pricing_plan_id":"cebpf4jnsgd1na2vs0mg"},{"bike_id":"ae29e0de-7b5a-45d6-ace3-313c5e88010a","system_id":"levelo_inurba_marseille","lat":43.27976,"lon":5.41662,"is_reserved":false,"is_disabled":true,"rental_uris":{"android":"levelo://app?vid=ae29e0de-7b5a-45d6-ace3-313c5e88010a","ios":"levelo://app?vid=ae29e0de-7b5a-45d6-ace3-313c5e88010a"},"vehicle_type_id":"4","last_reported":1736622402,"current_range_meters":0,"station_id":"ce4bho12rcd13ifvqh1g","pricing_plan_id":"cebpf4jnsgd1na2vs0mg"},{"bike_id":"0bc3f5f5-60c2-41a0-a6ff-a38fba6be8aa","system_id":"levelo_inurba_marseille","lat":43.25495,"lon":5.37635,"is_reserved":false,"is_disabled":true,"rental_uris":{"android":"levelo://app?vid=0bc3f5f5-60c2-41a0-a6ff-a38fba6be8aa","ios":"levelo://app?vid=0bc3f5f5-60c2-41a0-a6ff-a38fba6be8aa"},"vehicle_type_id":"4","last_reported":1736622402,"current_range_meters":33200,"station_id":"ce4bhh12rcd13ifvqff0","pricing_plan_id":"cebpf4jnsgd1na2vs0mg"},{"bike_id":"572f0254-11cf-4ef2-b3f9-66737ed8298a","system_id":"levelo_inurba_marseille","lat":43.2843,"lon":5.34983,"is_reserved":false,"is_disabled":true,"rental_uris":{"android":"levelo://app?vid=572f0254-11cf-4ef2-b3f9-66737ed8298a","ios":"levelo://app?vid=572f0254-11cf-4ef2-b3f9-66737ed8298a"},"vehicle_type_id":"4","last_reported":1736622402,"current_range_meters":0,"station_id":"ce4bhbh2rcd13ifvqepg","pricing_plan_id":"cebpf4jnsgd1na2vs0mg"},{"bike_id":"5d0adefc-6fbc-4b0a-aa5a-98787c0870e0","system_id":"levelo_inurba_marseille","lat":43.31075,"lon":5.401,"is_reserved":false,"is_disabled":false,"rental_uris":{"android":"levelo://app?vid=5d0adefc-6fbc-4b0a-aa5a-98787c0870e0","ios":"levelo://app?vid=5d0adefc-6fbc-4b0a-aa5a-98787c0870e0"},"vehicle_type_id":"4","last_reported":1736622402,"current_range_meters":35200,"station_id":"","pricing_plan_id":"cebpf4jnsgd1na2vs0mg"},{"bike_id":"517842b4-006c-4e7f-8540-9a333914c9eb","system_id":"levelo_inurba_marseille","lat":43.27997,"lon":5.40011,"is_reserved":false,"is_disabled":false,"rental_uris":{"android":"levelo://app?vid=517842b4-006c-4e7f-8540-9a333914c9eb","ios":"levelo://app?vid=517842b4-006c-4e7f-8540-9a333914c9eb"},"vehicle_type_id":"4","last_reported":1736622402,"current_range_meters":14800,"station_id":"ce4bho92rcd13ifvqh4g","pricing_plan_id":"cebpf4jnsgd1na2vs0mg"},{"bike_id":"6845255b-3748-47a8-80ff-32e6d62dd708","system_id":"levelo_inurba_marseille","lat":43.23172,"lon":5.39984,"is_reserved":false,"is_disabled":false,"rental_uris":{"android":"levelo://app?vid=6845255b-3748-47a8-80ff-32e6d62dd708","ios":"levelo://app?vid=6845255b-3748-47a8-80ff-32e6d62dd708"},"vehicle_type_id":"4","last_reported":1736622402,"current_range_meters":38800,"station_id":"ce4bhn12rcd13ifvqgqg","pricing_plan_id":"cebpf4jnsgd1na2vs0mg"},{"bike_id":"10945702-7025-4e7b-b6b9-b3476ace3330","system_id":"levelo_inurba_marseille","lat":43.25578,"lon":5.38227,"is_reserved":false,"is_disabled":false,"rental_uris":{"android":"levelo://app?vid=10945702-7025-4e7b-b6b9-b3476ace3330","ios":"levelo://app?vid=10945702-7025-4e7b-b6b9-b3476ace3330"},"vehicle_type_id":"4","last_reported":1736622402,"current_range_meters":37600,"station_id":"ce4bhih2rcd13ifvqfs0","pricing_plan_id":"cebpf4jnsgd1na2vs0mg"},{"bike_id":"146fdad3-f501-4522-8801-7dc7eca5427c","system_id":"levelo_inurba_marseille","lat":43.30883,"lon":5.39626,"is_reserved":false,"is_disabled":false,"rental_uris":{"android":"levelo://app?vid=146fdad3-f501-4522-8801-7dc7eca5427c","ios":"levelo://app?vid=146fdad3-f501-4522-8801-7dc7eca5427c"},"vehicle_type_id":"4","last_reported":1736622402,"current_range_meters":39200,"station_id":"ce4bh012rcd13ifvqcv0","pricing_plan_id":"cebpf4jnsgd1na2vs0mg"},{"bike_id":"42ecc464-da44-487e-b0da-d25d9d2043d6","system_id":"levelo_inurba_marseille","lat":43.25734,"lon":5.41104,"is_reserved":false,"is_disabled":true,"rental_uris":{"android":"levelo://app?vid=42ecc464-da44-487e-b0da-d25d9d2043d6","ios":"levelo://app?vid=42ecc464-da44-487e-b0da-d25d9d2043d6"},"vehicle_type_id":"4","last_reported":1736622402,"current_range_meters":0,"station_id":"ce4bhkp2rcd13ifvqgd0","pricing_plan_id":"cebpf4jnsgd1na2vs0mg"},{"bike_id":"3e8545a0-7fe5-4e90-a236-2ca6808aeaeb","system_id":"levelo_inurba_marseille","lat":43.30304,"lon":5.3921,"is_reserved":false,"is_disabled":false,"rental_uris":{"android":"levelo://app?vid=3e8545a0-7fe5-4e90-a236-2ca6808aeaeb","ios":"levelo://app?vid=3e8545a0-7fe5-4e90-a236-2ca6808aeaeb"},"vehicle_type_id":"4","last_reported":1736622402,"current_range_meters":20000,"station_id":"ce4bgkh2rcd13ifvqbk0","pricing_plan_id":"cebpf4jnsgd1na2vs0mg"},{"bike_id":"b7e8dd08-60c6-4ec8-95ea-61794c9f9e48","system_id":"levelo_inurba_marseille","lat":43.2549,"lon":5.37647,"is_reserved":false,"is_disabled":false,"rental_uris":{"android":"levelo://app?vid=b7e8dd08-60c6-4ec8-95ea-61794c9f9e48","ios":"levelo://app?vid=b7e8dd08-60c6-4ec8-95ea-61794c9f9e48"},"vehicle_type_id":"4","last_reported":1736622402,"current_range_meters":21600,"station_id":"ce4bhh12rcd13ifvqff0","pricing_plan_id":"cebpf4jnsgd1na2vs0mg"},{"bike_id":"65e8b99d-cb00-44f8-a57f-7740743f51e0","system_id":"levelo_inurba_marseille","lat":43.24999,"lon":5.38936,"is_reserved":false,"is_disabled":true,"rental_uris":{"android":"levelo://app?vid=65e8b99d-cb00-44f8-a57f-7740743f51e0","ios":"levelo://app?vid=65e8b99d-cb00-44f8-a57f-7740743f51e0"},"vehicle_type_id":"4","last_reported":1736622402,"current_range_meters":30800,"station_id":"ce4bhgp2rcd13ifvqfd0","pricing_plan_id":"cebpf4jnsgd1na2vs0mg"},{"bike_id":"e7bed24c-76b8-4bfe-8ea5-51efa81df6c2","system_id":"levelo_inurba_marseille","lat":43.2749,"lon":5.42455,"is_reserved":false,"is_disabled":true,"rental_uris":{"android":"levelo://app?vid=e7bed24c-76b8-4bfe-8ea5-51efa81df6c2","ios":"levelo://app?vid=e7bed24c-76b8-4bfe-8ea5-51efa81df6c2"},"vehicle_type_id":"4","last_reported":1736622402,"current_range_meters":0,"station_id":"ce4bhn92rcd13ifvqgrg","pricing_plan_id":"cebpf4jnsgd1na2vs0mg"},{"bike_id":"50cc5e52-d406-4b1d-b149-ae3b28fc5f34","system_id":"levelo_inurba_marseille","lat":43.29199,"lon":5.39313,"is_reserved":false,"is_disabled":false,"rental_uris":{"android":"levelo://app?vid=50cc5e52-d406-4b1d-b149-ae3b28fc5f34","ios":"levelo://app?vid=50cc5e52-d406-4b1d-b149-ae3b28fc5f34"},"vehicle_type_id":"4","last_reported":1736622402,"current_range_meters":12000,"station_id":"ce4bh192rcd13ifvqdd0","pricing_plan_id":"cebpf4jnsgd1na2vs0mg"},{"bike_id":"8c922d92-397d-467f-ad6b-cdf117ed2392","system_id":"levelo_inurba_marseille","lat":43.29027,"lon":5.37569,"is_reserved":false,"is_disabled":false,"rental_uris":{"android":"levelo://app?vid=8c922d92-397d-467f-ad6b-cdf117ed2392","ios":"levelo://app?vid=8c922d92-397d-467f-ad6b-cdf117ed2392"},"vehicle_type_id":"4","last_reported":1736622402,"current_range_meters":36000,"station_id":"ce4bh692rcd13ifvqe90","pricing_plan_id":"cebpf4jnsgd1na2vs0mg"},{"bike_id":"1225f438-49d5-4411-a18f-61025f664ce7","system_id":"levelo_inurba_marseille","lat":43.25089,"lon":5.39504,"is_reserved":false,"is_disabled":false,"rental_uris":{"android":"levelo://app?vid=1225f438-49d5-4411-a18f-61025f664ce7","ios":"levelo://app?vid=1225f438-49d5-4411-a18f-61025f664ce7"},"vehicle_type_id":"4","last_reported":1736622402,"current_range_meters":38800,"station_id":"ce4bhm12rcd13ifvqgkg","pricing_plan_id":"cebpf4jnsgd1na2vs0mg"},{"bike_id":"0e61ec43-c876-45d3-a431-7ad6cb87fc6c","system_id":"levelo_inurba_marseille","lat":43.2572,"lon":5.41085,"is_reserved":false,"is_disabled":false,"rental_uris":{"android":"levelo://app?vid=0e61ec43-c876-45d3-a431-7ad6cb87fc6c","ios":"levelo://app?vid=0e61ec43-c876-45d3-a431-7ad6cb87fc6c"},"vehicle_type_id":"4","last_reported":1736622402,"current_range_meters":38800,"station_id":"ce4bhkp2rcd13ifvqgd0","pricing_plan_id":"cebpf4jnsgd1na2vs0mg"},{"bike_id":"b704bf42-2bc7-4506-b669-8ca7a3330fef","system_id":"levelo_inurba_marseille","lat":43.28168,"lon":5.42636,"is_reserved":false,"is_disabled":true,"rental_uris":{"android":"levelo://app?vid=b704bf42-2bc7-4506-b669-8ca7a3330fef","ios":"levelo://app?vid=b704bf42-2bc7-4506-b669-8ca7a3330fef"},"vehicle_type_id":"4","last_reported":1736622402,"current_range_meters":30800,"station_id":"ce4bhnh2rcd13ifvqgug","pricing_plan_id":"cebpf4jnsgd1na2vs0mg"},{"bike_id":"cfb1a237-01a2-45b9-8b75-8a36d55c4428","system_id":"levelo_inurba_marseille","lat":43.29868,"lon":5.36294,"is_reserved":false,"is_disabled":false,"rental_uris":{"android":"levelo://app?vid=cfb1a237-01a2-45b9-8b75-8a36d55c4428","ios":"levelo://app?vid=cfb1a237-01a2-45b9-8b75-8a36d55c4428"},"vehicle_type_id":"4","last_reported":1736622402,"current_range_meters":34000,"station_id":"ce4bgpp2rcd13ifvqc3g","pricing_plan_id":"cebpf4jnsgd1na2vs0mg"},{"bike_id":"b47114d6-0de8-4ef8-aedc-e6a60aa18b2b","system_id":"levelo_inurba_marseille","lat":43.29571,"lon":5.37495,"is_reserved":false,"is_disabled":false,"rental_uris":{"android":"levelo://app?vid=b47114d6-0de8-4ef8-aedc-e6a60aa18b2b","ios":"levelo://app?vid=b47114d6-0de8-4ef8-aedc-e6a60aa18b2b"},"vehicle_type_id":"4","last_reported":1736622402,"current_range_meters":8400,"station_id":"ce4bgh92rcd13ifvqb50","pricing_plan_id":"cebpf4jnsgd1na2vs0mg"},{"bike_id":"d1c8ef8e-59d9-4023-b21f-1e6f44d5ee36","system_id":"levelo_inurba_marseille","lat":43.28617,"lon":5.35102,"is_reserved":false,"is_disabled":false,"rental_uris":{"android":"levelo://app?vid=d1c8ef8e-59d9-4023-b21f-1e6f44d5ee36","ios":"levelo://app?vid=d1c8ef8e-59d9-4023-b21f-1e6f44d5ee36"},"vehicle_type_id":"4","last_reported":1736622402,"current_range_meters":30800,"station_id":"ce4bhch2rcd13ifvqeug","pricing_plan_id":"cebpf4jnsgd1na2vs0mg"},{"bike_id":"59beabfe-afe9-4985-a64d-2a5a82f1e40b","system_id":"levelo_inurba_marseille","lat":43.29871,"lon":5.39734,"is_reserved":false,"is_disabled":false,"rental_uris":{"android":"levelo://app?vid=59beabfe-afe9-4985-a64d-2a5a82f1e40b","ios":"levelo://app?vid=59beabfe-afe9-4985-a64d-2a5a82f1e40b"},"vehicle_type_id":"4","last_reported":1736622402,"current_range_meters":20400,"station_id":"ce4bh0h2rcd13ifvqd50","pricing_plan_id":"cebpf4jnsgd1na2vs0mg"},{"bike_id":"f62a7ed4-7c80-4ed8-9568-a4dea62069d1","system_id":"levelo_inurba_marseille","lat":43.28091,"lon":5.39652,"is_reserved":false,"is_disabled":true,"rental_uris":{"android":"levelo://app?vid=f62a7ed4-7c80-4ed8-9568-a4dea62069d1","ios":"levelo://app?vid=f62a7ed4-7c80-4ed8-9568-a4dea62069d1"},"vehicle_type_id":"4","last_reported":1736622402,"current_range_meters":36400,"station_id":"ce4bho12rcd13ifvqh2g","pricing_plan_id":"cebpf4jnsgd1na2vs0mg"},{"bike_id":"e2744ec8-2f1a-4025-9ec0-6a07f5db3fc4","system_id":"levelo_inurba_marseille","lat":43.25502,"lon":5.37656,"is_reserved":false,"is_disabled":false,"rental_uris":{"android":"levelo://app?vid=e2744ec8-2f1a-4025-9ec0-6a07f5db3fc4","ios":"levelo://app?vid=e2744ec8-2f1a-4025-9ec0-6a07f5db3fc4"},"vehicle_type_id":"4","last_reported":1736622402,"current_range_meters":38800,"station_id":"ce4bhh12rcd13ifvqff0","pricing_plan_id":"cebpf4jnsgd1na2vs0mg"},{"bike_id":"870ef441-1642-4bf1-8882-b7bf3ad28cfa","system_id":"levelo_inurba_marseille","lat":43.28929,"lon":5.38412,"is_reserved":false,"is_disabled":false,"rental_uris":{"android":"levelo://app?vid=870ef441-1642-4bf1-8882-b7bf3ad28cfa","ios":"levelo://app?vid=870ef441-1642-4bf1-8882-b7bf3ad28cfa"},"vehicle_type_id":"4","last_reported":1736622402,"current_range_meters":22800,"station_id":"ce4bh612rcd13ifvqe6g","pricing_plan_id":"cebpf4jnsgd1na2vs0mg"},{"bike_id":"e6fe51e5-761c-4c2a-b6c4-9a2659a28911","system_id":"levelo_inurba_marseille","lat":43.29512,"lon":5.3904,"is_reserved":false,"is_disabled":false,"rental_uris":{"android":"levelo://app?vid=e6fe51e5-761c-4c2a-b6c4-9a2659a28911","ios":"levelo://app?vid=e6fe51e5-761c-4c2a-b6c4-9a2659a28911"},"vehicle_type_id":"4","last_reported":1736622402,"current_range_meters":28000,"station_id":"ce4bh3p2rcd13ifvqdp0","pricing_plan_id":"cebpf4jnsgd1na2vs0mg"},{"bike_id":"06a90357-5784-4afb-a28d-46c5bd28abc5","system_id":"levelo_inurba_marseille","lat":43.30931,"lon":5.40154,"is_reserved":false,"is_disabled":false,"rental_uris":{"android":"levelo://app?vid=06a90357-5784-4afb-a28d-46c5bd28abc5","ios":"levelo://app?vid=06a90357-5784-4afb-a28d-46c5bd28abc5"},"vehicle_type_id":"4","last_reported":1736622402,"current_range_meters":34000,"station_id":"ce4bgvp2rcd13ifvqct0","pricing_plan_id":"cebpf4jnsgd1na2vs0mg"},{"bike_id":"e9e5f086-ccf5-4701-a728-049ef0393679","system_id":"levelo_inurba_marseille","lat":43.2942,"lon":5.38619,"is_reserved":false,"is_disabled":false,"rental_uris":{"android":"levelo://app?vid=e9e5f086-ccf5-4701-a728-049ef0393679","ios":"levelo://app?vid=e9e5f086-ccf5-4701-a728-049ef0393679"},"vehicle_type_id":"4","last_reported":1736622402,"current_range_meters":39200,"station_id":"ce4bh2h2rcd13ifvqdh0","pricing_plan_id":"cebpf4jnsgd1na2vs0mg"},{"bike_id":"6239cb2e-1fa1-4037-9379-089daf6c0254","system_id":"levelo_inurba_marseille","lat":43.28106,"lon":5.37851,"is_reserved":false,"is_disabled":false,"rental_uris":{"android":"levelo://app?vid=6239cb2e-1fa1-4037-9379-089daf6c0254","ios":"levelo://app?vid=6239cb2e-1fa1-4037-9379-089daf6c0254"},"vehicle_type_id":"4","last_reported":1736622402,"current_range_meters":38800,"station_id":"ce4bha12rcd13ifvqee0","pricing_plan_id":"cebpf4jnsgd1na2vs0mg"},{"bike_id":"c0554c14-b732-413c-8451-54f8ec41ea32","system_id":"levelo_inurba_marseille","lat":43.27163,"lon":5.40994,"is_reserved":false,"is_disabled":false,"rental_uris":{"android":"levelo://app?vid=c0554c14-b732-413c-8451-54f8ec41ea32","ios":"levelo://app?vid=c0554c14-b732-413c-8451-54f8ec41ea32"},"vehicle_type_id":"4","last_reported":1736622402,"current_range_meters":39200,"station_id":"ce4bhl12rcd13ifvqgf0","pricing_plan_id":"cebpf4jnsgd1na2vs0mg"},{"bike_id":"5c381e93-4073-49d5-a465-9aabfddfee01","system_id":"levelo_inurba_marseille","lat":43.24668,"lon":5.38145,"is_reserved":false,"is_disabled":false,"rental_uris":{"android":"levelo://app?vid=5c381e93-4073-49d5-a465-9aabfddfee01","ios":"levelo://app?vid=5c381e93-4073-49d5-a465-9aabfddfee01"},"vehicle_type_id":"4","last_reported":1736622402,"current_range_meters":20000,"station_id":"ce4bhih2rcd13ifvqfr0","pricing_plan_id":"cebpf4jnsgd1na2vs0mg"},{"bike_id":"31240ca4-9f64-4406-9c52-14b4354e548c","system_id":"levelo_inurba_marseille","lat":43.28618,"lon":5.35099,"is_reserved":false,"is_disabled":false,"rental_uris":{"android":"levelo://app?vid=31240ca4-9f64-4406-9c52-14b4354e548c","ios":"levelo://app?vid=31240ca4-9f64-4406-9c52-14b4354e548c"},"vehicle_type_id":"4","last_reported":1736622402,"current_range_meters":38800,"station_id":"ce4bhch2rcd13ifvqeug","pricing_plan_id":"cebpf4jnsgd1na2vs0mg"},{"bike_id":"33d7cefb-b5b0-4ef7-939c-d8f519a93ce4","system_id":"levelo_inurba_marseille","lat":43.23961,"lon":5.36638,"is_reserved":false,"is_disabled":false,"rental_uris":{"android":"levelo://app?vid=33d7cefb-b5b0-4ef7-939c-d8f519a93ce4","ios":"levelo://app?vid=33d7cefb-b5b0-4ef7-939c-d8f519a93ce4"},"vehicle_type_id":"4","last_reported":1736622402,"current_range_meters":10000,"station_id":"ce4bhi12rcd13ifvqfp0","pricing_plan_id":"cebpf4jnsgd1na2vs0mg"},{"bike_id":"d9b042e2-bbf3-47bf-851f-426caf4d0e01","system_id":"levelo_inurba_marseille","lat":43.24808,"lon":5.37461,"is_reserved":false,"is_disabled":false,"rental_uris":{"android":"levelo://app?vid=d9b042e2-bbf3-47bf-851f-426caf4d0e01","ios":"levelo://app?vid=d9b042e2-bbf3-47bf-851f-426caf4d0e01"},"vehicle_type_id":"4","last_reported":1736622402,"current_range_meters":38800,"station_id":"ce4bhgh2rcd13ifvqfb0","pricing_plan_id":"cebpf4jnsgd1na2vs0mg"},{"bike_id":"ce124b13-208e-4c9a-8beb-e49fc2a49e4a","system_id":"levelo_inurba_marseille","lat":43.30314,"lon":5.36909,"is_reserved":false,"is_disabled":true,"rental_uris":{"android":"levelo://app?vid=ce124b13-208e-4c9a-8beb-e49fc2a49e4a","ios":"levelo://app?vid=ce124b13-208e-4c9a-8beb-e49fc2a49e4a"},"vehicle_type_id":"4","last_reported":1736622402,"current_range_meters":38800,"station_id":"ce4bgqh2rcd13ifvqc5g","pricing_plan_id":"cebpf4jnsgd1na2vs0mg"},{"bike_id":"1e2223a2-c032-49e7-8dbf-982df86a0520","system_id":"levelo_inurba_marseille","lat":43.22934,"lon":5.35362,"is_reserved":false,"is_disabled":false,"rental_uris":{"android":"levelo://app?vid=1e2223a2-c032-49e7-8dbf-982df86a0520","ios":"levelo://app?vid=1e2223a2-c032-49e7-8dbf-982df86a0520"},"vehicle_type_id":"4","last_reported":1736622402,"current_range_meters":27600,"station_id":"cpo3532slgdg3j2ikp40","pricing_plan_id":"cebpf4jnsgd1na2vs0mg"},{"bike_id":"7e267516-ded3-4e55-93c6-20c89a20731f","system_id":"levelo_inurba_marseille","lat":43.31251,"lon":5.36844,"is_reserved":false,"is_disabled":false,"rental_uris":{"android":"levelo://app?vid=7e267516-ded3-4e55-93c6-20c89a20731f","ios":"levelo://app?vid=7e267516-ded3-4e55-93c6-20c89a20731f"},"vehicle_type_id":"4","last_reported":1736622402,"current_range_meters":38400,"station_id":"ce4bgl92rcd13ifvqbq0","pricing_plan_id":"cebpf4jnsgd1na2vs0mg"},{"bike_id":"05c9690e-412d-4fa1-b560-50354e87ae5b","system_id":"levelo_inurba_marseille","lat":43.27176,"lon":5.41003,"is_reserved":false,"is_disabled":false,"rental_uris":{"android":"levelo://app?vid=05c9690e-412d-4fa1-b560-50354e87ae5b","ios":"levelo://app?vid=05c9690e-412d-4fa1-b560-50354e87ae5b"},"vehicle_type_id":"4","last_reported":1736622402,"current_range_meters":38800,"station_id":"ce4bhl12rcd13ifvqgf0","pricing_plan_id":"cebpf4jnsgd1na2vs0mg"},{"bike_id":"5f2cf356-122a-4d24-85ba-e38bc4612223","system_id":"levelo_inurba_marseille","lat":43.25579,"lon":5.38236,"is_reserved":false,"is_disabled":true,"rental_uris":{"android":"levelo://app?vid=5f2cf356-122a-4d24-85ba-e38bc4612223","ios":"levelo://app?vid=5f2cf356-122a-4d24-85ba-e38bc4612223"},"vehicle_type_id":"4","last_reported":1736622402,"current_range_meters":32000,"station_id":"ce4bhih2rcd13ifvqfs0","pricing_plan_id":"cebpf4jnsgd1na2vs0mg"},{"bike_id":"0fa5a85f-7a9d-4dea-b522-cdd0eb609691","system_id":"levelo_inurba_marseille","lat":43.27366,"lon":5.36251,"is_reserved":false,"is_disabled":false,"rental_uris":{"android":"levelo://app?vid=0fa5a85f-7a9d-4dea-b522-cdd0eb609691","ios":"levelo://app?vid=0fa5a85f-7a9d-4dea-b522-cdd0eb609691"},"vehicle_type_id":"4","last_reported":1736622402,"current_range_meters":8000,"station_id":"ce4bhbh2rcd13ifvqeo0","pricing_plan_id":"cebpf4jnsgd1na2vs0mg"},{"bike_id":"ac5ad7d8-ccea-458d-83e0-31976cff9c0d","system_id":"levelo_inurba_marseille","lat":43.25729,"lon":5.41093,"is_reserved":false,"is_disabled":false,"rental_uris":{"android":"levelo://app?vid=ac5ad7d8-ccea-458d-83e0-31976cff9c0d","ios":"levelo://app?vid=ac5ad7d8-ccea-458d-83e0-31976cff9c0d"},"vehicle_type_id":"4","last_reported":1736622402,"current_range_meters":38800,"station_id":"ce4bhkp2rcd13ifvqgd0","pricing_plan_id":"cebpf4jnsgd1na2vs0mg"},{"bike_id":"465d21f8-4b93-42af-b954-241af31882c5","system_id":"levelo_inurba_marseille","lat":43.29262,"lon":5.38438,"is_reserved":false,"is_disabled":false,"rental_uris":{"android":"levelo://app?vid=465d21f8-4b93-42af-b954-241af31882c5","ios":"levelo://app?vid=465d21f8-4b93-42af-b954-241af31882c5"},"vehicle_type_id":"4","last_reported":1736622402,"current_range_meters":34000,"station_id":"ce4bh692rcd13ifvqea0","pricing_plan_id":"cebpf4jnsgd1na2vs0mg"},{"bike_id":"39c3c4a5-d4ec-4fce-95db-3823db8f6b82","system_id":"levelo_inurba_marseille","lat":43.25698,"lon":5.41026,"is_reserved":false,"is_disabled":false,"rental_uris":{"android":"levelo://app?vid=39c3c4a5-d4ec-4fce-95db-3823db8f6b82","ios":"levelo://app?vid=39c3c4a5-d4ec-4fce-95db-3823db8f6b82"},"vehicle_type_id":"4","last_reported":1736622402,"current_range_meters":35200,"station_id":"ce4bhkp2rcd13ifvqgd0","pricing_plan_id":"cebpf4jnsgd1na2vs0mg"},{"bike_id":"d29cd5cc-1e49-485e-aacb-e07cb275aa58","system_id":"levelo_inurba_marseille","lat":43.30885,"lon":5.37175,"is_reserved":false,"is_disabled":false,"rental_uris":{"android":"levelo://app?vid=d29cd5cc-1e49-485e-aacb-e07cb275aa58","ios":"levelo://app?vid=d29cd5cc-1e49-485e-aacb-e07cb275aa58"},"vehicle_type_id":"4","last_reported":1736622402,"current_range_meters":33600,"station_id":"ce4bguh2rcd13ifvqckg","pricing_plan_id":"cebpf4jnsgd1na2vs0mg"},{"bike_id":"8242826e-ab20-43ea-95c1-e76b426a119e","system_id":"levelo_inurba_marseille","lat":43.33787,"lon":5.37427,"is_reserved":false,"is_disabled":false,"rental_uris":{"android":"levelo://app?vid=8242826e-ab20-43ea-95c1-e76b426a119e","ios":"levelo://app?vid=8242826e-ab20-43ea-95c1-e76b426a119e"},"vehicle_type_id":"4","last_reported":1736622402,"current_range_meters":14000,"station_id":"","pricing_plan_id":"cebpf4jnsgd1na2vs0mg"},{"bike_id":"57f5a8a9-f2e5-4673-966d-ca04b8d8c8e6","system_id":"levelo_inurba_marseille","lat":43.31122,"lon":5.37754,"is_reserved":false,"is_disabled":true,"rental_uris":{"android":"levelo://app?vid=57f5a8a9-f2e5-4673-966d-ca04b8d8c8e6","ios":"levelo://app?vid=57f5a8a9-f2e5-4673-966d-ca04b8d8c8e6"},"vehicle_type_id":"4","last_reported":1736622402,"current_range_meters":6000,"station_id":"ce4bgt92rcd13ifvqcg0","pricing_plan_id":"cebpf4jnsgd1na2vs0mg"},{"bike_id":"f6ee7d88-d9c3-40f1-b73f-c1d6269c7b75","system_id":"levelo_inurba_marseille","lat":43.24803,"lon":5.37447,"is_reserved":false,"is_disabled":false,"rental_uris":{"android":"levelo://app?vid=f6ee7d88-d9c3-40f1-b73f-c1d6269c7b75","ios":"levelo://app?vid=f6ee7d88-d9c3-40f1-b73f-c1d6269c7b75"},"vehicle_type_id":"4","last_reported":1736622402,"current_range_meters":27200,"station_id":"ce4bhgh2rcd13ifvqfb0","pricing_plan_id":"cebpf4jnsgd1na2vs0mg"},{"bike_id":"ff2672b3-c72d-4ce0-8b93-53ab17b7333a","system_id":"levelo_inurba_marseille","lat":43.30295,"lon":5.39228,"is_reserved":false,"is_disabled":false,"rental_uris":{"android":"levelo://app?vid=ff2672b3-c72d-4ce0-8b93-53ab17b7333a","ios":"levelo://app?vid=ff2672b3-c72d-4ce0-8b93-53ab17b7333a"},"vehicle_type_id":"4","last_reported":1736622402,"current_range_meters":38800,"station_id":"ce4bgkh2rcd13ifvqbk0","pricing_plan_id":"cebpf4jnsgd1na2vs0mg"},{"bike_id":"9343157b-1c2d-4548-bf4c-6991e6c0cdde","system_id":"levelo_inurba_marseille","lat":43.2979,"lon":5.37121,"is_reserved":false,"is_disabled":true,"rental_uris":{"android":"levelo://app?vid=9343157b-1c2d-4548-bf4c-6991e6c0cdde","ios":"levelo://app?vid=9343157b-1c2d-4548-bf4c-6991e6c0cdde"},"vehicle_type_id":"4","last_reported":1736622402,"current_range_meters":30000,"station_id":"ce4bgop2rcd13ifvqc1g","pricing_plan_id":"cebpf4jnsgd1na2vs0mg"},{"bike_id":"f3d63fbe-0b15-4d5a-b8ba-74356810cdf7","system_id":"levelo_inurba_marseille","lat":43.2707,"lon":5.42282,"is_reserved":false,"is_disabled":false,"rental_uris":{"android":"levelo://app?vid=f3d63fbe-0b15-4d5a-b8ba-74356810cdf7","ios":"levelo://app?vid=f3d63fbe-0b15-4d5a-b8ba-74356810cdf7"},"vehicle_type_id":"4","last_reported":1736622402,"current_range_meters":24000,"station_id":"ce4bhk92rcd13ifvqgb0","pricing_plan_id":"cebpf4jnsgd1na2vs0mg"},{"bike_id":"d296df74-3e59-4a9d-a37d-5788001ea387","system_id":"levelo_inurba_marseille","lat":43.25121,"lon":5.40322,"is_reserved":false,"is_disabled":false,"rental_uris":{"android":"levelo://app?vid=d296df74-3e59-4a9d-a37d-5788001ea387","ios":"levelo://app?vid=d296df74-3e59-4a9d-a37d-5788001ea387"},"vehicle_type_id":"4","last_reported":1736622402,"current_range_meters":30000,"station_id":"ce4bhlh2rcd13ifvqgig","pricing_plan_id":"cebpf4jnsgd1na2vs0mg"},{"bike_id":"6f8d5613-68e8-453b-9903-0b6c2da05e2d","system_id":"levelo_inurba_marseille","lat":43.24165,"lon":5.36423,"is_reserved":false,"is_disabled":false,"rental_uris":{"android":"levelo://app?vid=6f8d5613-68e8-453b-9903-0b6c2da05e2d","ios":"levelo://app?vid=6f8d5613-68e8-453b-9903-0b6c2da05e2d"},"vehicle_type_id":"4","last_reported":1736622402,"current_range_meters":38800,"station_id":"cpo36qri1sfpv3e86is0","pricing_plan_id":"cebpf4jnsgd1na2vs0mg"},{"bike_id":"75b9081b-81f4-4315-8729-51437dd0ad02","system_id":"levelo_inurba_marseille","lat":43.29024,"lon":5.37548,"is_reserved":false,"is_disabled":false,"rental_uris":{"android":"levelo://app?vid=75b9081b-81f4-4315-8729-51437dd0ad02","ios":"levelo://app?vid=75b9081b-81f4-4315-8729-51437dd0ad02"},"vehicle_type_id":"4","last_reported":1736622402,"current_range_meters":26800,"station_id":"ce4bh692rcd13ifvqe90","pricing_plan_id":"cebpf4jnsgd1na2vs0mg"},{"bike_id":"49506f69-465e-4b06-98c8-4b7e41e835b3","system_id":"levelo_inurba_marseille","lat":43.28265,"lon":5.35061,"is_reserved":false,"is_disabled":false,"rental_uris":{"android":"levelo://app?vid=49506f69-465e-4b06-98c8-4b7e41e835b3","ios":"levelo://app?vid=49506f69-465e-4b06-98c8-4b7e41e835b3"},"vehicle_type_id":"4","last_reported":1736622402,"current_range_meters":21600,"station_id":"ce4bhbp2rcd13ifvqerg","pricing_plan_id":"cebpf4jnsgd1na2vs0mg"},{"bike_id":"4ea89943-560f-4480-a533-4fe6664bd873","system_id":"levelo_inurba_marseille","lat":43.26188,"lon":5.37451,"is_reserved":false,"is_disabled":false,"rental_uris":{"android":"levelo://app?vid=4ea89943-560f-4480-a533-4fe6664bd873","ios":"levelo://app?vid=4ea89943-560f-4480-a533-4fe6664bd873"},"vehicle_type_id":"4","last_reported":1736622402,"current_range_meters":18000,"station_id":"ce4bhgp2rcd13ifvqfc0","pricing_plan_id":"cebpf4jnsgd1na2vs0mg"},{"bike_id":"85603f95-286b-4848-8682-ec6ae6094237","system_id":"levelo_inurba_marseille","lat":43.27063,"lon":5.40263,"is_reserved":false,"is_disabled":true,"rental_uris":{"android":"levelo://app?vid=85603f95-286b-4848-8682-ec6ae6094237","ios":"levelo://app?vid=85603f95-286b-4848-8682-ec6ae6094237"},"vehicle_type_id":"4","last_reported":1736622402,"current_range_meters":10800,"station_id":"ce4bhk92rcd13ifvqgc0","pricing_plan_id":"cebpf4jnsgd1na2vs0mg"},{"bike_id":"b52cf5d7-d0ff-45b3-ac5b-ffe5c33591d4","system_id":"levelo_inurba_marseille","lat":43.23083,"lon":5.35489,"is_reserved":false,"is_disabled":false,"rental_uris":{"android":"levelo://app?vid=b52cf5d7-d0ff-45b3-ac5b-ffe5c33591d4","ios":"levelo://app?vid=b52cf5d7-d0ff-45b3-ac5b-ffe5c33591d4"},"vehicle_type_id":"4","last_reported":1736622402,"current_range_meters":8400,"station_id":"cpo3342slgdg3j2ifvpg","pricing_plan_id":"cebpf4jnsgd1na2vs0mg"},{"bike_id":"7bf02e16-6190-4930-8162-baf2e5016afa","system_id":"levelo_inurba_marseille","lat":43.28623,"lon":5.35095,"is_reserved":false,"is_disabled":false,"rental_uris":{"android":"levelo://app?vid=7bf02e16-6190-4930-8162-baf2e5016afa","ios":"levelo://app?vid=7bf02e16-6190-4930-8162-baf2e5016afa"},"vehicle_type_id":"4","last_reported":1736622402,"current_range_meters":25600,"station_id":"ce4bhch2rcd13ifvqeug","pricing_plan_id":"cebpf4jnsgd1na2vs0mg"},{"bike_id":"8b88170d-e695-4530-8583-a66b3ec41a93","system_id":"levelo_inurba_marseille","lat":43.33611,"lon":5.41034,"is_reserved":false,"is_disabled":true,"rental_uris":{"android":"levelo://app?vid=8b88170d-e695-4530-8583-a66b3ec41a93","ios":"levelo://app?vid=8b88170d-e695-4530-8583-a66b3ec41a93"},"vehicle_type_id":"4","last_reported":1736622402,"current_range_meters":10000,"station_id":"ce4bhqh2rcd13ifvqhmg","pricing_plan_id":"cebpf4jnsgd1na2vs0mg"},{"bike_id":"77d1e0c3-9cbd-4efb-9d7c-cf0c3c300fad","system_id":"levelo_inurba_marseille","lat":43.30935,"lon":5.40117,"is_reserved":false,"is_disabled":false,"rental_uris":{"android":"levelo://app?vid=77d1e0c3-9cbd-4efb-9d7c-cf0c3c300fad","ios":"levelo://app?vid=77d1e0c3-9cbd-4efb-9d7c-cf0c3c300fad"},"vehicle_type_id":"4","last_reported":1736622402,"current_range_meters":20400,"station_id":"ce4bgvp2rcd13ifvqct0","pricing_plan_id":"cebpf4jnsgd1na2vs0mg"},{"bike_id":"b8acbba0-a715-4ced-a2aa-0517db10ac9d","system_id":"levelo_inurba_marseille","lat":43.22922,"lon":5.35376,"is_reserved":false,"is_disabled":true,"rental_uris":{"android":"levelo://app?vid=b8acbba0-a715-4ced-a2aa-0517db10ac9d","ios":"levelo://app?vid=b8acbba0-a715-4ced-a2aa-0517db10ac9d"},"vehicle_type_id":"4","last_reported":1736622402,"current_range_meters":35600,"station_id":"cpo3532slgdg3j2ikp40","pricing_plan_id":"cebpf4jnsgd1na2vs0mg"},{"bike_id":"efe5c0d9-d198-4e41-950b-591668aa21d2","system_id":"levelo_inurba_marseille","lat":43.2928,"lon":5.36851,"is_reserved":false,"is_disabled":false,"rental_uris":{"android":"levelo://app?vid=efe5c0d9-d198-4e41-950b-591668aa21d2","ios":"levelo://app?vid=efe5c0d9-d198-4e41-950b-591668aa21d2"},"vehicle_type_id":"4","last_reported":1736622402,"current_range_meters":32000,"station_id":"ce4bhbp2rcd13ifvqesg","pricing_plan_id":"cebpf4jnsgd1na2vs0mg"},{"bike_id":"83ae3d3f-d386-4f75-a0e6-569bd89585ef","system_id":"levelo_inurba_marseille","lat":43.28106,"lon":5.37843,"is_reserved":false,"is_disabled":false,"rental_uris":{"android":"levelo://app?vid=83ae3d3f-d386-4f75-a0e6-569bd89585ef","ios":"levelo://app?vid=83ae3d3f-d386-4f75-a0e6-569bd89585ef"},"vehicle_type_id":"4","last_reported":1736622402,"current_range_meters":34000,"station_id":"ce4bha12rcd13ifvqee0","pricing_plan_id":"cebpf4jnsgd1na2vs0mg"},{"bike_id":"6fe201b6-a4c3-4761-808a-c123ae5f4880","system_id":"levelo_inurba_marseille","lat":43.29031,"lon":5.39983,"is_reserved":false,"is_disabled":false,"rental_uris":{"android":"levelo://app?vid=6fe201b6-a4c3-4761-808a-c123ae5f4880","ios":"levelo://app?vid=6fe201b6-a4c3-4761-808a-c123ae5f4880"},"vehicle_type_id":"4","last_reported":1736622402,"current_range_meters":39200,"station_id":"ce4bh392rcd13ifvqdm0","pricing_plan_id":"cebpf4jnsgd1na2vs0mg"},{"bike_id":"b9c1e171-b1b0-49a8-976a-ab548573811d","system_id":"levelo_inurba_marseille","lat":43.29967,"lon":5.38496,"is_reserved":false,"is_disabled":false,"rental_uris":{"android":"levelo://app?vid=b9c1e171-b1b0-49a8-976a-ab548573811d","ios":"levelo://app?vid=b9c1e171-b1b0-49a8-976a-ab548573811d"},"vehicle_type_id":"4","last_reported":1736622402,"current_range_meters":24800,"station_id":"ce4bgj92rcd13ifvqbd0","pricing_plan_id":"cebpf4jnsgd1na2vs0mg"},{"bike_id":"e96e8126-894a-4f06-9370-a761821de194","system_id":"levelo_inurba_marseille","lat":43.296225,"lon":5.371525,"is_reserved":false,"is_disabled":false,"rental_uris":{"android":"levelo://app?vid=e96e8126-894a-4f06-9370-a761821de194","ios":"levelo://app?vid=e96e8126-894a-4f06-9370-a761821de194"},"vehicle_type_id":"4","last_reported":1736622402,"current_range_meters":38800,"station_id":"ce4bgnh2rcd13ifvqc0g","pricing_plan_id":"cebpf4jnsgd1na2vs0mg"},{"bike_id":"a5698a19-52c1-45d9-b6a6-bd07a196dc04","system_id":"levelo_inurba_marseille","lat":43.25582,"lon":5.38234,"is_reserved":false,"is_disabled":true,"rental_uris":{"android":"levelo://app?vid=a5698a19-52c1-45d9-b6a6-bd07a196dc04","ios":"levelo://app?vid=a5698a19-52c1-45d9-b6a6-bd07a196dc04"},"vehicle_type_id":"4","last_reported":1736622402,"current_range_meters":28800,"station_id":"ce4bhih2rcd13ifvqfs0","pricing_plan_id":"cebpf4jnsgd1na2vs0mg"},{"bike_id":"377730c6-0336-4c78-9c46-cdee41ff19a9","system_id":"levelo_inurba_marseille","lat":43.280377,"lon":5.411034,"is_reserved":false,"is_disabled":true,"rental_uris":{"android":"levelo://app?vid=377730c6-0336-4c78-9c46-cdee41ff19a9","ios":"levelo://app?vid=377730c6-0336-4c78-9c46-cdee41ff19a9"},"vehicle_type_id":"4","last_reported":1736622402,"current_range_meters":400,"station_id":"","pricing_plan_id":"cebpf4jnsgd1na2vs0mg"},{"bike_id":"e50eb91a-a5c5-418d-a9bc-3ea64dc2a8aa","system_id":"levelo_inurba_marseille","lat":43.28622,"lon":5.35104,"is_reserved":false,"is_disabled":false,"rental_uris":{"android":"levelo://app?vid=e50eb91a-a5c5-418d-a9bc-3ea64dc2a8aa","ios":"levelo://app?vid=e50eb91a-a5c5-418d-a9bc-3ea64dc2a8aa"},"vehicle_type_id":"4","last_reported":1736622402,"current_range_meters":22000,"station_id":"ce4bhch2rcd13ifvqeug","pricing_plan_id":"cebpf4jnsgd1na2vs0mg"},{"bike_id":"054cd636-1c92-4b02-9f52-65bb09761079","system_id":"levelo_inurba_marseille","lat":43.27618,"lon":5.36107,"is_reserved":false,"is_disabled":true,"rental_uris":{"android":"levelo://app?vid=054cd636-1c92-4b02-9f52-65bb09761079","ios":"levelo://app?vid=054cd636-1c92-4b02-9f52-65bb09761079"},"vehicle_type_id":"4","last_reported":1736622402,"current_range_meters":39200,"station_id":"ce4bgj92rcd13ifvqbe0","pricing_plan_id":"cebpf4jnsgd1na2vs0mg"},{"bike_id":"266859f2-18fe-482a-8c9f-5bdad982c716","system_id":"levelo_inurba_marseille","lat":43.280453,"lon":5.411274,"is_reserved":false,"is_disabled":true,"rental_uris":{"android":"levelo://app?vid=266859f2-18fe-482a-8c9f-5bdad982c716","ios":"levelo://app?vid=266859f2-18fe-482a-8c9f-5bdad982c716"},"vehicle_type_id":"4","last_reported":1736622402,"current_range_meters":0,"station_id":"","pricing_plan_id":"cebpf4jnsgd1na2vs0mg"},{"bike_id":"fd01bc8c-af59-4352-a996-47a66c3328f9","system_id":"levelo_inurba_marseille","lat":43.29901,"lon":5.3814,"is_reserved":false,"is_disabled":true,"rental_uris":{"android":"levelo://app?vid=fd01bc8c-af59-4352-a996-47a66c3328f9","ios":"levelo://app?vid=fd01bc8c-af59-4352-a996-47a66c3328f9"},"vehicle_type_id":"4","last_reported":1736622402,"current_range_meters":39200,"station_id":"ce4bgj12rcd13ifvqbc0","pricing_plan_id":"cebpf4jnsgd1na2vs0mg"},{"bike_id":"1bcc3bf9-78ee-4b13-abe1-986a6be21a1c","system_id":"levelo_inurba_marseille","lat":43.30766,"lon":5.37654,"is_reserved":false,"is_disabled":false,"rental_uris":{"android":"levelo://app?vid=1bcc3bf9-78ee-4b13-abe1-986a6be21a1c","ios":"levelo://app?vid=1bcc3bf9-78ee-4b13-abe1-986a6be21a1c"},"vehicle_type_id":"4","last_reported":1736622402,"current_range_meters":15200,"station_id":"ce4bgv92rcd13ifvqcq0","pricing_plan_id":"cebpf4jnsgd1na2vs0mg"},{"bike_id":"df80b7b4-bd88-4dce-9b5a-6cf7d2ca9a3b","system_id":"levelo_inurba_marseille","lat":43.29532,"lon":5.37519,"is_reserved":false,"is_disabled":false,"rental_uris":{"android":"levelo://app?vid=df80b7b4-bd88-4dce-9b5a-6cf7d2ca9a3b","ios":"levelo://app?vid=df80b7b4-bd88-4dce-9b5a-6cf7d2ca9a3b"},"vehicle_type_id":"4","last_reported":1736622402,"current_range_meters":27200,"station_id":"ce4bgkp2rcd13ifvqbmg","pricing_plan_id":"cebpf4jnsgd1na2vs0mg"},{"bike_id":"52148e13-48e8-44ed-a9de-313ba7e24d64","system_id":"levelo_inurba_marseille","lat":43.30918,"lon":5.40148,"is_reserved":false,"is_disabled":false,"rental_uris":{"android":"levelo://app?vid=52148e13-48e8-44ed-a9de-313ba7e24d64","ios":"levelo://app?vid=52148e13-48e8-44ed-a9de-313ba7e24d64"},"vehicle_type_id":"4","last_reported":1736622402,"current_range_meters":38800,"station_id":"ce4bgvp2rcd13ifvqct0","pricing_plan_id":"cebpf4jnsgd1na2vs0mg"},{"bike_id":"f42d734e-e823-4062-a48f-6086e5240da7","system_id":"levelo_inurba_marseille","lat":43.24395,"lon":5.3706,"is_reserved":false,"is_disabled":false,"rental_uris":{"android":"levelo://app?vid=f42d734e-e823-4062-a48f-6086e5240da7","ios":"levelo://app?vid=f42d734e-e823-4062-a48f-6086e5240da7"},"vehicle_type_id":"4","last_reported":1736622402,"current_range_meters":16000,"station_id":"ce4bhhh2rcd13ifvqfk0","pricing_plan_id":"cebpf4jnsgd1na2vs0mg"},{"bike_id":"04bd44f7-92d3-4e2a-8923-cc016baa8e06","system_id":"levelo_inurba_marseille","lat":43.29253,"lon":5.38432,"is_reserved":false,"is_disabled":false,"rental_uris":{"android":"levelo://app?vid=04bd44f7-92d3-4e2a-8923-cc016baa8e06","ios":"levelo://app?vid=04bd44f7-92d3-4e2a-8923-cc016baa8e06"},"vehicle_type_id":"4","last_reported":1736622402,"current_range_meters":14800,"station_id":"ce4bh692rcd13ifvqea0","pricing_plan_id":"cebpf4jnsgd1na2vs0mg"},