{"last_updated":1774714870,"ttl":60,"version":"2.2","data":{"bikes":[{"bike_id":"57b702c5-1d95-46f0-81c2-86e24b8cca70","system_id":"levelo_inurba_marseille","lat":43.24506,"lon":5.39506,"is_reserved":false,"is_disabled":false,"rental_uris":{"android":"levelo://app?vid=57b702c5-1d95-46f0-81c2-86e24b8cca70","ios":"levelo://app?vid=57b702c5-1d95-46f0-81c2-86e24b8cca70"},"vehicle_type_id":"4","last_reported":1774714871,"current_range_meters":2800,"station_id":"","pricing_plan_id":"cebpf4jnsgd1na2vs0mg"},{"bike_id":"0bf4a1d7-81ea-4ed1-ad7a-153a97017884","system_id":"levelo_inurba_marseille","lat":43.23802,"lon":5.36602,"is_reserved":false,"is_disabled":false,"rental_uris":{"android":"levelo://app?vid=0bf4a1d7-81ea-4ed1-ad7a-153a97017884","ios":"levelo://app?vid=0bf4a1d7-81ea-4ed1-ad7a-153a97017884"},"vehicle_type_id":"4","last_reported":1774714871,"current_range_meters":2800,"station_id":"st_d3nk18o9ro0c73en2l3g","pricing_plan_id":"cebpf4jnsgd1na2vs0mg"},{"bike_id":"7ff349cc-5c5c-4693-a632-1d54a437e044","system_id":"levelo_inurba_marseille","lat":43.30317,"lon":5.36913,"is_reserved":false,"is_disabled":false,"rental_uris":{"android":"levelo://app?vid=7ff349cc-5c5c-4693-a632-1d54a437e044","ios":"levelo://app?vid=7ff349cc-5c5c-4693-a632-1d54a437e044"},"vehicle_type_id":"4","last_reported":1774714871,"current_range_meters":2800,"station_id":"ce4bgqh2rcd13ifvqc5g","pricing_plan_id":"cebpf4jnsgd1na2vs0mg"},{"bike_id":"ae758492-79f2-476f-b0b6-5b6613e02dd5","system_id":"levelo_inurba_marseille","lat":43.21203,"lon":5.35082,"is_reserved":false,"is_disabled":false,"rental_uris":{"android":"levelo://app?vid=ae758492-79f2-476f-b0b6-5b6613e02dd5","ios":"levelo://app?vid=ae758492-79f2-476f-b0b6-5b6613e02dd5"},"vehicle_type_id":"4","last_reported":1774714871,"current_range_meters":2800,"station_id":"st_cvj6sg6p6f1abm77japg","pricing_plan_id":"cebpf4jnsgd1na2vs0mg"},{"bike_id":"b1d6db0d-165e-43d3-82a0-a6da4598bd58","system_id":"levelo_inurba_marseille","lat":43.30298,"lon":5.39177,"is_reserved":false,"is_disabled":false,"rental_uris":{"android":"levelo://app?vid=b1d6db0d-165e-43d3-82a0-a6da4598bd58","ios":"levelo://app?vid=b1d6db0d-165e-43d3-82a0-a6da4598bd58"},"vehicle_type_id":"4","last_reported":1774714871,"current_range_meters":2800,"station_id":"ce4bgkh2rcd13ifvqbk0","pricing_plan_id":"cebpf4jnsgd1na2vs0mg"},{"bike_id":"189cc580-c8ac-4c5f-adb5-0cd12493ccd3","system_id":"levelo_inurba_marseille","lat":43.30267,"lon":5.40074,"is_reserved":false,"is_disabled":false,"rental_uris":{"android":"levelo://app?vid=189cc580-c8ac-4c5f-adb5-0cd12493ccd3","ios":"levelo://app?vid=189cc580-c8ac-4c5f-adb5-0cd12493ccd3"},"vehicle_type_id":"4","last_reported":1774714871,"current_range_meters":2800,"station_id":"ce4bgvh2rcd13ifvqcs0","pricing_plan_id":"cebpf4jnsgd1na2vs0mg"},{"bike_id":"43dd77b9-7724-4f20-9ba0-1556a9a09a8c","system_id":"levelo_inurba_marseille","lat":43.26499,"lon":5.39537,"is_reserved":false,"is_disabled":false,"rental_uris":{"android":"levelo://app?vid=43dd77b9-7724-4f20-9ba0-1556a9a09a8c","ios":"levelo://app?vid=43dd77b9-7724-4f20-9ba0-1556a9a09a8c"},"vehicle_type_id":"4","last_reported":1774714871,"current_range_meters":2800,"station_id":"ce4bhi12rcd13ifvqfq0","pricing_plan_id":"cebpf4jnsgd1na2vs0mg"},{"bike_id":"122e8c8b-d93d-47c4-b38c-bf8cb2daae70","system_id":"levelo_inurba_marseille","lat":43.26375,"lon":5.41043,"is_reserved":false,"is_disabled":false,"rental_uris":{"android":"levelo://app?vid=122e8c8b-d93d-47c4-b38c-bf8cb2daae70","ios":"levelo://app?vid=122e8c8b-d93d-47c4-b38c-bf8cb2daae70"},"vehicle_type_id":"4","last_reported":1774714871,"current_range_meters":2800,"station_id":"st_d4e5ca6na9uc73bfl5fg","pricing_plan_id":"cebpf4jnsgd1na2vs0mg"},{"bike_id":"80db360c-7472-4e5e-a72d-ff0ab9900c5d","system_id":"levelo_inurba_marseille","lat":43.29201,"lon":5.42611,"is_reserved":false,"is_disabled":false,"rental_uris":{"android":"levelo://app?vid=80db360c-7472-4e5e-a72d-ff0ab9900c5d","ios":"levelo://app?vid=80db360c-7472-4e5e-a72d-ff0ab9900c5d"},"vehicle_type_id":"4","last_reported":1774714871,"current_range_meters":2800,"station_id":"","pricing_plan_id":"cebpf4jnsgd1na2vs0mg"},{"bike_id":"4d2c428a-06db-49bc-a222-2cbc52db76c0","system_id":"levelo_inurba_marseille","lat":43.24194,"lon":5.39743,"is_reserved":false,"is_disabled":false,"rental_uris":{"android":"levelo://app?vid=4d2c428a-06db-49bc-a222-2cbc52db76c0","ios":"levelo://app?vid=4d2c428a-06db-49bc-a222-2cbc52db76c0"},"vehicle_type_id":"4","last_reported":1774714871,"current_range_meters":3200,"station_id":"ce4bhn12rcd13ifvqgpg","pricing_plan_id":"cebpf4jnsgd1na2vs0mg"},{"bike_id":"42efb94c-1f2e-44e6-a6e6-f57b060b869e","system_id":"levelo_inurba_marseille","lat":43.24176,"lon":5.36399,"is_reserved":false,"is_disabled":false,"rental_uris":{"android":"levelo://app?vid=42efb94c-1f2e-44e6-a6e6-f57b060b869e","ios":"levelo://app?vid=42efb94c-1f2e-44e6-a6e6-f57b060b869e"},"vehicle_type_id":"4","last_reported":1774714871,"current_range_meters":3200,"station_id":"cpo36qri1sfpv3e86is0","pricing_plan_id":"cebpf4jnsgd1na2vs0mg"},{"bike_id":"bd934b71-fc54-44f1-90d5-67d1e4783891","system_id":"levelo_inurba_marseille","lat":43.24163,"lon":5.36394,"is_reserved":false,"is_disabled":false,"rental_uris":{"android":"levelo://app?vid=bd934b71-fc54-44f1-90d5-67d1e4783891","ios":"levelo://app?vid=bd934b71-fc54-44f1-90d5-67d1e4783891"},"vehicle_type_id":"4","last_reported":1774714871,"current_range_meters":3200,"station_id":"cpo36qri1sfpv3e86is0","pricing_plan_id":"cebpf4jnsgd1na2vs0mg"},{"bike_id":"e9dc9846-a1fb-4f3a-a8d5-dbd68cc5808d","system_id":"levelo_inurba_marseille","lat":43.30803,"lon":5.39985,"is_reserved":false,"is_disabled":false,"rental_uris":{"android":"levelo://app?vid=e9dc9846-a1fb-4f3a-a8d5-dbd68cc5808d","ios":"levelo://app?vid=e9dc9846-a1fb-4f3a-a8d5-dbd68cc5808d"},"vehicle_type_id":"4","last_reported":1774714871,"current_range_meters":3200,"station_id":"","pricing_plan_id":"cebpf4jnsgd1na2vs0mg"},{"bike_id":"0e349c35-32b3-4b65-b0c2-ad102d25a611","system_id":"levelo_inurba_marseille","lat":43.28485,"lon":5.38549,"is_reserved":false,"is_disabled":false,"rental_uris":{"android":"levelo://app?vid=0e349c35-32b3-4b65-b0c2-ad102d25a611","ios":"levelo://app?vid=0e349c35-32b3-4b65-b0c2-ad102d25a611"},"vehicle_type_id":"4","last_reported":1774714871,"current_range_meters":3200,"station_id":"ce4bh8p2rcd13ifvqeb0","pricing_plan_id":"cebpf4jnsgd1na2vs0mg"},{"bike_id":"a7e54049-c38f-4b88-af33-45885ba98fb7","system_id":"levelo_inurba_marseille","lat":43.24811,"lon":5.37458,"is_reserved":false,"is_disabled":false,"rental_uris":{"android":"levelo://app?vid=a7e54049-c38f-4b88-af33-45885ba98fb7","ios":"levelo://app?vid=a7e54049-c38f-4b88-af33-45885ba98fb7"},"vehicle_type_id":"4","last_reported":1774714871,"current_range_meters":3200,"station_id":"ce4bhgh2rcd13ifvqfb0","pricing_plan_id":"cebpf4jnsgd1na2vs0mg"},{"bike_id":"29b8f791-7789-4e9b-8e39-c750aefccf04","system_id":"levelo_inurba_marseille","lat":43.23801,"lon":5.36657,"is_reserved":false,"is_disabled":false,"rental_uris":{"android":"levelo://app?vid=29b8f791-7789-4e9b-8e39-c750aefccf04","ios":"levelo://app?vid=29b8f791-7789-4e9b-8e39-c750aefccf04"},"vehicle_type_id":"4","last_reported":1774714871,"current_range_meters":3200,"station_id":"st_d3nk18o9ro0c73en2l3g","pricing_plan_id":"cebpf4jnsgd1na2vs0mg"},{"bike_id":"d0e40080-fbad-4a99-b351-baa6a7553714","system_id":"levelo_inurba_marseille","lat":43.24664,"lon":5.38167,"is_reserved":false,"is_disabled":false,"rental_uris":{"android":"levelo://app?vid=d0e40080-fbad-4a99-b351-baa6a7553714","ios":"levelo://app?vid=d0e40080-fbad-4a99-b351-baa6a7553714"},"vehicle_type_id":"4","last_reported":1774714871,"current_range_meters":3200,"station_id":"ce4bhih2rcd13ifvqfr0","pricing_plan_id":"cebpf4jnsgd1na2vs0mg"},{"bike_id":"6c2a1739-fe94-46e9-988c-0dc5185d4012","system_id":"levelo_inurba_marseille","lat":43.31123,"lon":5.38617,"is_reserved":false,"is_disabled":false,"rental_uris":{"android":"levelo://app?vid=6c2a1739-fe94-46e9-988c-0dc5185d4012","ios":"levelo://app?vid=6c2a1739-fe94-46e9-988c-0dc5185d4012"},"vehicle_type_id":"4","last_reported":1774714871,"current_range_meters":3600,"station_id":"","pricing_plan_id":"cebpf4jnsgd1na2vs0mg"},{"bike_id":"69e27c7c-05d6-4969-a22c-fe27130751a8","system_id":"levelo_inurba_marseille","lat":43.21199,"lon":5.35087,"is_reserved":false,"is_disabled":false,"rental_uris":{"android":"levelo://app?vid=69e27c7c-05d6-4969-a22c-fe27130751a8","ios":"levelo://app?vid=69e27c7c-05d6-4969-a22c-fe27130751a8"},"vehicle_type_id":"4","last_reported":1774714871,"current_range_meters":3600,"station_id":"st_cvj6sg6p6f1abm77japg","pricing_plan_id":"cebpf4jnsgd1na2vs0mg"},{"bike_id":"d3d740f1-6710-46db-acac-578d85ddb2ff","system_id":"levelo_inurba_marseille","lat":43.29264,"lon":5.37638,"is_reserved":false,"is_disabled":false,"rental_uris":{"android":"levelo://app?vid=d3d740f1-6710-46db-acac-578d85ddb2ff","ios":"levelo://app?vid=d3d740f1-6710-46db-acac-578d85ddb2ff"},"vehicle_type_id":"4","last_reported":1774714871,"current_range_meters":3600,"station_id":"ce4bgi12rcd13ifvqb80","pricing_plan_id":"cebpf4jnsgd1na2vs0mg"},{"bike_id":"76afd0f9-39c6-4d10-a3a3-3323a029e46a","system_id":"levelo_inurba_marseille","lat":43.23319,"lon":5.41317,"is_reserved":false,"is_disabled":false,"rental_uris":{"android":"levelo://app?vid=76afd0f9-39c6-4d10-a3a3-3323a029e46a","ios":"levelo://app?vid=76afd0f9-39c6-4d10-a3a3-3323a029e46a"},"vehicle_type_id":"4","last_reported":1774714871,"current_range_meters":3600,"station_id":"","pricing_plan_id":"cebpf4jnsgd1na2vs0mg"},{"bike_id":"8a927669-3c1a-4573-98bd-585f9b534d2d","system_id":"levelo_inurba_marseille","lat":43.2447,"lon":5.42546,"is_reserved":false,"is_disabled":false,"rental_uris":{"android":"levelo://app?vid=8a927669-3c1a-4573-98bd-585f9b534d2d","ios":"levelo://app?vid=8a927669-3c1a-4573-98bd-585f9b534d2d"},"vehicle_type_id":"4","last_reported":1774714871,"current_range_meters":3600,"station_id":"st_d4a3vfp97mjs738cd8kg","pricing_plan_id":"cebpf4jnsgd1na2vs0mg"},{"bike_id":"7d38c45a-0011-4d05-9bbf-54b7323ff394","system_id":"levelo_inurba_marseille","lat":43.26371,"lon":5.41069,"is_reserved":false,"is_disabled":false,"rental_uris":{"android":"levelo://app?vid=7d38c45a-0011-4d05-9bbf-54b7323ff394","ios":"levelo://app?vid=7d38c45a-0011-4d05-9bbf-54b7323ff394"},"vehicle_type_id":"4","last_reported":1774714871,"current_range_meters":3600,"station_id":"st_d4e5ca6na9uc73bfl5fg","pricing_plan_id":"cebpf4jnsgd1na2vs0mg"},{"bike_id":"87e58c6a-da07-4889-be40-b8bad99664eb","system_id":"levelo_inurba_marseille","lat":43.22933,"lon":5.3538,"is_reserved":false,"is_disabled":false,"rental_uris":{"android":"levelo://app?vid=87e58c6a-da07-4889-be40-b8bad99664eb","ios":"levelo://app?vid=87e58c6a-da07-4889-be40-b8bad99664eb"},"vehicle_type_id":"4","last_reported":1774714871,"current_range_meters":3600,"station_id":"cpo3532slgdg3j2ikp40","pricing_plan_id":"cebpf4jnsgd1na2vs0mg"},{"bike_id":"ef48c5c7-1ed6-4580-a728-402a479bfc0f","system_id":"levelo_inurba_marseille","lat":43.28015,"lon":5.39986,"is_reserved":false,"is_disabled":false,"rental_uris":{"android":"levelo://app?vid=ef48c5c7-1ed6-4580-a728-402a479bfc0f","ios":"levelo://app?vid=ef48c5c7-1ed6-4580-a728-402a479bfc0f"},"vehicle_type_id":"4","last_reported":1774714871,"current_range_meters":3600,"station_id":"ce4bho92rcd13ifvqh4g","pricing_plan_id":"cebpf4jnsgd1na2vs0mg"},{"bike_id":"27f65587-f91a-41b1-aacf-8da5e702b79e","system_id":"levelo_inurba_marseille","lat":43.29757,"lon":5.42735,"is_reserved":false,"is_disabled":false,"rental_uris":{"android":"levelo://app?vid=27f65587-f91a-41b1-aacf-8da5e702b79e","ios":"levelo://app?vid=27f65587-f91a-41b1-aacf-8da5e702b79e"},"vehicle_type_id":"4","last_reported":1774714871,"current_range_meters":3600,"station_id":"st_d3md5207bmas73dh9klg","pricing_plan_id":"cebpf4jnsgd1na2vs0mg"},{"bike_id":"299c1db8-8b1c-4e76-8016-cf4f1472636c","system_id":"levelo_inurba_marseille","lat":43.30927,"lon":5.39967,"is_reserved":false,"is_disabled":false,"rental_uris":{"android":"levelo://app?vid=299c1db8-8b1c-4e76-8016-cf4f1472636c","ios":"levelo://app?vid=299c1db8-8b1c-4e76-8016-cf4f1472636c"},"vehicle_type_id":"4","last_reported":1774714871,"current_range_meters":3600,"station_id":"","pricing_plan_id":"cebpf4jnsgd1na2vs0mg"},{"bike_id":"d1db2865-b01a-464a-8190-a45f80b70f21","system_id":"levelo_inurba_marseille","lat":43.29631,"lon":5.40603,"is_reserved":false,"is_disabled":false,"rental_uris":{"android":"levelo://app?vid=d1db2865-b01a-464a-8190-a45f80b70f21","ios":"levelo://app?vid=d1db2865-b01a-464a-8190-a45f80b70f21"},"vehicle_type_id":"4","last_reported":1774714871,"current_range_meters":3600,"station_id":"ce4bh0h2rcd13ifvqd60","pricing_plan_id":"cebpf4jnsgd1na2vs0mg"},{"bike_id":"6d0ba167-953c-4732-a568-160c9dd956c2","system_id":"levelo_inurba_marseille","lat":43.23193,"lon":5.35557,"is_reserved":false,"is_disabled":false,"rental_uris":{"android":"levelo://app?vid=6d0ba167-953c-4732-a568-160c9dd956c2","ios":"levelo://app?vid=6d0ba167-953c-4732-a568-160c9dd956c2"},"vehicle_type_id":"4","last_reported":1774714871,"current_range_meters":3600,"station_id":"ce4bhu92rcd13ifvqi70","pricing_plan_id":"cebpf4jnsgd1na2vs0mg"},{"bike_id":"aa217bf8-6a56-4441-8db3-cef736f81ffa","system_id":"levelo_inurba_marseille","lat":43.2903,"lon":5.38643,"is_reserved":false,"is_disabled":false,"rental_uris":{"android":"levelo://app?vid=aa217bf8-6a56-4441-8db3-cef736f81ffa","ios":"levelo://app?vid=aa217bf8-6a56-4441-8db3-cef736f81ffa"},"vehicle_type_id":"4","last_reported":1774714871,"current_range_meters":3600,"station_id":"ce4bh4p2rcd13ifvqe0g","pricing_plan_id":"cebpf4jnsgd1na2vs0mg"},{"bike_id":"da52b8d1-8e0d-4f63-ac12-84faf2ef263c","system_id":"levelo_inurba_marseille","lat":43.29302,"lon":5.37145,"is_reserved":false,"is_disabled":false,"rental_uris":{"android":"levelo://app?vid=da52b8d1-8e0d-4f63-ac12-84faf2ef263c","ios":"levelo://app?vid=da52b8d1-8e0d-4f63-ac12-84faf2ef263c"},"vehicle_type_id":"4","last_reported":1774714871,"current_range_meters":3600,"station_id":"ce4bgh92rcd13ifvqb40","pricing_plan_id":"cebpf4jnsgd1na2vs0mg"},{"bike_id":"1208a70b-9ac2-4fbd-84ae-55b3244f4db6","system_id":"levelo_inurba_marseille","lat":43.27315,"lon":5.39135,"is_reserved":false,"is_disabled":false,"rental_uris":{"android":"levelo://app?vid=1208a70b-9ac2-4fbd-84ae-55b3244f4db6","ios":"levelo://app?vid=1208a70b-9ac2-4fbd-84ae-55b3244f4db6"},"vehicle_type_id":"4","last_reported":1774714871,"current_range_meters":3600,"station_id":"","pricing_plan_id":"cebpf4jnsgd1na2vs0mg"},{"bike_id":"f42503f9-be48-4491-b620-68200e247c54","system_id":"levelo_inurba_marseille","lat":43.26063,"lon":5.39395,"is_reserved":false,"is_disabled":false,"rental_uris":{"android":"levelo://app?vid=f42503f9-be48-4491-b620-68200e247c54","ios":"levelo://app?vid=f42503f9-be48-4491-b620-68200e247c54"},"vehicle_type_id":"4","last_reported":1774714871,"current_range_meters":3600,"station_id":"ce4bhh92rcd13ifvqfj0","pricing_plan_id":"cebpf4jnsgd1na2vs0mg"},{"bike_id":"1d7503c3-20ca-4fb6-92d0-5b5a5f6d18ec","system_id":"levelo_inurba_marseille","lat":43.22949,"lon":5.35432,"is_reserved":false,"is_disabled":false,"rental_uris":{"android":"levelo://app?vid=1d7503c3-20ca-4fb6-92d0-5b5a5f6d18ec","ios":"levelo://app?vid=1d7503c3-20ca-4fb6-92d0-5b5a5f6d18ec"},"vehicle_type_id":"4","last_reported":1774714871,"current_range_meters":4000,"station_id":"","pricing_plan_id":"cebpf4jnsgd1na2vs0mg"},{"bike_id":"6a7fd2aa-a90b-461a-8118-a8f8d903c462","system_id":"levelo_inurba_marseille","lat":43.28479,"lon":5.48504,"is_reserved":false,"is_disabled":false,"rental_uris":{"android":"levelo://app?vid=6a7fd2aa-a90b-461a-8118-a8f8d903c462","ios":"levelo://app?vid=6a7fd2aa-a90b-461a-8118-a8f8d903c462"},"vehicle_type_id":"4","last_reported":1774714871,"current_range_meters":4000,"station_id":"st_d3svhcjqgbts73a3dn0g","pricing_plan_id":"cebpf4jnsgd1na2vs0mg"},{"bike_id":"248e7202-bf14-41af-ab35-7275ee6c4d6f","system_id":"levelo_inurba_marseille","lat":43.23386,"lon":5.41252,"is_reserved":false,"is_disabled":false,"rental_uris":{"android":"levelo://app?vid=248e7202-bf14-41af-ab35-7275ee6c4d6f","ios":"levelo://app?vid=248e7202-bf14-41af-ab35-7275ee6c4d6f"},"vehicle_type_id":"4","last_reported":1774714871,"current_range_meters":4000,"station_id":"","pricing_plan_id":"cebpf4jnsgd1na2vs0mg"},{"bike_id":"b6491ba5-c897-4cab-8c35-742c0d00c0cb","system_id":"levelo_inurba_marseille","lat":43.24668,"lon":5.38175,"is_reserved":false,"is_disabled":false,"rental_uris":{"android":"levelo://app?vid=b6491ba5-c897-4cab-8c35-742c0d00c0cb","ios":"levelo://app?vid=b6491ba5-c897-4cab-8c35-742c0d00c0cb"},"vehicle_type_id":"4","last_reported":1774714871,"current_range_meters":4000,"station_id":"ce4bhih2rcd13ifvqfr0","pricing_plan_id":"cebpf4jnsgd1na2vs0mg"},{"bike_id":"4b8997c9-d4da-4889-9737-9d8efb4bcdd3","system_id":"levelo_inurba_marseille","lat":43.27946,"lon":5.41051,"is_reserved":false,"is_disabled":false,"rental_uris":{"android":"levelo://app?vid=4b8997c9-d4da-4889-9737-9d8efb4bcdd3","ios":"levelo://app?vid=4b8997c9-d4da-4889-9737-9d8efb4bcdd3"},"vehicle_type_id":"4","last_reported":1774714871,"current_range_meters":4000,"station_id":"ce4bhnp2rcd13ifvqh0g","pricing_plan_id":"cebpf4jnsgd1na2vs0mg"},{"bike_id":"2873a201-01ad-44f0-a3f4-1c2939d32934","system_id":"levelo_inurba_marseille","lat":43.31544,"lon":5.38011,"is_reserved":false,"is_disabled":false,"rental_uris":{"android":"levelo://app?vid=2873a201-01ad-44f0-a3f4-1c2939d32934","ios":"levelo://app?vid=2873a201-01ad-44f0-a3f4-1c2939d32934"},"vehicle_type_id":"4","last_reported":1774714871,"current_range_meters":4400,"station_id":"ce4bhsp2rcd13ifvqi50","pricing_plan_id":"cebpf4jnsgd1na2vs0mg"},{"bike_id":"6d99625a-c440-497d-a451-9e37c019bc12","system_id":"levelo_inurba_marseille","lat":43.28861,"lon":5.42517,"is_reserved":false,"is_disabled":false,"rental_uris":{"android":"levelo://app?vid=6d99625a-c440-497d-a451-9e37c019bc12","ios":"levelo://app?vid=6d99625a-c440-497d-a451-9e37c019bc12"},"vehicle_type_id":"4","last_reported":1774714871,"current_range_meters":4400,"station_id":"st_d3b462108ojc7389ooeg","pricing_plan_id":"cebpf4jnsgd1na2vs0mg"},{"bike_id":"0dea1b71-c2cb-4925-add2-cf474a007d54","system_id":"levelo_inurba_marseille","lat":43.27056,"lon":5.40259,"is_reserved":false,"is_disabled":false,"rental_uris":{"android":"levelo://app?vid=0dea1b71-c2cb-4925-add2-cf474a007d54","ios":"levelo://app?vid=0dea1b71-c2cb-4925-add2-cf474a007d54"},"vehicle_type_id":"4","last_reported":1774714871,"current_range_meters":4400,"station_id":"ce4bhk92rcd13ifvqgc0","pricing_plan_id":"cebpf4jnsgd1na2vs0mg"},{"bike_id":"c815a83e-49f2-4172-8292-fc2b7060bbcb","system_id":"levelo_inurba_marseille","lat":43.26066,"lon":5.39393,"is_reserved":false,"is_disabled":false,"rental_uris":{"android":"levelo://app?vid=c815a83e-49f2-4172-8292-fc2b7060bbcb","ios":"levelo://app?vid=c815a83e-49f2-4172-8292-fc2b7060bbcb"},"vehicle_type_id":"4","last_reported":1774714871,"current_range_meters":4400,"station_id":"ce4bhh92rcd13ifvqfj0","pricing_plan_id":"cebpf4jnsgd1na2vs0mg"},{"bike_id":"ff23f6c3-07d6-471d-b47c-972e4e2656c1","system_id":"levelo_inurba_marseille","lat":43.21191,"lon":5.35078,"is_reserved":false,"is_disabled":false,"rental_uris":{"android":"levelo://app?vid=ff23f6c3-07d6-471d-b47c-972e4e2656c1","ios":"levelo://app?vid=ff23f6c3-07d6-471d-b47c-972e4e2656c1"},"vehicle_type_id":"4","last_reported":1774714871,"current_range_meters":4400,"station_id":"st_cvj6sg6p6f1abm77japg","pricing_plan_id":"cebpf4jnsgd1na2vs0mg"},{"bike_id":"dce37f6d-125a-4df1-8586-7db950d19278","system_id":"levelo_inurba_marseille","lat":43.29834,"lon":5.36243,"is_reserved":false,"is_disabled":false,"rental_uris":{"android":"levelo://app?vid=dce37f6d-125a-4df1-8586-7db950d19278","ios":"levelo://app?vid=dce37f6d-125a-4df1-8586-7db950d19278"},"vehicle_type_id":"4","last_reported":1774714871,"current_range_meters":4400,"station_id":"ce4bgpp2rcd13ifvqc3g","pricing_plan_id":"cebpf4jnsgd1na2vs0mg"},{"bike_id":"e7b1cde6-d820-405d-bcbf-123e74614a1d","system_id":"levelo_inurba_marseille","lat":43.29041,"lon":5.38652,"is_reserved":false,"is_disabled":false,"rental_uris":{"android":"levelo://app?vid=e7b1cde6-d820-405d-bcbf-123e74614a1d","ios":"levelo://app?vid=e7b1cde6-d820-405d-bcbf-123e74614a1d"},"vehicle_type_id":"4","last_reported":1774714871,"current_range_meters":4400,"station_id":"ce4bh4p2rcd13ifvqe0g","pricing_plan_id":"cebpf4jnsgd1na2vs0mg"},{"bike_id":"38f4e415-36c2-4383-823c-17dbe9c22d68","system_id":"levelo_inurba_marseille","lat":43.23794,"lon":5.36639,"is_reserved":false,"is_disabled":false,"rental_uris":{"android":"levelo://app?vid=38f4e415-36c2-4383-823c-17dbe9c22d68","ios":"levelo://app?vid=38f4e415-36c2-4383-823c-17dbe9c22d68"},"vehicle_type_id":"4","last_reported":1774714871,"current_range_meters":4400,"station_id":"st_d3nk18o9ro0c73en2l3g","pricing_plan_id":"cebpf4jnsgd1na2vs0mg"},{"bike_id":"b51d43d0-b538-4b30-b0d5-e5c1be881443","system_id":"levelo_inurba_marseille","lat":43.28699,"lon":5.46688,"is_reserved":false,"is_disabled":false,"rental_uris":{"android":"levelo://app?vid=b51d43d0-b538-4b30-b0d5-e5c1be881443","ios":"levelo://app?vid=b51d43d0-b538-4b30-b0d5-e5c1be881443"},"vehicle_type_id":"4","last_reported":1774714871,"current_range_meters":4400,"station_id":"st_d6tc3vkotcvc738tfjhg","pricing_plan_id":"cebpf4jnsgd1na2vs0mg"},{"bike_id":"8469c929-32f3-4816-bd50-23a55c4a3026","system_id":"levelo_inurba_marseille","lat":43.28284,"lon":5.35129,"is_reserved":false,"is_disabled":false,"rental_uris":{"android":"levelo://app?vid=8469c929-32f3-4816-bd50-23a55c4a3026","ios":"levelo://app?vid=8469c929-32f3-4816-bd50-23a55c4a3026"},"vehicle_type_id":"4","last_reported":1774714871,"current_range_meters":4400,"station_id":"","pricing_plan_id":"cebpf4jnsgd1na2vs0mg"},{"bike_id":"f967aac8-bff7-4d61-9c8d-307b8d7b6ffd","system_id":"levelo_inurba_marseille","lat":43.25338,"lon":5.42178,"is_reserved":false,"is_disabled":false,"rental_uris":{"android":"levelo://app?vid=f967aac8-bff7-4d61-9c8d-307b8d7b6ffd","ios":"levelo://app?vid=f967aac8-bff7-4d61-9c8d-307b8d7b6ffd"},"vehicle_type_id":"4","last_reported":1774714871,"current_range_meters":4800,"station_id":"st_d2m65c5bi1j21697t3ng","pricing_plan_id":"cebpf4jnsgd1na2vs0mg"},{"bike_id":"5441622b-3e9b-4b93-b0fd-6992bf78accb","system_id":"levelo_inurba_marseille","lat":43.30243,"lon":5.40049,"is_reserved":false,"is_disabled":false,"rental_uris":{"android":"levelo://app?vid=5441622b-3e9b-4b93-b0fd-6992bf78accb","ios":"levelo://app?vid=5441622b-3e9b-4b93-b0fd-6992bf78accb"},"vehicle_type_id":"4","last_reported":1774714871,"current_range_meters":4800,"station_id":"ce4bgvh2rcd13ifvqcs0","pricing_plan_id":"cebpf4jnsgd1na2vs0mg"},{"bike_id":"069b2c37-0541-4ce9-84e5-9f146f8e24bb","system_id":"levelo_inurba_marseille","lat":43.30551,"lon":5.3654,"is_reserved":false,"is_disabled":false,"rental_uris":{"android":"levelo://app?vid=069b2c37-0541-4ce9-84e5-9f146f8e24bb","ios":"levelo://app?vid=069b2c37-0541-4ce9-84e5-9f146f8e24bb"},"vehicle_type_id":"4","last_reported":1774714871,"current_range_meters":4800,"station_id":"ce4bgs12rcd13ifvqcag","pricing_plan_id":"cebpf4jnsgd1na2vs0mg"},{"bike_id":"7d88454c-5db9-4cbe-86a0-1ebe5d14c121","system_id":"levelo_inurba_marseille","lat":43.2691,"lon":5.3894,"is_reserved":false,"is_disabled":false,"rental_uris":{"android":"levelo://app?vid=7d88454c-5db9-4cbe-86a0-1ebe5d14c121","ios":"levelo://app?vid=7d88454c-5db9-4cbe-86a0-1ebe5d14c121"},"vehicle_type_id":"4","last_reported":1774714871,"current_range_meters":4800,"station_id":"ce4bhhh2rcd13ifvqfl0","pricing_plan_id":"cebpf4jnsgd1na2vs0mg"},{"bike_id":"2bc6440e-2cc8-48d9-9183-fe76450962fa","system_id":"levelo_inurba_marseille","lat":43.29714,"lon":5.36608,"is_reserved":false,"is_disabled":false,"rental_uris":{"android":"levelo://app?vid=2bc6440e-2cc8-48d9-9183-fe76450962fa","ios":"levelo://app?vid=2bc6440e-2cc8-48d9-9183-fe76450962fa"},"vehicle_type_id":"4","last_reported":1774714871,"current_range_meters":4800,"station_id":"ce4bgn12rcd13ifvqbt0","pricing_plan_id":"cebpf4jnsgd1na2vs0mg"},{"bike_id":"810866de-515f-42c2-a496-1fa6ab61c426","system_id":"levelo_inurba_marseille","lat":43.29914,"lon":5.37459,"is_reserved":false,"is_disabled":false,"rental_uris":{"android":"levelo://app?vid=810866de-515f-42c2-a496-1fa6ab61c426","ios":"levelo://app?vid=810866de-515f-42c2-a496-1fa6ab61c426"},"vehicle_type_id":"4","last_reported":1774714871,"current_range_meters":4800,"station_id":"ce4bgjh2rcd13ifvqbg0","pricing_plan_id":"cebpf4jnsgd1na2vs0mg"},{"bike_id":"c9a327ca-3cad-4564-8758-287935ac9a8c","system_id":"levelo_inurba_marseille","lat":43.278376,"lon":5.392086,"is_reserved":false,"is_disabled":false,"rental_uris":{"android":"levelo://app?vid=c9a327ca-3cad-4564-8758-287935ac9a8c","ios":"levelo://app?vid=c9a327ca-3cad-4564-8758-287935ac9a8c"},"vehicle_type_id":"4","last_reported":1774714871,"current_range_meters":4800,"station_id":"ce4bhjp2rcd13ifvqga0","pricing_plan_id":"cebpf4jnsgd1na2vs0mg"},{"bike_id":"ad692878-1004-4ff6-928b-29aefa705b35","system_id":"levelo_inurba_marseille","lat":43.282623,"lon":5.350625,"is_reserved":false,"is_disabled":false,"rental_uris":{"android":"levelo://app?vid=ad692878-1004-4ff6-928b-29aefa705b35","ios":"levelo://app?vid=ad692878-1004-4ff6-928b-29aefa705b35"},"vehicle_type_id":"4","last_reported":1774714871,"current_range_meters":4800,"station_id":"ce4bhbp2rcd13ifvqerg","pricing_plan_id":"cebpf4jnsgd1na2vs0mg"},{"bike_id":"7d020d71-cc83-4e81-8db1-f460e125d5ff","system_id":"levelo_inurba_marseille","lat":43.23782,"lon":5.3663,"is_reserved":false,"is_disabled":false,"rental_uris":{"android":"levelo://app?vid=7d020d71-cc83-4e81-8db1-f460e125d5ff","ios":"levelo://app?vid=7d020d71-cc83-4e81-8db1-f460e125d5ff"},"vehicle_type_id":"4","last_reported":1774714871,"current_range_meters":4800,"station_id":"st_d3nk18o9ro0c73en2l3g","pricing_plan_id":"cebpf4jnsgd1na2vs0mg"},{"bike_id":"9c448445-1c60-4520-a1cb-98a7a7992b90","system_id":"levelo_inurba_marseille","lat":43.28467,"lon":5.48404,"is_reserved":false,"is_disabled":false,"rental_uris":{"android":"levelo://app?vid=9c448445-1c60-4520-a1cb-98a7a7992b90","ios":"levelo://app?vid=9c448445-1c60-4520-a1cb-98a7a7992b90"},"vehicle_type_id":"4","last_reported":1774714871,"current_range_meters":4800,"station_id":"","pricing_plan_id":"cebpf4jnsgd1na2vs0mg"},{"bike_id":"d53ccacc-5106-414a-a96f-7562aff144d0","system_id":"levelo_inurba_marseille","lat":43.28983,"lon":5.38566,"is_reserved":false,"is_disabled":false,"rental_uris":{"android":"levelo://app?vid=d53ccacc-5106-414a-a96f-7562aff144d0","ios":"levelo://app?vid=d53ccacc-5106-414a-a96f-7562aff144d0"},"vehicle_type_id":"4","last_reported":1774714871,"current_range_meters":5600,"station_id":"","pricing_plan_id":"cebpf4jnsgd1na2vs0mg"},{"bike_id":"1e02fd97-12b6-42bd-b23c-433ee22bd9de","system_id":"levelo_inurba_marseille","lat":43.29023,"lon":5.3813,"is_reserved":false,"is_disabled":true,"rental_uris":{"android":"levelo://app?vid=1e02fd97-12b6-42bd-b23c-433ee22bd9de","ios":"levelo://app?vid=1e02fd97-12b6-42bd-b23c-433ee22bd9de"},"vehicle_type_id":"4","last_reported":1774714871,"current_range_meters":5600,"station_id":"ce4bh4p2rcd13ifvqe1g","pricing_plan_id":"cebpf4jnsgd1na2vs0mg"},{"bike_id":"ff0da1a2-3d1c-43ac-899e-2eb7e114000d","system_id":"levelo_inurba_marseille","lat":43.24174,"lon":5.3974,"is_reserved":false,"is_disabled":false,"rental_uris":{"android":"levelo://app?vid=ff0da1a2-3d1c-43ac-899e-2eb7e114000d","ios":"levelo://app?vid=ff0da1a2-3d1c-43ac-899e-2eb7e114000d"},"vehicle_type_id":"4","last_reported":1774714871,"current_range_meters":5600,"station_id":"ce4bhn12rcd13ifvqgpg","pricing_plan_id":"cebpf4jnsgd1na2vs0mg"},{"bike_id":"d97252d0-3958-45e2-926c-26e2d5f2ad61","system_id":"levelo_inurba_marseille","lat":43.24811,"lon":5.37454,"is_reserved":false,"is_disabled":false,"rental_uris":{"android":"levelo://app?vid=d97252d0-3958-45e2-926c-26e2d5f2ad61","ios":"levelo://app?vid=d97252d0-3958-45e2-926c-26e2d5f2ad61"},"vehicle_type_id":"4","last_reported":1774714871,"current_range_meters":5600,"station_id":"ce4bhgh2rcd13ifvqfb0","pricing_plan_id":"cebpf4jnsgd1na2vs0mg"},{"bike_id":"e4317db7-0ca3-40d0-a7f9-25b39a1acb01","system_id":"levelo_inurba_marseille","lat":43.30797,"lon":5.38152,"is_reserved":false,"is_disabled":false,"rental_uris":{"android":"levelo://app?vid=e4317db7-0ca3-40d0-a7f9-25b39a1acb01","ios":"levelo://app?vid=e4317db7-0ca3-40d0-a7f9-25b39a1acb01"},"vehicle_type_id":"4","last_reported":1774714871,"current_range_meters":5600,"station_id":"ce4bgt12rcd13ifvqce0","pricing_plan_id":"cebpf4jnsgd1na2vs0mg"},{"bike_id":"75fab6c0-77f7-4dbf-a4e0-530f4e5892f3","system_id":"levelo_inurba_marseille","lat":43.27432,"lon":5.39411,"is_reserved":false,"is_disabled":false,"rental_uris":{"android":"levelo://app?vid=75fab6c0-77f7-4dbf-a4e0-530f4e5892f3","ios":"levelo://app?vid=75fab6c0-77f7-4dbf-a4e0-530f4e5892f3"},"vehicle_type_id":"4","last_reported":1774714871,"current_range_meters":5600,"station_id":"ce4bhdp2rcd13ifvqf20","pricing_plan_id":"cebpf4jnsgd1na2vs0mg"},{"bike_id":"e26b83f0-ea9a-4902-83bc-f41ab9a4ead8","system_id":"levelo_inurba_marseille","lat":43.231693,"lon":5.354867,"is_reserved":false,"is_disabled":false,"rental_uris":{"android":"levelo://app?vid=e26b83f0-ea9a-4902-83bc-f41ab9a4ead8","ios":"levelo://app?vid=e26b83f0-ea9a-4902-83bc-f41ab9a4ead8"},"vehicle_type_id":"4","last_reported":1774714871,"current_range_meters":5600,"station_id":"cpo3342slgdg3j2ifvpg","pricing_plan_id":"cebpf4jnsgd1na2vs0mg"},{"bike_id":"5969c3f9-bb5c-48df-9b54-f62d28d08c6a","system_id":"levelo_inurba_marseille","lat":43.25994,"lon":5.39462,"is_reserved":false,"is_disabled":false,"rental_uris":{"android":"levelo://app?vid=5969c3f9-bb5c-48df-9b54-f62d28d08c6a","ios":"levelo://app?vid=5969c3f9-bb5c-48df-9b54-f62d28d08c6a"},"vehicle_type_id":"4","last_reported":1774714871,"current_range_meters":5600,"station_id":"","pricing_plan_id":"cebpf4jnsgd1na2vs0mg"},{"bike_id":"8521b2e6-7925-4ce4-888e-a33f20980115","system_id":"levelo_inurba_marseille","lat":43.28141,"lon":5.38322,"is_reserved":false,"is_disabled":false,"rental_uris":{"android":"levelo://app?vid=8521b2e6-7925-4ce4-888e-a33f20980115","ios":"levelo://app?vid=8521b2e6-7925-4ce4-888e-a33f20980115"},"vehicle_type_id":"4","last_reported":1774714871,"current_range_meters":5600,"station_id":"","pricing_plan_id":"cebpf4jnsgd1na2vs0mg"},{"bike_id":"e129a5ba-c212-4a67-b3fa-d943e411e20d","system_id":"levelo_inurba_marseille","lat":43.25071,"lon":5.40438,"is_reserved":false,"is_disabled":false,"rental_uris":{"android":"levelo://app?vid=e129a5ba-c212-4a67-b3fa-d943e411e20d","ios":"levelo://app?vid=e129a5ba-c212-4a67-b3fa-d943e411e20d"},"vehicle_type_id":"4","last_reported":1774714871,"current_range_meters":5600,"station_id":"","pricing_plan_id":"cebpf4jnsgd1na2vs0mg"},{"bike_id":"a48900c5-dcb6-4e31-bcca-4eb461e90243","system_id":"levelo_inurba_marseille","lat":43.28418,"lon":5.34994,"is_reserved":false,"is_disabled":false,"rental_uris":{"android":"levelo://app?vid=a48900c5-dcb6-4e31-bcca-4eb461e90243","ios":"levelo://app?vid=a48900c5-dcb6-4e31-bcca-4eb461e90243"},"vehicle_type_id":"4","last_reported":1774714871,"current_range_meters":5600,"station_id":"ce4bhbh2rcd13ifvqepg","pricing_plan_id":"cebpf4jnsgd1na2vs0mg"},{"bike_id":"e2fd0609-65a4-4990-91d6-e89e8fbab07e","system_id":"levelo_inurba_marseille","lat":43.32113,"lon":5.36748,"is_reserved":false,"is_disabled":false,"rental_uris":{"android":"levelo://app?vid=e2fd0609-65a4-4990-91d6-e89e8fbab07e","ios":"levelo://app?vid=e2fd0609-65a4-4990-91d6-e89e8fbab07e"},"vehicle_type_id":"4","last_reported":1774714871,"current_range_meters":5600,"station_id":"ce4bhrh2rcd13ifvqhug","pricing_plan_id":"cebpf4jnsgd1na2vs0mg"},{"bike_id":"f518f268-6b3f-43f7-8a57-06367552d105","system_id":"levelo_inurba_marseille","lat":43.25093,"lon":5.39519,"is_reserved":false,"is_disabled":false,"rental_uris":{"android":"levelo://app?vid=f518f268-6b3f-43f7-8a57-06367552d105","ios":"levelo://app?vid=f518f268-6b3f-43f7-8a57-06367552d105"},"vehicle_type_id":"4","last_reported":1774714871,"current_range_meters":5600,"station_id":"ce4bhm12rcd13ifvqgkg","pricing_plan_id":"cebpf4jnsgd1na2vs0mg"},{"bike_id":"2f019591-3087-43f0-affb-e2eede13213e","system_id":"levelo_inurba_marseille","lat":43.24211,"lon":5.36636,"is_reserved":false,"is_disabled":false,"rental_uris":{"android":"levelo://app?vid=2f019591-3087-43f0-affb-e2eede13213e","ios":"levelo://app?vid=2f019591-3087-43f0-affb-e2eede13213e"},"vehicle_type_id":"4","last_reported":1774714871,"current_range_meters":6000,"station_id":"","pricing_plan_id":"cebpf4jnsgd1na2vs0mg"},{"bike_id":"743d63e8-9118-41f3-8461-0b8daeb19fb5","system_id":"levelo_inurba_marseille","lat":43.29792,"lon":5.381,"is_reserved":false,"is_disabled":false,"rental_uris":{"android":"levelo://app?vid=743d63e8-9118-41f3-8461-0b8daeb19fb5","ios":"levelo://app?vid=743d63e8-9118-41f3-8461-0b8daeb19fb5"},"vehicle_type_id":"4","last_reported":1774714871,"current_range_meters":6000,"station_id":"ce4bgip2rcd13ifvqbb0","pricing_plan_id":"cebpf4jnsgd1na2vs0mg"},{"bike_id":"b113cf92-4330-4528-9067-04b3fa940d34","system_id":"levelo_inurba_marseille","lat":43.231148,"lon":5.354744,"is_reserved":false,"is_disabled":false,"rental_uris":{"android":"levelo://app?vid=b113cf92-4330-4528-9067-04b3fa940d34","ios":"levelo://app?vid=b113cf92-4330-4528-9067-04b3fa940d34"},"vehicle_type_id":"4","last_reported":1774714871,"current_range_meters":6000,"station_id":"cpo3342slgdg3j2ifvpg","pricing_plan_id":"cebpf4jnsgd1na2vs0mg"},{"bike_id":"75d31b80-4e21-477c-9e82-c4a19e384887","system_id":"levelo_inurba_marseille","lat":43.30585,"lon":5.37245,"is_reserved":false,"is_disabled":true,"rental_uris":{"android":"levelo://app?vid=75d31b80-4e21-477c-9e82-c4a19e384887","ios":"levelo://app?vid=75d31b80-4e21-477c-9e82-c4a19e384887"},"vehicle_type_id":"4","last_reported":1774714871,"current_range_meters":6000,"station_id":"ce4bgqh2rcd13ifvqc4g","pricing_plan_id":"cebpf4jnsgd1na2vs0mg"},{"bike_id":"2cb0ae82-1cb6-4c7f-add6-a204988a4fab","system_id":"levelo_inurba_marseille","lat":43.27992,"lon":5.41664,"is_reserved":false,"is_disabled":false,"rental_uris":{"android":"levelo://app?vid=2cb0ae82-1cb6-4c7f-add6-a204988a4fab","ios":"levelo://app?vid=2cb0ae82-1cb6-4c7f-add6-a204988a4fab"},"vehicle_type_id":"4","last_reported":1774714871,"current_range_meters":6000,"station_id":"ce4bho12rcd13ifvqh1g","pricing_plan_id":"cebpf4jnsgd1na2vs0mg"},{"bike_id":"f3d47af6-5b42-4057-b9f6-c501bdc25d75","system_id":"levelo_inurba_marseille","lat":43.23366,"lon":5.4124,"is_reserved":false,"is_disabled":false,"rental_uris":{"android":"levelo://app?vid=f3d47af6-5b42-4057-b9f6-c501bdc25d75","ios":"levelo://app?vid=f3d47af6-5b42-4057-b9f6-c501bdc25d75"},"vehicle_type_id":"4","last_reported":1774714871,"current_range_meters":6000,"station_id":"","pricing_plan_id":"cebpf4jnsgd1na2vs0mg"},{"bike_id":"7f5f4a35-fda4-4a33-b7ae-332aa08e4387","system_id":"levelo_inurba_marseille","lat":43.29759,"lon":5.42795,"is_reserved":false,"is_disabled":false,"rental_uris":{"android":"levelo://app?vid=7f5f4a35-fda4-4a33-b7ae-332aa08e4387","ios":"levelo://app?vid=7f5f4a35-fda4-4a33-b7ae-332aa08e4387"},"vehicle_type_id":"4","last_reported":1774714871,"current_range_meters":6000,"station_id":"st_d3md5207bmas73dh9klg","pricing_plan_id":"cebpf4jnsgd1na2vs0mg"},{"bike_id":"fbd013e2-8567-4cc4-a7c6-24dd8fd5e924","system_id":"levelo_inurba_marseille","lat":43.28966,"lon":5.35603,"is_reserved":false,"is_disabled":false,"rental_uris":{"android":"levelo://app?vid=fbd013e2-8567-4cc4-a7c6-24dd8fd5e924","ios":"levelo://app?vid=fbd013e2-8567-4cc4-a7c6-24dd8fd5e924"},"vehicle_type_id":"4","last_reported":1774714871,"current_range_meters":6000,"station_id":"ce4bhb92rcd13ifvqen0","pricing_plan_id":"cebpf4jnsgd1na2vs0mg"},{"bike_id":"ac1a9d6c-17a0-4e01-9607-d886e691e83d","system_id":"levelo_inurba_marseille","lat":43.24419,"lon":5.37078,"is_reserved":false,"is_disabled":false,"rental_uris":{"android":"levelo://app?vid=ac1a9d6c-17a0-4e01-9607-d886e691e83d","ios":"levelo://app?vid=ac1a9d6c-17a0-4e01-9607-d886e691e83d"},"vehicle_type_id":"4","last_reported":1774714871,"current_range_meters":6400,"station_id":"ce4bhhh2rcd13ifvqfk0","pricing_plan_id":"cebpf4jnsgd1na2vs0mg"},{"bike_id":"4261fad2-1e9a-40a4-a4ce-af58c191085f","system_id":"levelo_inurba_marseille","lat":43.31485,"lon":5.37291,"is_reserved":false,"is_disabled":false,"rental_uris":{"android":"levelo://app?vid=4261fad2-1e9a-40a4-a4ce-af58c191085f","ios":"levelo://app?vid=4261fad2-1e9a-40a4-a4ce-af58c191085f"},"vehicle_type_id":"4","last_reported":1774714871,"current_range_meters":6400,"station_id":"ce4bgt12rcd13ifvqcd0","pricing_plan_id":"cebpf4jnsgd1na2vs0mg"},{"bike_id":"93407fc0-470e-4add-875d-bbc1d0aea12c","system_id":"levelo_inurba_marseille","lat":43.29632,"lon":5.37707,"is_reserved":false,"is_disabled":false,"rental_uris":{"android":"levelo://app?vid=93407fc0-470e-4add-875d-bbc1d0aea12c","ios":"levelo://app?vid=93407fc0-470e-4add-875d-bbc1d0aea12c"},"vehicle_type_id":"4","last_reported":1774714871,"current_range_meters":6400,"station_id":"ce4bgi92rcd13ifvqb90","pricing_plan_id":"cebpf4jnsgd1na2vs0mg"},{"bike_id":"48c60627-cda0-4748-b977-ff68e7bf0223","system_id":"levelo_inurba_marseille","lat":43.29795,"lon":5.37102,"is_reserved":false,"is_disabled":false,"rental_uris":{"android":"levelo://app?vid=48c60627-cda0-4748-b977-ff68e7bf0223","ios":"levelo://app?vid=48c60627-cda0-4748-b977-ff68e7bf0223"},"vehicle_type_id":"4","last_reported":1774714871,"current_range_meters":6400,"station_id":"ce4bgop2rcd13ifvqc1g","pricing_plan_id":"cebpf4jnsgd1na2vs0mg"},{"bike_id":"80f7f6c4-1406-416c-b47d-0fd56bd91196","system_id":"levelo_inurba_marseille","lat":43.21185,"lon":5.35066,"is_reserved":false,"is_disabled":false,"rental_uris":{"android":"levelo://app?vid=80f7f6c4-1406-416c-b47d-0fd56bd91196","ios":"levelo://app?vid=80f7f6c4-1406-416c-b47d-0fd56bd91196"},"vehicle_type_id":"4","last_reported":1774714871,"current_range_meters":6400,"station_id":"st_cvj6sg6p6f1abm77japg","pricing_plan_id":"cebpf4jnsgd1na2vs0mg"},{"bike_id":"5ee5bcec-3d7a-4ae9-ac1b-671e25745ef9","system_id":"levelo_inurba_marseille","lat":43.28272,"lon":5.35067,"is_reserved":false,"is_disabled":false,"rental_uris":{"android":"levelo://app?vid=5ee5bcec-3d7a-4ae9-ac1b-671e25745ef9","ios":"levelo://app?vid=5ee5bcec-3d7a-4ae9-ac1b-671e25745ef9"},"vehicle_type_id":"4","last_reported":1774714871,"current_range_meters":6400,"station_id":"ce4bhbp2rcd13ifvqerg","pricing_plan_id":"cebpf4jnsgd1na2vs0mg"},{"bike_id":"6d55693b-f207-45a6-8bc4-a39ad3c9ba7a","system_id":"levelo_inurba_marseille","lat":43.26809,"lon":5.3902,"is_reserved":false,"is_disabled":false,"rental_uris":{"android":"levelo://app?vid=6d55693b-f207-45a6-8bc4-a39ad3c9ba7a","ios":"levelo://app?vid=6d55693b-f207-45a6-8bc4-a39ad3c9ba7a"},"vehicle_type_id":"4","last_reported":1774714871,"current_range_meters":6800,"station_id":"","pricing_plan_id":"cebpf4jnsgd1na2vs0mg"},{"bike_id":"9e955995-81d3-4d62-89f5-f1517263c308","system_id":"levelo_inurba_marseille","lat":43.31723,"lon":5.3818,"is_reserved":false,"is_disabled":false,"rental_uris":{"android":"levelo://app?vid=9e955995-81d3-4d62-89f5-f1517263c308","ios":"levelo://app?vid=9e955995-81d3-4d62-89f5-f1517263c308"},"vehicle_type_id":"4","last_reported":1774714871,"current_range_meters":6800,"station_id":"","pricing_plan_id":"cebpf4jnsgd1na2vs0mg"},{"bike_id":"f6d4245b-c41c-4ec7-bb98-524c289bd3f3","system_id":"levelo_inurba_marseille","lat":43.25565,"lon":5.38234,"is_reserved":false,"is_disabled":false,"rental_uris":{"android":"levelo://app?vid=f6d4245b-c41c-4ec7-bb98-524c289bd3f3","ios":"levelo://app?vid=f6d4245b-c41c-4ec7-bb98-524c289bd3f3"},"vehicle_type_id":"4","last_reported":1774714871,"current_range_meters":6800,"station_id":"ce4bhih2rcd13ifvqfs0","pricing_plan_id":"cebpf4jnsgd1na2vs0mg"},{"bike_id":"b74978cb-5b51-4041-8c1c-97c8f4ca71d2","system_id":"levelo_inurba_marseille","lat":43.3118,"lon":5.4063,"is_reserved":false,"is_disabled":false,"rental_uris":{"android":"levelo://app?vid=b74978cb-5b51-4041-8c1c-97c8f4ca71d2","ios":"levelo://app?vid=b74978cb-5b51-4041-8c1c-97c8f4ca71d2"},"vehicle_type_id":"4","last_reported":1774714871,"current_range_meters":6800,"station_id":"","pricing_plan_id":"cebpf4jnsgd1na2vs0mg"},{"bike_id":"3cf37742-558c-4f25-9c21-256b80b90180","system_id":"levelo_inurba_marseille","lat":43.29217,"lon":5.36148,"is_reserved":false,"is_disabled":false,"rental_uris":{"android":"levelo://app?vid=3cf37742-558c-4f25-9c21-256b80b90180","ios":"levelo://app?vid=3cf37742-558c-4f25-9c21-256b80b90180"},"vehicle_type_id":"4","last_reported":1774714871,"current_range_meters":6800,"station_id":"","pricing_plan_id":"cebpf4jnsgd1na2vs0mg"},{"bike_id":"77abe88e-3185-4dfa-9522-fd2d73be0caa","system_id":"levelo_inurba_marseille","lat":43.26212,"lon":5.37441,"is_reserved":false,"is_disabled":false,"rental_uris":{"android":"levelo://app?vid=77abe88e-3185-4dfa-9522-fd2d73be0caa","ios":"levelo://app?vid=77abe88e-3185-4dfa-9522-fd2d73be0caa"},"vehicle_type_id":"4","last_reported":1774714871,"current_range_meters":6800,"station_id":"ce4bhgp2rcd13ifvqfc0","pricing_plan_id":"cebpf4jnsgd1na2vs0mg"},{"bike_id":"8a9f2693-4e00-46c2-889b-ecd96fb67e49","system_id":"levelo_inurba_marseille","lat":43.29279,"lon":5.3684,"is_reserved":false,"is_disabled":false,"rental_uris":{"android":"levelo://app?vid=8a9f2693-4e00-46c2-889b-ecd96fb67e49","ios":"levelo://app?vid=8a9f2693-4e00-46c2-889b-ecd96fb67e49"},"vehicle_type_id":"4","last_reported":1774714871,"current_range_meters":6800,"station_id":"ce4bhbp2rcd13ifvqesg","pricing_plan_id":"cebpf4jnsgd1na2vs0mg"},{"bike_id":"2d5262be-582c-4d87-a7a2-b4c3f4ed4d38","system_id":"levelo_inurba_marseille","lat":43.22565,"lon":5.41627,"is_reserved":false,"is_disabled":false,"rental_uris":{"android":"levelo://app?vid=2d5262be-582c-4d87-a7a2-b4c3f4ed4d38","ios":"levelo://app?vid=2d5262be-582c-4d87-a7a2-b4c3f4ed4d38"},"vehicle_type_id":"4","last_reported":1774714871,"current_range_meters":6800,"station_id":"st_d2o4gvlbi1j2169b742g","pricing_plan_id":"cebpf4jnsgd1na2vs0mg"},{"bike_id":"b5f01c8b-520d-40e0-87b2-d80c0c0cef8e","system_id":"levelo_inurba_marseille","lat":43.31324,"lon":5.39692,"is_reserved":false,"is_disabled":false,"rental_uris":{"android":"levelo://app?vid=b5f01c8b-520d-40e0-87b2-d80c0c0cef8e","ios":"levelo://app?vid=b5f01c8b-520d-40e0-87b2-d80c0c0cef8e"},"vehicle_type_id":"4","last_reported":1774714871,"current_range_meters":6800,"station_id":"ce4bgvp2rcd13ifvqcu0","pricing_plan_id":"cebpf4jnsgd1na2vs0mg"},{"bike_id":"98a09d62-237f-4c22-9f94-0decc41f13d5","system_id":"levelo_inurba_marseille","lat":43.2621,"lon":5.37439,"is_reserved":false,"is_disabled":false,"rental_uris":{"android":"levelo://app?vid=98a09d62-237f-4c22-9f94-0decc41f13d5","ios":"levelo://app?vid=98a09d62-237f-4c22-9f94-0decc41f13d5"},"vehicle_type_id":"4","last_reported":1774714871,"current_range_meters":6800,"station_id":"ce4bhgp2rcd13ifvqfc0","pricing_plan_id":"cebpf4jnsgd1na2vs0mg"},{"bike_id":"7cf82744-c93d-495a-9382-ad02918a1439","system_id":"levelo_inurba_marseille","lat":43.29561,"lon":5.37492,"is_reserved":false,"is_disabled":false,"rental_uris":{"android":"levelo://app?vid=7cf82744-c93d-495a-9382-ad02918a1439","ios":"levelo://app?vid=7cf82744-c93d-495a-9382-ad02918a1439"},"vehicle_type_id":"4","last_reported":1774714871,"current_range_meters":6800,"station_id":"ce4bgh92rcd13ifvqb50","pricing_plan_id":"cebpf4jnsgd1na2vs0mg"},{"bike_id":"c7af05b3-4ddb-499c-ae8b-c6fd8683ba94","system_id":"levelo_inurba_marseille","lat":43.29549,"lon":5.38325,"is_reserved":false,"is_disabled":false,"rental_uris":{"android":"levelo://app?vid=c7af05b3-4ddb-499c-ae8b-c6fd8683ba94","ios":"levelo://app?vid=c7af05b3-4ddb-499c-ae8b-c6fd8683ba94"},"vehicle_type_id":"4","last_reported":1774714871,"current_range_meters":6800,"station_id":"","pricing_plan_id":"cebpf4jnsgd1na2vs0mg"},{"bike_id":"0112cd0c-16ee-4908-bf83-c077da9c917d","system_id":"levelo_inurba_marseille","lat":43.30215,"lon":5.39459,"is_reserved":false,"is_disabled":false,"rental_uris":{"android":"levelo://app?vid=0112cd0c-16ee-4908-bf83-c077da9c917d","ios":"levelo://app?vid=0112cd0c-16ee-4908-bf83-c077da9c917d"},"vehicle_type_id":"4","last_reported":1774714871,"current_range_meters":6800,"station_id":"ce4bh0p2rcd13ifvqd70","pricing_plan_id":"cebpf4jnsgd1na2vs0mg"},{"bike_id":"01a46035-7fba-42ee-bf69-5c51e1d94bd3","system_id":"levelo_inurba_marseille","lat":43.255,"lon":5.3765,"is_reserved":false,"is_disabled":false,"rental_uris":{"android":"levelo://app?vid=01a46035-7fba-42ee-bf69-5c51e1d94bd3","ios":"levelo://app?vid=01a46035-7fba-42ee-bf69-5c51e1d94bd3"},"vehicle_type_id":"4","last_reported":1774714871,"current_range_meters":6800,"station_id":"ce4bhh12rcd13ifvqff0","pricing_plan_id":"cebpf4jnsgd1na2vs0mg"},{"bike_id":"ee61ce6b-caff-43d4-ba8a-d648173f4eb2","system_id":"levelo_inurba_marseille","lat":43.31175,"lon":5.38725,"is_reserved":false,"is_disabled":false,"rental_uris":{"android":"levelo://app?vid=ee61ce6b-caff-43d4-ba8a-d648173f4eb2","ios":"levelo://app?vid=ee61ce6b-caff-43d4-ba8a-d648173f4eb2"},"vehicle_type_id":"4","last_reported":1774714871,"current_range_meters":6800,"station_id":"ce4bgv12rcd13ifvqcp0","pricing_plan_id":"cebpf4jnsgd1na2vs0mg"},{"bike_id":"3df989f0-b1f5-4c36-8c11-74f4f0c35f96","system_id":"levelo_inurba_marseille","lat":43.2959,"lon":5.38058,"is_reserved":false,"is_disabled":false,"rental_uris":{"android":"levelo://app?vid=3df989f0-b1f5-4c36-8c11-74f4f0c35f96","ios":"levelo://app?vid=3df989f0-b1f5-4c36-8c11-74f4f0c35f96"},"vehicle_type_id":"4","last_reported":1774714871,"current_range_meters":7200,"station_id":"ce4bgl12rcd13ifvqbo0","pricing_plan_id":"cebpf4jnsgd1na2vs0mg"},{"bike_id":"2467f598-920a-477f-9c27-52d7293cbf42","system_id":"levelo_inurba_marseille","lat":43.2842,"lon":5.34989,"is_reserved":false,"is_disabled":false,"rental_uris":{"android":"levelo://app?vid=2467f598-920a-477f-9c27-52d7293cbf42","ios":"levelo://app?vid=2467f598-920a-477f-9c27-52d7293cbf42"},"vehicle_type_id":"4","last_reported":1774714871,"current_range_meters":7200,"station_id":"ce4bhbh2rcd13ifvqepg","pricing_plan_id":"cebpf4jnsgd1na2vs0mg"},{"bike_id":"a0e1fe6f-1b0c-4b69-b699-3f3295a2fce0","system_id":"levelo_inurba_marseille","lat":43.28411,"lon":5.34987,"is_reserved":false,"is_disabled":false,"rental_uris":{"android":"levelo://app?vid=a0e1fe6f-1b0c-4b69-b699-3f3295a2fce0","ios":"levelo://app?vid=a0e1fe6f-1b0c-4b69-b699-3f3295a2fce0"},"vehicle_type_id":"4","last_reported":1774714871,"current_range_meters":7200,"station_id":"ce4bhbh2rcd13ifvqepg","pricing_plan_id":"cebpf4jnsgd1na2vs0mg"},{"bike_id":"fee1fa78-99e1-418b-a173-a71cf30704c4","system_id":"levelo_inurba_marseille","lat":43.32367,"lon":5.38879,"is_reserved":false,"is_disabled":false,"rental_uris":{"android":"levelo://app?vid=fee1fa78-99e1-418b-a173-a71cf30704c4","ios":"levelo://app?vid=fee1fa78-99e1-418b-a173-a71cf30704c4"},"vehicle_type_id":"4","last_reported":1774714871,"current_range_meters":7200,"station_id":"ce4bhqp2rcd13ifvqhog","pricing_plan_id":"cebpf4jnsgd1na2vs0mg"},{"bike_id":"3c68315a-ce66-46b1-a3d9-9c941040d2a1","system_id":"levelo_inurba_marseille","lat":43.25865,"lon":5.39899,"is_reserved":false,"is_disabled":false,"rental_uris":{"android":"levelo://app?vid=3c68315a-ce66-46b1-a3d9-9c941040d2a1","ios":"levelo://app?vid=3c68315a-ce66-46b1-a3d9-9c941040d2a1"},"vehicle_type_id":"4","last_reported":1774714871,"current_range_meters":7200,"station_id":"ce4bhl92rcd13ifvqghg","pricing_plan_id":"cebpf4jnsgd1na2vs0mg"},{"bike_id":"20a80d48-b582-4670-b024-d043424a6446","system_id":"levelo_inurba_marseille","lat":43.24509,"lon":5.39654,"is_reserved":false,"is_disabled":false,"rental_uris":{"android":"levelo://app?vid=20a80d48-b582-4670-b024-d043424a6446","ios":"levelo://app?vid=20a80d48-b582-4670-b024-d043424a6446"},"vehicle_type_id":"4","last_reported":1774714871,"current_range_meters":7200,"station_id":"","pricing_plan_id":"cebpf4jnsgd1na2vs0mg"},{"bike_id":"277cf752-b9ed-41aa-a7a8-c21d885b59ac","system_id":"levelo_inurba_marseille","lat":43.24173,"lon":5.36414,"is_reserved":false,"is_disabled":false,"rental_uris":{"android":"levelo://app?vid=277cf752-b9ed-41aa-a7a8-c21d885b59ac","ios":"levelo://app?vid=277cf752-b9ed-41aa-a7a8-c21d885b59ac"},"vehicle_type_id":"4","last_reported":1774714871,"current_range_meters":7200,"station_id":"cpo36qri1sfpv3e86is0","pricing_plan_id":"cebpf4jnsgd1na2vs0mg"},{"bike_id":"3e80a70b-d902-4f38-bb78-001cfd129e63","system_id":"levelo_inurba_marseille","lat":43.28415,"lon":5.34978,"is_reserved":false,"is_disabled":false,"rental_uris":{"android":"levelo://app?vid=3e80a70b-d902-4f38-bb78-001cfd129e63","ios":"levelo://app?vid=3e80a70b-d902-4f38-bb78-001cfd129e63"},"vehicle_type_id":"4","last_reported":1774714871,"current_range_meters":7200,"station_id":"ce4bhbh2rcd13ifvqepg","pricing_plan_id":"cebpf4jnsgd1na2vs0mg"},{"bike_id":"3558ea35-7992-4ccb-8605-1b3d24e2540d","system_id":"levelo_inurba_marseille","lat":43.22929,"lon":5.35403,"is_reserved":false,"is_disabled":false,"rental_uris":{"android":"levelo://app?vid=3558ea35-7992-4ccb-8605-1b3d24e2540d","ios":"levelo://app?vid=3558ea35-7992-4ccb-8605-1b3d24e2540d"},"vehicle_type_id":"4","last_reported":1774714871,"current_range_meters":7200,"station_id":"cpo3532slgdg3j2ikp40","pricing_plan_id":"cebpf4jnsgd1na2vs0mg"},{"bike_id":"2e9e98fd-4713-4ee9-87be-8d47d65eb147","system_id":"levelo_inurba_marseille","lat":43.24669,"lon":5.38154,"is_reserved":false,"is_disabled":false,"rental_uris":{"android":"levelo://app?vid=2e9e98fd-4713-4ee9-87be-8d47d65eb147","ios":"levelo://app?vid=2e9e98fd-4713-4ee9-87be-8d47d65eb147"},"vehicle_type_id":"4","last_reported":1774714871,"current_range_meters":7200,"station_id":"ce4bhih2rcd13ifvqfr0","pricing_plan_id":"cebpf4jnsgd1na2vs0mg"},{"bike_id":"5f48d178-5246-4414-bd44-f782754e63b1","system_id":"levelo_inurba_marseille","lat":43.28718,"lon":5.37942,"is_reserved":false,"is_disabled":false,"rental_uris":{"android":"levelo://app?vid=5f48d178-5246-4414-bd44-f782754e63b1","ios":"levelo://app?vid=5f48d178-5246-4414-bd44-f782754e63b1"},"vehicle_type_id":"4","last_reported":1774714871,"current_range_meters":7200,"station_id":"ce4bh9p2rcd13ifvqec0","pricing_plan_id":"cebpf4jnsgd1na2vs0mg"},{"bike_id":"d81decec-1336-453f-8815-0de2ad63968a","system_id":"levelo_inurba_marseille","lat":43.24811,"lon":5.37459,"is_reserved":false,"is_disabled":false,"rental_uris":{"android":"levelo://app?vid=d81decec-1336-453f-8815-0de2ad63968a","ios":"levelo://app?vid=d81decec-1336-453f-8815-0de2ad63968a"},"vehicle_type_id":"4","last_reported":1774714871,"current_range_meters":7200,"station_id":"ce4bhgh2rcd13ifvqfb0","pricing_plan_id":"cebpf4jnsgd1na2vs0mg"},{"bike_id":"2719b4b1-b391-4ea8-af8a-3d7f8167790c","system_id":"levelo_inurba_marseille","lat":43.31495,"lon":5.37304,"is_reserved":false,"is_disabled":false,"rental_uris":{"android":"levelo://app?vid=2719b4b1-b391-4ea8-af8a-3d7f8167790c","ios":"levelo://app?vid=2719b4b1-b391-4ea8-af8a-3d7f8167790c"},"vehicle_type_id":"4","last_reported":1774714871,"current_range_meters":7200,"station_id":"ce4bgt12rcd13ifvqcd0","pricing_plan_id":"cebpf4jnsgd1na2vs0mg"},{"bike_id":"f103cc34-96c3-4868-ad5e-e0c28779d718","system_id":"levelo_inurba_marseille","lat":43.23061,"lon":5.35483,"is_reserved":false,"is_disabled":false,"rental_uris":{"android":"levelo://app?vid=f103cc34-96c3-4868-ad5e-e0c28779d718","ios":"levelo://app?vid=f103cc34-96c3-4868-ad5e-e0c28779d718"},"vehicle_type_id":"4","last_reported":1774714871,"current_range_meters":7200,"station_id":"cpo3342slgdg3j2ifvpg","pricing_plan_id":"cebpf4jnsgd1na2vs0mg"},{"bike_id":"2bf237c2-c4a5-409d-aaf2-b153a3e1ff10","system_id":"levelo_inurba_marseille","lat":43.21745,"lon":5.34613,"is_reserved":false,"is_disabled":false,"rental_uris":{"android":"levelo://app?vid=2bf237c2-c4a5-409d-aaf2-b153a3e1ff10","ios":"levelo://app?vid=2bf237c2-c4a5-409d-aaf2-b153a3e1ff10"},"vehicle_type_id":"4","last_reported":1774714871,"current_range_meters":8000,"station_id":"st_cvj6r9ubvosntc0bgbag","pricing_plan_id":"cebpf4jnsgd1na2vs0mg"},{"bike_id":"290afd09-0584-4963-a797-1ed96debbdfe","system_id":"levelo_inurba_marseille","lat":43.21187,"lon":5.3507,"is_reserved":false,"is_disabled":false,"rental_uris":{"android":"levelo://app?vid=290afd09-0584-4963-a797-1ed96debbdfe","ios":"levelo://app?vid=290afd09-0584-4963-a797-1ed96debbdfe"},"vehicle_type_id":"4","last_reported":1774714871,"current_range_meters":8000,"station_id":"st_cvj6sg6p6f1abm77japg","pricing_plan_id":"cebpf4jnsgd1na2vs0mg"},{"bike_id":"ace402cd-5a43-4700-8e53-9f597a013620","system_id":"levelo_inurba_marseille","lat":43.28266,"lon":5.35059,"is_reserved":false,"is_disabled":false,"rental_uris":{"android":"levelo://app?vid=ace402cd-5a43-4700-8e53-9f597a013620","ios":"levelo://app?vid=ace402cd-5a43-4700-8e53-9f597a013620"},"vehicle_type_id":"4","last_reported":1774714871,"current_range_meters":8000,"station_id":"ce4bhbp2rcd13ifvqerg","pricing_plan_id":"cebpf4jnsgd1na2vs0mg"},{"bike_id":"c82691aa-ba67-49e2-8ab8-9f87a1546b96","system_id":"levelo_inurba_marseille","lat":43.23216,"lon":5.35584,"is_reserved":false,"is_disabled":false,"rental_uris":{"android":"levelo://app?vid=c82691aa-ba67-49e2-8ab8-9f87a1546b96","ios":"levelo://app?vid=c82691aa-ba67-49e2-8ab8-9f87a1546b96"},"vehicle_type_id":"4","last_reported":1774714871,"current_range_meters":8000,"station_id":"ce4bhu92rcd13ifvqi70","pricing_plan_id":"cebpf4jnsgd1na2vs0mg"},{"bike_id":"8683ab0d-4a2a-48af-b0e7-633359d29ce3","system_id":"levelo_inurba_marseille","lat":43.30548,"lon":5.36696,"is_reserved":false,"is_disabled":false,"rental_uris":{"android":"levelo://app?vid=8683ab0d-4a2a-48af-b0e7-633359d29ce3","ios":"levelo://app?vid=8683ab0d-4a2a-48af-b0e7-633359d29ce3"},"vehicle_type_id":"4","last_reported":1774714871,"current_range_meters":8000,"station_id":"ce4bgrp2rcd13ifvqc9g","pricing_plan_id":"cebpf4jnsgd1na2vs0mg"},{"bike_id":"899c9f36-9b83-4ce9-bd7d-0f95dd541b6a","system_id":"levelo_inurba_marseille","lat":43.32362,"lon":5.36681,"is_reserved":false,"is_disabled":false,"rental_uris":{"android":"levelo://app?vid=899c9f36-9b83-4ce9-bd7d-0f95dd541b6a","ios":"levelo://app?vid=899c9f36-9b83-4ce9-bd7d-0f95dd541b6a"},"vehicle_type_id":"4","last_reported":1774714871,"current_range_meters":8000,"station_id":"","pricing_plan_id":"cebpf4jnsgd1na2vs0mg"},{"bike_id":"2457fc1b-679d-4a71-90e9-ad408ab6ed9d","system_id":"levelo_inurba_marseille","lat":43.33483,"lon":5.3797,"is_reserved":false,"is_disabled":false,"rental_uris":{"android":"levelo://app?vid=2457fc1b-679d-4a71-90e9-ad408ab6ed9d","ios":"levelo://app?vid=2457fc1b-679d-4a71-90e9-ad408ab6ed9d"},"vehicle_type_id":"4","last_reported":1774714871,"current_range_meters":8000,"station_id":"","pricing_plan_id":"cebpf4jnsgd1na2vs0mg"},{"bike_id":"cac65e9a-4f7e-4ab5-8945-0eea67327b18","system_id":"levelo_inurba_marseille","lat":43.3054,"lon":5.36574,"is_reserved":false,"is_disabled":false,"rental_uris":{"android":"levelo://app?vid=cac65e9a-4f7e-4ab5-8945-0eea67327b18","ios":"levelo://app?vid=cac65e9a-4f7e-4ab5-8945-0eea67327b18"},"vehicle_type_id":"4","last_reported":1774714871,"current_range_meters":8000,"station_id":"ce4bgs12rcd13ifvqcag","pricing_plan_id":"cebpf4jnsgd1na2vs0mg"},{"bike_id":"4f1943b2-e7ba-417a-88a7-44cb05f7a9c9","system_id":"levelo_inurba_marseille","lat":43.29472,"lon":5.38657,"is_reserved":false,"is_disabled":false,"rental_uris":{"android":"levelo://app?vid=4f1943b2-e7ba-417a-88a7-44cb05f7a9c9","ios":"levelo://app?vid=4f1943b2-e7ba-417a-88a7-44cb05f7a9c9"},"vehicle_type_id":"4","last_reported":1774714871,"current_range_meters":8000,"station_id":"","pricing_plan_id":"cebpf4jnsgd1na2vs0mg"},{"bike_id":"d32aa1bf-1440-405b-937c-d48e8423d1b5","system_id":"levelo_inurba_marseille","lat":43.31232,"lon":5.36851,"is_reserved":false,"is_disabled":false,"rental_uris":{"android":"levelo://app?vid=d32aa1bf-1440-405b-937c-d48e8423d1b5","ios":"levelo://app?vid=d32aa1bf-1440-405b-937c-d48e8423d1b5"},"vehicle_type_id":"4","last_reported":1774714871,"current_range_meters":8000,"station_id":"ce4bgl92rcd13ifvqbq0","pricing_plan_id":"cebpf4jnsgd1na2vs0mg"},{"bike_id":"c420f719-a4cc-4702-b6da-68e6d0f37e6c","system_id":"levelo_inurba_marseille","lat":43.2853,"lon":5.44089,"is_reserved":false,"is_disabled":false,"rental_uris":{"android":"levelo://app?vid=c420f719-a4cc-4702-b6da-68e6d0f37e6c","ios":"levelo://app?vid=c420f719-a4cc-4702-b6da-68e6d0f37e6c"},"vehicle_type_id":"4","last_reported":1774714871,"current_range_meters":8000,"station_id":"st_d3j3df2ikq2c7380ej80","pricing_plan_id":"cebpf4jnsgd1na2vs0mg"},{"bike_id":"5afc8403-6d30-4cf0-9969-def159c6d031","system_id":"levelo_inurba_marseille","lat":43.24394,"lon":5.37046,"is_reserved":false,"is_disabled":false,"rental_uris":{"android":"levelo://app?vid=5afc8403-6d30-4cf0-9969-def159c6d031","ios":"levelo://app?vid=5afc8403-6d30-4cf0-9969-def159c6d031"},"vehicle_type_id":"4","last_reported":1774714871,"current_range_meters":8000,"station_id":"ce4bhhh2rcd13ifvqfk0","pricing_plan_id":"cebpf4jnsgd1na2vs0mg"},{"bike_id":"f057f137-0cac-4b50-91e6-948f8581886d","system_id":"levelo_inurba_marseille","lat":43.24669,"lon":5.38162,"is_reserved":false,"is_disabled":false,"rental_uris":{"android":"levelo://app?vid=f057f137-0cac-4b50-91e6-948f8581886d","ios":"levelo://app?vid=f057f137-0cac-4b50-91e6-948f8581886d"},"vehicle_type_id":"4","last_reported":1774714871,"current_range_meters":8000,"station_id":"ce4bhih2rcd13ifvqfr0","pricing_plan_id":"cebpf4jnsgd1na2vs0mg"},{"bike_id":"1bca506e-2c43-43d5-9cab-3f814da8f5fe","system_id":"levelo_inurba_marseille","lat":43.22564,"lon":5.41639,"is_reserved":false,"is_disabled":false,"rental_uris":{"android":"levelo://app?vid=1bca506e-2c43-43d5-9cab-3f814da8f5fe","ios":"levelo://app?vid=1bca506e-2c43-43d5-9cab-3f814da8f5fe"},"vehicle_type_id":"4","last_reported":1774714871,"current_range_meters":8000,"station_id":"st_d2o4gvlbi1j2169b742g","pricing_plan_id":"cebpf4jnsgd1na2vs0mg"},{"bike_id":"44e6ef2e-f582-4dae-8b58-95600b73b872","system_id":"levelo_inurba_marseille","lat":43.33545,"lon":5.3745,"is_reserved":false,"is_disabled":false,"rental_uris":{"android":"levelo://app?vid=44e6ef2e-f582-4dae-8b58-95600b73b872","ios":"levelo://app?vid=44e6ef2e-f582-4dae-8b58-95600b73b872"},"vehicle_type_id":"4","last_reported":1774714871,"current_range_meters":8000,"station_id":"st_d46tts09ee8s73dlu43g","pricing_plan_id":"cebpf4jnsgd1na2vs0mg"},{"bike_id":"e8bd8254-2909-4d6d-a6a9-c5d493a3c617","system_id":"levelo_inurba_marseille","lat":43.2693,"lon":5.4028,"is_reserved":false,"is_disabled":false,"rental_uris":{"android":"levelo://app?vid=e8bd8254-2909-4d6d-a6a9-c5d493a3c617","ios":"levelo://app?vid=e8bd8254-2909-4d6d-a6a9-c5d493a3c617"},"vehicle_type_id":"4","last_reported":1774714871,"current_range_meters":8000,"station_id":"cjm6bp8fraef2m0cb0m0","pricing_plan_id":"cebpf4jnsgd1na2vs0mg"},{"bike_id":"765c9299-d34b-4454-9942-650b76f1a794","system_id":"levelo_inurba_marseille","lat":43.30507,"lon":5.36513,"is_reserved":false,"is_disabled":false,"rental_uris":{"android":"levelo://app?vid=765c9299-d34b-4454-9942-650b76f1a794","ios":"levelo://app?vid=765c9299-d34b-4454-9942-650b76f1a794"},"vehicle_type_id":"4","last_reported":1774714871,"current_range_meters":8000,"station_id":"","pricing_plan_id":"cebpf4jnsgd1na2vs0mg"},{"bike_id":"ffcc8c3f-36dc-4229-8354-ca58a927c0fa","system_id":"levelo_inurba_marseille","lat":43.25489,"lon":5.37653,"is_reserved":false,"is_disabled":false,"rental_uris":{"android":"levelo://app?vid=ffcc8c3f-36dc-4229-8354-ca58a927c0fa","ios":"levelo://app?vid=ffcc8c3f-36dc-4229-8354-ca58a927c0fa"},"vehicle_type_id":"4","last_reported":1774714871,"current_range_meters":8000,"station_id":"ce4bhh12rcd13ifvqff0","pricing_plan_id":"cebpf4jnsgd1na2vs0mg"},{"bike_id":"ef3d2908-5f04-46b3-8950-985b7bd33bee","system_id":"levelo_inurba_marseille","lat":43.28623,"lon":5.35109,"is_reserved":false,"is_disabled":false,"rental_uris":{"android":"levelo://app?vid=ef3d2908-5f04-46b3-8950-985b7bd33bee","ios":"levelo://app?vid=ef3d2908-5f04-46b3-8950-985b7bd33bee"},"vehicle_type_id":"4","last_reported":1774714871,"current_range_meters":8000,"station_id":"ce4bhch2rcd13ifvqeug","pricing_plan_id":"cebpf4jnsgd1na2vs0mg"},{"bike_id":"67c1c6e6-4211-4250-be02-a52880e1c23a","system_id":"levelo_inurba_marseille","lat":43.26509,"lon":5.40716,"is_reserved":false,"is_disabled":false,"rental_uris":{"android":"levelo://app?vid=67c1c6e6-4211-4250-be02-a52880e1c23a","ios":"levelo://app?vid=67c1c6e6-4211-4250-be02-a52880e1c23a"},"vehicle_type_id":"4","last_reported":1774714871,"current_range_meters":8000,"station_id":"","pricing_plan_id":"cebpf4jnsgd1na2vs0mg"},{"bike_id":"c4e3435a-03e4-4f34-b16a-27e822a38671","system_id":"levelo_inurba_marseille","lat":43.28107,"lon":5.35197,"is_reserved":false,"is_disabled":false,"rental_uris":{"android":"levelo://app?vid=c4e3435a-03e4-4f34-b16a-27e822a38671","ios":"levelo://app?vid=c4e3435a-03e4-4f34-b16a-27e822a38671"},"vehicle_type_id":"4","last_reported":1774714871,"current_range_meters":8000,"station_id":"","pricing_plan_id":"cebpf4jnsgd1na2vs0mg"},{"bike_id":"4f5cf7ef-ddb5-4d25-9c0b-bec33f5f4447","system_id":"levelo_inurba_marseille","lat":43.3093,"lon":5.36867,"is_reserved":false,"is_disabled":false,"rental_uris":{"android":"levelo://app?vid=4f5cf7ef-ddb5-4d25-9c0b-bec33f5f4447","ios":"levelo://app?vid=4f5cf7ef-ddb5-4d25-9c0b-bec33f5f4447"},"vehicle_type_id":"4","last_reported":1774714871,"current_range_meters":8000,"station_id":"ce4bgn92rcd13ifvqbvg","pricing_plan_id":"cebpf4jnsgd1na2vs0mg"},{"bike_id":"706e6893-c699-4309-a12d-3916220e24dc","system_id":"levelo_inurba_marseille","lat":43.27215,"lon":5.39173,"is_reserved":false,"is_disabled":false,"rental_uris":{"android":"levelo://app?vid=706e6893-c699-4309-a12d-3916220e24dc","ios":"levelo://app?vid=706e6893-c699-4309-a12d-3916220e24dc"},"vehicle_type_id":"4","last_reported":1774714871,"current_range_meters":8000,"station_id":"ce4bhhp2rcd13ifvqfm0","pricing_plan_id":"cebpf4jnsgd1na2vs0mg"},{"bike_id":"653da03f-d224-4308-aa3c-fbdab37f6f01","system_id":"levelo_inurba_marseille","lat":43.29848,"lon":5.36273,"is_reserved":false,"is_disabled":false,"rental_uris":{"android":"levelo://app?vid=653da03f-d224-4308-aa3c-fbdab37f6f01","ios":"levelo://app?vid=653da03f-d224-4308-aa3c-fbdab37f6f01"},"vehicle_type_id":"4","last_reported":1774714871,"current_range_meters":8400,"station_id":"ce4bgpp2rcd13ifvqc3g","pricing_plan_id":"cebpf4jnsgd1na2vs0mg"},{"bike_id":"e5ff4d50-5e57-4c9f-a4fe-19b93eb5c920","system_id":"levelo_inurba_marseille","lat":43.29874,"lon":5.39723,"is_reserved":false,"is_disabled":false,"rental_uris":{"android":"levelo://app?vid=e5ff4d50-5e57-4c9f-a4fe-19b93eb5c920","ios":"levelo://app?vid=e5ff4d50-5e57-4c9f-a4fe-19b93eb5c920"},"vehicle_type_id":"4","last_reported":1774714871,"current_range_meters":8400,"station_id":"ce4bh0h2rcd13ifvqd50","pricing_plan_id":"cebpf4jnsgd1na2vs0mg"},{"bike_id":"92cb4986-12bc-44d4-ad49-496427bf2b45","system_id":"levelo_inurba_marseille","lat":43.28539,"lon":5.44143,"is_reserved":false,"is_disabled":false,"rental_uris":{"android":"levelo://app?vid=92cb4986-12bc-44d4-ad49-496427bf2b45","ios":"levelo://app?vid=92cb4986-12bc-44d4-ad49-496427bf2b45"},"vehicle_type_id":"4","last_reported":1774714871,"current_range_meters":8400,"station_id":"st_d3j3df2ikq2c7380ej80","pricing_plan_id":"cebpf4jnsgd1na2vs0mg"},{"bike_id":"803f233a-fb11-4636-96a0-487b949de0e9","system_id":"levelo_inurba_marseille","lat":43.28465,"lon":5.3589,"is_reserved":false,"is_disabled":false,"rental_uris":{"android":"levelo://app?vid=803f233a-fb11-4636-96a0-487b949de0e9","ios":"levelo://app?vid=803f233a-fb11-4636-96a0-487b949de0e9"},"vehicle_type_id":"4","last_reported":1774714871,"current_range_meters":8400,"station_id":"ce4bhah2rcd13ifvqei0","pricing_plan_id":"cebpf4jnsgd1na2vs0mg"},{"bike_id":"6627d87e-d8cc-4315-9870-c98a872f12b5","system_id":"levelo_inurba_marseille","lat":43.24679,"lon":5.3816,"is_reserved":false,"is_disabled":false,"rental_uris":{"android":"levelo://app?vid=6627d87e-d8cc-4315-9870-c98a872f12b5","ios":"levelo://app?vid=6627d87e-d8cc-4315-9870-c98a872f12b5"},"vehicle_type_id":"4","last_reported":1774714871,"current_range_meters":8400,"station_id":"ce4bhih2rcd13ifvqfr0","pricing_plan_id":"cebpf4jnsgd1na2vs0mg"},{"bike_id":"c6022287-2399-4cb3-954b-36f695e02b33","system_id":"levelo_inurba_marseille","lat":43.2721,"lon":5.39175,"is_reserved":false,"is_disabled":false,"rental_uris":{"android":"levelo://app?vid=c6022287-2399-4cb3-954b-36f695e02b33","ios":"levelo://app?vid=c6022287-2399-4cb3-954b-36f695e02b33"},"vehicle_type_id":"4","last_reported":1774714871,"current_range_meters":8400,"station_id":"ce4bhhp2rcd13ifvqfm0","pricing_plan_id":"cebpf4jnsgd1na2vs0mg"},{"bike_id":"d61113af-587d-4bac-90d4-ec76c77b61f6","system_id":"levelo_inurba_marseille","lat":43.27238,"lon":5.39163,"is_reserved":false,"is_disabled":false,"rental_uris":{"android":"levelo://app?vid=d61113af-587d-4bac-90d4-ec76c77b61f6","ios":"levelo://app?vid=d61113af-587d-4bac-90d4-ec76c77b61f6"},"vehicle_type_id":"4","last_reported":1774714871,"current_range_meters":8400,"station_id":"ce4bhhp2rcd13ifvqfm0","pricing_plan_id":"cebpf4jnsgd1na2vs0mg"},{"bike_id":"2f3271ae-a693-4313-85c7-cddb2aba3fdc","system_id":"levelo_inurba_marseille","lat":43.27311,"lon":5.39103,"is_reserved":false,"is_disabled":false,"rental_uris":{"android":"levelo://app?vid=2f3271ae-a693-4313-85c7-cddb2aba3fdc","ios":"levelo://app?vid=2f3271ae-a693-4313-85c7-cddb2aba3fdc"},"vehicle_type_id":"4","last_reported":1774714871,"current_range_meters":8400,"station_id":"ce4bhgp2rcd13ifvqfe0","pricing_plan_id":"cebpf4jnsgd1na2vs0mg"},{"bike_id":"d42918c2-5949-42d0-8ebe-a9ca1daba3bd","system_id":"levelo_inurba_marseille","lat":43.2847,"lon":5.35903,"is_reserved":false,"is_disabled":true,"rental_uris":{"android":"levelo://app?vid=d42918c2-5949-42d0-8ebe-a9ca1daba3bd","ios":"levelo://app?vid=d42918c2-5949-42d0-8ebe-a9ca1daba3bd"},"vehicle_type_id":"4","last_reported":1774714871,"current_range_meters":8400,"station_id":"ce4bhah2rcd13ifvqei0","pricing_plan_id":"cebpf4jnsgd1na2vs0mg"},{"bike_id":"7b937767-f7ec-40d1-a7fd-f46bfb1314e7","system_id":"levelo_inurba_marseille","lat":43.24458,"lon":5.4254,"is_reserved":false,"is_disabled":false,"rental_uris":{"android":"levelo://app?vid=7b937767-f7ec-40d1-a7fd-f46bfb1314e7","ios":"levelo://app?vid=7b937767-f7ec-40d1-a7fd-f46bfb1314e7"},"vehicle_type_id":"4","last_reported":1774714871,"current_range_meters":8400,"station_id":"st_d4a3vfp97mjs738cd8kg","pricing_plan_id":"cebpf4jnsgd1na2vs0mg"},{"bike_id":"97bb936d-cdef-4289-b4ac-358ab0b91d7e","system_id":"levelo_inurba_marseille","lat":43.295295,"lon":5.385467,"is_reserved":false,"is_disabled":false,"rental_uris":{"android":"levelo://app?vid=97bb936d-cdef-4289-b4ac-358ab0b91d7e","ios":"levelo://app?vid=97bb936d-cdef-4289-b4ac-358ab0b91d7e"},"vehicle_type_id":"4","last_reported":1774714871,"current_range_meters":8400,"station_id":"ce4bh4p2rcd13ifvqe0g","pricing_plan_id":"cebpf4jnsgd1na2vs0mg"},{"bike_id":"fadb9bc0-68a6-44e7-984d-9151bdc84414","system_id":"levelo_inurba_marseille","lat":43.31364,"lon":5.3849,"is_reserved":false,"is_disabled":false,"rental_uris":{"android":"levelo://app?vid=fadb9bc0-68a6-44e7-984d-9151bdc84414","ios":"levelo://app?vid=fadb9bc0-68a6-44e7-984d-9151bdc84414"},"vehicle_type_id":"4","last_reported":1774714871,"current_range_meters":8400,"station_id":"ce4bgt92rcd13ifvqcf0","pricing_plan_id":"cebpf4jnsgd1na2vs0mg"},{"bike_id":"82554360-490f-4a87-953e-97e5b39a15fb","system_id":"levelo_inurba_marseille","lat":43.28463,"lon":5.35898,"is_reserved":false,"is_disabled":false,"rental_uris":{"android":"levelo://app?vid=82554360-490f-4a87-953e-97e5b39a15fb","ios":"levelo://app?vid=82554360-490f-4a87-953e-97e5b39a15fb"},"vehicle_type_id":"4","last_reported":1774714871,"current_range_meters":8400,"station_id":"ce4bhah2rcd13ifvqei0","pricing_plan_id":"cebpf4jnsgd1na2vs0mg"},{"bike_id":"f29b248a-8de2-45ba-aa88-61da3e52db31","system_id":"levelo_inurba_marseille","lat":43.25729,"lon":5.41112,"is_reserved":false,"is_disabled":false,"rental_uris":{"android":"levelo://app?vid=f29b248a-8de2-45ba-aa88-61da3e52db31","ios":"levelo://app?vid=f29b248a-8de2-45ba-aa88-61da3e52db31"},"vehicle_type_id":"4","last_reported":1774714871,"current_range_meters":8400,"station_id":"ce4bhkp2rcd13ifvqgd0","pricing_plan_id":"cebpf4jnsgd1na2vs0mg"},{"bike_id":"be4a1afc-a843-49e6-a087-d809924f7dda","system_id":"levelo_inurba_marseille","lat":43.28935,"lon":5.38377,"is_reserved":false,"is_disabled":true,"rental_uris":{"android":"levelo://app?vid=be4a1afc-a843-49e6-a087-d809924f7dda","ios":"levelo://app?vid=be4a1afc-a843-49e6-a087-d809924f7dda"},"vehicle_type_id":"4","last_reported":1774714871,"current_range_meters":8400,"station_id":"ce4bh612rcd13ifvqe6g","pricing_plan_id":"cebpf4jnsgd1na2vs0mg"},{"bike_id":"344f6554-4920-4f90-ad7b-f19ddfcd0900","system_id":"levelo_inurba_marseille","lat":43.26493,"lon":5.39539,"is_reserved":false,"is_disabled":false,"rental_uris":{"android":"levelo://app?vid=344f6554-4920-4f90-ad7b-f19ddfcd0900","ios":"levelo://app?vid=344f6554-4920-4f90-ad7b-f19ddfcd0900"},"vehicle_type_id":"4","last_reported":1774714871,"current_range_meters":8400,"station_id":"ce4bhi12rcd13ifvqfq0","pricing_plan_id":"cebpf4jnsgd1na2vs0mg"},{"bike_id":"40aee828-8524-4539-be66-e9f6b13f077d","system_id":"levelo_inurba_marseille","lat":43.26063,"lon":5.39397,"is_reserved":false,"is_disabled":false,"rental_uris":{"android":"levelo://app?vid=40aee828-8524-4539-be66-e9f6b13f077d","ios":"levelo://app?vid=40aee828-8524-4539-be66-e9f6b13f077d"},"vehicle_type_id":"4","last_reported":1774714871,"current_range_meters":8400,"station_id":"ce4bhh92rcd13ifvqfj0","pricing_plan_id":"cebpf4jnsgd1na2vs0mg"},{"bike_id":"38a4770b-aa61-4e1e-82ea-9b5ee50912c9","system_id":"levelo_inurba_marseille","lat":43.26206,"lon":5.37486,"is_reserved":false,"is_disabled":false,"rental_uris":{"android":"levelo://app?vid=38a4770b-aa61-4e1e-82ea-9b5ee50912c9","ios":"levelo://app?vid=38a4770b-aa61-4e1e-82ea-9b5ee50912c9"},"vehicle_type_id":"4","last_reported":1774714871,"current_range_meters":8800,"station_id":"ce4bhgp2rcd13ifvqfc0","pricing_plan_id":"cebpf4jnsgd1na2vs0mg"},{"bike_id":"36141db5-b3a5-4009-8266-2dd4f38320ae","system_id":"levelo_inurba_marseille","lat":43.23795,"lon":5.36617,"is_reserved":false,"is_disabled":false,"rental_uris":{"android":"levelo://app?vid=36141db5-b3a5-4009-8266-2dd4f38320ae","ios":"levelo://app?vid=36141db5-b3a5-4009-8266-2dd4f38320ae"},"vehicle_type_id":"4","last_reported":1774714871,"current_range_meters":8800,"station_id":"st_d3nk18o9ro0c73en2l3g","pricing_plan_id":"cebpf4jnsgd1na2vs0mg"},{"bike_id":"3137e3ea-7797-4cae-a237-2a996dd9ad4a","system_id":"levelo_inurba_marseille","lat":43.28488,"lon":5.48398,"is_reserved":false,"is_disabled":false,"rental_uris":{"android":"levelo://app?vid=3137e3ea-7797-4cae-a237-2a996dd9ad4a","ios":"levelo://app?vid=3137e3ea-7797-4cae-a237-2a996dd9ad4a"},"vehicle_type_id":"4","last_reported":1774714871,"current_range_meters":8800,"station_id":"","pricing_plan_id":"cebpf4jnsgd1na2vs0mg"},{"bike_id":"b1e731c5-a019-40fb-b94c-b458e0eddb64","system_id":"levelo_inurba_marseille","lat":43.2382,"lon":5.38621,"is_reserved":false,"is_disabled":false,"rental_uris":{"android":"levelo://app?vid=b1e731c5-a019-40fb-b94c-b458e0eddb64","ios":"levelo://app?vid=b1e731c5-a019-40fb-b94c-b458e0eddb64"},"vehicle_type_id":"4","last_reported":1774714871,"current_range_meters":8800,"station_id":"","pricing_plan_id":"cebpf4jnsgd1na2vs0mg"},{"bike_id":"2c76498e-1409-4d1d-aa11-912dd68ff926","system_id":"levelo_inurba_marseille","lat":43.28536,"lon":5.44103,"is_reserved":false,"is_disabled":false,"rental_uris":{"android":"levelo://app?vid=2c76498e-1409-4d1d-aa11-912dd68ff926","ios":"levelo://app?vid=2c76498e-1409-4d1d-aa11-912dd68ff926"},"vehicle_type_id":"4","last_reported":1774714871,"current_range_meters":8800,"station_id":"st_d3j3df2ikq2c7380ej80","pricing_plan_id":"cebpf4jnsgd1na2vs0mg"},{"bike_id":"44b061ea-ac90-4ccb-8d43-7cab8ff1f0e0","system_id":"levelo_inurba_marseille","lat":43.26061,"lon":5.39358,"is_reserved":false,"is_disabled":false,"rental_uris":{"android":"levelo://app?vid=44b061ea-ac90-4ccb-8d43-7cab8ff1f0e0","ios":"levelo://app?vid=44b061ea-ac90-4ccb-8d43-7cab8ff1f0e0"},"vehicle_type_id":"4","last_reported":1774714871,"current_range_meters":8800,"station_id":"ce4bhh92rcd13ifvqfj0","pricing_plan_id":"cebpf4jnsgd1na2vs0mg"},{"bike_id":"1ee7715b-73b9-4e2e-aa2b-b18556ee2189","system_id":"levelo_inurba_marseille","lat":43.24398,"lon":5.37048,"is_reserved":false,"is_disabled":false,"rental_uris":{"android":"levelo://app?vid=1ee7715b-73b9-4e2e-aa2b-b18556ee2189","ios":"levelo://app?vid=1ee7715b-73b9-4e2e-aa2b-b18556ee2189"},"vehicle_type_id":"4","last_reported":1774714871,"current_range_meters":8800,"station_id":"ce4bhhh2rcd13ifvqfk0","pricing_plan_id":"cebpf4jnsgd1na2vs0mg"},{"bike_id":"951ccfa0-2bbb-441f-98aa-0e6f6567daed","system_id":"levelo_inurba_marseille","lat":43.2865,"lon":5.37352,"is_reserved":false,"is_disabled":false,"rental_uris":{"android":"levelo://app?vid=951ccfa0-2bbb-441f-98aa-0e6f6567daed","ios":"levelo://app?vid=951ccfa0-2bbb-441f-98aa-0e6f6567daed"},"vehicle_type_id":"4","last_reported":1774714871,"current_range_meters":8800,"station_id":"","pricing_plan_id":"cebpf4jnsgd1na2vs0mg"},{"bike_id":"71f76546-2e23-435d-a393-83f2ffb4bda7","system_id":"levelo_inurba_marseille","lat":43.27821,"lon":5.40721,"is_reserved":false,"is_disabled":false,"rental_uris":{"android":"levelo://app?vid=71f76546-2e23-435d-a393-83f2ffb4bda7","ios":"levelo://app?vid=71f76546-2e23-435d-a393-83f2ffb4bda7"},"vehicle_type_id":"4","last_reported":1774714871,"current_range_meters":8800,"station_id":"ce4bhnh2rcd13ifvqgtg","pricing_plan_id":"cebpf4jnsgd1na2vs0mg"},{"bike_id":"cc59f728-d7ea-44ba-a83b-ab5dcd4ed237","system_id":"levelo_inurba_marseille","lat":43.30505,"lon":5.36557,"is_reserved":false,"is_disabled":false,"rental_uris":{"android":"levelo://app?vid=cc59f728-d7ea-44ba-a83b-ab5dcd4ed237","ios":"levelo://app?vid=cc59f728-d7ea-44ba-a83b-ab5dcd4ed237"},"vehicle_type_id":"4","last_reported":1774714871,"current_range_meters":8800,"station_id":"","pricing_plan_id":"cebpf4jnsgd1na2vs0mg"},{"bike_id":"76201515-ae70-408c-82ba-b2d7c39b0327","system_id":"levelo_inurba_marseille","lat":43.25108,"lon":5.40313,"is_reserved":false,"is_disabled":false,"rental_uris":{"android":"levelo://app?vid=76201515-ae70-408c-82ba-b2d7c39b0327","ios":"levelo://app?vid=76201515-ae70-408c-82ba-b2d7c39b0327"},"vehicle_type_id":"4","last_reported":1774714871,"current_range_meters":8800,"station_id":"ce4bhlh2rcd13ifvqgig","pricing_plan_id":"cebpf4jnsgd1na2vs0mg"},{"bike_id":"e7bd119b-30de-4df6-bef1-c0224e1d1fa7","system_id":"levelo_inurba_marseille","lat":43.30534,"lon":5.36565,"is_reserved":false,"is_disabled":false,"rental_uris":{"android":"levelo://app?vid=e7bd119b-30de-4df6-bef1-c0224e1d1fa7","ios":"levelo://app?vid=e7bd119b-30de-4df6-bef1-c0224e1d1fa7"},"vehicle_type_id":"4","last_reported":1774714871,"current_range_meters":8800,"station_id":"ce4bgs12rcd13ifvqcag","pricing_plan_id":"cebpf4jnsgd1na2vs0mg"},{"bike_id":"44fb6b64-74ee-4ffd-887e-a7ecacfca1ee","system_id":"levelo_inurba_marseille","lat":43.23206,"lon":5.35533,"is_reserved":false,"is_disabled":false,"rental_uris":{"android":"levelo://app?vid=44fb6b64-74ee-4ffd-887e-a7ecacfca1ee","ios":"levelo://app?vid=44fb6b64-74ee-4ffd-887e-a7ecacfca1ee"},"vehicle_type_id":"4","last_reported":1774714871,"current_range_meters":8800,"station_id":"ce4bhu92rcd13ifvqi70","pricing_plan_id":"cebpf4jnsgd1na2vs0mg"},{"bike_id":"883dc76f-ea39-4856-ad3f-83646c0ba349","system_id":"levelo_inurba_marseille","lat":43.3032,"lon":5.37783,"is_reserved":false,"is_disabled":false,"rental_uris":{"android":"levelo://app?vid=883dc76f-ea39-4856-ad3f-83646c0ba349","ios":"levelo://app?vid=883dc76f-ea39-4856-ad3f-83646c0ba349"},"vehicle_type_id":"4","last_reported":1774714871,"current_range_meters":8800,"station_id":"","pricing_plan_id":"cebpf4jnsgd1na2vs0mg"},{"bike_id":"f0ce54be-759f-4368-a80a-fb5bf5ac8856","system_id":"levelo_inurba_marseille","lat":43.27212,"lon":5.39182,"is_reserved":false,"is_disabled":false,"rental_uris":{"android":"levelo://app?vid=f0ce54be-759f-4368-a80a-fb5bf5ac8856","ios":"levelo://app?vid=f0ce54be-759f-4368-a80a-fb5bf5ac8856"},"vehicle_type_id":"4","last_reported":1774714871,"current_range_meters":8800,"station_id":"ce4bhhp2rcd13ifvqfm0","pricing_plan_id":"cebpf4jnsgd1na2vs0mg"},{"bike_id":"c09263af-5f3c-4487-9b20-dca4afc4c1ed","system_id":"levelo_inurba_marseille","lat":43.28606,"lon":5.35129,"is_reserved":false,"is_disabled":false,"rental_uris":{"android":"levelo://app?vid=c09263af-5f3c-4487-9b20-dca4afc4c1ed","ios":"levelo://app?vid=c09263af-5f3c-4487-9b20-dca4afc4c1ed"},"vehicle_type_id":"4","last_reported":1774714871,"current_range_meters":8800,"station_id":"ce4bhch2rcd13ifvqeug","pricing_plan_id":"cebpf4jnsgd1na2vs0mg"},{"bike_id":"9b299873-1afc-4604-9392-b226f8c366fd","system_id":"levelo_inurba_marseille","lat":43.31121,"lon":5.37778,"is_reserved":false,"is_disabled":false,"rental_uris":{"android":"levelo://app?vid=9b299873-1afc-4604-9392-b226f8c366fd","ios":"levelo://app?vid=9b299873-1afc-4604-9392-b226f8c366fd"},"vehicle_type_id":"4","last_reported":1774714871,"current_range_meters":8800,"station_id":"ce4bgt92rcd13ifvqcg0","pricing_plan_id":"cebpf4jnsgd1na2vs0mg"},{"bike_id":"7f5c69c5-2d2f-4543-bbfb-f9e77863fc90","system_id":"levelo_inurba_marseille","lat":43.27187,"lon":5.40994,"is_reserved":false,"is_disabled":false,"rental_uris":{"android":"levelo://app?vid=7f5c69c5-2d2f-4543-bbfb-f9e77863fc90","ios":"levelo://app?vid=7f5c69c5-2d2f-4543-bbfb-f9e77863fc90"},"vehicle_type_id":"4","last_reported":1774714871,"current_range_meters":8800,"station_id":"ce4bhl12rcd13ifvqgf0","pricing_plan_id":"cebpf4jnsgd1na2vs0mg"},{"bike_id":"3ed4eab2-4337-4180-944e-25a1895e5709","system_id":"levelo_inurba_marseille","lat":43.31045,"lon":5.37169,"is_reserved":false,"is_disabled":false,"rental_uris":{"android":"levelo://app?vid=3ed4eab2-4337-4180-944e-25a1895e5709","ios":"levelo://app?vid=3ed4eab2-4337-4180-944e-25a1895e5709"},"vehicle_type_id":"4","last_reported":1774714871,"current_range_meters":8800,"station_id":"st_d4kl2rp97mjs73e7tdfg","pricing_plan_id":"cebpf4jnsgd1na2vs0mg"},{"bike_id":"fb0ee805-bb62-4355-ad8c-deca445e08fb","system_id":"levelo_inurba_marseille","lat":43.29233,"lon":5.36107,"is_reserved":false,"is_disabled":false,"rental_uris":{"android":"levelo://app?vid=fb0ee805-bb62-4355-ad8c-deca445e08fb","ios":"levelo://app?vid=fb0ee805-bb62-4355-ad8c-deca445e08fb"},"vehicle_type_id":"4","last_reported":1774714871,"current_range_meters":8800,"station_id":"ce4bhbh2rcd13ifvqeqg","pricing_plan_id":"cebpf4jnsgd1na2vs0mg"},{"bike_id":"844990f3-dd3a-41a6-8575-e6f993cff7a3","system_id":"levelo_inurba_marseille","lat":43.31323,"lon":5.39692,"is_reserved":false,"is_disabled":false,"rental_uris":{"android":"levelo://app?vid=844990f3-dd3a-41a6-8575-e6f993cff7a3","ios":"levelo://app?vid=844990f3-dd3a-41a6-8575-e6f993cff7a3"},"vehicle_type_id":"4","last_reported":1774714871,"current_range_meters":8800,"station_id":"ce4bgvp2rcd13ifvqcu0","pricing_plan_id":"cebpf4jnsgd1na2vs0mg"},{"bike_id":"5ecab434-8e19-46ce-9cce-324a319f3a65","system_id":"levelo_inurba_marseille","lat":43.27318,"lon":5.39099,"is_reserved":false,"is_disabled":false,"rental_uris":{"android":"levelo://app?vid=5ecab434-8e19-46ce-9cce-324a319f3a65","ios":"levelo://app?vid=5ecab434-8e19-46ce-9cce-324a319f3a65"},"vehicle_type_id":"4","last_reported":1774714871,"current_range_meters":8800,"station_id":"ce4bhgp2rcd13ifvqfe0","pricing_plan_id":"cebpf4jnsgd1na2vs0mg"},{"bike_id":"a20860db-5e6f-4257-b103-c77c212b043f","system_id":"levelo_inurba_marseille","lat":43.29767,"lon":5.39355,"is_reserved":false,"is_disabled":true,"rental_uris":{"android":"levelo://app?vid=a20860db-5e6f-4257-b103-c77c212b043f","ios":"levelo://app?vid=a20860db-5e6f-4257-b103-c77c212b043f"},"vehicle_type_id":"4","last_reported":1774714871,"current_range_meters":8800,"station_id":"chh1huq6cuj3fo74tm60","pricing_plan_id":"cebpf4jnsgd1na2vs0mg"},{"bike_id":"659ccfdf-569f-4f01-84dd-6c9bbfa33ac4","system_id":"levelo_inurba_marseille","lat":43.23788,"lon":5.3664,"is_reserved":false,"is_disabled":false,"rental_uris":{"android":"levelo://app?vid=659ccfdf-569f-4f01-84dd-6c9bbfa33ac4","ios":"levelo://app?vid=659ccfdf-569f-4f01-84dd-6c9bbfa33ac4"},"vehicle_type_id":"4","last_reported":1774714871,"current_range_meters":8800,"station_id":"st_d3nk18o9ro0c73en2l3g","pricing_plan_id":"cebpf4jnsgd1na2vs0mg"},{"bike_id":"a67fc460-c077-4ade-9390-37cad8d5479c","system_id":"levelo_inurba_marseille","lat":43.21756,"lon":5.34625,"is_reserved":false,"is_disabled":false,"rental_uris":{"android":"levelo://app?vid=a67fc460-c077-4ade-9390-37cad8d5479c","ios":"levelo://app?vid=a67fc460-c077-4ade-9390-37cad8d5479c"},"vehicle_type_id":"4","last_reported":1774714871,"current_range_meters":8800,"station_id":"st_cvj6r9ubvosntc0bgbag","pricing_plan_id":"cebpf4jnsgd1na2vs0mg"},{"bike_id":"7698fa15-36b7-4863-bad9-21425ab73056","system_id":"levelo_inurba_marseille","lat":43.26567,"lon":5.39007,"is_reserved":false,"is_disabled":false,"rental_uris":{"android":"levelo://app?vid=7698fa15-36b7-4863-bad9-21425ab73056","ios":"levelo://app?vid=7698fa15-36b7-4863-bad9-21425ab73056"},"vehicle_type_id":"4","last_reported":1774714871,"current_range_meters":8800,"station_id":"ce4bhe12rcd13ifvqf30","pricing_plan_id":"cebpf4jnsgd1na2vs0mg"},{"bike_id":"681de42e-452e-49ac-9229-5ff8b9110346","system_id":"levelo_inurba_marseille","lat":43.24547,"lon":5.39521,"is_reserved":false,"is_disabled":false,"rental_uris":{"android":"levelo://app?vid=681de42e-452e-49ac-9229-5ff8b9110346","ios":"levelo://app?vid=681de42e-452e-49ac-9229-5ff8b9110346"},"vehicle_type_id":"4","last_reported":1774714871,"current_range_meters":8800,"station_id":"ce4bhlp2rcd13ifvqgjg","pricing_plan_id":"cebpf4jnsgd1na2vs0mg"},{"bike_id":"2890b77e-7b82-4cf9-8b35-b2e9af77bfcf","system_id":"levelo_inurba_marseille","lat":43.25407,"lon":5.42157,"is_reserved":false,"is_disabled":false,"rental_uris":{"android":"levelo://app?vid=2890b77e-7b82-4cf9-8b35-b2e9af77bfcf","ios":"levelo://app?vid=2890b77e-7b82-4cf9-8b35-b2e9af77bfcf"},"vehicle_type_id":"4","last_reported":1774714871,"current_range_meters":9200,"station_id":"","pricing_plan_id":"cebpf4jnsgd1na2vs0mg"},{"bike_id":"a9176eb7-c188-4ff4-912f-d4e94b60be86","system_id":"levelo_inurba_marseille","lat":43.238,"lon":5.36628,"is_reserved":false,"is_disabled":false,"rental_uris":{"android":"levelo://app?vid=a9176eb7-c188-4ff4-912f-d4e94b60be86","ios":"levelo://app?vid=a9176eb7-c188-4ff4-912f-d4e94b60be86"},"vehicle_type_id":"4","last_reported":1774714871,"current_range_meters":9200,"station_id":"st_d3nk18o9ro0c73en2l3g","pricing_plan_id":"cebpf4jnsgd1na2vs0mg"},{"bike_id":"970c0018-efd3-4265-ba0d-669fd24b3e90","system_id":"levelo_inurba_marseille","lat":43.30959,"lon":5.3903,"is_reserved":false,"is_disabled":true,"rental_uris":{"android":"levelo://app?vid=970c0018-efd3-4265-ba0d-669fd24b3e90","ios":"levelo://app?vid=970c0018-efd3-4265-ba0d-669fd24b3e90"},"vehicle_type_id":"4","last_reported":1774714871,"current_range_meters":9200,"station_id":"ce4bgup2rcd13ifvqco0","pricing_plan_id":"cebpf4jnsgd1na2vs0mg"},{"bike_id":"31fe5514-8806-483e-bf43-87e09bbee357","system_id":"levelo_inurba_marseille","lat":43.28925,"lon":5.39605,"is_reserved":false,"is_disabled":false,"rental_uris":{"android":"levelo://app?vid=31fe5514-8806-483e-bf43-87e09bbee357","ios":"levelo://app?vid=31fe5514-8806-483e-bf43-87e09bbee357"},"vehicle_type_id":"4","last_reported":1774714871,"current_range_meters":9200,"station_id":"ce4bh3h2rcd13ifvqdn0","pricing_plan_id":"cebpf4jnsgd1na2vs0mg"},{"bike_id":"0cdb2f41-c6b9-4cd8-a675-d3a94bce5400","system_id":"levelo_inurba_marseille","lat":43.27214,"lon":5.3918,"is_reserved":false,"is_disabled":false,"rental_uris":{"android":"levelo://app?vid=0cdb2f41-c6b9-4cd8-a675-d3a94bce5400","ios":"levelo://app?vid=0cdb2f41-c6b9-4cd8-a675-d3a94bce5400"},"vehicle_type_id":"4","last_reported":1774714871,"current_range_meters":9200,"station_id":"ce4bhhp2rcd13ifvqfm0","pricing_plan_id":"cebpf4jnsgd1na2vs0mg"},{"bike_id":"54ea3d34-d79a-4ab1-886f-1335ba6b438a","system_id":"levelo_inurba_marseille","lat":43.30155,"lon":5.38099,"is_reserved":false,"is_disabled":true,"rental_uris":{"android":"levelo://app?vid=54ea3d34-d79a-4ab1-886f-1335ba6b438a","ios":"levelo://app?vid=54ea3d34-d79a-4ab1-886f-1335ba6b438a"},"vehicle_type_id":"4","last_reported":1774714871,"current_range_meters":9200,"station_id":"ce4bgjp2rcd13ifvqbh0","pricing_plan_id":"cebpf4jnsgd1na2vs0mg"},{"bike_id":"253bfbd1-c3f6-4b72-a716-55890f3b4db7","system_id":"levelo_inurba_marseille","lat":43.28482,"lon":5.48405,"is_reserved":false,"is_disabled":false,"rental_uris":{"android":"levelo://app?vid=253bfbd1-c3f6-4b72-a716-55890f3b4db7","ios":"levelo://app?vid=253bfbd1-c3f6-4b72-a716-55890f3b4db7"},"vehicle_type_id":"4","last_reported":1774714871,"current_range_meters":9200,"station_id":"","pricing_plan_id":"cebpf4jnsgd1na2vs0mg"},{"bike_id":"d9275995-6199-47cd-9641-416f87712e15","system_id":"levelo_inurba_marseille","lat":43.23784,"lon":5.36622,"is_reserved":false,"is_disabled":false,"rental_uris":{"android":"levelo://app?vid=d9275995-6199-47cd-9641-416f87712e15","ios":"levelo://app?vid=d9275995-6199-47cd-9641-416f87712e15"},"vehicle_type_id":"4","last_reported":1774714871,"current_range_meters":9200,"station_id":"st_d3nk18o9ro0c73en2l3g","pricing_plan_id":"cebpf4jnsgd1na2vs0mg"},{"bike_id":"ce62d8cc-4801-4dda-b0f7-37e1ad496686","system_id":"levelo_inurba_marseille","lat":43.31116,"lon":5.37782,"is_reserved":false,"is_disabled":false,"rental_uris":{"android":"levelo://app?vid=ce62d8cc-4801-4dda-b0f7-37e1ad496686","ios":"levelo://app?vid=ce62d8cc-4801-4dda-b0f7-37e1ad496686"},"vehicle_type_id":"4","last_reported":1774714871,"current_range_meters":9200,"station_id":"ce4bgt92rcd13ifvqcg0","pricing_plan_id":"cebpf4jnsgd1na2vs0mg"},{"bike_id":"90aaae4f-4bea-44a9-9991-726dd88eccf2","system_id":"levelo_inurba_marseille","lat":43.2338,"lon":5.41235,"is_reserved":false,"is_disabled":true,"rental_uris":{"android":"levelo://app?vid=90aaae4f-4bea-44a9-9991-726dd88eccf2","ios":"levelo://app?vid=90aaae4f-4bea-44a9-9991-726dd88eccf2"},"vehicle_type_id":"4","last_reported":1774714871,"current_range_meters":9200,"station_id":"","pricing_plan_id":"cebpf4jnsgd1na2vs0mg"},{"bike_id":"c609aa61-79d9-47bd-b7b7-62d640d7b9ef","system_id":"levelo_inurba_marseille","lat":43.26551,"lon":5.37289,"is_reserved":false,"is_disabled":true,"rental_uris":{"android":"levelo://app?vid=c609aa61-79d9-47bd-b7b7-62d640d7b9ef","ios":"levelo://app?vid=c609aa61-79d9-47bd-b7b7-62d640d7b9ef"},"vehicle_type_id":"4","last_reported":1774714871,"current_range_meters":9200,"station_id":"ce4bhg12rcd13ifvqf70","pricing_plan_id":"cebpf4jnsgd1na2vs0mg"},{"bike_id":"752abf57-2523-4a36-ab7b-c328452703b1","system_id":"levelo_inurba_marseille","lat":43.24814,"lon":5.37436,"is_reserved":false,"is_disabled":false,"rental_uris":{"android":"levelo://app?vid=752abf57-2523-4a36-ab7b-c328452703b1","ios":"levelo://app?vid=752abf57-2523-4a36-ab7b-c328452703b1"},"vehicle_type_id":"4","last_reported":1774714871,"current_range_meters":9200,"station_id":"ce4bhgh2rcd13ifvqfb0","pricing_plan_id":"cebpf4jnsgd1na2vs0mg"},{"bike_id":"56603236-0b6d-44e6-924a-3489e7c8fead","system_id":"levelo_inurba_marseille","lat":43.2574,"lon":5.38729,"is_reserved":false,"is_disabled":false,"rental_uris":{"android":"levelo://app?vid=56603236-0b6d-44e6-924a-3489e7c8fead","ios":"levelo://app?vid=56603236-0b6d-44e6-924a-3489e7c8fead"},"vehicle_type_id":"4","last_reported":1774714871,"current_range_meters":9200,"station_id":"","pricing_plan_id":"cebpf4jnsgd1na2vs0mg"},{"bike_id":"7f1be017-79fe-4a7f-9b8f-8007ff25190d","system_id":"levelo_inurba_marseille","lat":43.28616,"lon":5.35123,"is_reserved":false,"is_disabled":false,"rental_uris":{"android":"levelo://app?vid=7f1be017-79fe-4a7f-9b8f-8007ff25190d","ios":"levelo://app?vid=7f1be017-79fe-4a7f-9b8f-8007ff25190d"},"vehicle_type_id":"4","last_reported":1774714871,"current_range_meters":9200,"station_id":"ce4bhch2rcd13ifvqeug","pricing_plan_id":"cebpf4jnsgd1na2vs0mg"},{"bike_id":"56ed71d3-4f24-4bcb-9e63-f10b7aa4866e","system_id":"levelo_inurba_marseille","lat":43.28422,"lon":5.34987,"is_reserved":false,"is_disabled":false,"rental_uris":{"android":"levelo://app?vid=56ed71d3-4f24-4bcb-9e63-f10b7aa4866e","ios":"levelo://app?vid=56ed71d3-4f24-4bcb-9e63-f10b7aa4866e"},"vehicle_type_id":"4","last_reported":1774714871,"current_range_meters":9200,"station_id":"ce4bhbh2rcd13ifvqepg","pricing_plan_id":"cebpf4jnsgd1na2vs0mg"},{"bike_id":"d4a5d27d-2f39-41eb-9ca8-401be050a3ae","system_id":"levelo_inurba_marseille","lat":43.23068,"lon":5.35482,"is_reserved":false,"is_disabled":false,"rental_uris":{"android":"levelo://app?vid=d4a5d27d-2f39-41eb-9ca8-401be050a3ae","ios":"levelo://app?vid=d4a5d27d-2f39-41eb-9ca8-401be050a3ae"},"vehicle_type_id":"4","last_reported":1774714871,"current_range_meters":9200,"station_id":"cpo3342slgdg3j2ifvpg","pricing_plan_id":"cebpf4jnsgd1na2vs0mg"},{"bike_id":"3d10a6dc-5b60-415d-a695-11f58537a955","system_id":"levelo_inurba_marseille","lat":43.24556,"lon":5.39558,"is_reserved":false,"is_disabled":false,"rental_uris":{"android":"levelo://app?vid=3d10a6dc-5b60-415d-a695-11f58537a955","ios":"levelo://app?vid=3d10a6dc-5b60-415d-a695-11f58537a955"},"vehicle_type_id":"4","last_reported":1774714871,"current_range_meters":9200,"station_id":"ce4bhlp2rcd13ifvqgjg","pricing_plan_id":"cebpf4jnsgd1na2vs0mg"},{"bike_id":"4c9a3293-f2c3-4e99-b5e1-94195ca699a4","system_id":"levelo_inurba_marseille","lat":43.28533,"lon":5.44131,"is_reserved":false,"is_disabled":false,"rental_uris":{"android":"levelo://app?vid=4c9a3293-f2c3-4e99-b5e1-94195ca699a4","ios":"levelo://app?vid=4c9a3293-f2c3-4e99-b5e1-94195ca699a4"},"vehicle_type_id":"4","last_reported":1774714871,"current_range_meters":9200,"station_id":"st_d3j3df2ikq2c7380ej80","pricing_plan_id":"cebpf4jnsgd1na2vs0mg"},{"bike_id":"ad2a7325-f4cd-4376-af91-acc9a9d762fc","system_id":"levelo_inurba_marseille","lat":43.22557,"lon":5.41625,"is_reserved":false,"is_disabled":false,"rental_uris":{"android":"levelo://app?vid=ad2a7325-f4cd-4376-af91-acc9a9d762fc","ios":"levelo://app?vid=ad2a7325-f4cd-4376-af91-acc9a9d762fc"},"vehicle_type_id":"4","last_reported":1774714871,"current_range_meters":9600,"station_id":"st_d2o4gvlbi1j2169b742g","pricing_plan_id":"cebpf4jnsgd1na2vs0mg"},{"bike_id":"d180bdb5-ac5e-40ce-8b39-1c97b7b69eea","system_id":"levelo_inurba_marseille","lat":43.31712,"lon":5.3773,"is_reserved":false,"is_disabled":false,"rental_uris":{"android":"levelo://app?vid=d180bdb5-ac5e-40ce-8b39-1c97b7b69eea","ios":"levelo://app?vid=d180bdb5-ac5e-40ce-8b39-1c97b7b69eea"},"vehicle_type_id":"4","last_reported":1774714871,"current_range_meters":9600,"station_id":"ce4bgth2rcd13ifvqch0","pricing_plan_id":"cebpf4jnsgd1na2vs0mg"},{"bike_id":"52842bd1-5154-47db-98c3-7e890724ce05","system_id":"levelo_inurba_marseille","lat":43.28698,"lon":5.37394,"is_reserved":false,"is_disabled":false,"rental_uris":{"android":"levelo://app?vid=52842bd1-5154-47db-98c3-7e890724ce05","ios":"levelo://app?vid=52842bd1-5154-47db-98c3-7e890724ce05"},"vehicle_type_id":"4","last_reported":1774714871,"current_range_meters":9600,"station_id":"ce4bh3p2rcd13ifvqdq0","pricing_plan_id":"cebpf4jnsgd1na2vs0mg"},{"bike_id":"4247c776-2951-4741-b1a8-85d5eef00372","system_id":"levelo_inurba_marseille","lat":43.27382,"lon":5.36258,"is_reserved":false,"is_disabled":false,"rental_uris":{"android":"levelo://app?vid=4247c776-2951-4741-b1a8-85d5eef00372","ios":"levelo://app?vid=4247c776-2951-4741-b1a8-85d5eef00372"},"vehicle_type_id":"4","last_reported":1774714871,"current_range_meters":9600,"station_id":"ce4bhbh2rcd13ifvqeo0","pricing_plan_id":"cebpf4jnsgd1na2vs0mg"},{"bike_id":"0f430097-8d5e-4a5a-9147-4fc5e40a362e","system_id":"levelo_inurba_marseille","lat":43.33553,"lon":5.37489,"is_reserved":false,"is_disabled":false,"rental_uris":{"android":"levelo://app?vid=0f430097-8d5e-4a5a-9147-4fc5e40a362e","ios":"levelo://app?vid=0f430097-8d5e-4a5a-9147-4fc5e40a362e"},"vehicle_type_id":"4","last_reported":1774714871,"current_range_meters":9600,"station_id":"st_d46tts09ee8s73dlu43g","pricing_plan_id":"cebpf4jnsgd1na2vs0mg"},{"bike_id":"dd2afc2a-d3f5-42c3-a3d7-6c4ed376f5b8","system_id":"levelo_inurba_marseille","lat":43.23213,"lon":5.3556,"is_reserved":false,"is_disabled":false,"rental_uris":{"android":"levelo://app?vid=dd2afc2a-d3f5-42c3-a3d7-6c4ed376f5b8","ios":"levelo://app?vid=dd2afc2a-d3f5-42c3-a3d7-6c4ed376f5b8"},"vehicle_type_id":"4","last_reported":1774714871,"current_range_meters":9600,"station_id":"ce4bhu92rcd13ifvqi70","pricing_plan_id":"cebpf4jnsgd1na2vs0mg"},{"bike_id":"3f200426-1eba-4d5e-acb1-a1a43666133b","system_id":"levelo_inurba_marseille","lat":43.21186,"lon":5.35075,"is_reserved":false,"is_disabled":false,"rental_uris":{"android":"levelo://app?vid=3f200426-1eba-4d5e-acb1-a1a43666133b","ios":"levelo://app?vid=3f200426-1eba-4d5e-acb1-a1a43666133b"},"vehicle_type_id":"4","last_reported":1774714871,"current_range_meters":9600,"station_id":"st_cvj6sg6p6f1abm77japg","pricing_plan_id":"cebpf4jnsgd1na2vs0mg"},{"bike_id":"2d0fdc3d-338a-4727-826c-caea44a0cbfa","system_id":"levelo_inurba_marseille","lat":43.29815,"lon":5.44072,"is_reserved":false,"is_disabled":false,"rental_uris":{"android":"levelo://app?vid=2d0fdc3d-338a-4727-826c-caea44a0cbfa","ios":"levelo://app?vid=2d0fdc3d-338a-4727-826c-caea44a0cbfa"},"vehicle_type_id":"4","last_reported":1774714871,"current_range_meters":9600,"station_id":"st_d3jp68qikq2c7381ktn0","pricing_plan_id":"cebpf4jnsgd1na2vs0mg"},{"bike_id":"a40f4b44-4c18-44b6-8d0b-b98dad1be04f","system_id":"levelo_inurba_marseille","lat":43.29304,"lon":5.36844,"is_reserved":false,"is_disabled":false,"rental_uris":{"android":"levelo://app?vid=a40f4b44-4c18-44b6-8d0b-b98dad1be04f","ios":"levelo://app?vid=a40f4b44-4c18-44b6-8d0b-b98dad1be04f"},"vehicle_type_id":"4","last_reported":1774714871,"current_range_meters":9600,"station_id":"ce4bhbp2rcd13ifvqesg","pricing_plan_id":"cebpf4jnsgd1na2vs0mg"},{"bike_id":"eafa20c2-7226-49ab-bb69-ffecd53c4490","system_id":"levelo_inurba_marseille","lat":43.30882,"lon":5.37453,"is_reserved":false,"is_disabled":false,"rental_uris":{"android":"levelo://app?vid=eafa20c2-7226-49ab-bb69-ffecd53c4490","ios":"levelo://app?vid=eafa20c2-7226-49ab-bb69-ffecd53c4490"},"vehicle_type_id":"4","last_reported":1774714871,"current_range_meters":9600,"station_id":"","pricing_plan_id":"cebpf4jnsgd1na2vs0mg"},{"bike_id":"a26521b6-ae36-49b3-8c17-71b965eb6e3c","system_id":"levelo_inurba_marseille","lat":43.26028,"lon":5.37548,"is_reserved":false,"is_disabled":false,"rental_uris":{"android":"levelo://app?vid=a26521b6-ae36-49b3-8c17-71b965eb6e3c","ios":"levelo://app?vid=a26521b6-ae36-49b3-8c17-71b965eb6e3c"},"vehicle_type_id":"4","last_reported":1774714871,"current_range_meters":9600,"station_id":"ce4bhgh2rcd13ifvqfa0","pricing_plan_id":"cebpf4jnsgd1na2vs0mg"},{"bike_id":"33be1637-8e06-4d13-92fe-051a6cd53a94","system_id":"levelo_inurba_marseille","lat":43.29711,"lon":5.36594,"is_reserved":false,"is_disabled":false,"rental_uris":{"android":"levelo://app?vid=33be1637-8e06-4d13-92fe-051a6cd53a94","ios":"levelo://app?vid=33be1637-8e06-4d13-92fe-051a6cd53a94"},"vehicle_type_id":"4","last_reported":1774714871,"current_range_meters":9600,"station_id":"ce4bgn12rcd13ifvqbt0","pricing_plan_id":"cebpf4jnsgd1na2vs0mg"},{"bike_id":"5dc7a0c1-467a-4151-97ef-a8a655c4f7a5","system_id":"levelo_inurba_marseille","lat":43.28479,"lon":5.4839,"is_reserved":false,"is_disabled":false,"rental_uris":{"android":"levelo://app?vid=5dc7a0c1-467a-4151-97ef-a8a655c4f7a5","ios":"levelo://app?vid=5dc7a0c1-467a-4151-97ef-a8a655c4f7a5"},"vehicle_type_id":"4","last_reported":1774714871,"current_range_meters":9600,"station_id":"","pricing_plan_id":"cebpf4jnsgd1na2vs0mg"},{"bike_id":"b8bf157e-659b-4230-b7a5-7abce9abcca2","system_id":"levelo_inurba_marseille","lat":43.24685,"lon":5.38168,"is_reserved":false,"is_disabled":false,"rental_uris":{"android":"levelo://app?vid=b8bf157e-659b-4230-b7a5-7abce9abcca2","ios":"levelo://app?vid=b8bf157e-659b-4230-b7a5-7abce9abcca2"},"vehicle_type_id":"4","last_reported":1774714871,"current_range_meters":9600,"station_id":"ce4bhih2rcd13ifvqfr0","pricing_plan_id":"cebpf4jnsgd1na2vs0mg"},{"bike_id":"ffbbe2a9-7484-4d0d-b2fd-42cde22f05be","system_id":"levelo_inurba_marseille","lat":43.2552,"lon":5.3766,"is_reserved":false,"is_disabled":false,"rental_uris":{"android":"levelo://app?vid=ffbbe2a9-7484-4d0d-b2fd-42cde22f05be","ios":"levelo://app?vid=ffbbe2a9-7484-4d0d-b2fd-42cde22f05be"},"vehicle_type_id":"4","last_reported":1774714871,"current_range_meters":9600,"station_id":"ce4bhh12rcd13ifvqff0","pricing_plan_id":"cebpf4jnsgd1na2vs0mg"},{"bike_id":"096616a6-f8f6-47cc-9904-c82279975f41","system_id":"levelo_inurba_marseille","lat":43.25005,"lon":5.38932,"is_reserved":false,"is_disabled":false,"rental_uris":{"android":"levelo://app?vid=096616a6-f8f6-47cc-9904-c82279975f41","ios":"levelo://app?vid=096616a6-f8f6-47cc-9904-c82279975f41"},"vehicle_type_id":"4","last_reported":1774714871,"current_range_meters":9600,"station_id":"ce4bhgp2rcd13ifvqfd0","pricing_plan_id":"cebpf4jnsgd1na2vs0mg"},{"bike_id":"6cd08817-61b4-4fc1-aeda-8267dd2c4320","system_id":"levelo_inurba_marseille","lat":43.28535,"lon":5.4412,"is_reserved":false,"is_disabled":false,"rental_uris":{"android":"levelo://app?vid=6cd08817-61b4-4fc1-aeda-8267dd2c4320","ios":"levelo://app?vid=6cd08817-61b4-4fc1-aeda-8267dd2c4320"},"vehicle_type_id":"4","last_reported":1774714871,"current_range_meters":9600,"station_id":"st_d3j3df2ikq2c7380ej80","pricing_plan_id":"cebpf4jnsgd1na2vs0mg"},{"bike_id":"bdaed5e7-39fc-4f15-88b1-8c6e200d65a7","system_id":"levelo_inurba_marseille","lat":43.27196,"lon":5.39184,"is_reserved":false,"is_disabled":false,"rental_uris":{"android":"levelo://app?vid=bdaed5e7-39fc-4f15-88b1-8c6e200d65a7","ios":"levelo://app?vid=bdaed5e7-39fc-4f15-88b1-8c6e200d65a7"},"vehicle_type_id":"4","last_reported":1774714871,"current_range_meters":9600,"station_id":"ce4bhhp2rcd13ifvqfm0","pricing_plan_id":"cebpf4jnsgd1na2vs0mg"},{"bike_id":"1a2c4981-3f12-482c-a665-9dfca5443cd7","system_id":"levelo_inurba_marseille","lat":43.26072,"lon":5.39393,"is_reserved":false,"is_disabled":false,"rental_uris":{"android":"levelo://app?vid=1a2c4981-3f12-482c-a665-9dfca5443cd7","ios":"levelo://app?vid=1a2c4981-3f12-482c-a665-9dfca5443cd7"},"vehicle_type_id":"4","last_reported":1774714871,"current_range_meters":9600,"station_id":"ce4bhh92rcd13ifvqfj0","pricing_plan_id":"cebpf4jnsgd1na2vs0mg"},{"bike_id":"522584d4-e123-4c94-b8f5-011762c7cb00","system_id":"levelo_inurba_marseille","lat":43.23886,"lon":5.37455,"is_reserved":false,"is_disabled":false,"rental_uris":{"android":"levelo://app?vid=522584d4-e123-4c94-b8f5-011762c7cb00","ios":"levelo://app?vid=522584d4-e123-4c94-b8f5-011762c7cb00"},"vehicle_type_id":"4","last_reported":1774714871,"current_range_meters":9600,"station_id":"st_d6sm7csbq4hs73f8fpjg","pricing_plan_id":"cebpf4jnsgd1na2vs0mg"},{"bike_id":"dcddd6f4-f750-4f90-ae83-25c178716cb7","system_id":"levelo_inurba_marseille","lat":43.28866,"lon":5.42522,"is_reserved":false,"is_disabled":false,"rental_uris":{"android":"levelo://app?vid=dcddd6f4-f750-4f90-ae83-25c178716cb7","ios":"levelo://app?vid=dcddd6f4-f750-4f90-ae83-25c178716cb7"},"vehicle_type_id":"4","last_reported":1774714871,"current_range_meters":9600,"station_id":"st_d3b462108ojc7389ooeg","pricing_plan_id":"cebpf4jnsgd1na2vs0mg"},{"bike_id":"831afe97-5b46-40a3-b3a8-9267430cd93d","system_id":"levelo_inurba_marseille","lat":43.22926,"lon":5.35389,"is_reserved":false,"is_disabled":false,"rental_uris":{"android":"levelo://app?vid=831afe97-5b46-40a3-b3a8-9267430cd93d","ios":"levelo://app?vid=831afe97-5b46-40a3-b3a8-9267430cd93d"},