{"last_updated":1683378405,"ttl":30,"version":"2.2","data":{"bikes":[{"bike_id":"64502306-1a13-457f-a8db-60b5d2a6d50f","system_id":"levelo_inurba_marseille","lat":43.312239,"lon":5.368562,"is_reserved":false,"is_disabled":false,"rental_uris":{"android":"levelo://app?vid=64502306-1a13-457f-a8db-60b5d2a6d50f","ios":"levelo://app?vid=64502306-1a13-457f-a8db-60b5d2a6d50f"},"vehicle_type_id":"4","last_reported":1683378406,"current_range_meters":29200,"station_id":"ce4bgl92rcd13ifvqbq0","pricing_plan_id":"free"},{"bike_id":"e1725977-6f97-4e77-9dc2-0ef0a0edbb7f","system_id":"levelo_inurba_marseille","lat":43.312239,"lon":5.368562,"is_reserved":false,"is_disabled":false,"rental_uris":{"android":"levelo://app?vid=e1725977-6f97-4e77-9dc2-0ef0a0edbb7f","ios":"levelo://app?vid=e1725977-6f97-4e77-9dc2-0ef0a0edbb7f"},"vehicle_type_id":"4","last_reported":1683378406,"current_range_meters":10800,"station_id":"ce4bgl92rcd13ifvqbq0","pricing_plan_id":"free"},{"bike_id":"2afd023b-b64f-40a1-94c7-13ac2dcde7bd","system_id":"levelo_inurba_marseille","lat":43.312239,"lon":5.368562,"is_reserved":false,"is_disabled":false,"rental_uris":{"android":"levelo://app?vid=2afd023b-b64f-40a1-94c7-13ac2dcde7bd","ios":"levelo://app?vid=2afd023b-b64f-40a1-94c7-13ac2dcde7bd"},"vehicle_type_id":"4","last_reported":1683378406,"current_range_meters":30400,"station_id":"ce4bgl92rcd13ifvqbq0","pricing_plan_id":"free"},{"bike_id":"d0b19bdc-028c-4e53-824f-3158711604ba","system_id":"levelo_inurba_marseille","lat":43.309076,"lon":5.368465,"is_reserved":false,"is_disabled":false,"rental_uris":{"android":"levelo://app?vid=d0b19bdc-028c-4e53-824f-3158711604ba","ios":"levelo://app?vid=d0b19bdc-028c-4e53-824f-3158711604ba"},"vehicle_type_id":"4","last_reported":1683378406,"current_range_meters":31200,"station_id":"ce4bgn92rcd13ifvqbvg","pricing_plan_id":"free"},{"bike_id":"6482b8a3-70c9-4804-83f2-4836c15ec734","system_id":"levelo_inurba_marseille","lat":43.309076,"lon":5.368465,"is_reserved":false,"is_disabled":false,"rental_uris":{"android":"levelo://app?vid=6482b8a3-70c9-4804-83f2-4836c15ec734","ios":"levelo://app?vid=6482b8a3-70c9-4804-83f2-4836c15ec734"},"vehicle_type_id":"4","last_reported":1683378406,"current_range_meters":31200,"station_id":"ce4bgn92rcd13ifvqbvg","pricing_plan_id":"free"},{"bike_id":"e8c552e0-1852-45c0-953b-df675dd94e09","system_id":"levelo_inurba_marseille","lat":43.309076,"lon":5.368465,"is_reserved":false,"is_disabled":false,"rental_uris":{"android":"levelo://app?vid=e8c552e0-1852-45c0-953b-df675dd94e09","ios":"levelo://app?vid=e8c552e0-1852-45c0-953b-df675dd94e09"},"vehicle_type_id":"4","last_reported":1683378406,"current_range_meters":29600,"station_id":"ce4bgn92rcd13ifvqbvg","pricing_plan_id":"free"},{"bike_id":"4897c916-e9e2-440a-b225-7ace352307cb","system_id":"levelo_inurba_marseille","lat":43.309076,"lon":5.368465,"is_reserved":false,"is_disabled":false,"rental_uris":{"android":"levelo://app?vid=4897c916-e9e2-440a-b225-7ace352307cb","ios":"levelo://app?vid=4897c916-e9e2-440a-b225-7ace352307cb"},"vehicle_type_id":"4","last_reported":1683378406,"current_range_meters":31200,"station_id":"ce4bgn92rcd13ifvqbvg","pricing_plan_id":"free"},{"bike_id":"2fe9e76f-3d13-411b-a561-194c0de1192c","system_id":"levelo_inurba_marseille","lat":43.30901,"lon":5.36843,"is_reserved":false,"is_disabled":false,"rental_uris":{"android":"levelo://app?vid=2fe9e76f-3d13-411b-a561-194c0de1192c","ios":"levelo://app?vid=2fe9e76f-3d13-411b-a561-194c0de1192c"},"vehicle_type_id":"4","last_reported":1683378406,"current_range_meters":24400,"station_id":"ce4bgn92rcd13ifvqbvg","pricing_plan_id":"free"},{"bike_id":"bc3a4592-3447-4ef0-8ccc-250eac0a96c0","system_id":"levelo_inurba_marseille","lat":43.314811,"lon":5.373103,"is_reserved":false,"is_disabled":false,"rental_uris":{"android":"levelo://app?vid=bc3a4592-3447-4ef0-8ccc-250eac0a96c0","ios":"levelo://app?vid=bc3a4592-3447-4ef0-8ccc-250eac0a96c0"},"vehicle_type_id":"4","last_reported":1683378406,"current_range_meters":22400,"station_id":"ce4bgt12rcd13ifvqcd0","pricing_plan_id":"free"},{"bike_id":"31b1d0dd-ed03-4237-bdf9-3bd2d0f59c97","system_id":"levelo_inurba_marseille","lat":43.314811,"lon":5.373103,"is_reserved":false,"is_disabled":false,"rental_uris":{"android":"levelo://app?vid=31b1d0dd-ed03-4237-bdf9-3bd2d0f59c97","ios":"levelo://app?vid=31b1d0dd-ed03-4237-bdf9-3bd2d0f59c97"},"vehicle_type_id":"4","last_reported":1683378406,"current_range_meters":15600,"station_id":"ce4bgt12rcd13ifvqcd0","pricing_plan_id":"free"},{"bike_id":"cd549331-386c-43d5-8894-a310d1802112","system_id":"levelo_inurba_marseille","lat":43.314811,"lon":5.373103,"is_reserved":false,"is_disabled":false,"rental_uris":{"android":"levelo://app?vid=cd549331-386c-43d5-8894-a310d1802112","ios":"levelo://app?vid=cd549331-386c-43d5-8894-a310d1802112"},"vehicle_type_id":"4","last_reported":1683378406,"current_range_meters":15200,"station_id":"ce4bgt12rcd13ifvqcd0","pricing_plan_id":"free"},{"bike_id":"caea2489-5a5d-4f00-8e78-8c319f8ed68e","system_id":"levelo_inurba_marseille","lat":43.3057,"lon":5.36553,"is_reserved":false,"is_disabled":false,"rental_uris":{"android":"levelo://app?vid=caea2489-5a5d-4f00-8e78-8c319f8ed68e","ios":"levelo://app?vid=caea2489-5a5d-4f00-8e78-8c319f8ed68e"},"vehicle_type_id":"4","last_reported":1683378406,"current_range_meters":6400,"station_id":"","pricing_plan_id":"free"},{"bike_id":"d107c279-99c7-46c0-bb57-1f5be9a6a6c2","system_id":"levelo_inurba_marseille","lat":43.30546,"lon":5.36696,"is_reserved":false,"is_disabled":false,"rental_uris":{"android":"levelo://app?vid=d107c279-99c7-46c0-bb57-1f5be9a6a6c2","ios":"levelo://app?vid=d107c279-99c7-46c0-bb57-1f5be9a6a6c2"},"vehicle_type_id":"4","last_reported":1683378406,"current_range_meters":26800,"station_id":"","pricing_plan_id":"free"},{"bike_id":"5e31562c-da9b-4dcd-85c7-a519f53de284","system_id":"levelo_inurba_marseille","lat":43.305368,"lon":5.367343,"is_reserved":false,"is_disabled":false,"rental_uris":{"android":"levelo://app?vid=5e31562c-da9b-4dcd-85c7-a519f53de284","ios":"levelo://app?vid=5e31562c-da9b-4dcd-85c7-a519f53de284"},"vehicle_type_id":"4","last_reported":1683378406,"current_range_meters":13200,"station_id":"ce4bgrp2rcd13ifvqc9g","pricing_plan_id":"free"},{"bike_id":"d1207fc1-bc3f-455a-ace2-278451b33e5d","system_id":"levelo_inurba_marseille","lat":43.305368,"lon":5.367343,"is_reserved":false,"is_disabled":false,"rental_uris":{"android":"levelo://app?vid=d1207fc1-bc3f-455a-ace2-278451b33e5d","ios":"levelo://app?vid=d1207fc1-bc3f-455a-ace2-278451b33e5d"},"vehicle_type_id":"4","last_reported":1683378406,"current_range_meters":11200,"station_id":"ce4bgrp2rcd13ifvqc9g","pricing_plan_id":"free"},{"bike_id":"b2da8bcb-e4df-4af2-ab03-20bb1973b3a1","system_id":"levelo_inurba_marseille","lat":43.30521,"lon":5.36708,"is_reserved":false,"is_disabled":false,"rental_uris":{"android":"levelo://app?vid=b2da8bcb-e4df-4af2-ab03-20bb1973b3a1","ios":"levelo://app?vid=b2da8bcb-e4df-4af2-ab03-20bb1973b3a1"},"vehicle_type_id":"4","last_reported":1683378406,"current_range_meters":23200,"station_id":"","pricing_plan_id":"free"},{"bike_id":"245c1e28-3e9d-4163-a52a-9dcd1d6daa13","system_id":"levelo_inurba_marseille","lat":43.317075,"lon":5.377367,"is_reserved":false,"is_disabled":false,"rental_uris":{"android":"levelo://app?vid=245c1e28-3e9d-4163-a52a-9dcd1d6daa13","ios":"levelo://app?vid=245c1e28-3e9d-4163-a52a-9dcd1d6daa13"},"vehicle_type_id":"4","last_reported":1683378406,"current_range_meters":31200,"station_id":"ce4bgth2rcd13ifvqch0","pricing_plan_id":"free"},{"bike_id":"121bcd91-5f14-460c-a875-40e2214d56a2","system_id":"levelo_inurba_marseille","lat":43.317075,"lon":5.377367,"is_reserved":false,"is_disabled":false,"rental_uris":{"android":"levelo://app?vid=121bcd91-5f14-460c-a875-40e2214d56a2","ios":"levelo://app?vid=121bcd91-5f14-460c-a875-40e2214d56a2"},"vehicle_type_id":"4","last_reported":1683378406,"current_range_meters":30400,"station_id":"ce4bgth2rcd13ifvqch0","pricing_plan_id":"free"},{"bike_id":"b3b28336-ae3c-45c3-9187-488825acd3a3","system_id":"levelo_inurba_marseille","lat":43.317075,"lon":5.377367,"is_reserved":false,"is_disabled":false,"rental_uris":{"android":"levelo://app?vid=b3b28336-ae3c-45c3-9187-488825acd3a3","ios":"levelo://app?vid=b3b28336-ae3c-45c3-9187-488825acd3a3"},"vehicle_type_id":"4","last_reported":1683378406,"current_range_meters":28800,"station_id":"ce4bgth2rcd13ifvqch0","pricing_plan_id":"free"},{"bike_id":"2114a6b2-e574-42fa-a3ce-a7c7154196b6","system_id":"levelo_inurba_marseille","lat":43.317075,"lon":5.377367,"is_reserved":false,"is_disabled":false,"rental_uris":{"android":"levelo://app?vid=2114a6b2-e574-42fa-a3ce-a7c7154196b6","ios":"levelo://app?vid=2114a6b2-e574-42fa-a3ce-a7c7154196b6"},"vehicle_type_id":"4","last_reported":1683378406,"current_range_meters":31200,"station_id":"ce4bgth2rcd13ifvqch0","pricing_plan_id":"free"},{"bike_id":"0e0ca351-95d5-4a68-983b-5823088666d9","system_id":"levelo_inurba_marseille","lat":43.315289,"lon":5.380349,"is_reserved":false,"is_disabled":false,"rental_uris":{"android":"levelo://app?vid=0e0ca351-95d5-4a68-983b-5823088666d9","ios":"levelo://app?vid=0e0ca351-95d5-4a68-983b-5823088666d9"},"vehicle_type_id":"4","last_reported":1683378406,"current_range_meters":21200,"station_id":"ce4bhsp2rcd13ifvqi50","pricing_plan_id":"free"},{"bike_id":"23fdc6f2-ece9-4e3c-9125-b54edb23a48b","system_id":"levelo_inurba_marseille","lat":43.304606,"lon":5.379026,"is_reserved":false,"is_disabled":false,"rental_uris":{"android":"levelo://app?vid=23fdc6f2-ece9-4e3c-9125-b54edb23a48b","ios":"levelo://app?vid=23fdc6f2-ece9-4e3c-9125-b54edb23a48b"},"vehicle_type_id":"4","last_reported":1683378406,"current_range_meters":29200,"station_id":"ce4bgup2rcd13ifvqcn0","pricing_plan_id":"free"},{"bike_id":"36125118-c935-42d9-87bc-88f8505779a2","system_id":"levelo_inurba_marseille","lat":43.30477,"lon":5.37905,"is_reserved":false,"is_disabled":false,"rental_uris":{"android":"levelo://app?vid=36125118-c935-42d9-87bc-88f8505779a2","ios":"levelo://app?vid=36125118-c935-42d9-87bc-88f8505779a2"},"vehicle_type_id":"4","last_reported":1683378406,"current_range_meters":28800,"station_id":"ce4bgup2rcd13ifvqcn0","pricing_plan_id":"free"},{"bike_id":"3a69c730-f5c2-454a-a481-55c8a89be48d","system_id":"levelo_inurba_marseille","lat":43.304606,"lon":5.379026,"is_reserved":false,"is_disabled":false,"rental_uris":{"android":"levelo://app?vid=3a69c730-f5c2-454a-a481-55c8a89be48d","ios":"levelo://app?vid=3a69c730-f5c2-454a-a481-55c8a89be48d"},"vehicle_type_id":"4","last_reported":1683378406,"current_range_meters":14800,"station_id":"ce4bgup2rcd13ifvqcn0","pricing_plan_id":"free"},{"bike_id":"d36d5cf8-c5e5-4feb-914c-43b1e394f11d","system_id":"levelo_inurba_marseille","lat":43.304606,"lon":5.379026,"is_reserved":false,"is_disabled":false,"rental_uris":{"android":"levelo://app?vid=d36d5cf8-c5e5-4feb-914c-43b1e394f11d","ios":"levelo://app?vid=d36d5cf8-c5e5-4feb-914c-43b1e394f11d"},"vehicle_type_id":"4","last_reported":1683378406,"current_range_meters":26800,"station_id":"ce4bgup2rcd13ifvqcn0","pricing_plan_id":"free"},{"bike_id":"1feedc7c-a014-4974-8ffb-b563bd45613f","system_id":"levelo_inurba_marseille","lat":43.304606,"lon":5.379026,"is_reserved":false,"is_disabled":false,"rental_uris":{"android":"levelo://app?vid=1feedc7c-a014-4974-8ffb-b563bd45613f","ios":"levelo://app?vid=1feedc7c-a014-4974-8ffb-b563bd45613f"},"vehicle_type_id":"4","last_reported":1683378406,"current_range_meters":30800,"station_id":"ce4bgup2rcd13ifvqcn0","pricing_plan_id":"free"},{"bike_id":"b9a461a2-b4db-4a55-ae09-c5e25104a82f","system_id":"levelo_inurba_marseille","lat":43.304606,"lon":5.379026,"is_reserved":false,"is_disabled":false,"rental_uris":{"android":"levelo://app?vid=b9a461a2-b4db-4a55-ae09-c5e25104a82f","ios":"levelo://app?vid=b9a461a2-b4db-4a55-ae09-c5e25104a82f"},"vehicle_type_id":"4","last_reported":1683378406,"current_range_meters":30400,"station_id":"ce4bgup2rcd13ifvqcn0","pricing_plan_id":"free"},{"bike_id":"ea814a85-6ee3-4c8b-924c-4443d1a55b7d","system_id":"levelo_inurba_marseille","lat":43.304606,"lon":5.379026,"is_reserved":false,"is_disabled":false,"rental_uris":{"android":"levelo://app?vid=ea814a85-6ee3-4c8b-924c-4443d1a55b7d","ios":"levelo://app?vid=ea814a85-6ee3-4c8b-924c-4443d1a55b7d"},"vehicle_type_id":"4","last_reported":1683378406,"current_range_meters":26800,"station_id":"ce4bgup2rcd13ifvqcn0","pricing_plan_id":"free"},{"bike_id":"0d958b6c-e15e-4f8b-b8c9-3c1a9504457e","system_id":"levelo_inurba_marseille","lat":43.304606,"lon":5.379026,"is_reserved":false,"is_disabled":false,"rental_uris":{"android":"levelo://app?vid=0d958b6c-e15e-4f8b-b8c9-3c1a9504457e","ios":"levelo://app?vid=0d958b6c-e15e-4f8b-b8c9-3c1a9504457e"},"vehicle_type_id":"4","last_reported":1683378406,"current_range_meters":30800,"station_id":"ce4bgup2rcd13ifvqcn0","pricing_plan_id":"free"},{"bike_id":"1d468e96-aee4-4cdf-97c1-22bf7945b764","system_id":"levelo_inurba_marseille","lat":43.30143,"lon":5.37413,"is_reserved":false,"is_disabled":false,"rental_uris":{"android":"levelo://app?vid=1d468e96-aee4-4cdf-97c1-22bf7945b764","ios":"levelo://app?vid=1d468e96-aee4-4cdf-97c1-22bf7945b764"},"vehicle_type_id":"4","last_reported":1683378406,"current_range_meters":15600,"station_id":"ce4bgs92rcd13ifvqcc0","pricing_plan_id":"free"},{"bike_id":"616dda5f-9bd7-45f3-980b-681c8b3bbef9","system_id":"levelo_inurba_marseille","lat":43.313571,"lon":5.384829,"is_reserved":false,"is_disabled":false,"rental_uris":{"android":"levelo://app?vid=616dda5f-9bd7-45f3-980b-681c8b3bbef9","ios":"levelo://app?vid=616dda5f-9bd7-45f3-980b-681c8b3bbef9"},"vehicle_type_id":"4","last_reported":1683378406,"current_range_meters":14000,"station_id":"ce4bgt92rcd13ifvqcf0","pricing_plan_id":"free"},{"bike_id":"ca467d8e-0f82-464b-a031-55e81b21f2b2","system_id":"levelo_inurba_marseille","lat":43.299222,"lon":5.365554,"is_reserved":false,"is_disabled":false,"rental_uris":{"android":"levelo://app?vid=ca467d8e-0f82-464b-a031-55e81b21f2b2","ios":"levelo://app?vid=ca467d8e-0f82-464b-a031-55e81b21f2b2"},"vehicle_type_id":"4","last_reported":1683378406,"current_range_meters":1600,"station_id":"ce4bgm92rcd13ifvqbr0","pricing_plan_id":"free"},{"bike_id":"f6c64a9d-d5f6-48c4-8a81-960fe0f29fb2","system_id":"levelo_inurba_marseille","lat":43.31368,"lon":5.38527,"is_reserved":false,"is_disabled":false,"rental_uris":{"android":"levelo://app?vid=f6c64a9d-d5f6-48c4-8a81-960fe0f29fb2","ios":"levelo://app?vid=f6c64a9d-d5f6-48c4-8a81-960fe0f29fb2"},"vehicle_type_id":"4","last_reported":1683378406,"current_range_meters":18000,"station_id":"","pricing_plan_id":"free"},{"bike_id":"0a46ed1d-3128-4721-bf33-17843aad797f","system_id":"levelo_inurba_marseille","lat":43.299222,"lon":5.365554,"is_reserved":false,"is_disabled":false,"rental_uris":{"android":"levelo://app?vid=0a46ed1d-3128-4721-bf33-17843aad797f","ios":"levelo://app?vid=0a46ed1d-3128-4721-bf33-17843aad797f"},"vehicle_type_id":"4","last_reported":1683378406,"current_range_meters":24400,"station_id":"ce4bgm92rcd13ifvqbr0","pricing_plan_id":"free"},{"bike_id":"7f40ad53-a2f0-43d8-a009-9af2bd093f91","system_id":"levelo_inurba_marseille","lat":43.299222,"lon":5.365554,"is_reserved":false,"is_disabled":false,"rental_uris":{"android":"levelo://app?vid=7f40ad53-a2f0-43d8-a009-9af2bd093f91","ios":"levelo://app?vid=7f40ad53-a2f0-43d8-a009-9af2bd093f91"},"vehicle_type_id":"4","last_reported":1683378406,"current_range_meters":26000,"station_id":"ce4bgm92rcd13ifvqbr0","pricing_plan_id":"free"},{"bike_id":"bcf12486-4d40-4884-969b-2c19f244a968","system_id":"levelo_inurba_marseille","lat":43.29892,"lon":5.36706,"is_reserved":false,"is_disabled":false,"rental_uris":{"android":"levelo://app?vid=bcf12486-4d40-4884-969b-2c19f244a968","ios":"levelo://app?vid=bcf12486-4d40-4884-969b-2c19f244a968"},"vehicle_type_id":"4","last_reported":1683378406,"current_range_meters":0,"station_id":"","pricing_plan_id":"free"},{"bike_id":"9a8cb2cd-7757-4f79-b6cf-f301b5954263","system_id":"levelo_inurba_marseille","lat":43.30048,"lon":5.37634,"is_reserved":false,"is_disabled":false,"rental_uris":{"android":"levelo://app?vid=9a8cb2cd-7757-4f79-b6cf-f301b5954263","ios":"levelo://app?vid=9a8cb2cd-7757-4f79-b6cf-f301b5954263"},"vehicle_type_id":"4","last_reported":1683378406,"current_range_meters":22400,"station_id":"","pricing_plan_id":"free"},{"bike_id":"1d184114-b33a-4668-a809-196da977188e","system_id":"levelo_inurba_marseille","lat":43.298433,"lon":5.362774,"is_reserved":false,"is_disabled":false,"rental_uris":{"android":"levelo://app?vid=1d184114-b33a-4668-a809-196da977188e","ios":"levelo://app?vid=1d184114-b33a-4668-a809-196da977188e"},"vehicle_type_id":"4","last_reported":1683378406,"current_range_meters":4800,"station_id":"ce4bgpp2rcd13ifvqc3g","pricing_plan_id":"free"},{"bike_id":"a47d05ad-f4d5-4e12-bd6f-fc71b463c161","system_id":"levelo_inurba_marseille","lat":43.298433,"lon":5.362774,"is_reserved":false,"is_disabled":false,"rental_uris":{"android":"levelo://app?vid=a47d05ad-f4d5-4e12-bd6f-fc71b463c161","ios":"levelo://app?vid=a47d05ad-f4d5-4e12-bd6f-fc71b463c161"},"vehicle_type_id":"4","last_reported":1683378406,"current_range_meters":2000,"station_id":"ce4bgpp2rcd13ifvqc3g","pricing_plan_id":"free"},{"bike_id":"529bb453-2565-47ec-bab1-8a959b960ae8","system_id":"levelo_inurba_marseille","lat":43.298433,"lon":5.362774,"is_reserved":false,"is_disabled":false,"rental_uris":{"android":"levelo://app?vid=529bb453-2565-47ec-bab1-8a959b960ae8","ios":"levelo://app?vid=529bb453-2565-47ec-bab1-8a959b960ae8"},"vehicle_type_id":"4","last_reported":1683378406,"current_range_meters":31200,"station_id":"ce4bgpp2rcd13ifvqc3g","pricing_plan_id":"free"},{"bike_id":"d2a8e75f-82ce-4c2d-b0d0-26a1181f7ad3","system_id":"levelo_inurba_marseille","lat":43.298433,"lon":5.362774,"is_reserved":false,"is_disabled":false,"rental_uris":{"android":"levelo://app?vid=d2a8e75f-82ce-4c2d-b0d0-26a1181f7ad3","ios":"levelo://app?vid=d2a8e75f-82ce-4c2d-b0d0-26a1181f7ad3"},"vehicle_type_id":"4","last_reported":1683378406,"current_range_meters":28800,"station_id":"ce4bgpp2rcd13ifvqc3g","pricing_plan_id":"free"},{"bike_id":"3058bbf0-9cf7-4616-bf4d-06ae90bbe77a","system_id":"levelo_inurba_marseille","lat":43.298433,"lon":5.362774,"is_reserved":false,"is_disabled":false,"rental_uris":{"android":"levelo://app?vid=3058bbf0-9cf7-4616-bf4d-06ae90bbe77a","ios":"levelo://app?vid=3058bbf0-9cf7-4616-bf4d-06ae90bbe77a"},"vehicle_type_id":"4","last_reported":1683378406,"current_range_meters":25600,"station_id":"ce4bgpp2rcd13ifvqc3g","pricing_plan_id":"free"},{"bike_id":"554fec9f-8289-46e2-a5c0-d31af128dc71","system_id":"levelo_inurba_marseille","lat":43.298433,"lon":5.362774,"is_reserved":false,"is_disabled":false,"rental_uris":{"android":"levelo://app?vid=554fec9f-8289-46e2-a5c0-d31af128dc71","ios":"levelo://app?vid=554fec9f-8289-46e2-a5c0-d31af128dc71"},"vehicle_type_id":"4","last_reported":1683378406,"current_range_meters":30000,"station_id":"ce4bgpp2rcd13ifvqc3g","pricing_plan_id":"free"},{"bike_id":"cbf7609a-68b2-4d5d-a9e2-0b2ba3d9f3dc","system_id":"levelo_inurba_marseille","lat":43.298433,"lon":5.362774,"is_reserved":false,"is_disabled":false,"rental_uris":{"android":"levelo://app?vid=cbf7609a-68b2-4d5d-a9e2-0b2ba3d9f3dc","ios":"levelo://app?vid=cbf7609a-68b2-4d5d-a9e2-0b2ba3d9f3dc"},"vehicle_type_id":"4","last_reported":1683378406,"current_range_meters":31200,"station_id":"ce4bgpp2rcd13ifvqc3g","pricing_plan_id":"free"},{"bike_id":"583fb971-9406-424e-b976-13c9597f8615","system_id":"levelo_inurba_marseille","lat":43.298433,"lon":5.362774,"is_reserved":false,"is_disabled":false,"rental_uris":{"android":"levelo://app?vid=583fb971-9406-424e-b976-13c9597f8615","ios":"levelo://app?vid=583fb971-9406-424e-b976-13c9597f8615"},"vehicle_type_id":"4","last_reported":1683378406,"current_range_meters":32000,"station_id":"ce4bgpp2rcd13ifvqc3g","pricing_plan_id":"free"},{"bike_id":"ab00691f-1bc6-412c-a1e0-895c231cf6d6","system_id":"levelo_inurba_marseille","lat":43.299243,"lon":5.374807,"is_reserved":false,"is_disabled":false,"rental_uris":{"android":"levelo://app?vid=ab00691f-1bc6-412c-a1e0-895c231cf6d6","ios":"levelo://app?vid=ab00691f-1bc6-412c-a1e0-895c231cf6d6"},"vehicle_type_id":"4","last_reported":1683378406,"current_range_meters":9200,"station_id":"ce4bgjh2rcd13ifvqbg0","pricing_plan_id":"free"},{"bike_id":"05c4847d-c8a9-4166-b18b-0736833ba7fd","system_id":"levelo_inurba_marseille","lat":43.298433,"lon":5.362774,"is_reserved":false,"is_disabled":false,"rental_uris":{"android":"levelo://app?vid=05c4847d-c8a9-4166-b18b-0736833ba7fd","ios":"levelo://app?vid=05c4847d-c8a9-4166-b18b-0736833ba7fd"},"vehicle_type_id":"4","last_reported":1683378406,"current_range_meters":31200,"station_id":"ce4bgpp2rcd13ifvqc3g","pricing_plan_id":"free"},{"bike_id":"fa495c37-f7d4-465f-a146-0169143d7693","system_id":"levelo_inurba_marseille","lat":43.328371,"lon":5.366912,"is_reserved":false,"is_disabled":false,"rental_uris":{"android":"levelo://app?vid=fa495c37-f7d4-465f-a146-0169143d7693","ios":"levelo://app?vid=fa495c37-f7d4-465f-a146-0169143d7693"},"vehicle_type_id":"4","last_reported":1683378406,"current_range_meters":14800,"station_id":"ce4bhs92rcd13ifvqi0g","pricing_plan_id":"free"},{"bike_id":"cb03d0a7-8198-46ba-b8e4-07d3539f0078","system_id":"levelo_inurba_marseille","lat":43.328371,"lon":5.366912,"is_reserved":false,"is_disabled":false,"rental_uris":{"android":"levelo://app?vid=cb03d0a7-8198-46ba-b8e4-07d3539f0078","ios":"levelo://app?vid=cb03d0a7-8198-46ba-b8e4-07d3539f0078"},"vehicle_type_id":"4","last_reported":1683378406,"current_range_meters":19200,"station_id":"ce4bhs92rcd13ifvqi0g","pricing_plan_id":"free"},{"bike_id":"aafcc005-5e38-4c52-a10d-6d0f89f0012b","system_id":"levelo_inurba_marseille","lat":43.302008,"lon":5.394694,"is_reserved":false,"is_disabled":false,"rental_uris":{"android":"levelo://app?vid=aafcc005-5e38-4c52-a10d-6d0f89f0012b","ios":"levelo://app?vid=aafcc005-5e38-4c52-a10d-6d0f89f0012b"},"vehicle_type_id":"4","last_reported":1683378406,"current_range_meters":5600,"station_id":"ce4bh0p2rcd13ifvqd70","pricing_plan_id":"free"},{"bike_id":"c459207e-8c5a-4f5e-9e14-12c2b77a31ea","system_id":"levelo_inurba_marseille","lat":43.29595,"lon":5.36735,"is_reserved":false,"is_disabled":false,"rental_uris":{"android":"levelo://app?vid=c459207e-8c5a-4f5e-9e14-12c2b77a31ea","ios":"levelo://app?vid=c459207e-8c5a-4f5e-9e14-12c2b77a31ea"},"vehicle_type_id":"4","last_reported":1683378406,"current_range_meters":30000,"station_id":"ce4bgph2rcd13ifvqc2g","pricing_plan_id":"free"},{"bike_id":"5ad0020b-a756-4779-bf8e-a6ae19ad472f","system_id":"levelo_inurba_marseille","lat":43.296131,"lon":5.370791,"is_reserved":false,"is_disabled":false,"rental_uris":{"android":"levelo://app?vid=5ad0020b-a756-4779-bf8e-a6ae19ad472f","ios":"levelo://app?vid=5ad0020b-a756-4779-bf8e-a6ae19ad472f"},"vehicle_type_id":"4","last_reported":1683378406,"current_range_meters":10000,"station_id":"ce4bgnh2rcd13ifvqc0g","pricing_plan_id":"free"},{"bike_id":"0782dcc0-4330-43ca-b69d-c33430d0ed14","system_id":"levelo_inurba_marseille","lat":43.296131,"lon":5.370791,"is_reserved":false,"is_disabled":false,"rental_uris":{"android":"levelo://app?vid=0782dcc0-4330-43ca-b69d-c33430d0ed14","ios":"levelo://app?vid=0782dcc0-4330-43ca-b69d-c33430d0ed14"},"vehicle_type_id":"4","last_reported":1683378406,"current_range_meters":16400,"station_id":"ce4bgnh2rcd13ifvqc0g","pricing_plan_id":"free"},{"bike_id":"8eceffc6-1411-4c22-96d4-b49b60e4dc19","system_id":"levelo_inurba_marseille","lat":43.2958,"lon":5.36739,"is_reserved":false,"is_disabled":false,"rental_uris":{"android":"levelo://app?vid=8eceffc6-1411-4c22-96d4-b49b60e4dc19","ios":"levelo://app?vid=8eceffc6-1411-4c22-96d4-b49b60e4dc19"},"vehicle_type_id":"4","last_reported":1683378406,"current_range_meters":26800,"station_id":"ce4bgph2rcd13ifvqc2g","pricing_plan_id":"free"},{"bike_id":"3305bc55-18ef-46a5-9e06-599a79d246bf","system_id":"levelo_inurba_marseille","lat":43.317557,"lon":5.390173,"is_reserved":false,"is_disabled":false,"rental_uris":{"android":"levelo://app?vid=3305bc55-18ef-46a5-9e06-599a79d246bf","ios":"levelo://app?vid=3305bc55-18ef-46a5-9e06-599a79d246bf"},"vehicle_type_id":"4","last_reported":1683378406,"current_range_meters":27600,"station_id":"ce4bhqp2rcd13ifvqhng","pricing_plan_id":"free"},{"bike_id":"c8376053-40d6-4e25-8659-f524839f5c25","system_id":"levelo_inurba_marseille","lat":43.317557,"lon":5.390173,"is_reserved":false,"is_disabled":false,"rental_uris":{"android":"levelo://app?vid=c8376053-40d6-4e25-8659-f524839f5c25","ios":"levelo://app?vid=c8376053-40d6-4e25-8659-f524839f5c25"},"vehicle_type_id":"4","last_reported":1683378406,"current_range_meters":18000,"station_id":"ce4bhqp2rcd13ifvqhng","pricing_plan_id":"free"},{"bike_id":"bfcc6b46-12c3-495b-b00f-b45620dd470e","system_id":"levelo_inurba_marseille","lat":43.317557,"lon":5.390173,"is_reserved":false,"is_disabled":false,"rental_uris":{"android":"levelo://app?vid=bfcc6b46-12c3-495b-b00f-b45620dd470e","ios":"levelo://app?vid=bfcc6b46-12c3-495b-b00f-b45620dd470e"},"vehicle_type_id":"4","last_reported":1683378406,"current_range_meters":23200,"station_id":"ce4bhqp2rcd13ifvqhng","pricing_plan_id":"free"},{"bike_id":"07463b46-c47f-489c-9c27-a6fb2c473c78","system_id":"levelo_inurba_marseille","lat":43.31494,"lon":5.39123,"is_reserved":false,"is_disabled":false,"rental_uris":{"android":"levelo://app?vid=07463b46-c47f-489c-9c27-a6fb2c473c78","ios":"levelo://app?vid=07463b46-c47f-489c-9c27-a6fb2c473c78"},"vehicle_type_id":"4","last_reported":1683378406,"current_range_meters":800,"station_id":"","pricing_plan_id":"free"},{"bike_id":"48a7f080-f438-4539-9573-b2ea3948c57b","system_id":"levelo_inurba_marseille","lat":43.298037,"lon":5.381066,"is_reserved":false,"is_disabled":false,"rental_uris":{"android":"levelo://app?vid=48a7f080-f438-4539-9573-b2ea3948c57b","ios":"levelo://app?vid=48a7f080-f438-4539-9573-b2ea3948c57b"},"vehicle_type_id":"4","last_reported":1683378406,"current_range_meters":29200,"station_id":"ce4bgip2rcd13ifvqbb0","pricing_plan_id":"free"},{"bike_id":"822bc844-3d4c-42e5-8ab7-a28fb06d5a35","system_id":"levelo_inurba_marseille","lat":43.295748,"lon":5.37522,"is_reserved":false,"is_disabled":false,"rental_uris":{"android":"levelo://app?vid=822bc844-3d4c-42e5-8ab7-a28fb06d5a35","ios":"levelo://app?vid=822bc844-3d4c-42e5-8ab7-a28fb06d5a35"},"vehicle_type_id":"4","last_reported":1683378406,"current_range_meters":16800,"station_id":"ce4bgh92rcd13ifvqb50","pricing_plan_id":"free"},{"bike_id":"d3eca744-f04c-4c7c-ad6b-b8247317488f","system_id":"levelo_inurba_marseille","lat":43.295279,"lon":5.375048,"is_reserved":false,"is_disabled":false,"rental_uris":{"android":"levelo://app?vid=d3eca744-f04c-4c7c-ad6b-b8247317488f","ios":"levelo://app?vid=d3eca744-f04c-4c7c-ad6b-b8247317488f"},"vehicle_type_id":"4","last_reported":1683378406,"current_range_meters":0,"station_id":"ce4bgkp2rcd13ifvqbmg","pricing_plan_id":"free"},{"bike_id":"1dd06c98-c200-4a3d-afc9-e5fd057d158b","system_id":"levelo_inurba_marseille","lat":43.30454,"lon":5.39091,"is_reserved":false,"is_disabled":false,"rental_uris":{"android":"levelo://app?vid=1dd06c98-c200-4a3d-afc9-e5fd057d158b","ios":"levelo://app?vid=1dd06c98-c200-4a3d-afc9-e5fd057d158b"},"vehicle_type_id":"4","last_reported":1683378406,"current_range_meters":14000,"station_id":"","pricing_plan_id":"free"},{"bike_id":"087e475d-33d1-41f6-ada9-f2fe65009113","system_id":"levelo_inurba_marseille","lat":43.292749,"lon":5.368402,"is_reserved":false,"is_disabled":false,"rental_uris":{"android":"levelo://app?vid=087e475d-33d1-41f6-ada9-f2fe65009113","ios":"levelo://app?vid=087e475d-33d1-41f6-ada9-f2fe65009113"},"vehicle_type_id":"4","last_reported":1683378406,"current_range_meters":24000,"station_id":"ce4bhbp2rcd13ifvqesg","pricing_plan_id":"free"},{"bike_id":"9a442582-aebc-4cad-a43a-4e99ea75857a","system_id":"levelo_inurba_marseille","lat":43.292749,"lon":5.368402,"is_reserved":false,"is_disabled":false,"rental_uris":{"android":"levelo://app?vid=9a442582-aebc-4cad-a43a-4e99ea75857a","ios":"levelo://app?vid=9a442582-aebc-4cad-a43a-4e99ea75857a"},"vehicle_type_id":"4","last_reported":1683378406,"current_range_meters":12400,"station_id":"ce4bhbp2rcd13ifvqesg","pricing_plan_id":"free"},{"bike_id":"e755ad04-381f-4720-a073-5936a20036f6","system_id":"levelo_inurba_marseille","lat":43.2928,"lon":5.36848,"is_reserved":false,"is_disabled":false,"rental_uris":{"android":"levelo://app?vid=e755ad04-381f-4720-a073-5936a20036f6","ios":"levelo://app?vid=e755ad04-381f-4720-a073-5936a20036f6"},"vehicle_type_id":"4","last_reported":1683378406,"current_range_meters":31200,"station_id":"ce4bhbp2rcd13ifvqesg","pricing_plan_id":"free"},{"bike_id":"0204c9dc-34a0-4cbc-a8e2-520124328b6b","system_id":"levelo_inurba_marseille","lat":43.292749,"lon":5.368402,"is_reserved":false,"is_disabled":false,"rental_uris":{"android":"levelo://app?vid=0204c9dc-34a0-4cbc-a8e2-520124328b6b","ios":"levelo://app?vid=0204c9dc-34a0-4cbc-a8e2-520124328b6b"},"vehicle_type_id":"4","last_reported":1683378406,"current_range_meters":14800,"station_id":"ce4bhbp2rcd13ifvqesg","pricing_plan_id":"free"},{"bike_id":"a1be5805-4871-4c41-bcde-38693aa65160","system_id":"levelo_inurba_marseille","lat":43.29254,"lon":5.366994,"is_reserved":false,"is_disabled":false,"rental_uris":{"android":"levelo://app?vid=a1be5805-4871-4c41-bcde-38693aa65160","ios":"levelo://app?vid=a1be5805-4871-4c41-bcde-38693aa65160"},"vehicle_type_id":"4","last_reported":1683378406,"current_range_meters":3600,"station_id":"ce4bhbh2rcd13ifvqeqg","pricing_plan_id":"free"},{"bike_id":"df175817-b400-4c05-b45e-83d1c949136b","system_id":"levelo_inurba_marseille","lat":43.2936,"lon":5.37835,"is_reserved":false,"is_disabled":false,"rental_uris":{"android":"levelo://app?vid=df175817-b400-4c05-b45e-83d1c949136b","ios":"levelo://app?vid=df175817-b400-4c05-b45e-83d1c949136b"},"vehicle_type_id":"4","last_reported":1683378406,"current_range_meters":0,"station_id":"ce4bgjh2rcd13ifvqbf0","pricing_plan_id":"free"},{"bike_id":"9073a9bd-5043-4f5a-b2d4-d5714df150c0","system_id":"levelo_inurba_marseille","lat":43.29231,"lon":5.3605,"is_reserved":false,"is_disabled":false,"rental_uris":{"android":"levelo://app?vid=9073a9bd-5043-4f5a-b2d4-d5714df150c0","ios":"levelo://app?vid=9073a9bd-5043-4f5a-b2d4-d5714df150c0"},"vehicle_type_id":"4","last_reported":1683378406,"current_range_meters":400,"station_id":"","pricing_plan_id":"free"},{"bike_id":"80aaa82b-44a9-48a8-810c-20926f83b914","system_id":"levelo_inurba_marseille","lat":43.29221,"lon":5.36041,"is_reserved":false,"is_disabled":false,"rental_uris":{"android":"levelo://app?vid=80aaa82b-44a9-48a8-810c-20926f83b914","ios":"levelo://app?vid=80aaa82b-44a9-48a8-810c-20926f83b914"},"vehicle_type_id":"4","last_reported":1683378406,"current_range_meters":18800,"station_id":"","pricing_plan_id":"free"},{"bike_id":"faab5a62-cbab-41d5-9a5f-60c32434b02a","system_id":"levelo_inurba_marseille","lat":43.29168,"lon":5.37093,"is_reserved":false,"is_disabled":false,"rental_uris":{"android":"levelo://app?vid=faab5a62-cbab-41d5-9a5f-60c32434b02a","ios":"levelo://app?vid=faab5a62-cbab-41d5-9a5f-60c32434b02a"},"vehicle_type_id":"4","last_reported":1683378406,"current_range_meters":11200,"station_id":"","pricing_plan_id":"free"},{"bike_id":"a9c6e4fd-3ae1-46d7-b246-0ac0d6a11056","system_id":"levelo_inurba_marseille","lat":43.313291,"lon":5.396838,"is_reserved":false,"is_disabled":false,"rental_uris":{"android":"levelo://app?vid=a9c6e4fd-3ae1-46d7-b246-0ac0d6a11056","ios":"levelo://app?vid=a9c6e4fd-3ae1-46d7-b246-0ac0d6a11056"},"vehicle_type_id":"4","last_reported":1683378406,"current_range_meters":22400,"station_id":"ce4bgvp2rcd13ifvqcu0","pricing_plan_id":"free"},{"bike_id":"265edb18-95ef-4d2c-867f-6830efa86c97","system_id":"levelo_inurba_marseille","lat":43.313275,"lon":5.396899,"is_reserved":false,"is_disabled":false,"rental_uris":{"android":"levelo://app?vid=265edb18-95ef-4d2c-867f-6830efa86c97","ios":"levelo://app?vid=265edb18-95ef-4d2c-867f-6830efa86c97"},"vehicle_type_id":"4","last_reported":1683378406,"current_range_meters":24800,"station_id":"ce4bgvp2rcd13ifvqcu0","pricing_plan_id":"free"},{"bike_id":"5822a7ba-8def-493d-80eb-85ce98b86a2a","system_id":"levelo_inurba_marseille","lat":43.313291,"lon":5.396838,"is_reserved":false,"is_disabled":false,"rental_uris":{"android":"levelo://app?vid=5822a7ba-8def-493d-80eb-85ce98b86a2a","ios":"levelo://app?vid=5822a7ba-8def-493d-80eb-85ce98b86a2a"},"vehicle_type_id":"4","last_reported":1683378406,"current_range_meters":14000,"station_id":"ce4bgvp2rcd13ifvqcu0","pricing_plan_id":"free"},{"bike_id":"cf845842-1bab-484b-8ef8-583ef973b692","system_id":"levelo_inurba_marseille","lat":43.313333,"lon":5.396926,"is_reserved":false,"is_disabled":false,"rental_uris":{"android":"levelo://app?vid=cf845842-1bab-484b-8ef8-583ef973b692","ios":"levelo://app?vid=cf845842-1bab-484b-8ef8-583ef973b692"},"vehicle_type_id":"4","last_reported":1683378406,"current_range_meters":20400,"station_id":"ce4bgvp2rcd13ifvqcu0","pricing_plan_id":"free"},{"bike_id":"15358161-34cc-4ef7-ac6c-d93adf0c06c6","system_id":"levelo_inurba_marseille","lat":43.313291,"lon":5.396838,"is_reserved":false,"is_disabled":false,"rental_uris":{"android":"levelo://app?vid=15358161-34cc-4ef7-ac6c-d93adf0c06c6","ios":"levelo://app?vid=15358161-34cc-4ef7-ac6c-d93adf0c06c6"},"vehicle_type_id":"4","last_reported":1683378406,"current_range_meters":10800,"station_id":"ce4bgvp2rcd13ifvqcu0","pricing_plan_id":"free"},{"bike_id":"9689b741-2e3a-4776-9c7e-d025e7969ccb","system_id":"levelo_inurba_marseille","lat":43.313268,"lon":5.39693,"is_reserved":false,"is_disabled":false,"rental_uris":{"android":"levelo://app?vid=9689b741-2e3a-4776-9c7e-d025e7969ccb","ios":"levelo://app?vid=9689b741-2e3a-4776-9c7e-d025e7969ccb"},"vehicle_type_id":"4","last_reported":1683378406,"current_range_meters":27200,"station_id":"ce4bgvp2rcd13ifvqcu0","pricing_plan_id":"free"},{"bike_id":"d2c0bf85-4890-49dc-b907-a5745711f2d2","system_id":"levelo_inurba_marseille","lat":43.31334,"lon":5.39693,"is_reserved":false,"is_disabled":false,"rental_uris":{"android":"levelo://app?vid=d2c0bf85-4890-49dc-b907-a5745711f2d2","ios":"levelo://app?vid=d2c0bf85-4890-49dc-b907-a5745711f2d2"},"vehicle_type_id":"4","last_reported":1683378406,"current_range_meters":7200,"station_id":"ce4bgvp2rcd13ifvqcu0","pricing_plan_id":"free"},{"bike_id":"eb6b4802-88fa-4c9f-bc1b-71a1b52ff5ba","system_id":"levelo_inurba_marseille","lat":43.313294,"lon":5.396957,"is_reserved":false,"is_disabled":false,"rental_uris":{"android":"levelo://app?vid=eb6b4802-88fa-4c9f-bc1b-71a1b52ff5ba","ios":"levelo://app?vid=eb6b4802-88fa-4c9f-bc1b-71a1b52ff5ba"},"vehicle_type_id":"4","last_reported":1683378406,"current_range_meters":21600,"station_id":"ce4bgvp2rcd13ifvqcu0","pricing_plan_id":"free"},{"bike_id":"20b31b5e-b99f-4ba0-b4c9-1d8455a6dc44","system_id":"levelo_inurba_marseille","lat":43.31325,"lon":5.39697,"is_reserved":false,"is_disabled":false,"rental_uris":{"android":"levelo://app?vid=20b31b5e-b99f-4ba0-b4c9-1d8455a6dc44","ios":"levelo://app?vid=20b31b5e-b99f-4ba0-b4c9-1d8455a6dc44"},"vehicle_type_id":"4","last_reported":1683378406,"current_range_meters":31200,"station_id":"ce4bgvp2rcd13ifvqcu0","pricing_plan_id":"free"},{"bike_id":"d0996941-743a-44b8-8f53-61392da66b90","system_id":"levelo_inurba_marseille","lat":43.290779,"lon":5.371482,"is_reserved":false,"is_disabled":false,"rental_uris":{"android":"levelo://app?vid=d0996941-743a-44b8-8f53-61392da66b90","ios":"levelo://app?vid=d0996941-743a-44b8-8f53-61392da66b90"},"vehicle_type_id":"4","last_reported":1683378406,"current_range_meters":0,"station_id":"ce4bh5p2rcd13ifvqe4g","pricing_plan_id":"free"},{"bike_id":"c88cbe24-888d-4c4b-9cb2-8c629446515c","system_id":"levelo_inurba_marseille","lat":43.28967,"lon":5.36473,"is_reserved":false,"is_disabled":false,"rental_uris":{"android":"levelo://app?vid=c88cbe24-888d-4c4b-9cb2-8c629446515c","ios":"levelo://app?vid=c88cbe24-888d-4c4b-9cb2-8c629446515c"},"vehicle_type_id":"4","last_reported":1683378406,"current_range_meters":21600,"station_id":"","pricing_plan_id":"free"},{"bike_id":"a83c0ec4-f6eb-43ac-a4e5-0c8460e6b692","system_id":"levelo_inurba_marseille","lat":43.289184,"lon":5.366408,"is_reserved":false,"is_disabled":false,"rental_uris":{"android":"levelo://app?vid=a83c0ec4-f6eb-43ac-a4e5-0c8460e6b692","ios":"levelo://app?vid=a83c0ec4-f6eb-43ac-a4e5-0c8460e6b692"},"vehicle_type_id":"4","last_reported":1683378406,"current_range_meters":22000,"station_id":"ce4bhap2rcd13ifvqek0","pricing_plan_id":"free"},{"bike_id":"8354f027-4ab3-43cf-aa5a-b91f8b7b635d","system_id":"levelo_inurba_marseille","lat":43.33044,"lon":5.38906,"is_reserved":false,"is_disabled":false,"rental_uris":{"android":"levelo://app?vid=8354f027-4ab3-43cf-aa5a-b91f8b7b635d","ios":"levelo://app?vid=8354f027-4ab3-43cf-aa5a-b91f8b7b635d"},"vehicle_type_id":"4","last_reported":1683378406,"current_range_meters":12000,"station_id":"ce4bhr92rcd13ifvqhrg","pricing_plan_id":"free"},{"bike_id":"1f662943-fd3c-4d30-8e8d-761822cb14d2","system_id":"levelo_inurba_marseille","lat":43.33041,"lon":5.38913,"is_reserved":false,"is_disabled":false,"rental_uris":{"android":"levelo://app?vid=1f662943-fd3c-4d30-8e8d-761822cb14d2","ios":"levelo://app?vid=1f662943-fd3c-4d30-8e8d-761822cb14d2"},"vehicle_type_id":"4","last_reported":1683378406,"current_range_meters":21200,"station_id":"ce4bhr92rcd13ifvqhrg","pricing_plan_id":"free"},{"bike_id":"1cd8baf0-5550-4716-8d5e-6381fd878ebd","system_id":"levelo_inurba_marseille","lat":43.33046,"lon":5.38909,"is_reserved":false,"is_disabled":false,"rental_uris":{"android":"levelo://app?vid=1cd8baf0-5550-4716-8d5e-6381fd878ebd","ios":"levelo://app?vid=1cd8baf0-5550-4716-8d5e-6381fd878ebd"},"vehicle_type_id":"4","last_reported":1683378406,"current_range_meters":25200,"station_id":"ce4bhr92rcd13ifvqhrg","pricing_plan_id":"free"},{"bike_id":"b19188c7-d374-4f35-9d6f-4ee40c840621","system_id":"levelo_inurba_marseille","lat":43.33041,"lon":5.38917,"is_reserved":false,"is_disabled":false,"rental_uris":{"android":"levelo://app?vid=b19188c7-d374-4f35-9d6f-4ee40c840621","ios":"levelo://app?vid=b19188c7-d374-4f35-9d6f-4ee40c840621"},"vehicle_type_id":"4","last_reported":1683378406,"current_range_meters":22400,"station_id":"ce4bhr92rcd13ifvqhrg","pricing_plan_id":"free"},{"bike_id":"c7d204ce-6619-491c-8812-dc4b0a6a663b","system_id":"levelo_inurba_marseille","lat":43.33041,"lon":5.38917,"is_reserved":false,"is_disabled":false,"rental_uris":{"android":"levelo://app?vid=c7d204ce-6619-491c-8812-dc4b0a6a663b","ios":"levelo://app?vid=c7d204ce-6619-491c-8812-dc4b0a6a663b"},"vehicle_type_id":"4","last_reported":1683378406,"current_range_meters":29200,"station_id":"ce4bhr92rcd13ifvqhrg","pricing_plan_id":"free"},{"bike_id":"8a148b2e-b4e6-4394-9f8c-82acc6cfbeb2","system_id":"levelo_inurba_marseille","lat":43.29009,"lon":5.35617,"is_reserved":false,"is_disabled":false,"rental_uris":{"android":"levelo://app?vid=8a148b2e-b4e6-4394-9f8c-82acc6cfbeb2","ios":"levelo://app?vid=8a148b2e-b4e6-4394-9f8c-82acc6cfbeb2"},"vehicle_type_id":"4","last_reported":1683378406,"current_range_meters":0,"station_id":"ce4bhb92rcd13ifvqen0","pricing_plan_id":"free"},{"bike_id":"10a8eeb7-4f93-4e8d-81bd-f27d3d4ef515","system_id":"levelo_inurba_marseille","lat":43.33041,"lon":5.38918,"is_reserved":false,"is_disabled":false,"rental_uris":{"android":"levelo://app?vid=10a8eeb7-4f93-4e8d-81bd-f27d3d4ef515","ios":"levelo://app?vid=10a8eeb7-4f93-4e8d-81bd-f27d3d4ef515"},"vehicle_type_id":"4","last_reported":1683378406,"current_range_meters":26400,"station_id":"ce4bhr92rcd13ifvqhrg","pricing_plan_id":"free"},{"bike_id":"4da2ea4c-0587-4161-8586-452f9bca890c","system_id":"levelo_inurba_marseille","lat":43.33045,"lon":5.38912,"is_reserved":false,"is_disabled":false,"rental_uris":{"android":"levelo://app?vid=4da2ea4c-0587-4161-8586-452f9bca890c","ios":"levelo://app?vid=4da2ea4c-0587-4161-8586-452f9bca890c"},"vehicle_type_id":"4","last_reported":1683378406,"current_range_meters":19600,"station_id":"ce4bhr92rcd13ifvqhrg","pricing_plan_id":"free"},{"bike_id":"575afc17-30ae-44aa-b2b7-439f83e57cf5","system_id":"levelo_inurba_marseille","lat":43.33042,"lon":5.38917,"is_reserved":false,"is_disabled":false,"rental_uris":{"android":"levelo://app?vid=575afc17-30ae-44aa-b2b7-439f83e57cf5","ios":"levelo://app?vid=575afc17-30ae-44aa-b2b7-439f83e57cf5"},"vehicle_type_id":"4","last_reported":1683378406,"current_range_meters":24400,"station_id":"ce4bhr92rcd13ifvqhrg","pricing_plan_id":"free"},{"bike_id":"c0b39783-7886-4047-9a8d-355fea0e4444","system_id":"levelo_inurba_marseille","lat":43.33043,"lon":5.38916,"is_reserved":false,"is_disabled":false,"rental_uris":{"android":"levelo://app?vid=c0b39783-7886-4047-9a8d-355fea0e4444","ios":"levelo://app?vid=c0b39783-7886-4047-9a8d-355fea0e4444"},"vehicle_type_id":"4","last_reported":1683378406,"current_range_meters":21200,"station_id":"ce4bhr92rcd13ifvqhrg","pricing_plan_id":"free"},{"bike_id":"d6233f8b-531d-433b-b8e9-589e3920c098","system_id":"levelo_inurba_marseille","lat":43.33044,"lon":5.38915,"is_reserved":false,"is_disabled":false,"rental_uris":{"android":"levelo://app?vid=d6233f8b-531d-433b-b8e9-589e3920c098","ios":"levelo://app?vid=d6233f8b-531d-433b-b8e9-589e3920c098"},"vehicle_type_id":"4","last_reported":1683378406,"current_range_meters":21600,"station_id":"ce4bhr92rcd13ifvqhrg","pricing_plan_id":"free"},{"bike_id":"6bff39af-b880-495b-87c5-e559d7e2e65e","system_id":"levelo_inurba_marseille","lat":43.33041,"lon":5.3892,"is_reserved":false,"is_disabled":false,"rental_uris":{"android":"levelo://app?vid=6bff39af-b880-495b-87c5-e559d7e2e65e","ios":"levelo://app?vid=6bff39af-b880-495b-87c5-e559d7e2e65e"},"vehicle_type_id":"4","last_reported":1683378406,"current_range_meters":15200,"station_id":"ce4bhr92rcd13ifvqhrg","pricing_plan_id":"free"},{"bike_id":"da86836b-d020-456b-ad95-a73c452d8db8","system_id":"levelo_inurba_marseille","lat":43.33041,"lon":5.3892,"is_reserved":false,"is_disabled":false,"rental_uris":{"android":"levelo://app?vid=da86836b-d020-456b-ad95-a73c452d8db8","ios":"levelo://app?vid=da86836b-d020-456b-ad95-a73c452d8db8"},"vehicle_type_id":"4","last_reported":1683378406,"current_range_meters":24800,"station_id":"ce4bhr92rcd13ifvqhrg","pricing_plan_id":"free"},{"bike_id":"eec179c5-79de-473a-a2fe-2282099fce04","system_id":"levelo_inurba_marseille","lat":43.33047,"lon":5.38913,"is_reserved":false,"is_disabled":false,"rental_uris":{"android":"levelo://app?vid=eec179c5-79de-473a-a2fe-2282099fce04","ios":"levelo://app?vid=eec179c5-79de-473a-a2fe-2282099fce04"},"vehicle_type_id":"4","last_reported":1683378406,"current_range_meters":19600,"station_id":"ce4bhr92rcd13ifvqhrg","pricing_plan_id":"free"},{"bike_id":"496fc879-c6a2-4335-9eab-2fdd6a6f8bf1","system_id":"levelo_inurba_marseille","lat":43.33042,"lon":5.38921,"is_reserved":false,"is_disabled":false,"rental_uris":{"android":"levelo://app?vid=496fc879-c6a2-4335-9eab-2fdd6a6f8bf1","ios":"levelo://app?vid=496fc879-c6a2-4335-9eab-2fdd6a6f8bf1"},"vehicle_type_id":"4","last_reported":1683378406,"current_range_meters":16800,"station_id":"ce4bhr92rcd13ifvqhrg","pricing_plan_id":"free"},{"bike_id":"ca24a59f-d386-41a3-bec3-cccfb35035a7","system_id":"levelo_inurba_marseille","lat":43.33044,"lon":5.38918,"is_reserved":false,"is_disabled":false,"rental_uris":{"android":"levelo://app?vid=ca24a59f-d386-41a3-bec3-cccfb35035a7","ios":"levelo://app?vid=ca24a59f-d386-41a3-bec3-cccfb35035a7"},"vehicle_type_id":"4","last_reported":1683378406,"current_range_meters":0,"station_id":"ce4bhr92rcd13ifvqhrg","pricing_plan_id":"free"},{"bike_id":"c9455a8e-920b-4e52-910e-7a1224d93dcf","system_id":"levelo_inurba_marseille","lat":43.33043,"lon":5.3892,"is_reserved":false,"is_disabled":false,"rental_uris":{"android":"levelo://app?vid=c9455a8e-920b-4e52-910e-7a1224d93dcf","ios":"levelo://app?vid=c9455a8e-920b-4e52-910e-7a1224d93dcf"},"vehicle_type_id":"4","last_reported":1683378406,"current_range_meters":21200,"station_id":"ce4bhr92rcd13ifvqhrg","pricing_plan_id":"free"},{"bike_id":"3c06270e-cae2-4996-8b60-f3bb316f68a8","system_id":"levelo_inurba_marseille","lat":43.290103,"lon":5.356114,"is_reserved":false,"is_disabled":false,"rental_uris":{"android":"levelo://app?vid=3c06270e-cae2-4996-8b60-f3bb316f68a8","ios":"levelo://app?vid=3c06270e-cae2-4996-8b60-f3bb316f68a8"},"vehicle_type_id":"4","last_reported":1683378406,"current_range_meters":17600,"station_id":"ce4bhb92rcd13ifvqen0","pricing_plan_id":"free"},{"bike_id":"c6a5f3db-467c-47f5-acd9-61fe8cd674ee","system_id":"levelo_inurba_marseille","lat":43.33047,"lon":5.38916,"is_reserved":false,"is_disabled":false,"rental_uris":{"android":"levelo://app?vid=c6a5f3db-467c-47f5-acd9-61fe8cd674ee","ios":"levelo://app?vid=c6a5f3db-467c-47f5-acd9-61fe8cd674ee"},"vehicle_type_id":"4","last_reported":1683378406,"current_range_meters":23200,"station_id":"ce4bhr92rcd13ifvqhrg","pricing_plan_id":"free"},{"bike_id":"250df408-1146-449b-8797-cd55c273feb4","system_id":"levelo_inurba_marseille","lat":43.290104,"lon":5.356111,"is_reserved":false,"is_disabled":false,"rental_uris":{"android":"levelo://app?vid=250df408-1146-449b-8797-cd55c273feb4","ios":"levelo://app?vid=250df408-1146-449b-8797-cd55c273feb4"},"vehicle_type_id":"4","last_reported":1683378406,"current_range_meters":25200,"station_id":"ce4bhb92rcd13ifvqen0","pricing_plan_id":"free"},{"bike_id":"82a1c411-9922-4e03-b332-82672a7bb8c5","system_id":"levelo_inurba_marseille","lat":43.295169,"lon":5.390426,"is_reserved":false,"is_disabled":false,"rental_uris":{"android":"levelo://app?vid=82a1c411-9922-4e03-b332-82672a7bb8c5","ios":"levelo://app?vid=82a1c411-9922-4e03-b332-82672a7bb8c5"},"vehicle_type_id":"4","last_reported":1683378406,"current_range_meters":400,"station_id":"ce4bh3p2rcd13ifvqdp0","pricing_plan_id":"free"},{"bike_id":"aedf239e-69d3-4102-819f-7ec1d70bba4d","system_id":"levelo_inurba_marseille","lat":43.28856,"lon":5.358371,"is_reserved":false,"is_disabled":false,"rental_uris":{"android":"levelo://app?vid=aedf239e-69d3-4102-819f-7ec1d70bba4d","ios":"levelo://app?vid=aedf239e-69d3-4102-819f-7ec1d70bba4d"},"vehicle_type_id":"4","last_reported":1683378406,"current_range_meters":6400,"station_id":"ce4bhb12rcd13ifvqem0","pricing_plan_id":"free"},{"bike_id":"34320fce-24bb-4291-be42-2c361aed67f0","system_id":"levelo_inurba_marseille","lat":43.33746,"lon":5.37437,"is_reserved":false,"is_disabled":false,"rental_uris":{"android":"levelo://app?vid=34320fce-24bb-4291-be42-2c361aed67f0","ios":"levelo://app?vid=34320fce-24bb-4291-be42-2c361aed67f0"},"vehicle_type_id":"4","last_reported":1683378406,"current_range_meters":24000,"station_id":"","pricing_plan_id":"free"},{"bike_id":"d1338cde-b3d1-46b1-8800-7a50c92c327c","system_id":"levelo_inurba_marseille","lat":43.3375,"lon":5.3743,"is_reserved":false,"is_disabled":false,"rental_uris":{"android":"levelo://app?vid=d1338cde-b3d1-46b1-8800-7a50c92c327c","ios":"levelo://app?vid=d1338cde-b3d1-46b1-8800-7a50c92c327c"},"vehicle_type_id":"4","last_reported":1683378406,"current_range_meters":27200,"station_id":"","pricing_plan_id":"free"},{"bike_id":"20083ae5-f09f-4d10-9758-3cdd331d6a45","system_id":"levelo_inurba_marseille","lat":43.33754,"lon":5.37459,"is_reserved":false,"is_disabled":false,"rental_uris":{"android":"levelo://app?vid=20083ae5-f09f-4d10-9758-3cdd331d6a45","ios":"levelo://app?vid=20083ae5-f09f-4d10-9758-3cdd331d6a45"},"vehicle_type_id":"4","last_reported":1683378406,"current_range_meters":16000,"station_id":"","pricing_plan_id":"free"},{"bike_id":"cc5900b6-b927-49fc-82db-4d13a3d02316","system_id":"levelo_inurba_marseille","lat":43.33752,"lon":5.37486,"is_reserved":false,"is_disabled":false,"rental_uris":{"android":"levelo://app?vid=cc5900b6-b927-49fc-82db-4d13a3d02316","ios":"levelo://app?vid=cc5900b6-b927-49fc-82db-4d13a3d02316"},"vehicle_type_id":"4","last_reported":1683378406,"current_range_meters":26400,"station_id":"","pricing_plan_id":"free"},{"bike_id":"ab7b8dc5-9722-47e7-8a78-100d1a674f6d","system_id":"levelo_inurba_marseille","lat":43.33758,"lon":5.3746,"is_reserved":false,"is_disabled":false,"rental_uris":{"android":"levelo://app?vid=ab7b8dc5-9722-47e7-8a78-100d1a674f6d","ios":"levelo://app?vid=ab7b8dc5-9722-47e7-8a78-100d1a674f6d"},"vehicle_type_id":"4","last_reported":1683378406,"current_range_meters":6400,"station_id":"","pricing_plan_id":"free"},{"bike_id":"db84b57a-c242-4d31-93f3-e9f12005c4b3","system_id":"levelo_inurba_marseille","lat":43.33762,"lon":5.37494,"is_reserved":false,"is_disabled":false,"rental_uris":{"android":"levelo://app?vid=db84b57a-c242-4d31-93f3-e9f12005c4b3","ios":"levelo://app?vid=db84b57a-c242-4d31-93f3-e9f12005c4b3"},"vehicle_type_id":"4","last_reported":1683378406,"current_range_meters":27200,"station_id":"","pricing_plan_id":"free"},{"bike_id":"c452a78d-8a25-4dac-a034-b406e8dd2a51","system_id":"levelo_inurba_marseille","lat":43.2877,"lon":5.35875,"is_reserved":false,"is_disabled":false,"rental_uris":{"android":"levelo://app?vid=c452a78d-8a25-4dac-a034-b406e8dd2a51","ios":"levelo://app?vid=c452a78d-8a25-4dac-a034-b406e8dd2a51"},"vehicle_type_id":"4","last_reported":1683378406,"current_range_meters":5200,"station_id":"","pricing_plan_id":"free"},{"bike_id":"41b4d531-a92d-494a-9abe-b191662e5d78","system_id":"levelo_inurba_marseille","lat":43.286591,"lon":5.363346,"is_reserved":false,"is_disabled":false,"rental_uris":{"android":"levelo://app?vid=41b4d531-a92d-494a-9abe-b191662e5d78","ios":"levelo://app?vid=41b4d531-a92d-494a-9abe-b191662e5d78"},"vehicle_type_id":"4","last_reported":1683378406,"current_range_meters":15600,"station_id":"ce4bhah2rcd13ifvqej0","pricing_plan_id":"free"},{"bike_id":"18f39cd3-3d13-4b77-aecd-8bcc34835802","system_id":"levelo_inurba_marseille","lat":43.28859,"lon":5.38232,"is_reserved":false,"is_disabled":false,"rental_uris":{"android":"levelo://app?vid=18f39cd3-3d13-4b77-aecd-8bcc34835802","ios":"levelo://app?vid=18f39cd3-3d13-4b77-aecd-8bcc34835802"},"vehicle_type_id":"4","last_reported":1683378406,"current_range_meters":0,"station_id":"","pricing_plan_id":"free"},{"bike_id":"93350c45-b50a-45bc-bda8-a381773e30c1","system_id":"levelo_inurba_marseille","lat":43.30765,"lon":5.40292,"is_reserved":false,"is_disabled":false,"rental_uris":{"android":"levelo://app?vid=93350c45-b50a-45bc-bda8-a381773e30c1","ios":"levelo://app?vid=93350c45-b50a-45bc-bda8-a381773e30c1"},"vehicle_type_id":"4","last_reported":1683378406,"current_range_meters":16400,"station_id":"","pricing_plan_id":"free"},{"bike_id":"d9c15ae7-5a07-4cec-98e7-deff8da39671","system_id":"levelo_inurba_marseille","lat":43.286039,"lon":5.370679,"is_reserved":false,"is_disabled":false,"rental_uris":{"android":"levelo://app?vid=d9c15ae7-5a07-4cec-98e7-deff8da39671","ios":"levelo://app?vid=d9c15ae7-5a07-4cec-98e7-deff8da39671"},"vehicle_type_id":"4","last_reported":1683378406,"current_range_meters":16400,"station_id":"ce4bht12rcd13ifvqi60","pricing_plan_id":"free"},{"bike_id":"0e3ec26d-bf61-46dd-9d2b-5dbeb2e038e8","system_id":"levelo_inurba_marseille","lat":43.286039,"lon":5.370679,"is_reserved":false,"is_disabled":false,"rental_uris":{"android":"levelo://app?vid=0e3ec26d-bf61-46dd-9d2b-5dbeb2e038e8","ios":"levelo://app?vid=0e3ec26d-bf61-46dd-9d2b-5dbeb2e038e8"},"vehicle_type_id":"4","last_reported":1683378406,"current_range_meters":12000,"station_id":"ce4bht12rcd13ifvqi60","pricing_plan_id":"free"},{"bike_id":"cb0d6c13-65f2-49af-aee8-330053c02af8","system_id":"levelo_inurba_marseille","lat":43.286039,"lon":5.370679,"is_reserved":false,"is_disabled":false,"rental_uris":{"android":"levelo://app?vid=cb0d6c13-65f2-49af-aee8-330053c02af8","ios":"levelo://app?vid=cb0d6c13-65f2-49af-aee8-330053c02af8"},"vehicle_type_id":"4","last_reported":1683378406,"current_range_meters":31600,"station_id":"ce4bht12rcd13ifvqi60","pricing_plan_id":"free"},{"bike_id":"9376a9c9-a1b9-40a5-aa30-d33f2e75bfff","system_id":"levelo_inurba_marseille","lat":43.286039,"lon":5.370681,"is_reserved":false,"is_disabled":false,"rental_uris":{"android":"levelo://app?vid=9376a9c9-a1b9-40a5-aa30-d33f2e75bfff","ios":"levelo://app?vid=9376a9c9-a1b9-40a5-aa30-d33f2e75bfff"},"vehicle_type_id":"4","last_reported":1683378406,"current_range_meters":26000,"station_id":"ce4bht12rcd13ifvqi60","pricing_plan_id":"free"},{"bike_id":"cc907f34-2c7c-4442-bd51-95b6f462f251","system_id":"levelo_inurba_marseille","lat":43.28612,"lon":5.37065,"is_reserved":false,"is_disabled":false,"rental_uris":{"android":"levelo://app?vid=cc907f34-2c7c-4442-bd51-95b6f462f251","ios":"levelo://app?vid=cc907f34-2c7c-4442-bd51-95b6f462f251"},"vehicle_type_id":"4","last_reported":1683378406,"current_range_meters":23600,"station_id":"ce4bht12rcd13ifvqi60","pricing_plan_id":"free"},{"bike_id":"4cfb9d53-e85f-4a69-82a0-db8621ec8847","system_id":"levelo_inurba_marseille","lat":43.286039,"lon":5.370681,"is_reserved":false,"is_disabled":false,"rental_uris":{"android":"levelo://app?vid=4cfb9d53-e85f-4a69-82a0-db8621ec8847","ios":"levelo://app?vid=4cfb9d53-e85f-4a69-82a0-db8621ec8847"},"vehicle_type_id":"4","last_reported":1683378406,"current_range_meters":20400,"station_id":"ce4bht12rcd13ifvqi60","pricing_plan_id":"free"},{"bike_id":"f382d6d2-a0c3-4215-8811-1b5ee8bb61ad","system_id":"levelo_inurba_marseille","lat":43.286039,"lon":5.370679,"is_reserved":false,"is_disabled":false,"rental_uris":{"android":"levelo://app?vid=f382d6d2-a0c3-4215-8811-1b5ee8bb61ad","ios":"levelo://app?vid=f382d6d2-a0c3-4215-8811-1b5ee8bb61ad"},"vehicle_type_id":"4","last_reported":1683378406,"current_range_meters":8400,"station_id":"ce4bht12rcd13ifvqi60","pricing_plan_id":"free"},{"bike_id":"dfb88fc1-2b6a-4e69-96ab-516582caff52","system_id":"levelo_inurba_marseille","lat":43.286039,"lon":5.370681,"is_reserved":false,"is_disabled":false,"rental_uris":{"android":"levelo://app?vid=dfb88fc1-2b6a-4e69-96ab-516582caff52","ios":"levelo://app?vid=dfb88fc1-2b6a-4e69-96ab-516582caff52"},"vehicle_type_id":"4","last_reported":1683378406,"current_range_meters":16800,"station_id":"ce4bht12rcd13ifvqi60","pricing_plan_id":"free"},{"bike_id":"39b520ce-b8a6-4ddf-8cf7-b2fd18b24010","system_id":"levelo_inurba_marseille","lat":43.316523,"lon":5.404367,"is_reserved":false,"is_disabled":false,"rental_uris":{"android":"levelo://app?vid=39b520ce-b8a6-4ddf-8cf7-b2fd18b24010","ios":"levelo://app?vid=39b520ce-b8a6-4ddf-8cf7-b2fd18b24010"},"vehicle_type_id":"4","last_reported":1683378406,"current_range_meters":30400,"station_id":"ce4bh012rcd13ifvqd00","pricing_plan_id":"free"},{"bike_id":"9a78b2a6-fd44-4c5e-8c58-3c4de70600e1","system_id":"levelo_inurba_marseille","lat":43.316517,"lon":5.404375,"is_reserved":false,"is_disabled":false,"rental_uris":{"android":"levelo://app?vid=9a78b2a6-fd44-4c5e-8c58-3c4de70600e1","ios":"levelo://app?vid=9a78b2a6-fd44-4c5e-8c58-3c4de70600e1"},"vehicle_type_id":"4","last_reported":1683378406,"current_range_meters":25200,"station_id":"ce4bh012rcd13ifvqd00","pricing_plan_id":"free"},{"bike_id":"19b84e5a-71c7-4a59-81d7-3794192763b7","system_id":"levelo_inurba_marseille","lat":43.316517,"lon":5.404375,"is_reserved":false,"is_disabled":false,"rental_uris":{"android":"levelo://app?vid=19b84e5a-71c7-4a59-81d7-3794192763b7","ios":"levelo://app?vid=19b84e5a-71c7-4a59-81d7-3794192763b7"},"vehicle_type_id":"4","last_reported":1683378406,"current_range_meters":1200,"station_id":"ce4bh012rcd13ifvqd00","pricing_plan_id":"free"},{"bike_id":"9d3ae14f-44b4-4bde-b01a-1e5ec09a2d35","system_id":"levelo_inurba_marseille","lat":43.316517,"lon":5.404375,"is_reserved":false,"is_disabled":false,"rental_uris":{"android":"levelo://app?vid=9d3ae14f-44b4-4bde-b01a-1e5ec09a2d35","ios":"levelo://app?vid=9d3ae14f-44b4-4bde-b01a-1e5ec09a2d35"},"vehicle_type_id":"4","last_reported":1683378406,"current_range_meters":6000,"station_id":"ce4bh012rcd13ifvqd00","pricing_plan_id":"free"},{"bike_id":"bc0f967c-8e91-406f-b7c2-d7c9a016c036","system_id":"levelo_inurba_marseille","lat":43.28619,"lon":5.35114,"is_reserved":false,"is_disabled":false,"rental_uris":{"android":"levelo://app?vid=bc0f967c-8e91-406f-b7c2-d7c9a016c036","ios":"levelo://app?vid=bc0f967c-8e91-406f-b7c2-d7c9a016c036"},"vehicle_type_id":"4","last_reported":1683378406,"current_range_meters":12000,"station_id":"","pricing_plan_id":"free"},{"bike_id":"3994061e-d1a9-49bb-9705-cefca2bab53c","system_id":"levelo_inurba_marseille","lat":43.2862,"lon":5.35109,"is_reserved":false,"is_disabled":false,"rental_uris":{"android":"levelo://app?vid=3994061e-d1a9-49bb-9705-cefca2bab53c","ios":"levelo://app?vid=3994061e-d1a9-49bb-9705-cefca2bab53c"},"vehicle_type_id":"4","last_reported":1683378406,"current_range_meters":19600,"station_id":"","pricing_plan_id":"free"},{"bike_id":"6bf5a871-ab50-4e0c-b4c1-f9985b26e77b","system_id":"levelo_inurba_marseille","lat":43.28619,"lon":5.35108,"is_reserved":false,"is_disabled":false,"rental_uris":{"android":"levelo://app?vid=6bf5a871-ab50-4e0c-b4c1-f9985b26e77b","ios":"levelo://app?vid=6bf5a871-ab50-4e0c-b4c1-f9985b26e77b"},"vehicle_type_id":"4","last_reported":1683378406,"current_range_meters":19200,"station_id":"","pricing_plan_id":"free"},{"bike_id":"8bbb9892-3360-46bb-996f-b2070b19d19c","system_id":"levelo_inurba_marseille","lat":43.2862,"lon":5.35104,"is_reserved":false,"is_disabled":false,"rental_uris":{"android":"levelo://app?vid=8bbb9892-3360-46bb-996f-b2070b19d19c","ios":"levelo://app?vid=8bbb9892-3360-46bb-996f-b2070b19d19c"},"vehicle_type_id":"4","last_reported":1683378406,"current_range_meters":16000,"station_id":"","pricing_plan_id":"free"},{"bike_id":"57b07f20-dfcd-4443-90bd-747f00d128cd","system_id":"levelo_inurba_marseille","lat":43.28619,"lon":5.35107,"is_reserved":false,"is_disabled":false,"rental_uris":{"android":"levelo://app?vid=57b07f20-dfcd-4443-90bd-747f00d128cd","ios":"levelo://app?vid=57b07f20-dfcd-4443-90bd-747f00d128cd"},"vehicle_type_id":"4","last_reported":1683378406,"current_range_meters":22000,"station_id":"","pricing_plan_id":"free"},{"bike_id":"8349c170-8205-4b35-a41e-a7e7990998ed","system_id":"levelo_inurba_marseille","lat":43.285856,"lon":5.350771,"is_reserved":false,"is_disabled":false,"rental_uris":{"android":"levelo://app?vid=8349c170-8205-4b35-a41e-a7e7990998ed","ios":"levelo://app?vid=8349c170-8205-4b35-a41e-a7e7990998ed"},"vehicle_type_id":"4","last_reported":1683378406,"current_range_meters":7200,"station_id":"ce4bhch2rcd13ifvqeug","pricing_plan_id":"free"},{"bike_id":"780ee308-b9be-4114-ab20-92d98243ea21","system_id":"levelo_inurba_marseille","lat":43.28618,"lon":5.35109,"is_reserved":false,"is_disabled":false,"rental_uris":{"android":"levelo://app?vid=780ee308-b9be-4114-ab20-92d98243ea21","ios":"levelo://app?vid=780ee308-b9be-4114-ab20-92d98243ea21"},"vehicle_type_id":"4","last_reported":1683378406,"current_range_meters":9600,"station_id":"","pricing_plan_id":"free"},{"bike_id":"899e5a7c-a2e0-40d7-889c-eaa82ac7ccc1","system_id":"levelo_inurba_marseille","lat":43.28615,"lon":5.3511,"is_reserved":false,"is_disabled":false,"rental_uris":{"android":"levelo://app?vid=899e5a7c-a2e0-40d7-889c-eaa82ac7ccc1","ios":"levelo://app?vid=899e5a7c-a2e0-40d7-889c-eaa82ac7ccc1"},"vehicle_type_id":"4","last_reported":1683378406,"current_range_meters":14000,"station_id":"","pricing_plan_id":"free"},{"bike_id":"a6cf8a0e-3ec3-430e-a8ab-48f8e095166d","system_id":"levelo_inurba_marseille","lat":43.28614,"lon":5.35111,"is_reserved":false,"is_disabled":false,"rental_uris":{"android":"levelo://app?vid=a6cf8a0e-3ec3-430e-a8ab-48f8e095166d","ios":"levelo://app?vid=a6cf8a0e-3ec3-430e-a8ab-48f8e095166d"},"vehicle_type_id":"4","last_reported":1683378406,"current_range_meters":24800,"station_id":"","pricing_plan_id":"free"},{"bike_id":"7d86bcc6-27c3-4a96-ab09-7d5b81dad5e9","system_id":"levelo_inurba_marseille","lat":43.28613,"lon":5.35109,"is_reserved":false,"is_disabled":false,"rental_uris":{"android":"levelo://app?vid=7d86bcc6-27c3-4a96-ab09-7d5b81dad5e9","ios":"levelo://app?vid=7d86bcc6-27c3-4a96-ab09-7d5b81dad5e9"},"vehicle_type_id":"4","last_reported":1683378406,"current_range_meters":28400,"station_id":"","pricing_plan_id":"free"},{"bike_id":"46973106-615e-43ab-8df4-e7959195824d","system_id":"levelo_inurba_marseille","lat":43.285856,"lon":5.350771,"is_reserved":false,"is_disabled":false,"rental_uris":{"android":"levelo://app?vid=46973106-615e-43ab-8df4-e7959195824d","ios":"levelo://app?vid=46973106-615e-43ab-8df4-e7959195824d"},"vehicle_type_id":"4","last_reported":1683378406,"current_range_meters":18400,"station_id":"ce4bhch2rcd13ifvqeug","pricing_plan_id":"free"},{"bike_id":"b3693d34-fc77-4bc6-a914-43a0a274c85d","system_id":"levelo_inurba_marseille","lat":43.285856,"lon":5.350771,"is_reserved":false,"is_disabled":false,"rental_uris":{"android":"levelo://app?vid=b3693d34-fc77-4bc6-a914-43a0a274c85d","ios":"levelo://app?vid=b3693d34-fc77-4bc6-a914-43a0a274c85d"},"vehicle_type_id":"4","last_reported":1683378406,"current_range_meters":28400,"station_id":"ce4bhch2rcd13ifvqeug","pricing_plan_id":"free"},{"bike_id":"0e7a4bca-b718-4efc-92b0-60c6bef32f45","system_id":"levelo_inurba_marseille","lat":43.28613,"lon":5.35108,"is_reserved":false,"is_disabled":false,"rental_uris":{"android":"levelo://app?vid=0e7a4bca-b718-4efc-92b0-60c6bef32f45","ios":"levelo://app?vid=0e7a4bca-b718-4efc-92b0-60c6bef32f45"},"vehicle_type_id":"4","last_reported":1683378406,"current_range_meters":16000,"station_id":"","pricing_plan_id":"free"},{"bike_id":"bbbc7a69-684b-405e-a50f-6814464c7b79","system_id":"levelo_inurba_marseille","lat":43.285856,"lon":5.350771,"is_reserved":false,"is_disabled":false,"rental_uris":{"android":"levelo://app?vid=bbbc7a69-684b-405e-a50f-6814464c7b79","ios":"levelo://app?vid=bbbc7a69-684b-405e-a50f-6814464c7b79"},"vehicle_type_id":"4","last_reported":1683378406,"current_range_meters":6800,"station_id":"ce4bhch2rcd13ifvqeug","pricing_plan_id":"free"},{"bike_id":"08fe1a4e-3b8d-48c5-8c52-fcc35430df13","system_id":"levelo_inurba_marseille","lat":43.285856,"lon":5.350771,"is_reserved":false,"is_disabled":false,"rental_uris":{"android":"levelo://app?vid=08fe1a4e-3b8d-48c5-8c52-fcc35430df13","ios":"levelo://app?vid=08fe1a4e-3b8d-48c5-8c52-fcc35430df13"},"vehicle_type_id":"4","last_reported":1683378406,"current_range_meters":28800,"station_id":"ce4bhch2rcd13ifvqeug","pricing_plan_id":"free"},{"bike_id":"27865f6e-c046-4416-9233-48156b6bae2c","system_id":"levelo_inurba_marseille","lat":43.337168,"lon":5.391825,"is_reserved":false,"is_disabled":false,"rental_uris":{"android":"levelo://app?vid=27865f6e-c046-4416-9233-48156b6bae2c","ios":"levelo://app?vid=27865f6e-c046-4416-9233-48156b6bae2c"},"vehicle_type_id":"4","last_reported":1683378406,"current_range_meters":27600,"station_id":"ce4bhr92rcd13ifvqhsg","pricing_plan_id":"free"},{"bike_id":"9d15d15c-61cc-4e44-9fdd-13284d8c4606","system_id":"levelo_inurba_marseille","lat":43.337168,"lon":5.391825,"is_reserved":false,"is_disabled":false,"rental_uris":{"android":"levelo://app?vid=9d15d15c-61cc-4e44-9fdd-13284d8c4606","ios":"levelo://app?vid=9d15d15c-61cc-4e44-9fdd-13284d8c4606"},"vehicle_type_id":"4","last_reported":1683378406,"current_range_meters":31200,"station_id":"ce4bhr92rcd13ifvqhsg","pricing_plan_id":"free"},{"bike_id":"c9c4f49a-801c-4a26-8233-f9fb4c97e2ff","system_id":"levelo_inurba_marseille","lat":43.33717,"lon":5.391857,"is_reserved":false,"is_disabled":false,"rental_uris":{"android":"levelo://app?vid=c9c4f49a-801c-4a26-8233-f9fb4c97e2ff","ios":"levelo://app?vid=c9c4f49a-801c-4a26-8233-f9fb4c97e2ff"},"vehicle_type_id":"4","last_reported":1683378406,"current_range_meters":5200,"station_id":"ce4bhr92rcd13ifvqhsg","pricing_plan_id":"free"},{"bike_id":"60dafb37-540d-4e2b-af0c-adee965353ec","system_id":"levelo_inurba_marseille","lat":43.337168,"lon":5.391825,"is_reserved":false,"is_disabled":false,"rental_uris":{"android":"levelo://app?vid=60dafb37-540d-4e2b-af0c-adee965353ec","ios":"levelo://app?vid=60dafb37-540d-4e2b-af0c-adee965353ec"},"vehicle_type_id":"4","last_reported":1683378406,"current_range_meters":12400,"station_id":"ce4bhr92rcd13ifvqhsg","pricing_plan_id":"free"},{"bike_id":"bff45db0-8068-4648-ad77-86c507a1b75d","system_id":"levelo_inurba_marseille","lat":43.33717,"lon":5.391857,"is_reserved":false,"is_disabled":false,"rental_uris":{"android":"levelo://app?vid=bff45db0-8068-4648-ad77-86c507a1b75d","ios":"levelo://app?vid=bff45db0-8068-4648-ad77-86c507a1b75d"},"vehicle_type_id":"4","last_reported":1683378406,"current_range_meters":10400,"station_id":"ce4bhr92rcd13ifvqhsg","pricing_plan_id":"free"},{"bike_id":"6d1e294b-8027-45d5-844f-3f02d7180f84","system_id":"levelo_inurba_marseille","lat":43.284793,"lon":5.384113,"is_reserved":false,"is_disabled":false,"rental_uris":{"android":"levelo://app?vid=6d1e294b-8027-45d5-844f-3f02d7180f84","ios":"levelo://app?vid=6d1e294b-8027-45d5-844f-3f02d7180f84"},"vehicle_type_id":"4","last_reported":1683378406,"current_range_meters":0,"station_id":"ce4bh512rcd13ifvqe3g","pricing_plan_id":"free"},{"bike_id":"48e4df71-56be-44ec-b093-8eb75cbc6414","system_id":"levelo_inurba_marseille","lat":43.323464,"lon":5.406297,"is_reserved":false,"is_disabled":false,"rental_uris":{"android":"levelo://app?vid=48e4df71-56be-44ec-b093-8eb75cbc6414","ios":"levelo://app?vid=48e4df71-56be-44ec-b093-8eb75cbc6414"},"vehicle_type_id":"4","last_reported":1683378406,"current_range_meters":31200,"station_id":"ce4bhq92rcd13ifvqhjg","pricing_plan_id":"free"},{"bike_id":"097a4d3c-aa6e-4f6c-8d29-4f3987625d21","system_id":"levelo_inurba_marseille","lat":43.337168,"lon":5.391825,"is_reserved":false,"is_disabled":false,"rental_uris":{"android":"levelo://app?vid=097a4d3c-aa6e-4f6c-8d29-4f3987625d21","ios":"levelo://app?vid=097a4d3c-aa6e-4f6c-8d29-4f3987625d21"},"vehicle_type_id":"4","last_reported":1683378406,"current_range_meters":24000,"station_id":"ce4bhr92rcd13ifvqhsg","pricing_plan_id":"free"},{"bike_id":"f6fae6a8-6de7-4b64-80a2-202e07d90cfd","system_id":"levelo_inurba_marseille","lat":43.32343,"lon":5.40625,"is_reserved":false,"is_disabled":false,"rental_uris":{"android":"levelo://app?vid=f6fae6a8-6de7-4b64-80a2-202e07d90cfd","ios":"levelo://app?vid=f6fae6a8-6de7-4b64-80a2-202e07d90cfd"},"vehicle_type_id":"4","last_reported":1683378406,"current_range_meters":31200,"station_id":"ce4bhq92rcd13ifvqhjg","pricing_plan_id":"free"},{"bike_id":"a0f573a5-6f23-466e-bb88-c3e1175c2050","system_id":"levelo_inurba_marseille","lat":43.288497,"lon":5.393089,"is_reserved":false,"is_disabled":false,"rental_uris":{"android":"levelo://app?vid=a0f573a5-6f23-466e-bb88-c3e1175c2050","ios":"levelo://app?vid=a0f573a5-6f23-466e-bb88-c3e1175c2050"},"vehicle_type_id":"4","last_reported":1683378406,"current_range_meters":10800,"station_id":"ce4bh2p2rcd13ifvqdi0","pricing_plan_id":"free"},{"bike_id":"ad3cdfdb-0864-4cce-8a5d-05a05de94244","system_id":"levelo_inurba_marseille","lat":43.30083,"lon":5.40586,"is_reserved":false,"is_disabled":false,"rental_uris":{"android":"levelo://app?vid=ad3cdfdb-0864-4cce-8a5d-05a05de94244","ios":"levelo://app?vid=ad3cdfdb-0864-4cce-8a5d-05a05de94244"},"vehicle_type_id":"4","last_reported":1683378406,"current_range_meters":20800,"station_id":"","pricing_plan_id":"free"},{"bike_id":"d6378f24-b0cb-4d3b-9371-a47f35990d58","system_id":"levelo_inurba_marseille","lat":43.288497,"lon":5.393089,"is_reserved":false,"is_disabled":false,"rental_uris":{"android":"levelo://app?vid=d6378f24-b0cb-4d3b-9371-a47f35990d58","ios":"levelo://app?vid=d6378f24-b0cb-4d3b-9371-a47f35990d58"},"vehicle_type_id":"4","last_reported":1683378406,"current_range_meters":0,"station_id":"ce4bh2p2rcd13ifvqdi0","pricing_plan_id":"free"},{"bike_id":"4cdeaaea-de0f-4760-8339-250e8f97f4c2","system_id":"levelo_inurba_marseille","lat":43.288497,"lon":5.393089,"is_reserved":false,"is_disabled":false,"rental_uris":{"android":"levelo://app?vid=4cdeaaea-de0f-4760-8339-250e8f97f4c2","ios":"levelo://app?vid=4cdeaaea-de0f-4760-8339-250e8f97f4c2"},"vehicle_type_id":"4","last_reported":1683378406,"current_range_meters":25200,"station_id":"ce4bh2p2rcd13ifvqdi0","pricing_plan_id":"free"},{"bike_id":"35f23709-b5d9-410f-8e82-617f0eac24a7","system_id":"levelo_inurba_marseille","lat":43.28844,"lon":5.393134,"is_reserved":false,"is_disabled":false,"rental_uris":{"android":"levelo://app?vid=35f23709-b5d9-410f-8e82-617f0eac24a7","ios":"levelo://app?vid=35f23709-b5d9-410f-8e82-617f0eac24a7"},"vehicle_type_id":"4","last_reported":1683378406,"current_range_meters":22400,"station_id":"ce4bh2p2rcd13ifvqdi0","pricing_plan_id":"free"},{"bike_id":"cf4faee5-81dd-4ef6-8987-f735c7b316d5","system_id":"levelo_inurba_marseille","lat":43.2843,"lon":5.3498,"is_reserved":false,"is_disabled":false,"rental_uris":{"android":"levelo://app?vid=cf4faee5-81dd-4ef6-8987-f735c7b316d5","ios":"levelo://app?vid=cf4faee5-81dd-4ef6-8987-f735c7b316d5"},"vehicle_type_id":"4","last_reported":1683378406,"current_range_meters":23200,"station_id":"ce4bhbh2rcd13ifvqepg","pricing_plan_id":"free"},{"bike_id":"1b85cd22-1415-49a9-9f4d-255f1e8a1260","system_id":"levelo_inurba_marseille","lat":43.284219,"lon":5.3497,"is_reserved":false,"is_disabled":false,"rental_uris":{"android":"levelo://app?vid=1b85cd22-1415-49a9-9f4d-255f1e8a1260","ios":"levelo://app?vid=1b85cd22-1415-49a9-9f4d-255f1e8a1260"},"vehicle_type_id":"4","last_reported":1683378406,"current_range_meters":17200,"station_id":"ce4bhbh2rcd13ifvqepg","pricing_plan_id":"free"},{"bike_id":"cbf3b33b-e193-40d4-8e53-4396d2494ffe","system_id":"levelo_inurba_marseille","lat":43.28426,"lon":5.34983,"is_reserved":false,"is_disabled":false,"rental_uris":{"android":"levelo://app?vid=cbf3b33b-e193-40d4-8e53-4396d2494ffe","ios":"levelo://app?vid=cbf3b33b-e193-40d4-8e53-4396d2494ffe"},"vehicle_type_id":"4","last_reported":1683378406,"current_range_meters":9600,"station_id":"ce4bhbh2rcd13ifvqepg","pricing_plan_id":"free"},{"bike_id":"8547291d-c29a-4423-8db5-b76d88096b7a","system_id":"levelo_inurba_marseille","lat":43.284219,"lon":5.3497,"is_reserved":false,"is_disabled":false,"rental_uris":{"android":"levelo://app?vid=8547291d-c29a-4423-8db5-b76d88096b7a","ios":"levelo://app?vid=8547291d-c29a-4423-8db5-b76d88096b7a"},"vehicle_type_id":"4","last_reported":1683378406,"current_range_meters":21200,"station_id":"ce4bhbh2rcd13ifvqepg","pricing_plan_id":"free"},{"bike_id":"b03f8d37-07d3-4e3c-9c63-ff653ec9ebc9","system_id":"levelo_inurba_marseille","lat":43.284217,"lon":5.349697,"is_reserved":false,"is_disabled":false,"rental_uris":{"android":"levelo://app?vid=b03f8d37-07d3-4e3c-9c63-ff653ec9ebc9","ios":"levelo://app?vid=b03f8d37-07d3-4e3c-9c63-ff653ec9ebc9"},"vehicle_type_id":"4","last_reported":1683378406,"current_range_meters":22800,"station_id":"ce4bhbh2rcd13ifvqepg","pricing_plan_id":"free"},{"bike_id":"fbadce77-2f26-4d87-865a-366e6b325e4a","system_id":"levelo_inurba_marseille","lat":43.284219,"lon":5.3497,"is_reserved":false,"is_disabled":false,"rental_uris":{"android":"levelo://app?vid=fbadce77-2f26-4d87-865a-366e6b325e4a","ios":"levelo://app?vid=fbadce77-2f26-4d87-865a-366e6b325e4a"},"vehicle_type_id":"4","last_reported":1683378406,"current_range_meters":12400,"station_id":"ce4bhbh2rcd13ifvqepg","pricing_plan_id":"free"},{"bike_id":"1e4dc390-be8b-437c-b8d9-eeba92c6c13e","system_id":"levelo_inurba_marseille","lat":43.28425,"lon":5.34978,"is_reserved":false,"is_disabled":false,"rental_uris":{"android":"levelo://app?vid=1e4dc390-be8b-437c-b8d9-eeba92c6c13e","ios":"levelo://app?vid=1e4dc390-be8b-437c-b8d9-eeba92c6c13e"},"vehicle_type_id":"4","last_reported":1683378406,"current_range_meters":9600,"station_id":"ce4bhbh2rcd13ifvqepg","pricing_plan_id":"free"},{"bike_id":"a6c02902-2341-412d-b2be-2a0ab7107ffc","system_id":"levelo_inurba_marseille","lat":43.284219,"lon":5.3497,"is_reserved":false,"is_disabled":false,"rental_uris":{"android":"levelo://app?vid=a6c02902-2341-412d-b2be-2a0ab7107ffc","ios":"levelo://app?vid=a6c02902-2341-412d-b2be-2a0ab7107ffc"},"vehicle_type_id":"4","last_reported":1683378406,"current_range_meters":12000,"station_id":"ce4bhbh2rcd13ifvqepg","pricing_plan_id":"free"},{"bike_id":"03ed9e86-02cd-48cc-97f2-c357df2810b2","system_id":"levelo_inurba_marseille","lat":43.284217,"lon":5.349697,"is_reserved":false,"is_disabled":false,"rental_uris":{"android":"levelo://app?vid=03ed9e86-02cd-48cc-97f2-c357df2810b2","ios":"levelo://app?vid=03ed9e86-02cd-48cc-97f2-c357df2810b2"},"vehicle_type_id":"4","last_reported":1683378406,"current_range_meters":12400,"station_id":"ce4bhbh2rcd13ifvqepg","pricing_plan_id":"free"},{"bike_id":"9d696162-a417-4141-8951-243305fcdd01","system_id":"levelo_inurba_marseille","lat":43.284219,"lon":5.3497,"is_reserved":false,"is_disabled":false,"rental_uris":{"android":"levelo://app?vid=9d696162-a417-4141-8951-243305fcdd01","ios":"levelo://app?vid=9d696162-a417-4141-8951-243305fcdd01"},"vehicle_type_id":"4","last_reported":1683378406,"current_range_meters":12800,"station_id":"ce4bhbh2rcd13ifvqepg","pricing_plan_id":"free"},{"bike_id":"92eeb738-5a22-478f-abac-9b295665a783","system_id":"levelo_inurba_marseille","lat":43.28425,"lon":5.34973,"is_reserved":false,"is_disabled":false,"rental_uris":{"android":"levelo://app?vid=92eeb738-5a22-478f-abac-9b295665a783","ios":"levelo://app?vid=92eeb738-5a22-478f-abac-9b295665a783"},"vehicle_type_id":"4","last_reported":1683378406,"current_range_meters":10400,"station_id":"ce4bhbh2rcd13ifvqepg","pricing_plan_id":"free"},{"bike_id":"a7ea350b-3c03-4177-92b9-3f202579f8c0","system_id":"levelo_inurba_marseille","lat":43.284217,"lon":5.349697,"is_reserved":false,"is_disabled":false,"rental_uris":{"android":"levelo://app?vid=a7ea350b-3c03-4177-92b9-3f202579f8c0","ios":"levelo://app?vid=a7ea350b-3c03-4177-92b9-3f202579f8c0"},"vehicle_type_id":"4","last_reported":1683378406,"current_range_meters":22800,"station_id":"ce4bhbh2rcd13ifvqepg","pricing_plan_id":"free"},{"bike_id":"9a9c1077-795b-4627-aca0-7172efe34c40","system_id":"levelo_inurba_marseille","lat":43.28423,"lon":5.34978,"is_reserved":false,"is_disabled":false,"rental_uris":{"android":"levelo://app?vid=9a9c1077-795b-4627-aca0-7172efe34c40","ios":"levelo://app?vid=9a9c1077-795b-4627-aca0-7172efe34c40"},"vehicle_type_id":"4","last_reported":1683378406,"current_range_meters":26000,"station_id":"ce4bhbh2rcd13ifvqepg","pricing_plan_id":"free"},{"bike_id":"0e15b775-de10-46e9-8c5d-4f549cb4b769","system_id":"levelo_inurba_marseille","lat":43.284219,"lon":5.3497,"is_reserved":false,"is_disabled":false,"rental_uris":{"android":"levelo://app?vid=0e15b775-de10-46e9-8c5d-4f549cb4b769","ios":"levelo://app?vid=0e15b775-de10-46e9-8c5d-4f549cb4b769"},"vehicle_type_id":"4","last_reported":1683378406,"current_range_meters":24000,"station_id":"ce4bhbh2rcd13ifvqepg","pricing_plan_id":"free"},{"bike_id":"4a6af45b-f8f5-4acd-b478-a36d7c9b86ca","system_id":"levelo_inurba_marseille","lat":43.284217,"lon":5.349697,"is_reserved":false,"is_disabled":false,"rental_uris":{"android":"levelo://app?vid=4a6af45b-f8f5-4acd-b478-a36d7c9b86ca","ios":"levelo://app?vid=4a6af45b-f8f5-4acd-b478-a36d7c9b86ca"},"vehicle_type_id":"4","last_reported":1683378406,"current_range_meters":22000,"station_id":"ce4bhbh2rcd13ifvqepg","pricing_plan_id":"free"},{"bike_id":"792e66ef-fd2c-4666-9275-82cacffc2b78","system_id":"levelo_inurba_marseille","lat":43.284219,"lon":5.3497,"is_reserved":false,"is_disabled":false,"rental_uris":{"android":"levelo://app?vid=792e66ef-fd2c-4666-9275-82cacffc2b78","ios":"levelo://app?vid=792e66ef-fd2c-4666-9275-82cacffc2b78"},"vehicle_type_id":"4","last_reported":1683378406,"current_range_meters":0,"station_id":"ce4bhbh2rcd13ifvqepg","pricing_plan_id":"free"},{"bike_id":"206e9460-31c6-4811-8d45-72f6f4d11636","system_id":"levelo_inurba_marseille","lat":43.284219,"lon":5.3497,"is_reserved":false,"is_disabled":false,"rental_uris":{"android":"levelo://app?vid=206e9460-31c6-4811-8d45-72f6f4d11636","ios":"levelo://app?vid=206e9460-31c6-4811-8d45-72f6f4d11636"},"vehicle_type_id":"4","last_reported":1683378406,"current_range_meters":14800,"station_id":"ce4bhbh2rcd13ifvqepg","pricing_plan_id":"free"},{"bike_id":"b5e8c6b4-9504-48fa-92ab-da463b3a5774","system_id":"levelo_inurba_marseille","lat":43.284219,"lon":5.3497,"is_reserved":false,"is_disabled":false,"rental_uris":{"android":"levelo://app?vid=b5e8c6b4-9504-48fa-92ab-da463b3a5774","ios":"levelo://app?vid=b5e8c6b4-9504-48fa-92ab-da463b3a5774"},"vehicle_type_id":"4","last_reported":1683378406,"current_range_meters":20400,"station_id":"ce4bhbh2rcd13ifvqepg","pricing_plan_id":"free"},{"bike_id":"2e5574e2-315a-4f7d-9029-4c1b21d54a9d","system_id":"levelo_inurba_marseille","lat":43.28423,"lon":5.3497,"is_reserved":false,"is_disabled":false,"rental_uris":{"android":"levelo://app?vid=2e5574e2-315a-4f7d-9029-4c1b21d54a9d","ios":"levelo://app?vid=2e5574e2-315a-4f7d-9029-4c1b21d54a9d"},"vehicle_type_id":"4","last_reported":1683378406,"current_range_meters":21600,"station_id":"ce4bhbh2rcd13ifvqepg","pricing_plan_id":"free"},{"bike_id":"fcd07d6c-bcab-442c-b57b-92faca246ce0","system_id":"levelo_inurba_marseille","lat":43.284217,"lon":5.349697,"is_reserved":false,"is_disabled":false,"rental_uris":{"android":"levelo://app?vid=fcd07d6c-bcab-442c-b57b-92faca246ce0","ios":"levelo://app?vid=fcd07d6c-bcab-442c-b57b-92faca246ce0"},"vehicle_type_id":"4","last_reported":1683378406,"current_range_meters":22800,"station_id":"ce4bhbh2rcd13ifvqepg","pricing_plan_id":"free"},{"bike_id":"dc15b228-1572-43d9-b068-e02e1961364c","system_id":"levelo_inurba_marseille","lat":43.28421,"lon":5.34975,"is_reserved":false,"is_disabled":false,"rental_uris":{"android":"levelo://app?vid=dc15b228-1572-43d9-b068-e02e1961364c","ios":"levelo://app?vid=dc15b228-1572-43d9-b068-e02e1961364c"},"vehicle_type_id":"4","last_reported":1683378406,"current_range_meters":23600,"station_id":"ce4bhbh2rcd13ifvqepg","pricing_plan_id":"free"},{"bike_id":"c0a56788-9ced-4c80-85d7-004fd0f56f5c","system_id":"levelo_inurba_marseille","lat":43.284219,"lon":5.3497,"is_reserved":false,"is_disabled":false,"rental_uris":{"android":"levelo://app?vid=c0a56788-9ced-4c80-85d7-004fd0f56f5c","ios":"levelo://app?vid=c0a56788-9ced-4c80-85d7-004fd0f56f5c"},"vehicle_type_id":"4","last_reported":1683378406,"current_range_meters":20800,"station_id":"ce4bhbh2rcd13ifvqepg","pricing_plan_id":"free"},{"bike_id":"30fcb283-2802-4702-8b67-e6ff0d2ddf11","system_id":"levelo_inurba_marseille","lat":43.284217,"lon":5.349697,"is_reserved":false,"is_disabled":false,"rental_uris":{"android":"levelo://app?vid=30fcb283-2802-4702-8b67-e6ff0d2ddf11","ios":"levelo://app?vid=30fcb283-2802-4702-8b67-e6ff0d2ddf11"},"vehicle_type_id":"4","last_reported":1683378406,"current_range_meters":21600,"station_id":"ce4bhbh2rcd13ifvqepg","pricing_plan_id":"free"},{"bike_id":"288b48ab-74b2-4706-8be6-daa88d0ad8e5","system_id":"levelo_inurba_marseille","lat":43.284217,"lon":5.349697,"is_reserved":false,"is_disabled":false,"rental_uris":{"android":"levelo://app?vid=288b48ab-74b2-4706-8be6-daa88d0ad8e5","ios":"levelo://app?vid=288b48ab-74b2-4706-8be6-daa88d0ad8e5"},"vehicle_type_id":"4","last_reported":1683378406,"current_range_meters":5200,"station_id":"ce4bhbh2rcd13ifvqepg","pricing_plan_id":"free"},{"bike_id":"ce88c4c1-a809-4a96-a75f-738db3d890f8","system_id":"levelo_inurba_marseille","lat":43.284217,"lon":5.349697,"is_reserved":false,"is_disabled":false,"rental_uris":{"android":"levelo://app?vid=ce88c4c1-a809-4a96-a75f-738db3d890f8","ios":"levelo://app?vid=ce88c4c1-a809-4a96-a75f-738db3d890f8"},"vehicle_type_id":"4","last_reported":1683378406,"current_range_meters":15600,"station_id":"ce4bhbh2rcd13ifvqepg","pricing_plan_id":"free"},{"bike_id":"f7e5cf37-ccc0-4f4f-8f8b-cac7d847b51b","system_id":"levelo_inurba_marseille","lat":43.284219,"lon":5.3497,"is_reserved":false,"is_disabled":false,"rental_uris":{"android":"levelo://app?vid=f7e5cf37-ccc0-4f4f-8f8b-cac7d847b51b","ios":"levelo://app?vid=f7e5cf37-ccc0-4f4f-8f8b-cac7d847b51b"},"vehicle_type_id":"4","last_reported":1683378406,"current_range_meters":21600,"station_id":"ce4bhbh2rcd13ifvqepg","pricing_plan_id":"free"},{"bike_id":"b251b843-80fc-4a78-8de1-3e19e36acd94","system_id":"levelo_inurba_marseille","lat":43.28418,"lon":5.34978,"is_reserved":false,"is_disabled":false,"rental_uris":{"android":"levelo://app?vid=b251b843-80fc-4a78-8de1-3e19e36acd94","ios":"levelo://app?vid=b251b843-80fc-4a78-8de1-3e19e36acd94"},"vehicle_type_id":"4","last_reported":1683378406,"current_range_meters":10800,"station_id":"ce4bhbh2rcd13ifvqepg","pricing_plan_id":"free"},{"bike_id":"d9b84e12-5376-4b98-883d-887e08fd2fd8","system_id":"levelo_inurba_marseille","lat":43.284219,"lon":5.3497,"is_reserved":false,"is_disabled":false,"rental_uris":{"android":"levelo://app?vid=d9b84e12-5376-4b98-883d-887e08fd2fd8","ios":"levelo://app?vid=d9b84e12-5376-4b98-883d-887e08fd2fd8"},"vehicle_type_id":"4","last_reported":1683378406,"current_range_meters":22000,"station_id":"ce4bhbh2rcd13ifvqepg","pricing_plan_id":"free"},{"bike_id":"af4aec3d-57f7-48d2-ac18-b721952aa150","system_id":"levelo_inurba_marseille","lat":43.284219,"lon":5.3497,"is_reserved":false,"is_disabled":false,"rental_uris":{"android":"levelo://app?vid=af4aec3d-57f7-48d2-ac18-b721952aa150","ios":"levelo://app?vid=af4aec3d-57f7-48d2-ac18-b721952aa150"},"vehicle_type_id":"4","last_reported":1683378406,"current_range_meters":26400,"station_id":"ce4bhbh2rcd13ifvqepg","pricing_plan_id":"free"},{"bike_id":"c3388586-ebf9-490c-a31e-ecfe1a8cea07","system_id":"levelo_inurba_marseille","lat":43.284217,"lon":5.349697,"is_reserved":false,"is_disabled":false,"rental_uris":{"android":"levelo://app?vid=c3388586-ebf9-490c-a31e-ecfe1a8cea07","ios":"levelo://app?vid=c3388586-ebf9-490c-a31e-ecfe1a8cea07"},"vehicle_type_id":"4","last_reported":1683378406,"current_range_meters":0,"station_id":"ce4bhbh2rcd13ifvqepg","pricing_plan_id":"free"},{"bike_id":"d6bac8e7-4ca5-4bab-a4fd-1047cdca099d","system_id":"levelo_inurba_marseille","lat":43.284159,"lon":5.349798,"is_reserved":false,"is_disabled":false,"rental_uris":{"android":"levelo://app?vid=d6bac8e7-4ca5-4bab-a4fd-1047cdca099d","ios":"levelo://app?vid=d6bac8e7-4ca5-4bab-a4fd-1047cdca099d"},"vehicle_type_id":"4","last_reported":1683378406,"current_range_meters":7600,"station_id":"","pricing_plan_id":"free"},{"bike_id":"00e19c1a-39f4-4fe4-bd9b-9b21e03c4497","system_id":"levelo_inurba_marseille","lat":43.284219,"lon":5.3497,"is_reserved":false,"is_disabled":false,"rental_uris":{"android":"levelo://app?vid=00e19c1a-39f4-4fe4-bd9b-9b21e03c4497","ios":"levelo://app?vid=00e19c1a-39f4-4fe4-bd9b-9b21e03c4497"},"vehicle_type_id":"4","last_reported":1683378406,"current_range_meters":20000,"station_id":"ce4bhbh2rcd13ifvqepg","pricing_plan_id":"free"},{"bike_id":"192c2a04-ae63-45b1-a237-5c66b24e940b","system_id":"levelo_inurba_marseille","lat":43.284217,"lon":5.349697,"is_reserved":false,"is_disabled":false,"rental_uris":{"android":"levelo://app?vid=192c2a04-ae63-45b1-a237-5c66b24e940b","ios":"levelo://app?vid=192c2a04-ae63-45b1-a237-5c66b24e940b"},"vehicle_type_id":"4","last_reported":1683378406,"current_range_meters":32000,"station_id":"ce4bhbh2rcd13ifvqepg","pricing_plan_id":"free"},{"bike_id":"12f824b6-e8b9-4429-9fc2-e7e48a061d2b","system_id":"levelo_inurba_marseille","lat":43.28275,"lon":5.35068,"is_reserved":false,"is_disabled":false,"rental_uris":{"android":"levelo://app?vid=12f824b6-e8b9-4429-9fc2-e7e48a061d2b","ios":"levelo://app?vid=12f824b6-e8b9-4429-9fc2-e7e48a061d2b"},"vehicle_type_id":"4","last_reported":1683378406,"current_range_meters":26400,"station_id":"ce4bhbp2rcd13ifvqerg","pricing_plan_id":"free"},{"bike_id":"0fc952a8-f834-43d4-beb1-4424c2a96afe","system_id":"levelo_inurba_marseille","lat":43.28276,"lon":5.35059,"is_reserved":false,"is_disabled":false,"rental_uris":{"android":"levelo://app?vid=0fc952a8-f834-43d4-beb1-4424c2a96afe","ios":"levelo://app?vid=0fc952a8-f834-43d4-beb1-4424c2a96afe"},"vehicle_type_id":"4","last_reported":1683378406,"current_range_meters":17600,"station_id":"ce4bhbp2rcd13ifvqerg","pricing_plan_id":"free"},{"bike_id":"c7cffc1f-b411-4d1f-91b6-487e01203a3f","system_id":"levelo_inurba_marseille","lat":43.28275,"lon":5.35062,"is_reserved":false,"is_disabled":false,"rental_uris":{"android":"levelo://app?vid=c7cffc1f-b411-4d1f-91b6-487e01203a3f","ios":"levelo://app?vid=c7cffc1f-b411-4d1f-91b6-487e01203a3f"},"vehicle_type_id":"4","last_reported":1683378406,"current_range_meters":30000,"station_id":"ce4bhbp2rcd13ifvqerg","pricing_plan_id":"free"},{"bike_id":"bef124a0-7b6f-4570-a214-5ba1ce3c82a6","system_id":"levelo_inurba_marseille","lat":43.28272,"lon":5.35072,"is_reserved":false,"is_disabled":false,"rental_uris":{"android":"levelo://app?vid=bef124a0-7b6f-4570-a214-5ba1ce3c82a6","ios":"levelo://app?vid=bef124a0-7b6f-4570-a214-5ba1ce3c82a6"},"vehicle_type_id":"4","last_reported":1683378406,"current_range_meters":20800,"station_id":"ce4bhbp2rcd13ifvqerg","pricing_plan_id":"free"},{"bike_id":"a647b635-99df-40ef-990d-71492091c796","system_id":"levelo_inurba_marseille","lat":43.28271,"lon":5.35075,"is_reserved":false,"is_disabled":false,"rental_uris":{"android":"levelo://app?vid=a647b635-99df-40ef-990d-71492091c796","ios":"levelo://app?vid=a647b635-99df-40ef-990d-71492091c796"},"vehicle_type_id":"4","last_reported":1683378406,"current_range_meters":28000,"station_id":"ce4bhbp2rcd13ifvqerg","pricing_plan_id":"free"},{"bike_id":"ce6305bb-862c-4bf3-89df-585ae8dbc8aa","system_id":"levelo_inurba_marseille","lat":43.28271,"lon":5.35073,"is_reserved":false,"is_disabled":false,"rental_uris":{"android":"levelo://app?vid=ce6305bb-862c-4bf3-89df-585ae8dbc8aa","ios":"levelo://app?vid=ce6305bb-862c-4bf3-89df-585ae8dbc8aa"},"vehicle_type_id":"4","last_reported":1683378406,"current_range_meters":28000,"station_id":"ce4bhbp2rcd13ifvqerg","pricing_plan_id":"free"},{"bike_id":"2d93f1c2-d5dd-477b-abcd-981be14ef995","system_id":"levelo_inurba_marseille","lat":43.28271,"lon":5.35071,"is_reserved":false,"is_disabled":false,"rental_uris":{"android":"levelo://app?vid=2d93f1c2-d5dd-477b-abcd-981be14ef995","ios":"levelo://app?vid=2d93f1c2-d5dd-477b-abcd-981be14ef995"},"vehicle_type_id":"4","last_reported":1683378406,"current_range_meters":2400,"station_id":"ce4bhbp2rcd13ifvqerg","pricing_plan_id":"free"},{"bike_id":"6f1f4fe7-4e95-453a-9900-8c8ddc8c32c5","system_id":"levelo_inurba_marseille","lat":43.282754,"lon":5.350519,"is_reserved":false,"is_disabled":false,"rental_uris":{"android":"levelo://app?vid=6f1f4fe7-4e95-453a-9900-8c8ddc8c32c5","ios":"levelo://app?vid=6f1f4fe7-4e95-453a-9900-8c8ddc8c32c5"},"vehicle_type_id":"4","last_reported":1683378406,"current_range_meters":30400,"station_id":"ce4bhbp2rcd13ifvqerg","pricing_plan_id":"free"},{"bike_id":"c514c1d0-8d86-40c1-9720-a2d50243ee5c","system_id":"levelo_inurba_marseille","lat":43.28269,"lon":5.35075,"is_reserved":false,"is_disabled":false,"rental_uris":{"android":"levelo://app?vid=c514c1d0-8d86-40c1-9720-a2d50243ee5c","ios":"levelo://app?vid=c514c1d0-8d86-40c1-9720-a2d50243ee5c"},"vehicle_type_id":"4","last_reported":1683378406,"current_range_meters":12800,"station_id":"ce4bhbp2rcd13ifvqerg","pricing_plan_id":"free"},{"bike_id":"e51e46d7-62b9-477c-a5e6-1e9aeb5e6886","system_id":"levelo_inurba_marseille","lat":43.282754,"lon":5.350519,"is_reserved":false,"is_disabled":false,"rental_uris":{"android":"levelo://app?vid=e51e46d7-62b9-477c-a5e6-1e9aeb5e6886","ios":"levelo://app?vid=e51e46d7-62b9-477c-a5e6-1e9aeb5e6886"},"vehicle_type_id":"4","last_reported":1683378406,"current_range_meters":24400,"station_id":"ce4bhbp2rcd13ifvqerg","pricing_plan_id":"free"},{"bike_id":"7fb86510-5430-4ab7-a0ef-bf4a80796b56","system_id":"levelo_inurba_marseille","lat":43.28268,"lon":5.35076,"is_reserved":false,"is_disabled":false,"rental_uris":{"android":"levelo://app?vid=7fb86510-5430-4ab7-a0ef-bf4a80796b56","ios":"levelo://app?vid=7fb86510-5430-4ab7-a0ef-bf4a80796b56"},"vehicle_type_id":"4","last_reported":1683378406,"current_range_meters":20800,"station_id":"ce4bhbp2rcd13ifvqerg","pricing_plan_id":"free"},{"bike_id":"f981e861-0c26-4526-aaf4-1f850d5344a9","system_id":"levelo_inurba_marseille","lat":43.282754,"lon":5.350519,"is_reserved":false,"is_disabled":false,"rental_uris":{"android":"levelo://app?vid=f981e861-0c26-4526-aaf4-1f850d5344a9","ios":"levelo://app?vid=f981e861-0c26-4526-aaf4-1f850d5344a9"},"vehicle_type_id":"4","last_reported":1683378406,"current_range_meters":25200,"station_id":"ce4bhbp2rcd13ifvqerg","pricing_plan_id":"free"},{"bike_id":"b5a49a96-26c2-418c-a1f4-22d1416d2f65","system_id":"levelo_inurba_marseille","lat":43.28268,"lon":5.35075,"is_reserved":false,"is_disabled":false,"rental_uris":{"android":"levelo://app?vid=b5a49a96-26c2-418c-a1f4-22d1416d2f65","ios":"levelo://app?vid=b5a49a96-26c2-418c-a1f4-22d1416d2f65"},"vehicle_type_id":"4","last_reported":1683378406,"current_range_meters":17600,"station_id":"ce4bhbp2rcd13ifvqerg","pricing_plan_id":"free"},{"bike_id":"64aef2ca-6222-4180-bc24-aec46c38d30c","system_id":"levelo_inurba_marseille","lat":43.28272,"lon":5.3506,"is_reserved":false,"is_disabled":false,"rental_uris":{"android":"levelo://app?vid=64aef2ca-6222-4180-bc24-aec46c38d30c","ios":"levelo://app?vid=64aef2ca-6222-4180-bc24-aec46c38d30c"},"vehicle_type_id":"4","last_reported":1683378406,"current_range_meters":23600,"station_id":"ce4bhbp2rcd13ifvqerg","pricing_plan_id":"free"},{"bike_id":"2edc44a5-1d86-4bfa-9ad0-3330c97acb11","system_id":"levelo_inurba_marseille","lat":43.28272,"lon":5.35059,"is_reserved":false,"is_disabled":false,"rental_uris":{"android":"levelo://app?vid=2edc44a5-1d86-4bfa-9ad0-3330c97acb11","ios":"levelo://app?vid=2edc44a5-1d86-4bfa-9ad0-3330c97acb11"},"vehicle_type_id":"4","last_reported":1683378406,"current_range_meters":26000,"station_id":"ce4bhbp2rcd13ifvqerg","pricing_plan_id":"free"},{"bike_id":"aa100625-4f9b-449b-a8ca-1ec5d7f0fd13","system_id":"levelo_inurba_marseille","lat":43.282754,"lon":5.350519,"is_reserved":false,"is_disabled":false,"rental_uris":{"android":"levelo://app?vid=aa100625-4f9b-449b-a8ca-1ec5d7f0fd13","ios":"levelo://app?vid=aa100625-4f9b-449b-a8ca-1ec5d7f0fd13"},"vehicle_type_id":"4","last_reported":1683378406,"current_range_meters":19600,"station_id":"ce4bhbp2rcd13ifvqerg","pricing_plan_id":"free"},{"bike_id":"37adb2ac-01e4-4903-81cf-5d241783ea85","system_id":"levelo_inurba_marseille","lat":43.28269,"lon":5.35068,"is_reserved":false,"is_disabled":false,"rental_uris":{"android":"levelo://app?vid=37adb2ac-01e4-4903-81cf-5d241783ea85","ios":"levelo://app?vid=37adb2ac-01e4-4903-81cf-5d241783ea85"},"vehicle_type_id":"4","last_reported":1683378406,"current_range_meters":4400,"station_id":"ce4bhbp2rcd13ifvqerg","pricing_plan_id":"free"},{"bike_id":"7c293218-618c-4050-b36b-003923cc8160","system_id":"levelo_inurba_marseille","lat":43.28272,"lon":5.35057,"is_reserved":false,"is_disabled":false,"rental_uris":{"android":"levelo://app?vid=7c293218-618c-4050-b36b-003923cc8160","ios":"levelo://app?vid=7c293218-618c-4050-b36b-003923cc8160"},"vehicle_type_id":"4","last_reported":1683378406,"current_range_meters":20400,"station_id":"ce4bhbp2rcd13ifvqerg","pricing_plan_id":"free"},{"bike_id":"86c6f31e-8a26-4958-adf8-b8e830fa575b","system_id":"levelo_inurba_marseille","lat":43.2827,"lon":5.35063,"is_reserved":false,"is_disabled":false,"rental_uris":{"android":"levelo://app?vid=86c6f31e-8a26-4958-adf8-b8e830fa575b","ios":"levelo://app?vid=86c6f31e-8a26-4958-adf8-b8e830fa575b"},"vehicle_type_id":"4","last_reported":1683378406,"current_range_meters":22400,"station_id":"ce4bhbp2rcd13ifvqerg","pricing_plan_id":"free"},{"bike_id":"31cc8283-daa3-449e-8a0b-018563f8a8b8","system_id":"levelo_inurba_marseille","lat":43.28267,"lon":5.35072,"is_reserved":false,"is_disabled":false,"rental_uris":{"android":"levelo://app?vid=31cc8283-daa3-449e-8a0b-018563f8a8b8","ios":"levelo://app?vid=31cc8283-daa3-449e-8a0b-018563f8a8b8"},"vehicle_type_id":"4","last_reported":1683378406,"current_range_meters":26400,"station_id":"ce4bhbp2rcd13ifvqerg","pricing_plan_id":"free"},{"bike_id":"6a208102-9ccc-43bd-ae8a-27d2b6b173e3","system_id":"levelo_inurba_marseille","lat":43.28269,"lon":5.35065,"is_reserved":false,"is_disabled":false,"rental_uris":{"android":"levelo://app?vid=6a208102-9ccc-43bd-ae8a-27d2b6b173e3","ios":"levelo://app?vid=6a208102-9ccc-43bd-ae8a-27d2b6b173e3"},"vehicle_type_id":"4","last_reported":1683378406,"current_range_meters":11600,"station_id":"ce4bhbp2rcd13ifvqerg","pricing_plan_id":"free"},{"bike_id":"76242f32-c407-44d4-84d7-fa1d50b0f9dc","system_id":"levelo_inurba_marseille","lat":43.32444,"lon":5.40831,"is_reserved":false,"is_disabled":false,"rental_uris":{"android":"levelo://app?vid=76242f32-c407-44d4-84d7-fa1d50b0f9dc","ios":"levelo://app?vid=76242f32-c407-44d4-84d7-fa1d50b0f9dc"},"vehicle_type_id":"4","last_reported":1683378406,"current_range_meters":2800,"station_id":"","pricing_plan_id":"free"},{"bike_id":"0bd1418a-93b1-4444-8b79-6313ef8b49b8","system_id":"levelo_inurba_marseille","lat":43.28271,"lon":5.35057,"is_reserved":false,"is_disabled":false,"rental_uris":{"android":"levelo://app?vid=0bd1418a-93b1-4444-8b79-6313ef8b49b8","ios":"levelo://app?vid=0bd1418a-93b1-4444-8b79-6313ef8b49b8"},"vehicle_type_id":"4","last_reported":1683378406,"current_range_meters":25200,"station_id":"ce4bhbp2rcd13ifvqerg","pricing_plan_id":"free"},{"bike_id":"f140e554-1808-459a-9943-2b44a212ec36","system_id":"levelo_inurba_marseille","lat":43.28267,"lon":5.3507,"is_reserved":false,"is_disabled":false,"rental_uris":{"android":"levelo://app?vid=f140e554-1808-459a-9943-2b44a212ec36","ios":"levelo://app?vid=f140e554-1808-459a-9943-2b44a212ec36"},"vehicle_type_id":"4","last_reported":1683378406,"current_range_meters":18000,"station_id":"ce4bhbp2rcd13ifvqerg","pricing_plan_id":"free"},{"bike_id":"2f30c69c-5d3e-4d52-a6c4-c4e243293c3a","system_id":"levelo_inurba_marseille","lat":43.28269,"lon":5.35063,"is_reserved":false,"is_disabled":false,"rental_uris":{"android":"levelo://app?vid=2f30c69c-5d3e-4d52-a6c4-c4e243293c3a","ios":"levelo://app?vid=2f30c69c-5d3e-4d52-a6c4-c4e243293c3a"},"vehicle_type_id":"4","last_reported":1683378406,"current_range_meters":18000,"station_id":"ce4bhbp2rcd13ifvqerg","pricing_plan_id":"free"},{"bike_id":"eed26149-a32b-47dc-a5ee-20d3e3f63807","system_id":"levelo_inurba_marseille","lat":43.2827,"lon":5.35059,"is_reserved":false,"is_disabled":false,"rental_uris":{"android":"levelo://app?vid=eed26149-a32b-47dc-a5ee-20d3e3f63807","ios":"levelo://app?vid=eed26149-a32b-47dc-a5ee-20d3e3f63807"},"vehicle_type_id":"4","last_reported":1683378406,"current_range_meters":26800,"station_id":"ce4bhbp2rcd13ifvqerg","pricing_plan_id":"free"},{"bike_id":"97080f97-f320-4f86-9c34-2995c2305d1e","system_id":"levelo_inurba_marseille","lat":43.28268,"lon":5.35065,"is_reserved":false,"is_disabled":false,"rental_uris":{"android":"levelo://app?vid=97080f97-f320-4f86-9c34-2995c2305d1e","ios":"levelo://app?vid=97080f97-f320-4f86-9c34-2995c2305d1e"},"vehicle_type_id":"4","last_reported":1683378406,"current_range_meters":28800,"station_id":"ce4bhbp2rcd13ifvqerg","pricing_plan_id":"free"},{"bike_id":"cb690608-c67b-477c-87bb-1ab766b759c0","system_id":"levelo_inurba_marseille","lat":43.28267,"lon":5.35068,"is_reserved":false,"is_disabled":false,"rental_uris":{"android":"levelo://app?vid=cb690608-c67b-477c-87bb-1ab766b759c0","ios":"levelo://app?vid=cb690608-c67b-477c-87bb-1ab766b759c0"},"vehicle_type_id":"4","last_reported":1683378406,"current_range_meters":24000,"station_id":"ce4bhbp2rcd13ifvqerg","pricing_plan_id":"free"},{"bike_id":"6ddc989f-d326-4de5-8233-b3a549cde405","system_id":"levelo_inurba_marseille","lat":43.282754,"lon":5.350519,"is_reserved":false,"is_disabled":false,"rental_uris":{"android":"levelo://app?vid=6ddc989f-d326-4de5-8233-b3a549cde405","ios":"levelo://app?vid=6ddc989f-d326-4de5-8233-b3a549cde405"},"vehicle_type_id":"4","last_reported":1683378406,"current_range_meters":25200,"station_id":"ce4bhbp2rcd13ifvqerg","pricing_plan_id":"free"},{"bike_id":"51098045-cc74-4bd2-9a49-1e031168d84e","system_id":"levelo_inurba_marseille","lat":43.282754,"lon":5.350519,"is_reserved":false,"is_disabled":false,"rental_uris":{"android":"levelo://app?vid=51098045-cc74-4bd2-9a49-1e031168d84e","ios":"levelo://app?vid=51098045-cc74-4bd2-9a49-1e031168d84e"},"vehicle_type_id":"4","last_reported":1683378406,"current_range_meters":19600,"station_id":"ce4bhbp2rcd13ifvqerg","pricing_plan_id":"free"},{"bike_id":"026fec57-a1bb-4966-8152-2775fd05d7c6","system_id":"levelo_inurba_marseille","lat":43.28264,"lon":5.35076,"is_reserved":false,"is_disabled":false,"rental_uris":{"android":"levelo://app?vid=026fec57-a1bb-4966-8152-2775fd05d7c6","ios":"levelo://app?vid=026fec57-a1bb-4966-8152-2775fd05d7c6"},"vehicle_type_id":"4","last_reported":1683378406,"current_range_meters":18400,"station_id":"ce4bhbp2rcd13ifvqerg","pricing_plan_id":"free"},{"bike_id":"d89c1e2f-1b00-4683-8765-7500f18b065b","system_id":"levelo_inurba_marseille","lat":43.28268,"lon":5.35062,"is_reserved":false,"is_disabled":false,"rental_uris":{"android":"levelo://app?vid=d89c1e2f-1b00-4683-8765-7500f18b065b","ios":"levelo://app?vid=d89c1e2f-1b00-4683-8765-7500f18b065b"},"vehicle_type_id":"4","last_reported":1683378406,"current_range_meters":18400,"station_id":"ce4bhbp2rcd13ifvqerg","pricing_plan_id":"free"},{"bike_id":"2ea9ba8f-6452-48e2-8e6b-88686f355616","system_id":"levelo_inurba_marseille","lat":43.28265,"lon":5.35072,"is_reserved":false,"is_disabled":false,"rental_uris":{"android":"levelo://app?vid=2ea9ba8f-6452-48e2-8e6b-88686f355616","ios":"levelo://app?vid=2ea9ba8f-6452-48e2-8e6b-88686f355616"},"vehicle_type_id":"4","last_reported":1683378406,"current_range_meters":17600,"station_id":"ce4bhbp2rcd13ifvqerg","pricing_plan_id":"free"},{"bike_id":"5efbfb10-9dd1-4247-8529-084d3979ac60","system_id":"levelo_inurba_marseille","lat":43.28264,"lon":5.35075,"is_reserved":false,"is_disabled":false,"rental_uris":{"android":"levelo://app?vid=5efbfb10-9dd1-4247-8529-084d3979ac60","ios":"levelo://app?vid=5efbfb10-9dd1-4247-8529-084d3979ac60"},"vehicle_type_id":"4","last_reported":1683378406,"current_range_meters":22000,"station_id":"ce4bhbp2rcd13ifvqerg","pricing_plan_id":"free"},{"bike_id":"7fb5129d-a81a-4109-aa04-f3c5e687a881","system_id":"levelo_inurba_marseille","lat":43.282754,"lon":5.350519,"is_reserved":false,"is_disabled":false,"rental_uris":{"android":"levelo://app?vid=7fb5129d-a81a-4109-aa04-f3c5e687a881","ios":"levelo://app?vid=7fb5129d-a81a-4109-aa04-f3c5e687a881"},"vehicle_type_id":"4","last_reported":1683378406,"current_range_meters":26800,"station_id":"ce4bhbp2rcd13ifvqerg","pricing_plan_id":"free"},{"bike_id":"bfb9ae10-b8ea-48b7-8cd7-3d08bd45e0e3","system_id":"levelo_inurba_marseille","lat":43.282744,"lon":5.350533,"is_reserved":false,"is_disabled":false,"rental_uris":{"android":"levelo://app?vid=bfb9ae10-b8ea-48b7-8cd7-3d08bd45e0e3","ios":"levelo://app?vid=bfb9ae10-b8ea-48b7-8cd7-3d08bd45e0e3"},"vehicle_type_id":"4","last_reported":1683378406,"current_range_meters":31200,"station_id":"ce4bhbp2rcd13ifvqerg","pricing_plan_id":"free"},{"bike_id":"596baaad-dcbc-477c-825a-3d5512034ae6","system_id":"levelo_inurba_marseille","lat":43.28265,"lon":5.3507,"is_reserved":false,"is_disabled":false,"rental_uris":{"android":"levelo://app?vid=596baaad-dcbc-477c-825a-3d5512034ae6","ios":"levelo://app?vid=596baaad-dcbc-477c-825a-3d5512034ae6"},"vehicle_type_id":"4","last_reported":1683378406,"current_range_meters":20400,"station_id":"ce4bhbp2rcd13ifvqerg","pricing_plan_id":"free"},{"bike_id":"ff6b8d54-8d9a-4850-8688-52faa0cfc205","system_id":"levelo_inurba_marseille","lat":43.282754,"lon":5.350519,"is_reserved":false,"is_disabled":false,"rental_uris":{"android":"levelo://app?vid=ff6b8d54-8d9a-4850-8688-52faa0cfc205","ios":"levelo://app?vid=ff6b8d54-8d9a-4850-8688-52faa0cfc205"},"vehicle_type_id":"4","last_reported":1683378406,"current_range_meters":22000,"station_id":"ce4bhbp2rcd13ifvqerg","pricing_plan_id":"free"},{"bike_id":"a0aae788-96f6-466f-a9ad-fd4f24f5539e","system_id":"levelo_inurba_marseille","lat":43.282754,"lon":5.350519,"is_reserved":false,"is_disabled":false,"rental_uris":{"android":"levelo://app?vid=a0aae788-96f6-466f-a9ad-fd4f24f5539e","ios":"levelo://app?vid=a0aae788-96f6-466f-a9ad-fd4f24f5539e"},