{"last_updated":1745615376,"ttl":60,"version":"2.2","data":{"bikes":[{"bike_id":"5a8c102f-9140-4e60-812e-e78ff46489d9","system_id":"levelo_inurba_marseille","lat":43.29507,"lon":5.39396,"is_reserved":false,"is_disabled":true,"rental_uris":{"android":"levelo://app?vid=5a8c102f-9140-4e60-812e-e78ff46489d9","ios":"levelo://app?vid=5a8c102f-9140-4e60-812e-e78ff46489d9"},"vehicle_type_id":"4","last_reported":1745615376,"current_range_meters":2800,"station_id":"ce4bh292rcd13ifvqdf0","pricing_plan_id":"cebpf4jnsgd1na2vs0mg"},{"bike_id":"fd265570-119b-4158-9264-8701f39090e6","system_id":"levelo_inurba_marseille","lat":43.29055,"lon":5.37165,"is_reserved":false,"is_disabled":true,"rental_uris":{"android":"levelo://app?vid=fd265570-119b-4158-9264-8701f39090e6","ios":"levelo://app?vid=fd265570-119b-4158-9264-8701f39090e6"},"vehicle_type_id":"4","last_reported":1745615376,"current_range_meters":2800,"station_id":"ce4bh5p2rcd13ifvqe4g","pricing_plan_id":"cebpf4jnsgd1na2vs0mg"},{"bike_id":"17212859-5048-489d-8287-c4d9619e0597","system_id":"levelo_inurba_marseille","lat":43.21172,"lon":5.35099,"is_reserved":false,"is_disabled":false,"rental_uris":{"android":"levelo://app?vid=17212859-5048-489d-8287-c4d9619e0597","ios":"levelo://app?vid=17212859-5048-489d-8287-c4d9619e0597"},"vehicle_type_id":"4","last_reported":1745615376,"current_range_meters":2800,"station_id":"st_cvj6sg6p6f1abm77japg","pricing_plan_id":"cebpf4jnsgd1na2vs0mg"},{"bike_id":"7bc9e0f0-1858-48cc-bec0-f8a244c96ec7","system_id":"levelo_inurba_marseille","lat":43.27497,"lon":5.42457,"is_reserved":false,"is_disabled":true,"rental_uris":{"android":"levelo://app?vid=7bc9e0f0-1858-48cc-bec0-f8a244c96ec7","ios":"levelo://app?vid=7bc9e0f0-1858-48cc-bec0-f8a244c96ec7"},"vehicle_type_id":"4","last_reported":1745615376,"current_range_meters":2800,"station_id":"ce4bhn92rcd13ifvqgrg","pricing_plan_id":"cebpf4jnsgd1na2vs0mg"},{"bike_id":"83cf408d-bd48-48dc-ac06-024e0418cc58","system_id":"levelo_inurba_marseille","lat":43.293,"lon":5.37439,"is_reserved":false,"is_disabled":true,"rental_uris":{"android":"levelo://app?vid=83cf408d-bd48-48dc-ac06-024e0418cc58","ios":"levelo://app?vid=83cf408d-bd48-48dc-ac06-024e0418cc58"},"vehicle_type_id":"4","last_reported":1745615376,"current_range_meters":2800,"station_id":"ce4bgi12rcd13ifvqb70","pricing_plan_id":"cebpf4jnsgd1na2vs0mg"},{"bike_id":"47c415eb-9c02-4094-bc4c-e5bc6add6cc6","system_id":"levelo_inurba_marseille","lat":43.21198,"lon":5.35079,"is_reserved":false,"is_disabled":false,"rental_uris":{"android":"levelo://app?vid=47c415eb-9c02-4094-bc4c-e5bc6add6cc6","ios":"levelo://app?vid=47c415eb-9c02-4094-bc4c-e5bc6add6cc6"},"vehicle_type_id":"4","last_reported":1745615376,"current_range_meters":2800,"station_id":"st_cvj6sg6p6f1abm77japg","pricing_plan_id":"cebpf4jnsgd1na2vs0mg"},{"bike_id":"864841d4-d573-470a-87c7-00ad207d699d","system_id":"levelo_inurba_marseille","lat":43.26887,"lon":5.36849,"is_reserved":false,"is_disabled":false,"rental_uris":{"android":"levelo://app?vid=864841d4-d573-470a-87c7-00ad207d699d","ios":"levelo://app?vid=864841d4-d573-470a-87c7-00ad207d699d"},"vehicle_type_id":"4","last_reported":1745615376,"current_range_meters":2800,"station_id":"","pricing_plan_id":"cebpf4jnsgd1na2vs0mg"},{"bike_id":"0665421a-052d-4840-9df9-d527b568d595","system_id":"levelo_inurba_marseille","lat":43.32412,"lon":5.39086,"is_reserved":false,"is_disabled":false,"rental_uris":{"android":"levelo://app?vid=0665421a-052d-4840-9df9-d527b568d595","ios":"levelo://app?vid=0665421a-052d-4840-9df9-d527b568d595"},"vehicle_type_id":"4","last_reported":1745615376,"current_range_meters":3200,"station_id":"","pricing_plan_id":"cebpf4jnsgd1na2vs0mg"},{"bike_id":"ac21ff36-c8ce-4e8e-8687-f3ff987bfa08","system_id":"levelo_inurba_marseille","lat":43.28333,"lon":5.38107,"is_reserved":false,"is_disabled":false,"rental_uris":{"android":"levelo://app?vid=ac21ff36-c8ce-4e8e-8687-f3ff987bfa08","ios":"levelo://app?vid=ac21ff36-c8ce-4e8e-8687-f3ff987bfa08"},"vehicle_type_id":"4","last_reported":1745615376,"current_range_meters":3200,"station_id":"ce4bh412rcd13ifvqdr0","pricing_plan_id":"cebpf4jnsgd1na2vs0mg"},{"bike_id":"938f4e24-7534-4891-9e76-0d2cb82b24aa","system_id":"levelo_inurba_marseille","lat":43.24811,"lon":5.37457,"is_reserved":false,"is_disabled":true,"rental_uris":{"android":"levelo://app?vid=938f4e24-7534-4891-9e76-0d2cb82b24aa","ios":"levelo://app?vid=938f4e24-7534-4891-9e76-0d2cb82b24aa"},"vehicle_type_id":"4","last_reported":1745615376,"current_range_meters":3200,"station_id":"ce4bhgh2rcd13ifvqfb0","pricing_plan_id":"cebpf4jnsgd1na2vs0mg"},{"bike_id":"be834179-0552-424d-88da-8607475e3491","system_id":"levelo_inurba_marseille","lat":43.30203,"lon":5.38986,"is_reserved":false,"is_disabled":false,"rental_uris":{"android":"levelo://app?vid=be834179-0552-424d-88da-8607475e3491","ios":"levelo://app?vid=be834179-0552-424d-88da-8607475e3491"},"vehicle_type_id":"4","last_reported":1745615376,"current_range_meters":3600,"station_id":"","pricing_plan_id":"cebpf4jnsgd1na2vs0mg"},{"bike_id":"7d05c243-3734-423f-9d51-7a4c842c6c3b","system_id":"levelo_inurba_marseille","lat":43.30528,"lon":5.36517,"is_reserved":false,"is_disabled":false,"rental_uris":{"android":"levelo://app?vid=7d05c243-3734-423f-9d51-7a4c842c6c3b","ios":"levelo://app?vid=7d05c243-3734-423f-9d51-7a4c842c6c3b"},"vehicle_type_id":"4","last_reported":1745615376,"current_range_meters":3600,"station_id":"ce4bgs12rcd13ifvqcag","pricing_plan_id":"cebpf4jnsgd1na2vs0mg"},{"bike_id":"1eb3faf5-7fc7-4b89-a0dd-44765b5f2bd2","system_id":"levelo_inurba_marseille","lat":43.23066,"lon":5.35496,"is_reserved":false,"is_disabled":false,"rental_uris":{"android":"levelo://app?vid=1eb3faf5-7fc7-4b89-a0dd-44765b5f2bd2","ios":"levelo://app?vid=1eb3faf5-7fc7-4b89-a0dd-44765b5f2bd2"},"vehicle_type_id":"4","last_reported":1745615376,"current_range_meters":4000,"station_id":"cpo3342slgdg3j2ifvpg","pricing_plan_id":"cebpf4jnsgd1na2vs0mg"},{"bike_id":"5327311e-422e-4cfb-9c7b-42dd9de910b4","system_id":"levelo_inurba_marseille","lat":43.30638,"lon":5.40099,"is_reserved":false,"is_disabled":false,"rental_uris":{"android":"levelo://app?vid=5327311e-422e-4cfb-9c7b-42dd9de910b4","ios":"levelo://app?vid=5327311e-422e-4cfb-9c7b-42dd9de910b4"},"vehicle_type_id":"4","last_reported":1745615376,"current_range_meters":4400,"station_id":"ce4bh112rcd13ifvqda0","pricing_plan_id":"cebpf4jnsgd1na2vs0mg"},{"bike_id":"0ef090c8-b30d-42aa-a986-f1a5509bf3d5","system_id":"levelo_inurba_marseille","lat":43.2601,"lon":5.37568,"is_reserved":false,"is_disabled":false,"rental_uris":{"android":"levelo://app?vid=0ef090c8-b30d-42aa-a986-f1a5509bf3d5","ios":"levelo://app?vid=0ef090c8-b30d-42aa-a986-f1a5509bf3d5"},"vehicle_type_id":"4","last_reported":1745615376,"current_range_meters":4400,"station_id":"ce4bhgh2rcd13ifvqfa0","pricing_plan_id":"cebpf4jnsgd1na2vs0mg"},{"bike_id":"9ed51367-9d05-441e-bdf9-ea498ae9c58c","system_id":"levelo_inurba_marseille","lat":43.34154,"lon":5.40897,"is_reserved":false,"is_disabled":false,"rental_uris":{"android":"levelo://app?vid=9ed51367-9d05-441e-bdf9-ea498ae9c58c","ios":"levelo://app?vid=9ed51367-9d05-441e-bdf9-ea498ae9c58c"},"vehicle_type_id":"4","last_reported":1745615376,"current_range_meters":4400,"station_id":"ce4bhqh2rcd13ifvqhlg","pricing_plan_id":"cebpf4jnsgd1na2vs0mg"},{"bike_id":"d9dfdbb7-3b56-4404-977a-51c336ac30b5","system_id":"levelo_inurba_marseille","lat":43.21191,"lon":5.35084,"is_reserved":false,"is_disabled":false,"rental_uris":{"android":"levelo://app?vid=d9dfdbb7-3b56-4404-977a-51c336ac30b5","ios":"levelo://app?vid=d9dfdbb7-3b56-4404-977a-51c336ac30b5"},"vehicle_type_id":"4","last_reported":1745615376,"current_range_meters":4800,"station_id":"st_cvj6sg6p6f1abm77japg","pricing_plan_id":"cebpf4jnsgd1na2vs0mg"},{"bike_id":"acc44434-345e-46aa-ba57-ab45b2b8cf4d","system_id":"levelo_inurba_marseille","lat":43.29091,"lon":5.38164,"is_reserved":false,"is_disabled":false,"rental_uris":{"android":"levelo://app?vid=acc44434-345e-46aa-ba57-ab45b2b8cf4d","ios":"levelo://app?vid=acc44434-345e-46aa-ba57-ab45b2b8cf4d"},"vehicle_type_id":"4","last_reported":1745615376,"current_range_meters":4400,"station_id":"ce4bh512rcd13ifvqe2g","pricing_plan_id":"cebpf4jnsgd1na2vs0mg"},{"bike_id":"7c2f1fdc-8586-44a5-86ab-ddee0cdab6cc","system_id":"levelo_inurba_marseille","lat":43.30141,"lon":5.38066,"is_reserved":false,"is_disabled":false,"rental_uris":{"android":"levelo://app?vid=7c2f1fdc-8586-44a5-86ab-ddee0cdab6cc","ios":"levelo://app?vid=7c2f1fdc-8586-44a5-86ab-ddee0cdab6cc"},"vehicle_type_id":"4","last_reported":1745615376,"current_range_meters":5600,"station_id":"ce4bgjp2rcd13ifvqbh0","pricing_plan_id":"cebpf4jnsgd1na2vs0mg"},{"bike_id":"8e89fdca-8645-4dc2-9775-ae9ad7191405","system_id":"levelo_inurba_marseille","lat":43.30431,"lon":5.38888,"is_reserved":false,"is_disabled":false,"rental_uris":{"android":"levelo://app?vid=8e89fdca-8645-4dc2-9775-ae9ad7191405","ios":"levelo://app?vid=8e89fdca-8645-4dc2-9775-ae9ad7191405"},"vehicle_type_id":"4","last_reported":1745615376,"current_range_meters":5600,"station_id":"ce4bgk12rcd13ifvqbi0","pricing_plan_id":"cebpf4jnsgd1na2vs0mg"},{"bike_id":"46374c49-3adc-4c5a-8966-e00f056c0d57","system_id":"levelo_inurba_marseille","lat":43.27846,"lon":5.35442,"is_reserved":false,"is_disabled":false,"rental_uris":{"android":"levelo://app?vid=46374c49-3adc-4c5a-8966-e00f056c0d57","ios":"levelo://app?vid=46374c49-3adc-4c5a-8966-e00f056c0d57"},"vehicle_type_id":"4","last_reported":1745615376,"current_range_meters":5600,"station_id":"","pricing_plan_id":"cebpf4jnsgd1na2vs0mg"},{"bike_id":"3a840a83-c105-4ea5-9321-53362116c982","system_id":"levelo_inurba_marseille","lat":43.29514,"lon":5.394046,"is_reserved":false,"is_disabled":false,"rental_uris":{"android":"levelo://app?vid=3a840a83-c105-4ea5-9321-53362116c982","ios":"levelo://app?vid=3a840a83-c105-4ea5-9321-53362116c982"},"vehicle_type_id":"4","last_reported":1745615376,"current_range_meters":5600,"station_id":"ce4bh292rcd13ifvqdf0","pricing_plan_id":"cebpf4jnsgd1na2vs0mg"},{"bike_id":"70d1c63d-858e-49dd-8d71-b6ccf72a2290","system_id":"levelo_inurba_marseille","lat":43.33026,"lon":5.39042,"is_reserved":false,"is_disabled":false,"rental_uris":{"android":"levelo://app?vid=70d1c63d-858e-49dd-8d71-b6ccf72a2290","ios":"levelo://app?vid=70d1c63d-858e-49dd-8d71-b6ccf72a2290"},"vehicle_type_id":"4","last_reported":1745615376,"current_range_meters":5600,"station_id":"ce4bhr92rcd13ifvqhrg","pricing_plan_id":"cebpf4jnsgd1na2vs0mg"},{"bike_id":"e725be89-03eb-4efa-abd9-401ea99c5e6d","system_id":"levelo_inurba_marseille","lat":43.3089,"lon":5.37831,"is_reserved":false,"is_disabled":false,"rental_uris":{"android":"levelo://app?vid=e725be89-03eb-4efa-abd9-401ea99c5e6d","ios":"levelo://app?vid=e725be89-03eb-4efa-abd9-401ea99c5e6d"},"vehicle_type_id":"4","last_reported":1745615376,"current_range_meters":5600,"station_id":"","pricing_plan_id":"cebpf4jnsgd1na2vs0mg"},{"bike_id":"3859dbe1-6033-4769-8ac4-0512eb6fc672","system_id":"levelo_inurba_marseille","lat":43.26061,"lon":5.39398,"is_reserved":false,"is_disabled":false,"rental_uris":{"android":"levelo://app?vid=3859dbe1-6033-4769-8ac4-0512eb6fc672","ios":"levelo://app?vid=3859dbe1-6033-4769-8ac4-0512eb6fc672"},"vehicle_type_id":"4","last_reported":1745615376,"current_range_meters":5600,"station_id":"ce4bhh92rcd13ifvqfj0","pricing_plan_id":"cebpf4jnsgd1na2vs0mg"},{"bike_id":"f425d9cb-80e9-4b0a-9761-f26fba5018c2","system_id":"levelo_inurba_marseille","lat":43.2872,"lon":5.39995,"is_reserved":false,"is_disabled":true,"rental_uris":{"android":"levelo://app?vid=f425d9cb-80e9-4b0a-9761-f26fba5018c2","ios":"levelo://app?vid=f425d9cb-80e9-4b0a-9761-f26fba5018c2"},"vehicle_type_id":"4","last_reported":1745615376,"current_range_meters":5600,"station_id":"ce4bho92rcd13ifvqh3g","pricing_plan_id":"cebpf4jnsgd1na2vs0mg"},{"bike_id":"1f4342d5-abe9-4e83-80d9-9822e7d9d881","system_id":"levelo_inurba_marseille","lat":43.31104,"lon":5.37774,"is_reserved":false,"is_disabled":false,"rental_uris":{"android":"levelo://app?vid=1f4342d5-abe9-4e83-80d9-9822e7d9d881","ios":"levelo://app?vid=1f4342d5-abe9-4e83-80d9-9822e7d9d881"},"vehicle_type_id":"4","last_reported":1745615376,"current_range_meters":6000,"station_id":"ce4bgt92rcd13ifvqcg0","pricing_plan_id":"cebpf4jnsgd1na2vs0mg"},{"bike_id":"306a58c0-053c-4a47-8c40-1c362463c26f","system_id":"levelo_inurba_marseille","lat":43.309346,"lon":5.371184,"is_reserved":false,"is_disabled":false,"rental_uris":{"android":"levelo://app?vid=306a58c0-053c-4a47-8c40-1c362463c26f","ios":"levelo://app?vid=306a58c0-053c-4a47-8c40-1c362463c26f"},"vehicle_type_id":"4","last_reported":1745615376,"current_range_meters":6000,"station_id":"","pricing_plan_id":"cebpf4jnsgd1na2vs0mg"},{"bike_id":"2ca87a11-564f-4d02-9bbe-38f647a02125","system_id":"levelo_inurba_marseille","lat":43.31335,"lon":5.39688,"is_reserved":false,"is_disabled":true,"rental_uris":{"android":"levelo://app?vid=2ca87a11-564f-4d02-9bbe-38f647a02125","ios":"levelo://app?vid=2ca87a11-564f-4d02-9bbe-38f647a02125"},"vehicle_type_id":"4","last_reported":1745615376,"current_range_meters":6000,"station_id":"ce4bgvp2rcd13ifvqcu0","pricing_plan_id":"cebpf4jnsgd1na2vs0mg"},{"bike_id":"f3edf38a-522a-40f0-ab97-f0ab8b9637ba","system_id":"levelo_inurba_marseille","lat":43.29868,"lon":5.38912,"is_reserved":false,"is_disabled":false,"rental_uris":{"android":"levelo://app?vid=f3edf38a-522a-40f0-ab97-f0ab8b9637ba","ios":"levelo://app?vid=f3edf38a-522a-40f0-ab97-f0ab8b9637ba"},"vehicle_type_id":"4","last_reported":1745615376,"current_range_meters":6400,"station_id":"ce4bh392rcd13ifvqdl0","pricing_plan_id":"cebpf4jnsgd1na2vs0mg"},{"bike_id":"6e94a711-5402-4704-b611-7db8261a971d","system_id":"levelo_inurba_marseille","lat":43.25724,"lon":5.41127,"is_reserved":false,"is_disabled":false,"rental_uris":{"android":"levelo://app?vid=6e94a711-5402-4704-b611-7db8261a971d","ios":"levelo://app?vid=6e94a711-5402-4704-b611-7db8261a971d"},"vehicle_type_id":"4","last_reported":1745615376,"current_range_meters":6400,"station_id":"ce4bhkp2rcd13ifvqgd0","pricing_plan_id":"cebpf4jnsgd1na2vs0mg"},{"bike_id":"e930add5-8b45-498d-aeca-dd9c292f6d85","system_id":"levelo_inurba_marseille","lat":43.2511,"lon":5.40332,"is_reserved":false,"is_disabled":false,"rental_uris":{"android":"levelo://app?vid=e930add5-8b45-498d-aeca-dd9c292f6d85","ios":"levelo://app?vid=e930add5-8b45-498d-aeca-dd9c292f6d85"},"vehicle_type_id":"4","last_reported":1745615376,"current_range_meters":6400,"station_id":"ce4bhlh2rcd13ifvqgig","pricing_plan_id":"cebpf4jnsgd1na2vs0mg"},{"bike_id":"9cea7716-891d-46a7-ad9d-83edb58c49cc","system_id":"levelo_inurba_marseille","lat":43.30261,"lon":5.4008,"is_reserved":false,"is_disabled":false,"rental_uris":{"android":"levelo://app?vid=9cea7716-891d-46a7-ad9d-83edb58c49cc","ios":"levelo://app?vid=9cea7716-891d-46a7-ad9d-83edb58c49cc"},"vehicle_type_id":"4","last_reported":1745615376,"current_range_meters":6400,"station_id":"ce4bgvh2rcd13ifvqcs0","pricing_plan_id":"cebpf4jnsgd1na2vs0mg"},{"bike_id":"566af3c7-55e6-47d8-98d6-26dbaee4cf9e","system_id":"levelo_inurba_marseille","lat":43.30229,"lon":5.37124,"is_reserved":false,"is_disabled":false,"rental_uris":{"android":"levelo://app?vid=566af3c7-55e6-47d8-98d6-26dbaee4cf9e","ios":"levelo://app?vid=566af3c7-55e6-47d8-98d6-26dbaee4cf9e"},"vehicle_type_id":"4","last_reported":1745615376,"current_range_meters":6400,"station_id":"","pricing_plan_id":"cebpf4jnsgd1na2vs0mg"},{"bike_id":"80d93a46-4f3e-40e1-a96b-e73af299f6b6","system_id":"levelo_inurba_marseille","lat":43.29509,"lon":5.38532,"is_reserved":false,"is_disabled":false,"rental_uris":{"android":"levelo://app?vid=80d93a46-4f3e-40e1-a96b-e73af299f6b6","ios":"levelo://app?vid=80d93a46-4f3e-40e1-a96b-e73af299f6b6"},"vehicle_type_id":"4","last_reported":1745615376,"current_range_meters":6400,"station_id":"ce4bgih2rcd13ifvqba0","pricing_plan_id":"cebpf4jnsgd1na2vs0mg"},{"bike_id":"52cb41a7-5096-4f42-a09a-abce4785d5e2","system_id":"levelo_inurba_marseille","lat":43.27077,"lon":5.42278,"is_reserved":false,"is_disabled":true,"rental_uris":{"android":"levelo://app?vid=52cb41a7-5096-4f42-a09a-abce4785d5e2","ios":"levelo://app?vid=52cb41a7-5096-4f42-a09a-abce4785d5e2"},"vehicle_type_id":"4","last_reported":1745615376,"current_range_meters":6400,"station_id":"ce4bhk92rcd13ifvqgb0","pricing_plan_id":"cebpf4jnsgd1na2vs0mg"},{"bike_id":"ecdd0875-7d56-4cd2-a14a-671f78e26c97","system_id":"levelo_inurba_marseille","lat":43.23068,"lon":5.35511,"is_reserved":false,"is_disabled":false,"rental_uris":{"android":"levelo://app?vid=ecdd0875-7d56-4cd2-a14a-671f78e26c97","ios":"levelo://app?vid=ecdd0875-7d56-4cd2-a14a-671f78e26c97"},"vehicle_type_id":"4","last_reported":1745615376,"current_range_meters":6800,"station_id":"cpo3342slgdg3j2ifvpg","pricing_plan_id":"cebpf4jnsgd1na2vs0mg"},{"bike_id":"4bf0cade-afa0-4731-b40e-ef3f8f4a4fe5","system_id":"levelo_inurba_marseille","lat":43.30083,"lon":5.39122,"is_reserved":false,"is_disabled":true,"rental_uris":{"android":"levelo://app?vid=4bf0cade-afa0-4731-b40e-ef3f8f4a4fe5","ios":"levelo://app?vid=4bf0cade-afa0-4731-b40e-ef3f8f4a4fe5"},"vehicle_type_id":"4","last_reported":1745615376,"current_range_meters":6800,"station_id":"ce4bh192rcd13ifvqdb0","pricing_plan_id":"cebpf4jnsgd1na2vs0mg"},{"bike_id":"aac361da-6c58-45db-a140-2947e8dbce74","system_id":"levelo_inurba_marseille","lat":43.30329,"lon":5.40427,"is_reserved":false,"is_disabled":false,"rental_uris":{"android":"levelo://app?vid=aac361da-6c58-45db-a140-2947e8dbce74","ios":"levelo://app?vid=aac361da-6c58-45db-a140-2947e8dbce74"},"vehicle_type_id":"4","last_reported":1745615376,"current_range_meters":6800,"station_id":"ce4bh012rcd13ifvqd10","pricing_plan_id":"cebpf4jnsgd1na2vs0mg"},{"bike_id":"185ea38f-9f5e-4f80-9a28-ea11ae3260c6","system_id":"levelo_inurba_marseille","lat":43.30639,"lon":5.40081,"is_reserved":false,"is_disabled":false,"rental_uris":{"android":"levelo://app?vid=185ea38f-9f5e-4f80-9a28-ea11ae3260c6","ios":"levelo://app?vid=185ea38f-9f5e-4f80-9a28-ea11ae3260c6"},"vehicle_type_id":"4","last_reported":1745615376,"current_range_meters":7200,"station_id":"ce4bh112rcd13ifvqda0","pricing_plan_id":"cebpf4jnsgd1na2vs0mg"},{"bike_id":"ab49b0ae-90ee-4214-bbd8-e0867a6763e8","system_id":"levelo_inurba_marseille","lat":43.31255,"lon":5.37167,"is_reserved":false,"is_disabled":true,"rental_uris":{"android":"levelo://app?vid=ab49b0ae-90ee-4214-bbd8-e0867a6763e8","ios":"levelo://app?vid=ab49b0ae-90ee-4214-bbd8-e0867a6763e8"},"vehicle_type_id":"4","last_reported":1745615376,"current_range_meters":7200,"station_id":"","pricing_plan_id":"cebpf4jnsgd1na2vs0mg"},{"bike_id":"f1a9f5db-d774-4f36-a0be-69b289d14fd1","system_id":"levelo_inurba_marseille","lat":43.2119,"lon":5.35074,"is_reserved":false,"is_disabled":false,"rental_uris":{"android":"levelo://app?vid=f1a9f5db-d774-4f36-a0be-69b289d14fd1","ios":"levelo://app?vid=f1a9f5db-d774-4f36-a0be-69b289d14fd1"},"vehicle_type_id":"4","last_reported":1745615376,"current_range_meters":7200,"station_id":"st_cvj6sg6p6f1abm77japg","pricing_plan_id":"cebpf4jnsgd1na2vs0mg"},{"bike_id":"a449cc86-0dd4-4f62-9635-7cf0aec298dd","system_id":"levelo_inurba_marseille","lat":43.33605,"lon":5.41023,"is_reserved":false,"is_disabled":false,"rental_uris":{"android":"levelo://app?vid=a449cc86-0dd4-4f62-9635-7cf0aec298dd","ios":"levelo://app?vid=a449cc86-0dd4-4f62-9635-7cf0aec298dd"},"vehicle_type_id":"4","last_reported":1745615376,"current_range_meters":7200,"station_id":"ce4bhqh2rcd13ifvqhmg","pricing_plan_id":"cebpf4jnsgd1na2vs0mg"},{"bike_id":"a76c859c-79cf-457f-be36-cafd85979277","system_id":"levelo_inurba_marseille","lat":43.30385,"lon":5.39718,"is_reserved":false,"is_disabled":false,"rental_uris":{"android":"levelo://app?vid=a76c859c-79cf-457f-be36-cafd85979277","ios":"levelo://app?vid=a76c859c-79cf-457f-be36-cafd85979277"},"vehicle_type_id":"4","last_reported":1745615376,"current_range_meters":7200,"station_id":"ce4bh092rcd13ifvqd20","pricing_plan_id":"cebpf4jnsgd1na2vs0mg"},{"bike_id":"3767ba54-0ee2-464a-8805-d28bad95405b","system_id":"levelo_inurba_marseille","lat":43.25952,"lon":5.37539,"is_reserved":false,"is_disabled":false,"rental_uris":{"android":"levelo://app?vid=3767ba54-0ee2-464a-8805-d28bad95405b","ios":"levelo://app?vid=3767ba54-0ee2-464a-8805-d28bad95405b"},"vehicle_type_id":"4","last_reported":1745615376,"current_range_meters":7200,"station_id":"","pricing_plan_id":"cebpf4jnsgd1na2vs0mg"},{"bike_id":"ab884e9e-f9a0-4cbc-b0e7-92d66052822e","system_id":"levelo_inurba_marseille","lat":43.31199,"lon":5.38665,"is_reserved":false,"is_disabled":false,"rental_uris":{"android":"levelo://app?vid=ab884e9e-f9a0-4cbc-b0e7-92d66052822e","ios":"levelo://app?vid=ab884e9e-f9a0-4cbc-b0e7-92d66052822e"},"vehicle_type_id":"4","last_reported":1745615376,"current_range_meters":8000,"station_id":"ce4bgv12rcd13ifvqcp0","pricing_plan_id":"cebpf4jnsgd1na2vs0mg"},{"bike_id":"93ca3983-7787-4495-91c9-8df0930ab1f5","system_id":"levelo_inurba_marseille","lat":43.25582,"lon":5.38231,"is_reserved":false,"is_disabled":false,"rental_uris":{"android":"levelo://app?vid=93ca3983-7787-4495-91c9-8df0930ab1f5","ios":"levelo://app?vid=93ca3983-7787-4495-91c9-8df0930ab1f5"},"vehicle_type_id":"4","last_reported":1745615376,"current_range_meters":8000,"station_id":"ce4bhih2rcd13ifvqfs0","pricing_plan_id":"cebpf4jnsgd1na2vs0mg"},{"bike_id":"3e2c87e8-bc82-4fa4-b4ee-0e8c4aa7385a","system_id":"levelo_inurba_marseille","lat":43.25503,"lon":5.37652,"is_reserved":false,"is_disabled":false,"rental_uris":{"android":"levelo://app?vid=3e2c87e8-bc82-4fa4-b4ee-0e8c4aa7385a","ios":"levelo://app?vid=3e2c87e8-bc82-4fa4-b4ee-0e8c4aa7385a"},"vehicle_type_id":"4","last_reported":1745615376,"current_range_meters":8000,"station_id":"ce4bhh12rcd13ifvqff0","pricing_plan_id":"cebpf4jnsgd1na2vs0mg"},{"bike_id":"9f1040cd-edf8-4e06-90fc-b9e8395f267c","system_id":"levelo_inurba_marseille","lat":43.25191,"lon":5.40276,"is_reserved":false,"is_disabled":false,"rental_uris":{"android":"levelo://app?vid=9f1040cd-edf8-4e06-90fc-b9e8395f267c","ios":"levelo://app?vid=9f1040cd-edf8-4e06-90fc-b9e8395f267c"},"vehicle_type_id":"4","last_reported":1745615376,"current_range_meters":8000,"station_id":"ce4bhlh2rcd13ifvqgig","pricing_plan_id":"cebpf4jnsgd1na2vs0mg"},{"bike_id":"c1ccd199-3bfe-4293-a4cb-6829c97c125f","system_id":"levelo_inurba_marseille","lat":43.32415,"lon":5.39097,"is_reserved":false,"is_disabled":false,"rental_uris":{"android":"levelo://app?vid=c1ccd199-3bfe-4293-a4cb-6829c97c125f","ios":"levelo://app?vid=c1ccd199-3bfe-4293-a4cb-6829c97c125f"},"vehicle_type_id":"4","last_reported":1745615376,"current_range_meters":8000,"station_id":"","pricing_plan_id":"cebpf4jnsgd1na2vs0mg"},{"bike_id":"92d50eb0-ca83-4825-9882-14249081fc12","system_id":"levelo_inurba_marseille","lat":43.2871,"lon":5.3795,"is_reserved":false,"is_disabled":false,"rental_uris":{"android":"levelo://app?vid=92d50eb0-ca83-4825-9882-14249081fc12","ios":"levelo://app?vid=92d50eb0-ca83-4825-9882-14249081fc12"},"vehicle_type_id":"4","last_reported":1745615376,"current_range_meters":8000,"station_id":"ce4bh9p2rcd13ifvqec0","pricing_plan_id":"cebpf4jnsgd1na2vs0mg"},{"bike_id":"387d2741-82f7-483c-ac27-9191728ce3ac","system_id":"levelo_inurba_marseille","lat":43.2954,"lon":5.38543,"is_reserved":false,"is_disabled":false,"rental_uris":{"android":"levelo://app?vid=387d2741-82f7-483c-ac27-9191728ce3ac","ios":"levelo://app?vid=387d2741-82f7-483c-ac27-9191728ce3ac"},"vehicle_type_id":"4","last_reported":1745615376,"current_range_meters":8000,"station_id":"ce4bgih2rcd13ifvqba0","pricing_plan_id":"cebpf4jnsgd1na2vs0mg"},{"bike_id":"19d04241-c154-4a53-abe9-5d3c18a30b19","system_id":"levelo_inurba_marseille","lat":43.28696,"lon":5.39987,"is_reserved":false,"is_disabled":false,"rental_uris":{"android":"levelo://app?vid=19d04241-c154-4a53-abe9-5d3c18a30b19","ios":"levelo://app?vid=19d04241-c154-4a53-abe9-5d3c18a30b19"},"vehicle_type_id":"4","last_reported":1745615376,"current_range_meters":8000,"station_id":"ce4bho92rcd13ifvqh3g","pricing_plan_id":"cebpf4jnsgd1na2vs0mg"},{"bike_id":"c8d550fb-3c02-4c59-9563-81dd5abbd4aa","system_id":"levelo_inurba_marseille","lat":43.30258,"lon":5.4008,"is_reserved":false,"is_disabled":false,"rental_uris":{"android":"levelo://app?vid=c8d550fb-3c02-4c59-9563-81dd5abbd4aa","ios":"levelo://app?vid=c8d550fb-3c02-4c59-9563-81dd5abbd4aa"},"vehicle_type_id":"4","last_reported":1745615376,"current_range_meters":8000,"station_id":"ce4bgvh2rcd13ifvqcs0","pricing_plan_id":"cebpf4jnsgd1na2vs0mg"},{"bike_id":"bb6519b1-1022-404d-ad31-d02d7cd52c97","system_id":"levelo_inurba_marseille","lat":43.2885,"lon":5.39321,"is_reserved":false,"is_disabled":false,"rental_uris":{"android":"levelo://app?vid=bb6519b1-1022-404d-ad31-d02d7cd52c97","ios":"levelo://app?vid=bb6519b1-1022-404d-ad31-d02d7cd52c97"},"vehicle_type_id":"4","last_reported":1745615376,"current_range_meters":8000,"station_id":"ce4bh2p2rcd13ifvqdi0","pricing_plan_id":"cebpf4jnsgd1na2vs0mg"},{"bike_id":"1746265e-27ad-4913-8a06-b6dc5372d844","system_id":"levelo_inurba_marseille","lat":43.26055,"lon":5.37499,"is_reserved":false,"is_disabled":false,"rental_uris":{"android":"levelo://app?vid=1746265e-27ad-4913-8a06-b6dc5372d844","ios":"levelo://app?vid=1746265e-27ad-4913-8a06-b6dc5372d844"},"vehicle_type_id":"4","last_reported":1745615376,"current_range_meters":8400,"station_id":"","pricing_plan_id":"cebpf4jnsgd1na2vs0mg"},{"bike_id":"aed3c174-b621-4299-957d-2379aa978468","system_id":"levelo_inurba_marseille","lat":43.31488,"lon":5.3731,"is_reserved":false,"is_disabled":false,"rental_uris":{"android":"levelo://app?vid=aed3c174-b621-4299-957d-2379aa978468","ios":"levelo://app?vid=aed3c174-b621-4299-957d-2379aa978468"},"vehicle_type_id":"4","last_reported":1745615376,"current_range_meters":8400,"station_id":"ce4bgt12rcd13ifvqcd0","pricing_plan_id":"cebpf4jnsgd1na2vs0mg"},{"bike_id":"712faf1a-d477-445f-a6d0-ce8feb518892","system_id":"levelo_inurba_marseille","lat":43.26685,"lon":5.3827,"is_reserved":false,"is_disabled":false,"rental_uris":{"android":"levelo://app?vid=712faf1a-d477-445f-a6d0-ce8feb518892","ios":"levelo://app?vid=712faf1a-d477-445f-a6d0-ce8feb518892"},"vehicle_type_id":"4","last_reported":1745615376,"current_range_meters":8400,"station_id":"ce4bhg92rcd13ifvqf90","pricing_plan_id":"cebpf4jnsgd1na2vs0mg"},{"bike_id":"bb2972b1-6dee-4f34-8d07-8311e9a312d7","system_id":"levelo_inurba_marseille","lat":43.262928,"lon":5.37599,"is_reserved":false,"is_disabled":false,"rental_uris":{"android":"levelo://app?vid=bb2972b1-6dee-4f34-8d07-8311e9a312d7","ios":"levelo://app?vid=bb2972b1-6dee-4f34-8d07-8311e9a312d7"},"vehicle_type_id":"4","last_reported":1745615376,"current_range_meters":8400,"station_id":"ce4bho92rcd13ifvqh4g","pricing_plan_id":"cebpf4jnsgd1na2vs0mg"},{"bike_id":"11892210-b2a1-4212-9103-769a3c7c750f","system_id":"levelo_inurba_marseille","lat":43.29642,"lon":5.38129,"is_reserved":false,"is_disabled":false,"rental_uris":{"android":"levelo://app?vid=11892210-b2a1-4212-9103-769a3c7c750f","ios":"levelo://app?vid=11892210-b2a1-4212-9103-769a3c7c750f"},"vehicle_type_id":"4","last_reported":1745615376,"current_range_meters":8400,"station_id":"ce4bgl12rcd13ifvqbo0","pricing_plan_id":"cebpf4jnsgd1na2vs0mg"},{"bike_id":"3801de3f-1722-4ac3-951d-b4b27bd0395c","system_id":"levelo_inurba_marseille","lat":43.34037,"lon":5.37499,"is_reserved":false,"is_disabled":false,"rental_uris":{"android":"levelo://app?vid=3801de3f-1722-4ac3-951d-b4b27bd0395c","ios":"levelo://app?vid=3801de3f-1722-4ac3-951d-b4b27bd0395c"},"vehicle_type_id":"4","last_reported":1745615376,"current_range_meters":8400,"station_id":"","pricing_plan_id":"cebpf4jnsgd1na2vs0mg"},{"bike_id":"264dda48-3dc1-4dff-8146-fbbbc4ebf68c","system_id":"levelo_inurba_marseille","lat":43.30547,"lon":5.36522,"is_reserved":false,"is_disabled":false,"rental_uris":{"android":"levelo://app?vid=264dda48-3dc1-4dff-8146-fbbbc4ebf68c","ios":"levelo://app?vid=264dda48-3dc1-4dff-8146-fbbbc4ebf68c"},"vehicle_type_id":"4","last_reported":1745615376,"current_range_meters":8400,"station_id":"ce4bgs12rcd13ifvqcag","pricing_plan_id":"cebpf4jnsgd1na2vs0mg"},{"bike_id":"228b6590-42c7-46eb-ab0f-678013f0a9d1","system_id":"levelo_inurba_marseille","lat":43.24835,"lon":5.3744,"is_reserved":false,"is_disabled":true,"rental_uris":{"android":"levelo://app?vid=228b6590-42c7-46eb-ab0f-678013f0a9d1","ios":"levelo://app?vid=228b6590-42c7-46eb-ab0f-678013f0a9d1"},"vehicle_type_id":"4","last_reported":1745615376,"current_range_meters":8400,"station_id":"ce4bhgh2rcd13ifvqfb0","pricing_plan_id":"cebpf4jnsgd1na2vs0mg"},{"bike_id":"1067722b-d6db-4c55-8369-2e6364d027f8","system_id":"levelo_inurba_marseille","lat":43.28845,"lon":5.393,"is_reserved":false,"is_disabled":false,"rental_uris":{"android":"levelo://app?vid=1067722b-d6db-4c55-8369-2e6364d027f8","ios":"levelo://app?vid=1067722b-d6db-4c55-8369-2e6364d027f8"},"vehicle_type_id":"4","last_reported":1745615376,"current_range_meters":8400,"station_id":"ce4bh2p2rcd13ifvqdi0","pricing_plan_id":"cebpf4jnsgd1na2vs0mg"},{"bike_id":"395abf18-9f0d-497d-905f-64ab258fc1ed","system_id":"levelo_inurba_marseille","lat":43.30324,"lon":5.36914,"is_reserved":false,"is_disabled":false,"rental_uris":{"android":"levelo://app?vid=395abf18-9f0d-497d-905f-64ab258fc1ed","ios":"levelo://app?vid=395abf18-9f0d-497d-905f-64ab258fc1ed"},"vehicle_type_id":"4","last_reported":1745615376,"current_range_meters":8400,"station_id":"ce4bgqh2rcd13ifvqc5g","pricing_plan_id":"cebpf4jnsgd1na2vs0mg"},{"bike_id":"7dcb619d-2963-471b-9ac5-be8d08506e43","system_id":"levelo_inurba_marseille","lat":43.30432,"lon":5.38892,"is_reserved":false,"is_disabled":false,"rental_uris":{"android":"levelo://app?vid=7dcb619d-2963-471b-9ac5-be8d08506e43","ios":"levelo://app?vid=7dcb619d-2963-471b-9ac5-be8d08506e43"},"vehicle_type_id":"4","last_reported":1745615376,"current_range_meters":8800,"station_id":"ce4bgk12rcd13ifvqbi0","pricing_plan_id":"cebpf4jnsgd1na2vs0mg"},{"bike_id":"003b986b-9315-45ea-b46e-cb16bf3eee72","system_id":"levelo_inurba_marseille","lat":43.29538,"lon":5.38549,"is_reserved":false,"is_disabled":false,"rental_uris":{"android":"levelo://app?vid=003b986b-9315-45ea-b46e-cb16bf3eee72","ios":"levelo://app?vid=003b986b-9315-45ea-b46e-cb16bf3eee72"},"vehicle_type_id":"4","last_reported":1745615376,"current_range_meters":8800,"station_id":"ce4bgih2rcd13ifvqba0","pricing_plan_id":"cebpf4jnsgd1na2vs0mg"},{"bike_id":"a5826db2-d709-4fbc-b54d-38f43824cce2","system_id":"levelo_inurba_marseille","lat":43.27986,"lon":5.3566,"is_reserved":false,"is_disabled":false,"rental_uris":{"android":"levelo://app?vid=a5826db2-d709-4fbc-b54d-38f43824cce2","ios":"levelo://app?vid=a5826db2-d709-4fbc-b54d-38f43824cce2"},"vehicle_type_id":"4","last_reported":1745615376,"current_range_meters":8800,"station_id":"","pricing_plan_id":"cebpf4jnsgd1na2vs0mg"},{"bike_id":"468efc85-f58c-4e88-be7c-c3c9e55bbb3c","system_id":"levelo_inurba_marseille","lat":43.29423,"lon":5.38599,"is_reserved":false,"is_disabled":false,"rental_uris":{"android":"levelo://app?vid=468efc85-f58c-4e88-be7c-c3c9e55bbb3c","ios":"levelo://app?vid=468efc85-f58c-4e88-be7c-c3c9e55bbb3c"},"vehicle_type_id":"4","last_reported":1745615376,"current_range_meters":8800,"station_id":"ce4bh2h2rcd13ifvqdh0","pricing_plan_id":"cebpf4jnsgd1na2vs0mg"},{"bike_id":"cc49d7df-7ac8-4737-8445-c197f979bd4d","system_id":"levelo_inurba_marseille","lat":43.28674,"lon":5.3583,"is_reserved":false,"is_disabled":true,"rental_uris":{"android":"levelo://app?vid=cc49d7df-7ac8-4737-8445-c197f979bd4d","ios":"levelo://app?vid=cc49d7df-7ac8-4737-8445-c197f979bd4d"},"vehicle_type_id":"4","last_reported":1745615376,"current_range_meters":8800,"station_id":"","pricing_plan_id":"cebpf4jnsgd1na2vs0mg"},{"bike_id":"f53ca2be-5e14-4232-a442-dc2e98de0bb7","system_id":"levelo_inurba_marseille","lat":43.27308,"lon":5.391,"is_reserved":false,"is_disabled":true,"rental_uris":{"android":"levelo://app?vid=f53ca2be-5e14-4232-a442-dc2e98de0bb7","ios":"levelo://app?vid=f53ca2be-5e14-4232-a442-dc2e98de0bb7"},"vehicle_type_id":"4","last_reported":1745615376,"current_range_meters":8800,"station_id":"ce4bhgp2rcd13ifvqfe0","pricing_plan_id":"cebpf4jnsgd1na2vs0mg"},{"bike_id":"d29d99d2-8c34-447d-9ac5-9ffd1b17febf","system_id":"levelo_inurba_marseille","lat":43.23194,"lon":5.39966,"is_reserved":false,"is_disabled":false,"rental_uris":{"android":"levelo://app?vid=d29d99d2-8c34-447d-9ac5-9ffd1b17febf","ios":"levelo://app?vid=d29d99d2-8c34-447d-9ac5-9ffd1b17febf"},"vehicle_type_id":"4","last_reported":1745615376,"current_range_meters":9200,"station_id":"ce4bhn12rcd13ifvqgqg","pricing_plan_id":"cebpf4jnsgd1na2vs0mg"},{"bike_id":"dbe58fa4-fb79-48d8-81d2-9780581db0f3","system_id":"levelo_inurba_marseille","lat":43.31135,"lon":5.37734,"is_reserved":false,"is_disabled":false,"rental_uris":{"android":"levelo://app?vid=dbe58fa4-fb79-48d8-81d2-9780581db0f3","ios":"levelo://app?vid=dbe58fa4-fb79-48d8-81d2-9780581db0f3"},"vehicle_type_id":"4","last_reported":1745615376,"current_range_meters":9200,"station_id":"ce4bgt92rcd13ifvqcg0","pricing_plan_id":"cebpf4jnsgd1na2vs0mg"},{"bike_id":"e5519d8b-d039-489a-a326-2b54665854c5","system_id":"levelo_inurba_marseille","lat":43.27909,"lon":5.38016,"is_reserved":false,"is_disabled":false,"rental_uris":{"android":"levelo://app?vid=e5519d8b-d039-489a-a326-2b54665854c5","ios":"levelo://app?vid=e5519d8b-d039-489a-a326-2b54665854c5"},"vehicle_type_id":"4","last_reported":1745615376,"current_range_meters":9200,"station_id":"ce4bhf92rcd13ifvqf50","pricing_plan_id":"cebpf4jnsgd1na2vs0mg"},{"bike_id":"2342c4c2-2f95-467d-a8c5-90bfb52c13cf","system_id":"levelo_inurba_marseille","lat":43.30947,"lon":5.390678,"is_reserved":false,"is_disabled":false,"rental_uris":{"android":"levelo://app?vid=2342c4c2-2f95-467d-a8c5-90bfb52c13cf","ios":"levelo://app?vid=2342c4c2-2f95-467d-a8c5-90bfb52c13cf"},"vehicle_type_id":"4","last_reported":1745615376,"current_range_meters":9200,"station_id":"ce4bgup2rcd13ifvqco0","pricing_plan_id":"cebpf4jnsgd1na2vs0mg"},{"bike_id":"e35510b2-d7c9-4087-9551-45e511b3c5d1","system_id":"levelo_inurba_marseille","lat":43.29393,"lon":5.38638,"is_reserved":false,"is_disabled":false,"rental_uris":{"android":"levelo://app?vid=e35510b2-d7c9-4087-9551-45e511b3c5d1","ios":"levelo://app?vid=e35510b2-d7c9-4087-9551-45e511b3c5d1"},"vehicle_type_id":"4","last_reported":1745615376,"current_range_meters":9200,"station_id":"ce4bh2h2rcd13ifvqdh0","pricing_plan_id":"cebpf4jnsgd1na2vs0mg"},{"bike_id":"fec9ef7e-19d6-497a-9043-03ee8ee4a4a5","system_id":"levelo_inurba_marseille","lat":43.24081,"lon":5.37755,"is_reserved":false,"is_disabled":false,"rental_uris":{"android":"levelo://app?vid=fec9ef7e-19d6-497a-9043-03ee8ee4a4a5","ios":"levelo://app?vid=fec9ef7e-19d6-497a-9043-03ee8ee4a4a5"},"vehicle_type_id":"4","last_reported":1745615376,"current_range_meters":9600,"station_id":"ce4bhnp2rcd13ifvqgvg","pricing_plan_id":"cebpf4jnsgd1na2vs0mg"},{"bike_id":"64be0451-6d81-4ce0-ba58-a07dc7ca3657","system_id":"levelo_inurba_marseille","lat":43.2582,"lon":5.39436,"is_reserved":false,"is_disabled":false,"rental_uris":{"android":"levelo://app?vid=64be0451-6d81-4ce0-ba58-a07dc7ca3657","ios":"levelo://app?vid=64be0451-6d81-4ce0-ba58-a07dc7ca3657"},"vehicle_type_id":"4","last_reported":1745615376,"current_range_meters":9600,"station_id":"ce4bhip2rcd13ifvqft0","pricing_plan_id":"cebpf4jnsgd1na2vs0mg"},{"bike_id":"d3c936f6-240a-43d3-a5ae-1e650770fba5","system_id":"levelo_inurba_marseille","lat":43.26676,"lon":5.38235,"is_reserved":false,"is_disabled":false,"rental_uris":{"android":"levelo://app?vid=d3c936f6-240a-43d3-a5ae-1e650770fba5","ios":"levelo://app?vid=d3c936f6-240a-43d3-a5ae-1e650770fba5"},"vehicle_type_id":"4","last_reported":1745615376,"current_range_meters":9600,"station_id":"ce4bhg92rcd13ifvqf90","pricing_plan_id":"cebpf4jnsgd1na2vs0mg"},{"bike_id":"2b6ed1fe-1910-461f-a930-ed5c5edb149a","system_id":"levelo_inurba_marseille","lat":43.29911,"lon":5.37473,"is_reserved":false,"is_disabled":false,"rental_uris":{"android":"levelo://app?vid=2b6ed1fe-1910-461f-a930-ed5c5edb149a","ios":"levelo://app?vid=2b6ed1fe-1910-461f-a930-ed5c5edb149a"},"vehicle_type_id":"4","last_reported":1745615376,"current_range_meters":9600,"station_id":"ce4bgjh2rcd13ifvqbg0","pricing_plan_id":"cebpf4jnsgd1na2vs0mg"},{"bike_id":"709e02e2-078d-4d92-83a4-493a50e84c31","system_id":"levelo_inurba_marseille","lat":43.24665,"lon":5.38162,"is_reserved":false,"is_disabled":false,"rental_uris":{"android":"levelo://app?vid=709e02e2-078d-4d92-83a4-493a50e84c31","ios":"levelo://app?vid=709e02e2-078d-4d92-83a4-493a50e84c31"},"vehicle_type_id":"4","last_reported":1745615376,"current_range_meters":9600,"station_id":"ce4bhih2rcd13ifvqfr0","pricing_plan_id":"cebpf4jnsgd1na2vs0mg"},{"bike_id":"5cdc4307-0ecf-40ba-87c7-2c7940e2e054","system_id":"levelo_inurba_marseille","lat":43.30543,"lon":5.36504,"is_reserved":false,"is_disabled":false,"rental_uris":{"android":"levelo://app?vid=5cdc4307-0ecf-40ba-87c7-2c7940e2e054","ios":"levelo://app?vid=5cdc4307-0ecf-40ba-87c7-2c7940e2e054"},"vehicle_type_id":"4","last_reported":1745615376,"current_range_meters":9600,"station_id":"","pricing_plan_id":"cebpf4jnsgd1na2vs0mg"},{"bike_id":"dceec8ca-6c2d-4af9-91fa-ec9ec02048d8","system_id":"levelo_inurba_marseille","lat":43.29511,"lon":5.38533,"is_reserved":false,"is_disabled":false,"rental_uris":{"android":"levelo://app?vid=dceec8ca-6c2d-4af9-91fa-ec9ec02048d8","ios":"levelo://app?vid=dceec8ca-6c2d-4af9-91fa-ec9ec02048d8"},"vehicle_type_id":"4","last_reported":1745615376,"current_range_meters":9600,"station_id":"ce4bgih2rcd13ifvqba0","pricing_plan_id":"cebpf4jnsgd1na2vs0mg"},{"bike_id":"5c8dde23-03af-4ec7-8c64-b6a7b95cfa5a","system_id":"levelo_inurba_marseille","lat":43.33727,"lon":5.39185,"is_reserved":false,"is_disabled":false,"rental_uris":{"android":"levelo://app?vid=5c8dde23-03af-4ec7-8c64-b6a7b95cfa5a","ios":"levelo://app?vid=5c8dde23-03af-4ec7-8c64-b6a7b95cfa5a"},"vehicle_type_id":"4","last_reported":1745615376,"current_range_meters":9600,"station_id":"ce4bhr92rcd13ifvqhsg","pricing_plan_id":"cebpf4jnsgd1na2vs0mg"},{"bike_id":"2e7896eb-d7df-4e26-bca6-a4fcdf87bde7","system_id":"levelo_inurba_marseille","lat":43.308084,"lon":5.388179,"is_reserved":false,"is_disabled":false,"rental_uris":{"android":"levelo://app?vid=2e7896eb-d7df-4e26-bca6-a4fcdf87bde7","ios":"levelo://app?vid=2e7896eb-d7df-4e26-bca6-a4fcdf87bde7"},"vehicle_type_id":"4","last_reported":1745615376,"current_range_meters":9600,"station_id":"ce4bgv12rcd13ifvqcp0","pricing_plan_id":"cebpf4jnsgd1na2vs0mg"},{"bike_id":"e55b7fd1-db0d-4417-a85a-eee1595f4095","system_id":"levelo_inurba_marseille","lat":43.2795,"lon":5.4105,"is_reserved":false,"is_disabled":false,"rental_uris":{"android":"levelo://app?vid=e55b7fd1-db0d-4417-a85a-eee1595f4095","ios":"levelo://app?vid=e55b7fd1-db0d-4417-a85a-eee1595f4095"},"vehicle_type_id":"4","last_reported":1745615376,"current_range_meters":9600,"station_id":"ce4bhnp2rcd13ifvqh0g","pricing_plan_id":"cebpf4jnsgd1na2vs0mg"},{"bike_id":"9b90d9a5-e713-4a22-995e-8990a058607c","system_id":"levelo_inurba_marseille","lat":43.28939,"lon":5.36638,"is_reserved":false,"is_disabled":false,"rental_uris":{"android":"levelo://app?vid=9b90d9a5-e713-4a22-995e-8990a058607c","ios":"levelo://app?vid=9b90d9a5-e713-4a22-995e-8990a058607c"},"vehicle_type_id":"4","last_reported":1745615376,"current_range_meters":10000,"station_id":"ce4bhap2rcd13ifvqek0","pricing_plan_id":"cebpf4jnsgd1na2vs0mg"},{"bike_id":"51376682-930e-45ed-90e0-b53d931ddc33","system_id":"levelo_inurba_marseille","lat":43.27495,"lon":5.42459,"is_reserved":false,"is_disabled":false,"rental_uris":{"android":"levelo://app?vid=51376682-930e-45ed-90e0-b53d931ddc33","ios":"levelo://app?vid=51376682-930e-45ed-90e0-b53d931ddc33"},"vehicle_type_id":"4","last_reported":1745615376,"current_range_meters":10000,"station_id":"ce4bhn92rcd13ifvqgrg","pricing_plan_id":"cebpf4jnsgd1na2vs0mg"},{"bike_id":"78c7f484-570c-4dec-877d-06e748e2a726","system_id":"levelo_inurba_marseille","lat":43.29801,"lon":5.38096,"is_reserved":false,"is_disabled":true,"rental_uris":{"android":"levelo://app?vid=78c7f484-570c-4dec-877d-06e748e2a726","ios":"levelo://app?vid=78c7f484-570c-4dec-877d-06e748e2a726"},"vehicle_type_id":"4","last_reported":1745615376,"current_range_meters":10000,"station_id":"ce4bgip2rcd13ifvqbb0","pricing_plan_id":"cebpf4jnsgd1na2vs0mg"},{"bike_id":"fa72b649-3018-4187-96fe-d31c0b11e0f8","system_id":"levelo_inurba_marseille","lat":43.29709,"lon":5.37094,"is_reserved":false,"is_disabled":false,"rental_uris":{"android":"levelo://app?vid=fa72b649-3018-4187-96fe-d31c0b11e0f8","ios":"levelo://app?vid=fa72b649-3018-4187-96fe-d31c0b11e0f8"},"vehicle_type_id":"4","last_reported":1745615376,"current_range_meters":10000,"station_id":"","pricing_plan_id":"cebpf4jnsgd1na2vs0mg"},{"bike_id":"bbd945e9-05a7-476e-afda-7a684f68c239","system_id":"levelo_inurba_marseille","lat":43.29437,"lon":5.38609,"is_reserved":false,"is_disabled":false,"rental_uris":{"android":"levelo://app?vid=bbd945e9-05a7-476e-afda-7a684f68c239","ios":"levelo://app?vid=bbd945e9-05a7-476e-afda-7a684f68c239"},"vehicle_type_id":"4","last_reported":1745615376,"current_range_meters":10000,"station_id":"ce4bh2h2rcd13ifvqdh0","pricing_plan_id":"cebpf4jnsgd1na2vs0mg"},{"bike_id":"8cd50c55-e0cf-40e0-84f8-b74dc08cc852","system_id":"levelo_inurba_marseille","lat":43.2951,"lon":5.38546,"is_reserved":false,"is_disabled":false,"rental_uris":{"android":"levelo://app?vid=8cd50c55-e0cf-40e0-84f8-b74dc08cc852","ios":"levelo://app?vid=8cd50c55-e0cf-40e0-84f8-b74dc08cc852"},"vehicle_type_id":"4","last_reported":1745615376,"current_range_meters":10000,"station_id":"ce4bgih2rcd13ifvqba0","pricing_plan_id":"cebpf4jnsgd1na2vs0mg"},{"bike_id":"edbc9bff-8242-42ee-887f-3b5d28f3a582","system_id":"levelo_inurba_marseille","lat":43.2938,"lon":5.37853,"is_reserved":false,"is_disabled":true,"rental_uris":{"android":"levelo://app?vid=edbc9bff-8242-42ee-887f-3b5d28f3a582","ios":"levelo://app?vid=edbc9bff-8242-42ee-887f-3b5d28f3a582"},"vehicle_type_id":"4","last_reported":1745615376,"current_range_meters":10000,"station_id":"ce4bgjh2rcd13ifvqbf0","pricing_plan_id":"cebpf4jnsgd1na2vs0mg"},{"bike_id":"5ad1bb7e-58d4-42e0-907c-0986a1e05dc6","system_id":"levelo_inurba_marseille","lat":43.24545,"lon":5.39522,"is_reserved":false,"is_disabled":false,"rental_uris":{"android":"levelo://app?vid=5ad1bb7e-58d4-42e0-907c-0986a1e05dc6","ios":"levelo://app?vid=5ad1bb7e-58d4-42e0-907c-0986a1e05dc6"},"vehicle_type_id":"4","last_reported":1745615376,"current_range_meters":10000,"station_id":"ce4bhlp2rcd13ifvqgjg","pricing_plan_id":"cebpf4jnsgd1na2vs0mg"},{"bike_id":"41dc6fea-84c2-423c-84a7-b98c6055b118","system_id":"levelo_inurba_marseille","lat":43.33299,"lon":5.39641,"is_reserved":false,"is_disabled":false,"rental_uris":{"android":"levelo://app?vid=41dc6fea-84c2-423c-84a7-b98c6055b118","ios":"levelo://app?vid=41dc6fea-84c2-423c-84a7-b98c6055b118"},"vehicle_type_id":"4","last_reported":1745615376,"current_range_meters":10000,"station_id":"","pricing_plan_id":"cebpf4jnsgd1na2vs0mg"},{"bike_id":"dc01f0b5-b1ff-492a-9187-c2aa24895f43","system_id":"levelo_inurba_marseille","lat":43.23167,"lon":5.39985,"is_reserved":false,"is_disabled":false,"rental_uris":{"android":"levelo://app?vid=dc01f0b5-b1ff-492a-9187-c2aa24895f43","ios":"levelo://app?vid=dc01f0b5-b1ff-492a-9187-c2aa24895f43"},"vehicle_type_id":"4","last_reported":1745615376,"current_range_meters":10000,"station_id":"ce4bhn12rcd13ifvqgqg","pricing_plan_id":"cebpf4jnsgd1na2vs0mg"},{"bike_id":"6fceb61f-6ad9-421a-9a52-ac0d6e5393d2","system_id":"levelo_inurba_marseille","lat":43.28506,"lon":5.38418,"is_reserved":false,"is_disabled":false,"rental_uris":{"android":"levelo://app?vid=6fceb61f-6ad9-421a-9a52-ac0d6e5393d2","ios":"levelo://app?vid=6fceb61f-6ad9-421a-9a52-ac0d6e5393d2"},"vehicle_type_id":"4","last_reported":1745615376,"current_range_meters":10000,"station_id":"ce4bh512rcd13ifvqe3g","pricing_plan_id":"cebpf4jnsgd1na2vs0mg"},{"bike_id":"c2e89ce1-a0ae-474c-86c5-66d0f68715d6","system_id":"levelo_inurba_marseille","lat":43.29421,"lon":5.38599,"is_reserved":false,"is_disabled":false,"rental_uris":{"android":"levelo://app?vid=c2e89ce1-a0ae-474c-86c5-66d0f68715d6","ios":"levelo://app?vid=c2e89ce1-a0ae-474c-86c5-66d0f68715d6"},"vehicle_type_id":"4","last_reported":1745615376,"current_range_meters":10800,"station_id":"ce4bh2h2rcd13ifvqdh0","pricing_plan_id":"cebpf4jnsgd1na2vs0mg"},{"bike_id":"9f5578ed-5577-43eb-b8df-e2b6a45d6d89","system_id":"levelo_inurba_marseille","lat":43.28609,"lon":5.37068,"is_reserved":false,"is_disabled":false,"rental_uris":{"android":"levelo://app?vid=9f5578ed-5577-43eb-b8df-e2b6a45d6d89","ios":"levelo://app?vid=9f5578ed-5577-43eb-b8df-e2b6a45d6d89"},"vehicle_type_id":"4","last_reported":1745615376,"current_range_meters":10800,"station_id":"ce4bht12rcd13ifvqi60","pricing_plan_id":"cebpf4jnsgd1na2vs0mg"},{"bike_id":"2a93e230-448f-4557-820c-840ff7bed0ae","system_id":"levelo_inurba_marseille","lat":43.28937,"lon":5.36643,"is_reserved":false,"is_disabled":false,"rental_uris":{"android":"levelo://app?vid=2a93e230-448f-4557-820c-840ff7bed0ae","ios":"levelo://app?vid=2a93e230-448f-4557-820c-840ff7bed0ae"},"vehicle_type_id":"4","last_reported":1745615376,"current_range_meters":10800,"station_id":"ce4bhap2rcd13ifvqek0","pricing_plan_id":"cebpf4jnsgd1na2vs0mg"},{"bike_id":"c6b0e872-276e-4e0d-acc7-5a0ecb2ee8fd","system_id":"levelo_inurba_marseille","lat":43.29427,"lon":5.38594,"is_reserved":false,"is_disabled":false,"rental_uris":{"android":"levelo://app?vid=c6b0e872-276e-4e0d-acc7-5a0ecb2ee8fd","ios":"levelo://app?vid=c6b0e872-276e-4e0d-acc7-5a0ecb2ee8fd"},"vehicle_type_id":"4","last_reported":1745615376,"current_range_meters":10800,"station_id":"ce4bh2h2rcd13ifvqdh0","pricing_plan_id":"cebpf4jnsgd1na2vs0mg"},{"bike_id":"3c976c1b-644c-4432-ad5a-b823ebcbcc9c","system_id":"levelo_inurba_marseille","lat":43.3014,"lon":5.37421,"is_reserved":false,"is_disabled":true,"rental_uris":{"android":"levelo://app?vid=3c976c1b-644c-4432-ad5a-b823ebcbcc9c","ios":"levelo://app?vid=3c976c1b-644c-4432-ad5a-b823ebcbcc9c"},"vehicle_type_id":"4","last_reported":1745615376,"current_range_meters":10800,"station_id":"ce4bgs92rcd13ifvqcc0","pricing_plan_id":"cebpf4jnsgd1na2vs0mg"},{"bike_id":"6fe978e5-653f-453c-9290-dcea126c74b8","system_id":"levelo_inurba_marseille","lat":43.29587,"lon":5.38113,"is_reserved":false,"is_disabled":false,"rental_uris":{"android":"levelo://app?vid=6fe978e5-653f-453c-9290-dcea126c74b8","ios":"levelo://app?vid=6fe978e5-653f-453c-9290-dcea126c74b8"},"vehicle_type_id":"4","last_reported":1745615376,"current_range_meters":10800,"station_id":"ce4bgl12rcd13ifvqbo0","pricing_plan_id":"cebpf4jnsgd1na2vs0mg"},{"bike_id":"1a320549-611c-4016-9359-59887b3f13af","system_id":"levelo_inurba_marseille","lat":43.28933,"lon":5.38384,"is_reserved":false,"is_disabled":false,"rental_uris":{"android":"levelo://app?vid=1a320549-611c-4016-9359-59887b3f13af","ios":"levelo://app?vid=1a320549-611c-4016-9359-59887b3f13af"},"vehicle_type_id":"4","last_reported":1745615376,"current_range_meters":10800,"station_id":"ce4bh612rcd13ifvqe6g","pricing_plan_id":"cebpf4jnsgd1na2vs0mg"},{"bike_id":"69135ffd-454d-4aa0-be87-85bfa85cd7aa","system_id":"levelo_inurba_marseille","lat":43.29627,"lon":5.37155,"is_reserved":false,"is_disabled":false,"rental_uris":{"android":"levelo://app?vid=69135ffd-454d-4aa0-be87-85bfa85cd7aa","ios":"levelo://app?vid=69135ffd-454d-4aa0-be87-85bfa85cd7aa"},"vehicle_type_id":"4","last_reported":1745615376,"current_range_meters":10800,"station_id":"ce4bgnh2rcd13ifvqc0g","pricing_plan_id":"cebpf4jnsgd1na2vs0mg"},{"bike_id":"b0ee9a1d-7b8a-4efb-bf61-ca32e693e2f5","system_id":"levelo_inurba_marseille","lat":43.27492,"lon":5.42446,"is_reserved":false,"is_disabled":false,"rental_uris":{"android":"levelo://app?vid=b0ee9a1d-7b8a-4efb-bf61-ca32e693e2f5","ios":"levelo://app?vid=b0ee9a1d-7b8a-4efb-bf61-ca32e693e2f5"},"vehicle_type_id":"4","last_reported":1745615376,"current_range_meters":10800,"station_id":"ce4bhn92rcd13ifvqgrg","pricing_plan_id":"cebpf4jnsgd1na2vs0mg"},{"bike_id":"0a4095d2-886c-4bc4-a049-e41b3833bcb3","system_id":"levelo_inurba_marseille","lat":43.28949,"lon":5.36406,"is_reserved":false,"is_disabled":true,"rental_uris":{"android":"levelo://app?vid=0a4095d2-886c-4bc4-a049-e41b3833bcb3","ios":"levelo://app?vid=0a4095d2-886c-4bc4-a049-e41b3833bcb3"},"vehicle_type_id":"4","last_reported":1745615376,"current_range_meters":11200,"station_id":"ce4bhc92rcd13ifvqetg","pricing_plan_id":"cebpf4jnsgd1na2vs0mg"},{"bike_id":"30d0784b-a20d-4814-8a38-67708b048c1f","system_id":"levelo_inurba_marseille","lat":43.2293,"lon":5.35376,"is_reserved":false,"is_disabled":false,"rental_uris":{"android":"levelo://app?vid=30d0784b-a20d-4814-8a38-67708b048c1f","ios":"levelo://app?vid=30d0784b-a20d-4814-8a38-67708b048c1f"},"vehicle_type_id":"4","last_reported":1745615376,"current_range_meters":11200,"station_id":"cpo3532slgdg3j2ikp40","pricing_plan_id":"cebpf4jnsgd1na2vs0mg"},{"bike_id":"c3377b8f-007f-40f4-941a-437fea66d7c3","system_id":"levelo_inurba_marseille","lat":43.27176,"lon":5.40998,"is_reserved":false,"is_disabled":false,"rental_uris":{"android":"levelo://app?vid=c3377b8f-007f-40f4-941a-437fea66d7c3","ios":"levelo://app?vid=c3377b8f-007f-40f4-941a-437fea66d7c3"},"vehicle_type_id":"4","last_reported":1745615376,"current_range_meters":11200,"station_id":"ce4bhl12rcd13ifvqgf0","pricing_plan_id":"cebpf4jnsgd1na2vs0mg"},{"bike_id":"493afb8f-be2c-464d-b637-760bb92047d2","system_id":"levelo_inurba_marseille","lat":43.32654,"lon":5.41,"is_reserved":false,"is_disabled":false,"rental_uris":{"android":"levelo://app?vid=493afb8f-be2c-464d-b637-760bb92047d2","ios":"levelo://app?vid=493afb8f-be2c-464d-b637-760bb92047d2"},"vehicle_type_id":"4","last_reported":1745615376,"current_range_meters":11200,"station_id":"ce4bhpp2rcd13ifvqhgg","pricing_plan_id":"cebpf4jnsgd1na2vs0mg"},{"bike_id":"ef784aff-1dcd-4a41-85d9-7011de0ce979","system_id":"levelo_inurba_marseille","lat":43.28347,"lon":5.38108,"is_reserved":false,"is_disabled":false,"rental_uris":{"android":"levelo://app?vid=ef784aff-1dcd-4a41-85d9-7011de0ce979","ios":"levelo://app?vid=ef784aff-1dcd-4a41-85d9-7011de0ce979"},"vehicle_type_id":"4","last_reported":1745615376,"current_range_meters":11200,"station_id":"ce4bh412rcd13ifvqdr0","pricing_plan_id":"cebpf4jnsgd1na2vs0mg"},{"bike_id":"bbbf75c1-d1a6-4017-ab68-98b27faf19a4","system_id":"levelo_inurba_marseille","lat":43.29533,"lon":5.38551,"is_reserved":false,"is_disabled":false,"rental_uris":{"android":"levelo://app?vid=bbbf75c1-d1a6-4017-ab68-98b27faf19a4","ios":"levelo://app?vid=bbbf75c1-d1a6-4017-ab68-98b27faf19a4"},"vehicle_type_id":"4","last_reported":1745615376,"current_range_meters":11200,"station_id":"ce4bgih2rcd13ifvqba0","pricing_plan_id":"cebpf4jnsgd1na2vs0mg"},{"bike_id":"7dd260a0-acb7-4e68-ac47-8bfb485254c2","system_id":"levelo_inurba_marseille","lat":43.30644,"lon":5.40095,"is_reserved":false,"is_disabled":false,"rental_uris":{"android":"levelo://app?vid=7dd260a0-acb7-4e68-ac47-8bfb485254c2","ios":"levelo://app?vid=7dd260a0-acb7-4e68-ac47-8bfb485254c2"},"vehicle_type_id":"4","last_reported":1745615376,"current_range_meters":11200,"station_id":"ce4bh112rcd13ifvqda0","pricing_plan_id":"cebpf4jnsgd1na2vs0mg"},{"bike_id":"4a6d4e85-1d76-47a7-8c9c-2c214e80a9c0","system_id":"levelo_inurba_marseille","lat":43.3043,"lon":5.39746,"is_reserved":false,"is_disabled":false,"rental_uris":{"android":"levelo://app?vid=4a6d4e85-1d76-47a7-8c9c-2c214e80a9c0","ios":"levelo://app?vid=4a6d4e85-1d76-47a7-8c9c-2c214e80a9c0"},"vehicle_type_id":"4","last_reported":1745615376,"current_range_meters":11600,"station_id":"ce4bh092rcd13ifvqd20","pricing_plan_id":"cebpf4jnsgd1na2vs0mg"},{"bike_id":"7d8d69b2-0147-4031-958f-236ac2917414","system_id":"levelo_inurba_marseille","lat":43.292713,"lon":5.36823,"is_reserved":false,"is_disabled":true,"rental_uris":{"android":"levelo://app?vid=7d8d69b2-0147-4031-958f-236ac2917414","ios":"levelo://app?vid=7d8d69b2-0147-4031-958f-236ac2917414"},"vehicle_type_id":"4","last_reported":1745615376,"current_range_meters":11600,"station_id":"ce4bhbp2rcd13ifvqesg","pricing_plan_id":"cebpf4jnsgd1na2vs0mg"},{"bike_id":"e2dcabcf-64d8-4394-bb9a-ff877bee611a","system_id":"levelo_inurba_marseille","lat":43.32047,"lon":5.41519,"is_reserved":false,"is_disabled":false,"rental_uris":{"android":"levelo://app?vid=e2dcabcf-64d8-4394-bb9a-ff877bee611a","ios":"levelo://app?vid=e2dcabcf-64d8-4394-bb9a-ff877bee611a"},"vehicle_type_id":"4","last_reported":1745615376,"current_range_meters":11600,"station_id":"ce4bhq92rcd13ifvqhkg","pricing_plan_id":"cebpf4jnsgd1na2vs0mg"},{"bike_id":"d9ce4d6a-9801-4ad8-9a57-c1ccce5c1f30","system_id":"levelo_inurba_marseille","lat":43.29543,"lon":5.38545,"is_reserved":false,"is_disabled":false,"rental_uris":{"android":"levelo://app?vid=d9ce4d6a-9801-4ad8-9a57-c1ccce5c1f30","ios":"levelo://app?vid=d9ce4d6a-9801-4ad8-9a57-c1ccce5c1f30"},"vehicle_type_id":"4","last_reported":1745615376,"current_range_meters":11600,"station_id":"ce4bgih2rcd13ifvqba0","pricing_plan_id":"cebpf4jnsgd1na2vs0mg"},{"bike_id":"305edf6c-d705-475b-881b-7340ea368c2d","system_id":"levelo_inurba_marseille","lat":43.29536,"lon":5.38538,"is_reserved":false,"is_disabled":false,"rental_uris":{"android":"levelo://app?vid=305edf6c-d705-475b-881b-7340ea368c2d","ios":"levelo://app?vid=305edf6c-d705-475b-881b-7340ea368c2d"},"vehicle_type_id":"4","last_reported":1745615376,"current_range_meters":11600,"station_id":"ce4bgih2rcd13ifvqba0","pricing_plan_id":"cebpf4jnsgd1na2vs0mg"},{"bike_id":"d4e6ec71-6f75-43ee-bdec-cb172617d398","system_id":"levelo_inurba_marseille","lat":43.255,"lon":5.3765,"is_reserved":false,"is_disabled":false,"rental_uris":{"android":"levelo://app?vid=d4e6ec71-6f75-43ee-bdec-cb172617d398","ios":"levelo://app?vid=d4e6ec71-6f75-43ee-bdec-cb172617d398"},"vehicle_type_id":"4","last_reported":1745615376,"current_range_meters":11600,"station_id":"ce4bhh12rcd13ifvqff0","pricing_plan_id":"cebpf4jnsgd1na2vs0mg"},{"bike_id":"e9c24a0f-6b92-415d-8f0c-56c7fe050b8c","system_id":"levelo_inurba_marseille","lat":43.28399,"lon":5.37513,"is_reserved":false,"is_disabled":false,"rental_uris":{"android":"levelo://app?vid=e9c24a0f-6b92-415d-8f0c-56c7fe050b8c","ios":"levelo://app?vid=e9c24a0f-6b92-415d-8f0c-56c7fe050b8c"},"vehicle_type_id":"4","last_reported":1745615376,"current_range_meters":11600,"station_id":"ce4bh412rcd13ifvqds0","pricing_plan_id":"cebpf4jnsgd1na2vs0mg"},{"bike_id":"4c11ff0f-a579-4f78-9960-a443174b0bdd","system_id":"levelo_inurba_marseille","lat":43.21179,"lon":5.35076,"is_reserved":false,"is_disabled":false,"rental_uris":{"android":"levelo://app?vid=4c11ff0f-a579-4f78-9960-a443174b0bdd","ios":"levelo://app?vid=4c11ff0f-a579-4f78-9960-a443174b0bdd"},"vehicle_type_id":"4","last_reported":1745615376,"current_range_meters":11600,"station_id":"st_cvj6sg6p6f1abm77japg","pricing_plan_id":"cebpf4jnsgd1na2vs0mg"},{"bike_id":"e00b26e1-645a-4906-8b57-b671c72bf613","system_id":"levelo_inurba_marseille","lat":43.25118,"lon":5.40332,"is_reserved":false,"is_disabled":false,"rental_uris":{"android":"levelo://app?vid=e00b26e1-645a-4906-8b57-b671c72bf613","ios":"levelo://app?vid=e00b26e1-645a-4906-8b57-b671c72bf613"},"vehicle_type_id":"4","last_reported":1745615376,"current_range_meters":11600,"station_id":"ce4bhlh2rcd13ifvqgig","pricing_plan_id":"cebpf4jnsgd1na2vs0mg"},{"bike_id":"422b5989-c8b6-43aa-b2b9-3bfeb2e1ddc0","system_id":"levelo_inurba_marseille","lat":43.24736,"lon":5.41176,"is_reserved":false,"is_disabled":false,"rental_uris":{"android":"levelo://app?vid=422b5989-c8b6-43aa-b2b9-3bfeb2e1ddc0","ios":"levelo://app?vid=422b5989-c8b6-43aa-b2b9-3bfeb2e1ddc0"},"vehicle_type_id":"4","last_reported":1745615376,"current_range_meters":12000,"station_id":"","pricing_plan_id":"cebpf4jnsgd1na2vs0mg"},{"bike_id":"8cb0d8e3-233e-414b-8aa9-884ca989a975","system_id":"levelo_inurba_marseille","lat":43.28369,"lon":5.3812,"is_reserved":false,"is_disabled":false,"rental_uris":{"android":"levelo://app?vid=8cb0d8e3-233e-414b-8aa9-884ca989a975","ios":"levelo://app?vid=8cb0d8e3-233e-414b-8aa9-884ca989a975"},"vehicle_type_id":"4","last_reported":1745615376,"current_range_meters":12000,"station_id":"ce4bh412rcd13ifvqdr0","pricing_plan_id":"cebpf4jnsgd1na2vs0mg"},{"bike_id":"094af850-9d1d-46ae-84d9-ad15701bda32","system_id":"levelo_inurba_marseille","lat":43.293367,"lon":5.394677,"is_reserved":false,"is_disabled":false,"rental_uris":{"android":"levelo://app?vid=094af850-9d1d-46ae-84d9-ad15701bda32","ios":"levelo://app?vid=094af850-9d1d-46ae-84d9-ad15701bda32"},"vehicle_type_id":"4","last_reported":1745615376,"current_range_meters":12000,"station_id":"ce4bh312rcd13ifvqdk0","pricing_plan_id":"cebpf4jnsgd1na2vs0mg"},{"bike_id":"c65adb3e-50be-42af-92da-68dd7e4eacc9","system_id":"levelo_inurba_marseille","lat":43.30163,"lon":5.38101,"is_reserved":false,"is_disabled":true,"rental_uris":{"android":"levelo://app?vid=c65adb3e-50be-42af-92da-68dd7e4eacc9","ios":"levelo://app?vid=c65adb3e-50be-42af-92da-68dd7e4eacc9"},"vehicle_type_id":"4","last_reported":1745615376,"current_range_meters":12000,"station_id":"ce4bgjp2rcd13ifvqbh0","pricing_plan_id":"cebpf4jnsgd1na2vs0mg"},{"bike_id":"f70c7b70-056d-42d8-a425-525b12ab6587","system_id":"levelo_inurba_marseille","lat":43.26674,"lon":5.38267,"is_reserved":false,"is_disabled":false,"rental_uris":{"android":"levelo://app?vid=f70c7b70-056d-42d8-a425-525b12ab6587","ios":"levelo://app?vid=f70c7b70-056d-42d8-a425-525b12ab6587"},"vehicle_type_id":"4","last_reported":1745615376,"current_range_meters":12000,"station_id":"ce4bhg92rcd13ifvqf90","pricing_plan_id":"cebpf4jnsgd1na2vs0mg"},{"bike_id":"79ac04a5-62dd-43e2-a4bd-10156274da1b","system_id":"levelo_inurba_marseille","lat":43.32661,"lon":5.40998,"is_reserved":false,"is_disabled":false,"rental_uris":{"android":"levelo://app?vid=79ac04a5-62dd-43e2-a4bd-10156274da1b","ios":"levelo://app?vid=79ac04a5-62dd-43e2-a4bd-10156274da1b"},"vehicle_type_id":"4","last_reported":1745615376,"current_range_meters":12000,"station_id":"ce4bhpp2rcd13ifvqhgg","pricing_plan_id":"cebpf4jnsgd1na2vs0mg"},{"bike_id":"0bfff189-ec6a-4439-b345-e9dd168ab867","system_id":"levelo_inurba_marseille","lat":43.337331,"lon":5.392033,"is_reserved":false,"is_disabled":false,"rental_uris":{"android":"levelo://app?vid=0bfff189-ec6a-4439-b345-e9dd168ab867","ios":"levelo://app?vid=0bfff189-ec6a-4439-b345-e9dd168ab867"},"vehicle_type_id":"4","last_reported":1745615376,"current_range_meters":12000,"station_id":"ce4bhr92rcd13ifvqhsg","pricing_plan_id":"cebpf4jnsgd1na2vs0mg"},{"bike_id":"ba6fa291-3b41-4e87-beff-f72c39c7367a","system_id":"levelo_inurba_marseille","lat":43.30292,"lon":5.36896,"is_reserved":false,"is_disabled":false,"rental_uris":{"android":"levelo://app?vid=ba6fa291-3b41-4e87-beff-f72c39c7367a","ios":"levelo://app?vid=ba6fa291-3b41-4e87-beff-f72c39c7367a"},"vehicle_type_id":"4","last_reported":1745615376,"current_range_meters":12400,"station_id":"ce4bgqh2rcd13ifvqc5g","pricing_plan_id":"cebpf4jnsgd1na2vs0mg"},{"bike_id":"41e59f23-39a6-4148-a54c-a3446aa0c2a2","system_id":"levelo_inurba_marseille","lat":43.30553,"lon":5.36564,"is_reserved":false,"is_disabled":false,"rental_uris":{"android":"levelo://app?vid=41e59f23-39a6-4148-a54c-a3446aa0c2a2","ios":"levelo://app?vid=41e59f23-39a6-4148-a54c-a3446aa0c2a2"},"vehicle_type_id":"4","last_reported":1745615376,"current_range_meters":12400,"station_id":"ce4bgs12rcd13ifvqcag","pricing_plan_id":"cebpf4jnsgd1na2vs0mg"},{"bike_id":"a15bddab-25ab-4b35-94fa-a1385c74791d","system_id":"levelo_inurba_marseille","lat":43.30926,"lon":5.40151,"is_reserved":false,"is_disabled":false,"rental_uris":{"android":"levelo://app?vid=a15bddab-25ab-4b35-94fa-a1385c74791d","ios":"levelo://app?vid=a15bddab-25ab-4b35-94fa-a1385c74791d"},"vehicle_type_id":"4","last_reported":1745615376,"current_range_meters":12400,"station_id":"ce4bgvp2rcd13ifvqct0","pricing_plan_id":"cebpf4jnsgd1na2vs0mg"},{"bike_id":"6a3b27e4-5407-4eb3-b4cb-60b4cc06ba5d","system_id":"levelo_inurba_marseille","lat":43.29412,"lon":5.38624,"is_reserved":false,"is_disabled":false,"rental_uris":{"android":"levelo://app?vid=6a3b27e4-5407-4eb3-b4cb-60b4cc06ba5d","ios":"levelo://app?vid=6a3b27e4-5407-4eb3-b4cb-60b4cc06ba5d"},"vehicle_type_id":"4","last_reported":1745615376,"current_range_meters":12400,"station_id":"ce4bh2h2rcd13ifvqdh0","pricing_plan_id":"cebpf4jnsgd1na2vs0mg"},{"bike_id":"c7e902d4-412a-4856-a3cd-84294ebaed67","system_id":"levelo_inurba_marseille","lat":43.29644,"lon":5.3714,"is_reserved":false,"is_disabled":false,"rental_uris":{"android":"levelo://app?vid=c7e902d4-412a-4856-a3cd-84294ebaed67","ios":"levelo://app?vid=c7e902d4-412a-4856-a3cd-84294ebaed67"},"vehicle_type_id":"4","last_reported":1745615376,"current_range_meters":12400,"station_id":"ce4bgnh2rcd13ifvqc0g","pricing_plan_id":"cebpf4jnsgd1na2vs0mg"},{"bike_id":"db7d7242-8c7e-4f94-b69e-661206cd7af4","system_id":"levelo_inurba_marseille","lat":43.2924,"lon":5.38357,"is_reserved":false,"is_disabled":false,"rental_uris":{"android":"levelo://app?vid=db7d7242-8c7e-4f94-b69e-661206cd7af4","ios":"levelo://app?vid=db7d7242-8c7e-4f94-b69e-661206cd7af4"},"vehicle_type_id":"4","last_reported":1745615376,"current_range_meters":12400,"station_id":"","pricing_plan_id":"cebpf4jnsgd1na2vs0mg"},{"bike_id":"940dc6fb-d0cc-43ec-80dd-3bbaf8e9184d","system_id":"levelo_inurba_marseille","lat":43.31758,"lon":5.39012,"is_reserved":false,"is_disabled":false,"rental_uris":{"android":"levelo://app?vid=940dc6fb-d0cc-43ec-80dd-3bbaf8e9184d","ios":"levelo://app?vid=940dc6fb-d0cc-43ec-80dd-3bbaf8e9184d"},"vehicle_type_id":"4","last_reported":1745615376,"current_range_meters":12800,"station_id":"ce4bhqp2rcd13ifvqhng","pricing_plan_id":"cebpf4jnsgd1na2vs0mg"},{"bike_id":"c5c526bf-ebd8-47f8-a2b8-43a8ff88195d","system_id":"levelo_inurba_marseille","lat":43.3117,"lon":5.38723,"is_reserved":false,"is_disabled":false,"rental_uris":{"android":"levelo://app?vid=c5c526bf-ebd8-47f8-a2b8-43a8ff88195d","ios":"levelo://app?vid=c5c526bf-ebd8-47f8-a2b8-43a8ff88195d"},"vehicle_type_id":"4","last_reported":1745615376,"current_range_meters":12800,"station_id":"ce4bgv12rcd13ifvqcp0","pricing_plan_id":"cebpf4jnsgd1na2vs0mg"},{"bike_id":"0418bd97-14bf-4efb-b29f-d9df4d797ecd","system_id":"levelo_inurba_marseille","lat":43.28657,"lon":5.36353,"is_reserved":false,"is_disabled":false,"rental_uris":{"android":"levelo://app?vid=0418bd97-14bf-4efb-b29f-d9df4d797ecd","ios":"levelo://app?vid=0418bd97-14bf-4efb-b29f-d9df4d797ecd"},"vehicle_type_id":"4","last_reported":1745615376,"current_range_meters":12800,"station_id":"ce4bhah2rcd13ifvqej0","pricing_plan_id":"cebpf4jnsgd1na2vs0mg"},{"bike_id":"638b774e-4243-4fba-aff6-4b93cd794c3c","system_id":"levelo_inurba_marseille","lat":43.31075,"lon":5.38334,"is_reserved":false,"is_disabled":false,"rental_uris":{"android":"levelo://app?vid=638b774e-4243-4fba-aff6-4b93cd794c3c","ios":"levelo://app?vid=638b774e-4243-4fba-aff6-4b93cd794c3c"},"vehicle_type_id":"4","last_reported":1745615376,"current_range_meters":12800,"station_id":"ce4bgv92rcd13ifvqcr0","pricing_plan_id":"cebpf4jnsgd1na2vs0mg"},{"bike_id":"7ed5a508-18e1-45d2-80d6-e95efa81652d","system_id":"levelo_inurba_marseille","lat":43.29022,"lon":5.38638,"is_reserved":false,"is_disabled":false,"rental_uris":{"android":"levelo://app?vid=7ed5a508-18e1-45d2-80d6-e95efa81652d","ios":"levelo://app?vid=7ed5a508-18e1-45d2-80d6-e95efa81652d"},"vehicle_type_id":"4","last_reported":1745615376,"current_range_meters":12800,"station_id":"ce4bh4p2rcd13ifvqe0g","pricing_plan_id":"cebpf4jnsgd1na2vs0mg"},{"bike_id":"98ee53e8-d9e8-441c-8510-2c2b885b96ae","system_id":"levelo_inurba_marseille","lat":43.29613,"lon":5.37741,"is_reserved":false,"is_disabled":false,"rental_uris":{"android":"levelo://app?vid=98ee53e8-d9e8-441c-8510-2c2b885b96ae","ios":"levelo://app?vid=98ee53e8-d9e8-441c-8510-2c2b885b96ae"},"vehicle_type_id":"4","last_reported":1745615376,"current_range_meters":12800,"station_id":"ce4bgi92rcd13ifvqb90","pricing_plan_id":"cebpf4jnsgd1na2vs0mg"},{"bike_id":"f77a929f-13ce-4ad3-b37b-030e100178ba","system_id":"levelo_inurba_marseille","lat":43.25937,"lon":5.40907,"is_reserved":false,"is_disabled":false,"rental_uris":{"android":"levelo://app?vid=f77a929f-13ce-4ad3-b37b-030e100178ba","ios":"levelo://app?vid=f77a929f-13ce-4ad3-b37b-030e100178ba"},"vehicle_type_id":"4","last_reported":1745615376,"current_range_meters":13600,"station_id":"ce4bhm92rcd13ifvqglg","pricing_plan_id":"cebpf4jnsgd1na2vs0mg"},{"bike_id":"fb117b98-2cbc-4d7f-82a8-a1f433789cee","system_id":"levelo_inurba_marseille","lat":43.307817,"lon":5.376494,"is_reserved":false,"is_disabled":false,"rental_uris":{"android":"levelo://app?vid=fb117b98-2cbc-4d7f-82a8-a1f433789cee","ios":"levelo://app?vid=fb117b98-2cbc-4d7f-82a8-a1f433789cee"},"vehicle_type_id":"4","last_reported":1745615376,"current_range_meters":13600,"station_id":"ce4bgv92rcd13ifvqcq0","pricing_plan_id":"cebpf4jnsgd1na2vs0mg"},{"bike_id":"cb624891-5152-4102-94fb-1c7b6a1cb505","system_id":"levelo_inurba_marseille","lat":43.25501,"lon":5.3765,"is_reserved":false,"is_disabled":false,"rental_uris":{"android":"levelo://app?vid=cb624891-5152-4102-94fb-1c7b6a1cb505","ios":"levelo://app?vid=cb624891-5152-4102-94fb-1c7b6a1cb505"},"vehicle_type_id":"4","last_reported":1745615376,"current_range_meters":13600,"station_id":"ce4bhh12rcd13ifvqff0","pricing_plan_id":"cebpf4jnsgd1na2vs0mg"},{"bike_id":"568053e1-9183-4cee-acca-959027493876","system_id":"levelo_inurba_marseille","lat":43.30908,"lon":5.36859,"is_reserved":false,"is_disabled":true,"rental_uris":{"android":"levelo://app?vid=568053e1-9183-4cee-acca-959027493876","ios":"levelo://app?vid=568053e1-9183-4cee-acca-959027493876"},"vehicle_type_id":"4","last_reported":1745615376,"current_range_meters":14000,"station_id":"ce4bgn92rcd13ifvqbvg","pricing_plan_id":"cebpf4jnsgd1na2vs0mg"},{"bike_id":"c60510cd-fe8b-4d35-8071-a5c992fcec84","system_id":"levelo_inurba_marseille","lat":43.26202,"lon":5.37928,"is_reserved":false,"is_disabled":false,"rental_uris":{"android":"levelo://app?vid=c60510cd-fe8b-4d35-8071-a5c992fcec84","ios":"levelo://app?vid=c60510cd-fe8b-4d35-8071-a5c992fcec84"},"vehicle_type_id":"4","last_reported":1745615376,"current_range_meters":14000,"station_id":"ce4bhjp2rcd13ifvqg90","pricing_plan_id":"cebpf4jnsgd1na2vs0mg"},{"bike_id":"e2ed9feb-31bd-4e49-83fc-2282b6b13131","system_id":"levelo_inurba_marseille","lat":43.30218,"lon":5.39483,"is_reserved":false,"is_disabled":false,"rental_uris":{"android":"levelo://app?vid=e2ed9feb-31bd-4e49-83fc-2282b6b13131","ios":"levelo://app?vid=e2ed9feb-31bd-4e49-83fc-2282b6b13131"},"vehicle_type_id":"4","last_reported":1745615376,"current_range_meters":14400,"station_id":"ce4bh0p2rcd13ifvqd70","pricing_plan_id":"cebpf4jnsgd1na2vs0mg"},{"bike_id":"76231155-b4cd-4bc4-bbd0-e53e0b52940a","system_id":"levelo_inurba_marseille","lat":43.28938,"lon":5.366286,"is_reserved":false,"is_disabled":false,"rental_uris":{"android":"levelo://app?vid=76231155-b4cd-4bc4-bbd0-e53e0b52940a","ios":"levelo://app?vid=76231155-b4cd-4bc4-bbd0-e53e0b52940a"},"vehicle_type_id":"4","last_reported":1745615376,"current_range_meters":14400,"station_id":"ce4bhnp2rcd13ifvqgvg","pricing_plan_id":"cebpf4jnsgd1na2vs0mg"},{"bike_id":"b6c6d9f7-b123-42c6-8ea7-68299b7c9958","system_id":"levelo_inurba_marseille","lat":43.324,"lon":5.39156,"is_reserved":false,"is_disabled":false,"rental_uris":{"android":"levelo://app?vid=b6c6d9f7-b123-42c6-8ea7-68299b7c9958","ios":"levelo://app?vid=b6c6d9f7-b123-42c6-8ea7-68299b7c9958"},"vehicle_type_id":"4","last_reported":1745615376,"current_range_meters":14400,"station_id":"","pricing_plan_id":"cebpf4jnsgd1na2vs0mg"},{"bike_id":"b00f79e0-f012-46cf-8ce0-b700cf4051aa","system_id":"levelo_inurba_marseille","lat":43.2885,"lon":5.39299,"is_reserved":false,"is_disabled":false,"rental_uris":{"android":"levelo://app?vid=b00f79e0-f012-46cf-8ce0-b700cf4051aa","ios":"levelo://app?vid=b00f79e0-f012-46cf-8ce0-b700cf4051aa"},"vehicle_type_id":"4","last_reported":1745615376,"current_range_meters":14400,"station_id":"ce4bh2p2rcd13ifvqdi0","pricing_plan_id":"cebpf4jnsgd1na2vs0mg"},{"bike_id":"4d238a5e-8843-464c-bf19-1aca70ff00cf","system_id":"levelo_inurba_marseille","lat":43.31166,"lon":5.3872,"is_reserved":false,"is_disabled":false,"rental_uris":{"android":"levelo://app?vid=4d238a5e-8843-464c-bf19-1aca70ff00cf","ios":"levelo://app?vid=4d238a5e-8843-464c-bf19-1aca70ff00cf"},"vehicle_type_id":"4","last_reported":1745615376,"current_range_meters":14400,"station_id":"ce4bgv12rcd13ifvqcp0","pricing_plan_id":"cebpf4jnsgd1na2vs0mg"},{"bike_id":"0d6aa25b-26ef-4f03-9037-eefdd61d5a77","system_id":"levelo_inurba_marseille","lat":43.27904,"lon":5.38003,"is_reserved":false,"is_disabled":false,"rental_uris":{"android":"levelo://app?vid=0d6aa25b-26ef-4f03-9037-eefdd61d5a77","ios":"levelo://app?vid=0d6aa25b-26ef-4f03-9037-eefdd61d5a77"},"vehicle_type_id":"4","last_reported":1745615376,"current_range_meters":14400,"station_id":"ce4bhf92rcd13ifvqf50","pricing_plan_id":"cebpf4jnsgd1na2vs0mg"},{"bike_id":"462e2c9f-17b8-41fa-9c8a-ebc957869e14","system_id":"levelo_inurba_marseille","lat":43.28716,"lon":5.37942,"is_reserved":false,"is_disabled":false,"rental_uris":{"android":"levelo://app?vid=462e2c9f-17b8-41fa-9c8a-ebc957869e14","ios":"levelo://app?vid=462e2c9f-17b8-41fa-9c8a-ebc957869e14"},"vehicle_type_id":"4","last_reported":1745615376,"current_range_meters":14400,"station_id":"ce4bh9p2rcd13ifvqec0","pricing_plan_id":"cebpf4jnsgd1na2vs0mg"},{"bike_id":"ab157b9a-f413-4283-9896-461bb1b27942","system_id":"levelo_inurba_marseille","lat":43.33025,"lon":5.39032,"is_reserved":false,"is_disabled":false,"rental_uris":{"android":"levelo://app?vid=ab157b9a-f413-4283-9896-461bb1b27942","ios":"levelo://app?vid=ab157b9a-f413-4283-9896-461bb1b27942"},"vehicle_type_id":"4","last_reported":1745615376,"current_range_meters":14800,"station_id":"ce4bhr92rcd13ifvqhrg","pricing_plan_id":"cebpf4jnsgd1na2vs0mg"},{"bike_id":"45571b84-2af9-4c77-a608-11eb44fb40cc","system_id":"levelo_inurba_marseille","lat":43.29524,"lon":5.38547,"is_reserved":false,"is_disabled":false,"rental_uris":{"android":"levelo://app?vid=45571b84-2af9-4c77-a608-11eb44fb40cc","ios":"levelo://app?vid=45571b84-2af9-4c77-a608-11eb44fb40cc"},"vehicle_type_id":"4","last_reported":1745615376,"current_range_meters":14800,"station_id":"ce4bgih2rcd13ifvqba0","pricing_plan_id":"cebpf4jnsgd1na2vs0mg"},{"bike_id":"af6af1ea-83a0-4448-a6b9-d143557f7290","system_id":"levelo_inurba_marseille","lat":43.27024,"lon":5.4025,"is_reserved":false,"is_disabled":false,"rental_uris":{"android":"levelo://app?vid=af6af1ea-83a0-4448-a6b9-d143557f7290","ios":"levelo://app?vid=af6af1ea-83a0-4448-a6b9-d143557f7290"},"vehicle_type_id":"4","last_reported":1745615376,"current_range_meters":14800,"station_id":"ce4bhk92rcd13ifvqgc0","pricing_plan_id":"cebpf4jnsgd1na2vs0mg"},{"bike_id":"8f5c8879-8704-464b-b08a-aa8851e6ad23","system_id":"levelo_inurba_marseille","lat":43.32365,"lon":5.38887,"is_reserved":false,"is_disabled":false,"rental_uris":{"android":"levelo://app?vid=8f5c8879-8704-464b-b08a-aa8851e6ad23","ios":"levelo://app?vid=8f5c8879-8704-464b-b08a-aa8851e6ad23"},"vehicle_type_id":"4","last_reported":1745615376,"current_range_meters":14800,"station_id":"ce4bhqp2rcd13ifvqhog","pricing_plan_id":"cebpf4jnsgd1na2vs0mg"},{"bike_id":"49a5be0b-2b23-4d57-a2bd-3a5d802fab0b","system_id":"levelo_inurba_marseille","lat":43.28999,"lon":5.3561,"is_reserved":false,"is_disabled":true,"rental_uris":{"android":"levelo://app?vid=49a5be0b-2b23-4d57-a2bd-3a5d802fab0b","ios":"levelo://app?vid=49a5be0b-2b23-4d57-a2bd-3a5d802fab0b"},"vehicle_type_id":"4","last_reported":1745615376,"current_range_meters":14800,"station_id":"ce4bhb92rcd13ifvqen0","pricing_plan_id":"cebpf4jnsgd1na2vs0mg"},{"bike_id":"7b9ac92d-cf62-4d3c-a5df-d561446e341c","system_id":"levelo_inurba_marseille","lat":43.2809,"lon":5.37848,"is_reserved":false,"is_disabled":false,"rental_uris":{"android":"levelo://app?vid=7b9ac92d-cf62-4d3c-a5df-d561446e341c","ios":"levelo://app?vid=7b9ac92d-cf62-4d3c-a5df-d561446e341c"},"vehicle_type_id":"4","last_reported":1745615376,"current_range_meters":14800,"station_id":"ce4bha12rcd13ifvqee0","pricing_plan_id":"cebpf4jnsgd1na2vs0mg"},{"bike_id":"2f8544b8-a48b-45e5-813f-7b94c09f5d0a","system_id":"levelo_inurba_marseille","lat":43.28717,"lon":5.39963,"is_reserved":false,"is_disabled":false,"rental_uris":{"android":"levelo://app?vid=2f8544b8-a48b-45e5-813f-7b94c09f5d0a","ios":"levelo://app?vid=2f8544b8-a48b-45e5-813f-7b94c09f5d0a"},"vehicle_type_id":"4","last_reported":1745615376,"current_range_meters":15200,"station_id":"ce4bho92rcd13ifvqh3g","pricing_plan_id":"cebpf4jnsgd1na2vs0mg"},{"bike_id":"262de007-d0f9-4b5c-9db4-1c829c9329a9","system_id":"levelo_inurba_marseille","lat":43.27947,"lon":5.41044,"is_reserved":false,"is_disabled":false,"rental_uris":{"android":"levelo://app?vid=262de007-d0f9-4b5c-9db4-1c829c9329a9","ios":"levelo://app?vid=262de007-d0f9-4b5c-9db4-1c829c9329a9"},"vehicle_type_id":"4","last_reported":1745615376,"current_range_meters":15200,"station_id":"ce4bhnp2rcd13ifvqh0g","pricing_plan_id":"cebpf4jnsgd1na2vs0mg"},{"bike_id":"59ca40ad-786d-41be-aedb-079d88887065","system_id":"levelo_inurba_marseille","lat":43.28342,"lon":5.38107,"is_reserved":false,"is_disabled":false,"rental_uris":{"android":"levelo://app?vid=59ca40ad-786d-41be-aedb-079d88887065","ios":"levelo://app?vid=59ca40ad-786d-41be-aedb-079d88887065"},"vehicle_type_id":"4","last_reported":1745615376,"current_range_meters":15200,"station_id":"ce4bh412rcd13ifvqdr0","pricing_plan_id":"cebpf4jnsgd1na2vs0mg"},{"bike_id":"b98719ca-01d0-4e68-a22a-80dc683f9149","system_id":"levelo_inurba_marseille","lat":43.24662,"lon":5.3816,"is_reserved":false,"is_disabled":false,"rental_uris":{"android":"levelo://app?vid=b98719ca-01d0-4e68-a22a-80dc683f9149","ios":"levelo://app?vid=b98719ca-01d0-4e68-a22a-80dc683f9149"},"vehicle_type_id":"4","last_reported":1745615376,"current_range_meters":15200,"station_id":"ce4bhih2rcd13ifvqfr0","pricing_plan_id":"cebpf4jnsgd1na2vs0mg"},{"bike_id":"64d55185-06d2-49ab-bf59-b9b147e7f26f","system_id":"levelo_inurba_marseille","lat":43.2979,"lon":5.38105,"is_reserved":false,"is_disabled":false,"rental_uris":{"android":"levelo://app?vid=64d55185-06d2-49ab-bf59-b9b147e7f26f","ios":"levelo://app?vid=64d55185-06d2-49ab-bf59-b9b147e7f26f"},"vehicle_type_id":"4","last_reported":1745615376,"current_range_meters":15200,"station_id":"ce4bgip2rcd13ifvqbb0","pricing_plan_id":"cebpf4jnsgd1na2vs0mg"},{"bike_id":"987d7900-bb2a-45cb-bed7-6d69f6fd4fa3","system_id":"levelo_inurba_marseille","lat":43.28486,"lon":5.38447,"is_reserved":false,"is_disabled":false,"rental_uris":{"android":"levelo://app?vid=987d7900-bb2a-45cb-bed7-6d69f6fd4fa3","ios":"levelo://app?vid=987d7900-bb2a-45cb-bed7-6d69f6fd4fa3"},"vehicle_type_id":"4","last_reported":1745615376,"current_range_meters":15200,"station_id":"ce4bh512rcd13ifvqe3g","pricing_plan_id":"cebpf4jnsgd1na2vs0mg"},{"bike_id":"5c59969d-437f-43ab-990f-664c9830a931","system_id":"levelo_inurba_marseille","lat":43.31376,"lon":5.38657,"is_reserved":false,"is_disabled":false,"rental_uris":{"android":"levelo://app?vid=5c59969d-437f-43ab-990f-664c9830a931","ios":"levelo://app?vid=5c59969d-437f-43ab-990f-664c9830a931"},"vehicle_type_id":"4","last_reported":1745615376,"current_range_meters":16000,"station_id":"","pricing_plan_id":"cebpf4jnsgd1na2vs0mg"},{"bike_id":"429c952d-b89e-489d-adff-5d8acda34a8a","system_id":"levelo_inurba_marseille","lat":43.294091,"lon":5.386449,"is_reserved":false,"is_disabled":false,"rental_uris":{"android":"levelo://app?vid=429c952d-b89e-489d-adff-5d8acda34a8a","ios":"levelo://app?vid=429c952d-b89e-489d-adff-5d8acda34a8a"},"vehicle_type_id":"4","last_reported":1745615376,"current_range_meters":16000,"station_id":"ce4bh2h2rcd13ifvqdh0","pricing_plan_id":"cebpf4jnsgd1na2vs0mg"},{"bike_id":"a18b32af-837e-4f1b-a9b1-f47fdb463774","system_id":"levelo_inurba_marseille","lat":43.320411,"lon":5.415705,"is_reserved":false,"is_disabled":false,"rental_uris":{"android":"levelo://app?vid=a18b32af-837e-4f1b-a9b1-f47fdb463774","ios":"levelo://app?vid=a18b32af-837e-4f1b-a9b1-f47fdb463774"},"vehicle_type_id":"4","last_reported":1745615376,"current_range_meters":16000,"station_id":"ce4bhqh2rcd13ifvqhmg","pricing_plan_id":"cebpf4jnsgd1na2vs0mg"},{"bike_id":"eb155674-27b9-4bd4-8e63-20bfba1aa855","system_id":"levelo_inurba_marseille","lat":43.29201,"lon":5.39315,"is_reserved":false,"is_disabled":false,"rental_uris":{"android":"levelo://app?vid=eb155674-27b9-4bd4-8e63-20bfba1aa855","ios":"levelo://app?vid=eb155674-27b9-4bd4-8e63-20bfba1aa855"},"vehicle_type_id":"4","last_reported":1745615376,"current_range_meters":16000,"station_id":"ce4bh192rcd13ifvqdd0","pricing_plan_id":"cebpf4jnsgd1na2vs0mg"},{"bike_id":"031155af-f0a4-4128-acf5-241bdb1ea5d2","system_id":"levelo_inurba_marseille","lat":43.28478,"lon":5.38413,"is_reserved":false,"is_disabled":false,"rental_uris":{"android":"levelo://app?vid=031155af-f0a4-4128-acf5-241bdb1ea5d2","ios":"levelo://app?vid=031155af-f0a4-4128-acf5-241bdb1ea5d2"},"vehicle_type_id":"4","last_reported":1745615376,"current_range_meters":16000,"station_id":"ce4bh512rcd13ifvqe3g","pricing_plan_id":"cebpf4jnsgd1na2vs0mg"},{"bike_id":"9938022e-8478-489a-a878-ea3fb6a686ae","system_id":"levelo_inurba_marseille","lat":43.32363,"lon":5.38886,"is_reserved":false,"is_disabled":false,"rental_uris":{"android":"levelo://app?vid=9938022e-8478-489a-a878-ea3fb6a686ae","ios":"levelo://app?vid=9938022e-8478-489a-a878-ea3fb6a686ae"},"vehicle_type_id":"4","last_reported":1745615376,"current_range_meters":16000,"station_id":"ce4bhqp2rcd13ifvqhog","pricing_plan_id":"cebpf4jnsgd1na2vs0mg"},{"bike_id":"a516b772-e7ee-437f-904c-f38b50b6d4ac","system_id":"levelo_inurba_marseille","lat":43.24808,"lon":5.37458,"is_reserved":false,"is_disabled":false,"rental_uris":{"android":"levelo://app?vid=a516b772-e7ee-437f-904c-f38b50b6d4ac","ios":"levelo://app?vid=a516b772-e7ee-437f-904c-f38b50b6d4ac"},"vehicle_type_id":"4","last_reported":1745615376,"current_range_meters":16000,"station_id":"ce4bhgh2rcd13ifvqfb0","pricing_plan_id":"cebpf4jnsgd1na2vs0mg"},{"bike_id":"d03cbcab-c0c3-4f61-850e-6d032d493658","system_id":"levelo_inurba_marseille","lat":43.3266,"lon":5.40989,"is_reserved":false,"is_disabled":false,"rental_uris":{"android":"levelo://app?vid=d03cbcab-c0c3-4f61-850e-6d032d493658","ios":"levelo://app?vid=d03cbcab-c0c3-4f61-850e-6d032d493658"},"vehicle_type_id":"4","last_reported":1745615376,"current_range_meters":16000,"station_id":"ce4bhpp2rcd13ifvqhgg","pricing_plan_id":"cebpf4jnsgd1na2vs0mg"},{"bike_id":"3bf47bf6-0094-4467-befd-6245b4cca8c5","system_id":"levelo_inurba_marseille","lat":43.31492,"lon":5.37285,"is_reserved":false,"is_disabled":false,"rental_uris":{"android":"levelo://app?vid=3bf47bf6-0094-4467-befd-6245b4cca8c5","ios":"levelo://app?vid=3bf47bf6-0094-4467-befd-6245b4cca8c5"},"vehicle_type_id":"4","last_reported":1745615376,"current_range_meters":16000,"station_id":"ce4bgt12rcd13ifvqcd0","pricing_plan_id":"cebpf4jnsgd1na2vs0mg"},{"bike_id":"1c8a5ddc-5a01-45bd-8997-7d30875592f0","system_id":"levelo_inurba_marseille","lat":43.303209,"lon":5.397718,"is_reserved":false,"is_disabled":false,"rental_uris":{"android":"levelo://app?vid=1c8a5ddc-5a01-45bd-8997-7d30875592f0","ios":"levelo://app?vid=1c8a5ddc-5a01-45bd-8997-7d30875592f0"},"vehicle_type_id":"4","last_reported":1745615376,"current_range_meters":16400,"station_id":"ce4bh092rcd13ifvqd20","pricing_plan_id":"cebpf4jnsgd1na2vs0mg"},{"bike_id":"fdbe3e4c-6069-4e16-9ae7-cb790fcbdb9e","system_id":"levelo_inurba_marseille","lat":43.24659,"lon":5.3817,"is_reserved":false,"is_disabled":false,"rental_uris":{"android":"levelo://app?vid=fdbe3e4c-6069-4e16-9ae7-cb790fcbdb9e","ios":"levelo://app?vid=fdbe3e4c-6069-4e16-9ae7-cb790fcbdb9e"},"vehicle_type_id":"4","last_reported":1745615376,"current_range_meters":16400,"station_id":"ce4bhih2rcd13ifvqfr0","pricing_plan_id":"cebpf4jnsgd1na2vs0mg"},{"bike_id":"22501309-8f57-4ae1-a0d6-bcd32e1d825d","system_id":"levelo_inurba_marseille","lat":43.2669,"lon":5.38266,"is_reserved":false,"is_disabled":false,"rental_uris":{"android":"levelo://app?vid=22501309-8f57-4ae1-a0d6-bcd32e1d825d","ios":"levelo://app?vid=22501309-8f57-4ae1-a0d6-bcd32e1d825d"},"vehicle_type_id":"4","last_reported":1745615376,"current_range_meters":16400,"station_id":"ce4bhg92rcd13ifvqf90","pricing_plan_id":"cebpf4jnsgd1na2vs0mg"},{"bike_id":"42f4a34b-5447-42b2-88ad-6361cc2e87e0","system_id":"levelo_inurba_marseille","lat":43.297902,"lon":5.371051,"is_reserved":false,"is_disabled":false,"rental_uris":{"android":"levelo://app?vid=42f4a34b-5447-42b2-88ad-6361cc2e87e0","ios":"levelo://app?vid=42f4a34b-5447-42b2-88ad-6361cc2e87e0"},"vehicle_type_id":"4","last_reported":1745615376,"current_range_meters":16400,"station_id":"","pricing_plan_id":"cebpf4jnsgd1na2vs0mg"},{"bike_id":"f1d84fb5-f9d0-4769-a5af-b5ddf79f36da","system_id":"levelo_inurba_marseille","lat":43.29528,"lon":5.38537,"is_reserved":false,"is_disabled":false,"rental_uris":{"android":"levelo://app?vid=f1d84fb5-f9d0-4769-a5af-b5ddf79f36da","ios":"levelo://app?vid=f1d84fb5-f9d0-4769-a5af-b5ddf79f36da"},"vehicle_type_id":"4","last_reported":1745615376,"current_range_meters":16400,"station_id":"ce4bgih2rcd13ifvqba0","pricing_plan_id":"cebpf4jnsgd1na2vs0mg"},{"bike_id":"97fbe862-3dc4-4ded-9569-7540ceeeffb5","system_id":"levelo_inurba_marseille","lat":43.33604,"lon":5.41012,"is_reserved":false,"is_disabled":false,"rental_uris":{"android":"levelo://app?vid=97fbe862-3dc4-4ded-9569-7540ceeeffb5","ios":"levelo://app?vid=97fbe862-3dc4-4ded-9569-7540ceeeffb5"},"vehicle_type_id":"4","last_reported":1745615376,"current_range_meters":16400,"station_id":"ce4bhqh2rcd13ifvqhmg","pricing_plan_id":"cebpf4jnsgd1na2vs0mg"},{"bike_id":"6af27718-a240-4511-b105-026b1985396f","system_id":"levelo_inurba_marseille","lat":43.29537,"lon":5.36274,"is_reserved":false,"is_disabled":false,"rental_uris":{"android":"levelo://app?vid=6af27718-a240-4511-b105-026b1985396f","ios":"levelo://app?vid=6af27718-a240-4511-b105-026b1985396f"},"vehicle_type_id":"4","last_reported":1745615376,"current_range_meters":16400,"station_id":"","pricing_plan_id":"cebpf4jnsgd1na2vs0mg"},{"bike_id":"f0360f45-6be9-4488-84ea-84d3cda26aaf","system_id":"levelo_inurba_marseille","lat":43.32522,"lon":5.41606,"is_reserved":false,"is_disabled":false,"rental_uris":{"android":"levelo://app?vid=f0360f45-6be9-4488-84ea-84d3cda26aaf","ios":"levelo://app?vid=f0360f45-6be9-4488-84ea-84d3cda26aaf"},"vehicle_type_id":"4","last_reported":1745615376,"current_range_meters":16400,"station_id":"","pricing_plan_id":"cebpf4jnsgd1na2vs0mg"},{"bike_id":"51a4b1f4-4cfb-4b9e-b7e6-50254ee4c796","system_id":"levelo_inurba_marseille","lat":43.28628,"lon":5.37081,"is_reserved":false,"is_disabled":true,"rental_uris":{"android":"levelo://app?vid=51a4b1f4-4cfb-4b9e-b7e6-50254ee4c796","ios":"levelo://app?vid=51a4b1f4-4cfb-4b9e-b7e6-50254ee4c796"},"vehicle_type_id":"4","last_reported":1745615376,"current_range_meters":16400,"station_id":"ce4bht12rcd13ifvqi60","pricing_plan_id":"cebpf4jnsgd1na2vs0mg"},{"bike_id":"96733886-38eb-4a8b-9470-0c4bf645e97a","system_id":"levelo_inurba_marseille","lat":43.27945,"lon":5.41051,"is_reserved":false,"is_disabled":false,"rental_uris":{"android":"levelo://app?vid=96733886-38eb-4a8b-9470-0c4bf645e97a","ios":"levelo://app?vid=96733886-38eb-4a8b-9470-0c4bf645e97a"},"vehicle_type_id":"4","last_reported":1745615376,"current_range_meters":16800,"station_id":"ce4bhnp2rcd13ifvqh0g","pricing_plan_id":"cebpf4jnsgd1na2vs0mg"},{"bike_id":"0ec508c1-e9ac-4b5b-b8d1-19675c98bb05","system_id":"levelo_inurba_marseille","lat":43.31119,"lon":5.377715,"is_reserved":false,"is_disabled":false,"rental_uris":{"android":"levelo://app?vid=0ec508c1-e9ac-4b5b-b8d1-19675c98bb05","ios":"levelo://app?vid=0ec508c1-e9ac-4b5b-b8d1-19675c98bb05"},"vehicle_type_id":"4","last_reported":1745615376,"current_range_meters":16800,"station_id":"ce4bhr92rcd13ifvqhrg","pricing_plan_id":"cebpf4jnsgd1na2vs0mg"},{"bike_id":"fbdb7676-8966-4707-9a69-0de55aea38dd","system_id":"levelo_inurba_marseille","lat":43.29864,"lon":5.39735,"is_reserved":false,"is_disabled":false,"rental_uris":{"android":"levelo://app?vid=fbdb7676-8966-4707-9a69-0de55aea38dd","ios":"levelo://app?vid=fbdb7676-8966-4707-9a69-0de55aea38dd"},"vehicle_type_id":"4","last_reported":1745615376,"current_range_meters":16800,"station_id":"ce4bh0h2rcd13ifvqd50","pricing_plan_id":"cebpf4jnsgd1na2vs0mg"},{"bike_id":"a14bf633-63fb-4610-8e37-88aae1b79910","system_id":"levelo_inurba_marseille","lat":43.29893,"lon":5.37471,"is_reserved":false,"is_disabled":false,"rental_uris":{"android":"levelo://app?vid=a14bf633-63fb-4610-8e37-88aae1b79910","ios":"levelo://app?vid=a14bf633-63fb-4610-8e37-88aae1b79910"},"vehicle_type_id":"4","last_reported":1745615376,"current_range_meters":16800,"station_id":"ce4bgjh2rcd13ifvqbg0","pricing_plan_id":"cebpf4jnsgd1na2vs0mg"},{"bike_id":"4ccd09c6-d93f-473d-ac43-d370673e92f3","system_id":"levelo_inurba_marseille","lat":43.30305,"lon":5.3921,"is_reserved":false,"is_disabled":false,"rental_uris":{"android":"levelo://app?vid=4ccd09c6-d93f-473d-ac43-d370673e92f3","ios":"levelo://app?vid=4ccd09c6-d93f-473d-ac43-d370673e92f3"},"vehicle_type_id":"4","last_reported":1745615376,"current_range_meters":16800,"station_id":"ce4bgkh2rcd13ifvqbk0","pricing_plan_id":"cebpf4jnsgd1na2vs0mg"},{"bike_id":"77f3a03c-e432-4d8b-ac35-cb034740917f","system_id":"levelo_inurba_marseille","lat":43.29419,"lon":5.38633,"is_reserved":false,"is_disabled":false,"rental_uris":{"android":"levelo://app?vid=77f3a03c-e432-4d8b-ac35-cb034740917f","ios":"levelo://app?vid=77f3a03c-e432-4d8b-ac35-cb034740917f"},"vehicle_type_id":"4","last_reported":1745615376,"current_range_meters":16800,"station_id":"ce4bh2h2rcd13ifvqdh0","pricing_plan_id":"cebpf4jnsgd1na2vs0mg"},{"bike_id":"31de0553-c9b8-4cd4-844d-7d7b36fa3ecd","system_id":"levelo_inurba_marseille","lat":43.28164,"lon":5.42625,"is_reserved":false,"is_disabled":false,"rental_uris":{"android":"levelo://app?vid=31de0553-c9b8-4cd4-844d-7d7b36fa3ecd","ios":"levelo://app?vid=31de0553-c9b8-4cd4-844d-7d7b36fa3ecd"},"vehicle_type_id":"4","last_reported":1745615376,"current_range_meters":16800,"station_id":"ce4bhnh2rcd13ifvqgug","pricing_plan_id":"cebpf4jnsgd1na2vs0mg"},{"bike_id":"1d22e340-5741-405c-9e8c-72ef42c2a6d2","system_id":"levelo_inurba_marseille","lat":43.30881,"lon":5.37194,"is_reserved":false,"is_disabled":false,"rental_uris":{"android":"levelo://app?vid=1d22e340-5741-405c-9e8c-72ef42c2a6d2","ios":"levelo://app?vid=1d22e340-5741-405c-9e8c-72ef42c2a6d2"},"vehicle_type_id":"4","last_reported":1745615376,"current_range_meters":16800,"station_id":"ce4bguh2rcd13ifvqckg","pricing_plan_id":"cebpf4jnsgd1na2vs0mg"},{"bike_id":"caebf180-8579-4dcc-b01b-722f84526af8","system_id":"levelo_inurba_marseille","lat":43.269319,"lon":5.389192,"is_reserved":false,"is_disabled":false,"rental_uris":{"android":"levelo://app?vid=caebf180-8579-4dcc-b01b-722f84526af8","ios":"levelo://app?vid=caebf180-8579-4dcc-b01b-722f84526af8"},"vehicle_type_id":"4","last_reported":1745615376,"current_range_meters":16800,"station_id":"ce4bhih2rcd13ifvqfs0","pricing_plan_id":"cebpf4jnsgd1na2vs0mg"},{"bike_id":"cf157466-8d14-4e95-91b9-3b7b5d1fe305","system_id":"levelo_inurba_marseille","lat":43.29529,"lon":5.38542,"is_reserved":false,"is_disabled":false,"rental_uris":{"android":"levelo://app?vid=cf157466-8d14-4e95-91b9-3b7b5d1fe305","ios":"levelo://app?vid=cf157466-8d14-4e95-91b9-3b7b5d1fe305"},"vehicle_type_id":"4","last_reported":1745615376,"current_range_meters":16800,"station_id":"ce4bgih2rcd13ifvqba0","pricing_plan_id":"cebpf4jnsgd1na2vs0mg"},{"bike_id":"37d03853-51a7-48c4-a219-3bb1793607ca","system_id":"levelo_inurba_marseille","lat":43.29886,"lon":5.38891,"is_reserved":false,"is_disabled":false,"rental_uris":{"android":"levelo://app?vid=37d03853-51a7-48c4-a219-3bb1793607ca","ios":"levelo://app?vid=37d03853-51a7-48c4-a219-3bb1793607ca"},"vehicle_type_id":"4","last_reported":1745615376,"current_range_meters":16800,"station_id":"ce4bh392rcd13ifvqdl0","pricing_plan_id":"cebpf4jnsgd1na2vs0mg"},{"bike_id":"13f036c5-601a-484f-900b-bd994e0237e9","system_id":"levelo_inurba_marseille","lat":43.27059,"lon":5.40254,"is_reserved":false,"is_disabled":false,"rental_uris":{"android":"levelo://app?vid=13f036c5-601a-484f-900b-bd994e0237e9","ios":"levelo://app?vid=13f036c5-601a-484f-900b-bd994e0237e9"},"vehicle_type_id":"4","last_reported":1745615376,"current_range_meters":16800,"station_id":"ce4bhk92rcd13ifvqgc0","pricing_plan_id":"cebpf4jnsgd1na2vs0mg"},{"bike_id":"f31c24b5-1d46-404e-b00b-3156bfee744d","system_id":"levelo_inurba_marseille","lat":43.29508,"lon":5.38537,"is_reserved":false,"is_disabled":false,"rental_uris":{"android":"levelo://app?vid=f31c24b5-1d46-404e-b00b-3156bfee744d","ios":"levelo://app?vid=f31c24b5-1d46-404e-b00b-3156bfee744d"},"vehicle_type_id":"4","last_reported":1745615376,"current_range_meters":16800,"station_id":"ce4bgih2rcd13ifvqba0","pricing_plan_id":"cebpf4jnsgd1na2vs0mg"},{"bike_id":"71b06891-15c2-41bf-9721-404a7524a76b","system_id":"levelo_inurba_marseille","lat":43.284813,"lon":5.384207,"is_reserved":false,"is_disabled":false,"rental_uris":{"android":"levelo://app?vid=71b06891-15c2-41bf-9721-404a7524a76b","ios":"levelo://app?vid=71b06891-15c2-41bf-9721-404a7524a76b"},"vehicle_type_id":"4","last_reported":1745615376,"current_range_meters":16800,"station_id":"ce4bgvh2rcd13ifvqcs0","pricing_plan_id":"cebpf4jnsgd1na2vs0mg"},{"bike_id":"d28bf9af-5868-40cf-bc78-dd7cb5c022b5","system_id":"levelo_inurba_marseille","lat":43.29987,"lon":5.38483,"is_reserved":false,"is_disabled":true,"rental_uris":{"android":"levelo://app?vid=d28bf9af-5868-40cf-bc78-dd7cb5c022b5","ios":"levelo://app?vid=d28bf9af-5868-40cf-bc78-dd7cb5c022b5"},"vehicle_type_id":"4","last_reported":1745615376,"current_range_meters":17200,"station_id":"ce4bgj92rcd13ifvqbd0","pricing_plan_id":"cebpf4jnsgd1na2vs0mg"},{"bike_id":"d721dd34-165c-4212-a128-abfd72eaf4d3","system_id":"levelo_inurba_marseille","lat":43.2951,"lon":5.38526,"is_reserved":false,"is_disabled":false,"rental_uris":{"android":"levelo://app?vid=d721dd34-165c-4212-a128-abfd72eaf4d3","ios":"levelo://app?vid=d721dd34-165c-4212-a128-abfd72eaf4d3"},"vehicle_type_id":"4","last_reported":1745615376,"current_range_meters":17200,"station_id":"ce4bgih2rcd13ifvqba0","pricing_plan_id":"cebpf4jnsgd1na2vs0mg"},{"bike_id":"84fbb3b0-32a6-4d2e-ae64-a58ff68e7b32","system_id":"levelo_inurba_marseille","lat":43.22927,"lon":5.35377,"is_reserved":false,"is_disabled":false,"rental_uris":{"android":"levelo://app?vid=84fbb3b0-32a6-4d2e-ae64-a58ff68e7b32","ios":"levelo://app?vid=84fbb3b0-32a6-4d2e-ae64-a58ff68e7b32"},"vehicle_type_id":"4","last_reported":1745615376,"current_range_meters":17200,"station_id":"cpo3532slgdg3j2ikp40","pricing_plan_id":"cebpf4jnsgd1na2vs0mg"},{"bike_id":"ddc2ed76-18ad-4e0c-9dbd-1307527da83a","system_id":"levelo_inurba_marseille","lat":43.29522,"lon":5.38547,"is_reserved":false,"is_disabled":false,"rental_uris":{"android":"levelo://app?vid=ddc2ed76-18ad-4e0c-9dbd-1307527da83a","ios":"levelo://app?vid=ddc2ed76-18ad-4e0c-9dbd-1307527da83a"},"vehicle_type_id":"4","last_reported":1745615376,"current_range_meters":17200,"station_id":"ce4bgih2rcd13ifvqba0","pricing_plan_id":"cebpf4jnsgd1na2vs0mg"},{"bike_id":"a41cbd74-abc2-43f9-b491-6e11c1d27e2d","system_id":"levelo_inurba_marseille","lat":43.3033,"lon":5.40446,"is_reserved":false,"is_disabled":false,"rental_uris":{"android":"levelo://app?vid=a41cbd74-abc2-43f9-b491-6e11c1d27e2d","ios":"levelo://app?vid=a41cbd74-abc2-43f9-b491-6e11c1d27e2d"},"vehicle_type_id":"4","last_reported":1745615376,"current_range_meters":17200,"station_id":"ce4bh012rcd13ifvqd10","pricing_plan_id":"cebpf4jnsgd1na2vs0mg"},{"bike_id":"ca376395-5bab-49ac-a88b-03ed7986b1fc","system_id":"levelo_inurba_marseille","lat":43.25919,"lon":5.40903,"is_reserved":false,"is_disabled":false,"rental_uris":{"android":"levelo://app?vid=ca376395-5bab-49ac-a88b-03ed7986b1fc","ios":"levelo://app?vid=ca376395-5bab-49ac-a88b-03ed7986b1fc"},"vehicle_type_id":"4","last_reported":1745615376,"current_range_meters":17200,"station_id":"ce4bhm92rcd13ifvqglg","pricing_plan_id":"cebpf4jnsgd1na2vs0mg"},{"bike_id":"dbebca8a-053a-407c-9e87-ed214e66581b","system_id":"levelo_inurba_marseille","lat":43.32362,"lon":5.38884,"is_reserved":false,"is_disabled":false,"rental_uris":{"android":"levelo://app?vid=dbebca8a-053a-407c-9e87-ed214e66581b","ios":"levelo://app?vid=dbebca8a-053a-407c-9e87-ed214e66581b"},"vehicle_type_id":"4","last_reported":1745615376,"current_range_meters":17200,"station_id":"ce4bhqp2rcd13ifvqhog","pricing_plan_id":"cebpf4jnsgd1na2vs0mg"},{"bike_id":"b7d639eb-668e-4a2e-a746-3a295eda7d7b","system_id":"levelo_inurba_marseille","lat":43.28664,"lon":5.36352,"is_reserved":false,"is_disabled":false,"rental_uris":{"android":"levelo://app?vid=b7d639eb-668e-4a2e-a746-3a295eda7d7b","ios":"levelo://app?vid=b7d639eb-668e-4a2e-a746-3a295eda7d7b"},"vehicle_type_id":"4","last_reported":1745615376,"current_range_meters":17200,"station_id":"ce4bhah2rcd13ifvqej0","pricing_plan_id":"cebpf4jnsgd1na2vs0mg"},{"bike_id":"dc8be256-ccf8-469a-94c0-2f22afb9b485","system_id":"levelo_inurba_marseille","lat":43.30542,"lon":5.36697,"is_reserved":false,"is_disabled":false,"rental_uris":{"android":"levelo://app?vid=dc8be256-ccf8-469a-94c0-2f22afb9b485","ios":"levelo://app?vid=dc8be256-ccf8-469a-94c0-2f22afb9b485"},"vehicle_type_id":"4","last_reported":1745615376,"current_range_meters":17200,"station_id":"ce4bgrp2rcd13ifvqc9g","pricing_plan_id":"cebpf4jnsgd1na2vs0mg"},{"bike_id":"6d74b7dd-c380-4975-9c15-0d2be01312f2","system_id":"levelo_inurba_marseille","lat":43.31076,"lon":5.38357,"is_reserved":false,"is_disabled":false,"rental_uris":{"android":"levelo://app?vid=6d74b7dd-c380-4975-9c15-0d2be01312f2","ios":"levelo://app?vid=6d74b7dd-c380-4975-9c15-0d2be01312f2"},"vehicle_type_id":"4","last_reported":1745615376,"current_range_meters":17200,"station_id":"ce4bgv92rcd13ifvqcr0","pricing_plan_id":"cebpf4jnsgd1na2vs0mg"},{"bike_id":"e3cdf67a-5fc2-4703-9c39-57d29454c8ba","system_id":"levelo_inurba_marseille","lat":43.340425,"lon":5.386994,"is_reserved":false,"is_disabled":false,"rental_uris":{"android":"levelo://app?vid=e3cdf67a-5fc2-4703-9c39-57d29454c8ba","ios":"levelo://app?vid=e3cdf67a-5fc2-4703-9c39-57d29454c8ba"},"vehicle_type_id":"4","last_reported":1745615376,"current_range_meters":17600,"station_id":"","pricing_plan_id":"cebpf4jnsgd1na2vs0mg"},{"bike_id":"4046a82f-66e8-4b55-bd0a-356edea772d8","system_id":"levelo_inurba_marseille","lat":43.308,"lon":5.3736,"is_reserved":false,"is_disabled":false,"rental_uris":{"android":"levelo://app?vid=4046a82f-66e8-4b55-bd0a-356edea772d8","ios":"levelo://app?vid=4046a82f-66e8-4b55-bd0a-356edea772d8"},"vehicle_type_id":"4","last_reported":1745615376,"current_range_meters":17600,"station_id":"","pricing_plan_id":"cebpf4jnsgd1na2vs0mg"},{"bike_id":"5935a448-c684-42b0-848d-c1b2a0161db3","system_id":"levelo_inurba_marseille","lat":43.283407,"lon":5.381143,"is_reserved":false,"is_disabled":false,"rental_uris":{"android":"levelo://app?vid=5935a448-c684-42b0-848d-c1b2a0161db3","ios":"levelo://app?vid=5935a448-c684-42b0-848d-c1b2a0161db3"},"vehicle_type_id":"4","last_reported":1745615376,"current_range_meters":17600,"station_id":"ce4bh412rcd13ifvqdr0","pricing_plan_id":"cebpf4jnsgd1na2vs0mg"},{"bike_id":"f8c996f0-1924-45d0-a09d-6148cd72f87c","system_id":"levelo_inurba_marseille","lat":43.30651,"lon":5.40091,"is_reserved":false,"is_disabled":false,"rental_uris":{"android":"levelo://app?vid=f8c996f0-1924-45d0-a09d-6148cd72f87c","ios":"levelo://app?vid=f8c996f0-1924-45d0-a09d-6148cd72f87c"},"vehicle_type_id":"4","last_reported":1745615376,"current_range_meters":17600,"station_id":"ce4bh112rcd13ifvqda0","pricing_plan_id":"cebpf4jnsgd1na2vs0mg"},{"bike_id":"6705c8f2-5134-4c53-8787-4d1867f8fa02","system_id":"levelo_inurba_marseille","lat":43.28929,"lon":5.38407,"is_reserved":false,"is_disabled":false,"rental_uris":{"android":"levelo://app?vid=6705c8f2-5134-4c53-8787-4d1867f8fa02","ios":"levelo://app?vid=6705c8f2-5134-4c53-8787-4d1867f8fa02"},"vehicle_type_id":"4","last_reported":1745615376,"current_range_meters":17600,"station_id":"ce4bh612rcd13ifvqe6g","pricing_plan_id":"cebpf4jnsgd1na2vs0mg"},{"bike_id":"ffabf726-6f9f-4e4c-ab60-49fe49b88b62","system_id":"levelo_inurba_marseille","lat":43.25719,"lon":5.41117,"is_reserved":false,"is_disabled":false,"rental_uris":{"android":"levelo://app?vid=ffabf726-6f9f-4e4c-ab60-49fe49b88b62","ios":"levelo://app?vid=ffabf726-6f9f-4e4c-ab60-49fe49b88b62"},"vehicle_type_id":"4","last_reported":1745615376,"current_range_meters":17200,"station_id":"ce4bhkp2rcd13ifvqgd0","pricing_plan_id":"cebpf4jnsgd1na2vs0mg"},{"bike_id":"befe7f54-b503-45d6-bf3d-ad86e2ee83f3","system_id":"levelo_inurba_marseille","lat":43.29379,"lon":5.3785,"is_reserved":false,"is_disabled":false,"rental_uris":{"android":"levelo://app?vid=befe7f54-b503-45d6-bf3d-ad86e2ee83f3","ios":"levelo://app?vid=befe7f54-b503-45d6-bf3d-ad86e2ee83f3"},"vehicle_type_id":"4","last_reported":1745615376,"current_range_meters":17600,"station_id":"ce4bgjh2rcd13ifvqbf0","pricing_plan_id":"cebpf4jnsgd1na2vs0mg"},{"bike_id":"cae83900-089d-450f-be7b-44fa8b9202d6","system_id":"levelo_inurba_marseille","lat":43.31346,"lon":5.38502,"is_reserved":false,"is_disabled":false,"rental_uris":{"android":"levelo://app?vid=cae83900-089d-450f-be7b-44fa8b9202d6","ios":"levelo://app?vid=cae83900-089d-450f-be7b-44fa8b9202d6"},"vehicle_type_id":"4","last_reported":1745615376,"current_range_meters":17600,"station_id":"ce4bgt92rcd13ifvqcf0","pricing_plan_id":"cebpf4jnsgd1na2vs0mg"},{"bike_id":"64e655f7-3e84-4d9d-adbf-24780ce5cd55","system_id":"levelo_inurba_marseille","lat":43.31714,"lon":5.43708,"is_reserved":false,"is_disabled":false,"rental_uris":{"android":"levelo://app?vid=64e655f7-3e84-4d9d-adbf-24780ce5cd55","ios":"levelo://app?vid=64e655f7-3e84-4d9d-adbf-24780ce5cd55"},"vehicle_type_id":"4","last_reported":1745615376,"current_range_meters":17600,"station_id":"ce4bhp92rcd13ifvqhcg","pricing_plan_id":"cebpf4jnsgd1na2vs0mg"},{"bike_id":"cc294117-a551-4098-bca9-77a2fffe0ba8","system_id":"levelo_inurba_marseille","lat":43.27172,"lon":5.40993,"is_reserved":false,"is_disabled":false,"rental_uris":{"android":"levelo://app?vid=cc294117-a551-4098-bca9-77a2fffe0ba8","ios":"levelo://app?vid=cc294117-a551-4098-bca9-77a2fffe0ba8"},"vehicle_type_id":"4","last_reported":1745615376,"current_range_meters":17600,"station_id":"ce4bhl12rcd13ifvqgf0","pricing_plan_id":"cebpf4jnsgd1na2vs0mg"},{"bike_id":"1c98a0e1-4459-49f6-8e9d-0c8e27e108d6","system_id":"levelo_inurba_marseille","lat":43.32056,"lon":5.41529,"is_reserved":false,"is_disabled":false,"rental_uris":{"android":"levelo://app?vid=1c98a0e1-4459-49f6-8e9d-0c8e27e108d6","ios":"levelo://app?vid=1c98a0e1-4459-49f6-8e9d-0c8e27e108d6"},"vehicle_type_id":"4","last_reported":1745615376,"current_range_meters":18000,"station_id":"ce4bhq92rcd13ifvqhkg","pricing_plan_id":"cebpf4jnsgd1na2vs0mg"},{"bike_id":"3503b221-d154-44ad-a596-52b08c586bf0","system_id":"levelo_inurba_marseille","lat":43.25495,"lon":5.37651,"is_reserved":false,"is_disabled":false,"rental_uris":{"android":"levelo://app?vid=3503b221-d154-44ad-a596-52b08c586bf0","ios":"levelo://app?vid=3503b221-d154-44ad-a596-52b08c586bf0"},"vehicle_type_id":"4","last_reported":1745615376,"current_range_meters":18000,"station_id":"ce4bhh12rcd13ifvqff0","pricing_plan_id":"cebpf4jnsgd1na2vs0mg"},{"bike_id":"8681189a-c5a2-4458-b6c1-95a6506a132e","system_id":"levelo_inurba_marseille","lat":43.2794,"lon":5.41053,"is_reserved":false,"is_disabled":false,"rental_uris":{"android":"levelo://app?vid=8681189a-c5a2-4458-b6c1-95a6506a132e","ios":"levelo://app?vid=8681189a-c5a2-4458-b6c1-95a6506a132e"},"vehicle_type_id":"4","last_reported":1745615376,"current_range_meters":18000,"station_id":"ce4bhnp2rcd13ifvqh0g","pricing_plan_id":"cebpf4jnsgd1na2vs0mg"},