{"last_updated":1751746230,"ttl":60,"version":"2.2","data":{"bikes":[{"bike_id":"3da29fb8-fc97-44c6-b9ac-31dd456b2fd4","system_id":"levelo_inurba_marseille","lat":43.33771,"lon":5.37424,"is_reserved":false,"is_disabled":true,"rental_uris":{"android":"levelo://app?vid=3da29fb8-fc97-44c6-b9ac-31dd456b2fd4","ios":"levelo://app?vid=3da29fb8-fc97-44c6-b9ac-31dd456b2fd4"},"vehicle_type_id":"4","last_reported":1751746230,"current_range_meters":0,"station_id":"","pricing_plan_id":"cebpf4jnsgd1na2vs0mg"},{"bike_id":"01861ad8-a8d7-4be6-816e-651927c87584","system_id":"levelo_inurba_marseille","lat":43.33751,"lon":5.37456,"is_reserved":false,"is_disabled":true,"rental_uris":{"android":"levelo://app?vid=01861ad8-a8d7-4be6-816e-651927c87584","ios":"levelo://app?vid=01861ad8-a8d7-4be6-816e-651927c87584"},"vehicle_type_id":"4","last_reported":1751746230,"current_range_meters":0,"station_id":"","pricing_plan_id":"cebpf4jnsgd1na2vs0mg"},{"bike_id":"eb932c69-4380-48ff-ba01-ac0eb9bfb876","system_id":"levelo_inurba_marseille","lat":43.30012,"lon":5.40092,"is_reserved":false,"is_disabled":true,"rental_uris":{"android":"levelo://app?vid=eb932c69-4380-48ff-ba01-ac0eb9bfb876","ios":"levelo://app?vid=eb932c69-4380-48ff-ba01-ac0eb9bfb876"},"vehicle_type_id":"4","last_reported":1751746230,"current_range_meters":0,"station_id":"","pricing_plan_id":"cebpf4jnsgd1na2vs0mg"},{"bike_id":"374dc5fc-aac8-4da9-98b1-98e70c32d600","system_id":"levelo_inurba_marseille","lat":43.28204,"lon":5.34927,"is_reserved":false,"is_disabled":true,"rental_uris":{"android":"levelo://app?vid=374dc5fc-aac8-4da9-98b1-98e70c32d600","ios":"levelo://app?vid=374dc5fc-aac8-4da9-98b1-98e70c32d600"},"vehicle_type_id":"4","last_reported":1751746230,"current_range_meters":0,"station_id":"","pricing_plan_id":"cebpf4jnsgd1na2vs0mg"},{"bike_id":"599ed263-d695-48ed-a524-ce1d5d53f12f","system_id":"levelo_inurba_marseille","lat":43.29617,"lon":5.37725,"is_reserved":false,"is_disabled":true,"rental_uris":{"android":"levelo://app?vid=599ed263-d695-48ed-a524-ce1d5d53f12f","ios":"levelo://app?vid=599ed263-d695-48ed-a524-ce1d5d53f12f"},"vehicle_type_id":"4","last_reported":1751746230,"current_range_meters":0,"station_id":"ce4bgi92rcd13ifvqb90","pricing_plan_id":"cebpf4jnsgd1na2vs0mg"},{"bike_id":"d2fe0c65-4e37-4c16-80cb-3d9d54f29291","system_id":"levelo_inurba_marseille","lat":43.3137,"lon":5.38486,"is_reserved":false,"is_disabled":true,"rental_uris":{"android":"levelo://app?vid=d2fe0c65-4e37-4c16-80cb-3d9d54f29291","ios":"levelo://app?vid=d2fe0c65-4e37-4c16-80cb-3d9d54f29291"},"vehicle_type_id":"4","last_reported":1751746230,"current_range_meters":0,"station_id":"ce4bgt92rcd13ifvqcf0","pricing_plan_id":"cebpf4jnsgd1na2vs0mg"},{"bike_id":"c7d02e7b-389c-4055-a2ad-bba8b8dd4603","system_id":"levelo_inurba_marseille","lat":43.32023,"lon":5.41435,"is_reserved":false,"is_disabled":true,"rental_uris":{"android":"levelo://app?vid=c7d02e7b-389c-4055-a2ad-bba8b8dd4603","ios":"levelo://app?vid=c7d02e7b-389c-4055-a2ad-bba8b8dd4603"},"vehicle_type_id":"4","last_reported":1751746230,"current_range_meters":0,"station_id":"ce4bh012rcd13ifvqd00","pricing_plan_id":"cebpf4jnsgd1na2vs0mg"},{"bike_id":"20a2973b-1359-4b2c-bf1d-48e50c2fcf59","system_id":"levelo_inurba_marseille","lat":43.29259,"lon":5.384403,"is_reserved":false,"is_disabled":true,"rental_uris":{"android":"levelo://app?vid=20a2973b-1359-4b2c-bf1d-48e50c2fcf59","ios":"levelo://app?vid=20a2973b-1359-4b2c-bf1d-48e50c2fcf59"},"vehicle_type_id":"4","last_reported":1751746230,"current_range_meters":0,"station_id":"ce4bh692rcd13ifvqea0","pricing_plan_id":"cebpf4jnsgd1na2vs0mg"},{"bike_id":"fe41328c-e68c-4cd2-8813-ce6d372d6f80","system_id":"levelo_inurba_marseille","lat":43.288525,"lon":5.358317,"is_reserved":false,"is_disabled":true,"rental_uris":{"android":"levelo://app?vid=fe41328c-e68c-4cd2-8813-ce6d372d6f80","ios":"levelo://app?vid=fe41328c-e68c-4cd2-8813-ce6d372d6f80"},"vehicle_type_id":"4","last_reported":1751746230,"current_range_meters":0,"station_id":"ce4bhb12rcd13ifvqem0","pricing_plan_id":"cebpf4jnsgd1na2vs0mg"},{"bike_id":"3e326c48-c004-47d5-b5a5-008ee28efa34","system_id":"levelo_inurba_marseille","lat":43.28989,"lon":5.35605,"is_reserved":false,"is_disabled":true,"rental_uris":{"android":"levelo://app?vid=3e326c48-c004-47d5-b5a5-008ee28efa34","ios":"levelo://app?vid=3e326c48-c004-47d5-b5a5-008ee28efa34"},"vehicle_type_id":"4","last_reported":1751746230,"current_range_meters":0,"station_id":"ce4bhb92rcd13ifvqen0","pricing_plan_id":"cebpf4jnsgd1na2vs0mg"},{"bike_id":"3bcc9505-e8a6-46c7-aee3-c0aac566b088","system_id":"levelo_inurba_marseille","lat":43.27909,"lon":5.38,"is_reserved":false,"is_disabled":true,"rental_uris":{"android":"levelo://app?vid=3bcc9505-e8a6-46c7-aee3-c0aac566b088","ios":"levelo://app?vid=3bcc9505-e8a6-46c7-aee3-c0aac566b088"},"vehicle_type_id":"4","last_reported":1751746230,"current_range_meters":0,"station_id":"ce4bhf92rcd13ifvqf50","pricing_plan_id":"cebpf4jnsgd1na2vs0mg"},{"bike_id":"61f6c752-20dd-40d0-8ebe-efcc9159db89","system_id":"levelo_inurba_marseille","lat":43.27175,"lon":5.41,"is_reserved":false,"is_disabled":true,"rental_uris":{"android":"levelo://app?vid=61f6c752-20dd-40d0-8ebe-efcc9159db89","ios":"levelo://app?vid=61f6c752-20dd-40d0-8ebe-efcc9159db89"},"vehicle_type_id":"4","last_reported":1751746230,"current_range_meters":0,"station_id":"ce4bhl12rcd13ifvqgf0","pricing_plan_id":"cebpf4jnsgd1na2vs0mg"},{"bike_id":"ab78d7ff-8265-44d4-b52a-c75a482a2b1b","system_id":"levelo_inurba_marseille","lat":43.24168,"lon":5.39726,"is_reserved":false,"is_disabled":true,"rental_uris":{"android":"levelo://app?vid=ab78d7ff-8265-44d4-b52a-c75a482a2b1b","ios":"levelo://app?vid=ab78d7ff-8265-44d4-b52a-c75a482a2b1b"},"vehicle_type_id":"4","last_reported":1751746230,"current_range_meters":0,"station_id":"ce4bhn12rcd13ifvqgpg","pricing_plan_id":"cebpf4jnsgd1na2vs0mg"},{"bike_id":"335246ee-69c6-4b4d-9e04-7571060d4dca","system_id":"levelo_inurba_marseille","lat":43.27993,"lon":5.4001,"is_reserved":false,"is_disabled":true,"rental_uris":{"android":"levelo://app?vid=335246ee-69c6-4b4d-9e04-7571060d4dca","ios":"levelo://app?vid=335246ee-69c6-4b4d-9e04-7571060d4dca"},"vehicle_type_id":"4","last_reported":1751746230,"current_range_meters":0,"station_id":"ce4bho92rcd13ifvqh4g","pricing_plan_id":"cebpf4jnsgd1na2vs0mg"},{"bike_id":"0c49a7d6-f9db-4a6c-978f-71d3ca86d4a3","system_id":"levelo_inurba_marseille","lat":43.225,"lon":5.34785,"is_reserved":false,"is_disabled":true,"rental_uris":{"android":"levelo://app?vid=0c49a7d6-f9db-4a6c-978f-71d3ca86d4a3","ios":"levelo://app?vid=0c49a7d6-f9db-4a6c-978f-71d3ca86d4a3"},"vehicle_type_id":"4","last_reported":1751746230,"current_range_meters":0,"station_id":"st_cvj5dfep6f1abm77gieg","pricing_plan_id":"cebpf4jnsgd1na2vs0mg"},{"bike_id":"9731eb19-a839-4c3b-8c64-5534d8f67efb","system_id":"levelo_inurba_marseille","lat":43.30706,"lon":5.37817,"is_reserved":false,"is_disabled":true,"rental_uris":{"android":"levelo://app?vid=9731eb19-a839-4c3b-8c64-5534d8f67efb","ios":"levelo://app?vid=9731eb19-a839-4c3b-8c64-5534d8f67efb"},"vehicle_type_id":"4","last_reported":1751746230,"current_range_meters":400,"station_id":"","pricing_plan_id":"cebpf4jnsgd1na2vs0mg"},{"bike_id":"7d700fe5-59ec-4d47-b8c2-c85d7cc322a5","system_id":"levelo_inurba_marseille","lat":43.28549,"lon":5.37771,"is_reserved":false,"is_disabled":true,"rental_uris":{"android":"levelo://app?vid=7d700fe5-59ec-4d47-b8c2-c85d7cc322a5","ios":"levelo://app?vid=7d700fe5-59ec-4d47-b8c2-c85d7cc322a5"},"vehicle_type_id":"4","last_reported":1751746230,"current_range_meters":400,"station_id":"","pricing_plan_id":"cebpf4jnsgd1na2vs0mg"},{"bike_id":"e26ba497-efc7-4420-b8c5-9fa5e27f2ce4","system_id":"levelo_inurba_marseille","lat":43.3134,"lon":5.3708,"is_reserved":false,"is_disabled":true,"rental_uris":{"android":"levelo://app?vid=e26ba497-efc7-4420-b8c5-9fa5e27f2ce4","ios":"levelo://app?vid=e26ba497-efc7-4420-b8c5-9fa5e27f2ce4"},"vehicle_type_id":"4","last_reported":1751746230,"current_range_meters":400,"station_id":"","pricing_plan_id":"cebpf4jnsgd1na2vs0mg"},{"bike_id":"77a3ec2d-c95c-45b0-b8bf-57fce9071531","system_id":"levelo_inurba_marseille","lat":43.26028,"lon":5.3755,"is_reserved":false,"is_disabled":true,"rental_uris":{"android":"levelo://app?vid=77a3ec2d-c95c-45b0-b8bf-57fce9071531","ios":"levelo://app?vid=77a3ec2d-c95c-45b0-b8bf-57fce9071531"},"vehicle_type_id":"4","last_reported":1751746230,"current_range_meters":800,"station_id":"ce4bhgh2rcd13ifvqfa0","pricing_plan_id":"cebpf4jnsgd1na2vs0mg"},{"bike_id":"a5d5b7c3-7af8-4440-b5fe-5d61d92fa0d8","system_id":"levelo_inurba_marseille","lat":43.33604,"lon":5.41033,"is_reserved":false,"is_disabled":true,"rental_uris":{"android":"levelo://app?vid=a5d5b7c3-7af8-4440-b5fe-5d61d92fa0d8","ios":"levelo://app?vid=a5d5b7c3-7af8-4440-b5fe-5d61d92fa0d8"},"vehicle_type_id":"4","last_reported":1751746230,"current_range_meters":800,"station_id":"ce4bhqh2rcd13ifvqhmg","pricing_plan_id":"cebpf4jnsgd1na2vs0mg"},{"bike_id":"9bfc7d3d-4e60-4f8a-9c32-ef3d0e77ec5b","system_id":"levelo_inurba_marseille","lat":43.21187,"lon":5.35079,"is_reserved":false,"is_disabled":true,"rental_uris":{"android":"levelo://app?vid=9bfc7d3d-4e60-4f8a-9c32-ef3d0e77ec5b","ios":"levelo://app?vid=9bfc7d3d-4e60-4f8a-9c32-ef3d0e77ec5b"},"vehicle_type_id":"4","last_reported":1751746230,"current_range_meters":800,"station_id":"st_cvj6sg6p6f1abm77japg","pricing_plan_id":"cebpf4jnsgd1na2vs0mg"},{"bike_id":"723ea1f1-cc5a-4cf5-a956-887a5b7fec27","system_id":"levelo_inurba_marseille","lat":43.27616,"lon":5.36111,"is_reserved":false,"is_disabled":true,"rental_uris":{"android":"levelo://app?vid=723ea1f1-cc5a-4cf5-a956-887a5b7fec27","ios":"levelo://app?vid=723ea1f1-cc5a-4cf5-a956-887a5b7fec27"},"vehicle_type_id":"4","last_reported":1751746230,"current_range_meters":1200,"station_id":"ce4bgj92rcd13ifvqbe0","pricing_plan_id":"cebpf4jnsgd1na2vs0mg"},{"bike_id":"5a1a7806-1d66-4cd8-bb30-50f466393a05","system_id":"levelo_inurba_marseille","lat":43.31173,"lon":5.38717,"is_reserved":false,"is_disabled":true,"rental_uris":{"android":"levelo://app?vid=5a1a7806-1d66-4cd8-bb30-50f466393a05","ios":"levelo://app?vid=5a1a7806-1d66-4cd8-bb30-50f466393a05"},"vehicle_type_id":"4","last_reported":1751746230,"current_range_meters":1200,"station_id":"ce4bgv12rcd13ifvqcp0","pricing_plan_id":"cebpf4jnsgd1na2vs0mg"},{"bike_id":"7f1d2e04-436f-4e1e-a7e3-7f220fcc7554","system_id":"levelo_inurba_marseille","lat":43.29365,"lon":5.37225,"is_reserved":false,"is_disabled":true,"rental_uris":{"android":"levelo://app?vid=7f1d2e04-436f-4e1e-a7e3-7f220fcc7554","ios":"levelo://app?vid=7f1d2e04-436f-4e1e-a7e3-7f220fcc7554"},"vehicle_type_id":"4","last_reported":1751746230,"current_range_meters":1200,"station_id":"ce4bh3h2rcd13ifvqdn0","pricing_plan_id":"cebpf4jnsgd1na2vs0mg"},{"bike_id":"a12de9a0-21be-4169-a0f0-d72a0f4b3553","system_id":"levelo_inurba_marseille","lat":43.27665,"lon":5.3889,"is_reserved":false,"is_disabled":true,"rental_uris":{"android":"levelo://app?vid=a12de9a0-21be-4169-a0f0-d72a0f4b3553","ios":"levelo://app?vid=a12de9a0-21be-4169-a0f0-d72a0f4b3553"},"vehicle_type_id":"4","last_reported":1751746230,"current_range_meters":1200,"station_id":"ce4bhi12rcd13ifvqfo0","pricing_plan_id":"cebpf4jnsgd1na2vs0mg"},{"bike_id":"f2bf559f-93d9-4b14-8bbc-8aab08ff1f12","system_id":"levelo_inurba_marseille","lat":43.2318,"lon":5.39982,"is_reserved":false,"is_disabled":true,"rental_uris":{"android":"levelo://app?vid=f2bf559f-93d9-4b14-8bbc-8aab08ff1f12","ios":"levelo://app?vid=f2bf559f-93d9-4b14-8bbc-8aab08ff1f12"},"vehicle_type_id":"4","last_reported":1751746230,"current_range_meters":1200,"station_id":"ce4bhn12rcd13ifvqgqg","pricing_plan_id":"cebpf4jnsgd1na2vs0mg"},{"bike_id":"1a22c9f7-69be-44c9-8c9f-be1194fead73","system_id":"levelo_inurba_marseille","lat":43.32644,"lon":5.41006,"is_reserved":false,"is_disabled":true,"rental_uris":{"android":"levelo://app?vid=1a22c9f7-69be-44c9-8c9f-be1194fead73","ios":"levelo://app?vid=1a22c9f7-69be-44c9-8c9f-be1194fead73"},"vehicle_type_id":"4","last_reported":1751746230,"current_range_meters":1200,"station_id":"ce4bhpp2rcd13ifvqhgg","pricing_plan_id":"cebpf4jnsgd1na2vs0mg"},{"bike_id":"7ceb9e32-e15d-4bdf-b848-e10098ca54b4","system_id":"levelo_inurba_marseille","lat":43.31526,"lon":5.38033,"is_reserved":false,"is_disabled":true,"rental_uris":{"android":"levelo://app?vid=7ceb9e32-e15d-4bdf-b848-e10098ca54b4","ios":"levelo://app?vid=7ceb9e32-e15d-4bdf-b848-e10098ca54b4"},"vehicle_type_id":"4","last_reported":1751746230,"current_range_meters":1200,"station_id":"ce4bhsp2rcd13ifvqi50","pricing_plan_id":"cebpf4jnsgd1na2vs0mg"},{"bike_id":"10526e14-e6c3-4632-888d-8dff4073d9d7","system_id":"levelo_inurba_marseille","lat":43.27309,"lon":5.3908,"is_reserved":false,"is_disabled":true,"rental_uris":{"android":"levelo://app?vid=10526e14-e6c3-4632-888d-8dff4073d9d7","ios":"levelo://app?vid=10526e14-e6c3-4632-888d-8dff4073d9d7"},"vehicle_type_id":"4","last_reported":1751746230,"current_range_meters":1600,"station_id":"ce4bhgp2rcd13ifvqfe0","pricing_plan_id":"cebpf4jnsgd1na2vs0mg"},{"bike_id":"60abe387-d356-454c-91f4-92dc541e66be","system_id":"levelo_inurba_marseille","lat":43.32368,"lon":5.38875,"is_reserved":false,"is_disabled":true,"rental_uris":{"android":"levelo://app?vid=60abe387-d356-454c-91f4-92dc541e66be","ios":"levelo://app?vid=60abe387-d356-454c-91f4-92dc541e66be"},"vehicle_type_id":"4","last_reported":1751746230,"current_range_meters":1600,"station_id":"ce4bhqp2rcd13ifvqhog","pricing_plan_id":"cebpf4jnsgd1na2vs0mg"},{"bike_id":"41d9c1ec-3804-4317-8b86-e6c2b1911f16","system_id":"levelo_inurba_marseille","lat":43.3094,"lon":5.40142,"is_reserved":false,"is_disabled":true,"rental_uris":{"android":"levelo://app?vid=41d9c1ec-3804-4317-8b86-e6c2b1911f16","ios":"levelo://app?vid=41d9c1ec-3804-4317-8b86-e6c2b1911f16"},"vehicle_type_id":"4","last_reported":1751746230,"current_range_meters":2000,"station_id":"ce4bgvp2rcd13ifvqct0","pricing_plan_id":"cebpf4jnsgd1na2vs0mg"},{"bike_id":"6af2019f-a8df-4cc0-8691-264381a11378","system_id":"levelo_inurba_marseille","lat":43.30459,"lon":5.37906,"is_reserved":false,"is_disabled":false,"rental_uris":{"android":"levelo://app?vid=6af2019f-a8df-4cc0-8691-264381a11378","ios":"levelo://app?vid=6af2019f-a8df-4cc0-8691-264381a11378"},"vehicle_type_id":"4","last_reported":1751746230,"current_range_meters":2800,"station_id":"ce4bgup2rcd13ifvqcn0","pricing_plan_id":"cebpf4jnsgd1na2vs0mg"},{"bike_id":"e38467f3-2dd3-42ee-ad00-5ad5e38996fe","system_id":"levelo_inurba_marseille","lat":43.31168,"lon":5.38717,"is_reserved":false,"is_disabled":false,"rental_uris":{"android":"levelo://app?vid=e38467f3-2dd3-42ee-ad00-5ad5e38996fe","ios":"levelo://app?vid=e38467f3-2dd3-42ee-ad00-5ad5e38996fe"},"vehicle_type_id":"4","last_reported":1751746230,"current_range_meters":2800,"station_id":"ce4bgv12rcd13ifvqcp0","pricing_plan_id":"cebpf4jnsgd1na2vs0mg"},{"bike_id":"2a3e1e01-ea15-4195-98aa-fcf2a50efd27","system_id":"levelo_inurba_marseille","lat":43.28846,"lon":5.39339,"is_reserved":false,"is_disabled":false,"rental_uris":{"android":"levelo://app?vid=2a3e1e01-ea15-4195-98aa-fcf2a50efd27","ios":"levelo://app?vid=2a3e1e01-ea15-4195-98aa-fcf2a50efd27"},"vehicle_type_id":"4","last_reported":1751746230,"current_range_meters":2800,"station_id":"ce4bh2p2rcd13ifvqdi0","pricing_plan_id":"cebpf4jnsgd1na2vs0mg"},{"bike_id":"7027fdca-0100-49d2-8a1f-f530f99967a3","system_id":"levelo_inurba_marseille","lat":43.27971,"lon":5.38739,"is_reserved":false,"is_disabled":false,"rental_uris":{"android":"levelo://app?vid=7027fdca-0100-49d2-8a1f-f530f99967a3","ios":"levelo://app?vid=7027fdca-0100-49d2-8a1f-f530f99967a3"},"vehicle_type_id":"4","last_reported":1751746230,"current_range_meters":2800,"station_id":"ce4bhg12rcd13ifvqf80","pricing_plan_id":"cebpf4jnsgd1na2vs0mg"},{"bike_id":"f6ac2ca1-a3ac-4f58-b1a1-b74be8a76990","system_id":"levelo_inurba_marseille","lat":43.29901,"lon":5.43666,"is_reserved":false,"is_disabled":false,"rental_uris":{"android":"levelo://app?vid=f6ac2ca1-a3ac-4f58-b1a1-b74be8a76990","ios":"levelo://app?vid=f6ac2ca1-a3ac-4f58-b1a1-b74be8a76990"},"vehicle_type_id":"4","last_reported":1751746230,"current_range_meters":2800,"station_id":"ce4bhpp2rcd13ifvqhfg","pricing_plan_id":"cebpf4jnsgd1na2vs0mg"},{"bike_id":"d1444e94-489f-4fa9-9e06-4bdf6ba47149","system_id":"levelo_inurba_marseille","lat":43.2251,"lon":5.34787,"is_reserved":false,"is_disabled":false,"rental_uris":{"android":"levelo://app?vid=d1444e94-489f-4fa9-9e06-4bdf6ba47149","ios":"levelo://app?vid=d1444e94-489f-4fa9-9e06-4bdf6ba47149"},"vehicle_type_id":"4","last_reported":1751746230,"current_range_meters":2800,"station_id":"st_cvj5dfep6f1abm77gieg","pricing_plan_id":"cebpf4jnsgd1na2vs0mg"},{"bike_id":"96550f69-fbc0-4ad4-9671-81eb6a57bf77","system_id":"levelo_inurba_marseille","lat":43.3117,"lon":5.38728,"is_reserved":false,"is_disabled":false,"rental_uris":{"android":"levelo://app?vid=96550f69-fbc0-4ad4-9671-81eb6a57bf77","ios":"levelo://app?vid=96550f69-fbc0-4ad4-9671-81eb6a57bf77"},"vehicle_type_id":"4","last_reported":1751746230,"current_range_meters":3200,"station_id":"ce4bgv12rcd13ifvqcp0","pricing_plan_id":"cebpf4jnsgd1na2vs0mg"},{"bike_id":"4362d004-7e57-47d6-af7f-705aca48644d","system_id":"levelo_inurba_marseille","lat":43.29002,"lon":5.35612,"is_reserved":false,"is_disabled":false,"rental_uris":{"android":"levelo://app?vid=4362d004-7e57-47d6-af7f-705aca48644d","ios":"levelo://app?vid=4362d004-7e57-47d6-af7f-705aca48644d"},"vehicle_type_id":"4","last_reported":1751746230,"current_range_meters":3200,"station_id":"ce4bhb92rcd13ifvqen0","pricing_plan_id":"cebpf4jnsgd1na2vs0mg"},{"bike_id":"0fdaf47a-5ef7-4f6b-8c7d-33a850226b62","system_id":"levelo_inurba_marseille","lat":43.30728,"lon":5.42453,"is_reserved":false,"is_disabled":false,"rental_uris":{"android":"levelo://app?vid=0fdaf47a-5ef7-4f6b-8c7d-33a850226b62","ios":"levelo://app?vid=0fdaf47a-5ef7-4f6b-8c7d-33a850226b62"},"vehicle_type_id":"4","last_reported":1751746230,"current_range_meters":3200,"station_id":"st_cvj6ca6bvosntc0bfgr0","pricing_plan_id":"cebpf4jnsgd1na2vs0mg"},{"bike_id":"b01d9f12-c485-4a3e-b83b-0f30d9336416","system_id":"levelo_inurba_marseille","lat":43.29297,"lon":5.37184,"is_reserved":false,"is_disabled":false,"rental_uris":{"android":"levelo://app?vid=b01d9f12-c485-4a3e-b83b-0f30d9336416","ios":"levelo://app?vid=b01d9f12-c485-4a3e-b83b-0f30d9336416"},"vehicle_type_id":"4","last_reported":1751746230,"current_range_meters":3600,"station_id":"ce4bgh92rcd13ifvqb40","pricing_plan_id":"cebpf4jnsgd1na2vs0mg"},{"bike_id":"eafffae5-9aca-46cd-99f5-a5c7e8f1f5fa","system_id":"levelo_inurba_marseille","lat":43.30464,"lon":5.37906,"is_reserved":false,"is_disabled":false,"rental_uris":{"android":"levelo://app?vid=eafffae5-9aca-46cd-99f5-a5c7e8f1f5fa","ios":"levelo://app?vid=eafffae5-9aca-46cd-99f5-a5c7e8f1f5fa"},"vehicle_type_id":"4","last_reported":1751746230,"current_range_meters":4000,"station_id":"ce4bgup2rcd13ifvqcn0","pricing_plan_id":"cebpf4jnsgd1na2vs0mg"},{"bike_id":"555a4188-f0ca-4814-8396-9a3e68fa64a7","system_id":"levelo_inurba_marseille","lat":43.30589,"lon":5.39357,"is_reserved":false,"is_disabled":false,"rental_uris":{"android":"levelo://app?vid=555a4188-f0ca-4814-8396-9a3e68fa64a7","ios":"levelo://app?vid=555a4188-f0ca-4814-8396-9a3e68fa64a7"},"vehicle_type_id":"4","last_reported":1751746230,"current_range_meters":4000,"station_id":"ce4bh0p2rcd13ifvqd80","pricing_plan_id":"cebpf4jnsgd1na2vs0mg"},{"bike_id":"2872ab9e-0a49-4ba8-b75d-854fa9432a26","system_id":"levelo_inurba_marseille","lat":43.28485,"lon":5.38415,"is_reserved":false,"is_disabled":false,"rental_uris":{"android":"levelo://app?vid=2872ab9e-0a49-4ba8-b75d-854fa9432a26","ios":"levelo://app?vid=2872ab9e-0a49-4ba8-b75d-854fa9432a26"},"vehicle_type_id":"4","last_reported":1751746230,"current_range_meters":4000,"station_id":"ce4bh512rcd13ifvqe3g","pricing_plan_id":"cebpf4jnsgd1na2vs0mg"},{"bike_id":"d13d9016-7c35-4095-a399-ac89fde82279","system_id":"levelo_inurba_marseille","lat":43.29337,"lon":5.38338,"is_reserved":false,"is_disabled":false,"rental_uris":{"android":"levelo://app?vid=d13d9016-7c35-4095-a399-ac89fde82279","ios":"levelo://app?vid=d13d9016-7c35-4095-a399-ac89fde82279"},"vehicle_type_id":"4","last_reported":1751746230,"current_range_meters":4400,"station_id":"","pricing_plan_id":"cebpf4jnsgd1na2vs0mg"},{"bike_id":"5f6de372-7fdf-4dc5-aa8d-69bb51f77b23","system_id":"levelo_inurba_marseille","lat":43.292573,"lon":5.409074,"is_reserved":false,"is_disabled":false,"rental_uris":{"android":"levelo://app?vid=5f6de372-7fdf-4dc5-aa8d-69bb51f77b23","ios":"levelo://app?vid=5f6de372-7fdf-4dc5-aa8d-69bb51f77b23"},"vehicle_type_id":"4","last_reported":1751746230,"current_range_meters":4400,"station_id":"ce4bh192rcd13ifvqdc0","pricing_plan_id":"cebpf4jnsgd1na2vs0mg"},{"bike_id":"87fafdf4-40cf-481b-b2b0-ac68d4bf762c","system_id":"levelo_inurba_marseille","lat":43.31166,"lon":5.38715,"is_reserved":false,"is_disabled":false,"rental_uris":{"android":"levelo://app?vid=87fafdf4-40cf-481b-b2b0-ac68d4bf762c","ios":"levelo://app?vid=87fafdf4-40cf-481b-b2b0-ac68d4bf762c"},"vehicle_type_id":"4","last_reported":1751746230,"current_range_meters":5600,"station_id":"ce4bgv12rcd13ifvqcp0","pricing_plan_id":"cebpf4jnsgd1na2vs0mg"},{"bike_id":"5b591c38-4571-45e4-abb3-0868870bc6b3","system_id":"levelo_inurba_marseille","lat":43.261911,"lon":5.374505,"is_reserved":false,"is_disabled":false,"rental_uris":{"android":"levelo://app?vid=5b591c38-4571-45e4-abb3-0868870bc6b3","ios":"levelo://app?vid=5b591c38-4571-45e4-abb3-0868870bc6b3"},"vehicle_type_id":"4","last_reported":1751746230,"current_range_meters":5600,"station_id":"ce4bhgp2rcd13ifvqfc0","pricing_plan_id":"cebpf4jnsgd1na2vs0mg"},{"bike_id":"56327501-97b4-4206-80fc-916b6a95488a","system_id":"levelo_inurba_marseille","lat":43.32332,"lon":5.40617,"is_reserved":false,"is_disabled":false,"rental_uris":{"android":"levelo://app?vid=56327501-97b4-4206-80fc-916b6a95488a","ios":"levelo://app?vid=56327501-97b4-4206-80fc-916b6a95488a"},"vehicle_type_id":"4","last_reported":1751746230,"current_range_meters":5600,"station_id":"ce4bhq92rcd13ifvqhjg","pricing_plan_id":"cebpf4jnsgd1na2vs0mg"},{"bike_id":"ba154a12-11bd-42a5-958a-5992f5d043d1","system_id":"levelo_inurba_marseille","lat":43.30499,"lon":5.37062,"is_reserved":false,"is_disabled":false,"rental_uris":{"android":"levelo://app?vid=ba154a12-11bd-42a5-958a-5992f5d043d1","ios":"levelo://app?vid=ba154a12-11bd-42a5-958a-5992f5d043d1"},"vehicle_type_id":"4","last_reported":1751746230,"current_range_meters":6000,"station_id":"","pricing_plan_id":"cebpf4jnsgd1na2vs0mg"},{"bike_id":"728fa38a-7323-445e-ad3e-bf3cbeafeed1","system_id":"levelo_inurba_marseille","lat":43.31369,"lon":5.38479,"is_reserved":false,"is_disabled":false,"rental_uris":{"android":"levelo://app?vid=728fa38a-7323-445e-ad3e-bf3cbeafeed1","ios":"levelo://app?vid=728fa38a-7323-445e-ad3e-bf3cbeafeed1"},"vehicle_type_id":"4","last_reported":1751746230,"current_range_meters":6000,"station_id":"ce4bgt92rcd13ifvqcf0","pricing_plan_id":"cebpf4jnsgd1na2vs0mg"},{"bike_id":"4fafff37-a86a-46e5-809f-a4b169e2784c","system_id":"levelo_inurba_marseille","lat":43.2509,"lon":5.395,"is_reserved":false,"is_disabled":false,"rental_uris":{"android":"levelo://app?vid=4fafff37-a86a-46e5-809f-a4b169e2784c","ios":"levelo://app?vid=4fafff37-a86a-46e5-809f-a4b169e2784c"},"vehicle_type_id":"4","last_reported":1751746230,"current_range_meters":6000,"station_id":"ce4bhm12rcd13ifvqgkg","pricing_plan_id":"cebpf4jnsgd1na2vs0mg"},{"bike_id":"0c4b7fdb-b39e-49b3-a2b0-ae3d0f43e89d","system_id":"levelo_inurba_marseille","lat":43.32884,"lon":5.40589,"is_reserved":false,"is_disabled":false,"rental_uris":{"android":"levelo://app?vid=0c4b7fdb-b39e-49b3-a2b0-ae3d0f43e89d","ios":"levelo://app?vid=0c4b7fdb-b39e-49b3-a2b0-ae3d0f43e89d"},"vehicle_type_id":"4","last_reported":1751746230,"current_range_meters":6400,"station_id":"","pricing_plan_id":"cebpf4jnsgd1na2vs0mg"},{"bike_id":"83cfb377-94cb-45fd-9d24-65a69aa98021","system_id":"levelo_inurba_marseille","lat":43.31171,"lon":5.38715,"is_reserved":false,"is_disabled":false,"rental_uris":{"android":"levelo://app?vid=83cfb377-94cb-45fd-9d24-65a69aa98021","ios":"levelo://app?vid=83cfb377-94cb-45fd-9d24-65a69aa98021"},"vehicle_type_id":"4","last_reported":1751746230,"current_range_meters":6400,"station_id":"ce4bgv12rcd13ifvqcp0","pricing_plan_id":"cebpf4jnsgd1na2vs0mg"},{"bike_id":"4afd9531-143e-4539-b198-059e59e17ebf","system_id":"levelo_inurba_marseille","lat":43.31173,"lon":5.38711,"is_reserved":false,"is_disabled":false,"rental_uris":{"android":"levelo://app?vid=4afd9531-143e-4539-b198-059e59e17ebf","ios":"levelo://app?vid=4afd9531-143e-4539-b198-059e59e17ebf"},"vehicle_type_id":"4","last_reported":1751746230,"current_range_meters":6400,"station_id":"ce4bgv12rcd13ifvqcp0","pricing_plan_id":"cebpf4jnsgd1na2vs0mg"},{"bike_id":"e24cabaf-d566-4455-bb82-863c5a8a1621","system_id":"levelo_inurba_marseille","lat":43.28423,"lon":5.37513,"is_reserved":false,"is_disabled":false,"rental_uris":{"android":"levelo://app?vid=e24cabaf-d566-4455-bb82-863c5a8a1621","ios":"levelo://app?vid=e24cabaf-d566-4455-bb82-863c5a8a1621"},"vehicle_type_id":"4","last_reported":1751746230,"current_range_meters":6400,"station_id":"ce4bh412rcd13ifvqds0","pricing_plan_id":"cebpf4jnsgd1na2vs0mg"},{"bike_id":"9d029b3a-8941-4445-8f45-71bcf2d7dcea","system_id":"levelo_inurba_marseille","lat":43.29095,"lon":5.38134,"is_reserved":false,"is_disabled":false,"rental_uris":{"android":"levelo://app?vid=9d029b3a-8941-4445-8f45-71bcf2d7dcea","ios":"levelo://app?vid=9d029b3a-8941-4445-8f45-71bcf2d7dcea"},"vehicle_type_id":"4","last_reported":1751746230,"current_range_meters":6400,"station_id":"ce4bh512rcd13ifvqe2g","pricing_plan_id":"cebpf4jnsgd1na2vs0mg"},{"bike_id":"a682f7b6-1564-4c0d-b5b1-3380d268e6b3","system_id":"levelo_inurba_marseille","lat":43.284515,"lon":5.358771,"is_reserved":false,"is_disabled":false,"rental_uris":{"android":"levelo://app?vid=a682f7b6-1564-4c0d-b5b1-3380d268e6b3","ios":"levelo://app?vid=a682f7b6-1564-4c0d-b5b1-3380d268e6b3"},"vehicle_type_id":"4","last_reported":1751746230,"current_range_meters":6400,"station_id":"ce4bhah2rcd13ifvqei0","pricing_plan_id":"cebpf4jnsgd1na2vs0mg"},{"bike_id":"f0da5fae-d16c-401f-9310-75959c448c79","system_id":"levelo_inurba_marseille","lat":43.27669,"lon":5.38873,"is_reserved":false,"is_disabled":false,"rental_uris":{"android":"levelo://app?vid=f0da5fae-d16c-401f-9310-75959c448c79","ios":"levelo://app?vid=f0da5fae-d16c-401f-9310-75959c448c79"},"vehicle_type_id":"4","last_reported":1751746230,"current_range_meters":6400,"station_id":"ce4bhi12rcd13ifvqfo0","pricing_plan_id":"cebpf4jnsgd1na2vs0mg"},{"bike_id":"8cba1663-37f5-4588-8a58-318c657be607","system_id":"levelo_inurba_marseille","lat":43.30912,"lon":5.3686,"is_reserved":false,"is_disabled":false,"rental_uris":{"android":"levelo://app?vid=8cba1663-37f5-4588-8a58-318c657be607","ios":"levelo://app?vid=8cba1663-37f5-4588-8a58-318c657be607"},"vehicle_type_id":"4","last_reported":1751746230,"current_range_meters":7200,"station_id":"ce4bgn92rcd13ifvqbvg","pricing_plan_id":"cebpf4jnsgd1na2vs0mg"},{"bike_id":"67640e12-9643-4537-926b-4417755361bc","system_id":"levelo_inurba_marseille","lat":43.29254,"lon":5.38451,"is_reserved":false,"is_disabled":false,"rental_uris":{"android":"levelo://app?vid=67640e12-9643-4537-926b-4417755361bc","ios":"levelo://app?vid=67640e12-9643-4537-926b-4417755361bc"},"vehicle_type_id":"4","last_reported":1751746230,"current_range_meters":7200,"station_id":"ce4bh692rcd13ifvqea0","pricing_plan_id":"cebpf4jnsgd1na2vs0mg"},{"bike_id":"71087c53-a1ba-4721-abb8-cdcac577484b","system_id":"levelo_inurba_marseille","lat":43.27421,"lon":5.39418,"is_reserved":false,"is_disabled":false,"rental_uris":{"android":"levelo://app?vid=71087c53-a1ba-4721-abb8-cdcac577484b","ios":"levelo://app?vid=71087c53-a1ba-4721-abb8-cdcac577484b"},"vehicle_type_id":"4","last_reported":1751746230,"current_range_meters":7200,"station_id":"ce4bhdp2rcd13ifvqf20","pricing_plan_id":"cebpf4jnsgd1na2vs0mg"},{"bike_id":"b26f4b81-8ee5-4928-a4f7-32e415148079","system_id":"levelo_inurba_marseille","lat":43.28436,"lon":5.39199,"is_reserved":false,"is_disabled":false,"rental_uris":{"android":"levelo://app?vid=b26f4b81-8ee5-4928-a4f7-32e415148079","ios":"levelo://app?vid=b26f4b81-8ee5-4928-a4f7-32e415148079"},"vehicle_type_id":"4","last_reported":1751746230,"current_range_meters":7200,"station_id":"ce4bhoh2rcd13ifvqh5g","pricing_plan_id":"cebpf4jnsgd1na2vs0mg"},{"bike_id":"91de1a81-a9a1-40d8-bd13-0932386026ea","system_id":"levelo_inurba_marseille","lat":43.30408,"lon":5.41286,"is_reserved":false,"is_disabled":false,"rental_uris":{"android":"levelo://app?vid=91de1a81-a9a1-40d8-bd13-0932386026ea","ios":"levelo://app?vid=91de1a81-a9a1-40d8-bd13-0932386026ea"},"vehicle_type_id":"4","last_reported":1751746230,"current_range_meters":7200,"station_id":"ce4bhop2rcd13ifvqh8g","pricing_plan_id":"cebpf4jnsgd1na2vs0mg"},{"bike_id":"6917bed5-c21f-48c3-870d-5408dab99803","system_id":"levelo_inurba_marseille","lat":43.29693,"lon":5.3689,"is_reserved":false,"is_disabled":false,"rental_uris":{"android":"levelo://app?vid=6917bed5-c21f-48c3-870d-5408dab99803","ios":"levelo://app?vid=6917bed5-c21f-48c3-870d-5408dab99803"},"vehicle_type_id":"4","last_reported":1751746230,"current_range_meters":8000,"station_id":"","pricing_plan_id":"cebpf4jnsgd1na2vs0mg"},{"bike_id":"1c57a3c7-1fe2-49b4-93b2-29842e960d9b","system_id":"levelo_inurba_marseille","lat":43.29617,"lon":5.37722,"is_reserved":false,"is_disabled":false,"rental_uris":{"android":"levelo://app?vid=1c57a3c7-1fe2-49b4-93b2-29842e960d9b","ios":"levelo://app?vid=1c57a3c7-1fe2-49b4-93b2-29842e960d9b"},"vehicle_type_id":"4","last_reported":1751746230,"current_range_meters":8000,"station_id":"","pricing_plan_id":"cebpf4jnsgd1na2vs0mg"},{"bike_id":"ba36ea47-8440-4e0e-a855-f31d4ed56377","system_id":"levelo_inurba_marseille","lat":43.30941,"lon":5.39024,"is_reserved":false,"is_disabled":false,"rental_uris":{"android":"levelo://app?vid=ba36ea47-8440-4e0e-a855-f31d4ed56377","ios":"levelo://app?vid=ba36ea47-8440-4e0e-a855-f31d4ed56377"},"vehicle_type_id":"4","last_reported":1751746230,"current_range_meters":8000,"station_id":"ce4bgup2rcd13ifvqco0","pricing_plan_id":"cebpf4jnsgd1na2vs0mg"},{"bike_id":"abdb2d61-489c-488d-961a-bed0f24f951f","system_id":"levelo_inurba_marseille","lat":43.31071,"lon":5.38356,"is_reserved":false,"is_disabled":false,"rental_uris":{"android":"levelo://app?vid=abdb2d61-489c-488d-961a-bed0f24f951f","ios":"levelo://app?vid=abdb2d61-489c-488d-961a-bed0f24f951f"},"vehicle_type_id":"4","last_reported":1751746230,"current_range_meters":8000,"station_id":"ce4bgv92rcd13ifvqcr0","pricing_plan_id":"cebpf4jnsgd1na2vs0mg"},{"bike_id":"e9991264-f8e9-4d34-919d-046f71fe72a8","system_id":"levelo_inurba_marseille","lat":43.3169,"lon":5.40442,"is_reserved":false,"is_disabled":false,"rental_uris":{"android":"levelo://app?vid=e9991264-f8e9-4d34-919d-046f71fe72a8","ios":"levelo://app?vid=e9991264-f8e9-4d34-919d-046f71fe72a8"},"vehicle_type_id":"4","last_reported":1751746230,"current_range_meters":8000,"station_id":"ce4bh012rcd13ifvqd00","pricing_plan_id":"cebpf4jnsgd1na2vs0mg"},{"bike_id":"e0d2768e-0389-49db-bc24-48869e5397dc","system_id":"levelo_inurba_marseille","lat":43.2315,"lon":5.43691,"is_reserved":false,"is_disabled":false,"rental_uris":{"android":"levelo://app?vid=e0d2768e-0389-49db-bc24-48869e5397dc","ios":"levelo://app?vid=e0d2768e-0389-49db-bc24-48869e5397dc"},"vehicle_type_id":"4","last_reported":1751746230,"current_range_meters":8000,"station_id":"ce4bhmp2rcd13ifvqgog","pricing_plan_id":"cebpf4jnsgd1na2vs0mg"},{"bike_id":"2ffeba7a-8316-4052-8019-91454da58cbe","system_id":"levelo_inurba_marseille","lat":43.26983,"lon":5.41979,"is_reserved":false,"is_disabled":false,"rental_uris":{"android":"levelo://app?vid=2ffeba7a-8316-4052-8019-91454da58cbe","ios":"levelo://app?vid=2ffeba7a-8316-4052-8019-91454da58cbe"},"vehicle_type_id":"4","last_reported":1751746230,"current_range_meters":8400,"station_id":"","pricing_plan_id":"cebpf4jnsgd1na2vs0mg"},{"bike_id":"8205bdf4-ee83-4bb6-bcbe-d476b17ea327","system_id":"levelo_inurba_marseille","lat":43.32019,"lon":5.43253,"is_reserved":false,"is_disabled":false,"rental_uris":{"android":"levelo://app?vid=8205bdf4-ee83-4bb6-bcbe-d476b17ea327","ios":"levelo://app?vid=8205bdf4-ee83-4bb6-bcbe-d476b17ea327"},"vehicle_type_id":"4","last_reported":1751746230,"current_range_meters":8400,"station_id":"","pricing_plan_id":"cebpf4jnsgd1na2vs0mg"},{"bike_id":"36c296fb-83e1-4044-b065-50d87bcfbef1","system_id":"levelo_inurba_marseille","lat":43.30947,"lon":5.39039,"is_reserved":false,"is_disabled":false,"rental_uris":{"android":"levelo://app?vid=36c296fb-83e1-4044-b065-50d87bcfbef1","ios":"levelo://app?vid=36c296fb-83e1-4044-b065-50d87bcfbef1"},"vehicle_type_id":"4","last_reported":1751746230,"current_range_meters":8400,"station_id":"ce4bgup2rcd13ifvqco0","pricing_plan_id":"cebpf4jnsgd1na2vs0mg"},{"bike_id":"ed174135-772f-4ad8-8e10-82e4034d5337","system_id":"levelo_inurba_marseille","lat":43.30929,"lon":5.3903,"is_reserved":false,"is_disabled":false,"rental_uris":{"android":"levelo://app?vid=ed174135-772f-4ad8-8e10-82e4034d5337","ios":"levelo://app?vid=ed174135-772f-4ad8-8e10-82e4034d5337"},"vehicle_type_id":"4","last_reported":1751746230,"current_range_meters":8400,"station_id":"ce4bgup2rcd13ifvqco0","pricing_plan_id":"cebpf4jnsgd1na2vs0mg"},{"bike_id":"c8536ec2-45a8-4610-b62f-517cfbaf6c3a","system_id":"levelo_inurba_marseille","lat":43.30943,"lon":5.39035,"is_reserved":false,"is_disabled":false,"rental_uris":{"android":"levelo://app?vid=c8536ec2-45a8-4610-b62f-517cfbaf6c3a","ios":"levelo://app?vid=c8536ec2-45a8-4610-b62f-517cfbaf6c3a"},"vehicle_type_id":"4","last_reported":1751746230,"current_range_meters":8400,"station_id":"ce4bgup2rcd13ifvqco0","pricing_plan_id":"cebpf4jnsgd1na2vs0mg"},{"bike_id":"371edb06-dc3d-43bb-8c9f-119f7b22ba75","system_id":"levelo_inurba_marseille","lat":43.30952,"lon":5.3905,"is_reserved":false,"is_disabled":false,"rental_uris":{"android":"levelo://app?vid=371edb06-dc3d-43bb-8c9f-119f7b22ba75","ios":"levelo://app?vid=371edb06-dc3d-43bb-8c9f-119f7b22ba75"},"vehicle_type_id":"4","last_reported":1751746230,"current_range_meters":8400,"station_id":"ce4bgup2rcd13ifvqco0","pricing_plan_id":"cebpf4jnsgd1na2vs0mg"},{"bike_id":"24d50a5d-ea56-43b6-8eb9-b54ff63599ef","system_id":"levelo_inurba_marseille","lat":43.30951,"lon":5.39026,"is_reserved":false,"is_disabled":false,"rental_uris":{"android":"levelo://app?vid=24d50a5d-ea56-43b6-8eb9-b54ff63599ef","ios":"levelo://app?vid=24d50a5d-ea56-43b6-8eb9-b54ff63599ef"},"vehicle_type_id":"4","last_reported":1751746230,"current_range_meters":8400,"station_id":"ce4bgup2rcd13ifvqco0","pricing_plan_id":"cebpf4jnsgd1na2vs0mg"},{"bike_id":"01ba5731-567d-45ba-a83c-75f4360ed9c9","system_id":"levelo_inurba_marseille","lat":43.30931,"lon":5.39054,"is_reserved":false,"is_disabled":false,"rental_uris":{"android":"levelo://app?vid=01ba5731-567d-45ba-a83c-75f4360ed9c9","ios":"levelo://app?vid=01ba5731-567d-45ba-a83c-75f4360ed9c9"},"vehicle_type_id":"4","last_reported":1751746230,"current_range_meters":8400,"station_id":"ce4bgup2rcd13ifvqco0","pricing_plan_id":"cebpf4jnsgd1na2vs0mg"},{"bike_id":"45f340d5-979c-4403-8793-c31b856041d6","system_id":"levelo_inurba_marseille","lat":43.26207,"lon":5.3744,"is_reserved":false,"is_disabled":false,"rental_uris":{"android":"levelo://app?vid=45f340d5-979c-4403-8793-c31b856041d6","ios":"levelo://app?vid=45f340d5-979c-4403-8793-c31b856041d6"},"vehicle_type_id":"4","last_reported":1751746230,"current_range_meters":8400,"station_id":"ce4bhgp2rcd13ifvqfc0","pricing_plan_id":"cebpf4jnsgd1na2vs0mg"},{"bike_id":"e3ca8c1c-b107-4c87-89bb-90799c9672e1","system_id":"levelo_inurba_marseille","lat":43.27995,"lon":5.40009,"is_reserved":false,"is_disabled":false,"rental_uris":{"android":"levelo://app?vid=e3ca8c1c-b107-4c87-89bb-90799c9672e1","ios":"levelo://app?vid=e3ca8c1c-b107-4c87-89bb-90799c9672e1"},"vehicle_type_id":"4","last_reported":1751746230,"current_range_meters":8400,"station_id":"ce4bho92rcd13ifvqh4g","pricing_plan_id":"cebpf4jnsgd1na2vs0mg"},{"bike_id":"1c8ab180-05fd-405f-9922-b2b2c2d5142f","system_id":"levelo_inurba_marseille","lat":43.33766,"lon":5.38124,"is_reserved":false,"is_disabled":false,"rental_uris":{"android":"levelo://app?vid=1c8ab180-05fd-405f-9922-b2b2c2d5142f","ios":"levelo://app?vid=1c8ab180-05fd-405f-9922-b2b2c2d5142f"},"vehicle_type_id":"4","last_reported":1751746230,"current_range_meters":8800,"station_id":"","pricing_plan_id":"cebpf4jnsgd1na2vs0mg"},{"bike_id":"e227ba38-cf05-4368-b4e3-deb39e7d2c57","system_id":"levelo_inurba_marseille","lat":43.30937,"lon":5.39041,"is_reserved":false,"is_disabled":false,"rental_uris":{"android":"levelo://app?vid=e227ba38-cf05-4368-b4e3-deb39e7d2c57","ios":"levelo://app?vid=e227ba38-cf05-4368-b4e3-deb39e7d2c57"},"vehicle_type_id":"4","last_reported":1751746230,"current_range_meters":8800,"station_id":"","pricing_plan_id":"cebpf4jnsgd1na2vs0mg"},{"bike_id":"b26fae72-751e-4090-a9c4-76ff5de1ad66","system_id":"levelo_inurba_marseille","lat":43.33252,"lon":5.38036,"is_reserved":false,"is_disabled":false,"rental_uris":{"android":"levelo://app?vid=b26fae72-751e-4090-a9c4-76ff5de1ad66","ios":"levelo://app?vid=b26fae72-751e-4090-a9c4-76ff5de1ad66"},"vehicle_type_id":"4","last_reported":1751746230,"current_range_meters":8800,"station_id":"","pricing_plan_id":"cebpf4jnsgd1na2vs0mg"},{"bike_id":"371a9b20-6caa-4e01-b9fc-62e70cf886ee","system_id":"levelo_inurba_marseille","lat":43.31175,"lon":5.38714,"is_reserved":false,"is_disabled":false,"rental_uris":{"android":"levelo://app?vid=371a9b20-6caa-4e01-b9fc-62e70cf886ee","ios":"levelo://app?vid=371a9b20-6caa-4e01-b9fc-62e70cf886ee"},"vehicle_type_id":"4","last_reported":1751746230,"current_range_meters":8800,"station_id":"ce4bgv12rcd13ifvqcp0","pricing_plan_id":"cebpf4jnsgd1na2vs0mg"},{"bike_id":"acf7eee5-e5cc-428a-8c04-0c30743ff8a3","system_id":"levelo_inurba_marseille","lat":43.29268,"lon":5.36846,"is_reserved":false,"is_disabled":false,"rental_uris":{"android":"levelo://app?vid=acf7eee5-e5cc-428a-8c04-0c30743ff8a3","ios":"levelo://app?vid=acf7eee5-e5cc-428a-8c04-0c30743ff8a3"},"vehicle_type_id":"4","last_reported":1751746230,"current_range_meters":8800,"station_id":"ce4bhbp2rcd13ifvqesg","pricing_plan_id":"cebpf4jnsgd1na2vs0mg"},{"bike_id":"def77d32-41e2-4106-8263-623eda083104","system_id":"levelo_inurba_marseille","lat":43.290242,"lon":5.381416,"is_reserved":false,"is_disabled":false,"rental_uris":{"android":"levelo://app?vid=def77d32-41e2-4106-8263-623eda083104","ios":"levelo://app?vid=def77d32-41e2-4106-8263-623eda083104"},"vehicle_type_id":"4","last_reported":1751746230,"current_range_meters":8800,"station_id":"ce4bhhh2rcd13ifvqfl0","pricing_plan_id":"cebpf4jnsgd1na2vs0mg"},{"bike_id":"54349a8e-2753-43b8-9098-880b9a47bb39","system_id":"levelo_inurba_marseille","lat":43.30414,"lon":5.41272,"is_reserved":false,"is_disabled":false,"rental_uris":{"android":"levelo://app?vid=54349a8e-2753-43b8-9098-880b9a47bb39","ios":"levelo://app?vid=54349a8e-2753-43b8-9098-880b9a47bb39"},"vehicle_type_id":"4","last_reported":1751746230,"current_range_meters":8800,"station_id":"ce4bhop2rcd13ifvqh8g","pricing_plan_id":"cebpf4jnsgd1na2vs0mg"},{"bike_id":"f6bad5b7-ac2a-4fcf-a766-decd9ed1981f","system_id":"levelo_inurba_marseille","lat":43.29935,"lon":5.36556,"is_reserved":false,"is_disabled":false,"rental_uris":{"android":"levelo://app?vid=f6bad5b7-ac2a-4fcf-a766-decd9ed1981f","ios":"levelo://app?vid=f6bad5b7-ac2a-4fcf-a766-decd9ed1981f"},"vehicle_type_id":"4","last_reported":1751746230,"current_range_meters":9200,"station_id":"ce4bgm92rcd13ifvqbr0","pricing_plan_id":"cebpf4jnsgd1na2vs0mg"},{"bike_id":"b403a668-871b-4e65-b249-1e478fe87348","system_id":"levelo_inurba_marseille","lat":43.30937,"lon":5.39035,"is_reserved":false,"is_disabled":false,"rental_uris":{"android":"levelo://app?vid=b403a668-871b-4e65-b249-1e478fe87348","ios":"levelo://app?vid=b403a668-871b-4e65-b249-1e478fe87348"},"vehicle_type_id":"4","last_reported":1751746230,"current_range_meters":9200,"station_id":"ce4bgup2rcd13ifvqco0","pricing_plan_id":"cebpf4jnsgd1na2vs0mg"},{"bike_id":"fc0bb88a-faf4-4885-b024-ded296f6a7c6","system_id":"levelo_inurba_marseille","lat":43.30648,"lon":5.4009,"is_reserved":false,"is_disabled":false,"rental_uris":{"android":"levelo://app?vid=fc0bb88a-faf4-4885-b024-ded296f6a7c6","ios":"levelo://app?vid=fc0bb88a-faf4-4885-b024-ded296f6a7c6"},"vehicle_type_id":"4","last_reported":1751746230,"current_range_meters":9200,"station_id":"ce4bh112rcd13ifvqda0","pricing_plan_id":"cebpf4jnsgd1na2vs0mg"},{"bike_id":"639d3625-60c5-4805-8e61-775aa9271f20","system_id":"levelo_inurba_marseille","lat":43.271833,"lon":5.391916,"is_reserved":false,"is_disabled":false,"rental_uris":{"android":"levelo://app?vid=639d3625-60c5-4805-8e61-775aa9271f20","ios":"levelo://app?vid=639d3625-60c5-4805-8e61-775aa9271f20"},"vehicle_type_id":"4","last_reported":1751746230,"current_range_meters":9200,"station_id":"ce4bhhp2rcd13ifvqfm0","pricing_plan_id":"cebpf4jnsgd1na2vs0mg"},{"bike_id":"3522f8a8-06a5-4b54-abe3-ba92e662b7b6","system_id":"levelo_inurba_marseille","lat":43.2795,"lon":5.41045,"is_reserved":false,"is_disabled":false,"rental_uris":{"android":"levelo://app?vid=3522f8a8-06a5-4b54-abe3-ba92e662b7b6","ios":"levelo://app?vid=3522f8a8-06a5-4b54-abe3-ba92e662b7b6"},"vehicle_type_id":"4","last_reported":1751746230,"current_range_meters":9200,"station_id":"ce4bhnp2rcd13ifvqh0g","pricing_plan_id":"cebpf4jnsgd1na2vs0mg"},{"bike_id":"b9892cb9-e3ea-4d80-8e2b-3144970601c5","system_id":"levelo_inurba_marseille","lat":43.32334,"lon":5.4062,"is_reserved":false,"is_disabled":false,"rental_uris":{"android":"levelo://app?vid=b9892cb9-e3ea-4d80-8e2b-3144970601c5","ios":"levelo://app?vid=b9892cb9-e3ea-4d80-8e2b-3144970601c5"},"vehicle_type_id":"4","last_reported":1751746230,"current_range_meters":9200,"station_id":"ce4bhq92rcd13ifvqhjg","pricing_plan_id":"cebpf4jnsgd1na2vs0mg"},{"bike_id":"d1a72572-4347-4d66-b9ca-75ff8f8b0210","system_id":"levelo_inurba_marseille","lat":43.31992,"lon":5.38159,"is_reserved":false,"is_disabled":false,"rental_uris":{"android":"levelo://app?vid=d1a72572-4347-4d66-b9ca-75ff8f8b0210","ios":"levelo://app?vid=d1a72572-4347-4d66-b9ca-75ff8f8b0210"},"vehicle_type_id":"4","last_reported":1751746230,"current_range_meters":9200,"station_id":"ce4bhr12rcd13ifvqhpg","pricing_plan_id":"cebpf4jnsgd1na2vs0mg"},{"bike_id":"4b8da722-ee9e-48a4-a5e5-3a8a10364708","system_id":"levelo_inurba_marseille","lat":43.312271,"lon":5.378149,"is_reserved":false,"is_disabled":false,"rental_uris":{"android":"levelo://app?vid=4b8da722-ee9e-48a4-a5e5-3a8a10364708","ios":"levelo://app?vid=4b8da722-ee9e-48a4-a5e5-3a8a10364708"},"vehicle_type_id":"4","last_reported":1751746230,"current_range_meters":9600,"station_id":"","pricing_plan_id":"cebpf4jnsgd1na2vs0mg"},{"bike_id":"69c2280d-9883-47db-99f2-c073a6babae6","system_id":"levelo_inurba_marseille","lat":43.30852,"lon":5.37018,"is_reserved":false,"is_disabled":false,"rental_uris":{"android":"levelo://app?vid=69c2280d-9883-47db-99f2-c073a6babae6","ios":"levelo://app?vid=69c2280d-9883-47db-99f2-c073a6babae6"},"vehicle_type_id":"4","last_reported":1751746230,"current_range_meters":9600,"station_id":"","pricing_plan_id":"cebpf4jnsgd1na2vs0mg"},{"bike_id":"e41d5eea-68cf-435b-8f00-01e88c685a1f","system_id":"levelo_inurba_marseille","lat":43.31703,"lon":5.37734,"is_reserved":false,"is_disabled":false,"rental_uris":{"android":"levelo://app?vid=e41d5eea-68cf-435b-8f00-01e88c685a1f","ios":"levelo://app?vid=e41d5eea-68cf-435b-8f00-01e88c685a1f"},"vehicle_type_id":"4","last_reported":1751746230,"current_range_meters":9600,"station_id":"ce4bgth2rcd13ifvqch0","pricing_plan_id":"cebpf4jnsgd1na2vs0mg"},{"bike_id":"16d144eb-03d5-4a7a-bfca-9dbcae1f835f","system_id":"levelo_inurba_marseille","lat":43.31136,"lon":5.38754,"is_reserved":false,"is_disabled":false,"rental_uris":{"android":"levelo://app?vid=16d144eb-03d5-4a7a-bfca-9dbcae1f835f","ios":"levelo://app?vid=16d144eb-03d5-4a7a-bfca-9dbcae1f835f"},"vehicle_type_id":"4","last_reported":1751746230,"current_range_meters":9600,"station_id":"ce4bgv12rcd13ifvqcp0","pricing_plan_id":"cebpf4jnsgd1na2vs0mg"},{"bike_id":"c5ce8a99-7ca5-437d-aa9b-99f704f729fc","system_id":"levelo_inurba_marseille","lat":43.31173,"lon":5.38723,"is_reserved":false,"is_disabled":false,"rental_uris":{"android":"levelo://app?vid=c5ce8a99-7ca5-437d-aa9b-99f704f729fc","ios":"levelo://app?vid=c5ce8a99-7ca5-437d-aa9b-99f704f729fc"},"vehicle_type_id":"4","last_reported":1751746230,"current_range_meters":9600,"station_id":"ce4bgv12rcd13ifvqcp0","pricing_plan_id":"cebpf4jnsgd1na2vs0mg"},{"bike_id":"aa3fc5fb-18c0-41f5-8463-cdeb57cf61f8","system_id":"levelo_inurba_marseille","lat":43.31074,"lon":5.3836,"is_reserved":false,"is_disabled":false,"rental_uris":{"android":"levelo://app?vid=aa3fc5fb-18c0-41f5-8463-cdeb57cf61f8","ios":"levelo://app?vid=aa3fc5fb-18c0-41f5-8463-cdeb57cf61f8"},"vehicle_type_id":"4","last_reported":1751746230,"current_range_meters":9600,"station_id":"ce4bgv92rcd13ifvqcr0","pricing_plan_id":"cebpf4jnsgd1na2vs0mg"},{"bike_id":"641994a4-c993-4c73-9052-e4439248b820","system_id":"levelo_inurba_marseille","lat":43.298,"lon":5.39326,"is_reserved":false,"is_disabled":false,"rental_uris":{"android":"levelo://app?vid=641994a4-c993-4c73-9052-e4439248b820","ios":"levelo://app?vid=641994a4-c993-4c73-9052-e4439248b820"},"vehicle_type_id":"4","last_reported":1751746230,"current_range_meters":9600,"station_id":"chh1huq6cuj3fo74tm60","pricing_plan_id":"cebpf4jnsgd1na2vs0mg"},{"bike_id":"b4784051-7229-4133-9f5d-d751bcc0adf1","system_id":"levelo_inurba_marseille","lat":43.30731,"lon":5.42434,"is_reserved":false,"is_disabled":false,"rental_uris":{"android":"levelo://app?vid=b4784051-7229-4133-9f5d-d751bcc0adf1","ios":"levelo://app?vid=b4784051-7229-4133-9f5d-d751bcc0adf1"},"vehicle_type_id":"4","last_reported":1751746230,"current_range_meters":9600,"station_id":"st_cvj6ca6bvosntc0bfgr0","pricing_plan_id":"cebpf4jnsgd1na2vs0mg"},{"bike_id":"ba029e0b-4345-4790-9497-4bf99e50af46","system_id":"levelo_inurba_marseille","lat":43.309337,"lon":5.390403,"is_reserved":false,"is_disabled":false,"rental_uris":{"android":"levelo://app?vid=ba029e0b-4345-4790-9497-4bf99e50af46","ios":"levelo://app?vid=ba029e0b-4345-4790-9497-4bf99e50af46"},"vehicle_type_id":"4","last_reported":1751746230,"current_range_meters":10000,"station_id":"ce4bgup2rcd13ifvqco0","pricing_plan_id":"cebpf4jnsgd1na2vs0mg"},{"bike_id":"2d67eff7-3fcd-4ab9-aa31-38a4caaf79f0","system_id":"levelo_inurba_marseille","lat":43.28566,"lon":5.39492,"is_reserved":false,"is_disabled":false,"rental_uris":{"android":"levelo://app?vid=2d67eff7-3fcd-4ab9-aa31-38a4caaf79f0","ios":"levelo://app?vid=2d67eff7-3fcd-4ab9-aa31-38a4caaf79f0"},"vehicle_type_id":"4","last_reported":1751746230,"current_range_meters":10000,"station_id":"ce4bh292rcd13ifvqdg0","pricing_plan_id":"cebpf4jnsgd1na2vs0mg"},{"bike_id":"4db45513-e520-4598-82fa-5809d80d4f3d","system_id":"levelo_inurba_marseille","lat":43.28092,"lon":5.35478,"is_reserved":false,"is_disabled":false,"rental_uris":{"android":"levelo://app?vid=4db45513-e520-4598-82fa-5809d80d4f3d","ios":"levelo://app?vid=4db45513-e520-4598-82fa-5809d80d4f3d"},"vehicle_type_id":"4","last_reported":1751746230,"current_range_meters":10800,"station_id":"","pricing_plan_id":"cebpf4jnsgd1na2vs0mg"},{"bike_id":"86fd8981-20f9-4224-bd4a-ffbfeb25559b","system_id":"levelo_inurba_marseille","lat":43.3053,"lon":5.3844,"is_reserved":false,"is_disabled":false,"rental_uris":{"android":"levelo://app?vid=86fd8981-20f9-4224-bd4a-ffbfeb25559b","ios":"levelo://app?vid=86fd8981-20f9-4224-bd4a-ffbfeb25559b"},"vehicle_type_id":"4","last_reported":1751746230,"current_range_meters":10800,"station_id":"ce4bgg92rcd13ifvqb30","pricing_plan_id":"cebpf4jnsgd1na2vs0mg"},{"bike_id":"1e04b9e2-27c6-4b30-b902-6c81e18716e2","system_id":"levelo_inurba_marseille","lat":43.31153,"lon":5.37746,"is_reserved":false,"is_disabled":false,"rental_uris":{"android":"levelo://app?vid=1e04b9e2-27c6-4b30-b902-6c81e18716e2","ios":"levelo://app?vid=1e04b9e2-27c6-4b30-b902-6c81e18716e2"},"vehicle_type_id":"4","last_reported":1751746230,"current_range_meters":10800,"station_id":"ce4bgt92rcd13ifvqcg0","pricing_plan_id":"cebpf4jnsgd1na2vs0mg"},{"bike_id":"b6fc651c-afd3-404d-b515-fefd722d36fe","system_id":"levelo_inurba_marseille","lat":43.3095,"lon":5.39048,"is_reserved":false,"is_disabled":false,"rental_uris":{"android":"levelo://app?vid=b6fc651c-afd3-404d-b515-fefd722d36fe","ios":"levelo://app?vid=b6fc651c-afd3-404d-b515-fefd722d36fe"},"vehicle_type_id":"4","last_reported":1751746230,"current_range_meters":10800,"station_id":"ce4bgup2rcd13ifvqco0","pricing_plan_id":"cebpf4jnsgd1na2vs0mg"},{"bike_id":"338904b9-8a90-4989-bae7-fad498a626ce","system_id":"levelo_inurba_marseille","lat":43.30953,"lon":5.39041,"is_reserved":false,"is_disabled":false,"rental_uris":{"android":"levelo://app?vid=338904b9-8a90-4989-bae7-fad498a626ce","ios":"levelo://app?vid=338904b9-8a90-4989-bae7-fad498a626ce"},"vehicle_type_id":"4","last_reported":1751746230,"current_range_meters":10800,"station_id":"ce4bgup2rcd13ifvqco0","pricing_plan_id":"cebpf4jnsgd1na2vs0mg"},{"bike_id":"45e69d60-6a96-4504-93c8-71f494049f76","system_id":"levelo_inurba_marseille","lat":43.31171,"lon":5.38717,"is_reserved":false,"is_disabled":false,"rental_uris":{"android":"levelo://app?vid=45e69d60-6a96-4504-93c8-71f494049f76","ios":"levelo://app?vid=45e69d60-6a96-4504-93c8-71f494049f76"},"vehicle_type_id":"4","last_reported":1751746230,"current_range_meters":10800,"station_id":"ce4bgv12rcd13ifvqcp0","pricing_plan_id":"cebpf4jnsgd1na2vs0mg"},{"bike_id":"30f7a73c-5858-4d4c-8cb4-dd7012106046","system_id":"levelo_inurba_marseille","lat":43.26182,"lon":5.37457,"is_reserved":false,"is_disabled":false,"rental_uris":{"android":"levelo://app?vid=30f7a73c-5858-4d4c-8cb4-dd7012106046","ios":"levelo://app?vid=30f7a73c-5858-4d4c-8cb4-dd7012106046"},"vehicle_type_id":"4","last_reported":1751746230,"current_range_meters":10800,"station_id":"ce4bhgp2rcd13ifvqfc0","pricing_plan_id":"cebpf4jnsgd1na2vs0mg"},{"bike_id":"3a9f8733-1d66-4d01-8f4b-4b845ee4d218","system_id":"levelo_inurba_marseille","lat":43.30937,"lon":5.39044,"is_reserved":false,"is_disabled":false,"rental_uris":{"android":"levelo://app?vid=3a9f8733-1d66-4d01-8f4b-4b845ee4d218","ios":"levelo://app?vid=3a9f8733-1d66-4d01-8f4b-4b845ee4d218"},"vehicle_type_id":"4","last_reported":1751746230,"current_range_meters":11200,"station_id":"ce4bgup2rcd13ifvqco0","pricing_plan_id":"cebpf4jnsgd1na2vs0mg"},{"bike_id":"a053fee9-06a3-442c-968d-00db3710c1e6","system_id":"levelo_inurba_marseille","lat":43.29539,"lon":5.39403,"is_reserved":false,"is_disabled":false,"rental_uris":{"android":"levelo://app?vid=a053fee9-06a3-442c-968d-00db3710c1e6","ios":"levelo://app?vid=a053fee9-06a3-442c-968d-00db3710c1e6"},"vehicle_type_id":"4","last_reported":1751746230,"current_range_meters":11200,"station_id":"ce4bh292rcd13ifvqdf0","pricing_plan_id":"cebpf4jnsgd1na2vs0mg"},{"bike_id":"1f60eb49-49b4-4de7-8398-1976524eb9a4","system_id":"levelo_inurba_marseille","lat":43.28851,"lon":5.39309,"is_reserved":false,"is_disabled":false,"rental_uris":{"android":"levelo://app?vid=1f60eb49-49b4-4de7-8398-1976524eb9a4","ios":"levelo://app?vid=1f60eb49-49b4-4de7-8398-1976524eb9a4"},"vehicle_type_id":"4","last_reported":1751746230,"current_range_meters":11200,"station_id":"ce4bh2p2rcd13ifvqdi0","pricing_plan_id":"cebpf4jnsgd1na2vs0mg"},{"bike_id":"daeee1e5-3b93-44da-8e47-7b24df6d544e","system_id":"levelo_inurba_marseille","lat":43.29995,"lon":5.37374,"is_reserved":false,"is_disabled":false,"rental_uris":{"android":"levelo://app?vid=daeee1e5-3b93-44da-8e47-7b24df6d544e","ios":"levelo://app?vid=daeee1e5-3b93-44da-8e47-7b24df6d544e"},"vehicle_type_id":"4","last_reported":1751746230,"current_range_meters":11600,"station_id":"","pricing_plan_id":"cebpf4jnsgd1na2vs0mg"},{"bike_id":"6957440d-f892-4ac4-88a7-ea5daafdfc5f","system_id":"levelo_inurba_marseille","lat":43.3117,"lon":5.38709,"is_reserved":false,"is_disabled":false,"rental_uris":{"android":"levelo://app?vid=6957440d-f892-4ac4-88a7-ea5daafdfc5f","ios":"levelo://app?vid=6957440d-f892-4ac4-88a7-ea5daafdfc5f"},"vehicle_type_id":"4","last_reported":1751746230,"current_range_meters":11600,"station_id":"ce4bgv12rcd13ifvqcp0","pricing_plan_id":"cebpf4jnsgd1na2vs0mg"},{"bike_id":"54162009-10cb-4291-bb9a-2b1f87daa58d","system_id":"levelo_inurba_marseille","lat":43.31998,"lon":5.38158,"is_reserved":false,"is_disabled":false,"rental_uris":{"android":"levelo://app?vid=54162009-10cb-4291-bb9a-2b1f87daa58d","ios":"levelo://app?vid=54162009-10cb-4291-bb9a-2b1f87daa58d"},"vehicle_type_id":"4","last_reported":1751746230,"current_range_meters":11600,"station_id":"ce4bhr12rcd13ifvqhpg","pricing_plan_id":"cebpf4jnsgd1na2vs0mg"},{"bike_id":"b1d40197-e49c-4962-8cd8-0babe05d31a6","system_id":"levelo_inurba_marseille","lat":43.21245,"lon":5.35282,"is_reserved":false,"is_disabled":false,"rental_uris":{"android":"levelo://app?vid=b1d40197-e49c-4962-8cd8-0babe05d31a6","ios":"levelo://app?vid=b1d40197-e49c-4962-8cd8-0babe05d31a6"},"vehicle_type_id":"4","last_reported":1751746230,"current_range_meters":12000,"station_id":"","pricing_plan_id":"cebpf4jnsgd1na2vs0mg"},{"bike_id":"de198ce5-8e83-43b7-a0c7-926b317fb475","system_id":"levelo_inurba_marseille","lat":43.2781,"lon":5.40713,"is_reserved":false,"is_disabled":false,"rental_uris":{"android":"levelo://app?vid=de198ce5-8e83-43b7-a0c7-926b317fb475","ios":"levelo://app?vid=de198ce5-8e83-43b7-a0c7-926b317fb475"},"vehicle_type_id":"4","last_reported":1751746230,"current_range_meters":12000,"station_id":"ce4bhnh2rcd13ifvqgtg","pricing_plan_id":"cebpf4jnsgd1na2vs0mg"},{"bike_id":"e765a905-8b4e-4ef1-9639-dcbd4a7f5d0a","system_id":"levelo_inurba_marseille","lat":43.29922,"lon":5.3749,"is_reserved":false,"is_disabled":false,"rental_uris":{"android":"levelo://app?vid=e765a905-8b4e-4ef1-9639-dcbd4a7f5d0a","ios":"levelo://app?vid=e765a905-8b4e-4ef1-9639-dcbd4a7f5d0a"},"vehicle_type_id":"4","last_reported":1751746230,"current_range_meters":12400,"station_id":"ce4bgjh2rcd13ifvqbg0","pricing_plan_id":"cebpf4jnsgd1na2vs0mg"},{"bike_id":"dbcb8a3b-8ed1-42a1-adb9-e44b9106b840","system_id":"levelo_inurba_marseille","lat":43.30947,"lon":5.39031,"is_reserved":false,"is_disabled":false,"rental_uris":{"android":"levelo://app?vid=dbcb8a3b-8ed1-42a1-adb9-e44b9106b840","ios":"levelo://app?vid=dbcb8a3b-8ed1-42a1-adb9-e44b9106b840"},"vehicle_type_id":"4","last_reported":1751746230,"current_range_meters":12400,"station_id":"ce4bgup2rcd13ifvqco0","pricing_plan_id":"cebpf4jnsgd1na2vs0mg"},{"bike_id":"f65f9c1e-4462-4583-904b-a47d759534c4","system_id":"levelo_inurba_marseille","lat":43.30942,"lon":5.39042,"is_reserved":false,"is_disabled":false,"rental_uris":{"android":"levelo://app?vid=f65f9c1e-4462-4583-904b-a47d759534c4","ios":"levelo://app?vid=f65f9c1e-4462-4583-904b-a47d759534c4"},"vehicle_type_id":"4","last_reported":1751746230,"current_range_meters":12400,"station_id":"ce4bgup2rcd13ifvqco0","pricing_plan_id":"cebpf4jnsgd1na2vs0mg"},{"bike_id":"e4ca592b-febe-4c46-abd0-fa4ea8a752e7","system_id":"levelo_inurba_marseille","lat":43.27418,"lon":5.39415,"is_reserved":false,"is_disabled":false,"rental_uris":{"android":"levelo://app?vid=e4ca592b-febe-4c46-abd0-fa4ea8a752e7","ios":"levelo://app?vid=e4ca592b-febe-4c46-abd0-fa4ea8a752e7"},"vehicle_type_id":"4","last_reported":1751746230,"current_range_meters":12400,"station_id":"ce4bhdp2rcd13ifvqf20","pricing_plan_id":"cebpf4jnsgd1na2vs0mg"},{"bike_id":"86c92dc1-b4da-49d9-acb8-ba390f939865","system_id":"levelo_inurba_marseille","lat":43.330263,"lon":5.39233,"is_reserved":false,"is_disabled":false,"rental_uris":{"android":"levelo://app?vid=86c92dc1-b4da-49d9-acb8-ba390f939865","ios":"levelo://app?vid=86c92dc1-b4da-49d9-acb8-ba390f939865"},"vehicle_type_id":"4","last_reported":1751746230,"current_range_meters":12800,"station_id":"","pricing_plan_id":"cebpf4jnsgd1na2vs0mg"},{"bike_id":"a98465ce-a7bf-4e08-8461-c5eb2ef3fbd6","system_id":"levelo_inurba_marseille","lat":43.30955,"lon":5.39031,"is_reserved":false,"is_disabled":false,"rental_uris":{"android":"levelo://app?vid=a98465ce-a7bf-4e08-8461-c5eb2ef3fbd6","ios":"levelo://app?vid=a98465ce-a7bf-4e08-8461-c5eb2ef3fbd6"},"vehicle_type_id":"4","last_reported":1751746230,"current_range_meters":12800,"station_id":"ce4bgup2rcd13ifvqco0","pricing_plan_id":"cebpf4jnsgd1na2vs0mg"},{"bike_id":"41500941-e441-4feb-9b17-4bba752053cf","system_id":"levelo_inurba_marseille","lat":43.30955,"lon":5.39039,"is_reserved":false,"is_disabled":false,"rental_uris":{"android":"levelo://app?vid=41500941-e441-4feb-9b17-4bba752053cf","ios":"levelo://app?vid=41500941-e441-4feb-9b17-4bba752053cf"},"vehicle_type_id":"4","last_reported":1751746230,"current_range_meters":12800,"station_id":"ce4bgup2rcd13ifvqco0","pricing_plan_id":"cebpf4jnsgd1na2vs0mg"},{"bike_id":"c4ff648a-f214-4632-8118-32b7fd04476a","system_id":"levelo_inurba_marseille","lat":43.31525,"lon":5.38032,"is_reserved":false,"is_disabled":false,"rental_uris":{"android":"levelo://app?vid=c4ff648a-f214-4632-8118-32b7fd04476a","ios":"levelo://app?vid=c4ff648a-f214-4632-8118-32b7fd04476a"},"vehicle_type_id":"4","last_reported":1751746230,"current_range_meters":12800,"station_id":"ce4bhsp2rcd13ifvqi50","pricing_plan_id":"cebpf4jnsgd1na2vs0mg"},{"bike_id":"8b01cf32-54e2-4fd2-a618-94fbfc8c3130","system_id":"levelo_inurba_marseille","lat":43.231858,"lon":5.35542,"is_reserved":false,"is_disabled":false,"rental_uris":{"android":"levelo://app?vid=8b01cf32-54e2-4fd2-a618-94fbfc8c3130","ios":"levelo://app?vid=8b01cf32-54e2-4fd2-a618-94fbfc8c3130"},"vehicle_type_id":"4","last_reported":1751746230,"current_range_meters":12800,"station_id":"ce4bhu92rcd13ifvqi70","pricing_plan_id":"cebpf4jnsgd1na2vs0mg"},{"bike_id":"db16ec35-cc5e-48dc-b409-0eeddc886654","system_id":"levelo_inurba_marseille","lat":43.2953,"lon":5.38539,"is_reserved":false,"is_disabled":false,"rental_uris":{"android":"levelo://app?vid=db16ec35-cc5e-48dc-b409-0eeddc886654","ios":"levelo://app?vid=db16ec35-cc5e-48dc-b409-0eeddc886654"},"vehicle_type_id":"4","last_reported":1751746230,"current_range_meters":13600,"station_id":"ce4bgih2rcd13ifvqba0","pricing_plan_id":"cebpf4jnsgd1na2vs0mg"},{"bike_id":"bb529eb9-2560-447b-b0a1-a513d0dd952e","system_id":"levelo_inurba_marseille","lat":43.30956,"lon":5.39041,"is_reserved":false,"is_disabled":false,"rental_uris":{"android":"levelo://app?vid=bb529eb9-2560-447b-b0a1-a513d0dd952e","ios":"levelo://app?vid=bb529eb9-2560-447b-b0a1-a513d0dd952e"},"vehicle_type_id":"4","last_reported":1751746230,"current_range_meters":13600,"station_id":"ce4bgup2rcd13ifvqco0","pricing_plan_id":"cebpf4jnsgd1na2vs0mg"},{"bike_id":"96b3c9bc-71ed-410c-b2a4-1677fd8792aa","system_id":"levelo_inurba_marseille","lat":43.3059,"lon":5.39357,"is_reserved":false,"is_disabled":false,"rental_uris":{"android":"levelo://app?vid=96b3c9bc-71ed-410c-b2a4-1677fd8792aa","ios":"levelo://app?vid=96b3c9bc-71ed-410c-b2a4-1677fd8792aa"},"vehicle_type_id":"4","last_reported":1751746230,"current_range_meters":13600,"station_id":"ce4bh0p2rcd13ifvqd80","pricing_plan_id":"cebpf4jnsgd1na2vs0mg"},{"bike_id":"d98cd914-d45a-41cc-af55-07021621cd71","system_id":"levelo_inurba_marseille","lat":43.28484,"lon":5.38554,"is_reserved":false,"is_disabled":false,"rental_uris":{"android":"levelo://app?vid=d98cd914-d45a-41cc-af55-07021621cd71","ios":"levelo://app?vid=d98cd914-d45a-41cc-af55-07021621cd71"},"vehicle_type_id":"4","last_reported":1751746230,"current_range_meters":13600,"station_id":"ce4bh8p2rcd13ifvqeb0","pricing_plan_id":"cebpf4jnsgd1na2vs0mg"},{"bike_id":"36f9c75b-5d6c-412a-b395-ad8ffc2d771a","system_id":"levelo_inurba_marseille","lat":43.25989,"lon":5.41801,"is_reserved":false,"is_disabled":false,"rental_uris":{"android":"levelo://app?vid=36f9c75b-5d6c-412a-b395-ad8ffc2d771a","ios":"levelo://app?vid=36f9c75b-5d6c-412a-b395-ad8ffc2d771a"},"vehicle_type_id":"4","last_reported":1751746230,"current_range_meters":14000,"station_id":"","pricing_plan_id":"cebpf4jnsgd1na2vs0mg"},{"bike_id":"e08cb157-9e04-465a-9963-036a0fe77a1c","system_id":"levelo_inurba_marseille","lat":43.3095,"lon":5.39031,"is_reserved":false,"is_disabled":false,"rental_uris":{"android":"levelo://app?vid=e08cb157-9e04-465a-9963-036a0fe77a1c","ios":"levelo://app?vid=e08cb157-9e04-465a-9963-036a0fe77a1c"},"vehicle_type_id":"4","last_reported":1751746230,"current_range_meters":14000,"station_id":"","pricing_plan_id":"cebpf4jnsgd1na2vs0mg"},{"bike_id":"adf1d38d-1f03-40cf-9b57-0a8f15f62b2d","system_id":"levelo_inurba_marseille","lat":43.32952,"lon":5.364007,"is_reserved":false,"is_disabled":false,"rental_uris":{"android":"levelo://app?vid=adf1d38d-1f03-40cf-9b57-0a8f15f62b2d","ios":"levelo://app?vid=adf1d38d-1f03-40cf-9b57-0a8f15f62b2d"},"vehicle_type_id":"4","last_reported":1751746230,"current_range_meters":14000,"station_id":"","pricing_plan_id":"cebpf4jnsgd1na2vs0mg"},{"bike_id":"ba8e5270-5a7f-4191-a91d-7cf85eea91c2","system_id":"levelo_inurba_marseille","lat":43.282,"lon":5.34961,"is_reserved":false,"is_disabled":false,"rental_uris":{"android":"levelo://app?vid=ba8e5270-5a7f-4191-a91d-7cf85eea91c2","ios":"levelo://app?vid=ba8e5270-5a7f-4191-a91d-7cf85eea91c2"},"vehicle_type_id":"4","last_reported":1751746230,"current_range_meters":14000,"station_id":"","pricing_plan_id":"cebpf4jnsgd1na2vs0mg"},{"bike_id":"c2605c04-ed62-4cd1-a921-b67e24362106","system_id":"levelo_inurba_marseille","lat":43.313544,"lon":5.384906,"is_reserved":false,"is_disabled":false,"rental_uris":{"android":"levelo://app?vid=c2605c04-ed62-4cd1-a921-b67e24362106","ios":"levelo://app?vid=c2605c04-ed62-4cd1-a921-b67e24362106"},"vehicle_type_id":"4","last_reported":1751746230,"current_range_meters":14000,"station_id":"ce4bgup2rcd13ifvqco0","pricing_plan_id":"cebpf4jnsgd1na2vs0mg"},{"bike_id":"c43cf287-8423-4cff-9850-363df31d03c1","system_id":"levelo_inurba_marseille","lat":43.312717,"lon":5.40179,"is_reserved":false,"is_disabled":false,"rental_uris":{"android":"levelo://app?vid=c43cf287-8423-4cff-9850-363df31d03c1","ios":"levelo://app?vid=c43cf287-8423-4cff-9850-363df31d03c1"},"vehicle_type_id":"4","last_reported":1751746230,"current_range_meters":14000,"station_id":"ce4bh092rcd13ifvqd30","pricing_plan_id":"cebpf4jnsgd1na2vs0mg"},{"bike_id":"af29a437-e9b5-4281-9ba4-b9ccb4fdae7f","system_id":"levelo_inurba_marseille","lat":43.30316,"lon":5.38624,"is_reserved":false,"is_disabled":false,"rental_uris":{"android":"levelo://app?vid=af29a437-e9b5-4281-9ba4-b9ccb4fdae7f","ios":"levelo://app?vid=af29a437-e9b5-4281-9ba4-b9ccb4fdae7f"},"vehicle_type_id":"4","last_reported":1751746230,"current_range_meters":14400,"station_id":"","pricing_plan_id":"cebpf4jnsgd1na2vs0mg"},{"bike_id":"fe8ee84c-fdfc-40aa-a1c2-6e36409c0740","system_id":"levelo_inurba_marseille","lat":43.26796,"lon":5.39039,"is_reserved":false,"is_disabled":false,"rental_uris":{"android":"levelo://app?vid=fe8ee84c-fdfc-40aa-a1c2-6e36409c0740","ios":"levelo://app?vid=fe8ee84c-fdfc-40aa-a1c2-6e36409c0740"},"vehicle_type_id":"4","last_reported":1751746230,"current_range_meters":14400,"station_id":"","pricing_plan_id":"cebpf4jnsgd1na2vs0mg"},{"bike_id":"d712008c-4f25-4a2b-bf71-9d59dbc29da6","system_id":"levelo_inurba_marseille","lat":43.2573,"lon":5.41107,"is_reserved":false,"is_disabled":false,"rental_uris":{"android":"levelo://app?vid=d712008c-4f25-4a2b-bf71-9d59dbc29da6","ios":"levelo://app?vid=d712008c-4f25-4a2b-bf71-9d59dbc29da6"},"vehicle_type_id":"4","last_reported":1751746230,"current_range_meters":14400,"station_id":"","pricing_plan_id":"cebpf4jnsgd1na2vs0mg"},{"bike_id":"1ea33fdf-813c-4aaa-a6fe-4ff71858acde","system_id":"levelo_inurba_marseille","lat":43.29528,"lon":5.38547,"is_reserved":false,"is_disabled":false,"rental_uris":{"android":"levelo://app?vid=1ea33fdf-813c-4aaa-a6fe-4ff71858acde","ios":"levelo://app?vid=1ea33fdf-813c-4aaa-a6fe-4ff71858acde"},"vehicle_type_id":"4","last_reported":1751746230,"current_range_meters":14400,"station_id":"ce4bgih2rcd13ifvqba0","pricing_plan_id":"cebpf4jnsgd1na2vs0mg"},{"bike_id":"3f7401d9-d29b-4d8f-a46e-088d196d4511","system_id":"levelo_inurba_marseille","lat":43.29533,"lon":5.3854,"is_reserved":false,"is_disabled":false,"rental_uris":{"android":"levelo://app?vid=3f7401d9-d29b-4d8f-a46e-088d196d4511","ios":"levelo://app?vid=3f7401d9-d29b-4d8f-a46e-088d196d4511"},"vehicle_type_id":"4","last_reported":1751746230,"current_range_meters":14400,"station_id":"ce4bgih2rcd13ifvqba0","pricing_plan_id":"cebpf4jnsgd1na2vs0mg"},{"bike_id":"29f534f3-f43b-40a1-972c-ff4928125cc6","system_id":"levelo_inurba_marseille","lat":43.31362,"lon":5.38496,"is_reserved":false,"is_disabled":false,"rental_uris":{"android":"levelo://app?vid=29f534f3-f43b-40a1-972c-ff4928125cc6","ios":"levelo://app?vid=29f534f3-f43b-40a1-972c-ff4928125cc6"},"vehicle_type_id":"4","last_reported":1751746230,"current_range_meters":14400,"station_id":"ce4bgt92rcd13ifvqcf0","pricing_plan_id":"cebpf4jnsgd1na2vs0mg"},{"bike_id":"559e2904-747d-4a02-9b1e-0ce54aaac2cf","system_id":"levelo_inurba_marseille","lat":43.31349,"lon":5.38485,"is_reserved":false,"is_disabled":false,"rental_uris":{"android":"levelo://app?vid=559e2904-747d-4a02-9b1e-0ce54aaac2cf","ios":"levelo://app?vid=559e2904-747d-4a02-9b1e-0ce54aaac2cf"},"vehicle_type_id":"4","last_reported":1751746230,"current_range_meters":14400,"station_id":"ce4bgt92rcd13ifvqcf0","pricing_plan_id":"cebpf4jnsgd1na2vs0mg"},{"bike_id":"99e1b8e7-1e6d-44a4-90b9-75915fdd90b9","system_id":"levelo_inurba_marseille","lat":43.30939,"lon":5.39034,"is_reserved":false,"is_disabled":false,"rental_uris":{"android":"levelo://app?vid=99e1b8e7-1e6d-44a4-90b9-75915fdd90b9","ios":"levelo://app?vid=99e1b8e7-1e6d-44a4-90b9-75915fdd90b9"},"vehicle_type_id":"4","last_reported":1751746230,"current_range_meters":14400,"station_id":"ce4bgup2rcd13ifvqco0","pricing_plan_id":"cebpf4jnsgd1na2vs0mg"},{"bike_id":"89b4eca9-e526-4b41-be44-89c8952c28b2","system_id":"levelo_inurba_marseille","lat":43.30945,"lon":5.39043,"is_reserved":false,"is_disabled":false,"rental_uris":{"android":"levelo://app?vid=89b4eca9-e526-4b41-be44-89c8952c28b2","ios":"levelo://app?vid=89b4eca9-e526-4b41-be44-89c8952c28b2"},"vehicle_type_id":"4","last_reported":1751746230,"current_range_meters":14400,"station_id":"ce4bgup2rcd13ifvqco0","pricing_plan_id":"cebpf4jnsgd1na2vs0mg"},{"bike_id":"12e42eec-2570-4fe0-b669-ae159d10aa40","system_id":"levelo_inurba_marseille","lat":43.26188,"lon":5.3746,"is_reserved":false,"is_disabled":false,"rental_uris":{"android":"levelo://app?vid=12e42eec-2570-4fe0-b669-ae159d10aa40","ios":"levelo://app?vid=12e42eec-2570-4fe0-b669-ae159d10aa40"},"vehicle_type_id":"4","last_reported":1751746230,"current_range_meters":14400,"station_id":"ce4bhgp2rcd13ifvqfc0","pricing_plan_id":"cebpf4jnsgd1na2vs0mg"},{"bike_id":"637fcc3b-c74d-473a-96c1-57ab4bb52ed7","system_id":"levelo_inurba_marseille","lat":43.25932,"lon":5.40919,"is_reserved":false,"is_disabled":false,"rental_uris":{"android":"levelo://app?vid=637fcc3b-c74d-473a-96c1-57ab4bb52ed7","ios":"levelo://app?vid=637fcc3b-c74d-473a-96c1-57ab4bb52ed7"},"vehicle_type_id":"4","last_reported":1751746230,"current_range_meters":14400,"station_id":"ce4bhm92rcd13ifvqglg","pricing_plan_id":"cebpf4jnsgd1na2vs0mg"},{"bike_id":"00d046c1-c97a-4cbf-9104-df0b8a144efc","system_id":"levelo_inurba_marseille","lat":43.27494,"lon":5.42461,"is_reserved":false,"is_disabled":false,"rental_uris":{"android":"levelo://app?vid=00d046c1-c97a-4cbf-9104-df0b8a144efc","ios":"levelo://app?vid=00d046c1-c97a-4cbf-9104-df0b8a144efc"},"vehicle_type_id":"4","last_reported":1751746230,"current_range_meters":14400,"station_id":"ce4bhn92rcd13ifvqgrg","pricing_plan_id":"cebpf4jnsgd1na2vs0mg"},{"bike_id":"1bdb02c3-7bbc-4c30-abd2-cd7dee2e633d","system_id":"levelo_inurba_marseille","lat":43.26942,"lon":5.40252,"is_reserved":false,"is_disabled":false,"rental_uris":{"android":"levelo://app?vid=1bdb02c3-7bbc-4c30-abd2-cd7dee2e633d","ios":"levelo://app?vid=1bdb02c3-7bbc-4c30-abd2-cd7dee2e633d"},"vehicle_type_id":"4","last_reported":1751746230,"current_range_meters":14400,"station_id":"cjm6bp8fraef2m0cb0m0","pricing_plan_id":"cebpf4jnsgd1na2vs0mg"},{"bike_id":"4d8942c7-0e64-4b67-b6b6-d1a5c3d08cfb","system_id":"levelo_inurba_marseille","lat":43.224823,"lon":5.347908,"is_reserved":false,"is_disabled":false,"rental_uris":{"android":"levelo://app?vid=4d8942c7-0e64-4b67-b6b6-d1a5c3d08cfb","ios":"levelo://app?vid=4d8942c7-0e64-4b67-b6b6-d1a5c3d08cfb"},"vehicle_type_id":"4","last_reported":1751746230,"current_range_meters":14800,"station_id":"","pricing_plan_id":"cebpf4jnsgd1na2vs0mg"},{"bike_id":"883a31b2-32d0-40ae-abfb-0a8cad9f140f","system_id":"levelo_inurba_marseille","lat":43.309354,"lon":5.390348,"is_reserved":false,"is_disabled":false,"rental_uris":{"android":"levelo://app?vid=883a31b2-32d0-40ae-abfb-0a8cad9f140f","ios":"levelo://app?vid=883a31b2-32d0-40ae-abfb-0a8cad9f140f"},"vehicle_type_id":"4","last_reported":1751746230,"current_range_meters":14800,"station_id":"","pricing_plan_id":"cebpf4jnsgd1na2vs0mg"},{"bike_id":"1e18f1cb-655d-478c-b26b-b01b2442181f","system_id":"levelo_inurba_marseille","lat":43.30952,"lon":5.39028,"is_reserved":false,"is_disabled":false,"rental_uris":{"android":"levelo://app?vid=1e18f1cb-655d-478c-b26b-b01b2442181f","ios":"levelo://app?vid=1e18f1cb-655d-478c-b26b-b01b2442181f"},"vehicle_type_id":"4","last_reported":1751746230,"current_range_meters":14800,"station_id":"ce4bgup2rcd13ifvqco0","pricing_plan_id":"cebpf4jnsgd1na2vs0mg"},{"bike_id":"c0f33a4b-2a86-4b3f-8c28-0f7c687f9052","system_id":"levelo_inurba_marseille","lat":43.31161,"lon":5.38707,"is_reserved":false,"is_disabled":false,"rental_uris":{"android":"levelo://app?vid=c0f33a4b-2a86-4b3f-8c28-0f7c687f9052","ios":"levelo://app?vid=c0f33a4b-2a86-4b3f-8c28-0f7c687f9052"},"vehicle_type_id":"4","last_reported":1751746230,"current_range_meters":14800,"station_id":"ce4bgv12rcd13ifvqcp0","pricing_plan_id":"cebpf4jnsgd1na2vs0mg"},{"bike_id":"6bc0f1bb-6f01-4acb-a898-e7c62eb6fabd","system_id":"levelo_inurba_marseille","lat":43.312703,"lon":5.401607,"is_reserved":false,"is_disabled":false,"rental_uris":{"android":"levelo://app?vid=6bc0f1bb-6f01-4acb-a898-e7c62eb6fabd","ios":"levelo://app?vid=6bc0f1bb-6f01-4acb-a898-e7c62eb6fabd"},"vehicle_type_id":"4","last_reported":1751746230,"current_range_meters":14800,"station_id":"ce4bh092rcd13ifvqd30","pricing_plan_id":"cebpf4jnsgd1na2vs0mg"},{"bike_id":"6059c830-af5a-413e-a02b-0b02c64df85a","system_id":"levelo_inurba_marseille","lat":43.29265,"lon":5.38448,"is_reserved":false,"is_disabled":false,"rental_uris":{"android":"levelo://app?vid=6059c830-af5a-413e-a02b-0b02c64df85a","ios":"levelo://app?vid=6059c830-af5a-413e-a02b-0b02c64df85a"},"vehicle_type_id":"4","last_reported":1751746230,"current_range_meters":14800,"station_id":"ce4bh692rcd13ifvqea0","pricing_plan_id":"cebpf4jnsgd1na2vs0mg"},{"bike_id":"c320fc53-2b3f-4f8b-8f31-bef6c504f677","system_id":"levelo_inurba_marseille","lat":43.27208,"lon":5.39187,"is_reserved":false,"is_disabled":false,"rental_uris":{"android":"levelo://app?vid=c320fc53-2b3f-4f8b-8f31-bef6c504f677","ios":"levelo://app?vid=c320fc53-2b3f-4f8b-8f31-bef6c504f677"},"vehicle_type_id":"4","last_reported":1751746230,"current_range_meters":14800,"station_id":"ce4bhhp2rcd13ifvqfm0","pricing_plan_id":"cebpf4jnsgd1na2vs0mg"},{"bike_id":"1133fa96-960d-45e6-9328-aa458deeee07","system_id":"levelo_inurba_marseille","lat":43.26202,"lon":5.4045,"is_reserved":false,"is_disabled":false,"rental_uris":{"android":"levelo://app?vid=1133fa96-960d-45e6-9328-aa458deeee07","ios":"levelo://app?vid=1133fa96-960d-45e6-9328-aa458deeee07"},"vehicle_type_id":"4","last_reported":1751746230,"current_range_meters":14800,"station_id":"ce4bhmh2rcd13ifvqgmg","pricing_plan_id":"cebpf4jnsgd1na2vs0mg"},{"bike_id":"38f7fbb9-ddf9-4adc-90d7-9ce9e9c6f27c","system_id":"levelo_inurba_marseille","lat":43.28235,"lon":5.38571,"is_reserved":false,"is_disabled":false,"rental_uris":{"android":"levelo://app?vid=38f7fbb9-ddf9-4adc-90d7-9ce9e9c6f27c","ios":"levelo://app?vid=38f7fbb9-ddf9-4adc-90d7-9ce9e9c6f27c"},"vehicle_type_id":"4","last_reported":1751746230,"current_range_meters":15200,"station_id":"","pricing_plan_id":"cebpf4jnsgd1na2vs0mg"},{"bike_id":"7f0c1e3c-145d-459e-b135-55934e2c45cf","system_id":"levelo_inurba_marseille","lat":43.28125,"lon":5.42648,"is_reserved":false,"is_disabled":false,"rental_uris":{"android":"levelo://app?vid=7f0c1e3c-145d-459e-b135-55934e2c45cf","ios":"levelo://app?vid=7f0c1e3c-145d-459e-b135-55934e2c45cf"},"vehicle_type_id":"4","last_reported":1751746230,"current_range_meters":15200,"station_id":"ce4bhnh2rcd13ifvqgug","pricing_plan_id":"cebpf4jnsgd1na2vs0mg"},{"bike_id":"bba003aa-2c86-4d35-8454-122e7bddc421","system_id":"levelo_inurba_marseille","lat":43.30944,"lon":5.39042,"is_reserved":false,"is_disabled":false,"rental_uris":{"android":"levelo://app?vid=bba003aa-2c86-4d35-8454-122e7bddc421","ios":"levelo://app?vid=bba003aa-2c86-4d35-8454-122e7bddc421"},"vehicle_type_id":"4","last_reported":1751746230,"current_range_meters":16000,"station_id":"ce4bgup2rcd13ifvqco0","pricing_plan_id":"cebpf4jnsgd1na2vs0mg"},{"bike_id":"affd2cdd-8e3c-4786-9921-d4a56a34bdc4","system_id":"levelo_inurba_marseille","lat":43.31179,"lon":5.38707,"is_reserved":false,"is_disabled":false,"rental_uris":{"android":"levelo://app?vid=affd2cdd-8e3c-4786-9921-d4a56a34bdc4","ios":"levelo://app?vid=affd2cdd-8e3c-4786-9921-d4a56a34bdc4"},"vehicle_type_id":"4","last_reported":1751746230,"current_range_meters":16000,"station_id":"ce4bgv12rcd13ifvqcp0","pricing_plan_id":"cebpf4jnsgd1na2vs0mg"},{"bike_id":"cc7b29cf-e18b-4de3-9e18-36629c044c7a","system_id":"levelo_inurba_marseille","lat":43.26213,"lon":5.37436,"is_reserved":false,"is_disabled":false,"rental_uris":{"android":"levelo://app?vid=cc7b29cf-e18b-4de3-9e18-36629c044c7a","ios":"levelo://app?vid=cc7b29cf-e18b-4de3-9e18-36629c044c7a"},"vehicle_type_id":"4","last_reported":1751746230,"current_range_meters":16000,"station_id":"ce4bhgp2rcd13ifvqfc0","pricing_plan_id":"cebpf4jnsgd1na2vs0mg"},{"bike_id":"2dfe9a6c-c017-4c3c-b211-38be4ceaca18","system_id":"levelo_inurba_marseille","lat":43.25081,"lon":5.39512,"is_reserved":false,"is_disabled":false,"rental_uris":{"android":"levelo://app?vid=2dfe9a6c-c017-4c3c-b211-38be4ceaca18","ios":"levelo://app?vid=2dfe9a6c-c017-4c3c-b211-38be4ceaca18"},"vehicle_type_id":"4","last_reported":1751746230,"current_range_meters":16000,"station_id":"ce4bhm12rcd13ifvqgkg","pricing_plan_id":"cebpf4jnsgd1na2vs0mg"},{"bike_id":"18e903c3-bd69-4cad-bc4b-fefd2f289489","system_id":"levelo_inurba_marseille","lat":43.26182,"lon":5.40438,"is_reserved":false,"is_disabled":false,"rental_uris":{"android":"levelo://app?vid=18e903c3-bd69-4cad-bc4b-fefd2f289489","ios":"levelo://app?vid=18e903c3-bd69-4cad-bc4b-fefd2f289489"},"vehicle_type_id":"4","last_reported":1751746230,"current_range_meters":16000,"station_id":"ce4bhmh2rcd13ifvqgmg","pricing_plan_id":"cebpf4jnsgd1na2vs0mg"},{"bike_id":"487ab83d-ae43-4d0e-9704-3e98f03ea682","system_id":"levelo_inurba_marseille","lat":43.2315,"lon":5.43716,"is_reserved":false,"is_disabled":false,"rental_uris":{"android":"levelo://app?vid=487ab83d-ae43-4d0e-9704-3e98f03ea682","ios":"levelo://app?vid=487ab83d-ae43-4d0e-9704-3e98f03ea682"},"vehicle_type_id":"4","last_reported":1751746230,"current_range_meters":16000,"station_id":"ce4bhmp2rcd13ifvqgog","pricing_plan_id":"cebpf4jnsgd1na2vs0mg"},{"bike_id":"38855c64-4a55-4d3a-8da1-44a2b313158b","system_id":"levelo_inurba_marseille","lat":43.3233,"lon":5.36752,"is_reserved":false,"is_disabled":false,"rental_uris":{"android":"levelo://app?vid=38855c64-4a55-4d3a-8da1-44a2b313158b","ios":"levelo://app?vid=38855c64-4a55-4d3a-8da1-44a2b313158b"},"vehicle_type_id":"4","last_reported":1751746230,"current_range_meters":16000,"station_id":"ce4bhsh2rcd13ifvqi2g","pricing_plan_id":"cebpf4jnsgd1na2vs0mg"},{"bike_id":"9f28415b-5428-4d1e-be25-244ff4d00520","system_id":"levelo_inurba_marseille","lat":43.30588,"lon":5.37214,"is_reserved":false,"is_disabled":false,"rental_uris":{"android":"levelo://app?vid=9f28415b-5428-4d1e-be25-244ff4d00520","ios":"levelo://app?vid=9f28415b-5428-4d1e-be25-244ff4d00520"},"vehicle_type_id":"4","last_reported":1751746230,"current_range_meters":16400,"station_id":"ce4bgqh2rcd13ifvqc4g","pricing_plan_id":"cebpf4jnsgd1na2vs0mg"},{"bike_id":"f4083786-8573-439f-9aac-f7840641a4f4","system_id":"levelo_inurba_marseille","lat":43.23176,"lon":5.39988,"is_reserved":false,"is_disabled":false,"rental_uris":{"android":"levelo://app?vid=f4083786-8573-439f-9aac-f7840641a4f4","ios":"levelo://app?vid=f4083786-8573-439f-9aac-f7840641a4f4"},"vehicle_type_id":"4","last_reported":1751746230,"current_range_meters":16400,"station_id":"ce4bhn12rcd13ifvqgqg","pricing_plan_id":"cebpf4jnsgd1na2vs0mg"},{"bike_id":"f2130bee-7a19-4953-bf71-a817b9b563dc","system_id":"levelo_inurba_marseille","lat":43.3042,"lon":5.41298,"is_reserved":false,"is_disabled":false,"rental_uris":{"android":"levelo://app?vid=f2130bee-7a19-4953-bf71-a817b9b563dc","ios":"levelo://app?vid=f2130bee-7a19-4953-bf71-a817b9b563dc"},"vehicle_type_id":"4","last_reported":1751746230,"current_range_meters":16400,"station_id":"ce4bhop2rcd13ifvqh8g","pricing_plan_id":"cebpf4jnsgd1na2vs0mg"},{"bike_id":"6203887d-23bb-4b4e-9498-37ef47679f9e","system_id":"levelo_inurba_marseille","lat":43.30413,"lon":5.41294,"is_reserved":false,"is_disabled":false,"rental_uris":{"android":"levelo://app?vid=6203887d-23bb-4b4e-9498-37ef47679f9e","ios":"levelo://app?vid=6203887d-23bb-4b4e-9498-37ef47679f9e"},"vehicle_type_id":"4","last_reported":1751746230,"current_range_meters":16400,"station_id":"ce4bhop2rcd13ifvqh8g","pricing_plan_id":"cebpf4jnsgd1na2vs0mg"},{"bike_id":"e934df3a-55ad-4287-be0e-970eb81a614c","system_id":"levelo_inurba_marseille","lat":43.33731,"lon":5.39189,"is_reserved":false,"is_disabled":false,"rental_uris":{"android":"levelo://app?vid=e934df3a-55ad-4287-be0e-970eb81a614c","ios":"levelo://app?vid=e934df3a-55ad-4287-be0e-970eb81a614c"},"vehicle_type_id":"4","last_reported":1751746230,"current_range_meters":16400,"station_id":"ce4bhr92rcd13ifvqhsg","pricing_plan_id":"cebpf4jnsgd1na2vs0mg"},{"bike_id":"cfedde4d-29e4-48a6-bc2a-67d1ad344395","system_id":"levelo_inurba_marseille","lat":43.23193,"lon":5.3554,"is_reserved":false,"is_disabled":false,"rental_uris":{"android":"levelo://app?vid=cfedde4d-29e4-48a6-bc2a-67d1ad344395","ios":"levelo://app?vid=cfedde4d-29e4-48a6-bc2a-67d1ad344395"},"vehicle_type_id":"4","last_reported":1751746230,"current_range_meters":16400,"station_id":"ce4bhu92rcd13ifvqi70","pricing_plan_id":"cebpf4jnsgd1na2vs0mg"},{"bike_id":"cd6f91d4-bdaf-4e38-b4f5-14f6e83055e8","system_id":"levelo_inurba_marseille","lat":43.21187,"lon":5.3507,"is_reserved":false,"is_disabled":false,"rental_uris":{"android":"levelo://app?vid=cd6f91d4-bdaf-4e38-b4f5-14f6e83055e8","ios":"levelo://app?vid=cd6f91d4-bdaf-4e38-b4f5-14f6e83055e8"},"vehicle_type_id":"4","last_reported":1751746230,"current_range_meters":16400,"station_id":"st_cvj6sg6p6f1abm77japg","pricing_plan_id":"cebpf4jnsgd1na2vs0mg"},{"bike_id":"452e8211-4f44-45d0-814a-3e9e25b8c44e","system_id":"levelo_inurba_marseille","lat":43.21181,"lon":5.35053,"is_reserved":false,"is_disabled":false,"rental_uris":{"android":"levelo://app?vid=452e8211-4f44-45d0-814a-3e9e25b8c44e","ios":"levelo://app?vid=452e8211-4f44-45d0-814a-3e9e25b8c44e"},"vehicle_type_id":"4","last_reported":1751746230,"current_range_meters":16400,"station_id":"st_cvj6sg6p6f1abm77japg","pricing_plan_id":"cebpf4jnsgd1na2vs0mg"},{"bike_id":"d858b784-4fd9-41d7-8169-6d2f7e176251","system_id":"levelo_inurba_marseille","lat":43.30034,"lon":5.37814,"is_reserved":false,"is_disabled":false,"rental_uris":{"android":"levelo://app?vid=d858b784-4fd9-41d7-8169-6d2f7e176251","ios":"levelo://app?vid=d858b784-4fd9-41d7-8169-6d2f7e176251"},"vehicle_type_id":"4","last_reported":1751746230,"current_range_meters":16800,"station_id":"","pricing_plan_id":"cebpf4jnsgd1na2vs0mg"},{"bike_id":"2fad383f-cfd7-4ed2-b443-8c222ca1a5b8","system_id":"levelo_inurba_marseille","lat":43.29147,"lon":5.37463,"is_reserved":false,"is_disabled":false,"rental_uris":{"android":"levelo://app?vid=2fad383f-cfd7-4ed2-b443-8c222ca1a5b8","ios":"levelo://app?vid=2fad383f-cfd7-4ed2-b443-8c222ca1a5b8"},"vehicle_type_id":"4","last_reported":1751746230,"current_range_meters":16800,"station_id":"","pricing_plan_id":"cebpf4jnsgd1na2vs0mg"},{"bike_id":"c272ab00-7281-40a1-9e66-9840dacb3fb1","system_id":"levelo_inurba_marseille","lat":43.27416,"lon":5.3942,"is_reserved":false,"is_disabled":false,"rental_uris":{"android":"levelo://app?vid=c272ab00-7281-40a1-9e66-9840dacb3fb1","ios":"levelo://app?vid=c272ab00-7281-40a1-9e66-9840dacb3fb1"},"vehicle_type_id":"4","last_reported":1751746230,"current_range_meters":16800,"station_id":"ce4bhdp2rcd13ifvqf20","pricing_plan_id":"cebpf4jnsgd1na2vs0mg"},{"bike_id":"240852e2-4150-4fa3-9354-5933ac6d2b52","system_id":"levelo_inurba_marseille","lat":43.24805,"lon":5.37461,"is_reserved":false,"is_disabled":false,"rental_uris":{"android":"levelo://app?vid=240852e2-4150-4fa3-9354-5933ac6d2b52","ios":"levelo://app?vid=240852e2-4150-4fa3-9354-5933ac6d2b52"},"vehicle_type_id":"4","last_reported":1751746230,"current_range_meters":16800,"station_id":"ce4bhgh2rcd13ifvqfb0","pricing_plan_id":"cebpf4jnsgd1na2vs0mg"},{"bike_id":"569d244c-df3e-41f2-a896-980aecdff6ea","system_id":"levelo_inurba_marseille","lat":43.26214,"lon":5.37441,"is_reserved":false,"is_disabled":false,"rental_uris":{"android":"levelo://app?vid=569d244c-df3e-41f2-a896-980aecdff6ea","ios":"levelo://app?vid=569d244c-df3e-41f2-a896-980aecdff6ea"},"vehicle_type_id":"4","last_reported":1751746230,"current_range_meters":16800,"station_id":"ce4bhgp2rcd13ifvqfc0","pricing_plan_id":"cebpf4jnsgd1na2vs0mg"},{"bike_id":"001c84d9-0c03-4f27-9212-9eb28e27f49d","system_id":"levelo_inurba_marseille","lat":43.25117,"lon":5.40318,"is_reserved":false,"is_disabled":false,"rental_uris":{"android":"levelo://app?vid=001c84d9-0c03-4f27-9212-9eb28e27f49d","ios":"levelo://app?vid=001c84d9-0c03-4f27-9212-9eb28e27f49d"},"vehicle_type_id":"4","last_reported":1751746230,"current_range_meters":16800,"station_id":"ce4bhlh2rcd13ifvqgig","pricing_plan_id":"cebpf4jnsgd1na2vs0mg"},{"bike_id":"b5d07e93-72ed-419d-9f69-a76541cbc616","system_id":"levelo_inurba_marseille","lat":43.31311,"lon":5.36982,"is_reserved":false,"is_disabled":false,"rental_uris":{"android":"levelo://app?vid=b5d07e93-72ed-419d-9f69-a76541cbc616","ios":"levelo://app?vid=b5d07e93-72ed-419d-9f69-a76541cbc616"},"vehicle_type_id":"4","last_reported":1751746230,"current_range_meters":17200,"station_id":"","pricing_plan_id":"cebpf4jnsgd1na2vs0mg"},{"bike_id":"01cedf28-185c-4b2f-99ea-df555e0d522e","system_id":"levelo_inurba_marseille","lat":43.31362,"lon":5.38496,"is_reserved":false,"is_disabled":false,"rental_uris":{"android":"levelo://app?vid=01cedf28-185c-4b2f-99ea-df555e0d522e","ios":"levelo://app?vid=01cedf28-185c-4b2f-99ea-df555e0d522e"},"vehicle_type_id":"4","last_reported":1751746230,"current_range_meters":17200,"station_id":"ce4bgt92rcd13ifvqcf0","pricing_plan_id":"cebpf4jnsgd1na2vs0mg"},{"bike_id":"a5431da6-64f4-443c-ba05-a972d78a5e83","system_id":"levelo_inurba_marseille","lat":43.30937,"lon":5.39036,"is_reserved":false,"is_disabled":false,"rental_uris":{"android":"levelo://app?vid=a5431da6-64f4-443c-ba05-a972d78a5e83","ios":"levelo://app?vid=a5431da6-64f4-443c-ba05-a972d78a5e83"},"vehicle_type_id":"4","last_reported":1751746230,"current_range_meters":17200,"station_id":"ce4bgup2rcd13ifvqco0","pricing_plan_id":"cebpf4jnsgd1na2vs0mg"},{"bike_id":"c36c1dd5-94de-479e-9aa2-37440e999633","system_id":"levelo_inurba_marseille","lat":43.31179,"lon":5.38699,"is_reserved":false,"is_disabled":false,"rental_uris":{"android":"levelo://app?vid=c36c1dd5-94de-479e-9aa2-37440e999633","ios":"levelo://app?vid=c36c1dd5-94de-479e-9aa2-37440e999633"},"vehicle_type_id":"4","last_reported":1751746230,"current_range_meters":17200,"station_id":"ce4bgv12rcd13ifvqcp0","pricing_plan_id":"cebpf4jnsgd1na2vs0mg"},{"bike_id":"92956f34-a313-40c1-a677-a4856fd13d79","system_id":"levelo_inurba_marseille","lat":43.31172,"lon":5.38731,"is_reserved":false,"is_disabled":false,"rental_uris":{"android":"levelo://app?vid=92956f34-a313-40c1-a677-a4856fd13d79","ios":"levelo://app?vid=92956f34-a313-40c1-a677-a4856fd13d79"},"vehicle_type_id":"4","last_reported":1751746230,"current_range_meters":17200,"station_id":"ce4bgv12rcd13ifvqcp0","pricing_plan_id":"cebpf4jnsgd1na2vs0mg"},{"bike_id":"41d928e6-b9b0-4e48-84e1-7ba52781d76b","system_id":"levelo_inurba_marseille","lat":43.24685,"lon":5.38142,"is_reserved":false,"is_disabled":false,"rental_uris":{"android":"levelo://app?vid=41d928e6-b9b0-4e48-84e1-7ba52781d76b","ios":"levelo://app?vid=41d928e6-b9b0-4e48-84e1-7ba52781d76b"},"vehicle_type_id":"4","last_reported":1751746230,"current_range_meters":17200,"station_id":"ce4bhih2rcd13ifvqfr0","pricing_plan_id":"cebpf4jnsgd1na2vs0mg"},{"bike_id":"f9eefc4a-d1ee-4ed0-8af1-5a191ead16f5","system_id":"levelo_inurba_marseille","lat":43.28739,"lon":5.39997,"is_reserved":false,"is_disabled":false,"rental_uris":{"android":"levelo://app?vid=f9eefc4a-d1ee-4ed0-8af1-5a191ead16f5","ios":"levelo://app?vid=f9eefc4a-d1ee-4ed0-8af1-5a191ead16f5"},"vehicle_type_id":"4","last_reported":1751746230,"current_range_meters":17200,"station_id":"ce4bho92rcd13ifvqh3g","pricing_plan_id":"cebpf4jnsgd1na2vs0mg"},{"bike_id":"92015f74-efd0-488b-8ba3-24bde090a08b","system_id":"levelo_inurba_marseille","lat":43.26807,"lon":5.40249,"is_reserved":false,"is_disabled":false,"rental_uris":{"android":"levelo://app?vid=92015f74-efd0-488b-8ba3-24bde090a08b","ios":"levelo://app?vid=92015f74-efd0-488b-8ba3-24bde090a08b"},"vehicle_type_id":"4","last_reported":1751746230,"current_range_meters":17200,"station_id":"ce501612rcd8frsf0b60","pricing_plan_id":"cebpf4jnsgd1na2vs0mg"},{"bike_id":"aca47642-4ceb-4a40-bae0-66b7f0d6dee2","system_id":"levelo_inurba_marseille","lat":43.225,"lon":5.34785,"is_reserved":false,"is_disabled":false,"rental_uris":{"android":"levelo://app?vid=aca47642-4ceb-4a40-bae0-66b7f0d6dee2","ios":"levelo://app?vid=aca47642-4ceb-4a40-bae0-66b7f0d6dee2"},"vehicle_type_id":"4","last_reported":1751746230,"current_range_meters":17200,"station_id":"st_cvj5dfep6f1abm77gieg","pricing_plan_id":"cebpf4jnsgd1na2vs0mg"},{"bike_id":"b634b58e-84ab-4877-9471-76843a7eb776","system_id":"levelo_inurba_marseille","lat":43.30967,"lon":5.3903,"is_reserved":false,"is_disabled":false,"rental_uris":{"android":"levelo://app?vid=b634b58e-84ab-4877-9471-76843a7eb776","ios":"levelo://app?vid=b634b58e-84ab-4877-9471-76843a7eb776"},"vehicle_type_id":"4","last_reported":1751746230,"current_range_meters":17600,"station_id":"ce4bgup2rcd13ifvqco0","pricing_plan_id":"cebpf4jnsgd1na2vs0mg"},{"bike_id":"c13b5e34-7419-4548-aa5c-2eae435afd90","system_id":"levelo_inurba_marseille","lat":43.3095,"lon":5.39047,"is_reserved":false,"is_disabled":false,"rental_uris":{"android":"levelo://app?vid=c13b5e34-7419-4548-aa5c-2eae435afd90","ios":"levelo://app?vid=c13b5e34-7419-4548-aa5c-2eae435afd90"},"vehicle_type_id":"4","last_reported":1751746230,"current_range_meters":17600,"station_id":"ce4bgup2rcd13ifvqco0","pricing_plan_id":"cebpf4jnsgd1na2vs0mg"},{"bike_id":"b066e99e-1e53-43b4-9962-61ffc652a434","system_id":"levelo_inurba_marseille","lat":43.30948,"lon":5.39028,"is_reserved":false,"is_disabled":false,"rental_uris":{"android":"levelo://app?vid=b066e99e-1e53-43b4-9962-61ffc652a434","ios":"levelo://app?vid=b066e99e-1e53-43b4-9962-61ffc652a434"},"vehicle_type_id":"4","last_reported":1751746230,"current_range_meters":18000,"station_id":"ce4bgup2rcd13ifvqco0","pricing_plan_id":"cebpf4jnsgd1na2vs0mg"},{"bike_id":"77c83707-cfda-4bb9-a0ea-9e7ed407d883","system_id":"levelo_inurba_marseille","lat":43.30968,"lon":5.39018,"is_reserved":false,"is_disabled":false,"rental_uris":{"android":"levelo://app?vid=77c83707-cfda-4bb9-a0ea-9e7ed407d883","ios":"levelo://app?vid=77c83707-cfda-4bb9-a0ea-9e7ed407d883"},"vehicle_type_id":"4","last_reported":1751746230,"current_range_meters":18000,"station_id":"ce4bgup2rcd13ifvqco0","pricing_plan_id":"cebpf4jnsgd1na2vs0mg"},{"bike_id":"ea959327-a3bc-40b9-8335-84c624fd07e2","system_id":"levelo_inurba_marseille","lat":43.30975,"lon":5.39036,"is_reserved":false,"is_disabled":false,"rental_uris":{"android":"levelo://app?vid=ea959327-a3bc-40b9-8335-84c624fd07e2","ios":"levelo://app?vid=ea959327-a3bc-40b9-8335-84c624fd07e2"},"vehicle_type_id":"4","last_reported":1751746230,"current_range_meters":18000,"station_id":"ce4bgup2rcd13ifvqco0","pricing_plan_id":"cebpf4jnsgd1na2vs0mg"},{"bike_id":"d5ac8cdf-52b8-49ac-9700-4c91ec376a71","system_id":"levelo_inurba_marseille","lat":43.24792,"lon":5.3742,"is_reserved":false,"is_disabled":false,"rental_uris":{"android":"levelo://app?vid=d5ac8cdf-52b8-49ac-9700-4c91ec376a71","ios":"levelo://app?vid=d5ac8cdf-52b8-49ac-9700-4c91ec376a71"},"vehicle_type_id":"4","last_reported":1751746230,"current_range_meters":18000,"station_id":"ce4bhgh2rcd13ifvqfb0","pricing_plan_id":"cebpf4jnsgd1na2vs0mg"},{"bike_id":"19c552da-55bc-46d8-97cb-d1fbabdad01a","system_id":"levelo_inurba_marseille","lat":43.21201,"lon":5.35063,"is_reserved":false,"is_disabled":false,"rental_uris":{"android":"levelo://app?vid=19c552da-55bc-46d8-97cb-d1fbabdad01a","ios":"levelo://app?vid=19c552da-55bc-46d8-97cb-d1fbabdad01a"},"vehicle_type_id":"4","last_reported":1751746230,"current_range_meters":18000,"station_id":"st_cvj6sg6p6f1abm77japg","pricing_plan_id":"cebpf4jnsgd1na2vs0mg"},{"bike_id":"87659f50-77d1-4cea-a286-c02c6bc9832c","system_id":"levelo_inurba_marseille","lat":43.300772,"lon":5.36596,"is_reserved":false,"is_disabled":false,"rental_uris":{"android":"levelo://app?vid=87659f50-77d1-4cea-a286-c02c6bc9832c","ios":"levelo://app?vid=87659f50-77d1-4cea-a286-c02c6bc9832c"},"vehicle_type_id":"4","last_reported":1751746230,"current_range_meters":18800,"station_id":"","pricing_plan_id":"cebpf4jnsgd1na2vs0mg"},{"bike_id":"71632596-46e4-4bfe-b99f-0d2fb18c6a02","system_id":"levelo_inurba_marseille","lat":43.30942,"lon":5.39046,"is_reserved":false,"is_disabled":false,"rental_uris":{"android":"levelo://app?vid=71632596-46e4-4bfe-b99f-0d2fb18c6a02","ios":"levelo://app?vid=71632596-46e4-4bfe-b99f-0d2fb18c6a02"},"vehicle_type_id":"4","last_reported":1751746230,"current_range_meters":18800,"station_id":"ce4bgup2rcd13ifvqco0","pricing_plan_id":"cebpf4jnsgd1na2vs0mg"},{"bike_id":"fc585fdf-2272-4862-8711-a9a61b341795","system_id":"levelo_inurba_marseille","lat":43.3094,"lon":5.39044,"is_reserved":false,"is_disabled":false,"rental_uris":{"android":"levelo://app?vid=fc585fdf-2272-4862-8711-a9a61b341795","ios":"levelo://app?vid=fc585fdf-2272-4862-8711-a9a61b341795"},"vehicle_type_id":"4","last_reported":1751746230,"current_range_meters":18800,"station_id":"ce4bgup2rcd13ifvqco0","pricing_plan_id":"cebpf4jnsgd1na2vs0mg"},{"bike_id":"ca75fd4c-d4eb-417e-8889-5b54d7afac4a","system_id":"levelo_inurba_marseille","lat":43.3117,"lon":5.38707,"is_reserved":false,"is_disabled":false,"rental_uris":{"android":"levelo://app?vid=ca75fd4c-d4eb-417e-8889-5b54d7afac4a","ios":"levelo://app?vid=ca75fd4c-d4eb-417e-8889-5b54d7afac4a"},"vehicle_type_id":"4","last_reported":1751746230,"current_range_meters":18800,"station_id":"ce4bgv12rcd13ifvqcp0","pricing_plan_id":"cebpf4jnsgd1na2vs0mg"},{"bike_id":"9f8a20c4-aa84-4f9a-a327-069786eb155c","system_id":"levelo_inurba_marseille","lat":43.31096,"lon":5.38352,"is_reserved":false,"is_disabled":false,"rental_uris":{"android":"levelo://app?vid=9f8a20c4-aa84-4f9a-a327-069786eb155c","ios":"levelo://app?vid=9f8a20c4-aa84-4f9a-a327-069786eb155c"},"vehicle_type_id":"4","last_reported":1751746230,"current_range_meters":18800,"station_id":"ce4bgv92rcd13ifvqcr0","pricing_plan_id":"cebpf4jnsgd1na2vs0mg"},{"bike_id":"fc1e2089-6b9f-47bf-93d9-b32f6028a427","system_id":"levelo_inurba_marseille","lat":43.28429,"lon":5.3752,"is_reserved":false,"is_disabled":false,"rental_uris":{"android":"levelo://app?vid=fc1e2089-6b9f-47bf-93d9-b32f6028a427","ios":"levelo://app?vid=fc1e2089-6b9f-47bf-93d9-b32f6028a427"},"vehicle_type_id":"4","last_reported":1751746230,"current_range_meters":18800,"station_id":"ce4bh412rcd13ifvqds0","pricing_plan_id":"cebpf4jnsgd1na2vs0mg"},{"bike_id":"c2d602b1-41c8-4704-8c6e-47951f969f4d","system_id":"levelo_inurba_marseille","lat":43.28399,"lon":5.37523,"is_reserved":false,"is_disabled":false,"rental_uris":{"android":"levelo://app?vid=c2d602b1-41c8-4704-8c6e-47951f969f4d","ios":"levelo://app?vid=c2d602b1-41c8-4704-8c6e-47951f969f4d"},"vehicle_type_id":"4","last_reported":1751746230,"current_range_meters":18800,"station_id":"ce4bh412rcd13ifvqds0","pricing_plan_id":"cebpf4jnsgd1na2vs0mg"},{"bike_id":"288f3705-e8cd-40ea-9cf2-174db393b9f5","system_id":"levelo_inurba_marseille","lat":43.262136,"lon":5.374423,"is_reserved":false,"is_disabled":false,"rental_uris":{"android":"levelo://app?vid=288f3705-e8cd-40ea-9cf2-174db393b9f5","ios":"levelo://app?vid=288f3705-e8cd-40ea-9cf2-174db393b9f5"},"vehicle_type_id":"4","last_reported":1751746230,"current_range_meters":18800,"station_id":"ce4bhgp2rcd13ifvqfc0","pricing_plan_id":"cebpf4jnsgd1na2vs0mg"},{"bike_id":"8cddce8e-95d1-4f16-80dc-08058d1c6a23","system_id":"levelo_inurba_marseille","lat":43.24207,"lon":5.37949,"is_reserved":false,"is_disabled":false,"rental_uris":{"android":"levelo://app?vid=8cddce8e-95d1-4f16-80dc-08058d1c6a23","ios":"levelo://app?vid=8cddce8e-95d1-4f16-80dc-08058d1c6a23"},"vehicle_type_id":"4","last_reported":1751746230,"current_range_meters":18800,"station_id":"ce4bhnp2rcd13ifvqgvg","pricing_plan_id":"cebpf4jnsgd1na2vs0mg"},{"bike_id":"d5ef770d-9759-47e3-b3a5-7d2785ef76db","system_id":"levelo_inurba_marseille","lat":43.32786,"lon":5.39181,"is_reserved":false,"is_disabled":false,"rental_uris":{"android":"levelo://app?vid=d5ef770d-9759-47e3-b3a5-7d2785ef76db","ios":"levelo://app?vid=d5ef770d-9759-47e3-b3a5-7d2785ef76db"},"vehicle_type_id":"4","last_reported":1751746230,"current_range_meters":19200,"station_id":"","pricing_plan_id":"cebpf4jnsgd1na2vs0mg"},{"bike_id":"7609fef7-8c00-4805-9f91-2ac9e642987d","system_id":"levelo_inurba_marseille","lat":43.30961,"lon":5.39053,"is_reserved":false,"is_disabled":false,"rental_uris":{"android":"levelo://app?vid=7609fef7-8c00-4805-9f91-2ac9e642987d","ios":"levelo://app?vid=7609fef7-8c00-4805-9f91-2ac9e642987d"},"vehicle_type_id":"4","last_reported":1751746230,"current_range_meters":19200,"station_id":"ce4bgup2rcd13ifvqco0","pricing_plan_id":"cebpf4jnsgd1na2vs0mg"},{"bike_id":"a6db5fc2-e5d0-430e-aa71-36b96c5b42ff","system_id":"levelo_inurba_marseille","lat":43.26193,"lon":5.37459,"is_reserved":false,"is_disabled":false,"rental_uris":{"android":"levelo://app?vid=a6db5fc2-e5d0-430e-aa71-36b96c5b42ff","ios":"levelo://app?vid=a6db5fc2-e5d0-430e-aa71-36b96c5b42ff"},"vehicle_type_id":"4","last_reported":1751746230,"current_range_meters":19200,"station_id":"ce4bhgp2rcd13ifvqfc0","pricing_plan_id":"cebpf4jnsgd1na2vs0mg"},{"bike_id":"6c825d6f-0e44-484a-914a-8f37145920b4","system_id":"levelo_inurba_marseille","lat":43.34144,"lon":5.40895,"is_reserved":false,"is_disabled":false,"rental_uris":{"android":"levelo://app?vid=6c825d6f-0e44-484a-914a-8f37145920b4","ios":"levelo://app?vid=6c825d6f-0e44-484a-914a-8f37145920b4"},"vehicle_type_id":"4","last_reported":1751746230,"current_range_meters":19200,"station_id":"ce4bhqh2rcd13ifvqhlg","pricing_plan_id":"cebpf4jnsgd1na2vs0mg"},{"bike_id":"80955d0f-8669-4c02-b90f-c6fe20790c37","system_id":"levelo_inurba_marseille","lat":43.23179,"lon":5.3505,"is_reserved":false,"is_disabled":false,"rental_uris":{"android":"levelo://app?vid=80955d0f-8669-4c02-b90f-c6fe20790c37","ios":"levelo://app?vid=80955d0f-8669-4c02-b90f-c6fe20790c37"},"vehicle_type_id":"4","last_reported":1751746230,"current_range_meters":19600,"station_id":"","pricing_plan_id":"cebpf4jnsgd1na2vs0mg"},{"bike_id":"3b22f952-d0bc-4c00-8fd3-7e27b88aea23","system_id":"levelo_inurba_marseille","lat":43.29659,"lon":5.36245,"is_reserved":false,"is_disabled":false,"rental_uris":{"android":"levelo://app?vid=3b22f952-d0bc-4c00-8fd3-7e27b88aea23","ios":"levelo://app?vid=3b22f952-d0bc-4c00-8fd3-7e27b88aea23"},"vehicle_type_id":"4","last_reported":1751746230,"current_range_meters":19600,"station_id":"","pricing_plan_id":"cebpf4jnsgd1na2vs0mg"},{"bike_id":"63b47e91-f1c1-49bf-a433-5d6b52ff5682","system_id":"levelo_inurba_marseille","lat":43.31165,"lon":5.38712,"is_reserved":false,"is_disabled":false,"rental_uris":{"android":"levelo://app?vid=63b47e91-f1c1-49bf-a433-5d6b52ff5682","ios":"levelo://app?vid=63b47e91-f1c1-49bf-a433-5d6b52ff5682"},"vehicle_type_id":"4","last_reported":1751746230,"current_range_meters":19600,"station_id":"ce4bgv12rcd13ifvqcp0","pricing_plan_id":"cebpf4jnsgd1na2vs0mg"},{"bike_id":"e113175a-26c2-4709-bd2e-8b90ec8dd3ee","system_id":"levelo_inurba_marseille","lat":43.27485,"lon":5.42455,"is_reserved":false,"is_disabled":false,"rental_uris":{"android":"levelo://app?vid=e113175a-26c2-4709-bd2e-8b90ec8dd3ee","ios":"levelo://app?vid=e113175a-26c2-4709-bd2e-8b90ec8dd3ee"},"vehicle_type_id":"4","last_reported":1751746230,"current_range_meters":19600,"station_id":"ce4bhn92rcd13ifvqgrg","pricing_plan_id":"cebpf4jnsgd1na2vs0mg"},{"bike_id":"aa8f61d8-323f-47e5-890f-90ad80dab82c","system_id":"levelo_inurba_marseille","lat":43.33736,"lon":5.39164,"is_reserved":false,"is_disabled":false,"rental_uris":{"android":"levelo://app?vid=aa8f61d8-323f-47e5-890f-90ad80dab82c","ios":"levelo://app?vid=aa8f61d8-323f-47e5-890f-90ad80dab82c"},"vehicle_type_id":"4","last_reported":1751746230,"current_range_meters":19600,"station_id":"ce4bhr92rcd13ifvqhsg","pricing_plan_id":"cebpf4jnsgd1na2vs0mg"},{"bike_id":"e8d7fcf5-14a0-430b-a247-ddceafd06b95","system_id":"levelo_inurba_marseille","lat":43.22505,"lon":5.34773,"is_reserved":false,"is_disabled":false,"rental_uris":{"android":"levelo://app?vid=e8d7fcf5-14a0-430b-a247-ddceafd06b95","ios":"levelo://app?vid=e8d7fcf5-14a0-430b-a247-ddceafd06b95"},"vehicle_type_id":"4","last_reported":1751746230,"current_range_meters":19600,"station_id":"st_cvj5dfep6f1abm77gieg","pricing_plan_id":"cebpf4jnsgd1na2vs0mg"},{"bike_id":"d0f90c24-dd03-411b-9731-55305f76b7c8","system_id":"levelo_inurba_marseille","lat":43.21191,"lon":5.3507,"is_reserved":false,"is_disabled":false,"rental_uris":{"android":"levelo://app?vid=d0f90c24-dd03-411b-9731-55305f76b7c8","ios":"levelo://app?vid=d0f90c24-dd03-411b-9731-55305f76b7c8"},"vehicle_type_id":"4","last_reported":1751746230,"current_range_meters":19600,"station_id":"st_cvj6sg6p6f1abm77japg","pricing_plan_id":"cebpf4jnsgd1na2vs0mg"},{"bike_id":"37f2becd-23f9-4f13-a711-38b8024eeec7","system_id":"levelo_inurba_marseille","lat":43.33768,"lon":5.37516,"is_reserved":false,"is_disabled":false,"rental_uris":{"android":"levelo://app?vid=37f2becd-23f9-4f13-a711-38b8024eeec7","ios":"levelo://app?vid=37f2becd-23f9-4f13-a711-38b8024eeec7"},"vehicle_type_id":"4","last_reported":1751746230,"current_range_meters":20000,"station_id":"","pricing_plan_id":"cebpf4jnsgd1na2vs0mg"},{"bike_id":"5aa78e55-2de7-43eb-b28a-d5354c12e325","system_id":"levelo_inurba_marseille","lat":43.297,"lon":5.36618,"is_reserved":false,"is_disabled":false,"rental_uris":{"android":"levelo://app?vid=5aa78e55-2de7-43eb-b28a-d5354c12e325","ios":"levelo://app?vid=5aa78e55-2de7-43eb-b28a-d5354c12e325"},"vehicle_type_id":"4","last_reported":1751746230,"current_range_meters":20000,"station_id":"ce4bgn12rcd13ifvqbt0","pricing_plan_id":"cebpf4jnsgd1na2vs0mg"},{"bike_id":"5c17168a-03ad-4763-b328-bef6da50497b","system_id":"levelo_inurba_marseille","lat":43.30937,"lon":5.39041,"is_reserved":false,"is_disabled":false,"rental_uris":{"android":"levelo://app?vid=5c17168a-03ad-4763-b328-bef6da50497b","ios":"levelo://app?vid=5c17168a-03ad-4763-b328-bef6da50497b"},