{"last_updated":1679504793,"ttl":30,"version":"2.2","data":{"bikes":[{"bike_id":"1f4d85a1-9761-4811-b441-c24ecd584c6c","system_id":"levelo_inurba_marseille","lat":43.309076,"lon":5.368465,"is_reserved":false,"is_disabled":false,"rental_uris":{"android":"levelo://app?vid=1f4d85a1-9761-4811-b441-c24ecd584c6c","ios":"levelo://app?vid=1f4d85a1-9761-4811-b441-c24ecd584c6c"},"vehicle_type_id":"4","last_reported":1679504794,"current_range_meters":15200,"station_id":"ce4bgn92rcd13ifvqbvg","pricing_plan_id":"free"},{"bike_id":"e240aeec-0e82-48e3-a04e-347d8aa8f5fc","system_id":"levelo_inurba_marseille","lat":43.314811,"lon":5.373103,"is_reserved":false,"is_disabled":false,"rental_uris":{"android":"levelo://app?vid=e240aeec-0e82-48e3-a04e-347d8aa8f5fc","ios":"levelo://app?vid=e240aeec-0e82-48e3-a04e-347d8aa8f5fc"},"vehicle_type_id":"4","last_reported":1679504794,"current_range_meters":17600,"station_id":"ce4bgt12rcd13ifvqcd0","pricing_plan_id":"free"},{"bike_id":"34666dd1-7baf-4a2e-9c0b-598a41b007a7","system_id":"levelo_inurba_marseille","lat":43.313987,"lon":5.375835,"is_reserved":false,"is_disabled":false,"rental_uris":{"android":"levelo://app?vid=34666dd1-7baf-4a2e-9c0b-598a41b007a7","ios":"levelo://app?vid=34666dd1-7baf-4a2e-9c0b-598a41b007a7"},"vehicle_type_id":"4","last_reported":1679504794,"current_range_meters":3200,"station_id":"","pricing_plan_id":"free"},{"bike_id":"66f06d56-549f-4bdb-ba0b-516795141b30","system_id":"levelo_inurba_marseille","lat":43.305989,"lon":5.37225,"is_reserved":false,"is_disabled":false,"rental_uris":{"android":"levelo://app?vid=66f06d56-549f-4bdb-ba0b-516795141b30","ios":"levelo://app?vid=66f06d56-549f-4bdb-ba0b-516795141b30"},"vehicle_type_id":"4","last_reported":1679504794,"current_range_meters":20400,"station_id":"ce4bgqh2rcd13ifvqc4g","pricing_plan_id":"free"},{"bike_id":"51e92071-ba62-4238-aadb-d1b8cc9f063d","system_id":"levelo_inurba_marseille","lat":43.31682,"lon":5.37753,"is_reserved":false,"is_disabled":false,"rental_uris":{"android":"levelo://app?vid=51e92071-ba62-4238-aadb-d1b8cc9f063d","ios":"levelo://app?vid=51e92071-ba62-4238-aadb-d1b8cc9f063d"},"vehicle_type_id":"4","last_reported":1679504794,"current_range_meters":12800,"station_id":"ce4bgth2rcd13ifvqch0","pricing_plan_id":"free"},{"bike_id":"cf85a5b0-c617-4cb8-adb1-e493c8d69a2b","system_id":"levelo_inurba_marseille","lat":43.31705,"lon":5.37736,"is_reserved":false,"is_disabled":false,"rental_uris":{"android":"levelo://app?vid=cf85a5b0-c617-4cb8-adb1-e493c8d69a2b","ios":"levelo://app?vid=cf85a5b0-c617-4cb8-adb1-e493c8d69a2b"},"vehicle_type_id":"4","last_reported":1679504794,"current_range_meters":8000,"station_id":"ce4bgth2rcd13ifvqch0","pricing_plan_id":"free"},{"bike_id":"1047ba5c-d179-427b-b751-1f05751789fd","system_id":"levelo_inurba_marseille","lat":43.31707,"lon":5.37737,"is_reserved":false,"is_disabled":false,"rental_uris":{"android":"levelo://app?vid=1047ba5c-d179-427b-b751-1f05751789fd","ios":"levelo://app?vid=1047ba5c-d179-427b-b751-1f05751789fd"},"vehicle_type_id":"4","last_reported":1679504794,"current_range_meters":12400,"station_id":"ce4bgth2rcd13ifvqch0","pricing_plan_id":"free"},{"bike_id":"6a92b828-f6c8-4533-841d-8ddac838e28d","system_id":"levelo_inurba_marseille","lat":43.30619,"lon":5.37824,"is_reserved":false,"is_disabled":false,"rental_uris":{"android":"levelo://app?vid=6a92b828-f6c8-4533-841d-8ddac838e28d","ios":"levelo://app?vid=6a92b828-f6c8-4533-841d-8ddac838e28d"},"vehicle_type_id":"4","last_reported":1679504794,"current_range_meters":10400,"station_id":"","pricing_plan_id":"free"},{"bike_id":"361761a6-2054-4b47-86ab-1d0f8835657f","system_id":"levelo_inurba_marseille","lat":43.31186,"lon":5.38213,"is_reserved":false,"is_disabled":false,"rental_uris":{"android":"levelo://app?vid=361761a6-2054-4b47-86ab-1d0f8835657f","ios":"levelo://app?vid=361761a6-2054-4b47-86ab-1d0f8835657f"},"vehicle_type_id":"4","last_reported":1679504794,"current_range_meters":0,"station_id":"","pricing_plan_id":"free"},{"bike_id":"3acfde37-864c-4a04-b986-50c0060feb58","system_id":"levelo_inurba_marseille","lat":43.308012,"lon":5.381511,"is_reserved":false,"is_disabled":false,"rental_uris":{"android":"levelo://app?vid=3acfde37-864c-4a04-b986-50c0060feb58","ios":"levelo://app?vid=3acfde37-864c-4a04-b986-50c0060feb58"},"vehicle_type_id":"4","last_reported":1679504794,"current_range_meters":0,"station_id":"ce4bgt12rcd13ifvqce0","pricing_plan_id":"free"},{"bike_id":"2ea6da34-e0aa-4134-a562-3ac8d167fcf1","system_id":"levelo_inurba_marseille","lat":43.304647,"lon":5.378977,"is_reserved":false,"is_disabled":false,"rental_uris":{"android":"levelo://app?vid=2ea6da34-e0aa-4134-a562-3ac8d167fcf1","ios":"levelo://app?vid=2ea6da34-e0aa-4134-a562-3ac8d167fcf1"},"vehicle_type_id":"4","last_reported":1679504794,"current_range_meters":0,"station_id":"ce4bgup2rcd13ifvqcn0","pricing_plan_id":"free"},{"bike_id":"ab0224b2-cfa0-4a30-af1f-6e8b1aec46af","system_id":"levelo_inurba_marseille","lat":43.313571,"lon":5.384829,"is_reserved":false,"is_disabled":false,"rental_uris":{"android":"levelo://app?vid=ab0224b2-cfa0-4a30-af1f-6e8b1aec46af","ios":"levelo://app?vid=ab0224b2-cfa0-4a30-af1f-6e8b1aec46af"},"vehicle_type_id":"4","last_reported":1679504794,"current_range_meters":13200,"station_id":"ce4bgt92rcd13ifvqcf0","pricing_plan_id":"free"},{"bike_id":"65c250f1-d471-4690-b9cf-1c996ecdd911","system_id":"levelo_inurba_marseille","lat":43.32699,"lon":5.367079,"is_reserved":false,"is_disabled":false,"rental_uris":{"android":"levelo://app?vid=65c250f1-d471-4690-b9cf-1c996ecdd911","ios":"levelo://app?vid=65c250f1-d471-4690-b9cf-1c996ecdd911"},"vehicle_type_id":"4","last_reported":1679504794,"current_range_meters":0,"station_id":"","pricing_plan_id":"free"},{"bike_id":"c51e538c-e980-4b93-bd3b-0a1bdc32a46a","system_id":"levelo_inurba_marseille","lat":43.305989,"lon":5.37225,"is_reserved":false,"is_disabled":false,"rental_uris":{"android":"levelo://app?vid=c51e538c-e980-4b93-bd3b-0a1bdc32a46a","ios":"levelo://app?vid=c51e538c-e980-4b93-bd3b-0a1bdc32a46a"},"vehicle_type_id":"4","last_reported":1679504794,"current_range_meters":0,"station_id":"ce4bgqh2rcd13ifvqc4g","pricing_plan_id":"free"},{"bike_id":"5bcfa99c-7385-4928-8383-e419fda75a76","system_id":"levelo_inurba_marseille","lat":43.305375,"lon":5.384305,"is_reserved":false,"is_disabled":false,"rental_uris":{"android":"levelo://app?vid=5bcfa99c-7385-4928-8383-e419fda75a76","ios":"levelo://app?vid=5bcfa99c-7385-4928-8383-e419fda75a76"},"vehicle_type_id":"4","last_reported":1679504794,"current_range_meters":0,"station_id":"ce4bgg92rcd13ifvqb30","pricing_plan_id":"free"},{"bike_id":"5c11cda4-686b-4bc2-8994-faa60ec3a79f","system_id":"levelo_inurba_marseille","lat":43.328371,"lon":5.366912,"is_reserved":false,"is_disabled":false,"rental_uris":{"android":"levelo://app?vid=5c11cda4-686b-4bc2-8994-faa60ec3a79f","ios":"levelo://app?vid=5c11cda4-686b-4bc2-8994-faa60ec3a79f"},"vehicle_type_id":"4","last_reported":1679504794,"current_range_meters":1200,"station_id":"ce4bhs92rcd13ifvqi0g","pricing_plan_id":"free"},{"bike_id":"a8d44d36-d4be-465e-8cdb-d15b5437cef4","system_id":"levelo_inurba_marseille","lat":43.32828,"lon":5.3669,"is_reserved":false,"is_disabled":false,"rental_uris":{"android":"levelo://app?vid=a8d44d36-d4be-465e-8cdb-d15b5437cef4","ios":"levelo://app?vid=a8d44d36-d4be-465e-8cdb-d15b5437cef4"},"vehicle_type_id":"4","last_reported":1679504794,"current_range_meters":1600,"station_id":"ce4bhs92rcd13ifvqi0g","pricing_plan_id":"free"},{"bike_id":"763439c9-c25e-4a1a-a406-d4d5e76c0258","system_id":"levelo_inurba_marseille","lat":43.32828,"lon":5.36689,"is_reserved":false,"is_disabled":false,"rental_uris":{"android":"levelo://app?vid=763439c9-c25e-4a1a-a406-d4d5e76c0258","ios":"levelo://app?vid=763439c9-c25e-4a1a-a406-d4d5e76c0258"},"vehicle_type_id":"4","last_reported":1679504794,"current_range_meters":6000,"station_id":"","pricing_plan_id":"free"},{"bike_id":"a4842884-e248-4557-9e64-e1f5243a11b7","system_id":"levelo_inurba_marseille","lat":43.328371,"lon":5.366909,"is_reserved":false,"is_disabled":false,"rental_uris":{"android":"levelo://app?vid=a4842884-e248-4557-9e64-e1f5243a11b7","ios":"levelo://app?vid=a4842884-e248-4557-9e64-e1f5243a11b7"},"vehicle_type_id":"4","last_reported":1679504794,"current_range_meters":4400,"station_id":"ce4bhs92rcd13ifvqi0g","pricing_plan_id":"free"},{"bike_id":"30e09729-f93d-42fb-b714-8ae620d87fa8","system_id":"levelo_inurba_marseille","lat":43.32833,"lon":5.366847,"is_reserved":false,"is_disabled":false,"rental_uris":{"android":"levelo://app?vid=30e09729-f93d-42fb-b714-8ae620d87fa8","ios":"levelo://app?vid=30e09729-f93d-42fb-b714-8ae620d87fa8"},"vehicle_type_id":"4","last_reported":1679504794,"current_range_meters":21600,"station_id":"","pricing_plan_id":"free"},{"bike_id":"5d00560a-0af6-4b3a-9709-0d1090dfe18f","system_id":"levelo_inurba_marseille","lat":43.29581,"lon":5.36732,"is_reserved":false,"is_disabled":false,"rental_uris":{"android":"levelo://app?vid=5d00560a-0af6-4b3a-9709-0d1090dfe18f","ios":"levelo://app?vid=5d00560a-0af6-4b3a-9709-0d1090dfe18f"},"vehicle_type_id":"4","last_reported":1679504794,"current_range_meters":0,"station_id":"","pricing_plan_id":"free"},{"bike_id":"8a226bf0-7a8b-4363-bf0c-31eb93df1e90","system_id":"levelo_inurba_marseille","lat":43.296921,"lon":5.376579,"is_reserved":false,"is_disabled":false,"rental_uris":{"android":"levelo://app?vid=8a226bf0-7a8b-4363-bf0c-31eb93df1e90","ios":"levelo://app?vid=8a226bf0-7a8b-4363-bf0c-31eb93df1e90"},"vehicle_type_id":"4","last_reported":1679504794,"current_range_meters":0,"station_id":"ce4bgkh2rcd13ifvqbl0","pricing_plan_id":"free"},{"bike_id":"c15d6576-b063-4d5c-bf61-038f7d99dd12","system_id":"levelo_inurba_marseille","lat":43.297254,"lon":5.376892,"is_reserved":false,"is_disabled":false,"rental_uris":{"android":"levelo://app?vid=c15d6576-b063-4d5c-bf61-038f7d99dd12","ios":"levelo://app?vid=c15d6576-b063-4d5c-bf61-038f7d99dd12"},"vehicle_type_id":"4","last_reported":1679504794,"current_range_meters":0,"station_id":"","pricing_plan_id":"free"},{"bike_id":"ef66c4f8-26f0-4df6-b44b-1dca416189ac","system_id":"levelo_inurba_marseille","lat":43.317531,"lon":5.390111,"is_reserved":false,"is_disabled":false,"rental_uris":{"android":"levelo://app?vid=ef66c4f8-26f0-4df6-b44b-1dca416189ac","ios":"levelo://app?vid=ef66c4f8-26f0-4df6-b44b-1dca416189ac"},"vehicle_type_id":"4","last_reported":1679504794,"current_range_meters":18800,"station_id":"ce4bhqp2rcd13ifvqhng","pricing_plan_id":"free"},{"bike_id":"d6ca3b30-6e08-4cd7-92ed-618e6b637d17","system_id":"levelo_inurba_marseille","lat":43.298037,"lon":5.381066,"is_reserved":false,"is_disabled":false,"rental_uris":{"android":"levelo://app?vid=d6ca3b30-6e08-4cd7-92ed-618e6b637d17","ios":"levelo://app?vid=d6ca3b30-6e08-4cd7-92ed-618e6b637d17"},"vehicle_type_id":"4","last_reported":1679504794,"current_range_meters":0,"station_id":"ce4bgip2rcd13ifvqbb0","pricing_plan_id":"free"},{"bike_id":"e4b40787-d2d3-49b6-b549-120b0721ba84","system_id":"levelo_inurba_marseille","lat":43.304356,"lon":5.388943,"is_reserved":false,"is_disabled":false,"rental_uris":{"android":"levelo://app?vid=e4b40787-d2d3-49b6-b549-120b0721ba84","ios":"levelo://app?vid=e4b40787-d2d3-49b6-b549-120b0721ba84"},"vehicle_type_id":"4","last_reported":1679504794,"current_range_meters":0,"station_id":"","pricing_plan_id":"free"},{"bike_id":"0fb22fcc-4c04-4966-a7bb-f58d145cbd89","system_id":"levelo_inurba_marseille","lat":43.299724,"lon":5.384848,"is_reserved":false,"is_disabled":false,"rental_uris":{"android":"levelo://app?vid=0fb22fcc-4c04-4966-a7bb-f58d145cbd89","ios":"levelo://app?vid=0fb22fcc-4c04-4966-a7bb-f58d145cbd89"},"vehicle_type_id":"4","last_reported":1679504794,"current_range_meters":2400,"station_id":"ce4bgj92rcd13ifvqbd0","pricing_plan_id":"free"},{"bike_id":"2acf579c-421f-4e91-a5d2-2625656b0d2c","system_id":"levelo_inurba_marseille","lat":43.323665,"lon":5.388785,"is_reserved":false,"is_disabled":false,"rental_uris":{"android":"levelo://app?vid=2acf579c-421f-4e91-a5d2-2625656b0d2c","ios":"levelo://app?vid=2acf579c-421f-4e91-a5d2-2625656b0d2c"},"vehicle_type_id":"4","last_reported":1679504794,"current_range_meters":20800,"station_id":"","pricing_plan_id":"free"},{"bike_id":"a0239dc9-663a-4f86-9e62-d85afeb69cdc","system_id":"levelo_inurba_marseille","lat":43.32366,"lon":5.3888,"is_reserved":false,"is_disabled":false,"rental_uris":{"android":"levelo://app?vid=a0239dc9-663a-4f86-9e62-d85afeb69cdc","ios":"levelo://app?vid=a0239dc9-663a-4f86-9e62-d85afeb69cdc"},"vehicle_type_id":"4","last_reported":1679504794,"current_range_meters":25600,"station_id":"","pricing_plan_id":"free"},{"bike_id":"156b1921-69ec-49e2-8b1e-6c16d5524faf","system_id":"levelo_inurba_marseille","lat":43.32364,"lon":5.38882,"is_reserved":false,"is_disabled":false,"rental_uris":{"android":"levelo://app?vid=156b1921-69ec-49e2-8b1e-6c16d5524faf","ios":"levelo://app?vid=156b1921-69ec-49e2-8b1e-6c16d5524faf"},"vehicle_type_id":"4","last_reported":1679504794,"current_range_meters":24400,"station_id":"ce4bhqp2rcd13ifvqhog","pricing_plan_id":"free"},{"bike_id":"caf004a2-acbb-4f34-8b5d-c5b6cf7be8ba","system_id":"levelo_inurba_marseille","lat":43.29302,"lon":5.37459,"is_reserved":false,"is_disabled":false,"rental_uris":{"android":"levelo://app?vid=caf004a2-acbb-4f34-8b5d-c5b6cf7be8ba","ios":"levelo://app?vid=caf004a2-acbb-4f34-8b5d-c5b6cf7be8ba"},"vehicle_type_id":"4","last_reported":1679504794,"current_range_meters":0,"station_id":"","pricing_plan_id":"free"},{"bike_id":"d96b65aa-204e-4eff-94d0-70a80000198c","system_id":"levelo_inurba_marseille","lat":43.300852,"lon":5.390859,"is_reserved":false,"is_disabled":false,"rental_uris":{"android":"levelo://app?vid=d96b65aa-204e-4eff-94d0-70a80000198c","ios":"levelo://app?vid=d96b65aa-204e-4eff-94d0-70a80000198c"},"vehicle_type_id":"4","last_reported":1679504794,"current_range_meters":400,"station_id":"ce4bh192rcd13ifvqdb0","pricing_plan_id":"free"},{"bike_id":"62d17f06-aa14-48a4-983a-3504c4f5f642","system_id":"levelo_inurba_marseille","lat":43.292311,"lon":5.360731,"is_reserved":false,"is_disabled":false,"rental_uris":{"android":"levelo://app?vid=62d17f06-aa14-48a4-983a-3504c4f5f642","ios":"levelo://app?vid=62d17f06-aa14-48a4-983a-3504c4f5f642"},"vehicle_type_id":"4","last_reported":1679504794,"current_range_meters":0,"station_id":"ce4bhbh2rcd13ifvqeqg","pricing_plan_id":"free"},{"bike_id":"c3324741-4eba-4781-bce5-cf86356c7ef3","system_id":"levelo_inurba_marseille","lat":43.298764,"lon":5.388973,"is_reserved":false,"is_disabled":false,"rental_uris":{"android":"levelo://app?vid=c3324741-4eba-4781-bce5-cf86356c7ef3","ios":"levelo://app?vid=c3324741-4eba-4781-bce5-cf86356c7ef3"},"vehicle_type_id":"4","last_reported":1679504794,"current_range_meters":22000,"station_id":"ce4bh392rcd13ifvqdl0","pricing_plan_id":"free"},{"bike_id":"8ef9acf4-0180-4518-bf9e-aaa758a0cb52","system_id":"levelo_inurba_marseille","lat":43.31329,"lon":5.39685,"is_reserved":false,"is_disabled":false,"rental_uris":{"android":"levelo://app?vid=8ef9acf4-0180-4518-bf9e-aaa758a0cb52","ios":"levelo://app?vid=8ef9acf4-0180-4518-bf9e-aaa758a0cb52"},"vehicle_type_id":"4","last_reported":1679504794,"current_range_meters":5200,"station_id":"","pricing_plan_id":"free"},{"bike_id":"ca3129cf-79eb-4441-b8c3-ca3542c6a901","system_id":"levelo_inurba_marseille","lat":43.3133,"lon":5.39694,"is_reserved":false,"is_disabled":false,"rental_uris":{"android":"levelo://app?vid=ca3129cf-79eb-4441-b8c3-ca3542c6a901","ios":"levelo://app?vid=ca3129cf-79eb-4441-b8c3-ca3542c6a901"},"vehicle_type_id":"4","last_reported":1679504794,"current_range_meters":0,"station_id":"ce4bgvp2rcd13ifvqcu0","pricing_plan_id":"free"},{"bike_id":"9789cef5-aa53-4e70-bd2c-0bb38994b273","system_id":"levelo_inurba_marseille","lat":43.309038,"lon":5.396546,"is_reserved":false,"is_disabled":false,"rental_uris":{"android":"levelo://app?vid=9789cef5-aa53-4e70-bd2c-0bb38994b273","ios":"levelo://app?vid=9789cef5-aa53-4e70-bd2c-0bb38994b273"},"vehicle_type_id":"4","last_reported":1679504794,"current_range_meters":0,"station_id":"ce4bh012rcd13ifvqcv0","pricing_plan_id":"free"},{"bike_id":"9a707221-5fe4-43af-9bce-262588edf8fc","system_id":"levelo_inurba_marseille","lat":43.29529,"lon":5.385581,"is_reserved":false,"is_disabled":false,"rental_uris":{"android":"levelo://app?vid=9a707221-5fe4-43af-9bce-262588edf8fc","ios":"levelo://app?vid=9a707221-5fe4-43af-9bce-262588edf8fc"},"vehicle_type_id":"4","last_reported":1679504794,"current_range_meters":3600,"station_id":"ce4bgih2rcd13ifvqba0","pricing_plan_id":"free"},{"bike_id":"83b948ea-db27-461d-b4b1-0e3b640757c4","system_id":"levelo_inurba_marseille","lat":43.302008,"lon":5.394694,"is_reserved":false,"is_disabled":false,"rental_uris":{"android":"levelo://app?vid=83b948ea-db27-461d-b4b1-0e3b640757c4","ios":"levelo://app?vid=83b948ea-db27-461d-b4b1-0e3b640757c4"},"vehicle_type_id":"4","last_reported":1679504794,"current_range_meters":16000,"station_id":"ce4bh0p2rcd13ifvqd70","pricing_plan_id":"free"},{"bike_id":"8405b5b0-573f-403d-88bd-e1a374a07977","system_id":"levelo_inurba_marseille","lat":43.294153,"lon":5.386305,"is_reserved":false,"is_disabled":false,"rental_uris":{"android":"levelo://app?vid=8405b5b0-573f-403d-88bd-e1a374a07977","ios":"levelo://app?vid=8405b5b0-573f-403d-88bd-e1a374a07977"},"vehicle_type_id":"4","last_reported":1679504794,"current_range_meters":0,"station_id":"ce4bh2h2rcd13ifvqdh0","pricing_plan_id":"free"},{"bike_id":"183a6660-e3ec-434e-af6d-2c74fb7cac59","system_id":"levelo_inurba_marseille","lat":43.290319,"lon":5.375732,"is_reserved":false,"is_disabled":false,"rental_uris":{"android":"levelo://app?vid=183a6660-e3ec-434e-af6d-2c74fb7cac59","ios":"levelo://app?vid=183a6660-e3ec-434e-af6d-2c74fb7cac59"},"vehicle_type_id":"4","last_reported":1679504794,"current_range_meters":3600,"station_id":"ce4bh692rcd13ifvqe90","pricing_plan_id":"free"},{"bike_id":"a5391f4c-eaee-4a8b-bf21-1a2e6e40a21e","system_id":"levelo_inurba_marseille","lat":43.290369,"lon":5.375707,"is_reserved":false,"is_disabled":false,"rental_uris":{"android":"levelo://app?vid=a5391f4c-eaee-4a8b-bf21-1a2e6e40a21e","ios":"levelo://app?vid=a5391f4c-eaee-4a8b-bf21-1a2e6e40a21e"},"vehicle_type_id":"4","last_reported":1679504794,"current_range_meters":10000,"station_id":"","pricing_plan_id":"free"},{"bike_id":"2926730b-f350-431a-bbc1-0b6f095a67bb","system_id":"levelo_inurba_marseille","lat":43.292644,"lon":5.384257,"is_reserved":false,"is_disabled":false,"rental_uris":{"android":"levelo://app?vid=2926730b-f350-431a-bbc1-0b6f095a67bb","ios":"levelo://app?vid=2926730b-f350-431a-bbc1-0b6f095a67bb"},"vehicle_type_id":"4","last_reported":1679504794,"current_range_meters":4800,"station_id":"ce4bh692rcd13ifvqea0","pricing_plan_id":"free"},{"bike_id":"84b460d6-7d5c-4fd4-8372-631acd901f38","system_id":"levelo_inurba_marseille","lat":43.292644,"lon":5.384257,"is_reserved":false,"is_disabled":false,"rental_uris":{"android":"levelo://app?vid=84b460d6-7d5c-4fd4-8372-631acd901f38","ios":"levelo://app?vid=84b460d6-7d5c-4fd4-8372-631acd901f38"},"vehicle_type_id":"4","last_reported":1679504794,"current_range_meters":20000,"station_id":"ce4bh692rcd13ifvqea0","pricing_plan_id":"free"},{"bike_id":"622a6558-d58e-40ea-b29d-7371c087baa0","system_id":"levelo_inurba_marseille","lat":43.292644,"lon":5.384257,"is_reserved":false,"is_disabled":false,"rental_uris":{"android":"levelo://app?vid=622a6558-d58e-40ea-b29d-7371c087baa0","ios":"levelo://app?vid=622a6558-d58e-40ea-b29d-7371c087baa0"},"vehicle_type_id":"4","last_reported":1679504794,"current_range_meters":18400,"station_id":"ce4bh692rcd13ifvqea0","pricing_plan_id":"free"},{"bike_id":"5dcd8b50-ffc4-4d92-ac80-f6db17c65357","system_id":"levelo_inurba_marseille","lat":43.330442,"lon":5.389148,"is_reserved":false,"is_disabled":false,"rental_uris":{"android":"levelo://app?vid=5dcd8b50-ffc4-4d92-ac80-f6db17c65357","ios":"levelo://app?vid=5dcd8b50-ffc4-4d92-ac80-f6db17c65357"},"vehicle_type_id":"4","last_reported":1679504794,"current_range_meters":12000,"station_id":"ce4bhr92rcd13ifvqhrg","pricing_plan_id":"free"},{"bike_id":"890a0bf5-31e3-4713-a35c-e2c88558b2d9","system_id":"levelo_inurba_marseille","lat":43.330442,"lon":5.389148,"is_reserved":false,"is_disabled":false,"rental_uris":{"android":"levelo://app?vid=890a0bf5-31e3-4713-a35c-e2c88558b2d9","ios":"levelo://app?vid=890a0bf5-31e3-4713-a35c-e2c88558b2d9"},"vehicle_type_id":"4","last_reported":1679504794,"current_range_meters":16800,"station_id":"ce4bhr92rcd13ifvqhrg","pricing_plan_id":"free"},{"bike_id":"7bbb37c1-e2bf-426d-a53e-ce95a5d42bf2","system_id":"levelo_inurba_marseille","lat":43.330442,"lon":5.389148,"is_reserved":false,"is_disabled":false,"rental_uris":{"android":"levelo://app?vid=7bbb37c1-e2bf-426d-a53e-ce95a5d42bf2","ios":"levelo://app?vid=7bbb37c1-e2bf-426d-a53e-ce95a5d42bf2"},"vehicle_type_id":"4","last_reported":1679504794,"current_range_meters":26400,"station_id":"ce4bhr92rcd13ifvqhrg","pricing_plan_id":"free"},{"bike_id":"2d8bf66b-4b30-4eb2-8d8e-0a53ec654c44","system_id":"levelo_inurba_marseille","lat":43.33612,"lon":5.410321,"is_reserved":false,"is_disabled":false,"rental_uris":{"android":"levelo://app?vid=2d8bf66b-4b30-4eb2-8d8e-0a53ec654c44","ios":"levelo://app?vid=2d8bf66b-4b30-4eb2-8d8e-0a53ec654c44"},"vehicle_type_id":"4","last_reported":1679504794,"current_range_meters":20800,"station_id":"ce4bhqh2rcd13ifvqhmg","pricing_plan_id":"free"},{"bike_id":"594a6c4d-5263-42db-8eed-b5011d8dfe11","system_id":"levelo_inurba_marseille","lat":43.330442,"lon":5.389148,"is_reserved":false,"is_disabled":false,"rental_uris":{"android":"levelo://app?vid=594a6c4d-5263-42db-8eed-b5011d8dfe11","ios":"levelo://app?vid=594a6c4d-5263-42db-8eed-b5011d8dfe11"},"vehicle_type_id":"4","last_reported":1679504794,"current_range_meters":29200,"station_id":"ce4bhr92rcd13ifvqhrg","pricing_plan_id":"free"},{"bike_id":"707f2107-39c6-4b6f-ae91-3d3ba32e530e","system_id":"levelo_inurba_marseille","lat":43.330442,"lon":5.389148,"is_reserved":false,"is_disabled":false,"rental_uris":{"android":"levelo://app?vid=707f2107-39c6-4b6f-ae91-3d3ba32e530e","ios":"levelo://app?vid=707f2107-39c6-4b6f-ae91-3d3ba32e530e"},"vehicle_type_id":"4","last_reported":1679504794,"current_range_meters":22000,"station_id":"ce4bhr92rcd13ifvqhrg","pricing_plan_id":"free"},{"bike_id":"041de005-b058-4f1d-9496-5396f0de1b86","system_id":"levelo_inurba_marseille","lat":43.3304,"lon":5.38978,"is_reserved":false,"is_disabled":false,"rental_uris":{"android":"levelo://app?vid=041de005-b058-4f1d-9496-5396f0de1b86","ios":"levelo://app?vid=041de005-b058-4f1d-9496-5396f0de1b86"},"vehicle_type_id":"4","last_reported":1679504794,"current_range_meters":27600,"station_id":"","pricing_plan_id":"free"},{"bike_id":"212af577-80a9-4c9e-b45c-eaeeb94b961f","system_id":"levelo_inurba_marseille","lat":43.30642,"lon":5.401031,"is_reserved":false,"is_disabled":false,"rental_uris":{"android":"levelo://app?vid=212af577-80a9-4c9e-b45c-eaeeb94b961f","ios":"levelo://app?vid=212af577-80a9-4c9e-b45c-eaeeb94b961f"},"vehicle_type_id":"4","last_reported":1679504794,"current_range_meters":14800,"station_id":"ce4bh112rcd13ifvqda0","pricing_plan_id":"free"},{"bike_id":"0ffdbb1b-81da-40e8-b7aa-86fc33ba3db7","system_id":"levelo_inurba_marseille","lat":43.30133,"lon":5.39861,"is_reserved":false,"is_disabled":false,"rental_uris":{"android":"levelo://app?vid=0ffdbb1b-81da-40e8-b7aa-86fc33ba3db7","ios":"levelo://app?vid=0ffdbb1b-81da-40e8-b7aa-86fc33ba3db7"},"vehicle_type_id":"4","last_reported":1679504794,"current_range_meters":0,"station_id":"ce4bh0h2rcd13ifvqd40","pricing_plan_id":"free"},{"bike_id":"cc719be9-2547-465c-ac6f-27b71ebeb2d9","system_id":"levelo_inurba_marseille","lat":43.286591,"lon":5.363346,"is_reserved":false,"is_disabled":false,"rental_uris":{"android":"levelo://app?vid=cc719be9-2547-465c-ac6f-27b71ebeb2d9","ios":"levelo://app?vid=cc719be9-2547-465c-ac6f-27b71ebeb2d9"},"vehicle_type_id":"4","last_reported":1679504794,"current_range_meters":400,"station_id":"ce4bhah2rcd13ifvqej0","pricing_plan_id":"free"},{"bike_id":"4560bdd3-9298-48fc-a31a-80ac89407042","system_id":"levelo_inurba_marseille","lat":43.288618,"lon":5.382294,"is_reserved":false,"is_disabled":false,"rental_uris":{"android":"levelo://app?vid=4560bdd3-9298-48fc-a31a-80ac89407042","ios":"levelo://app?vid=4560bdd3-9298-48fc-a31a-80ac89407042"},"vehicle_type_id":"4","last_reported":1679504794,"current_range_meters":12000,"station_id":"","pricing_plan_id":"free"},{"bike_id":"01427df1-e662-45b6-b3ee-6a7285b6f4fb","system_id":"levelo_inurba_marseille","lat":43.302759,"lon":5.400793,"is_reserved":false,"is_disabled":false,"rental_uris":{"android":"levelo://app?vid=01427df1-e662-45b6-b3ee-6a7285b6f4fb","ios":"levelo://app?vid=01427df1-e662-45b6-b3ee-6a7285b6f4fb"},"vehicle_type_id":"4","last_reported":1679504794,"current_range_meters":1600,"station_id":"ce4bgvh2rcd13ifvqcs0","pricing_plan_id":"free"},{"bike_id":"93d9343b-527e-4098-bef5-a360e7dd0470","system_id":"levelo_inurba_marseille","lat":43.302532,"lon":5.400781,"is_reserved":false,"is_disabled":false,"rental_uris":{"android":"levelo://app?vid=93d9343b-527e-4098-bef5-a360e7dd0470","ios":"levelo://app?vid=93d9343b-527e-4098-bef5-a360e7dd0470"},"vehicle_type_id":"4","last_reported":1679504794,"current_range_meters":26800,"station_id":"ce4bhop2rcd13ifvqh8g","pricing_plan_id":"free"},{"bike_id":"a0db1ce2-3e6e-43ee-b759-29cd2cdbab42","system_id":"levelo_inurba_marseille","lat":43.286039,"lon":5.370679,"is_reserved":false,"is_disabled":false,"rental_uris":{"android":"levelo://app?vid=a0db1ce2-3e6e-43ee-b759-29cd2cdbab42","ios":"levelo://app?vid=a0db1ce2-3e6e-43ee-b759-29cd2cdbab42"},"vehicle_type_id":"4","last_reported":1679504794,"current_range_meters":30000,"station_id":"ce4bht12rcd13ifvqi60","pricing_plan_id":"free"},{"bike_id":"de2eb1c6-8b14-4f25-9d04-9171e2668d89","system_id":"levelo_inurba_marseille","lat":43.286039,"lon":5.370679,"is_reserved":false,"is_disabled":false,"rental_uris":{"android":"levelo://app?vid=de2eb1c6-8b14-4f25-9d04-9171e2668d89","ios":"levelo://app?vid=de2eb1c6-8b14-4f25-9d04-9171e2668d89"},"vehicle_type_id":"4","last_reported":1679504794,"current_range_meters":28000,"station_id":"ce4bht12rcd13ifvqi60","pricing_plan_id":"free"},{"bike_id":"f295ae9b-8127-42d0-9a85-a04e4033444b","system_id":"levelo_inurba_marseille","lat":43.288132,"lon":5.382386,"is_reserved":false,"is_disabled":false,"rental_uris":{"android":"levelo://app?vid=f295ae9b-8127-42d0-9a85-a04e4033444b","ios":"levelo://app?vid=f295ae9b-8127-42d0-9a85-a04e4033444b"},"vehicle_type_id":"4","last_reported":1679504794,"current_range_meters":0,"station_id":"","pricing_plan_id":"free"},{"bike_id":"dbef6a98-62d6-433c-9fd7-16a2837ed7ee","system_id":"levelo_inurba_marseille","lat":43.316523,"lon":5.404367,"is_reserved":false,"is_disabled":false,"rental_uris":{"android":"levelo://app?vid=dbef6a98-62d6-433c-9fd7-16a2837ed7ee","ios":"levelo://app?vid=dbef6a98-62d6-433c-9fd7-16a2837ed7ee"},"vehicle_type_id":"4","last_reported":1679504794,"current_range_meters":5600,"station_id":"ce4bh012rcd13ifvqd00","pricing_plan_id":"free"},{"bike_id":"5d8fe3f9-4f63-4407-a0e9-1a4353fc06a4","system_id":"levelo_inurba_marseille","lat":43.31649,"lon":5.404382,"is_reserved":false,"is_disabled":false,"rental_uris":{"android":"levelo://app?vid=5d8fe3f9-4f63-4407-a0e9-1a4353fc06a4","ios":"levelo://app?vid=5d8fe3f9-4f63-4407-a0e9-1a4353fc06a4"},"vehicle_type_id":"4","last_reported":1679504794,"current_range_meters":400,"station_id":"","pricing_plan_id":"free"},{"bike_id":"7a53aded-f2b0-4055-81ca-eb6f9770592f","system_id":"levelo_inurba_marseille","lat":43.295279,"lon":5.375048,"is_reserved":false,"is_disabled":false,"rental_uris":{"android":"levelo://app?vid=7a53aded-f2b0-4055-81ca-eb6f9770592f","ios":"levelo://app?vid=7a53aded-f2b0-4055-81ca-eb6f9770592f"},"vehicle_type_id":"4","last_reported":1679504794,"current_range_meters":0,"station_id":"ce4bgkp2rcd13ifvqbmg","pricing_plan_id":"free"},{"bike_id":"8113e72e-02a1-4bff-9a90-f0668bd9bc06","system_id":"levelo_inurba_marseille","lat":43.28463,"lon":5.35894,"is_reserved":false,"is_disabled":false,"rental_uris":{"android":"levelo://app?vid=8113e72e-02a1-4bff-9a90-f0668bd9bc06","ios":"levelo://app?vid=8113e72e-02a1-4bff-9a90-f0668bd9bc06"},"vehicle_type_id":"4","last_reported":1679504794,"current_range_meters":23200,"station_id":"ce4bhah2rcd13ifvqei0","pricing_plan_id":"free"},{"bike_id":"7ecf5628-a17a-4f35-b929-1280947cc5d3","system_id":"levelo_inurba_marseille","lat":43.284619,"lon":5.358866,"is_reserved":false,"is_disabled":false,"rental_uris":{"android":"levelo://app?vid=7ecf5628-a17a-4f35-b929-1280947cc5d3","ios":"levelo://app?vid=7ecf5628-a17a-4f35-b929-1280947cc5d3"},"vehicle_type_id":"4","last_reported":1679504794,"current_range_meters":24400,"station_id":"ce4bhah2rcd13ifvqei0","pricing_plan_id":"free"},{"bike_id":"e2fe2d0e-5024-4073-baa5-73e0be1e1217","system_id":"levelo_inurba_marseille","lat":43.28458,"lon":5.35891,"is_reserved":false,"is_disabled":false,"rental_uris":{"android":"levelo://app?vid=e2fe2d0e-5024-4073-baa5-73e0be1e1217","ios":"levelo://app?vid=e2fe2d0e-5024-4073-baa5-73e0be1e1217"},"vehicle_type_id":"4","last_reported":1679504794,"current_range_meters":6000,"station_id":"ce4bhah2rcd13ifvqei0","pricing_plan_id":"free"},{"bike_id":"f27af455-d4eb-4a8a-90bd-562e62162907","system_id":"levelo_inurba_marseille","lat":43.28458,"lon":5.35884,"is_reserved":false,"is_disabled":false,"rental_uris":{"android":"levelo://app?vid=f27af455-d4eb-4a8a-90bd-562e62162907","ios":"levelo://app?vid=f27af455-d4eb-4a8a-90bd-562e62162907"},"vehicle_type_id":"4","last_reported":1679504794,"current_range_meters":7600,"station_id":"ce4bhah2rcd13ifvqei0","pricing_plan_id":"free"},{"bike_id":"bdbb90f1-baaf-4b20-88cd-58d7e29c5d63","system_id":"levelo_inurba_marseille","lat":43.295704,"lon":5.399725,"is_reserved":false,"is_disabled":false,"rental_uris":{"android":"levelo://app?vid=bdbb90f1-baaf-4b20-88cd-58d7e29c5d63","ios":"levelo://app?vid=bdbb90f1-baaf-4b20-88cd-58d7e29c5d63"},"vehicle_type_id":"4","last_reported":1679504794,"current_range_meters":0,"station_id":"","pricing_plan_id":"free"},{"bike_id":"61314db2-2e4b-40f8-873a-8721e7ba9cdc","system_id":"levelo_inurba_marseille","lat":43.299027,"lon":5.403509,"is_reserved":false,"is_disabled":false,"rental_uris":{"android":"levelo://app?vid=61314db2-2e4b-40f8-873a-8721e7ba9cdc","ios":"levelo://app?vid=61314db2-2e4b-40f8-873a-8721e7ba9cdc"},"vehicle_type_id":"4","last_reported":1679504794,"current_range_meters":0,"station_id":"ce4bgvh2rcd13ifvqcs0","pricing_plan_id":"free"},{"bike_id":"f4b6399c-8a89-4a1d-b13b-0b8e644c6edc","system_id":"levelo_inurba_marseille","lat":43.323464,"lon":5.406297,"is_reserved":false,"is_disabled":false,"rental_uris":{"android":"levelo://app?vid=f4b6399c-8a89-4a1d-b13b-0b8e644c6edc","ios":"levelo://app?vid=f4b6399c-8a89-4a1d-b13b-0b8e644c6edc"},"vehicle_type_id":"4","last_reported":1679504794,"current_range_meters":0,"station_id":"ce4bhq92rcd13ifvqhjg","pricing_plan_id":"free"},{"bike_id":"e0388715-52dc-4a6f-a2a6-37dd4bc54e2f","system_id":"levelo_inurba_marseille","lat":43.337168,"lon":5.391825,"is_reserved":false,"is_disabled":false,"rental_uris":{"android":"levelo://app?vid=e0388715-52dc-4a6f-a2a6-37dd4bc54e2f","ios":"levelo://app?vid=e0388715-52dc-4a6f-a2a6-37dd4bc54e2f"},"vehicle_type_id":"4","last_reported":1679504794,"current_range_meters":6000,"station_id":"ce4bhr92rcd13ifvqhsg","pricing_plan_id":"free"},{"bike_id":"4ad34abc-96ed-4796-9494-1a7d66c53392","system_id":"levelo_inurba_marseille","lat":43.337168,"lon":5.391825,"is_reserved":false,"is_disabled":false,"rental_uris":{"android":"levelo://app?vid=4ad34abc-96ed-4796-9494-1a7d66c53392","ios":"levelo://app?vid=4ad34abc-96ed-4796-9494-1a7d66c53392"},"vehicle_type_id":"4","last_reported":1679504794,"current_range_meters":18800,"station_id":"ce4bhr92rcd13ifvqhsg","pricing_plan_id":"free"},{"bike_id":"47c1c815-f07d-431d-88f6-f9d52d0c862c","system_id":"levelo_inurba_marseille","lat":43.33725,"lon":5.391823,"is_reserved":false,"is_disabled":false,"rental_uris":{"android":"levelo://app?vid=47c1c815-f07d-431d-88f6-f9d52d0c862c","ios":"levelo://app?vid=47c1c815-f07d-431d-88f6-f9d52d0c862c"},"vehicle_type_id":"4","last_reported":1679504794,"current_range_meters":2000,"station_id":"","pricing_plan_id":"free"},{"bike_id":"8a985281-56a6-44b5-a82c-5f1db1a1bed8","system_id":"levelo_inurba_marseille","lat":43.32341,"lon":5.40621,"is_reserved":false,"is_disabled":false,"rental_uris":{"android":"levelo://app?vid=8a985281-56a6-44b5-a82c-5f1db1a1bed8","ios":"levelo://app?vid=8a985281-56a6-44b5-a82c-5f1db1a1bed8"},"vehicle_type_id":"4","last_reported":1679504794,"current_range_meters":0,"station_id":"","pricing_plan_id":"free"},{"bike_id":"e8fb0209-8892-4ffd-9507-c62338396ae0","system_id":"levelo_inurba_marseille","lat":43.28467,"lon":5.38408,"is_reserved":false,"is_disabled":false,"rental_uris":{"android":"levelo://app?vid=e8fb0209-8892-4ffd-9507-c62338396ae0","ios":"levelo://app?vid=e8fb0209-8892-4ffd-9507-c62338396ae0"},"vehicle_type_id":"4","last_reported":1679504794,"current_range_meters":24400,"station_id":"ce4bh512rcd13ifvqe3g","pricing_plan_id":"free"},{"bike_id":"a48a2a66-a780-49c3-9f14-c8e378bbe450","system_id":"levelo_inurba_marseille","lat":43.28106,"lon":5.37827,"is_reserved":false,"is_disabled":false,"rental_uris":{"android":"levelo://app?vid=a48a2a66-a780-49c3-9f14-c8e378bbe450","ios":"levelo://app?vid=a48a2a66-a780-49c3-9f14-c8e378bbe450"},"vehicle_type_id":"4","last_reported":1679504794,"current_range_meters":23600,"station_id":"ce4bha12rcd13ifvqee0","pricing_plan_id":"free"},{"bike_id":"c177f61d-4364-46cf-a280-8c64d3fe1749","system_id":"levelo_inurba_marseille","lat":43.320045,"lon":5.415048,"is_reserved":false,"is_disabled":false,"rental_uris":{"android":"levelo://app?vid=c177f61d-4364-46cf-a280-8c64d3fe1749","ios":"levelo://app?vid=c177f61d-4364-46cf-a280-8c64d3fe1749"},"vehicle_type_id":"4","last_reported":1679504794,"current_range_meters":2400,"station_id":"ce4bhq92rcd13ifvqhkg","pricing_plan_id":"free"},{"bike_id":"906a631e-9bb8-4441-a705-cccc26fe47e8","system_id":"levelo_inurba_marseille","lat":43.292571,"lon":5.409107,"is_reserved":false,"is_disabled":false,"rental_uris":{"android":"levelo://app?vid=906a631e-9bb8-4441-a705-cccc26fe47e8","ios":"levelo://app?vid=906a631e-9bb8-4441-a705-cccc26fe47e8"},"vehicle_type_id":"4","last_reported":1679504794,"current_range_meters":0,"station_id":"ce4bh192rcd13ifvqdc0","pricing_plan_id":"free"},{"bike_id":"fdd7f340-e0f5-41ff-b0e5-832840eaf103","system_id":"levelo_inurba_marseille","lat":43.27622,"lon":5.36123,"is_reserved":false,"is_disabled":false,"rental_uris":{"android":"levelo://app?vid=fdd7f340-e0f5-41ff-b0e5-832840eaf103","ios":"levelo://app?vid=fdd7f340-e0f5-41ff-b0e5-832840eaf103"},"vehicle_type_id":"4","last_reported":1679504794,"current_range_meters":31200,"station_id":"ce4bgj92rcd13ifvqbe0","pricing_plan_id":"free"},{"bike_id":"e2d58c48-719d-4302-a2eb-eb8d95df6355","system_id":"levelo_inurba_marseille","lat":43.2762,"lon":5.361059,"is_reserved":false,"is_disabled":false,"rental_uris":{"android":"levelo://app?vid=e2d58c48-719d-4302-a2eb-eb8d95df6355","ios":"levelo://app?vid=e2d58c48-719d-4302-a2eb-eb8d95df6355"},"vehicle_type_id":"4","last_reported":1679504794,"current_range_meters":28000,"station_id":"","pricing_plan_id":"free"},{"bike_id":"39841c49-48db-4beb-a365-f629219e3c5b","system_id":"levelo_inurba_marseille","lat":43.28183,"lon":5.39648,"is_reserved":false,"is_disabled":false,"rental_uris":{"android":"levelo://app?vid=39841c49-48db-4beb-a365-f629219e3c5b","ios":"levelo://app?vid=39841c49-48db-4beb-a365-f629219e3c5b"},"vehicle_type_id":"4","last_reported":1679504794,"current_range_meters":28000,"station_id":"","pricing_plan_id":"free"},{"bike_id":"890b4e67-117a-470c-b85b-f6b7046a717e","system_id":"levelo_inurba_marseille","lat":43.269467,"lon":5.386439,"is_reserved":false,"is_disabled":false,"rental_uris":{"android":"levelo://app?vid=890b4e67-117a-470c-b85b-f6b7046a717e","ios":"levelo://app?vid=890b4e67-117a-470c-b85b-f6b7046a717e"},"vehicle_type_id":"4","last_reported":1679504794,"current_range_meters":0,"station_id":"ce4bhh92rcd13ifvqfh0","pricing_plan_id":"free"},{"bike_id":"d759bef6-c3c6-451e-9861-d997b82500b9","system_id":"levelo_inurba_marseille","lat":43.265714,"lon":5.372891,"is_reserved":false,"is_disabled":false,"rental_uris":{"android":"levelo://app?vid=d759bef6-c3c6-451e-9861-d997b82500b9","ios":"levelo://app?vid=d759bef6-c3c6-451e-9861-d997b82500b9"},"vehicle_type_id":"4","last_reported":1679504794,"current_range_meters":14000,"station_id":"ce4bhg12rcd13ifvqf70","pricing_plan_id":"free"},{"bike_id":"98f3f3be-eb23-455c-b418-765ce14b9aba","system_id":"levelo_inurba_marseille","lat":43.265658,"lon":5.390026,"is_reserved":false,"is_disabled":false,"rental_uris":{"android":"levelo://app?vid=98f3f3be-eb23-455c-b418-765ce14b9aba","ios":"levelo://app?vid=98f3f3be-eb23-455c-b418-765ce14b9aba"},"vehicle_type_id":"4","last_reported":1679504794,"current_range_meters":0,"station_id":"","pricing_plan_id":"free"},{"bike_id":"7b1a8380-7873-4292-8ae1-623f82d1c97b","system_id":"levelo_inurba_marseille","lat":43.33248,"lon":5.43094,"is_reserved":false,"is_disabled":false,"rental_uris":{"android":"levelo://app?vid=7b1a8380-7873-4292-8ae1-623f82d1c97b","ios":"levelo://app?vid=7b1a8380-7873-4292-8ae1-623f82d1c97b"},"vehicle_type_id":"4","last_reported":1679504794,"current_range_meters":21600,"station_id":"","pricing_plan_id":"free"},{"bike_id":"4e811739-b24b-423e-8bc6-7995d1e3662e","system_id":"levelo_inurba_marseille","lat":43.268079,"lon":5.402671,"is_reserved":false,"is_disabled":false,"rental_uris":{"android":"levelo://app?vid=4e811739-b24b-423e-8bc6-7995d1e3662e","ios":"levelo://app?vid=4e811739-b24b-423e-8bc6-7995d1e3662e"},"vehicle_type_id":"4","last_reported":1679504794,"current_range_meters":0,"station_id":"ce501612rcd8frsf0b60","pricing_plan_id":"free"},{"bike_id":"a3ea0ee1-a8ee-47ac-a073-dc9a044562d2","system_id":"levelo_inurba_marseille","lat":43.267959,"lon":5.402685,"is_reserved":false,"is_disabled":false,"rental_uris":{"android":"levelo://app?vid=a3ea0ee1-a8ee-47ac-a073-dc9a044562d2","ios":"levelo://app?vid=a3ea0ee1-a8ee-47ac-a073-dc9a044562d2"},"vehicle_type_id":"4","last_reported":1679504794,"current_range_meters":23200,"station_id":"ce501612rcd8frsf0b60","pricing_plan_id":"free"},{"bike_id":"bc674d3b-376c-4a32-8da2-59f7302cf603","system_id":"levelo_inurba_marseille","lat":43.26056,"lon":5.394,"is_reserved":false,"is_disabled":false,"rental_uris":{"android":"levelo://app?vid=bc674d3b-376c-4a32-8da2-59f7302cf603","ios":"levelo://app?vid=bc674d3b-376c-4a32-8da2-59f7302cf603"},"vehicle_type_id":"4","last_reported":1679504794,"current_range_meters":20400,"station_id":"ce4bhh92rcd13ifvqfj0","pricing_plan_id":"free"},{"bike_id":"94d21974-5826-4316-8172-271fd94d0ccd","system_id":"levelo_inurba_marseille","lat":43.26089,"lon":5.39759,"is_reserved":false,"is_disabled":false,"rental_uris":{"android":"levelo://app?vid=94d21974-5826-4316-8172-271fd94d0ccd","ios":"levelo://app?vid=94d21974-5826-4316-8172-271fd94d0ccd"},"vehicle_type_id":"4","last_reported":1679504794,"current_range_meters":14800,"station_id":"","pricing_plan_id":"free"},{"bike_id":"bc183853-2991-4bb9-8846-a1d85134a6b0","system_id":"levelo_inurba_marseille","lat":43.254945,"lon":5.376454,"is_reserved":false,"is_disabled":false,"rental_uris":{"android":"levelo://app?vid=bc183853-2991-4bb9-8846-a1d85134a6b0","ios":"levelo://app?vid=bc183853-2991-4bb9-8846-a1d85134a6b0"},"vehicle_type_id":"4","last_reported":1679504794,"current_range_meters":0,"station_id":"ce4bhh12rcd13ifvqff0","pricing_plan_id":"free"},{"bike_id":"40459287-bf36-4ee0-860d-d7699803eb9d","system_id":"levelo_inurba_marseille","lat":43.254947,"lon":5.376454,"is_reserved":false,"is_disabled":false,"rental_uris":{"android":"levelo://app?vid=40459287-bf36-4ee0-860d-d7699803eb9d","ios":"levelo://app?vid=40459287-bf36-4ee0-860d-d7699803eb9d"},"vehicle_type_id":"4","last_reported":1679504794,"current_range_meters":22800,"station_id":"ce4bhh12rcd13ifvqff0","pricing_plan_id":"free"},{"bike_id":"d8e21935-4418-4458-8fe1-4ef12207f6cf","system_id":"levelo_inurba_marseille","lat":43.25001,"lon":5.38922,"is_reserved":false,"is_disabled":false,"rental_uris":{"android":"levelo://app?vid=d8e21935-4418-4458-8fe1-4ef12207f6cf","ios":"levelo://app?vid=d8e21935-4418-4458-8fe1-4ef12207f6cf"},"vehicle_type_id":"4","last_reported":1679504794,"current_range_meters":12400,"station_id":"ce4bhgp2rcd13ifvqfd0","pricing_plan_id":"free"},{"bike_id":"3ceede25-fc3a-4ba3-958b-7060632ebfb4","system_id":"levelo_inurba_marseille","lat":43.2479,"lon":5.374457,"is_reserved":false,"is_disabled":false,"rental_uris":{"android":"levelo://app?vid=3ceede25-fc3a-4ba3-958b-7060632ebfb4","ios":"levelo://app?vid=3ceede25-fc3a-4ba3-958b-7060632ebfb4"},"vehicle_type_id":"4","last_reported":1679504794,"current_range_meters":31200,"station_id":"ce4bhgh2rcd13ifvqfb0","pricing_plan_id":"free"},{"bike_id":"f81bd7c4-1938-4bd1-ad11-3bd3b0085d5d","system_id":"levelo_inurba_marseille","lat":43.2479,"lon":5.374457,"is_reserved":false,"is_disabled":false,"rental_uris":{"android":"levelo://app?vid=f81bd7c4-1938-4bd1-ad11-3bd3b0085d5d","ios":"levelo://app?vid=f81bd7c4-1938-4bd1-ad11-3bd3b0085d5d"},"vehicle_type_id":"4","last_reported":1679504794,"current_range_meters":7200,"station_id":"ce4bhgh2rcd13ifvqfb0","pricing_plan_id":"free"},{"bike_id":"cb979b90-9fe5-4c4b-93ae-fc3c45d9a96a","system_id":"levelo_inurba_marseille","lat":43.25091,"lon":5.39523,"is_reserved":false,"is_disabled":false,"rental_uris":{"android":"levelo://app?vid=cb979b90-9fe5-4c4b-93ae-fc3c45d9a96a","ios":"levelo://app?vid=cb979b90-9fe5-4c4b-93ae-fc3c45d9a96a"},"vehicle_type_id":"4","last_reported":1679504794,"current_range_meters":0,"station_id":"ce4bhm12rcd13ifvqgkg","pricing_plan_id":"free"},{"bike_id":"fc8b9e27-dd06-4ef5-a104-10e21cb62b2a","system_id":"levelo_inurba_marseille","lat":43.25114,"lon":5.40316,"is_reserved":false,"is_disabled":false,"rental_uris":{"android":"levelo://app?vid=fc8b9e27-dd06-4ef5-a104-10e21cb62b2a","ios":"levelo://app?vid=fc8b9e27-dd06-4ef5-a104-10e21cb62b2a"},"vehicle_type_id":"4","last_reported":1679504794,"current_range_meters":8800,"station_id":"ce4bhlh2rcd13ifvqgig","pricing_plan_id":"free"},{"bike_id":"90d3d063-2abe-4a54-b33c-4eabd3c7c054","system_id":"levelo_inurba_marseille","lat":43.246506,"lon":5.388908,"is_reserved":false,"is_disabled":false,"rental_uris":{"android":"levelo://app?vid=90d3d063-2abe-4a54-b33c-4eabd3c7c054","ios":"levelo://app?vid=90d3d063-2abe-4a54-b33c-4eabd3c7c054"},"vehicle_type_id":"4","last_reported":1679504794,"current_range_meters":3600,"station_id":"ce4bhg12rcd13ifvqf60","pricing_plan_id":"free"},{"bike_id":"ce04abbe-9d27-4815-9023-77e01e95dd91","system_id":"levelo_inurba_marseille","lat":43.239588,"lon":5.366238,"is_reserved":false,"is_disabled":false,"rental_uris":{"android":"levelo://app?vid=ce04abbe-9d27-4815-9023-77e01e95dd91","ios":"levelo://app?vid=ce04abbe-9d27-4815-9023-77e01e95dd91"},"vehicle_type_id":"4","last_reported":1679504794,"current_range_meters":13200,"station_id":"ce4bhi12rcd13ifvqfp0","pricing_plan_id":"free"},{"bike_id":"368a7f96-127c-4241-b1c0-032b8cb58df4","system_id":"levelo_inurba_marseille","lat":43.239588,"lon":5.366238,"is_reserved":false,"is_disabled":false,"rental_uris":{"android":"levelo://app?vid=368a7f96-127c-4241-b1c0-032b8cb58df4","ios":"levelo://app?vid=368a7f96-127c-4241-b1c0-032b8cb58df4"},"vehicle_type_id":"4","last_reported":1679504794,"current_range_meters":11600,"station_id":"ce4bhi12rcd13ifvqfp0","pricing_plan_id":"free"},{"bike_id":"52bab874-d67a-470f-9bbd-0263bdff63b1","system_id":"levelo_inurba_marseille","lat":43.239588,"lon":5.366238,"is_reserved":false,"is_disabled":false,"rental_uris":{"android":"levelo://app?vid=52bab874-d67a-470f-9bbd-0263bdff63b1","ios":"levelo://app?vid=52bab874-d67a-470f-9bbd-0263bdff63b1"},"vehicle_type_id":"4","last_reported":1679504794,"current_range_meters":22400,"station_id":"ce4bhi12rcd13ifvqfp0","pricing_plan_id":"free"},{"bike_id":"5a35ba19-23ab-49d6-a7c1-146d66f148d0","system_id":"levelo_inurba_marseille","lat":43.239588,"lon":5.366238,"is_reserved":false,"is_disabled":false,"rental_uris":{"android":"levelo://app?vid=5a35ba19-23ab-49d6-a7c1-146d66f148d0","ios":"levelo://app?vid=5a35ba19-23ab-49d6-a7c1-146d66f148d0"},"vehicle_type_id":"4","last_reported":1679504794,"current_range_meters":11200,"station_id":"ce4bhi12rcd13ifvqfp0","pricing_plan_id":"free"},{"bike_id":"225fc6c8-7b55-4142-a213-ef91427fd526","system_id":"levelo_inurba_marseille","lat":43.2422,"lon":5.39704,"is_reserved":false,"is_disabled":false,"rental_uris":{"android":"levelo://app?vid=225fc6c8-7b55-4142-a213-ef91427fd526","ios":"levelo://app?vid=225fc6c8-7b55-4142-a213-ef91427fd526"},"vehicle_type_id":"4","last_reported":1679504794,"current_range_meters":2400,"station_id":"","pricing_plan_id":"free"},{"bike_id":"6d7db679-967a-48c8-a29a-3c380236d3f4","system_id":"levelo_inurba_marseille","lat":43.231919,"lon":5.355532,"is_reserved":false,"is_disabled":false,"rental_uris":{"android":"levelo://app?vid=6d7db679-967a-48c8-a29a-3c380236d3f4","ios":"levelo://app?vid=6d7db679-967a-48c8-a29a-3c380236d3f4"},"vehicle_type_id":"4","last_reported":1679504794,"current_range_meters":31600,"station_id":"ce4bhu92rcd13ifvqi70","pricing_plan_id":"free"},{"bike_id":"47b68fc5-2716-4ea1-b73c-99cf16c24860","system_id":"levelo_inurba_marseille","lat":43.231923,"lon":5.355545,"is_reserved":false,"is_disabled":false,"rental_uris":{"android":"levelo://app?vid=47b68fc5-2716-4ea1-b73c-99cf16c24860","ios":"levelo://app?vid=47b68fc5-2716-4ea1-b73c-99cf16c24860"},"vehicle_type_id":"4","last_reported":1679504794,"current_range_meters":32000,"station_id":"ce4bhu92rcd13ifvqi70","pricing_plan_id":"free"},{"bike_id":"3e452ff2-8298-42c4-a6bd-28a39d93a653","system_id":"levelo_inurba_marseille","lat":43.231919,"lon":5.355532,"is_reserved":false,"is_disabled":false,"rental_uris":{"android":"levelo://app?vid=3e452ff2-8298-42c4-a6bd-28a39d93a653","ios":"levelo://app?vid=3e452ff2-8298-42c4-a6bd-28a39d93a653"},"vehicle_type_id":"4","last_reported":1679504794,"current_range_meters":30800,"station_id":"ce4bhu92rcd13ifvqi70","pricing_plan_id":"free"},{"bike_id":"db50d0d7-6d9d-4c1b-8247-ba74001d3581","system_id":"levelo_inurba_marseille","lat":43.23194,"lon":5.35551,"is_reserved":false,"is_disabled":false,"rental_uris":{"android":"levelo://app?vid=db50d0d7-6d9d-4c1b-8247-ba74001d3581","ios":"levelo://app?vid=db50d0d7-6d9d-4c1b-8247-ba74001d3581"},"vehicle_type_id":"4","last_reported":1679504794,"current_range_meters":30000,"station_id":"","pricing_plan_id":"free"},{"bike_id":"fe080915-b23f-4d79-bf0f-dbbe202db946","system_id":"levelo_inurba_marseille","lat":43.231919,"lon":5.355532,"is_reserved":false,"is_disabled":false,"rental_uris":{"android":"levelo://app?vid=fe080915-b23f-4d79-bf0f-dbbe202db946","ios":"levelo://app?vid=fe080915-b23f-4d79-bf0f-dbbe202db946"},"vehicle_type_id":"4","last_reported":1679504794,"current_range_meters":31600,"station_id":"ce4bhu92rcd13ifvqi70","pricing_plan_id":"free"},{"bike_id":"749d4ab8-97a6-4067-91f0-368f4b44b252","system_id":"levelo_inurba_marseille","lat":43.231923,"lon":5.355545,"is_reserved":false,"is_disabled":false,"rental_uris":{"android":"levelo://app?vid=749d4ab8-97a6-4067-91f0-368f4b44b252","ios":"levelo://app?vid=749d4ab8-97a6-4067-91f0-368f4b44b252"},"vehicle_type_id":"4","last_reported":1679504794,"current_range_meters":32000,"station_id":"ce4bhu92rcd13ifvqi70","pricing_plan_id":"free"},{"bike_id":"86a34901-08d7-45a6-ab8f-67d391282302","system_id":"levelo_inurba_marseille","lat":43.231923,"lon":5.355545,"is_reserved":false,"is_disabled":false,"rental_uris":{"android":"levelo://app?vid=86a34901-08d7-45a6-ab8f-67d391282302","ios":"levelo://app?vid=86a34901-08d7-45a6-ab8f-67d391282302"},"vehicle_type_id":"4","last_reported":1679504794,"current_range_meters":24000,"station_id":"ce4bhu92rcd13ifvqi70","pricing_plan_id":"free"}]}}