{"last_updated":1713550146,"ttl":30,"version":"2.2","data":{"bikes":[{"bike_id":"79758d34-e881-41ea-8579-7f818650de37","system_id":"levelo_inurba_marseille","lat":43.301939,"lon":5.366286,"is_reserved":false,"is_disabled":false,"rental_uris":{"android":"levelo://app?vid=79758d34-e881-41ea-8579-7f818650de37","ios":"levelo://app?vid=79758d34-e881-41ea-8579-7f818650de37"},"vehicle_type_id":"4","last_reported":1713550146,"current_range_meters":8000,"station_id":"ce4bgrh2rcd13ifvqc8g","pricing_plan_id":"cebpf4jnsgd1na2vs0mg"},{"bike_id":"0161f2c0-7514-4751-aa8d-c0ea6e524e01","system_id":"levelo_inurba_marseille","lat":43.312239,"lon":5.368562,"is_reserved":false,"is_disabled":false,"rental_uris":{"android":"levelo://app?vid=0161f2c0-7514-4751-aa8d-c0ea6e524e01","ios":"levelo://app?vid=0161f2c0-7514-4751-aa8d-c0ea6e524e01"},"vehicle_type_id":"4","last_reported":1713550146,"current_range_meters":10000,"station_id":"ce4bgl92rcd13ifvqbq0","pricing_plan_id":"cebpf4jnsgd1na2vs0mg"},{"bike_id":"73595d24-2426-4714-8639-170262dab623","system_id":"levelo_inurba_marseille","lat":43.312239,"lon":5.368562,"is_reserved":false,"is_disabled":false,"rental_uris":{"android":"levelo://app?vid=73595d24-2426-4714-8639-170262dab623","ios":"levelo://app?vid=73595d24-2426-4714-8639-170262dab623"},"vehicle_type_id":"4","last_reported":1713550146,"current_range_meters":17200,"station_id":"ce4bgl92rcd13ifvqbq0","pricing_plan_id":"cebpf4jnsgd1na2vs0mg"},{"bike_id":"8e6fefc8-4f70-4214-8018-7d64657f2634","system_id":"levelo_inurba_marseille","lat":43.314811,"lon":5.373103,"is_reserved":false,"is_disabled":false,"rental_uris":{"android":"levelo://app?vid=8e6fefc8-4f70-4214-8018-7d64657f2634","ios":"levelo://app?vid=8e6fefc8-4f70-4214-8018-7d64657f2634"},"vehicle_type_id":"4","last_reported":1713550146,"current_range_meters":800,"station_id":"ce4bgt12rcd13ifvqcd0","pricing_plan_id":"cebpf4jnsgd1na2vs0mg"},{"bike_id":"84976816-7e03-4540-b524-0338de515213","system_id":"levelo_inurba_marseille","lat":43.31485,"lon":5.37309,"is_reserved":false,"is_disabled":false,"rental_uris":{"android":"levelo://app?vid=84976816-7e03-4540-b524-0338de515213","ios":"levelo://app?vid=84976816-7e03-4540-b524-0338de515213"},"vehicle_type_id":"4","last_reported":1713550146,"current_range_meters":0,"station_id":"ce4bgt12rcd13ifvqcd0","pricing_plan_id":"cebpf4jnsgd1na2vs0mg"},{"bike_id":"30ce7e64-07f9-47e8-8e85-63b027dbfb9f","system_id":"levelo_inurba_marseille","lat":43.314811,"lon":5.373103,"is_reserved":false,"is_disabled":false,"rental_uris":{"android":"levelo://app?vid=30ce7e64-07f9-47e8-8e85-63b027dbfb9f","ios":"levelo://app?vid=30ce7e64-07f9-47e8-8e85-63b027dbfb9f"},"vehicle_type_id":"4","last_reported":1713550146,"current_range_meters":8000,"station_id":"ce4bgt12rcd13ifvqcd0","pricing_plan_id":"cebpf4jnsgd1na2vs0mg"},{"bike_id":"83baea0b-142f-4d68-baab-7a2eaf1e5160","system_id":"levelo_inurba_marseille","lat":43.314811,"lon":5.373103,"is_reserved":false,"is_disabled":false,"rental_uris":{"android":"levelo://app?vid=83baea0b-142f-4d68-baab-7a2eaf1e5160","ios":"levelo://app?vid=83baea0b-142f-4d68-baab-7a2eaf1e5160"},"vehicle_type_id":"4","last_reported":1713550146,"current_range_meters":10400,"station_id":"ce4bgt12rcd13ifvqcd0","pricing_plan_id":"cebpf4jnsgd1na2vs0mg"},{"bike_id":"5759bd8a-8112-4560-81d5-f15af6b6b9e4","system_id":"levelo_inurba_marseille","lat":43.31499,"lon":5.37307,"is_reserved":false,"is_disabled":false,"rental_uris":{"android":"levelo://app?vid=5759bd8a-8112-4560-81d5-f15af6b6b9e4","ios":"levelo://app?vid=5759bd8a-8112-4560-81d5-f15af6b6b9e4"},"vehicle_type_id":"4","last_reported":1713550146,"current_range_meters":0,"station_id":"ce4bgt12rcd13ifvqcd0","pricing_plan_id":"cebpf4jnsgd1na2vs0mg"},{"bike_id":"63713dd1-6d54-42df-adaa-e625458f4fb2","system_id":"levelo_inurba_marseille","lat":43.31499,"lon":5.373141,"is_reserved":false,"is_disabled":false,"rental_uris":{"android":"levelo://app?vid=63713dd1-6d54-42df-adaa-e625458f4fb2","ios":"levelo://app?vid=63713dd1-6d54-42df-adaa-e625458f4fb2"},"vehicle_type_id":"4","last_reported":1713550146,"current_range_meters":0,"station_id":"ce4bgt12rcd13ifvqcd0","pricing_plan_id":"cebpf4jnsgd1na2vs0mg"},{"bike_id":"52f22b5a-486d-4c62-a4ac-137bfb2f235e","system_id":"levelo_inurba_marseille","lat":43.30554,"lon":5.36534,"is_reserved":false,"is_disabled":false,"rental_uris":{"android":"levelo://app?vid=52f22b5a-486d-4c62-a4ac-137bfb2f235e","ios":"levelo://app?vid=52f22b5a-486d-4c62-a4ac-137bfb2f235e"},"vehicle_type_id":"4","last_reported":1713550146,"current_range_meters":24800,"station_id":"","pricing_plan_id":"cebpf4jnsgd1na2vs0mg"},{"bike_id":"be7f15ce-db84-4fda-a11d-4be56ed7a29e","system_id":"levelo_inurba_marseille","lat":43.301939,"lon":5.366286,"is_reserved":false,"is_disabled":false,"rental_uris":{"android":"levelo://app?vid=be7f15ce-db84-4fda-a11d-4be56ed7a29e","ios":"levelo://app?vid=be7f15ce-db84-4fda-a11d-4be56ed7a29e"},"vehicle_type_id":"4","last_reported":1713550146,"current_range_meters":26400,"station_id":"ce4bgrh2rcd13ifvqc8g","pricing_plan_id":"cebpf4jnsgd1na2vs0mg"},{"bike_id":"1af944f7-766a-49a6-839b-c999af9eb446","system_id":"levelo_inurba_marseille","lat":43.311131,"lon":5.377651,"is_reserved":false,"is_disabled":false,"rental_uris":{"android":"levelo://app?vid=1af944f7-766a-49a6-839b-c999af9eb446","ios":"levelo://app?vid=1af944f7-766a-49a6-839b-c999af9eb446"},"vehicle_type_id":"4","last_reported":1713550146,"current_range_meters":5200,"station_id":"ce4bgt92rcd13ifvqcg0","pricing_plan_id":"cebpf4jnsgd1na2vs0mg"},{"bike_id":"1fb99b13-7dcf-44aa-b19e-51d800f04a21","system_id":"levelo_inurba_marseille","lat":43.305989,"lon":5.37225,"is_reserved":false,"is_disabled":false,"rental_uris":{"android":"levelo://app?vid=1fb99b13-7dcf-44aa-b19e-51d800f04a21","ios":"levelo://app?vid=1fb99b13-7dcf-44aa-b19e-51d800f04a21"},"vehicle_type_id":"4","last_reported":1713550146,"current_range_meters":22800,"station_id":"ce4bgqh2rcd13ifvqc4g","pricing_plan_id":"cebpf4jnsgd1na2vs0mg"},{"bike_id":"0bff2a9d-13e1-4b9f-b359-5265c73182df","system_id":"levelo_inurba_marseille","lat":43.305714,"lon":5.365633,"is_reserved":false,"is_disabled":false,"rental_uris":{"android":"levelo://app?vid=0bff2a9d-13e1-4b9f-b359-5265c73182df","ios":"levelo://app?vid=0bff2a9d-13e1-4b9f-b359-5265c73182df"},"vehicle_type_id":"4","last_reported":1713550146,"current_range_meters":400,"station_id":"ce4bgs12rcd13ifvqcag","pricing_plan_id":"cebpf4jnsgd1na2vs0mg"},{"bike_id":"611a3563-0851-4db4-8e81-1ccbb8b6f00c","system_id":"levelo_inurba_marseille","lat":43.303046,"lon":5.368981,"is_reserved":false,"is_disabled":false,"rental_uris":{"android":"levelo://app?vid=611a3563-0851-4db4-8e81-1ccbb8b6f00c","ios":"levelo://app?vid=611a3563-0851-4db4-8e81-1ccbb8b6f00c"},"vehicle_type_id":"4","last_reported":1713550146,"current_range_meters":0,"station_id":"ce4bgqh2rcd13ifvqc5g","pricing_plan_id":"cebpf4jnsgd1na2vs0mg"},{"bike_id":"5aa1274d-5022-4c87-8c89-f0028900d92e","system_id":"levelo_inurba_marseille","lat":43.303046,"lon":5.368981,"is_reserved":false,"is_disabled":false,"rental_uris":{"android":"levelo://app?vid=5aa1274d-5022-4c87-8c89-f0028900d92e","ios":"levelo://app?vid=5aa1274d-5022-4c87-8c89-f0028900d92e"},"vehicle_type_id":"4","last_reported":1713550146,"current_range_meters":30800,"station_id":"ce4bgqh2rcd13ifvqc5g","pricing_plan_id":"cebpf4jnsgd1na2vs0mg"},{"bike_id":"c4dcd410-0cb6-458f-be8e-3ec93d878642","system_id":"levelo_inurba_marseille","lat":43.30304,"lon":5.368987,"is_reserved":false,"is_disabled":false,"rental_uris":{"android":"levelo://app?vid=c4dcd410-0cb6-458f-be8e-3ec93d878642","ios":"levelo://app?vid=c4dcd410-0cb6-458f-be8e-3ec93d878642"},"vehicle_type_id":"4","last_reported":1713550146,"current_range_meters":0,"station_id":"ce4bgqh2rcd13ifvqc5g","pricing_plan_id":"cebpf4jnsgd1na2vs0mg"},{"bike_id":"eeefa8c2-6e19-49c1-bde5-6ff6c4a19897","system_id":"levelo_inurba_marseille","lat":43.315293,"lon":5.380349,"is_reserved":false,"is_disabled":false,"rental_uris":{"android":"levelo://app?vid=eeefa8c2-6e19-49c1-bde5-6ff6c4a19897","ios":"levelo://app?vid=eeefa8c2-6e19-49c1-bde5-6ff6c4a19897"},"vehicle_type_id":"4","last_reported":1713550146,"current_range_meters":21200,"station_id":"ce4bhsp2rcd13ifvqi50","pricing_plan_id":"cebpf4jnsgd1na2vs0mg"},{"bike_id":"1f099d6e-4c1c-4015-be50-c95c60fefa4a","system_id":"levelo_inurba_marseille","lat":43.303283,"lon":5.373473,"is_reserved":false,"is_disabled":false,"rental_uris":{"android":"levelo://app?vid=1f099d6e-4c1c-4015-be50-c95c60fefa4a","ios":"levelo://app?vid=1f099d6e-4c1c-4015-be50-c95c60fefa4a"},"vehicle_type_id":"4","last_reported":1713550146,"current_range_meters":0,"station_id":"","pricing_plan_id":"cebpf4jnsgd1na2vs0mg"},{"bike_id":"f9d2515f-1127-4afb-8cdf-58c6b29198b3","system_id":"levelo_inurba_marseille","lat":43.301939,"lon":5.366286,"is_reserved":false,"is_disabled":false,"rental_uris":{"android":"levelo://app?vid=f9d2515f-1127-4afb-8cdf-58c6b29198b3","ios":"levelo://app?vid=f9d2515f-1127-4afb-8cdf-58c6b29198b3"},"vehicle_type_id":"4","last_reported":1713550146,"current_range_meters":1200,"station_id":"ce4bgrh2rcd13ifvqc8g","pricing_plan_id":"cebpf4jnsgd1na2vs0mg"},{"bike_id":"37137163-7454-422f-9fe9-8c44dd3850a2","system_id":"levelo_inurba_marseille","lat":43.308012,"lon":5.381511,"is_reserved":false,"is_disabled":false,"rental_uris":{"android":"levelo://app?vid=37137163-7454-422f-9fe9-8c44dd3850a2","ios":"levelo://app?vid=37137163-7454-422f-9fe9-8c44dd3850a2"},"vehicle_type_id":"4","last_reported":1713550146,"current_range_meters":9600,"station_id":"ce4bgt12rcd13ifvqce0","pricing_plan_id":"cebpf4jnsgd1na2vs0mg"},{"bike_id":"8e18a965-bd74-4f76-847d-f2c7035752bf","system_id":"levelo_inurba_marseille","lat":43.269319,"lon":5.389397,"is_reserved":false,"is_disabled":false,"rental_uris":{"android":"levelo://app?vid=8e18a965-bd74-4f76-847d-f2c7035752bf","ios":"levelo://app?vid=8e18a965-bd74-4f76-847d-f2c7035752bf"},"vehicle_type_id":"4","last_reported":1713550146,"current_range_meters":12800,"station_id":"ce4bhhh2rcd13ifvqfl0","pricing_plan_id":"cebpf4jnsgd1na2vs0mg"},{"bike_id":"a6500d02-51db-44f0-91f0-2c0ec5299a58","system_id":"levelo_inurba_marseille","lat":43.308012,"lon":5.381511,"is_reserved":false,"is_disabled":false,"rental_uris":{"android":"levelo://app?vid=a6500d02-51db-44f0-91f0-2c0ec5299a58","ios":"levelo://app?vid=a6500d02-51db-44f0-91f0-2c0ec5299a58"},"vehicle_type_id":"4","last_reported":1713550146,"current_range_meters":6800,"station_id":"ce4bgt12rcd13ifvqce0","pricing_plan_id":"cebpf4jnsgd1na2vs0mg"},{"bike_id":"21e57366-8a3b-405d-98d7-578bca7977a0","system_id":"levelo_inurba_marseille","lat":43.295713,"lon":5.399639,"is_reserved":false,"is_disabled":false,"rental_uris":{"android":"levelo://app?vid=21e57366-8a3b-405d-98d7-578bca7977a0","ios":"levelo://app?vid=21e57366-8a3b-405d-98d7-578bca7977a0"},"vehicle_type_id":"4","last_reported":1713550146,"current_range_meters":10000,"station_id":"ce4bh312rcd13ifvqdj0","pricing_plan_id":"cebpf4jnsgd1na2vs0mg"},{"bike_id":"0ba8f403-2f3b-47c3-af0a-1e85cba3f9f7","system_id":"levelo_inurba_marseille","lat":43.308012,"lon":5.381511,"is_reserved":false,"is_disabled":false,"rental_uris":{"android":"levelo://app?vid=0ba8f403-2f3b-47c3-af0a-1e85cba3f9f7","ios":"levelo://app?vid=0ba8f403-2f3b-47c3-af0a-1e85cba3f9f7"},"vehicle_type_id":"4","last_reported":1713550146,"current_range_meters":4000,"station_id":"ce4bgt12rcd13ifvqce0","pricing_plan_id":"cebpf4jnsgd1na2vs0mg"},{"bike_id":"ed53c4d1-6d4c-4165-9728-031c4a79f2db","system_id":"levelo_inurba_marseille","lat":43.308012,"lon":5.381511,"is_reserved":false,"is_disabled":false,"rental_uris":{"android":"levelo://app?vid=ed53c4d1-6d4c-4165-9728-031c4a79f2db","ios":"levelo://app?vid=ed53c4d1-6d4c-4165-9728-031c4a79f2db"},"vehicle_type_id":"4","last_reported":1713550146,"current_range_meters":400,"station_id":"ce4bgt12rcd13ifvqce0","pricing_plan_id":"cebpf4jnsgd1na2vs0mg"},{"bike_id":"529c5219-4f67-4b3e-9d63-c17e8628c7ac","system_id":"levelo_inurba_marseille","lat":43.28727,"lon":5.36078,"is_reserved":false,"is_disabled":false,"rental_uris":{"android":"levelo://app?vid=529c5219-4f67-4b3e-9d63-c17e8628c7ac","ios":"levelo://app?vid=529c5219-4f67-4b3e-9d63-c17e8628c7ac"},"vehicle_type_id":"4","last_reported":1713550146,"current_range_meters":0,"station_id":"cki0cbj6b192h4jlfktg","pricing_plan_id":"cebpf4jnsgd1na2vs0mg"},{"bike_id":"c7ac8c77-c2cc-4194-ac7f-5bd14200e607","system_id":"levelo_inurba_marseille","lat":43.304606,"lon":5.379026,"is_reserved":false,"is_disabled":false,"rental_uris":{"android":"levelo://app?vid=c7ac8c77-c2cc-4194-ac7f-5bd14200e607","ios":"levelo://app?vid=c7ac8c77-c2cc-4194-ac7f-5bd14200e607"},"vehicle_type_id":"4","last_reported":1713550146,"current_range_meters":11600,"station_id":"ce4bgup2rcd13ifvqcn0","pricing_plan_id":"cebpf4jnsgd1na2vs0mg"},{"bike_id":"61c5437a-1cc9-43cc-b477-2bf7d026c8f7","system_id":"levelo_inurba_marseille","lat":43.312239,"lon":5.368562,"is_reserved":false,"is_disabled":false,"rental_uris":{"android":"levelo://app?vid=61c5437a-1cc9-43cc-b477-2bf7d026c8f7","ios":"levelo://app?vid=61c5437a-1cc9-43cc-b477-2bf7d026c8f7"},"vehicle_type_id":"4","last_reported":1713550146,"current_range_meters":11600,"station_id":"ce4bgl92rcd13ifvqbq0","pricing_plan_id":"cebpf4jnsgd1na2vs0mg"},{"bike_id":"01ff4d6e-a902-4220-8355-bfd608d1d760","system_id":"levelo_inurba_marseille","lat":43.324771,"lon":5.36557,"is_reserved":false,"is_disabled":false,"rental_uris":{"android":"levelo://app?vid=01ff4d6e-a902-4220-8355-bfd608d1d760","ios":"levelo://app?vid=01ff4d6e-a902-4220-8355-bfd608d1d760"},"vehicle_type_id":"4","last_reported":1713550146,"current_range_meters":19200,"station_id":"ce4bhs12rcd13ifvqhvg","pricing_plan_id":"cebpf4jnsgd1na2vs0mg"},{"bike_id":"e4e0753e-4b94-4857-9924-ddedf1c13729","system_id":"levelo_inurba_marseille","lat":43.324771,"lon":5.36557,"is_reserved":false,"is_disabled":false,"rental_uris":{"android":"levelo://app?vid=e4e0753e-4b94-4857-9924-ddedf1c13729","ios":"levelo://app?vid=e4e0753e-4b94-4857-9924-ddedf1c13729"},"vehicle_type_id":"4","last_reported":1713550146,"current_range_meters":0,"station_id":"ce4bhs12rcd13ifvqhvg","pricing_plan_id":"cebpf4jnsgd1na2vs0mg"},{"bike_id":"bd6fabbf-2ead-43a8-a6f7-0dbf8305d3f1","system_id":"levelo_inurba_marseille","lat":43.3249,"lon":5.36565,"is_reserved":false,"is_disabled":false,"rental_uris":{"android":"levelo://app?vid=bd6fabbf-2ead-43a8-a6f7-0dbf8305d3f1","ios":"levelo://app?vid=bd6fabbf-2ead-43a8-a6f7-0dbf8305d3f1"},"vehicle_type_id":"4","last_reported":1713550146,"current_range_meters":11600,"station_id":"","pricing_plan_id":"cebpf4jnsgd1na2vs0mg"},{"bike_id":"11af8a7d-70d9-4b46-ba83-670e27833eed","system_id":"levelo_inurba_marseille","lat":43.324771,"lon":5.36557,"is_reserved":false,"is_disabled":false,"rental_uris":{"android":"levelo://app?vid=11af8a7d-70d9-4b46-ba83-670e27833eed","ios":"levelo://app?vid=11af8a7d-70d9-4b46-ba83-670e27833eed"},"vehicle_type_id":"4","last_reported":1713550146,"current_range_meters":7200,"station_id":"ce4bhs12rcd13ifvqhvg","pricing_plan_id":"cebpf4jnsgd1na2vs0mg"},{"bike_id":"edf7cec4-cdf7-4979-8df8-da5fe8d8f1f9","system_id":"levelo_inurba_marseille","lat":43.310804,"lon":5.38359,"is_reserved":false,"is_disabled":false,"rental_uris":{"android":"levelo://app?vid=edf7cec4-cdf7-4979-8df8-da5fe8d8f1f9","ios":"levelo://app?vid=edf7cec4-cdf7-4979-8df8-da5fe8d8f1f9"},"vehicle_type_id":"4","last_reported":1713550146,"current_range_meters":9200,"station_id":"ce4bgv92rcd13ifvqcr0","pricing_plan_id":"cebpf4jnsgd1na2vs0mg"},{"bike_id":"ae8d90e5-c1f0-455d-bb09-bb62850801f1","system_id":"levelo_inurba_marseille","lat":43.302784,"lon":5.377158,"is_reserved":false,"is_disabled":false,"rental_uris":{"android":"levelo://app?vid=ae8d90e5-c1f0-455d-bb09-bb62850801f1","ios":"levelo://app?vid=ae8d90e5-c1f0-455d-bb09-bb62850801f1"},"vehicle_type_id":"4","last_reported":1713550146,"current_range_meters":0,"station_id":"ce4bguh2rcd13ifvqcj0","pricing_plan_id":"cebpf4jnsgd1na2vs0mg"},{"bike_id":"794a5fd9-681e-4c60-bd47-d92a3c7cd6c1","system_id":"levelo_inurba_marseille","lat":43.304736,"lon":5.380239,"is_reserved":false,"is_disabled":false,"rental_uris":{"android":"levelo://app?vid=794a5fd9-681e-4c60-bd47-d92a3c7cd6c1","ios":"levelo://app?vid=794a5fd9-681e-4c60-bd47-d92a3c7cd6c1"},"vehicle_type_id":"4","last_reported":1713550146,"current_range_meters":22800,"station_id":"ce4bh2h2rcd13ifvqdh0","pricing_plan_id":"cebpf4jnsgd1na2vs0mg"},{"bike_id":"71cf26d6-2800-48dd-ae6e-8eda1eae26de","system_id":"levelo_inurba_marseille","lat":43.305395,"lon":5.380968,"is_reserved":false,"is_disabled":false,"rental_uris":{"android":"levelo://app?vid=71cf26d6-2800-48dd-ae6e-8eda1eae26de","ios":"levelo://app?vid=71cf26d6-2800-48dd-ae6e-8eda1eae26de"},"vehicle_type_id":"4","last_reported":1713550146,"current_range_meters":20400,"station_id":"","pricing_plan_id":"cebpf4jnsgd1na2vs0mg"},{"bike_id":"d212c281-3522-420a-b06f-b80966290c73","system_id":"levelo_inurba_marseille","lat":43.319935,"lon":5.381699,"is_reserved":false,"is_disabled":false,"rental_uris":{"android":"levelo://app?vid=d212c281-3522-420a-b06f-b80966290c73","ios":"levelo://app?vid=d212c281-3522-420a-b06f-b80966290c73"},"vehicle_type_id":"4","last_reported":1713550146,"current_range_meters":15200,"station_id":"ce4bhr12rcd13ifvqhpg","pricing_plan_id":"cebpf4jnsgd1na2vs0mg"},{"bike_id":"334e3407-4f9b-4b57-a5ef-39033f25d948","system_id":"levelo_inurba_marseille","lat":43.319935,"lon":5.381699,"is_reserved":false,"is_disabled":false,"rental_uris":{"android":"levelo://app?vid=334e3407-4f9b-4b57-a5ef-39033f25d948","ios":"levelo://app?vid=334e3407-4f9b-4b57-a5ef-39033f25d948"},"vehicle_type_id":"4","last_reported":1713550146,"current_range_meters":11600,"station_id":"ce4bhr12rcd13ifvqhpg","pricing_plan_id":"cebpf4jnsgd1na2vs0mg"},{"bike_id":"30d617ff-4f74-4992-b3e5-455e6c9e9129","system_id":"levelo_inurba_marseille","lat":43.319935,"lon":5.381699,"is_reserved":false,"is_disabled":false,"rental_uris":{"android":"levelo://app?vid=30d617ff-4f74-4992-b3e5-455e6c9e9129","ios":"levelo://app?vid=30d617ff-4f74-4992-b3e5-455e6c9e9129"},"vehicle_type_id":"4","last_reported":1713550146,"current_range_meters":25200,"station_id":"ce4bhr12rcd13ifvqhpg","pricing_plan_id":"cebpf4jnsgd1na2vs0mg"},{"bike_id":"db2e7d13-fc40-4b21-9d18-cfbdf938c1e3","system_id":"levelo_inurba_marseille","lat":43.313571,"lon":5.384829,"is_reserved":false,"is_disabled":false,"rental_uris":{"android":"levelo://app?vid=db2e7d13-fc40-4b21-9d18-cfbdf938c1e3","ios":"levelo://app?vid=db2e7d13-fc40-4b21-9d18-cfbdf938c1e3"},"vehicle_type_id":"4","last_reported":1713550146,"current_range_meters":2000,"station_id":"ce4bgt92rcd13ifvqcf0","pricing_plan_id":"cebpf4jnsgd1na2vs0mg"},{"bike_id":"e91a43f2-fd5b-4c11-aea8-faeea8359a23","system_id":"levelo_inurba_marseille","lat":43.299222,"lon":5.365554,"is_reserved":false,"is_disabled":false,"rental_uris":{"android":"levelo://app?vid=e91a43f2-fd5b-4c11-aea8-faeea8359a23","ios":"levelo://app?vid=e91a43f2-fd5b-4c11-aea8-faeea8359a23"},"vehicle_type_id":"4","last_reported":1713550146,"current_range_meters":0,"station_id":"ce4bgm92rcd13ifvqbr0","pricing_plan_id":"cebpf4jnsgd1na2vs0mg"},{"bike_id":"f09b8feb-d3c5-42f3-904d-b9265a503a6b","system_id":"levelo_inurba_marseille","lat":43.299724,"lon":5.371829,"is_reserved":false,"is_disabled":false,"rental_uris":{"android":"levelo://app?vid=f09b8feb-d3c5-42f3-904d-b9265a503a6b","ios":"levelo://app?vid=f09b8feb-d3c5-42f3-904d-b9265a503a6b"},"vehicle_type_id":"4","last_reported":1713550146,"current_range_meters":0,"station_id":"ce4bgr92rcd13ifvqc7g","pricing_plan_id":"cebpf4jnsgd1na2vs0mg"},{"bike_id":"30cc2df9-13f0-443e-ad11-8d7ad7b53b7e","system_id":"levelo_inurba_marseille","lat":43.299724,"lon":5.371829,"is_reserved":false,"is_disabled":false,"rental_uris":{"android":"levelo://app?vid=30cc2df9-13f0-443e-ad11-8d7ad7b53b7e","ios":"levelo://app?vid=30cc2df9-13f0-443e-ad11-8d7ad7b53b7e"},"vehicle_type_id":"4","last_reported":1713550146,"current_range_meters":6400,"station_id":"ce4bgr92rcd13ifvqc7g","pricing_plan_id":"cebpf4jnsgd1na2vs0mg"},{"bike_id":"acfff987-164f-48fd-9a56-0ea0d9c73ce0","system_id":"levelo_inurba_marseille","lat":43.299401,"lon":5.365491,"is_reserved":false,"is_disabled":false,"rental_uris":{"android":"levelo://app?vid=acfff987-164f-48fd-9a56-0ea0d9c73ce0","ios":"levelo://app?vid=acfff987-164f-48fd-9a56-0ea0d9c73ce0"},"vehicle_type_id":"4","last_reported":1713550146,"current_range_meters":7600,"station_id":"ce4bgm92rcd13ifvqbr0","pricing_plan_id":"cebpf4jnsgd1na2vs0mg"},{"bike_id":"3ffa4cf4-094f-4073-ad39-e0d82ee43212","system_id":"levelo_inurba_marseille","lat":43.299354,"lon":5.365528,"is_reserved":false,"is_disabled":false,"rental_uris":{"android":"levelo://app?vid=3ffa4cf4-094f-4073-ad39-e0d82ee43212","ios":"levelo://app?vid=3ffa4cf4-094f-4073-ad39-e0d82ee43212"},"vehicle_type_id":"4","last_reported":1713550146,"current_range_meters":0,"station_id":"ce4bgm92rcd13ifvqbr0","pricing_plan_id":"cebpf4jnsgd1na2vs0mg"},{"bike_id":"66b1d201-0132-4bbd-926d-3e7b41da9a8e","system_id":"levelo_inurba_marseille","lat":43.29934,"lon":5.365425,"is_reserved":false,"is_disabled":false,"rental_uris":{"android":"levelo://app?vid=66b1d201-0132-4bbd-926d-3e7b41da9a8e","ios":"levelo://app?vid=66b1d201-0132-4bbd-926d-3e7b41da9a8e"},"vehicle_type_id":"4","last_reported":1713550146,"current_range_meters":0,"station_id":"ce4bgm92rcd13ifvqbr0","pricing_plan_id":"cebpf4jnsgd1na2vs0mg"},{"bike_id":"3a149290-3672-485a-aca3-48d93a3d2262","system_id":"levelo_inurba_marseille","lat":43.299151,"lon":5.36495,"is_reserved":false,"is_disabled":false,"rental_uris":{"android":"levelo://app?vid=3a149290-3672-485a-aca3-48d93a3d2262","ios":"levelo://app?vid=3a149290-3672-485a-aca3-48d93a3d2262"},"vehicle_type_id":"4","last_reported":1713550146,"current_range_meters":2000,"station_id":"ce4bgm92rcd13ifvqbr0","pricing_plan_id":"cebpf4jnsgd1na2vs0mg"},{"bike_id":"c17ca261-c20e-434a-a886-f375c0f6eb0a","system_id":"levelo_inurba_marseille","lat":43.299004,"lon":5.365225,"is_reserved":false,"is_disabled":false,"rental_uris":{"android":"levelo://app?vid=c17ca261-c20e-434a-a886-f375c0f6eb0a","ios":"levelo://app?vid=c17ca261-c20e-434a-a886-f375c0f6eb0a"},"vehicle_type_id":"4","last_reported":1713550146,"current_range_meters":8000,"station_id":"ce4bgm92rcd13ifvqbr0","pricing_plan_id":"cebpf4jnsgd1na2vs0mg"},{"bike_id":"7a92fd18-ad28-432a-a0d4-a9c482aea501","system_id":"levelo_inurba_marseille","lat":43.311722,"lon":5.387247,"is_reserved":false,"is_disabled":false,"rental_uris":{"android":"levelo://app?vid=7a92fd18-ad28-432a-a0d4-a9c482aea501","ios":"levelo://app?vid=7a92fd18-ad28-432a-a0d4-a9c482aea501"},"vehicle_type_id":"4","last_reported":1713550146,"current_range_meters":31200,"station_id":"ce4bgv12rcd13ifvqcp0","pricing_plan_id":"cebpf4jnsgd1na2vs0mg"},{"bike_id":"fe757425-f7fc-47cd-a383-8759f854cc74","system_id":"levelo_inurba_marseille","lat":43.299243,"lon":5.37481,"is_reserved":false,"is_disabled":false,"rental_uris":{"android":"levelo://app?vid=fe757425-f7fc-47cd-a383-8759f854cc74","ios":"levelo://app?vid=fe757425-f7fc-47cd-a383-8759f854cc74"},"vehicle_type_id":"4","last_reported":1713550146,"current_range_meters":9200,"station_id":"ce4bgjh2rcd13ifvqbg0","pricing_plan_id":"cebpf4jnsgd1na2vs0mg"},{"bike_id":"2d4b4bf0-d3ef-4062-99a7-0d90c153abc3","system_id":"levelo_inurba_marseille","lat":43.311722,"lon":5.387247,"is_reserved":false,"is_disabled":false,"rental_uris":{"android":"levelo://app?vid=2d4b4bf0-d3ef-4062-99a7-0d90c153abc3","ios":"levelo://app?vid=2d4b4bf0-d3ef-4062-99a7-0d90c153abc3"},"vehicle_type_id":"4","last_reported":1713550146,"current_range_meters":14400,"station_id":"ce4bgv12rcd13ifvqcp0","pricing_plan_id":"cebpf4jnsgd1na2vs0mg"},{"bike_id":"fbe642a1-4eb2-4cdf-ba5a-b0a4f52e444d","system_id":"levelo_inurba_marseille","lat":43.298433,"lon":5.362774,"is_reserved":false,"is_disabled":false,"rental_uris":{"android":"levelo://app?vid=fbe642a1-4eb2-4cdf-ba5a-b0a4f52e444d","ios":"levelo://app?vid=fbe642a1-4eb2-4cdf-ba5a-b0a4f52e444d"},"vehicle_type_id":"4","last_reported":1713550146,"current_range_meters":2000,"station_id":"ce4bgpp2rcd13ifvqc3g","pricing_plan_id":"cebpf4jnsgd1na2vs0mg"},{"bike_id":"ac2c8c14-ef50-4ec2-b899-e078148bb8b0","system_id":"levelo_inurba_marseille","lat":43.322872,"lon":5.382756,"is_reserved":false,"is_disabled":false,"rental_uris":{"android":"levelo://app?vid=ac2c8c14-ef50-4ec2-b899-e078148bb8b0","ios":"levelo://app?vid=ac2c8c14-ef50-4ec2-b899-e078148bb8b0"},"vehicle_type_id":"4","last_reported":1713550146,"current_range_meters":19200,"station_id":"ce4bhr12rcd13ifvqhqg","pricing_plan_id":"cebpf4jnsgd1na2vs0mg"},{"bike_id":"610b5e47-1334-46df-ba0c-10e91d37b91a","system_id":"levelo_inurba_marseille","lat":43.297794,"lon":5.370888,"is_reserved":false,"is_disabled":false,"rental_uris":{"android":"levelo://app?vid=610b5e47-1334-46df-ba0c-10e91d37b91a","ios":"levelo://app?vid=610b5e47-1334-46df-ba0c-10e91d37b91a"},"vehicle_type_id":"4","last_reported":1713550146,"current_range_meters":23600,"station_id":"ce4bgop2rcd13ifvqc1g","pricing_plan_id":"cebpf4jnsgd1na2vs0mg"},{"bike_id":"558e61da-a29d-4a28-a27f-1f94d3d424b3","system_id":"levelo_inurba_marseille","lat":43.322872,"lon":5.382756,"is_reserved":false,"is_disabled":false,"rental_uris":{"android":"levelo://app?vid=558e61da-a29d-4a28-a27f-1f94d3d424b3","ios":"levelo://app?vid=558e61da-a29d-4a28-a27f-1f94d3d424b3"},"vehicle_type_id":"4","last_reported":1713550146,"current_range_meters":9200,"station_id":"ce4bhr12rcd13ifvqhqg","pricing_plan_id":"cebpf4jnsgd1na2vs0mg"},{"bike_id":"d37c1300-16b8-430c-97e7-be7153b1d766","system_id":"levelo_inurba_marseille","lat":43.322872,"lon":5.382756,"is_reserved":false,"is_disabled":false,"rental_uris":{"android":"levelo://app?vid=d37c1300-16b8-430c-97e7-be7153b1d766","ios":"levelo://app?vid=d37c1300-16b8-430c-97e7-be7153b1d766"},"vehicle_type_id":"4","last_reported":1713550146,"current_range_meters":0,"station_id":"ce4bhr12rcd13ifvqhqg","pricing_plan_id":"cebpf4jnsgd1na2vs0mg"},{"bike_id":"59c296c1-c1af-4a71-9e20-fa9c7f8757f9","system_id":"levelo_inurba_marseille","lat":43.322872,"lon":5.382756,"is_reserved":false,"is_disabled":false,"rental_uris":{"android":"levelo://app?vid=59c296c1-c1af-4a71-9e20-fa9c7f8757f9","ios":"levelo://app?vid=59c296c1-c1af-4a71-9e20-fa9c7f8757f9"},"vehicle_type_id":"4","last_reported":1713550146,"current_range_meters":31600,"station_id":"ce4bhr12rcd13ifvqhqg","pricing_plan_id":"cebpf4jnsgd1na2vs0mg"},{"bike_id":"b1c9170a-6a31-47d1-8e62-5b624c342910","system_id":"levelo_inurba_marseille","lat":43.322872,"lon":5.382756,"is_reserved":false,"is_disabled":false,"rental_uris":{"android":"levelo://app?vid=b1c9170a-6a31-47d1-8e62-5b624c342910","ios":"levelo://app?vid=b1c9170a-6a31-47d1-8e62-5b624c342910"},"vehicle_type_id":"4","last_reported":1713550146,"current_range_meters":13200,"station_id":"ce4bhr12rcd13ifvqhqg","pricing_plan_id":"cebpf4jnsgd1na2vs0mg"},{"bike_id":"6a9bcf40-c5f9-44a4-a58e-664576d7b299","system_id":"levelo_inurba_marseille","lat":43.322872,"lon":5.382756,"is_reserved":false,"is_disabled":false,"rental_uris":{"android":"levelo://app?vid=6a9bcf40-c5f9-44a4-a58e-664576d7b299","ios":"levelo://app?vid=6a9bcf40-c5f9-44a4-a58e-664576d7b299"},"vehicle_type_id":"4","last_reported":1713550146,"current_range_meters":20400,"station_id":"ce4bhr12rcd13ifvqhqg","pricing_plan_id":"cebpf4jnsgd1na2vs0mg"},{"bike_id":"aa38acc2-91cb-407c-ac8c-05b08cc96e3e","system_id":"levelo_inurba_marseille","lat":43.322872,"lon":5.382756,"is_reserved":false,"is_disabled":false,"rental_uris":{"android":"levelo://app?vid=aa38acc2-91cb-407c-ac8c-05b08cc96e3e","ios":"levelo://app?vid=aa38acc2-91cb-407c-ac8c-05b08cc96e3e"},"vehicle_type_id":"4","last_reported":1713550146,"current_range_meters":31600,"station_id":"ce4bhr12rcd13ifvqhqg","pricing_plan_id":"cebpf4jnsgd1na2vs0mg"},{"bike_id":"f02710d2-1fee-4866-a021-12fd915ee40b","system_id":"levelo_inurba_marseille","lat":43.322872,"lon":5.382756,"is_reserved":false,"is_disabled":false,"rental_uris":{"android":"levelo://app?vid=f02710d2-1fee-4866-a021-12fd915ee40b","ios":"levelo://app?vid=f02710d2-1fee-4866-a021-12fd915ee40b"},"vehicle_type_id":"4","last_reported":1713550146,"current_range_meters":12400,"station_id":"ce4bhr12rcd13ifvqhqg","pricing_plan_id":"cebpf4jnsgd1na2vs0mg"},{"bike_id":"e5df68f6-b1ff-4d0a-b7e9-c02ca9b8210e","system_id":"levelo_inurba_marseille","lat":43.322872,"lon":5.382756,"is_reserved":false,"is_disabled":false,"rental_uris":{"android":"levelo://app?vid=e5df68f6-b1ff-4d0a-b7e9-c02ca9b8210e","ios":"levelo://app?vid=e5df68f6-b1ff-4d0a-b7e9-c02ca9b8210e"},"vehicle_type_id":"4","last_reported":1713550146,"current_range_meters":31600,"station_id":"ce4bhr12rcd13ifvqhqg","pricing_plan_id":"cebpf4jnsgd1na2vs0mg"},{"bike_id":"76931112-13b2-4ce1-aed6-6fa548f70599","system_id":"levelo_inurba_marseille","lat":43.322872,"lon":5.382756,"is_reserved":false,"is_disabled":false,"rental_uris":{"android":"levelo://app?vid=76931112-13b2-4ce1-aed6-6fa548f70599","ios":"levelo://app?vid=76931112-13b2-4ce1-aed6-6fa548f70599"},"vehicle_type_id":"4","last_reported":1713550146,"current_range_meters":30400,"station_id":"ce4bhr12rcd13ifvqhqg","pricing_plan_id":"cebpf4jnsgd1na2vs0mg"},{"bike_id":"a4e08546-6278-4fec-a3f5-ea17e1bddef5","system_id":"levelo_inurba_marseille","lat":43.322872,"lon":5.382756,"is_reserved":false,"is_disabled":false,"rental_uris":{"android":"levelo://app?vid=a4e08546-6278-4fec-a3f5-ea17e1bddef5","ios":"levelo://app?vid=a4e08546-6278-4fec-a3f5-ea17e1bddef5"},"vehicle_type_id":"4","last_reported":1713550146,"current_range_meters":12400,"station_id":"ce4bhr12rcd13ifvqhqg","pricing_plan_id":"cebpf4jnsgd1na2vs0mg"},{"bike_id":"c1c913df-b844-406e-83f7-dff5f43f7dc5","system_id":"levelo_inurba_marseille","lat":43.322872,"lon":5.382756,"is_reserved":false,"is_disabled":false,"rental_uris":{"android":"levelo://app?vid=c1c913df-b844-406e-83f7-dff5f43f7dc5","ios":"levelo://app?vid=c1c913df-b844-406e-83f7-dff5f43f7dc5"},"vehicle_type_id":"4","last_reported":1713550146,"current_range_meters":31600,"station_id":"ce4bhr12rcd13ifvqhqg","pricing_plan_id":"cebpf4jnsgd1na2vs0mg"},{"bike_id":"3a777aae-0d2a-4638-8c09-6f1de81534e0","system_id":"levelo_inurba_marseille","lat":43.322872,"lon":5.382756,"is_reserved":false,"is_disabled":false,"rental_uris":{"android":"levelo://app?vid=3a777aae-0d2a-4638-8c09-6f1de81534e0","ios":"levelo://app?vid=3a777aae-0d2a-4638-8c09-6f1de81534e0"},"vehicle_type_id":"4","last_reported":1713550146,"current_range_meters":28800,"station_id":"ce4bhr12rcd13ifvqhqg","pricing_plan_id":"cebpf4jnsgd1na2vs0mg"},{"bike_id":"f09f3bb9-3c8c-476e-9422-aa3ada46680c","system_id":"levelo_inurba_marseille","lat":43.322872,"lon":5.382756,"is_reserved":false,"is_disabled":false,"rental_uris":{"android":"levelo://app?vid=f09f3bb9-3c8c-476e-9422-aa3ada46680c","ios":"levelo://app?vid=f09f3bb9-3c8c-476e-9422-aa3ada46680c"},"vehicle_type_id":"4","last_reported":1713550146,"current_range_meters":21200,"station_id":"ce4bhr12rcd13ifvqhqg","pricing_plan_id":"cebpf4jnsgd1na2vs0mg"},{"bike_id":"5e820a17-40c8-4478-8799-b2d627fde6e7","system_id":"levelo_inurba_marseille","lat":43.297163,"lon":5.365866,"is_reserved":false,"is_disabled":false,"rental_uris":{"android":"levelo://app?vid=5e820a17-40c8-4478-8799-b2d627fde6e7","ios":"levelo://app?vid=5e820a17-40c8-4478-8799-b2d627fde6e7"},"vehicle_type_id":"4","last_reported":1713550146,"current_range_meters":6000,"station_id":"ce4bgn12rcd13ifvqbt0","pricing_plan_id":"cebpf4jnsgd1na2vs0mg"},{"bike_id":"9adb2a75-ea30-4eec-beff-4a9cb5790920","system_id":"levelo_inurba_marseille","lat":43.297163,"lon":5.365866,"is_reserved":false,"is_disabled":false,"rental_uris":{"android":"levelo://app?vid=9adb2a75-ea30-4eec-beff-4a9cb5790920","ios":"levelo://app?vid=9adb2a75-ea30-4eec-beff-4a9cb5790920"},"vehicle_type_id":"4","last_reported":1713550146,"current_range_meters":0,"station_id":"ce4bgn12rcd13ifvqbt0","pricing_plan_id":"cebpf4jnsgd1na2vs0mg"},{"bike_id":"67276cd1-ad44-4d61-a0de-d1757cd868b6","system_id":"levelo_inurba_marseille","lat":43.297163,"lon":5.365866,"is_reserved":false,"is_disabled":false,"rental_uris":{"android":"levelo://app?vid=67276cd1-ad44-4d61-a0de-d1757cd868b6","ios":"levelo://app?vid=67276cd1-ad44-4d61-a0de-d1757cd868b6"},"vehicle_type_id":"4","last_reported":1713550146,"current_range_meters":25600,"station_id":"ce4bgn12rcd13ifvqbt0","pricing_plan_id":"cebpf4jnsgd1na2vs0mg"},{"bike_id":"e7b62b77-fb3e-45f8-8431-778ad0e133ec","system_id":"levelo_inurba_marseille","lat":43.29679,"lon":5.3682,"is_reserved":false,"is_disabled":false,"rental_uris":{"android":"levelo://app?vid=e7b62b77-fb3e-45f8-8431-778ad0e133ec","ios":"levelo://app?vid=e7b62b77-fb3e-45f8-8431-778ad0e133ec"},"vehicle_type_id":"4","last_reported":1713550146,"current_range_meters":2800,"station_id":"","pricing_plan_id":"cebpf4jnsgd1na2vs0mg"},{"bike_id":"dd78c400-fb45-4c45-a19e-f622d565b65b","system_id":"levelo_inurba_marseille","lat":43.312239,"lon":5.368562,"is_reserved":false,"is_disabled":false,"rental_uris":{"android":"levelo://app?vid=dd78c400-fb45-4c45-a19e-f622d565b65b","ios":"levelo://app?vid=dd78c400-fb45-4c45-a19e-f622d565b65b"},"vehicle_type_id":"4","last_reported":1713550146,"current_range_meters":16800,"station_id":"ce4bgl92rcd13ifvqbq0","pricing_plan_id":"cebpf4jnsgd1na2vs0mg"},{"bike_id":"0a066aac-79db-4b18-b013-62323f054bed","system_id":"levelo_inurba_marseille","lat":43.296129,"lon":5.370777,"is_reserved":false,"is_disabled":false,"rental_uris":{"android":"levelo://app?vid=0a066aac-79db-4b18-b013-62323f054bed","ios":"levelo://app?vid=0a066aac-79db-4b18-b013-62323f054bed"},"vehicle_type_id":"4","last_reported":1713550146,"current_range_meters":400,"station_id":"ce4bgnh2rcd13ifvqc0g","pricing_plan_id":"cebpf4jnsgd1na2vs0mg"},{"bike_id":"ec81e8a3-c993-4fec-83e3-b4d8ae98651b","system_id":"levelo_inurba_marseille","lat":43.29731,"lon":5.37686,"is_reserved":false,"is_disabled":false,"rental_uris":{"android":"levelo://app?vid=ec81e8a3-c993-4fec-83e3-b4d8ae98651b","ios":"levelo://app?vid=ec81e8a3-c993-4fec-83e3-b4d8ae98651b"},"vehicle_type_id":"4","last_reported":1713550146,"current_range_meters":0,"station_id":"ce4bgkh2rcd13ifvqbl0","pricing_plan_id":"cebpf4jnsgd1na2vs0mg"},{"bike_id":"fc0a4964-2b09-49b9-9dba-fdbe43fe31e8","system_id":"levelo_inurba_marseille","lat":43.3213,"lon":5.38726,"is_reserved":false,"is_disabled":false,"rental_uris":{"android":"levelo://app?vid=fc0a4964-2b09-49b9-9dba-fdbe43fe31e8","ios":"levelo://app?vid=fc0a4964-2b09-49b9-9dba-fdbe43fe31e8"},"vehicle_type_id":"4","last_reported":1713550146,"current_range_meters":31200,"station_id":"","pricing_plan_id":"cebpf4jnsgd1na2vs0mg"},{"bike_id":"4c7e1cac-9f40-4304-b5f7-a28308ddce6e","system_id":"levelo_inurba_marseille","lat":43.30959,"lon":5.390318,"is_reserved":false,"is_disabled":false,"rental_uris":{"android":"levelo://app?vid=4c7e1cac-9f40-4304-b5f7-a28308ddce6e","ios":"levelo://app?vid=4c7e1cac-9f40-4304-b5f7-a28308ddce6e"},"vehicle_type_id":"4","last_reported":1713550146,"current_range_meters":0,"station_id":"ce4bgup2rcd13ifvqco0","pricing_plan_id":"cebpf4jnsgd1na2vs0mg"},{"bike_id":"b087db9d-ecee-4e15-b5f8-fbd532b03835","system_id":"levelo_inurba_marseille","lat":43.296935,"lon":5.376544,"is_reserved":false,"is_disabled":false,"rental_uris":{"android":"levelo://app?vid=b087db9d-ecee-4e15-b5f8-fbd532b03835","ios":"levelo://app?vid=b087db9d-ecee-4e15-b5f8-fbd532b03835"},"vehicle_type_id":"4","last_reported":1713550146,"current_range_meters":9600,"station_id":"ce4bgkh2rcd13ifvqbl0","pricing_plan_id":"cebpf4jnsgd1na2vs0mg"},{"bike_id":"fff89591-8505-4de4-a355-42e708fede60","system_id":"levelo_inurba_marseille","lat":43.309589,"lon":5.390258,"is_reserved":false,"is_disabled":false,"rental_uris":{"android":"levelo://app?vid=fff89591-8505-4de4-a355-42e708fede60","ios":"levelo://app?vid=fff89591-8505-4de4-a355-42e708fede60"},"vehicle_type_id":"4","last_reported":1713550146,"current_range_meters":4800,"station_id":"ce4bgup2rcd13ifvqco0","pricing_plan_id":"cebpf4jnsgd1na2vs0mg"},{"bike_id":"530c74cc-8fd7-4d19-ba18-099a6ad1f4db","system_id":"levelo_inurba_marseille","lat":43.30951,"lon":5.39041,"is_reserved":false,"is_disabled":false,"rental_uris":{"android":"levelo://app?vid=530c74cc-8fd7-4d19-ba18-099a6ad1f4db","ios":"levelo://app?vid=530c74cc-8fd7-4d19-ba18-099a6ad1f4db"},"vehicle_type_id":"4","last_reported":1713550146,"current_range_meters":0,"station_id":"ce4bgup2rcd13ifvqco0","pricing_plan_id":"cebpf4jnsgd1na2vs0mg"},{"bike_id":"c1737f14-581c-4dde-8fe3-87a16483ad77","system_id":"levelo_inurba_marseille","lat":43.317557,"lon":5.390173,"is_reserved":false,"is_disabled":false,"rental_uris":{"android":"levelo://app?vid=c1737f14-581c-4dde-8fe3-87a16483ad77","ios":"levelo://app?vid=c1737f14-581c-4dde-8fe3-87a16483ad77"},"vehicle_type_id":"4","last_reported":1713550146,"current_range_meters":18000,"station_id":"ce4bhqp2rcd13ifvqhng","pricing_plan_id":"cebpf4jnsgd1na2vs0mg"},{"bike_id":"2ab48669-e241-4b6d-9fb3-2db434ab2118","system_id":"levelo_inurba_marseille","lat":43.317557,"lon":5.390173,"is_reserved":false,"is_disabled":false,"rental_uris":{"android":"levelo://app?vid=2ab48669-e241-4b6d-9fb3-2db434ab2118","ios":"levelo://app?vid=2ab48669-e241-4b6d-9fb3-2db434ab2118"},"vehicle_type_id":"4","last_reported":1713550146,"current_range_meters":1600,"station_id":"ce4bhqp2rcd13ifvqhng","pricing_plan_id":"cebpf4jnsgd1na2vs0mg"},{"bike_id":"7e2c24b3-2300-4592-8529-a46db9a1bbdd","system_id":"levelo_inurba_marseille","lat":43.317557,"lon":5.390173,"is_reserved":false,"is_disabled":false,"rental_uris":{"android":"levelo://app?vid=7e2c24b3-2300-4592-8529-a46db9a1bbdd","ios":"levelo://app?vid=7e2c24b3-2300-4592-8529-a46db9a1bbdd"},"vehicle_type_id":"4","last_reported":1713550146,"current_range_meters":12800,"station_id":"ce4bhqp2rcd13ifvqhng","pricing_plan_id":"cebpf4jnsgd1na2vs0mg"},{"bike_id":"3049929b-f63d-4610-b205-8a1d00486e13","system_id":"levelo_inurba_marseille","lat":43.296037,"lon":5.374923,"is_reserved":false,"is_disabled":false,"rental_uris":{"android":"levelo://app?vid=3049929b-f63d-4610-b205-8a1d00486e13","ios":"levelo://app?vid=3049929b-f63d-4610-b205-8a1d00486e13"},"vehicle_type_id":"4","last_reported":1713550146,"current_range_meters":0,"station_id":"ce4bgh92rcd13ifvqb50","pricing_plan_id":"cebpf4jnsgd1na2vs0mg"},{"bike_id":"8bfc7f55-8c92-43d7-a921-a3f079e2001c","system_id":"levelo_inurba_marseille","lat":43.298037,"lon":5.381066,"is_reserved":false,"is_disabled":false,"rental_uris":{"android":"levelo://app?vid=8bfc7f55-8c92-43d7-a921-a3f079e2001c","ios":"levelo://app?vid=8bfc7f55-8c92-43d7-a921-a3f079e2001c"},"vehicle_type_id":"4","last_reported":1713550146,"current_range_meters":2000,"station_id":"ce4bgip2rcd13ifvqbb0","pricing_plan_id":"cebpf4jnsgd1na2vs0mg"},{"bike_id":"78c5f987-7485-4774-be75-5e9b8a2d0aca","system_id":"levelo_inurba_marseille","lat":43.295862,"lon":5.375248,"is_reserved":false,"is_disabled":false,"rental_uris":{"android":"levelo://app?vid=78c5f987-7485-4774-be75-5e9b8a2d0aca","ios":"levelo://app?vid=78c5f987-7485-4774-be75-5e9b8a2d0aca"},"vehicle_type_id":"4","last_reported":1713550146,"current_range_meters":0,"station_id":"ce4bgh92rcd13ifvqb50","pricing_plan_id":"cebpf4jnsgd1na2vs0mg"},{"bike_id":"b40d9c9b-b23c-4c76-a5aa-e3d6901bb218","system_id":"levelo_inurba_marseille","lat":43.2958,"lon":5.37524,"is_reserved":false,"is_disabled":false,"rental_uris":{"android":"levelo://app?vid=b40d9c9b-b23c-4c76-a5aa-e3d6901bb218","ios":"levelo://app?vid=b40d9c9b-b23c-4c76-a5aa-e3d6901bb218"},"vehicle_type_id":"4","last_reported":1713550146,"current_range_meters":0,"station_id":"ce4bgh92rcd13ifvqb50","pricing_plan_id":"cebpf4jnsgd1na2vs0mg"},{"bike_id":"aef5fdd1-fcbb-4020-9e04-4de3ade8dfb1","system_id":"levelo_inurba_marseille","lat":43.298037,"lon":5.381066,"is_reserved":false,"is_disabled":false,"rental_uris":{"android":"levelo://app?vid=aef5fdd1-fcbb-4020-9e04-4de3ade8dfb1","ios":"levelo://app?vid=aef5fdd1-fcbb-4020-9e04-4de3ade8dfb1"},"vehicle_type_id":"4","last_reported":1713550146,"current_range_meters":5600,"station_id":"ce4bgip2rcd13ifvqbb0","pricing_plan_id":"cebpf4jnsgd1na2vs0mg"},{"bike_id":"7c064257-d6d1-43a6-8c63-93cd1e1f56a2","system_id":"levelo_inurba_marseille","lat":43.304274,"lon":5.388873,"is_reserved":false,"is_disabled":false,"rental_uris":{"android":"levelo://app?vid=7c064257-d6d1-43a6-8c63-93cd1e1f56a2","ios":"levelo://app?vid=7c064257-d6d1-43a6-8c63-93cd1e1f56a2"},"vehicle_type_id":"4","last_reported":1713550146,"current_range_meters":20800,"station_id":"ce4bgk12rcd13ifvqbi0","pricing_plan_id":"cebpf4jnsgd1na2vs0mg"},{"bike_id":"3b67985e-07e2-4798-9345-ac9935e57c53","system_id":"levelo_inurba_marseille","lat":43.295748,"lon":5.37522,"is_reserved":false,"is_disabled":false,"rental_uris":{"android":"levelo://app?vid=3b67985e-07e2-4798-9345-ac9935e57c53","ios":"levelo://app?vid=3b67985e-07e2-4798-9345-ac9935e57c53"},"vehicle_type_id":"4","last_reported":1713550146,"current_range_meters":17200,"station_id":"ce4bgh92rcd13ifvqb50","pricing_plan_id":"cebpf4jnsgd1na2vs0mg"},{"bike_id":"a4f8f818-72ba-4757-a8f9-dfb228a16be9","system_id":"levelo_inurba_marseille","lat":43.305364,"lon":5.384119,"is_reserved":false,"is_disabled":false,"rental_uris":{"android":"levelo://app?vid=a4f8f818-72ba-4757-a8f9-dfb228a16be9","ios":"levelo://app?vid=a4f8f818-72ba-4757-a8f9-dfb228a16be9"},"vehicle_type_id":"4","last_reported":1713550146,"current_range_meters":30000,"station_id":"ce4bgg92rcd13ifvqb30","pricing_plan_id":"cebpf4jnsgd1na2vs0mg"},{"bike_id":"9031c00b-2374-420a-8d6b-0c441a774f11","system_id":"levelo_inurba_marseille","lat":43.302784,"lon":5.377158,"is_reserved":false,"is_disabled":false,"rental_uris":{"android":"levelo://app?vid=9031c00b-2374-420a-8d6b-0c441a774f11","ios":"levelo://app?vid=9031c00b-2374-420a-8d6b-0c441a774f11"},"vehicle_type_id":"4","last_reported":1713550146,"current_range_meters":11600,"station_id":"ce4bguh2rcd13ifvqcj0","pricing_plan_id":"cebpf4jnsgd1na2vs0mg"},{"bike_id":"b4ce9ed7-ae33-423d-8af4-6f7377d734c9","system_id":"levelo_inurba_marseille","lat":43.304274,"lon":5.388873,"is_reserved":false,"is_disabled":false,"rental_uris":{"android":"levelo://app?vid=b4ce9ed7-ae33-423d-8af4-6f7377d734c9","ios":"levelo://app?vid=b4ce9ed7-ae33-423d-8af4-6f7377d734c9"},"vehicle_type_id":"4","last_reported":1713550146,"current_range_meters":0,"station_id":"ce4bgk12rcd13ifvqbi0","pricing_plan_id":"cebpf4jnsgd1na2vs0mg"},{"bike_id":"46ccb083-2e8c-4658-adf3-86949a7fa964","system_id":"levelo_inurba_marseille","lat":43.304274,"lon":5.388873,"is_reserved":false,"is_disabled":false,"rental_uris":{"android":"levelo://app?vid=46ccb083-2e8c-4658-adf3-86949a7fa964","ios":"levelo://app?vid=46ccb083-2e8c-4658-adf3-86949a7fa964"},"vehicle_type_id":"4","last_reported":1713550146,"current_range_meters":28400,"station_id":"ce4bgk12rcd13ifvqbi0","pricing_plan_id":"cebpf4jnsgd1na2vs0mg"},{"bike_id":"0c1cc7fc-63a3-45b8-ae75-11f01e683e48","system_id":"levelo_inurba_marseille","lat":43.299707,"lon":5.384859,"is_reserved":false,"is_disabled":false,"rental_uris":{"android":"levelo://app?vid=0c1cc7fc-63a3-45b8-ae75-11f01e683e48","ios":"levelo://app?vid=0c1cc7fc-63a3-45b8-ae75-11f01e683e48"},"vehicle_type_id":"4","last_reported":1713550146,"current_range_meters":16000,"station_id":"ce4bgj92rcd13ifvqbd0","pricing_plan_id":"cebpf4jnsgd1na2vs0mg"},{"bike_id":"3ef02c59-dfcb-4354-861c-9c40c4db2244","system_id":"levelo_inurba_marseille","lat":43.2998,"lon":5.38479,"is_reserved":false,"is_disabled":false,"rental_uris":{"android":"levelo://app?vid=3ef02c59-dfcb-4354-861c-9c40c4db2244","ios":"levelo://app?vid=3ef02c59-dfcb-4354-861c-9c40c4db2244"},"vehicle_type_id":"4","last_reported":1713550146,"current_range_meters":0,"station_id":"ce4bgj92rcd13ifvqbd0","pricing_plan_id":"cebpf4jnsgd1na2vs0mg"},{"bike_id":"af1e585c-dc8b-4e58-b380-0239db9b98ea","system_id":"levelo_inurba_marseille","lat":43.299707,"lon":5.384859,"is_reserved":false,"is_disabled":false,"rental_uris":{"android":"levelo://app?vid=af1e585c-dc8b-4e58-b380-0239db9b98ea","ios":"levelo://app?vid=af1e585c-dc8b-4e58-b380-0239db9b98ea"},"vehicle_type_id":"4","last_reported":1713550146,"current_range_meters":1200,"station_id":"ce4bgj92rcd13ifvqbd0","pricing_plan_id":"cebpf4jnsgd1na2vs0mg"},{"bike_id":"52edeea6-3b8f-47ad-bbc3-2747cfcb802a","system_id":"levelo_inurba_marseille","lat":43.29968,"lon":5.38491,"is_reserved":false,"is_disabled":false,"rental_uris":{"android":"levelo://app?vid=52edeea6-3b8f-47ad-bbc3-2747cfcb802a","ios":"levelo://app?vid=52edeea6-3b8f-47ad-bbc3-2747cfcb802a"},"vehicle_type_id":"4","last_reported":1713550146,"current_range_meters":0,"station_id":"ce4bgj92rcd13ifvqbd0","pricing_plan_id":"cebpf4jnsgd1na2vs0mg"},{"bike_id":"7207872c-e3c6-428a-9a41-1bbdbe8575eb","system_id":"levelo_inurba_marseille","lat":43.299717,"lon":5.384845,"is_reserved":false,"is_disabled":false,"rental_uris":{"android":"levelo://app?vid=7207872c-e3c6-428a-9a41-1bbdbe8575eb","ios":"levelo://app?vid=7207872c-e3c6-428a-9a41-1bbdbe8575eb"},"vehicle_type_id":"4","last_reported":1713550146,"current_range_meters":0,"station_id":"ce4bgj92rcd13ifvqbd0","pricing_plan_id":"cebpf4jnsgd1na2vs0mg"},{"bike_id":"8996bda6-8f0e-4ffe-8bee-bdeb9d33079e","system_id":"levelo_inurba_marseille","lat":43.29971,"lon":5.38497,"is_reserved":false,"is_disabled":false,"rental_uris":{"android":"levelo://app?vid=8996bda6-8f0e-4ffe-8bee-bdeb9d33079e","ios":"levelo://app?vid=8996bda6-8f0e-4ffe-8bee-bdeb9d33079e"},"vehicle_type_id":"4","last_reported":1713550146,"current_range_meters":0,"station_id":"ce4bgj92rcd13ifvqbd0","pricing_plan_id":"cebpf4jnsgd1na2vs0mg"},{"bike_id":"02aa6920-cdb7-4729-b249-8fb70cda5311","system_id":"levelo_inurba_marseille","lat":43.299724,"lon":5.384848,"is_reserved":false,"is_disabled":false,"rental_uris":{"android":"levelo://app?vid=02aa6920-cdb7-4729-b249-8fb70cda5311","ios":"levelo://app?vid=02aa6920-cdb7-4729-b249-8fb70cda5311"},"vehicle_type_id":"4","last_reported":1713550146,"current_range_meters":18400,"station_id":"ce4bgj92rcd13ifvqbd0","pricing_plan_id":"cebpf4jnsgd1na2vs0mg"},{"bike_id":"88427bae-bafd-477f-b920-d0d1973131ed","system_id":"levelo_inurba_marseille","lat":43.299717,"lon":5.384845,"is_reserved":false,"is_disabled":false,"rental_uris":{"android":"levelo://app?vid=88427bae-bafd-477f-b920-d0d1973131ed","ios":"levelo://app?vid=88427bae-bafd-477f-b920-d0d1973131ed"},"vehicle_type_id":"4","last_reported":1713550146,"current_range_meters":800,"station_id":"ce4bgj92rcd13ifvqbd0","pricing_plan_id":"cebpf4jnsgd1na2vs0mg"},{"bike_id":"3adede50-d640-413c-a6fd-cfa772f4f42b","system_id":"levelo_inurba_marseille","lat":43.284462,"lon":5.392121,"is_reserved":false,"is_disabled":false,"rental_uris":{"android":"levelo://app?vid=3adede50-d640-413c-a6fd-cfa772f4f42b","ios":"levelo://app?vid=3adede50-d640-413c-a6fd-cfa772f4f42b"},"vehicle_type_id":"4","last_reported":1713550146,"current_range_meters":28000,"station_id":"ce4bhoh2rcd13ifvqh5g","pricing_plan_id":"cebpf4jnsgd1na2vs0mg"},{"bike_id":"846d8289-b09c-483c-8b9f-7098947870ff","system_id":"levelo_inurba_marseille","lat":43.299724,"lon":5.384848,"is_reserved":false,"is_disabled":false,"rental_uris":{"android":"levelo://app?vid=846d8289-b09c-483c-8b9f-7098947870ff","ios":"levelo://app?vid=846d8289-b09c-483c-8b9f-7098947870ff"},"vehicle_type_id":"4","last_reported":1713550146,"current_range_meters":12000,"station_id":"ce4bgj92rcd13ifvqbd0","pricing_plan_id":"cebpf4jnsgd1na2vs0mg"},{"bike_id":"611be311-41be-4195-bfa7-1c221d688d0f","system_id":"levelo_inurba_marseille","lat":43.299724,"lon":5.384848,"is_reserved":false,"is_disabled":false,"rental_uris":{"android":"levelo://app?vid=611be311-41be-4195-bfa7-1c221d688d0f","ios":"levelo://app?vid=611be311-41be-4195-bfa7-1c221d688d0f"},"vehicle_type_id":"4","last_reported":1713550146,"current_range_meters":7600,"station_id":"ce4bgj92rcd13ifvqbd0","pricing_plan_id":"cebpf4jnsgd1na2vs0mg"},{"bike_id":"470eea51-aead-41d2-a69f-d91d26ec2d19","system_id":"levelo_inurba_marseille","lat":43.323672,"lon":5.388785,"is_reserved":false,"is_disabled":false,"rental_uris":{"android":"levelo://app?vid=470eea51-aead-41d2-a69f-d91d26ec2d19","ios":"levelo://app?vid=470eea51-aead-41d2-a69f-d91d26ec2d19"},"vehicle_type_id":"4","last_reported":1713550146,"current_range_meters":25600,"station_id":"","pricing_plan_id":"cebpf4jnsgd1na2vs0mg"},{"bike_id":"10bd876b-372c-48b6-9eea-48946bb81dd8","system_id":"levelo_inurba_marseille","lat":43.32363,"lon":5.38886,"is_reserved":false,"is_disabled":false,"rental_uris":{"android":"levelo://app?vid=10bd876b-372c-48b6-9eea-48946bb81dd8","ios":"levelo://app?vid=10bd876b-372c-48b6-9eea-48946bb81dd8"},"vehicle_type_id":"4","last_reported":1713550146,"current_range_meters":11600,"station_id":"ce4bhqp2rcd13ifvqhog","pricing_plan_id":"cebpf4jnsgd1na2vs0mg"},{"bike_id":"ac96577e-2360-4ce3-bfd6-ed7fe992719e","system_id":"levelo_inurba_marseille","lat":43.284462,"lon":5.392121,"is_reserved":false,"is_disabled":false,"rental_uris":{"android":"levelo://app?vid=ac96577e-2360-4ce3-bfd6-ed7fe992719e","ios":"levelo://app?vid=ac96577e-2360-4ce3-bfd6-ed7fe992719e"},"vehicle_type_id":"4","last_reported":1713550146,"current_range_meters":12800,"station_id":"ce4bhoh2rcd13ifvqh5g","pricing_plan_id":"cebpf4jnsgd1na2vs0mg"},{"bike_id":"3896c664-50fa-42db-9a2c-2d55be44e9c6","system_id":"levelo_inurba_marseille","lat":43.32371,"lon":5.388804,"is_reserved":false,"is_disabled":false,"rental_uris":{"android":"levelo://app?vid=3896c664-50fa-42db-9a2c-2d55be44e9c6","ios":"levelo://app?vid=3896c664-50fa-42db-9a2c-2d55be44e9c6"},"vehicle_type_id":"4","last_reported":1713550146,"current_range_meters":14400,"station_id":"ce4bhqp2rcd13ifvqhog","pricing_plan_id":"cebpf4jnsgd1na2vs0mg"},{"bike_id":"b709ef4c-e43b-4a37-b730-414a4c029166","system_id":"levelo_inurba_marseille","lat":43.32367,"lon":5.388836,"is_reserved":false,"is_disabled":false,"rental_uris":{"android":"levelo://app?vid=b709ef4c-e43b-4a37-b730-414a4c029166","ios":"levelo://app?vid=b709ef4c-e43b-4a37-b730-414a4c029166"},"vehicle_type_id":"4","last_reported":1713550146,"current_range_meters":16400,"station_id":"ce4bhqp2rcd13ifvqhog","pricing_plan_id":"cebpf4jnsgd1na2vs0mg"},{"bike_id":"a730cd16-45c9-4eac-9f20-d9ef2d8cd53f","system_id":"levelo_inurba_marseille","lat":43.32368,"lon":5.38885,"is_reserved":false,"is_disabled":false,"rental_uris":{"android":"levelo://app?vid=a730cd16-45c9-4eac-9f20-d9ef2d8cd53f","ios":"levelo://app?vid=a730cd16-45c9-4eac-9f20-d9ef2d8cd53f"},"vehicle_type_id":"4","last_reported":1713550146,"current_range_meters":30400,"station_id":"ce4bhqp2rcd13ifvqhog","pricing_plan_id":"cebpf4jnsgd1na2vs0mg"},{"bike_id":"6a83e9cf-50b6-4713-a862-6c9ac6cea128","system_id":"levelo_inurba_marseille","lat":43.299222,"lon":5.365554,"is_reserved":false,"is_disabled":false,"rental_uris":{"android":"levelo://app?vid=6a83e9cf-50b6-4713-a862-6c9ac6cea128","ios":"levelo://app?vid=6a83e9cf-50b6-4713-a862-6c9ac6cea128"},"vehicle_type_id":"4","last_reported":1713550146,"current_range_meters":12800,"station_id":"ce4bgm92rcd13ifvqbr0","pricing_plan_id":"cebpf4jnsgd1na2vs0mg"},{"bike_id":"819d7eb4-6008-4997-97f2-1be695419517","system_id":"levelo_inurba_marseille","lat":43.29602,"lon":5.38105,"is_reserved":false,"is_disabled":false,"rental_uris":{"android":"levelo://app?vid=819d7eb4-6008-4997-97f2-1be695419517","ios":"levelo://app?vid=819d7eb4-6008-4997-97f2-1be695419517"},"vehicle_type_id":"4","last_reported":1713550146,"current_range_meters":0,"station_id":"ce4bgl12rcd13ifvqbo0","pricing_plan_id":"cebpf4jnsgd1na2vs0mg"},{"bike_id":"b4baf025-6e31-4974-8947-3aa0b17674f3","system_id":"levelo_inurba_marseille","lat":43.29599,"lon":5.38103,"is_reserved":false,"is_disabled":false,"rental_uris":{"android":"levelo://app?vid=b4baf025-6e31-4974-8947-3aa0b17674f3","ios":"levelo://app?vid=b4baf025-6e31-4974-8947-3aa0b17674f3"},"vehicle_type_id":"4","last_reported":1713550146,"current_range_meters":4800,"station_id":"ce4bgl12rcd13ifvqbo0","pricing_plan_id":"cebpf4jnsgd1na2vs0mg"},{"bike_id":"c4ac2315-c3fb-44c4-aad3-8df12ae3cfd5","system_id":"levelo_inurba_marseille","lat":43.29602,"lon":5.381084,"is_reserved":false,"is_disabled":false,"rental_uris":{"android":"levelo://app?vid=c4ac2315-c3fb-44c4-aad3-8df12ae3cfd5","ios":"levelo://app?vid=c4ac2315-c3fb-44c4-aad3-8df12ae3cfd5"},"vehicle_type_id":"4","last_reported":1713550146,"current_range_meters":4400,"station_id":"ce4bgl12rcd13ifvqbo0","pricing_plan_id":"cebpf4jnsgd1na2vs0mg"},{"bike_id":"1a449a0f-7086-4ccc-9417-425f171a96f2","system_id":"levelo_inurba_marseille","lat":43.293259,"lon":5.371586,"is_reserved":false,"is_disabled":false,"rental_uris":{"android":"levelo://app?vid=1a449a0f-7086-4ccc-9417-425f171a96f2","ios":"levelo://app?vid=1a449a0f-7086-4ccc-9417-425f171a96f2"},"vehicle_type_id":"4","last_reported":1713550146,"current_range_meters":20400,"station_id":"ce4bgh92rcd13ifvqb40","pricing_plan_id":"cebpf4jnsgd1na2vs0mg"},{"bike_id":"1c1893eb-ca58-46d0-a72e-6d5f1de36498","system_id":"levelo_inurba_marseille","lat":43.29274,"lon":5.36847,"is_reserved":false,"is_disabled":false,"rental_uris":{"android":"levelo://app?vid=1c1893eb-ca58-46d0-a72e-6d5f1de36498","ios":"levelo://app?vid=1c1893eb-ca58-46d0-a72e-6d5f1de36498"},"vehicle_type_id":"4","last_reported":1713550146,"current_range_meters":0,"station_id":"ce4bhbp2rcd13ifvqesg","pricing_plan_id":"cebpf4jnsgd1na2vs0mg"},{"bike_id":"e8e406d7-caae-4412-b7ce-b4cefded729e","system_id":"levelo_inurba_marseille","lat":43.292749,"lon":5.368402,"is_reserved":false,"is_disabled":false,"rental_uris":{"android":"levelo://app?vid=e8e406d7-caae-4412-b7ce-b4cefded729e","ios":"levelo://app?vid=e8e406d7-caae-4412-b7ce-b4cefded729e"},"vehicle_type_id":"4","last_reported":1713550146,"current_range_meters":6000,"station_id":"ce4bhbp2rcd13ifvqesg","pricing_plan_id":"cebpf4jnsgd1na2vs0mg"},{"bike_id":"422aa81c-34bb-40ca-9d94-005f02f27969","system_id":"levelo_inurba_marseille","lat":43.292749,"lon":5.368402,"is_reserved":false,"is_disabled":false,"rental_uris":{"android":"levelo://app?vid=422aa81c-34bb-40ca-9d94-005f02f27969","ios":"levelo://app?vid=422aa81c-34bb-40ca-9d94-005f02f27969"},"vehicle_type_id":"4","last_reported":1713550146,"current_range_meters":4000,"station_id":"ce4bhbp2rcd13ifvqesg","pricing_plan_id":"cebpf4jnsgd1na2vs0mg"},{"bike_id":"8b6e95b1-dc99-4340-92b7-ca6a0012cd80","system_id":"levelo_inurba_marseille","lat":43.293009,"lon":5.374584,"is_reserved":false,"is_disabled":false,"rental_uris":{"android":"levelo://app?vid=8b6e95b1-dc99-4340-92b7-ca6a0012cd80","ios":"levelo://app?vid=8b6e95b1-dc99-4340-92b7-ca6a0012cd80"},"vehicle_type_id":"4","last_reported":1713550146,"current_range_meters":23200,"station_id":"ce4bgi12rcd13ifvqb70","pricing_plan_id":"cebpf4jnsgd1na2vs0mg"},{"bike_id":"da8c3a07-cd6e-4eb8-9c6c-bc04d5b6afd7","system_id":"levelo_inurba_marseille","lat":43.293009,"lon":5.374584,"is_reserved":false,"is_disabled":false,"rental_uris":{"android":"levelo://app?vid=da8c3a07-cd6e-4eb8-9c6c-bc04d5b6afd7","ios":"levelo://app?vid=da8c3a07-cd6e-4eb8-9c6c-bc04d5b6afd7"},"vehicle_type_id":"4","last_reported":1713550146,"current_range_meters":24400,"station_id":"ce4bgi12rcd13ifvqb70","pricing_plan_id":"cebpf4jnsgd1na2vs0mg"},{"bike_id":"418f2477-70ce-47d3-a7e1-c09203fa389d","system_id":"levelo_inurba_marseille","lat":43.293009,"lon":5.374584,"is_reserved":false,"is_disabled":false,"rental_uris":{"android":"levelo://app?vid=418f2477-70ce-47d3-a7e1-c09203fa389d","ios":"levelo://app?vid=418f2477-70ce-47d3-a7e1-c09203fa389d"},"vehicle_type_id":"4","last_reported":1713550146,"current_range_meters":4000,"station_id":"ce4bgi12rcd13ifvqb70","pricing_plan_id":"cebpf4jnsgd1na2vs0mg"},{"bike_id":"5e39528c-5684-4c6d-aecd-99110d59dda5","system_id":"levelo_inurba_marseille","lat":43.305994,"lon":5.393687,"is_reserved":false,"is_disabled":false,"rental_uris":{"android":"levelo://app?vid=5e39528c-5684-4c6d-aecd-99110d59dda5","ios":"levelo://app?vid=5e39528c-5684-4c6d-aecd-99110d59dda5"},"vehicle_type_id":"4","last_reported":1713550146,"current_range_meters":4000,"station_id":"ce4bh0p2rcd13ifvqd80","pricing_plan_id":"cebpf4jnsgd1na2vs0mg"},{"bike_id":"3a72866a-b9aa-4389-a21f-0d7b1d471011","system_id":"levelo_inurba_marseille","lat":43.305994,"lon":5.393687,"is_reserved":false,"is_disabled":false,"rental_uris":{"android":"levelo://app?vid=3a72866a-b9aa-4389-a21f-0d7b1d471011","ios":"levelo://app?vid=3a72866a-b9aa-4389-a21f-0d7b1d471011"},"vehicle_type_id":"4","last_reported":1713550146,"current_range_meters":2400,"station_id":"ce4bh0p2rcd13ifvqd80","pricing_plan_id":"cebpf4jnsgd1na2vs0mg"},{"bike_id":"4570d589-9d20-45bb-a808-edbf0781bb54","system_id":"levelo_inurba_marseille","lat":43.29373,"lon":5.37837,"is_reserved":false,"is_disabled":false,"rental_uris":{"android":"levelo://app?vid=4570d589-9d20-45bb-a808-edbf0781bb54","ios":"levelo://app?vid=4570d589-9d20-45bb-a808-edbf0781bb54"},"vehicle_type_id":"4","last_reported":1713550146,"current_range_meters":0,"station_id":"ce4bgjh2rcd13ifvqbf0","pricing_plan_id":"cebpf4jnsgd1na2vs0mg"},{"bike_id":"2542b0bd-afbb-40b1-9248-a217dbb2ad3c","system_id":"levelo_inurba_marseille","lat":43.2936,"lon":5.37835,"is_reserved":false,"is_disabled":false,"rental_uris":{"android":"levelo://app?vid=2542b0bd-afbb-40b1-9248-a217dbb2ad3c","ios":"levelo://app?vid=2542b0bd-afbb-40b1-9248-a217dbb2ad3c"},"vehicle_type_id":"4","last_reported":1713550146,"current_range_meters":6400,"station_id":"ce4bgjh2rcd13ifvqbf0","pricing_plan_id":"cebpf4jnsgd1na2vs0mg"},{"bike_id":"6e6f7a9d-985d-4e2d-b3de-121307e9fc07","system_id":"levelo_inurba_marseille","lat":43.292311,"lon":5.360731,"is_reserved":false,"is_disabled":false,"rental_uris":{"android":"levelo://app?vid=6e6f7a9d-985d-4e2d-b3de-121307e9fc07","ios":"levelo://app?vid=6e6f7a9d-985d-4e2d-b3de-121307e9fc07"},"vehicle_type_id":"4","last_reported":1713550146,"current_range_meters":31600,"station_id":"ce4bhbh2rcd13ifvqeqg","pricing_plan_id":"cebpf4jnsgd1na2vs0mg"},{"bike_id":"5a932ea6-8ca8-4b59-b671-2309b0b84b16","system_id":"levelo_inurba_marseille","lat":43.292311,"lon":5.360731,"is_reserved":false,"is_disabled":false,"rental_uris":{"android":"levelo://app?vid=5a932ea6-8ca8-4b59-b671-2309b0b84b16","ios":"levelo://app?vid=5a932ea6-8ca8-4b59-b671-2309b0b84b16"},"vehicle_type_id":"4","last_reported":1713550146,"current_range_meters":16800,"station_id":"ce4bhbh2rcd13ifvqeqg","pricing_plan_id":"cebpf4jnsgd1na2vs0mg"},{"bike_id":"ef9478de-de0d-4167-8732-83159404d426","system_id":"levelo_inurba_marseille","lat":43.29216,"lon":5.3605,"is_reserved":false,"is_disabled":false,"rental_uris":{"android":"levelo://app?vid=ef9478de-de0d-4167-8732-83159404d426","ios":"levelo://app?vid=ef9478de-de0d-4167-8732-83159404d426"},"vehicle_type_id":"4","last_reported":1713550146,"current_range_meters":31200,"station_id":"ce4bhbh2rcd13ifvqeqg","pricing_plan_id":"cebpf4jnsgd1na2vs0mg"},{"bike_id":"62c59d76-1a30-4979-bcfd-3a7b9141126c","system_id":"levelo_inurba_marseille","lat":43.30085,"lon":5.390856,"is_reserved":false,"is_disabled":false,"rental_uris":{"android":"levelo://app?vid=62c59d76-1a30-4979-bcfd-3a7b9141126c","ios":"levelo://app?vid=62c59d76-1a30-4979-bcfd-3a7b9141126c"},"vehicle_type_id":"4","last_reported":1713550146,"current_range_meters":24000,"station_id":"ce4bh192rcd13ifvqdb0","pricing_plan_id":"cebpf4jnsgd1na2vs0mg"},{"bike_id":"7396da8a-415a-4738-bcb1-b5097eff514e","system_id":"levelo_inurba_marseille","lat":43.298764,"lon":5.388973,"is_reserved":false,"is_disabled":false,"rental_uris":{"android":"levelo://app?vid=7396da8a-415a-4738-bcb1-b5097eff514e","ios":"levelo://app?vid=7396da8a-415a-4738-bcb1-b5097eff514e"},"vehicle_type_id":"4","last_reported":1713550146,"current_range_meters":21200,"station_id":"ce4bh392rcd13ifvqdl0","pricing_plan_id":"cebpf4jnsgd1na2vs0mg"},{"bike_id":"0fdf1872-66af-4a08-92fe-23830cb76d44","system_id":"levelo_inurba_marseille","lat":43.298764,"lon":5.388973,"is_reserved":false,"is_disabled":false,"rental_uris":{"android":"levelo://app?vid=0fdf1872-66af-4a08-92fe-23830cb76d44","ios":"levelo://app?vid=0fdf1872-66af-4a08-92fe-23830cb76d44"},"vehicle_type_id":"4","last_reported":1713550146,"current_range_meters":0,"station_id":"ce4bh392rcd13ifvqdl0","pricing_plan_id":"cebpf4jnsgd1na2vs0mg"},{"bike_id":"a63eeee5-6ac0-4fb1-a238-73cfb8084a17","system_id":"levelo_inurba_marseille","lat":43.298764,"lon":5.388973,"is_reserved":false,"is_disabled":false,"rental_uris":{"android":"levelo://app?vid=a63eeee5-6ac0-4fb1-a238-73cfb8084a17","ios":"levelo://app?vid=a63eeee5-6ac0-4fb1-a238-73cfb8084a17"},"vehicle_type_id":"4","last_reported":1713550146,"current_range_meters":800,"station_id":"ce4bh392rcd13ifvqdl0","pricing_plan_id":"cebpf4jnsgd1na2vs0mg"},{"bike_id":"c6424d44-aa74-448c-82ce-65a88a5e9573","system_id":"levelo_inurba_marseille","lat":43.29169,"lon":5.36052,"is_reserved":false,"is_disabled":false,"rental_uris":{"android":"levelo://app?vid=c6424d44-aa74-448c-82ce-65a88a5e9573","ios":"levelo://app?vid=c6424d44-aa74-448c-82ce-65a88a5e9573"},"vehicle_type_id":"4","last_reported":1713550146,"current_range_meters":10800,"station_id":"ce4bhbh2rcd13ifvqeqg","pricing_plan_id":"cebpf4jnsgd1na2vs0mg"},{"bike_id":"cd61bd82-8a39-4035-a801-1e4431d7e393","system_id":"levelo_inurba_marseille","lat":43.29193,"lon":5.3583,"is_reserved":false,"is_disabled":false,"rental_uris":{"android":"levelo://app?vid=cd61bd82-8a39-4035-a801-1e4431d7e393","ios":"levelo://app?vid=cd61bd82-8a39-4035-a801-1e4431d7e393"},"vehicle_type_id":"4","last_reported":1713550146,"current_range_meters":6400,"station_id":"ce4bhbh2rcd13ifvqeo0","pricing_plan_id":"cebpf4jnsgd1na2vs0mg"},{"bike_id":"e084b7b3-f012-478b-9876-43c8d51a23c8","system_id":"levelo_inurba_marseille","lat":43.292005,"lon":5.357875,"is_reserved":false,"is_disabled":false,"rental_uris":{"android":"levelo://app?vid=e084b7b3-f012-478b-9876-43c8d51a23c8","ios":"levelo://app?vid=e084b7b3-f012-478b-9876-43c8d51a23c8"},"vehicle_type_id":"4","last_reported":1713550146,"current_range_meters":1600,"station_id":"ce4bhb12rcd13ifvqel0","pricing_plan_id":"cebpf4jnsgd1na2vs0mg"},{"bike_id":"45ae0d51-c475-4ff3-a9de-bd04e861c2dd","system_id":"levelo_inurba_marseille","lat":43.309038,"lon":5.396546,"is_reserved":false,"is_disabled":false,"rental_uris":{"android":"levelo://app?vid=45ae0d51-c475-4ff3-a9de-bd04e861c2dd","ios":"levelo://app?vid=45ae0d51-c475-4ff3-a9de-bd04e861c2dd"},"vehicle_type_id":"4","last_reported":1713550146,"current_range_meters":20400,"station_id":"ce4bh012rcd13ifvqcv0","pricing_plan_id":"cebpf4jnsgd1na2vs0mg"},{"bike_id":"222b23be-1c8b-40d8-a85c-503aa6b0563a","system_id":"levelo_inurba_marseille","lat":43.313291,"lon":5.396838,"is_reserved":false,"is_disabled":false,"rental_uris":{"android":"levelo://app?vid=222b23be-1c8b-40d8-a85c-503aa6b0563a","ios":"levelo://app?vid=222b23be-1c8b-40d8-a85c-503aa6b0563a"},"vehicle_type_id":"4","last_reported":1713550146,"current_range_meters":5200,"station_id":"ce4bgvp2rcd13ifvqcu0","pricing_plan_id":"cebpf4jnsgd1na2vs0mg"},{"bike_id":"5a3b4be6-8391-4061-81e6-b23f7623f21c","system_id":"levelo_inurba_marseille","lat":43.29195,"lon":5.357947,"is_reserved":false,"is_disabled":false,"rental_uris":{"android":"levelo://app?vid=5a3b4be6-8391-4061-81e6-b23f7623f21c","ios":"levelo://app?vid=5a3b4be6-8391-4061-81e6-b23f7623f21c"},"vehicle_type_id":"4","last_reported":1713550146,"current_range_meters":19200,"station_id":"ce4bhb12rcd13ifvqel0","pricing_plan_id":"cebpf4jnsgd1na2vs0mg"},{"bike_id":"9e1da337-143c-46c6-b55f-204e19fb3dab","system_id":"levelo_inurba_marseille","lat":43.291994,"lon":5.357886,"is_reserved":false,"is_disabled":false,"rental_uris":{"android":"levelo://app?vid=9e1da337-143c-46c6-b55f-204e19fb3dab","ios":"levelo://app?vid=9e1da337-143c-46c6-b55f-204e19fb3dab"},"vehicle_type_id":"4","last_reported":1713550146,"current_range_meters":0,"station_id":"ce4bhb12rcd13ifvqel0","pricing_plan_id":"cebpf4jnsgd1na2vs0mg"},{"bike_id":"f866b1e2-9985-4a32-93e6-e467aa791f52","system_id":"levelo_inurba_marseille","lat":43.29191,"lon":5.35804,"is_reserved":false,"is_disabled":false,"rental_uris":{"android":"levelo://app?vid=f866b1e2-9985-4a32-93e6-e467aa791f52","ios":"levelo://app?vid=f866b1e2-9985-4a32-93e6-e467aa791f52"},"vehicle_type_id":"4","last_reported":1713550146,"current_range_meters":0,"station_id":"ce4bhb12rcd13ifvqel0","pricing_plan_id":"cebpf4jnsgd1na2vs0mg"},{"bike_id":"87a97016-5658-4eee-bd3f-b9df5147facf","system_id":"levelo_inurba_marseille","lat":43.313291,"lon":5.396838,"is_reserved":false,"is_disabled":false,"rental_uris":{"android":"levelo://app?vid=87a97016-5658-4eee-bd3f-b9df5147facf","ios":"levelo://app?vid=87a97016-5658-4eee-bd3f-b9df5147facf"},"vehicle_type_id":"4","last_reported":1713550146,"current_range_meters":7600,"station_id":"ce4bgvp2rcd13ifvqcu0","pricing_plan_id":"cebpf4jnsgd1na2vs0mg"},{"bike_id":"c76bbdf3-6740-4c27-a5ed-e4d826d05d83","system_id":"levelo_inurba_marseille","lat":43.313291,"lon":5.396838,"is_reserved":false,"is_disabled":false,"rental_uris":{"android":"levelo://app?vid=c76bbdf3-6740-4c27-a5ed-e4d826d05d83","ios":"levelo://app?vid=c76bbdf3-6740-4c27-a5ed-e4d826d05d83"},"vehicle_type_id":"4","last_reported":1713550146,"current_range_meters":0,"station_id":"ce4bgvp2rcd13ifvqcu0","pricing_plan_id":"cebpf4jnsgd1na2vs0mg"},{"bike_id":"ffc83026-7b35-496b-b555-dab2be34d277","system_id":"levelo_inurba_marseille","lat":43.31328,"lon":5.39698,"is_reserved":false,"is_disabled":false,"rental_uris":{"android":"levelo://app?vid=ffc83026-7b35-496b-b555-dab2be34d277","ios":"levelo://app?vid=ffc83026-7b35-496b-b555-dab2be34d277"},"vehicle_type_id":"4","last_reported":1713550146,"current_range_meters":0,"station_id":"ce4bgvp2rcd13ifvqcu0","pricing_plan_id":"cebpf4jnsgd1na2vs0mg"},{"bike_id":"000ce342-9c44-4040-8581-f098f40db77c","system_id":"levelo_inurba_marseille","lat":43.29529,"lon":5.385581,"is_reserved":false,"is_disabled":false,"rental_uris":{"android":"levelo://app?vid=000ce342-9c44-4040-8581-f098f40db77c","ios":"levelo://app?vid=000ce342-9c44-4040-8581-f098f40db77c"},"vehicle_type_id":"4","last_reported":1713550146,"current_range_meters":12000,"station_id":"ce4bgih2rcd13ifvqba0","pricing_plan_id":"cebpf4jnsgd1na2vs0mg"},{"bike_id":"830ef9da-b748-491a-a6f0-38a26c795ed0","system_id":"levelo_inurba_marseille","lat":43.30835,"lon":5.39643,"is_reserved":false,"is_disabled":false,"rental_uris":{"android":"levelo://app?vid=830ef9da-b748-491a-a6f0-38a26c795ed0","ios":"levelo://app?vid=830ef9da-b748-491a-a6f0-38a26c795ed0"},"vehicle_type_id":"4","last_reported":1713550146,"current_range_meters":4800,"station_id":"ce4bgih2rcd13ifvqba0","pricing_plan_id":"cebpf4jnsgd1na2vs0mg"},{"bike_id":"d65babfe-ba42-4bc6-aabd-09c607517a73","system_id":"levelo_inurba_marseille","lat":43.29529,"lon":5.385581,"is_reserved":false,"is_disabled":false,"rental_uris":{"android":"levelo://app?vid=d65babfe-ba42-4bc6-aabd-09c607517a73","ios":"levelo://app?vid=d65babfe-ba42-4bc6-aabd-09c607517a73"},"vehicle_type_id":"4","last_reported":1713550146,"current_range_meters":14000,"station_id":"ce4bgih2rcd13ifvqba0","pricing_plan_id":"cebpf4jnsgd1na2vs0mg"},{"bike_id":"19a045b0-a58d-420e-980e-79aa373ce378","system_id":"levelo_inurba_marseille","lat":43.29529,"lon":5.385581,"is_reserved":false,"is_disabled":false,"rental_uris":{"android":"levelo://app?vid=19a045b0-a58d-420e-980e-79aa373ce378","ios":"levelo://app?vid=19a045b0-a58d-420e-980e-79aa373ce378"},"vehicle_type_id":"4","last_reported":1713550146,"current_range_meters":14000,"station_id":"ce4bgih2rcd13ifvqba0","pricing_plan_id":"cebpf4jnsgd1na2vs0mg"},{"bike_id":"ce55e034-c9f4-4406-bc55-effa9e31a007","system_id":"levelo_inurba_marseille","lat":43.29529,"lon":5.385581,"is_reserved":false,"is_disabled":false,"rental_uris":{"android":"levelo://app?vid=ce55e034-c9f4-4406-bc55-effa9e31a007","ios":"levelo://app?vid=ce55e034-c9f4-4406-bc55-effa9e31a007"},"vehicle_type_id":"4","last_reported":1713550146,"current_range_meters":5200,"station_id":"ce4bgih2rcd13ifvqba0","pricing_plan_id":"cebpf4jnsgd1na2vs0mg"},{"bike_id":"307d9f1c-1f74-497e-a7ae-c771984fc732","system_id":"levelo_inurba_marseille","lat":43.295355,"lon":5.385375,"is_reserved":false,"is_disabled":false,"rental_uris":{"android":"levelo://app?vid=307d9f1c-1f74-497e-a7ae-c771984fc732","ios":"levelo://app?vid=307d9f1c-1f74-497e-a7ae-c771984fc732"},"vehicle_type_id":"4","last_reported":1713550146,"current_range_meters":0,"station_id":"","pricing_plan_id":"cebpf4jnsgd1na2vs0mg"},{"bike_id":"e807ae04-f569-4870-918c-1cb07c3e5546","system_id":"levelo_inurba_marseille","lat":43.29529,"lon":5.385581,"is_reserved":false,"is_disabled":false,"rental_uris":{"android":"levelo://app?vid=e807ae04-f569-4870-918c-1cb07c3e5546","ios":"levelo://app?vid=e807ae04-f569-4870-918c-1cb07c3e5546"},"vehicle_type_id":"4","last_reported":1713550146,"current_range_meters":9200,"station_id":"ce4bgih2rcd13ifvqba0","pricing_plan_id":"cebpf4jnsgd1na2vs0mg"},{"bike_id":"b8688fc6-c37c-490a-b796-c134da837fa8","system_id":"levelo_inurba_marseille","lat":43.29529,"lon":5.385581,"is_reserved":false,"is_disabled":false,"rental_uris":{"android":"levelo://app?vid=b8688fc6-c37c-490a-b796-c134da837fa8","ios":"levelo://app?vid=b8688fc6-c37c-490a-b796-c134da837fa8"},"vehicle_type_id":"4","last_reported":1713550146,"current_range_meters":400,"station_id":"ce4bgih2rcd13ifvqba0","pricing_plan_id":"cebpf4jnsgd1na2vs0mg"},{"bike_id":"0cd760fc-a750-4ec6-8947-36730810792d","system_id":"levelo_inurba_marseille","lat":43.29536,"lon":5.38547,"is_reserved":false,"is_disabled":false,"rental_uris":{"android":"levelo://app?vid=0cd760fc-a750-4ec6-8947-36730810792d","ios":"levelo://app?vid=0cd760fc-a750-4ec6-8947-36730810792d"},"vehicle_type_id":"4","last_reported":1713550146,"current_range_meters":0,"station_id":"ce4bgih2rcd13ifvqba0","pricing_plan_id":"cebpf4jnsgd1na2vs0mg"},{"bike_id":"15ca6bc1-5fea-4697-bd2a-f8a1e377f6ee","system_id":"levelo_inurba_marseille","lat":43.29529,"lon":5.385581,"is_reserved":false,"is_disabled":false,"rental_uris":{"android":"levelo://app?vid=15ca6bc1-5fea-4697-bd2a-f8a1e377f6ee","ios":"levelo://app?vid=15ca6bc1-5fea-4697-bd2a-f8a1e377f6ee"},"vehicle_type_id":"4","last_reported":1713550146,"current_range_meters":10000,"station_id":"ce4bgih2rcd13ifvqba0","pricing_plan_id":"cebpf4jnsgd1na2vs0mg"},{"bike_id":"8705f553-95b7-4759-ab8f-5adedb8cc9c0","system_id":"levelo_inurba_marseille","lat":43.29529,"lon":5.385581,"is_reserved":false,"is_disabled":false,"rental_uris":{"android":"levelo://app?vid=8705f553-95b7-4759-ab8f-5adedb8cc9c0","ios":"levelo://app?vid=8705f553-95b7-4759-ab8f-5adedb8cc9c0"},"vehicle_type_id":"4","last_reported":1713550146,"current_range_meters":10400,"station_id":"ce4bgih2rcd13ifvqba0","pricing_plan_id":"cebpf4jnsgd1na2vs0mg"},{"bike_id":"287c8b40-b9be-45bd-bd51-4c0954fb9ac7","system_id":"levelo_inurba_marseille","lat":43.29529,"lon":5.385581,"is_reserved":false,"is_disabled":false,"rental_uris":{"android":"levelo://app?vid=287c8b40-b9be-45bd-bd51-4c0954fb9ac7","ios":"levelo://app?vid=287c8b40-b9be-45bd-bd51-4c0954fb9ac7"},"vehicle_type_id":"4","last_reported":1713550146,"current_range_meters":1600,"station_id":"ce4bgih2rcd13ifvqba0","pricing_plan_id":"cebpf4jnsgd1na2vs0mg"},{"bike_id":"3459c760-7664-42ed-8ba8-c15a7a4b13a0","system_id":"levelo_inurba_marseille","lat":43.29529,"lon":5.385581,"is_reserved":false,"is_disabled":false,"rental_uris":{"android":"levelo://app?vid=3459c760-7664-42ed-8ba8-c15a7a4b13a0","ios":"levelo://app?vid=3459c760-7664-42ed-8ba8-c15a7a4b13a0"},"vehicle_type_id":"4","last_reported":1713550146,"current_range_meters":15600,"station_id":"ce4bgih2rcd13ifvqba0","pricing_plan_id":"cebpf4jnsgd1na2vs0mg"},{"bike_id":"3c5a5dfa-6a9c-474b-80c6-d9262ce92f74","system_id":"levelo_inurba_marseille","lat":43.29529,"lon":5.385581,"is_reserved":false,"is_disabled":false,"rental_uris":{"android":"levelo://app?vid=3c5a5dfa-6a9c-474b-80c6-d9262ce92f74","ios":"levelo://app?vid=3c5a5dfa-6a9c-474b-80c6-d9262ce92f74"},"vehicle_type_id":"4","last_reported":1713550146,"current_range_meters":24800,"station_id":"ce4bgih2rcd13ifvqba0","pricing_plan_id":"cebpf4jnsgd1na2vs0mg"},{"bike_id":"5a18403c-8a90-4339-a0bf-b238fb2a4928","system_id":"levelo_inurba_marseille","lat":43.29529,"lon":5.385581,"is_reserved":false,"is_disabled":false,"rental_uris":{"android":"levelo://app?vid=5a18403c-8a90-4339-a0bf-b238fb2a4928","ios":"levelo://app?vid=5a18403c-8a90-4339-a0bf-b238fb2a4928"},"vehicle_type_id":"4","last_reported":1713550146,"current_range_meters":1600,"station_id":"ce4bgih2rcd13ifvqba0","pricing_plan_id":"cebpf4jnsgd1na2vs0mg"},{"bike_id":"cb455249-27fa-4ff4-b364-5ab1f98e6abf","system_id":"levelo_inurba_marseille","lat":43.29529,"lon":5.385581,"is_reserved":false,"is_disabled":false,"rental_uris":{"android":"levelo://app?vid=cb455249-27fa-4ff4-b364-5ab1f98e6abf","ios":"levelo://app?vid=cb455249-27fa-4ff4-b364-5ab1f98e6abf"},"vehicle_type_id":"4","last_reported":1713550146,"current_range_meters":7600,"station_id":"ce4bgih2rcd13ifvqba0","pricing_plan_id":"cebpf4jnsgd1na2vs0mg"},{"bike_id":"ce623ea8-f63f-4a9e-836e-dfafea485912","system_id":"levelo_inurba_marseille","lat":43.29529,"lon":5.385581,"is_reserved":false,"is_disabled":false,"rental_uris":{"android":"levelo://app?vid=ce623ea8-f63f-4a9e-836e-dfafea485912","ios":"levelo://app?vid=ce623ea8-f63f-4a9e-836e-dfafea485912"},"vehicle_type_id":"4","last_reported":1713550146,"current_range_meters":20400,"station_id":"ce4bgih2rcd13ifvqba0","pricing_plan_id":"cebpf4jnsgd1na2vs0mg"},{"bike_id":"39c299e6-b895-4ccc-bbe0-6d790afef5c5","system_id":"levelo_inurba_marseille","lat":43.29529,"lon":5.385581,"is_reserved":false,"is_disabled":false,"rental_uris":{"android":"levelo://app?vid=39c299e6-b895-4ccc-bbe0-6d790afef5c5","ios":"levelo://app?vid=39c299e6-b895-4ccc-bbe0-6d790afef5c5"},"vehicle_type_id":"4","last_reported":1713550146,"current_range_meters":12000,"station_id":"ce4bgih2rcd13ifvqba0","pricing_plan_id":"cebpf4jnsgd1na2vs0mg"},{"bike_id":"87b2a83d-d2c8-4ba2-bbd4-08ae12650295","system_id":"levelo_inurba_marseille","lat":43.290779,"lon":5.371482,"is_reserved":false,"is_disabled":false,"rental_uris":{"android":"levelo://app?vid=87b2a83d-d2c8-4ba2-bbd4-08ae12650295","ios":"levelo://app?vid=87b2a83d-d2c8-4ba2-bbd4-08ae12650295"},"vehicle_type_id":"4","last_reported":1713550146,"current_range_meters":0,"station_id":"ce4bh5p2rcd13ifvqe4g","pricing_plan_id":"cebpf4jnsgd1na2vs0mg"},{"bike_id":"47a5f3f6-88d6-400e-af7e-7a1991050098","system_id":"levelo_inurba_marseille","lat":43.290779,"lon":5.371482,"is_reserved":false,"is_disabled":false,"rental_uris":{"android":"levelo://app?vid=47a5f3f6-88d6-400e-af7e-7a1991050098","ios":"levelo://app?vid=47a5f3f6-88d6-400e-af7e-7a1991050098"},"vehicle_type_id":"4","last_reported":1713550146,"current_range_meters":10800,"station_id":"ce4bh5p2rcd13ifvqe4g","pricing_plan_id":"cebpf4jnsgd1na2vs0mg"},{"bike_id":"2d94ca25-e00d-420f-bb21-1b6c30dd32ee","system_id":"levelo_inurba_marseille","lat":43.29529,"lon":5.385581,"is_reserved":false,"is_disabled":false,"rental_uris":{"android":"levelo://app?vid=2d94ca25-e00d-420f-bb21-1b6c30dd32ee","ios":"levelo://app?vid=2d94ca25-e00d-420f-bb21-1b6c30dd32ee"},"vehicle_type_id":"4","last_reported":1713550146,"current_range_meters":23600,"station_id":"ce4bgih2rcd13ifvqba0","pricing_plan_id":"cebpf4jnsgd1na2vs0mg"},{"bike_id":"5adbd1ac-ed58-43f4-9c04-b1e7c42f0fdd","system_id":"levelo_inurba_marseille","lat":43.293926,"lon":5.383106,"is_reserved":false,"is_disabled":false,"rental_uris":{"android":"levelo://app?vid=5adbd1ac-ed58-43f4-9c04-b1e7c42f0fdd","ios":"levelo://app?vid=5adbd1ac-ed58-43f4-9c04-b1e7c42f0fdd"},"vehicle_type_id":"4","last_reported":1713550146,"current_range_meters":3200,"station_id":"","pricing_plan_id":"cebpf4jnsgd1na2vs0mg"},{"bike_id":"36916f9a-b6de-4caa-9fe8-53265b833b5c","system_id":"levelo_inurba_marseille","lat":43.290779,"lon":5.371482,"is_reserved":false,"is_disabled":false,"rental_uris":{"android":"levelo://app?vid=36916f9a-b6de-4caa-9fe8-53265b833b5c","ios":"levelo://app?vid=36916f9a-b6de-4caa-9fe8-53265b833b5c"},"vehicle_type_id":"4","last_reported":1713550146,"current_range_meters":2000,"station_id":"ce4bh5p2rcd13ifvqe4g","pricing_plan_id":"cebpf4jnsgd1na2vs0mg"},{"bike_id":"16229f0c-2d0b-407d-a5d9-d3aa1bc13fda","system_id":"levelo_inurba_marseille","lat":43.290779,"lon":5.371482,"is_reserved":false,"is_disabled":false,"rental_uris":{"android":"levelo://app?vid=16229f0c-2d0b-407d-a5d9-d3aa1bc13fda","ios":"levelo://app?vid=16229f0c-2d0b-407d-a5d9-d3aa1bc13fda"},"vehicle_type_id":"4","last_reported":1713550146,"current_range_meters":0,"station_id":"ce4bh5p2rcd13ifvqe4g","pricing_plan_id":"cebpf4jnsgd1na2vs0mg"},{"bike_id":"1565a083-2c4f-457a-951f-8e7b90b9b30e","system_id":"levelo_inurba_marseille","lat":43.290779,"lon":5.371482,"is_reserved":false,"is_disabled":false,"rental_uris":{"android":"levelo://app?vid=1565a083-2c4f-457a-951f-8e7b90b9b30e","ios":"levelo://app?vid=1565a083-2c4f-457a-951f-8e7b90b9b30e"},"vehicle_type_id":"4","last_reported":1713550146,"current_range_meters":13600,"station_id":"ce4bh5p2rcd13ifvqe4g","pricing_plan_id":"cebpf4jnsgd1na2vs0mg"},{"bike_id":"2351cde9-7a6f-44d9-8b59-996f824f7682","system_id":"levelo_inurba_marseille","lat":43.294913,"lon":5.385745,"is_reserved":false,"is_disabled":false,"rental_uris":{"android":"levelo://app?vid=2351cde9-7a6f-44d9-8b59-996f824f7682","ios":"levelo://app?vid=2351cde9-7a6f-44d9-8b59-996f824f7682"},"vehicle_type_id":"4","last_reported":1713550146,"current_range_meters":4800,"station_id":"ce4bgih2rcd13ifvqba0","pricing_plan_id":"cebpf4jnsgd1na2vs0mg"},{"bike_id":"cf58fb51-dd00-47e1-9bdb-51efb51d61d7","system_id":"levelo_inurba_marseille","lat":43.299717,"lon":5.384845,"is_reserved":false,"is_disabled":false,"rental_uris":{"android":"levelo://app?vid=cf58fb51-dd00-47e1-9bdb-51efb51d61d7","ios":"levelo://app?vid=cf58fb51-dd00-47e1-9bdb-51efb51d61d7"},"vehicle_type_id":"4","last_reported":1713550146,"current_range_meters":0,"station_id":"ce4bgj92rcd13ifvqbd0","pricing_plan_id":"cebpf4jnsgd1na2vs0mg"},{"bike_id":"7584f760-81d3-4266-ad48-ea498504ae1e","system_id":"levelo_inurba_marseille","lat":43.290779,"lon":5.371482,"is_reserved":false,"is_disabled":false,"rental_uris":{"android":"levelo://app?vid=7584f760-81d3-4266-ad48-ea498504ae1e","ios":"levelo://app?vid=7584f760-81d3-4266-ad48-ea498504ae1e"},"vehicle_type_id":"4","last_reported":1713550146,"current_range_meters":800,"station_id":"ce4bh5p2rcd13ifvqe4g","pricing_plan_id":"cebpf4jnsgd1na2vs0mg"},{"bike_id":"69a4a413-aad9-4df4-b007-380e10d86870","system_id":"levelo_inurba_marseille","lat":43.294153,"lon":5.386305,"is_reserved":false,"is_disabled":false,"rental_uris":{"android":"levelo://app?vid=69a4a413-aad9-4df4-b007-380e10d86870","ios":"levelo://app?vid=69a4a413-aad9-4df4-b007-380e10d86870"},"vehicle_type_id":"4","last_reported":1713550146,"current_range_meters":6000,"station_id":"ce4bh2h2rcd13ifvqdh0","pricing_plan_id":"cebpf4jnsgd1na2vs0mg"},{"bike_id":"6a492c66-6802-47c0-a938-56a36bb3aea9","system_id":"levelo_inurba_marseille","lat":43.294153,"lon":5.386305,"is_reserved":false,"is_disabled":false,"rental_uris":{"android":"levelo://app?vid=6a492c66-6802-47c0-a938-56a36bb3aea9","ios":"levelo://app?vid=6a492c66-6802-47c0-a938-56a36bb3aea9"},"vehicle_type_id":"4","last_reported":1713550146,"current_range_meters":11600,"station_id":"ce4bh2h2rcd13ifvqdh0","pricing_plan_id":"cebpf4jnsgd1na2vs0mg"},{"bike_id":"39312e16-2fa3-44b7-9083-c3c96d4b38f8","system_id":"levelo_inurba_marseille","lat":43.294262,"lon":5.386195,"is_reserved":false,"is_disabled":false,"rental_uris":{"android":"levelo://app?vid=39312e16-2fa3-44b7-9083-c3c96d4b38f8","ios":"levelo://app?vid=39312e16-2fa3-44b7-9083-c3c96d4b38f8"},"vehicle_type_id":"4","last_reported":1713550146,"current_range_meters":11600,"station_id":"ce4bh2h2rcd13ifvqdh0","pricing_plan_id":"cebpf4jnsgd1na2vs0mg"},{"bike_id":"9ff90951-c46a-4751-a033-f61d8ce94801","system_id":"levelo_inurba_marseille","lat":43.29417,"lon":5.38607,"is_reserved":false,"is_disabled":false,"rental_uris":{"android":"levelo://app?vid=9ff90951-c46a-4751-a033-f61d8ce94801","ios":"levelo://app?vid=9ff90951-c46a-4751-a033-f61d8ce94801"},"vehicle_type_id":"4","last_reported":1713550146,"current_range_meters":0,"station_id":"ce4bh2h2rcd13ifvqdh0","pricing_plan_id":"cebpf4jnsgd1na2vs0mg"},{"bike_id":"1e09151d-5e79-4026-bd7f-19f12bf4c7f5","system_id":"levelo_inurba_marseille","lat":43.294422,"lon":5.386534,"is_reserved":false,"is_disabled":false,"rental_uris":{"android":"levelo://app?vid=1e09151d-5e79-4026-bd7f-19f12bf4c7f5","ios":"levelo://app?vid=1e09151d-5e79-4026-bd7f-19f12bf4c7f5"},"vehicle_type_id":"4","last_reported":1713550146,"current_range_meters":19200,"station_id":"ce4bh2h2rcd13ifvqdh0","pricing_plan_id":"cebpf4jnsgd1na2vs0mg"},{"bike_id":"7e628a6b-105e-440f-af65-261b4077baf9","system_id":"levelo_inurba_marseille","lat":43.294162,"lon":5.386292,"is_reserved":false,"is_disabled":false,"rental_uris":{"android":"levelo://app?vid=7e628a6b-105e-440f-af65-261b4077baf9","ios":"levelo://app?vid=7e628a6b-105e-440f-af65-261b4077baf9"},"vehicle_type_id":"4","last_reported":1713550146,"current_range_meters":29600,"station_id":"ce4bh2h2rcd13ifvqdh0","pricing_plan_id":"cebpf4jnsgd1na2vs0mg"},{"bike_id":"656828fa-b15d-4c23-8b65-c2b21a808449","system_id":"levelo_inurba_marseille","lat":43.294162,"lon":5.386292,"is_reserved":false,"is_disabled":false,"rental_uris":{"android":"levelo://app?vid=656828fa-b15d-4c23-8b65-c2b21a808449","ios":"levelo://app?vid=656828fa-b15d-4c23-8b65-c2b21a808449"},"vehicle_type_id":"4","last_reported":1713550146,"current_range_meters":12000,"station_id":"ce4bh2h2rcd13ifvqdh0","pricing_plan_id":"cebpf4jnsgd1na2vs0mg"},{"bike_id":"84052364-5722-4c2f-b1f8-3d7d479f19f2","system_id":"levelo_inurba_marseille","lat":43.29422,"lon":5.38624,"is_reserved":false,"is_disabled":false,"rental_uris":{"android":"levelo://app?vid=84052364-5722-4c2f-b1f8-3d7d479f19f2","ios":"levelo://app?vid=84052364-5722-4c2f-b1f8-3d7d479f19f2"},"vehicle_type_id":"4","last_reported":1713550146,"current_range_meters":2400,"station_id":"ce4bh2h2rcd13ifvqdh0","pricing_plan_id":"cebpf4jnsgd1na2vs0mg"},{"bike_id":"b02d5805-7fdf-4fb0-8965-7452ba7623d9","system_id":"levelo_inurba_marseille","lat":43.29419,"lon":5.38619,"is_reserved":false,"is_disabled":false,"rental_uris":{"android":"levelo://app?vid=b02d5805-7fdf-4fb0-8965-7452ba7623d9","ios":"levelo://app?vid=b02d5805-7fdf-4fb0-8965-7452ba7623d9"},"vehicle_type_id":"4","last_reported":1713550146,"current_range_meters":3200,"station_id":"ce4bh2h2rcd13ifvqdh0","pricing_plan_id":"cebpf4jnsgd1na2vs0mg"},{"bike_id":"c2df24d2-c242-4c6c-954e-c1a1a4f0746f","system_id":"levelo_inurba_marseille","lat":43.2942,"lon":5.38621,"is_reserved":false,"is_disabled":false,"rental_uris":{"android":"levelo://app?vid=c2df24d2-c242-4c6c-954e-c1a1a4f0746f","ios":"levelo://app?vid=c2df24d2-c242-4c6c-954e-c1a1a4f0746f"},"vehicle_type_id":"4","last_reported":1713550146,"current_range_meters":0,"station_id":"ce4bh2h2rcd13ifvqdh0","pricing_plan_id":"cebpf4jnsgd1na2vs0mg"},{"bike_id":"5742be2f-e347-4d70-ae21-40f5cfa4cddf","system_id":"levelo_inurba_marseille","lat":43.29421,"lon":5.38624,"is_reserved":false,"is_disabled":false,"rental_uris":{"android":"levelo://app?vid=5742be2f-e347-4d70-ae21-40f5cfa4cddf","ios":"levelo://app?vid=5742be2f-e347-4d70-ae21-40f5cfa4cddf"},"vehicle_type_id":"4","last_reported":1713550146,"current_range_meters":0,"station_id":"ce4bh2h2rcd13ifvqdh0","pricing_plan_id":"cebpf4jnsgd1na2vs0mg"},{"bike_id":"f59d9b1a-3639-49c5-b51e-df58bc300c21","system_id":"levelo_inurba_marseille","lat":43.29419,"lon":5.38621,"is_reserved":false,"is_disabled":false,"rental_uris":{"android":"levelo://app?vid=f59d9b1a-3639-49c5-b51e-df58bc300c21","ios":"levelo://app?vid=f59d9b1a-3639-49c5-b51e-df58bc300c21"},"vehicle_type_id":"4","last_reported":1713550146,"current_range_meters":4400,"station_id":"ce4bh2h2rcd13ifvqdh0","pricing_plan_id":"cebpf4jnsgd1na2vs0mg"},{"bike_id":"13ed2bcb-685d-40cd-8e72-56e484608cb8","system_id":"levelo_inurba_marseille","lat":43.29419,"lon":5.38623,"is_reserved":false,"is_disabled":false,"rental_uris":{"android":"levelo://app?vid=13ed2bcb-685d-40cd-8e72-56e484608cb8","ios":"levelo://app?vid=13ed2bcb-685d-40cd-8e72-56e484608cb8"},"vehicle_type_id":"4","last_reported":1713550146,"current_range_meters":25600,"station_id":"ce4bh2h2rcd13ifvqdh0","pricing_plan_id":"cebpf4jnsgd1na2vs0mg"},{"bike_id":"ac4d8fd8-ecb8-4ff4-85b9-d30d9ec2adc7","system_id":"levelo_inurba_marseille","lat":43.29418,"lon":5.38623,"is_reserved":false,"is_disabled":false,"rental_uris":{"android":"levelo://app?vid=ac4d8fd8-ecb8-4ff4-85b9-d30d9ec2adc7","ios":"levelo://app?vid=ac4d8fd8-ecb8-4ff4-85b9-d30d9ec2adc7"},"vehicle_type_id":"4","last_reported":1713550146,"current_range_meters":20400,"station_id":"ce4bh2h2rcd13ifvqdh0","pricing_plan_id":"cebpf4jnsgd1na2vs0mg"},{"bike_id":"61480f51-67e7-42ed-8ccb-8927715da270","system_id":"levelo_inurba_marseille","lat":43.2942,"lon":5.38627,"is_reserved":false,"is_disabled":false,"rental_uris":{"android":"levelo://app?vid=61480f51-67e7-42ed-8ccb-8927715da270","ios":"levelo://app?vid=61480f51-67e7-42ed-8ccb-8927715da270"},"vehicle_type_id":"4","last_reported":1713550146,"current_range_meters":18400,"station_id":"ce4bh2h2rcd13ifvqdh0","pricing_plan_id":"cebpf4jnsgd1na2vs0mg"},{"bike_id":"c6e6fc22-f572-4d02-8228-09e5c055d19d","system_id":"levelo_inurba_marseille","lat":43.29415,"lon":5.38619,"is_reserved":false,"is_disabled":false,"rental_uris":{"android":"levelo://app?vid=c6e6fc22-f572-4d02-8228-09e5c055d19d","ios":"levelo://app?vid=c6e6fc22-f572-4d02-8228-09e5c055d19d"},"vehicle_type_id":"4","last_reported":1713550146,"current_range_meters":0,"station_id":"ce4bh2h2rcd13ifvqdh0","pricing_plan_id":"cebpf4jnsgd1na2vs0mg"},{"bike_id":"28a47607-e7d7-4dc5-8187-63f6cab90e4f","system_id":"levelo_inurba_marseille","lat":43.294162,"lon":5.386292,"is_reserved":false,"is_disabled":false,"rental_uris":{"android":"levelo://app?vid=28a47607-e7d7-4dc5-8187-63f6cab90e4f","ios":"levelo://app?vid=28a47607-e7d7-4dc5-8187-63f6cab90e4f"},"vehicle_type_id":"4","last_reported":1713550146,"current_range_meters":13600,"station_id":"ce4bh2h2rcd13ifvqdh0","pricing_plan_id":"cebpf4jnsgd1na2vs0mg"},{"bike_id":"7ffe131c-a235-45f2-9c34-0461e7d24d6f","system_id":"levelo_inurba_marseille","lat":43.290319,"lon":5.375732,"is_reserved":false,"is_disabled":false,"rental_uris":{"android":"levelo://app?vid=7ffe131c-a235-45f2-9c34-0461e7d24d6f","ios":"levelo://app?vid=7ffe131c-a235-45f2-9c34-0461e7d24d6f"},"vehicle_type_id":"4","last_reported":1713550146,"current_range_meters":0,"station_id":"ce4bh692rcd13ifvqe90","pricing_plan_id":"cebpf4jnsgd1na2vs0mg"},{"bike_id":"402d436f-bbeb-4f2a-acde-a31b3326cc02","system_id":"levelo_inurba_marseille","lat":43.28943,"lon":5.36635,"is_reserved":false,"is_disabled":false,"rental_uris":{"android":"levelo://app?vid=402d436f-bbeb-4f2a-acde-a31b3326cc02","ios":"levelo://app?vid=402d436f-bbeb-4f2a-acde-a31b3326cc02"},"vehicle_type_id":"4","last_reported":1713550146,"current_range_meters":6000,"station_id":"ce4bhap2rcd13ifvqek0","pricing_plan_id":"cebpf4jnsgd1na2vs0mg"},{"bike_id":"720251b4-6693-4974-a3f1-e45f713aff06","system_id":"levelo_inurba_marseille","lat":43.29413,"lon":5.38623,"is_reserved":false,"is_disabled":false,"rental_uris":{"android":"levelo://app?vid=720251b4-6693-4974-a3f1-e45f713aff06","ios":"levelo://app?vid=720251b4-6693-4974-a3f1-e45f713aff06"},"vehicle_type_id":"4","last_reported":1713550146,"current_range_meters":4000,"station_id":"ce4bh2h2rcd13ifvqdh0","pricing_plan_id":"cebpf4jnsgd1na2vs0mg"},{"bike_id":"d0b08e65-d396-4540-92fc-fd4d89bb8e0d","system_id":"levelo_inurba_marseille","lat":43.29416,"lon":5.38629,"is_reserved":false,"is_disabled":false,"rental_uris":{"android":"levelo://app?vid=d0b08e65-d396-4540-92fc-fd4d89bb8e0d","ios":"levelo://app?vid=d0b08e65-d396-4540-92fc-fd4d89bb8e0d"},"vehicle_type_id":"4","last_reported":1713550146,"current_range_meters":13600,"station_id":"ce4bh2h2rcd13ifvqdh0","pricing_plan_id":"cebpf4jnsgd1na2vs0mg"},{"bike_id":"faeed690-ccd8-4fa9-9523-9b77a9afb098","system_id":"levelo_inurba_marseille","lat":43.28941,"lon":5.36631,"is_reserved":false,"is_disabled":false,"rental_uris":{"android":"levelo://app?vid=faeed690-ccd8-4fa9-9523-9b77a9afb098","ios":"levelo://app?vid=faeed690-ccd8-4fa9-9523-9b77a9afb098"},"vehicle_type_id":"4","last_reported":1713550146,"current_range_meters":26000,"station_id":"ce4bhap2rcd13ifvqek0","pricing_plan_id":"cebpf4jnsgd1na2vs0mg"},{"bike_id":"4f130583-3916-4005-8128-cc08ea32edc1","system_id":"levelo_inurba_marseille","lat":43.2894,"lon":5.36634,"is_reserved":false,"is_disabled":false,"rental_uris":{"android":"levelo://app?vid=4f130583-3916-4005-8128-cc08ea32edc1","ios":"levelo://app?vid=4f130583-3916-4005-8128-cc08ea32edc1"},"vehicle_type_id":"4","last_reported":1713550146,"current_range_meters":26800,"station_id":"ce4bhap2rcd13ifvqek0","pricing_plan_id":"cebpf4jnsgd1na2vs0mg"},{"bike_id":"616e23ae-89fd-4817-9deb-f6f90e6e3770","system_id":"levelo_inurba_marseille","lat":43.2894,"lon":5.36631,"is_reserved":false,"is_disabled":false,"rental_uris":{"android":"levelo://app?vid=616e23ae-89fd-4817-9deb-f6f90e6e3770","ios":"levelo://app?vid=616e23ae-89fd-4817-9deb-f6f90e6e3770"},"vehicle_type_id":"4","last_reported":1713550146,"current_range_meters":28800,"station_id":"ce4bhap2rcd13ifvqek0","pricing_plan_id":"cebpf4jnsgd1na2vs0mg"},{"bike_id":"244f3303-5188-4e6f-8df5-24c2ca7565b2","system_id":"levelo_inurba_marseille","lat":43.289468,"lon":5.363719,"is_reserved":false,"is_disabled":false,"rental_uris":{"android":"levelo://app?vid=244f3303-5188-4e6f-8df5-24c2ca7565b2","ios":"levelo://app?vid=244f3303-5188-4e6f-8df5-24c2ca7565b2"},"vehicle_type_id":"4","last_reported":1713550146,"current_range_meters":0,"station_id":"ce4bhc92rcd13ifvqetg","pricing_plan_id":"cebpf4jnsgd1na2vs0mg"},{"bike_id":"18142df0-beb6-4ff1-9f9a-1f3f8f04decc","system_id":"levelo_inurba_marseille","lat":43.289424,"lon":5.364231,"is_reserved":false,"is_disabled":false,"rental_uris":{"android":"levelo://app?vid=18142df0-beb6-4ff1-9f9a-1f3f8f04decc","ios":"levelo://app?vid=18142df0-beb6-4ff1-9f9a-1f3f8f04decc"},"vehicle_type_id":"4","last_reported":1713550146,"current_range_meters":0,"station_id":"ce4bhc92rcd13ifvqetg","pricing_plan_id":"cebpf4jnsgd1na2vs0mg"},{"bike_id":"57dbc058-40b3-40b2-840c-a0de945adc33","system_id":"levelo_inurba_marseille","lat":43.289424,"lon":5.363966,"is_reserved":false,"is_disabled":false,"rental_uris":{"android":"levelo://app?vid=57dbc058-40b3-40b2-840c-a0de945adc33","ios":"levelo://app?vid=57dbc058-40b3-40b2-840c-a0de945adc33"},"vehicle_type_id":"4","last_reported":1713550146,"current_range_meters":0,"station_id":"ce4bhc92rcd13ifvqetg","pricing_plan_id":"cebpf4jnsgd1na2vs0mg"},{"bike_id":"b80aeb92-d06a-44dd-b6ba-4e0aca0c09b8","system_id":"levelo_inurba_marseille","lat":43.289468,"lon":5.363719,"is_reserved":false,"is_disabled":false,"rental_uris":{"android":"levelo://app?vid=b80aeb92-d06a-44dd-b6ba-4e0aca0c09b8","ios":"levelo://app?vid=b80aeb92-d06a-44dd-b6ba-4e0aca0c09b8"},"vehicle_type_id":"4","last_reported":1713550146,"current_range_meters":0,"station_id":"ce4bhc92rcd13ifvqetg","pricing_plan_id":"cebpf4jnsgd1na2vs0mg"},{"bike_id":"14b7b1a2-79a7-4b0c-baf8-70e934a7bf9a","system_id":"levelo_inurba_marseille","lat":43.292773,"lon":5.38438,"is_reserved":false,"is_disabled":false,"rental_uris":{"android":"levelo://app?vid=14b7b1a2-79a7-4b0c-baf8-70e934a7bf9a","ios":"levelo://app?vid=14b7b1a2-79a7-4b0c-baf8-70e934a7bf9a"},"vehicle_type_id":"4","last_reported":1713550146,"current_range_meters":0,"station_id":"ce4bh692rcd13ifvqea0","pricing_plan_id":"cebpf4jnsgd1na2vs0mg"},{"bike_id":"aa403907-7416-4332-824f-1e5874fabda6","system_id":"levelo_inurba_marseille","lat":43.29197,"lon":5.38256,"is_reserved":false,"is_disabled":false,"rental_uris":{"android":"levelo://app?vid=aa403907-7416-4332-824f-1e5874fabda6","ios":"levelo://app?vid=aa403907-7416-4332-824f-1e5874fabda6"},"vehicle_type_id":"4","last_reported":1713550146,"current_range_meters":19200,"station_id":"","pricing_plan_id":"cebpf4jnsgd1na2vs0mg"},{"bike_id":"ea7dfd01-8ed8-4a36-9bc2-3c748854a945","system_id":"levelo_inurba_marseille","lat":43.292644,"lon":5.384257,"is_reserved":false,"is_disabled":false,"rental_uris":{"android":"levelo://app?vid=ea7dfd01-8ed8-4a36-9bc2-3c748854a945","ios":"levelo://app?vid=ea7dfd01-8ed8-4a36-9bc2-3c748854a945"},"vehicle_type_id":"4","last_reported":1713550146,"current_range_meters":10800,"station_id":"ce4bh692rcd13ifvqea0","pricing_plan_id":"cebpf4jnsgd1na2vs0mg"},{"bike_id":"8adba55b-a54a-41a5-84ce-f1c2c2b816b6","system_id":"levelo_inurba_marseille","lat":43.292644,"lon":5.384257,"is_reserved":false,"is_disabled":false,"rental_uris":{"android":"levelo://app?vid=8adba55b-a54a-41a5-84ce-f1c2c2b816b6","ios":"levelo://app?vid=8adba55b-a54a-41a5-84ce-f1c2c2b816b6"},"vehicle_type_id":"4","last_reported":1713550146,"current_range_meters":4400,"station_id":"ce4bh692rcd13ifvqea0","pricing_plan_id":"cebpf4jnsgd1na2vs0mg"},{"bike_id":"a29544a9-457f-4a1d-af62-e956273904c0","system_id":"levelo_inurba_marseille","lat":43.292629,"lon":5.384181,"is_reserved":false,"is_disabled":false,"rental_uris":{"android":"levelo://app?vid=a29544a9-457f-4a1d-af62-e956273904c0","ios":"levelo://app?vid=a29544a9-457f-4a1d-af62-e956273904c0"},"vehicle_type_id":"4","last_reported":1713550146,"current_range_meters":10400,"station_id":"ce4bh692rcd13ifvqea0","pricing_plan_id":"cebpf4jnsgd1na2vs0mg"},{"bike_id":"54d3e35e-770c-4204-b8cb-1b72a7088bfd","system_id":"levelo_inurba_marseille","lat":43.292706,"lon":5.384379,"is_reserved":false,"is_disabled":false,"rental_uris":{"android":"levelo://app?vid=54d3e35e-770c-4204-b8cb-1b72a7088bfd","ios":"levelo://app?vid=54d3e35e-770c-4204-b8cb-1b72a7088bfd"},"vehicle_type_id":"4","last_reported":1713550146,"current_range_meters":8000,"station_id":"ce4bh692rcd13ifvqea0","pricing_plan_id":"cebpf4jnsgd1na2vs0mg"},{"bike_id":"224d76d4-ea66-46bf-9c65-3f9798bfacdb","system_id":"levelo_inurba_marseille","lat":43.292644,"lon":5.384257,"is_reserved":false,"is_disabled":false,"rental_uris":{"android":"levelo://app?vid=224d76d4-ea66-46bf-9c65-3f9798bfacdb","ios":"levelo://app?vid=224d76d4-ea66-46bf-9c65-3f9798bfacdb"},"vehicle_type_id":"4","last_reported":1713550146,"current_range_meters":4000,"station_id":"ce4bh692rcd13ifvqea0","pricing_plan_id":"cebpf4jnsgd1na2vs0mg"},{"bike_id":"3ee826e8-25af-427f-8572-163e6dd68763","system_id":"levelo_inurba_marseille","lat":43.292644,"lon":5.384257,"is_reserved":false,"is_disabled":false,"rental_uris":{"android":"levelo://app?vid=3ee826e8-25af-427f-8572-163e6dd68763","ios":"levelo://app?vid=3ee826e8-25af-427f-8572-163e6dd68763"},"vehicle_type_id":"4","last_reported":1713550146,"current_range_meters":24400,"station_id":"ce4bh692rcd13ifvqea0","pricing_plan_id":"cebpf4jnsgd1na2vs0mg"},{"bike_id":"c93c1105-70b6-46f1-81ce-431e00ed6f6d","system_id":"levelo_inurba_marseille","lat":43.289184,"lon":5.366408,"is_reserved":false,"is_disabled":false,"rental_uris":{"android":"levelo://app?vid=c93c1105-70b6-46f1-81ce-431e00ed6f6d","ios":"levelo://app?vid=c93c1105-70b6-46f1-81ce-431e00ed6f6d"},"vehicle_type_id":"4","last_reported":1713550146,"current_range_meters":24000,"station_id":"ce4bhap2rcd13ifvqek0","pricing_plan_id":"cebpf4jnsgd1na2vs0mg"},{"bike_id":"73e1ce36-861e-4b8f-80af-1dea30207e48","system_id":"levelo_inurba_marseille","lat":43.29263,"lon":5.38428,"is_reserved":false,"is_disabled":false,"rental_uris":{"android":"levelo://app?vid=73e1ce36-861e-4b8f-80af-1dea30207e48","ios":"levelo://app?vid=73e1ce36-861e-4b8f-80af-1dea30207e48"},"vehicle_type_id":"4","last_reported":1713550146,"current_range_meters":800,"station_id":"ce4bh692rcd13ifvqea0","pricing_plan_id":"cebpf4jnsgd1na2vs0mg"},{"bike_id":"41665343-aeea-4bff-9464-9e4117dd928c","system_id":"levelo_inurba_marseille","lat":43.304296,"lon":5.397513,"is_reserved":false,"is_disabled":false,"rental_uris":{"android":"levelo://app?vid=41665343-aeea-4bff-9464-9e4117dd928c","ios":"levelo://app?vid=41665343-aeea-4bff-9464-9e4117dd928c"},"vehicle_type_id":"4","last_reported":1713550146,"current_range_meters":27200,"station_id":"ce4bh092rcd13ifvqd20","pricing_plan_id":"cebpf4jnsgd1na2vs0mg"},{"bike_id":"6451d537-460d-4e8a-973b-2d2b8108931a","system_id":"levelo_inurba_marseille","lat":43.29265,"lon":5.38436,"is_reserved":false,"is_disabled":false,"rental_uris":{"android":"levelo://app?vid=6451d537-460d-4e8a-973b-2d2b8108931a","ios":"levelo://app?vid=6451d537-460d-4e8a-973b-2d2b8108931a"},"vehicle_type_id":"4","last_reported":1713550146,"current_range_meters":1200,"station_id":"ce4bh692rcd13ifvqea0","pricing_plan_id":"cebpf4jnsgd1na2vs0mg"},{"bike_id":"e87ec66b-858b-42ea-a269-63f8708751d8","system_id":"levelo_inurba_marseille","lat":43.2926,"lon":5.38428,"is_reserved":false,"is_disabled":false,"rental_uris":{"android":"levelo://app?vid=e87ec66b-858b-42ea-a269-63f8708751d8","ios":"levelo://app?vid=e87ec66b-858b-42ea-a269-63f8708751d8"},"vehicle_type_id":"4","last_reported":1713550146,"current_range_meters":1200,"station_id":"ce4bh692rcd13ifvqea0","pricing_plan_id":"cebpf4jnsgd1na2vs0mg"},{"bike_id":"395a5c97-c00f-45a4-a21d-1c2fbacf8ada","system_id":"levelo_inurba_marseille","lat":43.292644,"lon":5.384257,"is_reserved":false,"is_disabled":false,"rental_uris":{"android":"levelo://app?vid=395a5c97-c00f-45a4-a21d-1c2fbacf8ada","ios":"levelo://app?vid=395a5c97-c00f-45a4-a21d-1c2fbacf8ada"},"vehicle_type_id":"4","last_reported":1713550146,"current_range_meters":20800,"station_id":"ce4bh692rcd13ifvqea0","pricing_plan_id":"cebpf4jnsgd1na2vs0mg"},{"bike_id":"2394e483-66ae-4bcf-8af1-6fc052794eb9","system_id":"levelo_inurba_marseille","lat":43.292584,"lon":5.384283,"is_reserved":false,"is_disabled":false,"rental_uris":{"android":"levelo://app?vid=2394e483-66ae-4bcf-8af1-6fc052794eb9","ios":"levelo://app?vid=2394e483-66ae-4bcf-8af1-6fc052794eb9"},"vehicle_type_id":"4","last_reported":1713550146,"current_range_meters":0,"station_id":"ce4bh692rcd13ifvqea0","pricing_plan_id":"cebpf4jnsgd1na2vs0mg"},{"bike_id":"22545159-8bd2-4c89-969a-18b91212934e","system_id":"levelo_inurba_marseille","lat":43.292644,"lon":5.384257,"is_reserved":false,"is_disabled":false,"rental_uris":{"android":"levelo://app?vid=22545159-8bd2-4c89-969a-18b91212934e","ios":"levelo://app?vid=22545159-8bd2-4c89-969a-18b91212934e"},"vehicle_type_id":"4","last_reported":1713550146,"current_range_meters":800,"station_id":"ce4bh692rcd13ifvqea0","pricing_plan_id":"cebpf4jnsgd1na2vs0mg"},{"bike_id":"39736c65-9d40-4d59-b828-67057617ea52","system_id":"levelo_inurba_marseille","lat":43.29262,"lon":5.38441,"is_reserved":false,"is_disabled":false,"rental_uris":{"android":"levelo://app?vid=39736c65-9d40-4d59-b828-67057617ea52","ios":"levelo://app?vid=39736c65-9d40-4d59-b828-67057617ea52"},"vehicle_type_id":"4","last_reported":1713550146,"current_range_meters":15200,"station_id":"ce4bh692rcd13ifvqea0","pricing_plan_id":"cebpf4jnsgd1na2vs0mg"},{"bike_id":"22fcae69-f94e-4419-8bb8-adbe478e1812","system_id":"levelo_inurba_marseille","lat":43.29261,"lon":5.38439,"is_reserved":false,"is_disabled":false,"rental_uris":{"android":"levelo://app?vid=22fcae69-f94e-4419-8bb8-adbe478e1812","ios":"levelo://app?vid=22fcae69-f94e-4419-8bb8-adbe478e1812"},"vehicle_type_id":"4","last_reported":1713550146,"current_range_meters":0,"station_id":"ce4bh692rcd13ifvqea0","pricing_plan_id":"cebpf4jnsgd1na2vs0mg"},{"bike_id":"ca5bddce-689c-4183-8241-776f1d0318ef","system_id":"levelo_inurba_marseille","lat":43.292644,"lon":5.384257,"is_reserved":false,"is_disabled":false,"rental_uris":{"android":"levelo://app?vid=ca5bddce-689c-4183-8241-776f1d0318ef","ios":"levelo://app?vid=ca5bddce-689c-4183-8241-776f1d0318ef"},"vehicle_type_id":"4","last_reported":1713550146,"current_range_meters":20800,"station_id":"ce4bh692rcd13ifvqea0","pricing_plan_id":"cebpf4jnsgd1na2vs0mg"},