{"last_updated":1739887733,"ttl":60,"version":"2.2","data":{"bikes":[{"bike_id":"12fcb54a-02b9-4a3e-a8c9-35eec1dfc1dd","system_id":"levelo_inurba_marseille","lat":43.30564,"lon":5.36528,"is_reserved":false,"is_disabled":false,"rental_uris":{"android":"levelo://app?vid=12fcb54a-02b9-4a3e-a8c9-35eec1dfc1dd","ios":"levelo://app?vid=12fcb54a-02b9-4a3e-a8c9-35eec1dfc1dd"},"vehicle_type_id":"4","last_reported":1739887733,"current_range_meters":2800,"station_id":"","pricing_plan_id":"cebpf4jnsgd1na2vs0mg"},{"bike_id":"c4916927-7d10-4eb6-bf80-df6fa900d439","system_id":"levelo_inurba_marseille","lat":43.29554,"lon":5.42287,"is_reserved":false,"is_disabled":false,"rental_uris":{"android":"levelo://app?vid=c4916927-7d10-4eb6-bf80-df6fa900d439","ios":"levelo://app?vid=c4916927-7d10-4eb6-bf80-df6fa900d439"},"vehicle_type_id":"4","last_reported":1739887733,"current_range_meters":2800,"station_id":"ce4bhph2rcd13ifvqhdg","pricing_plan_id":"cebpf4jnsgd1na2vs0mg"},{"bike_id":"8eb46495-f8f5-4c89-a1c2-e14fae42df21","system_id":"levelo_inurba_marseille","lat":43.293083,"lon":5.382359,"is_reserved":false,"is_disabled":false,"rental_uris":{"android":"levelo://app?vid=8eb46495-f8f5-4c89-a1c2-e14fae42df21","ios":"levelo://app?vid=8eb46495-f8f5-4c89-a1c2-e14fae42df21"},"vehicle_type_id":"4","last_reported":1739887733,"current_range_meters":2800,"station_id":"ce4bhb92rcd13ifvqen0","pricing_plan_id":"cebpf4jnsgd1na2vs0mg"},{"bike_id":"ce61429a-686f-445d-80d9-4b10876ed4ef","system_id":"levelo_inurba_marseille","lat":43.337444,"lon":5.374475,"is_reserved":false,"is_disabled":true,"rental_uris":{"android":"levelo://app?vid=ce61429a-686f-445d-80d9-4b10876ed4ef","ios":"levelo://app?vid=ce61429a-686f-445d-80d9-4b10876ed4ef"},"vehicle_type_id":"4","last_reported":1739887733,"current_range_meters":2800,"station_id":"","pricing_plan_id":"cebpf4jnsgd1na2vs0mg"},{"bike_id":"578594e6-df48-49c7-a4c0-94eaa250bb5c","system_id":"levelo_inurba_marseille","lat":43.27678,"lon":5.38893,"is_reserved":false,"is_disabled":false,"rental_uris":{"android":"levelo://app?vid=578594e6-df48-49c7-a4c0-94eaa250bb5c","ios":"levelo://app?vid=578594e6-df48-49c7-a4c0-94eaa250bb5c"},"vehicle_type_id":"4","last_reported":1739887733,"current_range_meters":2800,"station_id":"","pricing_plan_id":"cebpf4jnsgd1na2vs0mg"},{"bike_id":"c06aa0e5-9150-47d2-8bae-396b7a393565","system_id":"levelo_inurba_marseille","lat":43.259167,"lon":5.408906,"is_reserved":false,"is_disabled":true,"rental_uris":{"android":"levelo://app?vid=c06aa0e5-9150-47d2-8bae-396b7a393565","ios":"levelo://app?vid=c06aa0e5-9150-47d2-8bae-396b7a393565"},"vehicle_type_id":"4","last_reported":1739887733,"current_range_meters":3600,"station_id":"ce4bhg12rcd13ifvqf60","pricing_plan_id":"cebpf4jnsgd1na2vs0mg"},{"bike_id":"62524584-bda9-4e5d-b69d-55406b30e077","system_id":"levelo_inurba_marseille","lat":43.30863,"lon":5.37434,"is_reserved":false,"is_disabled":false,"rental_uris":{"android":"levelo://app?vid=62524584-bda9-4e5d-b69d-55406b30e077","ios":"levelo://app?vid=62524584-bda9-4e5d-b69d-55406b30e077"},"vehicle_type_id":"4","last_reported":1739887733,"current_range_meters":4800,"station_id":"ce4bgn92rcd13ifvqbvg","pricing_plan_id":"cebpf4jnsgd1na2vs0mg"},{"bike_id":"2b278cf2-594f-4230-8154-882e1df047f2","system_id":"levelo_inurba_marseille","lat":43.24081,"lon":5.37748,"is_reserved":false,"is_disabled":false,"rental_uris":{"android":"levelo://app?vid=2b278cf2-594f-4230-8154-882e1df047f2","ios":"levelo://app?vid=2b278cf2-594f-4230-8154-882e1df047f2"},"vehicle_type_id":"4","last_reported":1739887733,"current_range_meters":4400,"station_id":"ce4bhnp2rcd13ifvqgvg","pricing_plan_id":"cebpf4jnsgd1na2vs0mg"},{"bike_id":"adf3ed1a-5a95-4dac-a540-db5f8bcad432","system_id":"levelo_inurba_marseille","lat":43.30301,"lon":5.36906,"is_reserved":false,"is_disabled":false,"rental_uris":{"android":"levelo://app?vid=adf3ed1a-5a95-4dac-a540-db5f8bcad432","ios":"levelo://app?vid=adf3ed1a-5a95-4dac-a540-db5f8bcad432"},"vehicle_type_id":"4","last_reported":1739887733,"current_range_meters":4800,"station_id":"","pricing_plan_id":"cebpf4jnsgd1na2vs0mg"},{"bike_id":"99490785-3eeb-4f92-9d91-0ddec27d0873","system_id":"levelo_inurba_marseille","lat":43.24073,"lon":5.37769,"is_reserved":false,"is_disabled":false,"rental_uris":{"android":"levelo://app?vid=99490785-3eeb-4f92-9d91-0ddec27d0873","ios":"levelo://app?vid=99490785-3eeb-4f92-9d91-0ddec27d0873"},"vehicle_type_id":"4","last_reported":1739887733,"current_range_meters":4800,"station_id":"ce4bhnp2rcd13ifvqgvg","pricing_plan_id":"cebpf4jnsgd1na2vs0mg"},{"bike_id":"331fc934-f91d-4762-83c8-16eb794fa8b2","system_id":"levelo_inurba_marseille","lat":43.28355,"lon":5.38103,"is_reserved":false,"is_disabled":false,"rental_uris":{"android":"levelo://app?vid=331fc934-f91d-4762-83c8-16eb794fa8b2","ios":"levelo://app?vid=331fc934-f91d-4762-83c8-16eb794fa8b2"},"vehicle_type_id":"4","last_reported":1739887733,"current_range_meters":4400,"station_id":"ce4bh412rcd13ifvqdr0","pricing_plan_id":"cebpf4jnsgd1na2vs0mg"},{"bike_id":"f34fd237-e1d0-40c1-87cc-fbbf14a20021","system_id":"levelo_inurba_marseille","lat":43.25921,"lon":5.40895,"is_reserved":false,"is_disabled":false,"rental_uris":{"android":"levelo://app?vid=f34fd237-e1d0-40c1-87cc-fbbf14a20021","ios":"levelo://app?vid=f34fd237-e1d0-40c1-87cc-fbbf14a20021"},"vehicle_type_id":"4","last_reported":1739887733,"current_range_meters":5600,"station_id":"ce4bhm92rcd13ifvqglg","pricing_plan_id":"cebpf4jnsgd1na2vs0mg"},{"bike_id":"870c4024-39e9-4436-af7c-d6948b74c79b","system_id":"levelo_inurba_marseille","lat":43.28147,"lon":5.42634,"is_reserved":false,"is_disabled":false,"rental_uris":{"android":"levelo://app?vid=870c4024-39e9-4436-af7c-d6948b74c79b","ios":"levelo://app?vid=870c4024-39e9-4436-af7c-d6948b74c79b"},"vehicle_type_id":"4","last_reported":1739887733,"current_range_meters":5600,"station_id":"","pricing_plan_id":"cebpf4jnsgd1na2vs0mg"},{"bike_id":"3c9b658e-5200-4a63-b11e-45d6b7377412","system_id":"levelo_inurba_marseille","lat":43.2952,"lon":5.386,"is_reserved":false,"is_disabled":false,"rental_uris":{"android":"levelo://app?vid=3c9b658e-5200-4a63-b11e-45d6b7377412","ios":"levelo://app?vid=3c9b658e-5200-4a63-b11e-45d6b7377412"},"vehicle_type_id":"4","last_reported":1739887733,"current_range_meters":6000,"station_id":"ce4bh2h2rcd13ifvqdh0","pricing_plan_id":"cebpf4jnsgd1na2vs0mg"},{"bike_id":"08c3747a-9fd6-437a-b3bd-caf0706dac14","system_id":"levelo_inurba_marseille","lat":43.26552,"lon":5.37287,"is_reserved":false,"is_disabled":false,"rental_uris":{"android":"levelo://app?vid=08c3747a-9fd6-437a-b3bd-caf0706dac14","ios":"levelo://app?vid=08c3747a-9fd6-437a-b3bd-caf0706dac14"},"vehicle_type_id":"4","last_reported":1739887733,"current_range_meters":6000,"station_id":"","pricing_plan_id":"cebpf4jnsgd1na2vs0mg"},{"bike_id":"7d281b52-66d3-46aa-af5a-4a4aedd60716","system_id":"levelo_inurba_marseille","lat":43.25822,"lon":5.39432,"is_reserved":false,"is_disabled":false,"rental_uris":{"android":"levelo://app?vid=7d281b52-66d3-46aa-af5a-4a4aedd60716","ios":"levelo://app?vid=7d281b52-66d3-46aa-af5a-4a4aedd60716"},"vehicle_type_id":"4","last_reported":1739887733,"current_range_meters":6000,"station_id":"ce4bhip2rcd13ifvqft0","pricing_plan_id":"cebpf4jnsgd1na2vs0mg"},{"bike_id":"dcc5e4d0-d8bc-44ba-96bd-c2009e98dea4","system_id":"levelo_inurba_marseille","lat":43.25925,"lon":5.40928,"is_reserved":false,"is_disabled":false,"rental_uris":{"android":"levelo://app?vid=dcc5e4d0-d8bc-44ba-96bd-c2009e98dea4","ios":"levelo://app?vid=dcc5e4d0-d8bc-44ba-96bd-c2009e98dea4"},"vehicle_type_id":"4","last_reported":1739887733,"current_range_meters":6000,"station_id":"ce4bhm92rcd13ifvqglg","pricing_plan_id":"cebpf4jnsgd1na2vs0mg"},{"bike_id":"75671e62-d26e-4ab2-b8fa-4fde9aaf037d","system_id":"levelo_inurba_marseille","lat":43.28444,"lon":5.39202,"is_reserved":false,"is_disabled":false,"rental_uris":{"android":"levelo://app?vid=75671e62-d26e-4ab2-b8fa-4fde9aaf037d","ios":"levelo://app?vid=75671e62-d26e-4ab2-b8fa-4fde9aaf037d"},"vehicle_type_id":"4","last_reported":1739887733,"current_range_meters":6400,"station_id":"ce4bhoh2rcd13ifvqh5g","pricing_plan_id":"cebpf4jnsgd1na2vs0mg"},{"bike_id":"995bac75-72ad-424a-8783-998d8811e434","system_id":"levelo_inurba_marseille","lat":43.2695,"lon":5.38637,"is_reserved":false,"is_disabled":false,"rental_uris":{"android":"levelo://app?vid=995bac75-72ad-424a-8783-998d8811e434","ios":"levelo://app?vid=995bac75-72ad-424a-8783-998d8811e434"},"vehicle_type_id":"4","last_reported":1739887733,"current_range_meters":6400,"station_id":"ce4bhh92rcd13ifvqfh0","pricing_plan_id":"cebpf4jnsgd1na2vs0mg"},{"bike_id":"2e5e89c3-0e0e-4cca-b25a-7707cb6d7c5d","system_id":"levelo_inurba_marseille","lat":43.27684,"lon":5.40813,"is_reserved":false,"is_disabled":false,"rental_uris":{"android":"levelo://app?vid=2e5e89c3-0e0e-4cca-b25a-7707cb6d7c5d","ios":"levelo://app?vid=2e5e89c3-0e0e-4cca-b25a-7707cb6d7c5d"},"vehicle_type_id":"4","last_reported":1739887733,"current_range_meters":6400,"station_id":"","pricing_plan_id":"cebpf4jnsgd1na2vs0mg"},{"bike_id":"082899f2-db62-443b-9d51-62d93188a678","system_id":"levelo_inurba_marseille","lat":43.27179,"lon":5.40972,"is_reserved":false,"is_disabled":false,"rental_uris":{"android":"levelo://app?vid=082899f2-db62-443b-9d51-62d93188a678","ios":"levelo://app?vid=082899f2-db62-443b-9d51-62d93188a678"},"vehicle_type_id":"4","last_reported":1739887733,"current_range_meters":6400,"station_id":"ce4bhl12rcd13ifvqgf0","pricing_plan_id":"cebpf4jnsgd1na2vs0mg"},{"bike_id":"6f2b3b15-b81d-4b23-9ad9-b54cf1f9c8fc","system_id":"levelo_inurba_marseille","lat":43.32557,"lon":5.41451,"is_reserved":false,"is_disabled":false,"rental_uris":{"android":"levelo://app?vid=6f2b3b15-b81d-4b23-9ad9-b54cf1f9c8fc","ios":"levelo://app?vid=6f2b3b15-b81d-4b23-9ad9-b54cf1f9c8fc"},"vehicle_type_id":"4","last_reported":1739887733,"current_range_meters":6400,"station_id":"ce4bhq12rcd13ifvqhhg","pricing_plan_id":"cebpf4jnsgd1na2vs0mg"},{"bike_id":"3d44f9a9-8470-4c01-974a-625407d54e20","system_id":"levelo_inurba_marseille","lat":43.32468,"lon":5.36542,"is_reserved":false,"is_disabled":false,"rental_uris":{"android":"levelo://app?vid=3d44f9a9-8470-4c01-974a-625407d54e20","ios":"levelo://app?vid=3d44f9a9-8470-4c01-974a-625407d54e20"},"vehicle_type_id":"4","last_reported":1739887733,"current_range_meters":6800,"station_id":"","pricing_plan_id":"cebpf4jnsgd1na2vs0mg"},{"bike_id":"23956d5e-457a-41cf-b4c6-04eed1f4d6d4","system_id":"levelo_inurba_marseille","lat":43.25933,"lon":5.40916,"is_reserved":false,"is_disabled":false,"rental_uris":{"android":"levelo://app?vid=23956d5e-457a-41cf-b4c6-04eed1f4d6d4","ios":"levelo://app?vid=23956d5e-457a-41cf-b4c6-04eed1f4d6d4"},"vehicle_type_id":"4","last_reported":1739887733,"current_range_meters":6800,"station_id":"ce4bhm92rcd13ifvqglg","pricing_plan_id":"cebpf4jnsgd1na2vs0mg"},{"bike_id":"34dc1391-a256-4af0-b6fe-18383869ac9a","system_id":"levelo_inurba_marseille","lat":43.24067,"lon":5.37753,"is_reserved":false,"is_disabled":false,"rental_uris":{"android":"levelo://app?vid=34dc1391-a256-4af0-b6fe-18383869ac9a","ios":"levelo://app?vid=34dc1391-a256-4af0-b6fe-18383869ac9a"},"vehicle_type_id":"4","last_reported":1739887733,"current_range_meters":6800,"station_id":"","pricing_plan_id":"cebpf4jnsgd1na2vs0mg"},{"bike_id":"2fc51c18-93da-4c7a-ae54-30bc1bf5f64d","system_id":"levelo_inurba_marseille","lat":43.2951,"lon":5.38198,"is_reserved":false,"is_disabled":true,"rental_uris":{"android":"levelo://app?vid=2fc51c18-93da-4c7a-ae54-30bc1bf5f64d","ios":"levelo://app?vid=2fc51c18-93da-4c7a-ae54-30bc1bf5f64d"},"vehicle_type_id":"4","last_reported":1739887733,"current_range_meters":6800,"station_id":"","pricing_plan_id":"cebpf4jnsgd1na2vs0mg"},{"bike_id":"430110be-e494-4d47-88fd-fb2b33b394ee","system_id":"levelo_inurba_marseille","lat":43.33018,"lon":5.39055,"is_reserved":false,"is_disabled":false,"rental_uris":{"android":"levelo://app?vid=430110be-e494-4d47-88fd-fb2b33b394ee","ios":"levelo://app?vid=430110be-e494-4d47-88fd-fb2b33b394ee"},"vehicle_type_id":"4","last_reported":1739887733,"current_range_meters":7200,"station_id":"ce4bhr92rcd13ifvqhrg","pricing_plan_id":"cebpf4jnsgd1na2vs0mg"},{"bike_id":"1441ab16-218e-4d90-b3a7-621633692bd3","system_id":"levelo_inurba_marseille","lat":43.25719,"lon":5.41122,"is_reserved":false,"is_disabled":false,"rental_uris":{"android":"levelo://app?vid=1441ab16-218e-4d90-b3a7-621633692bd3","ios":"levelo://app?vid=1441ab16-218e-4d90-b3a7-621633692bd3"},"vehicle_type_id":"4","last_reported":1739887733,"current_range_meters":7200,"station_id":"ce4bhkp2rcd13ifvqgd0","pricing_plan_id":"cebpf4jnsgd1na2vs0mg"},{"bike_id":"e05211db-bbfa-4a0b-ab6f-4634c955683b","system_id":"levelo_inurba_marseille","lat":43.31174,"lon":5.3872,"is_reserved":false,"is_disabled":false,"rental_uris":{"android":"levelo://app?vid=e05211db-bbfa-4a0b-ab6f-4634c955683b","ios":"levelo://app?vid=e05211db-bbfa-4a0b-ab6f-4634c955683b"},"vehicle_type_id":"4","last_reported":1739887733,"current_range_meters":7200,"station_id":"ce4bgv12rcd13ifvqcp0","pricing_plan_id":"cebpf4jnsgd1na2vs0mg"},{"bike_id":"8dbe617a-73bb-43b1-955a-f0b57c2f6fa2","system_id":"levelo_inurba_marseille","lat":43.27372,"lon":5.36255,"is_reserved":false,"is_disabled":false,"rental_uris":{"android":"levelo://app?vid=8dbe617a-73bb-43b1-955a-f0b57c2f6fa2","ios":"levelo://app?vid=8dbe617a-73bb-43b1-955a-f0b57c2f6fa2"},"vehicle_type_id":"4","last_reported":1739887733,"current_range_meters":7200,"station_id":"ce4bhbh2rcd13ifvqeo0","pricing_plan_id":"cebpf4jnsgd1na2vs0mg"},{"bike_id":"98dafedc-f25b-409d-b3e2-803b47ffb900","system_id":"levelo_inurba_marseille","lat":43.245,"lon":5.372373,"is_reserved":false,"is_disabled":false,"rental_uris":{"android":"levelo://app?vid=98dafedc-f25b-409d-b3e2-803b47ffb900","ios":"levelo://app?vid=98dafedc-f25b-409d-b3e2-803b47ffb900"},"vehicle_type_id":"4","last_reported":1739887733,"current_range_meters":7200,"station_id":"","pricing_plan_id":"cebpf4jnsgd1na2vs0mg"},{"bike_id":"55eb0a7c-6b29-484f-b637-0634ae3a25c8","system_id":"levelo_inurba_marseille","lat":43.259,"lon":5.40843,"is_reserved":false,"is_disabled":false,"rental_uris":{"android":"levelo://app?vid=55eb0a7c-6b29-484f-b637-0634ae3a25c8","ios":"levelo://app?vid=55eb0a7c-6b29-484f-b637-0634ae3a25c8"},"vehicle_type_id":"4","last_reported":1739887733,"current_range_meters":8000,"station_id":"","pricing_plan_id":"cebpf4jnsgd1na2vs0mg"},{"bike_id":"24daba64-a19e-4f71-8127-0f17036d852c","system_id":"levelo_inurba_marseille","lat":43.30522,"lon":5.36747,"is_reserved":false,"is_disabled":true,"rental_uris":{"android":"levelo://app?vid=24daba64-a19e-4f71-8127-0f17036d852c","ios":"levelo://app?vid=24daba64-a19e-4f71-8127-0f17036d852c"},"vehicle_type_id":"4","last_reported":1739887733,"current_range_meters":8000,"station_id":"ce4bgrp2rcd13ifvqc9g","pricing_plan_id":"cebpf4jnsgd1na2vs0mg"},{"bike_id":"811901b7-6a39-4b98-9209-f363e05c2482","system_id":"levelo_inurba_marseille","lat":43.28163,"lon":5.4263,"is_reserved":false,"is_disabled":false,"rental_uris":{"android":"levelo://app?vid=811901b7-6a39-4b98-9209-f363e05c2482","ios":"levelo://app?vid=811901b7-6a39-4b98-9209-f363e05c2482"},"vehicle_type_id":"4","last_reported":1739887733,"current_range_meters":8000,"station_id":"ce4bhnh2rcd13ifvqgug","pricing_plan_id":"cebpf4jnsgd1na2vs0mg"},{"bike_id":"b544cc16-b546-40bf-9b16-3cdc3034c1f2","system_id":"levelo_inurba_marseille","lat":43.2815,"lon":5.4264,"is_reserved":false,"is_disabled":false,"rental_uris":{"android":"levelo://app?vid=b544cc16-b546-40bf-9b16-3cdc3034c1f2","ios":"levelo://app?vid=b544cc16-b546-40bf-9b16-3cdc3034c1f2"},"vehicle_type_id":"4","last_reported":1739887733,"current_range_meters":8000,"station_id":"ce4bhnh2rcd13ifvqgug","pricing_plan_id":"cebpf4jnsgd1na2vs0mg"},{"bike_id":"49b2c4da-cc5a-4bfb-a60e-be328f98f1e4","system_id":"levelo_inurba_marseille","lat":43.29243,"lon":5.36046,"is_reserved":false,"is_disabled":false,"rental_uris":{"android":"levelo://app?vid=49b2c4da-cc5a-4bfb-a60e-be328f98f1e4","ios":"levelo://app?vid=49b2c4da-cc5a-4bfb-a60e-be328f98f1e4"},"vehicle_type_id":"4","last_reported":1739887733,"current_range_meters":8000,"station_id":"ce4bhbh2rcd13ifvqeqg","pricing_plan_id":"cebpf4jnsgd1na2vs0mg"},{"bike_id":"4a3367e9-80cf-447d-ae78-02201a45d005","system_id":"levelo_inurba_marseille","lat":43.33726,"lon":5.39191,"is_reserved":false,"is_disabled":false,"rental_uris":{"android":"levelo://app?vid=4a3367e9-80cf-447d-ae78-02201a45d005","ios":"levelo://app?vid=4a3367e9-80cf-447d-ae78-02201a45d005"},"vehicle_type_id":"4","last_reported":1739887733,"current_range_meters":8400,"station_id":"ce4bhr92rcd13ifvqhsg","pricing_plan_id":"cebpf4jnsgd1na2vs0mg"},{"bike_id":"8edd2fd8-1293-41ee-8d6f-3b2f2b027eab","system_id":"levelo_inurba_marseille","lat":43.24997,"lon":5.38933,"is_reserved":false,"is_disabled":false,"rental_uris":{"android":"levelo://app?vid=8edd2fd8-1293-41ee-8d6f-3b2f2b027eab","ios":"levelo://app?vid=8edd2fd8-1293-41ee-8d6f-3b2f2b027eab"},"vehicle_type_id":"4","last_reported":1739887733,"current_range_meters":8400,"station_id":"","pricing_plan_id":"cebpf4jnsgd1na2vs0mg"},{"bike_id":"e634b9f1-fc8f-4f19-bf5a-5a00392b8a7f","system_id":"levelo_inurba_marseille","lat":43.29879,"lon":5.39734,"is_reserved":false,"is_disabled":false,"rental_uris":{"android":"levelo://app?vid=e634b9f1-fc8f-4f19-bf5a-5a00392b8a7f","ios":"levelo://app?vid=e634b9f1-fc8f-4f19-bf5a-5a00392b8a7f"},"vehicle_type_id":"4","last_reported":1739887733,"current_range_meters":8400,"station_id":"","pricing_plan_id":"cebpf4jnsgd1na2vs0mg"},{"bike_id":"a0dfaaa5-2564-40a0-a720-c6022c8dbdf6","system_id":"levelo_inurba_marseille","lat":43.25502,"lon":5.37663,"is_reserved":false,"is_disabled":false,"rental_uris":{"android":"levelo://app?vid=a0dfaaa5-2564-40a0-a720-c6022c8dbdf6","ios":"levelo://app?vid=a0dfaaa5-2564-40a0-a720-c6022c8dbdf6"},"vehicle_type_id":"4","last_reported":1739887733,"current_range_meters":8400,"station_id":"ce4bhh12rcd13ifvqff0","pricing_plan_id":"cebpf4jnsgd1na2vs0mg"},{"bike_id":"020f9db3-6048-4a83-8c59-4acc533112c8","system_id":"levelo_inurba_marseille","lat":43.28155,"lon":5.4263,"is_reserved":false,"is_disabled":false,"rental_uris":{"android":"levelo://app?vid=020f9db3-6048-4a83-8c59-4acc533112c8","ios":"levelo://app?vid=020f9db3-6048-4a83-8c59-4acc533112c8"},"vehicle_type_id":"4","last_reported":1739887733,"current_range_meters":8400,"station_id":"ce4bhnh2rcd13ifvqgug","pricing_plan_id":"cebpf4jnsgd1na2vs0mg"},{"bike_id":"fc66ef61-d227-4bcf-8469-0d4f5ca955e6","system_id":"levelo_inurba_marseille","lat":43.27049,"lon":5.40262,"is_reserved":false,"is_disabled":false,"rental_uris":{"android":"levelo://app?vid=fc66ef61-d227-4bcf-8469-0d4f5ca955e6","ios":"levelo://app?vid=fc66ef61-d227-4bcf-8469-0d4f5ca955e6"},"vehicle_type_id":"4","last_reported":1739887733,"current_range_meters":8400,"station_id":"ce4bhk92rcd13ifvqgc0","pricing_plan_id":"cebpf4jnsgd1na2vs0mg"},{"bike_id":"789bddbf-51c2-49d5-bd4e-dd4e14c3cf92","system_id":"levelo_inurba_marseille","lat":43.26559,"lon":5.37299,"is_reserved":false,"is_disabled":false,"rental_uris":{"android":"levelo://app?vid=789bddbf-51c2-49d5-bd4e-dd4e14c3cf92","ios":"levelo://app?vid=789bddbf-51c2-49d5-bd4e-dd4e14c3cf92"},"vehicle_type_id":"4","last_reported":1739887733,"current_range_meters":8400,"station_id":"","pricing_plan_id":"cebpf4jnsgd1na2vs0mg"},{"bike_id":"6528e792-6c2b-41ab-b102-37d30001a0e7","system_id":"levelo_inurba_marseille","lat":43.27226,"lon":5.4005,"is_reserved":false,"is_disabled":false,"rental_uris":{"android":"levelo://app?vid=6528e792-6c2b-41ab-b102-37d30001a0e7","ios":"levelo://app?vid=6528e792-6c2b-41ab-b102-37d30001a0e7"},"vehicle_type_id":"4","last_reported":1739887733,"current_range_meters":8800,"station_id":"","pricing_plan_id":"cebpf4jnsgd1na2vs0mg"},{"bike_id":"87f1205f-078c-460d-a2ad-43061e635a98","system_id":"levelo_inurba_marseille","lat":43.30463,"lon":5.37911,"is_reserved":false,"is_disabled":false,"rental_uris":{"android":"levelo://app?vid=87f1205f-078c-460d-a2ad-43061e635a98","ios":"levelo://app?vid=87f1205f-078c-460d-a2ad-43061e635a98"},"vehicle_type_id":"4","last_reported":1739887733,"current_range_meters":8800,"station_id":"ce4bgup2rcd13ifvqcn0","pricing_plan_id":"cebpf4jnsgd1na2vs0mg"},{"bike_id":"09625a22-d446-4e59-8267-015f8bb79d9d","system_id":"levelo_inurba_marseille","lat":43.24072,"lon":5.37759,"is_reserved":false,"is_disabled":false,"rental_uris":{"android":"levelo://app?vid=09625a22-d446-4e59-8267-015f8bb79d9d","ios":"levelo://app?vid=09625a22-d446-4e59-8267-015f8bb79d9d"},"vehicle_type_id":"4","last_reported":1739887733,"current_range_meters":8800,"station_id":"ce4bhnp2rcd13ifvqgvg","pricing_plan_id":"cebpf4jnsgd1na2vs0mg"},{"bike_id":"6bb7ac37-d16c-4a25-b6eb-1bf8ca1b78d5","system_id":"levelo_inurba_marseille","lat":43.32548,"lon":5.41448,"is_reserved":false,"is_disabled":false,"rental_uris":{"android":"levelo://app?vid=6bb7ac37-d16c-4a25-b6eb-1bf8ca1b78d5","ios":"levelo://app?vid=6bb7ac37-d16c-4a25-b6eb-1bf8ca1b78d5"},"vehicle_type_id":"4","last_reported":1739887733,"current_range_meters":8800,"station_id":"ce4bhq12rcd13ifvqhhg","pricing_plan_id":"cebpf4jnsgd1na2vs0mg"},{"bike_id":"d2c4fd2d-be27-459a-a56b-559fa286f93a","system_id":"levelo_inurba_marseille","lat":43.26681,"lon":5.38276,"is_reserved":false,"is_disabled":false,"rental_uris":{"android":"levelo://app?vid=d2c4fd2d-be27-459a-a56b-559fa286f93a","ios":"levelo://app?vid=d2c4fd2d-be27-459a-a56b-559fa286f93a"},"vehicle_type_id":"4","last_reported":1739887733,"current_range_meters":9200,"station_id":"ce4bhg92rcd13ifvqf90","pricing_plan_id":"cebpf4jnsgd1na2vs0mg"},{"bike_id":"51680f0e-1c24-4926-86c7-fdce9e2ae32c","system_id":"levelo_inurba_marseille","lat":43.28843,"lon":5.39312,"is_reserved":false,"is_disabled":false,"rental_uris":{"android":"levelo://app?vid=51680f0e-1c24-4926-86c7-fdce9e2ae32c","ios":"levelo://app?vid=51680f0e-1c24-4926-86c7-fdce9e2ae32c"},"vehicle_type_id":"4","last_reported":1739887733,"current_range_meters":8800,"station_id":"ce4bh2p2rcd13ifvqdi0","pricing_plan_id":"cebpf4jnsgd1na2vs0mg"},{"bike_id":"1e9781a8-906d-44c3-9c15-fb5a6e074be3","system_id":"levelo_inurba_marseille","lat":43.2762,"lon":5.36111,"is_reserved":false,"is_disabled":false,"rental_uris":{"android":"levelo://app?vid=1e9781a8-906d-44c3-9c15-fb5a6e074be3","ios":"levelo://app?vid=1e9781a8-906d-44c3-9c15-fb5a6e074be3"},"vehicle_type_id":"4","last_reported":1739887733,"current_range_meters":9200,"station_id":"ce4bgj92rcd13ifvqbe0","pricing_plan_id":"cebpf4jnsgd1na2vs0mg"},{"bike_id":"e7b5440b-9fd9-40fc-976b-200fd24b2e6d","system_id":"levelo_inurba_marseille","lat":43.25858,"lon":5.39907,"is_reserved":false,"is_disabled":false,"rental_uris":{"android":"levelo://app?vid=e7b5440b-9fd9-40fc-976b-200fd24b2e6d","ios":"levelo://app?vid=e7b5440b-9fd9-40fc-976b-200fd24b2e6d"},"vehicle_type_id":"4","last_reported":1739887733,"current_range_meters":9200,"station_id":"ce4bhl92rcd13ifvqghg","pricing_plan_id":"cebpf4jnsgd1na2vs0mg"},{"bike_id":"c846814d-4e48-406c-8038-b1b9340587d5","system_id":"levelo_inurba_marseille","lat":43.30124,"lon":5.3986,"is_reserved":false,"is_disabled":false,"rental_uris":{"android":"levelo://app?vid=c846814d-4e48-406c-8038-b1b9340587d5","ios":"levelo://app?vid=c846814d-4e48-406c-8038-b1b9340587d5"},"vehicle_type_id":"4","last_reported":1739887733,"current_range_meters":9200,"station_id":"ce4bh0h2rcd13ifvqd40","pricing_plan_id":"cebpf4jnsgd1na2vs0mg"},{"bike_id":"eacf38ea-5eb9-4213-b058-cccf4e5cbe30","system_id":"levelo_inurba_marseille","lat":43.31708,"lon":5.37754,"is_reserved":false,"is_disabled":false,"rental_uris":{"android":"levelo://app?vid=eacf38ea-5eb9-4213-b058-cccf4e5cbe30","ios":"levelo://app?vid=eacf38ea-5eb9-4213-b058-cccf4e5cbe30"},"vehicle_type_id":"4","last_reported":1739887733,"current_range_meters":9200,"station_id":"ce4bgth2rcd13ifvqch0","pricing_plan_id":"cebpf4jnsgd1na2vs0mg"},{"bike_id":"43e58a6d-2a17-41bb-bd75-661bed22a62b","system_id":"levelo_inurba_marseille","lat":43.31177,"lon":5.38708,"is_reserved":false,"is_disabled":false,"rental_uris":{"android":"levelo://app?vid=43e58a6d-2a17-41bb-bd75-661bed22a62b","ios":"levelo://app?vid=43e58a6d-2a17-41bb-bd75-661bed22a62b"},"vehicle_type_id":"4","last_reported":1739887733,"current_range_meters":9200,"station_id":"","pricing_plan_id":"cebpf4jnsgd1na2vs0mg"},{"bike_id":"466751f7-c6ae-472b-9bd5-e45ad3850b96","system_id":"levelo_inurba_marseille","lat":43.29359,"lon":5.37827,"is_reserved":false,"is_disabled":false,"rental_uris":{"android":"levelo://app?vid=466751f7-c6ae-472b-9bd5-e45ad3850b96","ios":"levelo://app?vid=466751f7-c6ae-472b-9bd5-e45ad3850b96"},"vehicle_type_id":"4","last_reported":1739887733,"current_range_meters":12800,"station_id":"ce4bgjh2rcd13ifvqbf0","pricing_plan_id":"cebpf4jnsgd1na2vs0mg"},{"bike_id":"aa8b6f13-b7b9-4656-af08-b725eb8435a5","system_id":"levelo_inurba_marseille","lat":43.28262,"lon":5.3506,"is_reserved":false,"is_disabled":false,"rental_uris":{"android":"levelo://app?vid=aa8b6f13-b7b9-4656-af08-b725eb8435a5","ios":"levelo://app?vid=aa8b6f13-b7b9-4656-af08-b725eb8435a5"},"vehicle_type_id":"4","last_reported":1739887733,"current_range_meters":9600,"station_id":"","pricing_plan_id":"cebpf4jnsgd1na2vs0mg"},{"bike_id":"6bfe14e1-da21-4188-817d-8ac2f77d0245","system_id":"levelo_inurba_marseille","lat":43.32503,"lon":5.36566,"is_reserved":false,"is_disabled":false,"rental_uris":{"android":"levelo://app?vid=6bfe14e1-da21-4188-817d-8ac2f77d0245","ios":"levelo://app?vid=6bfe14e1-da21-4188-817d-8ac2f77d0245"},"vehicle_type_id":"4","last_reported":1739887733,"current_range_meters":9600,"station_id":"ce4bhs12rcd13ifvqhvg","pricing_plan_id":"cebpf4jnsgd1na2vs0mg"},{"bike_id":"c0751e32-a284-4ffc-9688-3eda8ab2ac81","system_id":"levelo_inurba_marseille","lat":43.30543,"lon":5.36561,"is_reserved":false,"is_disabled":false,"rental_uris":{"android":"levelo://app?vid=c0751e32-a284-4ffc-9688-3eda8ab2ac81","ios":"levelo://app?vid=c0751e32-a284-4ffc-9688-3eda8ab2ac81"},"vehicle_type_id":"4","last_reported":1739887733,"current_range_meters":9600,"station_id":"ce4bgs12rcd13ifvqcag","pricing_plan_id":"cebpf4jnsgd1na2vs0mg"},{"bike_id":"edb37d47-16ee-4911-8114-e387cbc8f1a7","system_id":"levelo_inurba_marseille","lat":43.29617,"lon":5.37735,"is_reserved":false,"is_disabled":false,"rental_uris":{"android":"levelo://app?vid=edb37d47-16ee-4911-8114-e387cbc8f1a7","ios":"levelo://app?vid=edb37d47-16ee-4911-8114-e387cbc8f1a7"},"vehicle_type_id":"4","last_reported":1739887733,"current_range_meters":9200,"station_id":"ce4bgi92rcd13ifvqb90","pricing_plan_id":"cebpf4jnsgd1na2vs0mg"},{"bike_id":"fc9896ce-1f52-403c-86a7-1678079c9523","system_id":"levelo_inurba_marseille","lat":43.28149,"lon":5.44215,"is_reserved":false,"is_disabled":false,"rental_uris":{"android":"levelo://app?vid=fc9896ce-1f52-403c-86a7-1678079c9523","ios":"levelo://app?vid=fc9896ce-1f52-403c-86a7-1678079c9523"},"vehicle_type_id":"4","last_reported":1739887733,"current_range_meters":9600,"station_id":"","pricing_plan_id":"cebpf4jnsgd1na2vs0mg"},{"bike_id":"02267c3b-b983-4218-a343-436ee4d6ef04","system_id":"levelo_inurba_marseille","lat":43.2963,"lon":5.40601,"is_reserved":false,"is_disabled":false,"rental_uris":{"android":"levelo://app?vid=02267c3b-b983-4218-a343-436ee4d6ef04","ios":"levelo://app?vid=02267c3b-b983-4218-a343-436ee4d6ef04"},"vehicle_type_id":"4","last_reported":1739887733,"current_range_meters":10000,"station_id":"ce4bh0h2rcd13ifvqd60","pricing_plan_id":"cebpf4jnsgd1na2vs0mg"},{"bike_id":"fab2cbc9-105a-42d6-9706-86ab4357243b","system_id":"levelo_inurba_marseille","lat":43.32111,"lon":5.36766,"is_reserved":false,"is_disabled":false,"rental_uris":{"android":"levelo://app?vid=fab2cbc9-105a-42d6-9706-86ab4357243b","ios":"levelo://app?vid=fab2cbc9-105a-42d6-9706-86ab4357243b"},"vehicle_type_id":"4","last_reported":1739887733,"current_range_meters":10000,"station_id":"ce4bhrh2rcd13ifvqhug","pricing_plan_id":"cebpf4jnsgd1na2vs0mg"},{"bike_id":"9084f880-c05c-41d9-962e-1ab7add2848e","system_id":"levelo_inurba_marseille","lat":43.24068,"lon":5.37745,"is_reserved":false,"is_disabled":false,"rental_uris":{"android":"levelo://app?vid=9084f880-c05c-41d9-962e-1ab7add2848e","ios":"levelo://app?vid=9084f880-c05c-41d9-962e-1ab7add2848e"},"vehicle_type_id":"4","last_reported":1739887733,"current_range_meters":10000,"station_id":"ce4bhnp2rcd13ifvqgvg","pricing_plan_id":"cebpf4jnsgd1na2vs0mg"},{"bike_id":"363da82c-a160-4891-a48f-b204f746827c","system_id":"levelo_inurba_marseille","lat":43.2993,"lon":5.36561,"is_reserved":false,"is_disabled":false,"rental_uris":{"android":"levelo://app?vid=363da82c-a160-4891-a48f-b204f746827c","ios":"levelo://app?vid=363da82c-a160-4891-a48f-b204f746827c"},"vehicle_type_id":"4","last_reported":1739887733,"current_range_meters":10800,"station_id":"ce4bgm92rcd13ifvqbr0","pricing_plan_id":"cebpf4jnsgd1na2vs0mg"},{"bike_id":"fd5113e2-f0c4-437d-9a49-8b63c943def0","system_id":"levelo_inurba_marseille","lat":43.29059,"lon":5.37158,"is_reserved":false,"is_disabled":false,"rental_uris":{"android":"levelo://app?vid=fd5113e2-f0c4-437d-9a49-8b63c943def0","ios":"levelo://app?vid=fd5113e2-f0c4-437d-9a49-8b63c943def0"},"vehicle_type_id":"4","last_reported":1739887733,"current_range_meters":10800,"station_id":"ce4bh5p2rcd13ifvqe4g","pricing_plan_id":"cebpf4jnsgd1na2vs0mg"},{"bike_id":"3ab4ecca-a7d0-4e14-9e63-eca0d3b35304","system_id":"levelo_inurba_marseille","lat":43.30465,"lon":5.38206,"is_reserved":false,"is_disabled":false,"rental_uris":{"android":"levelo://app?vid=3ab4ecca-a7d0-4e14-9e63-eca0d3b35304","ios":"levelo://app?vid=3ab4ecca-a7d0-4e14-9e63-eca0d3b35304"},"vehicle_type_id":"4","last_reported":1739887733,"current_range_meters":10800,"station_id":"","pricing_plan_id":"cebpf4jnsgd1na2vs0mg"},{"bike_id":"7e1bcd16-719a-4da9-aa93-fa68923adaea","system_id":"levelo_inurba_marseille","lat":43.24074,"lon":5.37755,"is_reserved":false,"is_disabled":false,"rental_uris":{"android":"levelo://app?vid=7e1bcd16-719a-4da9-aa93-fa68923adaea","ios":"levelo://app?vid=7e1bcd16-719a-4da9-aa93-fa68923adaea"},"vehicle_type_id":"4","last_reported":1739887733,"current_range_meters":10800,"station_id":"ce4bhnp2rcd13ifvqgvg","pricing_plan_id":"cebpf4jnsgd1na2vs0mg"},{"bike_id":"5bb40f8e-64e1-4297-8f10-32086298b1d8","system_id":"levelo_inurba_marseille","lat":43.27174,"lon":5.40999,"is_reserved":false,"is_disabled":false,"rental_uris":{"android":"levelo://app?vid=5bb40f8e-64e1-4297-8f10-32086298b1d8","ios":"levelo://app?vid=5bb40f8e-64e1-4297-8f10-32086298b1d8"},"vehicle_type_id":"4","last_reported":1739887733,"current_range_meters":11200,"station_id":"","pricing_plan_id":"cebpf4jnsgd1na2vs0mg"},{"bike_id":"72e2e3af-aa12-4d1f-b847-e23abd0d1867","system_id":"levelo_inurba_marseille","lat":43.26572,"lon":5.39004,"is_reserved":false,"is_disabled":false,"rental_uris":{"android":"levelo://app?vid=72e2e3af-aa12-4d1f-b847-e23abd0d1867","ios":"levelo://app?vid=72e2e3af-aa12-4d1f-b847-e23abd0d1867"},"vehicle_type_id":"4","last_reported":1739887733,"current_range_meters":11200,"station_id":"ce4bhe12rcd13ifvqf30","pricing_plan_id":"cebpf4jnsgd1na2vs0mg"},{"bike_id":"178c5b56-7136-461f-a5e2-426929022e6e","system_id":"levelo_inurba_marseille","lat":43.29708,"lon":5.37706,"is_reserved":false,"is_disabled":false,"rental_uris":{"android":"levelo://app?vid=178c5b56-7136-461f-a5e2-426929022e6e","ios":"levelo://app?vid=178c5b56-7136-461f-a5e2-426929022e6e"},"vehicle_type_id":"4","last_reported":1739887733,"current_range_meters":11200,"station_id":"ce4bgkh2rcd13ifvqbl0","pricing_plan_id":"cebpf4jnsgd1na2vs0mg"},{"bike_id":"fb5f22ff-2396-4087-a0fb-c0b12f026439","system_id":"levelo_inurba_marseille","lat":43.30313,"lon":5.36883,"is_reserved":false,"is_disabled":false,"rental_uris":{"android":"levelo://app?vid=fb5f22ff-2396-4087-a0fb-c0b12f026439","ios":"levelo://app?vid=fb5f22ff-2396-4087-a0fb-c0b12f026439"},"vehicle_type_id":"4","last_reported":1739887733,"current_range_meters":11600,"station_id":"ce4bgqh2rcd13ifvqc5g","pricing_plan_id":"cebpf4jnsgd1na2vs0mg"},{"bike_id":"ccfa3b82-af6b-4d67-bd17-271554564766","system_id":"levelo_inurba_marseille","lat":43.22931,"lon":5.35377,"is_reserved":false,"is_disabled":false,"rental_uris":{"android":"levelo://app?vid=ccfa3b82-af6b-4d67-bd17-271554564766","ios":"levelo://app?vid=ccfa3b82-af6b-4d67-bd17-271554564766"},"vehicle_type_id":"4","last_reported":1739887733,"current_range_meters":11600,"station_id":"cpo3532slgdg3j2ikp40","pricing_plan_id":"cebpf4jnsgd1na2vs0mg"},{"bike_id":"cb8372d6-bad2-4555-89ad-5b495afb0b59","system_id":"levelo_inurba_marseille","lat":43.24822,"lon":5.37459,"is_reserved":false,"is_disabled":false,"rental_uris":{"android":"levelo://app?vid=cb8372d6-bad2-4555-89ad-5b495afb0b59","ios":"levelo://app?vid=cb8372d6-bad2-4555-89ad-5b495afb0b59"},"vehicle_type_id":"4","last_reported":1739887733,"current_range_meters":11600,"station_id":"ce4bhgh2rcd13ifvqfb0","pricing_plan_id":"cebpf4jnsgd1na2vs0mg"},{"bike_id":"3eccfc18-51b1-4a32-9f00-dbe2668c8e61","system_id":"levelo_inurba_marseille","lat":43.32478,"lon":5.36556,"is_reserved":false,"is_disabled":false,"rental_uris":{"android":"levelo://app?vid=3eccfc18-51b1-4a32-9f00-dbe2668c8e61","ios":"levelo://app?vid=3eccfc18-51b1-4a32-9f00-dbe2668c8e61"},"vehicle_type_id":"4","last_reported":1739887733,"current_range_meters":11600,"station_id":"ce4bhs12rcd13ifvqhvg","pricing_plan_id":"cebpf4jnsgd1na2vs0mg"},{"bike_id":"ed877127-af89-40a6-a623-09dab416b51c","system_id":"levelo_inurba_marseille","lat":43.22923,"lon":5.35395,"is_reserved":false,"is_disabled":false,"rental_uris":{"android":"levelo://app?vid=ed877127-af89-40a6-a623-09dab416b51c","ios":"levelo://app?vid=ed877127-af89-40a6-a623-09dab416b51c"},"vehicle_type_id":"4","last_reported":1739887733,"current_range_meters":11600,"station_id":"cpo3532slgdg3j2ikp40","pricing_plan_id":"cebpf4jnsgd1na2vs0mg"},{"bike_id":"60190de8-37f4-471b-9106-e7ebabfb0b31","system_id":"levelo_inurba_marseille","lat":43.30538,"lon":5.36533,"is_reserved":false,"is_disabled":false,"rental_uris":{"android":"levelo://app?vid=60190de8-37f4-471b-9106-e7ebabfb0b31","ios":"levelo://app?vid=60190de8-37f4-471b-9106-e7ebabfb0b31"},"vehicle_type_id":"4","last_reported":1739887733,"current_range_meters":11600,"station_id":"ce4bgs12rcd13ifvqcag","pricing_plan_id":"cebpf4jnsgd1na2vs0mg"},{"bike_id":"694680bb-b90d-4ded-917c-1467bce9ad9a","system_id":"levelo_inurba_marseille","lat":43.2558,"lon":5.38253,"is_reserved":false,"is_disabled":false,"rental_uris":{"android":"levelo://app?vid=694680bb-b90d-4ded-917c-1467bce9ad9a","ios":"levelo://app?vid=694680bb-b90d-4ded-917c-1467bce9ad9a"},"vehicle_type_id":"4","last_reported":1739887733,"current_range_meters":12000,"station_id":"ce4bhih2rcd13ifvqfs0","pricing_plan_id":"cebpf4jnsgd1na2vs0mg"},{"bike_id":"91bf3218-0a05-4226-acc9-b3131b7d5a8d","system_id":"levelo_inurba_marseille","lat":43.2396,"lon":5.36618,"is_reserved":false,"is_disabled":false,"rental_uris":{"android":"levelo://app?vid=91bf3218-0a05-4226-acc9-b3131b7d5a8d","ios":"levelo://app?vid=91bf3218-0a05-4226-acc9-b3131b7d5a8d"},"vehicle_type_id":"4","last_reported":1739887733,"current_range_meters":12000,"station_id":"ce4bhi12rcd13ifvqfp0","pricing_plan_id":"cebpf4jnsgd1na2vs0mg"},{"bike_id":"b695edde-e613-4c3d-822c-b0566b30327d","system_id":"levelo_inurba_marseille","lat":43.29513,"lon":5.37486,"is_reserved":false,"is_disabled":false,"rental_uris":{"android":"levelo://app?vid=b695edde-e613-4c3d-822c-b0566b30327d","ios":"levelo://app?vid=b695edde-e613-4c3d-822c-b0566b30327d"},"vehicle_type_id":"4","last_reported":1739887733,"current_range_meters":12000,"station_id":"ce4bgkp2rcd13ifvqbmg","pricing_plan_id":"cebpf4jnsgd1na2vs0mg"},{"bike_id":"42c7cfa8-bce6-4834-be4f-e8fd7551245d","system_id":"levelo_inurba_marseille","lat":43.28605,"lon":5.42612,"is_reserved":false,"is_disabled":false,"rental_uris":{"android":"levelo://app?vid=42c7cfa8-bce6-4834-be4f-e8fd7551245d","ios":"levelo://app?vid=42c7cfa8-bce6-4834-be4f-e8fd7551245d"},"vehicle_type_id":"4","last_reported":1739887733,"current_range_meters":12000,"station_id":"","pricing_plan_id":"cebpf4jnsgd1na2vs0mg"},{"bike_id":"fa7d0d5e-8a57-4cb4-b91e-cb8450826f35","system_id":"levelo_inurba_marseille","lat":43.25008,"lon":5.38954,"is_reserved":false,"is_disabled":false,"rental_uris":{"android":"levelo://app?vid=fa7d0d5e-8a57-4cb4-b91e-cb8450826f35","ios":"levelo://app?vid=fa7d0d5e-8a57-4cb4-b91e-cb8450826f35"},"vehicle_type_id":"4","last_reported":1739887733,"current_range_meters":12000,"station_id":"ce4bhgp2rcd13ifvqfd0","pricing_plan_id":"cebpf4jnsgd1na2vs0mg"},{"bike_id":"72d3fe14-fe7c-44d3-8a01-32a3cf7b6886","system_id":"levelo_inurba_marseille","lat":43.28618,"lon":5.35107,"is_reserved":false,"is_disabled":false,"rental_uris":{"android":"levelo://app?vid=72d3fe14-fe7c-44d3-8a01-32a3cf7b6886","ios":"levelo://app?vid=72d3fe14-fe7c-44d3-8a01-32a3cf7b6886"},"vehicle_type_id":"4","last_reported":1739887733,"current_range_meters":12000,"station_id":"ce4bhch2rcd13ifvqeug","pricing_plan_id":"cebpf4jnsgd1na2vs0mg"},{"bike_id":"a69fe923-bbbf-424c-834a-23b10868f7c7","system_id":"levelo_inurba_marseille","lat":43.30297,"lon":5.36883,"is_reserved":false,"is_disabled":false,"rental_uris":{"android":"levelo://app?vid=a69fe923-bbbf-424c-834a-23b10868f7c7","ios":"levelo://app?vid=a69fe923-bbbf-424c-834a-23b10868f7c7"},"vehicle_type_id":"4","last_reported":1739887733,"current_range_meters":12000,"station_id":"ce4bgqh2rcd13ifvqc5g","pricing_plan_id":"cebpf4jnsgd1na2vs0mg"},{"bike_id":"0abc1ab9-ba53-43c5-97f4-7846cddaf2b2","system_id":"levelo_inurba_marseille","lat":43.26212,"lon":5.37458,"is_reserved":false,"is_disabled":false,"rental_uris":{"android":"levelo://app?vid=0abc1ab9-ba53-43c5-97f4-7846cddaf2b2","ios":"levelo://app?vid=0abc1ab9-ba53-43c5-97f4-7846cddaf2b2"},"vehicle_type_id":"4","last_reported":1739887733,"current_range_meters":12000,"station_id":"","pricing_plan_id":"cebpf4jnsgd1na2vs0mg"},{"bike_id":"1f73d6b6-e66e-4833-bfa1-148a7786476b","system_id":"levelo_inurba_marseille","lat":43.2416,"lon":5.36397,"is_reserved":false,"is_disabled":false,"rental_uris":{"android":"levelo://app?vid=1f73d6b6-e66e-4833-bfa1-148a7786476b","ios":"levelo://app?vid=1f73d6b6-e66e-4833-bfa1-148a7786476b"},"vehicle_type_id":"4","last_reported":1739887733,"current_range_meters":12000,"station_id":"cpo36qri1sfpv3e86is0","pricing_plan_id":"cebpf4jnsgd1na2vs0mg"},{"bike_id":"c848b9b5-1ac3-499b-93fc-45bf030f49d3","system_id":"levelo_inurba_marseille","lat":43.30126,"lon":5.39868,"is_reserved":false,"is_disabled":false,"rental_uris":{"android":"levelo://app?vid=c848b9b5-1ac3-499b-93fc-45bf030f49d3","ios":"levelo://app?vid=c848b9b5-1ac3-499b-93fc-45bf030f49d3"},"vehicle_type_id":"4","last_reported":1739887733,"current_range_meters":12000,"station_id":"ce4bh0h2rcd13ifvqd40","pricing_plan_id":"cebpf4jnsgd1na2vs0mg"},{"bike_id":"dcdc67ee-9bc8-4ce8-baba-762bd071c83c","system_id":"levelo_inurba_marseille","lat":43.25499,"lon":5.37656,"is_reserved":false,"is_disabled":false,"rental_uris":{"android":"levelo://app?vid=dcdc67ee-9bc8-4ce8-baba-762bd071c83c","ios":"levelo://app?vid=dcdc67ee-9bc8-4ce8-baba-762bd071c83c"},"vehicle_type_id":"4","last_reported":1739887733,"current_range_meters":12000,"station_id":"ce4bhh12rcd13ifvqff0","pricing_plan_id":"cebpf4jnsgd1na2vs0mg"},{"bike_id":"b33c4823-eab9-442c-b0d4-6939ce7eeb21","system_id":"levelo_inurba_marseille","lat":43.26558,"lon":5.37294,"is_reserved":false,"is_disabled":false,"rental_uris":{"android":"levelo://app?vid=b33c4823-eab9-442c-b0d4-6939ce7eeb21","ios":"levelo://app?vid=b33c4823-eab9-442c-b0d4-6939ce7eeb21"},"vehicle_type_id":"4","last_reported":1739887733,"current_range_meters":12800,"station_id":"ce4bhg12rcd13ifvqf70","pricing_plan_id":"cebpf4jnsgd1na2vs0mg"},{"bike_id":"ee95d9be-7f70-4967-8b09-5f203b1c2d63","system_id":"levelo_inurba_marseille","lat":43.29217,"lon":5.36033,"is_reserved":false,"is_disabled":false,"rental_uris":{"android":"levelo://app?vid=ee95d9be-7f70-4967-8b09-5f203b1c2d63","ios":"levelo://app?vid=ee95d9be-7f70-4967-8b09-5f203b1c2d63"},"vehicle_type_id":"4","last_reported":1739887733,"current_range_meters":12800,"station_id":"ce4bhbh2rcd13ifvqeqg","pricing_plan_id":"cebpf4jnsgd1na2vs0mg"},{"bike_id":"fc0de7dc-c1f2-4f85-9960-4b75b51483ab","system_id":"levelo_inurba_marseille","lat":43.31989,"lon":5.38168,"is_reserved":false,"is_disabled":false,"rental_uris":{"android":"levelo://app?vid=fc0de7dc-c1f2-4f85-9960-4b75b51483ab","ios":"levelo://app?vid=fc0de7dc-c1f2-4f85-9960-4b75b51483ab"},"vehicle_type_id":"4","last_reported":1739887733,"current_range_meters":12800,"station_id":"ce4bhr12rcd13ifvqhpg","pricing_plan_id":"cebpf4jnsgd1na2vs0mg"},{"bike_id":"945038ee-86f3-4027-b0ae-b5cd1469e755","system_id":"levelo_inurba_marseille","lat":43.26212,"lon":5.37439,"is_reserved":false,"is_disabled":false,"rental_uris":{"android":"levelo://app?vid=945038ee-86f3-4027-b0ae-b5cd1469e755","ios":"levelo://app?vid=945038ee-86f3-4027-b0ae-b5cd1469e755"},"vehicle_type_id":"4","last_reported":1739887733,"current_range_meters":12800,"station_id":"ce4bhgp2rcd13ifvqfc0","pricing_plan_id":"cebpf4jnsgd1na2vs0mg"},{"bike_id":"6c96a73f-ff01-463f-bd8c-14885ee904b6","system_id":"levelo_inurba_marseille","lat":43.2907,"lon":5.35751,"is_reserved":false,"is_disabled":false,"rental_uris":{"android":"levelo://app?vid=6c96a73f-ff01-463f-bd8c-14885ee904b6","ios":"levelo://app?vid=6c96a73f-ff01-463f-bd8c-14885ee904b6"},"vehicle_type_id":"4","last_reported":1739887733,"current_range_meters":12800,"station_id":"ce4bhb92rcd13ifvqen0","pricing_plan_id":"cebpf4jnsgd1na2vs0mg"},{"bike_id":"eb8e2e87-ad12-4e87-8e4a-757897446f7e","system_id":"levelo_inurba_marseille","lat":43.25576,"lon":5.38241,"is_reserved":false,"is_disabled":false,"rental_uris":{"android":"levelo://app?vid=eb8e2e87-ad12-4e87-8e4a-757897446f7e","ios":"levelo://app?vid=eb8e2e87-ad12-4e87-8e4a-757897446f7e"},"vehicle_type_id":"4","last_reported":1739887733,"current_range_meters":12800,"station_id":"ce4bhih2rcd13ifvqfs0","pricing_plan_id":"cebpf4jnsgd1na2vs0mg"},{"bike_id":"1949f8d7-2776-4141-8acb-2a2b11d6dc8e","system_id":"levelo_inurba_marseille","lat":43.29687,"lon":5.37901,"is_reserved":false,"is_disabled":false,"rental_uris":{"android":"levelo://app?vid=1949f8d7-2776-4141-8acb-2a2b11d6dc8e","ios":"levelo://app?vid=1949f8d7-2776-4141-8acb-2a2b11d6dc8e"},"vehicle_type_id":"4","last_reported":1739887733,"current_range_meters":13600,"station_id":"ce4bgi92rcd13ifvqb90","pricing_plan_id":"cebpf4jnsgd1na2vs0mg"},{"bike_id":"84db3063-e29b-4625-8fd1-21da0a3fa4a4","system_id":"levelo_inurba_marseille","lat":43.243835,"lon":5.370556,"is_reserved":false,"is_disabled":false,"rental_uris":{"android":"levelo://app?vid=84db3063-e29b-4625-8fd1-21da0a3fa4a4","ios":"levelo://app?vid=84db3063-e29b-4625-8fd1-21da0a3fa4a4"},"vehicle_type_id":"4","last_reported":1739887733,"current_range_meters":13600,"station_id":"ce4bhh12rcd13ifvqff0","pricing_plan_id":"cebpf4jnsgd1na2vs0mg"},{"bike_id":"8cea3e97-504d-41fe-865b-3e8ee16a15fd","system_id":"levelo_inurba_marseille","lat":43.29569,"lon":5.37533,"is_reserved":false,"is_disabled":false,"rental_uris":{"android":"levelo://app?vid=8cea3e97-504d-41fe-865b-3e8ee16a15fd","ios":"levelo://app?vid=8cea3e97-504d-41fe-865b-3e8ee16a15fd"},"vehicle_type_id":"4","last_reported":1739887733,"current_range_meters":13600,"station_id":"ce4bgh92rcd13ifvqb50","pricing_plan_id":"cebpf4jnsgd1na2vs0mg"},{"bike_id":"d9f1a3ba-8bdd-4905-a381-3d98d4ed6d26","system_id":"levelo_inurba_marseille","lat":43.29869,"lon":5.39728,"is_reserved":false,"is_disabled":false,"rental_uris":{"android":"levelo://app?vid=d9f1a3ba-8bdd-4905-a381-3d98d4ed6d26","ios":"levelo://app?vid=d9f1a3ba-8bdd-4905-a381-3d98d4ed6d26"},"vehicle_type_id":"4","last_reported":1739887733,"current_range_meters":13600,"station_id":"ce4bh0h2rcd13ifvqd50","pricing_plan_id":"cebpf4jnsgd1na2vs0mg"},{"bike_id":"c8816fe5-e9c6-4106-ac55-514a2c190233","system_id":"levelo_inurba_marseille","lat":43.287621,"lon":5.363555,"is_reserved":false,"is_disabled":false,"rental_uris":{"android":"levelo://app?vid=c8816fe5-e9c6-4106-ac55-514a2c190233","ios":"levelo://app?vid=c8816fe5-e9c6-4106-ac55-514a2c190233"},"vehicle_type_id":"4","last_reported":1739887733,"current_range_meters":13600,"station_id":"ce4bhah2rcd13ifvqei0","pricing_plan_id":"cebpf4jnsgd1na2vs0mg"},{"bike_id":"b7a124c2-da09-4c20-a864-61effa0734ea","system_id":"levelo_inurba_marseille","lat":43.30248,"lon":5.4009,"is_reserved":false,"is_disabled":false,"rental_uris":{"android":"levelo://app?vid=b7a124c2-da09-4c20-a864-61effa0734ea","ios":"levelo://app?vid=b7a124c2-da09-4c20-a864-61effa0734ea"},"vehicle_type_id":"4","last_reported":1739887733,"current_range_meters":12000,"station_id":"ce4bgvh2rcd13ifvqcs0","pricing_plan_id":"cebpf4jnsgd1na2vs0mg"},{"bike_id":"32a9e1de-3f37-4a28-b55e-f446aaac2393","system_id":"levelo_inurba_marseille","lat":43.31752,"lon":5.39011,"is_reserved":false,"is_disabled":false,"rental_uris":{"android":"levelo://app?vid=32a9e1de-3f37-4a28-b55e-f446aaac2393","ios":"levelo://app?vid=32a9e1de-3f37-4a28-b55e-f446aaac2393"},"vehicle_type_id":"4","last_reported":1739887733,"current_range_meters":14000,"station_id":"ce4bhqp2rcd13ifvqhng","pricing_plan_id":"cebpf4jnsgd1na2vs0mg"},{"bike_id":"39fc215e-0db6-4887-aaff-bcc3515a473f","system_id":"levelo_inurba_marseille","lat":43.31329,"lon":5.39692,"is_reserved":false,"is_disabled":false,"rental_uris":{"android":"levelo://app?vid=39fc215e-0db6-4887-aaff-bcc3515a473f","ios":"levelo://app?vid=39fc215e-0db6-4887-aaff-bcc3515a473f"},"vehicle_type_id":"4","last_reported":1739887733,"current_range_meters":14000,"station_id":"ce4bgvp2rcd13ifvqcu0","pricing_plan_id":"cebpf4jnsgd1na2vs0mg"},{"bike_id":"ca61e3f6-1dc2-4bd7-87af-a9c1f9dd989e","system_id":"levelo_inurba_marseille","lat":43.27936,"lon":5.41052,"is_reserved":false,"is_disabled":false,"rental_uris":{"android":"levelo://app?vid=ca61e3f6-1dc2-4bd7-87af-a9c1f9dd989e","ios":"levelo://app?vid=ca61e3f6-1dc2-4bd7-87af-a9c1f9dd989e"},"vehicle_type_id":"4","last_reported":1739887733,"current_range_meters":14000,"station_id":"ce4bhnp2rcd13ifvqh0g","pricing_plan_id":"cebpf4jnsgd1na2vs0mg"},{"bike_id":"d7c589c4-6e56-46b8-be99-7e5e76e5bd56","system_id":"levelo_inurba_marseille","lat":43.29215,"lon":5.36054,"is_reserved":false,"is_disabled":false,"rental_uris":{"android":"levelo://app?vid=d7c589c4-6e56-46b8-be99-7e5e76e5bd56","ios":"levelo://app?vid=d7c589c4-6e56-46b8-be99-7e5e76e5bd56"},"vehicle_type_id":"4","last_reported":1739887733,"current_range_meters":14400,"station_id":"ce4bhbh2rcd13ifvqeqg","pricing_plan_id":"cebpf4jnsgd1na2vs0mg"},{"bike_id":"fd14c37b-1c29-48b0-bb89-a76f96891a1f","system_id":"levelo_inurba_marseille","lat":43.28153,"lon":5.42644,"is_reserved":false,"is_disabled":false,"rental_uris":{"android":"levelo://app?vid=fd14c37b-1c29-48b0-bb89-a76f96891a1f","ios":"levelo://app?vid=fd14c37b-1c29-48b0-bb89-a76f96891a1f"},"vehicle_type_id":"4","last_reported":1739887733,"current_range_meters":14400,"station_id":"ce4bhnh2rcd13ifvqgug","pricing_plan_id":"cebpf4jnsgd1na2vs0mg"},{"bike_id":"2f2e19a6-51be-4963-8ea6-0c71a19ff515","system_id":"levelo_inurba_marseille","lat":43.30799,"lon":5.38147,"is_reserved":false,"is_disabled":false,"rental_uris":{"android":"levelo://app?vid=2f2e19a6-51be-4963-8ea6-0c71a19ff515","ios":"levelo://app?vid=2f2e19a6-51be-4963-8ea6-0c71a19ff515"},"vehicle_type_id":"4","last_reported":1739887733,"current_range_meters":16400,"station_id":"ce4bgt12rcd13ifvqce0","pricing_plan_id":"cebpf4jnsgd1na2vs0mg"},{"bike_id":"b36caa57-0737-41c0-8ae8-d13aa23b1bec","system_id":"levelo_inurba_marseille","lat":43.28262,"lon":5.35059,"is_reserved":false,"is_disabled":false,"rental_uris":{"android":"levelo://app?vid=b36caa57-0737-41c0-8ae8-d13aa23b1bec","ios":"levelo://app?vid=b36caa57-0737-41c0-8ae8-d13aa23b1bec"},"vehicle_type_id":"4","last_reported":1739887733,"current_range_meters":14400,"station_id":"","pricing_plan_id":"cebpf4jnsgd1na2vs0mg"},{"bike_id":"2315deec-0a35-4086-9797-4e52c72adca8","system_id":"levelo_inurba_marseille","lat":43.312724,"lon":5.401666,"is_reserved":false,"is_disabled":false,"rental_uris":{"android":"levelo://app?vid=2315deec-0a35-4086-9797-4e52c72adca8","ios":"levelo://app?vid=2315deec-0a35-4086-9797-4e52c72adca8"},"vehicle_type_id":"4","last_reported":1739887733,"current_range_meters":14400,"station_id":"ce4bh092rcd13ifvqd30","pricing_plan_id":"cebpf4jnsgd1na2vs0mg"},{"bike_id":"f91c1705-261e-402c-8700-feaa1e98c514","system_id":"levelo_inurba_marseille","lat":43.26579,"lon":5.39034,"is_reserved":false,"is_disabled":false,"rental_uris":{"android":"levelo://app?vid=f91c1705-261e-402c-8700-feaa1e98c514","ios":"levelo://app?vid=f91c1705-261e-402c-8700-feaa1e98c514"},"vehicle_type_id":"4","last_reported":1739887733,"current_range_meters":14800,"station_id":"ce4bhe12rcd13ifvqf30","pricing_plan_id":"cebpf4jnsgd1na2vs0mg"},{"bike_id":"198241ea-2b60-497f-885d-e646fabd9adf","system_id":"levelo_inurba_marseille","lat":43.30538,"lon":5.36536,"is_reserved":false,"is_disabled":false,"rental_uris":{"android":"levelo://app?vid=198241ea-2b60-497f-885d-e646fabd9adf","ios":"levelo://app?vid=198241ea-2b60-497f-885d-e646fabd9adf"},"vehicle_type_id":"4","last_reported":1739887733,"current_range_meters":14800,"station_id":"ce4bgs12rcd13ifvqcag","pricing_plan_id":"cebpf4jnsgd1na2vs0mg"},{"bike_id":"9444f0b1-ee63-4c08-b4c3-16d111b6017a","system_id":"levelo_inurba_marseille","lat":43.25944,"lon":5.40902,"is_reserved":false,"is_disabled":false,"rental_uris":{"android":"levelo://app?vid=9444f0b1-ee63-4c08-b4c3-16d111b6017a","ios":"levelo://app?vid=9444f0b1-ee63-4c08-b4c3-16d111b6017a"},"vehicle_type_id":"4","last_reported":1739887733,"current_range_meters":14800,"station_id":"","pricing_plan_id":"cebpf4jnsgd1na2vs0mg"},{"bike_id":"8b38b7e9-84da-486b-9860-f9a9a2f3bff1","system_id":"levelo_inurba_marseille","lat":43.28479,"lon":5.38388,"is_reserved":false,"is_disabled":false,"rental_uris":{"android":"levelo://app?vid=8b38b7e9-84da-486b-9860-f9a9a2f3bff1","ios":"levelo://app?vid=8b38b7e9-84da-486b-9860-f9a9a2f3bff1"},"vehicle_type_id":"4","last_reported":1739887733,"current_range_meters":14800,"station_id":"ce4bh512rcd13ifvqe3g","pricing_plan_id":"cebpf4jnsgd1na2vs0mg"},{"bike_id":"96e62473-4ae5-458b-b579-4f5977f374f2","system_id":"levelo_inurba_marseille","lat":43.24067,"lon":5.37767,"is_reserved":false,"is_disabled":false,"rental_uris":{"android":"levelo://app?vid=96e62473-4ae5-458b-b579-4f5977f374f2","ios":"levelo://app?vid=96e62473-4ae5-458b-b579-4f5977f374f2"},"vehicle_type_id":"4","last_reported":1739887733,"current_range_meters":15200,"station_id":"ce4bhnp2rcd13ifvqgvg","pricing_plan_id":"cebpf4jnsgd1na2vs0mg"},{"bike_id":"291a2e8c-486a-4f2b-b424-4dce8491e62b","system_id":"levelo_inurba_marseille","lat":43.27829,"lon":5.39215,"is_reserved":false,"is_disabled":false,"rental_uris":{"android":"levelo://app?vid=291a2e8c-486a-4f2b-b424-4dce8491e62b","ios":"levelo://app?vid=291a2e8c-486a-4f2b-b424-4dce8491e62b"},"vehicle_type_id":"4","last_reported":1739887733,"current_range_meters":15200,"station_id":"ce4bhjp2rcd13ifvqga0","pricing_plan_id":"cebpf4jnsgd1na2vs0mg"},{"bike_id":"25ea9eec-29d9-4063-8007-929ebb2d1ef2","system_id":"levelo_inurba_marseille","lat":43.25498,"lon":5.37651,"is_reserved":false,"is_disabled":false,"rental_uris":{"android":"levelo://app?vid=25ea9eec-29d9-4063-8007-929ebb2d1ef2","ios":"levelo://app?vid=25ea9eec-29d9-4063-8007-929ebb2d1ef2"},"vehicle_type_id":"4","last_reported":1739887733,"current_range_meters":16000,"station_id":"ce4bhh12rcd13ifvqff0","pricing_plan_id":"cebpf4jnsgd1na2vs0mg"},{"bike_id":"4bd64ff7-6c28-4df6-bd8a-e5a26782ea94","system_id":"levelo_inurba_marseille","lat":43.322909,"lon":5.382664,"is_reserved":false,"is_disabled":false,"rental_uris":{"android":"levelo://app?vid=4bd64ff7-6c28-4df6-bd8a-e5a26782ea94","ios":"levelo://app?vid=4bd64ff7-6c28-4df6-bd8a-e5a26782ea94"},"vehicle_type_id":"4","last_reported":1739887733,"current_range_meters":15200,"station_id":"ce4bhr12rcd13ifvqhqg","pricing_plan_id":"cebpf4jnsgd1na2vs0mg"},{"bike_id":"90017611-e2b1-401c-bcbf-f9d526ffc823","system_id":"levelo_inurba_marseille","lat":43.29366,"lon":5.38296,"is_reserved":false,"is_disabled":false,"rental_uris":{"android":"levelo://app?vid=90017611-e2b1-401c-bcbf-f9d526ffc823","ios":"levelo://app?vid=90017611-e2b1-401c-bcbf-f9d526ffc823"},"vehicle_type_id":"4","last_reported":1739887733,"current_range_meters":15200,"station_id":"","pricing_plan_id":"cebpf4jnsgd1na2vs0mg"},{"bike_id":"2cfeeb5a-dfc5-4280-bacf-5f9f118223ae","system_id":"levelo_inurba_marseille","lat":43.28419,"lon":5.37514,"is_reserved":false,"is_disabled":false,"rental_uris":{"android":"levelo://app?vid=2cfeeb5a-dfc5-4280-bacf-5f9f118223ae","ios":"levelo://app?vid=2cfeeb5a-dfc5-4280-bacf-5f9f118223ae"},"vehicle_type_id":"4","last_reported":1739887733,"current_range_meters":15200,"station_id":"ce4bh412rcd13ifvqds0","pricing_plan_id":"cebpf4jnsgd1na2vs0mg"},{"bike_id":"28ed07f8-9c08-45c0-a2b8-e8a5ca303fd6","system_id":"levelo_inurba_marseille","lat":43.28104,"lon":5.37842,"is_reserved":false,"is_disabled":false,"rental_uris":{"android":"levelo://app?vid=28ed07f8-9c08-45c0-a2b8-e8a5ca303fd6","ios":"levelo://app?vid=28ed07f8-9c08-45c0-a2b8-e8a5ca303fd6"},"vehicle_type_id":"4","last_reported":1739887733,"current_range_meters":15200,"station_id":"ce4bha12rcd13ifvqee0","pricing_plan_id":"cebpf4jnsgd1na2vs0mg"},{"bike_id":"d1dec037-ee4c-4db9-a655-1087d8ee1f4f","system_id":"levelo_inurba_marseille","lat":43.28444,"lon":5.39175,"is_reserved":false,"is_disabled":true,"rental_uris":{"android":"levelo://app?vid=d1dec037-ee4c-4db9-a655-1087d8ee1f4f","ios":"levelo://app?vid=d1dec037-ee4c-4db9-a655-1087d8ee1f4f"},"vehicle_type_id":"4","last_reported":1739887733,"current_range_meters":16000,"station_id":"","pricing_plan_id":"cebpf4jnsgd1na2vs0mg"},{"bike_id":"9e907f59-96ef-46d1-9ce6-fb36e513007c","system_id":"levelo_inurba_marseille","lat":43.26552,"lon":5.37309,"is_reserved":false,"is_disabled":false,"rental_uris":{"android":"levelo://app?vid=9e907f59-96ef-46d1-9ce6-fb36e513007c","ios":"levelo://app?vid=9e907f59-96ef-46d1-9ce6-fb36e513007c"},"vehicle_type_id":"4","last_reported":1739887733,"current_range_meters":16000,"station_id":"ce4bhg12rcd13ifvqf70","pricing_plan_id":"cebpf4jnsgd1na2vs0mg"},{"bike_id":"b49de44a-2b05-4a26-8edb-d46ffbac9dc1","system_id":"levelo_inurba_marseille","lat":43.23965,"lon":5.36632,"is_reserved":false,"is_disabled":false,"rental_uris":{"android":"levelo://app?vid=b49de44a-2b05-4a26-8edb-d46ffbac9dc1","ios":"levelo://app?vid=b49de44a-2b05-4a26-8edb-d46ffbac9dc1"},"vehicle_type_id":"4","last_reported":1739887733,"current_range_meters":16000,"station_id":"","pricing_plan_id":"cebpf4jnsgd1na2vs0mg"},{"bike_id":"dabd1b8a-0166-4296-9312-a00ac3d924b8","system_id":"levelo_inurba_marseille","lat":43.29724,"lon":5.37696,"is_reserved":false,"is_disabled":false,"rental_uris":{"android":"levelo://app?vid=dabd1b8a-0166-4296-9312-a00ac3d924b8","ios":"levelo://app?vid=dabd1b8a-0166-4296-9312-a00ac3d924b8"},"vehicle_type_id":"4","last_reported":1739887733,"current_range_meters":16000,"station_id":"ce4bgkh2rcd13ifvqbl0","pricing_plan_id":"cebpf4jnsgd1na2vs0mg"},{"bike_id":"b879378f-9cee-458f-905a-cd7acea06f16","system_id":"levelo_inurba_marseille","lat":43.33021,"lon":5.39036,"is_reserved":false,"is_disabled":false,"rental_uris":{"android":"levelo://app?vid=b879378f-9cee-458f-905a-cd7acea06f16","ios":"levelo://app?vid=b879378f-9cee-458f-905a-cd7acea06f16"},"vehicle_type_id":"4","last_reported":1739887733,"current_range_meters":16400,"station_id":"ce4bhr92rcd13ifvqhrg","pricing_plan_id":"cebpf4jnsgd1na2vs0mg"},{"bike_id":"ecd24bcd-39a7-4212-86ff-18ca66db4bfe","system_id":"levelo_inurba_marseille","lat":43.231873,"lon":5.399923,"is_reserved":false,"is_disabled":false,"rental_uris":{"android":"levelo://app?vid=ecd24bcd-39a7-4212-86ff-18ca66db4bfe","ios":"levelo://app?vid=ecd24bcd-39a7-4212-86ff-18ca66db4bfe"},"vehicle_type_id":"4","last_reported":1739887733,"current_range_meters":16400,"station_id":"","pricing_plan_id":"cebpf4jnsgd1na2vs0mg"},{"bike_id":"397b80cf-cbf3-4f7e-9d00-ad56509053a2","system_id":"levelo_inurba_marseille","lat":43.2919,"lon":5.3978,"is_reserved":false,"is_disabled":false,"rental_uris":{"android":"levelo://app?vid=397b80cf-cbf3-4f7e-9d00-ad56509053a2","ios":"levelo://app?vid=397b80cf-cbf3-4f7e-9d00-ad56509053a2"},"vehicle_type_id":"4","last_reported":1739887733,"current_range_meters":16400,"station_id":"","pricing_plan_id":"cebpf4jnsgd1na2vs0mg"},{"bike_id":"c0fc4d7e-6ff9-446a-81b3-9d0eb0179e38","system_id":"levelo_inurba_marseille","lat":43.290344,"lon":5.399693,"is_reserved":false,"is_disabled":false,"rental_uris":{"android":"levelo://app?vid=c0fc4d7e-6ff9-446a-81b3-9d0eb0179e38","ios":"levelo://app?vid=c0fc4d7e-6ff9-446a-81b3-9d0eb0179e38"},"vehicle_type_id":"4","last_reported":1739887733,"current_range_meters":16000,"station_id":"ce4bhgp2rcd13ifvqfe0","pricing_plan_id":"cebpf4jnsgd1na2vs0mg"},{"bike_id":"04d05e99-a5d3-42d1-a47d-c29d0f0acb1e","system_id":"levelo_inurba_marseille","lat":43.267838,"lon":5.394133,"is_reserved":false,"is_disabled":false,"rental_uris":{"android":"levelo://app?vid=04d05e99-a5d3-42d1-a47d-c29d0f0acb1e","ios":"levelo://app?vid=04d05e99-a5d3-42d1-a47d-c29d0f0acb1e"},"vehicle_type_id":"4","last_reported":1739887733,"current_range_meters":16400,"station_id":"ce4bhh12rcd13ifvqfg0","pricing_plan_id":"cebpf4jnsgd1na2vs0mg"},{"bike_id":"695e2770-608f-4ea5-b074-b223fb811be9","system_id":"levelo_inurba_marseille","lat":43.30566,"lon":5.36538,"is_reserved":false,"is_disabled":false,"rental_uris":{"android":"levelo://app?vid=695e2770-608f-4ea5-b074-b223fb811be9","ios":"levelo://app?vid=695e2770-608f-4ea5-b074-b223fb811be9"},"vehicle_type_id":"4","last_reported":1739887733,"current_range_meters":16400,"station_id":"ce4bgs12rcd13ifvqcag","pricing_plan_id":"cebpf4jnsgd1na2vs0mg"},{"bike_id":"ef36ea69-cd6e-4974-8daa-be595f290138","system_id":"levelo_inurba_marseille","lat":43.28925,"lon":5.36639,"is_reserved":false,"is_disabled":false,"rental_uris":{"android":"levelo://app?vid=ef36ea69-cd6e-4974-8daa-be595f290138","ios":"levelo://app?vid=ef36ea69-cd6e-4974-8daa-be595f290138"},"vehicle_type_id":"4","last_reported":1739887733,"current_range_meters":16800,"station_id":"ce4bhap2rcd13ifvqek0","pricing_plan_id":"cebpf4jnsgd1na2vs0mg"},{"bike_id":"244d9b22-997d-4ed8-8c64-abb1d2751821","system_id":"levelo_inurba_marseille","lat":43.25897,"lon":5.40866,"is_reserved":false,"is_disabled":false,"rental_uris":{"android":"levelo://app?vid=244d9b22-997d-4ed8-8c64-abb1d2751821","ios":"levelo://app?vid=244d9b22-997d-4ed8-8c64-abb1d2751821"},"vehicle_type_id":"4","last_reported":1739887733,"current_range_meters":16800,"station_id":"ce4bhm92rcd13ifvqglg","pricing_plan_id":"cebpf4jnsgd1na2vs0mg"},{"bike_id":"1d63a175-89ef-49ff-9ead-dfe9ed6c22cf","system_id":"levelo_inurba_marseille","lat":43.24678,"lon":5.39432,"is_reserved":false,"is_disabled":false,"rental_uris":{"android":"levelo://app?vid=1d63a175-89ef-49ff-9ead-dfe9ed6c22cf","ios":"levelo://app?vid=1d63a175-89ef-49ff-9ead-dfe9ed6c22cf"},"vehicle_type_id":"4","last_reported":1739887733,"current_range_meters":16800,"station_id":"","pricing_plan_id":"cebpf4jnsgd1na2vs0mg"},{"bike_id":"bf74b8c6-69e6-44f6-b5f1-f7347149ce27","system_id":"levelo_inurba_marseille","lat":43.29258,"lon":5.40907,"is_reserved":false,"is_disabled":false,"rental_uris":{"android":"levelo://app?vid=bf74b8c6-69e6-44f6-b5f1-f7347149ce27","ios":"levelo://app?vid=bf74b8c6-69e6-44f6-b5f1-f7347149ce27"},"vehicle_type_id":"4","last_reported":1739887733,"current_range_meters":16800,"station_id":"ce4bh192rcd13ifvqdc0","pricing_plan_id":"cebpf4jnsgd1na2vs0mg"},{"bike_id":"39d9b773-a5d8-457a-92de-55a930f6845f","system_id":"levelo_inurba_marseille","lat":43.24666,"lon":5.38156,"is_reserved":false,"is_disabled":false,"rental_uris":{"android":"levelo://app?vid=39d9b773-a5d8-457a-92de-55a930f6845f","ios":"levelo://app?vid=39d9b773-a5d8-457a-92de-55a930f6845f"},"vehicle_type_id":"4","last_reported":1739887733,"current_range_meters":16800,"station_id":"ce4bhih2rcd13ifvqfr0","pricing_plan_id":"cebpf4jnsgd1na2vs0mg"},{"bike_id":"cdb027a0-b875-4ada-92c3-2d2168720582","system_id":"levelo_inurba_marseille","lat":43.28276,"lon":5.35077,"is_reserved":false,"is_disabled":true,"rental_uris":{"android":"levelo://app?vid=cdb027a0-b875-4ada-92c3-2d2168720582","ios":"levelo://app?vid=cdb027a0-b875-4ada-92c3-2d2168720582"},"vehicle_type_id":"4","last_reported":1739887733,"current_range_meters":16800,"station_id":"ce4bhbp2rcd13ifvqerg","pricing_plan_id":"cebpf4jnsgd1na2vs0mg"},{"bike_id":"a38400fd-36f6-4127-b5b6-6093a4c06d9e","system_id":"levelo_inurba_marseille","lat":43.29523,"lon":5.39025,"is_reserved":false,"is_disabled":false,"rental_uris":{"android":"levelo://app?vid=a38400fd-36f6-4127-b5b6-6093a4c06d9e","ios":"levelo://app?vid=a38400fd-36f6-4127-b5b6-6093a4c06d9e"},"vehicle_type_id":"4","last_reported":1739887733,"current_range_meters":16800,"station_id":"ce4bh3p2rcd13ifvqdp0","pricing_plan_id":"cebpf4jnsgd1na2vs0mg"},{"bike_id":"85cc6894-c6eb-40fd-84e7-853ea0e87f92","system_id":"levelo_inurba_marseille","lat":43.29714,"lon":5.36621,"is_reserved":false,"is_disabled":false,"rental_uris":{"android":"levelo://app?vid=85cc6894-c6eb-40fd-84e7-853ea0e87f92","ios":"levelo://app?vid=85cc6894-c6eb-40fd-84e7-853ea0e87f92"},"vehicle_type_id":"4","last_reported":1739887733,"current_range_meters":17200,"station_id":"ce4bgn12rcd13ifvqbt0","pricing_plan_id":"cebpf4jnsgd1na2vs0mg"},{"bike_id":"e795ae8d-b6a3-4c4d-9ab0-8ba7d34e57f4","system_id":"levelo_inurba_marseille","lat":43.24176,"lon":5.39729,"is_reserved":false,"is_disabled":false,"rental_uris":{"android":"levelo://app?vid=e795ae8d-b6a3-4c4d-9ab0-8ba7d34e57f4","ios":"levelo://app?vid=e795ae8d-b6a3-4c4d-9ab0-8ba7d34e57f4"},"vehicle_type_id":"4","last_reported":1739887733,"current_range_meters":17200,"station_id":"ce4bhn12rcd13ifvqgpg","pricing_plan_id":"cebpf4jnsgd1na2vs0mg"},{"bike_id":"f2f8d464-f09b-4632-b0be-c20ebddedd08","system_id":"levelo_inurba_marseille","lat":43.31132,"lon":5.37298,"is_reserved":false,"is_disabled":false,"rental_uris":{"android":"levelo://app?vid=f2f8d464-f09b-4632-b0be-c20ebddedd08","ios":"levelo://app?vid=f2f8d464-f09b-4632-b0be-c20ebddedd08"},"vehicle_type_id":"4","last_reported":1739887733,"current_range_meters":17200,"station_id":"ce4bgn92rcd13ifvqbvg","pricing_plan_id":"cebpf4jnsgd1na2vs0mg"},{"bike_id":"fec6a7c6-73dd-4719-a08c-c99e965c3083","system_id":"levelo_inurba_marseille","lat":43.29002,"lon":5.400141,"is_reserved":false,"is_disabled":false,"rental_uris":{"android":"levelo://app?vid=fec6a7c6-73dd-4719-a08c-c99e965c3083","ios":"levelo://app?vid=fec6a7c6-73dd-4719-a08c-c99e965c3083"},"vehicle_type_id":"4","last_reported":1739887733,"current_range_meters":17200,"station_id":"ce4bh392rcd13ifvqdm0","pricing_plan_id":"cebpf4jnsgd1na2vs0mg"},{"bike_id":"5ac5fe80-e7ca-4a80-b6a8-59ed57d48582","system_id":"levelo_inurba_marseille","lat":43.30318,"lon":5.36899,"is_reserved":false,"is_disabled":false,"rental_uris":{"android":"levelo://app?vid=5ac5fe80-e7ca-4a80-b6a8-59ed57d48582","ios":"levelo://app?vid=5ac5fe80-e7ca-4a80-b6a8-59ed57d48582"},"vehicle_type_id":"4","last_reported":1739887733,"current_range_meters":17200,"station_id":"ce4bgqh2rcd13ifvqc5g","pricing_plan_id":"cebpf4jnsgd1na2vs0mg"},{"bike_id":"173f1074-7582-4e25-8d57-fe2f8ba065d7","system_id":"levelo_inurba_marseille","lat":43.25934,"lon":5.40907,"is_reserved":false,"is_disabled":false,"rental_uris":{"android":"levelo://app?vid=173f1074-7582-4e25-8d57-fe2f8ba065d7","ios":"levelo://app?vid=173f1074-7582-4e25-8d57-fe2f8ba065d7"},"vehicle_type_id":"4","last_reported":1739887733,"current_range_meters":17200,"station_id":"ce4bhm92rcd13ifvqglg","pricing_plan_id":"cebpf4jnsgd1na2vs0mg"},{"bike_id":"22c1355e-1039-4fd9-8688-906435e4013c","system_id":"levelo_inurba_marseille","lat":43.23152,"lon":5.43726,"is_reserved":false,"is_disabled":false,"rental_uris":{"android":"levelo://app?vid=22c1355e-1039-4fd9-8688-906435e4013c","ios":"levelo://app?vid=22c1355e-1039-4fd9-8688-906435e4013c"},"vehicle_type_id":"4","last_reported":1739887733,"current_range_meters":17200,"station_id":"ce4bhmp2rcd13ifvqgog","pricing_plan_id":"cebpf4jnsgd1na2vs0mg"},{"bike_id":"3a057b52-4c47-476b-927e-f322b0af127d","system_id":"levelo_inurba_marseille","lat":43.30311,"lon":5.36906,"is_reserved":false,"is_disabled":false,"rental_uris":{"android":"levelo://app?vid=3a057b52-4c47-476b-927e-f322b0af127d","ios":"levelo://app?vid=3a057b52-4c47-476b-927e-f322b0af127d"},"vehicle_type_id":"4","last_reported":1739887733,"current_range_meters":17200,"station_id":"ce4bgqh2rcd13ifvqc5g","pricing_plan_id":"cebpf4jnsgd1na2vs0mg"},{"bike_id":"aeb7b8fe-90b9-4588-8c1d-0b5fc9ddb1c6","system_id":"levelo_inurba_marseille","lat":43.29873,"lon":5.39734,"is_reserved":false,"is_disabled":false,"rental_uris":{"android":"levelo://app?vid=aeb7b8fe-90b9-4588-8c1d-0b5fc9ddb1c6","ios":"levelo://app?vid=aeb7b8fe-90b9-4588-8c1d-0b5fc9ddb1c6"},"vehicle_type_id":"4","last_reported":1739887733,"current_range_meters":18000,"station_id":"ce4bh0h2rcd13ifvqd50","pricing_plan_id":"cebpf4jnsgd1na2vs0mg"},{"bike_id":"58d82d9c-d9e0-4569-bcef-43adc939cde9","system_id":"levelo_inurba_marseille","lat":43.27373,"lon":5.36255,"is_reserved":false,"is_disabled":false,"rental_uris":{"android":"levelo://app?vid=58d82d9c-d9e0-4569-bcef-43adc939cde9","ios":"levelo://app?vid=58d82d9c-d9e0-4569-bcef-43adc939cde9"},"vehicle_type_id":"4","last_reported":1739887733,"current_range_meters":16800,"station_id":"ce4bhbh2rcd13ifvqeo0","pricing_plan_id":"cebpf4jnsgd1na2vs0mg"},{"bike_id":"e1aa692d-67d1-43a6-aea0-b9cd064af6b7","system_id":"levelo_inurba_marseille","lat":43.23193,"lon":5.35554,"is_reserved":false,"is_disabled":false,"rental_uris":{"android":"levelo://app?vid=e1aa692d-67d1-43a6-aea0-b9cd064af6b7","ios":"levelo://app?vid=e1aa692d-67d1-43a6-aea0-b9cd064af6b7"},"vehicle_type_id":"4","last_reported":1739887733,"current_range_meters":17200,"station_id":"ce4bhu92rcd13ifvqi70","pricing_plan_id":"cebpf4jnsgd1na2vs0mg"},{"bike_id":"b7ee7074-0ed1-413c-95bf-29ca1f13818b","system_id":"levelo_inurba_marseille","lat":43.25583,"lon":5.38229,"is_reserved":false,"is_disabled":false,"rental_uris":{"android":"levelo://app?vid=b7ee7074-0ed1-413c-95bf-29ca1f13818b","ios":"levelo://app?vid=b7ee7074-0ed1-413c-95bf-29ca1f13818b"},"vehicle_type_id":"4","last_reported":1739887733,"current_range_meters":17600,"station_id":"ce4bhih2rcd13ifvqfs0","pricing_plan_id":"cebpf4jnsgd1na2vs0mg"},{"bike_id":"db7f2d58-492d-4297-aa78-ce0ad99a0a74","system_id":"levelo_inurba_marseille","lat":43.25914,"lon":5.40867,"is_reserved":false,"is_disabled":false,"rental_uris":{"android":"levelo://app?vid=db7f2d58-492d-4297-aa78-ce0ad99a0a74","ios":"levelo://app?vid=db7f2d58-492d-4297-aa78-ce0ad99a0a74"},"vehicle_type_id":"4","last_reported":1739887733,"current_range_meters":17600,"station_id":"ce4bhb92rcd13ifvqen0","pricing_plan_id":"cebpf4jnsgd1na2vs0mg"},{"bike_id":"bcaaf6c7-6bc5-45b7-ad85-ca671eb1202b","system_id":"levelo_inurba_marseille","lat":43.33023,"lon":5.39047,"is_reserved":false,"is_disabled":false,"rental_uris":{"android":"levelo://app?vid=bcaaf6c7-6bc5-45b7-ad85-ca671eb1202b","ios":"levelo://app?vid=bcaaf6c7-6bc5-45b7-ad85-ca671eb1202b"},"vehicle_type_id":"4","last_reported":1739887733,"current_range_meters":17600,"station_id":"ce4bhr92rcd13ifvqhrg","pricing_plan_id":"cebpf4jnsgd1na2vs0mg"},{"bike_id":"a88786ed-30be-49c8-a35b-6c3fb47fc272","system_id":"levelo_inurba_marseille","lat":43.297903,"lon":5.393293,"is_reserved":false,"is_disabled":false,"rental_uris":{"android":"levelo://app?vid=a88786ed-30be-49c8-a35b-6c3fb47fc272","ios":"levelo://app?vid=a88786ed-30be-49c8-a35b-6c3fb47fc272"},"vehicle_type_id":"4","last_reported":1739887733,"current_range_meters":17200,"station_id":"chh1huq6cuj3fo74tm60","pricing_plan_id":"cebpf4jnsgd1na2vs0mg"},{"bike_id":"572758ce-62f5-4849-b288-fda413023eea","system_id":"levelo_inurba_marseille","lat":43.2979,"lon":5.37113,"is_reserved":false,"is_disabled":false,"rental_uris":{"android":"levelo://app?vid=572758ce-62f5-4849-b288-fda413023eea","ios":"levelo://app?vid=572758ce-62f5-4849-b288-fda413023eea"},"vehicle_type_id":"4","last_reported":1739887733,"current_range_meters":17600,"station_id":"","pricing_plan_id":"cebpf4jnsgd1na2vs0mg"},{"bike_id":"baf6d894-ad10-49a9-b91a-24f60ad956f7","system_id":"levelo_inurba_marseille","lat":43.28976,"lon":5.4268,"is_reserved":false,"is_disabled":false,"rental_uris":{"android":"levelo://app?vid=baf6d894-ad10-49a9-b91a-24f60ad956f7","ios":"levelo://app?vid=baf6d894-ad10-49a9-b91a-24f60ad956f7"},"vehicle_type_id":"4","last_reported":1739887733,"current_range_meters":17600,"station_id":"","pricing_plan_id":"cebpf4jnsgd1na2vs0mg"},{"bike_id":"fc971b16-bef3-4b6d-813c-ffc8ffa48842","system_id":"levelo_inurba_marseille","lat":43.2841,"lon":5.34986,"is_reserved":false,"is_disabled":true,"rental_uris":{"android":"levelo://app?vid=fc971b16-bef3-4b6d-813c-ffc8ffa48842","ios":"levelo://app?vid=fc971b16-bef3-4b6d-813c-ffc8ffa48842"},"vehicle_type_id":"4","last_reported":1739887733,"current_range_meters":17600,"station_id":"","pricing_plan_id":"cebpf4jnsgd1na2vs0mg"},{"bike_id":"8878e191-2cdf-4bd8-9763-11be5ff45875","system_id":"levelo_inurba_marseille","lat":43.29907,"lon":5.38152,"is_reserved":false,"is_disabled":false,"rental_uris":{"android":"levelo://app?vid=8878e191-2cdf-4bd8-9763-11be5ff45875","ios":"levelo://app?vid=8878e191-2cdf-4bd8-9763-11be5ff45875"},"vehicle_type_id":"4","last_reported":1739887733,"current_range_meters":17600,"station_id":"ce4bgj12rcd13ifvqbc0","pricing_plan_id":"cebpf4jnsgd1na2vs0mg"},{"bike_id":"700d26c1-8991-4a57-83d5-8e7cb11eacc6","system_id":"levelo_inurba_marseille","lat":43.25492,"lon":5.37649,"is_reserved":false,"is_disabled":false,"rental_uris":{"android":"levelo://app?vid=700d26c1-8991-4a57-83d5-8e7cb11eacc6","ios":"levelo://app?vid=700d26c1-8991-4a57-83d5-8e7cb11eacc6"},"vehicle_type_id":"4","last_reported":1739887733,"current_range_meters":17200,"station_id":"ce4bhh12rcd13ifvqff0","pricing_plan_id":"cebpf4jnsgd1na2vs0mg"},{"bike_id":"ebe6921f-e91d-49af-b8da-ba09fe53290f","system_id":"levelo_inurba_marseille","lat":43.30535,"lon":5.36557,"is_reserved":false,"is_disabled":false,"rental_uris":{"android":"levelo://app?vid=ebe6921f-e91d-49af-b8da-ba09fe53290f","ios":"levelo://app?vid=ebe6921f-e91d-49af-b8da-ba09fe53290f"},"vehicle_type_id":"4","last_reported":1739887733,"current_range_meters":17600,"station_id":"","pricing_plan_id":"cebpf4jnsgd1na2vs0mg"},{"bike_id":"f77eb7d8-9434-4c05-861f-edd4244aaffc","system_id":"levelo_inurba_marseille","lat":43.25493,"lon":5.37642,"is_reserved":false,"is_disabled":false,"rental_uris":{"android":"levelo://app?vid=f77eb7d8-9434-4c05-861f-edd4244aaffc","ios":"levelo://app?vid=f77eb7d8-9434-4c05-861f-edd4244aaffc"},"vehicle_type_id":"4","last_reported":1739887733,"current_range_meters":18000,"station_id":"","pricing_plan_id":"cebpf4jnsgd1na2vs0mg"},{"bike_id":"d7a15df9-526d-44d9-9149-0a3ee440ee5b","system_id":"levelo_inurba_marseille","lat":43.22941,"lon":5.35383,"is_reserved":false,"is_disabled":false,"rental_uris":{"android":"levelo://app?vid=d7a15df9-526d-44d9-9149-0a3ee440ee5b","ios":"levelo://app?vid=d7a15df9-526d-44d9-9149-0a3ee440ee5b"},"vehicle_type_id":"4","last_reported":1739887733,"current_range_meters":18000,"station_id":"cpo3532slgdg3j2ikp40","pricing_plan_id":"cebpf4jnsgd1na2vs0mg"},{"bike_id":"7a8dc522-de25-4e1d-9892-60ff9d52d5bf","system_id":"levelo_inurba_marseille","lat":43.31333,"lon":5.39716,"is_reserved":false,"is_disabled":false,"rental_uris":{"android":"levelo://app?vid=7a8dc522-de25-4e1d-9892-60ff9d52d5bf","ios":"levelo://app?vid=7a8dc522-de25-4e1d-9892-60ff9d52d5bf"},"vehicle_type_id":"4","last_reported":1739887733,"current_range_meters":18000,"station_id":"ce4bgvp2rcd13ifvqcu0","pricing_plan_id":"cebpf4jnsgd1na2vs0mg"},{"bike_id":"1d065e9d-f878-4d3f-b237-18156f6b8860","system_id":"levelo_inurba_marseille","lat":43.30462,"lon":5.37912,"is_reserved":false,"is_disabled":false,"rental_uris":{"android":"levelo://app?vid=1d065e9d-f878-4d3f-b237-18156f6b8860","ios":"levelo://app?vid=1d065e9d-f878-4d3f-b237-18156f6b8860"},"vehicle_type_id":"4","last_reported":1739887733,"current_range_meters":18000,"station_id":"ce4bgup2rcd13ifvqcn0","pricing_plan_id":"cebpf4jnsgd1na2vs0mg"},{"bike_id":"eb715102-e1b0-444b-990c-d34ec49d64ad","system_id":"levelo_inurba_marseille","lat":43.24168,"lon":5.39718,"is_reserved":false,"is_disabled":false,"rental_uris":{"android":"levelo://app?vid=eb715102-e1b0-444b-990c-d34ec49d64ad","ios":"levelo://app?vid=eb715102-e1b0-444b-990c-d34ec49d64ad"},"vehicle_type_id":"4","last_reported":1739887733,"current_range_meters":18000,"station_id":"ce4bhn12rcd13ifvqgpg","pricing_plan_id":"cebpf4jnsgd1na2vs0mg"},{"bike_id":"38c9f437-02d0-463a-a42d-8bc647a31926","system_id":"levelo_inurba_marseille","lat":43.23147,"lon":5.43728,"is_reserved":false,"is_disabled":false,"rental_uris":{"android":"levelo://app?vid=38c9f437-02d0-463a-a42d-8bc647a31926","ios":"levelo://app?vid=38c9f437-02d0-463a-a42d-8bc647a31926"},"vehicle_type_id":"4","last_reported":1739887733,"current_range_meters":18000,"station_id":"ce4bhmp2rcd13ifvqgog","pricing_plan_id":"cebpf4jnsgd1na2vs0mg"},{"bike_id":"c67fb496-8441-458a-af2d-8f07c087bdd0","system_id":"levelo_inurba_marseille","lat":43.24172,"lon":5.36426,"is_reserved":false,"is_disabled":true,"rental_uris":{"android":"levelo://app?vid=c67fb496-8441-458a-af2d-8f07c087bdd0","ios":"levelo://app?vid=c67fb496-8441-458a-af2d-8f07c087bdd0"},"vehicle_type_id":"4","last_reported":1739887733,"current_range_meters":18000,"station_id":"","pricing_plan_id":"cebpf4jnsgd1na2vs0mg"},{"bike_id":"d75534e2-9bc6-43b8-9a0d-fa650ae0b051","system_id":"levelo_inurba_marseille","lat":43.24089,"lon":5.37745,"is_reserved":false,"is_disabled":false,"rental_uris":{"android":"levelo://app?vid=d75534e2-9bc6-43b8-9a0d-fa650ae0b051","ios":"levelo://app?vid=d75534e2-9bc6-43b8-9a0d-fa650ae0b051"},"vehicle_type_id":"4","last_reported":1739887733,"current_range_meters":18000,"station_id":"ce4bhnp2rcd13ifvqgvg","pricing_plan_id":"cebpf4jnsgd1na2vs0mg"},{"bike_id":"22196579-be9e-4f2d-b2dd-94d1ef2f58bc","system_id":"levelo_inurba_marseille","lat":43.23143,"lon":5.43711,"is_reserved":false,"is_disabled":false,"rental_uris":{"android":"levelo://app?vid=22196579-be9e-4f2d-b2dd-94d1ef2f58bc","ios":"levelo://app?vid=22196579-be9e-4f2d-b2dd-94d1ef2f58bc"},"vehicle_type_id":"4","last_reported":1739887733,"current_range_meters":18000,"station_id":"ce4bhmp2rcd13ifvqgog","pricing_plan_id":"cebpf4jnsgd1na2vs0mg"},{"bike_id":"24dd12c1-4d8a-40c0-b521-a98d2d462c41","system_id":"levelo_inurba_marseille","lat":43.24167,"lon":5.36393,"is_reserved":false,"is_disabled":false,"rental_uris":{"android":"levelo://app?vid=24dd12c1-4d8a-40c0-b521-a98d2d462c41","ios":"levelo://app?vid=24dd12c1-4d8a-40c0-b521-a98d2d462c41"},"vehicle_type_id":"4","last_reported":1739887733,"current_range_meters":18000,"station_id":"","pricing_plan_id":"cebpf4jnsgd1na2vs0mg"},{"bike_id":"be59961e-616b-4c75-97c4-c082d5d8fd20","system_id":"levelo_inurba_marseille","lat":43.24174,"lon":5.39727,"is_reserved":false,"is_disabled":false,"rental_uris":{"android":"levelo://app?vid=be59961e-616b-4c75-97c4-c082d5d8fd20","ios":"levelo://app?vid=be59961e-616b-4c75-97c4-c082d5d8fd20"},"vehicle_type_id":"4","last_reported":1739887733,"current_range_meters":18000,"station_id":"ce4bhn12rcd13ifvqgpg","pricing_plan_id":"cebpf4jnsgd1na2vs0mg"},{"bike_id":"c1020541-e31f-4b27-840b-746291a4ee30","system_id":"levelo_inurba_marseille","lat":43.26211,"lon":5.37438,"is_reserved":false,"is_disabled":false,"rental_uris":{"android":"levelo://app?vid=c1020541-e31f-4b27-840b-746291a4ee30","ios":"levelo://app?vid=c1020541-e31f-4b27-840b-746291a4ee30"},"vehicle_type_id":"4","last_reported":1739887733,"current_range_meters":18000,"station_id":"ce4bhgp2rcd13ifvqfc0","pricing_plan_id":"cebpf4jnsgd1na2vs0mg"},{"bike_id":"63ea7e43-8eca-430c-8a7a-743145abbade","system_id":"levelo_inurba_marseille","lat":43.26554,"lon":5.37297,"is_reserved":false,"is_disabled":false,"rental_uris":{"android":"levelo://app?vid=63ea7e43-8eca-430c-8a7a-743145abbade","ios":"levelo://app?vid=63ea7e43-8eca-430c-8a7a-743145abbade"},"vehicle_type_id":"4","last_reported":1739887733,"current_range_meters":18800,"station_id":"","pricing_plan_id":"cebpf4jnsgd1na2vs0mg"},{"bike_id":"6a38d9ad-de05-4f1e-b8d6-93fd5979d29d","system_id":"levelo_inurba_marseille","lat":43.255,"lon":5.37652,"is_reserved":false,"is_disabled":false,"rental_uris":{"android":"levelo://app?vid=6a38d9ad-de05-4f1e-b8d6-93fd5979d29d","ios":"levelo://app?vid=6a38d9ad-de05-4f1e-b8d6-93fd5979d29d"},"vehicle_type_id":"4","last_reported":1739887733,"current_range_meters":18000,"station_id":"ce4bhh12rcd13ifvqff0","pricing_plan_id":"cebpf4jnsgd1na2vs0mg"},{"bike_id":"a976807d-bba1-4034-8514-b8fde2c47513","system_id":"levelo_inurba_marseille","lat":43.31324,"lon":5.39689,"is_reserved":false,"is_disabled":false,"rental_uris":{"android":"levelo://app?vid=a976807d-bba1-4034-8514-b8fde2c47513","ios":"levelo://app?vid=a976807d-bba1-4034-8514-b8fde2c47513"},"vehicle_type_id":"4","last_reported":1739887733,"current_range_meters":18800,"station_id":"ce4bgvp2rcd13ifvqcu0","pricing_plan_id":"cebpf4jnsgd1na2vs0mg"},{"bike_id":"7fa3c79f-2b47-488f-b38f-47725a369e16","system_id":"levelo_inurba_marseille","lat":43.27311,"lon":5.39106,"is_reserved":false,"is_disabled":false,"rental_uris":{"android":"levelo://app?vid=7fa3c79f-2b47-488f-b38f-47725a369e16","ios":"levelo://app?vid=7fa3c79f-2b47-488f-b38f-47725a369e16"},"vehicle_type_id":"4","last_reported":1739887733,"current_range_meters":18000,"station_id":"ce4bhgp2rcd13ifvqfe0","pricing_plan_id":"cebpf4jnsgd1na2vs0mg"},{"bike_id":"4c049e8c-dd47-4937-b343-0b8e81c04fa5","system_id":"levelo_inurba_marseille","lat":43.29526,"lon":5.38541,"is_reserved":false,"is_disabled":false,"rental_uris":{"android":"levelo://app?vid=4c049e8c-dd47-4937-b343-0b8e81c04fa5","ios":"levelo://app?vid=4c049e8c-dd47-4937-b343-0b8e81c04fa5"},"vehicle_type_id":"4","last_reported":1739887733,"current_range_meters":18800,"station_id":"ce4bgih2rcd13ifvqba0","pricing_plan_id":"cebpf4jnsgd1na2vs0mg"},{"bike_id":"f916af0f-8714-4518-adb5-98f1d3b8485a","system_id":"levelo_inurba_marseille","lat":43.28121,"lon":5.37831,"is_reserved":false,"is_disabled":false,"rental_uris":{"android":"levelo://app?vid=f916af0f-8714-4518-adb5-98f1d3b8485a","ios":"levelo://app?vid=f916af0f-8714-4518-adb5-98f1d3b8485a"},"vehicle_type_id":"4","last_reported":1739887733,"current_range_meters":18800,"station_id":"ce4bha12rcd13ifvqee0","pricing_plan_id":"cebpf4jnsgd1na2vs0mg"},{"bike_id":"e60db891-27e1-4a33-aa8e-9e937db9b2b1","system_id":"levelo_inurba_marseille","lat":43.29931,"lon":5.36532,"is_reserved":false,"is_disabled":false,"rental_uris":{"android":"levelo://app?vid=e60db891-27e1-4a33-aa8e-9e937db9b2b1","ios":"levelo://app?vid=e60db891-27e1-4a33-aa8e-9e937db9b2b1"},"vehicle_type_id":"4","last_reported":1739887733,"current_range_meters":18800,"station_id":"ce4bgm92rcd13ifvqbr0","pricing_plan_id":"cebpf4jnsgd1na2vs0mg"},{"bike_id":"aab56d93-547d-40cc-9ff6-b85d4684f798","system_id":"levelo_inurba_marseille","lat":43.23955,"lon":5.36635,"is_reserved":false,"is_disabled":false,"rental_uris":{"android":"levelo://app?vid=aab56d93-547d-40cc-9ff6-b85d4684f798","ios":"levelo://app?vid=aab56d93-547d-40cc-9ff6-b85d4684f798"},"vehicle_type_id":"4","last_reported":1739887733,"current_range_meters":18800,"station_id":"ce4bhi12rcd13ifvqfp0","pricing_plan_id":"cebpf4jnsgd1na2vs0mg"},{"bike_id":"57428e68-6178-4a63-998d-4f2eb2a0c995","system_id":"levelo_inurba_marseille","lat":43.24175,"lon":5.36382,"is_reserved":false,"is_disabled":false,"rental_uris":{"android":"levelo://app?vid=57428e68-6178-4a63-998d-4f2eb2a0c995","ios":"levelo://app?vid=57428e68-6178-4a63-998d-4f2eb2a0c995"},"vehicle_type_id":"4","last_reported":1739887733,"current_range_meters":19200,"station_id":"cpo36qri1sfpv3e86is0","pricing_plan_id":"cebpf4jnsgd1na2vs0mg"},{"bike_id":"65d29729-221e-4b69-a49d-bcea8ec26035","system_id":"levelo_inurba_marseille","lat":43.29525,"lon":5.39035,"is_reserved":false,"is_disabled":false,"rental_uris":{"android":"levelo://app?vid=65d29729-221e-4b69-a49d-bcea8ec26035","ios":"levelo://app?vid=65d29729-221e-4b69-a49d-bcea8ec26035"},"vehicle_type_id":"4","last_reported":1739887733,"current_range_meters":18800,"station_id":"ce4bh3p2rcd13ifvqdp0","pricing_plan_id":"cebpf4jnsgd1na2vs0mg"},{"bike_id":"b768b1a6-dfb0-4283-bce3-5f90f2a7562b","system_id":"levelo_inurba_marseille","lat":43.32361,"lon":5.38889,"is_reserved":false,"is_disabled":false,"rental_uris":{"android":"levelo://app?vid=b768b1a6-dfb0-4283-bce3-5f90f2a7562b","ios":"levelo://app?vid=b768b1a6-dfb0-4283-bce3-5f90f2a7562b"},"vehicle_type_id":"4","last_reported":1739887733,"current_range_meters":19200,"station_id":"ce4bhqp2rcd13ifvqhog","pricing_plan_id":"cebpf4jnsgd1na2vs0mg"},{"bike_id":"178ded3a-a854-4c49-ad78-a7a972f73bf4","system_id":"levelo_inurba_marseille","lat":43.29883,"lon":5.39733,"is_reserved":false,"is_disabled":false,"rental_uris":{"android":"levelo://app?vid=178ded3a-a854-4c49-ad78-a7a972f73bf4","ios":"levelo://app?vid=178ded3a-a854-4c49-ad78-a7a972f73bf4"},"vehicle_type_id":"4","last_reported":1739887733,"current_range_meters":19200,"station_id":"","pricing_plan_id":"cebpf4jnsgd1na2vs0mg"},{"bike_id":"5f9ede52-c720-4107-a864-980fb2608395","system_id":"levelo_inurba_marseille","lat":43.24094,"lon":5.38676,"is_reserved":false,"is_disabled":false,"rental_uris":{"android":"levelo://app?vid=5f9ede52-c720-4107-a864-980fb2608395","ios":"levelo://app?vid=5f9ede52-c720-4107-a864-980fb2608395"},"vehicle_type_id":"4","last_reported":1739887733,"current_range_meters":19600,"station_id":"","pricing_plan_id":"cebpf4jnsgd1na2vs0mg"},{"bike_id":"bc674ae3-0691-4bda-94de-0082a3c844e5","system_id":"levelo_inurba_marseille","lat":43.27374,"lon":5.36257,"is_reserved":false,"is_disabled":false,"rental_uris":{"android":"levelo://app?vid=bc674ae3-0691-4bda-94de-0082a3c844e5","ios":"levelo://app?vid=bc674ae3-0691-4bda-94de-0082a3c844e5"},"vehicle_type_id":"4","last_reported":1739887733,"current_range_meters":19600,"station_id":"ce4bhbh2rcd13ifvqeo0","pricing_plan_id":"cebpf4jnsgd1na2vs0mg"},{"bike_id":"5089bb88-a0cd-4434-a1a9-f3d5b67361c6","system_id":"levelo_inurba_marseille","lat":43.24375,"lon":5.38758,"is_reserved":false,"is_disabled":false,"rental_uris":{"android":"levelo://app?vid=5089bb88-a0cd-4434-a1a9-f3d5b67361c6","ios":"levelo://app?vid=5089bb88-a0cd-4434-a1a9-f3d5b67361c6"},"vehicle_type_id":"4","last_reported":1739887733,"current_range_meters":19600,"station_id":"","pricing_plan_id":"cebpf4jnsgd1na2vs0mg"},{"bike_id":"3f8b90d1-e090-4439-a7f3-b64016743610","system_id":"levelo_inurba_marseille","lat":43.27494,"lon":5.4246,"is_reserved":false,"is_disabled":false,"rental_uris":{"android":"levelo://app?vid=3f8b90d1-e090-4439-a7f3-b64016743610","ios":"levelo://app?vid=3f8b90d1-e090-4439-a7f3-b64016743610"},"vehicle_type_id":"4","last_reported":1739887733,"current_range_meters":19600,"station_id":"ce4bhn92rcd13ifvqgrg","pricing_plan_id":"cebpf4jnsgd1na2vs0mg"},{"bike_id":"c01d7fd8-9e0d-4445-b4d7-1ca70ef9bd11","system_id":"levelo_inurba_marseille","lat":43.28264,"lon":5.35064,"is_reserved":false,"is_disabled":false,"rental_uris":{"android":"levelo://app?vid=c01d7fd8-9e0d-4445-b4d7-1ca70ef9bd11","ios":"levelo://app?vid=c01d7fd8-9e0d-4445-b4d7-1ca70ef9bd11"},"vehicle_type_id":"4","last_reported":1739887733,"current_range_meters":19600,"station_id":"","pricing_plan_id":"cebpf4jnsgd1na2vs0mg"},{"bike_id":"9d8186d8-4c6c-48f4-b723-5deb007469f8","system_id":"levelo_inurba_marseille","lat":43.28653,"lon":5.38667,"is_reserved":false,"is_disabled":false,"rental_uris":{"android":"levelo://app?vid=9d8186d8-4c6c-48f4-b723-5deb007469f8","ios":"levelo://app?vid=9d8186d8-4c6c-48f4-b723-5deb007469f8"},"vehicle_type_id":"4","last_reported":1739887733,"current_range_meters":19600,"station_id":"ce4bh492rcd13ifvqdug","pricing_plan_id":"cebpf4jnsgd1na2vs0mg"},{"bike_id":"a1ae2e0b-8e74-4d85-8f72-5554669882ec","system_id":"levelo_inurba_marseille","lat":43.30531,"lon":5.36558,"is_reserved":false,"is_disabled":false,"rental_uris":{"android":"levelo://app?vid=a1ae2e0b-8e74-4d85-8f72-5554669882ec","ios":"levelo://app?vid=a1ae2e0b-8e74-4d85-8f72-5554669882ec"},"vehicle_type_id":"4","last_reported":1739887733,"current_range_meters":19600,"station_id":"ce4bgs12rcd13ifvqcag","pricing_plan_id":"cebpf4jnsgd1na2vs0mg"},{"bike_id":"63047839-1124-4c5d-a401-4aeb705a185c","system_id":"levelo_inurba_marseille","lat":43.30542,"lon":5.36552,"is_reserved":false,"is_disabled":false,"rental_uris":{"android":"levelo://app?vid=63047839-1124-4c5d-a401-4aeb705a185c","ios":"levelo://app?vid=63047839-1124-4c5d-a401-4aeb705a185c"},"vehicle_type_id":"4","last_reported":1739887733,"current_range_meters":19600,"station_id":"ce4bgs12rcd13ifvqcag","pricing_plan_id":"cebpf4jnsgd1na2vs0mg"},{"bike_id":"5afb5689-6e82-492a-9526-3a2059afff44","system_id":"levelo_inurba_marseille","lat":43.30305,"lon":5.39208,"is_reserved":false,"is_disabled":false,"rental_uris":{"android":"levelo://app?vid=5afb5689-6e82-492a-9526-3a2059afff44","ios":"levelo://app?vid=5afb5689-6e82-492a-9526-3a2059afff44"},"vehicle_type_id":"4","last_reported":1739887733,"current_range_meters":20800,"station_id":"ce4bgkh2rcd13ifvqbk0","pricing_plan_id":"cebpf4jnsgd1na2vs0mg"},{"bike_id":"a0af3547-0f5a-4ee7-a39d-23ed992db956","system_id":"levelo_inurba_marseille","lat":43.23418,"lon":5.40452,"is_reserved":false,"is_disabled":false,"rental_uris":{"android":"levelo://app?vid=a0af3547-0f5a-4ee7-a39d-23ed992db956","ios":"levelo://app?vid=a0af3547-0f5a-4ee7-a39d-23ed992db956"},"vehicle_type_id":"4","last_reported":1739887733,"current_range_meters":20000,"station_id":"","pricing_plan_id":"cebpf4jnsgd1na2vs0mg"},{"bike_id":"faa5627a-502d-4c4e-88a7-77f9ccde7751","system_id":"levelo_inurba_marseille","lat":43.32489,"lon":5.36567,"is_reserved":false,"is_disabled":false,"rental_uris":{"android":"levelo://app?vid=faa5627a-502d-4c4e-88a7-77f9ccde7751","ios":"levelo://app?vid=faa5627a-502d-4c4e-88a7-77f9ccde7751"},"vehicle_type_id":"4","last_reported":1739887733,"current_range_meters":20000,"station_id":"ce4bhs12rcd13ifvqhvg","pricing_plan_id":"cebpf4jnsgd1na2vs0mg"},{"bike_id":"037fddcd-906e-4bfa-9a73-3aa01958c5e9","system_id":"levelo_inurba_marseille","lat":43.29161,"lon":5.37154,"is_reserved":false,"is_disabled":false,"rental_uris":{"android":"levelo://app?vid=037fddcd-906e-4bfa-9a73-3aa01958c5e9","ios":"levelo://app?vid=037fddcd-906e-4bfa-9a73-3aa01958c5e9"},"vehicle_type_id":"4","last_reported":1739887733,"current_range_meters":20000,"station_id":"","pricing_plan_id":"cebpf4jnsgd1na2vs0mg"},{"bike_id":"b66bd68b-b222-4d52-8129-027125421706","system_id":"levelo_inurba_marseille","lat":43.28464,"lon":5.35885,"is_reserved":false,"is_disabled":false,"rental_uris":{"android":"levelo://app?vid=b66bd68b-b222-4d52-8129-027125421706","ios":"levelo://app?vid=b66bd68b-b222-4d52-8129-027125421706"},"vehicle_type_id":"4","last_reported":1739887733,"current_range_meters":19600,"station_id":"ce4bhah2rcd13ifvqei0","pricing_plan_id":"cebpf4jnsgd1na2vs0mg"},{"bike_id":"ff4fc8da-6137-4c50-a122-45dd602b1cb9","system_id":"levelo_inurba_marseille","lat":43.24066,"lon":5.37768,"is_reserved":false,"is_disabled":false,"rental_uris":{"android":"levelo://app?vid=ff4fc8da-6137-4c50-a122-45dd602b1cb9","ios":"levelo://app?vid=ff4fc8da-6137-4c50-a122-45dd602b1cb9"},"vehicle_type_id":"4","last_reported":1739887733,"current_range_meters":20000,"station_id":"ce4bhnp2rcd13ifvqgvg","pricing_plan_id":"cebpf4jnsgd1na2vs0mg"},{"bike_id":"b76dce8d-1605-4338-b39a-492d6e3cee3f","system_id":"levelo_inurba_marseille","lat":43.3056,"lon":5.36532,"is_reserved":false,"is_disabled":false,"rental_uris":{"android":"levelo://app?vid=b76dce8d-1605-4338-b39a-492d6e3cee3f","ios":"levelo://app?vid=b76dce8d-1605-4338-b39a-492d6e3cee3f"},"vehicle_type_id":"4","last_reported":1739887733,"current_range_meters":20000,"station_id":"","pricing_plan_id":"cebpf4jnsgd1na2vs0mg"},{"bike_id":"69b210eb-a35b-4be9-9c10-20c36a1f7fe9","system_id":"levelo_inurba_marseille","lat":43.24165,"lon":5.39741,"is_reserved":false,"is_disabled":false,"rental_uris":{"android":"levelo://app?vid=69b210eb-a35b-4be9-9c10-20c36a1f7fe9","ios":"levelo://app?vid=69b210eb-a35b-4be9-9c10-20c36a1f7fe9"},"vehicle_type_id":"4","last_reported":1739887733,"current_range_meters":20000,"station_id":"","pricing_plan_id":"cebpf4jnsgd1na2vs0mg"},{"bike_id":"b0fae73a-1807-4151-a5d1-0e0d09e29edd","system_id":"levelo_inurba_marseille","lat":43.28112,"lon":5.37816,"is_reserved":false,"is_disabled":false,"rental_uris":{"android":"levelo://app?vid=b0fae73a-1807-4151-a5d1-0e0d09e29edd","ios":"levelo://app?vid=b0fae73a-1807-4151-a5d1-0e0d09e29edd"},"vehicle_type_id":"4","last_reported":1739887733,"current_range_meters":20400,"station_id":"ce4bha12rcd13ifvqee0","pricing_plan_id":"cebpf4jnsgd1na2vs0mg"},{"bike_id":"fb466ea4-8c80-4a91-a655-695634faf4d0","system_id":"levelo_inurba_marseille","lat":43.30954,"lon":5.39047,"is_reserved":false,"is_disabled":false,"rental_uris":{"android":"levelo://app?vid=fb466ea4-8c80-4a91-a655-695634faf4d0","ios":"levelo://app?vid=fb466ea4-8c80-4a91-a655-695634faf4d0"},"vehicle_type_id":"4","last_reported":1739887733,"current_range_meters":20400,"station_id":"ce4bgup2rcd13ifvqco0","pricing_plan_id":"cebpf4jnsgd1na2vs0mg"},{"bike_id":"386e005e-77d0-4d8c-a9ea-795b1bbf4f96","system_id":"levelo_inurba_marseille","lat":43.293167,"lon":5.371801,"is_reserved":false,"is_disabled":false,"rental_uris":{"android":"levelo://app?vid=386e005e-77d0-4d8c-a9ea-795b1bbf4f96","ios":"levelo://app?vid=386e005e-77d0-4d8c-a9ea-795b1bbf4f96"},"vehicle_type_id":"4","last_reported":1739887733,"current_range_meters":20400,"station_id":"","pricing_plan_id":"cebpf4jnsgd1na2vs0mg"},{"bike_id":"11c049f6-310a-4659-92a3-719df9a45950","system_id":"levelo_inurba_marseille","lat":43.25944,"lon":5.40901,"is_reserved":false,"is_disabled":false,"rental_uris":{"android":"levelo://app?vid=11c049f6-310a-4659-92a3-719df9a45950","ios":"levelo://app?vid=11c049f6-310a-4659-92a3-719df9a45950"},"vehicle_type_id":"4","last_reported":1739887733,"current_range_meters":20400,"station_id":"ce4bhm92rcd13ifvqglg","pricing_plan_id":"cebpf4jnsgd1na2vs0mg"},{"bike_id":"8c160f44-c51e-48d5-b265-05e338e192db","system_id":"levelo_inurba_marseille","lat":43.27997,"lon":5.40002,"is_reserved":false,"is_disabled":false,"rental_uris":{"android":"levelo://app?vid=8c160f44-c51e-48d5-b265-05e338e192db","ios":"levelo://app?vid=8c160f44-c51e-48d5-b265-05e338e192db"},"vehicle_type_id":"4","last_reported":1739887733,"current_range_meters":20400,"station_id":"ce4bho92rcd13ifvqh4g","pricing_plan_id":"cebpf4jnsgd1na2vs0mg"},{"bike_id":"5428c4a6-2268-45c5-aff9-a5f8e308d92b","system_id":"levelo_inurba_marseille","lat":43.30914,"lon":5.37289,"is_reserved":false,"is_disabled":false,"rental_uris":{"android":"levelo://app?vid=5428c4a6-2268-45c5-aff9-a5f8e308d92b","ios":"levelo://app?vid=5428c4a6-2268-45c5-aff9-a5f8e308d92b"},"vehicle_type_id":"4","last_reported":1739887733,"current_range_meters":20800,"station_id":"ce4bguh2rcd13ifvqckg","pricing_plan_id":"cebpf4jnsgd1na2vs0mg"},{"bike_id":"3ca880fb-be5d-41b1-9e3c-19b59ea52225","system_id":"levelo_inurba_marseille","lat":43.25517,"lon":5.3766,"is_reserved":false,"is_disabled":false,"rental_uris":{"android":"levelo://app?vid=3ca880fb-be5d-41b1-9e3c-19b59ea52225","ios":"levelo://app?vid=3ca880fb-be5d-41b1-9e3c-19b59ea52225"},"vehicle_type_id":"4","last_reported":1739887733,"current_range_meters":20800,"station_id":"ce4bhh12rcd13ifvqff0","pricing_plan_id":"cebpf4jnsgd1na2vs0mg"},{"bike_id":"17c6ea28-6822-4280-9144-4e1334c8836e","system_id":"levelo_inurba_marseille","lat":43.30555,"lon":5.36542,"is_reserved":false,"is_disabled":false,"rental_uris":{"android":"levelo://app?vid=17c6ea28-6822-4280-9144-4e1334c8836e","ios":"levelo://app?vid=17c6ea28-6822-4280-9144-4e1334c8836e"},"vehicle_type_id":"4","last_reported":1739887733,"current_range_meters":20800,"station_id":"","pricing_plan_id":"cebpf4jnsgd1na2vs0mg"},{"bike_id":"ecbd6e29-5b86-41d0-a4bd-3518ee3bab53","system_id":"levelo_inurba_marseille","lat":43.24621,"lon":5.38866,"is_reserved":false,"is_disabled":false,"rental_uris":{"android":"levelo://app?vid=ecbd6e29-5b86-41d0-a4bd-3518ee3bab53","ios":"levelo://app?vid=ecbd6e29-5b86-41d0-a4bd-3518ee3bab53"},"vehicle_type_id":"4","last_reported":1739887733,"current_range_meters":20800,"station_id":"ce4bhg12rcd13ifvqf60","pricing_plan_id":"cebpf4jnsgd1na2vs0mg"},{"bike_id":"c1ddaba9-96e5-4265-b7eb-414248b43c03","system_id":"levelo_inurba_marseille","lat":43.33032,"lon":5.39051,"is_reserved":false,"is_disabled":false,"rental_uris":{"android":"levelo://app?vid=c1ddaba9-96e5-4265-b7eb-414248b43c03","ios":"levelo://app?vid=c1ddaba9-96e5-4265-b7eb-414248b43c03"},"vehicle_type_id":"4","last_reported":1739887733,"current_range_meters":20800,"station_id":"ce4bhr92rcd13ifvqhrg","pricing_plan_id":"cebpf4jnsgd1na2vs0mg"},{"bike_id":"9d365055-48fa-4bdd-9e14-be8827a691d1","system_id":"levelo_inurba_marseille","lat":43.31331,"lon":5.39704,"is_reserved":false,"is_disabled":false,"rental_uris":{"android":"levelo://app?vid=9d365055-48fa-4bdd-9e14-be8827a691d1","ios":"levelo://app?vid=9d365055-48fa-4bdd-9e14-be8827a691d1"},"vehicle_type_id":"4","last_reported":1739887733,"current_range_meters":20800,"station_id":"ce4bgvp2rcd13ifvqcu0","pricing_plan_id":"cebpf4jnsgd1na2vs0mg"},{"bike_id":"d5e0f6fa-7486-40b9-9310-f55169810ce8","system_id":"levelo_inurba_marseille","lat":43.30302,"lon":5.39217,"is_reserved":false,"is_disabled":false,"rental_uris":{"android":"levelo://app?vid=d5e0f6fa-7486-40b9-9310-f55169810ce8","ios":"levelo://app?vid=d5e0f6fa-7486-40b9-9310-f55169810ce8"},"vehicle_type_id":"4","last_reported":1739887733,"current_range_meters":20800,"station_id":"ce4bgkh2rcd13ifvqbk0","pricing_plan_id":"cebpf4jnsgd1na2vs0mg"},{"bike_id":"a57d7f07-a051-4506-ba86-d488d05d142d","system_id":"levelo_inurba_marseille","lat":43.29258,"lon":5.40909,"is_reserved":false,"is_disabled":false,"rental_uris":{"android":"levelo://app?vid=a57d7f07-a051-4506-ba86-d488d05d142d","ios":"levelo://app?vid=a57d7f07-a051-4506-ba86-d488d05d142d"},"vehicle_type_id":"4","last_reported":1739887733,"current_range_meters":20800,"station_id":"ce4bh192rcd13ifvqdc0","pricing_plan_id":"cebpf4jnsgd1na2vs0mg"},{"bike_id":"80ea6495-7afe-44b8-9580-b06f6472ed07","system_id":"levelo_inurba_marseille","lat":43.30535,"lon":5.36537,"is_reserved":false,"is_disabled":false,"rental_uris":{"android":"levelo://app?vid=80ea6495-7afe-44b8-9580-b06f6472ed07","ios":"levelo://app?vid=80ea6495-7afe-44b8-9580-b06f6472ed07"},"vehicle_type_id":"4","last_reported":1739887733,"current_range_meters":20800,"station_id":"ce4bgs12rcd13ifvqcag","pricing_plan_id":"cebpf4jnsgd1na2vs0mg"},{"bike_id":"da9a19f2-2028-4e60-9cce-7752d60ae428","system_id":"levelo_inurba_marseille","lat":43.244,"lon":5.371,"is_reserved":false,"is_disabled":false,"rental_uris":{"android":"levelo://app?vid=da9a19f2-2028-4e60-9cce-7752d60ae428","ios":"levelo://app?vid=da9a19f2-2028-4e60-9cce-7752d60ae428"},"vehicle_type_id":"4","last_reported":1739887733,"current_range_meters":21600,"station_id":"","pricing_plan_id":"cebpf4jnsgd1na2vs0mg"},{"bike_id":"eaced228-3b49-4e08-9e0a-44658a795962","system_id":"levelo_inurba_marseille","lat":43.25491,"lon":5.37647,"is_reserved":false,"is_disabled":false,"rental_uris":{"android":"levelo://app?vid=eaced228-3b49-4e08-9e0a-44658a795962","ios":"levelo://app?vid=eaced228-3b49-4e08-9e0a-44658a795962"},"vehicle_type_id":"4","last_reported":1739887733,"current_range_meters":21600,"station_id":"ce4bhh12rcd13ifvqff0","pricing_plan_id":"cebpf4jnsgd1na2vs0mg"},{"bike_id":"830abdb7-4b2f-4914-912a-71ec64d88371","system_id":"levelo_inurba_marseille","lat":43.30468,"lon":5.37899,"is_reserved":false,"is_disabled":false,"rental_uris":{"android":"levelo://app?vid=830abdb7-4b2f-4914-912a-71ec64d88371","ios":"levelo://app?vid=830abdb7-4b2f-4914-912a-71ec64d88371"},"vehicle_type_id":"4","last_reported":1739887733,"current_range_meters":21600,"station_id":"ce4bgup2rcd13ifvqcn0","pricing_plan_id":"cebpf4jnsgd1na2vs0mg"},{"bike_id":"84d13e52-68f9-4dc5-bc1b-afc409821b3d","system_id":"levelo_inurba_marseille","lat":43.26565,"lon":5.37322,"is_reserved":false,"is_disabled":false,"rental_uris":{"android":"levelo://app?vid=84d13e52-68f9-4dc5-bc1b-afc409821b3d","ios":"levelo://app?vid=84d13e52-68f9-4dc5-bc1b-afc409821b3d"},"vehicle_type_id":"4","last_reported":1739887733,"current_range_meters":21600,"station_id":"ce4bhg12rcd13ifvqf70","pricing_plan_id":"cebpf4jnsgd1na2vs0mg"},{"bike_id":"b16bfad8-c0da-4038-a210-9515f370c603","system_id":"levelo_inurba_marseille","lat":43.28265,"lon":5.35067,"is_reserved":false,"is_disabled":false,"rental_uris":{"android":"levelo://app?vid=b16bfad8-c0da-4038-a210-9515f370c603","ios":"levelo://app?vid=b16bfad8-c0da-4038-a210-9515f370c603"},"vehicle_type_id":"4","last_reported":1739887733,"current_range_meters":21600,"station_id":"","pricing_plan_id":"cebpf4jnsgd1na2vs0mg"},{"bike_id":"1f4bb896-5acf-40f6-95c6-d6a43c79a06a","system_id":"levelo_inurba_marseille","lat":43.28976,"lon":5.37831,"is_reserved":false,"is_disabled":false,"rental_uris":{"android":"levelo://app?vid=1f4bb896-5acf-40f6-95c6-d6a43c79a06a","ios":"levelo://app?vid=1f4bb896-5acf-40f6-95c6-d6a43c79a06a"},"vehicle_type_id":"4","last_reported":1739887733,"current_range_meters":21600,"station_id":"ce4bh9p2rcd13ifvqed0","pricing_plan_id":"cebpf4jnsgd1na2vs0mg"},{"bike_id":"89b0891e-671e-4b94-b8a0-bc4cd38018bf","system_id":"levelo_inurba_marseille","lat":43.24154,"lon":5.36406,"is_reserved":false,"is_disabled":false,"rental_uris":{"android":"levelo://app?vid=89b0891e-671e-4b94-b8a0-bc4cd38018bf","ios":"levelo://app?vid=89b0891e-671e-4b94-b8a0-bc4cd38018bf"},"vehicle_type_id":"4","last_reported":1739887733,"current_range_meters":21600,"station_id":"","pricing_plan_id":"cebpf4jnsgd1na2vs0mg"},{"bike_id":"7bdc1562-ffd9-4b6b-b81c-d56410b9b686","system_id":"levelo_inurba_marseille","lat":43.29885,"lon":5.39737,"is_reserved":false,"is_disabled":false,"rental_uris":{"android":"levelo://app?vid=7bdc1562-ffd9-4b6b-b81c-d56410b9b686","ios":"levelo://app?vid=7bdc1562-ffd9-4b6b-b81c-d56410b9b686"},"vehicle_type_id":"4","last_reported":1739887733,"current_range_meters":21600,"station_id":"ce4bh0h2rcd13ifvqd50","pricing_plan_id":"cebpf4jnsgd1na2vs0mg"},{"bike_id":"64914ee1-541d-439f-984e-4cc0179511cb","system_id":"levelo_inurba_marseille","lat":43.28182,"lon":5.40236,"is_reserved":false,"is_disabled":false,"rental_uris":{"android":"levelo://app?vid=64914ee1-541d-439f-984e-4cc0179511cb","ios":"levelo://app?vid=64914ee1-541d-439f-984e-4cc0179511cb"},"vehicle_type_id":"4","last_reported":1739887733,"current_range_meters":21600,"station_id":"","pricing_plan_id":"cebpf4jnsgd1na2vs0mg"},{"bike_id":"df94b53a-35c6-43b2-a8ae-ff70b876a59c","system_id":"levelo_inurba_marseille","lat":43.29528,"lon":5.38539,"is_reserved":false,"is_disabled":false,"rental_uris":{"android":"levelo://app?vid=df94b53a-35c6-43b2-a8ae-ff70b876a59c","ios":"levelo://app?vid=df94b53a-35c6-43b2-a8ae-ff70b876a59c"},"vehicle_type_id":"4","last_reported":1739887733,"current_range_meters":21600,"station_id":"ce4bgih2rcd13ifvqba0","pricing_plan_id":"cebpf4jnsgd1na2vs0mg"},{"bike_id":"0becfde7-192a-42cd-93da-21f3b3c9ad9a","system_id":"levelo_inurba_marseille","lat":43.28421,"lon":5.34983,"is_reserved":false,"is_disabled":false,"rental_uris":{"android":"levelo://app?vid=0becfde7-192a-42cd-93da-21f3b3c9ad9a","ios":"levelo://app?vid=0becfde7-192a-42cd-93da-21f3b3c9ad9a"},"vehicle_type_id":"4","last_reported":1739887733,"current_range_meters":21600,"station_id":"ce4bhbh2rcd13ifvqepg","pricing_plan_id":"cebpf4jnsgd1na2vs0mg"},