{"last_updated":1762704685,"ttl":60,"version":"2.2","data":{"bikes":[{"bike_id":"7a5fa1cc-72fe-43e3-b8a4-19efd7eea413","system_id":"levelo_inurba_marseille","lat":43.25499,"lon":5.37651,"is_reserved":false,"is_disabled":false,"rental_uris":{"android":"levelo://app?vid=7a5fa1cc-72fe-43e3-b8a4-19efd7eea413","ios":"levelo://app?vid=7a5fa1cc-72fe-43e3-b8a4-19efd7eea413"},"vehicle_type_id":"4","last_reported":1762704685,"current_range_meters":2800,"station_id":"ce4bhh12rcd13ifvqff0","pricing_plan_id":"cebpf4jnsgd1na2vs0mg"},{"bike_id":"e9a74a68-bd2c-4b67-9008-3d7c74919f67","system_id":"levelo_inurba_marseille","lat":43.24645,"lon":5.38888,"is_reserved":false,"is_disabled":false,"rental_uris":{"android":"levelo://app?vid=e9a74a68-bd2c-4b67-9008-3d7c74919f67","ios":"levelo://app?vid=e9a74a68-bd2c-4b67-9008-3d7c74919f67"},"vehicle_type_id":"4","last_reported":1762704685,"current_range_meters":2800,"station_id":"ce4bhg12rcd13ifvqf60","pricing_plan_id":"cebpf4jnsgd1na2vs0mg"},{"bike_id":"9531e63d-657f-463f-9647-a29fa450024a","system_id":"levelo_inurba_marseille","lat":43.28614,"lon":5.370705,"is_reserved":false,"is_disabled":false,"rental_uris":{"android":"levelo://app?vid=9531e63d-657f-463f-9647-a29fa450024a","ios":"levelo://app?vid=9531e63d-657f-463f-9647-a29fa450024a"},"vehicle_type_id":"4","last_reported":1762704685,"current_range_meters":2800,"station_id":"ce4bht12rcd13ifvqi60","pricing_plan_id":"cebpf4jnsgd1na2vs0mg"},{"bike_id":"4fa93e58-ad51-41bb-b7cd-c71dad4e22b9","system_id":"levelo_inurba_marseille","lat":43.21191,"lon":5.35077,"is_reserved":false,"is_disabled":true,"rental_uris":{"android":"levelo://app?vid=4fa93e58-ad51-41bb-b7cd-c71dad4e22b9","ios":"levelo://app?vid=4fa93e58-ad51-41bb-b7cd-c71dad4e22b9"},"vehicle_type_id":"4","last_reported":1762704685,"current_range_meters":2800,"station_id":"st_cvj6sg6p6f1abm77japg","pricing_plan_id":"cebpf4jnsgd1na2vs0mg"},{"bike_id":"81065165-85eb-4998-9b12-e6ab0411125b","system_id":"levelo_inurba_marseille","lat":43.24667,"lon":5.38153,"is_reserved":false,"is_disabled":false,"rental_uris":{"android":"levelo://app?vid=81065165-85eb-4998-9b12-e6ab0411125b","ios":"levelo://app?vid=81065165-85eb-4998-9b12-e6ab0411125b"},"vehicle_type_id":"4","last_reported":1762704685,"current_range_meters":2800,"station_id":"ce4bhih2rcd13ifvqfr0","pricing_plan_id":"cebpf4jnsgd1na2vs0mg"},{"bike_id":"7a34d578-5097-489f-8760-9f99d5dc4419","system_id":"levelo_inurba_marseille","lat":43.255739,"lon":5.382324,"is_reserved":false,"is_disabled":false,"rental_uris":{"android":"levelo://app?vid=7a34d578-5097-489f-8760-9f99d5dc4419","ios":"levelo://app?vid=7a34d578-5097-489f-8760-9f99d5dc4419"},"vehicle_type_id":"4","last_reported":1762704685,"current_range_meters":2800,"station_id":"","pricing_plan_id":"cebpf4jnsgd1na2vs0mg"},{"bike_id":"5bee8f0f-57fe-4257-a72a-04a4967570b5","system_id":"levelo_inurba_marseille","lat":43.300395,"lon":5.377123,"is_reserved":false,"is_disabled":false,"rental_uris":{"android":"levelo://app?vid=5bee8f0f-57fe-4257-a72a-04a4967570b5","ios":"levelo://app?vid=5bee8f0f-57fe-4257-a72a-04a4967570b5"},"vehicle_type_id":"4","last_reported":1762704685,"current_range_meters":2800,"station_id":"","pricing_plan_id":"cebpf4jnsgd1na2vs0mg"},{"bike_id":"67991d2a-9354-4e2d-b4d2-7514a7b710a1","system_id":"levelo_inurba_marseille","lat":43.28366,"lon":5.38632,"is_reserved":false,"is_disabled":false,"rental_uris":{"android":"levelo://app?vid=67991d2a-9354-4e2d-b4d2-7514a7b710a1","ios":"levelo://app?vid=67991d2a-9354-4e2d-b4d2-7514a7b710a1"},"vehicle_type_id":"4","last_reported":1762704685,"current_range_meters":3200,"station_id":"ce4bh492rcd13ifvqdvg","pricing_plan_id":"cebpf4jnsgd1na2vs0mg"},{"bike_id":"c3237e42-f77a-48f5-9192-c1f8ab87d424","system_id":"levelo_inurba_marseille","lat":43.29046,"lon":5.35912,"is_reserved":false,"is_disabled":false,"rental_uris":{"android":"levelo://app?vid=c3237e42-f77a-48f5-9192-c1f8ab87d424","ios":"levelo://app?vid=c3237e42-f77a-48f5-9192-c1f8ab87d424"},"vehicle_type_id":"4","last_reported":1762704685,"current_range_meters":3200,"station_id":"ce4bha92rcd13ifvqeg0","pricing_plan_id":"cebpf4jnsgd1na2vs0mg"},{"bike_id":"ca7d4757-abf8-47a2-97a8-1367d8b049c3","system_id":"levelo_inurba_marseille","lat":43.25588,"lon":5.38262,"is_reserved":false,"is_disabled":false,"rental_uris":{"android":"levelo://app?vid=ca7d4757-abf8-47a2-97a8-1367d8b049c3","ios":"levelo://app?vid=ca7d4757-abf8-47a2-97a8-1367d8b049c3"},"vehicle_type_id":"4","last_reported":1762704685,"current_range_meters":3200,"station_id":"ce4bhih2rcd13ifvqfs0","pricing_plan_id":"cebpf4jnsgd1na2vs0mg"},{"bike_id":"84f4a0e3-ea9f-44bb-98e4-8dc79d6baa29","system_id":"levelo_inurba_marseille","lat":43.24648,"lon":5.38896,"is_reserved":false,"is_disabled":false,"rental_uris":{"android":"levelo://app?vid=84f4a0e3-ea9f-44bb-98e4-8dc79d6baa29","ios":"levelo://app?vid=84f4a0e3-ea9f-44bb-98e4-8dc79d6baa29"},"vehicle_type_id":"4","last_reported":1762704685,"current_range_meters":3200,"station_id":"ce4bhg12rcd13ifvqf60","pricing_plan_id":"cebpf4jnsgd1na2vs0mg"},{"bike_id":"b1bb2249-4f8c-4519-ae30-4f6ab9bc5dd8","system_id":"levelo_inurba_marseille","lat":43.255082,"lon":5.376543,"is_reserved":false,"is_disabled":false,"rental_uris":{"android":"levelo://app?vid=b1bb2249-4f8c-4519-ae30-4f6ab9bc5dd8","ios":"levelo://app?vid=b1bb2249-4f8c-4519-ae30-4f6ab9bc5dd8"},"vehicle_type_id":"4","last_reported":1762704685,"current_range_meters":3200,"station_id":"ce4bhh12rcd13ifvqff0","pricing_plan_id":"cebpf4jnsgd1na2vs0mg"},{"bike_id":"57314848-feb4-4e70-b10f-b89cdd157faf","system_id":"levelo_inurba_marseille","lat":43.278349,"lon":5.392042,"is_reserved":false,"is_disabled":false,"rental_uris":{"android":"levelo://app?vid=57314848-feb4-4e70-b10f-b89cdd157faf","ios":"levelo://app?vid=57314848-feb4-4e70-b10f-b89cdd157faf"},"vehicle_type_id":"4","last_reported":1762704685,"current_range_meters":3200,"station_id":"ce4bhjp2rcd13ifvqga0","pricing_plan_id":"cebpf4jnsgd1na2vs0mg"},{"bike_id":"bab182a0-c03b-4bf3-b853-bf377d7366d6","system_id":"levelo_inurba_marseille","lat":43.30127,"lon":5.387876,"is_reserved":false,"is_disabled":false,"rental_uris":{"android":"levelo://app?vid=bab182a0-c03b-4bf3-b853-bf377d7366d6","ios":"levelo://app?vid=bab182a0-c03b-4bf3-b853-bf377d7366d6"},"vehicle_type_id":"4","last_reported":1762704685,"current_range_meters":3200,"station_id":"","pricing_plan_id":"cebpf4jnsgd1na2vs0mg"},{"bike_id":"2d7d4b31-8ce2-4f91-aa92-20f6b17283c5","system_id":"levelo_inurba_marseille","lat":43.24387,"lon":5.3705,"is_reserved":false,"is_disabled":false,"rental_uris":{"android":"levelo://app?vid=2d7d4b31-8ce2-4f91-aa92-20f6b17283c5","ios":"levelo://app?vid=2d7d4b31-8ce2-4f91-aa92-20f6b17283c5"},"vehicle_type_id":"4","last_reported":1762704685,"current_range_meters":3200,"station_id":"ce4bhhh2rcd13ifvqfk0","pricing_plan_id":"cebpf4jnsgd1na2vs0mg"},{"bike_id":"466d8f07-4f32-45d1-a1e8-af5dcff38dfb","system_id":"levelo_inurba_marseille","lat":43.26583,"lon":5.39032,"is_reserved":false,"is_disabled":false,"rental_uris":{"android":"levelo://app?vid=466d8f07-4f32-45d1-a1e8-af5dcff38dfb","ios":"levelo://app?vid=466d8f07-4f32-45d1-a1e8-af5dcff38dfb"},"vehicle_type_id":"4","last_reported":1762704685,"current_range_meters":3600,"station_id":"ce4bhe12rcd13ifvqf30","pricing_plan_id":"cebpf4jnsgd1na2vs0mg"},{"bike_id":"dbd7b8b3-b976-450d-8e79-43bd74ca660d","system_id":"levelo_inurba_marseille","lat":43.281737,"lon":5.428342,"is_reserved":false,"is_disabled":false,"rental_uris":{"android":"levelo://app?vid=dbd7b8b3-b976-450d-8e79-43bd74ca660d","ios":"levelo://app?vid=dbd7b8b3-b976-450d-8e79-43bd74ca660d"},"vehicle_type_id":"4","last_reported":1762704685,"current_range_meters":3600,"station_id":"ce4bhph2rcd13ifvqhdg","pricing_plan_id":"cebpf4jnsgd1na2vs0mg"},{"bike_id":"0654eb57-9895-4847-8803-3caae6d17b47","system_id":"levelo_inurba_marseille","lat":43.225281,"lon":5.348417,"is_reserved":false,"is_disabled":false,"rental_uris":{"android":"levelo://app?vid=0654eb57-9895-4847-8803-3caae6d17b47","ios":"levelo://app?vid=0654eb57-9895-4847-8803-3caae6d17b47"},"vehicle_type_id":"4","last_reported":1762704685,"current_range_meters":3600,"station_id":"","pricing_plan_id":"cebpf4jnsgd1na2vs0mg"},{"bike_id":"2bda9569-8855-4749-9a29-a9c55ba153ed","system_id":"levelo_inurba_marseille","lat":43.22576,"lon":5.41646,"is_reserved":false,"is_disabled":false,"rental_uris":{"android":"levelo://app?vid=2bda9569-8855-4749-9a29-a9c55ba153ed","ios":"levelo://app?vid=2bda9569-8855-4749-9a29-a9c55ba153ed"},"vehicle_type_id":"4","last_reported":1762704685,"current_range_meters":3600,"station_id":"st_d2o4gvlbi1j2169b742g","pricing_plan_id":"cebpf4jnsgd1na2vs0mg"},{"bike_id":"c8b017bf-db65-4641-8a34-ab54d55eacc6","system_id":"levelo_inurba_marseille","lat":43.26955,"lon":5.3864,"is_reserved":false,"is_disabled":false,"rental_uris":{"android":"levelo://app?vid=c8b017bf-db65-4641-8a34-ab54d55eacc6","ios":"levelo://app?vid=c8b017bf-db65-4641-8a34-ab54d55eacc6"},"vehicle_type_id":"4","last_reported":1762704685,"current_range_meters":3600,"station_id":"ce4bhh92rcd13ifvqfh0","pricing_plan_id":"cebpf4jnsgd1na2vs0mg"},{"bike_id":"ca5649c9-59f1-4f52-a555-7400b2143da8","system_id":"levelo_inurba_marseille","lat":43.225325,"lon":5.348343,"is_reserved":false,"is_disabled":false,"rental_uris":{"android":"levelo://app?vid=ca5649c9-59f1-4f52-a555-7400b2143da8","ios":"levelo://app?vid=ca5649c9-59f1-4f52-a555-7400b2143da8"},"vehicle_type_id":"4","last_reported":1762704685,"current_range_meters":3600,"station_id":"","pricing_plan_id":"cebpf4jnsgd1na2vs0mg"},{"bike_id":"f08d6a48-194c-42ba-9d15-65f6d5b3e545","system_id":"levelo_inurba_marseille","lat":43.278066,"lon":5.407146,"is_reserved":false,"is_disabled":false,"rental_uris":{"android":"levelo://app?vid=f08d6a48-194c-42ba-9d15-65f6d5b3e545","ios":"levelo://app?vid=f08d6a48-194c-42ba-9d15-65f6d5b3e545"},"vehicle_type_id":"4","last_reported":1762704685,"current_range_meters":3600,"station_id":"ce4bhnh2rcd13ifvqgtg","pricing_plan_id":"cebpf4jnsgd1na2vs0mg"},{"bike_id":"c17323d8-1f8a-4649-a340-846301b3c129","system_id":"levelo_inurba_marseille","lat":43.24162,"lon":5.39761,"is_reserved":false,"is_disabled":false,"rental_uris":{"android":"levelo://app?vid=c17323d8-1f8a-4649-a340-846301b3c129","ios":"levelo://app?vid=c17323d8-1f8a-4649-a340-846301b3c129"},"vehicle_type_id":"4","last_reported":1762704685,"current_range_meters":3600,"station_id":"ce4bhn12rcd13ifvqgpg","pricing_plan_id":"cebpf4jnsgd1na2vs0mg"},{"bike_id":"6a5a49f9-f85a-44d6-a8b1-5bae703f73f9","system_id":"levelo_inurba_marseille","lat":43.29234,"lon":5.36471,"is_reserved":false,"is_disabled":false,"rental_uris":{"android":"levelo://app?vid=6a5a49f9-f85a-44d6-a8b1-5bae703f73f9","ios":"levelo://app?vid=6a5a49f9-f85a-44d6-a8b1-5bae703f73f9"},"vehicle_type_id":"4","last_reported":1762704685,"current_range_meters":4000,"station_id":"","pricing_plan_id":"cebpf4jnsgd1na2vs0mg"},{"bike_id":"80b664b8-bf3d-409c-bc3c-4ba425665908","system_id":"levelo_inurba_marseille","lat":43.29536,"lon":5.39052,"is_reserved":false,"is_disabled":false,"rental_uris":{"android":"levelo://app?vid=80b664b8-bf3d-409c-bc3c-4ba425665908","ios":"levelo://app?vid=80b664b8-bf3d-409c-bc3c-4ba425665908"},"vehicle_type_id":"4","last_reported":1762704685,"current_range_meters":4000,"station_id":"ce4bh3p2rcd13ifvqdp0","pricing_plan_id":"cebpf4jnsgd1na2vs0mg"},{"bike_id":"b9311ee7-e7f7-4720-a668-f2ef239d6b6e","system_id":"levelo_inurba_marseille","lat":43.21201,"lon":5.35068,"is_reserved":false,"is_disabled":false,"rental_uris":{"android":"levelo://app?vid=b9311ee7-e7f7-4720-a668-f2ef239d6b6e","ios":"levelo://app?vid=b9311ee7-e7f7-4720-a668-f2ef239d6b6e"},"vehicle_type_id":"4","last_reported":1762704685,"current_range_meters":4000,"station_id":"st_cvj6sg6p6f1abm77japg","pricing_plan_id":"cebpf4jnsgd1na2vs0mg"},{"bike_id":"5e4907ad-870e-46ca-9223-8bd875943ae8","system_id":"levelo_inurba_marseille","lat":43.30919,"lon":5.40144,"is_reserved":false,"is_disabled":false,"rental_uris":{"android":"levelo://app?vid=5e4907ad-870e-46ca-9223-8bd875943ae8","ios":"levelo://app?vid=5e4907ad-870e-46ca-9223-8bd875943ae8"},"vehicle_type_id":"4","last_reported":1762704685,"current_range_meters":4000,"station_id":"ce4bgvp2rcd13ifvqct0","pricing_plan_id":"cebpf4jnsgd1na2vs0mg"},{"bike_id":"851e4c89-0288-46e0-ac47-e2843cbe9352","system_id":"levelo_inurba_marseille","lat":43.29782,"lon":5.39331,"is_reserved":false,"is_disabled":false,"rental_uris":{"android":"levelo://app?vid=851e4c89-0288-46e0-ac47-e2843cbe9352","ios":"levelo://app?vid=851e4c89-0288-46e0-ac47-e2843cbe9352"},"vehicle_type_id":"4","last_reported":1762704685,"current_range_meters":4000,"station_id":"chh1huq6cuj3fo74tm60","pricing_plan_id":"cebpf4jnsgd1na2vs0mg"},{"bike_id":"6f2f03ce-097a-4071-b899-2ec433591936","system_id":"levelo_inurba_marseille","lat":43.273703,"lon":5.362593,"is_reserved":false,"is_disabled":false,"rental_uris":{"android":"levelo://app?vid=6f2f03ce-097a-4071-b899-2ec433591936","ios":"levelo://app?vid=6f2f03ce-097a-4071-b899-2ec433591936"},"vehicle_type_id":"4","last_reported":1762704685,"current_range_meters":4000,"station_id":"ce4bhbh2rcd13ifvqeo0","pricing_plan_id":"cebpf4jnsgd1na2vs0mg"},{"bike_id":"a0ea519d-554f-42a0-93a3-d4c181552c78","system_id":"levelo_inurba_marseille","lat":43.31273,"lon":5.37774,"is_reserved":false,"is_disabled":false,"rental_uris":{"android":"levelo://app?vid=a0ea519d-554f-42a0-93a3-d4c181552c78","ios":"levelo://app?vid=a0ea519d-554f-42a0-93a3-d4c181552c78"},"vehicle_type_id":"4","last_reported":1762704685,"current_range_meters":4000,"station_id":"","pricing_plan_id":"cebpf4jnsgd1na2vs0mg"},{"bike_id":"4b5d8301-3f7d-41e0-a7e1-c1463c22945c","system_id":"levelo_inurba_marseille","lat":43.259205,"lon":5.398661,"is_reserved":false,"is_disabled":false,"rental_uris":{"android":"levelo://app?vid=4b5d8301-3f7d-41e0-a7e1-c1463c22945c","ios":"levelo://app?vid=4b5d8301-3f7d-41e0-a7e1-c1463c22945c"},"vehicle_type_id":"4","last_reported":1762704685,"current_range_meters":4000,"station_id":"ce4bhl92rcd13ifvqghg","pricing_plan_id":"cebpf4jnsgd1na2vs0mg"},{"bike_id":"72e62a42-9e8a-47f1-94fb-85d2ea30fe1f","system_id":"levelo_inurba_marseille","lat":43.28274,"lon":5.35073,"is_reserved":false,"is_disabled":false,"rental_uris":{"android":"levelo://app?vid=72e62a42-9e8a-47f1-94fb-85d2ea30fe1f","ios":"levelo://app?vid=72e62a42-9e8a-47f1-94fb-85d2ea30fe1f"},"vehicle_type_id":"4","last_reported":1762704685,"current_range_meters":4000,"station_id":"ce4bhbp2rcd13ifvqerg","pricing_plan_id":"cebpf4jnsgd1na2vs0mg"},{"bike_id":"29d1c12a-fff0-44b3-8a7c-aa35201ff99c","system_id":"levelo_inurba_marseille","lat":43.255798,"lon":5.382197,"is_reserved":false,"is_disabled":false,"rental_uris":{"android":"levelo://app?vid=29d1c12a-fff0-44b3-8a7c-aa35201ff99c","ios":"levelo://app?vid=29d1c12a-fff0-44b3-8a7c-aa35201ff99c"},"vehicle_type_id":"4","last_reported":1762704685,"current_range_meters":4400,"station_id":"ce4bhih2rcd13ifvqfs0","pricing_plan_id":"cebpf4jnsgd1na2vs0mg"},{"bike_id":"2f9a700b-2ac3-460d-a0c2-769614ac4346","system_id":"levelo_inurba_marseille","lat":43.30539,"lon":5.36555,"is_reserved":false,"is_disabled":false,"rental_uris":{"android":"levelo://app?vid=2f9a700b-2ac3-460d-a0c2-769614ac4346","ios":"levelo://app?vid=2f9a700b-2ac3-460d-a0c2-769614ac4346"},"vehicle_type_id":"4","last_reported":1762704685,"current_range_meters":4400,"station_id":"ce4bgs12rcd13ifvqcag","pricing_plan_id":"cebpf4jnsgd1na2vs0mg"},{"bike_id":"5c891317-f712-4423-a2af-3208676ac4e3","system_id":"levelo_inurba_marseille","lat":43.285783,"lon":5.372054,"is_reserved":false,"is_disabled":false,"rental_uris":{"android":"levelo://app?vid=5c891317-f712-4423-a2af-3208676ac4e3","ios":"levelo://app?vid=5c891317-f712-4423-a2af-3208676ac4e3"},"vehicle_type_id":"4","last_reported":1762704685,"current_range_meters":4400,"station_id":"ce4bht12rcd13ifvqi60","pricing_plan_id":"cebpf4jnsgd1na2vs0mg"},{"bike_id":"7592dc01-7055-4627-931d-bf539a9a160f","system_id":"levelo_inurba_marseille","lat":43.229266,"lon":5.353737,"is_reserved":false,"is_disabled":false,"rental_uris":{"android":"levelo://app?vid=7592dc01-7055-4627-931d-bf539a9a160f","ios":"levelo://app?vid=7592dc01-7055-4627-931d-bf539a9a160f"},"vehicle_type_id":"4","last_reported":1762704685,"current_range_meters":4400,"station_id":"cpo3532slgdg3j2ikp40","pricing_plan_id":"cebpf4jnsgd1na2vs0mg"},{"bike_id":"bbd25ec8-de28-4566-bdf8-f8000ba11270","system_id":"levelo_inurba_marseille","lat":43.30418,"lon":5.41281,"is_reserved":false,"is_disabled":false,"rental_uris":{"android":"levelo://app?vid=bbd25ec8-de28-4566-bdf8-f8000ba11270","ios":"levelo://app?vid=bbd25ec8-de28-4566-bdf8-f8000ba11270"},"vehicle_type_id":"4","last_reported":1762704685,"current_range_meters":4800,"station_id":"ce4bhop2rcd13ifvqh8g","pricing_plan_id":"cebpf4jnsgd1na2vs0mg"},{"bike_id":"8b19ce32-3fd2-4d35-9616-dffbd1943dee","system_id":"levelo_inurba_marseille","lat":43.21203,"lon":5.35072,"is_reserved":false,"is_disabled":false,"rental_uris":{"android":"levelo://app?vid=8b19ce32-3fd2-4d35-9616-dffbd1943dee","ios":"levelo://app?vid=8b19ce32-3fd2-4d35-9616-dffbd1943dee"},"vehicle_type_id":"4","last_reported":1762704685,"current_range_meters":4800,"station_id":"st_cvj6sg6p6f1abm77japg","pricing_plan_id":"cebpf4jnsgd1na2vs0mg"},{"bike_id":"78b4c311-b3d0-4884-b0da-6082785efb0e","system_id":"levelo_inurba_marseille","lat":43.28479,"lon":5.48394,"is_reserved":false,"is_disabled":false,"rental_uris":{"android":"levelo://app?vid=78b4c311-b3d0-4884-b0da-6082785efb0e","ios":"levelo://app?vid=78b4c311-b3d0-4884-b0da-6082785efb0e"},"vehicle_type_id":"4","last_reported":1762704685,"current_range_meters":4800,"station_id":"","pricing_plan_id":"cebpf4jnsgd1na2vs0mg"},{"bike_id":"5c17ed12-8897-4f84-bbfc-85419a7f8038","system_id":"levelo_inurba_marseille","lat":43.270968,"lon":5.394202,"is_reserved":false,"is_disabled":false,"rental_uris":{"android":"levelo://app?vid=5c17ed12-8897-4f84-bbfc-85419a7f8038","ios":"levelo://app?vid=5c17ed12-8897-4f84-bbfc-85419a7f8038"},"vehicle_type_id":"4","last_reported":1762704685,"current_range_meters":4800,"station_id":"","pricing_plan_id":"cebpf4jnsgd1na2vs0mg"},{"bike_id":"18538bc2-e5cd-440f-8b15-8adc3399f112","system_id":"levelo_inurba_marseille","lat":43.26684,"lon":5.38268,"is_reserved":false,"is_disabled":false,"rental_uris":{"android":"levelo://app?vid=18538bc2-e5cd-440f-8b15-8adc3399f112","ios":"levelo://app?vid=18538bc2-e5cd-440f-8b15-8adc3399f112"},"vehicle_type_id":"4","last_reported":1762704685,"current_range_meters":4800,"station_id":"ce4bhg92rcd13ifvqf90","pricing_plan_id":"cebpf4jnsgd1na2vs0mg"},{"bike_id":"63a92d10-2f0d-4b8e-affe-4cfbc4248545","system_id":"levelo_inurba_marseille","lat":43.211881,"lon":5.350831,"is_reserved":false,"is_disabled":false,"rental_uris":{"android":"levelo://app?vid=63a92d10-2f0d-4b8e-affe-4cfbc4248545","ios":"levelo://app?vid=63a92d10-2f0d-4b8e-affe-4cfbc4248545"},"vehicle_type_id":"4","last_reported":1762704685,"current_range_meters":4800,"station_id":"st_cvj6sg6p6f1abm77japg","pricing_plan_id":"cebpf4jnsgd1na2vs0mg"},{"bike_id":"2fa61e70-b5da-444e-b8e5-5881b4da44c8","system_id":"levelo_inurba_marseille","lat":43.29892,"lon":5.38909,"is_reserved":false,"is_disabled":false,"rental_uris":{"android":"levelo://app?vid=2fa61e70-b5da-444e-b8e5-5881b4da44c8","ios":"levelo://app?vid=2fa61e70-b5da-444e-b8e5-5881b4da44c8"},"vehicle_type_id":"4","last_reported":1762704685,"current_range_meters":4800,"station_id":"ce4bh392rcd13ifvqdl0","pricing_plan_id":"cebpf4jnsgd1na2vs0mg"},{"bike_id":"f87c2f11-1e07-49d7-9db3-6271484d08ac","system_id":"levelo_inurba_marseille","lat":43.22915,"lon":5.35358,"is_reserved":false,"is_disabled":true,"rental_uris":{"android":"levelo://app?vid=f87c2f11-1e07-49d7-9db3-6271484d08ac","ios":"levelo://app?vid=f87c2f11-1e07-49d7-9db3-6271484d08ac"},"vehicle_type_id":"4","last_reported":1762704685,"current_range_meters":5600,"station_id":"cpo3532slgdg3j2ikp40","pricing_plan_id":"cebpf4jnsgd1na2vs0mg"},{"bike_id":"26aad628-bd01-4664-890e-ba85447bad9f","system_id":"levelo_inurba_marseille","lat":43.303332,"lon":5.40429,"is_reserved":false,"is_disabled":true,"rental_uris":{"android":"levelo://app?vid=26aad628-bd01-4664-890e-ba85447bad9f","ios":"levelo://app?vid=26aad628-bd01-4664-890e-ba85447bad9f"},"vehicle_type_id":"4","last_reported":1762704685,"current_range_meters":5600,"station_id":"ce4bh012rcd13ifvqd10","pricing_plan_id":"cebpf4jnsgd1na2vs0mg"},{"bike_id":"6c6f65b3-0314-4d51-ad33-575d2b20e8f4","system_id":"levelo_inurba_marseille","lat":43.21739,"lon":5.34611,"is_reserved":false,"is_disabled":true,"rental_uris":{"android":"levelo://app?vid=6c6f65b3-0314-4d51-ad33-575d2b20e8f4","ios":"levelo://app?vid=6c6f65b3-0314-4d51-ad33-575d2b20e8f4"},"vehicle_type_id":"4","last_reported":1762704685,"current_range_meters":5600,"station_id":"st_cvj6r9ubvosntc0bgbag","pricing_plan_id":"cebpf4jnsgd1na2vs0mg"},{"bike_id":"b05048b6-3636-4628-97b9-678771374061","system_id":"levelo_inurba_marseille","lat":43.30429,"lon":5.36812,"is_reserved":false,"is_disabled":true,"rental_uris":{"android":"levelo://app?vid=b05048b6-3636-4628-97b9-678771374061","ios":"levelo://app?vid=b05048b6-3636-4628-97b9-678771374061"},"vehicle_type_id":"4","last_reported":1762704685,"current_range_meters":5600,"station_id":"","pricing_plan_id":"cebpf4jnsgd1na2vs0mg"},{"bike_id":"c631ce55-57c9-41cc-8866-490475df1696","system_id":"levelo_inurba_marseille","lat":43.24392,"lon":5.3707,"is_reserved":false,"is_disabled":false,"rental_uris":{"android":"levelo://app?vid=c631ce55-57c9-41cc-8866-490475df1696","ios":"levelo://app?vid=c631ce55-57c9-41cc-8866-490475df1696"},"vehicle_type_id":"4","last_reported":1762704685,"current_range_meters":5600,"station_id":"ce4bhhh2rcd13ifvqfk0","pricing_plan_id":"cebpf4jnsgd1na2vs0mg"},{"bike_id":"d13f7aac-3326-47eb-8c83-0485dd333747","system_id":"levelo_inurba_marseille","lat":43.30533,"lon":5.3925,"is_reserved":false,"is_disabled":false,"rental_uris":{"android":"levelo://app?vid=d13f7aac-3326-47eb-8c83-0485dd333747","ios":"levelo://app?vid=d13f7aac-3326-47eb-8c83-0485dd333747"},"vehicle_type_id":"4","last_reported":1762704685,"current_range_meters":5600,"station_id":"","pricing_plan_id":"cebpf4jnsgd1na2vs0mg"},{"bike_id":"7d355d6b-66e0-49b9-af31-68687992738c","system_id":"levelo_inurba_marseille","lat":43.27351,"lon":5.392961,"is_reserved":false,"is_disabled":false,"rental_uris":{"android":"levelo://app?vid=7d355d6b-66e0-49b9-af31-68687992738c","ios":"levelo://app?vid=7d355d6b-66e0-49b9-af31-68687992738c"},"vehicle_type_id":"4","last_reported":1762704685,"current_range_meters":6000,"station_id":"ce4bhdp2rcd13ifvqf20","pricing_plan_id":"cebpf4jnsgd1na2vs0mg"},{"bike_id":"ac7e85c1-423c-4ac0-9e05-96098a659614","system_id":"levelo_inurba_marseille","lat":43.279198,"lon":5.395826,"is_reserved":false,"is_disabled":false,"rental_uris":{"android":"levelo://app?vid=ac7e85c1-423c-4ac0-9e05-96098a659614","ios":"levelo://app?vid=ac7e85c1-423c-4ac0-9e05-96098a659614"},"vehicle_type_id":"4","last_reported":1762704685,"current_range_meters":6000,"station_id":"ce4bhf92rcd13ifvqf40","pricing_plan_id":"cebpf4jnsgd1na2vs0mg"},{"bike_id":"9dda5635-a624-436d-9b12-22fb00320230","system_id":"levelo_inurba_marseille","lat":43.29322,"lon":5.37155,"is_reserved":false,"is_disabled":false,"rental_uris":{"android":"levelo://app?vid=9dda5635-a624-436d-9b12-22fb00320230","ios":"levelo://app?vid=9dda5635-a624-436d-9b12-22fb00320230"},"vehicle_type_id":"4","last_reported":1762704685,"current_range_meters":6400,"station_id":"","pricing_plan_id":"cebpf4jnsgd1na2vs0mg"},{"bike_id":"31d7f1b5-ef49-48d3-9b8f-82bdef962c38","system_id":"levelo_inurba_marseille","lat":43.30932,"lon":5.40148,"is_reserved":false,"is_disabled":false,"rental_uris":{"android":"levelo://app?vid=31d7f1b5-ef49-48d3-9b8f-82bdef962c38","ios":"levelo://app?vid=31d7f1b5-ef49-48d3-9b8f-82bdef962c38"},"vehicle_type_id":"4","last_reported":1762704685,"current_range_meters":6400,"station_id":"ce4bgvp2rcd13ifvqct0","pricing_plan_id":"cebpf4jnsgd1na2vs0mg"},{"bike_id":"de623acc-4eed-41ba-99ab-1fb11a966b36","system_id":"levelo_inurba_marseille","lat":43.2783,"lon":5.40719,"is_reserved":false,"is_disabled":false,"rental_uris":{"android":"levelo://app?vid=de623acc-4eed-41ba-99ab-1fb11a966b36","ios":"levelo://app?vid=de623acc-4eed-41ba-99ab-1fb11a966b36"},"vehicle_type_id":"4","last_reported":1762704685,"current_range_meters":6400,"station_id":"ce4bhnh2rcd13ifvqgtg","pricing_plan_id":"cebpf4jnsgd1na2vs0mg"},{"bike_id":"d9cc9949-3cf9-4ee5-adab-7b821ebbf5ef","system_id":"levelo_inurba_marseille","lat":43.26027,"lon":5.37553,"is_reserved":false,"is_disabled":false,"rental_uris":{"android":"levelo://app?vid=d9cc9949-3cf9-4ee5-adab-7b821ebbf5ef","ios":"levelo://app?vid=d9cc9949-3cf9-4ee5-adab-7b821ebbf5ef"},"vehicle_type_id":"4","last_reported":1762704685,"current_range_meters":6400,"station_id":"ce4bhgh2rcd13ifvqfa0","pricing_plan_id":"cebpf4jnsgd1na2vs0mg"},{"bike_id":"566d25f9-3c1d-4e6b-835b-a6182f761e4c","system_id":"levelo_inurba_marseille","lat":43.30128,"lon":5.3975,"is_reserved":false,"is_disabled":false,"rental_uris":{"android":"levelo://app?vid=566d25f9-3c1d-4e6b-835b-a6182f761e4c","ios":"levelo://app?vid=566d25f9-3c1d-4e6b-835b-a6182f761e4c"},"vehicle_type_id":"4","last_reported":1762704685,"current_range_meters":6400,"station_id":"","pricing_plan_id":"cebpf4jnsgd1na2vs0mg"},{"bike_id":"95565d88-4e0c-4b5d-b6d1-9a4c73bcb1f1","system_id":"levelo_inurba_marseille","lat":43.337668,"lon":5.37429,"is_reserved":false,"is_disabled":false,"rental_uris":{"android":"levelo://app?vid=95565d88-4e0c-4b5d-b6d1-9a4c73bcb1f1","ios":"levelo://app?vid=95565d88-4e0c-4b5d-b6d1-9a4c73bcb1f1"},"vehicle_type_id":"4","last_reported":1762704685,"current_range_meters":6400,"station_id":"","pricing_plan_id":"cebpf4jnsgd1na2vs0mg"},{"bike_id":"35f230e9-349c-426b-abc3-40c51cbd6ba5","system_id":"levelo_inurba_marseille","lat":43.27375,"lon":5.36261,"is_reserved":false,"is_disabled":false,"rental_uris":{"android":"levelo://app?vid=35f230e9-349c-426b-abc3-40c51cbd6ba5","ios":"levelo://app?vid=35f230e9-349c-426b-abc3-40c51cbd6ba5"},"vehicle_type_id":"4","last_reported":1762704685,"current_range_meters":6400,"station_id":"ce4bhbh2rcd13ifvqeo0","pricing_plan_id":"cebpf4jnsgd1na2vs0mg"},{"bike_id":"1ccbe270-24cf-4b5e-bf78-3c78243f3ba6","system_id":"levelo_inurba_marseille","lat":43.29038,"lon":5.37571,"is_reserved":false,"is_disabled":false,"rental_uris":{"android":"levelo://app?vid=1ccbe270-24cf-4b5e-bf78-3c78243f3ba6","ios":"levelo://app?vid=1ccbe270-24cf-4b5e-bf78-3c78243f3ba6"},"vehicle_type_id":"4","last_reported":1762704685,"current_range_meters":6400,"station_id":"ce4bh692rcd13ifvqe90","pricing_plan_id":"cebpf4jnsgd1na2vs0mg"},{"bike_id":"75380173-027f-43d1-af4d-68a37ee500f5","system_id":"levelo_inurba_marseille","lat":43.276217,"lon":5.361011,"is_reserved":false,"is_disabled":false,"rental_uris":{"android":"levelo://app?vid=75380173-027f-43d1-af4d-68a37ee500f5","ios":"levelo://app?vid=75380173-027f-43d1-af4d-68a37ee500f5"},"vehicle_type_id":"4","last_reported":1762704685,"current_range_meters":6800,"station_id":"ce4bgj92rcd13ifvqbe0","pricing_plan_id":"cebpf4jnsgd1na2vs0mg"},{"bike_id":"382f597e-181c-4839-b1de-04339df9aa55","system_id":"levelo_inurba_marseille","lat":43.26814,"lon":5.40268,"is_reserved":false,"is_disabled":true,"rental_uris":{"android":"levelo://app?vid=382f597e-181c-4839-b1de-04339df9aa55","ios":"levelo://app?vid=382f597e-181c-4839-b1de-04339df9aa55"},"vehicle_type_id":"4","last_reported":1762704685,"current_range_meters":6800,"station_id":"ce501612rcd8frsf0b60","pricing_plan_id":"cebpf4jnsgd1na2vs0mg"},{"bike_id":"062032e1-fdcc-4a2c-85d8-7ca14269cc2e","system_id":"levelo_inurba_marseille","lat":43.31082,"lon":5.4243,"is_reserved":false,"is_disabled":false,"rental_uris":{"android":"levelo://app?vid=062032e1-fdcc-4a2c-85d8-7ca14269cc2e","ios":"levelo://app?vid=062032e1-fdcc-4a2c-85d8-7ca14269cc2e"},"vehicle_type_id":"4","last_reported":1762704685,"current_range_meters":6800,"station_id":"ce4bhp92rcd13ifvqhag","pricing_plan_id":"cebpf4jnsgd1na2vs0mg"},{"bike_id":"9f611ac1-6f6a-4437-9025-ea87f35606a4","system_id":"levelo_inurba_marseille","lat":43.2857,"lon":5.37798,"is_reserved":false,"is_disabled":false,"rental_uris":{"android":"levelo://app?vid=9f611ac1-6f6a-4437-9025-ea87f35606a4","ios":"levelo://app?vid=9f611ac1-6f6a-4437-9025-ea87f35606a4"},"vehicle_type_id":"4","last_reported":1762704685,"current_range_meters":6800,"station_id":"","pricing_plan_id":"cebpf4jnsgd1na2vs0mg"},{"bike_id":"bbf4d01f-53c7-4861-88cb-f79b104424c4","system_id":"levelo_inurba_marseille","lat":43.32369,"lon":5.38891,"is_reserved":false,"is_disabled":false,"rental_uris":{"android":"levelo://app?vid=bbf4d01f-53c7-4861-88cb-f79b104424c4","ios":"levelo://app?vid=bbf4d01f-53c7-4861-88cb-f79b104424c4"},"vehicle_type_id":"4","last_reported":1762704685,"current_range_meters":6800,"station_id":"ce4bhqp2rcd13ifvqhog","pricing_plan_id":"cebpf4jnsgd1na2vs0mg"},{"bike_id":"c0969de0-74b0-4b5a-9248-b43b0ee3e19e","system_id":"levelo_inurba_marseille","lat":43.24911,"lon":5.37656,"is_reserved":false,"is_disabled":false,"rental_uris":{"android":"levelo://app?vid=c0969de0-74b0-4b5a-9248-b43b0ee3e19e","ios":"levelo://app?vid=c0969de0-74b0-4b5a-9248-b43b0ee3e19e"},"vehicle_type_id":"4","last_reported":1762704685,"current_range_meters":6800,"station_id":"","pricing_plan_id":"cebpf4jnsgd1na2vs0mg"},{"bike_id":"33c55ef3-f133-4ad9-8902-78ba36612b34","system_id":"levelo_inurba_marseille","lat":43.288523,"lon":5.35827,"is_reserved":false,"is_disabled":true,"rental_uris":{"android":"levelo://app?vid=33c55ef3-f133-4ad9-8902-78ba36612b34","ios":"levelo://app?vid=33c55ef3-f133-4ad9-8902-78ba36612b34"},"vehicle_type_id":"4","last_reported":1762704685,"current_range_meters":6800,"station_id":"ce4bhb12rcd13ifvqem0","pricing_plan_id":"cebpf4jnsgd1na2vs0mg"},{"bike_id":"5320d673-8f17-42b0-b637-4e20de7189dd","system_id":"levelo_inurba_marseille","lat":43.29946,"lon":5.36573,"is_reserved":false,"is_disabled":true,"rental_uris":{"android":"levelo://app?vid=5320d673-8f17-42b0-b637-4e20de7189dd","ios":"levelo://app?vid=5320d673-8f17-42b0-b637-4e20de7189dd"},"vehicle_type_id":"4","last_reported":1762704685,"current_range_meters":7200,"station_id":"ce4bgm92rcd13ifvqbr0","pricing_plan_id":"cebpf4jnsgd1na2vs0mg"},{"bike_id":"4531d398-b30b-423e-a442-beec878d5320","system_id":"levelo_inurba_marseille","lat":43.28446,"lon":5.39203,"is_reserved":false,"is_disabled":false,"rental_uris":{"android":"levelo://app?vid=4531d398-b30b-423e-a442-beec878d5320","ios":"levelo://app?vid=4531d398-b30b-423e-a442-beec878d5320"},"vehicle_type_id":"4","last_reported":1762704685,"current_range_meters":7200,"station_id":"ce4bhoh2rcd13ifvqh5g","pricing_plan_id":"cebpf4jnsgd1na2vs0mg"},{"bike_id":"dd42ec5f-9e8d-405c-a22f-dce1604adfea","system_id":"levelo_inurba_marseille","lat":43.28447,"lon":5.39202,"is_reserved":false,"is_disabled":false,"rental_uris":{"android":"levelo://app?vid=dd42ec5f-9e8d-405c-a22f-dce1604adfea","ios":"levelo://app?vid=dd42ec5f-9e8d-405c-a22f-dce1604adfea"},"vehicle_type_id":"4","last_reported":1762704685,"current_range_meters":7200,"station_id":"ce4bhoh2rcd13ifvqh5g","pricing_plan_id":"cebpf4jnsgd1na2vs0mg"},{"bike_id":"d510b29d-06c6-4a67-8cee-2182097a14e2","system_id":"levelo_inurba_marseille","lat":43.292644,"lon":5.376212,"is_reserved":false,"is_disabled":true,"rental_uris":{"android":"levelo://app?vid=d510b29d-06c6-4a67-8cee-2182097a14e2","ios":"levelo://app?vid=d510b29d-06c6-4a67-8cee-2182097a14e2"},"vehicle_type_id":"4","last_reported":1762704685,"current_range_meters":7200,"station_id":"ce4bgi12rcd13ifvqb80","pricing_plan_id":"cebpf4jnsgd1na2vs0mg"},{"bike_id":"cd36fb7c-4385-47bd-96a8-f8889a6e3476","system_id":"levelo_inurba_marseille","lat":43.298985,"lon":5.436695,"is_reserved":false,"is_disabled":false,"rental_uris":{"android":"levelo://app?vid=cd36fb7c-4385-47bd-96a8-f8889a6e3476","ios":"levelo://app?vid=cd36fb7c-4385-47bd-96a8-f8889a6e3476"},"vehicle_type_id":"4","last_reported":1762704685,"current_range_meters":7200,"station_id":"ce4bhpp2rcd13ifvqhfg","pricing_plan_id":"cebpf4jnsgd1na2vs0mg"},{"bike_id":"321d43c2-a97c-419e-a110-a172b4ee23e9","system_id":"levelo_inurba_marseille","lat":43.26159,"lon":5.41781,"is_reserved":false,"is_disabled":false,"rental_uris":{"android":"levelo://app?vid=321d43c2-a97c-419e-a110-a172b4ee23e9","ios":"levelo://app?vid=321d43c2-a97c-419e-a110-a172b4ee23e9"},"vehicle_type_id":"4","last_reported":1762704685,"current_range_meters":7200,"station_id":"","pricing_plan_id":"cebpf4jnsgd1na2vs0mg"},{"bike_id":"a98eb5f7-2b78-4fcd-8cc1-f9604b535f51","system_id":"levelo_inurba_marseille","lat":43.3022,"lon":5.39476,"is_reserved":false,"is_disabled":true,"rental_uris":{"android":"levelo://app?vid=a98eb5f7-2b78-4fcd-8cc1-f9604b535f51","ios":"levelo://app?vid=a98eb5f7-2b78-4fcd-8cc1-f9604b535f51"},"vehicle_type_id":"4","last_reported":1762704685,"current_range_meters":7200,"station_id":"ce4bh0p2rcd13ifvqd70","pricing_plan_id":"cebpf4jnsgd1na2vs0mg"},{"bike_id":"59736966-d2af-4cbc-8ac5-e955aeb2f190","system_id":"levelo_inurba_marseille","lat":43.288546,"lon":5.425122,"is_reserved":false,"is_disabled":false,"rental_uris":{"android":"levelo://app?vid=59736966-d2af-4cbc-8ac5-e955aeb2f190","ios":"levelo://app?vid=59736966-d2af-4cbc-8ac5-e955aeb2f190"},"vehicle_type_id":"4","last_reported":1762704685,"current_range_meters":7200,"station_id":"st_d3b462108ojc7389ooeg","pricing_plan_id":"cebpf4jnsgd1na2vs0mg"},{"bike_id":"3b294fa9-3f9f-4381-a2a8-e3592d375a68","system_id":"levelo_inurba_marseille","lat":43.26702,"lon":5.396857,"is_reserved":false,"is_disabled":false,"rental_uris":{"android":"levelo://app?vid=3b294fa9-3f9f-4381-a2a8-e3592d375a68","ios":"levelo://app?vid=3b294fa9-3f9f-4381-a2a8-e3592d375a68"},"vehicle_type_id":"4","last_reported":1762704685,"current_range_meters":7200,"station_id":"","pricing_plan_id":"cebpf4jnsgd1na2vs0mg"},{"bike_id":"0597052c-ec07-4550-912a-5515a655d373","system_id":"levelo_inurba_marseille","lat":43.30662,"lon":5.40081,"is_reserved":false,"is_disabled":false,"rental_uris":{"android":"levelo://app?vid=0597052c-ec07-4550-912a-5515a655d373","ios":"levelo://app?vid=0597052c-ec07-4550-912a-5515a655d373"},"vehicle_type_id":"4","last_reported":1762704685,"current_range_meters":7200,"station_id":"ce4bh112rcd13ifvqda0","pricing_plan_id":"cebpf4jnsgd1na2vs0mg"},{"bike_id":"dce6c1e6-7f1a-4c82-96b4-8ba2a1930222","system_id":"levelo_inurba_marseille","lat":43.28324,"lon":5.39986,"is_reserved":false,"is_disabled":false,"rental_uris":{"android":"levelo://app?vid=dce6c1e6-7f1a-4c82-96b4-8ba2a1930222","ios":"levelo://app?vid=dce6c1e6-7f1a-4c82-96b4-8ba2a1930222"},"vehicle_type_id":"4","last_reported":1762704685,"current_range_meters":8000,"station_id":"","pricing_plan_id":"cebpf4jnsgd1na2vs0mg"},{"bike_id":"34844f16-4fb7-4a25-8737-b00ed7e72576","system_id":"levelo_inurba_marseille","lat":43.28303,"lon":5.39015,"is_reserved":false,"is_disabled":false,"rental_uris":{"android":"levelo://app?vid=34844f16-4fb7-4a25-8737-b00ed7e72576","ios":"levelo://app?vid=34844f16-4fb7-4a25-8737-b00ed7e72576"},"vehicle_type_id":"4","last_reported":1762704685,"current_range_meters":8000,"station_id":"","pricing_plan_id":"cebpf4jnsgd1na2vs0mg"},{"bike_id":"76fac608-1184-49da-941d-7da5b297ff5f","system_id":"levelo_inurba_marseille","lat":43.22533,"lon":5.348348,"is_reserved":false,"is_disabled":false,"rental_uris":{"android":"levelo://app?vid=76fac608-1184-49da-941d-7da5b297ff5f","ios":"levelo://app?vid=76fac608-1184-49da-941d-7da5b297ff5f"},"vehicle_type_id":"4","last_reported":1762704685,"current_range_meters":8000,"station_id":"","pricing_plan_id":"cebpf4jnsgd1na2vs0mg"},{"bike_id":"2611e6e3-78b9-48da-be4c-93706ff61ae6","system_id":"levelo_inurba_marseille","lat":43.24394,"lon":5.37071,"is_reserved":false,"is_disabled":false,"rental_uris":{"android":"levelo://app?vid=2611e6e3-78b9-48da-be4c-93706ff61ae6","ios":"levelo://app?vid=2611e6e3-78b9-48da-be4c-93706ff61ae6"},"vehicle_type_id":"4","last_reported":1762704685,"current_range_meters":8000,"station_id":"ce4bhhh2rcd13ifvqfk0","pricing_plan_id":"cebpf4jnsgd1na2vs0mg"},{"bike_id":"1339ef90-7056-4f6c-97e9-32c4fa532151","system_id":"levelo_inurba_marseille","lat":43.24027,"lon":5.37756,"is_reserved":false,"is_disabled":false,"rental_uris":{"android":"levelo://app?vid=1339ef90-7056-4f6c-97e9-32c4fa532151","ios":"levelo://app?vid=1339ef90-7056-4f6c-97e9-32c4fa532151"},"vehicle_type_id":"4","last_reported":1762704685,"current_range_meters":8000,"station_id":"ce4bhnp2rcd13ifvqgvg","pricing_plan_id":"cebpf4jnsgd1na2vs0mg"},{"bike_id":"4ec7dabd-ad1b-49fd-b0fb-19164f905b18","system_id":"levelo_inurba_marseille","lat":43.26042,"lon":5.37542,"is_reserved":false,"is_disabled":false,"rental_uris":{"android":"levelo://app?vid=4ec7dabd-ad1b-49fd-b0fb-19164f905b18","ios":"levelo://app?vid=4ec7dabd-ad1b-49fd-b0fb-19164f905b18"},"vehicle_type_id":"4","last_reported":1762704685,"current_range_meters":8000,"station_id":"ce4bhgh2rcd13ifvqfa0","pricing_plan_id":"cebpf4jnsgd1na2vs0mg"},{"bike_id":"af54b689-bc64-4373-a4f1-f555d7c0567b","system_id":"levelo_inurba_marseille","lat":43.22926,"lon":5.35385,"is_reserved":false,"is_disabled":false,"rental_uris":{"android":"levelo://app?vid=af54b689-bc64-4373-a4f1-f555d7c0567b","ios":"levelo://app?vid=af54b689-bc64-4373-a4f1-f555d7c0567b"},"vehicle_type_id":"4","last_reported":1762704685,"current_range_meters":8400,"station_id":"cpo3532slgdg3j2ikp40","pricing_plan_id":"cebpf4jnsgd1na2vs0mg"},{"bike_id":"b7f4ccb0-4989-43f4-9395-1ce8058116f5","system_id":"levelo_inurba_marseille","lat":43.25936,"lon":5.40911,"is_reserved":false,"is_disabled":false,"rental_uris":{"android":"levelo://app?vid=b7f4ccb0-4989-43f4-9395-1ce8058116f5","ios":"levelo://app?vid=b7f4ccb0-4989-43f4-9395-1ce8058116f5"},"vehicle_type_id":"4","last_reported":1762704685,"current_range_meters":8400,"station_id":"ce4bhm92rcd13ifvqglg","pricing_plan_id":"cebpf4jnsgd1na2vs0mg"},{"bike_id":"c06b11f0-06df-431d-bcdc-4cbbee63558c","system_id":"levelo_inurba_marseille","lat":43.28033,"lon":5.3695,"is_reserved":false,"is_disabled":false,"rental_uris":{"android":"levelo://app?vid=c06b11f0-06df-431d-bcdc-4cbbee63558c","ios":"levelo://app?vid=c06b11f0-06df-431d-bcdc-4cbbee63558c"},"vehicle_type_id":"4","last_reported":1762704685,"current_range_meters":8400,"station_id":"ce4bha12rcd13ifvqef0","pricing_plan_id":"cebpf4jnsgd1na2vs0mg"},{"bike_id":"f9b8f7e7-a949-4513-96e5-151abb8c8238","system_id":"levelo_inurba_marseille","lat":43.23206,"lon":5.35552,"is_reserved":false,"is_disabled":false,"rental_uris":{"android":"levelo://app?vid=f9b8f7e7-a949-4513-96e5-151abb8c8238","ios":"levelo://app?vid=f9b8f7e7-a949-4513-96e5-151abb8c8238"},"vehicle_type_id":"4","last_reported":1762704685,"current_range_meters":8400,"station_id":"ce4bhu92rcd13ifvqi70","pricing_plan_id":"cebpf4jnsgd1na2vs0mg"},{"bike_id":"4d779485-5a72-4cb7-ac55-a6fb4721bdda","system_id":"levelo_inurba_marseille","lat":43.28459,"lon":5.35899,"is_reserved":false,"is_disabled":false,"rental_uris":{"android":"levelo://app?vid=4d779485-5a72-4cb7-ac55-a6fb4721bdda","ios":"levelo://app?vid=4d779485-5a72-4cb7-ac55-a6fb4721bdda"},"vehicle_type_id":"4","last_reported":1762704685,"current_range_meters":8400,"station_id":"ce4bhah2rcd13ifvqei0","pricing_plan_id":"cebpf4jnsgd1na2vs0mg"},{"bike_id":"24f9b984-6e89-45ed-9a7e-c83c61c7e17c","system_id":"levelo_inurba_marseille","lat":43.286124,"lon":5.370639,"is_reserved":false,"is_disabled":false,"rental_uris":{"android":"levelo://app?vid=24f9b984-6e89-45ed-9a7e-c83c61c7e17c","ios":"levelo://app?vid=24f9b984-6e89-45ed-9a7e-c83c61c7e17c"},"vehicle_type_id":"4","last_reported":1762704685,"current_range_meters":8400,"station_id":"ce4bht12rcd13ifvqi60","pricing_plan_id":"cebpf4jnsgd1na2vs0mg"},{"bike_id":"33cda51b-3949-4100-ad22-ad6a8803c9c9","system_id":"levelo_inurba_marseille","lat":43.30538,"lon":5.36712,"is_reserved":false,"is_disabled":false,"rental_uris":{"android":"levelo://app?vid=33cda51b-3949-4100-ad22-ad6a8803c9c9","ios":"levelo://app?vid=33cda51b-3949-4100-ad22-ad6a8803c9c9"},"vehicle_type_id":"4","last_reported":1762704685,"current_range_meters":8400,"station_id":"ce4bgrp2rcd13ifvqc9g","pricing_plan_id":"cebpf4jnsgd1na2vs0mg"},{"bike_id":"f54299dc-3ad8-4d40-b17e-b898abbc5034","system_id":"levelo_inurba_marseille","lat":43.28266,"lon":5.35073,"is_reserved":false,"is_disabled":true,"rental_uris":{"android":"levelo://app?vid=f54299dc-3ad8-4d40-b17e-b898abbc5034","ios":"levelo://app?vid=f54299dc-3ad8-4d40-b17e-b898abbc5034"},"vehicle_type_id":"4","last_reported":1762704685,"current_range_meters":8400,"station_id":"ce4bhbp2rcd13ifvqerg","pricing_plan_id":"cebpf4jnsgd1na2vs0mg"},{"bike_id":"870a9ad1-db35-4ab0-bc9a-84476efc6571","system_id":"levelo_inurba_marseille","lat":43.32797,"lon":5.42656,"is_reserved":false,"is_disabled":false,"rental_uris":{"android":"levelo://app?vid=870a9ad1-db35-4ab0-bc9a-84476efc6571","ios":"levelo://app?vid=870a9ad1-db35-4ab0-bc9a-84476efc6571"},"vehicle_type_id":"4","last_reported":1762704685,"current_range_meters":8400,"station_id":"","pricing_plan_id":"cebpf4jnsgd1na2vs0mg"},{"bike_id":"d2991a60-dcfa-4252-8f9d-bfff4b1dc433","system_id":"levelo_inurba_marseille","lat":43.31078,"lon":5.37086,"is_reserved":false,"is_disabled":false,"rental_uris":{"android":"levelo://app?vid=d2991a60-dcfa-4252-8f9d-bfff4b1dc433","ios":"levelo://app?vid=d2991a60-dcfa-4252-8f9d-bfff4b1dc433"},"vehicle_type_id":"4","last_reported":1762704685,"current_range_meters":8400,"station_id":"","pricing_plan_id":"cebpf4jnsgd1na2vs0mg"},{"bike_id":"db5e8244-14f1-4e16-9ab0-dd8d05ed64ac","system_id":"levelo_inurba_marseille","lat":43.282713,"lon":5.350493,"is_reserved":false,"is_disabled":false,"rental_uris":{"android":"levelo://app?vid=db5e8244-14f1-4e16-9ab0-dd8d05ed64ac","ios":"levelo://app?vid=db5e8244-14f1-4e16-9ab0-dd8d05ed64ac"},"vehicle_type_id":"4","last_reported":1762704685,"current_range_meters":8800,"station_id":"ce4bhah2rcd13ifvqej0","pricing_plan_id":"cebpf4jnsgd1na2vs0mg"},{"bike_id":"825a1957-d327-49da-97b3-2485c79c40e7","system_id":"levelo_inurba_marseille","lat":43.217422,"lon":5.346086,"is_reserved":false,"is_disabled":true,"rental_uris":{"android":"levelo://app?vid=825a1957-d327-49da-97b3-2485c79c40e7","ios":"levelo://app?vid=825a1957-d327-49da-97b3-2485c79c40e7"},"vehicle_type_id":"4","last_reported":1762704685,"current_range_meters":8800,"station_id":"","pricing_plan_id":"cebpf4jnsgd1na2vs0mg"},{"bike_id":"30ff1b25-4dd6-48e6-87b5-ecc9df177c6b","system_id":"levelo_inurba_marseille","lat":43.254912,"lon":5.376506,"is_reserved":false,"is_disabled":false,"rental_uris":{"android":"levelo://app?vid=30ff1b25-4dd6-48e6-87b5-ecc9df177c6b","ios":"levelo://app?vid=30ff1b25-4dd6-48e6-87b5-ecc9df177c6b"},"vehicle_type_id":"4","last_reported":1762704685,"current_range_meters":8800,"station_id":"ce4bhh12rcd13ifvqff0","pricing_plan_id":"cebpf4jnsgd1na2vs0mg"},{"bike_id":"e35bb883-68aa-4f66-bf87-dcfdeb40537b","system_id":"levelo_inurba_marseille","lat":43.225363,"lon":5.348357,"is_reserved":false,"is_disabled":false,"rental_uris":{"android":"levelo://app?vid=e35bb883-68aa-4f66-bf87-dcfdeb40537b","ios":"levelo://app?vid=e35bb883-68aa-4f66-bf87-dcfdeb40537b"},"vehicle_type_id":"4","last_reported":1762704685,"current_range_meters":8800,"station_id":"","pricing_plan_id":"cebpf4jnsgd1na2vs0mg"},{"bike_id":"1ac52614-8b30-41f1-b7be-2ffe21c28ebf","system_id":"levelo_inurba_marseille","lat":43.25489,"lon":5.37647,"is_reserved":false,"is_disabled":false,"rental_uris":{"android":"levelo://app?vid=1ac52614-8b30-41f1-b7be-2ffe21c28ebf","ios":"levelo://app?vid=1ac52614-8b30-41f1-b7be-2ffe21c28ebf"},"vehicle_type_id":"4","last_reported":1762704685,"current_range_meters":8800,"station_id":"ce4bhh12rcd13ifvqff0","pricing_plan_id":"cebpf4jnsgd1na2vs0mg"},{"bike_id":"2eb48f07-abd2-41de-a7da-dd505426e3ed","system_id":"levelo_inurba_marseille","lat":43.25202,"lon":5.38043,"is_reserved":false,"is_disabled":false,"rental_uris":{"android":"levelo://app?vid=2eb48f07-abd2-41de-a7da-dd505426e3ed","ios":"levelo://app?vid=2eb48f07-abd2-41de-a7da-dd505426e3ed"},"vehicle_type_id":"4","last_reported":1762704685,"current_range_meters":8800,"station_id":"","pricing_plan_id":"cebpf4jnsgd1na2vs0mg"},{"bike_id":"6915d04f-d50b-4ddc-b8ed-17be149f5950","system_id":"levelo_inurba_marseille","lat":43.300592,"lon":5.389903,"is_reserved":false,"is_disabled":false,"rental_uris":{"android":"levelo://app?vid=6915d04f-d50b-4ddc-b8ed-17be149f5950","ios":"levelo://app?vid=6915d04f-d50b-4ddc-b8ed-17be149f5950"},"vehicle_type_id":"4","last_reported":1762704685,"current_range_meters":9200,"station_id":"ce4bgj92rcd13ifvqbd0","pricing_plan_id":"cebpf4jnsgd1na2vs0mg"},{"bike_id":"a70c133c-d82d-49de-8333-6327820ef24b","system_id":"levelo_inurba_marseille","lat":43.30139,"lon":5.38778,"is_reserved":false,"is_disabled":false,"rental_uris":{"android":"levelo://app?vid=a70c133c-d82d-49de-8333-6327820ef24b","ios":"levelo://app?vid=a70c133c-d82d-49de-8333-6327820ef24b"},"vehicle_type_id":"4","last_reported":1762704685,"current_range_meters":9200,"station_id":"ce4bghh2rcd13ifvqb60","pricing_plan_id":"cebpf4jnsgd1na2vs0mg"},{"bike_id":"390213d9-8ac6-435c-ba3d-34edc488a013","system_id":"levelo_inurba_marseille","lat":43.24177,"lon":5.39729,"is_reserved":false,"is_disabled":false,"rental_uris":{"android":"levelo://app?vid=390213d9-8ac6-435c-ba3d-34edc488a013","ios":"levelo://app?vid=390213d9-8ac6-435c-ba3d-34edc488a013"},"vehicle_type_id":"4","last_reported":1762704685,"current_range_meters":9200,"station_id":"ce4bhn12rcd13ifvqgpg","pricing_plan_id":"cebpf4jnsgd1na2vs0mg"},{"bike_id":"ec278f8a-4849-4190-b50b-bc35f54f8cc2","system_id":"levelo_inurba_marseille","lat":43.23153,"lon":5.43718,"is_reserved":false,"is_disabled":false,"rental_uris":{"android":"levelo://app?vid=ec278f8a-4849-4190-b50b-bc35f54f8cc2","ios":"levelo://app?vid=ec278f8a-4849-4190-b50b-bc35f54f8cc2"},"vehicle_type_id":"4","last_reported":1762704685,"current_range_meters":9200,"station_id":"ce4bhmp2rcd13ifvqgog","pricing_plan_id":"cebpf4jnsgd1na2vs0mg"},{"bike_id":"6e516340-9641-4325-9cd8-46780776c1ed","system_id":"levelo_inurba_marseille","lat":43.30546,"lon":5.367716,"is_reserved":false,"is_disabled":true,"rental_uris":{"android":"levelo://app?vid=6e516340-9641-4325-9cd8-46780776c1ed","ios":"levelo://app?vid=6e516340-9641-4325-9cd8-46780776c1ed"},"vehicle_type_id":"4","last_reported":1762704685,"current_range_meters":9200,"station_id":"ce4bgrp2rcd13ifvqc9g","pricing_plan_id":"cebpf4jnsgd1na2vs0mg"},{"bike_id":"99531f3f-7efc-4de8-aeb0-662f2a36f016","system_id":"levelo_inurba_marseille","lat":43.28611,"lon":5.37066,"is_reserved":false,"is_disabled":false,"rental_uris":{"android":"levelo://app?vid=99531f3f-7efc-4de8-aeb0-662f2a36f016","ios":"levelo://app?vid=99531f3f-7efc-4de8-aeb0-662f2a36f016"},"vehicle_type_id":"4","last_reported":1762704685,"current_range_meters":9200,"station_id":"ce4bht12rcd13ifvqi60","pricing_plan_id":"cebpf4jnsgd1na2vs0mg"},{"bike_id":"cf673477-a61f-4da4-8a76-fe54343e980e","system_id":"levelo_inurba_marseille","lat":43.30813,"lon":5.43531,"is_reserved":false,"is_disabled":true,"rental_uris":{"android":"levelo://app?vid=cf673477-a61f-4da4-8a76-fe54343e980e","ios":"levelo://app?vid=cf673477-a61f-4da4-8a76-fe54343e980e"},"vehicle_type_id":"4","last_reported":1762704685,"current_range_meters":9200,"station_id":"","pricing_plan_id":"cebpf4jnsgd1na2vs0mg"},{"bike_id":"15db09df-59b0-446a-87c5-e354a3319258","system_id":"levelo_inurba_marseille","lat":43.2848,"lon":5.48397,"is_reserved":false,"is_disabled":false,"rental_uris":{"android":"levelo://app?vid=15db09df-59b0-446a-87c5-e354a3319258","ios":"levelo://app?vid=15db09df-59b0-446a-87c5-e354a3319258"},"vehicle_type_id":"4","last_reported":1762704685,"current_range_meters":9600,"station_id":"st_d3svhcjqgbts73a3dn0g","pricing_plan_id":"cebpf4jnsgd1na2vs0mg"},{"bike_id":"fec91c3a-85e6-40ff-973e-d2a33b3b293e","system_id":"levelo_inurba_marseille","lat":43.24957,"lon":5.40505,"is_reserved":false,"is_disabled":false,"rental_uris":{"android":"levelo://app?vid=fec91c3a-85e6-40ff-973e-d2a33b3b293e","ios":"levelo://app?vid=fec91c3a-85e6-40ff-973e-d2a33b3b293e"},"vehicle_type_id":"4","last_reported":1762704685,"current_range_meters":9600,"station_id":"st_d2ngiaodas8pm72gd1h0","pricing_plan_id":"cebpf4jnsgd1na2vs0mg"},{"bike_id":"21dcb4e2-bef4-415f-aa59-cd0b9e2cb07b","system_id":"levelo_inurba_marseille","lat":43.228175,"lon":5.434892,"is_reserved":false,"is_disabled":false,"rental_uris":{"android":"levelo://app?vid=21dcb4e2-bef4-415f-aa59-cd0b9e2cb07b","ios":"levelo://app?vid=21dcb4e2-bef4-415f-aa59-cd0b9e2cb07b"},"vehicle_type_id":"4","last_reported":1762704685,"current_range_meters":9600,"station_id":"","pricing_plan_id":"cebpf4jnsgd1na2vs0mg"},{"bike_id":"6fb9aaeb-fd54-4120-8c7f-cb19a69f6629","system_id":"levelo_inurba_marseille","lat":43.235737,"lon":5.374744,"is_reserved":false,"is_disabled":false,"rental_uris":{"android":"levelo://app?vid=6fb9aaeb-fd54-4120-8c7f-cb19a69f6629","ios":"levelo://app?vid=6fb9aaeb-fd54-4120-8c7f-cb19a69f6629"},"vehicle_type_id":"4","last_reported":1762704685,"current_range_meters":10000,"station_id":"","pricing_plan_id":"cebpf4jnsgd1na2vs0mg"},{"bike_id":"71521a48-17a1-4f93-b856-7a47c2d10d0a","system_id":"levelo_inurba_marseille","lat":43.301215,"lon":5.431235,"is_reserved":false,"is_disabled":false,"rental_uris":{"android":"levelo://app?vid=71521a48-17a1-4f93-b856-7a47c2d10d0a","ios":"levelo://app?vid=71521a48-17a1-4f93-b856-7a47c2d10d0a"},"vehicle_type_id":"4","last_reported":1762704685,"current_range_meters":10000,"station_id":"st_d3js3co5814s73ftftug","pricing_plan_id":"cebpf4jnsgd1na2vs0mg"},{"bike_id":"d32acf6f-21aa-4fbf-bed6-33d296ca0f9f","system_id":"levelo_inurba_marseille","lat":43.21745,"lon":5.34605,"is_reserved":false,"is_disabled":true,"rental_uris":{"android":"levelo://app?vid=d32acf6f-21aa-4fbf-bed6-33d296ca0f9f","ios":"levelo://app?vid=d32acf6f-21aa-4fbf-bed6-33d296ca0f9f"},"vehicle_type_id":"4","last_reported":1762704685,"current_range_meters":10000,"station_id":"st_cvj6r9ubvosntc0bgbag","pricing_plan_id":"cebpf4jnsgd1na2vs0mg"},{"bike_id":"28c5cc9e-e2be-4842-b0cc-eca3bb9f9d3e","system_id":"levelo_inurba_marseille","lat":43.292311,"lon":5.364797,"is_reserved":false,"is_disabled":false,"rental_uris":{"android":"levelo://app?vid=28c5cc9e-e2be-4842-b0cc-eca3bb9f9d3e","ios":"levelo://app?vid=28c5cc9e-e2be-4842-b0cc-eca3bb9f9d3e"},"vehicle_type_id":"4","last_reported":1762704685,"current_range_meters":10000,"station_id":"","pricing_plan_id":"cebpf4jnsgd1na2vs0mg"},{"bike_id":"e1ea5467-dfc1-42e6-bd1b-9ed79ad0a843","system_id":"levelo_inurba_marseille","lat":43.3014,"lon":5.43158,"is_reserved":false,"is_disabled":false,"rental_uris":{"android":"levelo://app?vid=e1ea5467-dfc1-42e6-bd1b-9ed79ad0a843","ios":"levelo://app?vid=e1ea5467-dfc1-42e6-bd1b-9ed79ad0a843"},"vehicle_type_id":"4","last_reported":1762704685,"current_range_meters":10000,"station_id":"st_d3js3co5814s73ftftug","pricing_plan_id":"cebpf4jnsgd1na2vs0mg"},{"bike_id":"ed7235de-7c1b-4436-b39c-2a264deaa972","system_id":"levelo_inurba_marseille","lat":43.25119,"lon":5.40327,"is_reserved":false,"is_disabled":false,"rental_uris":{"android":"levelo://app?vid=ed7235de-7c1b-4436-b39c-2a264deaa972","ios":"levelo://app?vid=ed7235de-7c1b-4436-b39c-2a264deaa972"},"vehicle_type_id":"4","last_reported":1762704685,"current_range_meters":10000,"station_id":"ce4bhlh2rcd13ifvqgig","pricing_plan_id":"cebpf4jnsgd1na2vs0mg"},{"bike_id":"3e2b6028-a539-4e64-9081-578276ce4315","system_id":"levelo_inurba_marseille","lat":43.24599,"lon":5.42124,"is_reserved":false,"is_disabled":false,"rental_uris":{"android":"levelo://app?vid=3e2b6028-a539-4e64-9081-578276ce4315","ios":"levelo://app?vid=3e2b6028-a539-4e64-9081-578276ce4315"},"vehicle_type_id":"4","last_reported":1762704685,"current_range_meters":10800,"station_id":"","pricing_plan_id":"cebpf4jnsgd1na2vs0mg"},{"bike_id":"f55c984a-b2ae-4ba5-84c1-fa5f78591358","system_id":"levelo_inurba_marseille","lat":43.256367,"lon":5.39394,"is_reserved":false,"is_disabled":false,"rental_uris":{"android":"levelo://app?vid=f55c984a-b2ae-4ba5-84c1-fa5f78591358","ios":"levelo://app?vid=f55c984a-b2ae-4ba5-84c1-fa5f78591358"},"vehicle_type_id":"4","last_reported":1762704685,"current_range_meters":10800,"station_id":"","pricing_plan_id":"cebpf4jnsgd1na2vs0mg"},{"bike_id":"1e40bf4a-2a1a-44b7-b08a-f8e06a146d4c","system_id":"levelo_inurba_marseille","lat":43.28022,"lon":5.36943,"is_reserved":false,"is_disabled":false,"rental_uris":{"android":"levelo://app?vid=1e40bf4a-2a1a-44b7-b08a-f8e06a146d4c","ios":"levelo://app?vid=1e40bf4a-2a1a-44b7-b08a-f8e06a146d4c"},"vehicle_type_id":"4","last_reported":1762704685,"current_range_meters":10800,"station_id":"ce4bha12rcd13ifvqef0","pricing_plan_id":"cebpf4jnsgd1na2vs0mg"},{"bike_id":"6ca580b9-ae87-4e9b-a62c-4e0f6a07370c","system_id":"levelo_inurba_marseille","lat":43.21177,"lon":5.35077,"is_reserved":false,"is_disabled":false,"rental_uris":{"android":"levelo://app?vid=6ca580b9-ae87-4e9b-a62c-4e0f6a07370c","ios":"levelo://app?vid=6ca580b9-ae87-4e9b-a62c-4e0f6a07370c"},"vehicle_type_id":"4","last_reported":1762704685,"current_range_meters":10800,"station_id":"st_cvj6sg6p6f1abm77japg","pricing_plan_id":"cebpf4jnsgd1na2vs0mg"},{"bike_id":"a295ba32-0f8c-4040-97e9-6718d320f978","system_id":"levelo_inurba_marseille","lat":43.225311,"lon":5.348363,"is_reserved":false,"is_disabled":false,"rental_uris":{"android":"levelo://app?vid=a295ba32-0f8c-4040-97e9-6718d320f978","ios":"levelo://app?vid=a295ba32-0f8c-4040-97e9-6718d320f978"},"vehicle_type_id":"4","last_reported":1762704685,"current_range_meters":10800,"station_id":"","pricing_plan_id":"cebpf4jnsgd1na2vs0mg"},{"bike_id":"38efba04-03c1-400e-810d-30f5a6fc71fc","system_id":"levelo_inurba_marseille","lat":43.28572,"lon":5.39499,"is_reserved":false,"is_disabled":false,"rental_uris":{"android":"levelo://app?vid=38efba04-03c1-400e-810d-30f5a6fc71fc","ios":"levelo://app?vid=38efba04-03c1-400e-810d-30f5a6fc71fc"},"vehicle_type_id":"4","last_reported":1762704685,"current_range_meters":10800,"station_id":"ce4bh292rcd13ifvqdg0","pricing_plan_id":"cebpf4jnsgd1na2vs0mg"},{"bike_id":"e19c9055-5694-4732-b13a-62f786d43efe","system_id":"levelo_inurba_marseille","lat":43.30908,"lon":5.36844,"is_reserved":false,"is_disabled":false,"rental_uris":{"android":"levelo://app?vid=e19c9055-5694-4732-b13a-62f786d43efe","ios":"levelo://app?vid=e19c9055-5694-4732-b13a-62f786d43efe"},"vehicle_type_id":"4","last_reported":1762704685,"current_range_meters":10800,"station_id":"ce4bgn92rcd13ifvqbvg","pricing_plan_id":"cebpf4jnsgd1na2vs0mg"},{"bike_id":"aede70ab-2b09-4217-a938-efefe0b50dbb","system_id":"levelo_inurba_marseille","lat":43.301238,"lon":5.398705,"is_reserved":false,"is_disabled":false,"rental_uris":{"android":"levelo://app?vid=aede70ab-2b09-4217-a938-efefe0b50dbb","ios":"levelo://app?vid=aede70ab-2b09-4217-a938-efefe0b50dbb"},"vehicle_type_id":"4","last_reported":1762704685,"current_range_meters":11200,"station_id":"ce4bh0h2rcd13ifvqd40","pricing_plan_id":"cebpf4jnsgd1na2vs0mg"},{"bike_id":"06b572d6-d95a-4f1a-9a9a-b316897ad6d5","system_id":"levelo_inurba_marseille","lat":43.29545,"lon":5.3752,"is_reserved":false,"is_disabled":false,"rental_uris":{"android":"levelo://app?vid=06b572d6-d95a-4f1a-9a9a-b316897ad6d5","ios":"levelo://app?vid=06b572d6-d95a-4f1a-9a9a-b316897ad6d5"},"vehicle_type_id":"4","last_reported":1762704685,"current_range_meters":11200,"station_id":"ce4bgkp2rcd13ifvqbmg","pricing_plan_id":"cebpf4jnsgd1na2vs0mg"},{"bike_id":"bcb7664a-39c2-46f8-930f-41cebd3d0b86","system_id":"levelo_inurba_marseille","lat":43.21195,"lon":5.35083,"is_reserved":false,"is_disabled":true,"rental_uris":{"android":"levelo://app?vid=bcb7664a-39c2-46f8-930f-41cebd3d0b86","ios":"levelo://app?vid=bcb7664a-39c2-46f8-930f-41cebd3d0b86"},"vehicle_type_id":"4","last_reported":1762704685,"current_range_meters":11200,"station_id":"st_cvj6sg6p6f1abm77japg","pricing_plan_id":"cebpf4jnsgd1na2vs0mg"},{"bike_id":"ac1012d0-7872-4c6e-85e6-fc8eaff39396","system_id":"levelo_inurba_marseille","lat":43.28468,"lon":5.35895,"is_reserved":false,"is_disabled":true,"rental_uris":{"android":"levelo://app?vid=ac1012d0-7872-4c6e-85e6-fc8eaff39396","ios":"levelo://app?vid=ac1012d0-7872-4c6e-85e6-fc8eaff39396"},"vehicle_type_id":"4","last_reported":1762704685,"current_range_meters":11200,"station_id":"ce4bhah2rcd13ifvqei0","pricing_plan_id":"cebpf4jnsgd1na2vs0mg"},{"bike_id":"0d048724-1ab6-4b35-a0eb-a9185a4e3c94","system_id":"levelo_inurba_marseille","lat":43.2379,"lon":5.36633,"is_reserved":false,"is_disabled":false,"rental_uris":{"android":"levelo://app?vid=0d048724-1ab6-4b35-a0eb-a9185a4e3c94","ios":"levelo://app?vid=0d048724-1ab6-4b35-a0eb-a9185a4e3c94"},"vehicle_type_id":"4","last_reported":1762704685,"current_range_meters":11600,"station_id":"st_d3nk18o9ro0c73en2l3g","pricing_plan_id":"cebpf4jnsgd1na2vs0mg"},{"bike_id":"15717cb1-ac05-41a2-a4ae-468caaeafb59","system_id":"levelo_inurba_marseille","lat":43.28419,"lon":5.34983,"is_reserved":false,"is_disabled":false,"rental_uris":{"android":"levelo://app?vid=15717cb1-ac05-41a2-a4ae-468caaeafb59","ios":"levelo://app?vid=15717cb1-ac05-41a2-a4ae-468caaeafb59"},"vehicle_type_id":"4","last_reported":1762704685,"current_range_meters":11600,"station_id":"ce4bhbh2rcd13ifvqepg","pricing_plan_id":"cebpf4jnsgd1na2vs0mg"},{"bike_id":"317822ad-eebe-4d49-be47-de3738a7f974","system_id":"levelo_inurba_marseille","lat":43.33153,"lon":5.37699,"is_reserved":false,"is_disabled":false,"rental_uris":{"android":"levelo://app?vid=317822ad-eebe-4d49-be47-de3738a7f974","ios":"levelo://app?vid=317822ad-eebe-4d49-be47-de3738a7f974"},"vehicle_type_id":"4","last_reported":1762704685,"current_range_meters":11600,"station_id":"st_d46cu089ee8s73dldbu0","pricing_plan_id":"cebpf4jnsgd1na2vs0mg"},{"bike_id":"be85130f-d821-41b2-85c6-2f14e5a8ff3d","system_id":"levelo_inurba_marseille","lat":43.27626,"lon":5.36108,"is_reserved":false,"is_disabled":false,"rental_uris":{"android":"levelo://app?vid=be85130f-d821-41b2-85c6-2f14e5a8ff3d","ios":"levelo://app?vid=be85130f-d821-41b2-85c6-2f14e5a8ff3d"},"vehicle_type_id":"4","last_reported":1762704685,"current_range_meters":12000,"station_id":"ce4bgj92rcd13ifvqbe0","pricing_plan_id":"cebpf4jnsgd1na2vs0mg"},{"bike_id":"90e75491-f300-4cd4-95d9-4fcce675996b","system_id":"levelo_inurba_marseille","lat":43.28408,"lon":5.37522,"is_reserved":false,"is_disabled":true,"rental_uris":{"android":"levelo://app?vid=90e75491-f300-4cd4-95d9-4fcce675996b","ios":"levelo://app?vid=90e75491-f300-4cd4-95d9-4fcce675996b"},"vehicle_type_id":"4","last_reported":1762704685,"current_range_meters":12000,"station_id":"ce4bh412rcd13ifvqds0","pricing_plan_id":"cebpf4jnsgd1na2vs0mg"},{"bike_id":"07618fb4-fdf4-452a-a76e-4b0defae3541","system_id":"levelo_inurba_marseille","lat":43.22536,"lon":5.34836,"is_reserved":false,"is_disabled":false,"rental_uris":{"android":"levelo://app?vid=07618fb4-fdf4-452a-a76e-4b0defae3541","ios":"levelo://app?vid=07618fb4-fdf4-452a-a76e-4b0defae3541"},"vehicle_type_id":"4","last_reported":1762704685,"current_range_meters":12000,"station_id":"","pricing_plan_id":"cebpf4jnsgd1na2vs0mg"},{"bike_id":"7f4f5c69-6a09-40b5-9985-7ba521ce8a8c","system_id":"levelo_inurba_marseille","lat":43.27999,"lon":5.41668,"is_reserved":false,"is_disabled":false,"rental_uris":{"android":"levelo://app?vid=7f4f5c69-6a09-40b5-9985-7ba521ce8a8c","ios":"levelo://app?vid=7f4f5c69-6a09-40b5-9985-7ba521ce8a8c"},"vehicle_type_id":"4","last_reported":1762704685,"current_range_meters":12000,"station_id":"ce4bho12rcd13ifvqh1g","pricing_plan_id":"cebpf4jnsgd1na2vs0mg"},{"bike_id":"26788dc4-6306-48e8-9874-3858f267306c","system_id":"levelo_inurba_marseille","lat":43.24812,"lon":5.37462,"is_reserved":false,"is_disabled":false,"rental_uris":{"android":"levelo://app?vid=26788dc4-6306-48e8-9874-3858f267306c","ios":"levelo://app?vid=26788dc4-6306-48e8-9874-3858f267306c"},"vehicle_type_id":"4","last_reported":1762704685,"current_range_meters":12000,"station_id":"ce4bhgh2rcd13ifvqfb0","pricing_plan_id":"cebpf4jnsgd1na2vs0mg"},{"bike_id":"a5a51bf9-9908-420d-8212-6ef8d2db5d39","system_id":"levelo_inurba_marseille","lat":43.27357,"lon":5.36243,"is_reserved":false,"is_disabled":false,"rental_uris":{"android":"levelo://app?vid=a5a51bf9-9908-420d-8212-6ef8d2db5d39","ios":"levelo://app?vid=a5a51bf9-9908-420d-8212-6ef8d2db5d39"},"vehicle_type_id":"4","last_reported":1762704685,"current_range_meters":12400,"station_id":"ce4bhbh2rcd13ifvqeo0","pricing_plan_id":"cebpf4jnsgd1na2vs0mg"},{"bike_id":"4d20ae35-d950-4824-adf5-b360c6fdb37e","system_id":"levelo_inurba_marseille","lat":43.27369,"lon":5.36265,"is_reserved":false,"is_disabled":false,"rental_uris":{"android":"levelo://app?vid=4d20ae35-d950-4824-adf5-b360c6fdb37e","ios":"levelo://app?vid=4d20ae35-d950-4824-adf5-b360c6fdb37e"},"vehicle_type_id":"4","last_reported":1762704685,"current_range_meters":12400,"station_id":"ce4bhbh2rcd13ifvqeo0","pricing_plan_id":"cebpf4jnsgd1na2vs0mg"},{"bike_id":"d1c24539-b552-4305-966c-46938b5d5b6c","system_id":"levelo_inurba_marseille","lat":43.27374,"lon":5.36254,"is_reserved":false,"is_disabled":false,"rental_uris":{"android":"levelo://app?vid=d1c24539-b552-4305-966c-46938b5d5b6c","ios":"levelo://app?vid=d1c24539-b552-4305-966c-46938b5d5b6c"},"vehicle_type_id":"4","last_reported":1762704685,"current_range_meters":12400,"station_id":"ce4bhbh2rcd13ifvqeo0","pricing_plan_id":"cebpf4jnsgd1na2vs0mg"},{"bike_id":"68e2a4eb-9515-41fd-aa1c-8497e40ac482","system_id":"levelo_inurba_marseille","lat":43.29958,"lon":5.3811,"is_reserved":false,"is_disabled":true,"rental_uris":{"android":"levelo://app?vid=68e2a4eb-9515-41fd-aa1c-8497e40ac482","ios":"levelo://app?vid=68e2a4eb-9515-41fd-aa1c-8497e40ac482"},"vehicle_type_id":"4","last_reported":1762704685,"current_range_meters":12400,"station_id":"","pricing_plan_id":"cebpf4jnsgd1na2vs0mg"},{"bike_id":"c314b79a-8b19-4654-bd07-83a861a37db1","system_id":"levelo_inurba_marseille","lat":43.22932,"lon":5.35376,"is_reserved":false,"is_disabled":false,"rental_uris":{"android":"levelo://app?vid=c314b79a-8b19-4654-bd07-83a861a37db1","ios":"levelo://app?vid=c314b79a-8b19-4654-bd07-83a861a37db1"},"vehicle_type_id":"4","last_reported":1762704685,"current_range_meters":12800,"station_id":"cpo3532slgdg3j2ikp40","pricing_plan_id":"cebpf4jnsgd1na2vs0mg"},{"bike_id":"98a850cc-53c2-4014-98f7-042c47c8231b","system_id":"levelo_inurba_marseille","lat":43.31189,"lon":5.37413,"is_reserved":false,"is_disabled":false,"rental_uris":{"android":"levelo://app?vid=98a850cc-53c2-4014-98f7-042c47c8231b","ios":"levelo://app?vid=98a850cc-53c2-4014-98f7-042c47c8231b"},"vehicle_type_id":"4","last_reported":1762704685,"current_range_meters":12800,"station_id":"","pricing_plan_id":"cebpf4jnsgd1na2vs0mg"},{"bike_id":"fd2b7a9e-b6df-42d9-8309-de322d3a1ae9","system_id":"levelo_inurba_marseille","lat":43.27365,"lon":5.36257,"is_reserved":false,"is_disabled":false,"rental_uris":{"android":"levelo://app?vid=fd2b7a9e-b6df-42d9-8309-de322d3a1ae9","ios":"levelo://app?vid=fd2b7a9e-b6df-42d9-8309-de322d3a1ae9"},"vehicle_type_id":"4","last_reported":1762704685,"current_range_meters":12800,"station_id":"ce4bhbh2rcd13ifvqeo0","pricing_plan_id":"cebpf4jnsgd1na2vs0mg"},{"bike_id":"11e5fcfe-15e1-4f51-bed0-7ffc99cc566f","system_id":"levelo_inurba_marseille","lat":43.21195,"lon":5.35071,"is_reserved":false,"is_disabled":false,"rental_uris":{"android":"levelo://app?vid=11e5fcfe-15e1-4f51-bed0-7ffc99cc566f","ios":"levelo://app?vid=11e5fcfe-15e1-4f51-bed0-7ffc99cc566f"},"vehicle_type_id":"4","last_reported":1762704685,"current_range_meters":12800,"station_id":"","pricing_plan_id":"cebpf4jnsgd1na2vs0mg"},{"bike_id":"9607e191-5ff8-4382-9c61-a6bb4ef9e294","system_id":"levelo_inurba_marseille","lat":43.29889,"lon":5.38917,"is_reserved":false,"is_disabled":false,"rental_uris":{"android":"levelo://app?vid=9607e191-5ff8-4382-9c61-a6bb4ef9e294","ios":"levelo://app?vid=9607e191-5ff8-4382-9c61-a6bb4ef9e294"},"vehicle_type_id":"4","last_reported":1762704685,"current_range_meters":12800,"station_id":"ce4bh392rcd13ifvqdl0","pricing_plan_id":"cebpf4jnsgd1na2vs0mg"},{"bike_id":"84397bcb-ee0b-476f-92a3-2addcb255b45","system_id":"levelo_inurba_marseille","lat":43.25403,"lon":5.37626,"is_reserved":false,"is_disabled":false,"rental_uris":{"android":"levelo://app?vid=84397bcb-ee0b-476f-92a3-2addcb255b45","ios":"levelo://app?vid=84397bcb-ee0b-476f-92a3-2addcb255b45"},"vehicle_type_id":"4","last_reported":1762704685,"current_range_meters":12800,"station_id":"ce4bhh12rcd13ifvqff0","pricing_plan_id":"cebpf4jnsgd1na2vs0mg"},{"bike_id":"de50bd10-d577-4584-acb7-654c81e2800a","system_id":"levelo_inurba_marseille","lat":43.25501,"lon":5.37652,"is_reserved":false,"is_disabled":false,"rental_uris":{"android":"levelo://app?vid=de50bd10-d577-4584-acb7-654c81e2800a","ios":"levelo://app?vid=de50bd10-d577-4584-acb7-654c81e2800a"},"vehicle_type_id":"4","last_reported":1762704685,"current_range_meters":12800,"station_id":"ce4bhh12rcd13ifvqff0","pricing_plan_id":"cebpf4jnsgd1na2vs0mg"},{"bike_id":"d8a2355e-a776-4b85-8a3e-22368796688d","system_id":"levelo_inurba_marseille","lat":43.30805,"lon":5.3684,"is_reserved":false,"is_disabled":false,"rental_uris":{"android":"levelo://app?vid=d8a2355e-a776-4b85-8a3e-22368796688d","ios":"levelo://app?vid=d8a2355e-a776-4b85-8a3e-22368796688d"},"vehicle_type_id":"4","last_reported":1762704685,"current_range_meters":12800,"station_id":"","pricing_plan_id":"cebpf4jnsgd1na2vs0mg"},{"bike_id":"58860b30-b2a5-45d4-97b4-f03aee433dd9","system_id":"levelo_inurba_marseille","lat":43.31697,"lon":5.4045,"is_reserved":false,"is_disabled":false,"rental_uris":{"android":"levelo://app?vid=58860b30-b2a5-45d4-97b4-f03aee433dd9","ios":"levelo://app?vid=58860b30-b2a5-45d4-97b4-f03aee433dd9"},"vehicle_type_id":"4","last_reported":1762704685,"current_range_meters":12800,"station_id":"ce4bh012rcd13ifvqd00","pricing_plan_id":"cebpf4jnsgd1na2vs0mg"},{"bike_id":"a0700682-fa1c-4b26-815a-7dc783bf9d0f","system_id":"levelo_inurba_marseille","lat":43.2737,"lon":5.36264,"is_reserved":false,"is_disabled":false,"rental_uris":{"android":"levelo://app?vid=a0700682-fa1c-4b26-815a-7dc783bf9d0f","ios":"levelo://app?vid=a0700682-fa1c-4b26-815a-7dc783bf9d0f"},"vehicle_type_id":"4","last_reported":1762704685,"current_range_meters":13600,"station_id":"ce4bhbh2rcd13ifvqeo0","pricing_plan_id":"cebpf4jnsgd1na2vs0mg"},{"bike_id":"fee4f445-bba8-4be4-a3da-4decf51271b2","system_id":"levelo_inurba_marseille","lat":43.31845,"lon":5.40716,"is_reserved":false,"is_disabled":false,"rental_uris":{"android":"levelo://app?vid=fee4f445-bba8-4be4-a3da-4decf51271b2","ios":"levelo://app?vid=fee4f445-bba8-4be4-a3da-4decf51271b2"},"vehicle_type_id":"4","last_reported":1762704685,"current_range_meters":13600,"station_id":"","pricing_plan_id":"cebpf4jnsgd1na2vs0mg"},{"bike_id":"7fbd1ff9-4b4c-41ae-8d84-cca75e8f7f8a","system_id":"levelo_inurba_marseille","lat":43.273172,"lon":5.390996,"is_reserved":false,"is_disabled":false,"rental_uris":{"android":"levelo://app?vid=7fbd1ff9-4b4c-41ae-8d84-cca75e8f7f8a","ios":"levelo://app?vid=7fbd1ff9-4b4c-41ae-8d84-cca75e8f7f8a"},"vehicle_type_id":"4","last_reported":1762704685,"current_range_meters":13600,"station_id":"ce4bhgp2rcd13ifvqfe0","pricing_plan_id":"cebpf4jnsgd1na2vs0mg"},{"bike_id":"801d7ec8-657d-4c54-8191-29a06c513497","system_id":"levelo_inurba_marseille","lat":43.28843,"lon":5.39302,"is_reserved":false,"is_disabled":false,"rental_uris":{"android":"levelo://app?vid=801d7ec8-657d-4c54-8191-29a06c513497","ios":"levelo://app?vid=801d7ec8-657d-4c54-8191-29a06c513497"},"vehicle_type_id":"4","last_reported":1762704685,"current_range_meters":13600,"station_id":"ce4bh2p2rcd13ifvqdi0","pricing_plan_id":"cebpf4jnsgd1na2vs0mg"},{"bike_id":"4eac3eb9-9ac1-4ff6-ad57-ed359befeed2","system_id":"levelo_inurba_marseille","lat":43.2287,"lon":5.40247,"is_reserved":false,"is_disabled":false,"rental_uris":{"android":"levelo://app?vid=4eac3eb9-9ac1-4ff6-ad57-ed359befeed2","ios":"levelo://app?vid=4eac3eb9-9ac1-4ff6-ad57-ed359befeed2"},"vehicle_type_id":"4","last_reported":1762704685,"current_range_meters":13600,"station_id":"","pricing_plan_id":"cebpf4jnsgd1na2vs0mg"},{"bike_id":"c1783fb2-6784-4b7f-92a8-0112651e291c","system_id":"levelo_inurba_marseille","lat":43.297555,"lon":5.42796,"is_reserved":false,"is_disabled":false,"rental_uris":{"android":"levelo://app?vid=c1783fb2-6784-4b7f-92a8-0112651e291c","ios":"levelo://app?vid=c1783fb2-6784-4b7f-92a8-0112651e291c"},"vehicle_type_id":"4","last_reported":1762704685,"current_range_meters":13600,"station_id":"st_d3md5207bmas73dh9klg","pricing_plan_id":"cebpf4jnsgd1na2vs0mg"},{"bike_id":"dea15d5c-5498-4784-8388-49b5079214a0","system_id":"levelo_inurba_marseille","lat":43.24394,"lon":5.37071,"is_reserved":false,"is_disabled":false,"rental_uris":{"android":"levelo://app?vid=dea15d5c-5498-4784-8388-49b5079214a0","ios":"levelo://app?vid=dea15d5c-5498-4784-8388-49b5079214a0"},"vehicle_type_id":"4","last_reported":1762704685,"current_range_meters":13600,"station_id":"ce4bhhh2rcd13ifvqfk0","pricing_plan_id":"cebpf4jnsgd1na2vs0mg"},{"bike_id":"4d36d690-9376-4405-b549-910e0ac54931","system_id":"levelo_inurba_marseille","lat":43.28274,"lon":5.39945,"is_reserved":false,"is_disabled":false,"rental_uris":{"android":"levelo://app?vid=4d36d690-9376-4405-b549-910e0ac54931","ios":"levelo://app?vid=4d36d690-9376-4405-b549-910e0ac54931"},"vehicle_type_id":"4","last_reported":1762704685,"current_range_meters":13600,"station_id":"","pricing_plan_id":"cebpf4jnsgd1na2vs0mg"},{"bike_id":"f6990166-8c3b-4c66-8f62-880bad0dfa4b","system_id":"levelo_inurba_marseille","lat":43.22575,"lon":5.41633,"is_reserved":false,"is_disabled":false,"rental_uris":{"android":"levelo://app?vid=f6990166-8c3b-4c66-8f62-880bad0dfa4b","ios":"levelo://app?vid=f6990166-8c3b-4c66-8f62-880bad0dfa4b"},"vehicle_type_id":"4","last_reported":1762704685,"current_range_meters":13600,"station_id":"st_d2o4gvlbi1j2169b742g","pricing_plan_id":"cebpf4jnsgd1na2vs0mg"},{"bike_id":"5f51530e-ad6d-4525-9dbe-df8ccdff7435","system_id":"levelo_inurba_marseille","lat":43.31615,"lon":5.38194,"is_reserved":false,"is_disabled":false,"rental_uris":{"android":"levelo://app?vid=5f51530e-ad6d-4525-9dbe-df8ccdff7435","ios":"levelo://app?vid=5f51530e-ad6d-4525-9dbe-df8ccdff7435"},"vehicle_type_id":"4","last_reported":1762704685,"current_range_meters":13600,"station_id":"","pricing_plan_id":"cebpf4jnsgd1na2vs0mg"},{"bike_id":"5997c6b0-b0f4-4848-a8f1-63ca201df211","system_id":"levelo_inurba_marseille","lat":43.33904,"lon":5.41574,"is_reserved":false,"is_disabled":false,"rental_uris":{"android":"levelo://app?vid=5997c6b0-b0f4-4848-a8f1-63ca201df211","ios":"levelo://app?vid=5997c6b0-b0f4-4848-a8f1-63ca201df211"},"vehicle_type_id":"4","last_reported":1762704685,"current_range_meters":13600,"station_id":"","pricing_plan_id":"cebpf4jnsgd1na2vs0mg"},{"bike_id":"eeaf82c6-1838-4496-9f7f-869763939c71","system_id":"levelo_inurba_marseille","lat":43.3068,"lon":5.40074,"is_reserved":false,"is_disabled":false,"rental_uris":{"android":"levelo://app?vid=eeaf82c6-1838-4496-9f7f-869763939c71","ios":"levelo://app?vid=eeaf82c6-1838-4496-9f7f-869763939c71"},"vehicle_type_id":"4","last_reported":1762704685,"current_range_meters":14000,"station_id":"ce4bh112rcd13ifvqda0","pricing_plan_id":"cebpf4jnsgd1na2vs0mg"},{"bike_id":"a6883ff0-f607-46ba-a664-f3fb248008fc","system_id":"levelo_inurba_marseille","lat":43.2509,"lon":5.39522,"is_reserved":false,"is_disabled":false,"rental_uris":{"android":"levelo://app?vid=a6883ff0-f607-46ba-a664-f3fb248008fc","ios":"levelo://app?vid=a6883ff0-f607-46ba-a664-f3fb248008fc"},"vehicle_type_id":"4","last_reported":1762704685,"current_range_meters":14000,"station_id":"ce4bhm12rcd13ifvqgkg","pricing_plan_id":"cebpf4jnsgd1na2vs0mg"},{"bike_id":"d398b27e-4350-4fb3-b8d0-e0c835fbb491","system_id":"levelo_inurba_marseille","lat":43.30429,"lon":5.38899,"is_reserved":false,"is_disabled":false,"rental_uris":{"android":"levelo://app?vid=d398b27e-4350-4fb3-b8d0-e0c835fbb491","ios":"levelo://app?vid=d398b27e-4350-4fb3-b8d0-e0c835fbb491"},"vehicle_type_id":"4","last_reported":1762704685,"current_range_meters":14000,"station_id":"ce4bgk12rcd13ifvqbi0","pricing_plan_id":"cebpf4jnsgd1na2vs0mg"},{"bike_id":"f08621f1-92b2-4985-8a3a-96dd283a7c2b","system_id":"levelo_inurba_marseille","lat":43.31354,"lon":5.37932,"is_reserved":false,"is_disabled":false,"rental_uris":{"android":"levelo://app?vid=f08621f1-92b2-4985-8a3a-96dd283a7c2b","ios":"levelo://app?vid=f08621f1-92b2-4985-8a3a-96dd283a7c2b"},"vehicle_type_id":"4","last_reported":1762704685,"current_range_meters":14000,"station_id":"","pricing_plan_id":"cebpf4jnsgd1na2vs0mg"},{"bike_id":"5f9a5a0f-2733-475e-89d8-03de8455b765","system_id":"levelo_inurba_marseille","lat":43.21744,"lon":5.34603,"is_reserved":false,"is_disabled":false,"rental_uris":{"android":"levelo://app?vid=5f9a5a0f-2733-475e-89d8-03de8455b765","ios":"levelo://app?vid=5f9a5a0f-2733-475e-89d8-03de8455b765"},"vehicle_type_id":"4","last_reported":1762704685,"current_range_meters":14000,"station_id":"st_cvj6r9ubvosntc0bgbag","pricing_plan_id":"cebpf4jnsgd1na2vs0mg"},{"bike_id":"c2d882da-1c15-48f4-ac8d-313176502c2d","system_id":"levelo_inurba_marseille","lat":43.21186,"lon":5.35075,"is_reserved":false,"is_disabled":false,"rental_uris":{"android":"levelo://app?vid=c2d882da-1c15-48f4-ac8d-313176502c2d","ios":"levelo://app?vid=c2d882da-1c15-48f4-ac8d-313176502c2d"},"vehicle_type_id":"4","last_reported":1762704685,"current_range_meters":14400,"station_id":"st_cvj6sg6p6f1abm77japg","pricing_plan_id":"cebpf4jnsgd1na2vs0mg"},{"bike_id":"d00fd3c1-5557-4434-930c-bbb25f370ee9","system_id":"levelo_inurba_marseille","lat":43.217511,"lon":5.345992,"is_reserved":false,"is_disabled":false,"rental_uris":{"android":"levelo://app?vid=d00fd3c1-5557-4434-930c-bbb25f370ee9","ios":"levelo://app?vid=d00fd3c1-5557-4434-930c-bbb25f370ee9"},"vehicle_type_id":"4","last_reported":1762704685,"current_range_meters":14400,"station_id":"st_cvj6r9ubvosntc0bgbag","pricing_plan_id":"cebpf4jnsgd1na2vs0mg"},{"bike_id":"82957589-02ce-4320-bf77-be538f2d7d4f","system_id":"levelo_inurba_marseille","lat":43.211874,"lon":5.350782,"is_reserved":false,"is_disabled":false,"rental_uris":{"android":"levelo://app?vid=82957589-02ce-4320-bf77-be538f2d7d4f","ios":"levelo://app?vid=82957589-02ce-4320-bf77-be538f2d7d4f"},"vehicle_type_id":"4","last_reported":1762704685,"current_range_meters":14800,"station_id":"st_cvj6sg6p6f1abm77japg","pricing_plan_id":"cebpf4jnsgd1na2vs0mg"},{"bike_id":"3f229283-4156-40f5-8b33-733d496807b4","system_id":"levelo_inurba_marseille","lat":43.29282,"lon":5.37286,"is_reserved":false,"is_disabled":false,"rental_uris":{"android":"levelo://app?vid=3f229283-4156-40f5-8b33-733d496807b4","ios":"levelo://app?vid=3f229283-4156-40f5-8b33-733d496807b4"},"vehicle_type_id":"4","last_reported":1762704685,"current_range_meters":14800,"station_id":"","pricing_plan_id":"cebpf4jnsgd1na2vs0mg"},{"bike_id":"1b608766-d12f-43b3-8b68-b0135e72a218","system_id":"levelo_inurba_marseille","lat":43.30239,"lon":5.40057,"is_reserved":false,"is_disabled":true,"rental_uris":{"android":"levelo://app?vid=1b608766-d12f-43b3-8b68-b0135e72a218","ios":"levelo://app?vid=1b608766-d12f-43b3-8b68-b0135e72a218"},"vehicle_type_id":"4","last_reported":1762704685,"current_range_meters":14800,"station_id":"ce4bgvh2rcd13ifvqcs0","pricing_plan_id":"cebpf4jnsgd1na2vs0mg"},{"bike_id":"a9d08e4c-0813-4aef-85b1-1d50cf456f69","system_id":"levelo_inurba_marseille","lat":43.21754,"lon":5.34613,"is_reserved":false,"is_disabled":true,"rental_uris":{"android":"levelo://app?vid=a9d08e4c-0813-4aef-85b1-1d50cf456f69","ios":"levelo://app?vid=a9d08e4c-0813-4aef-85b1-1d50cf456f69"},"vehicle_type_id":"4","last_reported":1762704685,"current_range_meters":15200,"station_id":"","pricing_plan_id":"cebpf4jnsgd1na2vs0mg"},{"bike_id":"f1d556aa-a7c7-4970-8391-2fd419663751","system_id":"levelo_inurba_marseille","lat":43.265687,"lon":5.389977,"is_reserved":false,"is_disabled":false,"rental_uris":{"android":"levelo://app?vid=f1d556aa-a7c7-4970-8391-2fd419663751","ios":"levelo://app?vid=f1d556aa-a7c7-4970-8391-2fd419663751"},"vehicle_type_id":"4","last_reported":1762704685,"current_range_meters":15200,"station_id":"ce4bhe12rcd13ifvqf30","pricing_plan_id":"cebpf4jnsgd1na2vs0mg"},{"bike_id":"f4cd1f76-686b-443b-bf62-c78f0f11dda9","system_id":"levelo_inurba_marseille","lat":43.28412,"lon":5.37527,"is_reserved":false,"is_disabled":true,"rental_uris":{"android":"levelo://app?vid=f4cd1f76-686b-443b-bf62-c78f0f11dda9","ios":"levelo://app?vid=f4cd1f76-686b-443b-bf62-c78f0f11dda9"},"vehicle_type_id":"4","last_reported":1762704685,"current_range_meters":15200,"station_id":"ce4bh412rcd13ifvqds0","pricing_plan_id":"cebpf4jnsgd1na2vs0mg"},{"bike_id":"ab4ac132-5519-4aac-ac12-8b8c2929bb7e","system_id":"levelo_inurba_marseille","lat":43.32302,"lon":5.38493,"is_reserved":false,"is_disabled":false,"rental_uris":{"android":"levelo://app?vid=ab4ac132-5519-4aac-ac12-8b8c2929bb7e","ios":"levelo://app?vid=ab4ac132-5519-4aac-ac12-8b8c2929bb7e"},"vehicle_type_id":"4","last_reported":1762704685,"current_range_meters":15200,"station_id":"st_d45171o9ee8s73djdqug","pricing_plan_id":"cebpf4jnsgd1na2vs0mg"},{"bike_id":"b6ba799f-93a0-474d-970a-cd786094f7da","system_id":"levelo_inurba_marseille","lat":43.284721,"lon":5.384608,"is_reserved":false,"is_disabled":true,"rental_uris":{"android":"levelo://app?vid=b6ba799f-93a0-474d-970a-cd786094f7da","ios":"levelo://app?vid=b6ba799f-93a0-474d-970a-cd786094f7da"},"vehicle_type_id":"4","last_reported":1762704685,"current_range_meters":15200,"station_id":"ce4bh512rcd13ifvqe3g","pricing_plan_id":"cebpf4jnsgd1na2vs0mg"},{"bike_id":"864d78b4-fd19-4e7d-bb46-5320318a186d","system_id":"levelo_inurba_marseille","lat":43.29513,"lon":5.39407,"is_reserved":false,"is_disabled":false,"rental_uris":{"android":"levelo://app?vid=864d78b4-fd19-4e7d-bb46-5320318a186d","ios":"levelo://app?vid=864d78b4-fd19-4e7d-bb46-5320318a186d"},"vehicle_type_id":"4","last_reported":1762704685,"current_range_meters":15200,"station_id":"ce4bh292rcd13ifvqdf0","pricing_plan_id":"cebpf4jnsgd1na2vs0mg"},{"bike_id":"bbd3524c-c793-4988-bc78-ee26ef050e91","system_id":"levelo_inurba_marseille","lat":43.28034,"lon":5.36958,"is_reserved":false,"is_disabled":false,"rental_uris":{"android":"levelo://app?vid=bbd3524c-c793-4988-bc78-ee26ef050e91","ios":"levelo://app?vid=bbd3524c-c793-4988-bc78-ee26ef050e91"},"vehicle_type_id":"4","last_reported":1762704685,"current_range_meters":15200,"station_id":"ce4bha12rcd13ifvqef0","pricing_plan_id":"cebpf4jnsgd1na2vs0mg"},{"bike_id":"f6b2fed1-0ca2-423d-8dec-4ae2abcb7d8f","system_id":"levelo_inurba_marseille","lat":43.30735,"lon":5.4246,"is_reserved":false,"is_disabled":true,"rental_uris":{"android":"levelo://app?vid=f6b2fed1-0ca2-423d-8dec-4ae2abcb7d8f","ios":"levelo://app?vid=f6b2fed1-0ca2-423d-8dec-4ae2abcb7d8f"},"vehicle_type_id":"4","last_reported":1762704685,"current_range_meters":16000,"station_id":"st_cvj6ca6bvosntc0bfgr0","pricing_plan_id":"cebpf4jnsgd1na2vs0mg"},{"bike_id":"e0556128-e4dd-4cae-ad98-51a22b07a2d3","system_id":"levelo_inurba_marseille","lat":43.302746,"lon":5.429527,"is_reserved":false,"is_disabled":false,"rental_uris":{"android":"levelo://app?vid=e0556128-e4dd-4cae-ad98-51a22b07a2d3","ios":"levelo://app?vid=e0556128-e4dd-4cae-ad98-51a22b07a2d3"},"vehicle_type_id":"4","last_reported":1762704685,"current_range_meters":16000,"station_id":"ce4bhoh2rcd13ifvqh6g","pricing_plan_id":"cebpf4jnsgd1na2vs0mg"},{"bike_id":"47226309-77c0-441b-9b27-ae2236b438c7","system_id":"levelo_inurba_marseille","lat":43.305566,"lon":5.36563,"is_reserved":false,"is_disabled":false,"rental_uris":{"android":"levelo://app?vid=47226309-77c0-441b-9b27-ae2236b438c7","ios":"levelo://app?vid=47226309-77c0-441b-9b27-ae2236b438c7"},"vehicle_type_id":"4","last_reported":1762704685,"current_range_meters":16000,"station_id":"ce4bgs12rcd13ifvqcag","pricing_plan_id":"cebpf4jnsgd1na2vs0mg"},{"bike_id":"b2fa7035-66f9-4322-ae09-f09560422daf","system_id":"levelo_inurba_marseille","lat":43.29307,"lon":5.37461,"is_reserved":false,"is_disabled":false,"rental_uris":{"android":"levelo://app?vid=b2fa7035-66f9-4322-ae09-f09560422daf","ios":"levelo://app?vid=b2fa7035-66f9-4322-ae09-f09560422daf"},"vehicle_type_id":"4","last_reported":1762704685,"current_range_meters":16400,"station_id":"ce4bgi12rcd13ifvqb70","pricing_plan_id":"cebpf4jnsgd1na2vs0mg"},{"bike_id":"005cc95c-2b3f-44b3-aa70-095a7d7dd41a","system_id":"levelo_inurba_marseille","lat":43.29624,"lon":5.37139,"is_reserved":false,"is_disabled":true,"rental_uris":{"android":"levelo://app?vid=005cc95c-2b3f-44b3-aa70-095a7d7dd41a","ios":"levelo://app?vid=005cc95c-2b3f-44b3-aa70-095a7d7dd41a"},"vehicle_type_id":"4","last_reported":1762704685,"current_range_meters":16400,"station_id":"ce4bgnh2rcd13ifvqc0g","pricing_plan_id":"cebpf4jnsgd1na2vs0mg"},{"bike_id":"8142a16a-13a8-4636-80c8-f6fe96871316","system_id":"levelo_inurba_marseille","lat":43.24392,"lon":5.37089,"is_reserved":false,"is_disabled":true,"rental_uris":{"android":"levelo://app?vid=8142a16a-13a8-4636-80c8-f6fe96871316","ios":"levelo://app?vid=8142a16a-13a8-4636-80c8-f6fe96871316"},"vehicle_type_id":"4","last_reported":1762704685,"current_range_meters":16400,"station_id":"ce4bhhh2rcd13ifvqfk0","pricing_plan_id":"cebpf4jnsgd1na2vs0mg"},{"bike_id":"f0f552c9-dd5b-44e5-8d71-e97f687d54ee","system_id":"levelo_inurba_marseille","lat":43.28425,"lon":5.34986,"is_reserved":false,"is_disabled":true,"rental_uris":{"android":"levelo://app?vid=f0f552c9-dd5b-44e5-8d71-e97f687d54ee","ios":"levelo://app?vid=f0f552c9-dd5b-44e5-8d71-e97f687d54ee"},"vehicle_type_id":"4","last_reported":1762704685,"current_range_meters":16400,"station_id":"ce4bhbh2rcd13ifvqepg","pricing_plan_id":"cebpf4jnsgd1na2vs0mg"},{"bike_id":"aaf560bb-adf8-4d7c-b749-b4c5ca2f2663","system_id":"levelo_inurba_marseille","lat":43.24026,"lon":5.36654,"is_reserved":false,"is_disabled":true,"rental_uris":{"android":"levelo://app?vid=aaf560bb-adf8-4d7c-b749-b4c5ca2f2663","ios":"levelo://app?vid=aaf560bb-adf8-4d7c-b749-b4c5ca2f2663"},"vehicle_type_id":"4","last_reported":1762704685,"current_range_meters":16400,"station_id":"","pricing_plan_id":"cebpf4jnsgd1na2vs0mg"},{"bike_id":"cf41bac8-b3bf-4d78-b58b-1504370da1f3","system_id":"levelo_inurba_marseille","lat":43.21751,"lon":5.346012,"is_reserved":false,"is_disabled":true,"rental_uris":{"android":"levelo://app?vid=cf41bac8-b3bf-4d78-b58b-1504370da1f3","ios":"levelo://app?vid=cf41bac8-b3bf-4d78-b58b-1504370da1f3"},"vehicle_type_id":"4","last_reported":1762704685,"current_range_meters":16400,"station_id":"st_cvj6r9ubvosntc0bgbag","pricing_plan_id":"cebpf4jnsgd1na2vs0mg"},{"bike_id":"4a299e7b-fa77-4d39-93fa-a705e8d40c9f","system_id":"levelo_inurba_marseille","lat":43.3133,"lon":5.37923,"is_reserved":false,"is_disabled":false,"rental_uris":{"android":"levelo://app?vid=4a299e7b-fa77-4d39-93fa-a705e8d40c9f","ios":"levelo://app?vid=4a299e7b-fa77-4d39-93fa-a705e8d40c9f"},"vehicle_type_id":"4","last_reported":1762704685,"current_range_meters":16400,"station_id":"","pricing_plan_id":"cebpf4jnsgd1na2vs0mg"},{"bike_id":"933e07e7-8a24-4733-8187-4c8968480e31","system_id":"levelo_inurba_marseille","lat":43.28152,"lon":5.42649,"is_reserved":false,"is_disabled":false,"rental_uris":{"android":"levelo://app?vid=933e07e7-8a24-4733-8187-4c8968480e31","ios":"levelo://app?vid=933e07e7-8a24-4733-8187-4c8968480e31"},"vehicle_type_id":"4","last_reported":1762704685,"current_range_meters":16400,"station_id":"ce4bhnh2rcd13ifvqgug","pricing_plan_id":"cebpf4jnsgd1na2vs0mg"},{"bike_id":"b4cb9bc3-2674-422b-8c74-5594292dd02e","system_id":"levelo_inurba_marseille","lat":43.275339,"lon":5.37526,"is_reserved":false,"is_disabled":false,"rental_uris":{"android":"levelo://app?vid=b4cb9bc3-2674-422b-8c74-5594292dd02e","ios":"levelo://app?vid=b4cb9bc3-2674-422b-8c74-5594292dd02e"},"vehicle_type_id":"4","last_reported":1762704685,"current_range_meters":16400,"station_id":"","pricing_plan_id":"cebpf4jnsgd1na2vs0mg"},{"bike_id":"11962e8a-76ab-44eb-8122-13a5f13dfe01","system_id":"levelo_inurba_marseille","lat":43.25329,"lon":5.422,"is_reserved":false,"is_disabled":false,"rental_uris":{"android":"levelo://app?vid=11962e8a-76ab-44eb-8122-13a5f13dfe01","ios":"levelo://app?vid=11962e8a-76ab-44eb-8122-13a5f13dfe01"},"vehicle_type_id":"4","last_reported":1762704685,"current_range_meters":16400,"station_id":"st_d2m65c5bi1j21697t3ng","pricing_plan_id":"cebpf4jnsgd1na2vs0mg"},{"bike_id":"96807a8e-1b45-4a36-b7ed-92091f4bcaf6","system_id":"levelo_inurba_marseille","lat":43.309306,"lon":5.401424,"is_reserved":false,"is_disabled":false,"rental_uris":{"android":"levelo://app?vid=96807a8e-1b45-4a36-b7ed-92091f4bcaf6","ios":"levelo://app?vid=96807a8e-1b45-4a36-b7ed-92091f4bcaf6"},"vehicle_type_id":"4","last_reported":1762704685,"current_range_meters":16800,"station_id":"","pricing_plan_id":"cebpf4jnsgd1na2vs0mg"},{"bike_id":"a05d5e84-a73a-4a5e-924c-23838532ce5e","system_id":"levelo_inurba_marseille","lat":43.31495,"lon":5.37312,"is_reserved":false,"is_disabled":false,"rental_uris":{"android":"levelo://app?vid=a05d5e84-a73a-4a5e-924c-23838532ce5e","ios":"levelo://app?vid=a05d5e84-a73a-4a5e-924c-23838532ce5e"},"vehicle_type_id":"4","last_reported":1762704685,"current_range_meters":16800,"station_id":"ce4bgt12rcd13ifvqcd0","pricing_plan_id":"cebpf4jnsgd1na2vs0mg"},{"bike_id":"ac8a8750-1d87-4cf8-9c77-e78b99da5512","system_id":"levelo_inurba_marseille","lat":43.23605,"lon":5.361713,"is_reserved":false,"is_disabled":false,"rental_uris":{"android":"levelo://app?vid=ac8a8750-1d87-4cf8-9c77-e78b99da5512","ios":"levelo://app?vid=ac8a8750-1d87-4cf8-9c77-e78b99da5512"},"vehicle_type_id":"4","last_reported":1762704685,"current_range_meters":16800,"station_id":"","pricing_plan_id":"cebpf4jnsgd1na2vs0mg"},{"bike_id":"896a0fc4-e98e-425f-b646-7db4d5ace172","system_id":"levelo_inurba_marseille","lat":43.3199,"lon":5.38155,"is_reserved":false,"is_disabled":false,"rental_uris":{"android":"levelo://app?vid=896a0fc4-e98e-425f-b646-7db4d5ace172","ios":"levelo://app?vid=896a0fc4-e98e-425f-b646-7db4d5ace172"},"vehicle_type_id":"4","last_reported":1762704685,"current_range_meters":16800,"station_id":"ce4bhr12rcd13ifvqhpg","pricing_plan_id":"cebpf4jnsgd1na2vs0mg"},{"bike_id":"7603e9dc-aeba-4336-8528-c8dd60c64f25","system_id":"levelo_inurba_marseille","lat":43.29852,"lon":5.38268,"is_reserved":false,"is_disabled":false,"rental_uris":{"android":"levelo://app?vid=7603e9dc-aeba-4336-8528-c8dd60c64f25","ios":"levelo://app?vid=7603e9dc-aeba-4336-8528-c8dd60c64f25"},"vehicle_type_id":"4","last_reported":1762704685,"current_range_meters":16800,"station_id":"","pricing_plan_id":"cebpf4jnsgd1na2vs0mg"},{"bike_id":"24de70df-9b80-4721-8771-f61cb7be1ef9","system_id":"levelo_inurba_marseille","lat":43.3192,"lon":5.38126,"is_reserved":false,"is_disabled":false,"rental_uris":{"android":"levelo://app?vid=24de70df-9b80-4721-8771-f61cb7be1ef9","ios":"levelo://app?vid=24de70df-9b80-4721-8771-f61cb7be1ef9"},"vehicle_type_id":"4","last_reported":1762704685,"current_range_meters":16800,"station_id":"","pricing_plan_id":"cebpf4jnsgd1na2vs0mg"},{"bike_id":"18c740d0-56ca-4ddf-9f58-94e32554c1e4","system_id":"levelo_inurba_marseille","lat":43.30275,"lon":5.37713,"is_reserved":false,"is_disabled":false,"rental_uris":{"android":"levelo://app?vid=18c740d0-56ca-4ddf-9f58-94e32554c1e4","ios":"levelo://app?vid=18c740d0-56ca-4ddf-9f58-94e32554c1e4"},"vehicle_type_id":"4","last_reported":1762704685,"current_range_meters":16800,"station_id":"ce4bguh2rcd13ifvqcj0","pricing_plan_id":"cebpf4jnsgd1na2vs0mg"},{"bike_id":"9ddd52d1-1302-48bc-a1f9-5bedc2cd8e02","system_id":"levelo_inurba_marseille","lat":43.262115,"lon":5.379276,"is_reserved":false,"is_disabled":false,"rental_uris":{"android":"levelo://app?vid=9ddd52d1-1302-48bc-a1f9-5bedc2cd8e02","ios":"levelo://app?vid=9ddd52d1-1302-48bc-a1f9-5bedc2cd8e02"},"vehicle_type_id":"4","last_reported":1762704685,"current_range_meters":16800,"station_id":"ce4bhjp2rcd13ifvqg90","pricing_plan_id":"cebpf4jnsgd1na2vs0mg"},{"bike_id":"77dd386a-c491-4903-b512-c2486567c465","system_id":"levelo_inurba_marseille","lat":43.28929,"lon":5.36632,"is_reserved":false,"is_disabled":false,"rental_uris":{"android":"levelo://app?vid=77dd386a-c491-4903-b512-c2486567c465","ios":"levelo://app?vid=77dd386a-c491-4903-b512-c2486567c465"},"vehicle_type_id":"4","last_reported":1762704685,"current_range_meters":16800,"station_id":"ce4bhap2rcd13ifvqek0","pricing_plan_id":"cebpf4jnsgd1na2vs0mg"},{"bike_id":"39ff6a52-7c15-4e36-9056-950efe8be9ca","system_id":"levelo_inurba_marseille","lat":43.28476,"lon":5.48396,"is_reserved":false,"is_disabled":false,"rental_uris":{"android":"levelo://app?vid=39ff6a52-7c15-4e36-9056-950efe8be9ca","ios":"levelo://app?vid=39ff6a52-7c15-4e36-9056-950efe8be9ca"},"vehicle_type_id":"4","last_reported":1762704685,"current_range_meters":16800,"station_id":"","pricing_plan_id":"cebpf4jnsgd1na2vs0mg"},{"bike_id":"9038027d-855c-4352-93ba-ef33848dec14","system_id":"levelo_inurba_marseille","lat":43.21744,"lon":5.34615,"is_reserved":false,"is_disabled":false,"rental_uris":{"android":"levelo://app?vid=9038027d-855c-4352-93ba-ef33848dec14","ios":"levelo://app?vid=9038027d-855c-4352-93ba-ef33848dec14"},"vehicle_type_id":"4","last_reported":1762704685,"current_range_meters":16800,"station_id":"","pricing_plan_id":"cebpf4jnsgd1na2vs0mg"},{"bike_id":"fca44a4e-b286-4c18-ae22-117fd6598472","system_id":"levelo_inurba_marseille","lat":43.24394,"lon":5.37074,"is_reserved":false,"is_disabled":false,"rental_uris":{"android":"levelo://app?vid=fca44a4e-b286-4c18-ae22-117fd6598472","ios":"levelo://app?vid=fca44a4e-b286-4c18-ae22-117fd6598472"},"vehicle_type_id":"4","last_reported":1762704685,"current_range_meters":16800,"station_id":"ce4bhhh2rcd13ifvqfk0","pricing_plan_id":"cebpf4jnsgd1na2vs0mg"},{"bike_id":"2d003246-289e-4235-87e3-d86a55465f5e","system_id":"levelo_inurba_marseille","lat":43.29892,"lon":5.37537,"is_reserved":false,"is_disabled":false,"rental_uris":{"android":"levelo://app?vid=2d003246-289e-4235-87e3-d86a55465f5e","ios":"levelo://app?vid=2d003246-289e-4235-87e3-d86a55465f5e"},"vehicle_type_id":"4","last_reported":1762704685,"current_range_meters":17200,"station_id":"","pricing_plan_id":"cebpf4jnsgd1na2vs0mg"},{"bike_id":"501c7d4f-4ce3-4c9a-8b47-2256ebe1b631","system_id":"levelo_inurba_marseille","lat":43.2378,"lon":5.36636,"is_reserved":false,"is_disabled":false,"rental_uris":{"android":"levelo://app?vid=501c7d4f-4ce3-4c9a-8b47-2256ebe1b631","ios":"levelo://app?vid=501c7d4f-4ce3-4c9a-8b47-2256ebe1b631"},"vehicle_type_id":"4","last_reported":1762704685,"current_range_meters":17200,"station_id":"st_d3nk18o9ro0c73en2l3g","pricing_plan_id":"cebpf4jnsgd1na2vs0mg"},{"bike_id":"92f4b089-b5be-4b41-9c8b-fb720ee7b714","system_id":"levelo_inurba_marseille","lat":43.29796,"lon":5.40409,"is_reserved":false,"is_disabled":false,"rental_uris":{"android":"levelo://app?vid=92f4b089-b5be-4b41-9c8b-fb720ee7b714","ios":"levelo://app?vid=92f4b089-b5be-4b41-9c8b-fb720ee7b714"},"vehicle_type_id":"4","last_reported":1762704685,"current_range_meters":17200,"station_id":"ce4bh112rcd13ifvqd90","pricing_plan_id":"cebpf4jnsgd1na2vs0mg"},{"bike_id":"299c4817-5eda-4794-9cef-e96f1d16422a","system_id":"levelo_inurba_marseille","lat":43.25116,"lon":5.40319,"is_reserved":false,"is_disabled":false,"rental_uris":{"android":"levelo://app?vid=299c4817-5eda-4794-9cef-e96f1d16422a","ios":"levelo://app?vid=299c4817-5eda-4794-9cef-e96f1d16422a"},"vehicle_type_id":"4","last_reported":1762704685,"current_range_meters":17200,"station_id":"ce4bhlh2rcd13ifvqgig","pricing_plan_id":"cebpf4jnsgd1na2vs0mg"},{"bike_id":"7632f3da-9039-4842-aa51-b56a10c7ddec","system_id":"levelo_inurba_marseille","lat":43.30137,"lon":5.38785,"is_reserved":false,"is_disabled":false,"rental_uris":{"android":"levelo://app?vid=7632f3da-9039-4842-aa51-b56a10c7ddec","ios":"levelo://app?vid=7632f3da-9039-4842-aa51-b56a10c7ddec"},"vehicle_type_id":"4","last_reported":1762704685,"current_range_meters":17200,"station_id":"ce4bghh2rcd13ifvqb60","pricing_plan_id":"cebpf4jnsgd1na2vs0mg"},{"bike_id":"e17839a3-96d6-489d-881e-36b6da5aeb29","system_id":"levelo_inurba_marseille","lat":43.28599,"lon":5.37052,"is_reserved":false,"is_disabled":true,"rental_uris":{"android":"levelo://app?vid=e17839a3-96d6-489d-881e-36b6da5aeb29","ios":"levelo://app?vid=e17839a3-96d6-489d-881e-36b6da5aeb29"},"vehicle_type_id":"4","last_reported":1762704685,"current_range_meters":17200,"station_id":"ce4bht12rcd13ifvqi60","pricing_plan_id":"cebpf4jnsgd1na2vs0mg"},{"bike_id":"1cb4814f-4d42-4232-b8ef-dc9988cfe62c","system_id":"levelo_inurba_marseille","lat":43.27643,"lon":5.361149,"is_reserved":false,"is_disabled":false,"rental_uris":{"android":"levelo://app?vid=1cb4814f-4d42-4232-b8ef-dc9988cfe62c","ios":"levelo://app?vid=1cb4814f-4d42-4232-b8ef-dc9988cfe62c"},"vehicle_type_id":"4","last_reported":1762704685,"current_range_meters":17600,"station_id":"ce4bgj92rcd13ifvqbe0","pricing_plan_id":"cebpf4jnsgd1na2vs0mg"},{"bike_id":"38130bd6-9131-4af7-aadd-e24a80e3030f","system_id":"levelo_inurba_marseille","lat":43.29258,"lon":5.38439,"is_reserved":false,"is_disabled":false,"rental_uris":{"android":"levelo://app?vid=38130bd6-9131-4af7-aadd-e24a80e3030f","ios":"levelo://app?vid=38130bd6-9131-4af7-aadd-e24a80e3030f"},"vehicle_type_id":"4","last_reported":1762704685,"current_range_meters":17600,"station_id":"ce4bh692rcd13ifvqea0","pricing_plan_id":"cebpf4jnsgd1na2vs0mg"},{"bike_id":"88ab53c0-7ec1-4674-9ed6-0030cebbb4b5","system_id":"levelo_inurba_marseille","lat":43.30445,"lon":5.38895,"is_reserved":false,"is_disabled":false,"rental_uris":{"android":"levelo://app?vid=88ab53c0-7ec1-4674-9ed6-0030cebbb4b5","ios":"levelo://app?vid=88ab53c0-7ec1-4674-9ed6-0030cebbb4b5"},"vehicle_type_id":"4","last_reported":1762704685,"current_range_meters":17600,"station_id":"ce4bgk12rcd13ifvqbi0","pricing_plan_id":"cebpf4jnsgd1na2vs0mg"},{"bike_id":"0caf071d-7851-4f42-8911-756e2d7a49b2","system_id":"levelo_inurba_marseille","lat":43.21188,"lon":5.35083,"is_reserved":false,"is_disabled":false,"rental_uris":{"android":"levelo://app?vid=0caf071d-7851-4f42-8911-756e2d7a49b2","ios":"levelo://app?vid=0caf071d-7851-4f42-8911-756e2d7a49b2"},"vehicle_type_id":"4","last_reported":1762704685,"current_range_meters":17600,"station_id":"st_cvj6sg6p6f1abm77japg","pricing_plan_id":"cebpf4jnsgd1na2vs0mg"},{"bike_id":"a17e4c74-5774-4556-8e8d-3f21edde9d59","system_id":"levelo_inurba_marseille","lat":43.30582,"lon":5.38977,"is_reserved":false,"is_disabled":false,"rental_uris":{"android":"levelo://app?vid=a17e4c74-5774-4556-8e8d-3f21edde9d59","ios":"levelo://app?vid=a17e4c74-5774-4556-8e8d-3f21edde9d59"},"vehicle_type_id":"4","last_reported":1762704685,"current_range_meters":17600,"station_id":"","pricing_plan_id":"cebpf4jnsgd1na2vs0mg"},{"bike_id":"d6907741-003a-4b7f-9dbb-039941ccc88e","system_id":"levelo_inurba_marseille","lat":43.31825,"lon":5.40976,"is_reserved":false,"is_disabled":false,"rental_uris":{"android":"levelo://app?vid=d6907741-003a-4b7f-9dbb-039941ccc88e","ios":"levelo://app?vid=d6907741-003a-4b7f-9dbb-039941ccc88e"},"vehicle_type_id":"4","last_reported":1762704685,"current_range_meters":17600,"station_id":"","pricing_plan_id":"cebpf4jnsgd1na2vs0mg"},{"bike_id":"58afb123-caf0-4f8c-8a2d-b3a6669c0bc6","system_id":"levelo_inurba_marseille","lat":43.248008,"lon":5.374569,"is_reserved":false,"is_disabled":true,"rental_uris":{"android":"levelo://app?vid=58afb123-caf0-4f8c-8a2d-b3a6669c0bc6","ios":"levelo://app?vid=58afb123-caf0-4f8c-8a2d-b3a6669c0bc6"},"vehicle_type_id":"4","last_reported":1762704685,"current_range_meters":17600,"station_id":"","pricing_plan_id":"cebpf4jnsgd1na2vs0mg"},{"bike_id":"93b49ebf-d9fa-49cd-9da3-22e867a810f3","system_id":"levelo_inurba_marseille","lat":43.29745,"lon":5.411147,"is_reserved":false,"is_disabled":false,"rental_uris":{"android":"levelo://app?vid=93b49ebf-d9fa-49cd-9da3-22e867a810f3","ios":"levelo://app?vid=93b49ebf-d9fa-49cd-9da3-22e867a810f3"},"vehicle_type_id":"4","last_reported":1762704685,"current_range_meters":17600,"station_id":"","pricing_plan_id":"cebpf4jnsgd1na2vs0mg"},{"bike_id":"bd5f8506-f345-40e8-ae51-1efb099c8943","system_id":"levelo_inurba_marseille","lat":43.326905,"lon":5.392172,"is_reserved":false,"is_disabled":false,"rental_uris":{"android":"levelo://app?vid=bd5f8506-f345-40e8-ae51-1efb099c8943","ios":"levelo://app?vid=bd5f8506-f345-40e8-ae51-1efb099c8943"},"vehicle_type_id":"4","last_reported":1762704685,"current_range_meters":17600,"station_id":"","pricing_plan_id":"cebpf4jnsgd1na2vs0mg"},{"bike_id":"a2693a75-b9de-47de-a29d-a8e533735754","system_id":"levelo_inurba_marseille","lat":43.33025,"lon":5.390665,"is_reserved":false,"is_disabled":false,"rental_uris":{"android":"levelo://app?vid=a2693a75-b9de-47de-a29d-a8e533735754","ios":"levelo://app?vid=a2693a75-b9de-47de-a29d-a8e533735754"},"vehicle_type_id":"4","last_reported":1762704685,"current_range_meters":18000,"station_id":"ce4bhr92rcd13ifvqhrg","pricing_plan_id":"cebpf4jnsgd1na2vs0mg"},{"bike_id":"f68ebd74-0360-45a8-97e7-b4e75f54d617","system_id":"levelo_inurba_marseille","lat":43.28266,"lon":5.35076,"is_reserved":false,"is_disabled":false,"rental_uris":{"android":"levelo://app?vid=f68ebd74-0360-45a8-97e7-b4e75f54d617","ios":"levelo://app?vid=f68ebd74-0360-45a8-97e7-b4e75f54d617"},"vehicle_type_id":"4","last_reported":1762704685,"current_range_meters":18000,"station_id":"ce4bhbp2rcd13ifvqerg","pricing_plan_id":"cebpf4jnsgd1na2vs0mg"},{"bike_id":"1c6c8640-b108-4277-8d69-9014077e683f","system_id":"levelo_inurba_marseille","lat":43.33768,"lon":5.37483,"is_reserved":false,"is_disabled":false,"rental_uris":{"android":"levelo://app?vid=1c6c8640-b108-4277-8d69-9014077e683f","ios":"levelo://app?vid=1c6c8640-b108-4277-8d69-9014077e683f"},"vehicle_type_id":"4","last_reported":1762704685,"current_range_meters":18000,"station_id":"","pricing_plan_id":"cebpf4jnsgd1na2vs0mg"},{"bike_id":"3ae4a2e8-d4c0-42b4-a176-909ddc88d127","system_id":"levelo_inurba_marseille","lat":43.30423,"lon":5.38864,"is_reserved":false,"is_disabled":false,"rental_uris":{"android":"levelo://app?vid=3ae4a2e8-d4c0-42b4-a176-909ddc88d127","ios":"levelo://app?vid=3ae4a2e8-d4c0-42b4-a176-909ddc88d127"},"vehicle_type_id":"4","last_reported":1762704685,"current_range_meters":18000,"station_id":"","pricing_plan_id":"cebpf4jnsgd1na2vs0mg"},{"bike_id":"e54ebf56-4154-4b2a-8f54-779d4d2ba707","system_id":"levelo_inurba_marseille","lat":43.29308,"lon":5.37469,"is_reserved":false,"is_disabled":false,"rental_uris":{"android":"levelo://app?vid=e54ebf56-4154-4b2a-8f54-779d4d2ba707","ios":"levelo://app?vid=e54ebf56-4154-4b2a-8f54-779d4d2ba707"},"vehicle_type_id":"4","last_reported":1762704685,"current_range_meters":18000,"station_id":"ce4bgi12rcd13ifvqb70","pricing_plan_id":"cebpf4jnsgd1na2vs0mg"},{"bike_id":"ebb59ba1-bfa5-4d37-9178-229674b2af1a","system_id":"levelo_inurba_marseille","lat":43.225378,"lon":5.348272,"is_reserved":false,"is_disabled":false,"rental_uris":{"android":"levelo://app?vid=ebb59ba1-bfa5-4d37-9178-229674b2af1a","ios":"levelo://app?vid=ebb59ba1-bfa5-4d37-9178-229674b2af1a"},"vehicle_type_id":"4","last_reported":1762704685,"current_range_meters":18000,"station_id":"","pricing_plan_id":"cebpf4jnsgd1na2vs0mg"},{"bike_id":"4ec01494-d561-4b9e-90a8-11f5ecaf05c9","system_id":"levelo_inurba_marseille","lat":43.23193,"lon":5.35549,"is_reserved":false,"is_disabled":true,"rental_uris":{"android":"levelo://app?vid=4ec01494-d561-4b9e-90a8-11f5ecaf05c9","ios":"levelo://app?vid=4ec01494-d561-4b9e-90a8-11f5ecaf05c9"},"vehicle_type_id":"4","last_reported":1762704685,"current_range_meters":18000,"station_id":"ce4bhu92rcd13ifvqi70","pricing_plan_id":"cebpf4jnsgd1na2vs0mg"},