{"last_updated":1717348001,"ttl":30,"version":"2.2","data":{"bikes":[{"bike_id":"10914486-621b-4d3d-acbe-646ffa54e045","system_id":"levelo_inurba_marseille","lat":43.31222,"lon":5.36858,"is_reserved":false,"is_disabled":false,"rental_uris":{"android":"levelo://app?vid=10914486-621b-4d3d-acbe-646ffa54e045","ios":"levelo://app?vid=10914486-621b-4d3d-acbe-646ffa54e045"},"vehicle_type_id":"4","last_reported":1717348001,"current_range_meters":13200,"station_id":"ce4bgl92rcd13ifvqbq0","pricing_plan_id":"cebpf4jnsgd1na2vs0mg"},{"bike_id":"35c9c54c-c17c-4011-ac1f-ad2f0021d4e6","system_id":"levelo_inurba_marseille","lat":43.312239,"lon":5.368562,"is_reserved":false,"is_disabled":false,"rental_uris":{"android":"levelo://app?vid=35c9c54c-c17c-4011-ac1f-ad2f0021d4e6","ios":"levelo://app?vid=35c9c54c-c17c-4011-ac1f-ad2f0021d4e6"},"vehicle_type_id":"4","last_reported":1717348001,"current_range_meters":2000,"station_id":"ce4bgl92rcd13ifvqbq0","pricing_plan_id":"cebpf4jnsgd1na2vs0mg"},{"bike_id":"64cf0b96-b298-439e-9757-ea73f5f33b9b","system_id":"levelo_inurba_marseille","lat":43.31492,"lon":5.37308,"is_reserved":false,"is_disabled":false,"rental_uris":{"android":"levelo://app?vid=64cf0b96-b298-439e-9757-ea73f5f33b9b","ios":"levelo://app?vid=64cf0b96-b298-439e-9757-ea73f5f33b9b"},"vehicle_type_id":"4","last_reported":1717348001,"current_range_meters":21200,"station_id":"ce4bgt12rcd13ifvqcd0","pricing_plan_id":"cebpf4jnsgd1na2vs0mg"},{"bike_id":"c8155ebb-ad32-4084-967b-918b256f2b01","system_id":"levelo_inurba_marseille","lat":43.314811,"lon":5.373104,"is_reserved":false,"is_disabled":false,"rental_uris":{"android":"levelo://app?vid=c8155ebb-ad32-4084-967b-918b256f2b01","ios":"levelo://app?vid=c8155ebb-ad32-4084-967b-918b256f2b01"},"vehicle_type_id":"4","last_reported":1717348001,"current_range_meters":28800,"station_id":"ce4bgt12rcd13ifvqcd0","pricing_plan_id":"cebpf4jnsgd1na2vs0mg"},{"bike_id":"f9efbb35-b79f-44bb-94ab-367755360e18","system_id":"levelo_inurba_marseille","lat":43.314811,"lon":5.373103,"is_reserved":false,"is_disabled":false,"rental_uris":{"android":"levelo://app?vid=f9efbb35-b79f-44bb-94ab-367755360e18","ios":"levelo://app?vid=f9efbb35-b79f-44bb-94ab-367755360e18"},"vehicle_type_id":"4","last_reported":1717348001,"current_range_meters":18400,"station_id":"ce4bgt12rcd13ifvqcd0","pricing_plan_id":"cebpf4jnsgd1na2vs0mg"},{"bike_id":"244a991b-407d-4f8d-9459-9bdbf8264846","system_id":"levelo_inurba_marseille","lat":43.312239,"lon":5.368562,"is_reserved":false,"is_disabled":false,"rental_uris":{"android":"levelo://app?vid=244a991b-407d-4f8d-9459-9bdbf8264846","ios":"levelo://app?vid=244a991b-407d-4f8d-9459-9bdbf8264846"},"vehicle_type_id":"4","last_reported":1717348001,"current_range_meters":20000,"station_id":"ce4bgl92rcd13ifvqbq0","pricing_plan_id":"cebpf4jnsgd1na2vs0mg"},{"bike_id":"eced9f44-31c4-413a-a8f3-240c9b0840e2","system_id":"levelo_inurba_marseille","lat":43.309039,"lon":5.371797,"is_reserved":false,"is_disabled":false,"rental_uris":{"android":"levelo://app?vid=eced9f44-31c4-413a-a8f3-240c9b0840e2","ios":"levelo://app?vid=eced9f44-31c4-413a-a8f3-240c9b0840e2"},"vehicle_type_id":"4","last_reported":1717348001,"current_range_meters":30800,"station_id":"ce4bguh2rcd13ifvqckg","pricing_plan_id":"cebpf4jnsgd1na2vs0mg"},{"bike_id":"f8f61563-0735-41e9-ad99-bf75b28d2a6a","system_id":"levelo_inurba_marseille","lat":43.309039,"lon":5.371797,"is_reserved":false,"is_disabled":false,"rental_uris":{"android":"levelo://app?vid=f8f61563-0735-41e9-ad99-bf75b28d2a6a","ios":"levelo://app?vid=f8f61563-0735-41e9-ad99-bf75b28d2a6a"},"vehicle_type_id":"4","last_reported":1717348001,"current_range_meters":3600,"station_id":"ce4bguh2rcd13ifvqckg","pricing_plan_id":"cebpf4jnsgd1na2vs0mg"},{"bike_id":"1429eba0-c77f-4239-a010-470f7eaa12ce","system_id":"levelo_inurba_marseille","lat":43.30537,"lon":5.367345,"is_reserved":false,"is_disabled":false,"rental_uris":{"android":"levelo://app?vid=1429eba0-c77f-4239-a010-470f7eaa12ce","ios":"levelo://app?vid=1429eba0-c77f-4239-a010-470f7eaa12ce"},"vehicle_type_id":"4","last_reported":1717348001,"current_range_meters":31600,"station_id":"ce4bgrp2rcd13ifvqc9g","pricing_plan_id":"cebpf4jnsgd1na2vs0mg"},{"bike_id":"c3eb85ba-031f-4ecb-88e3-578f6011cef1","system_id":"levelo_inurba_marseille","lat":43.30537,"lon":5.367345,"is_reserved":false,"is_disabled":false,"rental_uris":{"android":"levelo://app?vid=c3eb85ba-031f-4ecb-88e3-578f6011cef1","ios":"levelo://app?vid=c3eb85ba-031f-4ecb-88e3-578f6011cef1"},"vehicle_type_id":"4","last_reported":1717348001,"current_range_meters":6800,"station_id":"ce4bgrp2rcd13ifvqc9g","pricing_plan_id":"cebpf4jnsgd1na2vs0mg"},{"bike_id":"14053888-f758-47ce-9911-dee1a1e2e613","system_id":"levelo_inurba_marseille","lat":43.305712,"lon":5.365641,"is_reserved":false,"is_disabled":false,"rental_uris":{"android":"levelo://app?vid=14053888-f758-47ce-9911-dee1a1e2e613","ios":"levelo://app?vid=14053888-f758-47ce-9911-dee1a1e2e613"},"vehicle_type_id":"4","last_reported":1717348001,"current_range_meters":4400,"station_id":"ce4bgs12rcd13ifvqcag","pricing_plan_id":"cebpf4jnsgd1na2vs0mg"},{"bike_id":"75d2a464-afc4-427d-aa2f-184013d7714a","system_id":"levelo_inurba_marseille","lat":43.30537,"lon":5.367345,"is_reserved":false,"is_disabled":false,"rental_uris":{"android":"levelo://app?vid=75d2a464-afc4-427d-aa2f-184013d7714a","ios":"levelo://app?vid=75d2a464-afc4-427d-aa2f-184013d7714a"},"vehicle_type_id":"4","last_reported":1717348001,"current_range_meters":22000,"station_id":"ce4bgrp2rcd13ifvqc9g","pricing_plan_id":"cebpf4jnsgd1na2vs0mg"},{"bike_id":"7d14c898-a3a1-4028-bee7-41f32555a18f","system_id":"levelo_inurba_marseille","lat":43.30537,"lon":5.367345,"is_reserved":false,"is_disabled":false,"rental_uris":{"android":"levelo://app?vid=7d14c898-a3a1-4028-bee7-41f32555a18f","ios":"levelo://app?vid=7d14c898-a3a1-4028-bee7-41f32555a18f"},"vehicle_type_id":"4","last_reported":1717348001,"current_range_meters":30400,"station_id":"ce4bgrp2rcd13ifvqc9g","pricing_plan_id":"cebpf4jnsgd1na2vs0mg"},{"bike_id":"040879f7-98bd-4bc3-b867-d8acc03b68ce","system_id":"levelo_inurba_marseille","lat":43.305706,"lon":5.365654,"is_reserved":false,"is_disabled":false,"rental_uris":{"android":"levelo://app?vid=040879f7-98bd-4bc3-b867-d8acc03b68ce","ios":"levelo://app?vid=040879f7-98bd-4bc3-b867-d8acc03b68ce"},"vehicle_type_id":"4","last_reported":1717348001,"current_range_meters":4000,"station_id":"ce4bgs12rcd13ifvqcag","pricing_plan_id":"cebpf4jnsgd1na2vs0mg"},{"bike_id":"b598b55f-cf6c-4590-a0f2-5b9fb67a22bf","system_id":"levelo_inurba_marseille","lat":43.297946,"lon":5.404063,"is_reserved":false,"is_disabled":false,"rental_uris":{"android":"levelo://app?vid=b598b55f-cf6c-4590-a0f2-5b9fb67a22bf","ios":"levelo://app?vid=b598b55f-cf6c-4590-a0f2-5b9fb67a22bf"},"vehicle_type_id":"4","last_reported":1717348001,"current_range_meters":0,"station_id":"ce4bh112rcd13ifvqd90","pricing_plan_id":"cebpf4jnsgd1na2vs0mg"},{"bike_id":"15a7b8f5-b6f8-4cdc-95f4-492b1e5c7faa","system_id":"levelo_inurba_marseille","lat":43.30499,"lon":5.36691,"is_reserved":false,"is_disabled":false,"rental_uris":{"android":"levelo://app?vid=15a7b8f5-b6f8-4cdc-95f4-492b1e5c7faa","ios":"levelo://app?vid=15a7b8f5-b6f8-4cdc-95f4-492b1e5c7faa"},"vehicle_type_id":"4","last_reported":1717348001,"current_range_meters":7600,"station_id":"","pricing_plan_id":"cebpf4jnsgd1na2vs0mg"},{"bike_id":"e4dd73bc-6a1c-45e1-bb28-2c72c7b76d63","system_id":"levelo_inurba_marseille","lat":43.311125,"lon":5.377624,"is_reserved":false,"is_disabled":false,"rental_uris":{"android":"levelo://app?vid=e4dd73bc-6a1c-45e1-bb28-2c72c7b76d63","ios":"levelo://app?vid=e4dd73bc-6a1c-45e1-bb28-2c72c7b76d63"},"vehicle_type_id":"4","last_reported":1717348001,"current_range_meters":2400,"station_id":"ce4bgt92rcd13ifvqcg0","pricing_plan_id":"cebpf4jnsgd1na2vs0mg"},{"bike_id":"50d80437-177a-470d-a397-2444e0ed5214","system_id":"levelo_inurba_marseille","lat":43.311131,"lon":5.377651,"is_reserved":false,"is_disabled":false,"rental_uris":{"android":"levelo://app?vid=50d80437-177a-470d-a397-2444e0ed5214","ios":"levelo://app?vid=50d80437-177a-470d-a397-2444e0ed5214"},"vehicle_type_id":"4","last_reported":1717348001,"current_range_meters":4800,"station_id":"ce4bgt92rcd13ifvqcg0","pricing_plan_id":"cebpf4jnsgd1na2vs0mg"},{"bike_id":"05f2e305-e612-4306-9d40-bb75c79763b1","system_id":"levelo_inurba_marseille","lat":43.317075,"lon":5.377367,"is_reserved":false,"is_disabled":false,"rental_uris":{"android":"levelo://app?vid=05f2e305-e612-4306-9d40-bb75c79763b1","ios":"levelo://app?vid=05f2e305-e612-4306-9d40-bb75c79763b1"},"vehicle_type_id":"4","last_reported":1717348001,"current_range_meters":26400,"station_id":"ce4bgth2rcd13ifvqch0","pricing_plan_id":"cebpf4jnsgd1na2vs0mg"},{"bike_id":"56bb1c21-3ae5-4341-bc5e-e2389e4042c6","system_id":"levelo_inurba_marseille","lat":43.317075,"lon":5.377367,"is_reserved":false,"is_disabled":false,"rental_uris":{"android":"levelo://app?vid=56bb1c21-3ae5-4341-bc5e-e2389e4042c6","ios":"levelo://app?vid=56bb1c21-3ae5-4341-bc5e-e2389e4042c6"},"vehicle_type_id":"4","last_reported":1717348001,"current_range_meters":12800,"station_id":"ce4bgth2rcd13ifvqch0","pricing_plan_id":"cebpf4jnsgd1na2vs0mg"},{"bike_id":"f2d8092a-4813-4845-855b-098f55470edc","system_id":"levelo_inurba_marseille","lat":43.317088,"lon":5.37775,"is_reserved":false,"is_disabled":false,"rental_uris":{"android":"levelo://app?vid=f2d8092a-4813-4845-855b-098f55470edc","ios":"levelo://app?vid=f2d8092a-4813-4845-855b-098f55470edc"},"vehicle_type_id":"4","last_reported":1717348001,"current_range_meters":12000,"station_id":"ce4bgth2rcd13ifvqch0","pricing_plan_id":"cebpf4jnsgd1na2vs0mg"},{"bike_id":"e65dd28c-5828-4523-b8a8-8780dd79e45f","system_id":"levelo_inurba_marseille","lat":43.303046,"lon":5.368981,"is_reserved":false,"is_disabled":false,"rental_uris":{"android":"levelo://app?vid=e65dd28c-5828-4523-b8a8-8780dd79e45f","ios":"levelo://app?vid=e65dd28c-5828-4523-b8a8-8780dd79e45f"},"vehicle_type_id":"4","last_reported":1717348001,"current_range_meters":21600,"station_id":"ce4bgqh2rcd13ifvqc5g","pricing_plan_id":"cebpf4jnsgd1na2vs0mg"},{"bike_id":"ed687f79-fa88-4c03-a637-64a4b3223b26","system_id":"levelo_inurba_marseille","lat":43.303046,"lon":5.368981,"is_reserved":false,"is_disabled":false,"rental_uris":{"android":"levelo://app?vid=ed687f79-fa88-4c03-a637-64a4b3223b26","ios":"levelo://app?vid=ed687f79-fa88-4c03-a637-64a4b3223b26"},"vehicle_type_id":"4","last_reported":1717348001,"current_range_meters":25200,"station_id":"ce4bgqh2rcd13ifvqc5g","pricing_plan_id":"cebpf4jnsgd1na2vs0mg"},{"bike_id":"1acc8b4a-9e17-4ac6-aa77-cac24366d8b7","system_id":"levelo_inurba_marseille","lat":43.315293,"lon":5.380349,"is_reserved":false,"is_disabled":false,"rental_uris":{"android":"levelo://app?vid=1acc8b4a-9e17-4ac6-aa77-cac24366d8b7","ios":"levelo://app?vid=1acc8b4a-9e17-4ac6-aa77-cac24366d8b7"},"vehicle_type_id":"4","last_reported":1717348001,"current_range_meters":16800,"station_id":"ce4bhsp2rcd13ifvqi50","pricing_plan_id":"cebpf4jnsgd1na2vs0mg"},{"bike_id":"8c2214db-d643-46a8-992f-d7311598519f","system_id":"levelo_inurba_marseille","lat":43.315339,"lon":5.380384,"is_reserved":false,"is_disabled":false,"rental_uris":{"android":"levelo://app?vid=8c2214db-d643-46a8-992f-d7311598519f","ios":"levelo://app?vid=8c2214db-d643-46a8-992f-d7311598519f"},"vehicle_type_id":"4","last_reported":1717348001,"current_range_meters":7200,"station_id":"ce4bhsp2rcd13ifvqi50","pricing_plan_id":"cebpf4jnsgd1na2vs0mg"},{"bike_id":"61ce56f3-8c27-423d-bbf1-b00ccc6cf763","system_id":"levelo_inurba_marseille","lat":43.315293,"lon":5.380349,"is_reserved":false,"is_disabled":false,"rental_uris":{"android":"levelo://app?vid=61ce56f3-8c27-423d-bbf1-b00ccc6cf763","ios":"levelo://app?vid=61ce56f3-8c27-423d-bbf1-b00ccc6cf763"},"vehicle_type_id":"4","last_reported":1717348001,"current_range_meters":0,"station_id":"ce4bhsp2rcd13ifvqi50","pricing_plan_id":"cebpf4jnsgd1na2vs0mg"},{"bike_id":"69b43005-3936-4be3-b063-5c4498df1cf8","system_id":"levelo_inurba_marseille","lat":43.301939,"lon":5.366286,"is_reserved":false,"is_disabled":false,"rental_uris":{"android":"levelo://app?vid=69b43005-3936-4be3-b063-5c4498df1cf8","ios":"levelo://app?vid=69b43005-3936-4be3-b063-5c4498df1cf8"},"vehicle_type_id":"4","last_reported":1717348001,"current_range_meters":12800,"station_id":"ce4bgrh2rcd13ifvqc8g","pricing_plan_id":"cebpf4jnsgd1na2vs0mg"},{"bike_id":"ef4c5406-5584-41f8-ad0b-3c3359da2a3d","system_id":"levelo_inurba_marseille","lat":43.301939,"lon":5.366286,"is_reserved":false,"is_disabled":false,"rental_uris":{"android":"levelo://app?vid=ef4c5406-5584-41f8-ad0b-3c3359da2a3d","ios":"levelo://app?vid=ef4c5406-5584-41f8-ad0b-3c3359da2a3d"},"vehicle_type_id":"4","last_reported":1717348001,"current_range_meters":8000,"station_id":"ce4bgrh2rcd13ifvqc8g","pricing_plan_id":"cebpf4jnsgd1na2vs0mg"},{"bike_id":"9d78c24b-2c29-45e1-9145-417a675ed2c7","system_id":"levelo_inurba_marseille","lat":43.324771,"lon":5.36557,"is_reserved":false,"is_disabled":false,"rental_uris":{"android":"levelo://app?vid=9d78c24b-2c29-45e1-9145-417a675ed2c7","ios":"levelo://app?vid=9d78c24b-2c29-45e1-9145-417a675ed2c7"},"vehicle_type_id":"4","last_reported":1717348001,"current_range_meters":7600,"station_id":"ce4bhs12rcd13ifvqhvg","pricing_plan_id":"cebpf4jnsgd1na2vs0mg"},{"bike_id":"9909463a-b103-4a7f-922e-fbc774e61556","system_id":"levelo_inurba_marseille","lat":43.308012,"lon":5.381511,"is_reserved":false,"is_disabled":false,"rental_uris":{"android":"levelo://app?vid=9909463a-b103-4a7f-922e-fbc774e61556","ios":"levelo://app?vid=9909463a-b103-4a7f-922e-fbc774e61556"},"vehicle_type_id":"4","last_reported":1717348001,"current_range_meters":0,"station_id":"ce4bgt12rcd13ifvqce0","pricing_plan_id":"cebpf4jnsgd1na2vs0mg"},{"bike_id":"2813e669-f73c-433e-be54-950da1052e85","system_id":"levelo_inurba_marseille","lat":43.308012,"lon":5.381511,"is_reserved":false,"is_disabled":false,"rental_uris":{"android":"levelo://app?vid=2813e669-f73c-433e-be54-950da1052e85","ios":"levelo://app?vid=2813e669-f73c-433e-be54-950da1052e85"},"vehicle_type_id":"4","last_reported":1717348001,"current_range_meters":12800,"station_id":"ce4bgt12rcd13ifvqce0","pricing_plan_id":"cebpf4jnsgd1na2vs0mg"},{"bike_id":"c515c9b9-b797-4e8a-bae3-c0886fc2f02c","system_id":"levelo_inurba_marseille","lat":43.304606,"lon":5.379026,"is_reserved":false,"is_disabled":false,"rental_uris":{"android":"levelo://app?vid=c515c9b9-b797-4e8a-bae3-c0886fc2f02c","ios":"levelo://app?vid=c515c9b9-b797-4e8a-bae3-c0886fc2f02c"},"vehicle_type_id":"4","last_reported":1717348001,"current_range_meters":10400,"station_id":"ce4bgup2rcd13ifvqcn0","pricing_plan_id":"cebpf4jnsgd1na2vs0mg"},{"bike_id":"7770a94b-7370-4115-9b39-af2f393e72c1","system_id":"levelo_inurba_marseille","lat":43.304606,"lon":5.379026,"is_reserved":false,"is_disabled":false,"rental_uris":{"android":"levelo://app?vid=7770a94b-7370-4115-9b39-af2f393e72c1","ios":"levelo://app?vid=7770a94b-7370-4115-9b39-af2f393e72c1"},"vehicle_type_id":"4","last_reported":1717348001,"current_range_meters":400,"station_id":"ce4bgup2rcd13ifvqcn0","pricing_plan_id":"cebpf4jnsgd1na2vs0mg"},{"bike_id":"92ec211f-0b53-4f34-b1e9-036fd0d768f7","system_id":"levelo_inurba_marseille","lat":43.324771,"lon":5.36557,"is_reserved":false,"is_disabled":false,"rental_uris":{"android":"levelo://app?vid=92ec211f-0b53-4f34-b1e9-036fd0d768f7","ios":"levelo://app?vid=92ec211f-0b53-4f34-b1e9-036fd0d768f7"},"vehicle_type_id":"4","last_reported":1717348001,"current_range_meters":1200,"station_id":"ce4bhs12rcd13ifvqhvg","pricing_plan_id":"cebpf4jnsgd1na2vs0mg"},{"bike_id":"3db9176a-5a98-466a-a151-c88648d89f8a","system_id":"levelo_inurba_marseille","lat":43.310154,"lon":5.38312,"is_reserved":false,"is_disabled":false,"rental_uris":{"android":"levelo://app?vid=3db9176a-5a98-466a-a151-c88648d89f8a","ios":"levelo://app?vid=3db9176a-5a98-466a-a151-c88648d89f8a"},"vehicle_type_id":"4","last_reported":1717348001,"current_range_meters":9600,"station_id":"ce4bgv92rcd13ifvqcr0","pricing_plan_id":"cebpf4jnsgd1na2vs0mg"},{"bike_id":"abd882b2-2cf8-43f7-a1c2-1aaf332a740b","system_id":"levelo_inurba_marseille","lat":43.304793,"lon":5.379487,"is_reserved":false,"is_disabled":false,"rental_uris":{"android":"levelo://app?vid=abd882b2-2cf8-43f7-a1c2-1aaf332a740b","ios":"levelo://app?vid=abd882b2-2cf8-43f7-a1c2-1aaf332a740b"},"vehicle_type_id":"4","last_reported":1717348001,"current_range_meters":0,"station_id":"ce4bgup2rcd13ifvqcn0","pricing_plan_id":"cebpf4jnsgd1na2vs0mg"},{"bike_id":"cb5ba318-9f31-430b-b5a9-eb7b54ed7c95","system_id":"levelo_inurba_marseille","lat":43.302784,"lon":5.377158,"is_reserved":false,"is_disabled":false,"rental_uris":{"android":"levelo://app?vid=cb5ba318-9f31-430b-b5a9-eb7b54ed7c95","ios":"levelo://app?vid=cb5ba318-9f31-430b-b5a9-eb7b54ed7c95"},"vehicle_type_id":"4","last_reported":1717348001,"current_range_meters":15600,"station_id":"ce4bguh2rcd13ifvqcj0","pricing_plan_id":"cebpf4jnsgd1na2vs0mg"},{"bike_id":"cadd206e-a34a-4e21-a078-002911331443","system_id":"levelo_inurba_marseille","lat":43.31067,"lon":5.38353,"is_reserved":false,"is_disabled":false,"rental_uris":{"android":"levelo://app?vid=cadd206e-a34a-4e21-a078-002911331443","ios":"levelo://app?vid=cadd206e-a34a-4e21-a078-002911331443"},"vehicle_type_id":"4","last_reported":1717348001,"current_range_meters":19200,"station_id":"ce4bgv92rcd13ifvqcr0","pricing_plan_id":"cebpf4jnsgd1na2vs0mg"},{"bike_id":"41f71f28-89c0-47d5-84d1-4c186c285185","system_id":"levelo_inurba_marseille","lat":43.31067,"lon":5.38356,"is_reserved":false,"is_disabled":false,"rental_uris":{"android":"levelo://app?vid=41f71f28-89c0-47d5-84d1-4c186c285185","ios":"levelo://app?vid=41f71f28-89c0-47d5-84d1-4c186c285185"},"vehicle_type_id":"4","last_reported":1717348001,"current_range_meters":11200,"station_id":"ce4bgv92rcd13ifvqcr0","pricing_plan_id":"cebpf4jnsgd1na2vs0mg"},{"bike_id":"a89c9740-701d-456f-bf15-fb19b85367ab","system_id":"levelo_inurba_marseille","lat":43.302784,"lon":5.377158,"is_reserved":false,"is_disabled":false,"rental_uris":{"android":"levelo://app?vid=a89c9740-701d-456f-bf15-fb19b85367ab","ios":"levelo://app?vid=a89c9740-701d-456f-bf15-fb19b85367ab"},"vehicle_type_id":"4","last_reported":1717348001,"current_range_meters":22800,"station_id":"ce4bguh2rcd13ifvqcj0","pricing_plan_id":"cebpf4jnsgd1na2vs0mg"},{"bike_id":"faf5db11-68e4-4120-9878-e8fcaa1a3dbb","system_id":"levelo_inurba_marseille","lat":43.302784,"lon":5.377158,"is_reserved":false,"is_disabled":false,"rental_uris":{"android":"levelo://app?vid=faf5db11-68e4-4120-9878-e8fcaa1a3dbb","ios":"levelo://app?vid=faf5db11-68e4-4120-9878-e8fcaa1a3dbb"},"vehicle_type_id":"4","last_reported":1717348001,"current_range_meters":0,"station_id":"ce4bguh2rcd13ifvqcj0","pricing_plan_id":"cebpf4jnsgd1na2vs0mg"},{"bike_id":"7ea6d132-d907-4dec-9df1-01ee804a3037","system_id":"levelo_inurba_marseille","lat":43.30143,"lon":5.37413,"is_reserved":false,"is_disabled":false,"rental_uris":{"android":"levelo://app?vid=7ea6d132-d907-4dec-9df1-01ee804a3037","ios":"levelo://app?vid=7ea6d132-d907-4dec-9df1-01ee804a3037"},"vehicle_type_id":"4","last_reported":1717348001,"current_range_meters":2400,"station_id":"ce4bgs92rcd13ifvqcc0","pricing_plan_id":"cebpf4jnsgd1na2vs0mg"},{"bike_id":"0e7f4bcc-4806-4add-b595-fd726b6d2e52","system_id":"levelo_inurba_marseille","lat":43.319935,"lon":5.381699,"is_reserved":false,"is_disabled":false,"rental_uris":{"android":"levelo://app?vid=0e7f4bcc-4806-4add-b595-fd726b6d2e52","ios":"levelo://app?vid=0e7f4bcc-4806-4add-b595-fd726b6d2e52"},"vehicle_type_id":"4","last_reported":1717348001,"current_range_meters":12400,"station_id":"ce4bhr12rcd13ifvqhpg","pricing_plan_id":"cebpf4jnsgd1na2vs0mg"},{"bike_id":"f7c91774-fa24-416c-95f8-93af935bf6c1","system_id":"levelo_inurba_marseille","lat":43.319935,"lon":5.381699,"is_reserved":false,"is_disabled":false,"rental_uris":{"android":"levelo://app?vid=f7c91774-fa24-416c-95f8-93af935bf6c1","ios":"levelo://app?vid=f7c91774-fa24-416c-95f8-93af935bf6c1"},"vehicle_type_id":"4","last_reported":1717348001,"current_range_meters":5600,"station_id":"ce4bhr12rcd13ifvqhpg","pricing_plan_id":"cebpf4jnsgd1na2vs0mg"},{"bike_id":"a1b324c3-4672-4178-8f46-8f15d360dea8","system_id":"levelo_inurba_marseille","lat":43.303289,"lon":5.379299,"is_reserved":false,"is_disabled":false,"rental_uris":{"android":"levelo://app?vid=a1b324c3-4672-4178-8f46-8f15d360dea8","ios":"levelo://app?vid=a1b324c3-4672-4178-8f46-8f15d360dea8"},"vehicle_type_id":"4","last_reported":1717348001,"current_range_meters":16400,"station_id":"","pricing_plan_id":"cebpf4jnsgd1na2vs0mg"},{"bike_id":"82143a67-7f4a-4c59-9685-8d94999e81ab","system_id":"levelo_inurba_marseille","lat":43.313631,"lon":5.38487,"is_reserved":false,"is_disabled":false,"rental_uris":{"android":"levelo://app?vid=82143a67-7f4a-4c59-9685-8d94999e81ab","ios":"levelo://app?vid=82143a67-7f4a-4c59-9685-8d94999e81ab"},"vehicle_type_id":"4","last_reported":1717348001,"current_range_meters":14000,"station_id":"ce4bgt92rcd13ifvqcf0","pricing_plan_id":"cebpf4jnsgd1na2vs0mg"},{"bike_id":"365ba7b2-59d6-4ba7-8c9f-c061b6f48be0","system_id":"levelo_inurba_marseille","lat":43.313571,"lon":5.384829,"is_reserved":false,"is_disabled":false,"rental_uris":{"android":"levelo://app?vid=365ba7b2-59d6-4ba7-8c9f-c061b6f48be0","ios":"levelo://app?vid=365ba7b2-59d6-4ba7-8c9f-c061b6f48be0"},"vehicle_type_id":"4","last_reported":1717348001,"current_range_meters":26000,"station_id":"ce4bgt92rcd13ifvqcf0","pricing_plan_id":"cebpf4jnsgd1na2vs0mg"},{"bike_id":"11cc3aa7-731b-4122-88cc-9115ecf93666","system_id":"levelo_inurba_marseille","lat":43.313571,"lon":5.384829,"is_reserved":false,"is_disabled":false,"rental_uris":{"android":"levelo://app?vid=11cc3aa7-731b-4122-88cc-9115ecf93666","ios":"levelo://app?vid=11cc3aa7-731b-4122-88cc-9115ecf93666"},"vehicle_type_id":"4","last_reported":1717348001,"current_range_meters":14000,"station_id":"ce4bgt92rcd13ifvqcf0","pricing_plan_id":"cebpf4jnsgd1na2vs0mg"},{"bike_id":"ec8302c8-ada0-43e3-99bb-edaa45f8e26e","system_id":"levelo_inurba_marseille","lat":43.313571,"lon":5.384829,"is_reserved":false,"is_disabled":false,"rental_uris":{"android":"levelo://app?vid=ec8302c8-ada0-43e3-99bb-edaa45f8e26e","ios":"levelo://app?vid=ec8302c8-ada0-43e3-99bb-edaa45f8e26e"},"vehicle_type_id":"4","last_reported":1717348001,"current_range_meters":30400,"station_id":"ce4bgt92rcd13ifvqcf0","pricing_plan_id":"cebpf4jnsgd1na2vs0mg"},{"bike_id":"d486d1b7-40b4-41d0-ae81-0141f0773635","system_id":"levelo_inurba_marseille","lat":43.313571,"lon":5.384829,"is_reserved":false,"is_disabled":false,"rental_uris":{"android":"levelo://app?vid=d486d1b7-40b4-41d0-ae81-0141f0773635","ios":"levelo://app?vid=d486d1b7-40b4-41d0-ae81-0141f0773635"},"vehicle_type_id":"4","last_reported":1717348001,"current_range_meters":20000,"station_id":"ce4bgt92rcd13ifvqcf0","pricing_plan_id":"cebpf4jnsgd1na2vs0mg"},{"bike_id":"7dec1f05-7322-443c-b385-e6514e3f00b1","system_id":"levelo_inurba_marseille","lat":43.313571,"lon":5.384829,"is_reserved":false,"is_disabled":false,"rental_uris":{"android":"levelo://app?vid=7dec1f05-7322-443c-b385-e6514e3f00b1","ios":"levelo://app?vid=7dec1f05-7322-443c-b385-e6514e3f00b1"},"vehicle_type_id":"4","last_reported":1717348001,"current_range_meters":30800,"station_id":"ce4bgt92rcd13ifvqcf0","pricing_plan_id":"cebpf4jnsgd1na2vs0mg"},{"bike_id":"8b9b6267-8443-48bb-afa6-fd20ae57bbfe","system_id":"levelo_inurba_marseille","lat":43.299724,"lon":5.371829,"is_reserved":false,"is_disabled":false,"rental_uris":{"android":"levelo://app?vid=8b9b6267-8443-48bb-afa6-fd20ae57bbfe","ios":"levelo://app?vid=8b9b6267-8443-48bb-afa6-fd20ae57bbfe"},"vehicle_type_id":"4","last_reported":1717348001,"current_range_meters":17200,"station_id":"ce4bgr92rcd13ifvqc7g","pricing_plan_id":"cebpf4jnsgd1na2vs0mg"},{"bike_id":"cc4b0899-079e-4267-ae5a-3e0861392f73","system_id":"levelo_inurba_marseille","lat":43.299222,"lon":5.365554,"is_reserved":false,"is_disabled":false,"rental_uris":{"android":"levelo://app?vid=cc4b0899-079e-4267-ae5a-3e0861392f73","ios":"levelo://app?vid=cc4b0899-079e-4267-ae5a-3e0861392f73"},"vehicle_type_id":"4","last_reported":1717348001,"current_range_meters":0,"station_id":"ce4bgm92rcd13ifvqbr0","pricing_plan_id":"cebpf4jnsgd1na2vs0mg"},{"bike_id":"76ab2661-7a56-49c5-96f4-cb467d8f90fd","system_id":"levelo_inurba_marseille","lat":43.308012,"lon":5.381511,"is_reserved":false,"is_disabled":false,"rental_uris":{"android":"levelo://app?vid=76ab2661-7a56-49c5-96f4-cb467d8f90fd","ios":"levelo://app?vid=76ab2661-7a56-49c5-96f4-cb467d8f90fd"},"vehicle_type_id":"4","last_reported":1717348001,"current_range_meters":9200,"station_id":"ce4bgt12rcd13ifvqce0","pricing_plan_id":"cebpf4jnsgd1na2vs0mg"},{"bike_id":"7c0279c4-785e-41cc-9875-11b1aa5697b0","system_id":"levelo_inurba_marseille","lat":43.298433,"lon":5.362774,"is_reserved":false,"is_disabled":false,"rental_uris":{"android":"levelo://app?vid=7c0279c4-785e-41cc-9875-11b1aa5697b0","ios":"levelo://app?vid=7c0279c4-785e-41cc-9875-11b1aa5697b0"},"vehicle_type_id":"4","last_reported":1717348001,"current_range_meters":29600,"station_id":"ce4bgpp2rcd13ifvqc3g","pricing_plan_id":"cebpf4jnsgd1na2vs0mg"},{"bike_id":"705566f2-8908-4de7-8332-14b7d70d4d6b","system_id":"levelo_inurba_marseille","lat":43.298477,"lon":5.362817,"is_reserved":false,"is_disabled":false,"rental_uris":{"android":"levelo://app?vid=705566f2-8908-4de7-8332-14b7d70d4d6b","ios":"levelo://app?vid=705566f2-8908-4de7-8332-14b7d70d4d6b"},"vehicle_type_id":"4","last_reported":1717348001,"current_range_meters":0,"station_id":"ce4bgpp2rcd13ifvqc3g","pricing_plan_id":"cebpf4jnsgd1na2vs0mg"},{"bike_id":"8222ad8f-e2c2-41a7-aea5-8d289720d617","system_id":"levelo_inurba_marseille","lat":43.305364,"lon":5.384119,"is_reserved":false,"is_disabled":false,"rental_uris":{"android":"levelo://app?vid=8222ad8f-e2c2-41a7-aea5-8d289720d617","ios":"levelo://app?vid=8222ad8f-e2c2-41a7-aea5-8d289720d617"},"vehicle_type_id":"4","last_reported":1717348001,"current_range_meters":4800,"station_id":"ce4bgg92rcd13ifvqb30","pricing_plan_id":"cebpf4jnsgd1na2vs0mg"},{"bike_id":"50d9b3f4-29d1-4fc8-a0ec-55510c139211","system_id":"levelo_inurba_marseille","lat":43.305364,"lon":5.384119,"is_reserved":false,"is_disabled":false,"rental_uris":{"android":"levelo://app?vid=50d9b3f4-29d1-4fc8-a0ec-55510c139211","ios":"levelo://app?vid=50d9b3f4-29d1-4fc8-a0ec-55510c139211"},"vehicle_type_id":"4","last_reported":1717348001,"current_range_meters":23600,"station_id":"ce4bgg92rcd13ifvqb30","pricing_plan_id":"cebpf4jnsgd1na2vs0mg"},{"bike_id":"0ace565f-e980-45b7-958f-244be4ab4a58","system_id":"levelo_inurba_marseille","lat":43.311722,"lon":5.387247,"is_reserved":false,"is_disabled":false,"rental_uris":{"android":"levelo://app?vid=0ace565f-e980-45b7-958f-244be4ab4a58","ios":"levelo://app?vid=0ace565f-e980-45b7-958f-244be4ab4a58"},"vehicle_type_id":"4","last_reported":1717348001,"current_range_meters":8400,"station_id":"ce4bgv12rcd13ifvqcp0","pricing_plan_id":"cebpf4jnsgd1na2vs0mg"},{"bike_id":"dd7aeefe-a784-4478-b384-e99515794255","system_id":"levelo_inurba_marseille","lat":43.311722,"lon":5.387247,"is_reserved":false,"is_disabled":false,"rental_uris":{"android":"levelo://app?vid=dd7aeefe-a784-4478-b384-e99515794255","ios":"levelo://app?vid=dd7aeefe-a784-4478-b384-e99515794255"},"vehicle_type_id":"4","last_reported":1717348001,"current_range_meters":8000,"station_id":"ce4bgv12rcd13ifvqcp0","pricing_plan_id":"cebpf4jnsgd1na2vs0mg"},{"bike_id":"0870cf45-a72b-4979-966a-121161adf9d2","system_id":"levelo_inurba_marseille","lat":43.311722,"lon":5.387247,"is_reserved":false,"is_disabled":false,"rental_uris":{"android":"levelo://app?vid=0870cf45-a72b-4979-966a-121161adf9d2","ios":"levelo://app?vid=0870cf45-a72b-4979-966a-121161adf9d2"},"vehicle_type_id":"4","last_reported":1717348001,"current_range_meters":23200,"station_id":"ce4bgv12rcd13ifvqcp0","pricing_plan_id":"cebpf4jnsgd1na2vs0mg"},{"bike_id":"ca39ce2a-669c-4f22-92d2-59cb1fc004ee","system_id":"levelo_inurba_marseille","lat":43.311722,"lon":5.387247,"is_reserved":false,"is_disabled":false,"rental_uris":{"android":"levelo://app?vid=ca39ce2a-669c-4f22-92d2-59cb1fc004ee","ios":"levelo://app?vid=ca39ce2a-669c-4f22-92d2-59cb1fc004ee"},"vehicle_type_id":"4","last_reported":1717348001,"current_range_meters":12000,"station_id":"ce4bgv12rcd13ifvqcp0","pricing_plan_id":"cebpf4jnsgd1na2vs0mg"},{"bike_id":"a098bc0a-5147-4130-98a9-b04550485598","system_id":"levelo_inurba_marseille","lat":43.305364,"lon":5.384119,"is_reserved":false,"is_disabled":false,"rental_uris":{"android":"levelo://app?vid=a098bc0a-5147-4130-98a9-b04550485598","ios":"levelo://app?vid=a098bc0a-5147-4130-98a9-b04550485598"},"vehicle_type_id":"4","last_reported":1717348001,"current_range_meters":30800,"station_id":"ce4bgg92rcd13ifvqb30","pricing_plan_id":"cebpf4jnsgd1na2vs0mg"},{"bike_id":"ba3df0d9-85b0-4acc-a7fb-339bc03f5629","system_id":"levelo_inurba_marseille","lat":43.311722,"lon":5.387247,"is_reserved":false,"is_disabled":false,"rental_uris":{"android":"levelo://app?vid=ba3df0d9-85b0-4acc-a7fb-339bc03f5629","ios":"levelo://app?vid=ba3df0d9-85b0-4acc-a7fb-339bc03f5629"},"vehicle_type_id":"4","last_reported":1717348001,"current_range_meters":8800,"station_id":"ce4bgv12rcd13ifvqcp0","pricing_plan_id":"cebpf4jnsgd1na2vs0mg"},{"bike_id":"5771b675-d691-4489-b8e1-1ce65f2b991a","system_id":"levelo_inurba_marseille","lat":43.311722,"lon":5.387247,"is_reserved":false,"is_disabled":false,"rental_uris":{"android":"levelo://app?vid=5771b675-d691-4489-b8e1-1ce65f2b991a","ios":"levelo://app?vid=5771b675-d691-4489-b8e1-1ce65f2b991a"},"vehicle_type_id":"4","last_reported":1717348001,"current_range_meters":12800,"station_id":"ce4bgv12rcd13ifvqcp0","pricing_plan_id":"cebpf4jnsgd1na2vs0mg"},{"bike_id":"10fb4334-c940-4455-979b-d3f1ca32e262","system_id":"levelo_inurba_marseille","lat":43.297774,"lon":5.370875,"is_reserved":false,"is_disabled":false,"rental_uris":{"android":"levelo://app?vid=10fb4334-c940-4455-979b-d3f1ca32e262","ios":"levelo://app?vid=10fb4334-c940-4455-979b-d3f1ca32e262"},"vehicle_type_id":"4","last_reported":1717348001,"current_range_meters":29200,"station_id":"ce4bgop2rcd13ifvqc1g","pricing_plan_id":"cebpf4jnsgd1na2vs0mg"},{"bike_id":"fc4f2a6d-b6bd-4ed5-af6f-80d489ec9883","system_id":"levelo_inurba_marseille","lat":43.297794,"lon":5.370888,"is_reserved":false,"is_disabled":false,"rental_uris":{"android":"levelo://app?vid=fc4f2a6d-b6bd-4ed5-af6f-80d489ec9883","ios":"levelo://app?vid=fc4f2a6d-b6bd-4ed5-af6f-80d489ec9883"},"vehicle_type_id":"4","last_reported":1717348001,"current_range_meters":26800,"station_id":"ce4bgop2rcd13ifvqc1g","pricing_plan_id":"cebpf4jnsgd1na2vs0mg"},{"bike_id":"2935268e-b2a7-4f3d-8748-23455793256c","system_id":"levelo_inurba_marseille","lat":43.322872,"lon":5.382756,"is_reserved":false,"is_disabled":false,"rental_uris":{"android":"levelo://app?vid=2935268e-b2a7-4f3d-8748-23455793256c","ios":"levelo://app?vid=2935268e-b2a7-4f3d-8748-23455793256c"},"vehicle_type_id":"4","last_reported":1717348001,"current_range_meters":30800,"station_id":"ce4bhr12rcd13ifvqhqg","pricing_plan_id":"cebpf4jnsgd1na2vs0mg"},{"bike_id":"1659ce0c-fafb-47a0-b4bf-e6264ebd5cf0","system_id":"levelo_inurba_marseille","lat":43.322915,"lon":5.382818,"is_reserved":false,"is_disabled":false,"rental_uris":{"android":"levelo://app?vid=1659ce0c-fafb-47a0-b4bf-e6264ebd5cf0","ios":"levelo://app?vid=1659ce0c-fafb-47a0-b4bf-e6264ebd5cf0"},"vehicle_type_id":"4","last_reported":1717348001,"current_range_meters":10800,"station_id":"ce4bhr12rcd13ifvqhqg","pricing_plan_id":"cebpf4jnsgd1na2vs0mg"},{"bike_id":"d8e99ac0-cfa6-4e40-9a41-85d7a0c86c90","system_id":"levelo_inurba_marseille","lat":43.297163,"lon":5.365866,"is_reserved":false,"is_disabled":false,"rental_uris":{"android":"levelo://app?vid=d8e99ac0-cfa6-4e40-9a41-85d7a0c86c90","ios":"levelo://app?vid=d8e99ac0-cfa6-4e40-9a41-85d7a0c86c90"},"vehicle_type_id":"4","last_reported":1717348001,"current_range_meters":12800,"station_id":"ce4bgn12rcd13ifvqbt0","pricing_plan_id":"cebpf4jnsgd1na2vs0mg"},{"bike_id":"fcb48a2d-d406-459d-a9da-3fdfa5a00be5","system_id":"levelo_inurba_marseille","lat":43.297163,"lon":5.365866,"is_reserved":false,"is_disabled":false,"rental_uris":{"android":"levelo://app?vid=fcb48a2d-d406-459d-a9da-3fdfa5a00be5","ios":"levelo://app?vid=fcb48a2d-d406-459d-a9da-3fdfa5a00be5"},"vehicle_type_id":"4","last_reported":1717348001,"current_range_meters":0,"station_id":"ce4bgn12rcd13ifvqbt0","pricing_plan_id":"cebpf4jnsgd1na2vs0mg"},{"bike_id":"fdba4c59-849a-44a5-baff-899f39918679","system_id":"levelo_inurba_marseille","lat":43.318568,"lon":5.387473,"is_reserved":false,"is_disabled":false,"rental_uris":{"android":"levelo://app?vid=fdba4c59-849a-44a5-baff-899f39918679","ios":"levelo://app?vid=fdba4c59-849a-44a5-baff-899f39918679"},"vehicle_type_id":"4","last_reported":1717348001,"current_range_meters":19200,"station_id":"","pricing_plan_id":"cebpf4jnsgd1na2vs0mg"},{"bike_id":"46b32aea-a204-4e22-87a5-c866a41eb92c","system_id":"levelo_inurba_marseille","lat":43.2968,"lon":5.37291,"is_reserved":false,"is_disabled":false,"rental_uris":{"android":"levelo://app?vid=46b32aea-a204-4e22-87a5-c866a41eb92c","ios":"levelo://app?vid=46b32aea-a204-4e22-87a5-c866a41eb92c"},"vehicle_type_id":"4","last_reported":1717348001,"current_range_meters":6400,"station_id":"ce4bgk12rcd13ifvqbj0","pricing_plan_id":"cebpf4jnsgd1na2vs0mg"},{"bike_id":"41fcf9ff-a062-47c1-94bb-2fee22ac952e","system_id":"levelo_inurba_marseille","lat":43.299028,"lon":5.381509,"is_reserved":false,"is_disabled":false,"rental_uris":{"android":"levelo://app?vid=41fcf9ff-a062-47c1-94bb-2fee22ac952e","ios":"levelo://app?vid=41fcf9ff-a062-47c1-94bb-2fee22ac952e"},"vehicle_type_id":"4","last_reported":1717348001,"current_range_meters":31200,"station_id":"ce4bgj12rcd13ifvqbc0","pricing_plan_id":"cebpf4jnsgd1na2vs0mg"},{"bike_id":"7d378fe7-cd5e-46dd-b8d0-1c07c8e631a9","system_id":"levelo_inurba_marseille","lat":43.29573,"lon":5.367355,"is_reserved":false,"is_disabled":false,"rental_uris":{"android":"levelo://app?vid=7d378fe7-cd5e-46dd-b8d0-1c07c8e631a9","ios":"levelo://app?vid=7d378fe7-cd5e-46dd-b8d0-1c07c8e631a9"},"vehicle_type_id":"4","last_reported":1717348001,"current_range_meters":22400,"station_id":"ce4bgph2rcd13ifvqc2g","pricing_plan_id":"cebpf4jnsgd1na2vs0mg"},{"bike_id":"a49312ed-e123-4c01-a679-f33cf6bf8199","system_id":"levelo_inurba_marseille","lat":43.29583,"lon":5.36751,"is_reserved":false,"is_disabled":false,"rental_uris":{"android":"levelo://app?vid=a49312ed-e123-4c01-a679-f33cf6bf8199","ios":"levelo://app?vid=a49312ed-e123-4c01-a679-f33cf6bf8199"},"vehicle_type_id":"4","last_reported":1717348001,"current_range_meters":29200,"station_id":"ce4bgph2rcd13ifvqc2g","pricing_plan_id":"cebpf4jnsgd1na2vs0mg"},{"bike_id":"19fbedcd-9c08-4184-aef0-b7f9903c8338","system_id":"levelo_inurba_marseille","lat":43.29573,"lon":5.367355,"is_reserved":false,"is_disabled":false,"rental_uris":{"android":"levelo://app?vid=19fbedcd-9c08-4184-aef0-b7f9903c8338","ios":"levelo://app?vid=19fbedcd-9c08-4184-aef0-b7f9903c8338"},"vehicle_type_id":"4","last_reported":1717348001,"current_range_meters":26800,"station_id":"ce4bgph2rcd13ifvqc2g","pricing_plan_id":"cebpf4jnsgd1na2vs0mg"},{"bike_id":"d5c73c73-559a-4186-afa1-e6d46e8b2993","system_id":"levelo_inurba_marseille","lat":43.29573,"lon":5.367355,"is_reserved":false,"is_disabled":false,"rental_uris":{"android":"levelo://app?vid=d5c73c73-559a-4186-afa1-e6d46e8b2993","ios":"levelo://app?vid=d5c73c73-559a-4186-afa1-e6d46e8b2993"},"vehicle_type_id":"4","last_reported":1717348001,"current_range_meters":26400,"station_id":"ce4bgph2rcd13ifvqc2g","pricing_plan_id":"cebpf4jnsgd1na2vs0mg"},{"bike_id":"b7c2672d-a2a1-433a-a00c-f9578ace5f12","system_id":"levelo_inurba_marseille","lat":43.29573,"lon":5.367355,"is_reserved":false,"is_disabled":false,"rental_uris":{"android":"levelo://app?vid=b7c2672d-a2a1-433a-a00c-f9578ace5f12","ios":"levelo://app?vid=b7c2672d-a2a1-433a-a00c-f9578ace5f12"},"vehicle_type_id":"4","last_reported":1717348001,"current_range_meters":4000,"station_id":"ce4bgph2rcd13ifvqc2g","pricing_plan_id":"cebpf4jnsgd1na2vs0mg"},{"bike_id":"3e33d35a-892e-4653-b1b2-8c80e26b2bb8","system_id":"levelo_inurba_marseille","lat":43.29573,"lon":5.367355,"is_reserved":false,"is_disabled":false,"rental_uris":{"android":"levelo://app?vid=3e33d35a-892e-4653-b1b2-8c80e26b2bb8","ios":"levelo://app?vid=3e33d35a-892e-4653-b1b2-8c80e26b2bb8"},"vehicle_type_id":"4","last_reported":1717348001,"current_range_meters":17200,"station_id":"ce4bgph2rcd13ifvqc2g","pricing_plan_id":"cebpf4jnsgd1na2vs0mg"},{"bike_id":"8285a106-3875-4656-b9e7-95436b26e83f","system_id":"levelo_inurba_marseille","lat":43.299028,"lon":5.381509,"is_reserved":false,"is_disabled":false,"rental_uris":{"android":"levelo://app?vid=8285a106-3875-4656-b9e7-95436b26e83f","ios":"levelo://app?vid=8285a106-3875-4656-b9e7-95436b26e83f"},"vehicle_type_id":"4","last_reported":1717348001,"current_range_meters":31600,"station_id":"ce4bgj12rcd13ifvqbc0","pricing_plan_id":"cebpf4jnsgd1na2vs0mg"},{"bike_id":"4ccc75e7-a00c-459d-add3-3ec0ee5280d2","system_id":"levelo_inurba_marseille","lat":43.296131,"lon":5.370773,"is_reserved":false,"is_disabled":false,"rental_uris":{"android":"levelo://app?vid=4ccc75e7-a00c-459d-add3-3ec0ee5280d2","ios":"levelo://app?vid=4ccc75e7-a00c-459d-add3-3ec0ee5280d2"},"vehicle_type_id":"4","last_reported":1717348001,"current_range_meters":14000,"station_id":"ce4bgnh2rcd13ifvqc0g","pricing_plan_id":"cebpf4jnsgd1na2vs0mg"},{"bike_id":"6534eba5-2646-4c70-b8fa-e58035198190","system_id":"levelo_inurba_marseille","lat":43.299028,"lon":5.381509,"is_reserved":false,"is_disabled":false,"rental_uris":{"android":"levelo://app?vid=6534eba5-2646-4c70-b8fa-e58035198190","ios":"levelo://app?vid=6534eba5-2646-4c70-b8fa-e58035198190"},"vehicle_type_id":"4","last_reported":1717348001,"current_range_meters":0,"station_id":"ce4bgj12rcd13ifvqbc0","pricing_plan_id":"cebpf4jnsgd1na2vs0mg"},{"bike_id":"babaa4bc-fe60-4025-8b52-7bfa9c089d27","system_id":"levelo_inurba_marseille","lat":43.309589,"lon":5.390258,"is_reserved":false,"is_disabled":false,"rental_uris":{"android":"levelo://app?vid=babaa4bc-fe60-4025-8b52-7bfa9c089d27","ios":"levelo://app?vid=babaa4bc-fe60-4025-8b52-7bfa9c089d27"},"vehicle_type_id":"4","last_reported":1717348001,"current_range_meters":400,"station_id":"ce4bgup2rcd13ifvqco0","pricing_plan_id":"cebpf4jnsgd1na2vs0mg"},{"bike_id":"d1733db9-5089-4c7a-962d-d809cdcecd7b","system_id":"levelo_inurba_marseille","lat":43.309589,"lon":5.390258,"is_reserved":false,"is_disabled":false,"rental_uris":{"android":"levelo://app?vid=d1733db9-5089-4c7a-962d-d809cdcecd7b","ios":"levelo://app?vid=d1733db9-5089-4c7a-962d-d809cdcecd7b"},"vehicle_type_id":"4","last_reported":1717348001,"current_range_meters":0,"station_id":"ce4bgup2rcd13ifvqco0","pricing_plan_id":"cebpf4jnsgd1na2vs0mg"},{"bike_id":"5cef5523-3c0b-4ad2-a048-4bb3abe2abb9","system_id":"levelo_inurba_marseille","lat":43.309589,"lon":5.390258,"is_reserved":false,"is_disabled":false,"rental_uris":{"android":"levelo://app?vid=5cef5523-3c0b-4ad2-a048-4bb3abe2abb9","ios":"levelo://app?vid=5cef5523-3c0b-4ad2-a048-4bb3abe2abb9"},"vehicle_type_id":"4","last_reported":1717348001,"current_range_meters":24800,"station_id":"ce4bgup2rcd13ifvqco0","pricing_plan_id":"cebpf4jnsgd1na2vs0mg"},{"bike_id":"fd7dd085-8c30-4d40-9c88-5849344cbde7","system_id":"levelo_inurba_marseille","lat":43.317557,"lon":5.390173,"is_reserved":false,"is_disabled":false,"rental_uris":{"android":"levelo://app?vid=fd7dd085-8c30-4d40-9c88-5849344cbde7","ios":"levelo://app?vid=fd7dd085-8c30-4d40-9c88-5849344cbde7"},"vehicle_type_id":"4","last_reported":1717348001,"current_range_meters":2000,"station_id":"ce4bhqp2rcd13ifvqhng","pricing_plan_id":"cebpf4jnsgd1na2vs0mg"},{"bike_id":"bf2359f5-2853-452f-adda-dc45eb4729f3","system_id":"levelo_inurba_marseille","lat":43.309589,"lon":5.390258,"is_reserved":false,"is_disabled":false,"rental_uris":{"android":"levelo://app?vid=bf2359f5-2853-452f-adda-dc45eb4729f3","ios":"levelo://app?vid=bf2359f5-2853-452f-adda-dc45eb4729f3"},"vehicle_type_id":"4","last_reported":1717348001,"current_range_meters":4000,"station_id":"ce4bgup2rcd13ifvqco0","pricing_plan_id":"cebpf4jnsgd1na2vs0mg"},{"bike_id":"c2e43d2d-81e8-48ed-80d3-473e5c0f8d0f","system_id":"levelo_inurba_marseille","lat":43.309589,"lon":5.390258,"is_reserved":false,"is_disabled":false,"rental_uris":{"android":"levelo://app?vid=c2e43d2d-81e8-48ed-80d3-473e5c0f8d0f","ios":"levelo://app?vid=c2e43d2d-81e8-48ed-80d3-473e5c0f8d0f"},"vehicle_type_id":"4","last_reported":1717348001,"current_range_meters":4400,"station_id":"ce4bgup2rcd13ifvqco0","pricing_plan_id":"cebpf4jnsgd1na2vs0mg"},{"bike_id":"368d8dc8-9c05-449b-b863-43e4e785269d","system_id":"levelo_inurba_marseille","lat":43.309589,"lon":5.390258,"is_reserved":false,"is_disabled":false,"rental_uris":{"android":"levelo://app?vid=368d8dc8-9c05-449b-b863-43e4e785269d","ios":"levelo://app?vid=368d8dc8-9c05-449b-b863-43e4e785269d"},"vehicle_type_id":"4","last_reported":1717348001,"current_range_meters":11600,"station_id":"ce4bgup2rcd13ifvqco0","pricing_plan_id":"cebpf4jnsgd1na2vs0mg"},{"bike_id":"264d5031-f029-42ba-8ab9-221c2f94c49b","system_id":"levelo_inurba_marseille","lat":43.317557,"lon":5.390173,"is_reserved":false,"is_disabled":false,"rental_uris":{"android":"levelo://app?vid=264d5031-f029-42ba-8ab9-221c2f94c49b","ios":"levelo://app?vid=264d5031-f029-42ba-8ab9-221c2f94c49b"},"vehicle_type_id":"4","last_reported":1717348001,"current_range_meters":7600,"station_id":"ce4bhqp2rcd13ifvqhng","pricing_plan_id":"cebpf4jnsgd1na2vs0mg"},{"bike_id":"0dc92469-42ed-4ca0-b961-d9d138e3d953","system_id":"levelo_inurba_marseille","lat":43.317557,"lon":5.390173,"is_reserved":false,"is_disabled":false,"rental_uris":{"android":"levelo://app?vid=0dc92469-42ed-4ca0-b961-d9d138e3d953","ios":"levelo://app?vid=0dc92469-42ed-4ca0-b961-d9d138e3d953"},"vehicle_type_id":"4","last_reported":1717348001,"current_range_meters":6000,"station_id":"ce4bhqp2rcd13ifvqhng","pricing_plan_id":"cebpf4jnsgd1na2vs0mg"},{"bike_id":"af027ea0-2350-43a9-80ed-1184f8607249","system_id":"levelo_inurba_marseille","lat":43.298037,"lon":5.381066,"is_reserved":false,"is_disabled":false,"rental_uris":{"android":"levelo://app?vid=af027ea0-2350-43a9-80ed-1184f8607249","ios":"levelo://app?vid=af027ea0-2350-43a9-80ed-1184f8607249"},"vehicle_type_id":"4","last_reported":1717348001,"current_range_meters":11600,"station_id":"ce4bgip2rcd13ifvqbb0","pricing_plan_id":"cebpf4jnsgd1na2vs0mg"},{"bike_id":"20289599-b64e-4a07-90f9-7d4539df3b66","system_id":"levelo_inurba_marseille","lat":43.32356,"lon":5.38657,"is_reserved":false,"is_disabled":false,"rental_uris":{"android":"levelo://app?vid=20289599-b64e-4a07-90f9-7d4539df3b66","ios":"levelo://app?vid=20289599-b64e-4a07-90f9-7d4539df3b66"},"vehicle_type_id":"4","last_reported":1717348001,"current_range_meters":14000,"station_id":"","pricing_plan_id":"cebpf4jnsgd1na2vs0mg"},{"bike_id":"58420730-7eb5-47d6-9a16-193dbf3d5669","system_id":"levelo_inurba_marseille","lat":43.298037,"lon":5.381066,"is_reserved":false,"is_disabled":false,"rental_uris":{"android":"levelo://app?vid=58420730-7eb5-47d6-9a16-193dbf3d5669","ios":"levelo://app?vid=58420730-7eb5-47d6-9a16-193dbf3d5669"},"vehicle_type_id":"4","last_reported":1717348001,"current_range_meters":25600,"station_id":"ce4bgip2rcd13ifvqbb0","pricing_plan_id":"cebpf4jnsgd1na2vs0mg"},{"bike_id":"0f9b19f1-ce10-4267-9c6d-df394791874c","system_id":"levelo_inurba_marseille","lat":43.295748,"lon":5.37522,"is_reserved":false,"is_disabled":false,"rental_uris":{"android":"levelo://app?vid=0f9b19f1-ce10-4267-9c6d-df394791874c","ios":"levelo://app?vid=0f9b19f1-ce10-4267-9c6d-df394791874c"},"vehicle_type_id":"4","last_reported":1717348001,"current_range_meters":24000,"station_id":"ce4bgh92rcd13ifvqb50","pricing_plan_id":"cebpf4jnsgd1na2vs0mg"},{"bike_id":"d84b96c8-52ab-4d72-a31d-326dfd3faf78","system_id":"levelo_inurba_marseille","lat":43.304274,"lon":5.388873,"is_reserved":false,"is_disabled":false,"rental_uris":{"android":"levelo://app?vid=d84b96c8-52ab-4d72-a31d-326dfd3faf78","ios":"levelo://app?vid=d84b96c8-52ab-4d72-a31d-326dfd3faf78"},"vehicle_type_id":"4","last_reported":1717348001,"current_range_meters":6800,"station_id":"ce4bgk12rcd13ifvqbi0","pricing_plan_id":"cebpf4jnsgd1na2vs0mg"},{"bike_id":"d7e5eeb1-9a98-4d90-9637-2a3e9ce3c946","system_id":"levelo_inurba_marseille","lat":43.304278,"lon":5.388868,"is_reserved":false,"is_disabled":false,"rental_uris":{"android":"levelo://app?vid=d7e5eeb1-9a98-4d90-9637-2a3e9ce3c946","ios":"levelo://app?vid=d7e5eeb1-9a98-4d90-9637-2a3e9ce3c946"},"vehicle_type_id":"4","last_reported":1717348001,"current_range_meters":17600,"station_id":"ce4bgk12rcd13ifvqbi0","pricing_plan_id":"cebpf4jnsgd1na2vs0mg"},{"bike_id":"eff3bbdb-3df4-4d40-a5e9-104d808967c4","system_id":"levelo_inurba_marseille","lat":43.296277,"lon":5.377108,"is_reserved":false,"is_disabled":false,"rental_uris":{"android":"levelo://app?vid=eff3bbdb-3df4-4d40-a5e9-104d808967c4","ios":"levelo://app?vid=eff3bbdb-3df4-4d40-a5e9-104d808967c4"},"vehicle_type_id":"4","last_reported":1717348001,"current_range_meters":1200,"station_id":"ce4bgi92rcd13ifvqb90","pricing_plan_id":"cebpf4jnsgd1na2vs0mg"},{"bike_id":"abb18f01-863d-4ba6-aa81-ac67a01322ff","system_id":"levelo_inurba_marseille","lat":43.295748,"lon":5.37522,"is_reserved":false,"is_disabled":false,"rental_uris":{"android":"levelo://app?vid=abb18f01-863d-4ba6-aa81-ac67a01322ff","ios":"levelo://app?vid=abb18f01-863d-4ba6-aa81-ac67a01322ff"},"vehicle_type_id":"4","last_reported":1717348001,"current_range_meters":31200,"station_id":"ce4bgh92rcd13ifvqb50","pricing_plan_id":"cebpf4jnsgd1na2vs0mg"},{"bike_id":"8bfd5bde-617d-41e6-8cbf-f59e586649ac","system_id":"levelo_inurba_marseille","lat":43.295748,"lon":5.37522,"is_reserved":false,"is_disabled":false,"rental_uris":{"android":"levelo://app?vid=8bfd5bde-617d-41e6-8cbf-f59e586649ac","ios":"levelo://app?vid=8bfd5bde-617d-41e6-8cbf-f59e586649ac"},"vehicle_type_id":"4","last_reported":1717348001,"current_range_meters":26800,"station_id":"ce4bgh92rcd13ifvqb50","pricing_plan_id":"cebpf4jnsgd1na2vs0mg"},{"bike_id":"dda622e1-c367-4310-abfd-0ad1c1f56496","system_id":"levelo_inurba_marseille","lat":43.298037,"lon":5.381066,"is_reserved":false,"is_disabled":false,"rental_uris":{"android":"levelo://app?vid=dda622e1-c367-4310-abfd-0ad1c1f56496","ios":"levelo://app?vid=dda622e1-c367-4310-abfd-0ad1c1f56496"},"vehicle_type_id":"4","last_reported":1717348001,"current_range_meters":18000,"station_id":"ce4bgip2rcd13ifvqbb0","pricing_plan_id":"cebpf4jnsgd1na2vs0mg"},{"bike_id":"c7a4513b-a250-4974-836e-341796c7a07c","system_id":"levelo_inurba_marseille","lat":43.30048,"lon":5.38544,"is_reserved":false,"is_disabled":false,"rental_uris":{"android":"levelo://app?vid=c7a4513b-a250-4974-836e-341796c7a07c","ios":"levelo://app?vid=c7a4513b-a250-4974-836e-341796c7a07c"},"vehicle_type_id":"4","last_reported":1717348001,"current_range_meters":20000,"station_id":"","pricing_plan_id":"cebpf4jnsgd1na2vs0mg"},{"bike_id":"941ae1ea-81c1-4f42-aa62-5cd94cb6d0aa","system_id":"levelo_inurba_marseille","lat":43.295279,"lon":5.375048,"is_reserved":false,"is_disabled":false,"rental_uris":{"android":"levelo://app?vid=941ae1ea-81c1-4f42-aa62-5cd94cb6d0aa","ios":"levelo://app?vid=941ae1ea-81c1-4f42-aa62-5cd94cb6d0aa"},"vehicle_type_id":"4","last_reported":1717348001,"current_range_meters":3600,"station_id":"ce4bgkp2rcd13ifvqbmg","pricing_plan_id":"cebpf4jnsgd1na2vs0mg"},{"bike_id":"ca86fdfc-2d48-4a7e-887f-a9474ade57d4","system_id":"levelo_inurba_marseille","lat":43.295279,"lon":5.375048,"is_reserved":false,"is_disabled":false,"rental_uris":{"android":"levelo://app?vid=ca86fdfc-2d48-4a7e-887f-a9474ade57d4","ios":"levelo://app?vid=ca86fdfc-2d48-4a7e-887f-a9474ade57d4"},"vehicle_type_id":"4","last_reported":1717348001,"current_range_meters":0,"station_id":"ce4bgkp2rcd13ifvqbmg","pricing_plan_id":"cebpf4jnsgd1na2vs0mg"},{"bike_id":"042bd596-535c-4f1e-940c-790c1e5a0326","system_id":"levelo_inurba_marseille","lat":43.295279,"lon":5.375048,"is_reserved":false,"is_disabled":false,"rental_uris":{"android":"levelo://app?vid=042bd596-535c-4f1e-940c-790c1e5a0326","ios":"levelo://app?vid=042bd596-535c-4f1e-940c-790c1e5a0326"},"vehicle_type_id":"4","last_reported":1717348001,"current_range_meters":8000,"station_id":"ce4bgkp2rcd13ifvqbmg","pricing_plan_id":"cebpf4jnsgd1na2vs0mg"},{"bike_id":"9c77b87e-67dc-46ed-b541-76fbc32b0c6b","system_id":"levelo_inurba_marseille","lat":43.299717,"lon":5.384845,"is_reserved":false,"is_disabled":false,"rental_uris":{"android":"levelo://app?vid=9c77b87e-67dc-46ed-b541-76fbc32b0c6b","ios":"levelo://app?vid=9c77b87e-67dc-46ed-b541-76fbc32b0c6b"},"vehicle_type_id":"4","last_reported":1717348001,"current_range_meters":7200,"station_id":"ce4bgj92rcd13ifvqbd0","pricing_plan_id":"cebpf4jnsgd1na2vs0mg"},{"bike_id":"6ea95b02-6019-4bdf-a3b7-ee0872fb8862","system_id":"levelo_inurba_marseille","lat":43.299717,"lon":5.384845,"is_reserved":false,"is_disabled":false,"rental_uris":{"android":"levelo://app?vid=6ea95b02-6019-4bdf-a3b7-ee0872fb8862","ios":"levelo://app?vid=6ea95b02-6019-4bdf-a3b7-ee0872fb8862"},"vehicle_type_id":"4","last_reported":1717348001,"current_range_meters":32000,"station_id":"ce4bgj92rcd13ifvqbd0","pricing_plan_id":"cebpf4jnsgd1na2vs0mg"},{"bike_id":"c9820db2-79aa-42dc-80cd-4fb1a1a5bc01","system_id":"levelo_inurba_marseille","lat":43.296533,"lon":5.381171,"is_reserved":false,"is_disabled":false,"rental_uris":{"android":"levelo://app?vid=c9820db2-79aa-42dc-80cd-4fb1a1a5bc01","ios":"levelo://app?vid=c9820db2-79aa-42dc-80cd-4fb1a1a5bc01"},"vehicle_type_id":"4","last_reported":1717348001,"current_range_meters":12000,"station_id":"ce4bgl12rcd13ifvqbo0","pricing_plan_id":"cebpf4jnsgd1na2vs0mg"},{"bike_id":"9acb491e-1894-4897-a5ff-a493317cbe92","system_id":"levelo_inurba_marseille","lat":43.32368,"lon":5.38871,"is_reserved":false,"is_disabled":false,"rental_uris":{"android":"levelo://app?vid=9acb491e-1894-4897-a5ff-a493317cbe92","ios":"levelo://app?vid=9acb491e-1894-4897-a5ff-a493317cbe92"},"vehicle_type_id":"4","last_reported":1717348001,"current_range_meters":0,"station_id":"ce4bhqp2rcd13ifvqhog","pricing_plan_id":"cebpf4jnsgd1na2vs0mg"},{"bike_id":"41d394ed-0981-4280-ab65-dbdc53f9cd59","system_id":"levelo_inurba_marseille","lat":43.32367,"lon":5.388836,"is_reserved":false,"is_disabled":false,"rental_uris":{"android":"levelo://app?vid=41d394ed-0981-4280-ab65-dbdc53f9cd59","ios":"levelo://app?vid=41d394ed-0981-4280-ab65-dbdc53f9cd59"},"vehicle_type_id":"4","last_reported":1717348001,"current_range_meters":13600,"station_id":"ce4bhqp2rcd13ifvqhog","pricing_plan_id":"cebpf4jnsgd1na2vs0mg"},{"bike_id":"134a765e-cf16-413b-b1b5-6bc90178e621","system_id":"levelo_inurba_marseille","lat":43.3236,"lon":5.38887,"is_reserved":false,"is_disabled":false,"rental_uris":{"android":"levelo://app?vid=134a765e-cf16-413b-b1b5-6bc90178e621","ios":"levelo://app?vid=134a765e-cf16-413b-b1b5-6bc90178e621"},"vehicle_type_id":"4","last_reported":1717348001,"current_range_meters":4000,"station_id":"ce4bhqp2rcd13ifvqhog","pricing_plan_id":"cebpf4jnsgd1na2vs0mg"},{"bike_id":"03525a6e-cff8-47f2-aede-2efc88168eee","system_id":"levelo_inurba_marseille","lat":43.32367,"lon":5.388836,"is_reserved":false,"is_disabled":false,"rental_uris":{"android":"levelo://app?vid=03525a6e-cff8-47f2-aede-2efc88168eee","ios":"levelo://app?vid=03525a6e-cff8-47f2-aede-2efc88168eee"},"vehicle_type_id":"4","last_reported":1717348001,"current_range_meters":7600,"station_id":"ce4bhqp2rcd13ifvqhog","pricing_plan_id":"cebpf4jnsgd1na2vs0mg"},{"bike_id":"e79cbb07-88eb-4c88-b0b4-c2129e0610ab","system_id":"levelo_inurba_marseille","lat":43.32367,"lon":5.388836,"is_reserved":false,"is_disabled":false,"rental_uris":{"android":"levelo://app?vid=e79cbb07-88eb-4c88-b0b4-c2129e0610ab","ios":"levelo://app?vid=e79cbb07-88eb-4c88-b0b4-c2129e0610ab"},"vehicle_type_id":"4","last_reported":1717348001,"current_range_meters":18400,"station_id":"ce4bhqp2rcd13ifvqhog","pricing_plan_id":"cebpf4jnsgd1na2vs0mg"},{"bike_id":"4b96aa0d-9c02-4c62-a514-decebbc21ab7","system_id":"levelo_inurba_marseille","lat":43.3237,"lon":5.388827,"is_reserved":false,"is_disabled":false,"rental_uris":{"android":"levelo://app?vid=4b96aa0d-9c02-4c62-a514-decebbc21ab7","ios":"levelo://app?vid=4b96aa0d-9c02-4c62-a514-decebbc21ab7"},"vehicle_type_id":"4","last_reported":1717348001,"current_range_meters":4000,"station_id":"ce4bhqp2rcd13ifvqhog","pricing_plan_id":"cebpf4jnsgd1na2vs0mg"},{"bike_id":"170d4069-32be-4981-ae03-3b44fae07d52","system_id":"levelo_inurba_marseille","lat":43.32367,"lon":5.388836,"is_reserved":false,"is_disabled":false,"rental_uris":{"android":"levelo://app?vid=170d4069-32be-4981-ae03-3b44fae07d52","ios":"levelo://app?vid=170d4069-32be-4981-ae03-3b44fae07d52"},"vehicle_type_id":"4","last_reported":1717348001,"current_range_meters":3200,"station_id":"ce4bhqp2rcd13ifvqhog","pricing_plan_id":"cebpf4jnsgd1na2vs0mg"},{"bike_id":"6f10adf0-7f94-41ea-a6a1-ad68adb07991","system_id":"levelo_inurba_marseille","lat":43.32367,"lon":5.388836,"is_reserved":false,"is_disabled":false,"rental_uris":{"android":"levelo://app?vid=6f10adf0-7f94-41ea-a6a1-ad68adb07991","ios":"levelo://app?vid=6f10adf0-7f94-41ea-a6a1-ad68adb07991"},"vehicle_type_id":"4","last_reported":1717348001,"current_range_meters":5600,"station_id":"ce4bhqp2rcd13ifvqhog","pricing_plan_id":"cebpf4jnsgd1na2vs0mg"},{"bike_id":"0616d569-9674-4777-b01f-2876f04424e1","system_id":"levelo_inurba_marseille","lat":43.29277,"lon":5.36836,"is_reserved":false,"is_disabled":false,"rental_uris":{"android":"levelo://app?vid=0616d569-9674-4777-b01f-2876f04424e1","ios":"levelo://app?vid=0616d569-9674-4777-b01f-2876f04424e1"},"vehicle_type_id":"4","last_reported":1717348001,"current_range_meters":24400,"station_id":"ce4bhbp2rcd13ifvqesg","pricing_plan_id":"cebpf4jnsgd1na2vs0mg"},{"bike_id":"3f3ace39-f52d-4c7e-b932-3875fe10c077","system_id":"levelo_inurba_marseille","lat":43.292749,"lon":5.368402,"is_reserved":false,"is_disabled":false,"rental_uris":{"android":"levelo://app?vid=3f3ace39-f52d-4c7e-b932-3875fe10c077","ios":"levelo://app?vid=3f3ace39-f52d-4c7e-b932-3875fe10c077"},"vehicle_type_id":"4","last_reported":1717348001,"current_range_meters":9200,"station_id":"ce4bhbp2rcd13ifvqesg","pricing_plan_id":"cebpf4jnsgd1na2vs0mg"},{"bike_id":"d29312ed-0226-4772-835c-be73390c18b4","system_id":"levelo_inurba_marseille","lat":43.293249,"lon":5.371578,"is_reserved":false,"is_disabled":false,"rental_uris":{"android":"levelo://app?vid=d29312ed-0226-4772-835c-be73390c18b4","ios":"levelo://app?vid=d29312ed-0226-4772-835c-be73390c18b4"},"vehicle_type_id":"4","last_reported":1717348001,"current_range_meters":7600,"station_id":"ce4bgh92rcd13ifvqb40","pricing_plan_id":"cebpf4jnsgd1na2vs0mg"},{"bike_id":"29f6604b-a94b-4b22-817c-2aa94cba2f84","system_id":"levelo_inurba_marseille","lat":43.293249,"lon":5.371578,"is_reserved":false,"is_disabled":false,"rental_uris":{"android":"levelo://app?vid=29f6604b-a94b-4b22-817c-2aa94cba2f84","ios":"levelo://app?vid=29f6604b-a94b-4b22-817c-2aa94cba2f84"},"vehicle_type_id":"4","last_reported":1717348001,"current_range_meters":10000,"station_id":"ce4bgh92rcd13ifvqb40","pricing_plan_id":"cebpf4jnsgd1na2vs0mg"},{"bike_id":"9820e07c-e346-4608-8dd9-725936c5742d","system_id":"levelo_inurba_marseille","lat":43.292505,"lon":5.366318,"is_reserved":false,"is_disabled":false,"rental_uris":{"android":"levelo://app?vid=9820e07c-e346-4608-8dd9-725936c5742d","ios":"levelo://app?vid=9820e07c-e346-4608-8dd9-725936c5742d"},"vehicle_type_id":"4","last_reported":1717348001,"current_range_meters":10400,"station_id":"","pricing_plan_id":"cebpf4jnsgd1na2vs0mg"},{"bike_id":"177f5664-4895-4faa-afe4-a54e00059a48","system_id":"levelo_inurba_marseille","lat":43.293009,"lon":5.374584,"is_reserved":false,"is_disabled":false,"rental_uris":{"android":"levelo://app?vid=177f5664-4895-4faa-afe4-a54e00059a48","ios":"levelo://app?vid=177f5664-4895-4faa-afe4-a54e00059a48"},"vehicle_type_id":"4","last_reported":1717348001,"current_range_meters":2000,"station_id":"ce4bgi12rcd13ifvqb70","pricing_plan_id":"cebpf4jnsgd1na2vs0mg"},{"bike_id":"babb3e73-19ba-4dc1-85b6-21bbe3734247","system_id":"levelo_inurba_marseille","lat":43.305994,"lon":5.393687,"is_reserved":false,"is_disabled":false,"rental_uris":{"android":"levelo://app?vid=babb3e73-19ba-4dc1-85b6-21bbe3734247","ios":"levelo://app?vid=babb3e73-19ba-4dc1-85b6-21bbe3734247"},"vehicle_type_id":"4","last_reported":1717348001,"current_range_meters":0,"station_id":"ce4bh0p2rcd13ifvqd80","pricing_plan_id":"cebpf4jnsgd1na2vs0mg"},{"bike_id":"0a60a8ff-0229-4d56-a73e-e803fe55457c","system_id":"levelo_inurba_marseille","lat":43.29296,"lon":5.37463,"is_reserved":false,"is_disabled":false,"rental_uris":{"android":"levelo://app?vid=0a60a8ff-0229-4d56-a73e-e803fe55457c","ios":"levelo://app?vid=0a60a8ff-0229-4d56-a73e-e803fe55457c"},"vehicle_type_id":"4","last_reported":1717348001,"current_range_meters":16000,"station_id":"","pricing_plan_id":"cebpf4jnsgd1na2vs0mg"},{"bike_id":"3a8555aa-66d8-4d86-8418-f0ecbb40a3fa","system_id":"levelo_inurba_marseille","lat":43.30587,"lon":5.3936,"is_reserved":false,"is_disabled":false,"rental_uris":{"android":"levelo://app?vid=3a8555aa-66d8-4d86-8418-f0ecbb40a3fa","ios":"levelo://app?vid=3a8555aa-66d8-4d86-8418-f0ecbb40a3fa"},"vehicle_type_id":"4","last_reported":1717348001,"current_range_meters":21600,"station_id":"","pricing_plan_id":"cebpf4jnsgd1na2vs0mg"},{"bike_id":"dc2d8fd8-236f-4f82-9ca1-ed7c6f4a8ff2","system_id":"levelo_inurba_marseille","lat":43.293009,"lon":5.374584,"is_reserved":false,"is_disabled":false,"rental_uris":{"android":"levelo://app?vid=dc2d8fd8-236f-4f82-9ca1-ed7c6f4a8ff2","ios":"levelo://app?vid=dc2d8fd8-236f-4f82-9ca1-ed7c6f4a8ff2"},"vehicle_type_id":"4","last_reported":1717348001,"current_range_meters":3600,"station_id":"ce4bgi12rcd13ifvqb70","pricing_plan_id":"cebpf4jnsgd1na2vs0mg"},{"bike_id":"9c002231-54a1-4a13-8c21-ce022d25f4c1","system_id":"levelo_inurba_marseille","lat":43.309038,"lon":5.396546,"is_reserved":false,"is_disabled":false,"rental_uris":{"android":"levelo://app?vid=9c002231-54a1-4a13-8c21-ce022d25f4c1","ios":"levelo://app?vid=9c002231-54a1-4a13-8c21-ce022d25f4c1"},"vehicle_type_id":"4","last_reported":1717348001,"current_range_meters":11200,"station_id":"ce4bh012rcd13ifvqcv0","pricing_plan_id":"cebpf4jnsgd1na2vs0mg"},{"bike_id":"fe7ade91-66c0-487c-b876-d03307064246","system_id":"levelo_inurba_marseille","lat":43.292311,"lon":5.360731,"is_reserved":false,"is_disabled":false,"rental_uris":{"android":"levelo://app?vid=fe7ade91-66c0-487c-b876-d03307064246","ios":"levelo://app?vid=fe7ade91-66c0-487c-b876-d03307064246"},"vehicle_type_id":"4","last_reported":1717348001,"current_range_meters":15200,"station_id":"ce4bhbh2rcd13ifvqeqg","pricing_plan_id":"cebpf4jnsgd1na2vs0mg"},{"bike_id":"ad56b84c-4e09-459e-8bc4-e7282f8d4a6c","system_id":"levelo_inurba_marseille","lat":43.298764,"lon":5.388973,"is_reserved":false,"is_disabled":false,"rental_uris":{"android":"levelo://app?vid=ad56b84c-4e09-459e-8bc4-e7282f8d4a6c","ios":"levelo://app?vid=ad56b84c-4e09-459e-8bc4-e7282f8d4a6c"},"vehicle_type_id":"4","last_reported":1717348001,"current_range_meters":8400,"station_id":"ce4bh392rcd13ifvqdl0","pricing_plan_id":"cebpf4jnsgd1na2vs0mg"},{"bike_id":"e53b31de-2a7c-45e8-8bdf-969b1ce506b5","system_id":"levelo_inurba_marseille","lat":43.293009,"lon":5.374584,"is_reserved":false,"is_disabled":false,"rental_uris":{"android":"levelo://app?vid=e53b31de-2a7c-45e8-8bdf-969b1ce506b5","ios":"levelo://app?vid=e53b31de-2a7c-45e8-8bdf-969b1ce506b5"},"vehicle_type_id":"4","last_reported":1717348001,"current_range_meters":19200,"station_id":"ce4bgi12rcd13ifvqb70","pricing_plan_id":"cebpf4jnsgd1na2vs0mg"},{"bike_id":"eb06b156-3a15-4564-85a1-dbab686d5aaf","system_id":"levelo_inurba_marseille","lat":43.291675,"lon":5.371583,"is_reserved":false,"is_disabled":false,"rental_uris":{"android":"levelo://app?vid=eb06b156-3a15-4564-85a1-dbab686d5aaf","ios":"levelo://app?vid=eb06b156-3a15-4564-85a1-dbab686d5aaf"},"vehicle_type_id":"4","last_reported":1717348001,"current_range_meters":0,"station_id":"ce4bha92rcd13ifvqeh0","pricing_plan_id":"cebpf4jnsgd1na2vs0mg"},{"bike_id":"5f12215c-c96f-4db0-a11a-8cea7822ff4c","system_id":"levelo_inurba_marseille","lat":43.291671,"lon":5.371575,"is_reserved":false,"is_disabled":false,"rental_uris":{"android":"levelo://app?vid=5f12215c-c96f-4db0-a11a-8cea7822ff4c","ios":"levelo://app?vid=5f12215c-c96f-4db0-a11a-8cea7822ff4c"},"vehicle_type_id":"4","last_reported":1717348001,"current_range_meters":18000,"station_id":"ce4bha92rcd13ifvqeh0","pricing_plan_id":"cebpf4jnsgd1na2vs0mg"},{"bike_id":"a0a18273-496f-4e63-921f-09b6de9f7b7d","system_id":"levelo_inurba_marseille","lat":43.298681,"lon":5.397225,"is_reserved":false,"is_disabled":false,"rental_uris":{"android":"levelo://app?vid=a0a18273-496f-4e63-921f-09b6de9f7b7d","ios":"levelo://app?vid=a0a18273-496f-4e63-921f-09b6de9f7b7d"},"vehicle_type_id":"4","last_reported":1717348001,"current_range_meters":21600,"station_id":"ce4bh0h2rcd13ifvqd50","pricing_plan_id":"cebpf4jnsgd1na2vs0mg"},{"bike_id":"67df5e32-bf62-406b-9715-0b4f7348f322","system_id":"levelo_inurba_marseille","lat":43.309038,"lon":5.396546,"is_reserved":false,"is_disabled":false,"rental_uris":{"android":"levelo://app?vid=67df5e32-bf62-406b-9715-0b4f7348f322","ios":"levelo://app?vid=67df5e32-bf62-406b-9715-0b4f7348f322"},"vehicle_type_id":"4","last_reported":1717348001,"current_range_meters":22400,"station_id":"ce4bh012rcd13ifvqcv0","pricing_plan_id":"cebpf4jnsgd1na2vs0mg"},{"bike_id":"88d85188-9462-4941-8600-f60d2bfd0bdf","system_id":"levelo_inurba_marseille","lat":43.3132,"lon":5.39688,"is_reserved":false,"is_disabled":false,"rental_uris":{"android":"levelo://app?vid=88d85188-9462-4941-8600-f60d2bfd0bdf","ios":"levelo://app?vid=88d85188-9462-4941-8600-f60d2bfd0bdf"},"vehicle_type_id":"4","last_reported":1717348001,"current_range_meters":18400,"station_id":"","pricing_plan_id":"cebpf4jnsgd1na2vs0mg"},{"bike_id":"4d3c82a3-c6c6-4d5c-a61a-301f82f9bcdc","system_id":"levelo_inurba_marseille","lat":43.31333,"lon":5.39692,"is_reserved":false,"is_disabled":false,"rental_uris":{"android":"levelo://app?vid=4d3c82a3-c6c6-4d5c-a61a-301f82f9bcdc","ios":"levelo://app?vid=4d3c82a3-c6c6-4d5c-a61a-301f82f9bcdc"},"vehicle_type_id":"4","last_reported":1717348001,"current_range_meters":27600,"station_id":"ce4bgvp2rcd13ifvqcu0","pricing_plan_id":"cebpf4jnsgd1na2vs0mg"},{"bike_id":"1ab75fb1-bca7-45f8-8c97-fce9016673c5","system_id":"levelo_inurba_marseille","lat":43.309038,"lon":5.396546,"is_reserved":false,"is_disabled":false,"rental_uris":{"android":"levelo://app?vid=1ab75fb1-bca7-45f8-8c97-fce9016673c5","ios":"levelo://app?vid=1ab75fb1-bca7-45f8-8c97-fce9016673c5"},"vehicle_type_id":"4","last_reported":1717348001,"current_range_meters":14400,"station_id":"ce4bh012rcd13ifvqcv0","pricing_plan_id":"cebpf4jnsgd1na2vs0mg"},{"bike_id":"e63f6eb7-d9d4-495e-b2b0-e178da375330","system_id":"levelo_inurba_marseille","lat":43.308551,"lon":5.396409,"is_reserved":false,"is_disabled":false,"rental_uris":{"android":"levelo://app?vid=e63f6eb7-d9d4-495e-b2b0-e178da375330","ios":"levelo://app?vid=e63f6eb7-d9d4-495e-b2b0-e178da375330"},"vehicle_type_id":"4","last_reported":1717348001,"current_range_meters":5200,"station_id":"","pricing_plan_id":"cebpf4jnsgd1na2vs0mg"},{"bike_id":"ff32b272-df94-4dac-9db4-367cdf9a52b7","system_id":"levelo_inurba_marseille","lat":43.31328,"lon":5.39697,"is_reserved":false,"is_disabled":false,"rental_uris":{"android":"levelo://app?vid=ff32b272-df94-4dac-9db4-367cdf9a52b7","ios":"levelo://app?vid=ff32b272-df94-4dac-9db4-367cdf9a52b7"},"vehicle_type_id":"4","last_reported":1717348001,"current_range_meters":10400,"station_id":"","pricing_plan_id":"cebpf4jnsgd1na2vs0mg"},{"bike_id":"7a619e24-770b-40cb-950f-f6703f3ae0c1","system_id":"levelo_inurba_marseille","lat":43.309047,"lon":5.396551,"is_reserved":false,"is_disabled":false,"rental_uris":{"android":"levelo://app?vid=7a619e24-770b-40cb-950f-f6703f3ae0c1","ios":"levelo://app?vid=7a619e24-770b-40cb-950f-f6703f3ae0c1"},"vehicle_type_id":"4","last_reported":1717348001,"current_range_meters":15600,"station_id":"ce4bh012rcd13ifvqcv0","pricing_plan_id":"cebpf4jnsgd1na2vs0mg"},{"bike_id":"5c49fed4-5274-4457-b368-4a3792eec1c6","system_id":"levelo_inurba_marseille","lat":43.309038,"lon":5.396546,"is_reserved":false,"is_disabled":false,"rental_uris":{"android":"levelo://app?vid=5c49fed4-5274-4457-b368-4a3792eec1c6","ios":"levelo://app?vid=5c49fed4-5274-4457-b368-4a3792eec1c6"},"vehicle_type_id":"4","last_reported":1717348001,"current_range_meters":12000,"station_id":"ce4bh012rcd13ifvqcv0","pricing_plan_id":"cebpf4jnsgd1na2vs0mg"},{"bike_id":"b087948c-74b0-41d3-af11-f011327b8779","system_id":"levelo_inurba_marseille","lat":43.29537,"lon":5.38538,"is_reserved":false,"is_disabled":false,"rental_uris":{"android":"levelo://app?vid=b087948c-74b0-41d3-af11-f011327b8779","ios":"levelo://app?vid=b087948c-74b0-41d3-af11-f011327b8779"},"vehicle_type_id":"4","last_reported":1717348001,"current_range_meters":29600,"station_id":"ce4bgih2rcd13ifvqba0","pricing_plan_id":"cebpf4jnsgd1na2vs0mg"},{"bike_id":"e6b851dc-68b6-47b8-9f3a-3ec80018f39b","system_id":"levelo_inurba_marseille","lat":43.29529,"lon":5.385581,"is_reserved":false,"is_disabled":false,"rental_uris":{"android":"levelo://app?vid=e6b851dc-68b6-47b8-9f3a-3ec80018f39b","ios":"levelo://app?vid=e6b851dc-68b6-47b8-9f3a-3ec80018f39b"},"vehicle_type_id":"4","last_reported":1717348001,"current_range_meters":12400,"station_id":"ce4bgih2rcd13ifvqba0","pricing_plan_id":"cebpf4jnsgd1na2vs0mg"},{"bike_id":"417f76a2-f404-4d3c-95c0-c05996d23091","system_id":"levelo_inurba_marseille","lat":43.29534,"lon":5.3854,"is_reserved":false,"is_disabled":false,"rental_uris":{"android":"levelo://app?vid=417f76a2-f404-4d3c-95c0-c05996d23091","ios":"levelo://app?vid=417f76a2-f404-4d3c-95c0-c05996d23091"},"vehicle_type_id":"4","last_reported":1717348001,"current_range_meters":25200,"station_id":"ce4bgih2rcd13ifvqba0","pricing_plan_id":"cebpf4jnsgd1na2vs0mg"},{"bike_id":"93df4ab7-311c-4047-82d0-266fedec7cb7","system_id":"levelo_inurba_marseille","lat":43.29535,"lon":5.38542,"is_reserved":false,"is_disabled":false,"rental_uris":{"android":"levelo://app?vid=93df4ab7-311c-4047-82d0-266fedec7cb7","ios":"levelo://app?vid=93df4ab7-311c-4047-82d0-266fedec7cb7"},"vehicle_type_id":"4","last_reported":1717348001,"current_range_meters":14800,"station_id":"ce4bgih2rcd13ifvqba0","pricing_plan_id":"cebpf4jnsgd1na2vs0mg"},{"bike_id":"9cf0532b-98a1-42da-b52d-971459a8efc2","system_id":"levelo_inurba_marseille","lat":43.29529,"lon":5.385581,"is_reserved":false,"is_disabled":false,"rental_uris":{"android":"levelo://app?vid=9cf0532b-98a1-42da-b52d-971459a8efc2","ios":"levelo://app?vid=9cf0532b-98a1-42da-b52d-971459a8efc2"},"vehicle_type_id":"4","last_reported":1717348001,"current_range_meters":15200,"station_id":"ce4bgih2rcd13ifvqba0","pricing_plan_id":"cebpf4jnsgd1na2vs0mg"},{"bike_id":"d0df3d28-3331-4e0a-a7f8-26e1c54c67a5","system_id":"levelo_inurba_marseille","lat":43.29529,"lon":5.385581,"is_reserved":false,"is_disabled":false,"rental_uris":{"android":"levelo://app?vid=d0df3d28-3331-4e0a-a7f8-26e1c54c67a5","ios":"levelo://app?vid=d0df3d28-3331-4e0a-a7f8-26e1c54c67a5"},"vehicle_type_id":"4","last_reported":1717348001,"current_range_meters":17600,"station_id":"ce4bgih2rcd13ifvqba0","pricing_plan_id":"cebpf4jnsgd1na2vs0mg"},{"bike_id":"a5cd99cf-e0a5-4b51-9464-2fd48cbb5f8a","system_id":"levelo_inurba_marseille","lat":43.29529,"lon":5.385581,"is_reserved":false,"is_disabled":false,"rental_uris":{"android":"levelo://app?vid=a5cd99cf-e0a5-4b51-9464-2fd48cbb5f8a","ios":"levelo://app?vid=a5cd99cf-e0a5-4b51-9464-2fd48cbb5f8a"},"vehicle_type_id":"4","last_reported":1717348001,"current_range_meters":5200,"station_id":"ce4bgih2rcd13ifvqba0","pricing_plan_id":"cebpf4jnsgd1na2vs0mg"},{"bike_id":"92aee45f-6975-466c-8099-f510c6669338","system_id":"levelo_inurba_marseille","lat":43.29529,"lon":5.385581,"is_reserved":false,"is_disabled":false,"rental_uris":{"android":"levelo://app?vid=92aee45f-6975-466c-8099-f510c6669338","ios":"levelo://app?vid=92aee45f-6975-466c-8099-f510c6669338"},"vehicle_type_id":"4","last_reported":1717348001,"current_range_meters":14400,"station_id":"ce4bgih2rcd13ifvqba0","pricing_plan_id":"cebpf4jnsgd1na2vs0mg"},{"bike_id":"41be1cd5-ee19-4ea4-8569-f3ebe41ae9d3","system_id":"levelo_inurba_marseille","lat":43.295327,"lon":5.385524,"is_reserved":false,"is_disabled":false,"rental_uris":{"android":"levelo://app?vid=41be1cd5-ee19-4ea4-8569-f3ebe41ae9d3","ios":"levelo://app?vid=41be1cd5-ee19-4ea4-8569-f3ebe41ae9d3"},"vehicle_type_id":"4","last_reported":1717348001,"current_range_meters":16000,"station_id":"ce4bgih2rcd13ifvqba0","pricing_plan_id":"cebpf4jnsgd1na2vs0mg"},{"bike_id":"31c2d018-42e7-461f-823c-3366ad68faab","system_id":"levelo_inurba_marseille","lat":43.29529,"lon":5.385581,"is_reserved":false,"is_disabled":false,"rental_uris":{"android":"levelo://app?vid=31c2d018-42e7-461f-823c-3366ad68faab","ios":"levelo://app?vid=31c2d018-42e7-461f-823c-3366ad68faab"},"vehicle_type_id":"4","last_reported":1717348001,"current_range_meters":1200,"station_id":"ce4bgih2rcd13ifvqba0","pricing_plan_id":"cebpf4jnsgd1na2vs0mg"},{"bike_id":"f23b74fc-c518-4320-88d8-85c75887a0bd","system_id":"levelo_inurba_marseille","lat":43.29529,"lon":5.385581,"is_reserved":false,"is_disabled":false,"rental_uris":{"android":"levelo://app?vid=f23b74fc-c518-4320-88d8-85c75887a0bd","ios":"levelo://app?vid=f23b74fc-c518-4320-88d8-85c75887a0bd"},"vehicle_type_id":"4","last_reported":1717348001,"current_range_meters":14400,"station_id":"ce4bgih2rcd13ifvqba0","pricing_plan_id":"cebpf4jnsgd1na2vs0mg"},{"bike_id":"d9361ee0-5203-4aa3-935c-b259085dc1da","system_id":"levelo_inurba_marseille","lat":43.290779,"lon":5.371482,"is_reserved":false,"is_disabled":false,"rental_uris":{"android":"levelo://app?vid=d9361ee0-5203-4aa3-935c-b259085dc1da","ios":"levelo://app?vid=d9361ee0-5203-4aa3-935c-b259085dc1da"},"vehicle_type_id":"4","last_reported":1717348001,"current_range_meters":12800,"station_id":"ce4bh5p2rcd13ifvqe4g","pricing_plan_id":"cebpf4jnsgd1na2vs0mg"},{"bike_id":"756a8e31-a29c-4eed-9787-408e128e717d","system_id":"levelo_inurba_marseille","lat":43.290779,"lon":5.371482,"is_reserved":false,"is_disabled":false,"rental_uris":{"android":"levelo://app?vid=756a8e31-a29c-4eed-9787-408e128e717d","ios":"levelo://app?vid=756a8e31-a29c-4eed-9787-408e128e717d"},"vehicle_type_id":"4","last_reported":1717348001,"current_range_meters":12800,"station_id":"ce4bh5p2rcd13ifvqe4g","pricing_plan_id":"cebpf4jnsgd1na2vs0mg"},{"bike_id":"4e05977a-e4c5-4e6c-802b-3c770861ea06","system_id":"levelo_inurba_marseille","lat":43.290779,"lon":5.371482,"is_reserved":false,"is_disabled":false,"rental_uris":{"android":"levelo://app?vid=4e05977a-e4c5-4e6c-802b-3c770861ea06","ios":"levelo://app?vid=4e05977a-e4c5-4e6c-802b-3c770861ea06"},"vehicle_type_id":"4","last_reported":1717348001,"current_range_meters":6000,"station_id":"ce4bh5p2rcd13ifvqe4g","pricing_plan_id":"cebpf4jnsgd1na2vs0mg"},{"bike_id":"4a35493f-328a-403b-a71e-20ff05a2bd27","system_id":"levelo_inurba_marseille","lat":43.302008,"lon":5.394694,"is_reserved":false,"is_disabled":false,"rental_uris":{"android":"levelo://app?vid=4a35493f-328a-403b-a71e-20ff05a2bd27","ios":"levelo://app?vid=4a35493f-328a-403b-a71e-20ff05a2bd27"},"vehicle_type_id":"4","last_reported":1717348001,"current_range_meters":30400,"station_id":"ce4bh0p2rcd13ifvqd70","pricing_plan_id":"cebpf4jnsgd1na2vs0mg"},{"bike_id":"847292f1-6e84-4a64-a5f6-71f26086a2d2","system_id":"levelo_inurba_marseille","lat":43.294627,"lon":5.386041,"is_reserved":false,"is_disabled":false,"rental_uris":{"android":"levelo://app?vid=847292f1-6e84-4a64-a5f6-71f26086a2d2","ios":"levelo://app?vid=847292f1-6e84-4a64-a5f6-71f26086a2d2"},"vehicle_type_id":"4","last_reported":1717348001,"current_range_meters":3200,"station_id":"ce4bh2h2rcd13ifvqdh0","pricing_plan_id":"cebpf4jnsgd1na2vs0mg"},{"bike_id":"2ae13a29-1ba0-4262-9973-6c1db50071f9","system_id":"levelo_inurba_marseille","lat":43.294597,"lon":5.386249,"is_reserved":false,"is_disabled":false,"rental_uris":{"android":"levelo://app?vid=2ae13a29-1ba0-4262-9973-6c1db50071f9","ios":"levelo://app?vid=2ae13a29-1ba0-4262-9973-6c1db50071f9"},"vehicle_type_id":"4","last_reported":1717348001,"current_range_meters":6000,"station_id":"ce4bh2h2rcd13ifvqdh0","pricing_plan_id":"cebpf4jnsgd1na2vs0mg"},{"bike_id":"2affae84-5fb5-4251-bc93-25fdca921632","system_id":"levelo_inurba_marseille","lat":43.290631,"lon":5.359244,"is_reserved":false,"is_disabled":false,"rental_uris":{"android":"levelo://app?vid=2affae84-5fb5-4251-bc93-25fdca921632","ios":"levelo://app?vid=2affae84-5fb5-4251-bc93-25fdca921632"},"vehicle_type_id":"4","last_reported":1717348001,"current_range_meters":10800,"station_id":"ce4bha92rcd13ifvqeg0","pricing_plan_id":"cebpf4jnsgd1na2vs0mg"},{"bike_id":"5eaf56d6-4e2d-480f-acac-df43f39122ef","system_id":"levelo_inurba_marseille","lat":43.290327,"lon":5.375711,"is_reserved":false,"is_disabled":false,"rental_uris":{"android":"levelo://app?vid=5eaf56d6-4e2d-480f-acac-df43f39122ef","ios":"levelo://app?vid=5eaf56d6-4e2d-480f-acac-df43f39122ef"},"vehicle_type_id":"4","last_reported":1717348001,"current_range_meters":27200,"station_id":"ce4bh692rcd13ifvqe90","pricing_plan_id":"cebpf4jnsgd1na2vs0mg"},{"bike_id":"cb673d92-09cb-4e6c-987f-ed00eabfb2f8","system_id":"levelo_inurba_marseille","lat":43.289988,"lon":5.372673,"is_reserved":false,"is_disabled":false,"rental_uris":{"android":"levelo://app?vid=cb673d92-09cb-4e6c-987f-ed00eabfb2f8","ios":"levelo://app?vid=cb673d92-09cb-4e6c-987f-ed00eabfb2f8"},"vehicle_type_id":"4","last_reported":1717348001,"current_range_meters":0,"station_id":"","pricing_plan_id":"cebpf4jnsgd1na2vs0mg"},{"bike_id":"0d9d9748-4e05-49ab-a69c-0aefe10e4a42","system_id":"levelo_inurba_marseille","lat":43.294206,"lon":5.386013,"is_reserved":false,"is_disabled":false,"rental_uris":{"android":"levelo://app?vid=0d9d9748-4e05-49ab-a69c-0aefe10e4a42","ios":"levelo://app?vid=0d9d9748-4e05-49ab-a69c-0aefe10e4a42"},"vehicle_type_id":"4","last_reported":1717348001,"current_range_meters":0,"station_id":"ce4bh2h2rcd13ifvqdh0","pricing_plan_id":"cebpf4jnsgd1na2vs0mg"},{"bike_id":"910c4fef-5224-498f-98f5-26dd6d7e987a","system_id":"levelo_inurba_marseille","lat":43.294196,"lon":5.386174,"is_reserved":false,"is_disabled":false,"rental_uris":{"android":"levelo://app?vid=910c4fef-5224-498f-98f5-26dd6d7e987a","ios":"levelo://app?vid=910c4fef-5224-498f-98f5-26dd6d7e987a"},"vehicle_type_id":"4","last_reported":1717348001,"current_range_meters":12400,"station_id":"ce4bh2h2rcd13ifvqdh0","pricing_plan_id":"cebpf4jnsgd1na2vs0mg"},{"bike_id":"bd83b6cd-d578-495b-a2c2-f8cf4065df6c","system_id":"levelo_inurba_marseille","lat":43.29421,"lon":5.38624,"is_reserved":false,"is_disabled":false,"rental_uris":{"android":"levelo://app?vid=bd83b6cd-d578-495b-a2c2-f8cf4065df6c","ios":"levelo://app?vid=bd83b6cd-d578-495b-a2c2-f8cf4065df6c"},"vehicle_type_id":"4","last_reported":1717348001,"current_range_meters":0,"station_id":"ce4bh2h2rcd13ifvqdh0","pricing_plan_id":"cebpf4jnsgd1na2vs0mg"},{"bike_id":"03b66644-eccf-409a-970a-661e62c086c2","system_id":"levelo_inurba_marseille","lat":43.29422,"lon":5.38626,"is_reserved":false,"is_disabled":false,"rental_uris":{"android":"levelo://app?vid=03b66644-eccf-409a-970a-661e62c086c2","ios":"levelo://app?vid=03b66644-eccf-409a-970a-661e62c086c2"},"vehicle_type_id":"4","last_reported":1717348001,"current_range_meters":4800,"station_id":"ce4bh2h2rcd13ifvqdh0","pricing_plan_id":"cebpf4jnsgd1na2vs0mg"},{"bike_id":"580131cd-1088-4958-aefc-a7594e72a11e","system_id":"levelo_inurba_marseille","lat":43.29419,"lon":5.38621,"is_reserved":false,"is_disabled":false,"rental_uris":{"android":"levelo://app?vid=580131cd-1088-4958-aefc-a7594e72a11e","ios":"levelo://app?vid=580131cd-1088-4958-aefc-a7594e72a11e"},"vehicle_type_id":"4","last_reported":1717348001,"current_range_meters":2400,"station_id":"ce4bh2h2rcd13ifvqdh0","pricing_plan_id":"cebpf4jnsgd1na2vs0mg"},{"bike_id":"10d2eb3d-c1c3-443f-8c1b-f61721da4626","system_id":"levelo_inurba_marseille","lat":43.294162,"lon":5.386292,"is_reserved":false,"is_disabled":false,"rental_uris":{"android":"levelo://app?vid=10d2eb3d-c1c3-443f-8c1b-f61721da4626","ios":"levelo://app?vid=10d2eb3d-c1c3-443f-8c1b-f61721da4626"},"vehicle_type_id":"4","last_reported":1717348001,"current_range_meters":3200,"station_id":"ce4bh2h2rcd13ifvqdh0","pricing_plan_id":"cebpf4jnsgd1na2vs0mg"},{"bike_id":"2299be20-4019-4bd8-bed8-5e2b18c97c89","system_id":"levelo_inurba_marseille","lat":43.29422,"lon":5.38628,"is_reserved":false,"is_disabled":false,"rental_uris":{"android":"levelo://app?vid=2299be20-4019-4bd8-bed8-5e2b18c97c89","ios":"levelo://app?vid=2299be20-4019-4bd8-bed8-5e2b18c97c89"},"vehicle_type_id":"4","last_reported":1717348001,"current_range_meters":0,"station_id":"ce4bh2h2rcd13ifvqdh0","pricing_plan_id":"cebpf4jnsgd1na2vs0mg"},{"bike_id":"1f559de1-384a-4ba6-acc8-c3b80a0aa8f7","system_id":"levelo_inurba_marseille","lat":43.29418,"lon":5.38624,"is_reserved":false,"is_disabled":false,"rental_uris":{"android":"levelo://app?vid=1f559de1-384a-4ba6-acc8-c3b80a0aa8f7","ios":"levelo://app?vid=1f559de1-384a-4ba6-acc8-c3b80a0aa8f7"},"vehicle_type_id":"4","last_reported":1717348001,"current_range_meters":4800,"station_id":"ce4bh2h2rcd13ifvqdh0","pricing_plan_id":"cebpf4jnsgd1na2vs0mg"},{"bike_id":"e6c0422f-49fe-4fc9-a83d-0b2f4029bf62","system_id":"levelo_inurba_marseille","lat":43.29418,"lon":5.38625,"is_reserved":false,"is_disabled":false,"rental_uris":{"android":"levelo://app?vid=e6c0422f-49fe-4fc9-a83d-0b2f4029bf62","ios":"levelo://app?vid=e6c0422f-49fe-4fc9-a83d-0b2f4029bf62"},"vehicle_type_id":"4","last_reported":1717348001,"current_range_meters":8400,"station_id":"ce4bh2h2rcd13ifvqdh0","pricing_plan_id":"cebpf4jnsgd1na2vs0mg"},{"bike_id":"6ea4c548-8a6e-4c25-bfbe-151e744026f5","system_id":"levelo_inurba_marseille","lat":43.294162,"lon":5.386292,"is_reserved":false,"is_disabled":false,"rental_uris":{"android":"levelo://app?vid=6ea4c548-8a6e-4c25-bfbe-151e744026f5","ios":"levelo://app?vid=6ea4c548-8a6e-4c25-bfbe-151e744026f5"},"vehicle_type_id":"4","last_reported":1717348001,"current_range_meters":8000,"station_id":"ce4bh2h2rcd13ifvqdh0","pricing_plan_id":"cebpf4jnsgd1na2vs0mg"},{"bike_id":"8e985b2d-d361-45c3-aae6-b4a9e53a86f3","system_id":"levelo_inurba_marseille","lat":43.294162,"lon":5.386292,"is_reserved":false,"is_disabled":false,"rental_uris":{"android":"levelo://app?vid=8e985b2d-d361-45c3-aae6-b4a9e53a86f3","ios":"levelo://app?vid=8e985b2d-d361-45c3-aae6-b4a9e53a86f3"},"vehicle_type_id":"4","last_reported":1717348001,"current_range_meters":17200,"station_id":"ce4bh2h2rcd13ifvqdh0","pricing_plan_id":"cebpf4jnsgd1na2vs0mg"},{"bike_id":"720bda4d-2e73-41c5-837f-698e60a98850","system_id":"levelo_inurba_marseille","lat":43.289422,"lon":5.36642,"is_reserved":false,"is_disabled":false,"rental_uris":{"android":"levelo://app?vid=720bda4d-2e73-41c5-837f-698e60a98850","ios":"levelo://app?vid=720bda4d-2e73-41c5-837f-698e60a98850"},"vehicle_type_id":"4","last_reported":1717348001,"current_range_meters":26800,"station_id":"ce4bhap2rcd13ifvqek0","pricing_plan_id":"cebpf4jnsgd1na2vs0mg"},{"bike_id":"12b6b8f7-19e6-48ec-9e0d-abe54f16ed07","system_id":"levelo_inurba_marseille","lat":43.289184,"lon":5.366408,"is_reserved":false,"is_disabled":false,"rental_uris":{"android":"levelo://app?vid=12b6b8f7-19e6-48ec-9e0d-abe54f16ed07","ios":"levelo://app?vid=12b6b8f7-19e6-48ec-9e0d-abe54f16ed07"},"vehicle_type_id":"4","last_reported":1717348001,"current_range_meters":14800,"station_id":"ce4bhap2rcd13ifvqek0","pricing_plan_id":"cebpf4jnsgd1na2vs0mg"},{"bike_id":"e06e3805-3e05-46a1-a8da-0f0ee7f91379","system_id":"levelo_inurba_marseille","lat":43.29414,"lon":5.3863,"is_reserved":false,"is_disabled":false,"rental_uris":{"android":"levelo://app?vid=e06e3805-3e05-46a1-a8da-0f0ee7f91379","ios":"levelo://app?vid=e06e3805-3e05-46a1-a8da-0f0ee7f91379"},"vehicle_type_id":"4","last_reported":1717348001,"current_range_meters":12000,"station_id":"ce4bh2h2rcd13ifvqdh0","pricing_plan_id":"cebpf4jnsgd1na2vs0mg"},{"bike_id":"58a176f2-83c4-412c-8cdd-7e260be386e7","system_id":"levelo_inurba_marseille","lat":43.289184,"lon":5.366408,"is_reserved":false,"is_disabled":false,"rental_uris":{"android":"levelo://app?vid=58a176f2-83c4-412c-8cdd-7e260be386e7","ios":"levelo://app?vid=58a176f2-83c4-412c-8cdd-7e260be386e7"},"vehicle_type_id":"4","last_reported":1717348001,"current_range_meters":8800,"station_id":"ce4bhap2rcd13ifvqek0","pricing_plan_id":"cebpf4jnsgd1na2vs0mg"},{"bike_id":"0d23c39d-8e28-4333-9e20-5788d8b8c636","system_id":"levelo_inurba_marseille","lat":43.289184,"lon":5.366408,"is_reserved":false,"is_disabled":false,"rental_uris":{"android":"levelo://app?vid=0d23c39d-8e28-4333-9e20-5788d8b8c636","ios":"levelo://app?vid=0d23c39d-8e28-4333-9e20-5788d8b8c636"},"vehicle_type_id":"4","last_reported":1717348001,"current_range_meters":8400,"station_id":"ce4bhap2rcd13ifvqek0","pricing_plan_id":"cebpf4jnsgd1na2vs0mg"},{"bike_id":"21d68d82-689c-453d-8247-73c603975f64","system_id":"levelo_inurba_marseille","lat":43.289397,"lon":5.364006,"is_reserved":false,"is_disabled":false,"rental_uris":{"android":"levelo://app?vid=21d68d82-689c-453d-8247-73c603975f64","ios":"levelo://app?vid=21d68d82-689c-453d-8247-73c603975f64"},"vehicle_type_id":"4","last_reported":1717348001,"current_range_meters":0,"station_id":"ce4bhc92rcd13ifvqetg","pricing_plan_id":"cebpf4jnsgd1na2vs0mg"},{"bike_id":"e4fd3833-b88f-42c8-9568-4a8c1a7b672f","system_id":"levelo_inurba_marseille","lat":43.289184,"lon":5.366408,"is_reserved":false,"is_disabled":false,"rental_uris":{"android":"levelo://app?vid=e4fd3833-b88f-42c8-9568-4a8c1a7b672f","ios":"levelo://app?vid=e4fd3833-b88f-42c8-9568-4a8c1a7b672f"},"vehicle_type_id":"4","last_reported":1717348001,"current_range_meters":16800,"station_id":"ce4bhap2rcd13ifvqek0","pricing_plan_id":"cebpf4jnsgd1na2vs0mg"},{"bike_id":"f7ee91ee-a783-4e94-aef0-ea6d52d7d2a1","system_id":"levelo_inurba_marseille","lat":43.29272,"lon":5.38423,"is_reserved":false,"is_disabled":false,"rental_uris":{"android":"levelo://app?vid=f7ee91ee-a783-4e94-aef0-ea6d52d7d2a1","ios":"levelo://app?vid=f7ee91ee-a783-4e94-aef0-ea6d52d7d2a1"},"vehicle_type_id":"4","last_reported":1717348001,"current_range_meters":15600,"station_id":"ce4bh692rcd13ifvqea0","pricing_plan_id":"cebpf4jnsgd1na2vs0mg"},{"bike_id":"176378c3-be77-4034-b313-a2e4b3333319","system_id":"levelo_inurba_marseille","lat":43.292644,"lon":5.384257,"is_reserved":false,"is_disabled":false,"rental_uris":{"android":"levelo://app?vid=176378c3-be77-4034-b313-a2e4b3333319","ios":"levelo://app?vid=176378c3-be77-4034-b313-a2e4b3333319"},"vehicle_type_id":"4","last_reported":1717348001,"current_range_meters":16000,"station_id":"ce4bh692rcd13ifvqea0","pricing_plan_id":"cebpf4jnsgd1na2vs0mg"},{"bike_id":"99901629-a8bf-4062-8d1b-3361a9385396","system_id":"levelo_inurba_marseille","lat":43.292644,"lon":5.384257,"is_reserved":false,"is_disabled":false,"rental_uris":{"android":"levelo://app?vid=99901629-a8bf-4062-8d1b-3361a9385396","ios":"levelo://app?vid=99901629-a8bf-4062-8d1b-3361a9385396"},"vehicle_type_id":"4","last_reported":1717348001,"current_range_meters":27600,"station_id":"ce4bh692rcd13ifvqea0","pricing_plan_id":"cebpf4jnsgd1na2vs0mg"},{"bike_id":"6b71caff-ea88-424c-9cf2-ff6c0ba5c146","system_id":"levelo_inurba_marseille","lat":43.292642,"lon":5.384254,"is_reserved":false,"is_disabled":false,"rental_uris":{"android":"levelo://app?vid=6b71caff-ea88-424c-9cf2-ff6c0ba5c146","ios":"levelo://app?vid=6b71caff-ea88-424c-9cf2-ff6c0ba5c146"},"vehicle_type_id":"4","last_reported":1717348001,"current_range_meters":28800,"station_id":"ce4bh692rcd13ifvqea0","pricing_plan_id":"cebpf4jnsgd1na2vs0mg"},{"bike_id":"03b9137a-9c8d-4f46-b14d-c03787dfd87e","system_id":"levelo_inurba_marseille","lat":43.292642,"lon":5.384254,"is_reserved":false,"is_disabled":false,"rental_uris":{"android":"levelo://app?vid=03b9137a-9c8d-4f46-b14d-c03787dfd87e","ios":"levelo://app?vid=03b9137a-9c8d-4f46-b14d-c03787dfd87e"},"vehicle_type_id":"4","last_reported":1717348001,"current_range_meters":800,"station_id":"ce4bh692rcd13ifvqea0","pricing_plan_id":"cebpf4jnsgd1na2vs0mg"},{"bike_id":"f9c45c5d-5b8a-4b5c-9ab9-d5c983690928","system_id":"levelo_inurba_marseille","lat":43.292644,"lon":5.384257,"is_reserved":false,"is_disabled":false,"rental_uris":{"android":"levelo://app?vid=f9c45c5d-5b8a-4b5c-9ab9-d5c983690928","ios":"levelo://app?vid=f9c45c5d-5b8a-4b5c-9ab9-d5c983690928"},"vehicle_type_id":"4","last_reported":1717348001,"current_range_meters":14400,"station_id":"ce4bh692rcd13ifvqea0","pricing_plan_id":"cebpf4jnsgd1na2vs0mg"},{"bike_id":"c63f4dc0-ded8-49b4-b961-340af751fe4a","system_id":"levelo_inurba_marseille","lat":43.292642,"lon":5.384254,"is_reserved":false,"is_disabled":false,"rental_uris":{"android":"levelo://app?vid=c63f4dc0-ded8-49b4-b961-340af751fe4a","ios":"levelo://app?vid=c63f4dc0-ded8-49b4-b961-340af751fe4a"},"vehicle_type_id":"4","last_reported":1717348001,"current_range_meters":1200,"station_id":"ce4bh692rcd13ifvqea0","pricing_plan_id":"cebpf4jnsgd1na2vs0mg"},{"bike_id":"f4099601-98f4-4e49-b39e-3c713535b0f3","system_id":"levelo_inurba_marseille","lat":43.292644,"lon":5.384257,"is_reserved":false,"is_disabled":false,"rental_uris":{"android":"levelo://app?vid=f4099601-98f4-4e49-b39e-3c713535b0f3","ios":"levelo://app?vid=f4099601-98f4-4e49-b39e-3c713535b0f3"},"vehicle_type_id":"4","last_reported":1717348001,"current_range_meters":20400,"station_id":"ce4bh692rcd13ifvqea0","pricing_plan_id":"cebpf4jnsgd1na2vs0mg"},{"bike_id":"50aa64e4-7a9c-4f60-bbe2-2a574640c9c0","system_id":"levelo_inurba_marseille","lat":43.29264,"lon":5.384362,"is_reserved":false,"is_disabled":false,"rental_uris":{"android":"levelo://app?vid=50aa64e4-7a9c-4f60-bbe2-2a574640c9c0","ios":"levelo://app?vid=50aa64e4-7a9c-4f60-bbe2-2a574640c9c0"},"vehicle_type_id":"4","last_reported":1717348001,"current_range_meters":21600,"station_id":"ce4bh692rcd13ifvqea0","pricing_plan_id":"cebpf4jnsgd1na2vs0mg"},{"bike_id":"c1ea5650-20bb-4f1b-ab9a-0c66008803c7","system_id":"levelo_inurba_marseille","lat":43.292642,"lon":5.384254,"is_reserved":false,"is_disabled":false,"rental_uris":{"android":"levelo://app?vid=c1ea5650-20bb-4f1b-ab9a-0c66008803c7","ios":"levelo://app?vid=c1ea5650-20bb-4f1b-ab9a-0c66008803c7"},"vehicle_type_id":"4","last_reported":1717348001,"current_range_meters":6400,"station_id":"ce4bh692rcd13ifvqea0","pricing_plan_id":"cebpf4jnsgd1na2vs0mg"},{"bike_id":"79481c53-2194-4aaf-b0a4-3b3b1778e12d","system_id":"levelo_inurba_marseille","lat":43.292642,"lon":5.384254,"is_reserved":false,"is_disabled":false,"rental_uris":{"android":"levelo://app?vid=79481c53-2194-4aaf-b0a4-3b3b1778e12d","ios":"levelo://app?vid=79481c53-2194-4aaf-b0a4-3b3b1778e12d"},"vehicle_type_id":"4","last_reported":1717348001,"current_range_meters":0,"station_id":"ce4bh692rcd13ifvqea0","pricing_plan_id":"cebpf4jnsgd1na2vs0mg"},{"bike_id":"27dcb9e8-7417-4b0c-a0cd-13bcdb938fe1","system_id":"levelo_inurba_marseille","lat":43.292644,"lon":5.384257,"is_reserved":false,"is_disabled":false,"rental_uris":{"android":"levelo://app?vid=27dcb9e8-7417-4b0c-a0cd-13bcdb938fe1","ios":"levelo://app?vid=27dcb9e8-7417-4b0c-a0cd-13bcdb938fe1"},"vehicle_type_id":"4","last_reported":1717348001,"current_range_meters":17200,"station_id":"ce4bh692rcd13ifvqea0","pricing_plan_id":"cebpf4jnsgd1na2vs0mg"},{"bike_id":"38064b92-593f-4af4-bd64-d7b1e1b5185a","system_id":"levelo_inurba_marseille","lat":43.292642,"lon":5.384254,"is_reserved":false,"is_disabled":false,"rental_uris":{"android":"levelo://app?vid=38064b92-593f-4af4-bd64-d7b1e1b5185a","ios":"levelo://app?vid=38064b92-593f-4af4-bd64-d7b1e1b5185a"},"vehicle_type_id":"4","last_reported":1717348001,"current_range_meters":26000,"station_id":"ce4bh692rcd13ifvqea0","pricing_plan_id":"cebpf4jnsgd1na2vs0mg"},{"bike_id":"06dcef17-7e22-479b-8082-a98fd29caec5","system_id":"levelo_inurba_marseille","lat":43.292634,"lon":5.38438,"is_reserved":false,"is_disabled":false,"rental_uris":{"android":"levelo://app?vid=06dcef17-7e22-479b-8082-a98fd29caec5","ios":"levelo://app?vid=06dcef17-7e22-479b-8082-a98fd29caec5"},"vehicle_type_id":"4","last_reported":1717348001,"current_range_meters":0,"station_id":"ce4bh692rcd13ifvqea0","pricing_plan_id":"cebpf4jnsgd1na2vs0mg"},{"bike_id":"eda1e853-73f0-48c8-b51e-161a2e3952a9","system_id":"levelo_inurba_marseille","lat":43.2927,"lon":5.38453,"is_reserved":false,"is_disabled":false,"rental_uris":{"android":"levelo://app?vid=eda1e853-73f0-48c8-b51e-161a2e3952a9","ios":"levelo://app?vid=eda1e853-73f0-48c8-b51e-161a2e3952a9"},"vehicle_type_id":"4","last_reported":1717348001,"current_range_meters":0,"station_id":"ce4bh692rcd13ifvqea0","pricing_plan_id":"cebpf4jnsgd1na2vs0mg"},{"bike_id":"0170cd19-8fe5-4dfe-9513-8ad1bcd115f9","system_id":"levelo_inurba_marseille","lat":43.29265,"lon":5.38445,"is_reserved":false,"is_disabled":false,"rental_uris":{"android":"levelo://app?vid=0170cd19-8fe5-4dfe-9513-8ad1bcd115f9","ios":"levelo://app?vid=0170cd19-8fe5-4dfe-9513-8ad1bcd115f9"},"vehicle_type_id":"4","last_reported":1717348001,"current_range_meters":0,"station_id":"ce4bh692rcd13ifvqea0","pricing_plan_id":"cebpf4jnsgd1na2vs0mg"},{"bike_id":"667e1632-0f56-4360-81c0-1d6cedf5bf15","system_id":"levelo_inurba_marseille","lat":43.292642,"lon":5.384254,"is_reserved":false,"is_disabled":false,"rental_uris":{"android":"levelo://app?vid=667e1632-0f56-4360-81c0-1d6cedf5bf15","ios":"levelo://app?vid=667e1632-0f56-4360-81c0-1d6cedf5bf15"},"vehicle_type_id":"4","last_reported":1717348001,"current_range_meters":4800,"station_id":"ce4bh692rcd13ifvqea0","pricing_plan_id":"cebpf4jnsgd1na2vs0mg"},{"bike_id":"c7339a13-d1e6-4c09-85a7-2c580bdad0d8","system_id":"levelo_inurba_marseille","lat":43.292644,"lon":5.384257,"is_reserved":false,"is_disabled":false,"rental_uris":{"android":"levelo://app?vid=c7339a13-d1e6-4c09-85a7-2c580bdad0d8","ios":"levelo://app?vid=c7339a13-d1e6-4c09-85a7-2c580bdad0d8"},"vehicle_type_id":"4","last_reported":1717348001,"current_range_meters":31600,"station_id":"ce4bh692rcd13ifvqea0","pricing_plan_id":"cebpf4jnsgd1na2vs0mg"},{"bike_id":"808fac07-a66b-4b2b-839c-6765ed6dcc4a","system_id":"levelo_inurba_marseille","lat":43.292642,"lon":5.384254,"is_reserved":false,"is_disabled":false,"rental_uris":{"android":"levelo://app?vid=808fac07-a66b-4b2b-839c-6765ed6dcc4a","ios":"levelo://app?vid=808fac07-a66b-4b2b-839c-6765ed6dcc4a"},"vehicle_type_id":"4","last_reported":1717348001,"current_range_meters":8800,"station_id":"ce4bh692rcd13ifvqea0","pricing_plan_id":"cebpf4jnsgd1na2vs0mg"},{"bike_id":"5045fc6f-cd5c-4f5d-b6ec-f4447e762c42","system_id":"levelo_inurba_marseille","lat":43.292642,"lon":5.384254,"is_reserved":false,"is_disabled":false,"rental_uris":{"android":"levelo://app?vid=5045fc6f-cd5c-4f5d-b6ec-f4447e762c42","ios":"levelo://app?vid=5045fc6f-cd5c-4f5d-b6ec-f4447e762c42"},"vehicle_type_id":"4","last_reported":1717348001,"current_range_meters":5200,"station_id":"ce4bh692rcd13ifvqea0","pricing_plan_id":"cebpf4jnsgd1na2vs0mg"},{"bike_id":"ededcf98-a8d9-4422-8c5f-5f6fdc42af9e","system_id":"levelo_inurba_marseille","lat":43.292642,"lon":5.384254,"is_reserved":false,"is_disabled":false,"rental_uris":{"android":"levelo://app?vid=ededcf98-a8d9-4422-8c5f-5f6fdc42af9e","ios":"levelo://app?vid=ededcf98-a8d9-4422-8c5f-5f6fdc42af9e"},"vehicle_type_id":"4","last_reported":1717348001,"current_range_meters":22000,"station_id":"ce4bh692rcd13ifvqea0","pricing_plan_id":"cebpf4jnsgd1na2vs0mg"},{"bike_id":"5d8001fc-c9f6-45a1-a9a2-81983e944bb3","system_id":"levelo_inurba_marseille","lat":43.290104,"lon":5.356111,"is_reserved":false,"is_disabled":false,"rental_uris":{"android":"levelo://app?vid=5d8001fc-c9f6-45a1-a9a2-81983e944bb3","ios":"levelo://app?vid=5d8001fc-c9f6-45a1-a9a2-81983e944bb3"},"vehicle_type_id":"4","last_reported":1717348001,"current_range_meters":4400,"station_id":"ce4bhb92rcd13ifvqen0","pricing_plan_id":"cebpf4jnsgd1na2vs0mg"},{"bike_id":"857617d0-3144-4607-a9fa-103dcb5411eb","system_id":"levelo_inurba_marseille","lat":43.292642,"lon":5.384254,"is_reserved":false,"is_disabled":false,"rental_uris":{"android":"levelo://app?vid=857617d0-3144-4607-a9fa-103dcb5411eb","ios":"levelo://app?vid=857617d0-3144-4607-a9fa-103dcb5411eb"},"vehicle_type_id":"4","last_reported":1717348001,"current_range_meters":23200,"station_id":"ce4bh692rcd13ifvqea0","pricing_plan_id":"cebpf4jnsgd1na2vs0mg"},{"bike_id":"e79ad575-3595-48da-bcab-012aa410bf2e","system_id":"levelo_inurba_marseille","lat":43.292644,"lon":5.384257,"is_reserved":false,"is_disabled":false,"rental_uris":{"android":"levelo://app?vid=e79ad575-3595-48da-bcab-012aa410bf2e","ios":"levelo://app?vid=e79ad575-3595-48da-bcab-012aa410bf2e"},"vehicle_type_id":"4","last_reported":1717348001,"current_range_meters":0,"station_id":"ce4bh692rcd13ifvqea0","pricing_plan_id":"cebpf4jnsgd1na2vs0mg"},{"bike_id":"ccf8b2fc-ec2f-4568-9ef0-01f307ee0ada","system_id":"levelo_inurba_marseille","lat":43.292644,"lon":5.384257,"is_reserved":false,"is_disabled":false,"rental_uris":{"android":"levelo://app?vid=ccf8b2fc-ec2f-4568-9ef0-01f307ee0ada","ios":"levelo://app?vid=ccf8b2fc-ec2f-4568-9ef0-01f307ee0ada"},"vehicle_type_id":"4","last_reported":1717348001,"current_range_meters":400,"station_id":"ce4bh692rcd13ifvqea0","pricing_plan_id":"cebpf4jnsgd1na2vs0mg"},{"bike_id":"30d18ddc-6999-4ca3-a394-15b86dff87a0","system_id":"levelo_inurba_marseille","lat":43.2926,"lon":5.38441,"is_reserved":false,"is_disabled":false,"rental_uris":{"android":"levelo://app?vid=30d18ddc-6999-4ca3-a394-15b86dff87a0","ios":"levelo://app?vid=30d18ddc-6999-4ca3-a394-15b86dff87a0"},"vehicle_type_id":"4","last_reported":1717348001,"current_range_meters":2800,"station_id":"ce4bh692rcd13ifvqea0","pricing_plan_id":"cebpf4jnsgd1na2vs0mg"},{"bike_id":"e46fe1b3-01b3-4d78-a897-ca4ca4c63ac1","system_id":"levelo_inurba_marseille","lat":43.292644,"lon":5.384257,"is_reserved":false,"is_disabled":false,"rental_uris":{"android":"levelo://app?vid=e46fe1b3-01b3-4d78-a897-ca4ca4c63ac1","ios":"levelo://app?vid=e46fe1b3-01b3-4d78-a897-ca4ca4c63ac1"},"vehicle_type_id":"4","last_reported":1717348001,"current_range_meters":5600,"station_id":"ce4bh692rcd13ifvqea0","pricing_plan_id":"cebpf4jnsgd1na2vs0mg"},{"bike_id":"f81bbc14-ef49-436e-be95-1a39d83446de","system_id":"levelo_inurba_marseille","lat":43.29263,"lon":5.38449,"is_reserved":false,"is_disabled":false,"rental_uris":{"android":"levelo://app?vid=f81bbc14-ef49-436e-be95-1a39d83446de","ios":"levelo://app?vid=f81bbc14-ef49-436e-be95-1a39d83446de"},"vehicle_type_id":"4","last_reported":1717348001,"current_range_meters":6800,"station_id":"ce4bh692rcd13ifvqea0","pricing_plan_id":"cebpf4jnsgd1na2vs0mg"},{"bike_id":"4230fb11-a568-4271-b5cc-d8b2306ed0fc","system_id":"levelo_inurba_marseille","lat":43.292642,"lon":5.384254,"is_reserved":false,"is_disabled":false,"rental_uris":{"android":"levelo://app?vid=4230fb11-a568-4271-b5cc-d8b2306ed0fc","ios":"levelo://app?vid=4230fb11-a568-4271-b5cc-d8b2306ed0fc"},"vehicle_type_id":"4","last_reported":1717348001,"current_range_meters":8800,"station_id":"ce4bh692rcd13ifvqea0","pricing_plan_id":"cebpf4jnsgd1na2vs0mg"},{"bike_id":"81038801-a17a-425e-8744-09ee482e964d","system_id":"levelo_inurba_marseille","lat":43.292644,"lon":5.384257,"is_reserved":false,"is_disabled":false,"rental_uris":{"android":"levelo://app?vid=81038801-a17a-425e-8744-09ee482e964d","ios":"levelo://app?vid=81038801-a17a-425e-8744-09ee482e964d"},"vehicle_type_id":"4","last_reported":1717348001,"current_range_meters":2000,"station_id":"ce4bh692rcd13ifvqea0","pricing_plan_id":"cebpf4jnsgd1na2vs0mg"},{"bike_id":"e2a4fab6-68bf-434e-8fbb-aad3f3fc39f8","system_id":"levelo_inurba_marseille","lat":43.290103,"lon":5.356114,"is_reserved":false,"is_disabled":false,"rental_uris":{"android":"levelo://app?vid=e2a4fab6-68bf-434e-8fbb-aad3f3fc39f8","ios":"levelo://app?vid=e2a4fab6-68bf-434e-8fbb-aad3f3fc39f8"},"vehicle_type_id":"4","last_reported":1717348001,"current_range_meters":2400,"station_id":"ce4bhb92rcd13ifvqen0","pricing_plan_id":"cebpf4jnsgd1na2vs0mg"},{"bike_id":"c549e8b1-59d2-48fc-ad9a-d8b36dfe1299","system_id":"levelo_inurba_marseille","lat":43.290995,"lon":5.381361,"is_reserved":false,"is_disabled":false,"rental_uris":{"android":"levelo://app?vid=c549e8b1-59d2-48fc-ad9a-d8b36dfe1299","ios":"levelo://app?vid=c549e8b1-59d2-48fc-ad9a-d8b36dfe1299"},"vehicle_type_id":"4","last_reported":1717348001,"current_range_meters":3200,"station_id":"ce4bh512rcd13ifvqe2g","pricing_plan_id":"cebpf4jnsgd1na2vs0mg"},{"bike_id":"3e5a6949-cc04-418d-a0db-5e8fee4e16dc","system_id":"levelo_inurba_marseille","lat":43.290995,"lon":5.381361,"is_reserved":false,"is_disabled":false,"rental_uris":{"android":"levelo://app?vid=3e5a6949-cc04-418d-a0db-5e8fee4e16dc","ios":"levelo://app?vid=3e5a6949-cc04-418d-a0db-5e8fee4e16dc"},"vehicle_type_id":"4","last_reported":1717348001,"current_range_meters":5200,"station_id":"ce4bh512rcd13ifvqe2g","pricing_plan_id":"cebpf4jnsgd1na2vs0mg"},{"bike_id":"ecd389c0-c200-4ac5-8147-90e2bd51f99d","system_id":"levelo_inurba_marseille","lat":43.290995,"lon":5.381361,"is_reserved":false,"is_disabled":false,"rental_uris":{"android":"levelo://app?vid=ecd389c0-c200-4ac5-8147-90e2bd51f99d","ios":"levelo://app?vid=ecd389c0-c200-4ac5-8147-90e2bd51f99d"},"vehicle_type_id":"4","last_reported":1717348001,"current_range_meters":30400,"station_id":"ce4bh512rcd13ifvqe2g","pricing_plan_id":"cebpf4jnsgd1na2vs0mg"},{"bike_id":"72ecd401-cb06-44af-b862-ff8e7a654943","system_id":"levelo_inurba_marseille","lat":43.290919,"lon":5.381373,"is_reserved":false,"is_disabled":false,"rental_uris":{"android":"levelo://app?vid=72ecd401-cb06-44af-b862-ff8e7a654943","ios":"levelo://app?vid=72ecd401-cb06-44af-b862-ff8e7a654943"},"vehicle_type_id":"4","last_reported":1717348001,"current_range_meters":20400,"station_id":"ce4bh512rcd13ifvqe2g","pricing_plan_id":"cebpf4jnsgd1na2vs0mg"},{"bike_id":"1b463e33-ce10-4e03-bddd-414d7fe54958","system_id":"levelo_inurba_marseille","lat":43.29001,"lon":5.35541,"is_reserved":false,"is_disabled":false,"rental_uris":{"android":"levelo://app?vid=1b463e33-ce10-4e03-bddd-414d7fe54958","ios":"levelo://app?vid=1b463e33-ce10-4e03-bddd-414d7fe54958"},"vehicle_type_id":"4","last_reported":1717348001,"current_range_meters":4000,"station_id":"","pricing_plan_id":"cebpf4jnsgd1na2vs0mg"},{"bike_id":"ff9eb5d1-4d5a-4b42-b88f-6181696cd1c9","system_id":"levelo_inurba_marseille","lat":43.292642,"lon":5.384254,"is_reserved":false,"is_disabled":false,"rental_uris":{"android":"levelo://app?vid=ff9eb5d1-4d5a-4b42-b88f-6181696cd1c9","ios":"levelo://app?vid=ff9eb5d1-4d5a-4b42-b88f-6181696cd1c9"},"vehicle_type_id":"4","last_reported":1717348001,"current_range_meters":18000,"station_id":"ce4bh692rcd13ifvqea0","pricing_plan_id":"cebpf4jnsgd1na2vs0mg"},{"bike_id":"56ec8769-00b5-402f-bbf7-6c6988cf56a0","system_id":"levelo_inurba_marseille","lat":43.297815,"lon":5.393548,"is_reserved":false,"is_disabled":false,"rental_uris":{"android":"levelo://app?vid=56ec8769-00b5-402f-bbf7-6c6988cf56a0","ios":"levelo://app?vid=56ec8769-00b5-402f-bbf7-6c6988cf56a0"},"vehicle_type_id":"4","last_reported":1717348001,"current_range_meters":20400,"station_id":"chh1huq6cuj3fo74tm60","pricing_plan_id":"cebpf4jnsgd1na2vs0mg"},{"bike_id":"6f3c0513-7155-412b-8a6c-9abe5b6bbbe1","system_id":"levelo_inurba_marseille","lat":43.295169,"lon":5.390426,"is_reserved":false,"is_disabled":false,"rental_uris":{"android":"levelo://app?vid=6f3c0513-7155-412b-8a6c-9abe5b6bbbe1","ios":"levelo://app?vid=6f3c0513-7155-412b-8a6c-9abe5b6bbbe1"},