{"last_updated":1767197637,"ttl":60,"version":"2.2","data":{"bikes":[{"bike_id":"bbef887d-5538-49cf-a6ed-3f2d56236afa","system_id":"levelo_inurba_marseille","lat":43.28617,"lon":5.35112,"is_reserved":false,"is_disabled":false,"rental_uris":{"android":"levelo://app?vid=bbef887d-5538-49cf-a6ed-3f2d56236afa","ios":"levelo://app?vid=bbef887d-5538-49cf-a6ed-3f2d56236afa"},"vehicle_type_id":"4","last_reported":1767197638,"current_range_meters":2800,"station_id":"ce4bhch2rcd13ifvqeug","pricing_plan_id":"cebpf4jnsgd1na2vs0mg"},{"bike_id":"abb5ee63-a2ac-4f2e-9815-de3a2c36a72a","system_id":"levelo_inurba_marseille","lat":43.28415,"lon":5.34987,"is_reserved":false,"is_disabled":false,"rental_uris":{"android":"levelo://app?vid=abb5ee63-a2ac-4f2e-9815-de3a2c36a72a","ios":"levelo://app?vid=abb5ee63-a2ac-4f2e-9815-de3a2c36a72a"},"vehicle_type_id":"4","last_reported":1767197638,"current_range_meters":2800,"station_id":"ce4bhbh2rcd13ifvqepg","pricing_plan_id":"cebpf4jnsgd1na2vs0mg"},{"bike_id":"32541f6a-1d2c-44c2-a392-06055eaf1598","system_id":"levelo_inurba_marseille","lat":43.262369,"lon":5.416171,"is_reserved":false,"is_disabled":false,"rental_uris":{"android":"levelo://app?vid=32541f6a-1d2c-44c2-a392-06055eaf1598","ios":"levelo://app?vid=32541f6a-1d2c-44c2-a392-06055eaf1598"},"vehicle_type_id":"4","last_reported":1767197638,"current_range_meters":2800,"station_id":"","pricing_plan_id":"cebpf4jnsgd1na2vs0mg"},{"bike_id":"77ba99f8-a2a7-4fbe-bbec-5257707d81e2","system_id":"levelo_inurba_marseille","lat":43.28266,"lon":5.35067,"is_reserved":false,"is_disabled":false,"rental_uris":{"android":"levelo://app?vid=77ba99f8-a2a7-4fbe-bbec-5257707d81e2","ios":"levelo://app?vid=77ba99f8-a2a7-4fbe-bbec-5257707d81e2"},"vehicle_type_id":"4","last_reported":1767197638,"current_range_meters":3200,"station_id":"ce4bhbp2rcd13ifvqerg","pricing_plan_id":"cebpf4jnsgd1na2vs0mg"},{"bike_id":"414700fc-a960-4e38-8996-fba18ca135b2","system_id":"levelo_inurba_marseille","lat":43.30459,"lon":5.37906,"is_reserved":false,"is_disabled":false,"rental_uris":{"android":"levelo://app?vid=414700fc-a960-4e38-8996-fba18ca135b2","ios":"levelo://app?vid=414700fc-a960-4e38-8996-fba18ca135b2"},"vehicle_type_id":"4","last_reported":1767197638,"current_range_meters":3200,"station_id":"ce4bgup2rcd13ifvqcn0","pricing_plan_id":"cebpf4jnsgd1na2vs0mg"},{"bike_id":"047e698e-d642-4388-9e1e-eb2eb3c29f8f","system_id":"levelo_inurba_marseille","lat":43.296814,"lon":5.373021,"is_reserved":false,"is_disabled":false,"rental_uris":{"android":"levelo://app?vid=047e698e-d642-4388-9e1e-eb2eb3c29f8f","ios":"levelo://app?vid=047e698e-d642-4388-9e1e-eb2eb3c29f8f"},"vehicle_type_id":"4","last_reported":1767197638,"current_range_meters":3200,"station_id":"ce4bgk12rcd13ifvqbj0","pricing_plan_id":"cebpf4jnsgd1na2vs0mg"},{"bike_id":"7f70ddf3-439c-4840-b7a7-b91a9816a0ac","system_id":"levelo_inurba_marseille","lat":43.24386,"lon":5.37057,"is_reserved":false,"is_disabled":false,"rental_uris":{"android":"levelo://app?vid=7f70ddf3-439c-4840-b7a7-b91a9816a0ac","ios":"levelo://app?vid=7f70ddf3-439c-4840-b7a7-b91a9816a0ac"},"vehicle_type_id":"4","last_reported":1767197638,"current_range_meters":3200,"station_id":"ce4bhhh2rcd13ifvqfk0","pricing_plan_id":"cebpf4jnsgd1na2vs0mg"},{"bike_id":"fe463f00-5945-49f1-adf1-d0bdf7330352","system_id":"levelo_inurba_marseille","lat":43.29908,"lon":5.38158,"is_reserved":false,"is_disabled":false,"rental_uris":{"android":"levelo://app?vid=fe463f00-5945-49f1-adf1-d0bdf7330352","ios":"levelo://app?vid=fe463f00-5945-49f1-adf1-d0bdf7330352"},"vehicle_type_id":"4","last_reported":1767197638,"current_range_meters":3200,"station_id":"ce4bgj12rcd13ifvqbc0","pricing_plan_id":"cebpf4jnsgd1na2vs0mg"},{"bike_id":"006874ba-f572-4e5d-8eaa-b1e7849ad1e8","system_id":"levelo_inurba_marseille","lat":43.22936,"lon":5.35372,"is_reserved":false,"is_disabled":false,"rental_uris":{"android":"levelo://app?vid=006874ba-f572-4e5d-8eaa-b1e7849ad1e8","ios":"levelo://app?vid=006874ba-f572-4e5d-8eaa-b1e7849ad1e8"},"vehicle_type_id":"4","last_reported":1767197638,"current_range_meters":3600,"station_id":"cpo3532slgdg3j2ikp40","pricing_plan_id":"cebpf4jnsgd1na2vs0mg"},{"bike_id":"12c38b32-5974-4311-910a-572392b8079a","system_id":"levelo_inurba_marseille","lat":43.280422,"lon":5.350876,"is_reserved":false,"is_disabled":false,"rental_uris":{"android":"levelo://app?vid=12c38b32-5974-4311-910a-572392b8079a","ios":"levelo://app?vid=12c38b32-5974-4311-910a-572392b8079a"},"vehicle_type_id":"4","last_reported":1767197638,"current_range_meters":3600,"station_id":"","pricing_plan_id":"cebpf4jnsgd1na2vs0mg"},{"bike_id":"8e23bdba-3cfc-4e84-b5a6-8f30a614eb84","system_id":"levelo_inurba_marseille","lat":43.278381,"lon":5.39211,"is_reserved":false,"is_disabled":false,"rental_uris":{"android":"levelo://app?vid=8e23bdba-3cfc-4e84-b5a6-8f30a614eb84","ios":"levelo://app?vid=8e23bdba-3cfc-4e84-b5a6-8f30a614eb84"},"vehicle_type_id":"4","last_reported":1767197638,"current_range_meters":3600,"station_id":"ce4bhjp2rcd13ifvqga0","pricing_plan_id":"cebpf4jnsgd1na2vs0mg"},{"bike_id":"ac91dfcc-4134-40a6-b5c1-5ba0e33ed7b3","system_id":"levelo_inurba_marseille","lat":43.30123,"lon":5.39861,"is_reserved":false,"is_disabled":false,"rental_uris":{"android":"levelo://app?vid=ac91dfcc-4134-40a6-b5c1-5ba0e33ed7b3","ios":"levelo://app?vid=ac91dfcc-4134-40a6-b5c1-5ba0e33ed7b3"},"vehicle_type_id":"4","last_reported":1767197638,"current_range_meters":3600,"station_id":"ce4bh0h2rcd13ifvqd40","pricing_plan_id":"cebpf4jnsgd1na2vs0mg"},{"bike_id":"54e57cdd-76ba-41e7-91a8-ff0de67ded4d","system_id":"levelo_inurba_marseille","lat":43.304462,"lon":5.38888,"is_reserved":false,"is_disabled":false,"rental_uris":{"android":"levelo://app?vid=54e57cdd-76ba-41e7-91a8-ff0de67ded4d","ios":"levelo://app?vid=54e57cdd-76ba-41e7-91a8-ff0de67ded4d"},"vehicle_type_id":"4","last_reported":1767197638,"current_range_meters":3600,"station_id":"ce4bgk12rcd13ifvqbi0","pricing_plan_id":"cebpf4jnsgd1na2vs0mg"},{"bike_id":"ee4419cb-a677-47c5-8d45-7163f109fe02","system_id":"levelo_inurba_marseille","lat":43.30783,"lon":5.37645,"is_reserved":false,"is_disabled":false,"rental_uris":{"android":"levelo://app?vid=ee4419cb-a677-47c5-8d45-7163f109fe02","ios":"levelo://app?vid=ee4419cb-a677-47c5-8d45-7163f109fe02"},"vehicle_type_id":"4","last_reported":1767197638,"current_range_meters":3600,"station_id":"ce4bgv92rcd13ifvqcq0","pricing_plan_id":"cebpf4jnsgd1na2vs0mg"},{"bike_id":"64dfebd8-2d96-4e16-9529-e95834d89d13","system_id":"levelo_inurba_marseille","lat":43.26367,"lon":5.41083,"is_reserved":false,"is_disabled":false,"rental_uris":{"android":"levelo://app?vid=64dfebd8-2d96-4e16-9529-e95834d89d13","ios":"levelo://app?vid=64dfebd8-2d96-4e16-9529-e95834d89d13"},"vehicle_type_id":"4","last_reported":1767197638,"current_range_meters":4000,"station_id":"st_d4e5ca6na9uc73bfl5fg","pricing_plan_id":"cebpf4jnsgd1na2vs0mg"},{"bike_id":"36ac86e1-b516-4db5-896a-1cf9b7bb1b41","system_id":"levelo_inurba_marseille","lat":43.308946,"lon":5.382017,"is_reserved":false,"is_disabled":false,"rental_uris":{"android":"levelo://app?vid=36ac86e1-b516-4db5-896a-1cf9b7bb1b41","ios":"levelo://app?vid=36ac86e1-b516-4db5-896a-1cf9b7bb1b41"},"vehicle_type_id":"4","last_reported":1767197638,"current_range_meters":4000,"station_id":"ce4bhh92rcd13ifvqfi0","pricing_plan_id":"cebpf4jnsgd1na2vs0mg"},{"bike_id":"60c9fdc2-d1ba-4afa-b576-bb6ed154b6c1","system_id":"levelo_inurba_marseille","lat":43.26566,"lon":5.39018,"is_reserved":false,"is_disabled":false,"rental_uris":{"android":"levelo://app?vid=60c9fdc2-d1ba-4afa-b576-bb6ed154b6c1","ios":"levelo://app?vid=60c9fdc2-d1ba-4afa-b576-bb6ed154b6c1"},"vehicle_type_id":"4","last_reported":1767197638,"current_range_meters":4000,"station_id":"ce4bhe12rcd13ifvqf30","pricing_plan_id":"cebpf4jnsgd1na2vs0mg"},{"bike_id":"b4cf7106-73c2-4109-b6f1-be10e1ccce58","system_id":"levelo_inurba_marseille","lat":43.2967,"lon":5.38499,"is_reserved":false,"is_disabled":false,"rental_uris":{"android":"levelo://app?vid=b4cf7106-73c2-4109-b6f1-be10e1ccce58","ios":"levelo://app?vid=b4cf7106-73c2-4109-b6f1-be10e1ccce58"},"vehicle_type_id":"4","last_reported":1767197638,"current_range_meters":4000,"station_id":"","pricing_plan_id":"cebpf4jnsgd1na2vs0mg"},{"bike_id":"970f6c1d-f464-4249-baad-9d8636c41627","system_id":"levelo_inurba_marseille","lat":43.29173,"lon":5.37522,"is_reserved":false,"is_disabled":false,"rental_uris":{"android":"levelo://app?vid=970f6c1d-f464-4249-baad-9d8636c41627","ios":"levelo://app?vid=970f6c1d-f464-4249-baad-9d8636c41627"},"vehicle_type_id":"4","last_reported":1767197638,"current_range_meters":4400,"station_id":"","pricing_plan_id":"cebpf4jnsgd1na2vs0mg"},{"bike_id":"da5669f0-d7ed-4918-9e6d-cd00034eb11f","system_id":"levelo_inurba_marseille","lat":43.2418,"lon":5.39728,"is_reserved":false,"is_disabled":false,"rental_uris":{"android":"levelo://app?vid=da5669f0-d7ed-4918-9e6d-cd00034eb11f","ios":"levelo://app?vid=da5669f0-d7ed-4918-9e6d-cd00034eb11f"},"vehicle_type_id":"4","last_reported":1767197638,"current_range_meters":4400,"station_id":"ce4bhn12rcd13ifvqgpg","pricing_plan_id":"cebpf4jnsgd1na2vs0mg"},{"bike_id":"1f986bde-e823-4547-a8eb-43be952db802","system_id":"levelo_inurba_marseille","lat":43.29442,"lon":5.37288,"is_reserved":false,"is_disabled":false,"rental_uris":{"android":"levelo://app?vid=1f986bde-e823-4547-a8eb-43be952db802","ios":"levelo://app?vid=1f986bde-e823-4547-a8eb-43be952db802"},"vehicle_type_id":"4","last_reported":1767197638,"current_range_meters":4400,"station_id":"","pricing_plan_id":"cebpf4jnsgd1na2vs0mg"},{"bike_id":"ea64c3c3-83b2-4d29-bcc8-64a54d10d0cf","system_id":"levelo_inurba_marseille","lat":43.29094,"lon":5.38125,"is_reserved":false,"is_disabled":false,"rental_uris":{"android":"levelo://app?vid=ea64c3c3-83b2-4d29-bcc8-64a54d10d0cf","ios":"levelo://app?vid=ea64c3c3-83b2-4d29-bcc8-64a54d10d0cf"},"vehicle_type_id":"4","last_reported":1767197638,"current_range_meters":4800,"station_id":"ce4bh512rcd13ifvqe2g","pricing_plan_id":"cebpf4jnsgd1na2vs0mg"},{"bike_id":"6de3307c-544d-4946-a465-2938af5040f0","system_id":"levelo_inurba_marseille","lat":43.284459,"lon":5.358324,"is_reserved":false,"is_disabled":false,"rental_uris":{"android":"levelo://app?vid=6de3307c-544d-4946-a465-2938af5040f0","ios":"levelo://app?vid=6de3307c-544d-4946-a465-2938af5040f0"},"vehicle_type_id":"4","last_reported":1767197638,"current_range_meters":4800,"station_id":"ce4bhah2rcd13ifvqei0","pricing_plan_id":"cebpf4jnsgd1na2vs0mg"},{"bike_id":"f9543722-a0ed-4655-8c9a-45b068b8d81d","system_id":"levelo_inurba_marseille","lat":43.28615,"lon":5.35111,"is_reserved":false,"is_disabled":false,"rental_uris":{"android":"levelo://app?vid=f9543722-a0ed-4655-8c9a-45b068b8d81d","ios":"levelo://app?vid=f9543722-a0ed-4655-8c9a-45b068b8d81d"},"vehicle_type_id":"4","last_reported":1767197638,"current_range_meters":4800,"station_id":"ce4bhch2rcd13ifvqeug","pricing_plan_id":"cebpf4jnsgd1na2vs0mg"},{"bike_id":"14cb03f8-e057-4feb-a4ad-4c9bfb729a23","system_id":"levelo_inurba_marseille","lat":43.25581,"lon":5.38234,"is_reserved":false,"is_disabled":false,"rental_uris":{"android":"levelo://app?vid=14cb03f8-e057-4feb-a4ad-4c9bfb729a23","ios":"levelo://app?vid=14cb03f8-e057-4feb-a4ad-4c9bfb729a23"},"vehicle_type_id":"4","last_reported":1767197638,"current_range_meters":4800,"station_id":"ce4bhih2rcd13ifvqfs0","pricing_plan_id":"cebpf4jnsgd1na2vs0mg"},{"bike_id":"fbb2c14b-fec5-415a-8ad7-ae7315cdd847","system_id":"levelo_inurba_marseille","lat":43.272067,"lon":5.391901,"is_reserved":false,"is_disabled":false,"rental_uris":{"android":"levelo://app?vid=fbb2c14b-fec5-415a-8ad7-ae7315cdd847","ios":"levelo://app?vid=fbb2c14b-fec5-415a-8ad7-ae7315cdd847"},"vehicle_type_id":"4","last_reported":1767197638,"current_range_meters":4800,"station_id":"","pricing_plan_id":"cebpf4jnsgd1na2vs0mg"},{"bike_id":"d1028c8d-4c1a-4ce3-bb87-06b106258967","system_id":"levelo_inurba_marseille","lat":43.30089,"lon":5.37093,"is_reserved":false,"is_disabled":false,"rental_uris":{"android":"levelo://app?vid=d1028c8d-4c1a-4ce3-bb87-06b106258967","ios":"levelo://app?vid=d1028c8d-4c1a-4ce3-bb87-06b106258967"},"vehicle_type_id":"4","last_reported":1767197638,"current_range_meters":5600,"station_id":"","pricing_plan_id":"cebpf4jnsgd1na2vs0mg"},{"bike_id":"3400d737-a32e-4dca-a00a-47ca201c9735","system_id":"levelo_inurba_marseille","lat":43.29543,"lon":5.42285,"is_reserved":false,"is_disabled":true,"rental_uris":{"android":"levelo://app?vid=3400d737-a32e-4dca-a00a-47ca201c9735","ios":"levelo://app?vid=3400d737-a32e-4dca-a00a-47ca201c9735"},"vehicle_type_id":"4","last_reported":1767197638,"current_range_meters":5600,"station_id":"ce4bhph2rcd13ifvqhdg","pricing_plan_id":"cebpf4jnsgd1na2vs0mg"},{"bike_id":"8924b8b2-a31c-4d91-a5f5-e3c17de6cf56","system_id":"levelo_inurba_marseille","lat":43.292,"lon":5.3932,"is_reserved":false,"is_disabled":false,"rental_uris":{"android":"levelo://app?vid=8924b8b2-a31c-4d91-a5f5-e3c17de6cf56","ios":"levelo://app?vid=8924b8b2-a31c-4d91-a5f5-e3c17de6cf56"},"vehicle_type_id":"4","last_reported":1767197638,"current_range_meters":5600,"station_id":"ce4bh192rcd13ifvqdd0","pricing_plan_id":"cebpf4jnsgd1na2vs0mg"},{"bike_id":"ea3c26a7-e192-4d2d-a16f-68c0855cc744","system_id":"levelo_inurba_marseille","lat":43.2902,"lon":5.38642,"is_reserved":false,"is_disabled":false,"rental_uris":{"android":"levelo://app?vid=ea3c26a7-e192-4d2d-a16f-68c0855cc744","ios":"levelo://app?vid=ea3c26a7-e192-4d2d-a16f-68c0855cc744"},"vehicle_type_id":"4","last_reported":1767197638,"current_range_meters":5600,"station_id":"ce4bh4p2rcd13ifvqe0g","pricing_plan_id":"cebpf4jnsgd1na2vs0mg"},{"bike_id":"c51d25a2-9931-4751-a2b1-fe9d8ebd5ffd","system_id":"levelo_inurba_marseille","lat":43.21207,"lon":5.35047,"is_reserved":false,"is_disabled":false,"rental_uris":{"android":"levelo://app?vid=c51d25a2-9931-4751-a2b1-fe9d8ebd5ffd","ios":"levelo://app?vid=c51d25a2-9931-4751-a2b1-fe9d8ebd5ffd"},"vehicle_type_id":"4","last_reported":1767197638,"current_range_meters":6000,"station_id":"st_cvj6sg6p6f1abm77japg","pricing_plan_id":"cebpf4jnsgd1na2vs0mg"},{"bike_id":"b2b7d040-6379-4a7a-a0d2-d47ce476ec56","system_id":"levelo_inurba_marseille","lat":43.28969,"lon":5.37829,"is_reserved":false,"is_disabled":false,"rental_uris":{"android":"levelo://app?vid=b2b7d040-6379-4a7a-a0d2-d47ce476ec56","ios":"levelo://app?vid=b2b7d040-6379-4a7a-a0d2-d47ce476ec56"},"vehicle_type_id":"4","last_reported":1767197638,"current_range_meters":6000,"station_id":"ce4bh9p2rcd13ifvqed0","pricing_plan_id":"cebpf4jnsgd1na2vs0mg"},{"bike_id":"9d3e3e82-0274-479c-bc33-0268ceec6e2d","system_id":"levelo_inurba_marseille","lat":43.28934,"lon":5.36381,"is_reserved":false,"is_disabled":false,"rental_uris":{"android":"levelo://app?vid=9d3e3e82-0274-479c-bc33-0268ceec6e2d","ios":"levelo://app?vid=9d3e3e82-0274-479c-bc33-0268ceec6e2d"},"vehicle_type_id":"4","last_reported":1767197638,"current_range_meters":6000,"station_id":"ce4bhc92rcd13ifvqetg","pricing_plan_id":"cebpf4jnsgd1na2vs0mg"},{"bike_id":"7451e2f1-97cc-4a6a-824e-1c725c74e9d6","system_id":"levelo_inurba_marseille","lat":43.293656,"lon":5.381034,"is_reserved":false,"is_disabled":false,"rental_uris":{"android":"levelo://app?vid=7451e2f1-97cc-4a6a-824e-1c725c74e9d6","ios":"levelo://app?vid=7451e2f1-97cc-4a6a-824e-1c725c74e9d6"},"vehicle_type_id":"4","last_reported":1767197638,"current_range_meters":6000,"station_id":"","pricing_plan_id":"cebpf4jnsgd1na2vs0mg"},{"bike_id":"893ba8a0-157f-4e5d-917e-08bfc2989854","system_id":"levelo_inurba_marseille","lat":43.30159,"lon":5.38879,"is_reserved":false,"is_disabled":false,"rental_uris":{"android":"levelo://app?vid=893ba8a0-157f-4e5d-917e-08bfc2989854","ios":"levelo://app?vid=893ba8a0-157f-4e5d-917e-08bfc2989854"},"vehicle_type_id":"4","last_reported":1767197638,"current_range_meters":6000,"station_id":"","pricing_plan_id":"cebpf4jnsgd1na2vs0mg"},{"bike_id":"eff9c51f-cff8-4cc3-b902-ea30bbf0b037","system_id":"levelo_inurba_marseille","lat":43.26559,"lon":5.40333,"is_reserved":false,"is_disabled":false,"rental_uris":{"android":"levelo://app?vid=eff9c51f-cff8-4cc3-b902-ea30bbf0b037","ios":"levelo://app?vid=eff9c51f-cff8-4cc3-b902-ea30bbf0b037"},"vehicle_type_id":"4","last_reported":1767197638,"current_range_meters":6000,"station_id":"ce4bhmp2rcd13ifvqgng","pricing_plan_id":"cebpf4jnsgd1na2vs0mg"},{"bike_id":"e20d0c71-d973-4c6a-93c3-db60eb7b5b50","system_id":"levelo_inurba_marseille","lat":43.28478,"lon":5.38558,"is_reserved":false,"is_disabled":false,"rental_uris":{"android":"levelo://app?vid=e20d0c71-d973-4c6a-93c3-db60eb7b5b50","ios":"levelo://app?vid=e20d0c71-d973-4c6a-93c3-db60eb7b5b50"},"vehicle_type_id":"4","last_reported":1767197638,"current_range_meters":6000,"station_id":"ce4bh8p2rcd13ifvqeb0","pricing_plan_id":"cebpf4jnsgd1na2vs0mg"},{"bike_id":"9967a316-f7a4-4616-9f95-b9e09a686124","system_id":"levelo_inurba_marseille","lat":43.31081,"lon":5.38347,"is_reserved":false,"is_disabled":false,"rental_uris":{"android":"levelo://app?vid=9967a316-f7a4-4616-9f95-b9e09a686124","ios":"levelo://app?vid=9967a316-f7a4-4616-9f95-b9e09a686124"},"vehicle_type_id":"4","last_reported":1767197638,"current_range_meters":6400,"station_id":"ce4bgv92rcd13ifvqcr0","pricing_plan_id":"cebpf4jnsgd1na2vs0mg"},{"bike_id":"cc63311c-dc5c-4174-9303-3b27308cfb2e","system_id":"levelo_inurba_marseille","lat":43.31069,"lon":5.38355,"is_reserved":false,"is_disabled":false,"rental_uris":{"android":"levelo://app?vid=cc63311c-dc5c-4174-9303-3b27308cfb2e","ios":"levelo://app?vid=cc63311c-dc5c-4174-9303-3b27308cfb2e"},"vehicle_type_id":"4","last_reported":1767197638,"current_range_meters":6400,"station_id":"ce4bgv92rcd13ifvqcr0","pricing_plan_id":"cebpf4jnsgd1na2vs0mg"},{"bike_id":"1f7dc01e-7987-4661-bba7-66ef31c008d0","system_id":"levelo_inurba_marseille","lat":43.290392,"lon":5.356093,"is_reserved":false,"is_disabled":false,"rental_uris":{"android":"levelo://app?vid=1f7dc01e-7987-4661-bba7-66ef31c008d0","ios":"levelo://app?vid=1f7dc01e-7987-4661-bba7-66ef31c008d0"},"vehicle_type_id":"4","last_reported":1767197638,"current_range_meters":6400,"station_id":"ce4bhbh2rcd13ifvqeo0","pricing_plan_id":"cebpf4jnsgd1na2vs0mg"},{"bike_id":"742f1e99-972a-4415-9c07-2696da1383a1","system_id":"levelo_inurba_marseille","lat":43.29646,"lon":5.40587,"is_reserved":false,"is_disabled":false,"rental_uris":{"android":"levelo://app?vid=742f1e99-972a-4415-9c07-2696da1383a1","ios":"levelo://app?vid=742f1e99-972a-4415-9c07-2696da1383a1"},"vehicle_type_id":"4","last_reported":1767197638,"current_range_meters":6800,"station_id":"","pricing_plan_id":"cebpf4jnsgd1na2vs0mg"},{"bike_id":"0cc48446-04c5-4ce2-a51e-0afaeeaebccd","system_id":"levelo_inurba_marseille","lat":43.29094,"lon":5.3815,"is_reserved":false,"is_disabled":false,"rental_uris":{"android":"levelo://app?vid=0cc48446-04c5-4ce2-a51e-0afaeeaebccd","ios":"levelo://app?vid=0cc48446-04c5-4ce2-a51e-0afaeeaebccd"},"vehicle_type_id":"4","last_reported":1767197638,"current_range_meters":6800,"station_id":"ce4bh512rcd13ifvqe2g","pricing_plan_id":"cebpf4jnsgd1na2vs0mg"},{"bike_id":"92f6a9d1-2b37-43c2-ad51-4c8085a748cd","system_id":"levelo_inurba_marseille","lat":43.28408,"lon":5.34964,"is_reserved":false,"is_disabled":false,"rental_uris":{"android":"levelo://app?vid=92f6a9d1-2b37-43c2-ad51-4c8085a748cd","ios":"levelo://app?vid=92f6a9d1-2b37-43c2-ad51-4c8085a748cd"},"vehicle_type_id":"4","last_reported":1767197638,"current_range_meters":6800,"station_id":"ce4bhbh2rcd13ifvqepg","pricing_plan_id":"cebpf4jnsgd1na2vs0mg"},{"bike_id":"ec5fae6d-47b5-4030-bf64-4af050af9ecb","system_id":"levelo_inurba_marseille","lat":43.30953,"lon":5.37794,"is_reserved":false,"is_disabled":false,"rental_uris":{"android":"levelo://app?vid=ec5fae6d-47b5-4030-bf64-4af050af9ecb","ios":"levelo://app?vid=ec5fae6d-47b5-4030-bf64-4af050af9ecb"},"vehicle_type_id":"4","last_reported":1767197638,"current_range_meters":6800,"station_id":"","pricing_plan_id":"cebpf4jnsgd1na2vs0mg"},{"bike_id":"553dc950-9a8c-463e-bd3c-210b3d4af814","system_id":"levelo_inurba_marseille","lat":43.29222,"lon":5.36065,"is_reserved":false,"is_disabled":true,"rental_uris":{"android":"levelo://app?vid=553dc950-9a8c-463e-bd3c-210b3d4af814","ios":"levelo://app?vid=553dc950-9a8c-463e-bd3c-210b3d4af814"},"vehicle_type_id":"4","last_reported":1767197638,"current_range_meters":6800,"station_id":"ce4bhbh2rcd13ifvqeqg","pricing_plan_id":"cebpf4jnsgd1na2vs0mg"},{"bike_id":"b27882cf-c9ac-4c90-b14e-0fbbf4617b6a","system_id":"levelo_inurba_marseille","lat":43.265521,"lon":5.372836,"is_reserved":false,"is_disabled":false,"rental_uris":{"android":"levelo://app?vid=b27882cf-c9ac-4c90-b14e-0fbbf4617b6a","ios":"levelo://app?vid=b27882cf-c9ac-4c90-b14e-0fbbf4617b6a"},"vehicle_type_id":"4","last_reported":1767197638,"current_range_meters":6800,"station_id":"ce4bhg12rcd13ifvqf70","pricing_plan_id":"cebpf4jnsgd1na2vs0mg"},{"bike_id":"b765262d-1e90-432f-b785-523eb2ca010d","system_id":"levelo_inurba_marseille","lat":43.31165,"lon":5.40722,"is_reserved":false,"is_disabled":false,"rental_uris":{"android":"levelo://app?vid=b765262d-1e90-432f-b785-523eb2ca010d","ios":"levelo://app?vid=b765262d-1e90-432f-b785-523eb2ca010d"},"vehicle_type_id":"4","last_reported":1767197638,"current_range_meters":7200,"station_id":"","pricing_plan_id":"cebpf4jnsgd1na2vs0mg"},{"bike_id":"3c37f9d9-f57e-457a-a040-4bb0c55a98fc","system_id":"levelo_inurba_marseille","lat":43.28264,"lon":5.35071,"is_reserved":false,"is_disabled":false,"rental_uris":{"android":"levelo://app?vid=3c37f9d9-f57e-457a-a040-4bb0c55a98fc","ios":"levelo://app?vid=3c37f9d9-f57e-457a-a040-4bb0c55a98fc"},"vehicle_type_id":"4","last_reported":1767197638,"current_range_meters":7200,"station_id":"ce4bhbp2rcd13ifvqerg","pricing_plan_id":"cebpf4jnsgd1na2vs0mg"},{"bike_id":"1e17cdbf-aae0-4b4b-a751-d7cf3490ace0","system_id":"levelo_inurba_marseille","lat":43.308941,"lon":5.39665,"is_reserved":false,"is_disabled":false,"rental_uris":{"android":"levelo://app?vid=1e17cdbf-aae0-4b4b-a751-d7cf3490ace0","ios":"levelo://app?vid=1e17cdbf-aae0-4b4b-a751-d7cf3490ace0"},"vehicle_type_id":"4","last_reported":1767197638,"current_range_meters":7200,"station_id":"ce4bh012rcd13ifvqcv0","pricing_plan_id":"cebpf4jnsgd1na2vs0mg"},{"bike_id":"3ae180a1-ad81-4fbd-8d8e-5122c1af76f4","system_id":"levelo_inurba_marseille","lat":43.337444,"lon":5.374475,"is_reserved":false,"is_disabled":false,"rental_uris":{"android":"levelo://app?vid=3ae180a1-ad81-4fbd-8d8e-5122c1af76f4","ios":"levelo://app?vid=3ae180a1-ad81-4fbd-8d8e-5122c1af76f4"},"vehicle_type_id":"4","last_reported":1767197638,"current_range_meters":7200,"station_id":"","pricing_plan_id":"cebpf4jnsgd1na2vs0mg"},{"bike_id":"513b3d3c-33ad-4ba4-b7b0-f07af75c2eec","system_id":"levelo_inurba_marseille","lat":43.28939,"lon":5.36641,"is_reserved":false,"is_disabled":false,"rental_uris":{"android":"levelo://app?vid=513b3d3c-33ad-4ba4-b7b0-f07af75c2eec","ios":"levelo://app?vid=513b3d3c-33ad-4ba4-b7b0-f07af75c2eec"},"vehicle_type_id":"4","last_reported":1767197638,"current_range_meters":7200,"station_id":"ce4bhap2rcd13ifvqek0","pricing_plan_id":"cebpf4jnsgd1na2vs0mg"},{"bike_id":"258ce0ab-a7d8-4fa4-8465-6ac63ff3dd41","system_id":"levelo_inurba_marseille","lat":43.25575,"lon":5.38225,"is_reserved":false,"is_disabled":false,"rental_uris":{"android":"levelo://app?vid=258ce0ab-a7d8-4fa4-8465-6ac63ff3dd41","ios":"levelo://app?vid=258ce0ab-a7d8-4fa4-8465-6ac63ff3dd41"},"vehicle_type_id":"4","last_reported":1767197638,"current_range_meters":7200,"station_id":"ce4bhih2rcd13ifvqfs0","pricing_plan_id":"cebpf4jnsgd1na2vs0mg"},{"bike_id":"4420f0e1-d4bb-4871-906b-b727021a7f49","system_id":"levelo_inurba_marseille","lat":43.26225,"lon":5.40456,"is_reserved":false,"is_disabled":false,"rental_uris":{"android":"levelo://app?vid=4420f0e1-d4bb-4871-906b-b727021a7f49","ios":"levelo://app?vid=4420f0e1-d4bb-4871-906b-b727021a7f49"},"vehicle_type_id":"4","last_reported":1767197638,"current_range_meters":7200,"station_id":"ce4bhmh2rcd13ifvqgmg","pricing_plan_id":"cebpf4jnsgd1na2vs0mg"},{"bike_id":"e9ec2bfd-d6b5-4718-9e0b-a68ec9d923c9","system_id":"levelo_inurba_marseille","lat":43.28481,"lon":5.38553,"is_reserved":false,"is_disabled":false,"rental_uris":{"android":"levelo://app?vid=e9ec2bfd-d6b5-4718-9e0b-a68ec9d923c9","ios":"levelo://app?vid=e9ec2bfd-d6b5-4718-9e0b-a68ec9d923c9"},"vehicle_type_id":"4","last_reported":1767197638,"current_range_meters":8000,"station_id":"ce4bh8p2rcd13ifvqeb0","pricing_plan_id":"cebpf4jnsgd1na2vs0mg"},{"bike_id":"d6c905af-fee0-455f-8001-12476aad1731","system_id":"levelo_inurba_marseille","lat":43.282684,"lon":5.350617,"is_reserved":false,"is_disabled":false,"rental_uris":{"android":"levelo://app?vid=d6c905af-fee0-455f-8001-12476aad1731","ios":"levelo://app?vid=d6c905af-fee0-455f-8001-12476aad1731"},"vehicle_type_id":"4","last_reported":1767197638,"current_range_meters":8000,"station_id":"ce4bhbp2rcd13ifvqerg","pricing_plan_id":"cebpf4jnsgd1na2vs0mg"},{"bike_id":"a274e1f3-90e8-4548-9a2a-4f53c59abc4e","system_id":"levelo_inurba_marseille","lat":43.31698,"lon":5.40458,"is_reserved":false,"is_disabled":true,"rental_uris":{"android":"levelo://app?vid=a274e1f3-90e8-4548-9a2a-4f53c59abc4e","ios":"levelo://app?vid=a274e1f3-90e8-4548-9a2a-4f53c59abc4e"},"vehicle_type_id":"4","last_reported":1767197638,"current_range_meters":8000,"station_id":"ce4bh012rcd13ifvqd00","pricing_plan_id":"cebpf4jnsgd1na2vs0mg"},{"bike_id":"a80e7f61-e6c7-49e9-8c45-b08f6c776d7b","system_id":"levelo_inurba_marseille","lat":43.273262,"lon":5.390555,"is_reserved":false,"is_disabled":false,"rental_uris":{"android":"levelo://app?vid=a80e7f61-e6c7-49e9-8c45-b08f6c776d7b","ios":"levelo://app?vid=a80e7f61-e6c7-49e9-8c45-b08f6c776d7b"},"vehicle_type_id":"4","last_reported":1767197638,"current_range_meters":8000,"station_id":"ce4bhgp2rcd13ifvqfe0","pricing_plan_id":"cebpf4jnsgd1na2vs0mg"},{"bike_id":"fba83f3b-745b-4dab-8009-e2fe54c412dd","system_id":"levelo_inurba_marseille","lat":43.26953,"lon":5.38626,"is_reserved":false,"is_disabled":false,"rental_uris":{"android":"levelo://app?vid=fba83f3b-745b-4dab-8009-e2fe54c412dd","ios":"levelo://app?vid=fba83f3b-745b-4dab-8009-e2fe54c412dd"},"vehicle_type_id":"4","last_reported":1767197638,"current_range_meters":8000,"station_id":"ce4bhh92rcd13ifvqfh0","pricing_plan_id":"cebpf4jnsgd1na2vs0mg"},{"bike_id":"2806b31f-5a5a-458e-ad1d-5048add9fe10","system_id":"levelo_inurba_marseille","lat":43.284151,"lon":5.349848,"is_reserved":false,"is_disabled":false,"rental_uris":{"android":"levelo://app?vid=2806b31f-5a5a-458e-ad1d-5048add9fe10","ios":"levelo://app?vid=2806b31f-5a5a-458e-ad1d-5048add9fe10"},"vehicle_type_id":"4","last_reported":1767197638,"current_range_meters":8000,"station_id":"ce4bhbh2rcd13ifvqepg","pricing_plan_id":"cebpf4jnsgd1na2vs0mg"},{"bike_id":"da09486e-5681-4801-860d-360e53b840f4","system_id":"levelo_inurba_marseille","lat":43.29278,"lon":5.40116,"is_reserved":false,"is_disabled":false,"rental_uris":{"android":"levelo://app?vid=da09486e-5681-4801-860d-360e53b840f4","ios":"levelo://app?vid=da09486e-5681-4801-860d-360e53b840f4"},"vehicle_type_id":"4","last_reported":1767197638,"current_range_meters":8000,"station_id":"ce4bh312rcd13ifvqdk0","pricing_plan_id":"cebpf4jnsgd1na2vs0mg"},{"bike_id":"1f434066-b607-4045-9e0b-7f30dafa9fec","system_id":"levelo_inurba_marseille","lat":43.26056,"lon":5.39398,"is_reserved":false,"is_disabled":false,"rental_uris":{"android":"levelo://app?vid=1f434066-b607-4045-9e0b-7f30dafa9fec","ios":"levelo://app?vid=1f434066-b607-4045-9e0b-7f30dafa9fec"},"vehicle_type_id":"4","last_reported":1767197638,"current_range_meters":8000,"station_id":"ce4bhh92rcd13ifvqfj0","pricing_plan_id":"cebpf4jnsgd1na2vs0mg"},{"bike_id":"dce28840-1b59-4930-917a-12d88071d00f","system_id":"levelo_inurba_marseille","lat":43.28536,"lon":5.44116,"is_reserved":false,"is_disabled":false,"rental_uris":{"android":"levelo://app?vid=dce28840-1b59-4930-917a-12d88071d00f","ios":"levelo://app?vid=dce28840-1b59-4930-917a-12d88071d00f"},"vehicle_type_id":"4","last_reported":1767197638,"current_range_meters":8400,"station_id":"st_d3j3df2ikq2c7380ej80","pricing_plan_id":"cebpf4jnsgd1na2vs0mg"},{"bike_id":"e48f190e-fe04-4a15-8b7d-03fc54bec5c9","system_id":"levelo_inurba_marseille","lat":43.29304,"lon":5.37192,"is_reserved":false,"is_disabled":false,"rental_uris":{"android":"levelo://app?vid=e48f190e-fe04-4a15-8b7d-03fc54bec5c9","ios":"levelo://app?vid=e48f190e-fe04-4a15-8b7d-03fc54bec5c9"},"vehicle_type_id":"4","last_reported":1767197638,"current_range_meters":8400,"station_id":"ce4bgh92rcd13ifvqb40","pricing_plan_id":"cebpf4jnsgd1na2vs0mg"},{"bike_id":"ab9a5e30-29f8-4fee-9bc5-925ba0b877c7","system_id":"levelo_inurba_marseille","lat":43.301197,"lon":5.390577,"is_reserved":false,"is_disabled":false,"rental_uris":{"android":"levelo://app?vid=ab9a5e30-29f8-4fee-9bc5-925ba0b877c7","ios":"levelo://app?vid=ab9a5e30-29f8-4fee-9bc5-925ba0b877c7"},"vehicle_type_id":"4","last_reported":1767197638,"current_range_meters":8400,"station_id":"ce4bh192rcd13ifvqdb0","pricing_plan_id":"cebpf4jnsgd1na2vs0mg"},{"bike_id":"7c20e148-2a07-439c-8007-95ff3dd732b8","system_id":"levelo_inurba_marseille","lat":43.21189,"lon":5.35077,"is_reserved":false,"is_disabled":true,"rental_uris":{"android":"levelo://app?vid=7c20e148-2a07-439c-8007-95ff3dd732b8","ios":"levelo://app?vid=7c20e148-2a07-439c-8007-95ff3dd732b8"},"vehicle_type_id":"4","last_reported":1767197638,"current_range_meters":8400,"station_id":"st_cvj6sg6p6f1abm77japg","pricing_plan_id":"cebpf4jnsgd1na2vs0mg"},{"bike_id":"dabfe40b-52c7-4deb-b993-e379f777fdcf","system_id":"levelo_inurba_marseille","lat":43.27182,"lon":5.39198,"is_reserved":false,"is_disabled":false,"rental_uris":{"android":"levelo://app?vid=dabfe40b-52c7-4deb-b993-e379f777fdcf","ios":"levelo://app?vid=dabfe40b-52c7-4deb-b993-e379f777fdcf"},"vehicle_type_id":"4","last_reported":1767197638,"current_range_meters":8400,"station_id":"ce4bhhp2rcd13ifvqfm0","pricing_plan_id":"cebpf4jnsgd1na2vs0mg"},{"bike_id":"0fa76090-b264-4d7f-a0bc-7de1e50f19da","system_id":"levelo_inurba_marseille","lat":43.28016,"lon":5.40423,"is_reserved":false,"is_disabled":false,"rental_uris":{"android":"levelo://app?vid=0fa76090-b264-4d7f-a0bc-7de1e50f19da","ios":"levelo://app?vid=0fa76090-b264-4d7f-a0bc-7de1e50f19da"},"vehicle_type_id":"4","last_reported":1767197638,"current_range_meters":8400,"station_id":"","pricing_plan_id":"cebpf4jnsgd1na2vs0mg"},{"bike_id":"0e658ff5-a523-4f81-a7b6-b2926ff77eb9","system_id":"levelo_inurba_marseille","lat":43.2655,"lon":5.37289,"is_reserved":false,"is_disabled":false,"rental_uris":{"android":"levelo://app?vid=0e658ff5-a523-4f81-a7b6-b2926ff77eb9","ios":"levelo://app?vid=0e658ff5-a523-4f81-a7b6-b2926ff77eb9"},"vehicle_type_id":"4","last_reported":1767197638,"current_range_meters":8400,"station_id":"ce4bhg12rcd13ifvqf70","pricing_plan_id":"cebpf4jnsgd1na2vs0mg"},{"bike_id":"ef5185af-c9f8-4b33-95de-82c7d8ae8adb","system_id":"levelo_inurba_marseille","lat":43.24807,"lon":5.37468,"is_reserved":false,"is_disabled":false,"rental_uris":{"android":"levelo://app?vid=ef5185af-c9f8-4b33-95de-82c7d8ae8adb","ios":"levelo://app?vid=ef5185af-c9f8-4b33-95de-82c7d8ae8adb"},"vehicle_type_id":"4","last_reported":1767197638,"current_range_meters":8400,"station_id":"ce4bhgh2rcd13ifvqfb0","pricing_plan_id":"cebpf4jnsgd1na2vs0mg"},{"bike_id":"b8218b86-9c67-44b2-af7a-c0a5340c5723","system_id":"levelo_inurba_marseille","lat":43.33549,"lon":5.37473,"is_reserved":false,"is_disabled":false,"rental_uris":{"android":"levelo://app?vid=b8218b86-9c67-44b2-af7a-c0a5340c5723","ios":"levelo://app?vid=b8218b86-9c67-44b2-af7a-c0a5340c5723"},"vehicle_type_id":"4","last_reported":1767197638,"current_range_meters":8400,"station_id":"st_d46tts09ee8s73dlu43g","pricing_plan_id":"cebpf4jnsgd1na2vs0mg"},{"bike_id":"f3f55361-7a58-4b43-91d4-5f27bbdcaa82","system_id":"levelo_inurba_marseille","lat":43.28405,"lon":5.3753,"is_reserved":false,"is_disabled":false,"rental_uris":{"android":"levelo://app?vid=f3f55361-7a58-4b43-91d4-5f27bbdcaa82","ios":"levelo://app?vid=f3f55361-7a58-4b43-91d4-5f27bbdcaa82"},"vehicle_type_id":"4","last_reported":1767197638,"current_range_meters":8400,"station_id":"ce4bh412rcd13ifvqds0","pricing_plan_id":"cebpf4jnsgd1na2vs0mg"},{"bike_id":"dacc1bc0-eec9-4219-9225-c37f13cfc222","system_id":"levelo_inurba_marseille","lat":43.285208,"lon":5.441069,"is_reserved":false,"is_disabled":false,"rental_uris":{"android":"levelo://app?vid=dacc1bc0-eec9-4219-9225-c37f13cfc222","ios":"levelo://app?vid=dacc1bc0-eec9-4219-9225-c37f13cfc222"},"vehicle_type_id":"4","last_reported":1767197638,"current_range_meters":8400,"station_id":"st_d3j3df2ikq2c7380ej80","pricing_plan_id":"cebpf4jnsgd1na2vs0mg"},{"bike_id":"8d39a28b-6766-4dd2-9cb0-2a9ef3a2a93b","system_id":"levelo_inurba_marseille","lat":43.3316,"lon":5.37686,"is_reserved":false,"is_disabled":false,"rental_uris":{"android":"levelo://app?vid=8d39a28b-6766-4dd2-9cb0-2a9ef3a2a93b","ios":"levelo://app?vid=8d39a28b-6766-4dd2-9cb0-2a9ef3a2a93b"},"vehicle_type_id":"4","last_reported":1767197638,"current_range_meters":8800,"station_id":"st_d46cu089ee8s73dldbu0","pricing_plan_id":"cebpf4jnsgd1na2vs0mg"},{"bike_id":"efd33062-2cef-445f-af98-648f578e9c2a","system_id":"levelo_inurba_marseille","lat":43.32632,"lon":5.41981,"is_reserved":false,"is_disabled":false,"rental_uris":{"android":"levelo://app?vid=efd33062-2cef-445f-af98-648f578e9c2a","ios":"levelo://app?vid=efd33062-2cef-445f-af98-648f578e9c2a"},"vehicle_type_id":"4","last_reported":1767197638,"current_range_meters":8800,"station_id":"","pricing_plan_id":"cebpf4jnsgd1na2vs0mg"},{"bike_id":"08d9da5e-884a-4cd7-846c-0a2f92b4f2db","system_id":"levelo_inurba_marseille","lat":43.30542,"lon":5.36535,"is_reserved":false,"is_disabled":false,"rental_uris":{"android":"levelo://app?vid=08d9da5e-884a-4cd7-846c-0a2f92b4f2db","ios":"levelo://app?vid=08d9da5e-884a-4cd7-846c-0a2f92b4f2db"},"vehicle_type_id":"4","last_reported":1767197638,"current_range_meters":8800,"station_id":"ce4bgs12rcd13ifvqcag","pricing_plan_id":"cebpf4jnsgd1na2vs0mg"},{"bike_id":"6b07b5cd-b5ff-4a36-bcc6-5e5e96cb6a86","system_id":"levelo_inurba_marseille","lat":43.26239,"lon":5.40451,"is_reserved":false,"is_disabled":false,"rental_uris":{"android":"levelo://app?vid=6b07b5cd-b5ff-4a36-bcc6-5e5e96cb6a86","ios":"levelo://app?vid=6b07b5cd-b5ff-4a36-bcc6-5e5e96cb6a86"},"vehicle_type_id":"4","last_reported":1767197638,"current_range_meters":8800,"station_id":"ce4bhmh2rcd13ifvqgmg","pricing_plan_id":"cebpf4jnsgd1na2vs0mg"},{"bike_id":"d1e9a7b4-a8fa-4db9-954e-f727417995e2","system_id":"levelo_inurba_marseille","lat":43.27181,"lon":5.390489,"is_reserved":false,"is_disabled":false,"rental_uris":{"android":"levelo://app?vid=d1e9a7b4-a8fa-4db9-954e-f727417995e2","ios":"levelo://app?vid=d1e9a7b4-a8fa-4db9-954e-f727417995e2"},"vehicle_type_id":"4","last_reported":1767197638,"current_range_meters":8800,"station_id":"","pricing_plan_id":"cebpf4jnsgd1na2vs0mg"},{"bike_id":"78ed77cb-47f0-4c82-bf8a-f958576ec953","system_id":"levelo_inurba_marseille","lat":43.28165,"lon":5.42651,"is_reserved":false,"is_disabled":false,"rental_uris":{"android":"levelo://app?vid=78ed77cb-47f0-4c82-bf8a-f958576ec953","ios":"levelo://app?vid=78ed77cb-47f0-4c82-bf8a-f958576ec953"},"vehicle_type_id":"4","last_reported":1767197638,"current_range_meters":8800,"station_id":"ce4bhnh2rcd13ifvqgug","pricing_plan_id":"cebpf4jnsgd1na2vs0mg"},{"bike_id":"149a94e7-8065-4440-a1ab-1ba416a8f181","system_id":"levelo_inurba_marseille","lat":43.28479,"lon":5.48422,"is_reserved":false,"is_disabled":false,"rental_uris":{"android":"levelo://app?vid=149a94e7-8065-4440-a1ab-1ba416a8f181","ios":"levelo://app?vid=149a94e7-8065-4440-a1ab-1ba416a8f181"},"vehicle_type_id":"4","last_reported":1767197638,"current_range_meters":8800,"station_id":"","pricing_plan_id":"cebpf4jnsgd1na2vs0mg"},{"bike_id":"845c5dd0-89d6-4a62-8841-9e77bdbe7ca1","system_id":"levelo_inurba_marseille","lat":43.28627,"lon":5.35097,"is_reserved":false,"is_disabled":false,"rental_uris":{"android":"levelo://app?vid=845c5dd0-89d6-4a62-8841-9e77bdbe7ca1","ios":"levelo://app?vid=845c5dd0-89d6-4a62-8841-9e77bdbe7ca1"},"vehicle_type_id":"4","last_reported":1767197638,"current_range_meters":8800,"station_id":"ce4bhch2rcd13ifvqeug","pricing_plan_id":"cebpf4jnsgd1na2vs0mg"},{"bike_id":"d71f2cc9-34f1-4eed-8707-d0bf53e9f9dd","system_id":"levelo_inurba_marseille","lat":43.33552,"lon":5.37432,"is_reserved":false,"is_disabled":false,"rental_uris":{"android":"levelo://app?vid=d71f2cc9-34f1-4eed-8707-d0bf53e9f9dd","ios":"levelo://app?vid=d71f2cc9-34f1-4eed-8707-d0bf53e9f9dd"},"vehicle_type_id":"4","last_reported":1767197638,"current_range_meters":8800,"station_id":"st_d46tts09ee8s73dlu43g","pricing_plan_id":"cebpf4jnsgd1na2vs0mg"},{"bike_id":"2736b34b-98dd-4ca9-b701-f4278e5f6e64","system_id":"levelo_inurba_marseille","lat":43.3236,"lon":5.36763,"is_reserved":false,"is_disabled":false,"rental_uris":{"android":"levelo://app?vid=2736b34b-98dd-4ca9-b701-f4278e5f6e64","ios":"levelo://app?vid=2736b34b-98dd-4ca9-b701-f4278e5f6e64"},"vehicle_type_id":"4","last_reported":1767197638,"current_range_meters":9200,"station_id":"ce4bhsh2rcd13ifvqi2g","pricing_plan_id":"cebpf4jnsgd1na2vs0mg"},{"bike_id":"7cc08dd6-826c-4451-a490-86ca460ba99b","system_id":"levelo_inurba_marseille","lat":43.32104,"lon":5.36782,"is_reserved":false,"is_disabled":false,"rental_uris":{"android":"levelo://app?vid=7cc08dd6-826c-4451-a490-86ca460ba99b","ios":"levelo://app?vid=7cc08dd6-826c-4451-a490-86ca460ba99b"},"vehicle_type_id":"4","last_reported":1767197638,"current_range_meters":9200,"station_id":"ce4bhrh2rcd13ifvqhug","pricing_plan_id":"cebpf4jnsgd1na2vs0mg"},{"bike_id":"e1b17662-f82b-45fa-b1c7-e589b2454374","system_id":"levelo_inurba_marseille","lat":43.295715,"lon":5.375258,"is_reserved":false,"is_disabled":false,"rental_uris":{"android":"levelo://app?vid=e1b17662-f82b-45fa-b1c7-e589b2454374","ios":"levelo://app?vid=e1b17662-f82b-45fa-b1c7-e589b2454374"},"vehicle_type_id":"4","last_reported":1767197638,"current_range_meters":9200,"station_id":"ce4bgh92rcd13ifvqb50","pricing_plan_id":"cebpf4jnsgd1na2vs0mg"},{"bike_id":"6137edf3-4ae6-4eeb-8937-c94f44410a39","system_id":"levelo_inurba_marseille","lat":43.289976,"lon":5.356115,"is_reserved":false,"is_disabled":false,"rental_uris":{"android":"levelo://app?vid=6137edf3-4ae6-4eeb-8937-c94f44410a39","ios":"levelo://app?vid=6137edf3-4ae6-4eeb-8937-c94f44410a39"},"vehicle_type_id":"4","last_reported":1767197638,"current_range_meters":9200,"station_id":"ce4bhb92rcd13ifvqen0","pricing_plan_id":"cebpf4jnsgd1na2vs0mg"},{"bike_id":"b9f5bb9a-d9aa-4714-a9ae-ceaed3ab533e","system_id":"levelo_inurba_marseille","lat":43.29649,"lon":5.38049,"is_reserved":false,"is_disabled":false,"rental_uris":{"android":"levelo://app?vid=b9f5bb9a-d9aa-4714-a9ae-ceaed3ab533e","ios":"levelo://app?vid=b9f5bb9a-d9aa-4714-a9ae-ceaed3ab533e"},"vehicle_type_id":"4","last_reported":1767197638,"current_range_meters":9200,"station_id":"","pricing_plan_id":"cebpf4jnsgd1na2vs0mg"},{"bike_id":"9a2077a2-cebc-468c-82f9-fecda68a9ec3","system_id":"levelo_inurba_marseille","lat":43.2949,"lon":5.40896,"is_reserved":false,"is_disabled":false,"rental_uris":{"android":"levelo://app?vid=9a2077a2-cebc-468c-82f9-fecda68a9ec3","ios":"levelo://app?vid=9a2077a2-cebc-468c-82f9-fecda68a9ec3"},"vehicle_type_id":"4","last_reported":1767197638,"current_range_meters":9200,"station_id":"","pricing_plan_id":"cebpf4jnsgd1na2vs0mg"},{"bike_id":"950c0338-ee03-4bb1-82b4-c4470bbb4acc","system_id":"levelo_inurba_marseille","lat":43.31221,"lon":5.36864,"is_reserved":false,"is_disabled":false,"rental_uris":{"android":"levelo://app?vid=950c0338-ee03-4bb1-82b4-c4470bbb4acc","ios":"levelo://app?vid=950c0338-ee03-4bb1-82b4-c4470bbb4acc"},"vehicle_type_id":"4","last_reported":1767197638,"current_range_meters":9600,"station_id":"ce4bgl92rcd13ifvqbq0","pricing_plan_id":"cebpf4jnsgd1na2vs0mg"},{"bike_id":"9cb5ae99-5884-40a4-9c3b-7a9c989d5f03","system_id":"levelo_inurba_marseille","lat":43.28478,"lon":5.38409,"is_reserved":false,"is_disabled":false,"rental_uris":{"android":"levelo://app?vid=9cb5ae99-5884-40a4-9c3b-7a9c989d5f03","ios":"levelo://app?vid=9cb5ae99-5884-40a4-9c3b-7a9c989d5f03"},"vehicle_type_id":"4","last_reported":1767197638,"current_range_meters":9600,"station_id":"ce4bh512rcd13ifvqe3g","pricing_plan_id":"cebpf4jnsgd1na2vs0mg"},{"bike_id":"09d2c06d-8bf6-4902-b89c-26d6f0834bb9","system_id":"levelo_inurba_marseille","lat":43.30149,"lon":5.38093,"is_reserved":false,"is_disabled":false,"rental_uris":{"android":"levelo://app?vid=09d2c06d-8bf6-4902-b89c-26d6f0834bb9","ios":"levelo://app?vid=09d2c06d-8bf6-4902-b89c-26d6f0834bb9"},"vehicle_type_id":"4","last_reported":1767197638,"current_range_meters":9600,"station_id":"ce4bgjp2rcd13ifvqbh0","pricing_plan_id":"cebpf4jnsgd1na2vs0mg"},{"bike_id":"96657df9-7d68-4cd8-9f06-a5e501866c49","system_id":"levelo_inurba_marseille","lat":43.29299,"lon":5.37588,"is_reserved":false,"is_disabled":false,"rental_uris":{"android":"levelo://app?vid=96657df9-7d68-4cd8-9f06-a5e501866c49","ios":"levelo://app?vid=96657df9-7d68-4cd8-9f06-a5e501866c49"},"vehicle_type_id":"4","last_reported":1767197638,"current_range_meters":9600,"station_id":"","pricing_plan_id":"cebpf4jnsgd1na2vs0mg"},{"bike_id":"f29e3d0f-52f7-453d-9f78-5a7d8becb9e4","system_id":"levelo_inurba_marseille","lat":43.29365,"lon":5.37835,"is_reserved":false,"is_disabled":false,"rental_uris":{"android":"levelo://app?vid=f29e3d0f-52f7-453d-9f78-5a7d8becb9e4","ios":"levelo://app?vid=f29e3d0f-52f7-453d-9f78-5a7d8becb9e4"},"vehicle_type_id":"4","last_reported":1767197638,"current_range_meters":9600,"station_id":"ce4bgjh2rcd13ifvqbf0","pricing_plan_id":"cebpf4jnsgd1na2vs0mg"},{"bike_id":"f2a1774a-48ac-4b48-a633-a3169e406978","system_id":"levelo_inurba_marseille","lat":43.2837,"lon":5.38636,"is_reserved":false,"is_disabled":false,"rental_uris":{"android":"levelo://app?vid=f2a1774a-48ac-4b48-a633-a3169e406978","ios":"levelo://app?vid=f2a1774a-48ac-4b48-a633-a3169e406978"},"vehicle_type_id":"4","last_reported":1767197638,"current_range_meters":9600,"station_id":"ce4bh492rcd13ifvqdvg","pricing_plan_id":"cebpf4jnsgd1na2vs0mg"},{"bike_id":"46b49158-b22c-40b9-b9b7-16d9db4957e8","system_id":"levelo_inurba_marseille","lat":43.29083,"lon":5.38131,"is_reserved":false,"is_disabled":false,"rental_uris":{"android":"levelo://app?vid=46b49158-b22c-40b9-b9b7-16d9db4957e8","ios":"levelo://app?vid=46b49158-b22c-40b9-b9b7-16d9db4957e8"},"vehicle_type_id":"4","last_reported":1767197638,"current_range_meters":9600,"station_id":"ce4bh512rcd13ifvqe2g","pricing_plan_id":"cebpf4jnsgd1na2vs0mg"},{"bike_id":"4b4ac918-272a-4ae1-8d4c-7ea6068536f2","system_id":"levelo_inurba_marseille","lat":43.26191,"lon":5.3745,"is_reserved":false,"is_disabled":false,"rental_uris":{"android":"levelo://app?vid=4b4ac918-272a-4ae1-8d4c-7ea6068536f2","ios":"levelo://app?vid=4b4ac918-272a-4ae1-8d4c-7ea6068536f2"},"vehicle_type_id":"4","last_reported":1767197638,"current_range_meters":9600,"station_id":"ce4bhgp2rcd13ifvqfc0","pricing_plan_id":"cebpf4jnsgd1na2vs0mg"},{"bike_id":"5265762e-9468-4f8e-963d-e1d647f4d72d","system_id":"levelo_inurba_marseille","lat":43.337444,"lon":5.374475,"is_reserved":false,"is_disabled":false,"rental_uris":{"android":"levelo://app?vid=5265762e-9468-4f8e-963d-e1d647f4d72d","ios":"levelo://app?vid=5265762e-9468-4f8e-963d-e1d647f4d72d"},"vehicle_type_id":"4","last_reported":1767197638,"current_range_meters":10000,"station_id":"","pricing_plan_id":"cebpf4jnsgd1na2vs0mg"},{"bike_id":"90dac6f2-4e58-4623-b929-4f8d06ec1c31","system_id":"levelo_inurba_marseille","lat":43.28504,"lon":5.425383,"is_reserved":false,"is_disabled":false,"rental_uris":{"android":"levelo://app?vid=90dac6f2-4e58-4623-b929-4f8d06ec1c31","ios":"levelo://app?vid=90dac6f2-4e58-4623-b929-4f8d06ec1c31"},"vehicle_type_id":"4","last_reported":1767197638,"current_range_meters":10000,"station_id":"","pricing_plan_id":"cebpf4jnsgd1na2vs0mg"},{"bike_id":"e93c83d5-bafc-41ab-b80f-422d8d8d6d2a","system_id":"levelo_inurba_marseille","lat":43.26848,"lon":5.40078,"is_reserved":false,"is_disabled":false,"rental_uris":{"android":"levelo://app?vid=e93c83d5-bafc-41ab-b80f-422d8d8d6d2a","ios":"levelo://app?vid=e93c83d5-bafc-41ab-b80f-422d8d8d6d2a"},"vehicle_type_id":"4","last_reported":1767197638,"current_range_meters":10000,"station_id":"","pricing_plan_id":"cebpf4jnsgd1na2vs0mg"},{"bike_id":"4bc57557-a1ff-4445-8883-a2ab5098f534","system_id":"levelo_inurba_marseille","lat":43.336037,"lon":5.354198,"is_reserved":false,"is_disabled":false,"rental_uris":{"android":"levelo://app?vid=4bc57557-a1ff-4445-8883-a2ab5098f534","ios":"levelo://app?vid=4bc57557-a1ff-4445-8883-a2ab5098f534"},"vehicle_type_id":"4","last_reported":1767197638,"current_range_meters":10000,"station_id":"","pricing_plan_id":"cebpf4jnsgd1na2vs0mg"},{"bike_id":"362f482f-7e20-4877-b8ff-55749989c128","system_id":"levelo_inurba_marseille","lat":43.2929,"lon":5.37468,"is_reserved":false,"is_disabled":false,"rental_uris":{"android":"levelo://app?vid=362f482f-7e20-4877-b8ff-55749989c128","ios":"levelo://app?vid=362f482f-7e20-4877-b8ff-55749989c128"},"vehicle_type_id":"4","last_reported":1767197638,"current_range_meters":10000,"station_id":"ce4bgi12rcd13ifvqb70","pricing_plan_id":"cebpf4jnsgd1na2vs0mg"},{"bike_id":"3a141d09-bba6-4b91-b46b-8b717408de2a","system_id":"levelo_inurba_marseille","lat":43.29274,"lon":5.40112,"is_reserved":false,"is_disabled":false,"rental_uris":{"android":"levelo://app?vid=3a141d09-bba6-4b91-b46b-8b717408de2a","ios":"levelo://app?vid=3a141d09-bba6-4b91-b46b-8b717408de2a"},"vehicle_type_id":"4","last_reported":1767197638,"current_range_meters":10000,"station_id":"ce4bh312rcd13ifvqdk0","pricing_plan_id":"cebpf4jnsgd1na2vs0mg"},{"bike_id":"6bc1b359-3312-46fe-b4be-74e585c45cbe","system_id":"levelo_inurba_marseille","lat":43.28616,"lon":5.35104,"is_reserved":false,"is_disabled":false,"rental_uris":{"android":"levelo://app?vid=6bc1b359-3312-46fe-b4be-74e585c45cbe","ios":"levelo://app?vid=6bc1b359-3312-46fe-b4be-74e585c45cbe"},"vehicle_type_id":"4","last_reported":1767197638,"current_range_meters":10000,"station_id":"ce4bhch2rcd13ifvqeug","pricing_plan_id":"cebpf4jnsgd1na2vs0mg"},{"bike_id":"6d34a40a-3c31-4e57-aba7-ad6f30894876","system_id":"levelo_inurba_marseille","lat":43.29941,"lon":5.37421,"is_reserved":false,"is_disabled":false,"rental_uris":{"android":"levelo://app?vid=6d34a40a-3c31-4e57-aba7-ad6f30894876","ios":"levelo://app?vid=6d34a40a-3c31-4e57-aba7-ad6f30894876"},"vehicle_type_id":"4","last_reported":1767197638,"current_range_meters":10000,"station_id":"","pricing_plan_id":"cebpf4jnsgd1na2vs0mg"},{"bike_id":"cf61d156-dac6-4f0e-b382-70446db78ff3","system_id":"levelo_inurba_marseille","lat":43.32358,"lon":5.36746,"is_reserved":false,"is_disabled":false,"rental_uris":{"android":"levelo://app?vid=cf61d156-dac6-4f0e-b382-70446db78ff3","ios":"levelo://app?vid=cf61d156-dac6-4f0e-b382-70446db78ff3"},"vehicle_type_id":"4","last_reported":1767197638,"current_range_meters":10000,"station_id":"ce4bhsh2rcd13ifvqi2g","pricing_plan_id":"cebpf4jnsgd1na2vs0mg"},{"bike_id":"35af6809-72be-4e72-bd1c-f6c4aecdcfbe","system_id":"levelo_inurba_marseille","lat":43.29525,"lon":5.38548,"is_reserved":false,"is_disabled":false,"rental_uris":{"android":"levelo://app?vid=35af6809-72be-4e72-bd1c-f6c4aecdcfbe","ios":"levelo://app?vid=35af6809-72be-4e72-bd1c-f6c4aecdcfbe"},"vehicle_type_id":"4","last_reported":1767197638,"current_range_meters":10000,"station_id":"ce4bgih2rcd13ifvqba0","pricing_plan_id":"cebpf4jnsgd1na2vs0mg"},{"bike_id":"650cf425-f87e-4c30-9156-354d5fef94cd","system_id":"levelo_inurba_marseille","lat":43.30131,"lon":5.36752,"is_reserved":false,"is_disabled":false,"rental_uris":{"android":"levelo://app?vid=650cf425-f87e-4c30-9156-354d5fef94cd","ios":"levelo://app?vid=650cf425-f87e-4c30-9156-354d5fef94cd"},"vehicle_type_id":"4","last_reported":1767197638,"current_range_meters":10000,"station_id":"","pricing_plan_id":"cebpf4jnsgd1na2vs0mg"},{"bike_id":"4db036f1-4bff-4e01-a9d0-364a37724f0c","system_id":"levelo_inurba_marseille","lat":43.29854,"lon":5.36273,"is_reserved":false,"is_disabled":false,"rental_uris":{"android":"levelo://app?vid=4db036f1-4bff-4e01-a9d0-364a37724f0c","ios":"levelo://app?vid=4db036f1-4bff-4e01-a9d0-364a37724f0c"},"vehicle_type_id":"4","last_reported":1767197638,"current_range_meters":10000,"station_id":"ce4bgpp2rcd13ifvqc3g","pricing_plan_id":"cebpf4jnsgd1na2vs0mg"},{"bike_id":"4285e530-5ba1-4900-9d8a-cdee106fe67f","system_id":"levelo_inurba_marseille","lat":43.30551,"lon":5.36667,"is_reserved":false,"is_disabled":false,"rental_uris":{"android":"levelo://app?vid=4285e530-5ba1-4900-9d8a-cdee106fe67f","ios":"levelo://app?vid=4285e530-5ba1-4900-9d8a-cdee106fe67f"},"vehicle_type_id":"4","last_reported":1767197638,"current_range_meters":10000,"station_id":"","pricing_plan_id":"cebpf4jnsgd1na2vs0mg"},{"bike_id":"21649bf5-a7e4-4e95-914e-5b8b5b1e3c72","system_id":"levelo_inurba_marseille","lat":43.27068,"lon":5.42247,"is_reserved":false,"is_disabled":false,"rental_uris":{"android":"levelo://app?vid=21649bf5-a7e4-4e95-914e-5b8b5b1e3c72","ios":"levelo://app?vid=21649bf5-a7e4-4e95-914e-5b8b5b1e3c72"},"vehicle_type_id":"4","last_reported":1767197638,"current_range_meters":10800,"station_id":"ce4bhk92rcd13ifvqgb0","pricing_plan_id":"cebpf4jnsgd1na2vs0mg"},{"bike_id":"00869951-3557-4052-a20c-785816b1b438","system_id":"levelo_inurba_marseille","lat":43.27207,"lon":5.39187,"is_reserved":false,"is_disabled":false,"rental_uris":{"android":"levelo://app?vid=00869951-3557-4052-a20c-785816b1b438","ios":"levelo://app?vid=00869951-3557-4052-a20c-785816b1b438"},"vehicle_type_id":"4","last_reported":1767197638,"current_range_meters":10800,"station_id":"ce4bhhp2rcd13ifvqfm0","pricing_plan_id":"cebpf4jnsgd1na2vs0mg"},{"bike_id":"e6dbe591-2fd4-4b2d-aa25-179a088493ea","system_id":"levelo_inurba_marseille","lat":43.225353,"lon":5.348308,"is_reserved":false,"is_disabled":false,"rental_uris":{"android":"levelo://app?vid=e6dbe591-2fd4-4b2d-aa25-179a088493ea","ios":"levelo://app?vid=e6dbe591-2fd4-4b2d-aa25-179a088493ea"},"vehicle_type_id":"4","last_reported":1767197638,"current_range_meters":10800,"station_id":"","pricing_plan_id":"cebpf4jnsgd1na2vs0mg"},{"bike_id":"a827215d-ae9a-42fa-b1c6-77e2c3b6fa6a","system_id":"levelo_inurba_marseille","lat":43.28442,"lon":5.39208,"is_reserved":false,"is_disabled":false,"rental_uris":{"android":"levelo://app?vid=a827215d-ae9a-42fa-b1c6-77e2c3b6fa6a","ios":"levelo://app?vid=a827215d-ae9a-42fa-b1c6-77e2c3b6fa6a"},"vehicle_type_id":"4","last_reported":1767197638,"current_range_meters":10800,"station_id":"ce4bhoh2rcd13ifvqh5g","pricing_plan_id":"cebpf4jnsgd1na2vs0mg"},{"bike_id":"72828bad-35a5-4d63-8938-89c54cc6e0d5","system_id":"levelo_inurba_marseille","lat":43.25159,"lon":5.40735,"is_reserved":false,"is_disabled":false,"rental_uris":{"android":"levelo://app?vid=72828bad-35a5-4d63-8938-89c54cc6e0d5","ios":"levelo://app?vid=72828bad-35a5-4d63-8938-89c54cc6e0d5"},"vehicle_type_id":"4","last_reported":1767197638,"current_range_meters":10800,"station_id":"","pricing_plan_id":"cebpf4jnsgd1na2vs0mg"},{"bike_id":"8fa53ddb-80a9-4b81-a17d-6b07554edef4","system_id":"levelo_inurba_marseille","lat":43.28474,"lon":5.48396,"is_reserved":false,"is_disabled":false,"rental_uris":{"android":"levelo://app?vid=8fa53ddb-80a9-4b81-a17d-6b07554edef4","ios":"levelo://app?vid=8fa53ddb-80a9-4b81-a17d-6b07554edef4"},"vehicle_type_id":"4","last_reported":1767197638,"current_range_meters":10800,"station_id":"st_d3svhcjqgbts73a3dn0g","pricing_plan_id":"cebpf4jnsgd1na2vs0mg"},{"bike_id":"c78b7752-9cb7-4b06-a8ef-1f65d9ce20cf","system_id":"levelo_inurba_marseille","lat":43.31648,"lon":5.38808,"is_reserved":false,"is_disabled":false,"rental_uris":{"android":"levelo://app?vid=c78b7752-9cb7-4b06-a8ef-1f65d9ce20cf","ios":"levelo://app?vid=c78b7752-9cb7-4b06-a8ef-1f65d9ce20cf"},"vehicle_type_id":"4","last_reported":1767197638,"current_range_meters":10800,"station_id":"","pricing_plan_id":"cebpf4jnsgd1na2vs0mg"},{"bike_id":"7551785e-204a-497a-970b-3f705e46ec42","system_id":"levelo_inurba_marseille","lat":43.2582,"lon":5.39439,"is_reserved":false,"is_disabled":false,"rental_uris":{"android":"levelo://app?vid=7551785e-204a-497a-970b-3f705e46ec42","ios":"levelo://app?vid=7551785e-204a-497a-970b-3f705e46ec42"},"vehicle_type_id":"4","last_reported":1767197638,"current_range_meters":10800,"station_id":"ce4bhip2rcd13ifvqft0","pricing_plan_id":"cebpf4jnsgd1na2vs0mg"},{"bike_id":"4372a42a-b334-4e8f-9141-9b6d15dd3e03","system_id":"levelo_inurba_marseille","lat":43.28478,"lon":5.48388,"is_reserved":false,"is_disabled":false,"rental_uris":{"android":"levelo://app?vid=4372a42a-b334-4e8f-9141-9b6d15dd3e03","ios":"levelo://app?vid=4372a42a-b334-4e8f-9141-9b6d15dd3e03"},"vehicle_type_id":"4","last_reported":1767197638,"current_range_meters":10800,"station_id":"","pricing_plan_id":"cebpf4jnsgd1na2vs0mg"},{"bike_id":"103caefe-1488-4aeb-ad13-4430751a8003","system_id":"levelo_inurba_marseille","lat":43.27493,"lon":5.4246,"is_reserved":false,"is_disabled":false,"rental_uris":{"android":"levelo://app?vid=103caefe-1488-4aeb-ad13-4430751a8003","ios":"levelo://app?vid=103caefe-1488-4aeb-ad13-4430751a8003"},"vehicle_type_id":"4","last_reported":1767197638,"current_range_meters":10800,"station_id":"ce4bhn92rcd13ifvqgrg","pricing_plan_id":"cebpf4jnsgd1na2vs0mg"},{"bike_id":"d285cd77-c7b4-4ad4-ad28-ed6edfeaa990","system_id":"levelo_inurba_marseille","lat":43.29609,"lon":5.38084,"is_reserved":false,"is_disabled":true,"rental_uris":{"android":"levelo://app?vid=d285cd77-c7b4-4ad4-ad28-ed6edfeaa990","ios":"levelo://app?vid=d285cd77-c7b4-4ad4-ad28-ed6edfeaa990"},"vehicle_type_id":"4","last_reported":1767197638,"current_range_meters":10800,"station_id":"ce4bgl12rcd13ifvqbo0","pricing_plan_id":"cebpf4jnsgd1na2vs0mg"},{"bike_id":"d49fd2c9-dca5-4864-87e0-359520dd27b8","system_id":"levelo_inurba_marseille","lat":43.26132,"lon":5.39759,"is_reserved":false,"is_disabled":false,"rental_uris":{"android":"levelo://app?vid=d49fd2c9-dca5-4864-87e0-359520dd27b8","ios":"levelo://app?vid=d49fd2c9-dca5-4864-87e0-359520dd27b8"},"vehicle_type_id":"4","last_reported":1767197638,"current_range_meters":10800,"station_id":"","pricing_plan_id":"cebpf4jnsgd1na2vs0mg"},{"bike_id":"f297e1d0-d6d1-470d-832a-7cfd1d704b5f","system_id":"levelo_inurba_marseille","lat":43.26908,"lon":5.39301,"is_reserved":false,"is_disabled":false,"rental_uris":{"android":"levelo://app?vid=f297e1d0-d6d1-470d-832a-7cfd1d704b5f","ios":"levelo://app?vid=f297e1d0-d6d1-470d-832a-7cfd1d704b5f"},"vehicle_type_id":"4","last_reported":1767197638,"current_range_meters":10800,"station_id":"","pricing_plan_id":"cebpf4jnsgd1na2vs0mg"},{"bike_id":"bebfe7ea-f824-4306-ad94-9d5d87ac8f64","system_id":"levelo_inurba_marseille","lat":43.31078,"lon":5.38358,"is_reserved":false,"is_disabled":false,"rental_uris":{"android":"levelo://app?vid=bebfe7ea-f824-4306-ad94-9d5d87ac8f64","ios":"levelo://app?vid=bebfe7ea-f824-4306-ad94-9d5d87ac8f64"},"vehicle_type_id":"4","last_reported":1767197638,"current_range_meters":10800,"station_id":"ce4bgv92rcd13ifvqcr0","pricing_plan_id":"cebpf4jnsgd1na2vs0mg"},{"bike_id":"64261d8c-6043-4f56-95bc-d20642b963c0","system_id":"levelo_inurba_marseille","lat":43.33352,"lon":5.41089,"is_reserved":false,"is_disabled":false,"rental_uris":{"android":"levelo://app?vid=64261d8c-6043-4f56-95bc-d20642b963c0","ios":"levelo://app?vid=64261d8c-6043-4f56-95bc-d20642b963c0"},"vehicle_type_id":"4","last_reported":1767197638,"current_range_meters":10800,"station_id":"","pricing_plan_id":"cebpf4jnsgd1na2vs0mg"},{"bike_id":"3d022657-5485-4a7e-9fd6-3e1b901ddcf3","system_id":"levelo_inurba_marseille","lat":43.294138,"lon":5.386577,"is_reserved":false,"is_disabled":false,"rental_uris":{"android":"levelo://app?vid=3d022657-5485-4a7e-9fd6-3e1b901ddcf3","ios":"levelo://app?vid=3d022657-5485-4a7e-9fd6-3e1b901ddcf3"},"vehicle_type_id":"4","last_reported":1767197638,"current_range_meters":10800,"station_id":"ce4bh012rcd13ifvqd10","pricing_plan_id":"cebpf4jnsgd1na2vs0mg"},{"bike_id":"41f05f5d-197f-4a6e-9397-89539d840bd3","system_id":"levelo_inurba_marseille","lat":43.26678,"lon":5.38268,"is_reserved":false,"is_disabled":false,"rental_uris":{"android":"levelo://app?vid=41f05f5d-197f-4a6e-9397-89539d840bd3","ios":"levelo://app?vid=41f05f5d-197f-4a6e-9397-89539d840bd3"},"vehicle_type_id":"4","last_reported":1767197638,"current_range_meters":10800,"station_id":"ce4bhg92rcd13ifvqf90","pricing_plan_id":"cebpf4jnsgd1na2vs0mg"},{"bike_id":"b595dcf9-9e54-40d7-8066-ad8a571306a2","system_id":"levelo_inurba_marseille","lat":43.23152,"lon":5.4371,"is_reserved":false,"is_disabled":false,"rental_uris":{"android":"levelo://app?vid=b595dcf9-9e54-40d7-8066-ad8a571306a2","ios":"levelo://app?vid=b595dcf9-9e54-40d7-8066-ad8a571306a2"},"vehicle_type_id":"4","last_reported":1767197638,"current_range_meters":10800,"station_id":"ce4bhmp2rcd13ifvqgog","pricing_plan_id":"cebpf4jnsgd1na2vs0mg"},{"bike_id":"090deb3c-b463-4496-9a6a-019b5e498763","system_id":"levelo_inurba_marseille","lat":43.32363,"lon":5.36719,"is_reserved":false,"is_disabled":false,"rental_uris":{"android":"levelo://app?vid=090deb3c-b463-4496-9a6a-019b5e498763","ios":"levelo://app?vid=090deb3c-b463-4496-9a6a-019b5e498763"},"vehicle_type_id":"4","last_reported":1767197638,"current_range_meters":11200,"station_id":"ce4bhsh2rcd13ifvqi2g","pricing_plan_id":"cebpf4jnsgd1na2vs0mg"},{"bike_id":"3c554b37-3b38-4c8a-be17-815a87aa6e42","system_id":"levelo_inurba_marseille","lat":43.2979,"lon":5.38096,"is_reserved":false,"is_disabled":false,"rental_uris":{"android":"levelo://app?vid=3c554b37-3b38-4c8a-be17-815a87aa6e42","ios":"levelo://app?vid=3c554b37-3b38-4c8a-be17-815a87aa6e42"},"vehicle_type_id":"4","last_reported":1767197638,"current_range_meters":11200,"station_id":"ce4bgip2rcd13ifvqbb0","pricing_plan_id":"cebpf4jnsgd1na2vs0mg"},{"bike_id":"13685f43-1754-483c-bb4a-6ca7a26a0572","system_id":"levelo_inurba_marseille","lat":43.27061,"lon":5.38308,"is_reserved":false,"is_disabled":false,"rental_uris":{"android":"levelo://app?vid=13685f43-1754-483c-bb4a-6ca7a26a0572","ios":"levelo://app?vid=13685f43-1754-483c-bb4a-6ca7a26a0572"},"vehicle_type_id":"4","last_reported":1767197638,"current_range_meters":11200,"station_id":"st_d3n2fo6cfp8s73cte1j0","pricing_plan_id":"cebpf4jnsgd1na2vs0mg"},{"bike_id":"be592858-7018-469f-bd29-4bad0acfdb4c","system_id":"levelo_inurba_marseille","lat":43.26197,"lon":5.37935,"is_reserved":false,"is_disabled":false,"rental_uris":{"android":"levelo://app?vid=be592858-7018-469f-bd29-4bad0acfdb4c","ios":"levelo://app?vid=be592858-7018-469f-bd29-4bad0acfdb4c"},"vehicle_type_id":"4","last_reported":1767197638,"current_range_meters":11200,"station_id":"ce4bhjp2rcd13ifvqg90","pricing_plan_id":"cebpf4jnsgd1na2vs0mg"},{"bike_id":"a02fb672-5bdf-46c8-9fc1-e8fcbc8dc4d2","system_id":"levelo_inurba_marseille","lat":43.303199,"lon":5.386564,"is_reserved":false,"is_disabled":false,"rental_uris":{"android":"levelo://app?vid=a02fb672-5bdf-46c8-9fc1-e8fcbc8dc4d2","ios":"levelo://app?vid=a02fb672-5bdf-46c8-9fc1-e8fcbc8dc4d2"},"vehicle_type_id":"4","last_reported":1767197638,"current_range_meters":11200,"station_id":"","pricing_plan_id":"cebpf4jnsgd1na2vs0mg"},{"bike_id":"94e16f28-7dcf-4273-940d-294336091110","system_id":"levelo_inurba_marseille","lat":43.29549,"lon":5.38144,"is_reserved":false,"is_disabled":false,"rental_uris":{"android":"levelo://app?vid=94e16f28-7dcf-4273-940d-294336091110","ios":"levelo://app?vid=94e16f28-7dcf-4273-940d-294336091110"},"vehicle_type_id":"4","last_reported":1767197638,"current_range_meters":11200,"station_id":"","pricing_plan_id":"cebpf4jnsgd1na2vs0mg"},{"bike_id":"17ed143c-c6a8-4d0a-bc59-6cc80ba2c7cb","system_id":"levelo_inurba_marseille","lat":43.32123,"lon":5.36785,"is_reserved":false,"is_disabled":false,"rental_uris":{"android":"levelo://app?vid=17ed143c-c6a8-4d0a-bc59-6cc80ba2c7cb","ios":"levelo://app?vid=17ed143c-c6a8-4d0a-bc59-6cc80ba2c7cb"},"vehicle_type_id":"4","last_reported":1767197638,"current_range_meters":11200,"station_id":"ce4bhrh2rcd13ifvqhug","pricing_plan_id":"cebpf4jnsgd1na2vs0mg"},{"bike_id":"1e979309-d823-4aaf-b851-f1be8461cefe","system_id":"levelo_inurba_marseille","lat":43.28491,"lon":5.48382,"is_reserved":false,"is_disabled":false,"rental_uris":{"android":"levelo://app?vid=1e979309-d823-4aaf-b851-f1be8461cefe","ios":"levelo://app?vid=1e979309-d823-4aaf-b851-f1be8461cefe"},"vehicle_type_id":"4","last_reported":1767197638,"current_range_meters":11200,"station_id":"st_d3svhcjqgbts73a3dn0g","pricing_plan_id":"cebpf4jnsgd1na2vs0mg"},{"bike_id":"c04b59ba-9cec-4feb-a03a-55310787347e","system_id":"levelo_inurba_marseille","lat":43.30428,"lon":5.38889,"is_reserved":false,"is_disabled":false,"rental_uris":{"android":"levelo://app?vid=c04b59ba-9cec-4feb-a03a-55310787347e","ios":"levelo://app?vid=c04b59ba-9cec-4feb-a03a-55310787347e"},"vehicle_type_id":"4","last_reported":1767197638,"current_range_meters":11200,"station_id":"ce4bgk12rcd13ifvqbi0","pricing_plan_id":"cebpf4jnsgd1na2vs0mg"},{"bike_id":"d98baefd-4a2d-4d92-b8d9-46ebabf8a3a0","system_id":"levelo_inurba_marseille","lat":43.29574,"lon":5.39972,"is_reserved":false,"is_disabled":false,"rental_uris":{"android":"levelo://app?vid=d98baefd-4a2d-4d92-b8d9-46ebabf8a3a0","ios":"levelo://app?vid=d98baefd-4a2d-4d92-b8d9-46ebabf8a3a0"},"vehicle_type_id":"4","last_reported":1767197638,"current_range_meters":11200,"station_id":"ce4bh312rcd13ifvqdj0","pricing_plan_id":"cebpf4jnsgd1na2vs0mg"},{"bike_id":"e5a301b8-03e6-4149-a40c-f49884225898","system_id":"levelo_inurba_marseille","lat":43.299376,"lon":5.365589,"is_reserved":false,"is_disabled":false,"rental_uris":{"android":"levelo://app?vid=e5a301b8-03e6-4149-a40c-f49884225898","ios":"levelo://app?vid=e5a301b8-03e6-4149-a40c-f49884225898"},"vehicle_type_id":"4","last_reported":1767197638,"current_range_meters":11200,"station_id":"ce4bgm92rcd13ifvqbr0","pricing_plan_id":"cebpf4jnsgd1na2vs0mg"},{"bike_id":"db6d28d9-a96d-4c87-9186-bc8fab9306f5","system_id":"levelo_inurba_marseille","lat":43.28088,"lon":5.4067,"is_reserved":false,"is_disabled":false,"rental_uris":{"android":"levelo://app?vid=db6d28d9-a96d-4c87-9186-bc8fab9306f5","ios":"levelo://app?vid=db6d28d9-a96d-4c87-9186-bc8fab9306f5"},"vehicle_type_id":"4","last_reported":1767197638,"current_range_meters":11200,"station_id":"","pricing_plan_id":"cebpf4jnsgd1na2vs0mg"},{"bike_id":"4eb984c0-cff5-47bc-8a26-322fcbc1459a","system_id":"levelo_inurba_marseille","lat":43.28411,"lon":5.34992,"is_reserved":false,"is_disabled":false,"rental_uris":{"android":"levelo://app?vid=4eb984c0-cff5-47bc-8a26-322fcbc1459a","ios":"levelo://app?vid=4eb984c0-cff5-47bc-8a26-322fcbc1459a"},"vehicle_type_id":"4","last_reported":1767197638,"current_range_meters":11200,"station_id":"ce4bhbh2rcd13ifvqepg","pricing_plan_id":"cebpf4jnsgd1na2vs0mg"},{"bike_id":"cb433141-825a-49cd-bbee-623c4e5c0fcd","system_id":"levelo_inurba_marseille","lat":43.297596,"lon":5.427794,"is_reserved":false,"is_disabled":false,"rental_uris":{"android":"levelo://app?vid=cb433141-825a-49cd-bbee-623c4e5c0fcd","ios":"levelo://app?vid=cb433141-825a-49cd-bbee-623c4e5c0fcd"},"vehicle_type_id":"4","last_reported":1767197638,"current_range_meters":11200,"station_id":"st_d3md5207bmas73dh9klg","pricing_plan_id":"cebpf4jnsgd1na2vs0mg"},{"bike_id":"4e4be9e7-7142-4461-ad04-34a9693b261f","system_id":"levelo_inurba_marseille","lat":43.27054,"lon":5.42272,"is_reserved":false,"is_disabled":true,"rental_uris":{"android":"levelo://app?vid=4e4be9e7-7142-4461-ad04-34a9693b261f","ios":"levelo://app?vid=4e4be9e7-7142-4461-ad04-34a9693b261f"},"vehicle_type_id":"4","last_reported":1767197638,"current_range_meters":11600,"station_id":"ce4bhk92rcd13ifvqgb0","pricing_plan_id":"cebpf4jnsgd1na2vs0mg"},{"bike_id":"79b5f154-7cc7-44e6-a387-d261a3ea65b3","system_id":"levelo_inurba_marseille","lat":43.29873,"lon":5.36263,"is_reserved":false,"is_disabled":false,"rental_uris":{"android":"levelo://app?vid=79b5f154-7cc7-44e6-a387-d261a3ea65b3","ios":"levelo://app?vid=79b5f154-7cc7-44e6-a387-d261a3ea65b3"},"vehicle_type_id":"4","last_reported":1767197638,"current_range_meters":11600,"station_id":"ce4bgpp2rcd13ifvqc3g","pricing_plan_id":"cebpf4jnsgd1na2vs0mg"},{"bike_id":"e422d1e6-989b-48c2-be56-4107da9ba332","system_id":"levelo_inurba_marseille","lat":43.32113,"lon":5.36777,"is_reserved":false,"is_disabled":false,"rental_uris":{"android":"levelo://app?vid=e422d1e6-989b-48c2-be56-4107da9ba332","ios":"levelo://app?vid=e422d1e6-989b-48c2-be56-4107da9ba332"},"vehicle_type_id":"4","last_reported":1767197638,"current_range_meters":11600,"station_id":"ce4bhrh2rcd13ifvqhug","pricing_plan_id":"cebpf4jnsgd1na2vs0mg"},{"bike_id":"602f0694-d002-4ef3-ad6b-d90ada23311f","system_id":"levelo_inurba_marseille","lat":43.297787,"lon":5.371014,"is_reserved":false,"is_disabled":false,"rental_uris":{"android":"levelo://app?vid=602f0694-d002-4ef3-ad6b-d90ada23311f","ios":"levelo://app?vid=602f0694-d002-4ef3-ad6b-d90ada23311f"},"vehicle_type_id":"4","last_reported":1767197638,"current_range_meters":11600,"station_id":"ce4bgop2rcd13ifvqc1g","pricing_plan_id":"cebpf4jnsgd1na2vs0mg"},{"bike_id":"b147d14a-4f3a-47b9-8a50-cfd276a67310","system_id":"levelo_inurba_marseille","lat":43.3022,"lon":5.39478,"is_reserved":false,"is_disabled":false,"rental_uris":{"android":"levelo://app?vid=b147d14a-4f3a-47b9-8a50-cfd276a67310","ios":"levelo://app?vid=b147d14a-4f3a-47b9-8a50-cfd276a67310"},"vehicle_type_id":"4","last_reported":1767197638,"current_range_meters":11600,"station_id":"ce4bh0p2rcd13ifvqd70","pricing_plan_id":"cebpf4jnsgd1na2vs0mg"},{"bike_id":"f489c472-ee6d-42dd-8be8-3a531cfd3f02","system_id":"levelo_inurba_marseille","lat":43.28726,"lon":5.45483,"is_reserved":false,"is_disabled":false,"rental_uris":{"android":"levelo://app?vid=f489c472-ee6d-42dd-8be8-3a531cfd3f02","ios":"levelo://app?vid=f489c472-ee6d-42dd-8be8-3a531cfd3f02"},"vehicle_type_id":"4","last_reported":1767197638,"current_range_meters":11600,"station_id":"","pricing_plan_id":"cebpf4jnsgd1na2vs0mg"},{"bike_id":"7a96c586-c24a-4a03-837c-37bc273cbe70","system_id":"levelo_inurba_marseille","lat":43.26059,"lon":5.39397,"is_reserved":false,"is_disabled":false,"rental_uris":{"android":"levelo://app?vid=7a96c586-c24a-4a03-837c-37bc273cbe70","ios":"levelo://app?vid=7a96c586-c24a-4a03-837c-37bc273cbe70"},"vehicle_type_id":"4","last_reported":1767197638,"current_range_meters":11600,"station_id":"ce4bhh92rcd13ifvqfj0","pricing_plan_id":"cebpf4jnsgd1na2vs0mg"},{"bike_id":"6895ecdd-1253-423c-93ba-1d2572fa6898","system_id":"levelo_inurba_marseille","lat":43.27059,"lon":5.38301,"is_reserved":false,"is_disabled":false,"rental_uris":{"android":"levelo://app?vid=6895ecdd-1253-423c-93ba-1d2572fa6898","ios":"levelo://app?vid=6895ecdd-1253-423c-93ba-1d2572fa6898"},"vehicle_type_id":"4","last_reported":1767197638,"current_range_meters":12000,"station_id":"st_d3n2fo6cfp8s73cte1j0","pricing_plan_id":"cebpf4jnsgd1na2vs0mg"},{"bike_id":"ae16ff2f-039d-4cdf-a936-aa3dd9f21d44","system_id":"levelo_inurba_marseille","lat":43.27057,"lon":5.38307,"is_reserved":false,"is_disabled":false,"rental_uris":{"android":"levelo://app?vid=ae16ff2f-039d-4cdf-a936-aa3dd9f21d44","ios":"levelo://app?vid=ae16ff2f-039d-4cdf-a936-aa3dd9f21d44"},"vehicle_type_id":"4","last_reported":1767197638,"current_range_meters":12000,"station_id":"st_d3n2fo6cfp8s73cte1j0","pricing_plan_id":"cebpf4jnsgd1na2vs0mg"},{"bike_id":"01b14498-1ced-41d0-ab22-4340eb620b12","system_id":"levelo_inurba_marseille","lat":43.21752,"lon":5.34598,"is_reserved":false,"is_disabled":false,"rental_uris":{"android":"levelo://app?vid=01b14498-1ced-41d0-ab22-4340eb620b12","ios":"levelo://app?vid=01b14498-1ced-41d0-ab22-4340eb620b12"},"vehicle_type_id":"4","last_reported":1767197638,"current_range_meters":12000,"station_id":"st_cvj6r9ubvosntc0bgbag","pricing_plan_id":"cebpf4jnsgd1na2vs0mg"},{"bike_id":"b42867a7-20ab-45bb-b25b-6428a15ddf1c","system_id":"levelo_inurba_marseille","lat":43.26517,"lon":5.37956,"is_reserved":false,"is_disabled":false,"rental_uris":{"android":"levelo://app?vid=b42867a7-20ab-45bb-b25b-6428a15ddf1c","ios":"levelo://app?vid=b42867a7-20ab-45bb-b25b-6428a15ddf1c"},"vehicle_type_id":"4","last_reported":1767197638,"current_range_meters":12000,"station_id":"","pricing_plan_id":"cebpf4jnsgd1na2vs0mg"},{"bike_id":"1ebd2a0c-42a1-4a60-8730-e1ef90962935","system_id":"levelo_inurba_marseille","lat":43.323503,"lon":5.367443,"is_reserved":false,"is_disabled":false,"rental_uris":{"android":"levelo://app?vid=1ebd2a0c-42a1-4a60-8730-e1ef90962935","ios":"levelo://app?vid=1ebd2a0c-42a1-4a60-8730-e1ef90962935"},"vehicle_type_id":"4","last_reported":1767197638,"current_range_meters":12000,"station_id":"ce4bhsh2rcd13ifvqi2g","pricing_plan_id":"cebpf4jnsgd1na2vs0mg"},{"bike_id":"4b33b5cb-7bec-4712-9fcc-36239248ffed","system_id":"levelo_inurba_marseille","lat":43.271385,"lon":5.392533,"is_reserved":false,"is_disabled":false,"rental_uris":{"android":"levelo://app?vid=4b33b5cb-7bec-4712-9fcc-36239248ffed","ios":"levelo://app?vid=4b33b5cb-7bec-4712-9fcc-36239248ffed"},"vehicle_type_id":"4","last_reported":1767197638,"current_range_meters":12000,"station_id":"","pricing_plan_id":"cebpf4jnsgd1na2vs0mg"},{"bike_id":"b5f80a1c-7345-44ae-9c2d-843287ace1f8","system_id":"levelo_inurba_marseille","lat":43.27439,"lon":5.42397,"is_reserved":false,"is_disabled":false,"rental_uris":{"android":"levelo://app?vid=b5f80a1c-7345-44ae-9c2d-843287ace1f8","ios":"levelo://app?vid=b5f80a1c-7345-44ae-9c2d-843287ace1f8"},"vehicle_type_id":"4","last_reported":1767197638,"current_range_meters":12000,"station_id":"","pricing_plan_id":"cebpf4jnsgd1na2vs0mg"},{"bike_id":"0788e991-1623-4154-b614-e1261a941949","system_id":"levelo_inurba_marseille","lat":43.31273,"lon":5.37434,"is_reserved":false,"is_disabled":false,"rental_uris":{"android":"levelo://app?vid=0788e991-1623-4154-b614-e1261a941949","ios":"levelo://app?vid=0788e991-1623-4154-b614-e1261a941949"},"vehicle_type_id":"4","last_reported":1767197638,"current_range_meters":12000,"station_id":"","pricing_plan_id":"cebpf4jnsgd1na2vs0mg"},{"bike_id":"9e5dafc7-f2da-4d0b-b668-e32cc043ceb4","system_id":"levelo_inurba_marseille","lat":43.28047,"lon":5.40073,"is_reserved":false,"is_disabled":false,"rental_uris":{"android":"levelo://app?vid=9e5dafc7-f2da-4d0b-b668-e32cc043ceb4","ios":"levelo://app?vid=9e5dafc7-f2da-4d0b-b668-e32cc043ceb4"},"vehicle_type_id":"4","last_reported":1767197638,"current_range_meters":12000,"station_id":"","pricing_plan_id":"cebpf4jnsgd1na2vs0mg"},{"bike_id":"f714aaab-a542-491d-83cc-685b91e1175c","system_id":"levelo_inurba_marseille","lat":43.301361,"lon":5.387748,"is_reserved":false,"is_disabled":false,"rental_uris":{"android":"levelo://app?vid=f714aaab-a542-491d-83cc-685b91e1175c","ios":"levelo://app?vid=f714aaab-a542-491d-83cc-685b91e1175c"},"vehicle_type_id":"4","last_reported":1767197638,"current_range_meters":12000,"station_id":"ce4bghh2rcd13ifvqb60","pricing_plan_id":"cebpf4jnsgd1na2vs0mg"},{"bike_id":"633dee9c-e46f-4e37-ab36-1c74f2532c4f","system_id":"levelo_inurba_marseille","lat":43.28407,"lon":5.37533,"is_reserved":false,"is_disabled":false,"rental_uris":{"android":"levelo://app?vid=633dee9c-e46f-4e37-ab36-1c74f2532c4f","ios":"levelo://app?vid=633dee9c-e46f-4e37-ab36-1c74f2532c4f"},"vehicle_type_id":"4","last_reported":1767197638,"current_range_meters":12000,"station_id":"ce4bh412rcd13ifvqds0","pricing_plan_id":"cebpf4jnsgd1na2vs0mg"},{"bike_id":"ae8158ae-5098-479c-a0e1-90a3218c356d","system_id":"levelo_inurba_marseille","lat":43.2861,"lon":5.35096,"is_reserved":false,"is_disabled":false,"rental_uris":{"android":"levelo://app?vid=ae8158ae-5098-479c-a0e1-90a3218c356d","ios":"levelo://app?vid=ae8158ae-5098-479c-a0e1-90a3218c356d"},"vehicle_type_id":"4","last_reported":1767197638,"current_range_meters":12000,"station_id":"ce4bhch2rcd13ifvqeug","pricing_plan_id":"cebpf4jnsgd1na2vs0mg"},{"bike_id":"1a670a54-1840-4940-b62b-05b0e394ae95","system_id":"levelo_inurba_marseille","lat":43.284311,"lon":5.349918,"is_reserved":false,"is_disabled":false,"rental_uris":{"android":"levelo://app?vid=1a670a54-1840-4940-b62b-05b0e394ae95","ios":"levelo://app?vid=1a670a54-1840-4940-b62b-05b0e394ae95"},"vehicle_type_id":"4","last_reported":1767197638,"current_range_meters":12000,"station_id":"ce4bhbh2rcd13ifvqepg","pricing_plan_id":"cebpf4jnsgd1na2vs0mg"},{"bike_id":"f6b382f1-2f54-4f2a-8abd-265696951f1f","system_id":"levelo_inurba_marseille","lat":43.29623,"lon":5.37702,"is_reserved":false,"is_disabled":false,"rental_uris":{"android":"levelo://app?vid=f6b382f1-2f54-4f2a-8abd-265696951f1f","ios":"levelo://app?vid=f6b382f1-2f54-4f2a-8abd-265696951f1f"},"vehicle_type_id":"4","last_reported":1767197638,"current_range_meters":12000,"station_id":"ce4bgi92rcd13ifvqb90","pricing_plan_id":"cebpf4jnsgd1na2vs0mg"},{"bike_id":"22d05d21-df93-4568-b6c9-316176fb81b6","system_id":"levelo_inurba_marseille","lat":43.30273,"lon":5.37711,"is_reserved":false,"is_disabled":false,"rental_uris":{"android":"levelo://app?vid=22d05d21-df93-4568-b6c9-316176fb81b6","ios":"levelo://app?vid=22d05d21-df93-4568-b6c9-316176fb81b6"},"vehicle_type_id":"4","last_reported":1767197638,"current_range_meters":12000,"station_id":"ce4bguh2rcd13ifvqcj0","pricing_plan_id":"cebpf4jnsgd1na2vs0mg"},{"bike_id":"df129b87-f4d9-4f10-9204-ed989340ec9c","system_id":"levelo_inurba_marseille","lat":43.28608,"lon":5.37067,"is_reserved":false,"is_disabled":false,"rental_uris":{"android":"levelo://app?vid=df129b87-f4d9-4f10-9204-ed989340ec9c","ios":"levelo://app?vid=df129b87-f4d9-4f10-9204-ed989340ec9c"},"vehicle_type_id":"4","last_reported":1767197638,"current_range_meters":12000,"station_id":"ce4bht12rcd13ifvqi60","pricing_plan_id":"cebpf4jnsgd1na2vs0mg"},{"bike_id":"f7907c1c-af28-49fc-9bf1-6ea5c9b9576d","system_id":"levelo_inurba_marseille","lat":43.281533,"lon":5.426376,"is_reserved":false,"is_disabled":true,"rental_uris":{"android":"levelo://app?vid=f7907c1c-af28-49fc-9bf1-6ea5c9b9576d","ios":"levelo://app?vid=f7907c1c-af28-49fc-9bf1-6ea5c9b9576d"},"vehicle_type_id":"4","last_reported":1767197638,"current_range_meters":12400,"station_id":"ce4bhnh2rcd13ifvqgug","pricing_plan_id":"cebpf4jnsgd1na2vs0mg"},{"bike_id":"d884c4a6-0be1-44d1-a381-33637463734c","system_id":"levelo_inurba_marseille","lat":43.29622,"lon":5.37719,"is_reserved":false,"is_disabled":false,"rental_uris":{"android":"levelo://app?vid=d884c4a6-0be1-44d1-a381-33637463734c","ios":"levelo://app?vid=d884c4a6-0be1-44d1-a381-33637463734c"},"vehicle_type_id":"4","last_reported":1767197638,"current_range_meters":12400,"station_id":"ce4bgi92rcd13ifvqb90","pricing_plan_id":"cebpf4jnsgd1na2vs0mg"},{"bike_id":"14d851ab-a12d-4956-a0aa-19036330573c","system_id":"levelo_inurba_marseille","lat":43.31233,"lon":5.36853,"is_reserved":false,"is_disabled":false,"rental_uris":{"android":"levelo://app?vid=14d851ab-a12d-4956-a0aa-19036330573c","ios":"levelo://app?vid=14d851ab-a12d-4956-a0aa-19036330573c"},"vehicle_type_id":"4","last_reported":1767197638,"current_range_meters":12400,"station_id":"ce4bgl92rcd13ifvqbq0","pricing_plan_id":"cebpf4jnsgd1na2vs0mg"},{"bike_id":"05abd6cc-e89a-4eec-afef-f147aa5f395f","system_id":"levelo_inurba_marseille","lat":43.28607,"lon":5.35112,"is_reserved":false,"is_disabled":false,"rental_uris":{"android":"levelo://app?vid=05abd6cc-e89a-4eec-afef-f147aa5f395f","ios":"levelo://app?vid=05abd6cc-e89a-4eec-afef-f147aa5f395f"},"vehicle_type_id":"4","last_reported":1767197638,"current_range_meters":12400,"station_id":"ce4bhch2rcd13ifvqeug","pricing_plan_id":"cebpf4jnsgd1na2vs0mg"},{"bike_id":"2f6c6f7b-f9f8-4f76-b9a7-b08a8eff2692","system_id":"levelo_inurba_marseille","lat":43.21753,"lon":5.34602,"is_reserved":false,"is_disabled":false,"rental_uris":{"android":"levelo://app?vid=2f6c6f7b-f9f8-4f76-b9a7-b08a8eff2692","ios":"levelo://app?vid=2f6c6f7b-f9f8-4f76-b9a7-b08a8eff2692"},"vehicle_type_id":"4","last_reported":1767197638,"current_range_meters":12400,"station_id":"st_cvj6r9ubvosntc0bgbag","pricing_plan_id":"cebpf4jnsgd1na2vs0mg"},{"bike_id":"b0df4798-d5b8-4832-bb2f-c00ad9a32fae","system_id":"levelo_inurba_marseille","lat":43.296241,"lon":5.371661,"is_reserved":false,"is_disabled":false,"rental_uris":{"android":"levelo://app?vid=b0df4798-d5b8-4832-bb2f-c00ad9a32fae","ios":"levelo://app?vid=b0df4798-d5b8-4832-bb2f-c00ad9a32fae"},"vehicle_type_id":"4","last_reported":1767197638,"current_range_meters":12400,"station_id":"ce4bgnh2rcd13ifvqc0g","pricing_plan_id":"cebpf4jnsgd1na2vs0mg"},{"bike_id":"542b2ba6-9fa8-48fd-b661-4556081d0be1","system_id":"levelo_inurba_marseille","lat":43.30909,"lon":5.36835,"is_reserved":false,"is_disabled":false,"rental_uris":{"android":"levelo://app?vid=542b2ba6-9fa8-48fd-b661-4556081d0be1","ios":"levelo://app?vid=542b2ba6-9fa8-48fd-b661-4556081d0be1"},"vehicle_type_id":"4","last_reported":1767197638,"current_range_meters":12400,"station_id":"ce4bgn92rcd13ifvqbvg","pricing_plan_id":"cebpf4jnsgd1na2vs0mg"},{"bike_id":"0938995e-ba33-411e-93cd-bce44cddc3e7","system_id":"levelo_inurba_marseille","lat":43.29985,"lon":5.37191,"is_reserved":false,"is_disabled":false,"rental_uris":{"android":"levelo://app?vid=0938995e-ba33-411e-93cd-bce44cddc3e7","ios":"levelo://app?vid=0938995e-ba33-411e-93cd-bce44cddc3e7"},"vehicle_type_id":"4","last_reported":1767197638,"current_range_meters":12400,"station_id":"ce4bgr92rcd13ifvqc7g","pricing_plan_id":"cebpf4jnsgd1na2vs0mg"},{"bike_id":"9b31c737-9919-4753-902d-88d0177986b8","system_id":"levelo_inurba_marseille","lat":43.28856,"lon":5.42514,"is_reserved":false,"is_disabled":false,"rental_uris":{"android":"levelo://app?vid=9b31c737-9919-4753-902d-88d0177986b8","ios":"levelo://app?vid=9b31c737-9919-4753-902d-88d0177986b8"},"vehicle_type_id":"4","last_reported":1767197638,"current_range_meters":12400,"station_id":"st_d3b462108ojc7389ooeg","pricing_plan_id":"cebpf4jnsgd1na2vs0mg"},{"bike_id":"36d67e4b-128f-462b-bf9e-2bbc09bb7b40","system_id":"levelo_inurba_marseille","lat":43.30931,"lon":5.37842,"is_reserved":false,"is_disabled":false,"rental_uris":{"android":"levelo://app?vid=36d67e4b-128f-462b-bf9e-2bbc09bb7b40","ios":"levelo://app?vid=36d67e4b-128f-462b-bf9e-2bbc09bb7b40"},"vehicle_type_id":"4","last_reported":1767197638,"current_range_meters":12400,"station_id":"","pricing_plan_id":"cebpf4jnsgd1na2vs0mg"},{"bike_id":"36fc440a-33a3-4913-a0d8-b4b76e46bd70","system_id":"levelo_inurba_marseille","lat":43.32218,"lon":5.39434,"is_reserved":false,"is_disabled":false,"rental_uris":{"android":"levelo://app?vid=36fc440a-33a3-4913-a0d8-b4b76e46bd70","ios":"levelo://app?vid=36fc440a-33a3-4913-a0d8-b4b76e46bd70"},"vehicle_type_id":"4","last_reported":1767197638,"current_range_meters":12400,"station_id":"","pricing_plan_id":"cebpf4jnsgd1na2vs0mg"},{"bike_id":"5ec5f671-59c3-4ecd-9999-1ced96b35817","system_id":"levelo_inurba_marseille","lat":43.2417,"lon":5.36398,"is_reserved":false,"is_disabled":false,"rental_uris":{"android":"levelo://app?vid=5ec5f671-59c3-4ecd-9999-1ced96b35817","ios":"levelo://app?vid=5ec5f671-59c3-4ecd-9999-1ced96b35817"},"vehicle_type_id":"4","last_reported":1767197638,"current_range_meters":12800,"station_id":"cpo36qri1sfpv3e86is0","pricing_plan_id":"cebpf4jnsgd1na2vs0mg"},{"bike_id":"a770eb5f-2a92-46a3-b6fe-450aef9acb4a","system_id":"levelo_inurba_marseille","lat":43.30128,"lon":5.43117,"is_reserved":false,"is_disabled":false,"rental_uris":{"android":"levelo://app?vid=a770eb5f-2a92-46a3-b6fe-450aef9acb4a","ios":"levelo://app?vid=a770eb5f-2a92-46a3-b6fe-450aef9acb4a"},"vehicle_type_id":"4","last_reported":1767197638,"current_range_meters":12800,"station_id":"st_d3js3co5814s73ftftug","pricing_plan_id":"cebpf4jnsgd1na2vs0mg"},{"bike_id":"8e533a3d-e630-44fb-bda8-99d9f21479dc","system_id":"levelo_inurba_marseille","lat":43.28474,"lon":5.38418,"is_reserved":false,"is_disabled":false,"rental_uris":{"android":"levelo://app?vid=8e533a3d-e630-44fb-bda8-99d9f21479dc","ios":"levelo://app?vid=8e533a3d-e630-44fb-bda8-99d9f21479dc"},"vehicle_type_id":"4","last_reported":1767197638,"current_range_meters":12800,"station_id":"ce4bh512rcd13ifvqe3g","pricing_plan_id":"cebpf4jnsgd1na2vs0mg"},{"bike_id":"0d8b64dc-d3a4-4c37-80be-c48d945a81e3","system_id":"levelo_inurba_marseille","lat":43.284656,"lon":5.384264,"is_reserved":false,"is_disabled":true,"rental_uris":{"android":"levelo://app?vid=0d8b64dc-d3a4-4c37-80be-c48d945a81e3","ios":"levelo://app?vid=0d8b64dc-d3a4-4c37-80be-c48d945a81e3"},"vehicle_type_id":"4","last_reported":1767197638,"current_range_meters":12800,"station_id":"ce4bh512rcd13ifvqe3g","pricing_plan_id":"cebpf4jnsgd1na2vs0mg"},{"bike_id":"70a0c2a2-27fb-48b4-812c-e13d5ae4798b","system_id":"levelo_inurba_marseille","lat":43.26215,"lon":5.37439,"is_reserved":false,"is_disabled":false,"rental_uris":{"android":"levelo://app?vid=70a0c2a2-27fb-48b4-812c-e13d5ae4798b","ios":"levelo://app?vid=70a0c2a2-27fb-48b4-812c-e13d5ae4798b"},"vehicle_type_id":"4","last_reported":1767197638,"current_range_meters":12800,"station_id":"ce4bhgp2rcd13ifvqfc0","pricing_plan_id":"cebpf4jnsgd1na2vs0mg"},{"bike_id":"8ac6d601-550e-4eab-a708-43e984bb11e2","system_id":"levelo_inurba_marseille","lat":43.29364,"lon":5.378342,"is_reserved":false,"is_disabled":false,"rental_uris":{"android":"levelo://app?vid=8ac6d601-550e-4eab-a708-43e984bb11e2","ios":"levelo://app?vid=8ac6d601-550e-4eab-a708-43e984bb11e2"},"vehicle_type_id":"4","last_reported":1767197638,"current_range_meters":12800,"station_id":"ce4bgjh2rcd13ifvqbf0","pricing_plan_id":"cebpf4jnsgd1na2vs0mg"},{"bike_id":"a0214037-c487-412f-b9c1-6a838d09d46e","system_id":"levelo_inurba_marseille","lat":43.29937,"lon":5.36557,"is_reserved":false,"is_disabled":false,"rental_uris":{"android":"levelo://app?vid=a0214037-c487-412f-b9c1-6a838d09d46e","ios":"levelo://app?vid=a0214037-c487-412f-b9c1-6a838d09d46e"},"vehicle_type_id":"4","last_reported":1767197638,"current_range_meters":12800,"station_id":"ce4bgm92rcd13ifvqbr0","pricing_plan_id":"cebpf4jnsgd1na2vs0mg"},{"bike_id":"d994d60e-482c-4497-9663-5c2d7617b7f1","system_id":"levelo_inurba_marseille","lat":43.2378,"lon":5.36636,"is_reserved":false,"is_disabled":false,"rental_uris":{"android":"levelo://app?vid=d994d60e-482c-4497-9663-5c2d7617b7f1","ios":"levelo://app?vid=d994d60e-482c-4497-9663-5c2d7617b7f1"},"vehicle_type_id":"4","last_reported":1767197638,"current_range_meters":13600,"station_id":"st_d3nk18o9ro0c73en2l3g","pricing_plan_id":"cebpf4jnsgd1na2vs0mg"},{"bike_id":"e091a64d-3bea-4eb4-be23-0d33eb28eebf","system_id":"levelo_inurba_marseille","lat":43.26943,"lon":5.40275,"is_reserved":false,"is_disabled":false,"rental_uris":{"android":"levelo://app?vid=e091a64d-3bea-4eb4-be23-0d33eb28eebf","ios":"levelo://app?vid=e091a64d-3bea-4eb4-be23-0d33eb28eebf"},"vehicle_type_id":"4","last_reported":1767197638,"current_range_meters":13600,"station_id":"cjm6bp8fraef2m0cb0m0","pricing_plan_id":"cebpf4jnsgd1na2vs0mg"},{"bike_id":"ff8864c8-a009-4638-8215-25cbc945ccbf","system_id":"levelo_inurba_marseille","lat":43.31356,"lon":5.36736,"is_reserved":false,"is_disabled":false,"rental_uris":{"android":"levelo://app?vid=ff8864c8-a009-4638-8215-25cbc945ccbf","ios":"levelo://app?vid=ff8864c8-a009-4638-8215-25cbc945ccbf"},"vehicle_type_id":"4","last_reported":1767197638,"current_range_meters":13600,"station_id":"ce4bgr92rcd13ifvqc6g","pricing_plan_id":"cebpf4jnsgd1na2vs0mg"},{"bike_id":"a6b35a9b-2cf6-4669-b17f-ed9bea8188e1","system_id":"levelo_inurba_marseille","lat":43.29756,"lon":5.42782,"is_reserved":false,"is_disabled":true,"rental_uris":{"android":"levelo://app?vid=a6b35a9b-2cf6-4669-b17f-ed9bea8188e1","ios":"levelo://app?vid=a6b35a9b-2cf6-4669-b17f-ed9bea8188e1"},"vehicle_type_id":"4","last_reported":1767197638,"current_range_meters":13600,"station_id":"st_d3md5207bmas73dh9klg","pricing_plan_id":"cebpf4jnsgd1na2vs0mg"},{"bike_id":"ba4d9c7a-7aca-4b85-9206-966a264e9e7b","system_id":"levelo_inurba_marseille","lat":43.314589,"lon":5.387307,"is_reserved":false,"is_disabled":false,"rental_uris":{"android":"levelo://app?vid=ba4d9c7a-7aca-4b85-9206-966a264e9e7b","ios":"levelo://app?vid=ba4d9c7a-7aca-4b85-9206-966a264e9e7b"},"vehicle_type_id":"4","last_reported":1767197638,"current_range_meters":13600,"station_id":"","pricing_plan_id":"cebpf4jnsgd1na2vs0mg"},{"bike_id":"0d5b4d19-5ff7-4ab4-b1f1-164a6d5a8877","system_id":"levelo_inurba_marseille","lat":43.288458,"lon":5.358409,"is_reserved":false,"is_disabled":false,"rental_uris":{"android":"levelo://app?vid=0d5b4d19-5ff7-4ab4-b1f1-164a6d5a8877","ios":"levelo://app?vid=0d5b4d19-5ff7-4ab4-b1f1-164a6d5a8877"},"vehicle_type_id":"4","last_reported":1767197638,"current_range_meters":13600,"station_id":"ce4bhb12rcd13ifvqem0","pricing_plan_id":"cebpf4jnsgd1na2vs0mg"},{"bike_id":"5d76c1ba-1a84-4b97-813c-5fad3301fab9","system_id":"levelo_inurba_marseille","lat":43.29855,"lon":5.36268,"is_reserved":false,"is_disabled":false,"rental_uris":{"android":"levelo://app?vid=5d76c1ba-1a84-4b97-813c-5fad3301fab9","ios":"levelo://app?vid=5d76c1ba-1a84-4b97-813c-5fad3301fab9"},"vehicle_type_id":"4","last_reported":1767197638,"current_range_meters":13600,"station_id":"ce4bgpp2rcd13ifvqc3g","pricing_plan_id":"cebpf4jnsgd1na2vs0mg"},{"bike_id":"cda1f6ab-e0ee-4786-9e08-c7bcb481ee5b","system_id":"levelo_inurba_marseille","lat":43.29607,"lon":5.38098,"is_reserved":false,"is_disabled":false,"rental_uris":{"android":"levelo://app?vid=cda1f6ab-e0ee-4786-9e08-c7bcb481ee5b","ios":"levelo://app?vid=cda1f6ab-e0ee-4786-9e08-c7bcb481ee5b"},"vehicle_type_id":"4","last_reported":1767197638,"current_range_meters":13600,"station_id":"ce4bgl12rcd13ifvqbo0","pricing_plan_id":"cebpf4jnsgd1na2vs0mg"},{"bike_id":"2e432000-19e4-474b-acb8-4742408d8ecf","system_id":"levelo_inurba_marseille","lat":43.29646,"lon":5.37955,"is_reserved":false,"is_disabled":false,"rental_uris":{"android":"levelo://app?vid=2e432000-19e4-474b-acb8-4742408d8ecf","ios":"levelo://app?vid=2e432000-19e4-474b-acb8-4742408d8ecf"},"vehicle_type_id":"4","last_reported":1767197638,"current_range_meters":13600,"station_id":"","pricing_plan_id":"cebpf4jnsgd1na2vs0mg"},{"bike_id":"fd01e0ac-f4f2-4b3e-bfd2-de5d52eda19e","system_id":"levelo_inurba_marseille","lat":43.30256,"lon":5.40062,"is_reserved":false,"is_disabled":false,"rental_uris":{"android":"levelo://app?vid=fd01e0ac-f4f2-4b3e-bfd2-de5d52eda19e","ios":"levelo://app?vid=fd01e0ac-f4f2-4b3e-bfd2-de5d52eda19e"},"vehicle_type_id":"4","last_reported":1767197638,"current_range_meters":13600,"station_id":"ce4bgvh2rcd13ifvqcs0","pricing_plan_id":"cebpf4jnsgd1na2vs0mg"},{"bike_id":"3a5aab6e-cd17-41c2-835e-9aa91ad79f59","system_id":"levelo_inurba_marseille","lat":43.284131,"lon":5.37532,"is_reserved":false,"is_disabled":false,"rental_uris":{"android":"levelo://app?vid=3a5aab6e-cd17-41c2-835e-9aa91ad79f59","ios":"levelo://app?vid=3a5aab6e-cd17-41c2-835e-9aa91ad79f59"},"vehicle_type_id":"4","last_reported":1767197638,"current_range_meters":13600,"station_id":"ce4bh412rcd13ifvqds0","pricing_plan_id":"cebpf4jnsgd1na2vs0mg"},{"bike_id":"71feabac-18bb-4c38-9f1c-553d18ed10d6","system_id":"levelo_inurba_marseille","lat":43.29603,"lon":5.37178,"is_reserved":false,"is_disabled":false,"rental_uris":{"android":"levelo://app?vid=71feabac-18bb-4c38-9f1c-553d18ed10d6","ios":"levelo://app?vid=71feabac-18bb-4c38-9f1c-553d18ed10d6"},"vehicle_type_id":"4","last_reported":1767197638,"current_range_meters":13600,"station_id":"ce4bgnh2rcd13ifvqc0g","pricing_plan_id":"cebpf4jnsgd1na2vs0mg"},{"bike_id":"e1128f29-e6ac-4242-b77d-fc455997a95b","system_id":"levelo_inurba_marseille","lat":43.308965,"lon":5.396643,"is_reserved":false,"is_disabled":false,"rental_uris":{"android":"levelo://app?vid=e1128f29-e6ac-4242-b77d-fc455997a95b","ios":"levelo://app?vid=e1128f29-e6ac-4242-b77d-fc455997a95b"},"vehicle_type_id":"4","last_reported":1767197638,"current_range_meters":13600,"station_id":"ce4bh012rcd13ifvqcv0","pricing_plan_id":"cebpf4jnsgd1na2vs0mg"},{"bike_id":"ddfa40a0-cada-4f50-8b25-d17290013e65","system_id":"levelo_inurba_marseille","lat":43.24169,"lon":5.36405,"is_reserved":false,"is_disabled":false,"rental_uris":{"android":"levelo://app?vid=ddfa40a0-cada-4f50-8b25-d17290013e65","ios":"levelo://app?vid=ddfa40a0-cada-4f50-8b25-d17290013e65"},"vehicle_type_id":"4","last_reported":1767197638,"current_range_meters":14000,"station_id":"cpo36qri1sfpv3e86is0","pricing_plan_id":"cebpf4jnsgd1na2vs0mg"},{"bike_id":"c1c1bbd9-7f85-4a35-831d-72795b1b0948","system_id":"levelo_inurba_marseille","lat":43.32352,"lon":5.36727,"is_reserved":false,"is_disabled":false,"rental_uris":{"android":"levelo://app?vid=c1c1bbd9-7f85-4a35-831d-72795b1b0948","ios":"levelo://app?vid=c1c1bbd9-7f85-4a35-831d-72795b1b0948"},"vehicle_type_id":"4","last_reported":1767197638,"current_range_meters":14000,"station_id":"ce4bhsh2rcd13ifvqi2g","pricing_plan_id":"cebpf4jnsgd1na2vs0mg"},{"bike_id":"d4c6dc95-f402-4619-8161-a90cb01a834e","system_id":"levelo_inurba_marseille","lat":43.28867,"lon":5.42519,"is_reserved":false,"is_disabled":false,"rental_uris":{"android":"levelo://app?vid=d4c6dc95-f402-4619-8161-a90cb01a834e","ios":"levelo://app?vid=d4c6dc95-f402-4619-8161-a90cb01a834e"},"vehicle_type_id":"4","last_reported":1767197638,"current_range_meters":14000,"station_id":"st_d3b462108ojc7389ooeg","pricing_plan_id":"cebpf4jnsgd1na2vs0mg"},{"bike_id":"8ed4747c-ffc4-4952-a58f-ccece03fc778","system_id":"levelo_inurba_marseille","lat":43.27183,"lon":5.40979,"is_reserved":false,"is_disabled":false,"rental_uris":{"android":"levelo://app?vid=8ed4747c-ffc4-4952-a58f-ccece03fc778","ios":"levelo://app?vid=8ed4747c-ffc4-4952-a58f-ccece03fc778"},"vehicle_type_id":"4","last_reported":1767197638,"current_range_meters":14000,"station_id":"ce4bhl12rcd13ifvqgf0","pricing_plan_id":"cebpf4jnsgd1na2vs0mg"},{"bike_id":"9ffd8e4e-6671-4e68-b198-26c59cc5e3d1","system_id":"levelo_inurba_marseille","lat":43.3262,"lon":5.41988,"is_reserved":false,"is_disabled":false,"rental_uris":{"android":"levelo://app?vid=9ffd8e4e-6671-4e68-b198-26c59cc5e3d1","ios":"levelo://app?vid=9ffd8e4e-6671-4e68-b198-26c59cc5e3d1"},"vehicle_type_id":"4","last_reported":1767197638,"current_range_meters":14000,"station_id":"","pricing_plan_id":"cebpf4jnsgd1na2vs0mg"},{"bike_id":"82d8538f-fccb-4d77-bb7b-1f55e2f347bf","system_id":"levelo_inurba_marseille","lat":43.21194,"lon":5.35075,"is_reserved":false,"is_disabled":false,"rental_uris":{"android":"levelo://app?vid=82d8538f-fccb-4d77-bb7b-1f55e2f347bf","ios":"levelo://app?vid=82d8538f-fccb-4d77-bb7b-1f55e2f347bf"},"vehicle_type_id":"4","last_reported":1767197638,"current_range_meters":14000,"station_id":"st_cvj6sg6p6f1abm77japg","pricing_plan_id":"cebpf4jnsgd1na2vs0mg"},{"bike_id":"652999ae-9f9a-402a-99d5-f3ed10a5e186","system_id":"levelo_inurba_marseille","lat":43.32108,"lon":5.36765,"is_reserved":false,"is_disabled":false,"rental_uris":{"android":"levelo://app?vid=652999ae-9f9a-402a-99d5-f3ed10a5e186","ios":"levelo://app?vid=652999ae-9f9a-402a-99d5-f3ed10a5e186"},"vehicle_type_id":"4","last_reported":1767197638,"current_range_meters":14000,"station_id":"ce4bhrh2rcd13ifvqhug","pricing_plan_id":"cebpf4jnsgd1na2vs0mg"},{"bike_id":"ea5031e4-b749-4d48-ba29-71e8d8d5383b","system_id":"levelo_inurba_marseille","lat":43.26376,"lon":5.37408,"is_reserved":false,"is_disabled":false,"rental_uris":{"android":"levelo://app?vid=ea5031e4-b749-4d48-ba29-71e8d8d5383b","ios":"levelo://app?vid=ea5031e4-b749-4d48-ba29-71e8d8d5383b"},"vehicle_type_id":"4","last_reported":1767197638,"current_range_meters":14000,"station_id":"","pricing_plan_id":"cebpf4jnsgd1na2vs0mg"},{"bike_id":"7aa8deaf-4e60-441f-b4fa-11775b88c73b","system_id":"levelo_inurba_marseille","lat":43.29587,"lon":5.40294,"is_reserved":false,"is_disabled":true,"rental_uris":{"android":"levelo://app?vid=7aa8deaf-4e60-441f-b4fa-11775b88c73b","ios":"levelo://app?vid=7aa8deaf-4e60-441f-b4fa-11775b88c73b"},"vehicle_type_id":"4","last_reported":1767197638,"current_range_meters":14000,"station_id":"","pricing_plan_id":"cebpf4jnsgd1na2vs0mg"},{"bike_id":"819953b1-b6e5-4e7b-93ab-771e36ff1d19","system_id":"levelo_inurba_marseille","lat":43.280418,"lon":5.369507,"is_reserved":false,"is_disabled":false,"rental_uris":{"android":"levelo://app?vid=819953b1-b6e5-4e7b-93ab-771e36ff1d19","ios":"levelo://app?vid=819953b1-b6e5-4e7b-93ab-771e36ff1d19"},"vehicle_type_id":"4","last_reported":1767197638,"current_range_meters":14000,"station_id":"ce4bht12rcd13ifvqi60","pricing_plan_id":"cebpf4jnsgd1na2vs0mg"},{"bike_id":"1bd924ff-2886-407c-84d4-e4ca1660d148","system_id":"levelo_inurba_marseille","lat":43.24661,"lon":5.3816,"is_reserved":false,"is_disabled":false,"rental_uris":{"android":"levelo://app?vid=1bd924ff-2886-407c-84d4-e4ca1660d148","ios":"levelo://app?vid=1bd924ff-2886-407c-84d4-e4ca1660d148"},"vehicle_type_id":"4","last_reported":1767197638,"current_range_meters":14000,"station_id":"ce4bhih2rcd13ifvqfr0","pricing_plan_id":"cebpf4jnsgd1na2vs0mg"},{"bike_id":"324ddc4e-c742-408e-a6fc-ae90e0646766","system_id":"levelo_inurba_marseille","lat":43.303459,"lon":5.368409,"is_reserved":false,"is_disabled":false,"rental_uris":{"android":"levelo://app?vid=324ddc4e-c742-408e-a6fc-ae90e0646766","ios":"levelo://app?vid=324ddc4e-c742-408e-a6fc-ae90e0646766"},"vehicle_type_id":"4","last_reported":1767197638,"current_range_meters":14000,"station_id":"ce4bgrp2rcd13ifvqc9g","pricing_plan_id":"cebpf4jnsgd1na2vs0mg"},{"bike_id":"ede8bd11-0327-4c16-9f4d-1e8f060e054e","system_id":"levelo_inurba_marseille","lat":43.299377,"lon":5.365574,"is_reserved":false,"is_disabled":false,"rental_uris":{"android":"levelo://app?vid=ede8bd11-0327-4c16-9f4d-1e8f060e054e","ios":"levelo://app?vid=ede8bd11-0327-4c16-9f4d-1e8f060e054e"},"vehicle_type_id":"4","last_reported":1767197638,"current_range_meters":14400,"station_id":"ce4bgm92rcd13ifvqbr0","pricing_plan_id":"cebpf4jnsgd1na2vs0mg"},{"bike_id":"67057471-b7f6-4964-9f3d-d28fd0a7dcdb","system_id":"levelo_inurba_marseille","lat":43.31901,"lon":5.4074,"is_reserved":false,"is_disabled":true,"rental_uris":{"android":"levelo://app?vid=67057471-b7f6-4964-9f3d-d28fd0a7dcdb","ios":"levelo://app?vid=67057471-b7f6-4964-9f3d-d28fd0a7dcdb"},"vehicle_type_id":"4","last_reported":1767197638,"current_range_meters":14400,"station_id":"ce4bhq12rcd13ifvqhig","pricing_plan_id":"cebpf4jnsgd1na2vs0mg"},{"bike_id":"eb269852-7820-4d94-ad5a-0aad3c945af8","system_id":"levelo_inurba_marseille","lat":43.2466,"lon":5.38157,"is_reserved":false,"is_disabled":false,"rental_uris":{"android":"levelo://app?vid=eb269852-7820-4d94-ad5a-0aad3c945af8","ios":"levelo://app?vid=eb269852-7820-4d94-ad5a-0aad3c945af8"},"vehicle_type_id":"4","last_reported":1767197638,"current_range_meters":14400,"station_id":"ce4bhih2rcd13ifvqfr0","pricing_plan_id":"cebpf4jnsgd1na2vs0mg"},{"bike_id":"43b848fc-8856-4cdb-a1be-ee246b670193","system_id":"levelo_inurba_marseille","lat":43.265,"lon":5.39543,"is_reserved":false,"is_disabled":false,"rental_uris":{"android":"levelo://app?vid=43b848fc-8856-4cdb-a1be-ee246b670193","ios":"levelo://app?vid=43b848fc-8856-4cdb-a1be-ee246b670193"},"vehicle_type_id":"4","last_reported":1767197638,"current_range_meters":14400,"station_id":"ce4bhi12rcd13ifvqfq0","pricing_plan_id":"cebpf4jnsgd1na2vs0mg"},{"bike_id":"d8431e58-d3e8-4456-9570-729e3ebbcc73","system_id":"levelo_inurba_marseille","lat":43.30177,"lon":5.37275,"is_reserved":false,"is_disabled":false,"rental_uris":{"android":"levelo://app?vid=d8431e58-d3e8-4456-9570-729e3ebbcc73","ios":"levelo://app?vid=d8431e58-d3e8-4456-9570-729e3ebbcc73"},"vehicle_type_id":"4","last_reported":1767197638,"current_range_meters":14400,"station_id":"","pricing_plan_id":"cebpf4jnsgd1na2vs0mg"},{"bike_id":"d8c80aa3-3336-4414-8b6f-331ea4f6fcfd","system_id":"levelo_inurba_marseille","lat":43.29014,"lon":5.35603,"is_reserved":false,"is_disabled":false,"rental_uris":{"android":"levelo://app?vid=d8c80aa3-3336-4414-8b6f-331ea4f6fcfd","ios":"levelo://app?vid=d8c80aa3-3336-4414-8b6f-331ea4f6fcfd"},"vehicle_type_id":"4","last_reported":1767197638,"current_range_meters":14400,"station_id":"ce4bhb92rcd13ifvqen0","pricing_plan_id":"cebpf4jnsgd1na2vs0mg"},{"bike_id":"f3a4c2fd-c27a-4ca6-bbe5-3949d2a88808","system_id":"levelo_inurba_marseille","lat":43.28579,"lon":5.42976,"is_reserved":false,"is_disabled":false,"rental_uris":{"android":"levelo://app?vid=f3a4c2fd-c27a-4ca6-bbe5-3949d2a88808","ios":"levelo://app?vid=f3a4c2fd-c27a-4ca6-bbe5-3949d2a88808"},"vehicle_type_id":"4","last_reported":1767197638,"current_range_meters":14400,"station_id":"","pricing_plan_id":"cebpf4jnsgd1na2vs0mg"},{"bike_id":"78a889c3-efa1-47d7-9cca-d9b7ea4d3efe","system_id":"levelo_inurba_marseille","lat":43.289978,"lon":5.356038,"is_reserved":false,"is_disabled":false,"rental_uris":{"android":"levelo://app?vid=78a889c3-efa1-47d7-9cca-d9b7ea4d3efe","ios":"levelo://app?vid=78a889c3-efa1-47d7-9cca-d9b7ea4d3efe"},"vehicle_type_id":"4","last_reported":1767197638,"current_range_meters":14400,"station_id":"ce4bhb92rcd13ifvqen0","pricing_plan_id":"cebpf4jnsgd1na2vs0mg"},{"bike_id":"002dc303-ef66-4b53-b5f3-28b0bdb634cd","system_id":"levelo_inurba_marseille","lat":43.29845,"lon":5.36276,"is_reserved":false,"is_disabled":false,"rental_uris":{"android":"levelo://app?vid=002dc303-ef66-4b53-b5f3-28b0bdb634cd","ios":"levelo://app?vid=002dc303-ef66-4b53-b5f3-28b0bdb634cd"},"vehicle_type_id":"4","last_reported":1767197638,"current_range_meters":14400,"station_id":"ce4bgpp2rcd13ifvqc3g","pricing_plan_id":"cebpf4jnsgd1na2vs0mg"},{"bike_id":"d871e9b2-41d1-4e36-974f-859291ebe0fb","system_id":"levelo_inurba_marseille","lat":43.29782,"lon":5.38108,"is_reserved":false,"is_disabled":false,"rental_uris":{"android":"levelo://app?vid=d871e9b2-41d1-4e36-974f-859291ebe0fb","ios":"levelo://app?vid=d871e9b2-41d1-4e36-974f-859291ebe0fb"},"vehicle_type_id":"4","last_reported":1767197638,"current_range_meters":14400,"station_id":"ce4bgip2rcd13ifvqbb0","pricing_plan_id":"cebpf4jnsgd1na2vs0mg"},{"bike_id":"f9e9fd89-b7c6-4e84-90bb-2a2dc045365a","system_id":"levelo_inurba_marseille","lat":43.27051,"lon":5.40262,"is_reserved":false,"is_disabled":false,"rental_uris":{"android":"levelo://app?vid=f9e9fd89-b7c6-4e84-90bb-2a2dc045365a","ios":"levelo://app?vid=f9e9fd89-b7c6-4e84-90bb-2a2dc045365a"},"vehicle_type_id":"4","last_reported":1767197638,"current_range_meters":14400,"station_id":"ce4bhk92rcd13ifvqgc0","pricing_plan_id":"cebpf4jnsgd1na2vs0mg"},{"bike_id":"f5adebc3-7381-422f-b0b2-fb4c8734924f","system_id":"levelo_inurba_marseille","lat":43.29806,"lon":5.40409,"is_reserved":false,"is_disabled":false,"rental_uris":{"android":"levelo://app?vid=f5adebc3-7381-422f-b0b2-fb4c8734924f","ios":"levelo://app?vid=f5adebc3-7381-422f-b0b2-fb4c8734924f"},"vehicle_type_id":"4","last_reported":1767197638,"current_range_meters":14800,"station_id":"ce4bh112rcd13ifvqd90","pricing_plan_id":"cebpf4jnsgd1na2vs0mg"},{"bike_id":"0ba4f163-10f7-45b2-b23e-23862ef0a271","system_id":"levelo_inurba_marseille","lat":43.240719,"lon":5.377573,"is_reserved":false,"is_disabled":false,"rental_uris":{"android":"levelo://app?vid=0ba4f163-10f7-45b2-b23e-23862ef0a271","ios":"levelo://app?vid=0ba4f163-10f7-45b2-b23e-23862ef0a271"},"vehicle_type_id":"4","last_reported":1767197638,"current_range_meters":14800,"station_id":"ce4bhnp2rcd13ifvqgvg","pricing_plan_id":"cebpf4jnsgd1na2vs0mg"},{"bike_id":"6fb45a38-412e-484d-8f99-6a8e87169809","system_id":"levelo_inurba_marseille","lat":43.284753,"lon":5.384083,"is_reserved":false,"is_disabled":false,"rental_uris":{"android":"levelo://app?vid=6fb45a38-412e-484d-8f99-6a8e87169809","ios":"levelo://app?vid=6fb45a38-412e-484d-8f99-6a8e87169809"},"vehicle_type_id":"4","last_reported":1767197638,"current_range_meters":14800,"station_id":"ce4bh512rcd13ifvqe3g","pricing_plan_id":"cebpf4jnsgd1na2vs0mg"},{"bike_id":"6edcb3bb-8202-4eb4-adbd-ef2225b9363f","system_id":"levelo_inurba_marseille","lat":43.24387,"lon":5.37061,"is_reserved":false,"is_disabled":false,"rental_uris":{"android":"levelo://app?vid=6edcb3bb-8202-4eb4-adbd-ef2225b9363f","ios":"levelo://app?vid=6edcb3bb-8202-4eb4-adbd-ef2225b9363f"},