{"last_updated":1750540102,"ttl":60,"version":"2.2","data":{"bikes":[{"bike_id":"3da29fb8-fc97-44c6-b9ac-31dd456b2fd4","system_id":"levelo_inurba_marseille","lat":43.33771,"lon":5.37424,"is_reserved":false,"is_disabled":true,"rental_uris":{"android":"levelo://app?vid=3da29fb8-fc97-44c6-b9ac-31dd456b2fd4","ios":"levelo://app?vid=3da29fb8-fc97-44c6-b9ac-31dd456b2fd4"},"vehicle_type_id":"4","last_reported":1750540102,"current_range_meters":0,"station_id":"","pricing_plan_id":"cebpf4jnsgd1na2vs0mg"},{"bike_id":"01861ad8-a8d7-4be6-816e-651927c87584","system_id":"levelo_inurba_marseille","lat":43.33751,"lon":5.37456,"is_reserved":false,"is_disabled":true,"rental_uris":{"android":"levelo://app?vid=01861ad8-a8d7-4be6-816e-651927c87584","ios":"levelo://app?vid=01861ad8-a8d7-4be6-816e-651927c87584"},"vehicle_type_id":"4","last_reported":1750540102,"current_range_meters":0,"station_id":"","pricing_plan_id":"cebpf4jnsgd1na2vs0mg"},{"bike_id":"62a493c7-4534-4419-ad43-0582de34a72a","system_id":"levelo_inurba_marseille","lat":43.21366,"lon":5.355183,"is_reserved":false,"is_disabled":true,"rental_uris":{"android":"levelo://app?vid=62a493c7-4534-4419-ad43-0582de34a72a","ios":"levelo://app?vid=62a493c7-4534-4419-ad43-0582de34a72a"},"vehicle_type_id":"4","last_reported":1750540102,"current_range_meters":0,"station_id":"","pricing_plan_id":"cebpf4jnsgd1na2vs0mg"},{"bike_id":"658235c7-e2ed-439d-bf9a-5964b34332ff","system_id":"levelo_inurba_marseille","lat":43.29868,"lon":5.38329,"is_reserved":false,"is_disabled":true,"rental_uris":{"android":"levelo://app?vid=658235c7-e2ed-439d-bf9a-5964b34332ff","ios":"levelo://app?vid=658235c7-e2ed-439d-bf9a-5964b34332ff"},"vehicle_type_id":"4","last_reported":1750540102,"current_range_meters":0,"station_id":"","pricing_plan_id":"cebpf4jnsgd1na2vs0mg"},{"bike_id":"a85d1cbd-d782-40f2-9935-1c4c0af36539","system_id":"levelo_inurba_marseille","lat":43.292701,"lon":5.38442,"is_reserved":false,"is_disabled":true,"rental_uris":{"android":"levelo://app?vid=a85d1cbd-d782-40f2-9935-1c4c0af36539","ios":"levelo://app?vid=a85d1cbd-d782-40f2-9935-1c4c0af36539"},"vehicle_type_id":"4","last_reported":1750540102,"current_range_meters":0,"station_id":"","pricing_plan_id":"cebpf4jnsgd1na2vs0mg"},{"bike_id":"d6609b4f-333b-43c1-9ebe-8726f5e76e88","system_id":"levelo_inurba_marseille","lat":43.337444,"lon":5.374475,"is_reserved":false,"is_disabled":true,"rental_uris":{"android":"levelo://app?vid=d6609b4f-333b-43c1-9ebe-8726f5e76e88","ios":"levelo://app?vid=d6609b4f-333b-43c1-9ebe-8726f5e76e88"},"vehicle_type_id":"4","last_reported":1750540102,"current_range_meters":0,"station_id":"","pricing_plan_id":"cebpf4jnsgd1na2vs0mg"},{"bike_id":"76993bef-c670-4a2d-b0b6-2d014078d606","system_id":"levelo_inurba_marseille","lat":43.32902,"lon":5.405919,"is_reserved":false,"is_disabled":true,"rental_uris":{"android":"levelo://app?vid=76993bef-c670-4a2d-b0b6-2d014078d606","ios":"levelo://app?vid=76993bef-c670-4a2d-b0b6-2d014078d606"},"vehicle_type_id":"4","last_reported":1750540102,"current_range_meters":0,"station_id":"","pricing_plan_id":"cebpf4jnsgd1na2vs0mg"},{"bike_id":"89004e78-8edb-4103-a850-97b33396bad4","system_id":"levelo_inurba_marseille","lat":43.331378,"lon":5.385806,"is_reserved":false,"is_disabled":true,"rental_uris":{"android":"levelo://app?vid=89004e78-8edb-4103-a850-97b33396bad4","ios":"levelo://app?vid=89004e78-8edb-4103-a850-97b33396bad4"},"vehicle_type_id":"4","last_reported":1750540102,"current_range_meters":0,"station_id":"","pricing_plan_id":"cebpf4jnsgd1na2vs0mg"},{"bike_id":"4cede4cf-7ca9-4e47-9559-f20c44cea124","system_id":"levelo_inurba_marseille","lat":43.245439,"lon":5.373003,"is_reserved":false,"is_disabled":true,"rental_uris":{"android":"levelo://app?vid=4cede4cf-7ca9-4e47-9559-f20c44cea124","ios":"levelo://app?vid=4cede4cf-7ca9-4e47-9559-f20c44cea124"},"vehicle_type_id":"4","last_reported":1750540102,"current_range_meters":0,"station_id":"","pricing_plan_id":"cebpf4jnsgd1na2vs0mg"},{"bike_id":"a6c6e47f-bc64-4c8b-9764-58dff44e59c1","system_id":"levelo_inurba_marseille","lat":43.30134,"lon":5.38769,"is_reserved":false,"is_disabled":true,"rental_uris":{"android":"levelo://app?vid=a6c6e47f-bc64-4c8b-9764-58dff44e59c1","ios":"levelo://app?vid=a6c6e47f-bc64-4c8b-9764-58dff44e59c1"},"vehicle_type_id":"4","last_reported":1750540102,"current_range_meters":0,"station_id":"ce4bghh2rcd13ifvqb60","pricing_plan_id":"cebpf4jnsgd1na2vs0mg"},{"bike_id":"11c108e5-79c3-486b-817a-ad76dfe7295a","system_id":"levelo_inurba_marseille","lat":43.294158,"lon":5.386009,"is_reserved":false,"is_disabled":true,"rental_uris":{"android":"levelo://app?vid=11c108e5-79c3-486b-817a-ad76dfe7295a","ios":"levelo://app?vid=11c108e5-79c3-486b-817a-ad76dfe7295a"},"vehicle_type_id":"4","last_reported":1750540102,"current_range_meters":0,"station_id":"ce4bgj92rcd13ifvqbe0","pricing_plan_id":"cebpf4jnsgd1na2vs0mg"},{"bike_id":"82b359ee-bb0d-4d55-a3f4-c5276d789e8c","system_id":"levelo_inurba_marseille","lat":43.3043,"lon":5.39742,"is_reserved":false,"is_disabled":true,"rental_uris":{"android":"levelo://app?vid=82b359ee-bb0d-4d55-a3f4-c5276d789e8c","ios":"levelo://app?vid=82b359ee-bb0d-4d55-a3f4-c5276d789e8c"},"vehicle_type_id":"4","last_reported":1750540102,"current_range_meters":0,"station_id":"ce4bh092rcd13ifvqd20","pricing_plan_id":"cebpf4jnsgd1na2vs0mg"},{"bike_id":"249ba63e-c3de-4564-9e44-13f2f7ef0f1c","system_id":"levelo_inurba_marseille","lat":43.29528,"lon":5.39405,"is_reserved":false,"is_disabled":true,"rental_uris":{"android":"levelo://app?vid=249ba63e-c3de-4564-9e44-13f2f7ef0f1c","ios":"levelo://app?vid=249ba63e-c3de-4564-9e44-13f2f7ef0f1c"},"vehicle_type_id":"4","last_reported":1750540102,"current_range_meters":0,"station_id":"ce4bh292rcd13ifvqdf0","pricing_plan_id":"cebpf4jnsgd1na2vs0mg"},{"bike_id":"8647f6a6-2adf-4aad-8fb1-80e2821a14f8","system_id":"levelo_inurba_marseille","lat":43.28484,"lon":5.38537,"is_reserved":false,"is_disabled":true,"rental_uris":{"android":"levelo://app?vid=8647f6a6-2adf-4aad-8fb1-80e2821a14f8","ios":"levelo://app?vid=8647f6a6-2adf-4aad-8fb1-80e2821a14f8"},"vehicle_type_id":"4","last_reported":1750540102,"current_range_meters":0,"station_id":"ce4bh8p2rcd13ifvqeb0","pricing_plan_id":"cebpf4jnsgd1na2vs0mg"},{"bike_id":"59d54172-d138-40b8-96ec-95298ad5c95b","system_id":"levelo_inurba_marseille","lat":43.24801,"lon":5.37461,"is_reserved":false,"is_disabled":true,"rental_uris":{"android":"levelo://app?vid=59d54172-d138-40b8-96ec-95298ad5c95b","ios":"levelo://app?vid=59d54172-d138-40b8-96ec-95298ad5c95b"},"vehicle_type_id":"4","last_reported":1750540102,"current_range_meters":0,"station_id":"ce4bhgh2rcd13ifvqfb0","pricing_plan_id":"cebpf4jnsgd1na2vs0mg"},{"bike_id":"1a6f1b09-7393-4414-96fd-176b0a260111","system_id":"levelo_inurba_marseille","lat":43.23133,"lon":5.43727,"is_reserved":false,"is_disabled":true,"rental_uris":{"android":"levelo://app?vid=1a6f1b09-7393-4414-96fd-176b0a260111","ios":"levelo://app?vid=1a6f1b09-7393-4414-96fd-176b0a260111"},"vehicle_type_id":"4","last_reported":1750540102,"current_range_meters":0,"station_id":"ce4bhmp2rcd13ifvqgog","pricing_plan_id":"cebpf4jnsgd1na2vs0mg"},{"bike_id":"f2088bb9-e217-472d-a43e-e4605e1ffd20","system_id":"levelo_inurba_marseille","lat":43.32343,"lon":5.40615,"is_reserved":false,"is_disabled":true,"rental_uris":{"android":"levelo://app?vid=f2088bb9-e217-472d-a43e-e4605e1ffd20","ios":"levelo://app?vid=f2088bb9-e217-472d-a43e-e4605e1ffd20"},"vehicle_type_id":"4","last_reported":1750540102,"current_range_meters":0,"station_id":"ce4bhq92rcd13ifvqhjg","pricing_plan_id":"cebpf4jnsgd1na2vs0mg"},{"bike_id":"63fb3987-85dc-4c95-8ddc-6504c545944b","system_id":"levelo_inurba_marseille","lat":43.32282,"lon":5.38282,"is_reserved":false,"is_disabled":true,"rental_uris":{"android":"levelo://app?vid=63fb3987-85dc-4c95-8ddc-6504c545944b","ios":"levelo://app?vid=63fb3987-85dc-4c95-8ddc-6504c545944b"},"vehicle_type_id":"4","last_reported":1750540102,"current_range_meters":0,"station_id":"ce4bhr12rcd13ifvqhqg","pricing_plan_id":"cebpf4jnsgd1na2vs0mg"},{"bike_id":"0ee9551f-ff81-4c80-aba7-0d986a764594","system_id":"levelo_inurba_marseille","lat":43.32338,"lon":5.36708,"is_reserved":false,"is_disabled":true,"rental_uris":{"android":"levelo://app?vid=0ee9551f-ff81-4c80-aba7-0d986a764594","ios":"levelo://app?vid=0ee9551f-ff81-4c80-aba7-0d986a764594"},"vehicle_type_id":"4","last_reported":1750540102,"current_range_meters":0,"station_id":"ce4bhsh2rcd13ifvqi2g","pricing_plan_id":"cebpf4jnsgd1na2vs0mg"},{"bike_id":"fcc0d248-6487-4fae-8ee7-f277a38f3302","system_id":"levelo_inurba_marseille","lat":43.21208,"lon":5.35057,"is_reserved":false,"is_disabled":true,"rental_uris":{"android":"levelo://app?vid=fcc0d248-6487-4fae-8ee7-f277a38f3302","ios":"levelo://app?vid=fcc0d248-6487-4fae-8ee7-f277a38f3302"},"vehicle_type_id":"4","last_reported":1750540102,"current_range_meters":0,"station_id":"st_cvj6sg6p6f1abm77japg","pricing_plan_id":"cebpf4jnsgd1na2vs0mg"},{"bike_id":"c2df8f1a-a347-4776-944e-ef2761f9daef","system_id":"levelo_inurba_marseille","lat":43.32733,"lon":5.39233,"is_reserved":false,"is_disabled":true,"rental_uris":{"android":"levelo://app?vid=c2df8f1a-a347-4776-944e-ef2761f9daef","ios":"levelo://app?vid=c2df8f1a-a347-4776-944e-ef2761f9daef"},"vehicle_type_id":"4","last_reported":1750540102,"current_range_meters":400,"station_id":"","pricing_plan_id":"cebpf4jnsgd1na2vs0mg"},{"bike_id":"43f3207d-2a05-4f3a-81fd-4b72a345e0b7","system_id":"levelo_inurba_marseille","lat":43.28076,"lon":5.36656,"is_reserved":false,"is_disabled":true,"rental_uris":{"android":"levelo://app?vid=43f3207d-2a05-4f3a-81fd-4b72a345e0b7","ios":"levelo://app?vid=43f3207d-2a05-4f3a-81fd-4b72a345e0b7"},"vehicle_type_id":"4","last_reported":1750540102,"current_range_meters":400,"station_id":"","pricing_plan_id":"cebpf4jnsgd1na2vs0mg"},{"bike_id":"4e03271a-9651-424d-b727-f77c454f1fcb","system_id":"levelo_inurba_marseille","lat":43.32096,"lon":5.407775,"is_reserved":false,"is_disabled":true,"rental_uris":{"android":"levelo://app?vid=4e03271a-9651-424d-b727-f77c454f1fcb","ios":"levelo://app?vid=4e03271a-9651-424d-b727-f77c454f1fcb"},"vehicle_type_id":"4","last_reported":1750540102,"current_range_meters":400,"station_id":"","pricing_plan_id":"cebpf4jnsgd1na2vs0mg"},{"bike_id":"ec4dd844-2abf-4f8c-b809-150c13c6b8b4","system_id":"levelo_inurba_marseille","lat":43.27623,"lon":5.36102,"is_reserved":false,"is_disabled":true,"rental_uris":{"android":"levelo://app?vid=ec4dd844-2abf-4f8c-b809-150c13c6b8b4","ios":"levelo://app?vid=ec4dd844-2abf-4f8c-b809-150c13c6b8b4"},"vehicle_type_id":"4","last_reported":1750540102,"current_range_meters":400,"station_id":"ce4bgj92rcd13ifvqbe0","pricing_plan_id":"cebpf4jnsgd1na2vs0mg"},{"bike_id":"bfb531e0-6ee5-4995-bcf8-7b61e5aaccbb","system_id":"levelo_inurba_marseille","lat":43.29934,"lon":5.36548,"is_reserved":false,"is_disabled":true,"rental_uris":{"android":"levelo://app?vid=bfb531e0-6ee5-4995-bcf8-7b61e5aaccbb","ios":"levelo://app?vid=bfb531e0-6ee5-4995-bcf8-7b61e5aaccbb"},"vehicle_type_id":"4","last_reported":1750540102,"current_range_meters":400,"station_id":"ce4bgm92rcd13ifvqbr0","pricing_plan_id":"cebpf4jnsgd1na2vs0mg"},{"bike_id":"b3178137-f292-4224-870d-cf4a3169a864","system_id":"levelo_inurba_marseille","lat":43.32336,"lon":5.40608,"is_reserved":false,"is_disabled":true,"rental_uris":{"android":"levelo://app?vid=b3178137-f292-4224-870d-cf4a3169a864","ios":"levelo://app?vid=b3178137-f292-4224-870d-cf4a3169a864"},"vehicle_type_id":"4","last_reported":1750540102,"current_range_meters":400,"station_id":"ce4bhq92rcd13ifvqhjg","pricing_plan_id":"cebpf4jnsgd1na2vs0mg"},{"bike_id":"ee0a1d2f-9a19-451a-8c0a-5c9bad75e359","system_id":"levelo_inurba_marseille","lat":43.286662,"lon":5.363488,"is_reserved":false,"is_disabled":true,"rental_uris":{"android":"levelo://app?vid=ee0a1d2f-9a19-451a-8c0a-5c9bad75e359","ios":"levelo://app?vid=ee0a1d2f-9a19-451a-8c0a-5c9bad75e359"},"vehicle_type_id":"4","last_reported":1750540102,"current_range_meters":800,"station_id":"","pricing_plan_id":"cebpf4jnsgd1na2vs0mg"},{"bike_id":"db302311-f9fb-4633-b4cc-08745cef6d69","system_id":"levelo_inurba_marseille","lat":43.248056,"lon":5.374571,"is_reserved":false,"is_disabled":true,"rental_uris":{"android":"levelo://app?vid=db302311-f9fb-4633-b4cc-08745cef6d69","ios":"levelo://app?vid=db302311-f9fb-4633-b4cc-08745cef6d69"},"vehicle_type_id":"4","last_reported":1750540102,"current_range_meters":800,"station_id":"","pricing_plan_id":"cebpf4jnsgd1na2vs0mg"},{"bike_id":"c230e8b5-297e-4c7a-8630-da92e3ad5175","system_id":"levelo_inurba_marseille","lat":43.29268,"lon":5.38429,"is_reserved":false,"is_disabled":true,"rental_uris":{"android":"levelo://app?vid=c230e8b5-297e-4c7a-8630-da92e3ad5175","ios":"levelo://app?vid=c230e8b5-297e-4c7a-8630-da92e3ad5175"},"vehicle_type_id":"4","last_reported":1750540102,"current_range_meters":800,"station_id":"ce4bh692rcd13ifvqea0","pricing_plan_id":"cebpf4jnsgd1na2vs0mg"},{"bike_id":"a757b5b3-39d7-4d62-aea6-236ab976ce73","system_id":"levelo_inurba_marseille","lat":43.32496,"lon":5.3655,"is_reserved":false,"is_disabled":true,"rental_uris":{"android":"levelo://app?vid=a757b5b3-39d7-4d62-aea6-236ab976ce73","ios":"levelo://app?vid=a757b5b3-39d7-4d62-aea6-236ab976ce73"},"vehicle_type_id":"4","last_reported":1750540102,"current_range_meters":800,"station_id":"ce4bhs12rcd13ifvqhvg","pricing_plan_id":"cebpf4jnsgd1na2vs0mg"},{"bike_id":"e8b2899a-4211-4f31-b803-6ec5b4d26202","system_id":"levelo_inurba_marseille","lat":43.27559,"lon":5.39671,"is_reserved":false,"is_disabled":true,"rental_uris":{"android":"levelo://app?vid=e8b2899a-4211-4f31-b803-6ec5b4d26202","ios":"levelo://app?vid=e8b2899a-4211-4f31-b803-6ec5b4d26202"},"vehicle_type_id":"4","last_reported":1750540102,"current_range_meters":1200,"station_id":"","pricing_plan_id":"cebpf4jnsgd1na2vs0mg"},{"bike_id":"8c079ac1-5c99-4c7b-af4a-bacde868266b","system_id":"levelo_inurba_marseille","lat":43.28416,"lon":5.38493,"is_reserved":false,"is_disabled":true,"rental_uris":{"android":"levelo://app?vid=8c079ac1-5c99-4c7b-af4a-bacde868266b","ios":"levelo://app?vid=8c079ac1-5c99-4c7b-af4a-bacde868266b"},"vehicle_type_id":"4","last_reported":1750540102,"current_range_meters":1200,"station_id":"","pricing_plan_id":"cebpf4jnsgd1na2vs0mg"},{"bike_id":"8d742182-2985-48ab-bd95-ecd2b9741ecd","system_id":"levelo_inurba_marseille","lat":43.28357,"lon":5.38102,"is_reserved":false,"is_disabled":true,"rental_uris":{"android":"levelo://app?vid=8d742182-2985-48ab-bd95-ecd2b9741ecd","ios":"levelo://app?vid=8d742182-2985-48ab-bd95-ecd2b9741ecd"},"vehicle_type_id":"4","last_reported":1750540102,"current_range_meters":1200,"station_id":"ce4bh412rcd13ifvqdr0","pricing_plan_id":"cebpf4jnsgd1na2vs0mg"},{"bike_id":"51ab4f96-37b0-48a0-9102-0cb0543a4ce6","system_id":"levelo_inurba_marseille","lat":43.27376,"lon":5.36256,"is_reserved":false,"is_disabled":true,"rental_uris":{"android":"levelo://app?vid=51ab4f96-37b0-48a0-9102-0cb0543a4ce6","ios":"levelo://app?vid=51ab4f96-37b0-48a0-9102-0cb0543a4ce6"},"vehicle_type_id":"4","last_reported":1750540102,"current_range_meters":1200,"station_id":"ce4bhbh2rcd13ifvqeo0","pricing_plan_id":"cebpf4jnsgd1na2vs0mg"},{"bike_id":"6b48a4d0-3f7c-4823-bbd6-6d95349eccb6","system_id":"levelo_inurba_marseille","lat":43.26557,"lon":5.37281,"is_reserved":false,"is_disabled":true,"rental_uris":{"android":"levelo://app?vid=6b48a4d0-3f7c-4823-bbd6-6d95349eccb6","ios":"levelo://app?vid=6b48a4d0-3f7c-4823-bbd6-6d95349eccb6"},"vehicle_type_id":"4","last_reported":1750540102,"current_range_meters":1200,"station_id":"ce4bhg12rcd13ifvqf70","pricing_plan_id":"cebpf4jnsgd1na2vs0mg"},{"bike_id":"1586663b-7098-4f77-a311-dc21e9abc930","system_id":"levelo_inurba_marseille","lat":43.28926,"lon":5.38393,"is_reserved":false,"is_disabled":true,"rental_uris":{"android":"levelo://app?vid=1586663b-7098-4f77-a311-dc21e9abc930","ios":"levelo://app?vid=1586663b-7098-4f77-a311-dc21e9abc930"},"vehicle_type_id":"4","last_reported":1750540102,"current_range_meters":1600,"station_id":"","pricing_plan_id":"cebpf4jnsgd1na2vs0mg"},{"bike_id":"30246675-fba0-4c4f-a7cc-46723bf66e0d","system_id":"levelo_inurba_marseille","lat":43.290334,"lon":5.39961,"is_reserved":false,"is_disabled":true,"rental_uris":{"android":"levelo://app?vid=30246675-fba0-4c4f-a7cc-46723bf66e0d","ios":"levelo://app?vid=30246675-fba0-4c4f-a7cc-46723bf66e0d"},"vehicle_type_id":"4","last_reported":1750540102,"current_range_meters":1600,"station_id":"","pricing_plan_id":"cebpf4jnsgd1na2vs0mg"},{"bike_id":"1f222b38-5ff8-4aa3-8a04-4dd0369befc3","system_id":"levelo_inurba_marseille","lat":43.3233,"lon":5.40633,"is_reserved":false,"is_disabled":true,"rental_uris":{"android":"levelo://app?vid=1f222b38-5ff8-4aa3-8a04-4dd0369befc3","ios":"levelo://app?vid=1f222b38-5ff8-4aa3-8a04-4dd0369befc3"},"vehicle_type_id":"4","last_reported":1750540102,"current_range_meters":1600,"station_id":"ce4bhq92rcd13ifvqhjg","pricing_plan_id":"cebpf4jnsgd1na2vs0mg"},{"bike_id":"35cb0325-70f2-4890-bc7f-a374885a6065","system_id":"levelo_inurba_marseille","lat":43.245541,"lon":5.37303,"is_reserved":false,"is_disabled":true,"rental_uris":{"android":"levelo://app?vid=35cb0325-70f2-4890-bc7f-a374885a6065","ios":"levelo://app?vid=35cb0325-70f2-4890-bc7f-a374885a6065"},"vehicle_type_id":"4","last_reported":1750540102,"current_range_meters":2000,"station_id":"","pricing_plan_id":"cebpf4jnsgd1na2vs0mg"},{"bike_id":"cd9ca489-a929-47e5-b510-2c42b24bcfc8","system_id":"levelo_inurba_marseille","lat":43.30541,"lon":5.3842,"is_reserved":false,"is_disabled":true,"rental_uris":{"android":"levelo://app?vid=cd9ca489-a929-47e5-b510-2c42b24bcfc8","ios":"levelo://app?vid=cd9ca489-a929-47e5-b510-2c42b24bcfc8"},"vehicle_type_id":"4","last_reported":1750540102,"current_range_meters":2000,"station_id":"ce4bgg92rcd13ifvqb30","pricing_plan_id":"cebpf4jnsgd1na2vs0mg"},{"bike_id":"55f14295-27b3-40ab-be48-5aee8a09c52a","system_id":"levelo_inurba_marseille","lat":43.29567,"lon":5.37523,"is_reserved":false,"is_disabled":true,"rental_uris":{"android":"levelo://app?vid=55f14295-27b3-40ab-be48-5aee8a09c52a","ios":"levelo://app?vid=55f14295-27b3-40ab-be48-5aee8a09c52a"},"vehicle_type_id":"4","last_reported":1750540102,"current_range_meters":2000,"station_id":"ce4bgh92rcd13ifvqb50","pricing_plan_id":"cebpf4jnsgd1na2vs0mg"},{"bike_id":"174f7ac5-7c07-4a46-adb7-3c63374a4336","system_id":"levelo_inurba_marseille","lat":43.29203,"lon":5.39319,"is_reserved":false,"is_disabled":true,"rental_uris":{"android":"levelo://app?vid=174f7ac5-7c07-4a46-adb7-3c63374a4336","ios":"levelo://app?vid=174f7ac5-7c07-4a46-adb7-3c63374a4336"},"vehicle_type_id":"4","last_reported":1750540102,"current_range_meters":2000,"station_id":"ce4bh192rcd13ifvqdd0","pricing_plan_id":"cebpf4jnsgd1na2vs0mg"},{"bike_id":"e25b9529-3b01-4526-acbf-3c3113f104e6","system_id":"levelo_inurba_marseille","lat":43.24793,"lon":5.37444,"is_reserved":false,"is_disabled":true,"rental_uris":{"android":"levelo://app?vid=e25b9529-3b01-4526-acbf-3c3113f104e6","ios":"levelo://app?vid=e25b9529-3b01-4526-acbf-3c3113f104e6"},"vehicle_type_id":"4","last_reported":1750540102,"current_range_meters":2000,"station_id":"ce4bhgh2rcd13ifvqfb0","pricing_plan_id":"cebpf4jnsgd1na2vs0mg"},{"bike_id":"1570e4a2-7dc2-414f-b20f-24be73325b48","system_id":"levelo_inurba_marseille","lat":43.27496,"lon":5.4245,"is_reserved":false,"is_disabled":true,"rental_uris":{"android":"levelo://app?vid=1570e4a2-7dc2-414f-b20f-24be73325b48","ios":"levelo://app?vid=1570e4a2-7dc2-414f-b20f-24be73325b48"},"vehicle_type_id":"4","last_reported":1750540102,"current_range_meters":2000,"station_id":"ce4bhn92rcd13ifvqgrg","pricing_plan_id":"cebpf4jnsgd1na2vs0mg"},{"bike_id":"4c3219aa-a173-4ffd-b8b9-d08288dc7398","system_id":"levelo_inurba_marseille","lat":43.28464,"lon":5.35881,"is_reserved":false,"is_disabled":false,"rental_uris":{"android":"levelo://app?vid=4c3219aa-a173-4ffd-b8b9-d08288dc7398","ios":"levelo://app?vid=4c3219aa-a173-4ffd-b8b9-d08288dc7398"},"vehicle_type_id":"4","last_reported":1750540102,"current_range_meters":2800,"station_id":"ce4bhah2rcd13ifvqei0","pricing_plan_id":"cebpf4jnsgd1na2vs0mg"},{"bike_id":"ba622116-2124-4178-ae77-f815d800bf6c","system_id":"levelo_inurba_marseille","lat":43.27376,"lon":5.36255,"is_reserved":false,"is_disabled":false,"rental_uris":{"android":"levelo://app?vid=ba622116-2124-4178-ae77-f815d800bf6c","ios":"levelo://app?vid=ba622116-2124-4178-ae77-f815d800bf6c"},"vehicle_type_id":"4","last_reported":1750540102,"current_range_meters":2800,"station_id":"ce4bhbh2rcd13ifvqeo0","pricing_plan_id":"cebpf4jnsgd1na2vs0mg"},{"bike_id":"f43d845d-a8f9-4bb1-8731-6ee675e0e83e","system_id":"levelo_inurba_marseille","lat":43.27212,"lon":5.39169,"is_reserved":false,"is_disabled":false,"rental_uris":{"android":"levelo://app?vid=f43d845d-a8f9-4bb1-8731-6ee675e0e83e","ios":"levelo://app?vid=f43d845d-a8f9-4bb1-8731-6ee675e0e83e"},"vehicle_type_id":"4","last_reported":1750540102,"current_range_meters":2800,"station_id":"ce4bhhp2rcd13ifvqfm0","pricing_plan_id":"cebpf4jnsgd1na2vs0mg"},{"bike_id":"5fae3b12-0138-478f-9941-4728f79676cb","system_id":"levelo_inurba_marseille","lat":43.294222,"lon":5.386037,"is_reserved":false,"is_disabled":false,"rental_uris":{"android":"levelo://app?vid=5fae3b12-0138-478f-9941-4728f79676cb","ios":"levelo://app?vid=5fae3b12-0138-478f-9941-4728f79676cb"},"vehicle_type_id":"4","last_reported":1750540102,"current_range_meters":3600,"station_id":"ce4bh2h2rcd13ifvqdh0","pricing_plan_id":"cebpf4jnsgd1na2vs0mg"},{"bike_id":"1edb8fb0-b002-4d6c-bf55-c6df4638598b","system_id":"levelo_inurba_marseille","lat":43.28423,"lon":5.34978,"is_reserved":false,"is_disabled":false,"rental_uris":{"android":"levelo://app?vid=1edb8fb0-b002-4d6c-bf55-c6df4638598b","ios":"levelo://app?vid=1edb8fb0-b002-4d6c-bf55-c6df4638598b"},"vehicle_type_id":"4","last_reported":1750540102,"current_range_meters":3600,"station_id":"ce4bhbh2rcd13ifvqepg","pricing_plan_id":"cebpf4jnsgd1na2vs0mg"},{"bike_id":"c9135203-1d6e-41b2-954b-ff2b63617309","system_id":"levelo_inurba_marseille","lat":43.28277,"lon":5.35071,"is_reserved":false,"is_disabled":false,"rental_uris":{"android":"levelo://app?vid=c9135203-1d6e-41b2-954b-ff2b63617309","ios":"levelo://app?vid=c9135203-1d6e-41b2-954b-ff2b63617309"},"vehicle_type_id":"4","last_reported":1750540102,"current_range_meters":3600,"station_id":"ce4bhbp2rcd13ifvqerg","pricing_plan_id":"cebpf4jnsgd1na2vs0mg"},{"bike_id":"9a7e129f-65fa-46e1-8563-7918a8380017","system_id":"levelo_inurba_marseille","lat":43.24581,"lon":5.42116,"is_reserved":false,"is_disabled":false,"rental_uris":{"android":"levelo://app?vid=9a7e129f-65fa-46e1-8563-7918a8380017","ios":"levelo://app?vid=9a7e129f-65fa-46e1-8563-7918a8380017"},"vehicle_type_id":"4","last_reported":1750540102,"current_range_meters":4000,"station_id":"","pricing_plan_id":"cebpf4jnsgd1na2vs0mg"},{"bike_id":"ca8a266c-23ef-4479-ab88-39150079ea53","system_id":"levelo_inurba_marseille","lat":43.299622,"lon":5.384903,"is_reserved":false,"is_disabled":false,"rental_uris":{"android":"levelo://app?vid=ca8a266c-23ef-4479-ab88-39150079ea53","ios":"levelo://app?vid=ca8a266c-23ef-4479-ab88-39150079ea53"},"vehicle_type_id":"4","last_reported":1750540102,"current_range_meters":4400,"station_id":"ce4bgj92rcd13ifvqbd0","pricing_plan_id":"cebpf4jnsgd1na2vs0mg"},{"bike_id":"f1aa34bd-4ef0-48db-b820-e11a4d4ecd4e","system_id":"levelo_inurba_marseille","lat":43.28977,"lon":5.37829,"is_reserved":false,"is_disabled":false,"rental_uris":{"android":"levelo://app?vid=f1aa34bd-4ef0-48db-b820-e11a4d4ecd4e","ios":"levelo://app?vid=f1aa34bd-4ef0-48db-b820-e11a4d4ecd4e"},"vehicle_type_id":"4","last_reported":1750540102,"current_range_meters":4400,"station_id":"ce4bh9p2rcd13ifvqed0","pricing_plan_id":"cebpf4jnsgd1na2vs0mg"},{"bike_id":"054e9d45-515f-4ca6-b2d9-5bdfa1527e46","system_id":"levelo_inurba_marseille","lat":43.29638,"lon":5.37153,"is_reserved":false,"is_disabled":false,"rental_uris":{"android":"levelo://app?vid=054e9d45-515f-4ca6-b2d9-5bdfa1527e46","ios":"levelo://app?vid=054e9d45-515f-4ca6-b2d9-5bdfa1527e46"},"vehicle_type_id":"4","last_reported":1750540102,"current_range_meters":4800,"station_id":"","pricing_plan_id":"cebpf4jnsgd1na2vs0mg"},{"bike_id":"23faf6db-7fec-4f2f-8abd-4684dc28d9bc","system_id":"levelo_inurba_marseille","lat":43.28212,"lon":5.40835,"is_reserved":false,"is_disabled":false,"rental_uris":{"android":"levelo://app?vid=23faf6db-7fec-4f2f-8abd-4684dc28d9bc","ios":"levelo://app?vid=23faf6db-7fec-4f2f-8abd-4684dc28d9bc"},"vehicle_type_id":"4","last_reported":1750540102,"current_range_meters":4800,"station_id":"","pricing_plan_id":"cebpf4jnsgd1na2vs0mg"},{"bike_id":"5f7261bd-048a-4c68-9818-e712f606b103","system_id":"levelo_inurba_marseille","lat":43.33319,"lon":5.39041,"is_reserved":false,"is_disabled":false,"rental_uris":{"android":"levelo://app?vid=5f7261bd-048a-4c68-9818-e712f606b103","ios":"levelo://app?vid=5f7261bd-048a-4c68-9818-e712f606b103"},"vehicle_type_id":"4","last_reported":1750540102,"current_range_meters":4800,"station_id":"","pricing_plan_id":"cebpf4jnsgd1na2vs0mg"},{"bike_id":"b9a5fee2-a5c5-4082-9d27-c91825f82be0","system_id":"levelo_inurba_marseille","lat":43.29002,"lon":5.39958,"is_reserved":false,"is_disabled":false,"rental_uris":{"android":"levelo://app?vid=b9a5fee2-a5c5-4082-9d27-c91825f82be0","ios":"levelo://app?vid=b9a5fee2-a5c5-4082-9d27-c91825f82be0"},"vehicle_type_id":"4","last_reported":1750540102,"current_range_meters":4800,"station_id":"ce4bh392rcd13ifvqdm0","pricing_plan_id":"cebpf4jnsgd1na2vs0mg"},{"bike_id":"f51705e9-e699-4636-97a1-4b296647448c","system_id":"levelo_inurba_marseille","lat":43.24812,"lon":5.37458,"is_reserved":false,"is_disabled":false,"rental_uris":{"android":"levelo://app?vid=f51705e9-e699-4636-97a1-4b296647448c","ios":"levelo://app?vid=f51705e9-e699-4636-97a1-4b296647448c"},"vehicle_type_id":"4","last_reported":1750540102,"current_range_meters":4800,"station_id":"ce4bhgh2rcd13ifvqfb0","pricing_plan_id":"cebpf4jnsgd1na2vs0mg"},{"bike_id":"3e95126b-e7d1-4a63-9bb1-1667ca3e870f","system_id":"levelo_inurba_marseille","lat":43.2621,"lon":5.37441,"is_reserved":false,"is_disabled":false,"rental_uris":{"android":"levelo://app?vid=3e95126b-e7d1-4a63-9bb1-1667ca3e870f","ios":"levelo://app?vid=3e95126b-e7d1-4a63-9bb1-1667ca3e870f"},"vehicle_type_id":"4","last_reported":1750540102,"current_range_meters":4800,"station_id":"ce4bhgp2rcd13ifvqfc0","pricing_plan_id":"cebpf4jnsgd1na2vs0mg"},{"bike_id":"eb6fba16-c774-4270-aa83-a8ae24018619","system_id":"levelo_inurba_marseille","lat":43.26502,"lon":5.39529,"is_reserved":false,"is_disabled":false,"rental_uris":{"android":"levelo://app?vid=eb6fba16-c774-4270-aa83-a8ae24018619","ios":"levelo://app?vid=eb6fba16-c774-4270-aa83-a8ae24018619"},"vehicle_type_id":"4","last_reported":1750540102,"current_range_meters":4800,"station_id":"ce4bhi12rcd13ifvqfq0","pricing_plan_id":"cebpf4jnsgd1na2vs0mg"},{"bike_id":"dbea3d6b-6c73-4d31-9c44-9e9c645213d0","system_id":"levelo_inurba_marseille","lat":43.29848,"lon":5.36284,"is_reserved":false,"is_disabled":false,"rental_uris":{"android":"levelo://app?vid=dbea3d6b-6c73-4d31-9c44-9e9c645213d0","ios":"levelo://app?vid=dbea3d6b-6c73-4d31-9c44-9e9c645213d0"},"vehicle_type_id":"4","last_reported":1750540102,"current_range_meters":5600,"station_id":"ce4bgpp2rcd13ifvqc3g","pricing_plan_id":"cebpf4jnsgd1na2vs0mg"},{"bike_id":"af05089d-56f7-46b7-8e81-5a65d4d4f22f","system_id":"levelo_inurba_marseille","lat":43.28941,"lon":5.39633,"is_reserved":false,"is_disabled":false,"rental_uris":{"android":"levelo://app?vid=af05089d-56f7-46b7-8e81-5a65d4d4f22f","ios":"levelo://app?vid=af05089d-56f7-46b7-8e81-5a65d4d4f22f"},"vehicle_type_id":"4","last_reported":1750540102,"current_range_meters":5600,"station_id":"ce4bh3h2rcd13ifvqdn0","pricing_plan_id":"cebpf4jnsgd1na2vs0mg"},{"bike_id":"7801c6b2-bfae-431d-b49c-96293a2660a6","system_id":"levelo_inurba_marseille","lat":43.27574,"lon":5.38412,"is_reserved":false,"is_disabled":false,"rental_uris":{"android":"levelo://app?vid=7801c6b2-bfae-431d-b49c-96293a2660a6","ios":"levelo://app?vid=7801c6b2-bfae-431d-b49c-96293a2660a6"},"vehicle_type_id":"4","last_reported":1750540102,"current_range_meters":6000,"station_id":"ce4bhh92rcd13ifvqfi0","pricing_plan_id":"cebpf4jnsgd1na2vs0mg"},{"bike_id":"74ce8194-7e0d-4e79-ad28-ff695d4f2411","system_id":"levelo_inurba_marseille","lat":43.30133,"lon":5.38777,"is_reserved":false,"is_disabled":false,"rental_uris":{"android":"levelo://app?vid=74ce8194-7e0d-4e79-ad28-ff695d4f2411","ios":"levelo://app?vid=74ce8194-7e0d-4e79-ad28-ff695d4f2411"},"vehicle_type_id":"4","last_reported":1750540102,"current_range_meters":6400,"station_id":"ce4bghh2rcd13ifvqb60","pricing_plan_id":"cebpf4jnsgd1na2vs0mg"},{"bike_id":"97a623f6-58f5-4e4c-bd76-26f9ac39c197","system_id":"levelo_inurba_marseille","lat":43.26027,"lon":5.37548,"is_reserved":false,"is_disabled":false,"rental_uris":{"android":"levelo://app?vid=97a623f6-58f5-4e4c-bd76-26f9ac39c197","ios":"levelo://app?vid=97a623f6-58f5-4e4c-bd76-26f9ac39c197"},"vehicle_type_id":"4","last_reported":1750540102,"current_range_meters":6400,"station_id":"ce4bhgh2rcd13ifvqfa0","pricing_plan_id":"cebpf4jnsgd1na2vs0mg"},{"bike_id":"c595d0e1-c778-4abe-9c79-a9dd74f54e27","system_id":"levelo_inurba_marseille","lat":43.24469,"lon":5.37207,"is_reserved":false,"is_disabled":false,"rental_uris":{"android":"levelo://app?vid=c595d0e1-c778-4abe-9c79-a9dd74f54e27","ios":"levelo://app?vid=c595d0e1-c778-4abe-9c79-a9dd74f54e27"},"vehicle_type_id":"4","last_reported":1750540102,"current_range_meters":6800,"station_id":"","pricing_plan_id":"cebpf4jnsgd1na2vs0mg"},{"bike_id":"428fcb0b-c3aa-4119-aa12-cd281cc585d2","system_id":"levelo_inurba_marseille","lat":43.27921,"lon":5.42259,"is_reserved":false,"is_disabled":false,"rental_uris":{"android":"levelo://app?vid=428fcb0b-c3aa-4119-aa12-cd281cc585d2","ios":"levelo://app?vid=428fcb0b-c3aa-4119-aa12-cd281cc585d2"},"vehicle_type_id":"4","last_reported":1750540102,"current_range_meters":7200,"station_id":"","pricing_plan_id":"cebpf4jnsgd1na2vs0mg"},{"bike_id":"a3a50aad-3832-4823-ae09-a8b69fce6093","system_id":"levelo_inurba_marseille","lat":43.29591,"lon":5.38117,"is_reserved":false,"is_disabled":false,"rental_uris":{"android":"levelo://app?vid=a3a50aad-3832-4823-ae09-a8b69fce6093","ios":"levelo://app?vid=a3a50aad-3832-4823-ae09-a8b69fce6093"},"vehicle_type_id":"4","last_reported":1750540102,"current_range_meters":7200,"station_id":"ce4bgl12rcd13ifvqbo0","pricing_plan_id":"cebpf4jnsgd1na2vs0mg"},{"bike_id":"c1fac0dd-37e7-4a68-8366-a861ef4ade1c","system_id":"levelo_inurba_marseille","lat":43.25122,"lon":5.40319,"is_reserved":false,"is_disabled":false,"rental_uris":{"android":"levelo://app?vid=c1fac0dd-37e7-4a68-8366-a861ef4ade1c","ios":"levelo://app?vid=c1fac0dd-37e7-4a68-8366-a861ef4ade1c"},"vehicle_type_id":"4","last_reported":1750540102,"current_range_meters":7200,"station_id":"ce4bhlh2rcd13ifvqgig","pricing_plan_id":"cebpf4jnsgd1na2vs0mg"},{"bike_id":"ab858d32-10e0-47c7-a36b-89d0dec23476","system_id":"levelo_inurba_marseille","lat":43.30297,"lon":5.39221,"is_reserved":false,"is_disabled":false,"rental_uris":{"android":"levelo://app?vid=ab858d32-10e0-47c7-a36b-89d0dec23476","ios":"levelo://app?vid=ab858d32-10e0-47c7-a36b-89d0dec23476"},"vehicle_type_id":"4","last_reported":1750540102,"current_range_meters":8000,"station_id":"ce4bgkh2rcd13ifvqbk0","pricing_plan_id":"cebpf4jnsgd1na2vs0mg"},{"bike_id":"164624fa-e49d-4c90-95a7-64ad6861a16f","system_id":"levelo_inurba_marseille","lat":43.261965,"lon":5.374443,"is_reserved":false,"is_disabled":false,"rental_uris":{"android":"levelo://app?vid=164624fa-e49d-4c90-95a7-64ad6861a16f","ios":"levelo://app?vid=164624fa-e49d-4c90-95a7-64ad6861a16f"},"vehicle_type_id":"4","last_reported":1750540102,"current_range_meters":8000,"station_id":"ce4bh3p2rcd13ifvqdp0","pricing_plan_id":"cebpf4jnsgd1na2vs0mg"},{"bike_id":"cd694e6f-da06-430e-9192-cc60c2b46928","system_id":"levelo_inurba_marseille","lat":43.27373,"lon":5.36259,"is_reserved":false,"is_disabled":false,"rental_uris":{"android":"levelo://app?vid=cd694e6f-da06-430e-9192-cc60c2b46928","ios":"levelo://app?vid=cd694e6f-da06-430e-9192-cc60c2b46928"},"vehicle_type_id":"4","last_reported":1750540102,"current_range_meters":8000,"station_id":"ce4bhbh2rcd13ifvqeo0","pricing_plan_id":"cebpf4jnsgd1na2vs0mg"},{"bike_id":"728e74e0-84ea-46cb-9736-f17dbf049a85","system_id":"levelo_inurba_marseille","lat":43.26086,"lon":5.37549,"is_reserved":false,"is_disabled":false,"rental_uris":{"android":"levelo://app?vid=728e74e0-84ea-46cb-9736-f17dbf049a85","ios":"levelo://app?vid=728e74e0-84ea-46cb-9736-f17dbf049a85"},"vehicle_type_id":"4","last_reported":1750540102,"current_range_meters":8400,"station_id":"","pricing_plan_id":"cebpf4jnsgd1na2vs0mg"},{"bike_id":"8300812b-c3f4-4460-a462-0c10590e5460","system_id":"levelo_inurba_marseille","lat":43.329785,"lon":5.405503,"is_reserved":false,"is_disabled":false,"rental_uris":{"android":"levelo://app?vid=8300812b-c3f4-4460-a462-0c10590e5460","ios":"levelo://app?vid=8300812b-c3f4-4460-a462-0c10590e5460"},"vehicle_type_id":"4","last_reported":1750540102,"current_range_meters":8400,"station_id":"","pricing_plan_id":"cebpf4jnsgd1na2vs0mg"},{"bike_id":"199c2831-e081-4bc0-9b94-19503817091d","system_id":"levelo_inurba_marseille","lat":43.24906,"lon":5.40627,"is_reserved":false,"is_disabled":false,"rental_uris":{"android":"levelo://app?vid=199c2831-e081-4bc0-9b94-19503817091d","ios":"levelo://app?vid=199c2831-e081-4bc0-9b94-19503817091d"},"vehicle_type_id":"4","last_reported":1750540102,"current_range_meters":8400,"station_id":"","pricing_plan_id":"cebpf4jnsgd1na2vs0mg"},{"bike_id":"52a3f35b-3d45-4808-9d4c-e089ddaf4aaa","system_id":"levelo_inurba_marseille","lat":43.29425,"lon":5.38602,"is_reserved":false,"is_disabled":false,"rental_uris":{"android":"levelo://app?vid=52a3f35b-3d45-4808-9d4c-e089ddaf4aaa","ios":"levelo://app?vid=52a3f35b-3d45-4808-9d4c-e089ddaf4aaa"},"vehicle_type_id":"4","last_reported":1750540102,"current_range_meters":8400,"station_id":"ce4bh2h2rcd13ifvqdh0","pricing_plan_id":"cebpf4jnsgd1na2vs0mg"},{"bike_id":"bd12cb23-56f5-4d7b-aadf-9734a1662fff","system_id":"levelo_inurba_marseille","lat":43.28963,"lon":5.3664,"is_reserved":false,"is_disabled":false,"rental_uris":{"android":"levelo://app?vid=bd12cb23-56f5-4d7b-aadf-9734a1662fff","ios":"levelo://app?vid=bd12cb23-56f5-4d7b-aadf-9734a1662fff"},"vehicle_type_id":"4","last_reported":1750540102,"current_range_meters":8400,"station_id":"ce4bhap2rcd13ifvqek0","pricing_plan_id":"cebpf4jnsgd1na2vs0mg"},{"bike_id":"fd195076-a364-4bf2-ac38-fc4e70e33653","system_id":"levelo_inurba_marseille","lat":43.26496,"lon":5.39541,"is_reserved":false,"is_disabled":false,"rental_uris":{"android":"levelo://app?vid=fd195076-a364-4bf2-ac38-fc4e70e33653","ios":"levelo://app?vid=fd195076-a364-4bf2-ac38-fc4e70e33653"},"vehicle_type_id":"4","last_reported":1750540102,"current_range_meters":8400,"station_id":"ce4bhi12rcd13ifvqfq0","pricing_plan_id":"cebpf4jnsgd1na2vs0mg"},{"bike_id":"e10c3be5-03ec-4dfe-bbab-48f8e3988d05","system_id":"levelo_inurba_marseille","lat":43.29967,"lon":5.38498,"is_reserved":false,"is_disabled":false,"rental_uris":{"android":"levelo://app?vid=e10c3be5-03ec-4dfe-bbab-48f8e3988d05","ios":"levelo://app?vid=e10c3be5-03ec-4dfe-bbab-48f8e3988d05"},"vehicle_type_id":"4","last_reported":1750540102,"current_range_meters":8800,"station_id":"ce4bgj92rcd13ifvqbd0","pricing_plan_id":"cebpf4jnsgd1na2vs0mg"},{"bike_id":"f80c9968-3b90-4c5a-ad05-0cdb750b12ff","system_id":"levelo_inurba_marseille","lat":43.31715,"lon":5.37742,"is_reserved":false,"is_disabled":false,"rental_uris":{"android":"levelo://app?vid=f80c9968-3b90-4c5a-ad05-0cdb750b12ff","ios":"levelo://app?vid=f80c9968-3b90-4c5a-ad05-0cdb750b12ff"},"vehicle_type_id":"4","last_reported":1750540102,"current_range_meters":8800,"station_id":"ce4bgth2rcd13ifvqch0","pricing_plan_id":"cebpf4jnsgd1na2vs0mg"},{"bike_id":"e478972c-d9f1-455d-9ac8-38e8f5667c91","system_id":"levelo_inurba_marseille","lat":43.30596,"lon":5.393402,"is_reserved":false,"is_disabled":false,"rental_uris":{"android":"levelo://app?vid=e478972c-d9f1-455d-9ac8-38e8f5667c91","ios":"levelo://app?vid=e478972c-d9f1-455d-9ac8-38e8f5667c91"},"vehicle_type_id":"4","last_reported":1750540102,"current_range_meters":8800,"station_id":"ce4bh0p2rcd13ifvqd80","pricing_plan_id":"cebpf4jnsgd1na2vs0mg"},{"bike_id":"10e10aa7-78b1-40fa-a63a-d761f418eb4b","system_id":"levelo_inurba_marseille","lat":43.26779,"lon":5.39415,"is_reserved":false,"is_disabled":false,"rental_uris":{"android":"levelo://app?vid=10e10aa7-78b1-40fa-a63a-d761f418eb4b","ios":"levelo://app?vid=10e10aa7-78b1-40fa-a63a-d761f418eb4b"},"vehicle_type_id":"4","last_reported":1750540102,"current_range_meters":8800,"station_id":"ce4bhh12rcd13ifvqfg0","pricing_plan_id":"cebpf4jnsgd1na2vs0mg"},{"bike_id":"9fc48d57-7463-4adf-a8a8-1f4a08f13aba","system_id":"levelo_inurba_marseille","lat":43.31528,"lon":5.38024,"is_reserved":false,"is_disabled":false,"rental_uris":{"android":"levelo://app?vid=9fc48d57-7463-4adf-a8a8-1f4a08f13aba","ios":"levelo://app?vid=9fc48d57-7463-4adf-a8a8-1f4a08f13aba"},"vehicle_type_id":"4","last_reported":1750540102,"current_range_meters":8800,"station_id":"ce4bhsp2rcd13ifvqi50","pricing_plan_id":"cebpf4jnsgd1na2vs0mg"},{"bike_id":"bd27fe72-6fbc-453f-8b77-bee10ab3b13c","system_id":"levelo_inurba_marseille","lat":43.29527,"lon":5.42357,"is_reserved":false,"is_disabled":false,"rental_uris":{"android":"levelo://app?vid=bd27fe72-6fbc-453f-8b77-bee10ab3b13c","ios":"levelo://app?vid=bd27fe72-6fbc-453f-8b77-bee10ab3b13c"},"vehicle_type_id":"4","last_reported":1750540102,"current_range_meters":9200,"station_id":"","pricing_plan_id":"cebpf4jnsgd1na2vs0mg"},{"bike_id":"33f046f2-ddd3-4593-99b2-d8fde639ef81","system_id":"levelo_inurba_marseille","lat":43.30273,"lon":5.37714,"is_reserved":false,"is_disabled":false,"rental_uris":{"android":"levelo://app?vid=33f046f2-ddd3-4593-99b2-d8fde639ef81","ios":"levelo://app?vid=33f046f2-ddd3-4593-99b2-d8fde639ef81"},"vehicle_type_id":"4","last_reported":1750540102,"current_range_meters":9200,"station_id":"ce4bguh2rcd13ifvqcj0","pricing_plan_id":"cebpf4jnsgd1na2vs0mg"},{"bike_id":"43336385-9998-40c0-ba4e-7131ba6d9180","system_id":"levelo_inurba_marseille","lat":43.29271,"lon":5.38422,"is_reserved":false,"is_disabled":false,"rental_uris":{"android":"levelo://app?vid=43336385-9998-40c0-ba4e-7131ba6d9180","ios":"levelo://app?vid=43336385-9998-40c0-ba4e-7131ba6d9180"},"vehicle_type_id":"4","last_reported":1750540102,"current_range_meters":9200,"station_id":"ce4bh692rcd13ifvqea0","pricing_plan_id":"cebpf4jnsgd1na2vs0mg"},{"bike_id":"cdad3616-6d2a-4c29-a0b8-b5bc84209c59","system_id":"levelo_inurba_marseille","lat":43.32695,"lon":5.3923,"is_reserved":false,"is_disabled":false,"rental_uris":{"android":"levelo://app?vid=cdad3616-6d2a-4c29-a0b8-b5bc84209c59","ios":"levelo://app?vid=cdad3616-6d2a-4c29-a0b8-b5bc84209c59"},"vehicle_type_id":"4","last_reported":1750540102,"current_range_meters":9600,"station_id":"","pricing_plan_id":"cebpf4jnsgd1na2vs0mg"},{"bike_id":"5a516c11-7de8-4880-96ce-d6489c85b8cd","system_id":"levelo_inurba_marseille","lat":43.29537,"lon":5.37501,"is_reserved":false,"is_disabled":false,"rental_uris":{"android":"levelo://app?vid=5a516c11-7de8-4880-96ce-d6489c85b8cd","ios":"levelo://app?vid=5a516c11-7de8-4880-96ce-d6489c85b8cd"},"vehicle_type_id":"4","last_reported":1750540102,"current_range_meters":9600,"station_id":"ce4bgkp2rcd13ifvqbmg","pricing_plan_id":"cebpf4jnsgd1na2vs0mg"},{"bike_id":"d62084c0-851d-48c8-8000-e809686106f1","system_id":"levelo_inurba_marseille","lat":43.29271,"lon":5.38439,"is_reserved":false,"is_disabled":false,"rental_uris":{"android":"levelo://app?vid=d62084c0-851d-48c8-8000-e809686106f1","ios":"levelo://app?vid=d62084c0-851d-48c8-8000-e809686106f1"},"vehicle_type_id":"4","last_reported":1750540102,"current_range_meters":9600,"station_id":"ce4bh692rcd13ifvqea0","pricing_plan_id":"cebpf4jnsgd1na2vs0mg"},{"bike_id":"98a3f568-0d28-401f-80dc-bdd56cc2d977","system_id":"levelo_inurba_marseille","lat":43.29256,"lon":5.38441,"is_reserved":false,"is_disabled":false,"rental_uris":{"android":"levelo://app?vid=98a3f568-0d28-401f-80dc-bdd56cc2d977","ios":"levelo://app?vid=98a3f568-0d28-401f-80dc-bdd56cc2d977"},"vehicle_type_id":"4","last_reported":1750540102,"current_range_meters":9600,"station_id":"ce4bh692rcd13ifvqea0","pricing_plan_id":"cebpf4jnsgd1na2vs0mg"},{"bike_id":"1ae75b5f-e113-4657-92ee-060ecf20d387","system_id":"levelo_inurba_marseille","lat":43.29254,"lon":5.38434,"is_reserved":false,"is_disabled":false,"rental_uris":{"android":"levelo://app?vid=1ae75b5f-e113-4657-92ee-060ecf20d387","ios":"levelo://app?vid=1ae75b5f-e113-4657-92ee-060ecf20d387"},"vehicle_type_id":"4","last_reported":1750540102,"current_range_meters":9600,"station_id":"ce4bh692rcd13ifvqea0","pricing_plan_id":"cebpf4jnsgd1na2vs0mg"},{"bike_id":"3b3eb4b1-5710-4659-bba9-2fc0decf1919","system_id":"levelo_inurba_marseille","lat":43.295288,"lon":5.385405,"is_reserved":false,"is_disabled":false,"rental_uris":{"android":"levelo://app?vid=3b3eb4b1-5710-4659-bba9-2fc0decf1919","ios":"levelo://app?vid=3b3eb4b1-5710-4659-bba9-2fc0decf1919"},"vehicle_type_id":"4","last_reported":1750540102,"current_range_meters":10000,"station_id":"ce4bgih2rcd13ifvqba0","pricing_plan_id":"cebpf4jnsgd1na2vs0mg"},{"bike_id":"45d9f3d5-969e-4461-b123-ffbdc9134293","system_id":"levelo_inurba_marseille","lat":43.26559,"lon":5.37271,"is_reserved":false,"is_disabled":false,"rental_uris":{"android":"levelo://app?vid=45d9f3d5-969e-4461-b123-ffbdc9134293","ios":"levelo://app?vid=45d9f3d5-969e-4461-b123-ffbdc9134293"},"vehicle_type_id":"4","last_reported":1750540102,"current_range_meters":10000,"station_id":"ce4bhg12rcd13ifvqf70","pricing_plan_id":"cebpf4jnsgd1na2vs0mg"},{"bike_id":"ea45b5d9-97ac-4dd2-8c5a-20d287038064","system_id":"levelo_inurba_marseille","lat":43.233567,"lon":5.358124,"is_reserved":false,"is_disabled":false,"rental_uris":{"android":"levelo://app?vid=ea45b5d9-97ac-4dd2-8c5a-20d287038064","ios":"levelo://app?vid=ea45b5d9-97ac-4dd2-8c5a-20d287038064"},"vehicle_type_id":"4","last_reported":1750540102,"current_range_meters":10000,"station_id":"ce4bhu92rcd13ifvqi70","pricing_plan_id":"cebpf4jnsgd1na2vs0mg"},{"bike_id":"d40af265-11b5-43a6-9bb6-f910f57901ba","system_id":"levelo_inurba_marseille","lat":43.33033,"lon":5.38002,"is_reserved":false,"is_disabled":false,"rental_uris":{"android":"levelo://app?vid=d40af265-11b5-43a6-9bb6-f910f57901ba","ios":"levelo://app?vid=d40af265-11b5-43a6-9bb6-f910f57901ba"},"vehicle_type_id":"4","last_reported":1750540102,"current_range_meters":10800,"station_id":"","pricing_plan_id":"cebpf4jnsgd1na2vs0mg"},{"bike_id":"a22aa312-0025-4f42-88e2-b1e95e79340f","system_id":"levelo_inurba_marseille","lat":43.31638,"lon":5.38348,"is_reserved":false,"is_disabled":false,"rental_uris":{"android":"levelo://app?vid=a22aa312-0025-4f42-88e2-b1e95e79340f","ios":"levelo://app?vid=a22aa312-0025-4f42-88e2-b1e95e79340f"},"vehicle_type_id":"4","last_reported":1750540102,"current_range_meters":10800,"station_id":"","pricing_plan_id":"cebpf4jnsgd1na2vs0mg"},{"bike_id":"009ba8dc-4594-46ea-81e3-c45f5a13a206","system_id":"levelo_inurba_marseille","lat":43.29605,"lon":5.38093,"is_reserved":false,"is_disabled":false,"rental_uris":{"android":"levelo://app?vid=009ba8dc-4594-46ea-81e3-c45f5a13a206","ios":"levelo://app?vid=009ba8dc-4594-46ea-81e3-c45f5a13a206"},"vehicle_type_id":"4","last_reported":1750540102,"current_range_meters":10800,"station_id":"ce4bgl12rcd13ifvqbo0","pricing_plan_id":"cebpf4jnsgd1na2vs0mg"},{"bike_id":"bca91fd1-0071-4bf9-ab26-118f9a498539","system_id":"levelo_inurba_marseille","lat":43.29038,"lon":5.39953,"is_reserved":false,"is_disabled":false,"rental_uris":{"android":"levelo://app?vid=bca91fd1-0071-4bf9-ab26-118f9a498539","ios":"levelo://app?vid=bca91fd1-0071-4bf9-ab26-118f9a498539"},"vehicle_type_id":"4","last_reported":1750540102,"current_range_meters":10800,"station_id":"ce4bh392rcd13ifvqdm0","pricing_plan_id":"cebpf4jnsgd1na2vs0mg"},{"bike_id":"424a3068-91a7-45e3-8f90-8cc33036dd53","system_id":"levelo_inurba_marseille","lat":43.29265,"lon":5.38441,"is_reserved":false,"is_disabled":false,"rental_uris":{"android":"levelo://app?vid=424a3068-91a7-45e3-8f90-8cc33036dd53","ios":"levelo://app?vid=424a3068-91a7-45e3-8f90-8cc33036dd53"},"vehicle_type_id":"4","last_reported":1750540102,"current_range_meters":10800,"station_id":"ce4bh692rcd13ifvqea0","pricing_plan_id":"cebpf4jnsgd1na2vs0mg"},{"bike_id":"fc109e5a-d8a5-44f5-aa12-f3f458303a29","system_id":"levelo_inurba_marseille","lat":43.29268,"lon":5.38451,"is_reserved":false,"is_disabled":false,"rental_uris":{"android":"levelo://app?vid=fc109e5a-d8a5-44f5-aa12-f3f458303a29","ios":"levelo://app?vid=fc109e5a-d8a5-44f5-aa12-f3f458303a29"},"vehicle_type_id":"4","last_reported":1750540102,"current_range_meters":10800,"station_id":"ce4bh692rcd13ifvqea0","pricing_plan_id":"cebpf4jnsgd1na2vs0mg"},{"bike_id":"d8dccf0e-19e7-4fa7-b1ab-3cc27592e4fb","system_id":"levelo_inurba_marseille","lat":43.2927,"lon":5.38452,"is_reserved":false,"is_disabled":false,"rental_uris":{"android":"levelo://app?vid=d8dccf0e-19e7-4fa7-b1ab-3cc27592e4fb","ios":"levelo://app?vid=d8dccf0e-19e7-4fa7-b1ab-3cc27592e4fb"},"vehicle_type_id":"4","last_reported":1750540102,"current_range_meters":10800,"station_id":"ce4bh692rcd13ifvqea0","pricing_plan_id":"cebpf4jnsgd1na2vs0mg"},{"bike_id":"724fd01f-cd5e-4615-8455-46c53138252d","system_id":"levelo_inurba_marseille","lat":43.29047,"lon":5.35918,"is_reserved":false,"is_disabled":false,"rental_uris":{"android":"levelo://app?vid=724fd01f-cd5e-4615-8455-46c53138252d","ios":"levelo://app?vid=724fd01f-cd5e-4615-8455-46c53138252d"},"vehicle_type_id":"4","last_reported":1750540102,"current_range_meters":10800,"station_id":"ce4bha92rcd13ifvqeg0","pricing_plan_id":"cebpf4jnsgd1na2vs0mg"},{"bike_id":"5bc36b55-1536-4448-abf4-38e4186c30d8","system_id":"levelo_inurba_marseille","lat":43.2846,"lon":5.35879,"is_reserved":false,"is_disabled":false,"rental_uris":{"android":"levelo://app?vid=5bc36b55-1536-4448-abf4-38e4186c30d8","ios":"levelo://app?vid=5bc36b55-1536-4448-abf4-38e4186c30d8"},"vehicle_type_id":"4","last_reported":1750540102,"current_range_meters":10800,"station_id":"ce4bhah2rcd13ifvqei0","pricing_plan_id":"cebpf4jnsgd1na2vs0mg"},{"bike_id":"efe3648f-ac8e-42f9-92fb-7ea45b49a2d9","system_id":"levelo_inurba_marseille","lat":43.29529,"lon":5.38538,"is_reserved":false,"is_disabled":false,"rental_uris":{"android":"levelo://app?vid=efe3648f-ac8e-42f9-92fb-7ea45b49a2d9","ios":"levelo://app?vid=efe3648f-ac8e-42f9-92fb-7ea45b49a2d9"},"vehicle_type_id":"4","last_reported":1750540102,"current_range_meters":11200,"station_id":"ce4bgih2rcd13ifvqba0","pricing_plan_id":"cebpf4jnsgd1na2vs0mg"},{"bike_id":"0dc41e82-b37a-4893-b262-2a52e77625f0","system_id":"levelo_inurba_marseille","lat":43.29593,"lon":5.38088,"is_reserved":false,"is_disabled":false,"rental_uris":{"android":"levelo://app?vid=0dc41e82-b37a-4893-b262-2a52e77625f0","ios":"levelo://app?vid=0dc41e82-b37a-4893-b262-2a52e77625f0"},"vehicle_type_id":"4","last_reported":1750540102,"current_range_meters":11200,"station_id":"ce4bgl12rcd13ifvqbo0","pricing_plan_id":"cebpf4jnsgd1na2vs0mg"},{"bike_id":"42508b69-e12c-4989-8013-4508e061d6db","system_id":"levelo_inurba_marseille","lat":43.29264,"lon":5.38437,"is_reserved":false,"is_disabled":false,"rental_uris":{"android":"levelo://app?vid=42508b69-e12c-4989-8013-4508e061d6db","ios":"levelo://app?vid=42508b69-e12c-4989-8013-4508e061d6db"},"vehicle_type_id":"4","last_reported":1750540102,"current_range_meters":11200,"station_id":"ce4bh692rcd13ifvqea0","pricing_plan_id":"cebpf4jnsgd1na2vs0mg"},{"bike_id":"a2c878c7-87a5-40cd-a0ea-818a464a83bd","system_id":"levelo_inurba_marseille","lat":43.29275,"lon":5.38441,"is_reserved":false,"is_disabled":false,"rental_uris":{"android":"levelo://app?vid=a2c878c7-87a5-40cd-a0ea-818a464a83bd","ios":"levelo://app?vid=a2c878c7-87a5-40cd-a0ea-818a464a83bd"},"vehicle_type_id":"4","last_reported":1750540102,"current_range_meters":11200,"station_id":"ce4bh692rcd13ifvqea0","pricing_plan_id":"cebpf4jnsgd1na2vs0mg"},{"bike_id":"05052351-afb4-41bc-a61d-cef73f90761d","system_id":"levelo_inurba_marseille","lat":43.25471,"lon":5.37655,"is_reserved":false,"is_disabled":false,"rental_uris":{"android":"levelo://app?vid=05052351-afb4-41bc-a61d-cef73f90761d","ios":"levelo://app?vid=05052351-afb4-41bc-a61d-cef73f90761d"},"vehicle_type_id":"4","last_reported":1750540102,"current_range_meters":11200,"station_id":"ce4bhh12rcd13ifvqff0","pricing_plan_id":"cebpf4jnsgd1na2vs0mg"},{"bike_id":"455ecff6-f2e1-4fdb-8aa1-f5de213e9125","system_id":"levelo_inurba_marseille","lat":43.23181,"lon":5.39984,"is_reserved":false,"is_disabled":false,"rental_uris":{"android":"levelo://app?vid=455ecff6-f2e1-4fdb-8aa1-f5de213e9125","ios":"levelo://app?vid=455ecff6-f2e1-4fdb-8aa1-f5de213e9125"},"vehicle_type_id":"4","last_reported":1750540102,"current_range_meters":11200,"station_id":"ce4bhn12rcd13ifvqgqg","pricing_plan_id":"cebpf4jnsgd1na2vs0mg"},{"bike_id":"271cf7cf-7e30-4116-ba29-f6bac8438032","system_id":"levelo_inurba_marseille","lat":43.29528,"lon":5.38563,"is_reserved":false,"is_disabled":false,"rental_uris":{"android":"levelo://app?vid=271cf7cf-7e30-4116-ba29-f6bac8438032","ios":"levelo://app?vid=271cf7cf-7e30-4116-ba29-f6bac8438032"},"vehicle_type_id":"4","last_reported":1750540102,"current_range_meters":11600,"station_id":"ce4bgih2rcd13ifvqba0","pricing_plan_id":"cebpf4jnsgd1na2vs0mg"},{"bike_id":"0946645c-5b94-47c3-b255-ce8da29f32ed","system_id":"levelo_inurba_marseille","lat":43.2996,"lon":5.385,"is_reserved":false,"is_disabled":false,"rental_uris":{"android":"levelo://app?vid=0946645c-5b94-47c3-b255-ce8da29f32ed","ios":"levelo://app?vid=0946645c-5b94-47c3-b255-ce8da29f32ed"},"vehicle_type_id":"4","last_reported":1750540102,"current_range_meters":11600,"station_id":"ce4bgj92rcd13ifvqbd0","pricing_plan_id":"cebpf4jnsgd1na2vs0mg"},{"bike_id":"521221c3-0429-4e56-b412-d466c743f24f","system_id":"levelo_inurba_marseille","lat":43.29971,"lon":5.38494,"is_reserved":false,"is_disabled":false,"rental_uris":{"android":"levelo://app?vid=521221c3-0429-4e56-b412-d466c743f24f","ios":"levelo://app?vid=521221c3-0429-4e56-b412-d466c743f24f"},"vehicle_type_id":"4","last_reported":1750540102,"current_range_meters":11600,"station_id":"ce4bgj92rcd13ifvqbd0","pricing_plan_id":"cebpf4jnsgd1na2vs0mg"},{"bike_id":"47f55011-12fe-458a-85de-bb0ab94e99a5","system_id":"levelo_inurba_marseille","lat":43.299818,"lon":5.384902,"is_reserved":false,"is_disabled":false,"rental_uris":{"android":"levelo://app?vid=47f55011-12fe-458a-85de-bb0ab94e99a5","ios":"levelo://app?vid=47f55011-12fe-458a-85de-bb0ab94e99a5"},"vehicle_type_id":"4","last_reported":1750540102,"current_range_meters":11600,"station_id":"ce4bgj92rcd13ifvqbd0","pricing_plan_id":"cebpf4jnsgd1na2vs0mg"},{"bike_id":"faec602f-85dd-4421-b45a-b607bf189f3e","system_id":"levelo_inurba_marseille","lat":43.29203,"lon":5.39324,"is_reserved":false,"is_disabled":false,"rental_uris":{"android":"levelo://app?vid=faec602f-85dd-4421-b45a-b607bf189f3e","ios":"levelo://app?vid=faec602f-85dd-4421-b45a-b607bf189f3e"},"vehicle_type_id":"4","last_reported":1750540102,"current_range_meters":11600,"station_id":"ce4bh192rcd13ifvqdd0","pricing_plan_id":"cebpf4jnsgd1na2vs0mg"},{"bike_id":"d0bf51bd-df56-447a-9865-94f4df704147","system_id":"levelo_inurba_marseille","lat":43.29425,"lon":5.38594,"is_reserved":false,"is_disabled":false,"rental_uris":{"android":"levelo://app?vid=d0bf51bd-df56-447a-9865-94f4df704147","ios":"levelo://app?vid=d0bf51bd-df56-447a-9865-94f4df704147"},"vehicle_type_id":"4","last_reported":1750540102,"current_range_meters":11600,"station_id":"ce4bh2h2rcd13ifvqdh0","pricing_plan_id":"cebpf4jnsgd1na2vs0mg"},{"bike_id":"2537f7aa-a9a4-4722-a46c-751fc6c192d2","system_id":"levelo_inurba_marseille","lat":43.29262,"lon":5.38462,"is_reserved":false,"is_disabled":false,"rental_uris":{"android":"levelo://app?vid=2537f7aa-a9a4-4722-a46c-751fc6c192d2","ios":"levelo://app?vid=2537f7aa-a9a4-4722-a46c-751fc6c192d2"},"vehicle_type_id":"4","last_reported":1750540102,"current_range_meters":11600,"station_id":"ce4bh692rcd13ifvqea0","pricing_plan_id":"cebpf4jnsgd1na2vs0mg"},{"bike_id":"e447cd44-e2ab-4432-a2dc-869a068a7f8a","system_id":"levelo_inurba_marseille","lat":43.292354,"lon":5.360661,"is_reserved":false,"is_disabled":false,"rental_uris":{"android":"levelo://app?vid=e447cd44-e2ab-4432-a2dc-869a068a7f8a","ios":"levelo://app?vid=e447cd44-e2ab-4432-a2dc-869a068a7f8a"},"vehicle_type_id":"4","last_reported":1750540102,"current_range_meters":11600,"station_id":"ce4bhbh2rcd13ifvqeqg","pricing_plan_id":"cebpf4jnsgd1na2vs0mg"},{"bike_id":"9a8de4f3-8323-4654-a5ab-1d863263f174","system_id":"levelo_inurba_marseille","lat":43.26177,"lon":5.37416,"is_reserved":false,"is_disabled":false,"rental_uris":{"android":"levelo://app?vid=9a8de4f3-8323-4654-a5ab-1d863263f174","ios":"levelo://app?vid=9a8de4f3-8323-4654-a5ab-1d863263f174"},"vehicle_type_id":"4","last_reported":1750540102,"current_range_meters":11600,"station_id":"ce4bhgp2rcd13ifvqfc0","pricing_plan_id":"cebpf4jnsgd1na2vs0mg"},{"bike_id":"aa5769d7-c43e-4bb2-b3a5-f81f29dc96d1","system_id":"levelo_inurba_marseille","lat":43.29609,"lon":5.36997,"is_reserved":false,"is_disabled":false,"rental_uris":{"android":"levelo://app?vid=aa5769d7-c43e-4bb2-b3a5-f81f29dc96d1","ios":"levelo://app?vid=aa5769d7-c43e-4bb2-b3a5-f81f29dc96d1"},"vehicle_type_id":"4","last_reported":1750540102,"current_range_meters":12000,"station_id":"","pricing_plan_id":"cebpf4jnsgd1na2vs0mg"},{"bike_id":"b1cf0d51-9531-4128-8d4d-066aa504e349","system_id":"levelo_inurba_marseille","lat":43.3014,"lon":5.38797,"is_reserved":false,"is_disabled":false,"rental_uris":{"android":"levelo://app?vid=b1cf0d51-9531-4128-8d4d-066aa504e349","ios":"levelo://app?vid=b1cf0d51-9531-4128-8d4d-066aa504e349"},"vehicle_type_id":"4","last_reported":1750540102,"current_range_meters":12000,"station_id":"ce4bghh2rcd13ifvqb60","pricing_plan_id":"cebpf4jnsgd1na2vs0mg"},{"bike_id":"1bc0e563-d17f-470f-8ae5-5f696f9d6b36","system_id":"levelo_inurba_marseille","lat":43.29264,"lon":5.38447,"is_reserved":false,"is_disabled":false,"rental_uris":{"android":"levelo://app?vid=1bc0e563-d17f-470f-8ae5-5f696f9d6b36","ios":"levelo://app?vid=1bc0e563-d17f-470f-8ae5-5f696f9d6b36"},"vehicle_type_id":"4","last_reported":1750540102,"current_range_meters":12000,"station_id":"ce4bh692rcd13ifvqea0","pricing_plan_id":"cebpf4jnsgd1na2vs0mg"},{"bike_id":"38c10761-02d1-4e22-8c4d-36db70c7538d","system_id":"levelo_inurba_marseille","lat":43.25494,"lon":5.37653,"is_reserved":false,"is_disabled":false,"rental_uris":{"android":"levelo://app?vid=38c10761-02d1-4e22-8c4d-36db70c7538d","ios":"levelo://app?vid=38c10761-02d1-4e22-8c4d-36db70c7538d"},"vehicle_type_id":"4","last_reported":1750540102,"current_range_meters":12000,"station_id":"ce4bhh12rcd13ifvqff0","pricing_plan_id":"cebpf4jnsgd1na2vs0mg"},{"bike_id":"b6f032d9-44e8-41d4-99c8-bc8f00940bef","system_id":"levelo_inurba_marseille","lat":43.28703,"lon":5.39984,"is_reserved":false,"is_disabled":false,"rental_uris":{"android":"levelo://app?vid=b6f032d9-44e8-41d4-99c8-bc8f00940bef","ios":"levelo://app?vid=b6f032d9-44e8-41d4-99c8-bc8f00940bef"},"vehicle_type_id":"4","last_reported":1750540102,"current_range_meters":12000,"station_id":"ce4bho92rcd13ifvqh3g","pricing_plan_id":"cebpf4jnsgd1na2vs0mg"},{"bike_id":"f51a5534-8939-4b18-946b-f0305ff610f8","system_id":"levelo_inurba_marseille","lat":43.31992,"lon":5.38144,"is_reserved":false,"is_disabled":false,"rental_uris":{"android":"levelo://app?vid=f51a5534-8939-4b18-946b-f0305ff610f8","ios":"levelo://app?vid=f51a5534-8939-4b18-946b-f0305ff610f8"},"vehicle_type_id":"4","last_reported":1750540102,"current_range_meters":12000,"station_id":"ce4bhr12rcd13ifvqhpg","pricing_plan_id":"cebpf4jnsgd1na2vs0mg"},{"bike_id":"63b14372-9901-4c5c-8cbb-3e726ae6213e","system_id":"levelo_inurba_marseille","lat":43.29547,"lon":5.38527,"is_reserved":false,"is_disabled":false,"rental_uris":{"android":"levelo://app?vid=63b14372-9901-4c5c-8cbb-3e726ae6213e","ios":"levelo://app?vid=63b14372-9901-4c5c-8cbb-3e726ae6213e"},"vehicle_type_id":"4","last_reported":1750540102,"current_range_meters":12400,"station_id":"ce4bgih2rcd13ifvqba0","pricing_plan_id":"cebpf4jnsgd1na2vs0mg"},{"bike_id":"8efcebbf-e59d-4ed1-8ebe-e25ac4a9d230","system_id":"levelo_inurba_marseille","lat":43.29915,"lon":5.38151,"is_reserved":false,"is_disabled":false,"rental_uris":{"android":"levelo://app?vid=8efcebbf-e59d-4ed1-8ebe-e25ac4a9d230","ios":"levelo://app?vid=8efcebbf-e59d-4ed1-8ebe-e25ac4a9d230"},"vehicle_type_id":"4","last_reported":1750540102,"current_range_meters":12400,"station_id":"ce4bgj12rcd13ifvqbc0","pricing_plan_id":"cebpf4jnsgd1na2vs0mg"},{"bike_id":"2b009648-cf3c-4ad3-9c30-f5bdfd61aadf","system_id":"levelo_inurba_marseille","lat":43.29714,"lon":5.36608,"is_reserved":false,"is_disabled":false,"rental_uris":{"android":"levelo://app?vid=2b009648-cf3c-4ad3-9c30-f5bdfd61aadf","ios":"levelo://app?vid=2b009648-cf3c-4ad3-9c30-f5bdfd61aadf"},"vehicle_type_id":"4","last_reported":1750540102,"current_range_meters":12400,"station_id":"ce4bgn12rcd13ifvqbt0","pricing_plan_id":"cebpf4jnsgd1na2vs0mg"},{"bike_id":"5f73dd97-128d-494a-8ed9-5434bdeb2c73","system_id":"levelo_inurba_marseille","lat":43.29264,"lon":5.38447,"is_reserved":false,"is_disabled":false,"rental_uris":{"android":"levelo://app?vid=5f73dd97-128d-494a-8ed9-5434bdeb2c73","ios":"levelo://app?vid=5f73dd97-128d-494a-8ed9-5434bdeb2c73"},"vehicle_type_id":"4","last_reported":1750540102,"current_range_meters":12400,"station_id":"ce4bh692rcd13ifvqea0","pricing_plan_id":"cebpf4jnsgd1na2vs0mg"},{"bike_id":"3708460a-50bc-43a4-880e-50d8e61600fd","system_id":"levelo_inurba_marseille","lat":43.25492,"lon":5.37644,"is_reserved":false,"is_disabled":false,"rental_uris":{"android":"levelo://app?vid=3708460a-50bc-43a4-880e-50d8e61600fd","ios":"levelo://app?vid=3708460a-50bc-43a4-880e-50d8e61600fd"},"vehicle_type_id":"4","last_reported":1750540102,"current_range_meters":12400,"station_id":"ce4bhh12rcd13ifvqff0","pricing_plan_id":"cebpf4jnsgd1na2vs0mg"},{"bike_id":"88c3ef14-89a1-4a13-b239-5f348fb2de3d","system_id":"levelo_inurba_marseille","lat":43.25119,"lon":5.40314,"is_reserved":false,"is_disabled":false,"rental_uris":{"android":"levelo://app?vid=88c3ef14-89a1-4a13-b239-5f348fb2de3d","ios":"levelo://app?vid=88c3ef14-89a1-4a13-b239-5f348fb2de3d"},"vehicle_type_id":"4","last_reported":1750540102,"current_range_meters":12400,"station_id":"ce4bhlh2rcd13ifvqgig","pricing_plan_id":"cebpf4jnsgd1na2vs0mg"},{"bike_id":"8e41b0cb-0ef0-4321-b32c-825f89153b79","system_id":"levelo_inurba_marseille","lat":43.30376,"lon":5.42484,"is_reserved":false,"is_disabled":false,"rental_uris":{"android":"levelo://app?vid=8e41b0cb-0ef0-4321-b32c-825f89153b79","ios":"levelo://app?vid=8e41b0cb-0ef0-4321-b32c-825f89153b79"},"vehicle_type_id":"4","last_reported":1750540102,"current_range_meters":12400,"station_id":"ce4bhoh2rcd13ifvqh6g","pricing_plan_id":"cebpf4jnsgd1na2vs0mg"},{"bike_id":"9821d5a8-f323-4c46-b4db-d818150bdee0","system_id":"levelo_inurba_marseille","lat":43.33167,"lon":5.39092,"is_reserved":false,"is_disabled":false,"rental_uris":{"android":"levelo://app?vid=9821d5a8-f323-4c46-b4db-d818150bdee0","ios":"levelo://app?vid=9821d5a8-f323-4c46-b4db-d818150bdee0"},"vehicle_type_id":"4","last_reported":1750540102,"current_range_meters":12800,"station_id":"","pricing_plan_id":"cebpf4jnsgd1na2vs0mg"},{"bike_id":"fd6ceaed-f45c-4ee4-9c0f-ec00856a62fb","system_id":"levelo_inurba_marseille","lat":43.29535,"lon":5.38531,"is_reserved":false,"is_disabled":false,"rental_uris":{"android":"levelo://app?vid=fd6ceaed-f45c-4ee4-9c0f-ec00856a62fb","ios":"levelo://app?vid=fd6ceaed-f45c-4ee4-9c0f-ec00856a62fb"},"vehicle_type_id":"4","last_reported":1750540102,"current_range_meters":12800,"station_id":"ce4bgih2rcd13ifvqba0","pricing_plan_id":"cebpf4jnsgd1na2vs0mg"},{"bike_id":"3754d21c-7bab-4482-91c2-7c98a5caea83","system_id":"levelo_inurba_marseille","lat":43.29521,"lon":5.38547,"is_reserved":false,"is_disabled":false,"rental_uris":{"android":"levelo://app?vid=3754d21c-7bab-4482-91c2-7c98a5caea83","ios":"levelo://app?vid=3754d21c-7bab-4482-91c2-7c98a5caea83"},"vehicle_type_id":"4","last_reported":1750540102,"current_range_meters":12800,"station_id":"ce4bgih2rcd13ifvqba0","pricing_plan_id":"cebpf4jnsgd1na2vs0mg"},{"bike_id":"05450e56-9c92-4310-a3d8-a18356de1b7b","system_id":"levelo_inurba_marseille","lat":43.30418,"lon":5.3888,"is_reserved":false,"is_disabled":false,"rental_uris":{"android":"levelo://app?vid=05450e56-9c92-4310-a3d8-a18356de1b7b","ios":"levelo://app?vid=05450e56-9c92-4310-a3d8-a18356de1b7b"},"vehicle_type_id":"4","last_reported":1750540102,"current_range_meters":12800,"station_id":"ce4bgk12rcd13ifvqbi0","pricing_plan_id":"cebpf4jnsgd1na2vs0mg"},{"bike_id":"903a7bc2-af61-4cff-a24e-7733c1689bf6","system_id":"levelo_inurba_marseille","lat":43.292641,"lon":5.384433,"is_reserved":false,"is_disabled":false,"rental_uris":{"android":"levelo://app?vid=903a7bc2-af61-4cff-a24e-7733c1689bf6","ios":"levelo://app?vid=903a7bc2-af61-4cff-a24e-7733c1689bf6"},"vehicle_type_id":"4","last_reported":1750540102,"current_range_meters":12800,"station_id":"ce4bh692rcd13ifvqea0","pricing_plan_id":"cebpf4jnsgd1na2vs0mg"},{"bike_id":"54fbc8c7-4251-4efe-a05b-ad34da32dc8d","system_id":"levelo_inurba_marseille","lat":43.24806,"lon":5.37457,"is_reserved":false,"is_disabled":false,"rental_uris":{"android":"levelo://app?vid=54fbc8c7-4251-4efe-a05b-ad34da32dc8d","ios":"levelo://app?vid=54fbc8c7-4251-4efe-a05b-ad34da32dc8d"},"vehicle_type_id":"4","last_reported":1750540102,"current_range_meters":12800,"station_id":"ce4bhgh2rcd13ifvqfb0","pricing_plan_id":"cebpf4jnsgd1na2vs0mg"},{"bike_id":"b7036bc1-c072-4f36-9c66-21ff695540f4","system_id":"levelo_inurba_marseille","lat":43.24681,"lon":5.39422,"is_reserved":false,"is_disabled":false,"rental_uris":{"android":"levelo://app?vid=b7036bc1-c072-4f36-9c66-21ff695540f4","ios":"levelo://app?vid=b7036bc1-c072-4f36-9c66-21ff695540f4"},"vehicle_type_id":"4","last_reported":1750540102,"current_range_meters":13600,"station_id":"","pricing_plan_id":"cebpf4jnsgd1na2vs0mg"},{"bike_id":"d521bdd5-15c5-445d-8b36-9a7b570f884c","system_id":"levelo_inurba_marseille","lat":43.29614,"lon":5.3809,"is_reserved":false,"is_disabled":false,"rental_uris":{"android":"levelo://app?vid=d521bdd5-15c5-445d-8b36-9a7b570f884c","ios":"levelo://app?vid=d521bdd5-15c5-445d-8b36-9a7b570f884c"},"vehicle_type_id":"4","last_reported":1750540102,"current_range_meters":13600,"station_id":"ce4bgl12rcd13ifvqbo0","pricing_plan_id":"cebpf4jnsgd1na2vs0mg"},{"bike_id":"83a67653-c69b-4e77-a29d-98b65e18f684","system_id":"levelo_inurba_marseille","lat":43.2481,"lon":5.37474,"is_reserved":false,"is_disabled":false,"rental_uris":{"android":"levelo://app?vid=83a67653-c69b-4e77-a29d-98b65e18f684","ios":"levelo://app?vid=83a67653-c69b-4e77-a29d-98b65e18f684"},"vehicle_type_id":"4","last_reported":1750540102,"current_range_meters":13600,"station_id":"ce4bhgh2rcd13ifvqfb0","pricing_plan_id":"cebpf4jnsgd1na2vs0mg"},{"bike_id":"b08f5dee-fc0c-4ed9-8b8e-0fa481996794","system_id":"levelo_inurba_marseille","lat":43.26213,"lon":5.37474,"is_reserved":false,"is_disabled":false,"rental_uris":{"android":"levelo://app?vid=b08f5dee-fc0c-4ed9-8b8e-0fa481996794","ios":"levelo://app?vid=b08f5dee-fc0c-4ed9-8b8e-0fa481996794"},"vehicle_type_id":"4","last_reported":1750540102,"current_range_meters":13600,"station_id":"ce4bhgp2rcd13ifvqfc0","pricing_plan_id":"cebpf4jnsgd1na2vs0mg"},{"bike_id":"945c255f-8776-434c-9e59-d6bc4bdd1062","system_id":"levelo_inurba_marseille","lat":43.25499,"lon":5.37651,"is_reserved":false,"is_disabled":false,"rental_uris":{"android":"levelo://app?vid=945c255f-8776-434c-9e59-d6bc4bdd1062","ios":"levelo://app?vid=945c255f-8776-434c-9e59-d6bc4bdd1062"},"vehicle_type_id":"4","last_reported":1750540102,"current_range_meters":13600,"station_id":"ce4bhh12rcd13ifvqff0","pricing_plan_id":"cebpf4jnsgd1na2vs0mg"},{"bike_id":"4bbbc8d8-bf1f-42a9-abd9-c29b236c2679","system_id":"levelo_inurba_marseille","lat":43.284694,"lon":5.38441,"is_reserved":false,"is_disabled":false,"rental_uris":{"android":"levelo://app?vid=4bbbc8d8-bf1f-42a9-abd9-c29b236c2679","ios":"levelo://app?vid=4bbbc8d8-bf1f-42a9-abd9-c29b236c2679"},"vehicle_type_id":"4","last_reported":1750540102,"current_range_meters":14000,"station_id":"ce4bh512rcd13ifvqe3g","pricing_plan_id":"cebpf4jnsgd1na2vs0mg"},{"bike_id":"ae996f68-d156-40d2-9948-47651f95790f","system_id":"levelo_inurba_marseille","lat":43.29263,"lon":5.38431,"is_reserved":false,"is_disabled":false,"rental_uris":{"android":"levelo://app?vid=ae996f68-d156-40d2-9948-47651f95790f","ios":"levelo://app?vid=ae996f68-d156-40d2-9948-47651f95790f"},"vehicle_type_id":"4","last_reported":1750540102,"current_range_meters":14000,"station_id":"ce4bh692rcd13ifvqea0","pricing_plan_id":"cebpf4jnsgd1na2vs0mg"},{"bike_id":"187732e1-6713-48c5-be9d-a1b621d2e0bc","system_id":"levelo_inurba_marseille","lat":43.28712,"lon":5.39985,"is_reserved":false,"is_disabled":false,"rental_uris":{"android":"levelo://app?vid=187732e1-6713-48c5-be9d-a1b621d2e0bc","ios":"levelo://app?vid=187732e1-6713-48c5-be9d-a1b621d2e0bc"},"vehicle_type_id":"4","last_reported":1750540102,"current_range_meters":14000,"station_id":"ce4bho92rcd13ifvqh3g","pricing_plan_id":"cebpf4jnsgd1na2vs0mg"},{"bike_id":"c2142990-dd63-4040-8819-de4a77eb904b","system_id":"levelo_inurba_marseille","lat":43.241716,"lon":5.364027,"is_reserved":false,"is_disabled":false,"rental_uris":{"android":"levelo://app?vid=c2142990-dd63-4040-8819-de4a77eb904b","ios":"levelo://app?vid=c2142990-dd63-4040-8819-de4a77eb904b"},"vehicle_type_id":"4","last_reported":1750540102,"current_range_meters":14000,"station_id":"cpo36qri1sfpv3e86is0","pricing_plan_id":"cebpf4jnsgd1na2vs0mg"},{"bike_id":"1de72ef4-fbcf-485a-b61f-9652b926d9c9","system_id":"levelo_inurba_marseille","lat":43.29515,"lon":5.37505,"is_reserved":false,"is_disabled":false,"rental_uris":{"android":"levelo://app?vid=1de72ef4-fbcf-485a-b61f-9652b926d9c9","ios":"levelo://app?vid=1de72ef4-fbcf-485a-b61f-9652b926d9c9"},"vehicle_type_id":"4","last_reported":1750540102,"current_range_meters":14400,"station_id":"ce4bgkp2rcd13ifvqbmg","pricing_plan_id":"cebpf4jnsgd1na2vs0mg"},{"bike_id":"0df640a1-f974-4ef6-ad03-bc011cb8940b","system_id":"levelo_inurba_marseille","lat":43.29263,"lon":5.38438,"is_reserved":false,"is_disabled":false,"rental_uris":{"android":"levelo://app?vid=0df640a1-f974-4ef6-ad03-bc011cb8940b","ios":"levelo://app?vid=0df640a1-f974-4ef6-ad03-bc011cb8940b"},"vehicle_type_id":"4","last_reported":1750540102,"current_range_meters":14400,"station_id":"ce4bh692rcd13ifvqea0","pricing_plan_id":"cebpf4jnsgd1na2vs0mg"},{"bike_id":"34b83a77-7d68-4390-87a0-4d96d74151e8","system_id":"levelo_inurba_marseille","lat":43.29252,"lon":5.38426,"is_reserved":false,"is_disabled":false,"rental_uris":{"android":"levelo://app?vid=34b83a77-7d68-4390-87a0-4d96d74151e8","ios":"levelo://app?vid=34b83a77-7d68-4390-87a0-4d96d74151e8"},"vehicle_type_id":"4","last_reported":1750540102,"current_range_meters":14400,"station_id":"ce4bh692rcd13ifvqea0","pricing_plan_id":"cebpf4jnsgd1na2vs0mg"},{"bike_id":"651f6c7b-9e56-45a7-ba75-82efd81c1a7f","system_id":"levelo_inurba_marseille","lat":43.2927,"lon":5.38456,"is_reserved":false,"is_disabled":false,"rental_uris":{"android":"levelo://app?vid=651f6c7b-9e56-45a7-ba75-82efd81c1a7f","ios":"levelo://app?vid=651f6c7b-9e56-45a7-ba75-82efd81c1a7f"},"vehicle_type_id":"4","last_reported":1750540102,"current_range_meters":14400,"station_id":"ce4bh692rcd13ifvqea0","pricing_plan_id":"cebpf4jnsgd1na2vs0mg"},{"bike_id":"e8e94d0b-43d5-49cb-b7ea-d2f781b02763","system_id":"levelo_inurba_marseille","lat":43.29284,"lon":5.38178,"is_reserved":false,"is_disabled":false,"rental_uris":{"android":"levelo://app?vid=e8e94d0b-43d5-49cb-b7ea-d2f781b02763","ios":"levelo://app?vid=e8e94d0b-43d5-49cb-b7ea-d2f781b02763"},"vehicle_type_id":"4","last_reported":1750540102,"current_range_meters":14800,"station_id":"","pricing_plan_id":"cebpf4jnsgd1na2vs0mg"},{"bike_id":"05a7790f-8506-4822-a71c-618989b1a8f7","system_id":"levelo_inurba_marseille","lat":43.29519,"lon":5.38525,"is_reserved":false,"is_disabled":false,"rental_uris":{"android":"levelo://app?vid=05a7790f-8506-4822-a71c-618989b1a8f7","ios":"levelo://app?vid=05a7790f-8506-4822-a71c-618989b1a8f7"},"vehicle_type_id":"4","last_reported":1750540102,"current_range_meters":14800,"station_id":"ce4bgih2rcd13ifvqba0","pricing_plan_id":"cebpf4jnsgd1na2vs0mg"},{"bike_id":"b138151a-4692-4a5e-b004-d8ca5b927043","system_id":"levelo_inurba_marseille","lat":43.287933,"lon":5.379123,"is_reserved":false,"is_disabled":false,"rental_uris":{"android":"levelo://app?vid=b138151a-4692-4a5e-b004-d8ca5b927043","ios":"levelo://app?vid=b138151a-4692-4a5e-b004-d8ca5b927043"},"vehicle_type_id":"4","last_reported":1750540102,"current_range_meters":14800,"station_id":"ce4bh9p2rcd13ifvqec0","pricing_plan_id":"cebpf4jnsgd1na2vs0mg"},{"bike_id":"32ce7720-880c-469d-8048-027c8631c176","system_id":"levelo_inurba_marseille","lat":43.25486,"lon":5.37666,"is_reserved":false,"is_disabled":false,"rental_uris":{"android":"levelo://app?vid=32ce7720-880c-469d-8048-027c8631c176","ios":"levelo://app?vid=32ce7720-880c-469d-8048-027c8631c176"},"vehicle_type_id":"4","last_reported":1750540102,"current_range_meters":14800,"station_id":"ce4bhh12rcd13ifvqff0","pricing_plan_id":"cebpf4jnsgd1na2vs0mg"},{"bike_id":"db76ccd8-7907-4d3d-8ebd-ea0cdadbca52","system_id":"levelo_inurba_marseille","lat":43.27276,"lon":5.39119,"is_reserved":false,"is_disabled":false,"rental_uris":{"android":"levelo://app?vid=db76ccd8-7907-4d3d-8ebd-ea0cdadbca52","ios":"levelo://app?vid=db76ccd8-7907-4d3d-8ebd-ea0cdadbca52"},"vehicle_type_id":"4","last_reported":1750540102,"current_range_meters":15200,"station_id":"","pricing_plan_id":"cebpf4jnsgd1na2vs0mg"},{"bike_id":"6c078c04-52cb-4652-b990-d2e25ef80670","system_id":"levelo_inurba_marseille","lat":43.30128,"lon":5.38791,"is_reserved":false,"is_disabled":false,"rental_uris":{"android":"levelo://app?vid=6c078c04-52cb-4652-b990-d2e25ef80670","ios":"levelo://app?vid=6c078c04-52cb-4652-b990-d2e25ef80670"},"vehicle_type_id":"4","last_reported":1750540102,"current_range_meters":15200,"station_id":"ce4bghh2rcd13ifvqb60","pricing_plan_id":"cebpf4jnsgd1na2vs0mg"},{"bike_id":"878934df-425a-4733-9b31-5bb63a5eba87","system_id":"levelo_inurba_marseille","lat":43.299622,"lon":5.384891,"is_reserved":false,"is_disabled":false,"rental_uris":{"android":"levelo://app?vid=878934df-425a-4733-9b31-5bb63a5eba87","ios":"levelo://app?vid=878934df-425a-4733-9b31-5bb63a5eba87"},"vehicle_type_id":"4","last_reported":1750540102,"current_range_meters":15200,"station_id":"ce4bgj92rcd13ifvqbd0","pricing_plan_id":"cebpf4jnsgd1na2vs0mg"},{"bike_id":"ff5592ad-e7a4-4df0-8b3c-419d8c078d46","system_id":"levelo_inurba_marseille","lat":43.24807,"lon":5.37457,"is_reserved":false,"is_disabled":false,"rental_uris":{"android":"levelo://app?vid=ff5592ad-e7a4-4df0-8b3c-419d8c078d46","ios":"levelo://app?vid=ff5592ad-e7a4-4df0-8b3c-419d8c078d46"},"vehicle_type_id":"4","last_reported":1750540102,"current_range_meters":15200,"station_id":"ce4bhgh2rcd13ifvqfb0","pricing_plan_id":"cebpf4jnsgd1na2vs0mg"},{"bike_id":"45a71c80-a376-478e-bcb9-7d971b964da9","system_id":"levelo_inurba_marseille","lat":43.30419,"lon":5.41273,"is_reserved":false,"is_disabled":false,"rental_uris":{"android":"levelo://app?vid=45a71c80-a376-478e-bcb9-7d971b964da9","ios":"levelo://app?vid=45a71c80-a376-478e-bcb9-7d971b964da9"},"vehicle_type_id":"4","last_reported":1750540102,"current_range_meters":15200,"station_id":"ce4bhop2rcd13ifvqh8g","pricing_plan_id":"cebpf4jnsgd1na2vs0mg"},{"bike_id":"b0fd64b5-d1fb-4853-886d-6de254878aaf","system_id":"levelo_inurba_marseille","lat":43.307996,"lon":5.435268,"is_reserved":false,"is_disabled":false,"rental_uris":{"android":"levelo://app?vid=b0fd64b5-d1fb-4853-886d-6de254878aaf","ios":"levelo://app?vid=b0fd64b5-d1fb-4853-886d-6de254878aaf"},"vehicle_type_id":"4","last_reported":1750540102,"current_range_meters":15200,"station_id":"ce4bhph2rcd13ifvqheg","pricing_plan_id":"cebpf4jnsgd1na2vs0mg"},{"bike_id":"7c3434e7-ecd7-4565-9a0f-952b018128a9","system_id":"levelo_inurba_marseille","lat":43.21184,"lon":5.35093,"is_reserved":false,"is_disabled":false,"rental_uris":{"android":"levelo://app?vid=7c3434e7-ecd7-4565-9a0f-952b018128a9","ios":"levelo://app?vid=7c3434e7-ecd7-4565-9a0f-952b018128a9"},"vehicle_type_id":"4","last_reported":1750540102,"current_range_meters":15200,"station_id":"st_cvj6sg6p6f1abm77japg","pricing_plan_id":"cebpf4jnsgd1na2vs0mg"},{"bike_id":"101aa99a-32ab-4854-9c23-65e1026ce6b2","system_id":"levelo_inurba_marseille","lat":43.292297,"lon":5.383499,"is_reserved":false,"is_disabled":false,"rental_uris":{"android":"levelo://app?vid=101aa99a-32ab-4854-9c23-65e1026ce6b2","ios":"levelo://app?vid=101aa99a-32ab-4854-9c23-65e1026ce6b2"},"vehicle_type_id":"4","last_reported":1750540102,"current_range_meters":16000,"station_id":"","pricing_plan_id":"cebpf4jnsgd1na2vs0mg"},{"bike_id":"4d80d21e-3dc9-4004-a3c0-eb7b371a8ccf","system_id":"levelo_inurba_marseille","lat":43.33024,"lon":5.39367,"is_reserved":false,"is_disabled":false,"rental_uris":{"android":"levelo://app?vid=4d80d21e-3dc9-4004-a3c0-eb7b371a8ccf","ios":"levelo://app?vid=4d80d21e-3dc9-4004-a3c0-eb7b371a8ccf"},"vehicle_type_id":"4","last_reported":1750540102,"current_range_meters":16000,"station_id":"","pricing_plan_id":"cebpf4jnsgd1na2vs0mg"},{"bike_id":"ffbb0c22-3f4e-4cdb-a0e5-79e3b9f3e1a2","system_id":"levelo_inurba_marseille","lat":43.33769,"lon":5.37469,"is_reserved":false,"is_disabled":false,"rental_uris":{"android":"levelo://app?vid=ffbb0c22-3f4e-4cdb-a0e5-79e3b9f3e1a2","ios":"levelo://app?vid=ffbb0c22-3f4e-4cdb-a0e5-79e3b9f3e1a2"},"vehicle_type_id":"4","last_reported":1750540102,"current_range_meters":16000,"station_id":"","pricing_plan_id":"cebpf4jnsgd1na2vs0mg"},{"bike_id":"e7dbbb8e-521c-402e-8a1e-edd7f7fe8d33","system_id":"levelo_inurba_marseille","lat":43.29523,"lon":5.38552,"is_reserved":false,"is_disabled":false,"rental_uris":{"android":"levelo://app?vid=e7dbbb8e-521c-402e-8a1e-edd7f7fe8d33","ios":"levelo://app?vid=e7dbbb8e-521c-402e-8a1e-edd7f7fe8d33"},"vehicle_type_id":"4","last_reported":1750540102,"current_range_meters":16000,"station_id":"ce4bgih2rcd13ifvqba0","pricing_plan_id":"cebpf4jnsgd1na2vs0mg"},{"bike_id":"3ffb63a2-45b1-4aea-bdb5-40a873b26ca9","system_id":"levelo_inurba_marseille","lat":43.29538,"lon":5.38537,"is_reserved":false,"is_disabled":false,"rental_uris":{"android":"levelo://app?vid=3ffb63a2-45b1-4aea-bdb5-40a873b26ca9","ios":"levelo://app?vid=3ffb63a2-45b1-4aea-bdb5-40a873b26ca9"},"vehicle_type_id":"4","last_reported":1750540102,"current_range_meters":16000,"station_id":"ce4bgih2rcd13ifvqba0","pricing_plan_id":"cebpf4jnsgd1na2vs0mg"},{"bike_id":"882a1423-26e3-42f0-845b-79a424d9ae39","system_id":"levelo_inurba_marseille","lat":43.31225,"lon":5.36853,"is_reserved":false,"is_disabled":false,"rental_uris":{"android":"levelo://app?vid=882a1423-26e3-42f0-845b-79a424d9ae39","ios":"levelo://app?vid=882a1423-26e3-42f0-845b-79a424d9ae39"},"vehicle_type_id":"4","last_reported":1750540102,"current_range_meters":16000,"station_id":"ce4bgl92rcd13ifvqbq0","pricing_plan_id":"cebpf4jnsgd1na2vs0mg"},{"bike_id":"1f5edd2f-1f0f-47f7-93c5-9c6c6975cca5","system_id":"levelo_inurba_marseille","lat":43.30594,"lon":5.39354,"is_reserved":false,"is_disabled":false,"rental_uris":{"android":"levelo://app?vid=1f5edd2f-1f0f-47f7-93c5-9c6c6975cca5","ios":"levelo://app?vid=1f5edd2f-1f0f-47f7-93c5-9c6c6975cca5"},"vehicle_type_id":"4","last_reported":1750540102,"current_range_meters":16000,"station_id":"ce4bh0p2rcd13ifvqd80","pricing_plan_id":"cebpf4jnsgd1na2vs0mg"},{"bike_id":"f4d60c44-454d-4478-9775-40d16f51353f","system_id":"levelo_inurba_marseille","lat":43.29524,"lon":5.39394,"is_reserved":false,"is_disabled":false,"rental_uris":{"android":"levelo://app?vid=f4d60c44-454d-4478-9775-40d16f51353f","ios":"levelo://app?vid=f4d60c44-454d-4478-9775-40d16f51353f"},"vehicle_type_id":"4","last_reported":1750540102,"current_range_meters":16000,"station_id":"ce4bh292rcd13ifvqdf0","pricing_plan_id":"cebpf4jnsgd1na2vs0mg"},{"bike_id":"da3b539f-6219-477b-aa77-292de60991cf","system_id":"levelo_inurba_marseille","lat":43.29273,"lon":5.3844,"is_reserved":false,"is_disabled":false,"rental_uris":{"android":"levelo://app?vid=da3b539f-6219-477b-aa77-292de60991cf","ios":"levelo://app?vid=da3b539f-6219-477b-aa77-292de60991cf"},"vehicle_type_id":"4","last_reported":1750540102,"current_range_meters":16000,"station_id":"ce4bh692rcd13ifvqea0","pricing_plan_id":"cebpf4jnsgd1na2vs0mg"},{"bike_id":"60996aea-84eb-4f52-8bcc-2e656b335082","system_id":"levelo_inurba_marseille","lat":43.29272,"lon":5.38445,"is_reserved":false,"is_disabled":false,"rental_uris":{"android":"levelo://app?vid=60996aea-84eb-4f52-8bcc-2e656b335082","ios":"levelo://app?vid=60996aea-84eb-4f52-8bcc-2e656b335082"},"vehicle_type_id":"4","last_reported":1750540102,"current_range_meters":16000,"station_id":"ce4bh692rcd13ifvqea0","pricing_plan_id":"cebpf4jnsgd1na2vs0mg"},{"bike_id":"b65275c4-53d9-4024-be7a-2d22fd6ce6b9","system_id":"levelo_inurba_marseille","lat":43.24387,"lon":5.37054,"is_reserved":false,"is_disabled":false,"rental_uris":{"android":"levelo://app?vid=b65275c4-53d9-4024-be7a-2d22fd6ce6b9","ios":"levelo://app?vid=b65275c4-53d9-4024-be7a-2d22fd6ce6b9"},"vehicle_type_id":"4","last_reported":1750540102,"current_range_meters":16000,"station_id":"ce4bhhh2rcd13ifvqfk0","pricing_plan_id":"cebpf4jnsgd1na2vs0mg"},{"bike_id":"7e5ea129-c030-4a3d-8f3d-7b0c050066ac","system_id":"levelo_inurba_marseille","lat":43.28961,"lon":5.36482,"is_reserved":false,"is_disabled":false,"rental_uris":{"android":"levelo://app?vid=7e5ea129-c030-4a3d-8f3d-7b0c050066ac","ios":"levelo://app?vid=7e5ea129-c030-4a3d-8f3d-7b0c050066ac"},"vehicle_type_id":"4","last_reported":1750540102,"current_range_meters":16400,"station_id":"","pricing_plan_id":"cebpf4jnsgd1na2vs0mg"},{"bike_id":"4e82a138-904a-4f6e-892f-b95be6d4061c","system_id":"levelo_inurba_marseille","lat":43.299591,"lon":5.384972,"is_reserved":false,"is_disabled":false,"rental_uris":{"android":"levelo://app?vid=4e82a138-904a-4f6e-892f-b95be6d4061c","ios":"levelo://app?vid=4e82a138-904a-4f6e-892f-b95be6d4061c"},"vehicle_type_id":"4","last_reported":1750540102,"current_range_meters":16400,"station_id":"ce4bgj92rcd13ifvqbd0","pricing_plan_id":"cebpf4jnsgd1na2vs0mg"},{"bike_id":"b8fa3625-c6e6-45b2-9394-885d59b007e7","system_id":"levelo_inurba_marseille","lat":43.29732,"lon":5.37695,"is_reserved":false,"is_disabled":false,"rental_uris":{"android":"levelo://app?vid=b8fa3625-c6e6-45b2-9394-885d59b007e7","ios":"levelo://app?vid=b8fa3625-c6e6-45b2-9394-885d59b007e7"},"vehicle_type_id":"4","last_reported":1750540102,"current_range_meters":16400,"station_id":"ce4bgkh2rcd13ifvqbl0","pricing_plan_id":"cebpf4jnsgd1na2vs0mg"},{"bike_id":"8508f004-c0c2-4c2a-b590-f229d356df21","system_id":"levelo_inurba_marseille","lat":43.29419,"lon":5.38606,"is_reserved":false,"is_disabled":false,"rental_uris":{"android":"levelo://app?vid=8508f004-c0c2-4c2a-b590-f229d356df21","ios":"levelo://app?vid=8508f004-c0c2-4c2a-b590-f229d356df21"},"vehicle_type_id":"4","last_reported":1750540102,"current_range_meters":16400,"station_id":"ce4bh2h2rcd13ifvqdh0","pricing_plan_id":"cebpf4jnsgd1na2vs0mg"},{"bike_id":"fd0af26f-ba56-492d-b6a4-5f75592f0b6a","system_id":"levelo_inurba_marseille","lat":43.29271,"lon":5.38455,"is_reserved":false,"is_disabled":false,"rental_uris":{"android":"levelo://app?vid=fd0af26f-ba56-492d-b6a4-5f75592f0b6a","ios":"levelo://app?vid=fd0af26f-ba56-492d-b6a4-5f75592f0b6a"},"vehicle_type_id":"4","last_reported":1750540102,"current_range_meters":16400,"station_id":"ce4bh692rcd13ifvqea0","pricing_plan_id":"cebpf4jnsgd1na2vs0mg"},{"bike_id":"22174934-12b8-4eb3-8d3a-c6adcc86bacf","system_id":"levelo_inurba_marseille","lat":43.26186,"lon":5.37458,"is_reserved":false,"is_disabled":false,"rental_uris":{"android":"levelo://app?vid=22174934-12b8-4eb3-8d3a-c6adcc86bacf","ios":"levelo://app?vid=22174934-12b8-4eb3-8d3a-c6adcc86bacf"},"vehicle_type_id":"4","last_reported":1750540102,"current_range_meters":16400,"station_id":"ce4bhgp2rcd13ifvqfc0","pricing_plan_id":"cebpf4jnsgd1na2vs0mg"},{"bike_id":"497f3483-16fe-481e-bc97-5dd9b99f38ab","system_id":"levelo_inurba_marseille","lat":43.255067,"lon":5.376403,"is_reserved":false,"is_disabled":false,"rental_uris":{"android":"levelo://app?vid=497f3483-16fe-481e-bc97-5dd9b99f38ab","ios":"levelo://app?vid=497f3483-16fe-481e-bc97-5dd9b99f38ab"},"vehicle_type_id":"4","last_reported":1750540102,"current_range_meters":16400,"station_id":"ce4bhh12rcd13ifvqff0","pricing_plan_id":"cebpf4jnsgd1na2vs0mg"},{"bike_id":"d03a2d43-cd73-4e21-9308-b408d485b30a","system_id":"levelo_inurba_marseille","lat":43.25726,"lon":5.41108,"is_reserved":false,"is_disabled":false,"rental_uris":{"android":"levelo://app?vid=d03a2d43-cd73-4e21-9308-b408d485b30a","ios":"levelo://app?vid=d03a2d43-cd73-4e21-9308-b408d485b30a"},"vehicle_type_id":"4","last_reported":1750540102,"current_range_meters":16400,"station_id":"ce4bhkp2rcd13ifvqgd0","pricing_plan_id":"cebpf4jnsgd1na2vs0mg"},{"bike_id":"046ccbde-b3f3-4c46-b279-4f310ca7483b","system_id":"levelo_inurba_marseille","lat":43.28151,"lon":5.42638,"is_reserved":false,"is_disabled":false,"rental_uris":{"android":"levelo://app?vid=046ccbde-b3f3-4c46-b279-4f310ca7483b","ios":"levelo://app?vid=046ccbde-b3f3-4c46-b279-4f310ca7483b"},"vehicle_type_id":"4","last_reported":1750540102,"current_range_meters":16400,"station_id":"ce4bhnh2rcd13ifvqgug","pricing_plan_id":"cebpf4jnsgd1na2vs0mg"},{"bike_id":"377ec864-6a07-4987-8844-392b5fb8234b","system_id":"levelo_inurba_marseille","lat":43.31779,"lon":5.38783,"is_reserved":false,"is_disabled":false,"rental_uris":{"android":"levelo://app?vid=377ec864-6a07-4987-8844-392b5fb8234b","ios":"levelo://app?vid=377ec864-6a07-4987-8844-392b5fb8234b"},"vehicle_type_id":"4","last_reported":1750540102,"current_range_meters":16800,"station_id":"","pricing_plan_id":"cebpf4jnsgd1na2vs0mg"},{"bike_id":"a9e5e555-fdaf-49c0-b286-f0f2659b17d0","system_id":"levelo_inurba_marseille","lat":43.28325,"lon":5.43233,"is_reserved":false,"is_disabled":false,"rental_uris":{"android":"levelo://app?vid=a9e5e555-fdaf-49c0-b286-f0f2659b17d0","ios":"levelo://app?vid=a9e5e555-fdaf-49c0-b286-f0f2659b17d0"},"vehicle_type_id":"4","last_reported":1750540102,"current_range_meters":16800,"station_id":"","pricing_plan_id":"cebpf4jnsgd1na2vs0mg"},{"bike_id":"c87968ee-98c3-4417-9675-6f291a6266cf","system_id":"levelo_inurba_marseille","lat":43.29958,"lon":5.38486,"is_reserved":false,"is_disabled":false,"rental_uris":{"android":"levelo://app?vid=c87968ee-98c3-4417-9675-6f291a6266cf","ios":"levelo://app?vid=c87968ee-98c3-4417-9675-6f291a6266cf"},"vehicle_type_id":"4","last_reported":1750540102,"current_range_meters":16800,"station_id":"ce4bgj92rcd13ifvqbd0","pricing_plan_id":"cebpf4jnsgd1na2vs0mg"},{"bike_id":"5e38ba04-8245-4c12-8bb6-77d6832ef09b","system_id":"levelo_inurba_marseille","lat":43.31329,"lon":5.39691,"is_reserved":false,"is_disabled":false,"rental_uris":{"android":"levelo://app?vid=5e38ba04-8245-4c12-8bb6-77d6832ef09b","ios":"levelo://app?vid=5e38ba04-8245-4c12-8bb6-77d6832ef09b"},"vehicle_type_id":"4","last_reported":1750540102,"current_range_meters":16800,"station_id":"ce4bgvp2rcd13ifvqcu0","pricing_plan_id":"cebpf4jnsgd1na2vs0mg"},{"bike_id":"2ec27bfd-bff8-4914-b89a-e3deeba7f814","system_id":"levelo_inurba_marseille","lat":43.2857,"lon":5.39493,"is_reserved":false,"is_disabled":false,"rental_uris":{"android":"levelo://app?vid=2ec27bfd-bff8-4914-b89a-e3deeba7f814","ios":"levelo://app?vid=2ec27bfd-bff8-4914-b89a-e3deeba7f814"},"vehicle_type_id":"4","last_reported":1750540102,"current_range_meters":16800,"station_id":"ce4bh292rcd13ifvqdg0","pricing_plan_id":"cebpf4jnsgd1na2vs0mg"},{"bike_id":"f009867c-6667-46db-8b4f-cdb7f766412f","system_id":"levelo_inurba_marseille","lat":43.29278,"lon":5.38434,"is_reserved":false,"is_disabled":false,"rental_uris":{"android":"levelo://app?vid=f009867c-6667-46db-8b4f-cdb7f766412f","ios":"levelo://app?vid=f009867c-6667-46db-8b4f-cdb7f766412f"},"vehicle_type_id":"4","last_reported":1750540102,"current_range_meters":16800,"station_id":"ce4bh692rcd13ifvqea0","pricing_plan_id":"cebpf4jnsgd1na2vs0mg"},{"bike_id":"2c0c0ebd-95f6-423b-957f-4284a3948f76","system_id":"levelo_inurba_marseille","lat":43.28426,"lon":5.34973,"is_reserved":false,"is_disabled":false,"rental_uris":{"android":"levelo://app?vid=2c0c0ebd-95f6-423b-957f-4284a3948f76","ios":"levelo://app?vid=2c0c0ebd-95f6-423b-957f-4284a3948f76"},"vehicle_type_id":"4","last_reported":1750540102,"current_range_meters":16800,"station_id":"ce4bhbh2rcd13ifvqepg","pricing_plan_id":"cebpf4jnsgd1na2vs0mg"},{"bike_id":"ee6fddf9-6863-4a13-a31b-2f3228223d7e","system_id":"levelo_inurba_marseille","lat":43.21195,"lon":5.35106,"is_reserved":false,"is_disabled":false,"rental_uris":{"android":"levelo://app?vid=ee6fddf9-6863-4a13-a31b-2f3228223d7e","ios":"levelo://app?vid=ee6fddf9-6863-4a13-a31b-2f3228223d7e"},"vehicle_type_id":"4","last_reported":1750540102,"current_range_meters":16800,"station_id":"st_cvj6sg6p6f1abm77japg","pricing_plan_id":"cebpf4jnsgd1na2vs0mg"},{"bike_id":"138e36bb-aca2-4604-9e15-ae015bf802b5","system_id":"levelo_inurba_marseille","lat":43.3149,"lon":5.39129,"is_reserved":false,"is_disabled":false,"rental_uris":{"android":"levelo://app?vid=138e36bb-aca2-4604-9e15-ae015bf802b5","ios":"levelo://app?vid=138e36bb-aca2-4604-9e15-ae015bf802b5"},"vehicle_type_id":"4","last_reported":1750540102,"current_range_meters":17200,"station_id":"","pricing_plan_id":"cebpf4jnsgd1na2vs0mg"},{"bike_id":"9a3f0206-4e7e-46b9-8f34-eb998b556bc7","system_id":"levelo_inurba_marseille","lat":43.29616,"lon":5.37721,"is_reserved":false,"is_disabled":false,"rental_uris":{"android":"levelo://app?vid=9a3f0206-4e7e-46b9-8f34-eb998b556bc7","ios":"levelo://app?vid=9a3f0206-4e7e-46b9-8f34-eb998b556bc7"},"vehicle_type_id":"4","last_reported":1750540102,"current_range_meters":17200,"station_id":"ce4bgi92rcd13ifvqb90","pricing_plan_id":"cebpf4jnsgd1na2vs0mg"},{"bike_id":"0956f141-6a31-46ef-b5a2-a9e0b0822e8d","system_id":"levelo_inurba_marseille","lat":43.29533,"lon":5.38545,"is_reserved":false,"is_disabled":false,"rental_uris":{"android":"levelo://app?vid=0956f141-6a31-46ef-b5a2-a9e0b0822e8d","ios":"levelo://app?vid=0956f141-6a31-46ef-b5a2-a9e0b0822e8d"},"vehicle_type_id":"4","last_reported":1750540102,"current_range_meters":17200,"station_id":"ce4bgih2rcd13ifvqba0","pricing_plan_id":"cebpf4jnsgd1na2vs0mg"},{"bike_id":"2f981ecb-c9c5-4208-9b80-483f6ab20826","system_id":"levelo_inurba_marseille","lat":43.29516,"lon":5.38541,"is_reserved":false,"is_disabled":false,"rental_uris":{"android":"levelo://app?vid=2f981ecb-c9c5-4208-9b80-483f6ab20826","ios":"levelo://app?vid=2f981ecb-c9c5-4208-9b80-483f6ab20826"},"vehicle_type_id":"4","last_reported":1750540102,"current_range_meters":17200,"station_id":"ce4bgih2rcd13ifvqba0","pricing_plan_id":"cebpf4jnsgd1na2vs0mg"},{"bike_id":"5e46ca69-2d84-4d9d-84b7-0f6b5c1689a4","system_id":"levelo_inurba_marseille","lat":43.29978,"lon":5.38491,"is_reserved":false,"is_disabled":false,"rental_uris":{"android":"levelo://app?vid=5e46ca69-2d84-4d9d-84b7-0f6b5c1689a4","ios":"levelo://app?vid=5e46ca69-2d84-4d9d-84b7-0f6b5c1689a4"},"vehicle_type_id":"4","last_reported":1750540102,"current_range_meters":17200,"station_id":"ce4bgj92rcd13ifvqbd0","pricing_plan_id":"cebpf4jnsgd1na2vs0mg"},{"bike_id":"62b579b6-fcd8-415e-a8eb-159f74c75f1a","system_id":"levelo_inurba_marseille","lat":43.28411,"lon":5.37524,"is_reserved":false,"is_disabled":false,"rental_uris":{"android":"levelo://app?vid=62b579b6-fcd8-415e-a8eb-159f74c75f1a","ios":"levelo://app?vid=62b579b6-fcd8-415e-a8eb-159f74c75f1a"},"vehicle_type_id":"4","last_reported":1750540102,"current_range_meters":17200,"station_id":"ce4bh412rcd13ifvqds0","pricing_plan_id":"cebpf4jnsgd1na2vs0mg"},{"bike_id":"03f18c7d-b2ed-4878-b882-336d5d87096d","system_id":"levelo_inurba_marseille","lat":43.29263,"lon":5.38433,"is_reserved":false,"is_disabled":false,"rental_uris":{"android":"levelo://app?vid=03f18c7d-b2ed-4878-b882-336d5d87096d","ios":"levelo://app?vid=03f18c7d-b2ed-4878-b882-336d5d87096d"},"vehicle_type_id":"4","last_reported":1750540102,"current_range_meters":17200,"station_id":"ce4bh692rcd13ifvqea0","pricing_plan_id":"cebpf4jnsgd1na2vs0mg"},{"bike_id":"f10e38ce-c08a-4001-873a-ec3e8846285a","system_id":"levelo_inurba_marseille","lat":43.32977,"lon":5.3838,"is_reserved":false,"is_disabled":false,"rental_uris":{"android":"levelo://app?vid=f10e38ce-c08a-4001-873a-ec3e8846285a","ios":"levelo://app?vid=f10e38ce-c08a-4001-873a-ec3e8846285a"},"vehicle_type_id":"4","last_reported":1750540102,"current_range_meters":17600,"station_id":"","pricing_plan_id":"cebpf4jnsgd1na2vs0mg"},{"bike_id":"70764641-799a-4261-99bd-903918c1b74a","system_id":"levelo_inurba_marseille","lat":43.32876,"lon":5.38351,"is_reserved":false,"is_disabled":false,"rental_uris":{"android":"levelo://app?vid=70764641-799a-4261-99bd-903918c1b74a","ios":"levelo://app?vid=70764641-799a-4261-99bd-903918c1b74a"},"vehicle_type_id":"4","last_reported":1750540102,"current_range_meters":17600,"station_id":"","pricing_plan_id":"cebpf4jnsgd1na2vs0mg"},{"bike_id":"fbb88e1e-457b-4658-9478-0fd7ab554e6b","system_id":"levelo_inurba_marseille","lat":43.29529,"lon":5.38542,"is_reserved":false,"is_disabled":false,"rental_uris":{"android":"levelo://app?vid=fbb88e1e-457b-4658-9478-0fd7ab554e6b","ios":"levelo://app?vid=fbb88e1e-457b-4658-9478-0fd7ab554e6b"},"vehicle_type_id":"4","last_reported":1750540102,"current_range_meters":17600,"station_id":"ce4bgih2rcd13ifvqba0","pricing_plan_id":"cebpf4jnsgd1na2vs0mg"},{"bike_id":"56046923-f0bd-4539-a850-819c038eca89","system_id":"levelo_inurba_marseille","lat":43.2926,"lon":5.3845,"is_reserved":false,"is_disabled":false,"rental_uris":{"android":"levelo://app?vid=56046923-f0bd-4539-a850-819c038eca89","ios":"levelo://app?vid=56046923-f0bd-4539-a850-819c038eca89"},"vehicle_type_id":"4","last_reported":1750540102,"current_range_meters":17600,"station_id":"ce4bh692rcd13ifvqea0","pricing_plan_id":"cebpf4jnsgd1na2vs0mg"},{"bike_id":"8064ed06-2538-441b-8369-7b7a9c5df63b","system_id":"levelo_inurba_marseille","lat":43.280421,"lon":5.368689,"is_reserved":false,"is_disabled":false,"rental_uris":{"android":"levelo://app?vid=8064ed06-2538-441b-8369-7b7a9c5df63b","ios":"levelo://app?vid=8064ed06-2538-441b-8369-7b7a9c5df63b"},"vehicle_type_id":"4","last_reported":1750540102,"current_range_meters":17600,"station_id":"ce4bha12rcd13ifvqef0","pricing_plan_id":"cebpf4jnsgd1na2vs0mg"},{"bike_id":"3f5fb5bd-75c3-415f-8c6c-8834c0ade00d","system_id":"levelo_inurba_marseille","lat":43.26181,"lon":5.37453,"is_reserved":false,"is_disabled":false,"rental_uris":{"android":"levelo://app?vid=3f5fb5bd-75c3-415f-8c6c-8834c0ade00d","ios":"levelo://app?vid=3f5fb5bd-75c3-415f-8c6c-8834c0ade00d"},"vehicle_type_id":"4","last_reported":1750540102,"current_range_meters":17600,"station_id":"ce4bhgp2rcd13ifvqfc0","pricing_plan_id":"cebpf4jnsgd1na2vs0mg"},{"bike_id":"416eb0a1-af9a-48e2-9a81-27d7af4bb04f","system_id":"levelo_inurba_marseille","lat":43.29638,"lon":5.37159,"is_reserved":false,"is_disabled":false,"rental_uris":{"android":"levelo://app?vid=416eb0a1-af9a-48e2-9a81-27d7af4bb04f","ios":"levelo://app?vid=416eb0a1-af9a-48e2-9a81-27d7af4bb04f"},"vehicle_type_id":"4","last_reported":1750540102,"current_range_meters":18000,"station_id":"","pricing_plan_id":"cebpf4jnsgd1na2vs0mg"},{"bike_id":"33c76a70-86a5-4359-9fc8-ea0f6740050c","system_id":"levelo_inurba_marseille","lat":43.29307,"lon":5.37177,"is_reserved":false,"is_disabled":false,"rental_uris":{"android":"levelo://app?vid=33c76a70-86a5-4359-9fc8-ea0f6740050c","ios":"levelo://app?vid=33c76a70-86a5-4359-9fc8-ea0f6740050c"},"vehicle_type_id":"4","last_reported":1750540102,"current_range_meters":18000,"station_id":"ce4bgh92rcd13ifvqb40","pricing_plan_id":"cebpf4jnsgd1na2vs0mg"},{"bike_id":"6da3aaef-098b-430d-9ab1-b99f628305c2","system_id":"levelo_inurba_marseille","lat":43.2954,"lon":5.3856,"is_reserved":false,"is_disabled":false,"rental_uris":{"android":"levelo://app?vid=6da3aaef-098b-430d-9ab1-b99f628305c2","ios":"levelo://app?vid=6da3aaef-098b-430d-9ab1-b99f628305c2"},"vehicle_type_id":"4","last_reported":1750540102,"current_range_meters":18000,"station_id":"ce4bgih2rcd13ifvqba0","pricing_plan_id":"cebpf4jnsgd1na2vs0mg"},{"bike_id":"43ce3be8-11cd-40f4-949f-e8d5f7512a8b","system_id":"levelo_inurba_marseille","lat":43.29021,"lon":5.38632,"is_reserved":false,"is_disabled":false,"rental_uris":{"android":"levelo://app?vid=43ce3be8-11cd-40f4-949f-e8d5f7512a8b","ios":"levelo://app?vid=43ce3be8-11cd-40f4-949f-e8d5f7512a8b"},"vehicle_type_id":"4","last_reported":1750540102,"current_range_meters":18000,"station_id":"ce4bh4p2rcd13ifvqe0g","pricing_plan_id":"cebpf4jnsgd1na2vs0mg"},{"bike_id":"28923589-bd6c-4e9a-881a-a2a2a7fbdb4d","system_id":"levelo_inurba_marseille","lat":43.29286,"lon":5.38427,"is_reserved":false,"is_disabled":false,"rental_uris":{"android":"levelo://app?vid=28923589-bd6c-4e9a-881a-a2a2a7fbdb4d","ios":"levelo://app?vid=28923589-bd6c-4e9a-881a-a2a2a7fbdb4d"},"vehicle_type_id":"4","last_reported":1750540102,"current_range_meters":18000,"station_id":"ce4bh692rcd13ifvqea0","pricing_plan_id":"cebpf4jnsgd1na2vs0mg"},{"bike_id":"1c572520-63b9-41ff-98fd-a5cd8a73a82f","system_id":"levelo_inurba_marseille","lat":43.2604,"lon":5.37584,"is_reserved":false,"is_disabled":false,"rental_uris":{"android":"levelo://app?vid=1c572520-63b9-41ff-98fd-a5cd8a73a82f","ios":"levelo://app?vid=1c572520-63b9-41ff-98fd-a5cd8a73a82f"},"vehicle_type_id":"4","last_reported":1750540102,"current_range_meters":18000,"station_id":"ce4bhgh2rcd13ifvqfa0","pricing_plan_id":"cebpf4jnsgd1na2vs0mg"},{"bike_id":"f21b3f46-ed1c-4a2d-8be3-aad894af421c","system_id":"levelo_inurba_marseille","lat":43.23147,"lon":5.43725,"is_reserved":false,"is_disabled":false,"rental_uris":{"android":"levelo://app?vid=f21b3f46-ed1c-4a2d-8be3-aad894af421c","ios":"levelo://app?vid=f21b3f46-ed1c-4a2d-8be3-aad894af421c"},"vehicle_type_id":"4","last_reported":1750540102,"current_range_meters":18000,"station_id":"ce4bhmp2rcd13ifvqgog","pricing_plan_id":"cebpf4jnsgd1na2vs0mg"},{"bike_id":"071b7728-c90d-45be-99c9-255e9d8e710f","system_id":"levelo_inurba_marseille","lat":43.31995,"lon":5.38171,"is_reserved":false,"is_disabled":false,"rental_uris":{"android":"levelo://app?vid=071b7728-c90d-45be-99c9-255e9d8e710f","ios":"levelo://app?vid=071b7728-c90d-45be-99c9-255e9d8e710f"},"vehicle_type_id":"4","last_reported":1750540102,"current_range_meters":18000,"station_id":"ce4bhr12rcd13ifvqhpg","pricing_plan_id":"cebpf4jnsgd1na2vs0mg"},{"bike_id":"56e7889a-622a-4a9f-8457-bcaf3c3a213b","system_id":"levelo_inurba_marseille","lat":43.2952,"lon":5.38538,"is_reserved":false,"is_disabled":false,"rental_uris":{"android":"levelo://app?vid=56e7889a-622a-4a9f-8457-bcaf3c3a213b","ios":"levelo://app?vid=56e7889a-622a-4a9f-8457-bcaf3c3a213b"},"vehicle_type_id":"4","last_reported":1750540102,"current_range_meters":18800,"station_id":"ce4bgih2rcd13ifvqba0","pricing_plan_id":"cebpf4jnsgd1na2vs0mg"},{"bike_id":"ba26f10e-15b2-4ae2-96e0-ab665f85c060","system_id":"levelo_inurba_marseille","lat":43.29525,"lon":5.38567,"is_reserved":false,"is_disabled":false,"rental_uris":{"android":"levelo://app?vid=ba26f10e-15b2-4ae2-96e0-ab665f85c060","ios":"levelo://app?vid=ba26f10e-15b2-4ae2-96e0-ab665f85c060"},"vehicle_type_id":"4","last_reported":1750540102,"current_range_meters":18800,"station_id":"ce4bgih2rcd13ifvqba0","pricing_plan_id":"cebpf4jnsgd1na2vs0mg"},{"bike_id":"e3d18e22-5f08-415d-8d05-346b69edb30a","system_id":"levelo_inurba_marseille","lat":43.29979,"lon":5.38474,"is_reserved":false,"is_disabled":false,"rental_uris":{"android":"levelo://app?vid=e3d18e22-5f08-415d-8d05-346b69edb30a","ios":"levelo://app?vid=e3d18e22-5f08-415d-8d05-346b69edb30a"},"vehicle_type_id":"4","last_reported":1750540102,"current_range_meters":18800,"station_id":"ce4bgj92rcd13ifvqbd0","pricing_plan_id":"cebpf4jnsgd1na2vs0mg"},{"bike_id":"9b518c95-34f0-4efe-9846-70513c140c69","system_id":"levelo_inurba_marseille","lat":43.29982,"lon":5.3849,"is_reserved":false,"is_disabled":false,"rental_uris":{"android":"levelo://app?vid=9b518c95-34f0-4efe-9846-70513c140c69","ios":"levelo://app?vid=9b518c95-34f0-4efe-9846-70513c140c69"},"vehicle_type_id":"4","last_reported":1750540102,"current_range_meters":18800,"station_id":"ce4bgj92rcd13ifvqbd0","pricing_plan_id":"cebpf4jnsgd1na2vs0mg"},{"bike_id":"9f2ca27d-340c-44bc-b2bb-2a4fabfd982f","system_id":"levelo_inurba_marseille","lat":43.30455,"lon":5.37902,"is_reserved":false,"is_disabled":false,"rental_uris":{"android":"levelo://app?vid=9f2ca27d-340c-44bc-b2bb-2a4fabfd982f","ios":"levelo://app?vid=9f2ca27d-340c-44bc-b2bb-2a4fabfd982f"},"vehicle_type_id":"4","last_reported":1750540102,"current_range_meters":18800,"station_id":"ce4bgup2rcd13ifvqcn0","pricing_plan_id":"cebpf4jnsgd1na2vs0mg"},{"bike_id":"d1cb8ffb-f72c-4a44-b4a7-83250cf9d75a","system_id":"levelo_inurba_marseille","lat":43.25499,"lon":5.37649,"is_reserved":false,"is_disabled":false,"rental_uris":{"android":"levelo://app?vid=d1cb8ffb-f72c-4a44-b4a7-83250cf9d75a","ios":"levelo://app?vid=d1cb8ffb-f72c-4a44-b4a7-83250cf9d75a"},"vehicle_type_id":"4","last_reported":1750540102,"current_range_meters":18800,"station_id":"ce4bhh12rcd13ifvqff0","pricing_plan_id":"cebpf4jnsgd1na2vs0mg"},{"bike_id":"9b7ad717-4595-49c3-b911-54fd5c8e1b00","system_id":"levelo_inurba_marseille","lat":43.25473,"lon":5.37597,"is_reserved":false,"is_disabled":false,"rental_uris":{"android":"levelo://app?vid=9b7ad717-4595-49c3-b911-54fd5c8e1b00","ios":"levelo://app?vid=9b7ad717-4595-49c3-b911-54fd5c8e1b00"},"vehicle_type_id":"4","last_reported":1750540102,"current_range_meters":18800,"station_id":"ce4bhh12rcd13ifvqff0","pricing_plan_id":"cebpf4jnsgd1na2vs0mg"},{"bike_id":"1d8726ea-1f02-45c8-b7cd-d9fdbb673ea7","system_id":"levelo_inurba_marseille","lat":43.25502,"lon":5.376529,"is_reserved":false,"is_disabled":false,"rental_uris":{"android":"levelo://app?vid=1d8726ea-1f02-45c8-b7cd-d9fdbb673ea7","ios":"levelo://app?vid=1d8726ea-1f02-45c8-b7cd-d9fdbb673ea7"},"vehicle_type_id":"4","last_reported":1750540102,"current_range_meters":18800,"station_id":"ce4bhh12rcd13ifvqff0","pricing_plan_id":"cebpf4jnsgd1na2vs0mg"},{"bike_id":"a440245f-ecbe-47b2-a500-ec4e88f3174b","system_id":"levelo_inurba_marseille","lat":43.211931,"lon":5.350722,"is_reserved":false,"is_disabled":false,"rental_uris":{"android":"levelo://app?vid=a440245f-ecbe-47b2-a500-ec4e88f3174b","ios":"levelo://app?vid=a440245f-ecbe-47b2-a500-ec4e88f3174b"},"vehicle_type_id":"4","last_reported":1750540102,"current_range_meters":18800,"station_id":"st_cvj6sg6p6f1abm77japg","pricing_plan_id":"cebpf4jnsgd1na2vs0mg"},{"bike_id":"1c00ed5c-d23b-4f3b-b478-c16a1e956047","system_id":"levelo_inurba_marseille","lat":43.25528,"lon":5.40958,"is_reserved":false,"is_disabled":false,"rental_uris":{"android":"levelo://app?vid=1c00ed5c-d23b-4f3b-b478-c16a1e956047","ios":"levelo://app?vid=1c00ed5c-d23b-4f3b-b478-c16a1e956047"},"vehicle_type_id":"4","last_reported":1750540102,"current_range_meters":19200,"station_id":"ce4bh492rcd13ifvqdvg","pricing_plan_id":"cebpf4jnsgd1na2vs0mg"},{"bike_id":"7a2d1b8d-4fdb-4c83-a33d-caf44c496eb2","system_id":"levelo_inurba_marseille","lat":43.26557,"lon":5.37304,"is_reserved":false,"is_disabled":false,"rental_uris":{"android":"levelo://app?vid=7a2d1b8d-4fdb-4c83-a33d-caf44c496eb2","ios":"levelo://app?vid=7a2d1b8d-4fdb-4c83-a33d-caf44c496eb2"},"vehicle_type_id":"4","last_reported":1750540102,"current_range_meters":19200,"station_id":"ce4bhg12rcd13ifvqf70","pricing_plan_id":"cebpf4jnsgd1na2vs0mg"},