{"last_updated":1739891417,"ttl":60,"version":"2.2","data":{"bikes":[{"bike_id":"f36585b0-5965-43e9-a3dc-67fcf0518816","system_id":"levelo_inurba_marseille","lat":43.3169,"lon":5.40482,"is_reserved":false,"is_disabled":false,"rental_uris":{"android":"levelo://app?vid=f36585b0-5965-43e9-a3dc-67fcf0518816","ios":"levelo://app?vid=f36585b0-5965-43e9-a3dc-67fcf0518816"},"vehicle_type_id":"4","last_reported":1739891418,"current_range_meters":2800,"station_id":"ce4bh012rcd13ifvqd00","pricing_plan_id":"cebpf4jnsgd1na2vs0mg"},{"bike_id":"c4916927-7d10-4eb6-bf80-df6fa900d439","system_id":"levelo_inurba_marseille","lat":43.29554,"lon":5.42287,"is_reserved":false,"is_disabled":false,"rental_uris":{"android":"levelo://app?vid=c4916927-7d10-4eb6-bf80-df6fa900d439","ios":"levelo://app?vid=c4916927-7d10-4eb6-bf80-df6fa900d439"},"vehicle_type_id":"4","last_reported":1739891418,"current_range_meters":2800,"station_id":"ce4bhph2rcd13ifvqhdg","pricing_plan_id":"cebpf4jnsgd1na2vs0mg"},{"bike_id":"acb8ce6a-b9a8-49c2-aa6d-5697b507d3b6","system_id":"levelo_inurba_marseille","lat":43.24996,"lon":5.3894,"is_reserved":false,"is_disabled":false,"rental_uris":{"android":"levelo://app?vid=acb8ce6a-b9a8-49c2-aa6d-5697b507d3b6","ios":"levelo://app?vid=acb8ce6a-b9a8-49c2-aa6d-5697b507d3b6"},"vehicle_type_id":"4","last_reported":1739891418,"current_range_meters":3200,"station_id":"","pricing_plan_id":"cebpf4jnsgd1na2vs0mg"},{"bike_id":"c06aa0e5-9150-47d2-8bae-396b7a393565","system_id":"levelo_inurba_marseille","lat":43.259167,"lon":5.408906,"is_reserved":false,"is_disabled":true,"rental_uris":{"android":"levelo://app?vid=c06aa0e5-9150-47d2-8bae-396b7a393565","ios":"levelo://app?vid=c06aa0e5-9150-47d2-8bae-396b7a393565"},"vehicle_type_id":"4","last_reported":1739891418,"current_range_meters":3200,"station_id":"ce4bhg12rcd13ifvqf60","pricing_plan_id":"cebpf4jnsgd1na2vs0mg"},{"bike_id":"41998fa1-5ade-4467-bf8e-84aed015b122","system_id":"levelo_inurba_marseille","lat":43.23182,"lon":5.39996,"is_reserved":false,"is_disabled":false,"rental_uris":{"android":"levelo://app?vid=41998fa1-5ade-4467-bf8e-84aed015b122","ios":"levelo://app?vid=41998fa1-5ade-4467-bf8e-84aed015b122"},"vehicle_type_id":"4","last_reported":1739891418,"current_range_meters":1600,"station_id":"ce4bhn12rcd13ifvqgqg","pricing_plan_id":"cebpf4jnsgd1na2vs0mg"},{"bike_id":"03800b62-a978-47c1-8944-aee9afe71be1","system_id":"levelo_inurba_marseille","lat":43.24167,"lon":5.36391,"is_reserved":false,"is_disabled":false,"rental_uris":{"android":"levelo://app?vid=03800b62-a978-47c1-8944-aee9afe71be1","ios":"levelo://app?vid=03800b62-a978-47c1-8944-aee9afe71be1"},"vehicle_type_id":"4","last_reported":1739891418,"current_range_meters":4400,"station_id":"cpo36qri1sfpv3e86is0","pricing_plan_id":"cebpf4jnsgd1na2vs0mg"},{"bike_id":"36b9ab04-e36c-4966-893e-cf6e0d3bede2","system_id":"levelo_inurba_marseille","lat":43.28675,"lon":5.38657,"is_reserved":false,"is_disabled":false,"rental_uris":{"android":"levelo://app?vid=36b9ab04-e36c-4966-893e-cf6e0d3bede2","ios":"levelo://app?vid=36b9ab04-e36c-4966-893e-cf6e0d3bede2"},"vehicle_type_id":"4","last_reported":1739891418,"current_range_meters":4400,"station_id":"ce4bh492rcd13ifvqdug","pricing_plan_id":"cebpf4jnsgd1na2vs0mg"},{"bike_id":"10f8da56-b982-4af7-a78a-0fa9c8b1a438","system_id":"levelo_inurba_marseille","lat":43.295437,"lon":5.378689,"is_reserved":false,"is_disabled":false,"rental_uris":{"android":"levelo://app?vid=10f8da56-b982-4af7-a78a-0fa9c8b1a438","ios":"levelo://app?vid=10f8da56-b982-4af7-a78a-0fa9c8b1a438"},"vehicle_type_id":"4","last_reported":1739891418,"current_range_meters":4800,"station_id":"ce4bhq12rcd13ifvqhig","pricing_plan_id":"cebpf4jnsgd1na2vs0mg"},{"bike_id":"65eb0fa1-cf79-4897-a788-5129557220a4","system_id":"levelo_inurba_marseille","lat":43.23198,"lon":5.35552,"is_reserved":false,"is_disabled":false,"rental_uris":{"android":"levelo://app?vid=65eb0fa1-cf79-4897-a788-5129557220a4","ios":"levelo://app?vid=65eb0fa1-cf79-4897-a788-5129557220a4"},"vehicle_type_id":"4","last_reported":1739891418,"current_range_meters":5600,"station_id":"ce4bhu92rcd13ifvqi70","pricing_plan_id":"cebpf4jnsgd1na2vs0mg"},{"bike_id":"41f469a4-e34f-492e-88aa-969c7d4c8fea","system_id":"levelo_inurba_marseille","lat":43.2756,"lon":5.38414,"is_reserved":false,"is_disabled":false,"rental_uris":{"android":"levelo://app?vid=41f469a4-e34f-492e-88aa-969c7d4c8fea","ios":"levelo://app?vid=41f469a4-e34f-492e-88aa-969c7d4c8fea"},"vehicle_type_id":"4","last_reported":1739891418,"current_range_meters":4800,"station_id":"ce4bhh92rcd13ifvqfi0","pricing_plan_id":"cebpf4jnsgd1na2vs0mg"},{"bike_id":"cecc4246-f4ac-41a4-9da4-3a4072ea863c","system_id":"levelo_inurba_marseille","lat":43.28943,"lon":5.36411,"is_reserved":false,"is_disabled":false,"rental_uris":{"android":"levelo://app?vid=cecc4246-f4ac-41a4-9da4-3a4072ea863c","ios":"levelo://app?vid=cecc4246-f4ac-41a4-9da4-3a4072ea863c"},"vehicle_type_id":"4","last_reported":1739891418,"current_range_meters":5600,"station_id":"ce4bhc92rcd13ifvqetg","pricing_plan_id":"cebpf4jnsgd1na2vs0mg"},{"bike_id":"7d281b52-66d3-46aa-af5a-4a4aedd60716","system_id":"levelo_inurba_marseille","lat":43.25827,"lon":5.39421,"is_reserved":false,"is_disabled":false,"rental_uris":{"android":"levelo://app?vid=7d281b52-66d3-46aa-af5a-4a4aedd60716","ios":"levelo://app?vid=7d281b52-66d3-46aa-af5a-4a4aedd60716"},"vehicle_type_id":"4","last_reported":1739891418,"current_range_meters":6000,"station_id":"ce4bhip2rcd13ifvqft0","pricing_plan_id":"cebpf4jnsgd1na2vs0mg"},{"bike_id":"dcc5e4d0-d8bc-44ba-96bd-c2009e98dea4","system_id":"levelo_inurba_marseille","lat":43.25907,"lon":5.40894,"is_reserved":false,"is_disabled":false,"rental_uris":{"android":"levelo://app?vid=dcc5e4d0-d8bc-44ba-96bd-c2009e98dea4","ios":"levelo://app?vid=dcc5e4d0-d8bc-44ba-96bd-c2009e98dea4"},"vehicle_type_id":"4","last_reported":1739891418,"current_range_meters":6000,"station_id":"ce4bhm92rcd13ifvqglg","pricing_plan_id":"cebpf4jnsgd1na2vs0mg"},{"bike_id":"a4af178d-0384-434f-89b4-935f9bc2cb39","system_id":"levelo_inurba_marseille","lat":43.29552,"lon":5.42276,"is_reserved":false,"is_disabled":false,"rental_uris":{"android":"levelo://app?vid=a4af178d-0384-434f-89b4-935f9bc2cb39","ios":"levelo://app?vid=a4af178d-0384-434f-89b4-935f9bc2cb39"},"vehicle_type_id":"4","last_reported":1739891418,"current_range_meters":6000,"station_id":"","pricing_plan_id":"cebpf4jnsgd1na2vs0mg"},{"bike_id":"995bac75-72ad-424a-8783-998d8811e434","system_id":"levelo_inurba_marseille","lat":43.26951,"lon":5.3865,"is_reserved":false,"is_disabled":false,"rental_uris":{"android":"levelo://app?vid=995bac75-72ad-424a-8783-998d8811e434","ios":"levelo://app?vid=995bac75-72ad-424a-8783-998d8811e434"},"vehicle_type_id":"4","last_reported":1739891418,"current_range_meters":6400,"station_id":"ce4bhh92rcd13ifvqfh0","pricing_plan_id":"cebpf4jnsgd1na2vs0mg"},{"bike_id":"a7e835ec-a426-4a0e-a196-8316b34611ad","system_id":"levelo_inurba_marseille","lat":43.28611,"lon":5.37067,"is_reserved":false,"is_disabled":false,"rental_uris":{"android":"levelo://app?vid=a7e835ec-a426-4a0e-a196-8316b34611ad","ios":"levelo://app?vid=a7e835ec-a426-4a0e-a196-8316b34611ad"},"vehicle_type_id":"4","last_reported":1739891418,"current_range_meters":6400,"station_id":"ce4bht12rcd13ifvqi60","pricing_plan_id":"cebpf4jnsgd1na2vs0mg"},{"bike_id":"2e5e89c3-0e0e-4cca-b25a-7707cb6d7c5d","system_id":"levelo_inurba_marseille","lat":43.27662,"lon":5.4086,"is_reserved":false,"is_disabled":false,"rental_uris":{"android":"levelo://app?vid=2e5e89c3-0e0e-4cca-b25a-7707cb6d7c5d","ios":"levelo://app?vid=2e5e89c3-0e0e-4cca-b25a-7707cb6d7c5d"},"vehicle_type_id":"4","last_reported":1739891418,"current_range_meters":6400,"station_id":"","pricing_plan_id":"cebpf4jnsgd1na2vs0mg"},{"bike_id":"3d44f9a9-8470-4c01-974a-625407d54e20","system_id":"levelo_inurba_marseille","lat":43.32482,"lon":5.36606,"is_reserved":false,"is_disabled":false,"rental_uris":{"android":"levelo://app?vid=3d44f9a9-8470-4c01-974a-625407d54e20","ios":"levelo://app?vid=3d44f9a9-8470-4c01-974a-625407d54e20"},"vehicle_type_id":"4","last_reported":1739891418,"current_range_meters":6400,"station_id":"ce4bhs12rcd13ifvqhvg","pricing_plan_id":"cebpf4jnsgd1na2vs0mg"},{"bike_id":"082899f2-db62-443b-9d51-62d93188a678","system_id":"levelo_inurba_marseille","lat":43.27188,"lon":5.40965,"is_reserved":false,"is_disabled":false,"rental_uris":{"android":"levelo://app?vid=082899f2-db62-443b-9d51-62d93188a678","ios":"levelo://app?vid=082899f2-db62-443b-9d51-62d93188a678"},"vehicle_type_id":"4","last_reported":1739891418,"current_range_meters":6400,"station_id":"ce4bhl12rcd13ifvqgf0","pricing_plan_id":"cebpf4jnsgd1na2vs0mg"},{"bike_id":"795aa87d-b1ab-4db7-b9ea-b54720d2d9cc","system_id":"levelo_inurba_marseille","lat":43.30184,"lon":5.36613,"is_reserved":false,"is_disabled":false,"rental_uris":{"android":"levelo://app?vid=795aa87d-b1ab-4db7-b9ea-b54720d2d9cc","ios":"levelo://app?vid=795aa87d-b1ab-4db7-b9ea-b54720d2d9cc"},"vehicle_type_id":"4","last_reported":1739891418,"current_range_meters":6400,"station_id":"ce4bgrh2rcd13ifvqc8g","pricing_plan_id":"cebpf4jnsgd1na2vs0mg"},{"bike_id":"1ab45428-ba67-406f-9c12-6bd00ba563ef","system_id":"levelo_inurba_marseille","lat":43.29267,"lon":5.37622,"is_reserved":false,"is_disabled":false,"rental_uris":{"android":"levelo://app?vid=1ab45428-ba67-406f-9c12-6bd00ba563ef","ios":"levelo://app?vid=1ab45428-ba67-406f-9c12-6bd00ba563ef"},"vehicle_type_id":"4","last_reported":1739891418,"current_range_meters":6800,"station_id":"ce4bgi12rcd13ifvqb80","pricing_plan_id":"cebpf4jnsgd1na2vs0mg"},{"bike_id":"6997124b-4017-413b-998b-7f0460d18350","system_id":"levelo_inurba_marseille","lat":43.27374,"lon":5.36252,"is_reserved":false,"is_disabled":false,"rental_uris":{"android":"levelo://app?vid=6997124b-4017-413b-998b-7f0460d18350","ios":"levelo://app?vid=6997124b-4017-413b-998b-7f0460d18350"},"vehicle_type_id":"4","last_reported":1739891418,"current_range_meters":6800,"station_id":"","pricing_plan_id":"cebpf4jnsgd1na2vs0mg"},{"bike_id":"23956d5e-457a-41cf-b4c6-04eed1f4d6d4","system_id":"levelo_inurba_marseille","lat":43.25916,"lon":5.40874,"is_reserved":false,"is_disabled":false,"rental_uris":{"android":"levelo://app?vid=23956d5e-457a-41cf-b4c6-04eed1f4d6d4","ios":"levelo://app?vid=23956d5e-457a-41cf-b4c6-04eed1f4d6d4"},"vehicle_type_id":"4","last_reported":1739891418,"current_range_meters":6800,"station_id":"ce4bhm92rcd13ifvqglg","pricing_plan_id":"cebpf4jnsgd1na2vs0mg"},{"bike_id":"e05211db-bbfa-4a0b-ab6f-4634c955683b","system_id":"levelo_inurba_marseille","lat":43.31172,"lon":5.38708,"is_reserved":false,"is_disabled":false,"rental_uris":{"android":"levelo://app?vid=e05211db-bbfa-4a0b-ab6f-4634c955683b","ios":"levelo://app?vid=e05211db-bbfa-4a0b-ab6f-4634c955683b"},"vehicle_type_id":"4","last_reported":1739891418,"current_range_meters":6800,"station_id":"ce4bgv12rcd13ifvqcp0","pricing_plan_id":"cebpf4jnsgd1na2vs0mg"},{"bike_id":"8dbe617a-73bb-43b1-955a-f0b57c2f6fa2","system_id":"levelo_inurba_marseille","lat":43.27382,"lon":5.36259,"is_reserved":false,"is_disabled":false,"rental_uris":{"android":"levelo://app?vid=8dbe617a-73bb-43b1-955a-f0b57c2f6fa2","ios":"levelo://app?vid=8dbe617a-73bb-43b1-955a-f0b57c2f6fa2"},"vehicle_type_id":"4","last_reported":1739891418,"current_range_meters":6800,"station_id":"ce4bhbh2rcd13ifvqeo0","pricing_plan_id":"cebpf4jnsgd1na2vs0mg"},{"bike_id":"2fc51c18-93da-4c7a-ae54-30bc1bf5f64d","system_id":"levelo_inurba_marseille","lat":43.2951,"lon":5.38198,"is_reserved":false,"is_disabled":true,"rental_uris":{"android":"levelo://app?vid=2fc51c18-93da-4c7a-ae54-30bc1bf5f64d","ios":"levelo://app?vid=2fc51c18-93da-4c7a-ae54-30bc1bf5f64d"},"vehicle_type_id":"4","last_reported":1739891418,"current_range_meters":6800,"station_id":"","pricing_plan_id":"cebpf4jnsgd1na2vs0mg"},{"bike_id":"f6aa743a-d51b-4fd4-818d-fb93b943287e","system_id":"levelo_inurba_marseille","lat":43.30147,"lon":5.3743,"is_reserved":false,"is_disabled":false,"rental_uris":{"android":"levelo://app?vid=f6aa743a-d51b-4fd4-818d-fb93b943287e","ios":"levelo://app?vid=f6aa743a-d51b-4fd4-818d-fb93b943287e"},"vehicle_type_id":"4","last_reported":1739891418,"current_range_meters":8400,"station_id":"ce4bgs92rcd13ifvqcc0","pricing_plan_id":"cebpf4jnsgd1na2vs0mg"},{"bike_id":"811901b7-6a39-4b98-9209-f363e05c2482","system_id":"levelo_inurba_marseille","lat":43.28147,"lon":5.42627,"is_reserved":false,"is_disabled":false,"rental_uris":{"android":"levelo://app?vid=811901b7-6a39-4b98-9209-f363e05c2482","ios":"levelo://app?vid=811901b7-6a39-4b98-9209-f363e05c2482"},"vehicle_type_id":"4","last_reported":1739891418,"current_range_meters":7200,"station_id":"ce4bhnh2rcd13ifvqgug","pricing_plan_id":"cebpf4jnsgd1na2vs0mg"},{"bike_id":"1441ab16-218e-4d90-b3a7-621633692bd3","system_id":"levelo_inurba_marseille","lat":43.25719,"lon":5.41122,"is_reserved":false,"is_disabled":false,"rental_uris":{"android":"levelo://app?vid=1441ab16-218e-4d90-b3a7-621633692bd3","ios":"levelo://app?vid=1441ab16-218e-4d90-b3a7-621633692bd3"},"vehicle_type_id":"4","last_reported":1739891418,"current_range_meters":7200,"station_id":"ce4bhkp2rcd13ifvqgd0","pricing_plan_id":"cebpf4jnsgd1na2vs0mg"},{"bike_id":"98dafedc-f25b-409d-b3e2-803b47ffb900","system_id":"levelo_inurba_marseille","lat":43.245,"lon":5.372373,"is_reserved":false,"is_disabled":false,"rental_uris":{"android":"levelo://app?vid=98dafedc-f25b-409d-b3e2-803b47ffb900","ios":"levelo://app?vid=98dafedc-f25b-409d-b3e2-803b47ffb900"},"vehicle_type_id":"4","last_reported":1739891418,"current_range_meters":7200,"station_id":"","pricing_plan_id":"cebpf4jnsgd1na2vs0mg"},{"bike_id":"4a3367e9-80cf-447d-ae78-02201a45d005","system_id":"levelo_inurba_marseille","lat":43.33729,"lon":5.39187,"is_reserved":false,"is_disabled":false,"rental_uris":{"android":"levelo://app?vid=4a3367e9-80cf-447d-ae78-02201a45d005","ios":"levelo://app?vid=4a3367e9-80cf-447d-ae78-02201a45d005"},"vehicle_type_id":"4","last_reported":1739891418,"current_range_meters":8400,"station_id":"ce4bhr92rcd13ifvqhsg","pricing_plan_id":"cebpf4jnsgd1na2vs0mg"},{"bike_id":"55eb0a7c-6b29-484f-b637-0634ae3a25c8","system_id":"levelo_inurba_marseille","lat":43.25903,"lon":5.40896,"is_reserved":false,"is_disabled":false,"rental_uris":{"android":"levelo://app?vid=55eb0a7c-6b29-484f-b637-0634ae3a25c8","ios":"levelo://app?vid=55eb0a7c-6b29-484f-b637-0634ae3a25c8"},"vehicle_type_id":"4","last_reported":1739891418,"current_range_meters":8000,"station_id":"","pricing_plan_id":"cebpf4jnsgd1na2vs0mg"},{"bike_id":"08993cf1-edd4-4d6c-9989-29fb75f55bcd","system_id":"levelo_inurba_marseille","lat":43.27675,"lon":5.38911,"is_reserved":false,"is_disabled":false,"rental_uris":{"android":"levelo://app?vid=08993cf1-edd4-4d6c-9989-29fb75f55bcd","ios":"levelo://app?vid=08993cf1-edd4-4d6c-9989-29fb75f55bcd"},"vehicle_type_id":"4","last_reported":1739891418,"current_range_meters":8000,"station_id":"ce4bhi12rcd13ifvqfo0","pricing_plan_id":"cebpf4jnsgd1na2vs0mg"},{"bike_id":"a0dfaaa5-2564-40a0-a720-c6022c8dbdf6","system_id":"levelo_inurba_marseille","lat":43.25502,"lon":5.37663,"is_reserved":false,"is_disabled":false,"rental_uris":{"android":"levelo://app?vid=a0dfaaa5-2564-40a0-a720-c6022c8dbdf6","ios":"levelo://app?vid=a0dfaaa5-2564-40a0-a720-c6022c8dbdf6"},"vehicle_type_id":"4","last_reported":1739891418,"current_range_meters":8000,"station_id":"ce4bhh12rcd13ifvqff0","pricing_plan_id":"cebpf4jnsgd1na2vs0mg"},{"bike_id":"789bddbf-51c2-49d5-bd4e-dd4e14c3cf92","system_id":"levelo_inurba_marseille","lat":43.26544,"lon":5.37305,"is_reserved":false,"is_disabled":false,"rental_uris":{"android":"levelo://app?vid=789bddbf-51c2-49d5-bd4e-dd4e14c3cf92","ios":"levelo://app?vid=789bddbf-51c2-49d5-bd4e-dd4e14c3cf92"},"vehicle_type_id":"4","last_reported":1739891418,"current_range_meters":8000,"station_id":"","pricing_plan_id":"cebpf4jnsgd1na2vs0mg"},{"bike_id":"6528e792-6c2b-41ab-b102-37d30001a0e7","system_id":"levelo_inurba_marseille","lat":43.27234,"lon":5.40051,"is_reserved":false,"is_disabled":false,"rental_uris":{"android":"levelo://app?vid=6528e792-6c2b-41ab-b102-37d30001a0e7","ios":"levelo://app?vid=6528e792-6c2b-41ab-b102-37d30001a0e7"},"vehicle_type_id":"4","last_reported":1739891418,"current_range_meters":8400,"station_id":"","pricing_plan_id":"cebpf4jnsgd1na2vs0mg"},{"bike_id":"8edd2fd8-1293-41ee-8d6f-3b2f2b027eab","system_id":"levelo_inurba_marseille","lat":43.25012,"lon":5.38946,"is_reserved":false,"is_disabled":false,"rental_uris":{"android":"levelo://app?vid=8edd2fd8-1293-41ee-8d6f-3b2f2b027eab","ios":"levelo://app?vid=8edd2fd8-1293-41ee-8d6f-3b2f2b027eab"},"vehicle_type_id":"4","last_reported":1739891418,"current_range_meters":8400,"station_id":"","pricing_plan_id":"cebpf4jnsgd1na2vs0mg"},{"bike_id":"e634b9f1-fc8f-4f19-bf5a-5a00392b8a7f","system_id":"levelo_inurba_marseille","lat":43.29867,"lon":5.39731,"is_reserved":false,"is_disabled":false,"rental_uris":{"android":"levelo://app?vid=e634b9f1-fc8f-4f19-bf5a-5a00392b8a7f","ios":"levelo://app?vid=e634b9f1-fc8f-4f19-bf5a-5a00392b8a7f"},"vehicle_type_id":"4","last_reported":1739891418,"current_range_meters":8400,"station_id":"","pricing_plan_id":"cebpf4jnsgd1na2vs0mg"},{"bike_id":"020f9db3-6048-4a83-8c59-4acc533112c8","system_id":"levelo_inurba_marseille","lat":43.28163,"lon":5.4262,"is_reserved":false,"is_disabled":false,"rental_uris":{"android":"levelo://app?vid=020f9db3-6048-4a83-8c59-4acc533112c8","ios":"levelo://app?vid=020f9db3-6048-4a83-8c59-4acc533112c8"},"vehicle_type_id":"4","last_reported":1739891418,"current_range_meters":8400,"station_id":"ce4bhnh2rcd13ifvqgug","pricing_plan_id":"cebpf4jnsgd1na2vs0mg"},{"bike_id":"fc66ef61-d227-4bcf-8469-0d4f5ca955e6","system_id":"levelo_inurba_marseille","lat":43.27055,"lon":5.40272,"is_reserved":false,"is_disabled":false,"rental_uris":{"android":"levelo://app?vid=fc66ef61-d227-4bcf-8469-0d4f5ca955e6","ios":"levelo://app?vid=fc66ef61-d227-4bcf-8469-0d4f5ca955e6"},"vehicle_type_id":"4","last_reported":1739891418,"current_range_meters":8400,"station_id":"ce4bhk92rcd13ifvqgc0","pricing_plan_id":"cebpf4jnsgd1na2vs0mg"},{"bike_id":"d413ec00-2a50-4720-98e1-0cf30f78239c","system_id":"levelo_inurba_marseille","lat":43.28419,"lon":5.37525,"is_reserved":false,"is_disabled":false,"rental_uris":{"android":"levelo://app?vid=d413ec00-2a50-4720-98e1-0cf30f78239c","ios":"levelo://app?vid=d413ec00-2a50-4720-98e1-0cf30f78239c"},"vehicle_type_id":"4","last_reported":1739891418,"current_range_meters":8800,"station_id":"ce4bh412rcd13ifvqds0","pricing_plan_id":"cebpf4jnsgd1na2vs0mg"},{"bike_id":"43e58a6d-2a17-41bb-bd75-661bed22a62b","system_id":"levelo_inurba_marseille","lat":43.31181,"lon":5.38711,"is_reserved":false,"is_disabled":false,"rental_uris":{"android":"levelo://app?vid=43e58a6d-2a17-41bb-bd75-661bed22a62b","ios":"levelo://app?vid=43e58a6d-2a17-41bb-bd75-661bed22a62b"},"vehicle_type_id":"4","last_reported":1739891418,"current_range_meters":8800,"station_id":"","pricing_plan_id":"cebpf4jnsgd1na2vs0mg"},{"bike_id":"c6b61e34-61a0-4637-98a5-e2ffab337c85","system_id":"levelo_inurba_marseille","lat":43.27684,"lon":5.38881,"is_reserved":false,"is_disabled":false,"rental_uris":{"android":"levelo://app?vid=c6b61e34-61a0-4637-98a5-e2ffab337c85","ios":"levelo://app?vid=c6b61e34-61a0-4637-98a5-e2ffab337c85"},"vehicle_type_id":"4","last_reported":1739891418,"current_range_meters":8800,"station_id":"","pricing_plan_id":"cebpf4jnsgd1na2vs0mg"},{"bike_id":"09625a22-d446-4e59-8267-015f8bb79d9d","system_id":"levelo_inurba_marseille","lat":43.24085,"lon":5.37748,"is_reserved":false,"is_disabled":false,"rental_uris":{"android":"levelo://app?vid=09625a22-d446-4e59-8267-015f8bb79d9d","ios":"levelo://app?vid=09625a22-d446-4e59-8267-015f8bb79d9d"},"vehicle_type_id":"4","last_reported":1739891418,"current_range_meters":8800,"station_id":"ce4bhnp2rcd13ifvqgvg","pricing_plan_id":"cebpf4jnsgd1na2vs0mg"},{"bike_id":"6bb7ac37-d16c-4a25-b6eb-1bf8ca1b78d5","system_id":"levelo_inurba_marseille","lat":43.32536,"lon":5.41474,"is_reserved":false,"is_disabled":false,"rental_uris":{"android":"levelo://app?vid=6bb7ac37-d16c-4a25-b6eb-1bf8ca1b78d5","ios":"levelo://app?vid=6bb7ac37-d16c-4a25-b6eb-1bf8ca1b78d5"},"vehicle_type_id":"4","last_reported":1739891418,"current_range_meters":8800,"station_id":"ce4bhq12rcd13ifvqhhg","pricing_plan_id":"cebpf4jnsgd1na2vs0mg"},{"bike_id":"dab0c5d6-08f3-4bf7-b914-65ba2d2b4a68","system_id":"levelo_inurba_marseille","lat":43.29818,"lon":5.38094,"is_reserved":false,"is_disabled":false,"rental_uris":{"android":"levelo://app?vid=dab0c5d6-08f3-4bf7-b914-65ba2d2b4a68","ios":"levelo://app?vid=dab0c5d6-08f3-4bf7-b914-65ba2d2b4a68"},"vehicle_type_id":"4","last_reported":1739891418,"current_range_meters":8800,"station_id":"ce4bgip2rcd13ifvqbb0","pricing_plan_id":"cebpf4jnsgd1na2vs0mg"},{"bike_id":"d2c4fd2d-be27-459a-a56b-559fa286f93a","system_id":"levelo_inurba_marseille","lat":43.26701,"lon":5.38251,"is_reserved":false,"is_disabled":false,"rental_uris":{"android":"levelo://app?vid=d2c4fd2d-be27-459a-a56b-559fa286f93a","ios":"levelo://app?vid=d2c4fd2d-be27-459a-a56b-559fa286f93a"},"vehicle_type_id":"4","last_reported":1739891418,"current_range_meters":9200,"station_id":"ce4bhg92rcd13ifvqf90","pricing_plan_id":"cebpf4jnsgd1na2vs0mg"},{"bike_id":"f1a68eb7-ab27-4a22-9423-667751cba68a","system_id":"levelo_inurba_marseille","lat":43.259102,"lon":5.39328,"is_reserved":false,"is_disabled":false,"rental_uris":{"android":"levelo://app?vid=f1a68eb7-ab27-4a22-9423-667751cba68a","ios":"levelo://app?vid=f1a68eb7-ab27-4a22-9423-667751cba68a"},"vehicle_type_id":"4","last_reported":1739891418,"current_range_meters":9200,"station_id":"ce4bhip2rcd13ifvqft0","pricing_plan_id":"cebpf4jnsgd1na2vs0mg"},{"bike_id":"e7b5440b-9fd9-40fc-976b-200fd24b2e6d","system_id":"levelo_inurba_marseille","lat":43.25872,"lon":5.39922,"is_reserved":false,"is_disabled":false,"rental_uris":{"android":"levelo://app?vid=e7b5440b-9fd9-40fc-976b-200fd24b2e6d","ios":"levelo://app?vid=e7b5440b-9fd9-40fc-976b-200fd24b2e6d"},"vehicle_type_id":"4","last_reported":1739891418,"current_range_meters":9200,"station_id":"ce4bhl92rcd13ifvqghg","pricing_plan_id":"cebpf4jnsgd1na2vs0mg"},{"bike_id":"d90b9420-d699-448a-b624-510e07fc2708","system_id":"levelo_inurba_marseille","lat":43.28847,"lon":5.39304,"is_reserved":false,"is_disabled":false,"rental_uris":{"android":"levelo://app?vid=d90b9420-d699-448a-b624-510e07fc2708","ios":"levelo://app?vid=d90b9420-d699-448a-b624-510e07fc2708"},"vehicle_type_id":"4","last_reported":1739891418,"current_range_meters":9200,"station_id":"ce4bh2p2rcd13ifvqdi0","pricing_plan_id":"cebpf4jnsgd1na2vs0mg"},{"bike_id":"e8f0e023-bcbd-49d4-9ce9-49854f819956","system_id":"levelo_inurba_marseille","lat":43.24651,"lon":5.38894,"is_reserved":false,"is_disabled":false,"rental_uris":{"android":"levelo://app?vid=e8f0e023-bcbd-49d4-9ce9-49854f819956","ios":"levelo://app?vid=e8f0e023-bcbd-49d4-9ce9-49854f819956"},"vehicle_type_id":"4","last_reported":1739891418,"current_range_meters":9200,"station_id":"ce4bhg12rcd13ifvqf60","pricing_plan_id":"cebpf4jnsgd1na2vs0mg"},{"bike_id":"7e4f47ff-873e-4769-96c6-b997022f976f","system_id":"levelo_inurba_marseille","lat":43.23059,"lon":5.35483,"is_reserved":false,"is_disabled":false,"rental_uris":{"android":"levelo://app?vid=7e4f47ff-873e-4769-96c6-b997022f976f","ios":"levelo://app?vid=7e4f47ff-873e-4769-96c6-b997022f976f"},"vehicle_type_id":"4","last_reported":1739891418,"current_range_meters":9200,"station_id":"cpo3342slgdg3j2ifvpg","pricing_plan_id":"cebpf4jnsgd1na2vs0mg"},{"bike_id":"720c1bd7-26f3-4aa4-9ed9-7d11a17b829c","system_id":"levelo_inurba_marseille","lat":43.2481,"lon":5.37459,"is_reserved":false,"is_disabled":false,"rental_uris":{"android":"levelo://app?vid=720c1bd7-26f3-4aa4-9ed9-7d11a17b829c","ios":"levelo://app?vid=720c1bd7-26f3-4aa4-9ed9-7d11a17b829c"},"vehicle_type_id":"4","last_reported":1739891418,"current_range_meters":9200,"station_id":"ce4bhgh2rcd13ifvqfb0","pricing_plan_id":"cebpf4jnsgd1na2vs0mg"},{"bike_id":"aa8b6f13-b7b9-4656-af08-b725eb8435a5","system_id":"levelo_inurba_marseille","lat":43.28278,"lon":5.35087,"is_reserved":false,"is_disabled":false,"rental_uris":{"android":"levelo://app?vid=aa8b6f13-b7b9-4656-af08-b725eb8435a5","ios":"levelo://app?vid=aa8b6f13-b7b9-4656-af08-b725eb8435a5"},"vehicle_type_id":"4","last_reported":1739891418,"current_range_meters":9600,"station_id":"ce4bhbp2rcd13ifvqerg","pricing_plan_id":"cebpf4jnsgd1na2vs0mg"},{"bike_id":"6bfe14e1-da21-4188-817d-8ac2f77d0245","system_id":"levelo_inurba_marseille","lat":43.32466,"lon":5.36593,"is_reserved":false,"is_disabled":false,"rental_uris":{"android":"levelo://app?vid=6bfe14e1-da21-4188-817d-8ac2f77d0245","ios":"levelo://app?vid=6bfe14e1-da21-4188-817d-8ac2f77d0245"},"vehicle_type_id":"4","last_reported":1739891418,"current_range_meters":9600,"station_id":"ce4bhs12rcd13ifvqhvg","pricing_plan_id":"cebpf4jnsgd1na2vs0mg"},{"bike_id":"fd2f20c9-c1d5-4a9c-bdfd-5e33192dd42d","system_id":"levelo_inurba_marseille","lat":43.29264,"lon":5.40907,"is_reserved":false,"is_disabled":false,"rental_uris":{"android":"levelo://app?vid=fd2f20c9-c1d5-4a9c-bdfd-5e33192dd42d","ios":"levelo://app?vid=fd2f20c9-c1d5-4a9c-bdfd-5e33192dd42d"},"vehicle_type_id":"4","last_reported":1739891418,"current_range_meters":9600,"station_id":"ce4bh192rcd13ifvqdc0","pricing_plan_id":"cebpf4jnsgd1na2vs0mg"},{"bike_id":"fc9896ce-1f52-403c-86a7-1678079c9523","system_id":"levelo_inurba_marseille","lat":43.2816,"lon":5.44232,"is_reserved":false,"is_disabled":false,"rental_uris":{"android":"levelo://app?vid=fc9896ce-1f52-403c-86a7-1678079c9523","ios":"levelo://app?vid=fc9896ce-1f52-403c-86a7-1678079c9523"},"vehicle_type_id":"4","last_reported":1739891418,"current_range_meters":9600,"station_id":"","pricing_plan_id":"cebpf4jnsgd1na2vs0mg"},{"bike_id":"6d7f1837-458a-46bb-ab89-8d81733c7128","system_id":"levelo_inurba_marseille","lat":43.24993,"lon":5.38932,"is_reserved":false,"is_disabled":false,"rental_uris":{"android":"levelo://app?vid=6d7f1837-458a-46bb-ab89-8d81733c7128","ios":"levelo://app?vid=6d7f1837-458a-46bb-ab89-8d81733c7128"},"vehicle_type_id":"4","last_reported":1739891418,"current_range_meters":10000,"station_id":"","pricing_plan_id":"cebpf4jnsgd1na2vs0mg"},{"bike_id":"c3f4a72a-0194-4cf4-bacc-b6e3e0f68636","system_id":"levelo_inurba_marseille","lat":43.30305,"lon":5.391833,"is_reserved":false,"is_disabled":false,"rental_uris":{"android":"levelo://app?vid=c3f4a72a-0194-4cf4-bacc-b6e3e0f68636","ios":"levelo://app?vid=c3f4a72a-0194-4cf4-bacc-b6e3e0f68636"},"vehicle_type_id":"4","last_reported":1739891418,"current_range_meters":10000,"station_id":"ce4bgkh2rcd13ifvqbk0","pricing_plan_id":"cebpf4jnsgd1na2vs0mg"},{"bike_id":"a77211e2-f59f-45e8-b6f0-ae79a0e94c34","system_id":"levelo_inurba_marseille","lat":43.29622,"lon":5.37151,"is_reserved":false,"is_disabled":false,"rental_uris":{"android":"levelo://app?vid=a77211e2-f59f-45e8-b6f0-ae79a0e94c34","ios":"levelo://app?vid=a77211e2-f59f-45e8-b6f0-ae79a0e94c34"},"vehicle_type_id":"4","last_reported":1739891418,"current_range_meters":10800,"station_id":"ce4bgnh2rcd13ifvqc0g","pricing_plan_id":"cebpf4jnsgd1na2vs0mg"},{"bike_id":"b695edde-e613-4c3d-822c-b0566b30327d","system_id":"levelo_inurba_marseille","lat":43.29535,"lon":5.3752,"is_reserved":false,"is_disabled":false,"rental_uris":{"android":"levelo://app?vid=b695edde-e613-4c3d-822c-b0566b30327d","ios":"levelo://app?vid=b695edde-e613-4c3d-822c-b0566b30327d"},"vehicle_type_id":"4","last_reported":1739891418,"current_range_meters":10000,"station_id":"ce4bgkp2rcd13ifvqbmg","pricing_plan_id":"cebpf4jnsgd1na2vs0mg"},{"bike_id":"fab2cbc9-105a-42d6-9706-86ab4357243b","system_id":"levelo_inurba_marseille","lat":43.3211,"lon":5.36778,"is_reserved":false,"is_disabled":false,"rental_uris":{"android":"levelo://app?vid=fab2cbc9-105a-42d6-9706-86ab4357243b","ios":"levelo://app?vid=fab2cbc9-105a-42d6-9706-86ab4357243b"},"vehicle_type_id":"4","last_reported":1739891418,"current_range_meters":10000,"station_id":"ce4bhrh2rcd13ifvqhug","pricing_plan_id":"cebpf4jnsgd1na2vs0mg"},{"bike_id":"d959c8e6-f4d4-4ee9-ad32-1db4d0e88ce1","system_id":"levelo_inurba_marseille","lat":43.26942,"lon":5.4025,"is_reserved":false,"is_disabled":false,"rental_uris":{"android":"levelo://app?vid=d959c8e6-f4d4-4ee9-ad32-1db4d0e88ce1","ios":"levelo://app?vid=d959c8e6-f4d4-4ee9-ad32-1db4d0e88ce1"},"vehicle_type_id":"4","last_reported":1739891418,"current_range_meters":10000,"station_id":"cjm6bp8fraef2m0cb0m0","pricing_plan_id":"cebpf4jnsgd1na2vs0mg"},{"bike_id":"7e1bcd16-719a-4da9-aa93-fa68923adaea","system_id":"levelo_inurba_marseille","lat":43.24074,"lon":5.37755,"is_reserved":false,"is_disabled":false,"rental_uris":{"android":"levelo://app?vid=7e1bcd16-719a-4da9-aa93-fa68923adaea","ios":"levelo://app?vid=7e1bcd16-719a-4da9-aa93-fa68923adaea"},"vehicle_type_id":"4","last_reported":1739891418,"current_range_meters":10000,"station_id":"ce4bhnp2rcd13ifvqgvg","pricing_plan_id":"cebpf4jnsgd1na2vs0mg"},{"bike_id":"bc94a6a6-d98e-4955-822a-297fe7bf6e03","system_id":"levelo_inurba_marseille","lat":43.3015,"lon":5.37398,"is_reserved":false,"is_disabled":false,"rental_uris":{"android":"levelo://app?vid=bc94a6a6-d98e-4955-822a-297fe7bf6e03","ios":"levelo://app?vid=bc94a6a6-d98e-4955-822a-297fe7bf6e03"},"vehicle_type_id":"4","last_reported":1739891418,"current_range_meters":10000,"station_id":"ce4bgs92rcd13ifvqcc0","pricing_plan_id":"cebpf4jnsgd1na2vs0mg"},{"bike_id":"8072f034-69d4-48c5-b234-451357393f04","system_id":"levelo_inurba_marseille","lat":43.23965,"lon":5.3663,"is_reserved":false,"is_disabled":false,"rental_uris":{"android":"levelo://app?vid=8072f034-69d4-48c5-b234-451357393f04","ios":"levelo://app?vid=8072f034-69d4-48c5-b234-451357393f04"},"vehicle_type_id":"4","last_reported":1739891418,"current_range_meters":10800,"station_id":"ce4bhi12rcd13ifvqfp0","pricing_plan_id":"cebpf4jnsgd1na2vs0mg"},{"bike_id":"1e7891a1-67d3-4041-b602-5871576f8718","system_id":"levelo_inurba_marseille","lat":43.2396,"lon":5.36628,"is_reserved":false,"is_disabled":false,"rental_uris":{"android":"levelo://app?vid=1e7891a1-67d3-4041-b602-5871576f8718","ios":"levelo://app?vid=1e7891a1-67d3-4041-b602-5871576f8718"},"vehicle_type_id":"4","last_reported":1739891418,"current_range_meters":10800,"station_id":"","pricing_plan_id":"cebpf4jnsgd1na2vs0mg"},{"bike_id":"5bb40f8e-64e1-4297-8f10-32086298b1d8","system_id":"levelo_inurba_marseille","lat":43.27174,"lon":5.40999,"is_reserved":false,"is_disabled":false,"rental_uris":{"android":"levelo://app?vid=5bb40f8e-64e1-4297-8f10-32086298b1d8","ios":"levelo://app?vid=5bb40f8e-64e1-4297-8f10-32086298b1d8"},"vehicle_type_id":"4","last_reported":1739891418,"current_range_meters":10800,"station_id":"","pricing_plan_id":"cebpf4jnsgd1na2vs0mg"},{"bike_id":"524b5f69-56de-4168-aaef-fc37f66394a7","system_id":"levelo_inurba_marseille","lat":43.30891,"lon":5.39653,"is_reserved":false,"is_disabled":false,"rental_uris":{"android":"levelo://app?vid=524b5f69-56de-4168-aaef-fc37f66394a7","ios":"levelo://app?vid=524b5f69-56de-4168-aaef-fc37f66394a7"},"vehicle_type_id":"4","last_reported":1739891418,"current_range_meters":14400,"station_id":"ce4bh012rcd13ifvqcv0","pricing_plan_id":"cebpf4jnsgd1na2vs0mg"},{"bike_id":"1d35aad6-f7f7-4bfa-a040-feb89edb4de8","system_id":"levelo_inurba_marseille","lat":43.29554,"lon":5.42292,"is_reserved":false,"is_disabled":false,"rental_uris":{"android":"levelo://app?vid=1d35aad6-f7f7-4bfa-a040-feb89edb4de8","ios":"levelo://app?vid=1d35aad6-f7f7-4bfa-a040-feb89edb4de8"},"vehicle_type_id":"4","last_reported":1739891418,"current_range_meters":10800,"station_id":"","pricing_plan_id":"cebpf4jnsgd1na2vs0mg"},{"bike_id":"3ab4ecca-a7d0-4e14-9e63-eca0d3b35304","system_id":"levelo_inurba_marseille","lat":43.30505,"lon":5.38176,"is_reserved":false,"is_disabled":false,"rental_uris":{"android":"levelo://app?vid=3ab4ecca-a7d0-4e14-9e63-eca0d3b35304","ios":"levelo://app?vid=3ab4ecca-a7d0-4e14-9e63-eca0d3b35304"},"vehicle_type_id":"4","last_reported":1739891418,"current_range_meters":10800,"station_id":"","pricing_plan_id":"cebpf4jnsgd1na2vs0mg"},{"bike_id":"2ff4d359-ccff-467e-a247-0d0fc6460252","system_id":"levelo_inurba_marseille","lat":43.3148,"lon":5.37309,"is_reserved":false,"is_disabled":false,"rental_uris":{"android":"levelo://app?vid=2ff4d359-ccff-467e-a247-0d0fc6460252","ios":"levelo://app?vid=2ff4d359-ccff-467e-a247-0d0fc6460252"},"vehicle_type_id":"4","last_reported":1739891418,"current_range_meters":10800,"station_id":"ce4bgt12rcd13ifvqcd0","pricing_plan_id":"cebpf4jnsgd1na2vs0mg"},{"bike_id":"cf13cadc-5d4d-4d4f-b64f-3560b55a11e8","system_id":"levelo_inurba_marseille","lat":43.28682,"lon":5.38687,"is_reserved":false,"is_disabled":false,"rental_uris":{"android":"levelo://app?vid=cf13cadc-5d4d-4d4f-b64f-3560b55a11e8","ios":"levelo://app?vid=cf13cadc-5d4d-4d4f-b64f-3560b55a11e8"},"vehicle_type_id":"4","last_reported":1739891418,"current_range_meters":11200,"station_id":"ce4bh492rcd13ifvqdug","pricing_plan_id":"cebpf4jnsgd1na2vs0mg"},{"bike_id":"02bdc35f-76e4-48ad-b7ec-cf8c0e6b5bb9","system_id":"levelo_inurba_marseille","lat":43.27317,"lon":5.3907,"is_reserved":false,"is_disabled":false,"rental_uris":{"android":"levelo://app?vid=02bdc35f-76e4-48ad-b7ec-cf8c0e6b5bb9","ios":"levelo://app?vid=02bdc35f-76e4-48ad-b7ec-cf8c0e6b5bb9"},"vehicle_type_id":"4","last_reported":1739891418,"current_range_meters":11200,"station_id":"ce4bhgp2rcd13ifvqfe0","pricing_plan_id":"cebpf4jnsgd1na2vs0mg"},{"bike_id":"cb8372d6-bad2-4555-89ad-5b495afb0b59","system_id":"levelo_inurba_marseille","lat":43.24822,"lon":5.37459,"is_reserved":false,"is_disabled":false,"rental_uris":{"android":"levelo://app?vid=cb8372d6-bad2-4555-89ad-5b495afb0b59","ios":"levelo://app?vid=cb8372d6-bad2-4555-89ad-5b495afb0b59"},"vehicle_type_id":"4","last_reported":1739891418,"current_range_meters":11200,"station_id":"ce4bhgh2rcd13ifvqfb0","pricing_plan_id":"cebpf4jnsgd1na2vs0mg"},{"bike_id":"3eccfc18-51b1-4a32-9f00-dbe2668c8e61","system_id":"levelo_inurba_marseille","lat":43.32505,"lon":5.36614,"is_reserved":false,"is_disabled":false,"rental_uris":{"android":"levelo://app?vid=3eccfc18-51b1-4a32-9f00-dbe2668c8e61","ios":"levelo://app?vid=3eccfc18-51b1-4a32-9f00-dbe2668c8e61"},"vehicle_type_id":"4","last_reported":1739891418,"current_range_meters":11200,"station_id":"ce4bhs12rcd13ifvqhvg","pricing_plan_id":"cebpf4jnsgd1na2vs0mg"},{"bike_id":"d744b4e5-dabe-404a-9185-67f33275efc9","system_id":"levelo_inurba_marseille","lat":43.25583,"lon":5.38248,"is_reserved":false,"is_disabled":false,"rental_uris":{"android":"levelo://app?vid=d744b4e5-dabe-404a-9185-67f33275efc9","ios":"levelo://app?vid=d744b4e5-dabe-404a-9185-67f33275efc9"},"vehicle_type_id":"4","last_reported":1739891418,"current_range_meters":11200,"station_id":"","pricing_plan_id":"cebpf4jnsgd1na2vs0mg"},{"bike_id":"fb5f22ff-2396-4087-a0fb-c0b12f026439","system_id":"levelo_inurba_marseille","lat":43.30316,"lon":5.36896,"is_reserved":false,"is_disabled":false,"rental_uris":{"android":"levelo://app?vid=fb5f22ff-2396-4087-a0fb-c0b12f026439","ios":"levelo://app?vid=fb5f22ff-2396-4087-a0fb-c0b12f026439"},"vehicle_type_id":"4","last_reported":1739891418,"current_range_meters":11600,"station_id":"ce4bgqh2rcd13ifvqc5g","pricing_plan_id":"cebpf4jnsgd1na2vs0mg"},{"bike_id":"ed24a3a2-7048-4a6e-8f78-d0964c89090c","system_id":"levelo_inurba_marseille","lat":43.270721,"lon":5.422813,"is_reserved":false,"is_disabled":false,"rental_uris":{"android":"levelo://app?vid=ed24a3a2-7048-4a6e-8f78-d0964c89090c","ios":"levelo://app?vid=ed24a3a2-7048-4a6e-8f78-d0964c89090c"},"vehicle_type_id":"4","last_reported":1739891418,"current_range_meters":11600,"station_id":"ce4bhk92rcd13ifvqgb0","pricing_plan_id":"cebpf4jnsgd1na2vs0mg"},{"bike_id":"ae4ba559-cbf6-41bf-8dad-18d1cd1d2ac7","system_id":"levelo_inurba_marseille","lat":43.26032,"lon":5.3755,"is_reserved":false,"is_disabled":false,"rental_uris":{"android":"levelo://app?vid=ae4ba559-cbf6-41bf-8dad-18d1cd1d2ac7","ios":"levelo://app?vid=ae4ba559-cbf6-41bf-8dad-18d1cd1d2ac7"},"vehicle_type_id":"4","last_reported":1739891418,"current_range_meters":12800,"station_id":"ce4bhgh2rcd13ifvqfa0","pricing_plan_id":"cebpf4jnsgd1na2vs0mg"},{"bike_id":"90b035e4-0151-415e-a7ef-0939ccdd30a1","system_id":"levelo_inurba_marseille","lat":43.26015,"lon":5.37541,"is_reserved":false,"is_disabled":false,"rental_uris":{"android":"levelo://app?vid=90b035e4-0151-415e-a7ef-0939ccdd30a1","ios":"levelo://app?vid=90b035e4-0151-415e-a7ef-0939ccdd30a1"},"vehicle_type_id":"4","last_reported":1739891418,"current_range_meters":12800,"station_id":"ce4bhh12rcd13ifvqff0","pricing_plan_id":"cebpf4jnsgd1na2vs0mg"},{"bike_id":"60190de8-37f4-471b-9106-e7ebabfb0b31","system_id":"levelo_inurba_marseille","lat":43.30537,"lon":5.3652,"is_reserved":false,"is_disabled":false,"rental_uris":{"android":"levelo://app?vid=60190de8-37f4-471b-9106-e7ebabfb0b31","ios":"levelo://app?vid=60190de8-37f4-471b-9106-e7ebabfb0b31"},"vehicle_type_id":"4","last_reported":1739891418,"current_range_meters":11600,"station_id":"ce4bgs12rcd13ifvqcag","pricing_plan_id":"cebpf4jnsgd1na2vs0mg"},{"bike_id":"a8ad587a-3ed3-4d89-92d8-b9ce278ee72c","system_id":"levelo_inurba_marseille","lat":43.30929,"lon":5.40138,"is_reserved":false,"is_disabled":false,"rental_uris":{"android":"levelo://app?vid=a8ad587a-3ed3-4d89-92d8-b9ce278ee72c","ios":"levelo://app?vid=a8ad587a-3ed3-4d89-92d8-b9ce278ee72c"},"vehicle_type_id":"4","last_reported":1739891418,"current_range_meters":11600,"station_id":"ce4bgvp2rcd13ifvqct0","pricing_plan_id":"cebpf4jnsgd1na2vs0mg"},{"bike_id":"a69fe923-bbbf-424c-834a-23b10868f7c7","system_id":"levelo_inurba_marseille","lat":43.30306,"lon":5.36878,"is_reserved":false,"is_disabled":false,"rental_uris":{"android":"levelo://app?vid=a69fe923-bbbf-424c-834a-23b10868f7c7","ios":"levelo://app?vid=a69fe923-bbbf-424c-834a-23b10868f7c7"},"vehicle_type_id":"4","last_reported":1739891418,"current_range_meters":11600,"station_id":"ce4bgqh2rcd13ifvqc5g","pricing_plan_id":"cebpf4jnsgd1na2vs0mg"},{"bike_id":"6430a136-6b23-454b-99ec-132c87969743","system_id":"levelo_inurba_marseille","lat":43.279602,"lon":5.400009,"is_reserved":false,"is_disabled":false,"rental_uris":{"android":"levelo://app?vid=6430a136-6b23-454b-99ec-132c87969743","ios":"levelo://app?vid=6430a136-6b23-454b-99ec-132c87969743"},"vehicle_type_id":"4","last_reported":1739891418,"current_range_meters":12400,"station_id":"ce4bhl92rcd13ifvqghg","pricing_plan_id":"cebpf4jnsgd1na2vs0mg"},{"bike_id":"1f73d6b6-e66e-4833-bfa1-148a7786476b","system_id":"levelo_inurba_marseille","lat":43.24162,"lon":5.36398,"is_reserved":false,"is_disabled":false,"rental_uris":{"android":"levelo://app?vid=1f73d6b6-e66e-4833-bfa1-148a7786476b","ios":"levelo://app?vid=1f73d6b6-e66e-4833-bfa1-148a7786476b"},"vehicle_type_id":"4","last_reported":1739891418,"current_range_meters":11600,"station_id":"cpo36qri1sfpv3e86is0","pricing_plan_id":"cebpf4jnsgd1na2vs0mg"},{"bike_id":"b62a71c9-c153-4a70-bf13-c71155cbba97","system_id":"levelo_inurba_marseille","lat":43.25584,"lon":5.38227,"is_reserved":false,"is_disabled":false,"rental_uris":{"android":"levelo://app?vid=b62a71c9-c153-4a70-bf13-c71155cbba97","ios":"levelo://app?vid=b62a71c9-c153-4a70-bf13-c71155cbba97"},"vehicle_type_id":"4","last_reported":1739891418,"current_range_meters":12000,"station_id":"ce4bhih2rcd13ifvqfs0","pricing_plan_id":"cebpf4jnsgd1na2vs0mg"},{"bike_id":"91bf3218-0a05-4226-acc9-b3131b7d5a8d","system_id":"levelo_inurba_marseille","lat":43.23965,"lon":5.36613,"is_reserved":false,"is_disabled":false,"rental_uris":{"android":"levelo://app?vid=91bf3218-0a05-4226-acc9-b3131b7d5a8d","ios":"levelo://app?vid=91bf3218-0a05-4226-acc9-b3131b7d5a8d"},"vehicle_type_id":"4","last_reported":1739891418,"current_range_meters":12000,"station_id":"ce4bhi12rcd13ifvqfp0","pricing_plan_id":"cebpf4jnsgd1na2vs0mg"},{"bike_id":"ccbde14e-8b51-4d02-838c-0b47e7ef2dde","system_id":"levelo_inurba_marseille","lat":43.281725,"lon":5.426505,"is_reserved":false,"is_disabled":false,"rental_uris":{"android":"levelo://app?vid=ccbde14e-8b51-4d02-838c-0b47e7ef2dde","ios":"levelo://app?vid=ccbde14e-8b51-4d02-838c-0b47e7ef2dde"},"vehicle_type_id":"4","last_reported":1739891418,"current_range_meters":12000,"station_id":"ce4bhnh2rcd13ifvqgug","pricing_plan_id":"cebpf4jnsgd1na2vs0mg"},{"bike_id":"b99a747d-a447-4857-80af-b97a3fd7b0be","system_id":"levelo_inurba_marseille","lat":43.2481,"lon":5.37458,"is_reserved":false,"is_disabled":false,"rental_uris":{"android":"levelo://app?vid=b99a747d-a447-4857-80af-b97a3fd7b0be","ios":"levelo://app?vid=b99a747d-a447-4857-80af-b97a3fd7b0be"},"vehicle_type_id":"4","last_reported":1739891418,"current_range_meters":12000,"station_id":"ce4bhgh2rcd13ifvqfb0","pricing_plan_id":"cebpf4jnsgd1na2vs0mg"},{"bike_id":"56748a18-b1d8-430b-a899-cc853ff60473","system_id":"levelo_inurba_marseille","lat":43.284698,"lon":5.392793,"is_reserved":false,"is_disabled":false,"rental_uris":{"android":"levelo://app?vid=56748a18-b1d8-430b-a899-cc853ff60473","ios":"levelo://app?vid=56748a18-b1d8-430b-a899-cc853ff60473"},"vehicle_type_id":"4","last_reported":1739891418,"current_range_meters":12800,"station_id":"ce4bh4p2rcd13ifvqe0g","pricing_plan_id":"cebpf4jnsgd1na2vs0mg"},{"bike_id":"42c7cfa8-bce6-4834-be4f-e8fd7551245d","system_id":"levelo_inurba_marseille","lat":43.28603,"lon":5.42615,"is_reserved":false,"is_disabled":false,"rental_uris":{"android":"levelo://app?vid=42c7cfa8-bce6-4834-be4f-e8fd7551245d","ios":"levelo://app?vid=42c7cfa8-bce6-4834-be4f-e8fd7551245d"},"vehicle_type_id":"4","last_reported":1739891418,"current_range_meters":12000,"station_id":"","pricing_plan_id":"cebpf4jnsgd1na2vs0mg"},{"bike_id":"934e2516-f1c4-463d-ae3d-da609a964688","system_id":"levelo_inurba_marseille","lat":43.23964,"lon":5.36631,"is_reserved":false,"is_disabled":false,"rental_uris":{"android":"levelo://app?vid=934e2516-f1c4-463d-ae3d-da609a964688","ios":"levelo://app?vid=934e2516-f1c4-463d-ae3d-da609a964688"},"vehicle_type_id":"4","last_reported":1739891418,"current_range_meters":12000,"station_id":"ce4bhi12rcd13ifvqfp0","pricing_plan_id":"cebpf4jnsgd1na2vs0mg"},{"bike_id":"72d3fe14-fe7c-44d3-8a01-32a3cf7b6886","system_id":"levelo_inurba_marseille","lat":43.28635,"lon":5.35082,"is_reserved":false,"is_disabled":false,"rental_uris":{"android":"levelo://app?vid=72d3fe14-fe7c-44d3-8a01-32a3cf7b6886","ios":"levelo://app?vid=72d3fe14-fe7c-44d3-8a01-32a3cf7b6886"},"vehicle_type_id":"4","last_reported":1739891418,"current_range_meters":12000,"station_id":"ce4bhch2rcd13ifvqeug","pricing_plan_id":"cebpf4jnsgd1na2vs0mg"},{"bike_id":"e09c2cb5-b04c-46a1-9f14-5ede26f4a105","system_id":"levelo_inurba_marseille","lat":43.30191,"lon":5.3662,"is_reserved":false,"is_disabled":false,"rental_uris":{"android":"levelo://app?vid=e09c2cb5-b04c-46a1-9f14-5ede26f4a105","ios":"levelo://app?vid=e09c2cb5-b04c-46a1-9f14-5ede26f4a105"},"vehicle_type_id":"4","last_reported":1739891418,"current_range_meters":12000,"station_id":"ce4bgrh2rcd13ifvqc8g","pricing_plan_id":"cebpf4jnsgd1na2vs0mg"},{"bike_id":"0abc1ab9-ba53-43c5-97f4-7846cddaf2b2","system_id":"levelo_inurba_marseille","lat":43.26222,"lon":5.37423,"is_reserved":false,"is_disabled":false,"rental_uris":{"android":"levelo://app?vid=0abc1ab9-ba53-43c5-97f4-7846cddaf2b2","ios":"levelo://app?vid=0abc1ab9-ba53-43c5-97f4-7846cddaf2b2"},"vehicle_type_id":"4","last_reported":1739891418,"current_range_meters":12000,"station_id":"","pricing_plan_id":"cebpf4jnsgd1na2vs0mg"},{"bike_id":"ca61e3f6-1dc2-4bd7-87af-a9c1f9dd989e","system_id":"levelo_inurba_marseille","lat":43.27941,"lon":5.41042,"is_reserved":false,"is_disabled":false,"rental_uris":{"android":"levelo://app?vid=ca61e3f6-1dc2-4bd7-87af-a9c1f9dd989e","ios":"levelo://app?vid=ca61e3f6-1dc2-4bd7-87af-a9c1f9dd989e"},"vehicle_type_id":"4","last_reported":1739891418,"current_range_meters":12400,"station_id":"ce4bhnp2rcd13ifvqh0g","pricing_plan_id":"cebpf4jnsgd1na2vs0mg"},{"bike_id":"00a5dde2-af68-45db-8e6f-d483055f52ad","system_id":"levelo_inurba_marseille","lat":43.289755,"lon":5.378315,"is_reserved":false,"is_disabled":false,"rental_uris":{"android":"levelo://app?vid=00a5dde2-af68-45db-8e6f-d483055f52ad","ios":"levelo://app?vid=00a5dde2-af68-45db-8e6f-d483055f52ad"},"vehicle_type_id":"4","last_reported":1739891418,"current_range_meters":12400,"station_id":"ce4bhoh2rcd13ifvqh5g","pricing_plan_id":"cebpf4jnsgd1na2vs0mg"},{"bike_id":"945038ee-86f3-4027-b0ae-b5cd1469e755","system_id":"levelo_inurba_marseille","lat":43.26235,"lon":5.37426,"is_reserved":false,"is_disabled":false,"rental_uris":{"android":"levelo://app?vid=945038ee-86f3-4027-b0ae-b5cd1469e755","ios":"levelo://app?vid=945038ee-86f3-4027-b0ae-b5cd1469e755"},"vehicle_type_id":"4","last_reported":1739891418,"current_range_meters":12400,"station_id":"ce4bhgp2rcd13ifvqfc0","pricing_plan_id":"cebpf4jnsgd1na2vs0mg"},{"bike_id":"6c96a73f-ff01-463f-bd8c-14885ee904b6","system_id":"levelo_inurba_marseille","lat":43.29071,"lon":5.3574,"is_reserved":false,"is_disabled":false,"rental_uris":{"android":"levelo://app?vid=6c96a73f-ff01-463f-bd8c-14885ee904b6","ios":"levelo://app?vid=6c96a73f-ff01-463f-bd8c-14885ee904b6"},"vehicle_type_id":"4","last_reported":1739891418,"current_range_meters":12400,"station_id":"ce4bhb92rcd13ifvqen0","pricing_plan_id":"cebpf4jnsgd1na2vs0mg"},{"bike_id":"eb8e2e87-ad12-4e87-8e4a-757897446f7e","system_id":"levelo_inurba_marseille","lat":43.25577,"lon":5.38228,"is_reserved":false,"is_disabled":false,"rental_uris":{"android":"levelo://app?vid=eb8e2e87-ad12-4e87-8e4a-757897446f7e","ios":"levelo://app?vid=eb8e2e87-ad12-4e87-8e4a-757897446f7e"},"vehicle_type_id":"4","last_reported":1739891418,"current_range_meters":12400,"station_id":"ce4bhih2rcd13ifvqfs0","pricing_plan_id":"cebpf4jnsgd1na2vs0mg"},{"bike_id":"b33c4823-eab9-442c-b0d4-6939ce7eeb21","system_id":"levelo_inurba_marseille","lat":43.26558,"lon":5.37294,"is_reserved":false,"is_disabled":false,"rental_uris":{"android":"levelo://app?vid=b33c4823-eab9-442c-b0d4-6939ce7eeb21","ios":"levelo://app?vid=b33c4823-eab9-442c-b0d4-6939ce7eeb21"},"vehicle_type_id":"4","last_reported":1739891418,"current_range_meters":12800,"station_id":"ce4bhg12rcd13ifvqf70","pricing_plan_id":"cebpf4jnsgd1na2vs0mg"},{"bike_id":"456e7dcc-13ac-4285-beec-da59f6dfb62c","system_id":"levelo_inurba_marseille","lat":43.29079,"lon":5.37176,"is_reserved":false,"is_disabled":false,"rental_uris":{"android":"levelo://app?vid=456e7dcc-13ac-4285-beec-da59f6dfb62c","ios":"levelo://app?vid=456e7dcc-13ac-4285-beec-da59f6dfb62c"},"vehicle_type_id":"4","last_reported":1739891418,"current_range_meters":13600,"station_id":"ce4bh5p2rcd13ifvqe4g","pricing_plan_id":"cebpf4jnsgd1na2vs0mg"},{"bike_id":"7e4f2e79-5446-4698-9da5-87f655ee6f6d","system_id":"levelo_inurba_marseille","lat":43.31996,"lon":5.38155,"is_reserved":false,"is_disabled":false,"rental_uris":{"android":"levelo://app?vid=7e4f2e79-5446-4698-9da5-87f655ee6f6d","ios":"levelo://app?vid=7e4f2e79-5446-4698-9da5-87f655ee6f6d"},"vehicle_type_id":"4","last_reported":1739891418,"current_range_meters":13600,"station_id":"ce4bhr12rcd13ifvqhpg","pricing_plan_id":"cebpf4jnsgd1na2vs0mg"},{"bike_id":"ed877127-af89-40a6-a623-09dab416b51c","system_id":"levelo_inurba_marseille","lat":43.22944,"lon":5.35371,"is_reserved":false,"is_disabled":false,"rental_uris":{"android":"levelo://app?vid=ed877127-af89-40a6-a623-09dab416b51c","ios":"levelo://app?vid=ed877127-af89-40a6-a623-09dab416b51c"},"vehicle_type_id":"4","last_reported":1739891418,"current_range_meters":13600,"station_id":"cpo3532slgdg3j2ikp40","pricing_plan_id":"cebpf4jnsgd1na2vs0mg"},{"bike_id":"c8816fe5-e9c6-4106-ac55-514a2c190233","system_id":"levelo_inurba_marseille","lat":43.28463,"lon":5.35892,"is_reserved":false,"is_disabled":false,"rental_uris":{"android":"levelo://app?vid=c8816fe5-e9c6-4106-ac55-514a2c190233","ios":"levelo://app?vid=c8816fe5-e9c6-4106-ac55-514a2c190233"},"vehicle_type_id":"4","last_reported":1739891418,"current_range_meters":14000,"station_id":"ce4bhah2rcd13ifvqei0","pricing_plan_id":"cebpf4jnsgd1na2vs0mg"},{"bike_id":"35293ab3-8efa-42af-b41c-bbc54ae6e762","system_id":"levelo_inurba_marseille","lat":43.23966,"lon":5.36626,"is_reserved":false,"is_disabled":false,"rental_uris":{"android":"levelo://app?vid=35293ab3-8efa-42af-b41c-bbc54ae6e762","ios":"levelo://app?vid=35293ab3-8efa-42af-b41c-bbc54ae6e762"},"vehicle_type_id":"4","last_reported":1739891418,"current_range_meters":14000,"station_id":"ce4bhi12rcd13ifvqfp0","pricing_plan_id":"cebpf4jnsgd1na2vs0mg"},{"bike_id":"25a87e91-9c0d-4903-b869-115b64990ac3","system_id":"levelo_inurba_marseille","lat":43.28151,"lon":5.42649,"is_reserved":false,"is_disabled":false,"rental_uris":{"android":"levelo://app?vid=25a87e91-9c0d-4903-b869-115b64990ac3","ios":"levelo://app?vid=25a87e91-9c0d-4903-b869-115b64990ac3"},"vehicle_type_id":"4","last_reported":1739891418,"current_range_meters":14000,"station_id":"ce4bhnh2rcd13ifvqgug","pricing_plan_id":"cebpf4jnsgd1na2vs0mg"},{"bike_id":"a4782112-94a6-42b7-ad26-1e1f4a158c2d","system_id":"levelo_inurba_marseille","lat":43.30536,"lon":5.36529,"is_reserved":false,"is_disabled":false,"rental_uris":{"android":"levelo://app?vid=a4782112-94a6-42b7-ad26-1e1f4a158c2d","ios":"levelo://app?vid=a4782112-94a6-42b7-ad26-1e1f4a158c2d"},"vehicle_type_id":"4","last_reported":1739891418,"current_range_meters":14400,"station_id":"ce4bgs12rcd13ifvqcag","pricing_plan_id":"cebpf4jnsgd1na2vs0mg"},{"bike_id":"c3f6a135-99c1-4f02-a9f0-4d90c34b8ba9","system_id":"levelo_inurba_marseille","lat":43.26577,"lon":5.39015,"is_reserved":false,"is_disabled":false,"rental_uris":{"android":"levelo://app?vid=c3f6a135-99c1-4f02-a9f0-4d90c34b8ba9","ios":"levelo://app?vid=c3f6a135-99c1-4f02-a9f0-4d90c34b8ba9"},"vehicle_type_id":"4","last_reported":1739891418,"current_range_meters":14800,"station_id":"ce4bhe12rcd13ifvqf30","pricing_plan_id":"cebpf4jnsgd1na2vs0mg"},{"bike_id":"291a2e8c-486a-4f2b-b424-4dce8491e62b","system_id":"levelo_inurba_marseille","lat":43.27835,"lon":5.39207,"is_reserved":false,"is_disabled":false,"rental_uris":{"android":"levelo://app?vid=291a2e8c-486a-4f2b-b424-4dce8491e62b","ios":"levelo://app?vid=291a2e8c-486a-4f2b-b424-4dce8491e62b"},"vehicle_type_id":"4","last_reported":1739891418,"current_range_meters":14800,"station_id":"ce4bhjp2rcd13ifvqga0","pricing_plan_id":"cebpf4jnsgd1na2vs0mg"},{"bike_id":"9444f0b1-ee63-4c08-b4c3-16d111b6017a","system_id":"levelo_inurba_marseille","lat":43.25944,"lon":5.40902,"is_reserved":false,"is_disabled":false,"rental_uris":{"android":"levelo://app?vid=9444f0b1-ee63-4c08-b4c3-16d111b6017a","ios":"levelo://app?vid=9444f0b1-ee63-4c08-b4c3-16d111b6017a"},"vehicle_type_id":"4","last_reported":1739891418,"current_range_meters":14800,"station_id":"","pricing_plan_id":"cebpf4jnsgd1na2vs0mg"},{"bike_id":"194a2b5e-b81a-48ce-84d2-dca381fc321c","system_id":"levelo_inurba_marseille","lat":43.298825,"lon":5.372047,"is_reserved":false,"is_disabled":false,"rental_uris":{"android":"levelo://app?vid=194a2b5e-b81a-48ce-84d2-dca381fc321c","ios":"levelo://app?vid=194a2b5e-b81a-48ce-84d2-dca381fc321c"},"vehicle_type_id":"4","last_reported":1739891418,"current_range_meters":16000,"station_id":"ce4bgjh2rcd13ifvqbf0","pricing_plan_id":"cebpf4jnsgd1na2vs0mg"},{"bike_id":"4c720a4f-249a-475b-8d6d-6570a66d8567","system_id":"levelo_inurba_marseille","lat":43.30936,"lon":5.40146,"is_reserved":false,"is_disabled":false,"rental_uris":{"android":"levelo://app?vid=4c720a4f-249a-475b-8d6d-6570a66d8567","ios":"levelo://app?vid=4c720a4f-249a-475b-8d6d-6570a66d8567"},"vehicle_type_id":"4","last_reported":1739891418,"current_range_meters":14400,"station_id":"ce4bgvp2rcd13ifvqct0","pricing_plan_id":"cebpf4jnsgd1na2vs0mg"},{"bike_id":"21c5648c-4fb1-4d4b-ba1f-7ac2e48135ad","system_id":"levelo_inurba_marseille","lat":43.2621,"lon":5.37446,"is_reserved":false,"is_disabled":false,"rental_uris":{"android":"levelo://app?vid=21c5648c-4fb1-4d4b-ba1f-7ac2e48135ad","ios":"levelo://app?vid=21c5648c-4fb1-4d4b-ba1f-7ac2e48135ad"},"vehicle_type_id":"4","last_reported":1739891418,"current_range_meters":15200,"station_id":"ce4bhgp2rcd13ifvqfc0","pricing_plan_id":"cebpf4jnsgd1na2vs0mg"},{"bike_id":"25ea9eec-29d9-4063-8007-929ebb2d1ef2","system_id":"levelo_inurba_marseille","lat":43.25498,"lon":5.37651,"is_reserved":false,"is_disabled":false,"rental_uris":{"android":"levelo://app?vid=25ea9eec-29d9-4063-8007-929ebb2d1ef2","ios":"levelo://app?vid=25ea9eec-29d9-4063-8007-929ebb2d1ef2"},"vehicle_type_id":"4","last_reported":1739891418,"current_range_meters":15200,"station_id":"ce4bhh12rcd13ifvqff0","pricing_plan_id":"cebpf4jnsgd1na2vs0mg"},{"bike_id":"79fe6b86-7c3e-4235-bce1-4b9e47f595cf","system_id":"levelo_inurba_marseille","lat":43.29631,"lon":5.40587,"is_reserved":false,"is_disabled":false,"rental_uris":{"android":"levelo://app?vid=79fe6b86-7c3e-4235-bce1-4b9e47f595cf","ios":"levelo://app?vid=79fe6b86-7c3e-4235-bce1-4b9e47f595cf"},"vehicle_type_id":"4","last_reported":1739891418,"current_range_meters":15200,"station_id":"ce4bh0h2rcd13ifvqd60","pricing_plan_id":"cebpf4jnsgd1na2vs0mg"},{"bike_id":"90017611-e2b1-401c-bcbf-f9d526ffc823","system_id":"levelo_inurba_marseille","lat":43.29363,"lon":5.3831,"is_reserved":false,"is_disabled":false,"rental_uris":{"android":"levelo://app?vid=90017611-e2b1-401c-bcbf-f9d526ffc823","ios":"levelo://app?vid=90017611-e2b1-401c-bcbf-f9d526ffc823"},"vehicle_type_id":"4","last_reported":1739891418,"current_range_meters":15200,"station_id":"","pricing_plan_id":"cebpf4jnsgd1na2vs0mg"},{"bike_id":"fa7d0d5e-8a57-4cb4-b91e-cb8450826f35","system_id":"levelo_inurba_marseille","lat":43.25111,"lon":5.38783,"is_reserved":false,"is_disabled":false,"rental_uris":{"android":"levelo://app?vid=fa7d0d5e-8a57-4cb4-b91e-cb8450826f35","ios":"levelo://app?vid=fa7d0d5e-8a57-4cb4-b91e-cb8450826f35"},"vehicle_type_id":"4","last_reported":1739891418,"current_range_meters":15200,"station_id":"ce4bhgp2rcd13ifvqfd0","pricing_plan_id":"cebpf4jnsgd1na2vs0mg"},{"bike_id":"2cfeeb5a-dfc5-4280-bacf-5f9f118223ae","system_id":"levelo_inurba_marseille","lat":43.28424,"lon":5.37501,"is_reserved":false,"is_disabled":false,"rental_uris":{"android":"levelo://app?vid=2cfeeb5a-dfc5-4280-bacf-5f9f118223ae","ios":"levelo://app?vid=2cfeeb5a-dfc5-4280-bacf-5f9f118223ae"},"vehicle_type_id":"4","last_reported":1739891418,"current_range_meters":15200,"station_id":"ce4bh412rcd13ifvqds0","pricing_plan_id":"cebpf4jnsgd1na2vs0mg"},{"bike_id":"dabd1b8a-0166-4296-9312-a00ac3d924b8","system_id":"levelo_inurba_marseille","lat":43.29758,"lon":5.3768,"is_reserved":false,"is_disabled":false,"rental_uris":{"android":"levelo://app?vid=dabd1b8a-0166-4296-9312-a00ac3d924b8","ios":"levelo://app?vid=dabd1b8a-0166-4296-9312-a00ac3d924b8"},"vehicle_type_id":"4","last_reported":1739891418,"current_range_meters":15200,"station_id":"ce4bgkh2rcd13ifvqbl0","pricing_plan_id":"cebpf4jnsgd1na2vs0mg"},{"bike_id":"7a956a2c-3e4f-4828-9371-ce582abeb15c","system_id":"levelo_inurba_marseille","lat":43.2827,"lon":5.35073,"is_reserved":false,"is_disabled":false,"rental_uris":{"android":"levelo://app?vid=7a956a2c-3e4f-4828-9371-ce582abeb15c","ios":"levelo://app?vid=7a956a2c-3e4f-4828-9371-ce582abeb15c"},"vehicle_type_id":"4","last_reported":1739891418,"current_range_meters":16000,"station_id":"","pricing_plan_id":"cebpf4jnsgd1na2vs0mg"},{"bike_id":"d1dec037-ee4c-4db9-a655-1087d8ee1f4f","system_id":"levelo_inurba_marseille","lat":43.28444,"lon":5.39175,"is_reserved":false,"is_disabled":true,"rental_uris":{"android":"levelo://app?vid=d1dec037-ee4c-4db9-a655-1087d8ee1f4f","ios":"levelo://app?vid=d1dec037-ee4c-4db9-a655-1087d8ee1f4f"},"vehicle_type_id":"4","last_reported":1739891418,"current_range_meters":16000,"station_id":"","pricing_plan_id":"cebpf4jnsgd1na2vs0mg"},{"bike_id":"9e907f59-96ef-46d1-9ce6-fb36e513007c","system_id":"levelo_inurba_marseille","lat":43.26565,"lon":5.37286,"is_reserved":false,"is_disabled":false,"rental_uris":{"android":"levelo://app?vid=9e907f59-96ef-46d1-9ce6-fb36e513007c","ios":"levelo://app?vid=9e907f59-96ef-46d1-9ce6-fb36e513007c"},"vehicle_type_id":"4","last_reported":1739891418,"current_range_meters":16000,"station_id":"ce4bhg12rcd13ifvqf70","pricing_plan_id":"cebpf4jnsgd1na2vs0mg"},{"bike_id":"8d4c1e1d-39fd-4759-aec8-81fb840db05f","system_id":"levelo_inurba_marseille","lat":43.311835,"lon":5.387209,"is_reserved":false,"is_disabled":false,"rental_uris":{"android":"levelo://app?vid=8d4c1e1d-39fd-4759-aec8-81fb840db05f","ios":"levelo://app?vid=8d4c1e1d-39fd-4759-aec8-81fb840db05f"},"vehicle_type_id":"4","last_reported":1739891418,"current_range_meters":16000,"station_id":"ce4bgv12rcd13ifvqcp0","pricing_plan_id":"cebpf4jnsgd1na2vs0mg"},{"bike_id":"397b80cf-cbf3-4f7e-9d00-ad56509053a2","system_id":"levelo_inurba_marseille","lat":43.29204,"lon":5.39799,"is_reserved":false,"is_disabled":false,"rental_uris":{"android":"levelo://app?vid=397b80cf-cbf3-4f7e-9d00-ad56509053a2","ios":"levelo://app?vid=397b80cf-cbf3-4f7e-9d00-ad56509053a2"},"vehicle_type_id":"4","last_reported":1739891418,"current_range_meters":16000,"station_id":"","pricing_plan_id":"cebpf4jnsgd1na2vs0mg"},{"bike_id":"fbb8bf31-4e2a-4400-8d7f-5fcf837c7f81","system_id":"levelo_inurba_marseille","lat":43.2867,"lon":5.38664,"is_reserved":false,"is_disabled":false,"rental_uris":{"android":"levelo://app?vid=fbb8bf31-4e2a-4400-8d7f-5fcf837c7f81","ios":"levelo://app?vid=fbb8bf31-4e2a-4400-8d7f-5fcf837c7f81"},"vehicle_type_id":"4","last_reported":1739891418,"current_range_meters":16000,"station_id":"ce4bh492rcd13ifvqdug","pricing_plan_id":"cebpf4jnsgd1na2vs0mg"},{"bike_id":"12bd8ea1-e34d-4b85-940a-39d60b22a183","system_id":"levelo_inurba_marseille","lat":43.28268,"lon":5.35059,"is_reserved":false,"is_disabled":false,"rental_uris":{"android":"levelo://app?vid=12bd8ea1-e34d-4b85-940a-39d60b22a183","ios":"levelo://app?vid=12bd8ea1-e34d-4b85-940a-39d60b22a183"},"vehicle_type_id":"4","last_reported":1739891418,"current_range_meters":14800,"station_id":"ce4bhbp2rcd13ifvqerg","pricing_plan_id":"cebpf4jnsgd1na2vs0mg"},{"bike_id":"db798179-d0d9-4f25-b468-018f159d09b6","system_id":"levelo_inurba_marseille","lat":43.273218,"lon":5.390719,"is_reserved":false,"is_disabled":false,"rental_uris":{"android":"levelo://app?vid=db798179-d0d9-4f25-b468-018f159d09b6","ios":"levelo://app?vid=db798179-d0d9-4f25-b468-018f159d09b6"},"vehicle_type_id":"4","last_reported":1739891418,"current_range_meters":16400,"station_id":"ce4bhkp2rcd13ifvqgd0","pricing_plan_id":"cebpf4jnsgd1na2vs0mg"},{"bike_id":"5d49fede-7e11-44df-8af5-6f8ed402093e","system_id":"levelo_inurba_marseille","lat":43.29422,"lon":5.38619,"is_reserved":false,"is_disabled":false,"rental_uris":{"android":"levelo://app?vid=5d49fede-7e11-44df-8af5-6f8ed402093e","ios":"levelo://app?vid=5d49fede-7e11-44df-8af5-6f8ed402093e"},"vehicle_type_id":"4","last_reported":1739891418,"current_range_meters":16800,"station_id":"ce4bh2h2rcd13ifvqdh0","pricing_plan_id":"cebpf4jnsgd1na2vs0mg"},{"bike_id":"93c67bfa-15aa-4951-b48d-2cd1ed4fe08a","system_id":"levelo_inurba_marseille","lat":43.28467,"lon":5.38424,"is_reserved":false,"is_disabled":false,"rental_uris":{"android":"levelo://app?vid=93c67bfa-15aa-4951-b48d-2cd1ed4fe08a","ios":"levelo://app?vid=93c67bfa-15aa-4951-b48d-2cd1ed4fe08a"},"vehicle_type_id":"4","last_reported":1739891418,"current_range_meters":16400,"station_id":"ce4bh512rcd13ifvqe3g","pricing_plan_id":"cebpf4jnsgd1na2vs0mg"},{"bike_id":"244d9b22-997d-4ed8-8c64-abb1d2751821","system_id":"levelo_inurba_marseille","lat":43.25912,"lon":5.40899,"is_reserved":false,"is_disabled":false,"rental_uris":{"android":"levelo://app?vid=244d9b22-997d-4ed8-8c64-abb1d2751821","ios":"levelo://app?vid=244d9b22-997d-4ed8-8c64-abb1d2751821"},"vehicle_type_id":"4","last_reported":1739891418,"current_range_meters":16400,"station_id":"ce4bhm92rcd13ifvqglg","pricing_plan_id":"cebpf4jnsgd1na2vs0mg"},{"bike_id":"b7a10f28-e8da-4969-bbde-83079c23ad5b","system_id":"levelo_inurba_marseille","lat":43.2926,"lon":5.40906,"is_reserved":false,"is_disabled":false,"rental_uris":{"android":"levelo://app?vid=b7a10f28-e8da-4969-bbde-83079c23ad5b","ios":"levelo://app?vid=b7a10f28-e8da-4969-bbde-83079c23ad5b"},"vehicle_type_id":"4","last_reported":1739891418,"current_range_meters":16400,"station_id":"ce4bh192rcd13ifvqdc0","pricing_plan_id":"cebpf4jnsgd1na2vs0mg"},{"bike_id":"1d63a175-89ef-49ff-9ead-dfe9ed6c22cf","system_id":"levelo_inurba_marseille","lat":43.24691,"lon":5.39447,"is_reserved":false,"is_disabled":false,"rental_uris":{"android":"levelo://app?vid=1d63a175-89ef-49ff-9ead-dfe9ed6c22cf","ios":"levelo://app?vid=1d63a175-89ef-49ff-9ead-dfe9ed6c22cf"},"vehicle_type_id":"4","last_reported":1739891418,"current_range_meters":16400,"station_id":"","pricing_plan_id":"cebpf4jnsgd1na2vs0mg"},{"bike_id":"17ad7f3f-5661-4e34-a493-7bc489c9bb65","system_id":"levelo_inurba_marseille","lat":43.27377,"lon":5.36263,"is_reserved":false,"is_disabled":false,"rental_uris":{"android":"levelo://app?vid=17ad7f3f-5661-4e34-a493-7bc489c9bb65","ios":"levelo://app?vid=17ad7f3f-5661-4e34-a493-7bc489c9bb65"},"vehicle_type_id":"4","last_reported":1739891418,"current_range_meters":16400,"station_id":"ce4bhbh2rcd13ifvqeo0","pricing_plan_id":"cebpf4jnsgd1na2vs0mg"},{"bike_id":"2ee5e722-254f-4686-9b1b-05310efc8688","system_id":"levelo_inurba_marseille","lat":43.31756,"lon":5.39019,"is_reserved":false,"is_disabled":false,"rental_uris":{"android":"levelo://app?vid=2ee5e722-254f-4686-9b1b-05310efc8688","ios":"levelo://app?vid=2ee5e722-254f-4686-9b1b-05310efc8688"},"vehicle_type_id":"4","last_reported":1739891418,"current_range_meters":16400,"station_id":"ce4bhqp2rcd13ifvqhng","pricing_plan_id":"cebpf4jnsgd1na2vs0mg"},{"bike_id":"3a388ff2-d2f1-459e-a649-503879be36c4","system_id":"levelo_inurba_marseille","lat":43.29934,"lon":5.36545,"is_reserved":false,"is_disabled":false,"rental_uris":{"android":"levelo://app?vid=3a388ff2-d2f1-459e-a649-503879be36c4","ios":"levelo://app?vid=3a388ff2-d2f1-459e-a649-503879be36c4"},"vehicle_type_id":"4","last_reported":1739891418,"current_range_meters":16400,"station_id":"ce4bgm92rcd13ifvqbr0","pricing_plan_id":"cebpf4jnsgd1na2vs0mg"},{"bike_id":"b357bba2-a6e9-42df-b433-92bbc6fabe5e","system_id":"levelo_inurba_marseille","lat":43.293259,"lon":5.385194,"is_reserved":false,"is_disabled":false,"rental_uris":{"android":"levelo://app?vid=b357bba2-a6e9-42df-b433-92bbc6fabe5e","ios":"levelo://app?vid=b357bba2-a6e9-42df-b433-92bbc6fabe5e"},"vehicle_type_id":"4","last_reported":1739891418,"current_range_meters":16400,"station_id":"ce4bh9p2rcd13ifvqec0","pricing_plan_id":"cebpf4jnsgd1na2vs0mg"},{"bike_id":"3286d85d-933b-43c9-bf8d-33f218b85900","system_id":"levelo_inurba_marseille","lat":43.29801,"lon":5.38117,"is_reserved":false,"is_disabled":false,"rental_uris":{"android":"levelo://app?vid=3286d85d-933b-43c9-bf8d-33f218b85900","ios":"levelo://app?vid=3286d85d-933b-43c9-bf8d-33f218b85900"},"vehicle_type_id":"4","last_reported":1739891418,"current_range_meters":16400,"station_id":"ce4bgip2rcd13ifvqbb0","pricing_plan_id":"cebpf4jnsgd1na2vs0mg"},{"bike_id":"0bf27109-d288-47c4-aee8-e0517974eadb","system_id":"levelo_inurba_marseille","lat":43.30439,"lon":5.38897,"is_reserved":false,"is_disabled":false,"rental_uris":{"android":"levelo://app?vid=0bf27109-d288-47c4-aee8-e0517974eadb","ios":"levelo://app?vid=0bf27109-d288-47c4-aee8-e0517974eadb"},"vehicle_type_id":"4","last_reported":1739891418,"current_range_meters":16800,"station_id":"ce4bgk12rcd13ifvqbi0","pricing_plan_id":"cebpf4jnsgd1na2vs0mg"},{"bike_id":"50ee8641-b3cd-4e47-aa13-0edebe9fcffd","system_id":"levelo_inurba_marseille","lat":43.29898,"lon":5.43675,"is_reserved":false,"is_disabled":false,"rental_uris":{"android":"levelo://app?vid=50ee8641-b3cd-4e47-aa13-0edebe9fcffd","ios":"levelo://app?vid=50ee8641-b3cd-4e47-aa13-0edebe9fcffd"},"vehicle_type_id":"4","last_reported":1739891418,"current_range_meters":16400,"station_id":"ce4bhpp2rcd13ifvqhfg","pricing_plan_id":"cebpf4jnsgd1na2vs0mg"},{"bike_id":"bf74b8c6-69e6-44f6-b5f1-f7347149ce27","system_id":"levelo_inurba_marseille","lat":43.29261,"lon":5.40921,"is_reserved":false,"is_disabled":false,"rental_uris":{"android":"levelo://app?vid=bf74b8c6-69e6-44f6-b5f1-f7347149ce27","ios":"levelo://app?vid=bf74b8c6-69e6-44f6-b5f1-f7347149ce27"},"vehicle_type_id":"4","last_reported":1739891418,"current_range_meters":16800,"station_id":"ce4bh192rcd13ifvqdc0","pricing_plan_id":"cebpf4jnsgd1na2vs0mg"},{"bike_id":"173f1074-7582-4e25-8d57-fe2f8ba065d7","system_id":"levelo_inurba_marseille","lat":43.25861,"lon":5.40954,"is_reserved":false,"is_disabled":false,"rental_uris":{"android":"levelo://app?vid=173f1074-7582-4e25-8d57-fe2f8ba065d7","ios":"levelo://app?vid=173f1074-7582-4e25-8d57-fe2f8ba065d7"},"vehicle_type_id":"4","last_reported":1739891418,"current_range_meters":16800,"station_id":"ce4bhm92rcd13ifvqglg","pricing_plan_id":"cebpf4jnsgd1na2vs0mg"},{"bike_id":"b3103f78-4948-4441-9e8b-5d314e779e75","system_id":"levelo_inurba_marseille","lat":43.2858,"lon":5.39495,"is_reserved":false,"is_disabled":false,"rental_uris":{"android":"levelo://app?vid=b3103f78-4948-4441-9e8b-5d314e779e75","ios":"levelo://app?vid=b3103f78-4948-4441-9e8b-5d314e779e75"},"vehicle_type_id":"4","last_reported":1739891418,"current_range_meters":16800,"station_id":"ce4bh292rcd13ifvqdg0","pricing_plan_id":"cebpf4jnsgd1na2vs0mg"},{"bike_id":"c2d2671b-d2a7-4dae-aefa-0b7227cce0ce","system_id":"levelo_inurba_marseille","lat":43.29309,"lon":5.37465,"is_reserved":false,"is_disabled":false,"rental_uris":{"android":"levelo://app?vid=c2d2671b-d2a7-4dae-aefa-0b7227cce0ce","ios":"levelo://app?vid=c2d2671b-d2a7-4dae-aefa-0b7227cce0ce"},"vehicle_type_id":"4","last_reported":1739891418,"current_range_meters":17600,"station_id":"ce4bgi12rcd13ifvqb70","pricing_plan_id":"cebpf4jnsgd1na2vs0mg"},{"bike_id":"85cc6894-c6eb-40fd-84e7-853ea0e87f92","system_id":"levelo_inurba_marseille","lat":43.297067,"lon":5.36612,"is_reserved":false,"is_disabled":false,"rental_uris":{"android":"levelo://app?vid=85cc6894-c6eb-40fd-84e7-853ea0e87f92","ios":"levelo://app?vid=85cc6894-c6eb-40fd-84e7-853ea0e87f92"},"vehicle_type_id":"4","last_reported":1739891418,"current_range_meters":17200,"station_id":"ce4bgn12rcd13ifvqbt0","pricing_plan_id":"cebpf4jnsgd1na2vs0mg"},{"bike_id":"b7ee7074-0ed1-413c-95bf-29ca1f13818b","system_id":"levelo_inurba_marseille","lat":43.25578,"lon":5.38231,"is_reserved":false,"is_disabled":false,"rental_uris":{"android":"levelo://app?vid=b7ee7074-0ed1-413c-95bf-29ca1f13818b","ios":"levelo://app?vid=b7ee7074-0ed1-413c-95bf-29ca1f13818b"},"vehicle_type_id":"4","last_reported":1739891418,"current_range_meters":17200,"station_id":"ce4bhih2rcd13ifvqfs0","pricing_plan_id":"cebpf4jnsgd1na2vs0mg"},{"bike_id":"f2f8d464-f09b-4632-b0be-c20ebddedd08","system_id":"levelo_inurba_marseille","lat":43.30775,"lon":5.37681,"is_reserved":false,"is_disabled":false,"rental_uris":{"android":"levelo://app?vid=f2f8d464-f09b-4632-b0be-c20ebddedd08","ios":"levelo://app?vid=f2f8d464-f09b-4632-b0be-c20ebddedd08"},"vehicle_type_id":"4","last_reported":1739891418,"current_range_meters":17200,"station_id":"ce4bgn92rcd13ifvqbvg","pricing_plan_id":"cebpf4jnsgd1na2vs0mg"},{"bike_id":"22612a7c-3a7f-4af3-bbf0-63a460534468","system_id":"levelo_inurba_marseille","lat":43.28705,"lon":5.3999,"is_reserved":false,"is_disabled":false,"rental_uris":{"android":"levelo://app?vid=22612a7c-3a7f-4af3-bbf0-63a460534468","ios":"levelo://app?vid=22612a7c-3a7f-4af3-bbf0-63a460534468"},"vehicle_type_id":"4","last_reported":1739891418,"current_range_meters":17200,"station_id":"","pricing_plan_id":"cebpf4jnsgd1na2vs0mg"},{"bike_id":"ccfa3b82-af6b-4d67-bd17-271554564766","system_id":"levelo_inurba_marseille","lat":43.22938,"lon":5.3537,"is_reserved":false,"is_disabled":false,"rental_uris":{"android":"levelo://app?vid=ccfa3b82-af6b-4d67-bd17-271554564766","ios":"levelo://app?vid=ccfa3b82-af6b-4d67-bd17-271554564766"},"vehicle_type_id":"4","last_reported":1739891418,"current_range_meters":17200,"station_id":"cpo3532slgdg3j2ikp40","pricing_plan_id":"cebpf4jnsgd1na2vs0mg"},{"bike_id":"a2cd6bce-829b-4f5f-bc6a-3777ff727ec2","system_id":"levelo_inurba_marseille","lat":43.24076,"lon":5.37758,"is_reserved":false,"is_disabled":false,"rental_uris":{"android":"levelo://app?vid=a2cd6bce-829b-4f5f-bc6a-3777ff727ec2","ios":"levelo://app?vid=a2cd6bce-829b-4f5f-bc6a-3777ff727ec2"},"vehicle_type_id":"4","last_reported":1739891418,"current_range_meters":17200,"station_id":"ce4bhnp2rcd13ifvqgvg","pricing_plan_id":"cebpf4jnsgd1na2vs0mg"},{"bike_id":"a928a00a-1e25-44a8-8ac5-6b6f4625eb3a","system_id":"levelo_inurba_marseille","lat":43.27618,"lon":5.36112,"is_reserved":false,"is_disabled":false,"rental_uris":{"android":"levelo://app?vid=a928a00a-1e25-44a8-8ac5-6b6f4625eb3a","ios":"levelo://app?vid=a928a00a-1e25-44a8-8ac5-6b6f4625eb3a"},"vehicle_type_id":"4","last_reported":1739891418,"current_range_meters":18000,"station_id":"ce4bgj92rcd13ifvqbe0","pricing_plan_id":"cebpf4jnsgd1na2vs0mg"},{"bike_id":"bd8dcbfb-3c3a-4aa8-a8c7-da0b04a07224","system_id":"levelo_inurba_marseille","lat":43.30779,"lon":5.37659,"is_reserved":false,"is_disabled":false,"rental_uris":{"android":"levelo://app?vid=bd8dcbfb-3c3a-4aa8-a8c7-da0b04a07224","ios":"levelo://app?vid=bd8dcbfb-3c3a-4aa8-a8c7-da0b04a07224"},"vehicle_type_id":"4","last_reported":1739891418,"current_range_meters":17200,"station_id":"ce4bgvh2rcd13ifvqcs0","pricing_plan_id":"cebpf4jnsgd1na2vs0mg"},{"bike_id":"22c1355e-1039-4fd9-8688-906435e4013c","system_id":"levelo_inurba_marseille","lat":43.23157,"lon":5.43725,"is_reserved":false,"is_disabled":false,"rental_uris":{"android":"levelo://app?vid=22c1355e-1039-4fd9-8688-906435e4013c","ios":"levelo://app?vid=22c1355e-1039-4fd9-8688-906435e4013c"},"vehicle_type_id":"4","last_reported":1739891418,"current_range_meters":17200,"station_id":"ce4bhmp2rcd13ifvqgog","pricing_plan_id":"cebpf4jnsgd1na2vs0mg"},{"bike_id":"baf6d894-ad10-49a9-b91a-24f60ad956f7","system_id":"levelo_inurba_marseille","lat":43.28976,"lon":5.4268,"is_reserved":false,"is_disabled":false,"rental_uris":{"android":"levelo://app?vid=baf6d894-ad10-49a9-b91a-24f60ad956f7","ios":"levelo://app?vid=baf6d894-ad10-49a9-b91a-24f60ad956f7"},"vehicle_type_id":"4","last_reported":1739891418,"current_range_meters":17200,"station_id":"","pricing_plan_id":"cebpf4jnsgd1na2vs0mg"},{"bike_id":"3a057b52-4c47-476b-927e-f322b0af127d","system_id":"levelo_inurba_marseille","lat":43.30318,"lon":5.36895,"is_reserved":false,"is_disabled":false,"rental_uris":{"android":"levelo://app?vid=3a057b52-4c47-476b-927e-f322b0af127d","ios":"levelo://app?vid=3a057b52-4c47-476b-927e-f322b0af127d"},"vehicle_type_id":"4","last_reported":1739891418,"current_range_meters":17200,"station_id":"","pricing_plan_id":"cebpf4jnsgd1na2vs0mg"},{"bike_id":"25ba339b-02c8-4dc8-ac8c-93dc504c5118","system_id":"levelo_inurba_marseille","lat":43.29624,"lon":5.37166,"is_reserved":false,"is_disabled":false,"rental_uris":{"android":"levelo://app?vid=25ba339b-02c8-4dc8-ac8c-93dc504c5118","ios":"levelo://app?vid=25ba339b-02c8-4dc8-ac8c-93dc504c5118"},"vehicle_type_id":"4","last_reported":1739891418,"current_range_meters":16800,"station_id":"ce4bgnh2rcd13ifvqc0g","pricing_plan_id":"cebpf4jnsgd1na2vs0mg"},{"bike_id":"0bcb722b-a7ca-47ea-b7a4-84c30ba832fe","system_id":"levelo_inurba_marseille","lat":43.29263,"lon":5.40898,"is_reserved":false,"is_disabled":false,"rental_uris":{"android":"levelo://app?vid=0bcb722b-a7ca-47ea-b7a4-84c30ba832fe","ios":"levelo://app?vid=0bcb722b-a7ca-47ea-b7a4-84c30ba832fe"},"vehicle_type_id":"4","last_reported":1739891418,"current_range_meters":17200,"station_id":"ce4bh192rcd13ifvqdc0","pricing_plan_id":"cebpf4jnsgd1na2vs0mg"},{"bike_id":"f77eb7d8-9434-4c05-861f-edd4244aaffc","system_id":"levelo_inurba_marseille","lat":43.25514,"lon":5.3764,"is_reserved":false,"is_disabled":false,"rental_uris":{"android":"levelo://app?vid=f77eb7d8-9434-4c05-861f-edd4244aaffc","ios":"levelo://app?vid=f77eb7d8-9434-4c05-861f-edd4244aaffc"},"vehicle_type_id":"4","last_reported":1739891418,"current_range_meters":17600,"station_id":"","pricing_plan_id":"cebpf4jnsgd1na2vs0mg"},{"bike_id":"eb715102-e1b0-444b-990c-d34ec49d64ad","system_id":"levelo_inurba_marseille","lat":43.24175,"lon":5.39701,"is_reserved":false,"is_disabled":false,"rental_uris":{"android":"levelo://app?vid=eb715102-e1b0-444b-990c-d34ec49d64ad","ios":"levelo://app?vid=eb715102-e1b0-444b-990c-d34ec49d64ad"},"vehicle_type_id":"4","last_reported":1739891418,"current_range_meters":17600,"station_id":"ce4bhn12rcd13ifvqgpg","pricing_plan_id":"cebpf4jnsgd1na2vs0mg"},{"bike_id":"38c9f437-02d0-463a-a42d-8bc647a31926","system_id":"levelo_inurba_marseille","lat":43.23148,"lon":5.43725,"is_reserved":false,"is_disabled":false,"rental_uris":{"android":"levelo://app?vid=38c9f437-02d0-463a-a42d-8bc647a31926","ios":"levelo://app?vid=38c9f437-02d0-463a-a42d-8bc647a31926"},"vehicle_type_id":"4","last_reported":1739891418,"current_range_meters":17600,"station_id":"ce4bhmp2rcd13ifvqgog","pricing_plan_id":"cebpf4jnsgd1na2vs0mg"},{"bike_id":"c67fb496-8441-458a-af2d-8f07c087bdd0","system_id":"levelo_inurba_marseille","lat":43.24172,"lon":5.36426,"is_reserved":false,"is_disabled":true,"rental_uris":{"android":"levelo://app?vid=c67fb496-8441-458a-af2d-8f07c087bdd0","ios":"levelo://app?vid=c67fb496-8441-458a-af2d-8f07c087bdd0"},"vehicle_type_id":"4","last_reported":1739891418,"current_range_meters":17600,"station_id":"","pricing_plan_id":"cebpf4jnsgd1na2vs0mg"},{"bike_id":"db7f2d58-492d-4297-aa78-ce0ad99a0a74","system_id":"levelo_inurba_marseille","lat":43.2592,"lon":5.4089,"is_reserved":false,"is_disabled":false,"rental_uris":{"android":"levelo://app?vid=db7f2d58-492d-4297-aa78-ce0ad99a0a74","ios":"levelo://app?vid=db7f2d58-492d-4297-aa78-ce0ad99a0a74"},"vehicle_type_id":"4","last_reported":1739891418,"current_range_meters":17600,"station_id":"ce4bhb92rcd13ifvqen0","pricing_plan_id":"cebpf4jnsgd1na2vs0mg"},{"bike_id":"4bd64ff7-6c28-4df6-bd8a-e5a26782ea94","system_id":"levelo_inurba_marseille","lat":43.32277,"lon":5.38291,"is_reserved":false,"is_disabled":false,"rental_uris":{"android":"levelo://app?vid=4bd64ff7-6c28-4df6-bd8a-e5a26782ea94","ios":"levelo://app?vid=4bd64ff7-6c28-4df6-bd8a-e5a26782ea94"},"vehicle_type_id":"4","last_reported":1739891418,"current_range_meters":17200,"station_id":"ce4bhr12rcd13ifvqhqg","pricing_plan_id":"cebpf4jnsgd1na2vs0mg"},{"bike_id":"fc971b16-bef3-4b6d-813c-ffc8ffa48842","system_id":"levelo_inurba_marseille","lat":43.2841,"lon":5.34986,"is_reserved":false,"is_disabled":true,"rental_uris":{"android":"levelo://app?vid=fc971b16-bef3-4b6d-813c-ffc8ffa48842","ios":"levelo://app?vid=fc971b16-bef3-4b6d-813c-ffc8ffa48842"},"vehicle_type_id":"4","last_reported":1739891418,"current_range_meters":17600,"station_id":"","pricing_plan_id":"cebpf4jnsgd1na2vs0mg"},{"bike_id":"ee318ccd-c697-43a6-bafd-c758274e6962","system_id":"levelo_inurba_marseille","lat":43.30324,"lon":5.40078,"is_reserved":false,"is_disabled":false,"rental_uris":{"android":"levelo://app?vid=ee318ccd-c697-43a6-bafd-c758274e6962","ios":"levelo://app?vid=ee318ccd-c697-43a6-bafd-c758274e6962"},"vehicle_type_id":"4","last_reported":1739891418,"current_range_meters":17600,"station_id":"","pricing_plan_id":"cebpf4jnsgd1na2vs0mg"},{"bike_id":"0cd85fe1-fdc2-46b2-a04a-be75f1a5d1ae","system_id":"levelo_inurba_marseille","lat":43.28264,"lon":5.35061,"is_reserved":false,"is_disabled":false,"rental_uris":{"android":"levelo://app?vid=0cd85fe1-fdc2-46b2-a04a-be75f1a5d1ae","ios":"levelo://app?vid=0cd85fe1-fdc2-46b2-a04a-be75f1a5d1ae"},"vehicle_type_id":"4","last_reported":1739891418,"current_range_meters":18000,"station_id":"","pricing_plan_id":"cebpf4jnsgd1na2vs0mg"},{"bike_id":"22196579-be9e-4f2d-b2dd-94d1ef2f58bc","system_id":"levelo_inurba_marseille","lat":43.23155,"lon":5.43735,"is_reserved":false,"is_disabled":false,"rental_uris":{"android":"levelo://app?vid=22196579-be9e-4f2d-b2dd-94d1ef2f58bc","ios":"levelo://app?vid=22196579-be9e-4f2d-b2dd-94d1ef2f58bc"},"vehicle_type_id":"4","last_reported":1739891418,"current_range_meters":18000,"station_id":"ce4bhmp2rcd13ifvqgog","pricing_plan_id":"cebpf4jnsgd1na2vs0mg"},{"bike_id":"24dd12c1-4d8a-40c0-b521-a98d2d462c41","system_id":"levelo_inurba_marseille","lat":43.24167,"lon":5.36401,"is_reserved":false,"is_disabled":false,"rental_uris":{"android":"levelo://app?vid=24dd12c1-4d8a-40c0-b521-a98d2d462c41","ios":"levelo://app?vid=24dd12c1-4d8a-40c0-b521-a98d2d462c41"},"vehicle_type_id":"4","last_reported":1739891418,"current_range_meters":18000,"station_id":"","pricing_plan_id":"cebpf4jnsgd1na2vs0mg"},{"bike_id":"e60db891-27e1-4a33-aa8e-9e937db9b2b1","system_id":"levelo_inurba_marseille","lat":43.29935,"lon":5.36567,"is_reserved":false,"is_disabled":false,"rental_uris":{"android":"levelo://app?vid=e60db891-27e1-4a33-aa8e-9e937db9b2b1","ios":"levelo://app?vid=e60db891-27e1-4a33-aa8e-9e937db9b2b1"},"vehicle_type_id":"4","last_reported":1739891418,"current_range_meters":18000,"station_id":"ce4bgm92rcd13ifvqbr0","pricing_plan_id":"cebpf4jnsgd1na2vs0mg"},{"bike_id":"be59961e-616b-4c75-97c4-c082d5d8fd20","system_id":"levelo_inurba_marseille","lat":43.24174,"lon":5.39727,"is_reserved":false,"is_disabled":false,"rental_uris":{"android":"levelo://app?vid=be59961e-616b-4c75-97c4-c082d5d8fd20","ios":"levelo://app?vid=be59961e-616b-4c75-97c4-c082d5d8fd20"},"vehicle_type_id":"4","last_reported":1739891418,"current_range_meters":18000,"station_id":"ce4bhn12rcd13ifvqgpg","pricing_plan_id":"cebpf4jnsgd1na2vs0mg"},{"bike_id":"3489563e-4657-4a9c-80eb-ba41568b3093","system_id":"levelo_inurba_marseille","lat":43.29272,"lon":5.37621,"is_reserved":false,"is_disabled":false,"rental_uris":{"android":"levelo://app?vid=3489563e-4657-4a9c-80eb-ba41568b3093","ios":"levelo://app?vid=3489563e-4657-4a9c-80eb-ba41568b3093"},"vehicle_type_id":"4","last_reported":1739891418,"current_range_meters":18000,"station_id":"ce4bgi12rcd13ifvqb80","pricing_plan_id":"cebpf4jnsgd1na2vs0mg"},{"bike_id":"178ded3a-a854-4c49-ad78-a7a972f73bf4","system_id":"levelo_inurba_marseille","lat":43.29881,"lon":5.39741,"is_reserved":false,"is_disabled":false,"rental_uris":{"android":"levelo://app?vid=178ded3a-a854-4c49-ad78-a7a972f73bf4","ios":"levelo://app?vid=178ded3a-a854-4c49-ad78-a7a972f73bf4"},"vehicle_type_id":"4","last_reported":1739891418,"current_range_meters":18000,"station_id":"","pricing_plan_id":"cebpf4jnsgd1na2vs0mg"},{"bike_id":"043e80ab-ad4e-4777-b08c-956a535d6f43","system_id":"levelo_inurba_marseille","lat":43.25486,"lon":5.37651,"is_reserved":false,"is_disabled":false,"rental_uris":{"android":"levelo://app?vid=043e80ab-ad4e-4777-b08c-956a535d6f43","ios":"levelo://app?vid=043e80ab-ad4e-4777-b08c-956a535d6f43"},"vehicle_type_id":"4","last_reported":1739891418,"current_range_meters":18000,"station_id":"","pricing_plan_id":"cebpf4jnsgd1na2vs0mg"},{"bike_id":"cfa31f94-71a8-4859-b51d-b1e55bf8eb3b","system_id":"levelo_inurba_marseille","lat":43.26215,"lon":5.37444,"is_reserved":false,"is_disabled":false,"rental_uris":{"android":"levelo://app?vid=cfa31f94-71a8-4859-b51d-b1e55bf8eb3b","ios":"levelo://app?vid=cfa31f94-71a8-4859-b51d-b1e55bf8eb3b"},"vehicle_type_id":"4","last_reported":1739891418,"current_range_meters":18000,"station_id":"ce4bhgp2rcd13ifvqfc0","pricing_plan_id":"cebpf4jnsgd1na2vs0mg"},{"bike_id":"63ea7e43-8eca-430c-8a7a-743145abbade","system_id":"levelo_inurba_marseille","lat":43.2657,"lon":5.37284,"is_reserved":false,"is_disabled":false,"rental_uris":{"android":"levelo://app?vid=63ea7e43-8eca-430c-8a7a-743145abbade","ios":"levelo://app?vid=63ea7e43-8eca-430c-8a7a-743145abbade"},"vehicle_type_id":"4","last_reported":1739891418,"current_range_meters":18800,"station_id":"","pricing_plan_id":"cebpf4jnsgd1na2vs0mg"},{"bike_id":"3c5bd704-2ce0-421f-af01-fda2656a0560","system_id":"levelo_inurba_marseille","lat":43.29031,"lon":5.39969,"is_reserved":false,"is_disabled":false,"rental_uris":{"android":"levelo://app?vid=3c5bd704-2ce0-421f-af01-fda2656a0560","ios":"levelo://app?vid=3c5bd704-2ce0-421f-af01-fda2656a0560"},"vehicle_type_id":"4","last_reported":1739891418,"current_range_meters":18800,"station_id":"","pricing_plan_id":"cebpf4jnsgd1na2vs0mg"},{"bike_id":"e4322138-f66d-4507-844a-b4920fb997cf","system_id":"levelo_inurba_marseille","lat":43.28156,"lon":5.42642,"is_reserved":false,"is_disabled":false,"rental_uris":{"android":"levelo://app?vid=e4322138-f66d-4507-844a-b4920fb997cf","ios":"levelo://app?vid=e4322138-f66d-4507-844a-b4920fb997cf"},"vehicle_type_id":"4","last_reported":1739891418,"current_range_meters":18800,"station_id":"ce4bhnh2rcd13ifvqgug","pricing_plan_id":"cebpf4jnsgd1na2vs0mg"},{"bike_id":"c06f823d-83ec-4492-9914-0d8daaef92ae","system_id":"levelo_inurba_marseille","lat":43.23061,"lon":5.35493,"is_reserved":false,"is_disabled":false,"rental_uris":{"android":"levelo://app?vid=c06f823d-83ec-4492-9914-0d8daaef92ae","ios":"levelo://app?vid=c06f823d-83ec-4492-9914-0d8daaef92ae"},"vehicle_type_id":"4","last_reported":1739891418,"current_range_meters":18800,"station_id":"cpo3342slgdg3j2ifvpg","pricing_plan_id":"cebpf4jnsgd1na2vs0mg"},{"bike_id":"4c049e8c-dd47-4937-b343-0b8e81c04fa5","system_id":"levelo_inurba_marseille","lat":43.29541,"lon":5.38546,"is_reserved":false,"is_disabled":false,"rental_uris":{"android":"levelo://app?vid=4c049e8c-dd47-4937-b343-0b8e81c04fa5","ios":"levelo://app?vid=4c049e8c-dd47-4937-b343-0b8e81c04fa5"},"vehicle_type_id":"4","last_reported":1739891418,"current_range_meters":18800,"station_id":"ce4bgih2rcd13ifvqba0","pricing_plan_id":"cebpf4jnsgd1na2vs0mg"},{"bike_id":"f79504d5-d34c-4e97-b75c-45fb61d08dc9","system_id":"levelo_inurba_marseille","lat":43.25111,"lon":5.40321,"is_reserved":false,"is_disabled":false,"rental_uris":{"android":"levelo://app?vid=f79504d5-d34c-4e97-b75c-45fb61d08dc9","ios":"levelo://app?vid=f79504d5-d34c-4e97-b75c-45fb61d08dc9"},"vehicle_type_id":"4","last_reported":1739891418,"current_range_meters":18800,"station_id":"ce4bhlh2rcd13ifvqgig","pricing_plan_id":"cebpf4jnsgd1na2vs0mg"},{"bike_id":"d33a9d49-ff2d-43d8-83f3-856f7553054f","system_id":"levelo_inurba_marseille","lat":43.29519,"lon":5.39408,"is_reserved":false,"is_disabled":false,"rental_uris":{"android":"levelo://app?vid=d33a9d49-ff2d-43d8-83f3-856f7553054f","ios":"levelo://app?vid=d33a9d49-ff2d-43d8-83f3-856f7553054f"},"vehicle_type_id":"4","last_reported":1739891418,"current_range_meters":18800,"station_id":"ce4bh292rcd13ifvqdf0","pricing_plan_id":"cebpf4jnsgd1na2vs0mg"},{"bike_id":"59c06e16-2c1f-4444-a3f6-6a7b6c9c893e","system_id":"levelo_inurba_marseille","lat":43.30308,"lon":5.392,"is_reserved":false,"is_disabled":true,"rental_uris":{"android":"levelo://app?vid=59c06e16-2c1f-4444-a3f6-6a7b6c9c893e","ios":"levelo://app?vid=59c06e16-2c1f-4444-a3f6-6a7b6c9c893e"},"vehicle_type_id":"4","last_reported":1739891418,"current_range_meters":18800,"station_id":"ce4bgkh2rcd13ifvqbk0","pricing_plan_id":"cebpf4jnsgd1na2vs0mg"},{"bike_id":"f916af0f-8714-4518-adb5-98f1d3b8485a","system_id":"levelo_inurba_marseille","lat":43.28125,"lon":5.37843,"is_reserved":false,"is_disabled":false,"rental_uris":{"android":"levelo://app?vid=f916af0f-8714-4518-adb5-98f1d3b8485a","ios":"levelo://app?vid=f916af0f-8714-4518-adb5-98f1d3b8485a"},"vehicle_type_id":"4","last_reported":1739891418,"current_range_meters":18800,"station_id":"ce4bha12rcd13ifvqee0","pricing_plan_id":"cebpf4jnsgd1na2vs0mg"},{"bike_id":"aab56d93-547d-40cc-9ff6-b85d4684f798","system_id":"levelo_inurba_marseille","lat":43.23955,"lon":5.36635,"is_reserved":false,"is_disabled":false,"rental_uris":{"android":"levelo://app?vid=aab56d93-547d-40cc-9ff6-b85d4684f798","ios":"levelo://app?vid=aab56d93-547d-40cc-9ff6-b85d4684f798"},"vehicle_type_id":"4","last_reported":1739891418,"current_range_meters":18800,"station_id":"ce4bhi12rcd13ifvqfp0","pricing_plan_id":"cebpf4jnsgd1na2vs0mg"},{"bike_id":"58d82d9c-d9e0-4569-bcef-43adc939cde9","system_id":"levelo_inurba_marseille","lat":43.27373,"lon":5.36255,"is_reserved":false,"is_disabled":false,"rental_uris":{"android":"levelo://app?vid=58d82d9c-d9e0-4569-bcef-43adc939cde9","ios":"levelo://app?vid=58d82d9c-d9e0-4569-bcef-43adc939cde9"},"vehicle_type_id":"4","last_reported":1739891418,"current_range_meters":18800,"station_id":"ce4bhbh2rcd13ifvqeo0","pricing_plan_id":"cebpf4jnsgd1na2vs0mg"},{"bike_id":"5f9ede52-c720-4107-a864-980fb2608395","system_id":"levelo_inurba_marseille","lat":43.24098,"lon":5.38695,"is_reserved":false,"is_disabled":false,"rental_uris":{"android":"levelo://app?vid=5f9ede52-c720-4107-a864-980fb2608395","ios":"levelo://app?vid=5f9ede52-c720-4107-a864-980fb2608395"},"vehicle_type_id":"4","last_reported":1739891418,"current_range_meters":19200,"station_id":"","pricing_plan_id":"cebpf4jnsgd1na2vs0mg"},{"bike_id":"57428e68-6178-4a63-998d-4f2eb2a0c995","system_id":"levelo_inurba_marseille","lat":43.24181,"lon":5.36373,"is_reserved":false,"is_disabled":false,"rental_uris":{"android":"levelo://app?vid=57428e68-6178-4a63-998d-4f2eb2a0c995","ios":"levelo://app?vid=57428e68-6178-4a63-998d-4f2eb2a0c995"},"vehicle_type_id":"4","last_reported":1739891418,"current_range_meters":19200,"station_id":"cpo36qri1sfpv3e86is0","pricing_plan_id":"cebpf4jnsgd1na2vs0mg"},{"bike_id":"5afb5689-6e82-492a-9526-3a2059afff44","system_id":"levelo_inurba_marseille","lat":43.30305,"lon":5.39213,"is_reserved":false,"is_disabled":false,"rental_uris":{"android":"levelo://app?vid=5afb5689-6e82-492a-9526-3a2059afff44","ios":"levelo://app?vid=5afb5689-6e82-492a-9526-3a2059afff44"},"vehicle_type_id":"4","last_reported":1739891418,"current_range_meters":19200,"station_id":"ce4bgkh2rcd13ifvqbk0","pricing_plan_id":"cebpf4jnsgd1na2vs0mg"},{"bike_id":"5089bb88-a0cd-4434-a1a9-f3d5b67361c6","system_id":"levelo_inurba_marseille","lat":43.24368,"lon":5.38764,"is_reserved":false,"is_disabled":false,"rental_uris":{"android":"levelo://app?vid=5089bb88-a0cd-4434-a1a9-f3d5b67361c6","ios":"levelo://app?vid=5089bb88-a0cd-4434-a1a9-f3d5b67361c6"},"vehicle_type_id":"4","last_reported":1739891418,"current_range_meters":19200,"station_id":"","pricing_plan_id":"cebpf4jnsgd1na2vs0mg"},{"bike_id":"b63d3d95-8c47-49c9-9b95-57524aa24bf4","system_id":"levelo_inurba_marseille","lat":43.28271,"lon":5.35064,"is_reserved":false,"is_disabled":false,"rental_uris":{"android":"levelo://app?vid=b63d3d95-8c47-49c9-9b95-57524aa24bf4","ios":"levelo://app?vid=b63d3d95-8c47-49c9-9b95-57524aa24bf4"},"vehicle_type_id":"4","last_reported":1739891418,"current_range_meters":19200,"station_id":"ce4bhbp2rcd13ifvqerg","pricing_plan_id":"cebpf4jnsgd1na2vs0mg"},{"bike_id":"b768b1a6-dfb0-4283-bce3-5f90f2a7562b","system_id":"levelo_inurba_marseille","lat":43.32366,"lon":5.38901,"is_reserved":false,"is_disabled":false,"rental_uris":{"android":"levelo://app?vid=b768b1a6-dfb0-4283-bce3-5f90f2a7562b","ios":"levelo://app?vid=b768b1a6-dfb0-4283-bce3-5f90f2a7562b"},"vehicle_type_id":"4","last_reported":1739891418,"current_range_meters":19200,"station_id":"ce4bhqp2rcd13ifvqhog","pricing_plan_id":"cebpf4jnsgd1na2vs0mg"},{"bike_id":"7ae17a93-0017-4a2a-a45a-03cdf29da67c","system_id":"levelo_inurba_marseille","lat":43.29534,"lon":5.38542,"is_reserved":false,"is_disabled":false,"rental_uris":{"android":"levelo://app?vid=7ae17a93-0017-4a2a-a45a-03cdf29da67c","ios":"levelo://app?vid=7ae17a93-0017-4a2a-a45a-03cdf29da67c"},"vehicle_type_id":"4","last_reported":1739891418,"current_range_meters":19200,"station_id":"","pricing_plan_id":"cebpf4jnsgd1na2vs0mg"},{"bike_id":"8e440123-bdb5-4839-ac9d-3a2ff5593f2e","system_id":"levelo_inurba_marseille","lat":43.30606,"lon":5.37229,"is_reserved":false,"is_disabled":false,"rental_uris":{"android":"levelo://app?vid=8e440123-bdb5-4839-ac9d-3a2ff5593f2e","ios":"levelo://app?vid=8e440123-bdb5-4839-ac9d-3a2ff5593f2e"},"vehicle_type_id":"4","last_reported":1739891418,"current_range_meters":19600,"station_id":"ce4bgqh2rcd13ifvqc4g","pricing_plan_id":"cebpf4jnsgd1na2vs0mg"},{"bike_id":"9d8186d8-4c6c-48f4-b723-5deb007469f8","system_id":"levelo_inurba_marseille","lat":43.28678,"lon":5.38676,"is_reserved":false,"is_disabled":false,"rental_uris":{"android":"levelo://app?vid=9d8186d8-4c6c-48f4-b723-5deb007469f8","ios":"levelo://app?vid=9d8186d8-4c6c-48f4-b723-5deb007469f8"},"vehicle_type_id":"4","last_reported":1739891418,"current_range_meters":19200,"station_id":"ce4bh492rcd13ifvqdug","pricing_plan_id":"cebpf4jnsgd1na2vs0mg"},{"bike_id":"fc5a0e4e-a2e7-4e10-922f-6804a4c63e83","system_id":"levelo_inurba_marseille","lat":43.26938,"lon":5.40251,"is_reserved":false,"is_disabled":false,"rental_uris":{"android":"levelo://app?vid=fc5a0e4e-a2e7-4e10-922f-6804a4c63e83","ios":"levelo://app?vid=fc5a0e4e-a2e7-4e10-922f-6804a4c63e83"},"vehicle_type_id":"4","last_reported":1739891418,"current_range_meters":19200,"station_id":"cjm6bp8fraef2m0cb0m0","pricing_plan_id":"cebpf4jnsgd1na2vs0mg"},{"bike_id":"eb3f9f8f-eb0d-46f2-9277-99c23cd39a11","system_id":"levelo_inurba_marseille","lat":43.26036,"lon":5.37552,"is_reserved":false,"is_disabled":false,"rental_uris":{"android":"levelo://app?vid=eb3f9f8f-eb0d-46f2-9277-99c23cd39a11","ios":"levelo://app?vid=eb3f9f8f-eb0d-46f2-9277-99c23cd39a11"},"vehicle_type_id":"4","last_reported":1739891418,"current_range_meters":19600,"station_id":"ce4bhgh2rcd13ifvqfa0","pricing_plan_id":"cebpf4jnsgd1na2vs0mg"},{"bike_id":"b85644ed-f65a-4039-a397-da921e97276e","system_id":"levelo_inurba_marseille","lat":43.23962,"lon":5.36638,"is_reserved":false,"is_disabled":false,"rental_uris":{"android":"levelo://app?vid=b85644ed-f65a-4039-a397-da921e97276e","ios":"levelo://app?vid=b85644ed-f65a-4039-a397-da921e97276e"},"vehicle_type_id":"4","last_reported":1739891418,"current_range_meters":19600,"station_id":"ce4bhi12rcd13ifvqfp0","pricing_plan_id":"cebpf4jnsgd1na2vs0mg"},{"bike_id":"a0af3547-0f5a-4ee7-a39d-23ed992db956","system_id":"levelo_inurba_marseille","lat":43.23418,"lon":5.40452,"is_reserved":false,"is_disabled":false,"rental_uris":{"android":"levelo://app?vid=a0af3547-0f5a-4ee7-a39d-23ed992db956","ios":"levelo://app?vid=a0af3547-0f5a-4ee7-a39d-23ed992db956"},"vehicle_type_id":"4","last_reported":1739891418,"current_range_meters":19600,"station_id":"","pricing_plan_id":"cebpf4jnsgd1na2vs0mg"},{"bike_id":"ead2fd3e-89b9-4b71-91d2-9fa6a54c567f","system_id":"levelo_inurba_marseille","lat":43.25813,"lon":5.39435,"is_reserved":false,"is_disabled":false,"rental_uris":{"android":"levelo://app?vid=ead2fd3e-89b9-4b71-91d2-9fa6a54c567f","ios":"levelo://app?vid=ead2fd3e-89b9-4b71-91d2-9fa6a54c567f"},"vehicle_type_id":"4","last_reported":1739891418,"current_range_meters":20000,"station_id":"ce4bhip2rcd13ifvqft0","pricing_plan_id":"cebpf4jnsgd1na2vs0mg"},{"bike_id":"b76dce8d-1605-4338-b39a-492d6e3cee3f","system_id":"levelo_inurba_marseille","lat":43.30552,"lon":5.36529,"is_reserved":false,"is_disabled":false,"rental_uris":{"android":"levelo://app?vid=b76dce8d-1605-4338-b39a-492d6e3cee3f","ios":"levelo://app?vid=b76dce8d-1605-4338-b39a-492d6e3cee3f"},"vehicle_type_id":"4","last_reported":1739891418,"current_range_meters":19600,"station_id":"","pricing_plan_id":"cebpf4jnsgd1na2vs0mg"},{"bike_id":"fd117894-11e5-445e-988f-6ef4bb7967b2","system_id":"levelo_inurba_marseille","lat":43.31172,"lon":5.38717,"is_reserved":false,"is_disabled":false,"rental_uris":{"android":"levelo://app?vid=fd117894-11e5-445e-988f-6ef4bb7967b2","ios":"levelo://app?vid=fd117894-11e5-445e-988f-6ef4bb7967b2"},"vehicle_type_id":"4","last_reported":1739891418,"current_range_meters":20000,"station_id":"ce4bgv12rcd13ifvqcp0","pricing_plan_id":"cebpf4jnsgd1na2vs0mg"},{"bike_id":"fad2bd2b-21f7-4ff8-922b-667239438818","system_id":"levelo_inurba_marseille","lat":43.24182,"lon":5.39727,"is_reserved":false,"is_disabled":false,"rental_uris":{"android":"levelo://app?vid=fad2bd2b-21f7-4ff8-922b-667239438818","ios":"levelo://app?vid=fad2bd2b-21f7-4ff8-922b-667239438818"},"vehicle_type_id":"4","last_reported":1739891418,"current_range_meters":20000,"station_id":"ce4bhn12rcd13ifvqgpg","pricing_plan_id":"cebpf4jnsgd1na2vs0mg"},{"bike_id":"176f2500-f2d2-4f48-8095-c4486d8b6db4","system_id":"levelo_inurba_marseille","lat":43.30926,"lon":5.40147,"is_reserved":false,"is_disabled":false,"rental_uris":{"android":"levelo://app?vid=176f2500-f2d2-4f48-8095-c4486d8b6db4","ios":"levelo://app?vid=176f2500-f2d2-4f48-8095-c4486d8b6db4"},"vehicle_type_id":"4","last_reported":1739891418,"current_range_meters":19600,"station_id":"ce4bgvp2rcd13ifvqct0","pricing_plan_id":"cebpf4jnsgd1na2vs0mg"},{"bike_id":"faa5627a-502d-4c4e-88a7-77f9ccde7751","system_id":"levelo_inurba_marseille","lat":43.32502,"lon":5.36565,"is_reserved":false,"is_disabled":false,"rental_uris":{"android":"levelo://app?vid=faa5627a-502d-4c4e-88a7-77f9ccde7751","ios":"levelo://app?vid=faa5627a-502d-4c4e-88a7-77f9ccde7751"},"vehicle_type_id":"4","last_reported":1739891418,"current_range_meters":20000,"station_id":"ce4bhs12rcd13ifvqhvg","pricing_plan_id":"cebpf4jnsgd1na2vs0mg"},{"bike_id":"34130b11-2ab3-40a4-93a7-cc6da08b696d","system_id":"levelo_inurba_marseille","lat":43.30934,"lon":5.40173,"is_reserved":false,"is_disabled":false,"rental_uris":{"android":"levelo://app?vid=34130b11-2ab3-40a4-93a7-cc6da08b696d","ios":"levelo://app?vid=34130b11-2ab3-40a4-93a7-cc6da08b696d"},"vehicle_type_id":"4","last_reported":1739891418,"current_range_meters":20000,"station_id":"ce4bgvp2rcd13ifvqct0","pricing_plan_id":"cebpf4jnsgd1na2vs0mg"},{"bike_id":"59e16670-4257-4eea-8690-950bcc9e1dcf","system_id":"levelo_inurba_marseille","lat":43.28884,"lon":5.38777,"is_reserved":false,"is_disabled":false,"rental_uris":{"android":"levelo://app?vid=59e16670-4257-4eea-8690-950bcc9e1dcf","ios":"levelo://app?vid=59e16670-4257-4eea-8690-950bcc9e1dcf"},"vehicle_type_id":"4","last_reported":1739891418,"current_range_meters":19600,"station_id":"ce4bh4p2rcd13ifvqe0g","pricing_plan_id":"cebpf4jnsgd1na2vs0mg"},{"bike_id":"68f179de-b7c9-4476-bb67-cf26c9b96e1d","system_id":"levelo_inurba_marseille","lat":43.30935,"lon":5.40104,"is_reserved":false,"is_disabled":false,"rental_uris":{"android":"levelo://app?vid=68f179de-b7c9-4476-bb67-cf26c9b96e1d","ios":"levelo://app?vid=68f179de-b7c9-4476-bb67-cf26c9b96e1d"},"vehicle_type_id":"4","last_reported":1739891418,"current_range_meters":20000,"station_id":"ce4bgvp2rcd13ifvqct0","pricing_plan_id":"cebpf4jnsgd1na2vs0mg"},{"bike_id":"69b210eb-a35b-4be9-9c10-20c36a1f7fe9","system_id":"levelo_inurba_marseille","lat":43.2417,"lon":5.39725,"is_reserved":false,"is_disabled":false,"rental_uris":{"android":"levelo://app?vid=69b210eb-a35b-4be9-9c10-20c36a1f7fe9","ios":"levelo://app?vid=69b210eb-a35b-4be9-9c10-20c36a1f7fe9"},"vehicle_type_id":"4","last_reported":1739891418,"current_range_meters":20000,"station_id":"","pricing_plan_id":"cebpf4jnsgd1na2vs0mg"},{"bike_id":"4fbf4dba-60a1-46ec-99d0-33baab164e5d","system_id":"levelo_inurba_marseille","lat":43.2826,"lon":5.35061,"is_reserved":false,"is_disabled":false,"rental_uris":{"android":"levelo://app?vid=4fbf4dba-60a1-46ec-99d0-33baab164e5d","ios":"levelo://app?vid=4fbf4dba-60a1-46ec-99d0-33baab164e5d"},"vehicle_type_id":"4","last_reported":1739891418,"current_range_meters":20400,"station_id":"","pricing_plan_id":"cebpf4jnsgd1na2vs0mg"},{"bike_id":"5428c4a6-2268-45c5-aff9-a5f8e308d92b","system_id":"levelo_inurba_marseille","lat":43.30922,"lon":5.37302,"is_reserved":false,"is_disabled":false,"rental_uris":{"android":"levelo://app?vid=5428c4a6-2268-45c5-aff9-a5f8e308d92b","ios":"levelo://app?vid=5428c4a6-2268-45c5-aff9-a5f8e308d92b"},"vehicle_type_id":"4","last_reported":1739891418,"current_range_meters":20400,"station_id":"ce4bguh2rcd13ifvqckg","pricing_plan_id":"cebpf4jnsgd1na2vs0mg"},{"bike_id":"2c1431b4-31e2-4b67-a3bb-9c959375c9a9","system_id":"levelo_inurba_marseille","lat":43.295217,"lon":5.394115,"is_reserved":false,"is_disabled":false,"rental_uris":{"android":"levelo://app?vid=2c1431b4-31e2-4b67-a3bb-9c959375c9a9","ios":"levelo://app?vid=2c1431b4-31e2-4b67-a3bb-9c959375c9a9"},"vehicle_type_id":"4","last_reported":1739891418,"current_range_meters":20400,"station_id":"ce4bgkh2rcd13ifvqbl0","pricing_plan_id":"cebpf4jnsgd1na2vs0mg"},{"bike_id":"3ca880fb-be5d-41b1-9e3c-19b59ea52225","system_id":"levelo_inurba_marseille","lat":43.25498,"lon":5.37647,"is_reserved":false,"is_disabled":false,"rental_uris":{"android":"levelo://app?vid=3ca880fb-be5d-41b1-9e3c-19b59ea52225","ios":"levelo://app?vid=3ca880fb-be5d-41b1-9e3c-19b59ea52225"},"vehicle_type_id":"4","last_reported":1739891418,"current_range_meters":20400,"station_id":"ce4bhh12rcd13ifvqff0","pricing_plan_id":"cebpf4jnsgd1na2vs0mg"},{"bike_id":"ecbd6e29-5b86-41d0-a4bd-3518ee3bab53","system_id":"levelo_inurba_marseille","lat":43.24646,"lon":5.38901,"is_reserved":false,"is_disabled":false,"rental_uris":{"android":"levelo://app?vid=ecbd6e29-5b86-41d0-a4bd-3518ee3bab53","ios":"levelo://app?vid=ecbd6e29-5b86-41d0-a4bd-3518ee3bab53"},"vehicle_type_id":"4","last_reported":1739891418,"current_range_meters":20400,"station_id":"ce4bhg12rcd13ifvqf60","pricing_plan_id":"cebpf4jnsgd1na2vs0mg"},{"bike_id":"fb466ea4-8c80-4a91-a655-695634faf4d0","system_id":"levelo_inurba_marseille","lat":43.30956,"lon":5.39066,"is_reserved":false,"is_disabled":false,"rental_uris":{"android":"levelo://app?vid=fb466ea4-8c80-4a91-a655-695634faf4d0","ios":"levelo://app?vid=fb466ea4-8c80-4a91-a655-695634faf4d0"},"vehicle_type_id":"4","last_reported":1739891418,"current_range_meters":20400,"station_id":"ce4bgup2rcd13ifvqco0","pricing_plan_id":"cebpf4jnsgd1na2vs0mg"},{"bike_id":"f43e6b59-b824-4768-8a40-cabaa2861f88","system_id":"levelo_inurba_marseille","lat":43.30418,"lon":5.3975,"is_reserved":false,"is_disabled":false,"rental_uris":{"android":"levelo://app?vid=f43e6b59-b824-4768-8a40-cabaa2861f88","ios":"levelo://app?vid=f43e6b59-b824-4768-8a40-cabaa2861f88"},"vehicle_type_id":"4","last_reported":1739891418,"current_range_meters":20400,"station_id":"ce4bh092rcd13ifvqd20","pricing_plan_id":"cebpf4jnsgd1na2vs0mg"},{"bike_id":"27a3c4fc-ab8e-46a0-8d98-caa03e338b47","system_id":"levelo_inurba_marseille","lat":43.28635,"lon":5.35071,"is_reserved":false,"is_disabled":false,"rental_uris":{"android":"levelo://app?vid=27a3c4fc-ab8e-46a0-8d98-caa03e338b47","ios":"levelo://app?vid=27a3c4fc-ab8e-46a0-8d98-caa03e338b47"},"vehicle_type_id":"4","last_reported":1739891418,"current_range_meters":20400,"station_id":"ce4bhch2rcd13ifvqeug","pricing_plan_id":"cebpf4jnsgd1na2vs0mg"},{"bike_id":"7b5689c6-4c99-4f11-900c-92586c73ca5b","system_id":"levelo_inurba_marseille","lat":43.23961,"lon":5.36635,"is_reserved":false,"is_disabled":false,"rental_uris":{"android":"levelo://app?vid=7b5689c6-4c99-4f11-900c-92586c73ca5b","ios":"levelo://app?vid=7b5689c6-4c99-4f11-900c-92586c73ca5b"},"vehicle_type_id":"4","last_reported":1739891418,"current_range_meters":20400,"station_id":"ce4bhi12rcd13ifvqfp0","pricing_plan_id":"cebpf4jnsgd1na2vs0mg"},{"bike_id":"e4d51f7d-47e6-4cc0-9814-60e1035ca415","system_id":"levelo_inurba_marseille","lat":43.30806,"lon":5.43511,"is_reserved":false,"is_disabled":false,"rental_uris":{"android":"levelo://app?vid=e4d51f7d-47e6-4cc0-9814-60e1035ca415","ios":"levelo://app?vid=e4d51f7d-47e6-4cc0-9814-60e1035ca415"},"vehicle_type_id":"4","last_reported":1739891418,"current_range_meters":20400,"station_id":"ce4bhph2rcd13ifvqheg","pricing_plan_id":"cebpf4jnsgd1na2vs0mg"},{"bike_id":"14b02f57-57d2-40e2-b0a7-576a85b16ef7","system_id":"levelo_inurba_marseille","lat":43.23195,"lon":5.35563,"is_reserved":false,"is_disabled":false,"rental_uris":{"android":"levelo://app?vid=14b02f57-57d2-40e2-b0a7-576a85b16ef7","ios":"levelo://app?vid=14b02f57-57d2-40e2-b0a7-576a85b16ef7"},"vehicle_type_id":"4","last_reported":1739891418,"current_range_meters":20800,"station_id":"ce4bhu92rcd13ifvqi70","pricing_plan_id":"cebpf4jnsgd1na2vs0mg"},{"bike_id":"80ea6495-7afe-44b8-9580-b06f6472ed07","system_id":"levelo_inurba_marseille","lat":43.30532,"lon":5.36521,"is_reserved":false,"is_disabled":false,"rental_uris":{"android":"levelo://app?vid=80ea6495-7afe-44b8-9580-b06f6472ed07","ios":"levelo://app?vid=80ea6495-7afe-44b8-9580-b06f6472ed07"},