{"last_updated":1738418822,"ttl":60,"version":"2.2","data":{"bikes":[{"bike_id":"5121270c-1c11-4ce0-892b-9a8960db6210","system_id":"levelo_inurba_marseille","lat":43.31745,"lon":5.39003,"is_reserved":false,"is_disabled":false,"rental_uris":{"android":"levelo://app?vid=5121270c-1c11-4ce0-892b-9a8960db6210","ios":"levelo://app?vid=5121270c-1c11-4ce0-892b-9a8960db6210"},"vehicle_type_id":"4","last_reported":1738418822,"current_range_meters":30000,"station_id":"ce4bhqp2rcd13ifvqhng","pricing_plan_id":"cebpf4jnsgd1na2vs0mg"},{"bike_id":"99c8e731-f913-430f-a2bc-32d57a5fab53","system_id":"levelo_inurba_marseille","lat":43.28471,"lon":5.3842,"is_reserved":false,"is_disabled":true,"rental_uris":{"android":"levelo://app?vid=99c8e731-f913-430f-a2bc-32d57a5fab53","ios":"levelo://app?vid=99c8e731-f913-430f-a2bc-32d57a5fab53"},"vehicle_type_id":"4","last_reported":1738418822,"current_range_meters":24400,"station_id":"ce4bh512rcd13ifvqe3g","pricing_plan_id":"cebpf4jnsgd1na2vs0mg"},{"bike_id":"56449502-cf81-4e0b-9369-54d98b67c1bb","system_id":"levelo_inurba_marseille","lat":43.31357,"lon":5.36697,"is_reserved":false,"is_disabled":false,"rental_uris":{"android":"levelo://app?vid=56449502-cf81-4e0b-9369-54d98b67c1bb","ios":"levelo://app?vid=56449502-cf81-4e0b-9369-54d98b67c1bb"},"vehicle_type_id":"4","last_reported":1738418822,"current_range_meters":18800,"station_id":"ce4bgr92rcd13ifvqc6g","pricing_plan_id":"cebpf4jnsgd1na2vs0mg"},{"bike_id":"3960e9b9-a3ca-48a0-a568-d59ff50cb61d","system_id":"levelo_inurba_marseille","lat":43.30156,"lon":5.38089,"is_reserved":false,"is_disabled":false,"rental_uris":{"android":"levelo://app?vid=3960e9b9-a3ca-48a0-a568-d59ff50cb61d","ios":"levelo://app?vid=3960e9b9-a3ca-48a0-a568-d59ff50cb61d"},"vehicle_type_id":"4","last_reported":1738418822,"current_range_meters":22400,"station_id":"ce4bgjp2rcd13ifvqbh0","pricing_plan_id":"cebpf4jnsgd1na2vs0mg"},{"bike_id":"eee53141-7e01-4c09-b073-4d6efde413ab","system_id":"levelo_inurba_marseille","lat":43.29675,"lon":5.37282,"is_reserved":false,"is_disabled":false,"rental_uris":{"android":"levelo://app?vid=eee53141-7e01-4c09-b073-4d6efde413ab","ios":"levelo://app?vid=eee53141-7e01-4c09-b073-4d6efde413ab"},"vehicle_type_id":"4","last_reported":1738418822,"current_range_meters":21600,"station_id":"ce4bgk12rcd13ifvqbj0","pricing_plan_id":"cebpf4jnsgd1na2vs0mg"},{"bike_id":"11a4d244-c59c-4823-b704-9c99e46e7c29","system_id":"levelo_inurba_marseille","lat":43.29309,"lon":5.3743,"is_reserved":false,"is_disabled":false,"rental_uris":{"android":"levelo://app?vid=11a4d244-c59c-4823-b704-9c99e46e7c29","ios":"levelo://app?vid=11a4d244-c59c-4823-b704-9c99e46e7c29"},"vehicle_type_id":"4","last_reported":1738418822,"current_range_meters":38800,"station_id":"ce4bgi12rcd13ifvqb70","pricing_plan_id":"cebpf4jnsgd1na2vs0mg"},{"bike_id":"68ec889f-fbad-4ec7-bbe1-dbda6b88a3f5","system_id":"levelo_inurba_marseille","lat":43.29022,"lon":5.38597,"is_reserved":false,"is_disabled":true,"rental_uris":{"android":"levelo://app?vid=68ec889f-fbad-4ec7-bbe1-dbda6b88a3f5","ios":"levelo://app?vid=68ec889f-fbad-4ec7-bbe1-dbda6b88a3f5"},"vehicle_type_id":"4","last_reported":1738418822,"current_range_meters":28800,"station_id":"ce4bh4p2rcd13ifvqe0g","pricing_plan_id":"cebpf4jnsgd1na2vs0mg"},{"bike_id":"ec8f6058-6100-4152-a231-a6e2b63a93a4","system_id":"levelo_inurba_marseille","lat":43.25859,"lon":5.39429,"is_reserved":false,"is_disabled":false,"rental_uris":{"android":"levelo://app?vid=ec8f6058-6100-4152-a231-a6e2b63a93a4","ios":"levelo://app?vid=ec8f6058-6100-4152-a231-a6e2b63a93a4"},"vehicle_type_id":"4","last_reported":1738418822,"current_range_meters":24000,"station_id":"ce4bhip2rcd13ifvqft0","pricing_plan_id":"cebpf4jnsgd1na2vs0mg"},{"bike_id":"aa29fb87-ec0f-457c-89b2-8a2b86cc68a7","system_id":"levelo_inurba_marseille","lat":43.32294,"lon":5.3826,"is_reserved":false,"is_disabled":false,"rental_uris":{"android":"levelo://app?vid=aa29fb87-ec0f-457c-89b2-8a2b86cc68a7","ios":"levelo://app?vid=aa29fb87-ec0f-457c-89b2-8a2b86cc68a7"},"vehicle_type_id":"4","last_reported":1738418822,"current_range_meters":27600,"station_id":"ce4bhr12rcd13ifvqhqg","pricing_plan_id":"cebpf4jnsgd1na2vs0mg"},{"bike_id":"775ea6c8-830e-43b4-8783-0f1b578a59f2","system_id":"levelo_inurba_marseille","lat":43.25871,"lon":5.39884,"is_reserved":false,"is_disabled":false,"rental_uris":{"android":"levelo://app?vid=775ea6c8-830e-43b4-8783-0f1b578a59f2","ios":"levelo://app?vid=775ea6c8-830e-43b4-8783-0f1b578a59f2"},"vehicle_type_id":"4","last_reported":1738418822,"current_range_meters":13600,"station_id":"ce4bhl92rcd13ifvqghg","pricing_plan_id":"cebpf4jnsgd1na2vs0mg"},{"bike_id":"ed3b7fbe-dd9d-4bab-8f42-a2405c5dd34c","system_id":"levelo_inurba_marseille","lat":43.26691,"lon":5.38258,"is_reserved":false,"is_disabled":false,"rental_uris":{"android":"levelo://app?vid=ed3b7fbe-dd9d-4bab-8f42-a2405c5dd34c","ios":"levelo://app?vid=ed3b7fbe-dd9d-4bab-8f42-a2405c5dd34c"},"vehicle_type_id":"4","last_reported":1738418822,"current_range_meters":38800,"station_id":"ce4bhg92rcd13ifvqf90","pricing_plan_id":"cebpf4jnsgd1na2vs0mg"},{"bike_id":"09a7f084-e83a-4ea7-9d4d-0760cf1940fc","system_id":"levelo_inurba_marseille","lat":43.30946,"lon":5.39031,"is_reserved":false,"is_disabled":false,"rental_uris":{"android":"levelo://app?vid=09a7f084-e83a-4ea7-9d4d-0760cf1940fc","ios":"levelo://app?vid=09a7f084-e83a-4ea7-9d4d-0760cf1940fc"},"vehicle_type_id":"4","last_reported":1738418822,"current_range_meters":34000,"station_id":"ce4bgup2rcd13ifvqco0","pricing_plan_id":"cebpf4jnsgd1na2vs0mg"},{"bike_id":"d393723a-6908-441b-91f0-930ef3714226","system_id":"levelo_inurba_marseille","lat":43.341463,"lon":5.409075,"is_reserved":false,"is_disabled":false,"rental_uris":{"android":"levelo://app?vid=d393723a-6908-441b-91f0-930ef3714226","ios":"levelo://app?vid=d393723a-6908-441b-91f0-930ef3714226"},"vehicle_type_id":"4","last_reported":1738418822,"current_range_meters":38000,"station_id":"ce4bhqh2rcd13ifvqhlg","pricing_plan_id":"cebpf4jnsgd1na2vs0mg"},{"bike_id":"0f34ced6-9c0b-4b80-99d8-a4641f354d15","system_id":"levelo_inurba_marseille","lat":43.30151,"lon":5.39877,"is_reserved":false,"is_disabled":false,"rental_uris":{"android":"levelo://app?vid=0f34ced6-9c0b-4b80-99d8-a4641f354d15","ios":"levelo://app?vid=0f34ced6-9c0b-4b80-99d8-a4641f354d15"},"vehicle_type_id":"4","last_reported":1738418822,"current_range_meters":38800,"station_id":"ce4bh0h2rcd13ifvqd40","pricing_plan_id":"cebpf4jnsgd1na2vs0mg"},{"bike_id":"2fbb8cae-bc83-4d9f-a595-dbdebd811247","system_id":"levelo_inurba_marseille","lat":43.27917,"lon":5.39591,"is_reserved":false,"is_disabled":false,"rental_uris":{"android":"levelo://app?vid=2fbb8cae-bc83-4d9f-a595-dbdebd811247","ios":"levelo://app?vid=2fbb8cae-bc83-4d9f-a595-dbdebd811247"},"vehicle_type_id":"4","last_reported":1738418822,"current_range_meters":38400,"station_id":"ce4bhf92rcd13ifvqf40","pricing_plan_id":"cebpf4jnsgd1na2vs0mg"},{"bike_id":"364eb652-69b2-4cd0-85cc-79efa41d2c35","system_id":"levelo_inurba_marseille","lat":43.2707,"lon":5.40238,"is_reserved":false,"is_disabled":false,"rental_uris":{"android":"levelo://app?vid=364eb652-69b2-4cd0-85cc-79efa41d2c35","ios":"levelo://app?vid=364eb652-69b2-4cd0-85cc-79efa41d2c35"},"vehicle_type_id":"4","last_reported":1738418822,"current_range_meters":4400,"station_id":"ce4bhk92rcd13ifvqgc0","pricing_plan_id":"cebpf4jnsgd1na2vs0mg"},{"bike_id":"8126c25c-c3a2-4cdd-a2e4-d380d215e724","system_id":"levelo_inurba_marseille","lat":43.26809,"lon":5.4026,"is_reserved":false,"is_disabled":false,"rental_uris":{"android":"levelo://app?vid=8126c25c-c3a2-4cdd-a2e4-d380d215e724","ios":"levelo://app?vid=8126c25c-c3a2-4cdd-a2e4-d380d215e724"},"vehicle_type_id":"4","last_reported":1738418822,"current_range_meters":38800,"station_id":"ce501612rcd8frsf0b60","pricing_plan_id":"cebpf4jnsgd1na2vs0mg"},{"bike_id":"2e717bd1-6f1e-4705-ac56-fd230708337b","system_id":"levelo_inurba_marseille","lat":43.28609,"lon":5.37058,"is_reserved":false,"is_disabled":false,"rental_uris":{"android":"levelo://app?vid=2e717bd1-6f1e-4705-ac56-fd230708337b","ios":"levelo://app?vid=2e717bd1-6f1e-4705-ac56-fd230708337b"},"vehicle_type_id":"4","last_reported":1738418822,"current_range_meters":37600,"station_id":"ce4bht12rcd13ifvqi60","pricing_plan_id":"cebpf4jnsgd1na2vs0mg"},{"bike_id":"e9abb5d2-2073-4162-b2dc-cfd7f7c30827","system_id":"levelo_inurba_marseille","lat":43.30148,"lon":5.39892,"is_reserved":false,"is_disabled":false,"rental_uris":{"android":"levelo://app?vid=e9abb5d2-2073-4162-b2dc-cfd7f7c30827","ios":"levelo://app?vid=e9abb5d2-2073-4162-b2dc-cfd7f7c30827"},"vehicle_type_id":"4","last_reported":1738418822,"current_range_meters":38800,"station_id":"ce4bh0h2rcd13ifvqd40","pricing_plan_id":"cebpf4jnsgd1na2vs0mg"},{"bike_id":"156cc169-3d70-4ef8-a3da-4744365f87b9","system_id":"levelo_inurba_marseille","lat":43.29574,"lon":5.39979,"is_reserved":false,"is_disabled":false,"rental_uris":{"android":"levelo://app?vid=156cc169-3d70-4ef8-a3da-4744365f87b9","ios":"levelo://app?vid=156cc169-3d70-4ef8-a3da-4744365f87b9"},"vehicle_type_id":"4","last_reported":1738418822,"current_range_meters":15200,"station_id":"ce4bh312rcd13ifvqdj0","pricing_plan_id":"cebpf4jnsgd1na2vs0mg"},{"bike_id":"e22167cc-1022-4d71-b95a-ffa6935d4cdb","system_id":"levelo_inurba_marseille","lat":43.3092,"lon":5.3685,"is_reserved":false,"is_disabled":false,"rental_uris":{"android":"levelo://app?vid=e22167cc-1022-4d71-b95a-ffa6935d4cdb","ios":"levelo://app?vid=e22167cc-1022-4d71-b95a-ffa6935d4cdb"},"vehicle_type_id":"4","last_reported":1738418822,"current_range_meters":16400,"station_id":"ce4bgn92rcd13ifvqbvg","pricing_plan_id":"cebpf4jnsgd1na2vs0mg"},{"bike_id":"1fbf3f20-0930-4b85-8900-561217e5a0eb","system_id":"levelo_inurba_marseille","lat":43.30415,"lon":5.41278,"is_reserved":false,"is_disabled":false,"rental_uris":{"android":"levelo://app?vid=1fbf3f20-0930-4b85-8900-561217e5a0eb","ios":"levelo://app?vid=1fbf3f20-0930-4b85-8900-561217e5a0eb"},"vehicle_type_id":"4","last_reported":1738418822,"current_range_meters":24800,"station_id":"ce4bhop2rcd13ifvqh8g","pricing_plan_id":"cebpf4jnsgd1na2vs0mg"},{"bike_id":"91d4d49e-3083-4bac-9de0-b5ec86415821","system_id":"levelo_inurba_marseille","lat":43.24638,"lon":5.38885,"is_reserved":false,"is_disabled":false,"rental_uris":{"android":"levelo://app?vid=91d4d49e-3083-4bac-9de0-b5ec86415821","ios":"levelo://app?vid=91d4d49e-3083-4bac-9de0-b5ec86415821"},"vehicle_type_id":"4","last_reported":1738418822,"current_range_meters":38800,"station_id":"ce4bhg12rcd13ifvqf60","pricing_plan_id":"cebpf4jnsgd1na2vs0mg"},{"bike_id":"b53cf432-0e47-4b61-a305-952377a64c88","system_id":"levelo_inurba_marseille","lat":43.3082,"lon":5.38148,"is_reserved":false,"is_disabled":true,"rental_uris":{"android":"levelo://app?vid=b53cf432-0e47-4b61-a305-952377a64c88","ios":"levelo://app?vid=b53cf432-0e47-4b61-a305-952377a64c88"},"vehicle_type_id":"4","last_reported":1738418822,"current_range_meters":38800,"station_id":"ce4bgt12rcd13ifvqce0","pricing_plan_id":"cebpf4jnsgd1na2vs0mg"},{"bike_id":"7b3e02c5-0818-4fc4-813c-4a89f3c75475","system_id":"levelo_inurba_marseille","lat":43.2803,"lon":5.39996,"is_reserved":false,"is_disabled":false,"rental_uris":{"android":"levelo://app?vid=7b3e02c5-0818-4fc4-813c-4a89f3c75475","ios":"levelo://app?vid=7b3e02c5-0818-4fc4-813c-4a89f3c75475"},"vehicle_type_id":"4","last_reported":1738418822,"current_range_meters":26000,"station_id":"ce4bho92rcd13ifvqh4g","pricing_plan_id":"cebpf4jnsgd1na2vs0mg"},{"bike_id":"13a71ca0-af90-4e61-a6f2-18a028732efe","system_id":"levelo_inurba_marseille","lat":43.25091,"lon":5.39514,"is_reserved":false,"is_disabled":false,"rental_uris":{"android":"levelo://app?vid=13a71ca0-af90-4e61-a6f2-18a028732efe","ios":"levelo://app?vid=13a71ca0-af90-4e61-a6f2-18a028732efe"},"vehicle_type_id":"4","last_reported":1738418822,"current_range_meters":32400,"station_id":"ce4bhm12rcd13ifvqgkg","pricing_plan_id":"cebpf4jnsgd1na2vs0mg"},{"bike_id":"73637413-8732-49c9-ab7d-ba037e3c1fcf","system_id":"levelo_inurba_marseille","lat":43.28004,"lon":5.40026,"is_reserved":false,"is_disabled":false,"rental_uris":{"android":"levelo://app?vid=73637413-8732-49c9-ab7d-ba037e3c1fcf","ios":"levelo://app?vid=73637413-8732-49c9-ab7d-ba037e3c1fcf"},"vehicle_type_id":"4","last_reported":1738418822,"current_range_meters":25200,"station_id":"ce4bho92rcd13ifvqh4g","pricing_plan_id":"cebpf4jnsgd1na2vs0mg"},{"bike_id":"62639998-392c-4993-867f-d77e10e80edb","system_id":"levelo_inurba_marseille","lat":43.283432,"lon":5.381029,"is_reserved":false,"is_disabled":false,"rental_uris":{"android":"levelo://app?vid=62639998-392c-4993-867f-d77e10e80edb","ios":"levelo://app?vid=62639998-392c-4993-867f-d77e10e80edb"},"vehicle_type_id":"4","last_reported":1738418822,"current_range_meters":35200,"station_id":"ce4bh412rcd13ifvqdr0","pricing_plan_id":"cebpf4jnsgd1na2vs0mg"},{"bike_id":"8784a30a-a330-4b05-89bf-f5db332a6fc3","system_id":"levelo_inurba_marseille","lat":43.287166,"lon":5.379412,"is_reserved":false,"is_disabled":false,"rental_uris":{"android":"levelo://app?vid=8784a30a-a330-4b05-89bf-f5db332a6fc3","ios":"levelo://app?vid=8784a30a-a330-4b05-89bf-f5db332a6fc3"},"vehicle_type_id":"4","last_reported":1738418822,"current_range_meters":35600,"station_id":"ce4bh9p2rcd13ifvqec0","pricing_plan_id":"cebpf4jnsgd1na2vs0mg"},{"bike_id":"616ab4bd-85f5-4e17-a0e2-7b3122796fc9","system_id":"levelo_inurba_marseille","lat":43.2962,"lon":5.37161,"is_reserved":false,"is_disabled":false,"rental_uris":{"android":"levelo://app?vid=616ab4bd-85f5-4e17-a0e2-7b3122796fc9","ios":"levelo://app?vid=616ab4bd-85f5-4e17-a0e2-7b3122796fc9"},"vehicle_type_id":"4","last_reported":1738418822,"current_range_meters":26800,"station_id":"ce4bgnh2rcd13ifvqc0g","pricing_plan_id":"cebpf4jnsgd1na2vs0mg"},{"bike_id":"cca9da95-e0e4-4a1a-9fa6-232e9cbcc558","system_id":"levelo_inurba_marseille","lat":43.30554,"lon":5.36543,"is_reserved":false,"is_disabled":false,"rental_uris":{"android":"levelo://app?vid=cca9da95-e0e4-4a1a-9fa6-232e9cbcc558","ios":"levelo://app?vid=cca9da95-e0e4-4a1a-9fa6-232e9cbcc558"},"vehicle_type_id":"4","last_reported":1738418822,"current_range_meters":28000,"station_id":"ce4bgs12rcd13ifvqcag","pricing_plan_id":"cebpf4jnsgd1na2vs0mg"},{"bike_id":"95c81e68-ef32-4021-93de-845e30ec1588","system_id":"levelo_inurba_marseille","lat":43.28929,"lon":5.384,"is_reserved":false,"is_disabled":false,"rental_uris":{"android":"levelo://app?vid=95c81e68-ef32-4021-93de-845e30ec1588","ios":"levelo://app?vid=95c81e68-ef32-4021-93de-845e30ec1588"},"vehicle_type_id":"4","last_reported":1738418822,"current_range_meters":27600,"station_id":"ce4bh612rcd13ifvqe6g","pricing_plan_id":"cebpf4jnsgd1na2vs0mg"},{"bike_id":"cc47836a-b908-432f-8e0e-2f793407f141","system_id":"levelo_inurba_marseille","lat":43.22935,"lon":5.35384,"is_reserved":false,"is_disabled":false,"rental_uris":{"android":"levelo://app?vid=cc47836a-b908-432f-8e0e-2f793407f141","ios":"levelo://app?vid=cc47836a-b908-432f-8e0e-2f793407f141"},"vehicle_type_id":"4","last_reported":1738418822,"current_range_meters":6400,"station_id":"cpo3532slgdg3j2ikp40","pricing_plan_id":"cebpf4jnsgd1na2vs0mg"},{"bike_id":"b7b8b73a-0c1c-45e0-b545-54a4098ad50c","system_id":"levelo_inurba_marseille","lat":43.27548,"lon":5.38409,"is_reserved":false,"is_disabled":true,"rental_uris":{"android":"levelo://app?vid=b7b8b73a-0c1c-45e0-b545-54a4098ad50c","ios":"levelo://app?vid=b7b8b73a-0c1c-45e0-b545-54a4098ad50c"},"vehicle_type_id":"4","last_reported":1738418822,"current_range_meters":35600,"station_id":"ce4bhh92rcd13ifvqfi0","pricing_plan_id":"cebpf4jnsgd1na2vs0mg"},{"bike_id":"eccf3e1b-479c-430a-81d9-b77c081460ec","system_id":"levelo_inurba_marseille","lat":43.31755,"lon":5.39019,"is_reserved":false,"is_disabled":true,"rental_uris":{"android":"levelo://app?vid=eccf3e1b-479c-430a-81d9-b77c081460ec","ios":"levelo://app?vid=eccf3e1b-479c-430a-81d9-b77c081460ec"},"vehicle_type_id":"4","last_reported":1738418822,"current_range_meters":14800,"station_id":"ce4bhqp2rcd13ifvqhng","pricing_plan_id":"cebpf4jnsgd1na2vs0mg"},{"bike_id":"d71d72c3-6ab1-418b-a776-4e0c7c5959e7","system_id":"levelo_inurba_marseille","lat":43.25819,"lon":5.39412,"is_reserved":false,"is_disabled":false,"rental_uris":{"android":"levelo://app?vid=d71d72c3-6ab1-418b-a776-4e0c7c5959e7","ios":"levelo://app?vid=d71d72c3-6ab1-418b-a776-4e0c7c5959e7"},"vehicle_type_id":"4","last_reported":1738418822,"current_range_meters":38800,"station_id":"ce4bhip2rcd13ifvqft0","pricing_plan_id":"cebpf4jnsgd1na2vs0mg"},{"bike_id":"0edaa840-e8b0-4f2c-ad98-c123355c590c","system_id":"levelo_inurba_marseille","lat":43.26072,"lon":5.3939,"is_reserved":false,"is_disabled":true,"rental_uris":{"android":"levelo://app?vid=0edaa840-e8b0-4f2c-ad98-c123355c590c","ios":"levelo://app?vid=0edaa840-e8b0-4f2c-ad98-c123355c590c"},"vehicle_type_id":"4","last_reported":1738418822,"current_range_meters":34800,"station_id":"ce4bhh92rcd13ifvqfj0","pricing_plan_id":"cebpf4jnsgd1na2vs0mg"},{"bike_id":"0c8187f5-988a-4457-bbb8-4cf908ac31d3","system_id":"levelo_inurba_marseille","lat":43.25842,"lon":5.39418,"is_reserved":false,"is_disabled":false,"rental_uris":{"android":"levelo://app?vid=0c8187f5-988a-4457-bbb8-4cf908ac31d3","ios":"levelo://app?vid=0c8187f5-988a-4457-bbb8-4cf908ac31d3"},"vehicle_type_id":"4","last_reported":1738418822,"current_range_meters":18000,"station_id":"ce4bhip2rcd13ifvqft0","pricing_plan_id":"cebpf4jnsgd1na2vs0mg"},{"bike_id":"3ebc5ba0-5190-4a29-bb96-e3a4b494961c","system_id":"levelo_inurba_marseille","lat":43.24553,"lon":5.39532,"is_reserved":false,"is_disabled":false,"rental_uris":{"android":"levelo://app?vid=3ebc5ba0-5190-4a29-bb96-e3a4b494961c","ios":"levelo://app?vid=3ebc5ba0-5190-4a29-bb96-e3a4b494961c"},"vehicle_type_id":"4","last_reported":1738418822,"current_range_meters":17200,"station_id":"ce4bhlp2rcd13ifvqgjg","pricing_plan_id":"cebpf4jnsgd1na2vs0mg"},{"bike_id":"66761650-6861-4b43-a923-1a20129be620","system_id":"levelo_inurba_marseille","lat":43.29591,"lon":5.37508,"is_reserved":false,"is_disabled":false,"rental_uris":{"android":"levelo://app?vid=66761650-6861-4b43-a923-1a20129be620","ios":"levelo://app?vid=66761650-6861-4b43-a923-1a20129be620"},"vehicle_type_id":"4","last_reported":1738418822,"current_range_meters":26800,"station_id":"ce4bgh92rcd13ifvqb50","pricing_plan_id":"cebpf4jnsgd1na2vs0mg"},{"bike_id":"a6075a34-f94f-4f52-9ebc-598d8926e2ba","system_id":"levelo_inurba_marseille","lat":43.29267,"lon":5.36845,"is_reserved":false,"is_disabled":false,"rental_uris":{"android":"levelo://app?vid=a6075a34-f94f-4f52-9ebc-598d8926e2ba","ios":"levelo://app?vid=a6075a34-f94f-4f52-9ebc-598d8926e2ba"},"vehicle_type_id":"4","last_reported":1738418822,"current_range_meters":38800,"station_id":"ce4bhbp2rcd13ifvqesg","pricing_plan_id":"cebpf4jnsgd1na2vs0mg"},{"bike_id":"b25a237e-8fa7-408a-989d-2188dcfb7b09","system_id":"levelo_inurba_marseille","lat":43.30465,"lon":5.37904,"is_reserved":false,"is_disabled":false,"rental_uris":{"android":"levelo://app?vid=b25a237e-8fa7-408a-989d-2188dcfb7b09","ios":"levelo://app?vid=b25a237e-8fa7-408a-989d-2188dcfb7b09"},"vehicle_type_id":"4","last_reported":1738418822,"current_range_meters":15200,"station_id":"ce4bgup2rcd13ifvqcn0","pricing_plan_id":"cebpf4jnsgd1na2vs0mg"},{"bike_id":"9ecfc8d4-291d-4236-afb2-b6d9f6efb723","system_id":"levelo_inurba_marseille","lat":43.31216,"lon":5.36845,"is_reserved":false,"is_disabled":false,"rental_uris":{"android":"levelo://app?vid=9ecfc8d4-291d-4236-afb2-b6d9f6efb723","ios":"levelo://app?vid=9ecfc8d4-291d-4236-afb2-b6d9f6efb723"},"vehicle_type_id":"4","last_reported":1738418822,"current_range_meters":39200,"station_id":"ce4bgl92rcd13ifvqbq0","pricing_plan_id":"cebpf4jnsgd1na2vs0mg"},{"bike_id":"606053f9-3da2-4594-b4df-8e24b5fa812c","system_id":"levelo_inurba_marseille","lat":43.26937,"lon":5.40247,"is_reserved":false,"is_disabled":false,"rental_uris":{"android":"levelo://app?vid=606053f9-3da2-4594-b4df-8e24b5fa812c","ios":"levelo://app?vid=606053f9-3da2-4594-b4df-8e24b5fa812c"},"vehicle_type_id":"4","last_reported":1738418822,"current_range_meters":35600,"station_id":"cjm6bp8fraef2m0cb0m0","pricing_plan_id":"cebpf4jnsgd1na2vs0mg"},{"bike_id":"db1aa567-1d04-4a26-a1f5-0de8ad3269f7","system_id":"levelo_inurba_marseille","lat":43.26556,"lon":5.37285,"is_reserved":false,"is_disabled":false,"rental_uris":{"android":"levelo://app?vid=db1aa567-1d04-4a26-a1f5-0de8ad3269f7","ios":"levelo://app?vid=db1aa567-1d04-4a26-a1f5-0de8ad3269f7"},"vehicle_type_id":"4","last_reported":1738418822,"current_range_meters":38000,"station_id":"ce4bhg12rcd13ifvqf70","pricing_plan_id":"cebpf4jnsgd1na2vs0mg"},{"bike_id":"ffa8a266-adfd-4e30-82b3-ab3356d6a295","system_id":"levelo_inurba_marseille","lat":43.2957,"lon":5.37514,"is_reserved":false,"is_disabled":false,"rental_uris":{"android":"levelo://app?vid=ffa8a266-adfd-4e30-82b3-ab3356d6a295","ios":"levelo://app?vid=ffa8a266-adfd-4e30-82b3-ab3356d6a295"},"vehicle_type_id":"4","last_reported":1738418822,"current_range_meters":32000,"station_id":"ce4bgh92rcd13ifvqb50","pricing_plan_id":"cebpf4jnsgd1na2vs0mg"},{"bike_id":"9d482136-ce86-42bd-8af6-c747f6e74a73","system_id":"levelo_inurba_marseille","lat":43.27635,"lon":5.36112,"is_reserved":false,"is_disabled":false,"rental_uris":{"android":"levelo://app?vid=9d482136-ce86-42bd-8af6-c747f6e74a73","ios":"levelo://app?vid=9d482136-ce86-42bd-8af6-c747f6e74a73"},"vehicle_type_id":"4","last_reported":1738418822,"current_range_meters":6800,"station_id":"ce4bgj92rcd13ifvqbe0","pricing_plan_id":"cebpf4jnsgd1na2vs0mg"},{"bike_id":"3ff013f6-d8e5-414b-9dd9-2a1727ca2ddf","system_id":"levelo_inurba_marseille","lat":43.24078,"lon":5.37758,"is_reserved":false,"is_disabled":false,"rental_uris":{"android":"levelo://app?vid=3ff013f6-d8e5-414b-9dd9-2a1727ca2ddf","ios":"levelo://app?vid=3ff013f6-d8e5-414b-9dd9-2a1727ca2ddf"},"vehicle_type_id":"4","last_reported":1738418822,"current_range_meters":12800,"station_id":"ce4bhnp2rcd13ifvqgvg","pricing_plan_id":"cebpf4jnsgd1na2vs0mg"},{"bike_id":"26f0c763-2955-4920-a58a-d28d6a489be6","system_id":"levelo_inurba_marseille","lat":43.3049,"lon":5.37906,"is_reserved":false,"is_disabled":false,"rental_uris":{"android":"levelo://app?vid=26f0c763-2955-4920-a58a-d28d6a489be6","ios":"levelo://app?vid=26f0c763-2955-4920-a58a-d28d6a489be6"},"vehicle_type_id":"4","last_reported":1738418822,"current_range_meters":28400,"station_id":"ce4bgup2rcd13ifvqcn0","pricing_plan_id":"cebpf4jnsgd1na2vs0mg"},{"bike_id":"ccb14f96-c600-4289-9163-893262461446","system_id":"levelo_inurba_marseille","lat":43.3033,"lon":5.37747,"is_reserved":false,"is_disabled":false,"rental_uris":{"android":"levelo://app?vid=ccb14f96-c600-4289-9163-893262461446","ios":"levelo://app?vid=ccb14f96-c600-4289-9163-893262461446"},"vehicle_type_id":"4","last_reported":1738418822,"current_range_meters":37600,"station_id":"ce4bguh2rcd13ifvqcj0","pricing_plan_id":"cebpf4jnsgd1na2vs0mg"},{"bike_id":"095e5291-f842-4478-bc34-3769cd441c0c","system_id":"levelo_inurba_marseille","lat":43.28157,"lon":5.42631,"is_reserved":false,"is_disabled":false,"rental_uris":{"android":"levelo://app?vid=095e5291-f842-4478-bc34-3769cd441c0c","ios":"levelo://app?vid=095e5291-f842-4478-bc34-3769cd441c0c"},"vehicle_type_id":"4","last_reported":1738418822,"current_range_meters":18800,"station_id":"ce4bhnh2rcd13ifvqgug","pricing_plan_id":"cebpf4jnsgd1na2vs0mg"},{"bike_id":"d691d2e1-f164-46e3-bf1d-7ce2ea9a6382","system_id":"levelo_inurba_marseille","lat":43.29901,"lon":5.38129,"is_reserved":false,"is_disabled":false,"rental_uris":{"android":"levelo://app?vid=d691d2e1-f164-46e3-bf1d-7ce2ea9a6382","ios":"levelo://app?vid=d691d2e1-f164-46e3-bf1d-7ce2ea9a6382"},"vehicle_type_id":"4","last_reported":1738418822,"current_range_meters":16000,"station_id":"ce4bgj12rcd13ifvqbc0","pricing_plan_id":"cebpf4jnsgd1na2vs0mg"},{"bike_id":"9f7cbc3c-6e0b-4442-8c70-64c0b2a1452e","system_id":"levelo_inurba_marseille","lat":43.23064,"lon":5.35504,"is_reserved":false,"is_disabled":false,"rental_uris":{"android":"levelo://app?vid=9f7cbc3c-6e0b-4442-8c70-64c0b2a1452e","ios":"levelo://app?vid=9f7cbc3c-6e0b-4442-8c70-64c0b2a1452e"},"vehicle_type_id":"4","last_reported":1738418822,"current_range_meters":36800,"station_id":"cpo3342slgdg3j2ifvpg","pricing_plan_id":"cebpf4jnsgd1na2vs0mg"},{"bike_id":"c8a3a0ed-dff2-4f3c-87dc-2e6b47b1ad28","system_id":"levelo_inurba_marseille","lat":43.337444,"lon":5.374475,"is_reserved":false,"is_disabled":true,"rental_uris":{"android":"levelo://app?vid=c8a3a0ed-dff2-4f3c-87dc-2e6b47b1ad28","ios":"levelo://app?vid=c8a3a0ed-dff2-4f3c-87dc-2e6b47b1ad28"},"vehicle_type_id":"4","last_reported":1738418822,"current_range_meters":0,"station_id":"","pricing_plan_id":"cebpf4jnsgd1na2vs0mg"},{"bike_id":"8afdb513-b832-4957-b577-864c8e16af85","system_id":"levelo_inurba_marseille","lat":43.30123,"lon":5.37418,"is_reserved":false,"is_disabled":false,"rental_uris":{"android":"levelo://app?vid=8afdb513-b832-4957-b577-864c8e16af85","ios":"levelo://app?vid=8afdb513-b832-4957-b577-864c8e16af85"},"vehicle_type_id":"4","last_reported":1738418822,"current_range_meters":38800,"station_id":"ce4bgs92rcd13ifvqcc0","pricing_plan_id":"cebpf4jnsgd1na2vs0mg"},{"bike_id":"c31d014f-122a-4ce5-a451-3ed2550c24db","system_id":"levelo_inurba_marseille","lat":43.27207,"lon":5.3915,"is_reserved":false,"is_disabled":false,"rental_uris":{"android":"levelo://app?vid=c31d014f-122a-4ce5-a451-3ed2550c24db","ios":"levelo://app?vid=c31d014f-122a-4ce5-a451-3ed2550c24db"},"vehicle_type_id":"4","last_reported":1738418822,"current_range_meters":38800,"station_id":"ce4bhhp2rcd13ifvqfm0","pricing_plan_id":"cebpf4jnsgd1na2vs0mg"},{"bike_id":"9191983c-f500-4e34-800a-5c4da4f130cb","system_id":"levelo_inurba_marseille","lat":43.27955,"lon":5.41048,"is_reserved":false,"is_disabled":false,"rental_uris":{"android":"levelo://app?vid=9191983c-f500-4e34-800a-5c4da4f130cb","ios":"levelo://app?vid=9191983c-f500-4e34-800a-5c4da4f130cb"},"vehicle_type_id":"4","last_reported":1738418822,"current_range_meters":36800,"station_id":"ce4bhnp2rcd13ifvqh0g","pricing_plan_id":"cebpf4jnsgd1na2vs0mg"},{"bike_id":"caaf94cc-d5a5-4f54-af0c-57a90c24c095","system_id":"levelo_inurba_marseille","lat":43.26683,"lon":5.38263,"is_reserved":false,"is_disabled":false,"rental_uris":{"android":"levelo://app?vid=caaf94cc-d5a5-4f54-af0c-57a90c24c095","ios":"levelo://app?vid=caaf94cc-d5a5-4f54-af0c-57a90c24c095"},"vehicle_type_id":"4","last_reported":1738418822,"current_range_meters":28000,"station_id":"ce4bhg92rcd13ifvqf90","pricing_plan_id":"cebpf4jnsgd1na2vs0mg"},{"bike_id":"49c9271e-6488-43ce-a64d-362891e609ce","system_id":"levelo_inurba_marseille","lat":43.30601,"lon":5.37219,"is_reserved":false,"is_disabled":false,"rental_uris":{"android":"levelo://app?vid=49c9271e-6488-43ce-a64d-362891e609ce","ios":"levelo://app?vid=49c9271e-6488-43ce-a64d-362891e609ce"},"vehicle_type_id":"4","last_reported":1738418822,"current_range_meters":25200,"station_id":"ce4bgqh2rcd13ifvqc4g","pricing_plan_id":"cebpf4jnsgd1na2vs0mg"},{"bike_id":"5299667e-c55c-45d5-a50f-9880a25cdbb8","system_id":"levelo_inurba_marseille","lat":43.29686,"lon":5.37302,"is_reserved":false,"is_disabled":false,"rental_uris":{"android":"levelo://app?vid=5299667e-c55c-45d5-a50f-9880a25cdbb8","ios":"levelo://app?vid=5299667e-c55c-45d5-a50f-9880a25cdbb8"},"vehicle_type_id":"4","last_reported":1738418822,"current_range_meters":38800,"station_id":"ce4bgk12rcd13ifvqbj0","pricing_plan_id":"cebpf4jnsgd1na2vs0mg"},{"bike_id":"57c75320-a131-485e-ac18-b0464df1957d","system_id":"levelo_inurba_marseille","lat":43.28868,"lon":5.3589,"is_reserved":false,"is_disabled":false,"rental_uris":{"android":"levelo://app?vid=57c75320-a131-485e-ac18-b0464df1957d","ios":"levelo://app?vid=57c75320-a131-485e-ac18-b0464df1957d"},"vehicle_type_id":"4","last_reported":1738418822,"current_range_meters":36000,"station_id":"ce4bhb12rcd13ifvqem0","pricing_plan_id":"cebpf4jnsgd1na2vs0mg"},{"bike_id":"f1bfdf4b-124f-42bc-9b18-96977a7c3671","system_id":"levelo_inurba_marseille","lat":43.29804,"lon":5.38097,"is_reserved":false,"is_disabled":false,"rental_uris":{"android":"levelo://app?vid=f1bfdf4b-124f-42bc-9b18-96977a7c3671","ios":"levelo://app?vid=f1bfdf4b-124f-42bc-9b18-96977a7c3671"},"vehicle_type_id":"4","last_reported":1738418822,"current_range_meters":3200,"station_id":"ce4bgip2rcd13ifvqbb0","pricing_plan_id":"cebpf4jnsgd1na2vs0mg"},{"bike_id":"32802d31-82e5-49aa-928e-45336ddb5e58","system_id":"levelo_inurba_marseille","lat":43.25001,"lon":5.38944,"is_reserved":false,"is_disabled":false,"rental_uris":{"android":"levelo://app?vid=32802d31-82e5-49aa-928e-45336ddb5e58","ios":"levelo://app?vid=32802d31-82e5-49aa-928e-45336ddb5e58"},"vehicle_type_id":"4","last_reported":1738418822,"current_range_meters":38800,"station_id":"ce4bhgp2rcd13ifvqfd0","pricing_plan_id":"cebpf4jnsgd1na2vs0mg"},{"bike_id":"d06240a3-8895-42e8-9212-5c068d44e9d2","system_id":"levelo_inurba_marseille","lat":43.2865,"lon":5.35097,"is_reserved":false,"is_disabled":false,"rental_uris":{"android":"levelo://app?vid=d06240a3-8895-42e8-9212-5c068d44e9d2","ios":"levelo://app?vid=d06240a3-8895-42e8-9212-5c068d44e9d2"},"vehicle_type_id":"4","last_reported":1738418822,"current_range_meters":23200,"station_id":"ce4bhch2rcd13ifvqeug","pricing_plan_id":"cebpf4jnsgd1na2vs0mg"},{"bike_id":"040177a9-ca65-4fa4-be02-ee46e8ee4cff","system_id":"levelo_inurba_marseille","lat":43.24386,"lon":5.37058,"is_reserved":false,"is_disabled":false,"rental_uris":{"android":"levelo://app?vid=040177a9-ca65-4fa4-be02-ee46e8ee4cff","ios":"levelo://app?vid=040177a9-ca65-4fa4-be02-ee46e8ee4cff"},"vehicle_type_id":"4","last_reported":1738418822,"current_range_meters":38800,"station_id":"ce4bhhh2rcd13ifvqfk0","pricing_plan_id":"cebpf4jnsgd1na2vs0mg"},{"bike_id":"c6ad9228-2f33-41f3-a929-9e0a226fedef","system_id":"levelo_inurba_marseille","lat":43.24551,"lon":5.39524,"is_reserved":false,"is_disabled":false,"rental_uris":{"android":"levelo://app?vid=c6ad9228-2f33-41f3-a929-9e0a226fedef","ios":"levelo://app?vid=c6ad9228-2f33-41f3-a929-9e0a226fedef"},"vehicle_type_id":"4","last_reported":1738418822,"current_range_meters":38800,"station_id":"ce4bhlp2rcd13ifvqgjg","pricing_plan_id":"cebpf4jnsgd1na2vs0mg"},{"bike_id":"bfbca602-1888-4b78-9113-628f4753d5cb","system_id":"levelo_inurba_marseille","lat":43.30598,"lon":5.39354,"is_reserved":false,"is_disabled":false,"rental_uris":{"android":"levelo://app?vid=bfbca602-1888-4b78-9113-628f4753d5cb","ios":"levelo://app?vid=bfbca602-1888-4b78-9113-628f4753d5cb"},"vehicle_type_id":"4","last_reported":1738418822,"current_range_meters":26800,"station_id":"ce4bh0p2rcd13ifvqd80","pricing_plan_id":"cebpf4jnsgd1na2vs0mg"},{"bike_id":"06e40ee8-ee21-4fa9-9bf1-15cf9519c817","system_id":"levelo_inurba_marseille","lat":43.28939,"lon":5.36422,"is_reserved":false,"is_disabled":false,"rental_uris":{"android":"levelo://app?vid=06e40ee8-ee21-4fa9-9bf1-15cf9519c817","ios":"levelo://app?vid=06e40ee8-ee21-4fa9-9bf1-15cf9519c817"},"vehicle_type_id":"4","last_reported":1738418822,"current_range_meters":37600,"station_id":"ce4bhc92rcd13ifvqetg","pricing_plan_id":"cebpf4jnsgd1na2vs0mg"},{"bike_id":"c5048eb2-6277-419a-948c-7b66355a5f49","system_id":"levelo_inurba_marseille","lat":43.29784,"lon":5.39335,"is_reserved":false,"is_disabled":false,"rental_uris":{"android":"levelo://app?vid=c5048eb2-6277-419a-948c-7b66355a5f49","ios":"levelo://app?vid=c5048eb2-6277-419a-948c-7b66355a5f49"},"vehicle_type_id":"4","last_reported":1738418822,"current_range_meters":35600,"station_id":"chh1huq6cuj3fo74tm60","pricing_plan_id":"cebpf4jnsgd1na2vs0mg"},{"bike_id":"fc1bae8c-2cf2-46b4-870b-e54d8e4cfcc9","system_id":"levelo_inurba_marseille","lat":43.25114,"lon":5.40321,"is_reserved":false,"is_disabled":false,"rental_uris":{"android":"levelo://app?vid=fc1bae8c-2cf2-46b4-870b-e54d8e4cfcc9","ios":"levelo://app?vid=fc1bae8c-2cf2-46b4-870b-e54d8e4cfcc9"},"vehicle_type_id":"4","last_reported":1738418822,"current_range_meters":38800,"station_id":"ce4bhlh2rcd13ifvqgig","pricing_plan_id":"cebpf4jnsgd1na2vs0mg"},{"bike_id":"cfdc3e36-f1ca-4859-b324-931a3f1626bd","system_id":"levelo_inurba_marseille","lat":43.25564,"lon":5.38225,"is_reserved":false,"is_disabled":false,"rental_uris":{"android":"levelo://app?vid=cfdc3e36-f1ca-4859-b324-931a3f1626bd","ios":"levelo://app?vid=cfdc3e36-f1ca-4859-b324-931a3f1626bd"},"vehicle_type_id":"4","last_reported":1738418822,"current_range_meters":38800,"station_id":"ce4bhih2rcd13ifvqfs0","pricing_plan_id":"cebpf4jnsgd1na2vs0mg"},{"bike_id":"b01bb5b3-7849-4f8d-a115-ff3fc460c0c2","system_id":"levelo_inurba_marseille","lat":43.31992,"lon":5.38145,"is_reserved":false,"is_disabled":false,"rental_uris":{"android":"levelo://app?vid=b01bb5b3-7849-4f8d-a115-ff3fc460c0c2","ios":"levelo://app?vid=b01bb5b3-7849-4f8d-a115-ff3fc460c0c2"},"vehicle_type_id":"4","last_reported":1738418822,"current_range_meters":38800,"station_id":"ce4bhr12rcd13ifvqhpg","pricing_plan_id":"cebpf4jnsgd1na2vs0mg"},{"bike_id":"29f86acd-aa50-4395-9377-730a470ce878","system_id":"levelo_inurba_marseille","lat":43.30807,"lon":5.43514,"is_reserved":false,"is_disabled":false,"rental_uris":{"android":"levelo://app?vid=29f86acd-aa50-4395-9377-730a470ce878","ios":"levelo://app?vid=29f86acd-aa50-4395-9377-730a470ce878"},"vehicle_type_id":"4","last_reported":1738418822,"current_range_meters":7200,"station_id":"ce4bhph2rcd13ifvqheg","pricing_plan_id":"cebpf4jnsgd1na2vs0mg"},{"bike_id":"39f7b83f-d9fe-4541-9853-6b7ea8cb6c34","system_id":"levelo_inurba_marseille","lat":43.28607,"lon":5.37065,"is_reserved":false,"is_disabled":false,"rental_uris":{"android":"levelo://app?vid=39f7b83f-d9fe-4541-9853-6b7ea8cb6c34","ios":"levelo://app?vid=39f7b83f-d9fe-4541-9853-6b7ea8cb6c34"},"vehicle_type_id":"4","last_reported":1738418822,"current_range_meters":20400,"station_id":"ce4bht12rcd13ifvqi60","pricing_plan_id":"cebpf4jnsgd1na2vs0mg"},{"bike_id":"99ada82f-98f9-42c9-be08-39ee133997ac","system_id":"levelo_inurba_marseille","lat":43.28627,"lon":5.35096,"is_reserved":false,"is_disabled":false,"rental_uris":{"android":"levelo://app?vid=99ada82f-98f9-42c9-be08-39ee133997ac","ios":"levelo://app?vid=99ada82f-98f9-42c9-be08-39ee133997ac"},"vehicle_type_id":"4","last_reported":1738418822,"current_range_meters":19600,"station_id":"ce4bhch2rcd13ifvqeug","pricing_plan_id":"cebpf4jnsgd1na2vs0mg"},{"bike_id":"25048176-2ad7-4e65-a88b-0eccae87ab8e","system_id":"levelo_inurba_marseille","lat":43.29278,"lon":5.36857,"is_reserved":false,"is_disabled":false,"rental_uris":{"android":"levelo://app?vid=25048176-2ad7-4e65-a88b-0eccae87ab8e","ios":"levelo://app?vid=25048176-2ad7-4e65-a88b-0eccae87ab8e"},"vehicle_type_id":"4","last_reported":1738418822,"current_range_meters":36800,"station_id":"ce4bhbp2rcd13ifvqesg","pricing_plan_id":"cebpf4jnsgd1na2vs0mg"},{"bike_id":"b9eb1ddc-de7a-4091-baa0-0bfef462a03a","system_id":"levelo_inurba_marseille","lat":43.27911,"lon":5.37967,"is_reserved":false,"is_disabled":false,"rental_uris":{"android":"levelo://app?vid=b9eb1ddc-de7a-4091-baa0-0bfef462a03a","ios":"levelo://app?vid=b9eb1ddc-de7a-4091-baa0-0bfef462a03a"},"vehicle_type_id":"4","last_reported":1738418822,"current_range_meters":37600,"station_id":"ce4bhf92rcd13ifvqf50","pricing_plan_id":"cebpf4jnsgd1na2vs0mg"},{"bike_id":"29e433c5-f86e-40bf-8cf3-374b024916b0","system_id":"levelo_inurba_marseille","lat":43.32296,"lon":5.38269,"is_reserved":false,"is_disabled":false,"rental_uris":{"android":"levelo://app?vid=29e433c5-f86e-40bf-8cf3-374b024916b0","ios":"levelo://app?vid=29e433c5-f86e-40bf-8cf3-374b024916b0"},"vehicle_type_id":"4","last_reported":1738418822,"current_range_meters":38800,"station_id":"ce4bhr12rcd13ifvqhqg","pricing_plan_id":"cebpf4jnsgd1na2vs0mg"},{"bike_id":"0e015226-4528-4598-a4b8-26eb7be5cfeb","system_id":"levelo_inurba_marseille","lat":43.24056,"lon":5.37739,"is_reserved":false,"is_disabled":false,"rental_uris":{"android":"levelo://app?vid=0e015226-4528-4598-a4b8-26eb7be5cfeb","ios":"levelo://app?vid=0e015226-4528-4598-a4b8-26eb7be5cfeb"},"vehicle_type_id":"4","last_reported":1738418822,"current_range_meters":38800,"station_id":"ce4bhnp2rcd13ifvqgvg","pricing_plan_id":"cebpf4jnsgd1na2vs0mg"},{"bike_id":"83db8c5b-5dba-40da-abc5-7020451a3aea","system_id":"levelo_inurba_marseille","lat":43.30946,"lon":5.3902,"is_reserved":false,"is_disabled":false,"rental_uris":{"android":"levelo://app?vid=83db8c5b-5dba-40da-abc5-7020451a3aea","ios":"levelo://app?vid=83db8c5b-5dba-40da-abc5-7020451a3aea"},"vehicle_type_id":"4","last_reported":1738418822,"current_range_meters":34000,"station_id":"ce4bgup2rcd13ifvqco0","pricing_plan_id":"cebpf4jnsgd1na2vs0mg"},{"bike_id":"59e98682-9355-45ca-aaa0-29b37b791d30","system_id":"levelo_inurba_marseille","lat":43.29563,"lon":5.42284,"is_reserved":false,"is_disabled":false,"rental_uris":{"android":"levelo://app?vid=59e98682-9355-45ca-aaa0-29b37b791d30","ios":"levelo://app?vid=59e98682-9355-45ca-aaa0-29b37b791d30"},"vehicle_type_id":"4","last_reported":1738418822,"current_range_meters":7200,"station_id":"ce4bhph2rcd13ifvqhdg","pricing_plan_id":"cebpf4jnsgd1na2vs0mg"},{"bike_id":"aeb89edc-6039-48aa-9242-aad0fb69d5db","system_id":"levelo_inurba_marseille","lat":43.27202,"lon":5.39172,"is_reserved":false,"is_disabled":false,"rental_uris":{"android":"levelo://app?vid=aeb89edc-6039-48aa-9242-aad0fb69d5db","ios":"levelo://app?vid=aeb89edc-6039-48aa-9242-aad0fb69d5db"},"vehicle_type_id":"4","last_reported":1738418822,"current_range_meters":22000,"station_id":"ce4bhhp2rcd13ifvqfm0","pricing_plan_id":"cebpf4jnsgd1na2vs0mg"},{"bike_id":"e2c49145-d80d-4c68-8184-02b30e52c755","system_id":"levelo_inurba_marseille","lat":43.30783,"lon":5.4348,"is_reserved":false,"is_disabled":false,"rental_uris":{"android":"levelo://app?vid=e2c49145-d80d-4c68-8184-02b30e52c755","ios":"levelo://app?vid=e2c49145-d80d-4c68-8184-02b30e52c755"},"vehicle_type_id":"4","last_reported":1738418822,"current_range_meters":24800,"station_id":"ce4bhph2rcd13ifvqheg","pricing_plan_id":"cebpf4jnsgd1na2vs0mg"},{"bike_id":"d979d8d2-ec65-47af-9229-e4270aab279a","system_id":"levelo_inurba_marseille","lat":43.23068,"lon":5.35501,"is_reserved":false,"is_disabled":false,"rental_uris":{"android":"levelo://app?vid=d979d8d2-ec65-47af-9229-e4270aab279a","ios":"levelo://app?vid=d979d8d2-ec65-47af-9229-e4270aab279a"},"vehicle_type_id":"4","last_reported":1738418822,"current_range_meters":6000,"station_id":"cpo3342slgdg3j2ifvpg","pricing_plan_id":"cebpf4jnsgd1na2vs0mg"},{"bike_id":"1cf31538-5f18-467f-8725-232cdef4f899","system_id":"levelo_inurba_marseille","lat":43.29841,"lon":5.36274,"is_reserved":false,"is_disabled":false,"rental_uris":{"android":"levelo://app?vid=1cf31538-5f18-467f-8725-232cdef4f899","ios":"levelo://app?vid=1cf31538-5f18-467f-8725-232cdef4f899"},"vehicle_type_id":"4","last_reported":1738418822,"current_range_meters":38400,"station_id":"ce4bgpp2rcd13ifvqc3g","pricing_plan_id":"cebpf4jnsgd1na2vs0mg"},{"bike_id":"0a799aef-c450-4e16-9417-256c141f5048","system_id":"levelo_inurba_marseille","lat":43.25121,"lon":5.40315,"is_reserved":false,"is_disabled":false,"rental_uris":{"android":"levelo://app?vid=0a799aef-c450-4e16-9417-256c141f5048","ios":"levelo://app?vid=0a799aef-c450-4e16-9417-256c141f5048"},"vehicle_type_id":"4","last_reported":1738418822,"current_range_meters":36800,"station_id":"ce4bhlh2rcd13ifvqgig","pricing_plan_id":"cebpf4jnsgd1na2vs0mg"},{"bike_id":"553b078b-b4de-4088-bb93-c6d7c7ca5338","system_id":"levelo_inurba_marseille","lat":43.29978,"lon":5.38499,"is_reserved":false,"is_disabled":false,"rental_uris":{"android":"levelo://app?vid=553b078b-b4de-4088-bb93-c6d7c7ca5338","ios":"levelo://app?vid=553b078b-b4de-4088-bb93-c6d7c7ca5338"},"vehicle_type_id":"4","last_reported":1738418822,"current_range_meters":25600,"station_id":"ce4bgj92rcd13ifvqbd0","pricing_plan_id":"cebpf4jnsgd1na2vs0mg"},{"bike_id":"5e247067-8eb1-4b0c-b753-3edbc9392c23","system_id":"levelo_inurba_marseille","lat":43.26805,"lon":5.402667,"is_reserved":false,"is_disabled":false,"rental_uris":{"android":"levelo://app?vid=5e247067-8eb1-4b0c-b753-3edbc9392c23","ios":"levelo://app?vid=5e247067-8eb1-4b0c-b753-3edbc9392c23"},"vehicle_type_id":"4","last_reported":1738418822,"current_range_meters":8800,"station_id":"ce501612rcd8frsf0b60","pricing_plan_id":"cebpf4jnsgd1na2vs0mg"},{"bike_id":"1c41cbaf-3730-490a-8f3f-73ef6adf0876","system_id":"levelo_inurba_marseille","lat":43.29628,"lon":5.40596,"is_reserved":false,"is_disabled":false,"rental_uris":{"android":"levelo://app?vid=1c41cbaf-3730-490a-8f3f-73ef6adf0876","ios":"levelo://app?vid=1c41cbaf-3730-490a-8f3f-73ef6adf0876"},"vehicle_type_id":"4","last_reported":1738418822,"current_range_meters":6800,"station_id":"ce4bh0h2rcd13ifvqd60","pricing_plan_id":"cebpf4jnsgd1na2vs0mg"},{"bike_id":"5a21ca27-2b54-405c-b817-21b4abedc86f","system_id":"levelo_inurba_marseille","lat":43.30657,"lon":5.40082,"is_reserved":false,"is_disabled":false,"rental_uris":{"android":"levelo://app?vid=5a21ca27-2b54-405c-b817-21b4abedc86f","ios":"levelo://app?vid=5a21ca27-2b54-405c-b817-21b4abedc86f"},"vehicle_type_id":"4","last_reported":1738418822,"current_range_meters":28800,"station_id":"ce4bh112rcd13ifvqda0","pricing_plan_id":"cebpf4jnsgd1na2vs0mg"},{"bike_id":"90d8247b-1174-449d-9eb0-b1f3c78024c6","system_id":"levelo_inurba_marseille","lat":43.27998,"lon":5.41664,"is_reserved":false,"is_disabled":false,"rental_uris":{"android":"levelo://app?vid=90d8247b-1174-449d-9eb0-b1f3c78024c6","ios":"levelo://app?vid=90d8247b-1174-449d-9eb0-b1f3c78024c6"},"vehicle_type_id":"4","last_reported":1738418822,"current_range_meters":32400,"station_id":"ce4bho12rcd13ifvqh1g","pricing_plan_id":"cebpf4jnsgd1na2vs0mg"},{"bike_id":"71ab66a6-71e5-47e5-81dd-111cf003d83e","system_id":"levelo_inurba_marseille","lat":43.30601,"lon":5.37214,"is_reserved":false,"is_disabled":false,"rental_uris":{"android":"levelo://app?vid=71ab66a6-71e5-47e5-81dd-111cf003d83e","ios":"levelo://app?vid=71ab66a6-71e5-47e5-81dd-111cf003d83e"},"vehicle_type_id":"4","last_reported":1738418822,"current_range_meters":37600,"station_id":"ce4bgqh2rcd13ifvqc4g","pricing_plan_id":"cebpf4jnsgd1na2vs0mg"},{"bike_id":"f99e91c4-2330-4795-bfe7-3495ca9ba92c","system_id":"levelo_inurba_marseille","lat":43.28945,"lon":5.3663,"is_reserved":false,"is_disabled":true,"rental_uris":{"android":"levelo://app?vid=f99e91c4-2330-4795-bfe7-3495ca9ba92c","ios":"levelo://app?vid=f99e91c4-2330-4795-bfe7-3495ca9ba92c"},"vehicle_type_id":"4","last_reported":1738418822,"current_range_meters":32800,"station_id":"ce4bhap2rcd13ifvqek0","pricing_plan_id":"cebpf4jnsgd1na2vs0mg"},{"bike_id":"55bcfd08-58f2-4f77-9e1d-5a8df3c15b85","system_id":"levelo_inurba_marseille","lat":43.29789,"lon":5.3809,"is_reserved":false,"is_disabled":false,"rental_uris":{"android":"levelo://app?vid=55bcfd08-58f2-4f77-9e1d-5a8df3c15b85","ios":"levelo://app?vid=55bcfd08-58f2-4f77-9e1d-5a8df3c15b85"},"vehicle_type_id":"4","last_reported":1738418822,"current_range_meters":36400,"station_id":"ce4bgip2rcd13ifvqbb0","pricing_plan_id":"cebpf4jnsgd1na2vs0mg"},{"bike_id":"d9fbff0d-b567-4a83-be5c-ae3e28d5cc5f","system_id":"levelo_inurba_marseille","lat":43.29791,"lon":5.40394,"is_reserved":false,"is_disabled":false,"rental_uris":{"android":"levelo://app?vid=d9fbff0d-b567-4a83-be5c-ae3e28d5cc5f","ios":"levelo://app?vid=d9fbff0d-b567-4a83-be5c-ae3e28d5cc5f"},"vehicle_type_id":"4","last_reported":1738418822,"current_range_meters":24000,"station_id":"ce4bh112rcd13ifvqd90","pricing_plan_id":"cebpf4jnsgd1na2vs0mg"},{"bike_id":"d8b1c3f9-ff6e-4179-8423-4ba0d2a2af0e","system_id":"levelo_inurba_marseille","lat":43.3373,"lon":5.39178,"is_reserved":false,"is_disabled":false,"rental_uris":{"android":"levelo://app?vid=d8b1c3f9-ff6e-4179-8423-4ba0d2a2af0e","ios":"levelo://app?vid=d8b1c3f9-ff6e-4179-8423-4ba0d2a2af0e"},"vehicle_type_id":"4","last_reported":1738418822,"current_range_meters":38800,"station_id":"ce4bhr92rcd13ifvqhsg","pricing_plan_id":"cebpf4jnsgd1na2vs0mg"},{"bike_id":"aa9a502a-bd2c-4129-b0a1-12c36b93e0b4","system_id":"levelo_inurba_marseille","lat":43.2482,"lon":5.37441,"is_reserved":false,"is_disabled":false,"rental_uris":{"android":"levelo://app?vid=aa9a502a-bd2c-4129-b0a1-12c36b93e0b4","ios":"levelo://app?vid=aa9a502a-bd2c-4129-b0a1-12c36b93e0b4"},"vehicle_type_id":"4","last_reported":1738418822,"current_range_meters":38400,"station_id":"ce4bhgh2rcd13ifvqfb0","pricing_plan_id":"cebpf4jnsgd1na2vs0mg"},{"bike_id":"23d607b4-9cdd-4843-8952-4da90f95e291","system_id":"levelo_inurba_marseille","lat":43.24169,"lon":5.39709,"is_reserved":false,"is_disabled":false,"rental_uris":{"android":"levelo://app?vid=23d607b4-9cdd-4843-8952-4da90f95e291","ios":"levelo://app?vid=23d607b4-9cdd-4843-8952-4da90f95e291"},"vehicle_type_id":"4","last_reported":1738418822,"current_range_meters":29600,"station_id":"ce4bhn12rcd13ifvqgpg","pricing_plan_id":"cebpf4jnsgd1na2vs0mg"},{"bike_id":"626d12b4-773a-4abe-ad35-7692b6f5d735","system_id":"levelo_inurba_marseille","lat":43.2893,"lon":5.36628,"is_reserved":false,"is_disabled":false,"rental_uris":{"android":"levelo://app?vid=626d12b4-773a-4abe-ad35-7692b6f5d735","ios":"levelo://app?vid=626d12b4-773a-4abe-ad35-7692b6f5d735"},"vehicle_type_id":"4","last_reported":1738418822,"current_range_meters":20400,"station_id":"ce4bhap2rcd13ifvqek0","pricing_plan_id":"cebpf4jnsgd1na2vs0mg"},{"bike_id":"37a316fb-b3fd-47c4-b337-ae3ed2613770","system_id":"levelo_inurba_marseille","lat":43.25851,"lon":5.39906,"is_reserved":false,"is_disabled":false,"rental_uris":{"android":"levelo://app?vid=37a316fb-b3fd-47c4-b337-ae3ed2613770","ios":"levelo://app?vid=37a316fb-b3fd-47c4-b337-ae3ed2613770"},"vehicle_type_id":"4","last_reported":1738418822,"current_range_meters":36000,"station_id":"ce4bhl92rcd13ifvqghg","pricing_plan_id":"cebpf4jnsgd1na2vs0mg"},{"bike_id":"96cdde99-07e1-4e29-ada8-0165767ba907","system_id":"levelo_inurba_marseille","lat":43.27944,"lon":5.41036,"is_reserved":false,"is_disabled":false,"rental_uris":{"android":"levelo://app?vid=96cdde99-07e1-4e29-ada8-0165767ba907","ios":"levelo://app?vid=96cdde99-07e1-4e29-ada8-0165767ba907"},"vehicle_type_id":"4","last_reported":1738418822,"current_range_meters":14400,"station_id":"ce4bhnp2rcd13ifvqh0g","pricing_plan_id":"cebpf4jnsgd1na2vs0mg"},{"bike_id":"3e8ac81e-fafa-4918-bfdd-b6bf11718524","system_id":"levelo_inurba_marseille","lat":43.29046,"lon":5.35939,"is_reserved":false,"is_disabled":false,"rental_uris":{"android":"levelo://app?vid=3e8ac81e-fafa-4918-bfdd-b6bf11718524","ios":"levelo://app?vid=3e8ac81e-fafa-4918-bfdd-b6bf11718524"},"vehicle_type_id":"4","last_reported":1738418822,"current_range_meters":38800,"station_id":"ce4bha92rcd13ifvqeg0","pricing_plan_id":"cebpf4jnsgd1na2vs0mg"},{"bike_id":"2047e938-57e3-4375-958a-69a4e97a2c7d","system_id":"levelo_inurba_marseille","lat":43.2321,"lon":5.39992,"is_reserved":false,"is_disabled":true,"rental_uris":{"android":"levelo://app?vid=2047e938-57e3-4375-958a-69a4e97a2c7d","ios":"levelo://app?vid=2047e938-57e3-4375-958a-69a4e97a2c7d"},"vehicle_type_id":"4","last_reported":1738418822,"current_range_meters":9200,"station_id":"ce4bhn12rcd13ifvqgqg","pricing_plan_id":"cebpf4jnsgd1na2vs0mg"},{"bike_id":"9a5dd714-85fe-466b-a1c2-d9dcf5c309b2","system_id":"levelo_inurba_marseille","lat":43.28619,"lon":5.35115,"is_reserved":false,"is_disabled":false,"rental_uris":{"android":"levelo://app?vid=9a5dd714-85fe-466b-a1c2-d9dcf5c309b2","ios":"levelo://app?vid=9a5dd714-85fe-466b-a1c2-d9dcf5c309b2"},"vehicle_type_id":"4","last_reported":1738418822,"current_range_meters":11200,"station_id":"ce4bhch2rcd13ifvqeug","pricing_plan_id":"cebpf4jnsgd1na2vs0mg"},{"bike_id":"fa7fe4a9-29d6-4ebf-8f79-2665f37910aa","system_id":"levelo_inurba_marseille","lat":43.28083,"lon":5.39654,"is_reserved":false,"is_disabled":false,"rental_uris":{"android":"levelo://app?vid=fa7fe4a9-29d6-4ebf-8f79-2665f37910aa","ios":"levelo://app?vid=fa7fe4a9-29d6-4ebf-8f79-2665f37910aa"},"vehicle_type_id":"4","last_reported":1738418822,"current_range_meters":18000,"station_id":"ce4bho12rcd13ifvqh2g","pricing_plan_id":"cebpf4jnsgd1na2vs0mg"},{"bike_id":"4b12e0b6-d8ba-4f01-82fa-ef4aa8f46029","system_id":"levelo_inurba_marseille","lat":43.29596,"lon":5.37697,"is_reserved":false,"is_disabled":false,"rental_uris":{"android":"levelo://app?vid=4b12e0b6-d8ba-4f01-82fa-ef4aa8f46029","ios":"levelo://app?vid=4b12e0b6-d8ba-4f01-82fa-ef4aa8f46029"},"vehicle_type_id":"4","last_reported":1738418822,"current_range_meters":27200,"station_id":"ce4bgi92rcd13ifvqb90","pricing_plan_id":"cebpf4jnsgd1na2vs0mg"},{"bike_id":"5d63a514-54f9-4e35-9795-6f81c69b315d","system_id":"levelo_inurba_marseille","lat":43.30592,"lon":5.39361,"is_reserved":false,"is_disabled":false,"rental_uris":{"android":"levelo://app?vid=5d63a514-54f9-4e35-9795-6f81c69b315d","ios":"levelo://app?vid=5d63a514-54f9-4e35-9795-6f81c69b315d"},"vehicle_type_id":"4","last_reported":1738418822,"current_range_meters":26800,"station_id":"ce4bh0p2rcd13ifvqd80","pricing_plan_id":"cebpf4jnsgd1na2vs0mg"},{"bike_id":"606424c7-9f9d-4a68-8911-71079c9162c6","system_id":"levelo_inurba_marseille","lat":43.29908,"lon":5.38159,"is_reserved":false,"is_disabled":false,"rental_uris":{"android":"levelo://app?vid=606424c7-9f9d-4a68-8911-71079c9162c6","ios":"levelo://app?vid=606424c7-9f9d-4a68-8911-71079c9162c6"},"vehicle_type_id":"4","last_reported":1738418822,"current_range_meters":34800,"station_id":"ce4bgj12rcd13ifvqbc0","pricing_plan_id":"cebpf4jnsgd1na2vs0mg"},{"bike_id":"0fc8ef95-5e15-4825-b91c-cf0a986a3e9e","system_id":"levelo_inurba_marseille","lat":43.24179,"lon":5.39731,"is_reserved":false,"is_disabled":false,"rental_uris":{"android":"levelo://app?vid=0fc8ef95-5e15-4825-b91c-cf0a986a3e9e","ios":"levelo://app?vid=0fc8ef95-5e15-4825-b91c-cf0a986a3e9e"},"vehicle_type_id":"4","last_reported":1738418822,"current_range_meters":20400,"station_id":"ce4bhn12rcd13ifvqgpg","pricing_plan_id":"cebpf4jnsgd1na2vs0mg"},{"bike_id":"3a60ebc0-dac7-4b3e-a8c5-4699cca32d17","system_id":"levelo_inurba_marseille","lat":43.30823,"lon":5.43531,"is_reserved":false,"is_disabled":false,"rental_uris":{"android":"levelo://app?vid=3a60ebc0-dac7-4b3e-a8c5-4699cca32d17","ios":"levelo://app?vid=3a60ebc0-dac7-4b3e-a8c5-4699cca32d17"},"vehicle_type_id":"4","last_reported":1738418822,"current_range_meters":34000,"station_id":"ce4bhph2rcd13ifvqheg","pricing_plan_id":"cebpf4jnsgd1na2vs0mg"},{"bike_id":"7518cb61-bd73-4848-a0ed-6d0cb54c2844","system_id":"levelo_inurba_marseille","lat":43.300952,"lon":5.390892,"is_reserved":false,"is_disabled":false,"rental_uris":{"android":"levelo://app?vid=7518cb61-bd73-4848-a0ed-6d0cb54c2844","ios":"levelo://app?vid=7518cb61-bd73-4848-a0ed-6d0cb54c2844"},"vehicle_type_id":"4","last_reported":1738418822,"current_range_meters":10000,"station_id":"ce4bh192rcd13ifvqdb0","pricing_plan_id":"cebpf4jnsgd1na2vs0mg"},{"bike_id":"c9bd489c-cfea-4f67-b873-dfb6c5c512d2","system_id":"levelo_inurba_marseille","lat":43.28727,"lon":5.37928,"is_reserved":false,"is_disabled":false,"rental_uris":{"android":"levelo://app?vid=c9bd489c-cfea-4f67-b873-dfb6c5c512d2","ios":"levelo://app?vid=c9bd489c-cfea-4f67-b873-dfb6c5c512d2"},"vehicle_type_id":"4","last_reported":1738418822,"current_range_meters":38800,"station_id":"ce4bh9p2rcd13ifvqec0","pricing_plan_id":"cebpf4jnsgd1na2vs0mg"},{"bike_id":"e3b54e92-6670-483a-a8d2-3d31bdb091c1","system_id":"levelo_inurba_marseille","lat":43.2545,"lon":5.37665,"is_reserved":false,"is_disabled":false,"rental_uris":{"android":"levelo://app?vid=e3b54e92-6670-483a-a8d2-3d31bdb091c1","ios":"levelo://app?vid=e3b54e92-6670-483a-a8d2-3d31bdb091c1"},"vehicle_type_id":"4","last_reported":1738418822,"current_range_meters":38800,"station_id":"ce4bhh12rcd13ifvqff0","pricing_plan_id":"cebpf4jnsgd1na2vs0mg"},{"bike_id":"0c8d479f-1533-480d-95ac-c1c17898a918","system_id":"levelo_inurba_marseille","lat":43.30167,"lon":5.38087,"is_reserved":false,"is_disabled":false,"rental_uris":{"android":"levelo://app?vid=0c8d479f-1533-480d-95ac-c1c17898a918","ios":"levelo://app?vid=0c8d479f-1533-480d-95ac-c1c17898a918"},"vehicle_type_id":"4","last_reported":1738418822,"current_range_meters":38800,"station_id":"ce4bgjp2rcd13ifvqbh0","pricing_plan_id":"cebpf4jnsgd1na2vs0mg"},{"bike_id":"65b976fa-99d7-4d87-9a38-da2f8e99bbbf","system_id":"levelo_inurba_marseille","lat":43.28724,"lon":5.3608,"is_reserved":false,"is_disabled":false,"rental_uris":{"android":"levelo://app?vid=65b976fa-99d7-4d87-9a38-da2f8e99bbbf","ios":"levelo://app?vid=65b976fa-99d7-4d87-9a38-da2f8e99bbbf"},"vehicle_type_id":"4","last_reported":1738418822,"current_range_meters":38800,"station_id":"cki0cbj6b192h4jlfktg","pricing_plan_id":"cebpf4jnsgd1na2vs0mg"},{"bike_id":"56b09552-4219-4565-a734-8e0fd6e4802e","system_id":"levelo_inurba_marseille","lat":43.26201,"lon":5.37425,"is_reserved":false,"is_disabled":false,"rental_uris":{"android":"levelo://app?vid=56b09552-4219-4565-a734-8e0fd6e4802e","ios":"levelo://app?vid=56b09552-4219-4565-a734-8e0fd6e4802e"},"vehicle_type_id":"4","last_reported":1738418822,"current_range_meters":34000,"station_id":"ce4bhgp2rcd13ifvqfc0","pricing_plan_id":"cebpf4jnsgd1na2vs0mg"},{"bike_id":"362981de-ee9c-4202-9582-1217e540e245","system_id":"levelo_inurba_marseille","lat":43.29855,"lon":5.36304,"is_reserved":false,"is_disabled":false,"rental_uris":{"android":"levelo://app?vid=362981de-ee9c-4202-9582-1217e540e245","ios":"levelo://app?vid=362981de-ee9c-4202-9582-1217e540e245"},"vehicle_type_id":"4","last_reported":1738418822,"current_range_meters":32000,"station_id":"ce4bgpp2rcd13ifvqc3g","pricing_plan_id":"cebpf4jnsgd1na2vs0mg"},{"bike_id":"9aee4606-c150-4ae9-8663-a503bb7126aa","system_id":"levelo_inurba_marseille","lat":43.32365,"lon":5.3888,"is_reserved":false,"is_disabled":false,"rental_uris":{"android":"levelo://app?vid=9aee4606-c150-4ae9-8663-a503bb7126aa","ios":"levelo://app?vid=9aee4606-c150-4ae9-8663-a503bb7126aa"},"vehicle_type_id":"4","last_reported":1738418822,"current_range_meters":25200,"station_id":"ce4bhqp2rcd13ifvqhog","pricing_plan_id":"cebpf4jnsgd1na2vs0mg"},{"bike_id":"ab2c796a-c23b-4a3a-9534-777b873d6a05","system_id":"levelo_inurba_marseille","lat":43.24174,"lon":5.36414,"is_reserved":false,"is_disabled":false,"rental_uris":{"android":"levelo://app?vid=ab2c796a-c23b-4a3a-9534-777b873d6a05","ios":"levelo://app?vid=ab2c796a-c23b-4a3a-9534-777b873d6a05"},"vehicle_type_id":"4","last_reported":1738418822,"current_range_meters":32800,"station_id":"cpo36qri1sfpv3e86is0","pricing_plan_id":"cebpf4jnsgd1na2vs0mg"},{"bike_id":"1b857ce7-a20c-4770-9790-7268dce5d355","system_id":"levelo_inurba_marseille","lat":43.28469,"lon":5.38425,"is_reserved":false,"is_disabled":true,"rental_uris":{"android":"levelo://app?vid=1b857ce7-a20c-4770-9790-7268dce5d355","ios":"levelo://app?vid=1b857ce7-a20c-4770-9790-7268dce5d355"},"vehicle_type_id":"4","last_reported":1738418822,"current_range_meters":0,"station_id":"ce4bh512rcd13ifvqe3g","pricing_plan_id":"cebpf4jnsgd1na2vs0mg"},{"bike_id":"5828b83b-f7c6-4d80-a783-c5c9cb673d67","system_id":"levelo_inurba_marseille","lat":43.30152,"lon":5.37418,"is_reserved":false,"is_disabled":false,"rental_uris":{"android":"levelo://app?vid=5828b83b-f7c6-4d80-a783-c5c9cb673d67","ios":"levelo://app?vid=5828b83b-f7c6-4d80-a783-c5c9cb673d67"},"vehicle_type_id":"4","last_reported":1738418822,"current_range_meters":38800,"station_id":"ce4bgs92rcd13ifvqcc0","pricing_plan_id":"cebpf4jnsgd1na2vs0mg"},{"bike_id":"58feef8f-17b5-470d-8151-c7a13f0dbe24","system_id":"levelo_inurba_marseille","lat":43.28425,"lon":5.37549,"is_reserved":false,"is_disabled":true,"rental_uris":{"android":"levelo://app?vid=58feef8f-17b5-470d-8151-c7a13f0dbe24","ios":"levelo://app?vid=58feef8f-17b5-470d-8151-c7a13f0dbe24"},"vehicle_type_id":"4","last_reported":1738418822,"current_range_meters":0,"station_id":"ce4bh412rcd13ifvqds0","pricing_plan_id":"cebpf4jnsgd1na2vs0mg"},{"bike_id":"8d716cf9-0140-474d-99c9-eaa29a86bf63","system_id":"levelo_inurba_marseille","lat":43.284151,"lon":5.375236,"is_reserved":false,"is_disabled":false,"rental_uris":{"android":"levelo://app?vid=8d716cf9-0140-474d-99c9-eaa29a86bf63","ios":"levelo://app?vid=8d716cf9-0140-474d-99c9-eaa29a86bf63"},"vehicle_type_id":"4","last_reported":1738418822,"current_range_meters":10000,"station_id":"ce4bh412rcd13ifvqds0","pricing_plan_id":"cebpf4jnsgd1na2vs0mg"},{"bike_id":"7b1972b5-4724-4ee7-8ef3-3d52a3645f58","system_id":"levelo_inurba_marseille","lat":43.28154,"lon":5.42628,"is_reserved":false,"is_disabled":false,"rental_uris":{"android":"levelo://app?vid=7b1972b5-4724-4ee7-8ef3-3d52a3645f58","ios":"levelo://app?vid=7b1972b5-4724-4ee7-8ef3-3d52a3645f58"},"vehicle_type_id":"4","last_reported":1738418822,"current_range_meters":30000,"station_id":"ce4bhnh2rcd13ifvqgug","pricing_plan_id":"cebpf4jnsgd1na2vs0mg"},{"bike_id":"758c7df1-b289-413f-9578-cb267f266c2c","system_id":"levelo_inurba_marseille","lat":43.28407,"lon":5.37528,"is_reserved":false,"is_disabled":false,"rental_uris":{"android":"levelo://app?vid=758c7df1-b289-413f-9578-cb267f266c2c","ios":"levelo://app?vid=758c7df1-b289-413f-9578-cb267f266c2c"},"vehicle_type_id":"4","last_reported":1738418822,"current_range_meters":27600,"station_id":"ce4bh412rcd13ifvqds0","pricing_plan_id":"cebpf4jnsgd1na2vs0mg"},{"bike_id":"31d6578b-56d5-4737-8e9f-2fff3fbec577","system_id":"levelo_inurba_marseille","lat":43.30798,"lon":5.4352,"is_reserved":false,"is_disabled":false,"rental_uris":{"android":"levelo://app?vid=31d6578b-56d5-4737-8e9f-2fff3fbec577","ios":"levelo://app?vid=31d6578b-56d5-4737-8e9f-2fff3fbec577"},"vehicle_type_id":"4","last_reported":1738418822,"current_range_meters":11600,"station_id":"ce4bhph2rcd13ifvqheg","pricing_plan_id":"cebpf4jnsgd1na2vs0mg"},{"bike_id":"65c530b5-2aaa-424b-a792-20fcaf1cc087","system_id":"levelo_inurba_marseille","lat":43.2862,"lon":5.351,"is_reserved":false,"is_disabled":false,"rental_uris":{"android":"levelo://app?vid=65c530b5-2aaa-424b-a792-20fcaf1cc087","ios":"levelo://app?vid=65c530b5-2aaa-424b-a792-20fcaf1cc087"},"vehicle_type_id":"4","last_reported":1738418822,"current_range_meters":16000,"station_id":"ce4bhch2rcd13ifvqeug","pricing_plan_id":"cebpf4jnsgd1na2vs0mg"},{"bike_id":"76d13e22-1416-4f78-9d17-31fe44ca60d9","system_id":"levelo_inurba_marseille","lat":43.28621,"lon":5.35096,"is_reserved":false,"is_disabled":false,"rental_uris":{"android":"levelo://app?vid=76d13e22-1416-4f78-9d17-31fe44ca60d9","ios":"levelo://app?vid=76d13e22-1416-4f78-9d17-31fe44ca60d9"},"vehicle_type_id":"4","last_reported":1738418822,"current_range_meters":33600,"station_id":"ce4bhch2rcd13ifvqeug","pricing_plan_id":"cebpf4jnsgd1na2vs0mg"},{"bike_id":"e1d4a2f1-c484-42e0-9232-e98e59dd1624","system_id":"levelo_inurba_marseille","lat":43.29034,"lon":5.38647,"is_reserved":false,"is_disabled":true,"rental_uris":{"android":"levelo://app?vid=e1d4a2f1-c484-42e0-9232-e98e59dd1624","ios":"levelo://app?vid=e1d4a2f1-c484-42e0-9232-e98e59dd1624"},"vehicle_type_id":"4","last_reported":1738418822,"current_range_meters":38800,"station_id":"ce4bh4p2rcd13ifvqe0g","pricing_plan_id":"cebpf4jnsgd1na2vs0mg"},{"bike_id":"f5192a48-f127-416f-ac25-5dcd6cb43014","system_id":"levelo_inurba_marseille","lat":43.31075,"lon":5.4243,"is_reserved":false,"is_disabled":false,"rental_uris":{"android":"levelo://app?vid=f5192a48-f127-416f-ac25-5dcd6cb43014","ios":"levelo://app?vid=f5192a48-f127-416f-ac25-5dcd6cb43014"},"vehicle_type_id":"4","last_reported":1738418822,"current_range_meters":37600,"station_id":"ce4bhp92rcd13ifvqhag","pricing_plan_id":"cebpf4jnsgd1na2vs0mg"},{"bike_id":"e8e1f7c6-d773-4c38-bfcc-4a6d773355ce","system_id":"levelo_inurba_marseille","lat":43.22925,"lon":5.35344,"is_reserved":false,"is_disabled":false,"rental_uris":{"android":"levelo://app?vid=e8e1f7c6-d773-4c38-bfcc-4a6d773355ce","ios":"levelo://app?vid=e8e1f7c6-d773-4c38-bfcc-4a6d773355ce"},"vehicle_type_id":"4","last_reported":1738418822,"current_range_meters":38800,"station_id":"cpo3532slgdg3j2ikp40","pricing_plan_id":"cebpf4jnsgd1na2vs0mg"},{"bike_id":"733b7bcb-ba9f-4409-a2b8-d3c12db43da4","system_id":"levelo_inurba_marseille","lat":43.30142,"lon":5.39871,"is_reserved":false,"is_disabled":false,"rental_uris":{"android":"levelo://app?vid=733b7bcb-ba9f-4409-a2b8-d3c12db43da4","ios":"levelo://app?vid=733b7bcb-ba9f-4409-a2b8-d3c12db43da4"},"vehicle_type_id":"4","last_reported":1738418822,"current_range_meters":38000,"station_id":"ce4bh0h2rcd13ifvqd40","pricing_plan_id":"cebpf4jnsgd1na2vs0mg"},{"bike_id":"3d5cd3e3-9417-45ac-91cc-715af0568bfc","system_id":"levelo_inurba_marseille","lat":43.258671,"lon":5.399084,"is_reserved":false,"is_disabled":false,"rental_uris":{"android":"levelo://app?vid=3d5cd3e3-9417-45ac-91cc-715af0568bfc","ios":"levelo://app?vid=3d5cd3e3-9417-45ac-91cc-715af0568bfc"},"vehicle_type_id":"4","last_reported":1738418822,"current_range_meters":38800,"station_id":"ce4bhl92rcd13ifvqghg","pricing_plan_id":"cebpf4jnsgd1na2vs0mg"},{"bike_id":"ea6c894d-2016-4405-87c2-24a4ddf729fd","system_id":"levelo_inurba_marseille","lat":43.26217,"lon":5.37448,"is_reserved":false,"is_disabled":false,"rental_uris":{"android":"levelo://app?vid=ea6c894d-2016-4405-87c2-24a4ddf729fd","ios":"levelo://app?vid=ea6c894d-2016-4405-87c2-24a4ddf729fd"},"vehicle_type_id":"4","last_reported":1738418822,"current_range_meters":38800,"station_id":"ce4bhgp2rcd13ifvqfc0","pricing_plan_id":"cebpf4jnsgd1na2vs0mg"},{"bike_id":"2e272985-03f3-4d70-b5f4-3095b1246ac8","system_id":"levelo_inurba_marseille","lat":43.26557,"lon":5.37282,"is_reserved":false,"is_disabled":false,"rental_uris":{"android":"levelo://app?vid=2e272985-03f3-4d70-b5f4-3095b1246ac8","ios":"levelo://app?vid=2e272985-03f3-4d70-b5f4-3095b1246ac8"},"vehicle_type_id":"4","last_reported":1738418822,"current_range_meters":14400,"station_id":"ce4bhg12rcd13ifvqf70","pricing_plan_id":"cebpf4jnsgd1na2vs0mg"},{"bike_id":"446cfbd8-380d-483d-82ba-61ff47e31d05","system_id":"levelo_inurba_marseille","lat":43.29245,"lon":5.38446,"is_reserved":false,"is_disabled":true,"rental_uris":{"android":"levelo://app?vid=446cfbd8-380d-483d-82ba-61ff47e31d05","ios":"levelo://app?vid=446cfbd8-380d-483d-82ba-61ff47e31d05"},"vehicle_type_id":"4","last_reported":1738418822,"current_range_meters":35200,"station_id":"ce4bh692rcd13ifvqea0","pricing_plan_id":"cebpf4jnsgd1na2vs0mg"},{"bike_id":"36803453-70ed-4f12-b998-8eb3fefb5705","system_id":"levelo_inurba_marseille","lat":43.27999,"lon":5.41665,"is_reserved":false,"is_disabled":false,"rental_uris":{"android":"levelo://app?vid=36803453-70ed-4f12-b998-8eb3fefb5705","ios":"levelo://app?vid=36803453-70ed-4f12-b998-8eb3fefb5705"},"vehicle_type_id":"4","last_reported":1738418822,"current_range_meters":25600,"station_id":"ce4bho12rcd13ifvqh1g","pricing_plan_id":"cebpf4jnsgd1na2vs0mg"},{"bike_id":"3d2ad4eb-c3df-4be8-82a3-1864655479da","system_id":"levelo_inurba_marseille","lat":43.2862,"lon":5.35103,"is_reserved":false,"is_disabled":false,"rental_uris":{"android":"levelo://app?vid=3d2ad4eb-c3df-4be8-82a3-1864655479da","ios":"levelo://app?vid=3d2ad4eb-c3df-4be8-82a3-1864655479da"},"vehicle_type_id":"4","last_reported":1738418822,"current_range_meters":38800,"station_id":"ce4bhch2rcd13ifvqeug","pricing_plan_id":"cebpf4jnsgd1na2vs0mg"},{"bike_id":"ed33b6aa-dfb5-44e4-a811-5ab344514921","system_id":"levelo_inurba_marseille","lat":43.23195,"lon":5.35558,"is_reserved":false,"is_disabled":false,"rental_uris":{"android":"levelo://app?vid=ed33b6aa-dfb5-44e4-a811-5ab344514921","ios":"levelo://app?vid=ed33b6aa-dfb5-44e4-a811-5ab344514921"},"vehicle_type_id":"4","last_reported":1738418822,"current_range_meters":30800,"station_id":"ce4bhu92rcd13ifvqi70","pricing_plan_id":"cebpf4jnsgd1na2vs0mg"},{"bike_id":"0ab11052-6474-4543-a6a5-fbe9f08121fd","system_id":"levelo_inurba_marseille","lat":43.3116,"lon":5.36899,"is_reserved":false,"is_disabled":false,"rental_uris":{"android":"levelo://app?vid=0ab11052-6474-4543-a6a5-fbe9f08121fd","ios":"levelo://app?vid=0ab11052-6474-4543-a6a5-fbe9f08121fd"},"vehicle_type_id":"4","last_reported":1738418822,"current_range_meters":27200,"station_id":"","pricing_plan_id":"cebpf4jnsgd1na2vs0mg"},{"bike_id":"7095d643-c88c-4380-b0d5-45028aa7507f","system_id":"levelo_inurba_marseille","lat":43.24663,"lon":5.38897,"is_reserved":false,"is_disabled":false,"rental_uris":{"android":"levelo://app?vid=7095d643-c88c-4380-b0d5-45028aa7507f","ios":"levelo://app?vid=7095d643-c88c-4380-b0d5-45028aa7507f"},"vehicle_type_id":"4","last_reported":1738418822,"current_range_meters":23200,"station_id":"ce4bhg12rcd13ifvqf60","pricing_plan_id":"cebpf4jnsgd1na2vs0mg"},{"bike_id":"ee01584b-91dc-4725-8d05-c52095149a8c","system_id":"levelo_inurba_marseille","lat":43.276277,"lon":5.361058,"is_reserved":false,"is_disabled":false,"rental_uris":{"android":"levelo://app?vid=ee01584b-91dc-4725-8d05-c52095149a8c","ios":"levelo://app?vid=ee01584b-91dc-4725-8d05-c52095149a8c"},"vehicle_type_id":"4","last_reported":1738418822,"current_range_meters":16400,"station_id":"ce4bgj92rcd13ifvqbe0","pricing_plan_id":"cebpf4jnsgd1na2vs0mg"},{"bike_id":"2b22b5ed-c4c8-4bfa-9d5a-6c94e076fef4","system_id":"levelo_inurba_marseille","lat":43.30456,"lon":5.37893,"is_reserved":false,"is_disabled":false,"rental_uris":{"android":"levelo://app?vid=2b22b5ed-c4c8-4bfa-9d5a-6c94e076fef4","ios":"levelo://app?vid=2b22b5ed-c4c8-4bfa-9d5a-6c94e076fef4"},"vehicle_type_id":"4","last_reported":1738418822,"current_range_meters":16400,"station_id":"ce4bgup2rcd13ifvqcn0","pricing_plan_id":"cebpf4jnsgd1na2vs0mg"},{"bike_id":"71f34f72-d3b7-46a5-9bd4-1fe057b3152f","system_id":"levelo_inurba_marseille","lat":43.22936,"lon":5.35379,"is_reserved":false,"is_disabled":false,"rental_uris":{"android":"levelo://app?vid=71f34f72-d3b7-46a5-9bd4-1fe057b3152f","ios":"levelo://app?vid=71f34f72-d3b7-46a5-9bd4-1fe057b3152f"},"vehicle_type_id":"4","last_reported":1738418822,"current_range_meters":38800,"station_id":"cpo3532slgdg3j2ikp40","pricing_plan_id":"cebpf4jnsgd1na2vs0mg"},{"bike_id":"ba1b16dd-09e2-4536-8411-babb750bcb3c","system_id":"levelo_inurba_marseille","lat":43.23185,"lon":5.39999,"is_reserved":false,"is_disabled":true,"rental_uris":{"android":"levelo://app?vid=ba1b16dd-09e2-4536-8411-babb750bcb3c","ios":"levelo://app?vid=ba1b16dd-09e2-4536-8411-babb750bcb3c"},"vehicle_type_id":"4","last_reported":1738418822,"current_range_meters":27200,"station_id":"ce4bhn12rcd13ifvqgqg","pricing_plan_id":"cebpf4jnsgd1na2vs0mg"},{"bike_id":"20029bdd-9f9c-4ff9-86e4-5ba6ed30f46a","system_id":"levelo_inurba_marseille","lat":43.23148,"lon":5.43705,"is_reserved":false,"is_disabled":true,"rental_uris":{"android":"levelo://app?vid=20029bdd-9f9c-4ff9-86e4-5ba6ed30f46a","ios":"levelo://app?vid=20029bdd-9f9c-4ff9-86e4-5ba6ed30f46a"},"vehicle_type_id":"4","last_reported":1738418822,"current_range_meters":0,"station_id":"ce4bhmp2rcd13ifvqgog","pricing_plan_id":"cebpf4jnsgd1na2vs0mg"},{"bike_id":"11b674a2-b47a-42e2-91bf-c6e6c2cea6f7","system_id":"levelo_inurba_marseille","lat":43.28706,"lon":5.39991,"is_reserved":false,"is_disabled":false,"rental_uris":{"android":"levelo://app?vid=11b674a2-b47a-42e2-91bf-c6e6c2cea6f7","ios":"levelo://app?vid=11b674a2-b47a-42e2-91bf-c6e6c2cea6f7"},"vehicle_type_id":"4","last_reported":1738418822,"current_range_meters":34000,"station_id":"ce4bho92rcd13ifvqh3g","pricing_plan_id":"cebpf4jnsgd1na2vs0mg"},{"bike_id":"678f5edd-1b4b-476c-bbd1-1e851715e509","system_id":"levelo_inurba_marseille","lat":43.28466,"lon":5.35889,"is_reserved":false,"is_disabled":false,"rental_uris":{"android":"levelo://app?vid=678f5edd-1b4b-476c-bbd1-1e851715e509","ios":"levelo://app?vid=678f5edd-1b4b-476c-bbd1-1e851715e509"},"vehicle_type_id":"4","last_reported":1738418822,"current_range_meters":38800,"station_id":"ce4bhah2rcd13ifvqei0","pricing_plan_id":"cebpf4jnsgd1na2vs0mg"},{"bike_id":"af605d95-fdd8-4cdd-9337-ee2e521148b8","system_id":"levelo_inurba_marseille","lat":43.279114,"lon":5.395864,"is_reserved":false,"is_disabled":true,"rental_uris":{"android":"levelo://app?vid=af605d95-fdd8-4cdd-9337-ee2e521148b8","ios":"levelo://app?vid=af605d95-fdd8-4cdd-9337-ee2e521148b8"},"vehicle_type_id":"4","last_reported":1738418822,"current_range_meters":0,"station_id":"ce4bhf92rcd13ifvqf40","pricing_plan_id":"cebpf4jnsgd1na2vs0mg"},{"bike_id":"4c6419a7-9a55-44ac-a18c-21511cff9f84","system_id":"levelo_inurba_marseille","lat":43.29977,"lon":5.37178,"is_reserved":false,"is_disabled":false,"rental_uris":{"android":"levelo://app?vid=4c6419a7-9a55-44ac-a18c-21511cff9f84","ios":"levelo://app?vid=4c6419a7-9a55-44ac-a18c-21511cff9f84"},"vehicle_type_id":"4","last_reported":1738418822,"current_range_meters":38800,"station_id":"ce4bgr92rcd13ifvqc7g","pricing_plan_id":"cebpf4jnsgd1na2vs0mg"},{"bike_id":"e0220fe1-f0a2-49b3-ad46-a8964d7194a7","system_id":"levelo_inurba_marseille","lat":43.29096,"lon":5.38151,"is_reserved":false,"is_disabled":false,"rental_uris":{"android":"levelo://app?vid=e0220fe1-f0a2-49b3-ad46-a8964d7194a7","ios":"levelo://app?vid=e0220fe1-f0a2-49b3-ad46-a8964d7194a7"},"vehicle_type_id":"4","last_reported":1738418822,"current_range_meters":27600,"station_id":"ce4bh512rcd13ifvqe2g","pricing_plan_id":"cebpf4jnsgd1na2vs0mg"},{"bike_id":"4d2fa91d-31d6-4109-9724-1a91084adf8f","system_id":"levelo_inurba_marseille","lat":43.30466,"lon":5.37901,"is_reserved":false,"is_disabled":false,"rental_uris":{"android":"levelo://app?vid=4d2fa91d-31d6-4109-9724-1a91084adf8f","ios":"levelo://app?vid=4d2fa91d-31d6-4109-9724-1a91084adf8f"},"vehicle_type_id":"4","last_reported":1738418822,"current_range_meters":16800,"station_id":"ce4bgup2rcd13ifvqcn0","pricing_plan_id":"cebpf4jnsgd1na2vs0mg"},{"bike_id":"491407c5-a175-44f0-86fc-0f4ccadf82e3","system_id":"levelo_inurba_marseille","lat":43.337444,"lon":5.374475,"is_reserved":false,"is_disabled":true,"rental_uris":{"android":"levelo://app?vid=491407c5-a175-44f0-86fc-0f4ccadf82e3","ios":"levelo://app?vid=491407c5-a175-44f0-86fc-0f4ccadf82e3"},"vehicle_type_id":"4","last_reported":1738418822,"current_range_meters":0,"station_id":"","pricing_plan_id":"cebpf4jnsgd1na2vs0mg"},{"bike_id":"f15b606d-b287-44c9-8e50-29d4fd2445a7","system_id":"levelo_inurba_marseille","lat":43.29808,"lon":5.38086,"is_reserved":false,"is_disabled":false,"rental_uris":{"android":"levelo://app?vid=f15b606d-b287-44c9-8e50-29d4fd2445a7","ios":"levelo://app?vid=f15b606d-b287-44c9-8e50-29d4fd2445a7"},"vehicle_type_id":"4","last_reported":1738418822,"current_range_meters":38400,"station_id":"ce4bgip2rcd13ifvqbb0","pricing_plan_id":"cebpf4jnsgd1na2vs0mg"},{"bike_id":"bf191f95-0b36-4921-b8dc-4d0b4f156f34","system_id":"levelo_inurba_marseille","lat":43.29825,"lon":5.38893,"is_reserved":false,"is_disabled":false,"rental_uris":{"android":"levelo://app?vid=bf191f95-0b36-4921-b8dc-4d0b4f156f34","ios":"levelo://app?vid=bf191f95-0b36-4921-b8dc-4d0b4f156f34"},"vehicle_type_id":"4","last_reported":1738418822,"current_range_meters":12400,"station_id":"ce4bh392rcd13ifvqdl0","pricing_plan_id":"cebpf4jnsgd1na2vs0mg"},{"bike_id":"e1aa3b6c-0a4b-4fca-bb68-feab18e798c9","system_id":"levelo_inurba_marseille","lat":43.32354,"lon":5.38885,"is_reserved":false,"is_disabled":true,"rental_uris":{"android":"levelo://app?vid=e1aa3b6c-0a4b-4fca-bb68-feab18e798c9","ios":"levelo://app?vid=e1aa3b6c-0a4b-4fca-bb68-feab18e798c9"},"vehicle_type_id":"4","last_reported":1738418822,"current_range_meters":800,"station_id":"ce4bhqp2rcd13ifvqhog","pricing_plan_id":"cebpf4jnsgd1na2vs0mg"},{"bike_id":"1cce3a2e-ff90-4614-81d0-f5fce2a059e9","system_id":"levelo_inurba_marseille","lat":43.28977,"lon":5.37844,"is_reserved":false,"is_disabled":false,"rental_uris":{"android":"levelo://app?vid=1cce3a2e-ff90-4614-81d0-f5fce2a059e9","ios":"levelo://app?vid=1cce3a2e-ff90-4614-81d0-f5fce2a059e9"},"vehicle_type_id":"4","last_reported":1738418822,"current_range_meters":38400,"station_id":"ce4bh9p2rcd13ifvqed0","pricing_plan_id":"cebpf4jnsgd1na2vs0mg"},{"bike_id":"249b7b60-8305-4794-bc88-bf145ce1b67c","system_id":"levelo_inurba_marseille","lat":43.23189,"lon":5.39987,"is_reserved":false,"is_disabled":false,"rental_uris":{"android":"levelo://app?vid=249b7b60-8305-4794-bc88-bf145ce1b67c","ios":"levelo://app?vid=249b7b60-8305-4794-bc88-bf145ce1b67c"},"vehicle_type_id":"4","last_reported":1738418822,"current_range_meters":9600,"station_id":"ce4bhn12rcd13ifvqgqg","pricing_plan_id":"cebpf4jnsgd1na2vs0mg"},{"bike_id":"0b439ceb-bbef-470b-b522-3e20f798d948","system_id":"levelo_inurba_marseille","lat":43.291,"lon":5.38144,"is_reserved":false,"is_disabled":true,"rental_uris":{"android":"levelo://app?vid=0b439ceb-bbef-470b-b522-3e20f798d948","ios":"levelo://app?vid=0b439ceb-bbef-470b-b522-3e20f798d948"},"vehicle_type_id":"4","last_reported":1738418822,"current_range_meters":22800,"station_id":"ce4bh512rcd13ifvqe2g","pricing_plan_id":"cebpf4jnsgd1na2vs0mg"},{"bike_id":"528fe304-774b-4f5e-99b0-3a6df52f7bd5","system_id":"levelo_inurba_marseille","lat":43.26675,"lon":5.38261,"is_reserved":false,"is_disabled":false,"rental_uris":{"android":"levelo://app?vid=528fe304-774b-4f5e-99b0-3a6df52f7bd5","ios":"levelo://app?vid=528fe304-774b-4f5e-99b0-3a6df52f7bd5"},"vehicle_type_id":"4","last_reported":1738418822,"current_range_meters":20000,"station_id":"ce4bhg92rcd13ifvqf90","pricing_plan_id":"cebpf4jnsgd1na2vs0mg"},{"bike_id":"693a29bd-5ac5-4712-a645-e5d8a8553060","system_id":"levelo_inurba_marseille","lat":43.29558,"lon":5.39964,"is_reserved":false,"is_disabled":true,"rental_uris":{"android":"levelo://app?vid=693a29bd-5ac5-4712-a645-e5d8a8553060","ios":"levelo://app?vid=693a29bd-5ac5-4712-a645-e5d8a8553060"},"vehicle_type_id":"4","last_reported":1738418822,"current_range_meters":38800,"station_id":"ce4bh312rcd13ifvqdj0","pricing_plan_id":"cebpf4jnsgd1na2vs0mg"},{"bike_id":"f38a9b51-7bc8-4445-89b3-2095fb6b771f","system_id":"levelo_inurba_marseille","lat":43.28716,"lon":5.3741,"is_reserved":false,"is_disabled":true,"rental_uris":{"android":"levelo://app?vid=f38a9b51-7bc8-4445-89b3-2095fb6b771f","ios":"levelo://app?vid=f38a9b51-7bc8-4445-89b3-2095fb6b771f"},"vehicle_type_id":"4","last_reported":1738418822,"current_range_meters":27600,"station_id":"ce4bh3p2rcd13ifvqdq0","pricing_plan_id":"cebpf4jnsgd1na2vs0mg"},{"bike_id":"fe117411-d9ae-46ad-96d7-1d4828206f4a","system_id":"levelo_inurba_marseille","lat":43.25375,"lon":5.40216,"is_reserved":false,"is_disabled":false,"rental_uris":{"android":"levelo://app?vid=fe117411-d9ae-46ad-96d7-1d4828206f4a","ios":"levelo://app?vid=fe117411-d9ae-46ad-96d7-1d4828206f4a"},"vehicle_type_id":"4","last_reported":1738418822,"current_range_meters":38800,"station_id":"","pricing_plan_id":"cebpf4jnsgd1na2vs0mg"},{"bike_id":"596db8be-c1ef-4532-968e-3ed361605f2d","system_id":"levelo_inurba_marseille","lat":43.27972,"lon":5.40039,"is_reserved":false,"is_disabled":false,"rental_uris":{"android":"levelo://app?vid=596db8be-c1ef-4532-968e-3ed361605f2d","ios":"levelo://app?vid=596db8be-c1ef-4532-968e-3ed361605f2d"},"vehicle_type_id":"4","last_reported":1738418822,"current_range_meters":38800,"station_id":"ce4bho92rcd13ifvqh4g","pricing_plan_id":"cebpf4jnsgd1na2vs0mg"},{"bike_id":"6725a974-636a-4cad-bf4d-273395199ad4","system_id":"levelo_inurba_marseille","lat":43.33733,"lon":5.39182,"is_reserved":false,"is_disabled":false,"rental_uris":{"android":"levelo://app?vid=6725a974-636a-4cad-bf4d-273395199ad4","ios":"levelo://app?vid=6725a974-636a-4cad-bf4d-273395199ad4"},"vehicle_type_id":"4","last_reported":1738418822,"current_range_meters":17600,"station_id":"ce4bhr92rcd13ifvqhsg","pricing_plan_id":"cebpf4jnsgd1na2vs0mg"},{"bike_id":"f71a4887-eedc-4f62-b9e1-29a59d9fa6f3","system_id":"levelo_inurba_marseille","lat":43.29871,"lon":5.38907,"is_reserved":false,"is_disabled":false,"rental_uris":{"android":"levelo://app?vid=f71a4887-eedc-4f62-b9e1-29a59d9fa6f3","ios":"levelo://app?vid=f71a4887-eedc-4f62-b9e1-29a59d9fa6f3"},"vehicle_type_id":"4","last_reported":1738418822,"current_range_meters":16800,"station_id":"ce4bh392rcd13ifvqdl0","pricing_plan_id":"cebpf4jnsgd1na2vs0mg"},{"bike_id":"1e003732-e049-41ce-a3db-58066769f08b","system_id":"levelo_inurba_marseille","lat":43.29039,"lon":5.37555,"is_reserved":false,"is_disabled":false,"rental_uris":{"android":"levelo://app?vid=1e003732-e049-41ce-a3db-58066769f08b","ios":"levelo://app?vid=1e003732-e049-41ce-a3db-58066769f08b"},"vehicle_type_id":"4","last_reported":1738418822,"current_range_meters":35200,"station_id":"ce4bh692rcd13ifvqe90","pricing_plan_id":"cebpf4jnsgd1na2vs0mg"},{"bike_id":"48316449-3088-4ff2-b12b-1855abfe4b0d","system_id":"levelo_inurba_marseille","lat":43.30153,"lon":5.38084,"is_reserved":false,"is_disabled":false,"rental_uris":{"android":"levelo://app?vid=48316449-3088-4ff2-b12b-1855abfe4b0d","ios":"levelo://app?vid=48316449-3088-4ff2-b12b-1855abfe4b0d"},"vehicle_type_id":"4","last_reported":1738418822,"current_range_meters":25600,"station_id":"ce4bgjp2rcd13ifvqbh0","pricing_plan_id":"cebpf4jnsgd1na2vs0mg"},{"bike_id":"92b5f4af-a570-400c-a550-d4593797054c","system_id":"levelo_inurba_marseille","lat":43.291767,"lon":5.371653,"is_reserved":false,"is_disabled":false,"rental_uris":{"android":"levelo://app?vid=92b5f4af-a570-400c-a550-d4593797054c","ios":"levelo://app?vid=92b5f4af-a570-400c-a550-d4593797054c"},"vehicle_type_id":"4","last_reported":1738418822,"current_range_meters":35600,"station_id":"ce4bha92rcd13ifvqeh0","pricing_plan_id":"cebpf4jnsgd1na2vs0mg"},{"bike_id":"70ce3e67-c1ca-4e6f-831d-09d707fb7415","system_id":"levelo_inurba_marseille","lat":43.29573,"lon":5.39989,"is_reserved":false,"is_disabled":false,"rental_uris":{"android":"levelo://app?vid=70ce3e67-c1ca-4e6f-831d-09d707fb7415","ios":"levelo://app?vid=70ce3e67-c1ca-4e6f-831d-09d707fb7415"},"vehicle_type_id":"4","last_reported":1738418822,"current_range_meters":20000,"station_id":"ce4bh312rcd13ifvqdj0","pricing_plan_id":"cebpf4jnsgd1na2vs0mg"},{"bike_id":"97d6f5d5-8570-42c4-b085-6380b5d30016","system_id":"levelo_inurba_marseille","lat":43.31327,"lon":5.39674,"is_reserved":false,"is_disabled":false,"rental_uris":{"android":"levelo://app?vid=97d6f5d5-8570-42c4-b085-6380b5d30016","ios":"levelo://app?vid=97d6f5d5-8570-42c4-b085-6380b5d30016"},"vehicle_type_id":"4","last_reported":1738418822,"current_range_meters":35600,"station_id":"ce4bgvp2rcd13ifvqcu0","pricing_plan_id":"cebpf4jnsgd1na2vs0mg"},{"bike_id":"f300758a-e57f-46db-b5bf-8bf139d56cd7","system_id":"levelo_inurba_marseille","lat":43.25124,"lon":5.40308,"is_reserved":false,"is_disabled":false,"rental_uris":{"android":"levelo://app?vid=f300758a-e57f-46db-b5bf-8bf139d56cd7","ios":"levelo://app?vid=f300758a-e57f-46db-b5bf-8bf139d56cd7"},"vehicle_type_id":"4","last_reported":1738418822,"current_range_meters":17600,"station_id":"ce4bhlh2rcd13ifvqgig","pricing_plan_id":"cebpf4jnsgd1na2vs0mg"},{"bike_id":"a39c9ffd-0582-484d-ba16-bf62d8e8ded2","system_id":"levelo_inurba_marseille","lat":43.26055,"lon":5.39391,"is_reserved":false,"is_disabled":false,"rental_uris":{"android":"levelo://app?vid=a39c9ffd-0582-484d-ba16-bf62d8e8ded2","ios":"levelo://app?vid=a39c9ffd-0582-484d-ba16-bf62d8e8ded2"},"vehicle_type_id":"4","last_reported":1738418822,"current_range_meters":36000,"station_id":"ce4bhh92rcd13ifvqfj0","pricing_plan_id":"cebpf4jnsgd1na2vs0mg"},{"bike_id":"1f4e4183-ba38-4674-b19d-0c758736fe8e","system_id":"levelo_inurba_marseille","lat":43.2509,"lon":5.39515,"is_reserved":false,"is_disabled":false,"rental_uris":{"android":"levelo://app?vid=1f4e4183-ba38-4674-b19d-0c758736fe8e","ios":"levelo://app?vid=1f4e4183-ba38-4674-b19d-0c758736fe8e"},"vehicle_type_id":"4","last_reported":1738418822,"current_range_meters":28400,"station_id":"ce4bhm12rcd13ifvqgkg","pricing_plan_id":"cebpf4jnsgd1na2vs0mg"},{"bike_id":"c890785b-a449-4d52-91fc-f5f1b26df012","system_id":"levelo_inurba_marseille","lat":43.2586,"lon":5.39902,"is_reserved":false,"is_disabled":false,"rental_uris":{"android":"levelo://app?vid=c890785b-a449-4d52-91fc-f5f1b26df012","ios":"levelo://app?vid=c890785b-a449-4d52-91fc-f5f1b26df012"},"vehicle_type_id":"4","last_reported":1738418822,"current_range_meters":19600,"station_id":"ce4bhl92rcd13ifvqghg","pricing_plan_id":"cebpf4jnsgd1na2vs0mg"},{"bike_id":"46b43093-b875-4b52-a6ea-76dd9dc96ba1","system_id":"levelo_inurba_marseille","lat":43.30542,"lon":5.365643,"is_reserved":false,"is_disabled":false,"rental_uris":{"android":"levelo://app?vid=46b43093-b875-4b52-a6ea-76dd9dc96ba1","ios":"levelo://app?vid=46b43093-b875-4b52-a6ea-76dd9dc96ba1"},"vehicle_type_id":"4","last_reported":1738418822,"current_range_meters":38800,"station_id":"ce4bgs12rcd13ifvqcag","pricing_plan_id":"cebpf4jnsgd1na2vs0mg"},{"bike_id":"56d6b97f-30a2-4c2a-8be6-a12a9fc19507","system_id":"levelo_inurba_marseille","lat":43.31769,"lon":5.39017,"is_reserved":false,"is_disabled":false,"rental_uris":{"android":"levelo://app?vid=56d6b97f-30a2-4c2a-8be6-a12a9fc19507","ios":"levelo://app?vid=56d6b97f-30a2-4c2a-8be6-a12a9fc19507"},"vehicle_type_id":"4","last_reported":1738418822,"current_range_meters":9600,"station_id":"ce4bhqp2rcd13ifvqhng","pricing_plan_id":"cebpf4jnsgd1na2vs0mg"},{"bike_id":"a895efa9-50aa-435c-91d1-c119eaf59a54","system_id":"levelo_inurba_marseille","lat":43.26488,"lon":5.39557,"is_reserved":false,"is_disabled":false,"rental_uris":{"android":"levelo://app?vid=a895efa9-50aa-435c-91d1-c119eaf59a54","ios":"levelo://app?vid=a895efa9-50aa-435c-91d1-c119eaf59a54"},"vehicle_type_id":"4","last_reported":1738418822,"current_range_meters":36400,"station_id":"ce4bhi12rcd13ifvqfq0","pricing_plan_id":"cebpf4jnsgd1na2vs0mg"},{"bike_id":"32e8657c-7e52-4c6f-9cc3-fa9c15f63333","system_id":"levelo_inurba_marseille","lat":43.30102,"lon":5.39075,"is_reserved":false,"is_disabled":false,"rental_uris":{"android":"levelo://app?vid=32e8657c-7e52-4c6f-9cc3-fa9c15f63333","ios":"levelo://app?vid=32e8657c-7e52-4c6f-9cc3-fa9c15f63333"},"vehicle_type_id":"4","last_reported":1738418822,"current_range_meters":16400,"station_id":"ce4bh192rcd13ifvqdb0","pricing_plan_id":"cebpf4jnsgd1na2vs0mg"},{"bike_id":"8e104399-aef2-4f9b-ac7b-a192d80911fa","system_id":"levelo_inurba_marseille","lat":43.26579,"lon":5.39008,"is_reserved":false,"is_disabled":false,"rental_uris":{"android":"levelo://app?vid=8e104399-aef2-4f9b-ac7b-a192d80911fa","ios":"levelo://app?vid=8e104399-aef2-4f9b-ac7b-a192d80911fa"},"vehicle_type_id":"4","last_reported":1738418822,"current_range_meters":38800,"station_id":"ce4bhe12rcd13ifvqf30","pricing_plan_id":"cebpf4jnsgd1na2vs0mg"},{"bike_id":"3f3daf50-ce5a-4315-a155-e6dbe67d0af1","system_id":"levelo_inurba_marseille","lat":43.31386,"lon":5.36705,"is_reserved":false,"is_disabled":false,"rental_uris":{"android":"levelo://app?vid=3f3daf50-ce5a-4315-a155-e6dbe67d0af1","ios":"levelo://app?vid=3f3daf50-ce5a-4315-a155-e6dbe67d0af1"},"vehicle_type_id":"4","last_reported":1738418822,"current_range_meters":31200,"station_id":"ce4bgr92rcd13ifvqc6g","pricing_plan_id":"cebpf4jnsgd1na2vs0mg"},{"bike_id":"d8ed3149-1b3d-468c-b65c-32b89925f608","system_id":"levelo_inurba_marseille","lat":43.33013,"lon":5.41275,"is_reserved":false,"is_disabled":false,"rental_uris":{"android":"levelo://app?vid=d8ed3149-1b3d-468c-b65c-32b89925f608","ios":"levelo://app?vid=d8ed3149-1b3d-468c-b65c-32b89925f608"},"vehicle_type_id":"4","last_reported":1738418822,"current_range_meters":9600,"station_id":"","pricing_plan_id":"cebpf4jnsgd1na2vs0mg"},{"bike_id":"24cadd92-10be-485b-84df-931d5008e7da","system_id":"levelo_inurba_marseille","lat":43.30293,"lon":5.39197,"is_reserved":false,"is_disabled":false,"rental_uris":{"android":"levelo://app?vid=24cadd92-10be-485b-84df-931d5008e7da","ios":"levelo://app?vid=24cadd92-10be-485b-84df-931d5008e7da"},"vehicle_type_id":"4","last_reported":1738418822,"current_range_meters":30000,"station_id":"ce4bgkh2rcd13ifvqbk0","pricing_plan_id":"cebpf4jnsgd1na2vs0mg"},{"bike_id":"7eef495c-9588-4be3-9f22-d95d0825c21e","system_id":"levelo_inurba_marseille","lat":43.29794,"lon":5.38087,"is_reserved":false,"is_disabled":false,"rental_uris":{"android":"levelo://app?vid=7eef495c-9588-4be3-9f22-d95d0825c21e","ios":"levelo://app?vid=7eef495c-9588-4be3-9f22-d95d0825c21e"},"vehicle_type_id":"4","last_reported":1738418822,"current_range_meters":38800,"station_id":"ce4bgip2rcd13ifvqbb0","pricing_plan_id":"cebpf4jnsgd1na2vs0mg"},{"bike_id":"0d28585b-d5c4-4ac1-9b85-af2a962ce956","system_id":"levelo_inurba_marseille","lat":43.31495,"lon":5.37304,"is_reserved":false,"is_disabled":false,"rental_uris":{"android":"levelo://app?vid=0d28585b-d5c4-4ac1-9b85-af2a962ce956","ios":"levelo://app?vid=0d28585b-d5c4-4ac1-9b85-af2a962ce956"},"vehicle_type_id":"4","last_reported":1738418822,"current_range_meters":38000,"station_id":"ce4bgt12rcd13ifvqcd0","pricing_plan_id":"cebpf4jnsgd1na2vs0mg"},{"bike_id":"06f83fa3-49e8-467c-88e3-5c91a5e13ad1","system_id":"levelo_inurba_marseille","lat":43.28466,"lon":5.38406,"is_reserved":false,"is_disabled":false,"rental_uris":{"android":"levelo://app?vid=06f83fa3-49e8-467c-88e3-5c91a5e13ad1","ios":"levelo://app?vid=06f83fa3-49e8-467c-88e3-5c91a5e13ad1"},"vehicle_type_id":"4","last_reported":1738418822,"current_range_meters":38000,"station_id":"ce4bh512rcd13ifvqe3g","pricing_plan_id":"cebpf4jnsgd1na2vs0mg"},{"bike_id":"1dea0d1d-b5f5-454c-bafa-5ed21154abef","system_id":"levelo_inurba_marseille","lat":43.29734,"lon":5.3767,"is_reserved":false,"is_disabled":false,"rental_uris":{"android":"levelo://app?vid=1dea0d1d-b5f5-454c-bafa-5ed21154abef","ios":"levelo://app?vid=1dea0d1d-b5f5-454c-bafa-5ed21154abef"},"vehicle_type_id":"4","last_reported":1738418822,"current_range_meters":38800,"station_id":"ce4bgkh2rcd13ifvqbl0","pricing_plan_id":"cebpf4jnsgd1na2vs0mg"},{"bike_id":"288f11d2-9720-48bf-b8a1-662748557abc","system_id":"levelo_inurba_marseille","lat":43.29798,"lon":5.38106,"is_reserved":false,"is_disabled":false,"rental_uris":{"android":"levelo://app?vid=288f11d2-9720-48bf-b8a1-662748557abc","ios":"levelo://app?vid=288f11d2-9720-48bf-b8a1-662748557abc"},"vehicle_type_id":"4","last_reported":1738418822,"current_range_meters":38800,"station_id":"ce4bgip2rcd13ifvqbb0","pricing_plan_id":"cebpf4jnsgd1na2vs0mg"},{"bike_id":"601f700b-d64b-4f89-9b49-7c3147e06b4f","system_id":"levelo_inurba_marseille","lat":43.2512,"lon":5.40321,"is_reserved":false,"is_disabled":false,"rental_uris":{"android":"levelo://app?vid=601f700b-d64b-4f89-9b49-7c3147e06b4f","ios":"levelo://app?vid=601f700b-d64b-4f89-9b49-7c3147e06b4f"},"vehicle_type_id":"4","last_reported":1738418822,"current_range_meters":22000,"station_id":"ce4bhlh2rcd13ifvqgig","pricing_plan_id":"cebpf4jnsgd1na2vs0mg"},{"bike_id":"c8902182-a8b7-42f9-8e2b-fc0543656163","system_id":"levelo_inurba_marseille","lat":43.24997,"lon":5.38937,"is_reserved":false,"is_disabled":true,"rental_uris":{"android":"levelo://app?vid=c8902182-a8b7-42f9-8e2b-fc0543656163","ios":"levelo://app?vid=c8902182-a8b7-42f9-8e2b-fc0543656163"},"vehicle_type_id":"4","last_reported":1738418822,"current_range_meters":0,"station_id":"ce4bhgp2rcd13ifvqfd0","pricing_plan_id":"cebpf4jnsgd1na2vs0mg"},{"bike_id":"2a5c4506-aaab-4494-9b8c-276f0d2946d9","system_id":"levelo_inurba_marseille","lat":43.30463,"lon":5.37885,"is_reserved":false,"is_disabled":false,"rental_uris":{"android":"levelo://app?vid=2a5c4506-aaab-4494-9b8c-276f0d2946d9","ios":"levelo://app?vid=2a5c4506-aaab-4494-9b8c-276f0d2946d9"},"vehicle_type_id":"4","last_reported":1738418822,"current_range_meters":29600,"station_id":"ce4bgup2rcd13ifvqcn0","pricing_plan_id":"cebpf4jnsgd1na2vs0mg"},{"bike_id":"32d9a329-7366-4eb8-8d55-73b5c99c70c3","system_id":"levelo_inurba_marseille","lat":43.23201,"lon":5.35536,"is_reserved":false,"is_disabled":false,"rental_uris":{"android":"levelo://app?vid=32d9a329-7366-4eb8-8d55-73b5c99c70c3","ios":"levelo://app?vid=32d9a329-7366-4eb8-8d55-73b5c99c70c3"},"vehicle_type_id":"4","last_reported":1738418822,"current_range_meters":38800,"station_id":"ce4bhu92rcd13ifvqi70","pricing_plan_id":"cebpf4jnsgd1na2vs0mg"},{"bike_id":"84e02a3d-3f7f-46b1-b7f1-97431a8c6cee","system_id":"levelo_inurba_marseille","lat":43.2481,"lon":5.37411,"is_reserved":false,"is_disabled":true,"rental_uris":{"android":"levelo://app?vid=84e02a3d-3f7f-46b1-b7f1-97431a8c6cee","ios":"levelo://app?vid=84e02a3d-3f7f-46b1-b7f1-97431a8c6cee"},"vehicle_type_id":"4","last_reported":1738418822,"current_range_meters":22400,"station_id":"ce4bhgh2rcd13ifvqfb0","pricing_plan_id":"cebpf4jnsgd1na2vs0mg"},{"bike_id":"b2ff94bd-c7b2-48a1-a4da-41c0f81ef36b","system_id":"levelo_inurba_marseille","lat":43.29296,"lon":5.374519,"is_reserved":false,"is_disabled":false,"rental_uris":{"android":"levelo://app?vid=b2ff94bd-c7b2-48a1-a4da-41c0f81ef36b","ios":"levelo://app?vid=b2ff94bd-c7b2-48a1-a4da-41c0f81ef36b"},"vehicle_type_id":"4","last_reported":1738418822,"current_range_meters":38800,"station_id":"ce4bgi12rcd13ifvqb70","pricing_plan_id":"cebpf4jnsgd1na2vs0mg"},{"bike_id":"0a2fd205-d616-4064-aa75-d4d529957d90","system_id":"levelo_inurba_marseille","lat":43.2307,"lon":5.35496,"is_reserved":false,"is_disabled":false,"rental_uris":{"android":"levelo://app?vid=0a2fd205-d616-4064-aa75-d4d529957d90","ios":"levelo://app?vid=0a2fd205-d616-4064-aa75-d4d529957d90"},"vehicle_type_id":"4","last_reported":1738418822,"current_range_meters":16400,"station_id":"cpo3342slgdg3j2ifvpg","pricing_plan_id":"cebpf4jnsgd1na2vs0mg"},{"bike_id":"0a6bdfce-8ece-4497-bb8b-e2a11ad19654","system_id":"levelo_inurba_marseille","lat":43.31218,"lon":5.3684,"is_reserved":false,"is_disabled":false,"rental_uris":{"android":"levelo://app?vid=0a6bdfce-8ece-4497-bb8b-e2a11ad19654","ios":"levelo://app?vid=0a6bdfce-8ece-4497-bb8b-e2a11ad19654"},"vehicle_type_id":"4","last_reported":1738418822,"current_range_meters":38400,"station_id":"ce4bgl92rcd13ifvqbq0","pricing_plan_id":"cebpf4jnsgd1na2vs0mg"},{"bike_id":"b98674e3-2e45-41a4-93b8-51d3bb7a2185","system_id":"levelo_inurba_marseille","lat":43.27919,"lon":5.3958,"is_reserved":false,"is_disabled":false,"rental_uris":{"android":"levelo://app?vid=b98674e3-2e45-41a4-93b8-51d3bb7a2185","ios":"levelo://app?vid=b98674e3-2e45-41a4-93b8-51d3bb7a2185"},"vehicle_type_id":"4","last_reported":1738418822,"current_range_meters":28400,"station_id":"ce4bhf92rcd13ifvqf40","pricing_plan_id":"cebpf4jnsgd1na2vs0mg"},{"bike_id":"eb0d607c-2998-403a-8d1a-84c2f8161b4a","system_id":"levelo_inurba_marseille","lat":43.29094,"lon":5.3813,"is_reserved":false,"is_disabled":false,"rental_uris":{"android":"levelo://app?vid=eb0d607c-2998-403a-8d1a-84c2f8161b4a","ios":"levelo://app?vid=eb0d607c-2998-403a-8d1a-84c2f8161b4a"},"vehicle_type_id":"4","last_reported":1738418822,"current_range_meters":6000,"station_id":"ce4bh512rcd13ifvqe2g","pricing_plan_id":"cebpf4jnsgd1na2vs0mg"},{"bike_id":"09f1127d-0767-4cdd-854a-7858cb70586b","system_id":"levelo_inurba_marseille","lat":43.30156,"lon":5.3807,"is_reserved":false,"is_disabled":false,"rental_uris":{"android":"levelo://app?vid=09f1127d-0767-4cdd-854a-7858cb70586b","ios":"levelo://app?vid=09f1127d-0767-4cdd-854a-7858cb70586b"},"vehicle_type_id":"4","last_reported":1738418822,"current_range_meters":38800,"station_id":"ce4bgjp2rcd13ifvqbh0","pricing_plan_id":"cebpf4jnsgd1na2vs0mg"},{"bike_id":"ca931785-f9ca-4731-9d54-daed2acd844e","system_id":"levelo_inurba_marseille","lat":43.27323,"lon":5.39103,"is_reserved":false,"is_disabled":false,"rental_uris":{"android":"levelo://app?vid=ca931785-f9ca-4731-9d54-daed2acd844e","ios":"levelo://app?vid=ca931785-f9ca-4731-9d54-daed2acd844e"},"vehicle_type_id":"4","last_reported":1738418822,"current_range_meters":39200,"station_id":"ce4bhgp2rcd13ifvqfe0","pricing_plan_id":"cebpf4jnsgd1na2vs0mg"},{"bike_id":"8bb85db3-cd13-408d-9f84-97f47864a416","system_id":"levelo_inurba_marseille","lat":43.29717,"lon":5.36612,"is_reserved":false,"is_disabled":false,"rental_uris":{"android":"levelo://app?vid=8bb85db3-cd13-408d-9f84-97f47864a416","ios":"levelo://app?vid=8bb85db3-cd13-408d-9f84-97f47864a416"},"vehicle_type_id":"4","last_reported":1738418822,"current_range_meters":24800,"station_id":"ce4bgi92rcd13ifvqb90","pricing_plan_id":"cebpf4jnsgd1na2vs0mg"},{"bike_id":"787cc70c-db25-42d8-bba7-585654938087","system_id":"levelo_inurba_marseille","lat":43.25928,"lon":5.40909,"is_reserved":false,"is_disabled":false,"rental_uris":{"android":"levelo://app?vid=787cc70c-db25-42d8-bba7-585654938087","ios":"levelo://app?vid=787cc70c-db25-42d8-bba7-585654938087"},"vehicle_type_id":"4","last_reported":1738418822,"current_range_meters":24400,"station_id":"","pricing_plan_id":"cebpf4jnsgd1na2vs0mg"},{"bike_id":"cec88cd5-ad0c-4ee6-95dd-d496e8935b3b","system_id":"levelo_inurba_marseille","lat":43.29976,"lon":5.37178,"is_reserved":false,"is_disabled":false,"rental_uris":{"android":"levelo://app?vid=cec88cd5-ad0c-4ee6-95dd-d496e8935b3b","ios":"levelo://app?vid=cec88cd5-ad0c-4ee6-95dd-d496e8935b3b"},"vehicle_type_id":"4","last_reported":1738418822,"current_range_meters":25200,"station_id":"ce4bgr92rcd13ifvqc7g","pricing_plan_id":"cebpf4jnsgd1na2vs0mg"},{"bike_id":"eda21f84-4b19-4610-a62b-590cdda194b5","system_id":"levelo_inurba_marseille","lat":43.31232,"lon":5.36865,"is_reserved":false,"is_disabled":false,"rental_uris":{"android":"levelo://app?vid=eda21f84-4b19-4610-a62b-590cdda194b5","ios":"levelo://app?vid=eda21f84-4b19-4610-a62b-590cdda194b5"},"vehicle_type_id":"4","last_reported":1738418822,"current_range_meters":39200,"station_id":"ce4bgl92rcd13ifvqbq0","pricing_plan_id":"cebpf4jnsgd1na2vs0mg"},{"bike_id":"c284d4e6-9bcc-4591-8392-f234f7b36a62","system_id":"levelo_inurba_marseille","lat":43.30563,"lon":5.36547,"is_reserved":false,"is_disabled":false,"rental_uris":{"android":"levelo://app?vid=c284d4e6-9bcc-4591-8392-f234f7b36a62","ios":"levelo://app?vid=c284d4e6-9bcc-4591-8392-f234f7b36a62"},"vehicle_type_id":"4","last_reported":1738418822,"current_range_meters":32000,"station_id":"ce4bgs12rcd13ifvqcag","pricing_plan_id":"cebpf4jnsgd1na2vs0mg"},{"bike_id":"72393c56-1f59-4517-9b3a-7cfa7c798b48","system_id":"levelo_inurba_marseille","lat":43.23195,"lon":5.3555,"is_reserved":false,"is_disabled":false,"rental_uris":{"android":"levelo://app?vid=72393c56-1f59-4517-9b3a-7cfa7c798b48","ios":"levelo://app?vid=72393c56-1f59-4517-9b3a-7cfa7c798b48"},"vehicle_type_id":"4","last_reported":1738418822,"current_range_meters":22800,"station_id":"ce4bhu92rcd13ifvqi70","pricing_plan_id":"cebpf4jnsgd1na2vs0mg"},{"bike_id":"a95afa5e-1d21-4a40-91b1-2b0d09af66d0","system_id":"levelo_inurba_marseille","lat":43.29972,"lon":5.38497,"is_reserved":false,"is_disabled":false,"rental_uris":{"android":"levelo://app?vid=a95afa5e-1d21-4a40-91b1-2b0d09af66d0","ios":"levelo://app?vid=a95afa5e-1d21-4a40-91b1-2b0d09af66d0"},"vehicle_type_id":"4","last_reported":1738418822,"current_range_meters":38400,"station_id":"ce4bgj92rcd13ifvqbd0","pricing_plan_id":"cebpf4jnsgd1na2vs0mg"},{"bike_id":"ae1f1e85-ec64-4dc1-ba5d-4214ac0bbd57","system_id":"levelo_inurba_marseille","lat":43.28581,"lon":5.37056,"is_reserved":false,"is_disabled":true,"rental_uris":{"android":"levelo://app?vid=ae1f1e85-ec64-4dc1-ba5d-4214ac0bbd57","ios":"levelo://app?vid=ae1f1e85-ec64-4dc1-ba5d-4214ac0bbd57"},"vehicle_type_id":"4","last_reported":1738418822,"current_range_meters":12400,"station_id":"","pricing_plan_id":"cebpf4jnsgd1na2vs0mg"},{"bike_id":"6337d338-3511-4993-ada0-12102998e834","system_id":"levelo_inurba_marseille","lat":43.23142,"lon":5.35413,"is_reserved":false,"is_disabled":false,"rental_uris":{"android":"levelo://app?vid=6337d338-3511-4993-ada0-12102998e834","ios":"levelo://app?vid=6337d338-3511-4993-ada0-12102998e834"},"vehicle_type_id":"4","last_reported":1738418822,"current_range_meters":9600,"station_id":"cpo3342slgdg3j2ifvpg","pricing_plan_id":"cebpf4jnsgd1na2vs0mg"},{"bike_id":"ed2c2ccc-0bdf-4003-a122-18aab562c53a","system_id":"levelo_inurba_marseille","lat":43.26681,"lon":5.38267,"is_reserved":false,"is_disabled":false,"rental_uris":{"android":"levelo://app?vid=ed2c2ccc-0bdf-4003-a122-18aab562c53a","ios":"levelo://app?vid=ed2c2ccc-0bdf-4003-a122-18aab562c53a"},"vehicle_type_id":"4","last_reported":1738418822,"current_range_meters":35200,"station_id":"ce4bhg92rcd13ifvqf90","pricing_plan_id":"cebpf4jnsgd1na2vs0mg"},{"bike_id":"1b82a099-1368-4632-a6ed-9cc31d3e1c18","system_id":"levelo_inurba_marseille","lat":43.29981,"lon":5.384903,"is_reserved":false,"is_disabled":false,"rental_uris":{"android":"levelo://app?vid=1b82a099-1368-4632-a6ed-9cc31d3e1c18","ios":"levelo://app?vid=1b82a099-1368-4632-a6ed-9cc31d3e1c18"},"vehicle_type_id":"4","last_reported":1738418822,"current_range_meters":38800,"station_id":"ce4bgj92rcd13ifvqbd0","pricing_plan_id":"cebpf4jnsgd1na2vs0mg"},{"bike_id":"439fc278-552e-44a6-8968-8bc2e6e0a7e6","system_id":"levelo_inurba_marseille","lat":43.32465,"lon":5.36551,"is_reserved":false,"is_disabled":false,"rental_uris":{"android":"levelo://app?vid=439fc278-552e-44a6-8968-8bc2e6e0a7e6","ios":"levelo://app?vid=439fc278-552e-44a6-8968-8bc2e6e0a7e6"},"vehicle_type_id":"4","last_reported":1738418822,"current_range_meters":38800,"station_id":"ce4bhs12rcd13ifvqhvg","pricing_plan_id":"cebpf4jnsgd1na2vs0mg"},{"bike_id":"a7a8244d-5070-4440-a45c-f847f65524b7","system_id":"levelo_inurba_marseille","lat":43.30209,"lon":5.39472,"is_reserved":false,"is_disabled":false,"rental_uris":{"android":"levelo://app?vid=a7a8244d-5070-4440-a45c-f847f65524b7","ios":"levelo://app?vid=a7a8244d-5070-4440-a45c-f847f65524b7"},"vehicle_type_id":"4","last_reported":1738418822,"current_range_meters":16400,"station_id":"ce4bh0p2rcd13ifvqd70","pricing_plan_id":"cebpf4jnsgd1na2vs0mg"},{"bike_id":"8a63ea4b-e0c4-41bc-9b36-8fa18edd9bf5","system_id":"levelo_inurba_marseille","lat":43.25498,"lon":5.37652,"is_reserved":false,"is_disabled":false,"rental_uris":{"android":"levelo://app?vid=8a63ea4b-e0c4-41bc-9b36-8fa18edd9bf5","ios":"levelo://app?vid=8a63ea4b-e0c4-41bc-9b36-8fa18edd9bf5"},"vehicle_type_id":"4","last_reported":1738418822,"current_range_meters":35200,"station_id":"ce4bhh12rcd13ifvqff0","pricing_plan_id":"cebpf4jnsgd1na2vs0mg"},{"bike_id":"59df4e5d-8633-4013-9562-1509344f32b9","system_id":"levelo_inurba_marseille","lat":43.26498,"lon":5.39546,"is_reserved":false,"is_disabled":false,"rental_uris":{"android":"levelo://app?vid=59df4e5d-8633-4013-9562-1509344f32b9","ios":"levelo://app?vid=59df4e5d-8633-4013-9562-1509344f32b9"},"vehicle_type_id":"4","last_reported":1738418822,"current_range_meters":34000,"station_id":"ce4bhi12rcd13ifvqfq0","pricing_plan_id":"cebpf4jnsgd1na2vs0mg"},{"bike_id":"9900f1a4-6fec-4768-9689-365d0e3a621d","system_id":"levelo_inurba_marseille","lat":43.23189,"lon":5.3998,"is_reserved":false,"is_disabled":false,"rental_uris":{"android":"levelo://app?vid=9900f1a4-6fec-4768-9689-365d0e3a621d","ios":"levelo://app?vid=9900f1a4-6fec-4768-9689-365d0e3a621d"},"vehicle_type_id":"4","last_reported":1738418822,"current_range_meters":38800,"station_id":"ce4bhn12rcd13ifvqgqg","pricing_plan_id":"cebpf4jnsgd1na2vs0mg"},{"bike_id":"af8d79c1-930f-4ef2-ad06-b955bd940401","system_id":"levelo_inurba_marseille","lat":43.3118,"lon":5.38717,"is_reserved":false,"is_disabled":false,"rental_uris":{"android":"levelo://app?vid=af8d79c1-930f-4ef2-ad06-b955bd940401","ios":"levelo://app?vid=af8d79c1-930f-4ef2-ad06-b955bd940401"},"vehicle_type_id":"4","last_reported":1738418822,"current_range_meters":30400,"station_id":"ce4bgv12rcd13ifvqcp0","pricing_plan_id":"cebpf4jnsgd1na2vs0mg"},{"bike_id":"4572f6cd-64a7-4172-99e7-ada93c9385fd","system_id":"levelo_inurba_marseille","lat":43.27809,"lon":5.40709,"is_reserved":false,"is_disabled":false,"rental_uris":{"android":"levelo://app?vid=4572f6cd-64a7-4172-99e7-ada93c9385fd","ios":"levelo://app?vid=4572f6cd-64a7-4172-99e7-ada93c9385fd"},"vehicle_type_id":"4","last_reported":1738418822,"current_range_meters":31200,"station_id":"ce4bhnh2rcd13ifvqgtg","pricing_plan_id":"cebpf4jnsgd1na2vs0mg"},{"bike_id":"b1fd571c-e785-4fc7-9d16-3c2e86fe87de","system_id":"levelo_inurba_marseille","lat":43.27176,"lon":5.41001,"is_reserved":false,"is_disabled":true,"rental_uris":{"android":"levelo://app?vid=b1fd571c-e785-4fc7-9d16-3c2e86fe87de","ios":"levelo://app?vid=b1fd571c-e785-4fc7-9d16-3c2e86fe87de"},"vehicle_type_id":"4","last_reported":1738418822,"current_range_meters":36800,"station_id":"ce4bhl12rcd13ifvqgf0","pricing_plan_id":"cebpf4jnsgd1na2vs0mg"},