{"last_updated":1736334449,"ttl":60,"version":"2.2","data":{"bikes":[{"bike_id":"89421f62-06fd-4b68-bcb1-b94fd7ea6d26","system_id":"levelo_inurba_marseille","lat":43.32356,"lon":5.38934,"is_reserved":false,"is_disabled":false,"rental_uris":{"android":"levelo://app?vid=89421f62-06fd-4b68-bcb1-b94fd7ea6d26","ios":"levelo://app?vid=89421f62-06fd-4b68-bcb1-b94fd7ea6d26"},"vehicle_type_id":"4","last_reported":1736334449,"current_range_meters":17600,"station_id":"ce4bhqp2rcd13ifvqhog","pricing_plan_id":"cebpf4jnsgd1na2vs0mg"},{"bike_id":"fd95cfcd-a09f-4036-9fd0-9f821cea96a9","system_id":"levelo_inurba_marseille","lat":43.27825,"lon":5.40746,"is_reserved":false,"is_disabled":false,"rental_uris":{"android":"levelo://app?vid=fd95cfcd-a09f-4036-9fd0-9f821cea96a9","ios":"levelo://app?vid=fd95cfcd-a09f-4036-9fd0-9f821cea96a9"},"vehicle_type_id":"4","last_reported":1736334449,"current_range_meters":36800,"station_id":"ce4bhnh2rcd13ifvqgtg","pricing_plan_id":"cebpf4jnsgd1na2vs0mg"},{"bike_id":"19aa1d25-f781-496a-bbb9-147e19783b08","system_id":"levelo_inurba_marseille","lat":43.29544,"lon":5.4231,"is_reserved":false,"is_disabled":false,"rental_uris":{"android":"levelo://app?vid=19aa1d25-f781-496a-bbb9-147e19783b08","ios":"levelo://app?vid=19aa1d25-f781-496a-bbb9-147e19783b08"},"vehicle_type_id":"4","last_reported":1736334449,"current_range_meters":36800,"station_id":"ce4bhph2rcd13ifvqhdg","pricing_plan_id":"cebpf4jnsgd1na2vs0mg"},{"bike_id":"814654f8-01c6-431c-8f61-0883e6b6823c","system_id":"levelo_inurba_marseille","lat":43.30946,"lon":5.39024,"is_reserved":false,"is_disabled":false,"rental_uris":{"android":"levelo://app?vid=814654f8-01c6-431c-8f61-0883e6b6823c","ios":"levelo://app?vid=814654f8-01c6-431c-8f61-0883e6b6823c"},"vehicle_type_id":"4","last_reported":1736334449,"current_range_meters":37600,"station_id":"ce4bgup2rcd13ifvqco0","pricing_plan_id":"cebpf4jnsgd1na2vs0mg"},{"bike_id":"8fcb09d7-adbd-442f-8abe-4829f0288e18","system_id":"levelo_inurba_marseille","lat":43.23157,"lon":5.43718,"is_reserved":false,"is_disabled":false,"rental_uris":{"android":"levelo://app?vid=8fcb09d7-adbd-442f-8abe-4829f0288e18","ios":"levelo://app?vid=8fcb09d7-adbd-442f-8abe-4829f0288e18"},"vehicle_type_id":"4","last_reported":1736334449,"current_range_meters":38800,"station_id":"ce4bhmp2rcd13ifvqgog","pricing_plan_id":"cebpf4jnsgd1na2vs0mg"},{"bike_id":"c118b227-2b78-4706-8f34-1abff6342c8d","system_id":"levelo_inurba_marseille","lat":43.3122,"lon":5.36867,"is_reserved":false,"is_disabled":false,"rental_uris":{"android":"levelo://app?vid=c118b227-2b78-4706-8f34-1abff6342c8d","ios":"levelo://app?vid=c118b227-2b78-4706-8f34-1abff6342c8d"},"vehicle_type_id":"4","last_reported":1736334449,"current_range_meters":9600,"station_id":"ce4bgl92rcd13ifvqbq0","pricing_plan_id":"cebpf4jnsgd1na2vs0mg"},{"bike_id":"e76c191c-d5b0-4bb0-8de7-7c73600b8ad0","system_id":"levelo_inurba_marseille","lat":43.22913,"lon":5.35389,"is_reserved":false,"is_disabled":false,"rental_uris":{"android":"levelo://app?vid=e76c191c-d5b0-4bb0-8de7-7c73600b8ad0","ios":"levelo://app?vid=e76c191c-d5b0-4bb0-8de7-7c73600b8ad0"},"vehicle_type_id":"4","last_reported":1736334449,"current_range_meters":8400,"station_id":"cpo3532slgdg3j2ikp40","pricing_plan_id":"cebpf4jnsgd1na2vs0mg"},{"bike_id":"55d08fde-ac2b-4230-9985-be7440636dea","system_id":"levelo_inurba_marseille","lat":43.27496,"lon":5.42449,"is_reserved":false,"is_disabled":false,"rental_uris":{"android":"levelo://app?vid=55d08fde-ac2b-4230-9985-be7440636dea","ios":"levelo://app?vid=55d08fde-ac2b-4230-9985-be7440636dea"},"vehicle_type_id":"4","last_reported":1736334449,"current_range_meters":23200,"station_id":"ce4bhn92rcd13ifvqgrg","pricing_plan_id":"cebpf4jnsgd1na2vs0mg"},{"bike_id":"0c06f679-85b2-4f8b-8237-3c1bdba6d34d","system_id":"levelo_inurba_marseille","lat":43.27177,"lon":5.40983,"is_reserved":false,"is_disabled":false,"rental_uris":{"android":"levelo://app?vid=0c06f679-85b2-4f8b-8237-3c1bdba6d34d","ios":"levelo://app?vid=0c06f679-85b2-4f8b-8237-3c1bdba6d34d"},"vehicle_type_id":"4","last_reported":1736334449,"current_range_meters":38000,"station_id":"ce4bhl12rcd13ifvqgf0","pricing_plan_id":"cebpf4jnsgd1na2vs0mg"},{"bike_id":"6229b4f1-402a-48db-a431-861016d69615","system_id":"levelo_inurba_marseille","lat":43.25111,"lon":5.40319,"is_reserved":false,"is_disabled":false,"rental_uris":{"android":"levelo://app?vid=6229b4f1-402a-48db-a431-861016d69615","ios":"levelo://app?vid=6229b4f1-402a-48db-a431-861016d69615"},"vehicle_type_id":"4","last_reported":1736334449,"current_range_meters":35200,"station_id":"ce4bhlh2rcd13ifvqgig","pricing_plan_id":"cebpf4jnsgd1na2vs0mg"},{"bike_id":"a66a0c9d-3e90-4e2f-a813-6ebdf1b8c770","system_id":"levelo_inurba_marseille","lat":43.33722,"lon":5.39211,"is_reserved":false,"is_disabled":false,"rental_uris":{"android":"levelo://app?vid=a66a0c9d-3e90-4e2f-a813-6ebdf1b8c770","ios":"levelo://app?vid=a66a0c9d-3e90-4e2f-a813-6ebdf1b8c770"},"vehicle_type_id":"4","last_reported":1736334449,"current_range_meters":36400,"station_id":"ce4bhr92rcd13ifvqhsg","pricing_plan_id":"cebpf4jnsgd1na2vs0mg"},{"bike_id":"9eadb4d0-fc14-4c9f-a0b4-c558f55ec1c8","system_id":"levelo_inurba_marseille","lat":43.29428,"lon":5.376125,"is_reserved":false,"is_disabled":false,"rental_uris":{"android":"levelo://app?vid=9eadb4d0-fc14-4c9f-a0b4-c558f55ec1c8","ios":"levelo://app?vid=9eadb4d0-fc14-4c9f-a0b4-c558f55ec1c8"},"vehicle_type_id":"4","last_reported":1736334449,"current_range_meters":36400,"station_id":"ce4bgkp2rcd13ifvqbmg","pricing_plan_id":"cebpf4jnsgd1na2vs0mg"},{"bike_id":"2e3020fc-739e-484f-aff1-968aa18f2ac1","system_id":"levelo_inurba_marseille","lat":43.27989,"lon":5.4164,"is_reserved":false,"is_disabled":true,"rental_uris":{"android":"levelo://app?vid=2e3020fc-739e-484f-aff1-968aa18f2ac1","ios":"levelo://app?vid=2e3020fc-739e-484f-aff1-968aa18f2ac1"},"vehicle_type_id":"4","last_reported":1736334449,"current_range_meters":30000,"station_id":"ce4bho12rcd13ifvqh1g","pricing_plan_id":"cebpf4jnsgd1na2vs0mg"},{"bike_id":"56c3eec9-aaf7-435e-81a3-4fd508db7c27","system_id":"levelo_inurba_marseille","lat":43.31319,"lon":5.39694,"is_reserved":false,"is_disabled":false,"rental_uris":{"android":"levelo://app?vid=56c3eec9-aaf7-435e-81a3-4fd508db7c27","ios":"levelo://app?vid=56c3eec9-aaf7-435e-81a3-4fd508db7c27"},"vehicle_type_id":"4","last_reported":1736334449,"current_range_meters":27200,"station_id":"ce4bgvp2rcd13ifvqcu0","pricing_plan_id":"cebpf4jnsgd1na2vs0mg"},{"bike_id":"253dce08-9ecd-4b2e-a405-e2079672eff4","system_id":"levelo_inurba_marseille","lat":43.31302,"lon":5.3972,"is_reserved":false,"is_disabled":false,"rental_uris":{"android":"levelo://app?vid=253dce08-9ecd-4b2e-a405-e2079672eff4","ios":"levelo://app?vid=253dce08-9ecd-4b2e-a405-e2079672eff4"},"vehicle_type_id":"4","last_reported":1736334449,"current_range_meters":38800,"station_id":"ce4bgvp2rcd13ifvqcu0","pricing_plan_id":"cebpf4jnsgd1na2vs0mg"},{"bike_id":"54706f4d-3807-4316-80c4-c6c99386bb04","system_id":"levelo_inurba_marseille","lat":43.26699,"lon":5.38274,"is_reserved":false,"is_disabled":false,"rental_uris":{"android":"levelo://app?vid=54706f4d-3807-4316-80c4-c6c99386bb04","ios":"levelo://app?vid=54706f4d-3807-4316-80c4-c6c99386bb04"},"vehicle_type_id":"4","last_reported":1736334449,"current_range_meters":38800,"station_id":"ce4bhg92rcd13ifvqf90","pricing_plan_id":"cebpf4jnsgd1na2vs0mg"},{"bike_id":"cac6d88b-d7ac-46a8-bc8b-d11694250484","system_id":"levelo_inurba_marseille","lat":43.28359,"lon":5.38632,"is_reserved":false,"is_disabled":false,"rental_uris":{"android":"levelo://app?vid=cac6d88b-d7ac-46a8-bc8b-d11694250484","ios":"levelo://app?vid=cac6d88b-d7ac-46a8-bc8b-d11694250484"},"vehicle_type_id":"4","last_reported":1736334449,"current_range_meters":38800,"station_id":"ce4bh492rcd13ifvqdvg","pricing_plan_id":"cebpf4jnsgd1na2vs0mg"},{"bike_id":"d4e6248e-5526-47d5-86cf-f46afb735eb2","system_id":"levelo_inurba_marseille","lat":43.27498,"lon":5.42447,"is_reserved":false,"is_disabled":false,"rental_uris":{"android":"levelo://app?vid=d4e6248e-5526-47d5-86cf-f46afb735eb2","ios":"levelo://app?vid=d4e6248e-5526-47d5-86cf-f46afb735eb2"},"vehicle_type_id":"4","last_reported":1736334449,"current_range_meters":30000,"station_id":"ce4bhn92rcd13ifvqgrg","pricing_plan_id":"cebpf4jnsgd1na2vs0mg"},{"bike_id":"e1d67e76-e9ef-43a5-b307-2704c03519b0","system_id":"levelo_inurba_marseille","lat":43.28919,"lon":5.39697,"is_reserved":false,"is_disabled":false,"rental_uris":{"android":"levelo://app?vid=e1d67e76-e9ef-43a5-b307-2704c03519b0","ios":"levelo://app?vid=e1d67e76-e9ef-43a5-b307-2704c03519b0"},"vehicle_type_id":"4","last_reported":1736334449,"current_range_meters":17200,"station_id":"","pricing_plan_id":"cebpf4jnsgd1na2vs0mg"},{"bike_id":"3fd8c986-d393-40dd-a28c-67a9ff20b0ca","system_id":"levelo_inurba_marseille","lat":43.30267,"lon":5.37729,"is_reserved":false,"is_disabled":false,"rental_uris":{"android":"levelo://app?vid=3fd8c986-d393-40dd-a28c-67a9ff20b0ca","ios":"levelo://app?vid=3fd8c986-d393-40dd-a28c-67a9ff20b0ca"},"vehicle_type_id":"4","last_reported":1736334449,"current_range_meters":38800,"station_id":"ce4bguh2rcd13ifvqcj0","pricing_plan_id":"cebpf4jnsgd1na2vs0mg"},{"bike_id":"8d65b2b1-927b-45d9-8b22-6f75685ab908","system_id":"levelo_inurba_marseille","lat":43.23158,"lon":5.43713,"is_reserved":false,"is_disabled":false,"rental_uris":{"android":"levelo://app?vid=8d65b2b1-927b-45d9-8b22-6f75685ab908","ios":"levelo://app?vid=8d65b2b1-927b-45d9-8b22-6f75685ab908"},"vehicle_type_id":"4","last_reported":1736334449,"current_range_meters":39200,"station_id":"ce4bhmp2rcd13ifvqgog","pricing_plan_id":"cebpf4jnsgd1na2vs0mg"},{"bike_id":"b07d00a8-6032-4d59-abf5-d2c19c2da952","system_id":"levelo_inurba_marseille","lat":43.31336,"lon":5.36732,"is_reserved":false,"is_disabled":false,"rental_uris":{"android":"levelo://app?vid=b07d00a8-6032-4d59-abf5-d2c19c2da952","ios":"levelo://app?vid=b07d00a8-6032-4d59-abf5-d2c19c2da952"},"vehicle_type_id":"4","last_reported":1736334449,"current_range_meters":38800,"station_id":"ce4bgr92rcd13ifvqc6g","pricing_plan_id":"cebpf4jnsgd1na2vs0mg"},{"bike_id":"c9e6329b-81c0-4a33-bf19-b3b1edd120f3","system_id":"levelo_inurba_marseille","lat":43.23174,"lon":5.39986,"is_reserved":false,"is_disabled":false,"rental_uris":{"android":"levelo://app?vid=c9e6329b-81c0-4a33-bf19-b3b1edd120f3","ios":"levelo://app?vid=c9e6329b-81c0-4a33-bf19-b3b1edd120f3"},"vehicle_type_id":"4","last_reported":1736334449,"current_range_meters":16400,"station_id":"ce4bhn12rcd13ifvqgqg","pricing_plan_id":"cebpf4jnsgd1na2vs0mg"},{"bike_id":"f5477bd9-ae2b-4f4a-90d2-43e1d2905a20","system_id":"levelo_inurba_marseille","lat":43.28416,"lon":5.34995,"is_reserved":false,"is_disabled":false,"rental_uris":{"android":"levelo://app?vid=f5477bd9-ae2b-4f4a-90d2-43e1d2905a20","ios":"levelo://app?vid=f5477bd9-ae2b-4f4a-90d2-43e1d2905a20"},"vehicle_type_id":"4","last_reported":1736334449,"current_range_meters":19200,"station_id":"ce4bhbh2rcd13ifvqepg","pricing_plan_id":"cebpf4jnsgd1na2vs0mg"},{"bike_id":"6ef3d828-8726-4c54-afa9-cc4619492b1b","system_id":"levelo_inurba_marseille","lat":43.31329,"lon":5.39687,"is_reserved":false,"is_disabled":false,"rental_uris":{"android":"levelo://app?vid=6ef3d828-8726-4c54-afa9-cc4619492b1b","ios":"levelo://app?vid=6ef3d828-8726-4c54-afa9-cc4619492b1b"},"vehicle_type_id":"4","last_reported":1736334449,"current_range_meters":10000,"station_id":"ce4bgvp2rcd13ifvqcu0","pricing_plan_id":"cebpf4jnsgd1na2vs0mg"},{"bike_id":"3db76c14-10ba-44c7-9025-9f542d5d4924","system_id":"levelo_inurba_marseille","lat":43.29289,"lon":5.37436,"is_reserved":false,"is_disabled":false,"rental_uris":{"android":"levelo://app?vid=3db76c14-10ba-44c7-9025-9f542d5d4924","ios":"levelo://app?vid=3db76c14-10ba-44c7-9025-9f542d5d4924"},"vehicle_type_id":"4","last_reported":1736334449,"current_range_meters":38000,"station_id":"ce4bgi12rcd13ifvqb70","pricing_plan_id":"cebpf4jnsgd1na2vs0mg"},{"bike_id":"a25a9571-68eb-4f8c-b5c4-11cd6d79579e","system_id":"levelo_inurba_marseille","lat":43.23148,"lon":5.4372,"is_reserved":false,"is_disabled":false,"rental_uris":{"android":"levelo://app?vid=a25a9571-68eb-4f8c-b5c4-11cd6d79579e","ios":"levelo://app?vid=a25a9571-68eb-4f8c-b5c4-11cd6d79579e"},"vehicle_type_id":"4","last_reported":1736334449,"current_range_meters":38800,"station_id":"ce4bhmp2rcd13ifvqgog","pricing_plan_id":"cebpf4jnsgd1na2vs0mg"},{"bike_id":"ab0af7f7-aad2-428a-b763-076a11f417cd","system_id":"levelo_inurba_marseille","lat":43.32655,"lon":5.40994,"is_reserved":false,"is_disabled":false,"rental_uris":{"android":"levelo://app?vid=ab0af7f7-aad2-428a-b763-076a11f417cd","ios":"levelo://app?vid=ab0af7f7-aad2-428a-b763-076a11f417cd"},"vehicle_type_id":"4","last_reported":1736334449,"current_range_meters":36000,"station_id":"ce4bhpp2rcd13ifvqhgg","pricing_plan_id":"cebpf4jnsgd1na2vs0mg"},{"bike_id":"031c2797-021a-413d-9a4a-117028831830","system_id":"levelo_inurba_marseille","lat":43.28401,"lon":5.37525,"is_reserved":false,"is_disabled":true,"rental_uris":{"android":"levelo://app?vid=031c2797-021a-413d-9a4a-117028831830","ios":"levelo://app?vid=031c2797-021a-413d-9a4a-117028831830"},"vehicle_type_id":"4","last_reported":1736334449,"current_range_meters":800,"station_id":"ce4bh412rcd13ifvqds0","pricing_plan_id":"cebpf4jnsgd1na2vs0mg"},{"bike_id":"3e436db9-f423-4441-8ddd-f48e627696a4","system_id":"levelo_inurba_marseille","lat":43.30523,"lon":5.36538,"is_reserved":false,"is_disabled":false,"rental_uris":{"android":"levelo://app?vid=3e436db9-f423-4441-8ddd-f48e627696a4","ios":"levelo://app?vid=3e436db9-f423-4441-8ddd-f48e627696a4"},"vehicle_type_id":"4","last_reported":1736334449,"current_range_meters":34800,"station_id":"ce4bgs12rcd13ifvqcag","pricing_plan_id":"cebpf4jnsgd1na2vs0mg"},{"bike_id":"a1ceaab5-cc98-4739-8fba-923512224dcf","system_id":"levelo_inurba_marseille","lat":43.23181,"lon":5.35577,"is_reserved":false,"is_disabled":false,"rental_uris":{"android":"levelo://app?vid=a1ceaab5-cc98-4739-8fba-923512224dcf","ios":"levelo://app?vid=a1ceaab5-cc98-4739-8fba-923512224dcf"},"vehicle_type_id":"4","last_reported":1736334449,"current_range_meters":38800,"station_id":"ce4bhu92rcd13ifvqi70","pricing_plan_id":"cebpf4jnsgd1na2vs0mg"},{"bike_id":"19a2e6e5-2826-4489-8e2c-76dfec5c26a1","system_id":"levelo_inurba_marseille","lat":43.29372,"lon":5.37835,"is_reserved":false,"is_disabled":false,"rental_uris":{"android":"levelo://app?vid=19a2e6e5-2826-4489-8e2c-76dfec5c26a1","ios":"levelo://app?vid=19a2e6e5-2826-4489-8e2c-76dfec5c26a1"},"vehicle_type_id":"4","last_reported":1736334449,"current_range_meters":39200,"station_id":"ce4bgjh2rcd13ifvqbf0","pricing_plan_id":"cebpf4jnsgd1na2vs0mg"},{"bike_id":"14f0e155-f124-4f13-b6d6-8f7a176a6a41","system_id":"levelo_inurba_marseille","lat":43.27567,"lon":5.38408,"is_reserved":false,"is_disabled":false,"rental_uris":{"android":"levelo://app?vid=14f0e155-f124-4f13-b6d6-8f7a176a6a41","ios":"levelo://app?vid=14f0e155-f124-4f13-b6d6-8f7a176a6a41"},"vehicle_type_id":"4","last_reported":1736334449,"current_range_meters":30800,"station_id":"ce4bhh92rcd13ifvqfi0","pricing_plan_id":"cebpf4jnsgd1na2vs0mg"},{"bike_id":"670aca15-a0b5-4e9b-9f94-4d512f324a68","system_id":"levelo_inurba_marseille","lat":43.2918,"lon":5.3931,"is_reserved":false,"is_disabled":true,"rental_uris":{"android":"levelo://app?vid=670aca15-a0b5-4e9b-9f94-4d512f324a68","ios":"levelo://app?vid=670aca15-a0b5-4e9b-9f94-4d512f324a68"},"vehicle_type_id":"4","last_reported":1736334449,"current_range_meters":4400,"station_id":"ce4bh192rcd13ifvqdd0","pricing_plan_id":"cebpf4jnsgd1na2vs0mg"},{"bike_id":"1bdf9ea7-9cda-433d-929f-366643850a3b","system_id":"levelo_inurba_marseille","lat":43.2317,"lon":5.43703,"is_reserved":false,"is_disabled":false,"rental_uris":{"android":"levelo://app?vid=1bdf9ea7-9cda-433d-929f-366643850a3b","ios":"levelo://app?vid=1bdf9ea7-9cda-433d-929f-366643850a3b"},"vehicle_type_id":"4","last_reported":1736334449,"current_range_meters":38800,"station_id":"ce4bhmp2rcd13ifvqgog","pricing_plan_id":"cebpf4jnsgd1na2vs0mg"},{"bike_id":"0d869571-702b-474e-9734-e51fa36b8db2","system_id":"levelo_inurba_marseille","lat":43.291841,"lon":5.393146,"is_reserved":false,"is_disabled":true,"rental_uris":{"android":"levelo://app?vid=0d869571-702b-474e-9734-e51fa36b8db2","ios":"levelo://app?vid=0d869571-702b-474e-9734-e51fa36b8db2"},"vehicle_type_id":"4","last_reported":1736334449,"current_range_meters":4000,"station_id":"ce4bh192rcd13ifvqdd0","pricing_plan_id":"cebpf4jnsgd1na2vs0mg"},{"bike_id":"17455e38-23e7-4417-bfd6-acfba9715e77","system_id":"levelo_inurba_marseille","lat":43.31162,"lon":5.38719,"is_reserved":false,"is_disabled":false,"rental_uris":{"android":"levelo://app?vid=17455e38-23e7-4417-bfd6-acfba9715e77","ios":"levelo://app?vid=17455e38-23e7-4417-bfd6-acfba9715e77"},"vehicle_type_id":"4","last_reported":1736334449,"current_range_meters":38400,"station_id":"ce4bgv12rcd13ifvqcp0","pricing_plan_id":"cebpf4jnsgd1na2vs0mg"},{"bike_id":"c276b730-5d31-4ec8-9c89-be9e0b19b00e","system_id":"levelo_inurba_marseille","lat":43.27972,"lon":5.38778,"is_reserved":false,"is_disabled":false,"rental_uris":{"android":"levelo://app?vid=c276b730-5d31-4ec8-9c89-be9e0b19b00e","ios":"levelo://app?vid=c276b730-5d31-4ec8-9c89-be9e0b19b00e"},"vehicle_type_id":"4","last_reported":1736334449,"current_range_meters":9200,"station_id":"ce4bhg12rcd13ifvqf80","pricing_plan_id":"cebpf4jnsgd1na2vs0mg"},{"bike_id":"f5ccc5f6-079e-40fb-8a2d-13909406ac83","system_id":"levelo_inurba_marseille","lat":43.26947,"lon":5.38649,"is_reserved":false,"is_disabled":false,"rental_uris":{"android":"levelo://app?vid=f5ccc5f6-079e-40fb-8a2d-13909406ac83","ios":"levelo://app?vid=f5ccc5f6-079e-40fb-8a2d-13909406ac83"},"vehicle_type_id":"4","last_reported":1736334449,"current_range_meters":20000,"station_id":"ce4bhh92rcd13ifvqfh0","pricing_plan_id":"cebpf4jnsgd1na2vs0mg"},{"bike_id":"89211829-6a20-497c-8e50-7e7d27e11d4c","system_id":"levelo_inurba_marseille","lat":43.28149,"lon":5.42641,"is_reserved":false,"is_disabled":false,"rental_uris":{"android":"levelo://app?vid=89211829-6a20-497c-8e50-7e7d27e11d4c","ios":"levelo://app?vid=89211829-6a20-497c-8e50-7e7d27e11d4c"},"vehicle_type_id":"4","last_reported":1736334449,"current_range_meters":8000,"station_id":"ce4bhnh2rcd13ifvqgug","pricing_plan_id":"cebpf4jnsgd1na2vs0mg"},{"bike_id":"129946c8-9f9a-4ba2-9e9c-1829d86903e0","system_id":"levelo_inurba_marseille","lat":43.29931,"lon":5.36551,"is_reserved":false,"is_disabled":false,"rental_uris":{"android":"levelo://app?vid=129946c8-9f9a-4ba2-9e9c-1829d86903e0","ios":"levelo://app?vid=129946c8-9f9a-4ba2-9e9c-1829d86903e0"},"vehicle_type_id":"4","last_reported":1736334449,"current_range_meters":4800,"station_id":"ce4bgm92rcd13ifvqbr0","pricing_plan_id":"cebpf4jnsgd1na2vs0mg"},{"bike_id":"f3c56e8f-b5fc-4a50-9099-35953d86638d","system_id":"levelo_inurba_marseille","lat":43.28571,"lon":5.395,"is_reserved":false,"is_disabled":false,"rental_uris":{"android":"levelo://app?vid=f3c56e8f-b5fc-4a50-9099-35953d86638d","ios":"levelo://app?vid=f3c56e8f-b5fc-4a50-9099-35953d86638d"},"vehicle_type_id":"4","last_reported":1736334449,"current_range_meters":38800,"station_id":"ce4bh292rcd13ifvqdg0","pricing_plan_id":"cebpf4jnsgd1na2vs0mg"},{"bike_id":"ddd3be09-f86c-4a46-a9f8-b7504e8f1d97","system_id":"levelo_inurba_marseille","lat":43.24648,"lon":5.3889,"is_reserved":false,"is_disabled":false,"rental_uris":{"android":"levelo://app?vid=ddd3be09-f86c-4a46-a9f8-b7504e8f1d97","ios":"levelo://app?vid=ddd3be09-f86c-4a46-a9f8-b7504e8f1d97"},"vehicle_type_id":"4","last_reported":1736334449,"current_range_meters":32000,"station_id":"ce4bhg12rcd13ifvqf60","pricing_plan_id":"cebpf4jnsgd1na2vs0mg"},{"bike_id":"5cf5d467-316b-44fa-8fb8-856da6a44a4c","system_id":"levelo_inurba_marseille","lat":43.27799,"lon":5.40736,"is_reserved":false,"is_disabled":true,"rental_uris":{"android":"levelo://app?vid=5cf5d467-316b-44fa-8fb8-856da6a44a4c","ios":"levelo://app?vid=5cf5d467-316b-44fa-8fb8-856da6a44a4c"},"vehicle_type_id":"4","last_reported":1736334449,"current_range_meters":0,"station_id":"ce4bhnh2rcd13ifvqgtg","pricing_plan_id":"cebpf4jnsgd1na2vs0mg"},{"bike_id":"d3223931-0093-411c-bbb1-9586b74e30b4","system_id":"levelo_inurba_marseille","lat":43.27093,"lon":5.42286,"is_reserved":false,"is_disabled":false,"rental_uris":{"android":"levelo://app?vid=d3223931-0093-411c-bbb1-9586b74e30b4","ios":"levelo://app?vid=d3223931-0093-411c-bbb1-9586b74e30b4"},"vehicle_type_id":"4","last_reported":1736334449,"current_range_meters":38800,"station_id":"ce4bhk92rcd13ifvqgb0","pricing_plan_id":"cebpf4jnsgd1na2vs0mg"},{"bike_id":"9316647f-ed5c-4405-9959-54bd12d4298a","system_id":"levelo_inurba_marseille","lat":43.2826,"lon":5.35073,"is_reserved":false,"is_disabled":false,"rental_uris":{"android":"levelo://app?vid=9316647f-ed5c-4405-9959-54bd12d4298a","ios":"levelo://app?vid=9316647f-ed5c-4405-9959-54bd12d4298a"},"vehicle_type_id":"4","last_reported":1736334449,"current_range_meters":6400,"station_id":"ce4bhbp2rcd13ifvqerg","pricing_plan_id":"cebpf4jnsgd1na2vs0mg"},{"bike_id":"9d39e866-ebca-46c3-b87a-305702ec2b65","system_id":"levelo_inurba_marseille","lat":43.29001,"lon":5.35615,"is_reserved":false,"is_disabled":false,"rental_uris":{"android":"levelo://app?vid=9d39e866-ebca-46c3-b87a-305702ec2b65","ios":"levelo://app?vid=9d39e866-ebca-46c3-b87a-305702ec2b65"},"vehicle_type_id":"4","last_reported":1736334449,"current_range_meters":38400,"station_id":"ce4bhb92rcd13ifvqen0","pricing_plan_id":"cebpf4jnsgd1na2vs0mg"},{"bike_id":"840e3f90-17d0-4c94-88a0-c5120c40cdea","system_id":"levelo_inurba_marseille","lat":43.25718,"lon":5.41111,"is_reserved":false,"is_disabled":false,"rental_uris":{"android":"levelo://app?vid=840e3f90-17d0-4c94-88a0-c5120c40cdea","ios":"levelo://app?vid=840e3f90-17d0-4c94-88a0-c5120c40cdea"},"vehicle_type_id":"4","last_reported":1736334449,"current_range_meters":38800,"station_id":"ce4bhkp2rcd13ifvqgd0","pricing_plan_id":"cebpf4jnsgd1na2vs0mg"},{"bike_id":"371065c5-9f13-481b-9895-a593e7b25ac1","system_id":"levelo_inurba_marseille","lat":43.30142,"lon":5.38074,"is_reserved":false,"is_disabled":false,"rental_uris":{"android":"levelo://app?vid=371065c5-9f13-481b-9895-a593e7b25ac1","ios":"levelo://app?vid=371065c5-9f13-481b-9895-a593e7b25ac1"},"vehicle_type_id":"4","last_reported":1736334449,"current_range_meters":32000,"station_id":"ce4bgjp2rcd13ifvqbh0","pricing_plan_id":"cebpf4jnsgd1na2vs0mg"},{"bike_id":"1bc78c82-74eb-430f-9c54-76623708396a","system_id":"levelo_inurba_marseille","lat":43.26203,"lon":5.37918,"is_reserved":false,"is_disabled":false,"rental_uris":{"android":"levelo://app?vid=1bc78c82-74eb-430f-9c54-76623708396a","ios":"levelo://app?vid=1bc78c82-74eb-430f-9c54-76623708396a"},"vehicle_type_id":"4","last_reported":1736334449,"current_range_meters":20800,"station_id":"ce4bhjp2rcd13ifvqg90","pricing_plan_id":"cebpf4jnsgd1na2vs0mg"},{"bike_id":"3f205333-1375-4776-8495-32be9889d547","system_id":"levelo_inurba_marseille","lat":43.26931,"lon":5.38926,"is_reserved":false,"is_disabled":false,"rental_uris":{"android":"levelo://app?vid=3f205333-1375-4776-8495-32be9889d547","ios":"levelo://app?vid=3f205333-1375-4776-8495-32be9889d547"},"vehicle_type_id":"4","last_reported":1736334449,"current_range_meters":28400,"station_id":"ce4bhhh2rcd13ifvqfl0","pricing_plan_id":"cebpf4jnsgd1na2vs0mg"},{"bike_id":"331f980c-3ddd-4523-93e5-74e3e8e69607","system_id":"levelo_inurba_marseille","lat":43.29292,"lon":5.37423,"is_reserved":false,"is_disabled":false,"rental_uris":{"android":"levelo://app?vid=331f980c-3ddd-4523-93e5-74e3e8e69607","ios":"levelo://app?vid=331f980c-3ddd-4523-93e5-74e3e8e69607"},"vehicle_type_id":"4","last_reported":1736334449,"current_range_meters":8000,"station_id":"ce4bgi12rcd13ifvqb70","pricing_plan_id":"cebpf4jnsgd1na2vs0mg"},{"bike_id":"fd6f4bdb-b571-49af-a0f0-595f48931cd9","system_id":"levelo_inurba_marseille","lat":43.29965,"lon":5.37165,"is_reserved":false,"is_disabled":false,"rental_uris":{"android":"levelo://app?vid=fd6f4bdb-b571-49af-a0f0-595f48931cd9","ios":"levelo://app?vid=fd6f4bdb-b571-49af-a0f0-595f48931cd9"},"vehicle_type_id":"4","last_reported":1736334449,"current_range_meters":26800,"station_id":"ce4bgr92rcd13ifvqc7g","pricing_plan_id":"cebpf4jnsgd1na2vs0mg"},{"bike_id":"f5a57341-d2f8-4a69-bf53-d7f21b551eff","system_id":"levelo_inurba_marseille","lat":43.30889,"lon":5.37191,"is_reserved":false,"is_disabled":false,"rental_uris":{"android":"levelo://app?vid=f5a57341-d2f8-4a69-bf53-d7f21b551eff","ios":"levelo://app?vid=f5a57341-d2f8-4a69-bf53-d7f21b551eff"},"vehicle_type_id":"4","last_reported":1736334449,"current_range_meters":38800,"station_id":"ce4bguh2rcd13ifvqckg","pricing_plan_id":"cebpf4jnsgd1na2vs0mg"},{"bike_id":"f315f1f6-15a6-45f1-b66d-ebc071343df0","system_id":"levelo_inurba_marseille","lat":43.29372,"lon":5.37847,"is_reserved":false,"is_disabled":false,"rental_uris":{"android":"levelo://app?vid=f315f1f6-15a6-45f1-b66d-ebc071343df0","ios":"levelo://app?vid=f315f1f6-15a6-45f1-b66d-ebc071343df0"},"vehicle_type_id":"4","last_reported":1736334449,"current_range_meters":32000,"station_id":"ce4bgjh2rcd13ifvqbf0","pricing_plan_id":"cebpf4jnsgd1na2vs0mg"},{"bike_id":"514d218d-b1d9-4d7b-9fa0-8ced26e21a3c","system_id":"levelo_inurba_marseille","lat":43.27201,"lon":5.40962,"is_reserved":false,"is_disabled":false,"rental_uris":{"android":"levelo://app?vid=514d218d-b1d9-4d7b-9fa0-8ced26e21a3c","ios":"levelo://app?vid=514d218d-b1d9-4d7b-9fa0-8ced26e21a3c"},"vehicle_type_id":"4","last_reported":1736334449,"current_range_meters":38400,"station_id":"ce4bhl12rcd13ifvqgf0","pricing_plan_id":"cebpf4jnsgd1na2vs0mg"},{"bike_id":"5b5fb6f5-de41-4407-8530-59f3fadee569","system_id":"levelo_inurba_marseille","lat":43.26785,"lon":5.39414,"is_reserved":false,"is_disabled":false,"rental_uris":{"android":"levelo://app?vid=5b5fb6f5-de41-4407-8530-59f3fadee569","ios":"levelo://app?vid=5b5fb6f5-de41-4407-8530-59f3fadee569"},"vehicle_type_id":"4","last_reported":1736334449,"current_range_meters":34000,"station_id":"ce4bhh12rcd13ifvqfg0","pricing_plan_id":"cebpf4jnsgd1na2vs0mg"},{"bike_id":"686279be-6049-4184-a825-8e59383b85d6","system_id":"levelo_inurba_marseille","lat":43.29416,"lon":5.38626,"is_reserved":false,"is_disabled":false,"rental_uris":{"android":"levelo://app?vid=686279be-6049-4184-a825-8e59383b85d6","ios":"levelo://app?vid=686279be-6049-4184-a825-8e59383b85d6"},"vehicle_type_id":"4","last_reported":1736334449,"current_range_meters":28000,"station_id":"ce4bh2h2rcd13ifvqdh0","pricing_plan_id":"cebpf4jnsgd1na2vs0mg"},{"bike_id":"224a60e5-c52c-48b0-a24b-de7b1b71367c","system_id":"levelo_inurba_marseille","lat":43.314825,"lon":5.373098,"is_reserved":false,"is_disabled":true,"rental_uris":{"android":"levelo://app?vid=224a60e5-c52c-48b0-a24b-de7b1b71367c","ios":"levelo://app?vid=224a60e5-c52c-48b0-a24b-de7b1b71367c"},"vehicle_type_id":"4","last_reported":1736334449,"current_range_meters":8800,"station_id":"ce4bgt12rcd13ifvqcd0","pricing_plan_id":"cebpf4jnsgd1na2vs0mg"},{"bike_id":"8c9f902b-6145-4b29-8893-9f907145c8a9","system_id":"levelo_inurba_marseille","lat":43.23032,"lon":5.35528,"is_reserved":false,"is_disabled":false,"rental_uris":{"android":"levelo://app?vid=8c9f902b-6145-4b29-8893-9f907145c8a9","ios":"levelo://app?vid=8c9f902b-6145-4b29-8893-9f907145c8a9"},"vehicle_type_id":"4","last_reported":1736334449,"current_range_meters":37600,"station_id":"cpo3342slgdg3j2ifvpg","pricing_plan_id":"cebpf4jnsgd1na2vs0mg"},{"bike_id":"c149f94c-e67e-4d82-8d58-defaef1244a4","system_id":"levelo_inurba_marseille","lat":43.24546,"lon":5.39527,"is_reserved":false,"is_disabled":false,"rental_uris":{"android":"levelo://app?vid=c149f94c-e67e-4d82-8d58-defaef1244a4","ios":"levelo://app?vid=c149f94c-e67e-4d82-8d58-defaef1244a4"},"vehicle_type_id":"4","last_reported":1736334449,"current_range_meters":38800,"station_id":"ce4bhlp2rcd13ifvqgjg","pricing_plan_id":"cebpf4jnsgd1na2vs0mg"},{"bike_id":"6a299307-cb31-4701-aff9-d0095ea2acfb","system_id":"levelo_inurba_marseille","lat":43.23146,"lon":5.43722,"is_reserved":false,"is_disabled":false,"rental_uris":{"android":"levelo://app?vid=6a299307-cb31-4701-aff9-d0095ea2acfb","ios":"levelo://app?vid=6a299307-cb31-4701-aff9-d0095ea2acfb"},"vehicle_type_id":"4","last_reported":1736334449,"current_range_meters":20800,"station_id":"ce4bhmp2rcd13ifvqgog","pricing_plan_id":"cebpf4jnsgd1na2vs0mg"},{"bike_id":"43764dc1-75b3-4b00-b9c0-0d1a15e2dc38","system_id":"levelo_inurba_marseille","lat":43.30538,"lon":5.36527,"is_reserved":false,"is_disabled":false,"rental_uris":{"android":"levelo://app?vid=43764dc1-75b3-4b00-b9c0-0d1a15e2dc38","ios":"levelo://app?vid=43764dc1-75b3-4b00-b9c0-0d1a15e2dc38"},"vehicle_type_id":"4","last_reported":1736334449,"current_range_meters":38800,"station_id":"ce4bgs12rcd13ifvqcag","pricing_plan_id":"cebpf4jnsgd1na2vs0mg"},{"bike_id":"ea60edce-76ab-4155-8e79-99022a30bcac","system_id":"levelo_inurba_marseille","lat":43.29555,"lon":5.42265,"is_reserved":false,"is_disabled":false,"rental_uris":{"android":"levelo://app?vid=ea60edce-76ab-4155-8e79-99022a30bcac","ios":"levelo://app?vid=ea60edce-76ab-4155-8e79-99022a30bcac"},"vehicle_type_id":"4","last_reported":1736334449,"current_range_meters":13600,"station_id":"ce4bhph2rcd13ifvqhdg","pricing_plan_id":"cebpf4jnsgd1na2vs0mg"},{"bike_id":"0c47a616-1792-49c5-8643-63d45ecb4055","system_id":"levelo_inurba_marseille","lat":43.23148,"lon":5.43723,"is_reserved":false,"is_disabled":false,"rental_uris":{"android":"levelo://app?vid=0c47a616-1792-49c5-8643-63d45ecb4055","ios":"levelo://app?vid=0c47a616-1792-49c5-8643-63d45ecb4055"},"vehicle_type_id":"4","last_reported":1736334449,"current_range_meters":38800,"station_id":"ce4bhmp2rcd13ifvqgog","pricing_plan_id":"cebpf4jnsgd1na2vs0mg"},{"bike_id":"9e3531dc-4d9b-4cb1-96a9-6fe31db2f92e","system_id":"levelo_inurba_marseille","lat":43.30872,"lon":5.37191,"is_reserved":false,"is_disabled":false,"rental_uris":{"android":"levelo://app?vid=9e3531dc-4d9b-4cb1-96a9-6fe31db2f92e","ios":"levelo://app?vid=9e3531dc-4d9b-4cb1-96a9-6fe31db2f92e"},"vehicle_type_id":"4","last_reported":1736334449,"current_range_meters":30800,"station_id":"ce4bguh2rcd13ifvqckg","pricing_plan_id":"cebpf4jnsgd1na2vs0mg"},{"bike_id":"b13965eb-7a3e-487c-8f4f-1d2936af4009","system_id":"levelo_inurba_marseille","lat":43.2582,"lon":5.394333,"is_reserved":false,"is_disabled":false,"rental_uris":{"android":"levelo://app?vid=b13965eb-7a3e-487c-8f4f-1d2936af4009","ios":"levelo://app?vid=b13965eb-7a3e-487c-8f4f-1d2936af4009"},"vehicle_type_id":"4","last_reported":1736334449,"current_range_meters":38800,"station_id":"ce4bhip2rcd13ifvqft0","pricing_plan_id":"cebpf4jnsgd1na2vs0mg"},{"bike_id":"3ad0f3ed-1061-459e-b238-515ecfd1abd9","system_id":"levelo_inurba_marseille","lat":43.30806,"lon":5.37663,"is_reserved":false,"is_disabled":true,"rental_uris":{"android":"levelo://app?vid=3ad0f3ed-1061-459e-b238-515ecfd1abd9","ios":"levelo://app?vid=3ad0f3ed-1061-459e-b238-515ecfd1abd9"},"vehicle_type_id":"4","last_reported":1736334449,"current_range_meters":38000,"station_id":"","pricing_plan_id":"cebpf4jnsgd1na2vs0mg"},{"bike_id":"637c9e25-6ec5-4d5c-9ec9-ed6c73dcb821","system_id":"levelo_inurba_marseille","lat":43.317,"lon":5.37778,"is_reserved":false,"is_disabled":false,"rental_uris":{"android":"levelo://app?vid=637c9e25-6ec5-4d5c-9ec9-ed6c73dcb821","ios":"levelo://app?vid=637c9e25-6ec5-4d5c-9ec9-ed6c73dcb821"},"vehicle_type_id":"4","last_reported":1736334449,"current_range_meters":31200,"station_id":"ce4bgth2rcd13ifvqch0","pricing_plan_id":"cebpf4jnsgd1na2vs0mg"},{"bike_id":"b699344e-2198-4712-bef2-06a24ae8311f","system_id":"levelo_inurba_marseille","lat":43.243913,"lon":5.370547,"is_reserved":false,"is_disabled":false,"rental_uris":{"android":"levelo://app?vid=b699344e-2198-4712-bef2-06a24ae8311f","ios":"levelo://app?vid=b699344e-2198-4712-bef2-06a24ae8311f"},"vehicle_type_id":"4","last_reported":1736334449,"current_range_meters":8800,"station_id":"ce4bhhh2rcd13ifvqfk0","pricing_plan_id":"cebpf4jnsgd1na2vs0mg"},{"bike_id":"5671a7cc-1094-4b46-906d-b97f733ad9e2","system_id":"levelo_inurba_marseille","lat":43.3032,"lon":5.40469,"is_reserved":false,"is_disabled":true,"rental_uris":{"android":"levelo://app?vid=5671a7cc-1094-4b46-906d-b97f733ad9e2","ios":"levelo://app?vid=5671a7cc-1094-4b46-906d-b97f733ad9e2"},"vehicle_type_id":"4","last_reported":1736334449,"current_range_meters":32800,"station_id":"ce4bh012rcd13ifvqd10","pricing_plan_id":"cebpf4jnsgd1na2vs0mg"},{"bike_id":"e595796a-c7a2-4bc5-9efd-820721cae471","system_id":"levelo_inurba_marseille","lat":43.25932,"lon":5.40904,"is_reserved":false,"is_disabled":false,"rental_uris":{"android":"levelo://app?vid=e595796a-c7a2-4bc5-9efd-820721cae471","ios":"levelo://app?vid=e595796a-c7a2-4bc5-9efd-820721cae471"},"vehicle_type_id":"4","last_reported":1736334449,"current_range_meters":37600,"station_id":"ce4bhm92rcd13ifvqglg","pricing_plan_id":"cebpf4jnsgd1na2vs0mg"},{"bike_id":"013091b2-da9b-4660-95cc-06e55ec64952","system_id":"levelo_inurba_marseille","lat":43.2508,"lon":5.39534,"is_reserved":false,"is_disabled":false,"rental_uris":{"android":"levelo://app?vid=013091b2-da9b-4660-95cc-06e55ec64952","ios":"levelo://app?vid=013091b2-da9b-4660-95cc-06e55ec64952"},"vehicle_type_id":"4","last_reported":1736334449,"current_range_meters":16400,"station_id":"ce4bhm12rcd13ifvqgkg","pricing_plan_id":"cebpf4jnsgd1na2vs0mg"},{"bike_id":"005c2044-0c78-410b-b1cd-e1e9feaa0e05","system_id":"levelo_inurba_marseille","lat":43.23974,"lon":5.36607,"is_reserved":false,"is_disabled":false,"rental_uris":{"android":"levelo://app?vid=005c2044-0c78-410b-b1cd-e1e9feaa0e05","ios":"levelo://app?vid=005c2044-0c78-410b-b1cd-e1e9feaa0e05"},"vehicle_type_id":"4","last_reported":1736334449,"current_range_meters":13600,"station_id":"ce4bhi12rcd13ifvqfp0","pricing_plan_id":"cebpf4jnsgd1na2vs0mg"},{"bike_id":"db190856-6440-4075-89bd-6bb8e507459d","system_id":"levelo_inurba_marseille","lat":43.23957,"lon":5.36653,"is_reserved":false,"is_disabled":false,"rental_uris":{"android":"levelo://app?vid=db190856-6440-4075-89bd-6bb8e507459d","ios":"levelo://app?vid=db190856-6440-4075-89bd-6bb8e507459d"},"vehicle_type_id":"4","last_reported":1736334449,"current_range_meters":9200,"station_id":"ce4bhi12rcd13ifvqfp0","pricing_plan_id":"cebpf4jnsgd1na2vs0mg"},{"bike_id":"74388ae4-4408-407a-9d11-13079dd0fb96","system_id":"levelo_inurba_marseille","lat":43.29293,"lon":5.37432,"is_reserved":false,"is_disabled":false,"rental_uris":{"android":"levelo://app?vid=74388ae4-4408-407a-9d11-13079dd0fb96","ios":"levelo://app?vid=74388ae4-4408-407a-9d11-13079dd0fb96"},"vehicle_type_id":"4","last_reported":1736334449,"current_range_meters":5600,"station_id":"ce4bgi12rcd13ifvqb70","pricing_plan_id":"cebpf4jnsgd1na2vs0mg"},{"bike_id":"6a595de3-0911-46a9-bdbf-4cca5437105e","system_id":"levelo_inurba_marseille","lat":43.23198,"lon":5.35561,"is_reserved":false,"is_disabled":false,"rental_uris":{"android":"levelo://app?vid=6a595de3-0911-46a9-bdbf-4cca5437105e","ios":"levelo://app?vid=6a595de3-0911-46a9-bdbf-4cca5437105e"},"vehicle_type_id":"4","last_reported":1736334449,"current_range_meters":10800,"station_id":"ce4bhu92rcd13ifvqi70","pricing_plan_id":"cebpf4jnsgd1na2vs0mg"},{"bike_id":"641d8acc-50b2-4173-ab23-c70f2a11d28e","system_id":"levelo_inurba_marseille","lat":43.28136,"lon":5.42683,"is_reserved":false,"is_disabled":true,"rental_uris":{"android":"levelo://app?vid=641d8acc-50b2-4173-ab23-c70f2a11d28e","ios":"levelo://app?vid=641d8acc-50b2-4173-ab23-c70f2a11d28e"},"vehicle_type_id":"4","last_reported":1736334449,"current_range_meters":19200,"station_id":"ce4bhnh2rcd13ifvqgug","pricing_plan_id":"cebpf4jnsgd1na2vs0mg"},{"bike_id":"3e13ca79-282a-40f8-b8a4-64c85ead4b78","system_id":"levelo_inurba_marseille","lat":43.31323,"lon":5.39705,"is_reserved":false,"is_disabled":false,"rental_uris":{"android":"levelo://app?vid=3e13ca79-282a-40f8-b8a4-64c85ead4b78","ios":"levelo://app?vid=3e13ca79-282a-40f8-b8a4-64c85ead4b78"},"vehicle_type_id":"4","last_reported":1736334449,"current_range_meters":15200,"station_id":"ce4bgvp2rcd13ifvqcu0","pricing_plan_id":"cebpf4jnsgd1na2vs0mg"},{"bike_id":"4a309558-80dc-41fc-8d1f-f7f76baadbf6","system_id":"levelo_inurba_marseille","lat":43.29839,"lon":5.36272,"is_reserved":false,"is_disabled":false,"rental_uris":{"android":"levelo://app?vid=4a309558-80dc-41fc-8d1f-f7f76baadbf6","ios":"levelo://app?vid=4a309558-80dc-41fc-8d1f-f7f76baadbf6"},"vehicle_type_id":"4","last_reported":1736334449,"current_range_meters":16800,"station_id":"ce4bgpp2rcd13ifvqc3g","pricing_plan_id":"cebpf4jnsgd1na2vs0mg"},{"bike_id":"d9697bb8-b1e0-405f-a7a8-a19e2df9e468","system_id":"levelo_inurba_marseille","lat":43.30536,"lon":5.36712,"is_reserved":false,"is_disabled":false,"rental_uris":{"android":"levelo://app?vid=d9697bb8-b1e0-405f-a7a8-a19e2df9e468","ios":"levelo://app?vid=d9697bb8-b1e0-405f-a7a8-a19e2df9e468"},"vehicle_type_id":"4","last_reported":1736334449,"current_range_meters":38800,"station_id":"ce4bgrp2rcd13ifvqc9g","pricing_plan_id":"cebpf4jnsgd1na2vs0mg"},{"bike_id":"8c858107-e5fd-4fbe-8983-30181ef150ee","system_id":"levelo_inurba_marseille","lat":43.23963,"lon":5.36643,"is_reserved":false,"is_disabled":false,"rental_uris":{"android":"levelo://app?vid=8c858107-e5fd-4fbe-8983-30181ef150ee","ios":"levelo://app?vid=8c858107-e5fd-4fbe-8983-30181ef150ee"},"vehicle_type_id":"4","last_reported":1736334449,"current_range_meters":15200,"station_id":"ce4bhi12rcd13ifvqfp0","pricing_plan_id":"cebpf4jnsgd1na2vs0mg"},{"bike_id":"eb76c646-8adc-409f-b1e6-d1eabb3d2215","system_id":"levelo_inurba_marseille","lat":43.25937,"lon":5.40908,"is_reserved":false,"is_disabled":false,"rental_uris":{"android":"levelo://app?vid=eb76c646-8adc-409f-b1e6-d1eabb3d2215","ios":"levelo://app?vid=eb76c646-8adc-409f-b1e6-d1eabb3d2215"},"vehicle_type_id":"4","last_reported":1736334449,"current_range_meters":27200,"station_id":"ce4bhm92rcd13ifvqglg","pricing_plan_id":"cebpf4jnsgd1na2vs0mg"},{"bike_id":"ef865a1a-dbe5-4277-9b7f-b3ee8f9d5707","system_id":"levelo_inurba_marseille","lat":43.25937,"lon":5.40907,"is_reserved":false,"is_disabled":false,"rental_uris":{"android":"levelo://app?vid=ef865a1a-dbe5-4277-9b7f-b3ee8f9d5707","ios":"levelo://app?vid=ef865a1a-dbe5-4277-9b7f-b3ee8f9d5707"},"vehicle_type_id":"4","last_reported":1736334449,"current_range_meters":38800,"station_id":"ce4bhm92rcd13ifvqglg","pricing_plan_id":"cebpf4jnsgd1na2vs0mg"},{"bike_id":"0a79eed2-003b-4218-9fdf-f43d76c17e3e","system_id":"levelo_inurba_marseille","lat":43.292991,"lon":5.374633,"is_reserved":false,"is_disabled":true,"rental_uris":{"android":"levelo://app?vid=0a79eed2-003b-4218-9fdf-f43d76c17e3e","ios":"levelo://app?vid=0a79eed2-003b-4218-9fdf-f43d76c17e3e"},"vehicle_type_id":"4","last_reported":1736334449,"current_range_meters":34800,"station_id":"ce4bgi12rcd13ifvqb70","pricing_plan_id":"cebpf4jnsgd1na2vs0mg"},{"bike_id":"6d88bbf0-f428-4bd4-ab8a-2ee8d5e7c74e","system_id":"levelo_inurba_marseille","lat":43.23064,"lon":5.35501,"is_reserved":false,"is_disabled":false,"rental_uris":{"android":"levelo://app?vid=6d88bbf0-f428-4bd4-ab8a-2ee8d5e7c74e","ios":"levelo://app?vid=6d88bbf0-f428-4bd4-ab8a-2ee8d5e7c74e"},"vehicle_type_id":"4","last_reported":1736334449,"current_range_meters":35200,"station_id":"cpo3342slgdg3j2ifvpg","pricing_plan_id":"cebpf4jnsgd1na2vs0mg"},{"bike_id":"768e9c78-d0a3-4809-a132-8653852c97b2","system_id":"levelo_inurba_marseille","lat":43.27497,"lon":5.42456,"is_reserved":false,"is_disabled":false,"rental_uris":{"android":"levelo://app?vid=768e9c78-d0a3-4809-a132-8653852c97b2","ios":"levelo://app?vid=768e9c78-d0a3-4809-a132-8653852c97b2"},"vehicle_type_id":"4","last_reported":1736334449,"current_range_meters":19600,"station_id":"ce4bhn92rcd13ifvqgrg","pricing_plan_id":"cebpf4jnsgd1na2vs0mg"},{"bike_id":"1a096314-d6ef-461f-a95e-455f564da617","system_id":"levelo_inurba_marseille","lat":43.28387,"lon":5.37532,"is_reserved":false,"is_disabled":true,"rental_uris":{"android":"levelo://app?vid=1a096314-d6ef-461f-a95e-455f564da617","ios":"levelo://app?vid=1a096314-d6ef-461f-a95e-455f564da617"},"vehicle_type_id":"4","last_reported":1736334449,"current_range_meters":36800,"station_id":"ce4bh412rcd13ifvqds0","pricing_plan_id":"cebpf4jnsgd1na2vs0mg"},{"bike_id":"b9ac262c-aa58-4b6c-a622-e2509739e1c2","system_id":"levelo_inurba_marseille","lat":43.24996,"lon":5.38924,"is_reserved":false,"is_disabled":false,"rental_uris":{"android":"levelo://app?vid=b9ac262c-aa58-4b6c-a622-e2509739e1c2","ios":"levelo://app?vid=b9ac262c-aa58-4b6c-a622-e2509739e1c2"},"vehicle_type_id":"4","last_reported":1736334449,"current_range_meters":25600,"station_id":"ce4bhgp2rcd13ifvqfd0","pricing_plan_id":"cebpf4jnsgd1na2vs0mg"},{"bike_id":"05171470-9655-4536-889b-43822d7bd8f5","system_id":"levelo_inurba_marseille","lat":43.31281,"lon":5.37403,"is_reserved":false,"is_disabled":false,"rental_uris":{"android":"levelo://app?vid=05171470-9655-4536-889b-43822d7bd8f5","ios":"levelo://app?vid=05171470-9655-4536-889b-43822d7bd8f5"},"vehicle_type_id":"4","last_reported":1736334449,"current_range_meters":9600,"station_id":"","pricing_plan_id":"cebpf4jnsgd1na2vs0mg"},{"bike_id":"a08d1bc4-06da-4b73-8c8f-c4b7c9c619f2","system_id":"levelo_inurba_marseille","lat":43.23171,"lon":5.39988,"is_reserved":false,"is_disabled":false,"rental_uris":{"android":"levelo://app?vid=a08d1bc4-06da-4b73-8c8f-c4b7c9c619f2","ios":"levelo://app?vid=a08d1bc4-06da-4b73-8c8f-c4b7c9c619f2"},"vehicle_type_id":"4","last_reported":1736334449,"current_range_meters":38400,"station_id":"ce4bhn12rcd13ifvqgqg","pricing_plan_id":"cebpf4jnsgd1na2vs0mg"},{"bike_id":"85b826d4-c269-45a3-b329-8848e8347ec7","system_id":"levelo_inurba_marseille","lat":43.28613,"lon":5.35108,"is_reserved":false,"is_disabled":false,"rental_uris":{"android":"levelo://app?vid=85b826d4-c269-45a3-b329-8848e8347ec7","ios":"levelo://app?vid=85b826d4-c269-45a3-b329-8848e8347ec7"},"vehicle_type_id":"4","last_reported":1736334449,"current_range_meters":4400,"station_id":"ce4bhch2rcd13ifvqeug","pricing_plan_id":"cebpf4jnsgd1na2vs0mg"},{"bike_id":"dac13373-ea26-4b26-b6ac-4dabd0ff721b","system_id":"levelo_inurba_marseille","lat":43.29372,"lon":5.37837,"is_reserved":false,"is_disabled":false,"rental_uris":{"android":"levelo://app?vid=dac13373-ea26-4b26-b6ac-4dabd0ff721b","ios":"levelo://app?vid=dac13373-ea26-4b26-b6ac-4dabd0ff721b"},"vehicle_type_id":"4","last_reported":1736334449,"current_range_meters":38800,"station_id":"ce4bgjh2rcd13ifvqbf0","pricing_plan_id":"cebpf4jnsgd1na2vs0mg"},{"bike_id":"ef18015a-c2b8-4fe2-b01a-49731bda1825","system_id":"levelo_inurba_marseille","lat":43.29748,"lon":5.37658,"is_reserved":false,"is_disabled":false,"rental_uris":{"android":"levelo://app?vid=ef18015a-c2b8-4fe2-b01a-49731bda1825","ios":"levelo://app?vid=ef18015a-c2b8-4fe2-b01a-49731bda1825"},"vehicle_type_id":"4","last_reported":1736334449,"current_range_meters":31200,"station_id":"","pricing_plan_id":"cebpf4jnsgd1na2vs0mg"},{"bike_id":"ab037b9e-8e35-4497-b3de-17439dda7625","system_id":"levelo_inurba_marseille","lat":43.23152,"lon":5.43711,"is_reserved":false,"is_disabled":false,"rental_uris":{"android":"levelo://app?vid=ab037b9e-8e35-4497-b3de-17439dda7625","ios":"levelo://app?vid=ab037b9e-8e35-4497-b3de-17439dda7625"},"vehicle_type_id":"4","last_reported":1736334449,"current_range_meters":28800,"station_id":"ce4bhmp2rcd13ifvqgog","pricing_plan_id":"cebpf4jnsgd1na2vs0mg"},{"bike_id":"1eb8b8fc-0fdf-4440-98ab-d54db1502e51","system_id":"levelo_inurba_marseille","lat":43.30171,"lon":5.36619,"is_reserved":false,"is_disabled":false,"rental_uris":{"android":"levelo://app?vid=1eb8b8fc-0fdf-4440-98ab-d54db1502e51","ios":"levelo://app?vid=1eb8b8fc-0fdf-4440-98ab-d54db1502e51"},"vehicle_type_id":"4","last_reported":1736334449,"current_range_meters":38800,"station_id":"ce4bgrh2rcd13ifvqc8g","pricing_plan_id":"cebpf4jnsgd1na2vs0mg"},{"bike_id":"0d5482e7-f541-412e-a421-0991dca692ea","system_id":"levelo_inurba_marseille","lat":43.31391,"lon":5.36695,"is_reserved":false,"is_disabled":false,"rental_uris":{"android":"levelo://app?vid=0d5482e7-f541-412e-a421-0991dca692ea","ios":"levelo://app?vid=0d5482e7-f541-412e-a421-0991dca692ea"},"vehicle_type_id":"4","last_reported":1736334449,"current_range_meters":38800,"station_id":"","pricing_plan_id":"cebpf4jnsgd1na2vs0mg"},{"bike_id":"cdfea266-e5fd-4018-a292-1ba3701f72dd","system_id":"levelo_inurba_marseille","lat":43.25489,"lon":5.37669,"is_reserved":false,"is_disabled":false,"rental_uris":{"android":"levelo://app?vid=cdfea266-e5fd-4018-a292-1ba3701f72dd","ios":"levelo://app?vid=cdfea266-e5fd-4018-a292-1ba3701f72dd"},"vehicle_type_id":"4","last_reported":1736334449,"current_range_meters":28000,"station_id":"ce4bhh12rcd13ifvqff0","pricing_plan_id":"cebpf4jnsgd1na2vs0mg"},{"bike_id":"e19d4919-c591-4078-bc50-79ae14ac4c6b","system_id":"levelo_inurba_marseille","lat":43.30265,"lon":5.37733,"is_reserved":false,"is_disabled":false,"rental_uris":{"android":"levelo://app?vid=e19d4919-c591-4078-bc50-79ae14ac4c6b","ios":"levelo://app?vid=e19d4919-c591-4078-bc50-79ae14ac4c6b"},"vehicle_type_id":"4","last_reported":1736334449,"current_range_meters":36800,"station_id":"ce4bguh2rcd13ifvqcj0","pricing_plan_id":"cebpf4jnsgd1na2vs0mg"},{"bike_id":"ebe2855d-10ef-4682-8861-c7f4ec91888f","system_id":"levelo_inurba_marseille","lat":43.33725,"lon":5.39174,"is_reserved":false,"is_disabled":false,"rental_uris":{"android":"levelo://app?vid=ebe2855d-10ef-4682-8861-c7f4ec91888f","ios":"levelo://app?vid=ebe2855d-10ef-4682-8861-c7f4ec91888f"},"vehicle_type_id":"4","last_reported":1736334449,"current_range_meters":39200,"station_id":"ce4bhr92rcd13ifvqhsg","pricing_plan_id":"cebpf4jnsgd1na2vs0mg"},{"bike_id":"3ba2ae87-072b-4c97-a591-fea60c9c8af7","system_id":"levelo_inurba_marseille","lat":43.29236,"lon":5.40917,"is_reserved":false,"is_disabled":false,"rental_uris":{"android":"levelo://app?vid=3ba2ae87-072b-4c97-a591-fea60c9c8af7","ios":"levelo://app?vid=3ba2ae87-072b-4c97-a591-fea60c9c8af7"},"vehicle_type_id":"4","last_reported":1736334449,"current_range_meters":34000,"station_id":"ce4bh192rcd13ifvqdc0","pricing_plan_id":"cebpf4jnsgd1na2vs0mg"},{"bike_id":"99605e56-ba08-4eb9-b83e-d6d931978a7f","system_id":"levelo_inurba_marseille","lat":43.26939,"lon":5.40253,"is_reserved":false,"is_disabled":false,"rental_uris":{"android":"levelo://app?vid=99605e56-ba08-4eb9-b83e-d6d931978a7f","ios":"levelo://app?vid=99605e56-ba08-4eb9-b83e-d6d931978a7f"},"vehicle_type_id":"4","last_reported":1736334449,"current_range_meters":27600,"station_id":"","pricing_plan_id":"cebpf4jnsgd1na2vs0mg"},{"bike_id":"95cb9be4-3c13-4db7-aab3-f290173bc916","system_id":"levelo_inurba_marseille","lat":43.28264,"lon":5.35074,"is_reserved":false,"is_disabled":false,"rental_uris":{"android":"levelo://app?vid=95cb9be4-3c13-4db7-aab3-f290173bc916","ios":"levelo://app?vid=95cb9be4-3c13-4db7-aab3-f290173bc916"},"vehicle_type_id":"4","last_reported":1736334449,"current_range_meters":30000,"station_id":"ce4bhbp2rcd13ifvqerg","pricing_plan_id":"cebpf4jnsgd1na2vs0mg"},{"bike_id":"c4ece075-62d8-400a-b873-18850276cf5a","system_id":"levelo_inurba_marseille","lat":43.27959,"lon":5.38761,"is_reserved":false,"is_disabled":false,"rental_uris":{"android":"levelo://app?vid=c4ece075-62d8-400a-b873-18850276cf5a","ios":"levelo://app?vid=c4ece075-62d8-400a-b873-18850276cf5a"},"vehicle_type_id":"4","last_reported":1736334449,"current_range_meters":11600,"station_id":"ce4bhg12rcd13ifvqf80","pricing_plan_id":"cebpf4jnsgd1na2vs0mg"},{"bike_id":"bd7a65c2-9d47-4a77-9109-57459ddf79ea","system_id":"levelo_inurba_marseille","lat":43.33616,"lon":5.41035,"is_reserved":false,"is_disabled":false,"rental_uris":{"android":"levelo://app?vid=bd7a65c2-9d47-4a77-9109-57459ddf79ea","ios":"levelo://app?vid=bd7a65c2-9d47-4a77-9109-57459ddf79ea"},"vehicle_type_id":"4","last_reported":1736334449,"current_range_meters":36800,"station_id":"ce4bhqh2rcd13ifvqhmg","pricing_plan_id":"cebpf4jnsgd1na2vs0mg"},{"bike_id":"d2b56a15-230e-4877-8466-23e461fb8aea","system_id":"levelo_inurba_marseille","lat":43.30528,"lon":5.36535,"is_reserved":false,"is_disabled":false,"rental_uris":{"android":"levelo://app?vid=d2b56a15-230e-4877-8466-23e461fb8aea","ios":"levelo://app?vid=d2b56a15-230e-4877-8466-23e461fb8aea"},"vehicle_type_id":"4","last_reported":1736334449,"current_range_meters":20400,"station_id":"ce4bgs12rcd13ifvqcag","pricing_plan_id":"cebpf4jnsgd1na2vs0mg"},{"bike_id":"39bedfab-5abf-4402-bf7e-cb9f470f945f","system_id":"levelo_inurba_marseille","lat":43.257,"lon":5.41137,"is_reserved":false,"is_disabled":false,"rental_uris":{"android":"levelo://app?vid=39bedfab-5abf-4402-bf7e-cb9f470f945f","ios":"levelo://app?vid=39bedfab-5abf-4402-bf7e-cb9f470f945f"},"vehicle_type_id":"4","last_reported":1736334449,"current_range_meters":38800,"station_id":"ce4bhkp2rcd13ifvqgd0","pricing_plan_id":"cebpf4jnsgd1na2vs0mg"},{"bike_id":"9535e3a7-5cf3-4d8b-b4c1-a58d434715e2","system_id":"levelo_inurba_marseille","lat":43.26949,"lon":5.38626,"is_reserved":false,"is_disabled":false,"rental_uris":{"android":"levelo://app?vid=9535e3a7-5cf3-4d8b-b4c1-a58d434715e2","ios":"levelo://app?vid=9535e3a7-5cf3-4d8b-b4c1-a58d434715e2"},"vehicle_type_id":"4","last_reported":1736334449,"current_range_meters":28400,"station_id":"ce4bhh92rcd13ifvqfh0","pricing_plan_id":"cebpf4jnsgd1na2vs0mg"},{"bike_id":"ea852d0a-df29-4707-9c13-190f5661aec6","system_id":"levelo_inurba_marseille","lat":43.30354,"lon":5.41888,"is_reserved":false,"is_disabled":false,"rental_uris":{"android":"levelo://app?vid=ea852d0a-df29-4707-9c13-190f5661aec6","ios":"levelo://app?vid=ea852d0a-df29-4707-9c13-190f5661aec6"},"vehicle_type_id":"4","last_reported":1736334449,"current_range_meters":26000,"station_id":"ce4bhop2rcd13ifvqh7g","pricing_plan_id":"cebpf4jnsgd1na2vs0mg"},{"bike_id":"534d5c19-63eb-487b-ba35-7ca0d64394d9","system_id":"levelo_inurba_marseille","lat":43.27085,"lon":5.40251,"is_reserved":false,"is_disabled":false,"rental_uris":{"android":"levelo://app?vid=534d5c19-63eb-487b-ba35-7ca0d64394d9","ios":"levelo://app?vid=534d5c19-63eb-487b-ba35-7ca0d64394d9"},"vehicle_type_id":"4","last_reported":1736334449,"current_range_meters":7200,"station_id":"ce4bhk92rcd13ifvqgc0","pricing_plan_id":"cebpf4jnsgd1na2vs0mg"},{"bike_id":"ec5e1995-bc93-4317-a3ea-c5a3988c773e","system_id":"levelo_inurba_marseille","lat":43.23189,"lon":5.35554,"is_reserved":false,"is_disabled":false,"rental_uris":{"android":"levelo://app?vid=ec5e1995-bc93-4317-a3ea-c5a3988c773e","ios":"levelo://app?vid=ec5e1995-bc93-4317-a3ea-c5a3988c773e"},"vehicle_type_id":"4","last_reported":1736334449,"current_range_meters":14000,"station_id":"ce4bhu92rcd13ifvqi70","pricing_plan_id":"cebpf4jnsgd1na2vs0mg"},{"bike_id":"e63f1381-465a-42a4-9983-175aafc43e9d","system_id":"levelo_inurba_marseille","lat":43.23149,"lon":5.43727,"is_reserved":false,"is_disabled":false,"rental_uris":{"android":"levelo://app?vid=e63f1381-465a-42a4-9983-175aafc43e9d","ios":"levelo://app?vid=e63f1381-465a-42a4-9983-175aafc43e9d"},"vehicle_type_id":"4","last_reported":1736334449,"current_range_meters":19200,"station_id":"ce4bhmp2rcd13ifvqgog","pricing_plan_id":"cebpf4jnsgd1na2vs0mg"},{"bike_id":"3af9aed3-600d-41eb-821b-058b9ff7b0d9","system_id":"levelo_inurba_marseille","lat":43.2622,"lon":5.37881,"is_reserved":false,"is_disabled":false,"rental_uris":{"android":"levelo://app?vid=3af9aed3-600d-41eb-821b-058b9ff7b0d9","ios":"levelo://app?vid=3af9aed3-600d-41eb-821b-058b9ff7b0d9"},"vehicle_type_id":"4","last_reported":1736334449,"current_range_meters":37600,"station_id":"ce4bhjp2rcd13ifvqg90","pricing_plan_id":"cebpf4jnsgd1na2vs0mg"},{"bike_id":"84af57f7-9322-42ab-b53a-2e41975cb415","system_id":"levelo_inurba_marseille","lat":43.32045,"lon":5.41531,"is_reserved":false,"is_disabled":false,"rental_uris":{"android":"levelo://app?vid=84af57f7-9322-42ab-b53a-2e41975cb415","ios":"levelo://app?vid=84af57f7-9322-42ab-b53a-2e41975cb415"},"vehicle_type_id":"4","last_reported":1736334449,"current_range_meters":39200,"station_id":"ce4bhq92rcd13ifvqhkg","pricing_plan_id":"cebpf4jnsgd1na2vs0mg"},{"bike_id":"173b8156-8ec2-4a44-8398-8fe31bff5456","system_id":"levelo_inurba_marseille","lat":43.2761,"lon":5.36123,"is_reserved":false,"is_disabled":false,"rental_uris":{"android":"levelo://app?vid=173b8156-8ec2-4a44-8398-8fe31bff5456","ios":"levelo://app?vid=173b8156-8ec2-4a44-8398-8fe31bff5456"},"vehicle_type_id":"4","last_reported":1736334449,"current_range_meters":38800,"station_id":"ce4bgj92rcd13ifvqbe0","pricing_plan_id":"cebpf4jnsgd1na2vs0mg"},{"bike_id":"ab027cbb-c8b6-41ca-bbe4-ccb08d726da5","system_id":"levelo_inurba_marseille","lat":43.28931,"lon":5.38387,"is_reserved":false,"is_disabled":false,"rental_uris":{"android":"levelo://app?vid=ab027cbb-c8b6-41ca-bbe4-ccb08d726da5","ios":"levelo://app?vid=ab027cbb-c8b6-41ca-bbe4-ccb08d726da5"},"vehicle_type_id":"4","last_reported":1736334449,"current_range_meters":24000,"station_id":"ce4bh612rcd13ifvqe6g","pricing_plan_id":"cebpf4jnsgd1na2vs0mg"},{"bike_id":"54632882-c3ef-41a2-b675-eb01a3529c3e","system_id":"levelo_inurba_marseille","lat":43.25497,"lon":5.37656,"is_reserved":false,"is_disabled":false,"rental_uris":{"android":"levelo://app?vid=54632882-c3ef-41a2-b675-eb01a3529c3e","ios":"levelo://app?vid=54632882-c3ef-41a2-b675-eb01a3529c3e"},"vehicle_type_id":"4","last_reported":1736334449,"current_range_meters":10800,"station_id":"ce4bhh12rcd13ifvqff0","pricing_plan_id":"cebpf4jnsgd1na2vs0mg"},{"bike_id":"18e331ea-1f05-47ba-82b6-99d6f4fdbdf2","system_id":"levelo_inurba_marseille","lat":43.28596,"lon":5.35153,"is_reserved":false,"is_disabled":false,"rental_uris":{"android":"levelo://app?vid=18e331ea-1f05-47ba-82b6-99d6f4fdbdf2","ios":"levelo://app?vid=18e331ea-1f05-47ba-82b6-99d6f4fdbdf2"},"vehicle_type_id":"4","last_reported":1736334449,"current_range_meters":24800,"station_id":"ce4bhch2rcd13ifvqeug","pricing_plan_id":"cebpf4jnsgd1na2vs0mg"},{"bike_id":"470a0a7e-dbfe-4326-9489-cedffb503df1","system_id":"levelo_inurba_marseille","lat":43.29271,"lon":5.38438,"is_reserved":false,"is_disabled":true,"rental_uris":{"android":"levelo://app?vid=470a0a7e-dbfe-4326-9489-cedffb503df1","ios":"levelo://app?vid=470a0a7e-dbfe-4326-9489-cedffb503df1"},"vehicle_type_id":"4","last_reported":1736334449,"current_range_meters":10800,"station_id":"ce4bh692rcd13ifvqea0","pricing_plan_id":"cebpf4jnsgd1na2vs0mg"},{"bike_id":"aa33a53e-f806-43a8-ad7e-8e2bd9644426","system_id":"levelo_inurba_marseille","lat":43.32345,"lon":5.40629,"is_reserved":false,"is_disabled":true,"rental_uris":{"android":"levelo://app?vid=aa33a53e-f806-43a8-ad7e-8e2bd9644426","ios":"levelo://app?vid=aa33a53e-f806-43a8-ad7e-8e2bd9644426"},"vehicle_type_id":"4","last_reported":1736334449,"current_range_meters":0,"station_id":"ce4bhq92rcd13ifvqhjg","pricing_plan_id":"cebpf4jnsgd1na2vs0mg"},{"bike_id":"139d7fee-ba07-4123-ad67-237db0bc1f21","system_id":"levelo_inurba_marseille","lat":43.26953,"lon":5.3862,"is_reserved":false,"is_disabled":false,"rental_uris":{"android":"levelo://app?vid=139d7fee-ba07-4123-ad67-237db0bc1f21","ios":"levelo://app?vid=139d7fee-ba07-4123-ad67-237db0bc1f21"},"vehicle_type_id":"4","last_reported":1736334449,"current_range_meters":28800,"station_id":"ce4bhh92rcd13ifvqfh0","pricing_plan_id":"cebpf4jnsgd1na2vs0mg"},{"bike_id":"ceac42de-75f3-4997-a555-a81b76889e89","system_id":"levelo_inurba_marseille","lat":43.28262,"lon":5.35076,"is_reserved":false,"is_disabled":false,"rental_uris":{"android":"levelo://app?vid=ceac42de-75f3-4997-a555-a81b76889e89","ios":"levelo://app?vid=ceac42de-75f3-4997-a555-a81b76889e89"},"vehicle_type_id":"4","last_reported":1736334449,"current_range_meters":8000,"station_id":"ce4bhbp2rcd13ifvqerg","pricing_plan_id":"cebpf4jnsgd1na2vs0mg"},{"bike_id":"015df2ec-0dd0-4de1-8244-56462b4571fd","system_id":"levelo_inurba_marseille","lat":43.25819,"lon":5.39437,"is_reserved":false,"is_disabled":false,"rental_uris":{"android":"levelo://app?vid=015df2ec-0dd0-4de1-8244-56462b4571fd","ios":"levelo://app?vid=015df2ec-0dd0-4de1-8244-56462b4571fd"},"vehicle_type_id":"4","last_reported":1736334449,"current_range_meters":12400,"station_id":"ce4bhip2rcd13ifvqft0","pricing_plan_id":"cebpf4jnsgd1na2vs0mg"},{"bike_id":"6bcb1d85-d1d6-4db5-a7d7-b7b2eabc73d5","system_id":"levelo_inurba_marseille","lat":43.30593,"lon":5.37236,"is_reserved":false,"is_disabled":false,"rental_uris":{"android":"levelo://app?vid=6bcb1d85-d1d6-4db5-a7d7-b7b2eabc73d5","ios":"levelo://app?vid=6bcb1d85-d1d6-4db5-a7d7-b7b2eabc73d5"},"vehicle_type_id":"4","last_reported":1736334449,"current_range_meters":16400,"station_id":"ce4bgqh2rcd13ifvqc4g","pricing_plan_id":"cebpf4jnsgd1na2vs0mg"},{"bike_id":"be457d0e-e951-4c20-92b5-c162743063cd","system_id":"levelo_inurba_marseille","lat":43.33015,"lon":5.39046,"is_reserved":false,"is_disabled":false,"rental_uris":{"android":"levelo://app?vid=be457d0e-e951-4c20-92b5-c162743063cd","ios":"levelo://app?vid=be457d0e-e951-4c20-92b5-c162743063cd"},"vehicle_type_id":"4","last_reported":1736334449,"current_range_meters":14000,"station_id":"ce4bhr92rcd13ifvqhrg","pricing_plan_id":"cebpf4jnsgd1na2vs0mg"},{"bike_id":"5a610a92-ec66-4c09-b8f2-d292ab86e791","system_id":"levelo_inurba_marseille","lat":43.30136,"lon":5.37422,"is_reserved":false,"is_disabled":true,"rental_uris":{"android":"levelo://app?vid=5a610a92-ec66-4c09-b8f2-d292ab86e791","ios":"levelo://app?vid=5a610a92-ec66-4c09-b8f2-d292ab86e791"},"vehicle_type_id":"4","last_reported":1736334449,"current_range_meters":38400,"station_id":"","pricing_plan_id":"cebpf4jnsgd1na2vs0mg"},{"bike_id":"848a32f2-5334-415d-b217-dfbc39bd34b9","system_id":"levelo_inurba_marseille","lat":43.30841,"lon":5.38035,"is_reserved":false,"is_disabled":true,"rental_uris":{"android":"levelo://app?vid=848a32f2-5334-415d-b217-dfbc39bd34b9","ios":"levelo://app?vid=848a32f2-5334-415d-b217-dfbc39bd34b9"},"vehicle_type_id":"4","last_reported":1736334449,"current_range_meters":0,"station_id":"ce4bgt12rcd13ifvqce0","pricing_plan_id":"cebpf4jnsgd1na2vs0mg"},{"bike_id":"8b42b122-781c-4312-8289-d3e216b3876e","system_id":"levelo_inurba_marseille","lat":43.25937,"lon":5.40915,"is_reserved":false,"is_disabled":false,"rental_uris":{"android":"levelo://app?vid=8b42b122-781c-4312-8289-d3e216b3876e","ios":"levelo://app?vid=8b42b122-781c-4312-8289-d3e216b3876e"},"vehicle_type_id":"4","last_reported":1736334449,"current_range_meters":38800,"station_id":"ce4bhm92rcd13ifvqglg","pricing_plan_id":"cebpf4jnsgd1na2vs0mg"},{"bike_id":"16ca2829-1cfb-4587-8826-dd649700aa02","system_id":"levelo_inurba_marseille","lat":43.31703,"lon":5.37759,"is_reserved":false,"is_disabled":false,"rental_uris":{"android":"levelo://app?vid=16ca2829-1cfb-4587-8826-dd649700aa02","ios":"levelo://app?vid=16ca2829-1cfb-4587-8826-dd649700aa02"},"vehicle_type_id":"4","last_reported":1736334449,"current_range_meters":38800,"station_id":"ce4bgth2rcd13ifvqch0","pricing_plan_id":"cebpf4jnsgd1na2vs0mg"},{"bike_id":"7bdc62c7-c14a-439c-bbed-8541deda2376","system_id":"levelo_inurba_marseille","lat":43.26215,"lon":5.37445,"is_reserved":false,"is_disabled":false,"rental_uris":{"android":"levelo://app?vid=7bdc62c7-c14a-439c-bbed-8541deda2376","ios":"levelo://app?vid=7bdc62c7-c14a-439c-bbed-8541deda2376"},"vehicle_type_id":"4","last_reported":1736334449,"current_range_meters":35600,"station_id":"ce4bhgp2rcd13ifvqfc0","pricing_plan_id":"cebpf4jnsgd1na2vs0mg"},{"bike_id":"14a4122a-f452-4aae-b18c-712339646710","system_id":"levelo_inurba_marseille","lat":43.33033,"lon":5.39043,"is_reserved":false,"is_disabled":false,"rental_uris":{"android":"levelo://app?vid=14a4122a-f452-4aae-b18c-712339646710","ios":"levelo://app?vid=14a4122a-f452-4aae-b18c-712339646710"},"vehicle_type_id":"4","last_reported":1736334449,"current_range_meters":38800,"station_id":"ce4bhr92rcd13ifvqhrg","pricing_plan_id":"cebpf4jnsgd1na2vs0mg"},{"bike_id":"31fc1b88-f4e1-46ba-b85e-c38872103c84","system_id":"levelo_inurba_marseille","lat":43.27923,"lon":5.38713,"is_reserved":false,"is_disabled":true,"rental_uris":{"android":"levelo://app?vid=31fc1b88-f4e1-46ba-b85e-c38872103c84","ios":"levelo://app?vid=31fc1b88-f4e1-46ba-b85e-c38872103c84"},"vehicle_type_id":"4","last_reported":1736334449,"current_range_meters":1600,"station_id":"","pricing_plan_id":"cebpf4jnsgd1na2vs0mg"},{"bike_id":"7b786416-a15d-4888-bc83-cebc3c5143fe","system_id":"levelo_inurba_marseille","lat":43.28036,"lon":5.36944,"is_reserved":false,"is_disabled":false,"rental_uris":{"android":"levelo://app?vid=7b786416-a15d-4888-bc83-cebc3c5143fe","ios":"levelo://app?vid=7b786416-a15d-4888-bc83-cebc3c5143fe"},"vehicle_type_id":"4","last_reported":1736334449,"current_range_meters":35600,"station_id":"ce4bha12rcd13ifvqef0","pricing_plan_id":"cebpf4jnsgd1na2vs0mg"},{"bike_id":"f1d6cef7-2da6-42ec-9c9e-af841bdcc194","system_id":"levelo_inurba_marseille","lat":43.28411,"lon":5.35003,"is_reserved":false,"is_disabled":false,"rental_uris":{"android":"levelo://app?vid=f1d6cef7-2da6-42ec-9c9e-af841bdcc194","ios":"levelo://app?vid=f1d6cef7-2da6-42ec-9c9e-af841bdcc194"},"vehicle_type_id":"4","last_reported":1736334449,"current_range_meters":28800,"station_id":"ce4bhbh2rcd13ifvqepg","pricing_plan_id":"cebpf4jnsgd1na2vs0mg"},{"bike_id":"e5bdb990-8fd8-4d6b-a4be-716d9b355fa0","system_id":"levelo_inurba_marseille","lat":43.3362,"lon":5.41036,"is_reserved":false,"is_disabled":false,"rental_uris":{"android":"levelo://app?vid=e5bdb990-8fd8-4d6b-a4be-716d9b355fa0","ios":"levelo://app?vid=e5bdb990-8fd8-4d6b-a4be-716d9b355fa0"},"vehicle_type_id":"4","last_reported":1736334449,"current_range_meters":38800,"station_id":"ce4bhqh2rcd13ifvqhmg","pricing_plan_id":"cebpf4jnsgd1na2vs0mg"},{"bike_id":"cb076f3a-6344-414a-b8d5-bf28409dd6b4","system_id":"levelo_inurba_marseille","lat":43.32047,"lon":5.41537,"is_reserved":false,"is_disabled":false,"rental_uris":{"android":"levelo://app?vid=cb076f3a-6344-414a-b8d5-bf28409dd6b4","ios":"levelo://app?vid=cb076f3a-6344-414a-b8d5-bf28409dd6b4"},"vehicle_type_id":"4","last_reported":1736334449,"current_range_meters":38400,"station_id":"ce4bhq92rcd13ifvqhkg","pricing_plan_id":"cebpf4jnsgd1na2vs0mg"},{"bike_id":"bbf998ea-d252-4590-8711-16d78ff4b07c","system_id":"levelo_inurba_marseille","lat":43.24646,"lon":5.38883,"is_reserved":false,"is_disabled":false,"rental_uris":{"android":"levelo://app?vid=bbf998ea-d252-4590-8711-16d78ff4b07c","ios":"levelo://app?vid=bbf998ea-d252-4590-8711-16d78ff4b07c"},"vehicle_type_id":"4","last_reported":1736334449,"current_range_meters":23200,"station_id":"ce4bhg12rcd13ifvqf60","pricing_plan_id":"cebpf4jnsgd1na2vs0mg"},{"bike_id":"029846ec-4a4b-4a30-bda8-b1a9de2c64fb","system_id":"levelo_inurba_marseille","lat":43.31353,"lon":5.367095,"is_reserved":false,"is_disabled":false,"rental_uris":{"android":"levelo://app?vid=029846ec-4a4b-4a30-bda8-b1a9de2c64fb","ios":"levelo://app?vid=029846ec-4a4b-4a30-bda8-b1a9de2c64fb"},"vehicle_type_id":"4","last_reported":1736334449,"current_range_meters":27200,"station_id":"ce4bgr92rcd13ifvqc6g","pricing_plan_id":"cebpf4jnsgd1na2vs0mg"},{"bike_id":"923074d6-010f-4e55-8918-33d31e71d5a6","system_id":"levelo_inurba_marseille","lat":43.26067,"lon":5.39406,"is_reserved":false,"is_disabled":false,"rental_uris":{"android":"levelo://app?vid=923074d6-010f-4e55-8918-33d31e71d5a6","ios":"levelo://app?vid=923074d6-010f-4e55-8918-33d31e71d5a6"},"vehicle_type_id":"4","last_reported":1736334449,"current_range_meters":14000,"station_id":"ce4bhh92rcd13ifvqfj0","pricing_plan_id":"cebpf4jnsgd1na2vs0mg"},{"bike_id":"b1d27a1f-e25d-4148-8207-08a1fe843266","system_id":"levelo_inurba_marseille","lat":43.29934,"lon":5.37444,"is_reserved":false,"is_disabled":false,"rental_uris":{"android":"levelo://app?vid=b1d27a1f-e25d-4148-8207-08a1fe843266","ios":"levelo://app?vid=b1d27a1f-e25d-4148-8207-08a1fe843266"},"vehicle_type_id":"4","last_reported":1736334449,"current_range_meters":30400,"station_id":"ce4bgjh2rcd13ifvqbg0","pricing_plan_id":"cebpf4jnsgd1na2vs0mg"},{"bike_id":"ac378c34-4184-45d2-94fe-9e715bf2795b","system_id":"levelo_inurba_marseille","lat":43.30316,"lon":5.3691,"is_reserved":false,"is_disabled":false,"rental_uris":{"android":"levelo://app?vid=ac378c34-4184-45d2-94fe-9e715bf2795b","ios":"levelo://app?vid=ac378c34-4184-45d2-94fe-9e715bf2795b"},"vehicle_type_id":"4","last_reported":1736334449,"current_range_meters":38800,"station_id":"ce4bgqh2rcd13ifvqc5g","pricing_plan_id":"cebpf4jnsgd1na2vs0mg"},{"bike_id":"145c2818-8ca4-406d-b951-510856f0ed73","system_id":"levelo_inurba_marseille","lat":43.33761,"lon":5.37441,"is_reserved":false,"is_disabled":false,"rental_uris":{"android":"levelo://app?vid=145c2818-8ca4-406d-b951-510856f0ed73","ios":"levelo://app?vid=145c2818-8ca4-406d-b951-510856f0ed73"},"vehicle_type_id":"4","last_reported":1736334449,"current_range_meters":27600,"station_id":"","pricing_plan_id":"cebpf4jnsgd1na2vs0mg"},{"bike_id":"d9498735-00f3-48c9-ad13-3d0c9ae00353","system_id":"levelo_inurba_marseille","lat":43.26682,"lon":5.38263,"is_reserved":false,"is_disabled":false,"rental_uris":{"android":"levelo://app?vid=d9498735-00f3-48c9-ad13-3d0c9ae00353","ios":"levelo://app?vid=d9498735-00f3-48c9-ad13-3d0c9ae00353"},"vehicle_type_id":"4","last_reported":1736334449,"current_range_meters":38800,"station_id":"ce4bhg92rcd13ifvqf90","pricing_plan_id":"cebpf4jnsgd1na2vs0mg"},{"bike_id":"ab25b847-0d40-4a43-86f9-a29854f7b6dc","system_id":"levelo_inurba_marseille","lat":43.28729,"lon":5.37934,"is_reserved":false,"is_disabled":false,"rental_uris":{"android":"levelo://app?vid=ab25b847-0d40-4a43-86f9-a29854f7b6dc","ios":"levelo://app?vid=ab25b847-0d40-4a43-86f9-a29854f7b6dc"},"vehicle_type_id":"4","last_reported":1736334449,"current_range_meters":31200,"station_id":"ce4bh9p2rcd13ifvqec0","pricing_plan_id":"cebpf4jnsgd1na2vs0mg"},{"bike_id":"d9829386-769b-47b8-9214-63b638d1061f","system_id":"levelo_inurba_marseille","lat":43.26549,"lon":5.37327,"is_reserved":false,"is_disabled":false,"rental_uris":{"android":"levelo://app?vid=d9829386-769b-47b8-9214-63b638d1061f","ios":"levelo://app?vid=d9829386-769b-47b8-9214-63b638d1061f"},"vehicle_type_id":"4","last_reported":1736334449,"current_range_meters":17200,"station_id":"ce4bhg12rcd13ifvqf70","pricing_plan_id":"cebpf4jnsgd1na2vs0mg"},{"bike_id":"9de0f47f-f279-475a-9983-15ddd7678129","system_id":"levelo_inurba_marseille","lat":43.31552,"lon":5.38006,"is_reserved":false,"is_disabled":false,"rental_uris":{"android":"levelo://app?vid=9de0f47f-f279-475a-9983-15ddd7678129","ios":"levelo://app?vid=9de0f47f-f279-475a-9983-15ddd7678129"},"vehicle_type_id":"4","last_reported":1736334449,"current_range_meters":17200,"station_id":"ce4bhsp2rcd13ifvqi50","pricing_plan_id":"cebpf4jnsgd1na2vs0mg"},{"bike_id":"42d179d0-7dda-416c-9035-751e9ce07fd5","system_id":"levelo_inurba_marseille","lat":43.2958,"lon":5.36745,"is_reserved":false,"is_disabled":false,"rental_uris":{"android":"levelo://app?vid=42d179d0-7dda-416c-9035-751e9ce07fd5","ios":"levelo://app?vid=42d179d0-7dda-416c-9035-751e9ce07fd5"},"vehicle_type_id":"4","last_reported":1736334449,"current_range_meters":38800,"station_id":"ce4bgph2rcd13ifvqc2g","pricing_plan_id":"cebpf4jnsgd1na2vs0mg"},{"bike_id":"12862326-6e9b-4d25-bff6-7861cc3847bb","system_id":"levelo_inurba_marseille","lat":43.26947,"lon":5.38639,"is_reserved":false,"is_disabled":false,"rental_uris":{"android":"levelo://app?vid=12862326-6e9b-4d25-bff6-7861cc3847bb","ios":"levelo://app?vid=12862326-6e9b-4d25-bff6-7861cc3847bb"},"vehicle_type_id":"4","last_reported":1736334449,"current_range_meters":34000,"station_id":"ce4bhh92rcd13ifvqfh0","pricing_plan_id":"cebpf4jnsgd1na2vs0mg"},{"bike_id":"f3068faf-6ea3-45c0-943e-8f5eb9fecb3c","system_id":"levelo_inurba_marseille","lat":43.23975,"lon":5.36612,"is_reserved":false,"is_disabled":false,"rental_uris":{"android":"levelo://app?vid=f3068faf-6ea3-45c0-943e-8f5eb9fecb3c","ios":"levelo://app?vid=f3068faf-6ea3-45c0-943e-8f5eb9fecb3c"},"vehicle_type_id":"4","last_reported":1736334449,"current_range_meters":33200,"station_id":"ce4bhi12rcd13ifvqfp0","pricing_plan_id":"cebpf4jnsgd1na2vs0mg"},{"bike_id":"36bff3e8-f4d1-4092-9378-9dc26cff9ad9","system_id":"levelo_inurba_marseille","lat":43.26542,"lon":5.39016,"is_reserved":false,"is_disabled":false,"rental_uris":{"android":"levelo://app?vid=36bff3e8-f4d1-4092-9378-9dc26cff9ad9","ios":"levelo://app?vid=36bff3e8-f4d1-4092-9378-9dc26cff9ad9"},"vehicle_type_id":"4","last_reported":1736334449,"current_range_meters":6400,"station_id":"ce4bhe12rcd13ifvqf30","pricing_plan_id":"cebpf4jnsgd1na2vs0mg"},{"bike_id":"2937c8f0-6f06-4c7f-8240-41ad44bc55fa","system_id":"levelo_inurba_marseille","lat":43.23197,"lon":5.3998,"is_reserved":false,"is_disabled":false,"rental_uris":{"android":"levelo://app?vid=2937c8f0-6f06-4c7f-8240-41ad44bc55fa","ios":"levelo://app?vid=2937c8f0-6f06-4c7f-8240-41ad44bc55fa"},"vehicle_type_id":"4","last_reported":1736334449,"current_range_meters":16000,"station_id":"ce4bhn12rcd13ifvqgqg","pricing_plan_id":"cebpf4jnsgd1na2vs0mg"},{"bike_id":"6abc0144-3504-4547-a887-b3d8c395bf5f","system_id":"levelo_inurba_marseille","lat":43.26558,"lon":5.38994,"is_reserved":false,"is_disabled":false,"rental_uris":{"android":"levelo://app?vid=6abc0144-3504-4547-a887-b3d8c395bf5f","ios":"levelo://app?vid=6abc0144-3504-4547-a887-b3d8c395bf5f"},"vehicle_type_id":"4","last_reported":1736334449,"current_range_meters":32400,"station_id":"ce4bhe12rcd13ifvqf30","pricing_plan_id":"cebpf4jnsgd1na2vs0mg"},{"bike_id":"c67f86a7-d1e6-4e2d-a762-5d292001711c","system_id":"levelo_inurba_marseille","lat":43.33038,"lon":5.39056,"is_reserved":false,"is_disabled":false,"rental_uris":{"android":"levelo://app?vid=c67f86a7-d1e6-4e2d-a762-5d292001711c","ios":"levelo://app?vid=c67f86a7-d1e6-4e2d-a762-5d292001711c"},"vehicle_type_id":"4","last_reported":1736334449,"current_range_meters":38400,"station_id":"ce4bhr92rcd13ifvqhrg","pricing_plan_id":"cebpf4jnsgd1na2vs0mg"},{"bike_id":"1ec040e0-5ead-4dcc-ab3d-1c64e76592b4","system_id":"levelo_inurba_marseille","lat":43.24669,"lon":5.38154,"is_reserved":false,"is_disabled":false,"rental_uris":{"android":"levelo://app?vid=1ec040e0-5ead-4dcc-ab3d-1c64e76592b4","ios":"levelo://app?vid=1ec040e0-5ead-4dcc-ab3d-1c64e76592b4"},"vehicle_type_id":"4","last_reported":1736334449,"current_range_meters":24400,"station_id":"ce4bhih2rcd13ifvqfr0","pricing_plan_id":"cebpf4jnsgd1na2vs0mg"},{"bike_id":"f5bef31e-0c3a-484c-979b-bcb12a3f3d66","system_id":"levelo_inurba_marseille","lat":43.289699,"lon":5.378383,"is_reserved":false,"is_disabled":false,"rental_uris":{"android":"levelo://app?vid=f5bef31e-0c3a-484c-979b-bcb12a3f3d66","ios":"levelo://app?vid=f5bef31e-0c3a-484c-979b-bcb12a3f3d66"},"vehicle_type_id":"4","last_reported":1736334449,"current_range_meters":38800,"station_id":"ce4bh9p2rcd13ifvqed0","pricing_plan_id":"cebpf4jnsgd1na2vs0mg"},{"bike_id":"d014f699-d84d-436b-b3bf-8c059d18ea89","system_id":"levelo_inurba_marseille","lat":43.229181,"lon":5.353771,"is_reserved":false,"is_disabled":false,"rental_uris":{"android":"levelo://app?vid=d014f699-d84d-436b-b3bf-8c059d18ea89","ios":"levelo://app?vid=d014f699-d84d-436b-b3bf-8c059d18ea89"},"vehicle_type_id":"4","last_reported":1736334449,"current_range_meters":3600,"station_id":"cpo3532slgdg3j2ikp40","pricing_plan_id":"cebpf4jnsgd1na2vs0mg"},{"bike_id":"85db0274-aa0a-4f9a-b691-02cfca5d3623","system_id":"levelo_inurba_marseille","lat":43.29867,"lon":5.36279,"is_reserved":false,"is_disabled":false,"rental_uris":{"android":"levelo://app?vid=85db0274-aa0a-4f9a-b691-02cfca5d3623","ios":"levelo://app?vid=85db0274-aa0a-4f9a-b691-02cfca5d3623"},"vehicle_type_id":"4","last_reported":1736334449,"current_range_meters":38800,"station_id":"ce4bgpp2rcd13ifvqc3g","pricing_plan_id":"cebpf4jnsgd1na2vs0mg"},{"bike_id":"d7f1142d-7e47-4fb5-bab5-22f5853b8321","system_id":"levelo_inurba_marseille","lat":43.27172,"lon":5.40995,"is_reserved":false,"is_disabled":false,"rental_uris":{"android":"levelo://app?vid=d7f1142d-7e47-4fb5-bab5-22f5853b8321","ios":"levelo://app?vid=d7f1142d-7e47-4fb5-bab5-22f5853b8321"},"vehicle_type_id":"4","last_reported":1736334449,"current_range_meters":14000,"station_id":"ce4bhl12rcd13ifvqgf0","pricing_plan_id":"cebpf4jnsgd1na2vs0mg"},{"bike_id":"727adc74-ff95-43c1-ae2c-3d143f397981","system_id":"levelo_inurba_marseille","lat":43.29202,"lon":5.35802,"is_reserved":false,"is_disabled":false,"rental_uris":{"android":"levelo://app?vid=727adc74-ff95-43c1-ae2c-3d143f397981","ios":"levelo://app?vid=727adc74-ff95-43c1-ae2c-3d143f397981"},"vehicle_type_id":"4","last_reported":1736334449,"current_range_meters":38000,"station_id":"ce4bhb12rcd13ifvqel0","pricing_plan_id":"cebpf4jnsgd1na2vs0mg"},{"bike_id":"955387a8-4a47-4691-946f-78754c88504b","system_id":"levelo_inurba_marseille","lat":43.23206,"lon":5.35567,"is_reserved":false,"is_disabled":false,"rental_uris":{"android":"levelo://app?vid=955387a8-4a47-4691-946f-78754c88504b","ios":"levelo://app?vid=955387a8-4a47-4691-946f-78754c88504b"},"vehicle_type_id":"4","last_reported":1736334449,"current_range_meters":32400,"station_id":"ce4bhu92rcd13ifvqi70","pricing_plan_id":"cebpf4jnsgd1na2vs0mg"},{"bike_id":"f949af9a-2683-4ec9-b4bf-168b31b3bcb2","system_id":"levelo_inurba_marseille","lat":43.24641,"lon":5.38962,"is_reserved":false,"is_disabled":false,"rental_uris":{"android":"levelo://app?vid=f949af9a-2683-4ec9-b4bf-168b31b3bcb2","ios":"levelo://app?vid=f949af9a-2683-4ec9-b4bf-168b31b3bcb2"},"vehicle_type_id":"4","last_reported":1736334449,"current_range_meters":12800,"station_id":"","pricing_plan_id":"cebpf4jnsgd1na2vs0mg"},{"bike_id":"9a9f40db-98b8-4c03-a419-e4b9c52e8d68","system_id":"levelo_inurba_marseille","lat":43.29007,"lon":5.35623,"is_reserved":false,"is_disabled":false,"rental_uris":{"android":"levelo://app?vid=9a9f40db-98b8-4c03-a419-e4b9c52e8d68","ios":"levelo://app?vid=9a9f40db-98b8-4c03-a419-e4b9c52e8d68"},"vehicle_type_id":"4","last_reported":1736334449,"current_range_meters":36000,"station_id":"ce4bhb92rcd13ifvqen0","pricing_plan_id":"cebpf4jnsgd1na2vs0mg"},{"bike_id":"924cf6cf-e55f-47b8-a215-85149c3ae1eb","system_id":"levelo_inurba_marseille","lat":43.2961,"lon":5.37707,"is_reserved":false,"is_disabled":false,"rental_uris":{"android":"levelo://app?vid=924cf6cf-e55f-47b8-a215-85149c3ae1eb","ios":"levelo://app?vid=924cf6cf-e55f-47b8-a215-85149c3ae1eb"},"vehicle_type_id":"4","last_reported":1736334449,"current_range_meters":30400,"station_id":"ce4bgi92rcd13ifvqb90","pricing_plan_id":"cebpf4jnsgd1na2vs0mg"},{"bike_id":"832305bc-42d2-4088-8ed0-2e243155ab6c","system_id":"levelo_inurba_marseille","lat":43.2962,"lon":5.40599,"is_reserved":false,"is_disabled":false,"rental_uris":{"android":"levelo://app?vid=832305bc-42d2-4088-8ed0-2e243155ab6c","ios":"levelo://app?vid=832305bc-42d2-4088-8ed0-2e243155ab6c"},"vehicle_type_id":"4","last_reported":1736334449,"current_range_meters":16000,"station_id":"ce4bh0h2rcd13ifvqd60","pricing_plan_id":"cebpf4jnsgd1na2vs0mg"},{"bike_id":"963de74f-cac6-496f-b456-d8e98cb22421","system_id":"levelo_inurba_marseille","lat":43.28263,"lon":5.3507,"is_reserved":false,"is_disabled":false,"rental_uris":{"android":"levelo://app?vid=963de74f-cac6-496f-b456-d8e98cb22421","ios":"levelo://app?vid=963de74f-cac6-496f-b456-d8e98cb22421"},"vehicle_type_id":"4","last_reported":1736334449,"current_range_meters":39200,"station_id":"ce4bhbp2rcd13ifvqerg","pricing_plan_id":"cebpf4jnsgd1na2vs0mg"},{"bike_id":"8224f5cc-488f-4865-a209-1b9e1d8d59f3","system_id":"levelo_inurba_marseille","lat":43.25117,"lon":5.40318,"is_reserved":false,"is_disabled":false,"rental_uris":{"android":"levelo://app?vid=8224f5cc-488f-4865-a209-1b9e1d8d59f3","ios":"levelo://app?vid=8224f5cc-488f-4865-a209-1b9e1d8d59f3"},"vehicle_type_id":"4","last_reported":1736334449,"current_range_meters":36400,"station_id":"ce4bhlh2rcd13ifvqgig","pricing_plan_id":"cebpf4jnsgd1na2vs0mg"},{"bike_id":"342524fc-8f93-41ec-80be-1909856e171b","system_id":"levelo_inurba_marseille","lat":43.25714,"lon":5.41118,"is_reserved":false,"is_disabled":false,"rental_uris":{"android":"levelo://app?vid=342524fc-8f93-41ec-80be-1909856e171b","ios":"levelo://app?vid=342524fc-8f93-41ec-80be-1909856e171b"},"vehicle_type_id":"4","last_reported":1736334449,"current_range_meters":32400,"station_id":"ce4bhkp2rcd13ifvqgd0","pricing_plan_id":"cebpf4jnsgd1na2vs0mg"},{"bike_id":"11ae5b93-07d4-4a3c-aa7b-7e6a688223f7","system_id":"levelo_inurba_marseille","lat":43.29423,"lon":5.38633,"is_reserved":false,"is_disabled":false,"rental_uris":{"android":"levelo://app?vid=11ae5b93-07d4-4a3c-aa7b-7e6a688223f7","ios":"levelo://app?vid=11ae5b93-07d4-4a3c-aa7b-7e6a688223f7"},"vehicle_type_id":"4","last_reported":1736334449,"current_range_meters":28000,"station_id":"ce4bh2h2rcd13ifvqdh0","pricing_plan_id":"cebpf4jnsgd1na2vs0mg"},{"bike_id":"a344e607-2212-45d5-b6de-a9033a6aa79f","system_id":"levelo_inurba_marseille","lat":43.26216,"lon":5.37929,"is_reserved":false,"is_disabled":false,"rental_uris":{"android":"levelo://app?vid=a344e607-2212-45d5-b6de-a9033a6aa79f","ios":"levelo://app?vid=a344e607-2212-45d5-b6de-a9033a6aa79f"},"vehicle_type_id":"4","last_reported":1736334449,"current_range_meters":36000,"station_id":"ce4bhjp2rcd13ifvqg90","pricing_plan_id":"cebpf4jnsgd1na2vs0mg"},{"bike_id":"250110ef-5b20-479c-b7a7-8ad60af21569","system_id":"levelo_inurba_marseille","lat":43.30164,"lon":5.38078,"is_reserved":false,"is_disabled":false,"rental_uris":{"android":"levelo://app?vid=250110ef-5b20-479c-b7a7-8ad60af21569","ios":"levelo://app?vid=250110ef-5b20-479c-b7a7-8ad60af21569"},"vehicle_type_id":"4","last_reported":1736334449,"current_range_meters":38800,"station_id":"ce4bgjp2rcd13ifvqbh0","pricing_plan_id":"cebpf4jnsgd1na2vs0mg"},{"bike_id":"d1f30451-484c-448a-96fa-d97530f42c96","system_id":"levelo_inurba_marseille","lat":43.28407,"lon":5.34993,"is_reserved":false,"is_disabled":false,"rental_uris":{"android":"levelo://app?vid=d1f30451-484c-448a-96fa-d97530f42c96","ios":"levelo://app?vid=d1f30451-484c-448a-96fa-d97530f42c96"},"vehicle_type_id":"4","last_reported":1736334449,"current_range_meters":17200,"station_id":"ce4bhbh2rcd13ifvqepg","pricing_plan_id":"cebpf4jnsgd1na2vs0mg"},{"bike_id":"16b0ab00-8b4f-4f6e-9216-7be0728dd86e","system_id":"levelo_inurba_marseille","lat":43.31365,"lon":5.36695,"is_reserved":false,"is_disabled":false,"rental_uris":{"android":"levelo://app?vid=16b0ab00-8b4f-4f6e-9216-7be0728dd86e","ios":"levelo://app?vid=16b0ab00-8b4f-4f6e-9216-7be0728dd86e"},"vehicle_type_id":"4","last_reported":1736334449,"current_range_meters":38800,"station_id":"ce4bgr92rcd13ifvqc6g","pricing_plan_id":"cebpf4jnsgd1na2vs0mg"},{"bike_id":"4d8933e2-5888-4f6b-80fa-fa70e448ecfe","system_id":"levelo_inurba_marseille","lat":43.24191,"lon":5.36406,"is_reserved":false,"is_disabled":false,"rental_uris":{"android":"levelo://app?vid=4d8933e2-5888-4f6b-80fa-fa70e448ecfe","ios":"levelo://app?vid=4d8933e2-5888-4f6b-80fa-fa70e448ecfe"},"vehicle_type_id":"4","last_reported":1736334449,"current_range_meters":20000,"station_id":"cpo36qri1sfpv3e86is0","pricing_plan_id":"cebpf4jnsgd1na2vs0mg"},{"bike_id":"1883fefc-c56b-4246-8137-d75de5885410","system_id":"levelo_inurba_marseille","lat":43.24772,"lon":5.38357,"is_reserved":false,"is_disabled":false,"rental_uris":{"android":"levelo://app?vid=1883fefc-c56b-4246-8137-d75de5885410","ios":"levelo://app?vid=1883fefc-c56b-4246-8137-d75de5885410"},"vehicle_type_id":"4","last_reported":1736334449,"current_range_meters":13600,"station_id":"ce4bhih2rcd13ifvqfr0","pricing_plan_id":"cebpf4jnsgd1na2vs0mg"},{"bike_id":"563500c0-f70d-45ce-b338-28109f29f9cb","system_id":"levelo_inurba_marseille","lat":43.29963,"lon":5.37177,"is_reserved":false,"is_disabled":false,"rental_uris":{"android":"levelo://app?vid=563500c0-f70d-45ce-b338-28109f29f9cb","ios":"levelo://app?vid=563500c0-f70d-45ce-b338-28109f29f9cb"},"vehicle_type_id":"4","last_reported":1736334449,"current_range_meters":30400,"station_id":"ce4bgr92rcd13ifvqc7g","pricing_plan_id":"cebpf4jnsgd1na2vs0mg"},{"bike_id":"75409a45-61ce-4b14-be6b-710007820052","system_id":"levelo_inurba_marseille","lat":43.29854,"lon":5.36253,"is_reserved":false,"is_disabled":false,"rental_uris":{"android":"levelo://app?vid=75409a45-61ce-4b14-be6b-710007820052","ios":"levelo://app?vid=75409a45-61ce-4b14-be6b-710007820052"},"vehicle_type_id":"4","last_reported":1736334449,"current_range_meters":28400,"station_id":"ce4bgpp2rcd13ifvqc3g","pricing_plan_id":"cebpf4jnsgd1na2vs0mg"},{"bike_id":"79e4c495-71e2-48e1-96ce-26f15ec0fd56","system_id":"levelo_inurba_marseille","lat":43.295745,"lon":5.36746,"is_reserved":false,"is_disabled":false,"rental_uris":{"android":"levelo://app?vid=79e4c495-71e2-48e1-96ce-26f15ec0fd56","ios":"levelo://app?vid=79e4c495-71e2-48e1-96ce-26f15ec0fd56"},"vehicle_type_id":"4","last_reported":1736334449,"current_range_meters":38000,"station_id":"ce4bgph2rcd13ifvqc2g","pricing_plan_id":"cebpf4jnsgd1na2vs0mg"},{"bike_id":"cbffa85f-21da-4f55-8518-83068fef689f","system_id":"levelo_inurba_marseille","lat":43.26681,"lon":5.3828,"is_reserved":false,"is_disabled":false,"rental_uris":{"android":"levelo://app?vid=cbffa85f-21da-4f55-8518-83068fef689f","ios":"levelo://app?vid=cbffa85f-21da-4f55-8518-83068fef689f"},"vehicle_type_id":"4","last_reported":1736334449,"current_range_meters":35200,"station_id":"ce4bhg92rcd13ifvqf90","pricing_plan_id":"cebpf4jnsgd1na2vs0mg"},{"bike_id":"71843b3c-dd67-4c45-a6f9-555065069fe1","system_id":"levelo_inurba_marseille","lat":43.283615,"lon":5.386364,"is_reserved":false,"is_disabled":false,"rental_uris":{"android":"levelo://app?vid=71843b3c-dd67-4c45-a6f9-555065069fe1","ios":"levelo://app?vid=71843b3c-dd67-4c45-a6f9-555065069fe1"},"vehicle_type_id":"4","last_reported":1736334449,"current_range_meters":36400,"station_id":"ce4bh2p2rcd13ifvqdi0","pricing_plan_id":"cebpf4jnsgd1na2vs0mg"},{"bike_id":"ebe0feb7-980e-4650-aff3-f0b974e6383b","system_id":"levelo_inurba_marseille","lat":43.30649,"lon":5.40097,"is_reserved":false,"is_disabled":false,"rental_uris":{"android":"levelo://app?vid=ebe0feb7-980e-4650-aff3-f0b974e6383b","ios":"levelo://app?vid=ebe0feb7-980e-4650-aff3-f0b974e6383b"},"vehicle_type_id":"4","last_reported":1736334449,"current_range_meters":5600,"station_id":"ce4bh112rcd13ifvqda0","pricing_plan_id":"cebpf4jnsgd1na2vs0mg"},{"bike_id":"8acf80f2-4e4a-44a4-941b-f3bd188c4a73","system_id":"levelo_inurba_marseille","lat":43.28259,"lon":5.35079,"is_reserved":false,"is_disabled":false,"rental_uris":{"android":"levelo://app?vid=8acf80f2-4e4a-44a4-941b-f3bd188c4a73","ios":"levelo://app?vid=8acf80f2-4e4a-44a4-941b-f3bd188c4a73"},"vehicle_type_id":"4","last_reported":1736334449,"current_range_meters":39200,"station_id":"ce4bhbp2rcd13ifvqerg","pricing_plan_id":"cebpf4jnsgd1na2vs0mg"},{"bike_id":"bda1a6f7-79b6-447f-a282-2dfe308ea731","system_id":"levelo_inurba_marseille","lat":43.30559,"lon":5.36557,"is_reserved":false,"is_disabled":false,"rental_uris":{"android":"levelo://app?vid=bda1a6f7-79b6-447f-a282-2dfe308ea731","ios":"levelo://app?vid=bda1a6f7-79b6-447f-a282-2dfe308ea731"},"vehicle_type_id":"4","last_reported":1736334449,"current_range_meters":25200,"station_id":"ce4bgs12rcd13ifvqcag","pricing_plan_id":"cebpf4jnsgd1na2vs0mg"},{"bike_id":"295a4dcf-0b6e-4c11-b779-d48b33f08e0b","system_id":"levelo_inurba_marseille","lat":43.30194,"lon":5.36627,"is_reserved":false,"is_disabled":false,"rental_uris":{"android":"levelo://app?vid=295a4dcf-0b6e-4c11-b779-d48b33f08e0b","ios":"levelo://app?vid=295a4dcf-0b6e-4c11-b779-d48b33f08e0b"},"vehicle_type_id":"4","last_reported":1736334449,"current_range_meters":38800,"station_id":"ce4bgrh2rcd13ifvqc8g","pricing_plan_id":"cebpf4jnsgd1na2vs0mg"},{"bike_id":"cd64bf88-7e16-4726-8543-32402a3d4d97","system_id":"levelo_inurba_marseille","lat":43.29372,"lon":5.37844,"is_reserved":false,"is_disabled":false,"rental_uris":{"android":"levelo://app?vid=cd64bf88-7e16-4726-8543-32402a3d4d97","ios":"levelo://app?vid=cd64bf88-7e16-4726-8543-32402a3d4d97"},"vehicle_type_id":"4","last_reported":1736334449,"current_range_meters":22800,"station_id":"ce4bgjh2rcd13ifvqbf0","pricing_plan_id":"cebpf4jnsgd1na2vs0mg"},{"bike_id":"1569853a-3f58-4ae9-8f61-db33ec95dfbc","system_id":"levelo_inurba_marseille","lat":43.32293,"lon":5.38258,"is_reserved":false,"is_disabled":false,"rental_uris":{"android":"levelo://app?vid=1569853a-3f58-4ae9-8f61-db33ec95dfbc","ios":"levelo://app?vid=1569853a-3f58-4ae9-8f61-db33ec95dfbc"},"vehicle_type_id":"4","last_reported":1736334449,"current_range_meters":38800,"station_id":"ce4bhr12rcd13ifvqhqg","pricing_plan_id":"cebpf4jnsgd1na2vs0mg"},{"bike_id":"546bf4ad-2cba-47ff-8fff-98adf60600c8","system_id":"levelo_inurba_marseille","lat":43.28616,"lon":5.35106,"is_reserved":false,"is_disabled":false,"rental_uris":{"android":"levelo://app?vid=546bf4ad-2cba-47ff-8fff-98adf60600c8","ios":"levelo://app?vid=546bf4ad-2cba-47ff-8fff-98adf60600c8"},"vehicle_type_id":"4","last_reported":1736334449,"current_range_meters":38800,"station_id":"ce4bhch2rcd13ifvqeug","pricing_plan_id":"cebpf4jnsgd1na2vs0mg"},{"bike_id":"d99f98df-5015-4bbb-a221-14ee96af08a1","system_id":"levelo_inurba_marseille","lat":43.24385,"lon":5.37062,"is_reserved":false,"is_disabled":false,"rental_uris":{"android":"levelo://app?vid=d99f98df-5015-4bbb-a221-14ee96af08a1","ios":"levelo://app?vid=d99f98df-5015-4bbb-a221-14ee96af08a1"},"vehicle_type_id":"4","last_reported":1736334449,"current_range_meters":38000,"station_id":"ce4bhhh2rcd13ifvqfk0","pricing_plan_id":"cebpf4jnsgd1na2vs0mg"},{"bike_id":"35c7f0b6-6d04-431e-b522-aafbafd0d5fb","system_id":"levelo_inurba_marseille","lat":43.29284,"lon":5.37441,"is_reserved":false,"is_disabled":false,"rental_uris":{"android":"levelo://app?vid=35c7f0b6-6d04-431e-b522-aafbafd0d5fb","ios":"levelo://app?vid=35c7f0b6-6d04-431e-b522-aafbafd0d5fb"},"vehicle_type_id":"4","last_reported":1736334449,"current_range_meters":35200,"station_id":"ce4bgi12rcd13ifvqb70","pricing_plan_id":"cebpf4jnsgd1na2vs0mg"},{"bike_id":"13ef97fd-a4dc-4128-81ba-c93f77a5e6f9","system_id":"levelo_inurba_marseille","lat":43.27058,"lon":5.40268,"is_reserved":false,"is_disabled":false,"rental_uris":{"android":"levelo://app?vid=13ef97fd-a4dc-4128-81ba-c93f77a5e6f9","ios":"levelo://app?vid=13ef97fd-a4dc-4128-81ba-c93f77a5e6f9"},"vehicle_type_id":"4","last_reported":1736334449,"current_range_meters":38400,"station_id":"ce4bhk92rcd13ifvqgc0","pricing_plan_id":"cebpf4jnsgd1na2vs0mg"},{"bike_id":"f0f170b8-94b1-4968-8b89-52f9e32fa834","system_id":"levelo_inurba_marseille","lat":43.24993,"lon":5.38954,"is_reserved":false,"is_disabled":false,"rental_uris":{"android":"levelo://app?vid=f0f170b8-94b1-4968-8b89-52f9e32fa834","ios":"levelo://app?vid=f0f170b8-94b1-4968-8b89-52f9e32fa834"},"vehicle_type_id":"4","last_reported":1736334449,"current_range_meters":24400,"station_id":"ce4bhgp2rcd13ifvqfd0","pricing_plan_id":"cebpf4jnsgd1na2vs0mg"},{"bike_id":"304c7b37-1bde-4e18-a904-167256b37599","system_id":"levelo_inurba_marseille","lat":43.27504,"lon":5.4246,"is_reserved":false,"is_disabled":false,"rental_uris":{"android":"levelo://app?vid=304c7b37-1bde-4e18-a904-167256b37599","ios":"levelo://app?vid=304c7b37-1bde-4e18-a904-167256b37599"},"vehicle_type_id":"4","last_reported":1736334449,"current_range_meters":2800,"station_id":"ce4bhn92rcd13ifvqgrg","pricing_plan_id":"cebpf4jnsgd1na2vs0mg"},{"bike_id":"9f1d3216-7725-4600-abc1-82447f7ecac3","system_id":"levelo_inurba_marseille","lat":43.305213,"lon":5.365424,"is_reserved":false,"is_disabled":false,"rental_uris":{"android":"levelo://app?vid=9f1d3216-7725-4600-abc1-82447f7ecac3","ios":"levelo://app?vid=9f1d3216-7725-4600-abc1-82447f7ecac3"},"vehicle_type_id":"4","last_reported":1736334449,"current_range_meters":30800,"station_id":"ce4bgs12rcd13ifvqcag","pricing_plan_id":"cebpf4jnsgd1na2vs0mg"},{"bike_id":"37ea87f0-e0f9-4069-aafc-1bc88c729171","system_id":"levelo_inurba_marseille","lat":43.33616,"lon":5.41022,"is_reserved":false,"is_disabled":false,"rental_uris":{"android":"levelo://app?vid=37ea87f0-e0f9-4069-aafc-1bc88c729171","ios":"levelo://app?vid=37ea87f0-e0f9-4069-aafc-1bc88c729171"},"vehicle_type_id":"4","last_reported":1736334449,"current_range_meters":28400,"station_id":"ce4bhqh2rcd13ifvqhmg","pricing_plan_id":"cebpf4jnsgd1na2vs0mg"},{"bike_id":"d1f08f31-6050-4266-95d0-b5b9f2cef4de","system_id":"levelo_inurba_marseille","lat":43.29585,"lon":5.36735,"is_reserved":false,"is_disabled":false,"rental_uris":{"android":"levelo://app?vid=d1f08f31-6050-4266-95d0-b5b9f2cef4de","ios":"levelo://app?vid=d1f08f31-6050-4266-95d0-b5b9f2cef4de"},"vehicle_type_id":"4","last_reported":1736334449,"current_range_meters":17600,"station_id":"ce4bgph2rcd13ifvqc2g","pricing_plan_id":"cebpf4jnsgd1na2vs0mg"},{"bike_id":"50fa1856-32a7-461f-9ce1-2ea42abf61fd","system_id":"levelo_inurba_marseille","lat":43.25933,"lon":5.409,"is_reserved":false,"is_disabled":false,"rental_uris":{"android":"levelo://app?vid=50fa1856-32a7-461f-9ce1-2ea42abf61fd","ios":"levelo://app?vid=50fa1856-32a7-461f-9ce1-2ea42abf61fd"},"vehicle_type_id":"4","last_reported":1736334449,"current_range_meters":32800,"station_id":"ce4bhm92rcd13ifvqglg","pricing_plan_id":"cebpf4jnsgd1na2vs0mg"},{"bike_id":"a8b6888e-d27e-40ac-990e-440f9348d454","system_id":"levelo_inurba_marseille","lat":43.28629,"lon":5.35105,"is_reserved":false,"is_disabled":true,"rental_uris":{"android":"levelo://app?vid=a8b6888e-d27e-40ac-990e-440f9348d454","ios":"levelo://app?vid=a8b6888e-d27e-40ac-990e-440f9348d454"},"vehicle_type_id":"4","last_reported":1736334449,"current_range_meters":0,"station_id":"ce4bhch2rcd13ifvqeug","pricing_plan_id":"cebpf4jnsgd1na2vs0mg"},{"bike_id":"0878a134-546d-42e6-ac0d-cbdee5d8bdd9","system_id":"levelo_inurba_marseille","lat":43.28566,"lon":5.39504,"is_reserved":false,"is_disabled":false,"rental_uris":{"android":"levelo://app?vid=0878a134-546d-42e6-ac0d-cbdee5d8bdd9","ios":"levelo://app?vid=0878a134-546d-42e6-ac0d-cbdee5d8bdd9"},"vehicle_type_id":"4","last_reported":1736334449,"current_range_meters":38800,"station_id":"ce4bh292rcd13ifvqdg0","pricing_plan_id":"cebpf4jnsgd1na2vs0mg"},{"bike_id":"ca13a100-455b-489f-a552-7cc573e049db","system_id":"levelo_inurba_marseille","lat":43.24545,"lon":5.39527,"is_reserved":false,"is_disabled":false,"rental_uris":{"android":"levelo://app?vid=ca13a100-455b-489f-a552-7cc573e049db","ios":"levelo://app?vid=ca13a100-455b-489f-a552-7cc573e049db"},"vehicle_type_id":"4","last_reported":1736334449,"current_range_meters":37600,"station_id":"ce4bhlp2rcd13ifvqgjg","pricing_plan_id":"cebpf4jnsgd1na2vs0mg"},{"bike_id":"11084312-9877-4d6c-847d-83289f1ad656","system_id":"levelo_inurba_marseille","lat":43.26193,"lon":5.3746,"is_reserved":false,"is_disabled":false,"rental_uris":{"android":"levelo://app?vid=11084312-9877-4d6c-847d-83289f1ad656","ios":"levelo://app?vid=11084312-9877-4d6c-847d-83289f1ad656"},"vehicle_type_id":"4","last_reported":1736334449,"current_range_meters":30000,"station_id":"ce4bhgp2rcd13ifvqfc0","pricing_plan_id":"cebpf4jnsgd1na2vs0mg"},{"bike_id":"4310c1ec-5304-4985-a519-25a7deab2154","system_id":"levelo_inurba_marseille","lat":43.30527,"lon":5.36718,"is_reserved":false,"is_disabled":false,"rental_uris":{"android":"levelo://app?vid=4310c1ec-5304-4985-a519-25a7deab2154","ios":"levelo://app?vid=4310c1ec-5304-4985-a519-25a7deab2154"},"vehicle_type_id":"4","last_reported":1736334449,"current_range_meters":38800,"station_id":"ce4bgrp2rcd13ifvqc9g","pricing_plan_id":"cebpf4jnsgd1na2vs0mg"},{"bike_id":"1096febd-74ba-4045-8055-7a72c5e81f92","system_id":"levelo_inurba_marseille","lat":43.25932,"lon":5.40917,"is_reserved":false,"is_disabled":false,"rental_uris":{"android":"levelo://app?vid=1096febd-74ba-4045-8055-7a72c5e81f92","ios":"levelo://app?vid=1096febd-74ba-4045-8055-7a72c5e81f92"},"vehicle_type_id":"4","last_reported":1736334449,"current_range_meters":29600,"station_id":"ce4bhm92rcd13ifvqglg","pricing_plan_id":"cebpf4jnsgd1na2vs0mg"},{"bike_id":"c86a34eb-35bb-46b0-aa55-a09e2441f822","system_id":"levelo_inurba_marseille","lat":43.29714,"lon":5.37697,"is_reserved":false,"is_disabled":false,"rental_uris":{"android":"levelo://app?vid=c86a34eb-35bb-46b0-aa55-a09e2441f822","ios":"levelo://app?vid=c86a34eb-35bb-46b0-aa55-a09e2441f822"},"vehicle_type_id":"4","last_reported":1736334449,"current_range_meters":28800,"station_id":"ce4bgkh2rcd13ifvqbl0","pricing_plan_id":"cebpf4jnsgd1na2vs0mg"},{"bike_id":"b0ffedc0-2e7b-49a5-9f4e-6f632aaebb72","system_id":"levelo_inurba_marseille","lat":43.31247,"lon":5.36917,"is_reserved":false,"is_disabled":false,"rental_uris":{"android":"levelo://app?vid=b0ffedc0-2e7b-49a5-9f4e-6f632aaebb72","ios":"levelo://app?vid=b0ffedc0-2e7b-49a5-9f4e-6f632aaebb72"},"vehicle_type_id":"4","last_reported":1736334449,"current_range_meters":38400,"station_id":"","pricing_plan_id":"cebpf4jnsgd1na2vs0mg"},{"bike_id":"77706d4d-8539-44b0-98e2-3f16a13a7b9b","system_id":"levelo_inurba_marseille","lat":43.24999,"lon":5.38925,"is_reserved":false,"is_disabled":true,"rental_uris":{"android":"levelo://app?vid=77706d4d-8539-44b0-98e2-3f16a13a7b9b","ios":"levelo://app?vid=77706d4d-8539-44b0-98e2-3f16a13a7b9b"},"vehicle_type_id":"4","last_reported":1736334449,"current_range_meters":0,"station_id":"ce4bhgp2rcd13ifvqfd0","pricing_plan_id":"cebpf4jnsgd1na2vs0mg"},{"bike_id":"038ba4e5-dc59-4638-9e7b-2f1d55baee80","system_id":"levelo_inurba_marseille","lat":43.29627,"lon":5.40603,"is_reserved":false,"is_disabled":false,"rental_uris":{"android":"levelo://app?vid=038ba4e5-dc59-4638-9e7b-2f1d55baee80","ios":"levelo://app?vid=038ba4e5-dc59-4638-9e7b-2f1d55baee80"},"vehicle_type_id":"4","last_reported":1736334449,"current_range_meters":16000,"station_id":"ce4bh0h2rcd13ifvqd60","pricing_plan_id":"cebpf4jnsgd1na2vs0mg"},{"bike_id":"b570a45d-33a1-4706-adcf-d7216661f698","system_id":"levelo_inurba_marseille","lat":43.298253,"lon":5.437163,"is_reserved":false,"is_disabled":false,"rental_uris":{"android":"levelo://app?vid=b570a45d-33a1-4706-adcf-d7216661f698","ios":"levelo://app?vid=b570a45d-33a1-4706-adcf-d7216661f698"},"vehicle_type_id":"4","last_reported":1736334449,"current_range_meters":17200,"station_id":"","pricing_plan_id":"cebpf4jnsgd1na2vs0mg"},{"bike_id":"f4209343-64aa-4618-87f8-e2f9547d6286","system_id":"levelo_inurba_marseille","lat":43.2815,"lon":5.42648,"is_reserved":false,"is_disabled":false,"rental_uris":{"android":"levelo://app?vid=f4209343-64aa-4618-87f8-e2f9547d6286","ios":"levelo://app?vid=f4209343-64aa-4618-87f8-e2f9547d6286"},"vehicle_type_id":"4","last_reported":1736334449,"current_range_meters":12800,"station_id":"ce4bhnh2rcd13ifvqgug","pricing_plan_id":"cebpf4jnsgd1na2vs0mg"},{"bike_id":"7ec72f70-c163-4c96-9b17-ec7ee11387c6","system_id":"levelo_inurba_marseille","lat":43.30303,"lon":5.36907,"is_reserved":false,"is_disabled":false,"rental_uris":{"android":"levelo://app?vid=7ec72f70-c163-4c96-9b17-ec7ee11387c6","ios":"levelo://app?vid=7ec72f70-c163-4c96-9b17-ec7ee11387c6"},"vehicle_type_id":"4","last_reported":1736334449,"current_range_meters":38800,"station_id":"ce4bgqh2rcd13ifvqc5g","pricing_plan_id":"cebpf4jnsgd1na2vs0mg"},{"bike_id":"334b8d24-0a1c-4c5d-9ff6-0dd5bb8c8f8f","system_id":"levelo_inurba_marseille","lat":43.30168,"lon":5.37203,"is_reserved":false,"is_disabled":false,"rental_uris":{"android":"levelo://app?vid=334b8d24-0a1c-4c5d-9ff6-0dd5bb8c8f8f","ios":"levelo://app?vid=334b8d24-0a1c-4c5d-9ff6-0dd5bb8c8f8f"},"vehicle_type_id":"4","last_reported":1736334449,"current_range_meters":8400,"station_id":"","pricing_plan_id":"cebpf4jnsgd1na2vs0mg"},{"bike_id":"73813703-3a0f-4deb-99e2-1c09c42554d1","system_id":"levelo_inurba_marseille","lat":43.31364,"lon":5.36695,"is_reserved":false,"is_disabled":true,"rental_uris":{"android":"levelo://app?vid=73813703-3a0f-4deb-99e2-1c09c42554d1","ios":"levelo://app?vid=73813703-3a0f-4deb-99e2-1c09c42554d1"},"vehicle_type_id":"4","last_reported":1736334449,"current_range_meters":14400,"station_id":"ce4bgr92rcd13ifvqc6g","pricing_plan_id":"cebpf4jnsgd1na2vs0mg"},{"bike_id":"b9d0c354-b552-4906-97d6-90ee6dc44b52","system_id":"levelo_inurba_marseille","lat":43.25931,"lon":5.40931,"is_reserved":false,"is_disabled":false,"rental_uris":{"android":"levelo://app?vid=b9d0c354-b552-4906-97d6-90ee6dc44b52","ios":"levelo://app?vid=b9d0c354-b552-4906-97d6-90ee6dc44b52"},"vehicle_type_id":"4","last_reported":1736334449,"current_range_meters":35200,"station_id":"ce4bhm92rcd13ifvqglg","pricing_plan_id":"cebpf4jnsgd1na2vs0mg"},{"bike_id":"26815030-d759-443c-b5ff-cf105940dbbd","system_id":"levelo_inurba_marseille","lat":43.26789,"lon":5.39419,"is_reserved":false,"is_disabled":false,"rental_uris":{"android":"levelo://app?vid=26815030-d759-443c-b5ff-cf105940dbbd","ios":"levelo://app?vid=26815030-d759-443c-b5ff-cf105940dbbd"},"vehicle_type_id":"4","last_reported":1736334449,"current_range_meters":38800,"station_id":"ce4bhh12rcd13ifvqfg0","pricing_plan_id":"cebpf4jnsgd1na2vs0mg"},{"bike_id":"b8d9b6ca-5177-4cbf-a191-98306d34e924","system_id":"levelo_inurba_marseille","lat":43.24548,"lon":5.39523,"is_reserved":false,"is_disabled":false,"rental_uris":{"android":"levelo://app?vid=b8d9b6ca-5177-4cbf-a191-98306d34e924","ios":"levelo://app?vid=b8d9b6ca-5177-4cbf-a191-98306d34e924"},"vehicle_type_id":"4","last_reported":1736334449,"current_range_meters":38800,"station_id":"ce4bhlp2rcd13ifvqgjg","pricing_plan_id":"cebpf4jnsgd1na2vs0mg"},{"bike_id":"aa4ebe27-e59b-4fe6-9d3b-b5c9588fb1f5","system_id":"levelo_inurba_marseille","lat":43.26047,"lon":5.39422,"is_reserved":false,"is_disabled":false,"rental_uris":{"android":"levelo://app?vid=aa4ebe27-e59b-4fe6-9d3b-b5c9588fb1f5","ios":"levelo://app?vid=aa4ebe27-e59b-4fe6-9d3b-b5c9588fb1f5"},"vehicle_type_id":"4","last_reported":1736334449,"current_range_meters":34800,"station_id":"ce4bhh92rcd13ifvqfj0","pricing_plan_id":"cebpf4jnsgd1na2vs0mg"},{"bike_id":"027af023-1bef-4beb-a886-006971e8b17e","system_id":"levelo_inurba_marseille","lat":43.28181,"lon":5.40391,"is_reserved":false,"is_disabled":true,"rental_uris":{"android":"levelo://app?vid=027af023-1bef-4beb-a886-006971e8b17e","ios":"levelo://app?vid=027af023-1bef-4beb-a886-006971e8b17e"},"vehicle_type_id":"4","last_reported":1736334449,"current_range_meters":36000,"station_id":"","pricing_plan_id":"cebpf4jnsgd1na2vs0mg"},{"bike_id":"b96b5c6d-6463-4730-8933-60bd41c35a65","system_id":"levelo_inurba_marseille","lat":43.29914,"lon":5.37454,"is_reserved":false,"is_disabled":false,"rental_uris":{"android":"levelo://app?vid=b96b5c6d-6463-4730-8933-60bd41c35a65","ios":"levelo://app?vid=b96b5c6d-6463-4730-8933-60bd41c35a65"},"vehicle_type_id":"4","last_reported":1736334449,"current_range_meters":19600,"station_id":"ce4bgjh2rcd13ifvqbg0","pricing_plan_id":"cebpf4jnsgd1na2vs0mg"},{"bike_id":"9774af7f-1002-4ab0-9462-48fa84b867bc","system_id":"levelo_inurba_marseille","lat":43.26818,"lon":5.40262,"is_reserved":false,"is_disabled":false,"rental_uris":{"android":"levelo://app?vid=9774af7f-1002-4ab0-9462-48fa84b867bc","ios":"levelo://app?vid=9774af7f-1002-4ab0-9462-48fa84b867bc"},"vehicle_type_id":"4","last_reported":1736334449,"current_range_meters":19200,"station_id":"ce501612rcd8frsf0b60","pricing_plan_id":"cebpf4jnsgd1na2vs0mg"},{"bike_id":"1ba7c9a1-a1fd-41e6-a529-cde3ff0074a9","system_id":"levelo_inurba_marseille","lat":43.29004,"lon":5.35615,"is_reserved":false,"is_disabled":false,"rental_uris":{"android":"levelo://app?vid=1ba7c9a1-a1fd-41e6-a529-cde3ff0074a9","ios":"levelo://app?vid=1ba7c9a1-a1fd-41e6-a529-cde3ff0074a9"},"vehicle_type_id":"4","last_reported":1736334449,"current_range_meters":27600,"station_id":"ce4bhb92rcd13ifvqen0","pricing_plan_id":"cebpf4jnsgd1na2vs0mg"},{"bike_id":"d4e7a9d5-c034-4003-8a82-aa2760ad2c70","system_id":"levelo_inurba_marseille","lat":43.27977,"lon":5.41657,"is_reserved":false,"is_disabled":false,"rental_uris":{"android":"levelo://app?vid=d4e7a9d5-c034-4003-8a82-aa2760ad2c70","ios":"levelo://app?vid=d4e7a9d5-c034-4003-8a82-aa2760ad2c70"},"vehicle_type_id":"4","last_reported":1736334449,"current_range_meters":29600,"station_id":"ce4bho12rcd13ifvqh1g","pricing_plan_id":"cebpf4jnsgd1na2vs0mg"},