{"last_updated":1752217963,"ttl":60,"version":"2.2","data":{"bikes":[{"bike_id":"8c5c6b12-3709-416f-ae21-e2c289d4c8dc","system_id":"levelo_inurba_marseille","lat":43.29272,"lon":5.38432,"is_reserved":false,"is_disabled":false,"rental_uris":{"android":"levelo://app?vid=8c5c6b12-3709-416f-ae21-e2c289d4c8dc","ios":"levelo://app?vid=8c5c6b12-3709-416f-ae21-e2c289d4c8dc"},"vehicle_type_id":"4","last_reported":1752217963,"current_range_meters":2800,"station_id":"ce4bh692rcd13ifvqea0","pricing_plan_id":"cebpf4jnsgd1na2vs0mg"},{"bike_id":"159fe00e-1605-4a3a-a906-ef8dcd52b1db","system_id":"levelo_inurba_marseille","lat":43.30878,"lon":5.37328,"is_reserved":false,"is_disabled":false,"rental_uris":{"android":"levelo://app?vid=159fe00e-1605-4a3a-a906-ef8dcd52b1db","ios":"levelo://app?vid=159fe00e-1605-4a3a-a906-ef8dcd52b1db"},"vehicle_type_id":"4","last_reported":1752217963,"current_range_meters":2800,"station_id":"","pricing_plan_id":"cebpf4jnsgd1na2vs0mg"},{"bike_id":"1f0def76-1f9f-4b83-8852-c90233b27a49","system_id":"levelo_inurba_marseille","lat":43.30304,"lon":5.3922,"is_reserved":false,"is_disabled":false,"rental_uris":{"android":"levelo://app?vid=1f0def76-1f9f-4b83-8852-c90233b27a49","ios":"levelo://app?vid=1f0def76-1f9f-4b83-8852-c90233b27a49"},"vehicle_type_id":"4","last_reported":1752217963,"current_range_meters":3200,"station_id":"ce4bgkh2rcd13ifvqbk0","pricing_plan_id":"cebpf4jnsgd1na2vs0mg"},{"bike_id":"92600b69-2fb5-4bbe-ad2e-f93e21c08c88","system_id":"levelo_inurba_marseille","lat":43.30547,"lon":5.36697,"is_reserved":false,"is_disabled":false,"rental_uris":{"android":"levelo://app?vid=92600b69-2fb5-4bbe-ad2e-f93e21c08c88","ios":"levelo://app?vid=92600b69-2fb5-4bbe-ad2e-f93e21c08c88"},"vehicle_type_id":"4","last_reported":1752217963,"current_range_meters":3600,"station_id":"ce4bgrp2rcd13ifvqc9g","pricing_plan_id":"cebpf4jnsgd1na2vs0mg"},{"bike_id":"a31567b5-b73b-49ef-84fd-ea37d207a6d5","system_id":"levelo_inurba_marseille","lat":43.29884,"lon":5.38948,"is_reserved":false,"is_disabled":false,"rental_uris":{"android":"levelo://app?vid=a31567b5-b73b-49ef-84fd-ea37d207a6d5","ios":"levelo://app?vid=a31567b5-b73b-49ef-84fd-ea37d207a6d5"},"vehicle_type_id":"4","last_reported":1752217963,"current_range_meters":3200,"station_id":"ce4bh392rcd13ifvqdl0","pricing_plan_id":"cebpf4jnsgd1na2vs0mg"},{"bike_id":"eb62cb14-ba49-4550-9d93-01d90f1ba4b1","system_id":"levelo_inurba_marseille","lat":43.28483,"lon":5.38412,"is_reserved":false,"is_disabled":false,"rental_uris":{"android":"levelo://app?vid=eb62cb14-ba49-4550-9d93-01d90f1ba4b1","ios":"levelo://app?vid=eb62cb14-ba49-4550-9d93-01d90f1ba4b1"},"vehicle_type_id":"4","last_reported":1752217963,"current_range_meters":3600,"station_id":"ce4bh512rcd13ifvqe3g","pricing_plan_id":"cebpf4jnsgd1na2vs0mg"},{"bike_id":"864830cd-471c-4ae8-8ff1-495934107509","system_id":"levelo_inurba_marseille","lat":43.318951,"lon":5.407334,"is_reserved":false,"is_disabled":true,"rental_uris":{"android":"levelo://app?vid=864830cd-471c-4ae8-8ff1-495934107509","ios":"levelo://app?vid=864830cd-471c-4ae8-8ff1-495934107509"},"vehicle_type_id":"4","last_reported":1752217963,"current_range_meters":3600,"station_id":"ce4bhq12rcd13ifvqhig","pricing_plan_id":"cebpf4jnsgd1na2vs0mg"},{"bike_id":"24bb26e8-f9a4-4f56-926d-ba4ea0ec83bb","system_id":"levelo_inurba_marseille","lat":43.28714,"lon":5.38615,"is_reserved":false,"is_disabled":false,"rental_uris":{"android":"levelo://app?vid=24bb26e8-f9a4-4f56-926d-ba4ea0ec83bb","ios":"levelo://app?vid=24bb26e8-f9a4-4f56-926d-ba4ea0ec83bb"},"vehicle_type_id":"4","last_reported":1752217963,"current_range_meters":3600,"station_id":"","pricing_plan_id":"cebpf4jnsgd1na2vs0mg"},{"bike_id":"97c0318f-1fd4-4f1d-bd16-7f3127e8bcf3","system_id":"levelo_inurba_marseille","lat":43.31228,"lon":5.36859,"is_reserved":false,"is_disabled":false,"rental_uris":{"android":"levelo://app?vid=97c0318f-1fd4-4f1d-bd16-7f3127e8bcf3","ios":"levelo://app?vid=97c0318f-1fd4-4f1d-bd16-7f3127e8bcf3"},"vehicle_type_id":"4","last_reported":1752217963,"current_range_meters":3600,"station_id":"ce4bgl92rcd13ifvqbq0","pricing_plan_id":"cebpf4jnsgd1na2vs0mg"},{"bike_id":"8cbe0e8f-8727-4c79-8a57-25bcc1096fac","system_id":"levelo_inurba_marseille","lat":43.241867,"lon":5.397347,"is_reserved":false,"is_disabled":false,"rental_uris":{"android":"levelo://app?vid=8cbe0e8f-8727-4c79-8a57-25bcc1096fac","ios":"levelo://app?vid=8cbe0e8f-8727-4c79-8a57-25bcc1096fac"},"vehicle_type_id":"4","last_reported":1752217963,"current_range_meters":4000,"station_id":"ce4bhn12rcd13ifvqgpg","pricing_plan_id":"cebpf4jnsgd1na2vs0mg"},{"bike_id":"207f2105-537f-4f38-9ae1-9ec3a6429f82","system_id":"levelo_inurba_marseille","lat":43.30145,"lon":5.38099,"is_reserved":false,"is_disabled":false,"rental_uris":{"android":"levelo://app?vid=207f2105-537f-4f38-9ae1-9ec3a6429f82","ios":"levelo://app?vid=207f2105-537f-4f38-9ae1-9ec3a6429f82"},"vehicle_type_id":"4","last_reported":1752217963,"current_range_meters":4400,"station_id":"ce4bh3p2rcd13ifvqdp0","pricing_plan_id":"cebpf4jnsgd1na2vs0mg"},{"bike_id":"eafc038e-feaf-4fe9-b765-5f7700c48ba6","system_id":"levelo_inurba_marseille","lat":43.28494,"lon":5.38499,"is_reserved":false,"is_disabled":false,"rental_uris":{"android":"levelo://app?vid=eafc038e-feaf-4fe9-b765-5f7700c48ba6","ios":"levelo://app?vid=eafc038e-feaf-4fe9-b765-5f7700c48ba6"},"vehicle_type_id":"4","last_reported":1752217963,"current_range_meters":4400,"station_id":"ce4bh8p2rcd13ifvqeb0","pricing_plan_id":"cebpf4jnsgd1na2vs0mg"},{"bike_id":"b8d6bf6b-ecbb-4c40-8ce7-0169ef070b49","system_id":"levelo_inurba_marseille","lat":43.29555,"lon":5.37391,"is_reserved":false,"is_disabled":false,"rental_uris":{"android":"levelo://app?vid=b8d6bf6b-ecbb-4c40-8ce7-0169ef070b49","ios":"levelo://app?vid=b8d6bf6b-ecbb-4c40-8ce7-0169ef070b49"},"vehicle_type_id":"4","last_reported":1752217963,"current_range_meters":4800,"station_id":"","pricing_plan_id":"cebpf4jnsgd1na2vs0mg"},{"bike_id":"f8850064-2102-4305-b524-c3781d9e22a1","system_id":"levelo_inurba_marseille","lat":43.288599,"lon":5.384523,"is_reserved":false,"is_disabled":false,"rental_uris":{"android":"levelo://app?vid=f8850064-2102-4305-b524-c3781d9e22a1","ios":"levelo://app?vid=f8850064-2102-4305-b524-c3781d9e22a1"},"vehicle_type_id":"4","last_reported":1752217963,"current_range_meters":4800,"station_id":"","pricing_plan_id":"cebpf4jnsgd1na2vs0mg"},{"bike_id":"cb8397a4-a91a-4e0e-97be-392721e9ec48","system_id":"levelo_inurba_marseille","lat":43.24382,"lon":5.37055,"is_reserved":false,"is_disabled":false,"rental_uris":{"android":"levelo://app?vid=cb8397a4-a91a-4e0e-97be-392721e9ec48","ios":"levelo://app?vid=cb8397a4-a91a-4e0e-97be-392721e9ec48"},"vehicle_type_id":"4","last_reported":1752217963,"current_range_meters":5600,"station_id":"ce4bhhh2rcd13ifvqfk0","pricing_plan_id":"cebpf4jnsgd1na2vs0mg"},{"bike_id":"2bd2509c-8e69-46fb-904c-1c65a6340b60","system_id":"levelo_inurba_marseille","lat":43.21749,"lon":5.3462,"is_reserved":false,"is_disabled":false,"rental_uris":{"android":"levelo://app?vid=2bd2509c-8e69-46fb-904c-1c65a6340b60","ios":"levelo://app?vid=2bd2509c-8e69-46fb-904c-1c65a6340b60"},"vehicle_type_id":"4","last_reported":1752217963,"current_range_meters":5600,"station_id":"st_cvj6r9ubvosntc0bgbag","pricing_plan_id":"cebpf4jnsgd1na2vs0mg"},{"bike_id":"397c92c8-c141-42d7-9afe-6caddb2ab764","system_id":"levelo_inurba_marseille","lat":43.29619,"lon":5.3715,"is_reserved":false,"is_disabled":false,"rental_uris":{"android":"levelo://app?vid=397c92c8-c141-42d7-9afe-6caddb2ab764","ios":"levelo://app?vid=397c92c8-c141-42d7-9afe-6caddb2ab764"},"vehicle_type_id":"4","last_reported":1752217963,"current_range_meters":6000,"station_id":"ce4bgnh2rcd13ifvqc0g","pricing_plan_id":"cebpf4jnsgd1na2vs0mg"},{"bike_id":"18a3cb15-d329-450f-b9ad-69f534daf986","system_id":"levelo_inurba_marseille","lat":43.28613,"lon":5.3707,"is_reserved":false,"is_disabled":false,"rental_uris":{"android":"levelo://app?vid=18a3cb15-d329-450f-b9ad-69f534daf986","ios":"levelo://app?vid=18a3cb15-d329-450f-b9ad-69f534daf986"},"vehicle_type_id":"4","last_reported":1752217963,"current_range_meters":6000,"station_id":"ce4bht12rcd13ifvqi60","pricing_plan_id":"cebpf4jnsgd1na2vs0mg"},{"bike_id":"7e5eaa7d-a765-4249-8505-f21bd94cfff5","system_id":"levelo_inurba_marseille","lat":43.30912,"lon":5.36864,"is_reserved":false,"is_disabled":false,"rental_uris":{"android":"levelo://app?vid=7e5eaa7d-a765-4249-8505-f21bd94cfff5","ios":"levelo://app?vid=7e5eaa7d-a765-4249-8505-f21bd94cfff5"},"vehicle_type_id":"4","last_reported":1752217963,"current_range_meters":6000,"station_id":"ce4bgn92rcd13ifvqbvg","pricing_plan_id":"cebpf4jnsgd1na2vs0mg"},{"bike_id":"ba480b1d-fbef-4d54-9bb0-c2fa8b787212","system_id":"levelo_inurba_marseille","lat":43.211879,"lon":5.350733,"is_reserved":false,"is_disabled":false,"rental_uris":{"android":"levelo://app?vid=ba480b1d-fbef-4d54-9bb0-c2fa8b787212","ios":"levelo://app?vid=ba480b1d-fbef-4d54-9bb0-c2fa8b787212"},"vehicle_type_id":"4","last_reported":1752217963,"current_range_meters":6400,"station_id":"st_cvj6sg6p6f1abm77japg","pricing_plan_id":"cebpf4jnsgd1na2vs0mg"},{"bike_id":"061b914a-450f-44dc-8ab4-5b10d269ac0c","system_id":"levelo_inurba_marseille","lat":43.30593,"lon":5.39354,"is_reserved":false,"is_disabled":false,"rental_uris":{"android":"levelo://app?vid=061b914a-450f-44dc-8ab4-5b10d269ac0c","ios":"levelo://app?vid=061b914a-450f-44dc-8ab4-5b10d269ac0c"},"vehicle_type_id":"4","last_reported":1752217963,"current_range_meters":6400,"station_id":"ce4bh0p2rcd13ifvqd80","pricing_plan_id":"cebpf4jnsgd1na2vs0mg"},{"bike_id":"267c362b-bd8b-4c6a-8581-a808de16016d","system_id":"levelo_inurba_marseille","lat":43.29032,"lon":5.37559,"is_reserved":false,"is_disabled":false,"rental_uris":{"android":"levelo://app?vid=267c362b-bd8b-4c6a-8581-a808de16016d","ios":"levelo://app?vid=267c362b-bd8b-4c6a-8581-a808de16016d"},"vehicle_type_id":"4","last_reported":1752217963,"current_range_meters":6400,"station_id":"ce4bh692rcd13ifvqe90","pricing_plan_id":"cebpf4jnsgd1na2vs0mg"},{"bike_id":"c9ec8264-b1f7-41db-a127-5dfa02fc980f","system_id":"levelo_inurba_marseille","lat":43.3156,"lon":5.40147,"is_reserved":false,"is_disabled":false,"rental_uris":{"android":"levelo://app?vid=c9ec8264-b1f7-41db-a127-5dfa02fc980f","ios":"levelo://app?vid=c9ec8264-b1f7-41db-a127-5dfa02fc980f"},"vehicle_type_id":"4","last_reported":1752217963,"current_range_meters":6400,"station_id":"","pricing_plan_id":"cebpf4jnsgd1na2vs0mg"},{"bike_id":"708913df-ccd3-4712-b9ff-34c61026152d","system_id":"levelo_inurba_marseille","lat":43.30538,"lon":5.36547,"is_reserved":false,"is_disabled":false,"rental_uris":{"android":"levelo://app?vid=708913df-ccd3-4712-b9ff-34c61026152d","ios":"levelo://app?vid=708913df-ccd3-4712-b9ff-34c61026152d"},"vehicle_type_id":"4","last_reported":1752217963,"current_range_meters":6400,"station_id":"ce4bgs12rcd13ifvqcag","pricing_plan_id":"cebpf4jnsgd1na2vs0mg"},{"bike_id":"3108e78c-759c-4d11-b361-5abb833e983c","system_id":"levelo_inurba_marseille","lat":43.2885,"lon":5.39402,"is_reserved":false,"is_disabled":true,"rental_uris":{"android":"levelo://app?vid=3108e78c-759c-4d11-b361-5abb833e983c","ios":"levelo://app?vid=3108e78c-759c-4d11-b361-5abb833e983c"},"vehicle_type_id":"4","last_reported":1752217963,"current_range_meters":6800,"station_id":"","pricing_plan_id":"cebpf4jnsgd1na2vs0mg"},{"bike_id":"1eba7725-2b8e-4350-b619-68676b277c92","system_id":"levelo_inurba_marseille","lat":43.29032,"lon":5.37569,"is_reserved":false,"is_disabled":false,"rental_uris":{"android":"levelo://app?vid=1eba7725-2b8e-4350-b619-68676b277c92","ios":"levelo://app?vid=1eba7725-2b8e-4350-b619-68676b277c92"},"vehicle_type_id":"4","last_reported":1752217963,"current_range_meters":6800,"station_id":"ce4bh692rcd13ifvqe90","pricing_plan_id":"cebpf4jnsgd1na2vs0mg"},{"bike_id":"0d107160-d10e-4c36-92b5-b6723a0bca99","system_id":"levelo_inurba_marseille","lat":43.29257,"lon":5.36858,"is_reserved":false,"is_disabled":false,"rental_uris":{"android":"levelo://app?vid=0d107160-d10e-4c36-92b5-b6723a0bca99","ios":"levelo://app?vid=0d107160-d10e-4c36-92b5-b6723a0bca99"},"vehicle_type_id":"4","last_reported":1752217963,"current_range_meters":6800,"station_id":"ce4bhbp2rcd13ifvqesg","pricing_plan_id":"cebpf4jnsgd1na2vs0mg"},{"bike_id":"c3898ed2-8480-4d26-a9ec-d2e20757aca9","system_id":"levelo_inurba_marseille","lat":43.28413,"lon":5.34978,"is_reserved":false,"is_disabled":false,"rental_uris":{"android":"levelo://app?vid=c3898ed2-8480-4d26-a9ec-d2e20757aca9","ios":"levelo://app?vid=c3898ed2-8480-4d26-a9ec-d2e20757aca9"},"vehicle_type_id":"4","last_reported":1752217963,"current_range_meters":6800,"station_id":"ce4bhbh2rcd13ifvqepg","pricing_plan_id":"cebpf4jnsgd1na2vs0mg"},{"bike_id":"56d4fdaf-ae4c-4003-8a74-738d4b9be60f","system_id":"levelo_inurba_marseille","lat":43.28718,"lon":5.39995,"is_reserved":false,"is_disabled":true,"rental_uris":{"android":"levelo://app?vid=56d4fdaf-ae4c-4003-8a74-738d4b9be60f","ios":"levelo://app?vid=56d4fdaf-ae4c-4003-8a74-738d4b9be60f"},"vehicle_type_id":"4","last_reported":1752217963,"current_range_meters":7200,"station_id":"ce4bho92rcd13ifvqh3g","pricing_plan_id":"cebpf4jnsgd1na2vs0mg"},{"bike_id":"1cfb7981-8985-43e1-b2a0-b2369e3a4a16","system_id":"levelo_inurba_marseille","lat":43.30906,"lon":5.36843,"is_reserved":false,"is_disabled":false,"rental_uris":{"android":"levelo://app?vid=1cfb7981-8985-43e1-b2a0-b2369e3a4a16","ios":"levelo://app?vid=1cfb7981-8985-43e1-b2a0-b2369e3a4a16"},"vehicle_type_id":"4","last_reported":1752217963,"current_range_meters":7200,"station_id":"ce4bgn92rcd13ifvqbvg","pricing_plan_id":"cebpf4jnsgd1na2vs0mg"},{"bike_id":"b2caa530-bb19-4cc6-a6bd-61e3e1d7432e","system_id":"levelo_inurba_marseille","lat":43.33763,"lon":5.37461,"is_reserved":false,"is_disabled":false,"rental_uris":{"android":"levelo://app?vid=b2caa530-bb19-4cc6-a6bd-61e3e1d7432e","ios":"levelo://app?vid=b2caa530-bb19-4cc6-a6bd-61e3e1d7432e"},"vehicle_type_id":"4","last_reported":1752217963,"current_range_meters":7200,"station_id":"","pricing_plan_id":"cebpf4jnsgd1na2vs0mg"},{"bike_id":"6e5c2657-ccb8-4153-8b94-2143bc427a03","system_id":"levelo_inurba_marseille","lat":43.22495,"lon":5.34778,"is_reserved":false,"is_disabled":false,"rental_uris":{"android":"levelo://app?vid=6e5c2657-ccb8-4153-8b94-2143bc427a03","ios":"levelo://app?vid=6e5c2657-ccb8-4153-8b94-2143bc427a03"},"vehicle_type_id":"4","last_reported":1752217963,"current_range_meters":7200,"station_id":"st_cvj5dfep6f1abm77gieg","pricing_plan_id":"cebpf4jnsgd1na2vs0mg"},{"bike_id":"f1521e14-c58e-4d8c-b222-a585052d0ae8","system_id":"levelo_inurba_marseille","lat":43.31344,"lon":5.36718,"is_reserved":false,"is_disabled":false,"rental_uris":{"android":"levelo://app?vid=f1521e14-c58e-4d8c-b222-a585052d0ae8","ios":"levelo://app?vid=f1521e14-c58e-4d8c-b222-a585052d0ae8"},"vehicle_type_id":"4","last_reported":1752217963,"current_range_meters":7200,"station_id":"ce4bgr92rcd13ifvqc6g","pricing_plan_id":"cebpf4jnsgd1na2vs0mg"},{"bike_id":"1753c58f-d2ac-4596-b8d6-c88f5fbbdf6d","system_id":"levelo_inurba_marseille","lat":43.30145,"lon":5.38076,"is_reserved":false,"is_disabled":false,"rental_uris":{"android":"levelo://app?vid=1753c58f-d2ac-4596-b8d6-c88f5fbbdf6d","ios":"levelo://app?vid=1753c58f-d2ac-4596-b8d6-c88f5fbbdf6d"},"vehicle_type_id":"4","last_reported":1752217963,"current_range_meters":7200,"station_id":"ce4bgjp2rcd13ifvqbh0","pricing_plan_id":"cebpf4jnsgd1na2vs0mg"},{"bike_id":"e7628d59-1f53-4a3e-bac9-cc30ae8a4212","system_id":"levelo_inurba_marseille","lat":43.312305,"lon":5.368823,"is_reserved":false,"is_disabled":false,"rental_uris":{"android":"levelo://app?vid=e7628d59-1f53-4a3e-bac9-cc30ae8a4212","ios":"levelo://app?vid=e7628d59-1f53-4a3e-bac9-cc30ae8a4212"},"vehicle_type_id":"4","last_reported":1752217963,"current_range_meters":8000,"station_id":"ce4bgl92rcd13ifvqbq0","pricing_plan_id":"cebpf4jnsgd1na2vs0mg"},{"bike_id":"21ae54b9-7375-4101-b8a7-bff9d6e1fa32","system_id":"levelo_inurba_marseille","lat":43.30011,"lon":5.37569,"is_reserved":false,"is_disabled":false,"rental_uris":{"android":"levelo://app?vid=21ae54b9-7375-4101-b8a7-bff9d6e1fa32","ios":"levelo://app?vid=21ae54b9-7375-4101-b8a7-bff9d6e1fa32"},"vehicle_type_id":"4","last_reported":1752217963,"current_range_meters":8000,"station_id":"","pricing_plan_id":"cebpf4jnsgd1na2vs0mg"},{"bike_id":"8e3258b7-090e-494d-bf87-dc77e065cdb5","system_id":"levelo_inurba_marseille","lat":43.32468,"lon":5.36589,"is_reserved":false,"is_disabled":false,"rental_uris":{"android":"levelo://app?vid=8e3258b7-090e-494d-bf87-dc77e065cdb5","ios":"levelo://app?vid=8e3258b7-090e-494d-bf87-dc77e065cdb5"},"vehicle_type_id":"4","last_reported":1752217963,"current_range_meters":8000,"station_id":"ce4bhs12rcd13ifvqhvg","pricing_plan_id":"cebpf4jnsgd1na2vs0mg"},{"bike_id":"b328b217-d459-4798-83fc-e21cceb1955e","system_id":"levelo_inurba_marseille","lat":43.29253,"lon":5.37626,"is_reserved":false,"is_disabled":false,"rental_uris":{"android":"levelo://app?vid=b328b217-d459-4798-83fc-e21cceb1955e","ios":"levelo://app?vid=b328b217-d459-4798-83fc-e21cceb1955e"},"vehicle_type_id":"4","last_reported":1752217963,"current_range_meters":8400,"station_id":"ce4bgi12rcd13ifvqb80","pricing_plan_id":"cebpf4jnsgd1na2vs0mg"},{"bike_id":"b757ffbb-2b71-4330-9f60-5f8a9d46d16e","system_id":"levelo_inurba_marseille","lat":43.29622,"lon":5.371,"is_reserved":false,"is_disabled":false,"rental_uris":{"android":"levelo://app?vid=b757ffbb-2b71-4330-9f60-5f8a9d46d16e","ios":"levelo://app?vid=b757ffbb-2b71-4330-9f60-5f8a9d46d16e"},"vehicle_type_id":"4","last_reported":1752217963,"current_range_meters":8400,"station_id":"ce4bgnh2rcd13ifvqc0g","pricing_plan_id":"cebpf4jnsgd1na2vs0mg"},{"bike_id":"090585ad-cc56-42e0-b7e8-64b385b12020","system_id":"levelo_inurba_marseille","lat":43.25871,"lon":5.39898,"is_reserved":false,"is_disabled":false,"rental_uris":{"android":"levelo://app?vid=090585ad-cc56-42e0-b7e8-64b385b12020","ios":"levelo://app?vid=090585ad-cc56-42e0-b7e8-64b385b12020"},"vehicle_type_id":"4","last_reported":1752217963,"current_range_meters":8000,"station_id":"ce4bhl92rcd13ifvqghg","pricing_plan_id":"cebpf4jnsgd1na2vs0mg"},{"bike_id":"292a7bbd-04a1-45b6-b833-4f27a695e5d3","system_id":"levelo_inurba_marseille","lat":43.287009,"lon":5.399913,"is_reserved":false,"is_disabled":false,"rental_uris":{"android":"levelo://app?vid=292a7bbd-04a1-45b6-b833-4f27a695e5d3","ios":"levelo://app?vid=292a7bbd-04a1-45b6-b833-4f27a695e5d3"},"vehicle_type_id":"4","last_reported":1752217963,"current_range_meters":8800,"station_id":"ce4bho92rcd13ifvqh3g","pricing_plan_id":"cebpf4jnsgd1na2vs0mg"},{"bike_id":"4204694e-4e2b-4bd3-bc82-590e23c358c7","system_id":"levelo_inurba_marseille","lat":43.27372,"lon":5.36259,"is_reserved":false,"is_disabled":false,"rental_uris":{"android":"levelo://app?vid=4204694e-4e2b-4bd3-bc82-590e23c358c7","ios":"levelo://app?vid=4204694e-4e2b-4bd3-bc82-590e23c358c7"},"vehicle_type_id":"4","last_reported":1752217963,"current_range_meters":8800,"station_id":"ce4bhbh2rcd13ifvqeo0","pricing_plan_id":"cebpf4jnsgd1na2vs0mg"},{"bike_id":"14142d74-5d08-4eaf-ac5d-135795fc4ad5","system_id":"levelo_inurba_marseille","lat":43.26941,"lon":5.40257,"is_reserved":false,"is_disabled":false,"rental_uris":{"android":"levelo://app?vid=14142d74-5d08-4eaf-ac5d-135795fc4ad5","ios":"levelo://app?vid=14142d74-5d08-4eaf-ac5d-135795fc4ad5"},"vehicle_type_id":"4","last_reported":1752217963,"current_range_meters":8800,"station_id":"cjm6bp8fraef2m0cb0m0","pricing_plan_id":"cebpf4jnsgd1na2vs0mg"},{"bike_id":"833f97ec-e704-4051-ab3b-2e9eb58f71d0","system_id":"levelo_inurba_marseille","lat":43.3027,"lon":5.37514,"is_reserved":false,"is_disabled":false,"rental_uris":{"android":"levelo://app?vid=833f97ec-e704-4051-ab3b-2e9eb58f71d0","ios":"levelo://app?vid=833f97ec-e704-4051-ab3b-2e9eb58f71d0"},"vehicle_type_id":"4","last_reported":1752217963,"current_range_meters":8800,"station_id":"","pricing_plan_id":"cebpf4jnsgd1na2vs0mg"},{"bike_id":"a5245769-02a4-419e-bdf7-6fc82d4816a8","system_id":"levelo_inurba_marseille","lat":43.25719,"lon":5.41112,"is_reserved":false,"is_disabled":false,"rental_uris":{"android":"levelo://app?vid=a5245769-02a4-419e-bdf7-6fc82d4816a8","ios":"levelo://app?vid=a5245769-02a4-419e-bdf7-6fc82d4816a8"},"vehicle_type_id":"4","last_reported":1752217963,"current_range_meters":8800,"station_id":"ce4bhkp2rcd13ifvqgd0","pricing_plan_id":"cebpf4jnsgd1na2vs0mg"},{"bike_id":"a697cf44-a091-426c-8859-336458356474","system_id":"levelo_inurba_marseille","lat":43.292746,"lon":5.401334,"is_reserved":false,"is_disabled":false,"rental_uris":{"android":"levelo://app?vid=a697cf44-a091-426c-8859-336458356474","ios":"levelo://app?vid=a697cf44-a091-426c-8859-336458356474"},"vehicle_type_id":"4","last_reported":1752217963,"current_range_meters":9200,"station_id":"ce4bh312rcd13ifvqdk0","pricing_plan_id":"cebpf4jnsgd1na2vs0mg"},{"bike_id":"92b21758-9711-46e9-b785-20d1c61b8b2e","system_id":"levelo_inurba_marseille","lat":43.296162,"lon":5.376945,"is_reserved":false,"is_disabled":true,"rental_uris":{"android":"levelo://app?vid=92b21758-9711-46e9-b785-20d1c61b8b2e","ios":"levelo://app?vid=92b21758-9711-46e9-b785-20d1c61b8b2e"},"vehicle_type_id":"4","last_reported":1752217963,"current_range_meters":9200,"station_id":"","pricing_plan_id":"cebpf4jnsgd1na2vs0mg"},{"bike_id":"85bef485-8d2a-42d1-a5ab-7678e260e8db","system_id":"levelo_inurba_marseille","lat":43.25004,"lon":5.38926,"is_reserved":false,"is_disabled":false,"rental_uris":{"android":"levelo://app?vid=85bef485-8d2a-42d1-a5ab-7678e260e8db","ios":"levelo://app?vid=85bef485-8d2a-42d1-a5ab-7678e260e8db"},"vehicle_type_id":"4","last_reported":1752217963,"current_range_meters":9600,"station_id":"ce4bhgp2rcd13ifvqfd0","pricing_plan_id":"cebpf4jnsgd1na2vs0mg"},{"bike_id":"39d81cdf-aa9d-4dc2-96f3-0fbee5ba6fcc","system_id":"levelo_inurba_marseille","lat":43.30946,"lon":5.39034,"is_reserved":false,"is_disabled":false,"rental_uris":{"android":"levelo://app?vid=39d81cdf-aa9d-4dc2-96f3-0fbee5ba6fcc","ios":"levelo://app?vid=39d81cdf-aa9d-4dc2-96f3-0fbee5ba6fcc"},"vehicle_type_id":"4","last_reported":1752217963,"current_range_meters":9600,"station_id":"ce4bgup2rcd13ifvqco0","pricing_plan_id":"cebpf4jnsgd1na2vs0mg"},{"bike_id":"d4fef870-f3df-418c-b45a-632453acc9ad","system_id":"levelo_inurba_marseille","lat":43.225,"lon":5.34768,"is_reserved":false,"is_disabled":false,"rental_uris":{"android":"levelo://app?vid=d4fef870-f3df-418c-b45a-632453acc9ad","ios":"levelo://app?vid=d4fef870-f3df-418c-b45a-632453acc9ad"},"vehicle_type_id":"4","last_reported":1752217963,"current_range_meters":9600,"station_id":"st_cvj5dfep6f1abm77gieg","pricing_plan_id":"cebpf4jnsgd1na2vs0mg"},{"bike_id":"1ed5492f-2380-44cf-bebd-b12d4fcd0723","system_id":"levelo_inurba_marseille","lat":43.337444,"lon":5.374475,"is_reserved":false,"is_disabled":false,"rental_uris":{"android":"levelo://app?vid=1ed5492f-2380-44cf-bebd-b12d4fcd0723","ios":"levelo://app?vid=1ed5492f-2380-44cf-bebd-b12d4fcd0723"},"vehicle_type_id":"4","last_reported":1752217963,"current_range_meters":9600,"station_id":"","pricing_plan_id":"cebpf4jnsgd1na2vs0mg"},{"bike_id":"e204274b-73ad-4c6f-862d-8af730ce2e2b","system_id":"levelo_inurba_marseille","lat":43.295559,"lon":5.422793,"is_reserved":false,"is_disabled":false,"rental_uris":{"android":"levelo://app?vid=e204274b-73ad-4c6f-862d-8af730ce2e2b","ios":"levelo://app?vid=e204274b-73ad-4c6f-862d-8af730ce2e2b"},"vehicle_type_id":"4","last_reported":1752217963,"current_range_meters":9600,"station_id":"ce4bhph2rcd13ifvqhdg","pricing_plan_id":"cebpf4jnsgd1na2vs0mg"},{"bike_id":"67af2fe7-f535-4afe-8f2e-b36dad8bb280","system_id":"levelo_inurba_marseille","lat":43.28478,"lon":5.38578,"is_reserved":false,"is_disabled":false,"rental_uris":{"android":"levelo://app?vid=67af2fe7-f535-4afe-8f2e-b36dad8bb280","ios":"levelo://app?vid=67af2fe7-f535-4afe-8f2e-b36dad8bb280"},"vehicle_type_id":"4","last_reported":1752217963,"current_range_meters":10000,"station_id":"ce4bh8p2rcd13ifvqeb0","pricing_plan_id":"cebpf4jnsgd1na2vs0mg"},{"bike_id":"e16b6c04-3994-4476-9af0-9084b67d8f63","system_id":"levelo_inurba_marseille","lat":43.31217,"lon":5.36866,"is_reserved":false,"is_disabled":false,"rental_uris":{"android":"levelo://app?vid=e16b6c04-3994-4476-9af0-9084b67d8f63","ios":"levelo://app?vid=e16b6c04-3994-4476-9af0-9084b67d8f63"},"vehicle_type_id":"4","last_reported":1752217963,"current_range_meters":10000,"station_id":"ce4bgl92rcd13ifvqbq0","pricing_plan_id":"cebpf4jnsgd1na2vs0mg"},{"bike_id":"65516a12-86b1-4674-a81b-7c255b747901","system_id":"levelo_inurba_marseille","lat":43.319461,"lon":5.36861,"is_reserved":false,"is_disabled":false,"rental_uris":{"android":"levelo://app?vid=65516a12-86b1-4674-a81b-7c255b747901","ios":"levelo://app?vid=65516a12-86b1-4674-a81b-7c255b747901"},"vehicle_type_id":"4","last_reported":1752217963,"current_range_meters":10000,"station_id":"ce4bhrh2rcd13ifvqhug","pricing_plan_id":"cebpf4jnsgd1na2vs0mg"},{"bike_id":"ea7f713a-f8eb-4f16-8168-36d2161084e8","system_id":"levelo_inurba_marseille","lat":43.27863,"lon":5.39459,"is_reserved":false,"is_disabled":false,"rental_uris":{"android":"levelo://app?vid=ea7f713a-f8eb-4f16-8168-36d2161084e8","ios":"levelo://app?vid=ea7f713a-f8eb-4f16-8168-36d2161084e8"},"vehicle_type_id":"4","last_reported":1752217963,"current_range_meters":10000,"station_id":"","pricing_plan_id":"cebpf4jnsgd1na2vs0mg"},{"bike_id":"b5dc1a76-b9e4-46c3-9bc9-fc156bc172d7","system_id":"levelo_inurba_marseille","lat":43.30634,"lon":5.40062,"is_reserved":false,"is_disabled":false,"rental_uris":{"android":"levelo://app?vid=b5dc1a76-b9e4-46c3-9bc9-fc156bc172d7","ios":"levelo://app?vid=b5dc1a76-b9e4-46c3-9bc9-fc156bc172d7"},"vehicle_type_id":"4","last_reported":1752217963,"current_range_meters":10000,"station_id":"ce4bh112rcd13ifvqda0","pricing_plan_id":"cebpf4jnsgd1na2vs0mg"},{"bike_id":"feaa7e3a-cbe4-4489-be11-8a12d7eec173","system_id":"levelo_inurba_marseille","lat":43.25223,"lon":5.42404,"is_reserved":false,"is_disabled":true,"rental_uris":{"android":"levelo://app?vid=feaa7e3a-cbe4-4489-be11-8a12d7eec173","ios":"levelo://app?vid=feaa7e3a-cbe4-4489-be11-8a12d7eec173"},"vehicle_type_id":"4","last_reported":1752217963,"current_range_meters":10000,"station_id":"","pricing_plan_id":"cebpf4jnsgd1na2vs0mg"},{"bike_id":"bdc570e2-2940-4661-88d9-5d534d2af683","system_id":"levelo_inurba_marseille","lat":43.247986,"lon":5.381572,"is_reserved":false,"is_disabled":false,"rental_uris":{"android":"levelo://app?vid=bdc570e2-2940-4661-88d9-5d534d2af683","ios":"levelo://app?vid=bdc570e2-2940-4661-88d9-5d534d2af683"},"vehicle_type_id":"4","last_reported":1752217963,"current_range_meters":10000,"station_id":"ce4bhih2rcd13ifvqfr0","pricing_plan_id":"cebpf4jnsgd1na2vs0mg"},{"bike_id":"73fe94e8-74f9-41f0-85e9-7d8c52adf2fc","system_id":"levelo_inurba_marseille","lat":43.21281,"lon":5.35261,"is_reserved":false,"is_disabled":false,"rental_uris":{"android":"levelo://app?vid=73fe94e8-74f9-41f0-85e9-7d8c52adf2fc","ios":"levelo://app?vid=73fe94e8-74f9-41f0-85e9-7d8c52adf2fc"},"vehicle_type_id":"4","last_reported":1752217963,"current_range_meters":10800,"station_id":"","pricing_plan_id":"cebpf4jnsgd1na2vs0mg"},{"bike_id":"ddb9be4f-f3f8-43f9-aa75-a62ae12dac83","system_id":"levelo_inurba_marseille","lat":43.29071,"lon":5.39977,"is_reserved":false,"is_disabled":false,"rental_uris":{"android":"levelo://app?vid=ddb9be4f-f3f8-43f9-aa75-a62ae12dac83","ios":"levelo://app?vid=ddb9be4f-f3f8-43f9-aa75-a62ae12dac83"},"vehicle_type_id":"4","last_reported":1752217963,"current_range_meters":10800,"station_id":"ce4bh392rcd13ifvqdm0","pricing_plan_id":"cebpf4jnsgd1na2vs0mg"},{"bike_id":"6fa0df8f-9ff1-40c3-a15b-344b5a0d383b","system_id":"levelo_inurba_marseille","lat":43.32352,"lon":5.36753,"is_reserved":false,"is_disabled":false,"rental_uris":{"android":"levelo://app?vid=6fa0df8f-9ff1-40c3-a15b-344b5a0d383b","ios":"levelo://app?vid=6fa0df8f-9ff1-40c3-a15b-344b5a0d383b"},"vehicle_type_id":"4","last_reported":1752217963,"current_range_meters":10800,"station_id":"ce4bhsh2rcd13ifvqi2g","pricing_plan_id":"cebpf4jnsgd1na2vs0mg"},{"bike_id":"f373e4a8-33e3-4f72-ae8e-e7ab386910f4","system_id":"levelo_inurba_marseille","lat":43.22502,"lon":5.3478,"is_reserved":false,"is_disabled":false,"rental_uris":{"android":"levelo://app?vid=f373e4a8-33e3-4f72-ae8e-e7ab386910f4","ios":"levelo://app?vid=f373e4a8-33e3-4f72-ae8e-e7ab386910f4"},"vehicle_type_id":"4","last_reported":1752217963,"current_range_meters":10800,"station_id":"st_cvj5dfep6f1abm77gieg","pricing_plan_id":"cebpf4jnsgd1na2vs0mg"},{"bike_id":"454f8d45-097d-4f25-bea5-29d7928a9ae9","system_id":"levelo_inurba_marseille","lat":43.304594,"lon":5.379066,"is_reserved":false,"is_disabled":false,"rental_uris":{"android":"levelo://app?vid=454f8d45-097d-4f25-bea5-29d7928a9ae9","ios":"levelo://app?vid=454f8d45-097d-4f25-bea5-29d7928a9ae9"},"vehicle_type_id":"4","last_reported":1752217963,"current_range_meters":10800,"station_id":"ce4bgup2rcd13ifvqcn0","pricing_plan_id":"cebpf4jnsgd1na2vs0mg"},{"bike_id":"7c2d071d-3793-47df-b931-9d1ad060c48c","system_id":"levelo_inurba_marseille","lat":43.29553,"lon":5.42261,"is_reserved":false,"is_disabled":false,"rental_uris":{"android":"levelo://app?vid=7c2d071d-3793-47df-b931-9d1ad060c48c","ios":"levelo://app?vid=7c2d071d-3793-47df-b931-9d1ad060c48c"},"vehicle_type_id":"4","last_reported":1752217963,"current_range_meters":10800,"station_id":"ce4bhph2rcd13ifvqhdg","pricing_plan_id":"cebpf4jnsgd1na2vs0mg"},{"bike_id":"199fc732-b1f9-4b43-a682-43aab23bc41d","system_id":"levelo_inurba_marseille","lat":43.30525,"lon":5.36719,"is_reserved":false,"is_disabled":false,"rental_uris":{"android":"levelo://app?vid=199fc732-b1f9-4b43-a682-43aab23bc41d","ios":"levelo://app?vid=199fc732-b1f9-4b43-a682-43aab23bc41d"},"vehicle_type_id":"4","last_reported":1752217963,"current_range_meters":10800,"station_id":"ce4bgrp2rcd13ifvqc9g","pricing_plan_id":"cebpf4jnsgd1na2vs0mg"},{"bike_id":"95ed45be-0cbe-4ada-ab9b-3d6fe6e0c22e","system_id":"levelo_inurba_marseille","lat":43.27613,"lon":5.36106,"is_reserved":false,"is_disabled":true,"rental_uris":{"android":"levelo://app?vid=95ed45be-0cbe-4ada-ab9b-3d6fe6e0c22e","ios":"levelo://app?vid=95ed45be-0cbe-4ada-ab9b-3d6fe6e0c22e"},"vehicle_type_id":"4","last_reported":1752217963,"current_range_meters":10800,"station_id":"ce4bgj92rcd13ifvqbe0","pricing_plan_id":"cebpf4jnsgd1na2vs0mg"},{"bike_id":"7d754a5b-652b-4b44-908f-4bf3e221b0c1","system_id":"levelo_inurba_marseille","lat":43.264915,"lon":5.3954,"is_reserved":false,"is_disabled":false,"rental_uris":{"android":"levelo://app?vid=7d754a5b-652b-4b44-908f-4bf3e221b0c1","ios":"levelo://app?vid=7d754a5b-652b-4b44-908f-4bf3e221b0c1"},"vehicle_type_id":"4","last_reported":1752217963,"current_range_meters":11200,"station_id":"ce4bhi12rcd13ifvqfq0","pricing_plan_id":"cebpf4jnsgd1na2vs0mg"},{"bike_id":"b3d60eb0-7aa4-4c31-880d-886f21433e0c","system_id":"levelo_inurba_marseille","lat":43.3171,"lon":5.40431,"is_reserved":false,"is_disabled":false,"rental_uris":{"android":"levelo://app?vid=b3d60eb0-7aa4-4c31-880d-886f21433e0c","ios":"levelo://app?vid=b3d60eb0-7aa4-4c31-880d-886f21433e0c"},"vehicle_type_id":"4","last_reported":1752217963,"current_range_meters":11200,"station_id":"ce4bh012rcd13ifvqd00","pricing_plan_id":"cebpf4jnsgd1na2vs0mg"},{"bike_id":"2892c59b-e1f7-4d16-baa4-2c49420c8688","system_id":"levelo_inurba_marseille","lat":43.28428,"lon":5.3499,"is_reserved":false,"is_disabled":true,"rental_uris":{"android":"levelo://app?vid=2892c59b-e1f7-4d16-baa4-2c49420c8688","ios":"levelo://app?vid=2892c59b-e1f7-4d16-baa4-2c49420c8688"},"vehicle_type_id":"4","last_reported":1752217963,"current_range_meters":11600,"station_id":"ce4bhbh2rcd13ifvqepg","pricing_plan_id":"cebpf4jnsgd1na2vs0mg"},{"bike_id":"77a895c0-f47c-4ec3-a855-a3289edee2ca","system_id":"levelo_inurba_marseille","lat":43.27824,"lon":5.39204,"is_reserved":false,"is_disabled":true,"rental_uris":{"android":"levelo://app?vid=77a895c0-f47c-4ec3-a855-a3289edee2ca","ios":"levelo://app?vid=77a895c0-f47c-4ec3-a855-a3289edee2ca"},"vehicle_type_id":"4","last_reported":1752217963,"current_range_meters":11600,"station_id":"ce4bhjp2rcd13ifvqga0","pricing_plan_id":"cebpf4jnsgd1na2vs0mg"},{"bike_id":"9f5e74ce-2459-4c6f-a171-f6d1e8a1ed83","system_id":"levelo_inurba_marseille","lat":43.31881,"lon":5.37551,"is_reserved":false,"is_disabled":false,"rental_uris":{"android":"levelo://app?vid=9f5e74ce-2459-4c6f-a171-f6d1e8a1ed83","ios":"levelo://app?vid=9f5e74ce-2459-4c6f-a171-f6d1e8a1ed83"},"vehicle_type_id":"4","last_reported":1752217963,"current_range_meters":11600,"station_id":"","pricing_plan_id":"cebpf4jnsgd1na2vs0mg"},{"bike_id":"99eb9626-1dad-427c-8dad-1eac1a1313a8","system_id":"levelo_inurba_marseille","lat":43.29686,"lon":5.37275,"is_reserved":false,"is_disabled":false,"rental_uris":{"android":"levelo://app?vid=99eb9626-1dad-427c-8dad-1eac1a1313a8","ios":"levelo://app?vid=99eb9626-1dad-427c-8dad-1eac1a1313a8"},"vehicle_type_id":"4","last_reported":1752217963,"current_range_meters":11600,"station_id":"ce4bgk12rcd13ifvqbj0","pricing_plan_id":"cebpf4jnsgd1na2vs0mg"},{"bike_id":"d3e8264f-5e78-41b8-b5b0-557e389e6623","system_id":"levelo_inurba_marseille","lat":43.31371,"lon":5.37159,"is_reserved":false,"is_disabled":true,"rental_uris":{"android":"levelo://app?vid=d3e8264f-5e78-41b8-b5b0-557e389e6623","ios":"levelo://app?vid=d3e8264f-5e78-41b8-b5b0-557e389e6623"},"vehicle_type_id":"4","last_reported":1752217963,"current_range_meters":11600,"station_id":"","pricing_plan_id":"cebpf4jnsgd1na2vs0mg"},{"bike_id":"213e2f2f-af41-44ad-b773-b583d5c138bb","system_id":"levelo_inurba_marseille","lat":43.24385,"lon":5.37054,"is_reserved":false,"is_disabled":false,"rental_uris":{"android":"levelo://app?vid=213e2f2f-af41-44ad-b773-b583d5c138bb","ios":"levelo://app?vid=213e2f2f-af41-44ad-b773-b583d5c138bb"},"vehicle_type_id":"4","last_reported":1752217963,"current_range_meters":11600,"station_id":"ce4bhhh2rcd13ifvqfk0","pricing_plan_id":"cebpf4jnsgd1na2vs0mg"},{"bike_id":"4e209b0c-855f-4b51-8120-2faef8673853","system_id":"levelo_inurba_marseille","lat":43.30608,"lon":5.36899,"is_reserved":false,"is_disabled":false,"rental_uris":{"android":"levelo://app?vid=4e209b0c-855f-4b51-8120-2faef8673853","ios":"levelo://app?vid=4e209b0c-855f-4b51-8120-2faef8673853"},"vehicle_type_id":"4","last_reported":1752217963,"current_range_meters":11600,"station_id":"","pricing_plan_id":"cebpf4jnsgd1na2vs0mg"},{"bike_id":"624dedc3-fc47-424d-a69a-652531556a2d","system_id":"levelo_inurba_marseille","lat":43.29224,"lon":5.3607,"is_reserved":false,"is_disabled":false,"rental_uris":{"android":"levelo://app?vid=624dedc3-fc47-424d-a69a-652531556a2d","ios":"levelo://app?vid=624dedc3-fc47-424d-a69a-652531556a2d"},"vehicle_type_id":"4","last_reported":1752217963,"current_range_meters":11600,"station_id":"ce4bhbh2rcd13ifvqeqg","pricing_plan_id":"cebpf4jnsgd1na2vs0mg"},{"bike_id":"d5404e76-69b9-4c58-80ef-2e7badfb250e","system_id":"levelo_inurba_marseille","lat":43.24996,"lon":5.3893,"is_reserved":false,"is_disabled":false,"rental_uris":{"android":"levelo://app?vid=d5404e76-69b9-4c58-80ef-2e7badfb250e","ios":"levelo://app?vid=d5404e76-69b9-4c58-80ef-2e7badfb250e"},"vehicle_type_id":"4","last_reported":1752217963,"current_range_meters":11600,"station_id":"ce4bhgp2rcd13ifvqfd0","pricing_plan_id":"cebpf4jnsgd1na2vs0mg"},{"bike_id":"b842d059-27fe-4429-89c7-250a43e69f81","system_id":"levelo_inurba_marseille","lat":43.28707,"lon":5.37944,"is_reserved":false,"is_disabled":false,"rental_uris":{"android":"levelo://app?vid=b842d059-27fe-4429-89c7-250a43e69f81","ios":"levelo://app?vid=b842d059-27fe-4429-89c7-250a43e69f81"},"vehicle_type_id":"4","last_reported":1752217963,"current_range_meters":12000,"station_id":"ce4bh9p2rcd13ifvqec0","pricing_plan_id":"cebpf4jnsgd1na2vs0mg"},{"bike_id":"1ffc805c-8736-438b-9a4f-0dd7804275b4","system_id":"levelo_inurba_marseille","lat":43.29219,"lon":5.36056,"is_reserved":false,"is_disabled":false,"rental_uris":{"android":"levelo://app?vid=1ffc805c-8736-438b-9a4f-0dd7804275b4","ios":"levelo://app?vid=1ffc805c-8736-438b-9a4f-0dd7804275b4"},"vehicle_type_id":"4","last_reported":1752217963,"current_range_meters":12400,"station_id":"ce4bhbh2rcd13ifvqeqg","pricing_plan_id":"cebpf4jnsgd1na2vs0mg"},{"bike_id":"fb151c7d-47c6-477a-882b-bc952f1c9a8d","system_id":"levelo_inurba_marseille","lat":43.31955,"lon":5.37313,"is_reserved":false,"is_disabled":false,"rental_uris":{"android":"levelo://app?vid=fb151c7d-47c6-477a-882b-bc952f1c9a8d","ios":"levelo://app?vid=fb151c7d-47c6-477a-882b-bc952f1c9a8d"},"vehicle_type_id":"4","last_reported":1752217963,"current_range_meters":12400,"station_id":"","pricing_plan_id":"cebpf4jnsgd1na2vs0mg"},{"bike_id":"09a8628e-3ca4-4af6-b971-3b3417814de7","system_id":"levelo_inurba_marseille","lat":43.29187,"lon":5.358146,"is_reserved":false,"is_disabled":false,"rental_uris":{"android":"levelo://app?vid=09a8628e-3ca4-4af6-b971-3b3417814de7","ios":"levelo://app?vid=09a8628e-3ca4-4af6-b971-3b3417814de7"},"vehicle_type_id":"4","last_reported":1752217963,"current_range_meters":12400,"station_id":"ce4bhb12rcd13ifvqel0","pricing_plan_id":"cebpf4jnsgd1na2vs0mg"},{"bike_id":"a2a7dc46-15f6-4a66-8c51-db0b4d28ca76","system_id":"levelo_inurba_marseille","lat":43.32478,"lon":5.36571,"is_reserved":false,"is_disabled":false,"rental_uris":{"android":"levelo://app?vid=a2a7dc46-15f6-4a66-8c51-db0b4d28ca76","ios":"levelo://app?vid=a2a7dc46-15f6-4a66-8c51-db0b4d28ca76"},"vehicle_type_id":"4","last_reported":1752217963,"current_range_meters":12400,"station_id":"ce4bhs12rcd13ifvqhvg","pricing_plan_id":"cebpf4jnsgd1na2vs0mg"},{"bike_id":"13d6e247-795f-44d9-bafe-31cbd3d5d525","system_id":"levelo_inurba_marseille","lat":43.26558,"lon":5.3729,"is_reserved":false,"is_disabled":false,"rental_uris":{"android":"levelo://app?vid=13d6e247-795f-44d9-bafe-31cbd3d5d525","ios":"levelo://app?vid=13d6e247-795f-44d9-bafe-31cbd3d5d525"},"vehicle_type_id":"4","last_reported":1752217963,"current_range_meters":12400,"station_id":"ce4bhg12rcd13ifvqf70","pricing_plan_id":"cebpf4jnsgd1na2vs0mg"},{"bike_id":"fa87fcb5-aacb-41a1-a789-0296bbd02085","system_id":"levelo_inurba_marseille","lat":43.24585,"lon":5.373766,"is_reserved":false,"is_disabled":false,"rental_uris":{"android":"levelo://app?vid=fa87fcb5-aacb-41a1-a789-0296bbd02085","ios":"levelo://app?vid=fa87fcb5-aacb-41a1-a789-0296bbd02085"},"vehicle_type_id":"4","last_reported":1752217963,"current_range_meters":12400,"station_id":"","pricing_plan_id":"cebpf4jnsgd1na2vs0mg"},{"bike_id":"eb808631-7f2b-4efe-a9e5-541032677921","system_id":"levelo_inurba_marseille","lat":43.23172,"lon":5.35571,"is_reserved":false,"is_disabled":false,"rental_uris":{"android":"levelo://app?vid=eb808631-7f2b-4efe-a9e5-541032677921","ios":"levelo://app?vid=eb808631-7f2b-4efe-a9e5-541032677921"},"vehicle_type_id":"4","last_reported":1752217963,"current_range_meters":12400,"station_id":"ce4bhu92rcd13ifvqi70","pricing_plan_id":"cebpf4jnsgd1na2vs0mg"},{"bike_id":"1746d397-612f-47c9-94f0-ae0e40fad68b","system_id":"levelo_inurba_marseille","lat":43.23957,"lon":5.36632,"is_reserved":false,"is_disabled":true,"rental_uris":{"android":"levelo://app?vid=1746d397-612f-47c9-94f0-ae0e40fad68b","ios":"levelo://app?vid=1746d397-612f-47c9-94f0-ae0e40fad68b"},"vehicle_type_id":"4","last_reported":1752217963,"current_range_meters":12400,"station_id":"ce4bhi12rcd13ifvqfp0","pricing_plan_id":"cebpf4jnsgd1na2vs0mg"},{"bike_id":"5a7b57ef-a00d-4d19-853c-d49c119db95f","system_id":"levelo_inurba_marseille","lat":43.24566,"lon":5.3734,"is_reserved":false,"is_disabled":false,"rental_uris":{"android":"levelo://app?vid=5a7b57ef-a00d-4d19-853c-d49c119db95f","ios":"levelo://app?vid=5a7b57ef-a00d-4d19-853c-d49c119db95f"},"vehicle_type_id":"4","last_reported":1752217963,"current_range_meters":12800,"station_id":"","pricing_plan_id":"cebpf4jnsgd1na2vs0mg"},{"bike_id":"8330a68f-2f6e-4337-9657-35d7d87c04ca","system_id":"levelo_inurba_marseille","lat":43.25451,"lon":5.37946,"is_reserved":false,"is_disabled":false,"rental_uris":{"android":"levelo://app?vid=8330a68f-2f6e-4337-9657-35d7d87c04ca","ios":"levelo://app?vid=8330a68f-2f6e-4337-9657-35d7d87c04ca"},"vehicle_type_id":"4","last_reported":1752217963,"current_range_meters":12800,"station_id":"","pricing_plan_id":"cebpf4jnsgd1na2vs0mg"},{"bike_id":"ee1ac907-8623-4d00-ac01-d41dd90be9fe","system_id":"levelo_inurba_marseille","lat":43.21189,"lon":5.350735,"is_reserved":false,"is_disabled":false,"rental_uris":{"android":"levelo://app?vid=ee1ac907-8623-4d00-ac01-d41dd90be9fe","ios":"levelo://app?vid=ee1ac907-8623-4d00-ac01-d41dd90be9fe"},"vehicle_type_id":"4","last_reported":1752217963,"current_range_meters":12800,"station_id":"st_cvj6sg6p6f1abm77japg","pricing_plan_id":"cebpf4jnsgd1na2vs0mg"},{"bike_id":"1830d799-57e9-4ec2-b486-66d995653d72","system_id":"levelo_inurba_marseille","lat":43.29622,"lon":5.38197,"is_reserved":false,"is_disabled":false,"rental_uris":{"android":"levelo://app?vid=1830d799-57e9-4ec2-b486-66d995653d72","ios":"levelo://app?vid=1830d799-57e9-4ec2-b486-66d995653d72"},"vehicle_type_id":"4","last_reported":1752217963,"current_range_meters":12800,"station_id":"","pricing_plan_id":"cebpf4jnsgd1na2vs0mg"},{"bike_id":"52ded562-124e-46e9-8eee-59b1479b9e35","system_id":"levelo_inurba_marseille","lat":43.32477,"lon":5.36555,"is_reserved":false,"is_disabled":false,"rental_uris":{"android":"levelo://app?vid=52ded562-124e-46e9-8eee-59b1479b9e35","ios":"levelo://app?vid=52ded562-124e-46e9-8eee-59b1479b9e35"},"vehicle_type_id":"4","last_reported":1752217963,"current_range_meters":13600,"station_id":"ce4bhs12rcd13ifvqhvg","pricing_plan_id":"cebpf4jnsgd1na2vs0mg"},{"bike_id":"6737467a-fe5d-470c-a191-2df05ebbb3bb","system_id":"levelo_inurba_marseille","lat":43.225,"lon":5.34766,"is_reserved":false,"is_disabled":false,"rental_uris":{"android":"levelo://app?vid=6737467a-fe5d-470c-a191-2df05ebbb3bb","ios":"levelo://app?vid=6737467a-fe5d-470c-a191-2df05ebbb3bb"},"vehicle_type_id":"4","last_reported":1752217963,"current_range_meters":13600,"station_id":"st_cvj5dfep6f1abm77gieg","pricing_plan_id":"cebpf4jnsgd1na2vs0mg"},{"bike_id":"9a38b8ae-de57-4388-9942-2cd602d3a5ea","system_id":"levelo_inurba_marseille","lat":43.295613,"lon":5.422881,"is_reserved":false,"is_disabled":false,"rental_uris":{"android":"levelo://app?vid=9a38b8ae-de57-4388-9942-2cd602d3a5ea","ios":"levelo://app?vid=9a38b8ae-de57-4388-9942-2cd602d3a5ea"},"vehicle_type_id":"4","last_reported":1752217963,"current_range_meters":13600,"station_id":"ce4bhph2rcd13ifvqhdg","pricing_plan_id":"cebpf4jnsgd1na2vs0mg"},{"bike_id":"24b17f7b-dff1-4936-b27a-7c2c6813a894","system_id":"levelo_inurba_marseille","lat":43.245824,"lon":5.373775,"is_reserved":false,"is_disabled":false,"rental_uris":{"android":"levelo://app?vid=24b17f7b-dff1-4936-b27a-7c2c6813a894","ios":"levelo://app?vid=24b17f7b-dff1-4936-b27a-7c2c6813a894"},"vehicle_type_id":"4","last_reported":1752217963,"current_range_meters":13600,"station_id":"","pricing_plan_id":"cebpf4jnsgd1na2vs0mg"},{"bike_id":"0e5dcf8f-8fdf-4c25-8ea3-61654a1893f9","system_id":"levelo_inurba_marseille","lat":43.25499,"lon":5.37597,"is_reserved":false,"is_disabled":false,"rental_uris":{"android":"levelo://app?vid=0e5dcf8f-8fdf-4c25-8ea3-61654a1893f9","ios":"levelo://app?vid=0e5dcf8f-8fdf-4c25-8ea3-61654a1893f9"},"vehicle_type_id":"4","last_reported":1752217963,"current_range_meters":14000,"station_id":"ce4bhh12rcd13ifvqff0","pricing_plan_id":"cebpf4jnsgd1na2vs0mg"},{"bike_id":"67a1c8bb-4e10-4d4c-8446-8fe730f54574","system_id":"levelo_inurba_marseille","lat":43.294184,"lon":5.386068,"is_reserved":false,"is_disabled":true,"rental_uris":{"android":"levelo://app?vid=67a1c8bb-4e10-4d4c-8446-8fe730f54574","ios":"levelo://app?vid=67a1c8bb-4e10-4d4c-8446-8fe730f54574"},"vehicle_type_id":"4","last_reported":1752217963,"current_range_meters":14000,"station_id":"ce4bh2h2rcd13ifvqdh0","pricing_plan_id":"cebpf4jnsgd1na2vs0mg"},{"bike_id":"e38f7f5b-1493-46e4-a8cf-0b8e1debebdc","system_id":"levelo_inurba_marseille","lat":43.30486,"lon":5.37871,"is_reserved":false,"is_disabled":true,"rental_uris":{"android":"levelo://app?vid=e38f7f5b-1493-46e4-a8cf-0b8e1debebdc","ios":"levelo://app?vid=e38f7f5b-1493-46e4-a8cf-0b8e1debebdc"},"vehicle_type_id":"4","last_reported":1752217963,"current_range_meters":14000,"station_id":"ce4bgup2rcd13ifvqcn0","pricing_plan_id":"cebpf4jnsgd1na2vs0mg"},{"bike_id":"3baae617-69cb-4f08-98b7-4df34a78cfcb","system_id":"levelo_inurba_marseille","lat":43.24548,"lon":5.39522,"is_reserved":false,"is_disabled":false,"rental_uris":{"android":"levelo://app?vid=3baae617-69cb-4f08-98b7-4df34a78cfcb","ios":"levelo://app?vid=3baae617-69cb-4f08-98b7-4df34a78cfcb"},"vehicle_type_id":"4","last_reported":1752217963,"current_range_meters":14000,"station_id":"ce4bhlp2rcd13ifvqgjg","pricing_plan_id":"cebpf4jnsgd1na2vs0mg"},{"bike_id":"20298669-51c1-4292-ad92-d0fa61c941d3","system_id":"levelo_inurba_marseille","lat":43.23138,"lon":5.43687,"is_reserved":false,"is_disabled":true,"rental_uris":{"android":"levelo://app?vid=20298669-51c1-4292-ad92-d0fa61c941d3","ios":"levelo://app?vid=20298669-51c1-4292-ad92-d0fa61c941d3"},"vehicle_type_id":"4","last_reported":1752217963,"current_range_meters":14000,"station_id":"ce4bhmp2rcd13ifvqgog","pricing_plan_id":"cebpf4jnsgd1na2vs0mg"},{"bike_id":"3b42bf26-8d11-45fd-9faf-8f270ccdee1a","system_id":"levelo_inurba_marseille","lat":43.29298,"lon":5.37161,"is_reserved":false,"is_disabled":true,"rental_uris":{"android":"levelo://app?vid=3b42bf26-8d11-45fd-9faf-8f270ccdee1a","ios":"levelo://app?vid=3b42bf26-8d11-45fd-9faf-8f270ccdee1a"},"vehicle_type_id":"4","last_reported":1752217963,"current_range_meters":14000,"station_id":"ce4bgh92rcd13ifvqb40","pricing_plan_id":"cebpf4jnsgd1na2vs0mg"},{"bike_id":"8f89e4f3-495a-4317-bd6d-37a19186d65b","system_id":"levelo_inurba_marseille","lat":43.3373,"lon":5.39221,"is_reserved":false,"is_disabled":false,"rental_uris":{"android":"levelo://app?vid=8f89e4f3-495a-4317-bd6d-37a19186d65b","ios":"levelo://app?vid=8f89e4f3-495a-4317-bd6d-37a19186d65b"},"vehicle_type_id":"4","last_reported":1752217963,"current_range_meters":14000,"station_id":"ce4bhr92rcd13ifvqhsg","pricing_plan_id":"cebpf4jnsgd1na2vs0mg"},{"bike_id":"c3c5b26c-e834-4db6-994b-52abb31f20f1","system_id":"levelo_inurba_marseille","lat":43.24066,"lon":5.37755,"is_reserved":false,"is_disabled":false,"rental_uris":{"android":"levelo://app?vid=c3c5b26c-e834-4db6-994b-52abb31f20f1","ios":"levelo://app?vid=c3c5b26c-e834-4db6-994b-52abb31f20f1"},"vehicle_type_id":"4","last_reported":1752217963,"current_range_meters":14400,"station_id":"ce4bhnp2rcd13ifvqgvg","pricing_plan_id":"cebpf4jnsgd1na2vs0mg"},{"bike_id":"4018485f-3d49-463e-bed7-d890e4ff7869","system_id":"levelo_inurba_marseille","lat":43.290177,"lon":5.386323,"is_reserved":false,"is_disabled":true,"rental_uris":{"android":"levelo://app?vid=4018485f-3d49-463e-bed7-d890e4ff7869","ios":"levelo://app?vid=4018485f-3d49-463e-bed7-d890e4ff7869"},"vehicle_type_id":"4","last_reported":1752217963,"current_range_meters":14400,"station_id":"ce4bh4p2rcd13ifvqe0g","pricing_plan_id":"cebpf4jnsgd1na2vs0mg"},{"bike_id":"29a0a180-d29f-4a4e-a71b-d1d9d42cb217","system_id":"levelo_inurba_marseille","lat":43.211984,"lon":5.350597,"is_reserved":false,"is_disabled":false,"rental_uris":{"android":"levelo://app?vid=29a0a180-d29f-4a4e-a71b-d1d9d42cb217","ios":"levelo://app?vid=29a0a180-d29f-4a4e-a71b-d1d9d42cb217"},"vehicle_type_id":"4","last_reported":1752217963,"current_range_meters":14400,"station_id":"st_cvj6sg6p6f1abm77japg","pricing_plan_id":"cebpf4jnsgd1na2vs0mg"},{"bike_id":"448c4f20-9ff9-43c1-b5e0-d4a3666ae33b","system_id":"levelo_inurba_marseille","lat":43.31224,"lon":5.36853,"is_reserved":false,"is_disabled":false,"rental_uris":{"android":"levelo://app?vid=448c4f20-9ff9-43c1-b5e0-d4a3666ae33b","ios":"levelo://app?vid=448c4f20-9ff9-43c1-b5e0-d4a3666ae33b"},"vehicle_type_id":"4","last_reported":1752217963,"current_range_meters":14400,"station_id":"ce4bgl92rcd13ifvqbq0","pricing_plan_id":"cebpf4jnsgd1na2vs0mg"},{"bike_id":"0cbc5e72-c2a7-4514-be3f-d51955b4515f","system_id":"levelo_inurba_marseille","lat":43.29165,"lon":5.37155,"is_reserved":false,"is_disabled":false,"rental_uris":{"android":"levelo://app?vid=0cbc5e72-c2a7-4514-be3f-d51955b4515f","ios":"levelo://app?vid=0cbc5e72-c2a7-4514-be3f-d51955b4515f"},"vehicle_type_id":"4","last_reported":1752217963,"current_range_meters":14800,"station_id":"ce4bha92rcd13ifvqeh0","pricing_plan_id":"cebpf4jnsgd1na2vs0mg"},{"bike_id":"95508d1b-a047-4e81-94e0-5bf2758b8c99","system_id":"levelo_inurba_marseille","lat":43.24388,"lon":5.37066,"is_reserved":false,"is_disabled":false,"rental_uris":{"android":"levelo://app?vid=95508d1b-a047-4e81-94e0-5bf2758b8c99","ios":"levelo://app?vid=95508d1b-a047-4e81-94e0-5bf2758b8c99"},"vehicle_type_id":"4","last_reported":1752217963,"current_range_meters":14800,"station_id":"ce4bhhh2rcd13ifvqfk0","pricing_plan_id":"cebpf4jnsgd1na2vs0mg"},{"bike_id":"2c702aa4-2ac5-4550-b697-5b3cdcd314b3","system_id":"levelo_inurba_marseille","lat":43.32033,"lon":5.41568,"is_reserved":false,"is_disabled":false,"rental_uris":{"android":"levelo://app?vid=2c702aa4-2ac5-4550-b697-5b3cdcd314b3","ios":"levelo://app?vid=2c702aa4-2ac5-4550-b697-5b3cdcd314b3"},"vehicle_type_id":"4","last_reported":1752217963,"current_range_meters":14800,"station_id":"ce4bhq92rcd13ifvqhkg","pricing_plan_id":"cebpf4jnsgd1na2vs0mg"},{"bike_id":"6994c34f-7b9e-4588-9c5d-f80e030067a1","system_id":"levelo_inurba_marseille","lat":43.323522,"lon":5.388923,"is_reserved":false,"is_disabled":false,"rental_uris":{"android":"levelo://app?vid=6994c34f-7b9e-4588-9c5d-f80e030067a1","ios":"levelo://app?vid=6994c34f-7b9e-4588-9c5d-f80e030067a1"},"vehicle_type_id":"4","last_reported":1752217963,"current_range_meters":14800,"station_id":"ce4bhqp2rcd13ifvqhog","pricing_plan_id":"cebpf4jnsgd1na2vs0mg"},{"bike_id":"2816e3ac-4428-4792-a73a-0eb1948465ef","system_id":"levelo_inurba_marseille","lat":43.31223,"lon":5.36868,"is_reserved":false,"is_disabled":false,"rental_uris":{"android":"levelo://app?vid=2816e3ac-4428-4792-a73a-0eb1948465ef","ios":"levelo://app?vid=2816e3ac-4428-4792-a73a-0eb1948465ef"},"vehicle_type_id":"4","last_reported":1752217963,"current_range_meters":14800,"station_id":"ce4bgl92rcd13ifvqbq0","pricing_plan_id":"cebpf4jnsgd1na2vs0mg"},{"bike_id":"d849a247-c2c0-4619-bac8-f5a6994e0014","system_id":"levelo_inurba_marseille","lat":43.32036,"lon":5.41561,"is_reserved":false,"is_disabled":true,"rental_uris":{"android":"levelo://app?vid=d849a247-c2c0-4619-bac8-f5a6994e0014","ios":"levelo://app?vid=d849a247-c2c0-4619-bac8-f5a6994e0014"},"vehicle_type_id":"4","last_reported":1752217963,"current_range_meters":14800,"station_id":"ce4bhq92rcd13ifvqhkg","pricing_plan_id":"cebpf4jnsgd1na2vs0mg"},{"bike_id":"c6a80404-0b82-4bac-a58d-0caa47987300","system_id":"levelo_inurba_marseille","lat":43.30139,"lon":5.37426,"is_reserved":false,"is_disabled":false,"rental_uris":{"android":"levelo://app?vid=c6a80404-0b82-4bac-a58d-0caa47987300","ios":"levelo://app?vid=c6a80404-0b82-4bac-a58d-0caa47987300"},"vehicle_type_id":"4","last_reported":1752217963,"current_range_meters":14800,"station_id":"ce4bgs92rcd13ifvqcc0","pricing_plan_id":"cebpf4jnsgd1na2vs0mg"},{"bike_id":"4d4b9e28-a4f6-4d45-ac6b-64a63a768bd8","system_id":"levelo_inurba_marseille","lat":43.315118,"lon":5.374148,"is_reserved":false,"is_disabled":false,"rental_uris":{"android":"levelo://app?vid=4d4b9e28-a4f6-4d45-ac6b-64a63a768bd8","ios":"levelo://app?vid=4d4b9e28-a4f6-4d45-ac6b-64a63a768bd8"},"vehicle_type_id":"4","last_reported":1752217963,"current_range_meters":15200,"station_id":"","pricing_plan_id":"cebpf4jnsgd1na2vs0mg"},{"bike_id":"595e9351-a7ce-45de-8995-771f7d9fe86e","system_id":"levelo_inurba_marseille","lat":43.309243,"lon":5.378088,"is_reserved":false,"is_disabled":false,"rental_uris":{"android":"levelo://app?vid=595e9351-a7ce-45de-8995-771f7d9fe86e","ios":"levelo://app?vid=595e9351-a7ce-45de-8995-771f7d9fe86e"},"vehicle_type_id":"4","last_reported":1752217963,"current_range_meters":15200,"station_id":"","pricing_plan_id":"cebpf4jnsgd1na2vs0mg"},{"bike_id":"6e44525d-ed45-445a-a877-081b94eb5813","system_id":"levelo_inurba_marseille","lat":43.303609,"lon":5.418836,"is_reserved":false,"is_disabled":true,"rental_uris":{"android":"levelo://app?vid=6e44525d-ed45-445a-a877-081b94eb5813","ios":"levelo://app?vid=6e44525d-ed45-445a-a877-081b94eb5813"},"vehicle_type_id":"4","last_reported":1752217963,"current_range_meters":15200,"station_id":"ce4bhop2rcd13ifvqh7g","pricing_plan_id":"cebpf4jnsgd1na2vs0mg"},{"bike_id":"544ec108-796d-413d-8a7c-7e4ffa805fe3","system_id":"levelo_inurba_marseille","lat":43.27322,"lon":5.39296,"is_reserved":false,"is_disabled":false,"rental_uris":{"android":"levelo://app?vid=544ec108-796d-413d-8a7c-7e4ffa805fe3","ios":"levelo://app?vid=544ec108-796d-413d-8a7c-7e4ffa805fe3"},"vehicle_type_id":"4","last_reported":1752217963,"current_range_meters":15200,"station_id":"","pricing_plan_id":"cebpf4jnsgd1na2vs0mg"},{"bike_id":"63a571e4-fc02-4b67-a548-5883b6130d96","system_id":"levelo_inurba_marseille","lat":43.295739,"lon":5.399743,"is_reserved":false,"is_disabled":false,"rental_uris":{"android":"levelo://app?vid=63a571e4-fc02-4b67-a548-5883b6130d96","ios":"levelo://app?vid=63a571e4-fc02-4b67-a548-5883b6130d96"},"vehicle_type_id":"4","last_reported":1752217963,"current_range_meters":16000,"station_id":"ce4bh312rcd13ifvqdj0","pricing_plan_id":"cebpf4jnsgd1na2vs0mg"},{"bike_id":"96f82260-718a-4e3a-9802-28ac9d732e83","system_id":"levelo_inurba_marseille","lat":43.3127,"lon":5.36873,"is_reserved":false,"is_disabled":true,"rental_uris":{"android":"levelo://app?vid=96f82260-718a-4e3a-9802-28ac9d732e83","ios":"levelo://app?vid=96f82260-718a-4e3a-9802-28ac9d732e83"},"vehicle_type_id":"4","last_reported":1752217963,"current_range_meters":16000,"station_id":"","pricing_plan_id":"cebpf4jnsgd1na2vs0mg"},{"bike_id":"bf09bee3-8637-4ab4-9ae6-9361ad138f2f","system_id":"levelo_inurba_marseille","lat":43.305799,"lon":5.367497,"is_reserved":false,"is_disabled":false,"rental_uris":{"android":"levelo://app?vid=bf09bee3-8637-4ab4-9ae6-9361ad138f2f","ios":"levelo://app?vid=bf09bee3-8637-4ab4-9ae6-9361ad138f2f"},"vehicle_type_id":"4","last_reported":1752217963,"current_range_meters":16000,"station_id":"ce4bgrp2rcd13ifvqc9g","pricing_plan_id":"cebpf4jnsgd1na2vs0mg"},{"bike_id":"b2744915-51cf-4d6c-a617-6a8720cef808","system_id":"levelo_inurba_marseille","lat":43.259294,"lon":5.409023,"is_reserved":false,"is_disabled":false,"rental_uris":{"android":"levelo://app?vid=b2744915-51cf-4d6c-a617-6a8720cef808","ios":"levelo://app?vid=b2744915-51cf-4d6c-a617-6a8720cef808"},"vehicle_type_id":"4","last_reported":1752217963,"current_range_meters":16000,"station_id":"ce4bhm92rcd13ifvqglg","pricing_plan_id":"cebpf4jnsgd1na2vs0mg"},{"bike_id":"a8dabc5e-082f-4947-9122-29fa8a9123d9","system_id":"levelo_inurba_marseille","lat":43.29887,"lon":5.39727,"is_reserved":false,"is_disabled":false,"rental_uris":{"android":"levelo://app?vid=a8dabc5e-082f-4947-9122-29fa8a9123d9","ios":"levelo://app?vid=a8dabc5e-082f-4947-9122-29fa8a9123d9"},"vehicle_type_id":"4","last_reported":1752217963,"current_range_meters":16000,"station_id":"ce4bh0h2rcd13ifvqd50","pricing_plan_id":"cebpf4jnsgd1na2vs0mg"},{"bike_id":"7097363b-955f-4a5e-8ede-9bb14b7f1708","system_id":"levelo_inurba_marseille","lat":43.211904,"lon":5.350687,"is_reserved":false,"is_disabled":false,"rental_uris":{"android":"levelo://app?vid=7097363b-955f-4a5e-8ede-9bb14b7f1708","ios":"levelo://app?vid=7097363b-955f-4a5e-8ede-9bb14b7f1708"},"vehicle_type_id":"4","last_reported":1752217963,"current_range_meters":16000,"station_id":"st_cvj6sg6p6f1abm77japg","pricing_plan_id":"cebpf4jnsgd1na2vs0mg"},{"bike_id":"5423e7d5-07f9-4264-9d42-219884898d7f","system_id":"levelo_inurba_marseille","lat":43.241678,"lon":5.364132,"is_reserved":false,"is_disabled":false,"rental_uris":{"android":"levelo://app?vid=5423e7d5-07f9-4264-9d42-219884898d7f","ios":"levelo://app?vid=5423e7d5-07f9-4264-9d42-219884898d7f"},"vehicle_type_id":"4","last_reported":1752217963,"current_range_meters":16000,"station_id":"cpo36qri1sfpv3e86is0","pricing_plan_id":"cebpf4jnsgd1na2vs0mg"},{"bike_id":"d8455400-fbfb-44ac-bbb5-eaee2fa20e05","system_id":"levelo_inurba_marseille","lat":43.26054,"lon":5.39398,"is_reserved":false,"is_disabled":false,"rental_uris":{"android":"levelo://app?vid=d8455400-fbfb-44ac-bbb5-eaee2fa20e05","ios":"levelo://app?vid=d8455400-fbfb-44ac-bbb5-eaee2fa20e05"},"vehicle_type_id":"4","last_reported":1752217963,"current_range_meters":16000,"station_id":"ce4bhh92rcd13ifvqfj0","pricing_plan_id":"cebpf4jnsgd1na2vs0mg"},{"bike_id":"3f8911a2-81ee-4646-acfd-432d49bf8b1d","system_id":"levelo_inurba_marseille","lat":43.29037,"lon":5.39961,"is_reserved":false,"is_disabled":false,"rental_uris":{"android":"levelo://app?vid=3f8911a2-81ee-4646-acfd-432d49bf8b1d","ios":"levelo://app?vid=3f8911a2-81ee-4646-acfd-432d49bf8b1d"},"vehicle_type_id":"4","last_reported":1752217963,"current_range_meters":16000,"station_id":"ce4bh392rcd13ifvqdm0","pricing_plan_id":"cebpf4jnsgd1na2vs0mg"},{"bike_id":"e3a75ee9-c614-467b-8cc2-f813bcef2ab1","system_id":"levelo_inurba_marseille","lat":43.33743,"lon":5.3919,"is_reserved":false,"is_disabled":false,"rental_uris":{"android":"levelo://app?vid=e3a75ee9-c614-467b-8cc2-f813bcef2ab1","ios":"levelo://app?vid=e3a75ee9-c614-467b-8cc2-f813bcef2ab1"},"vehicle_type_id":"4","last_reported":1752217963,"current_range_meters":16000,"station_id":"ce4bhr92rcd13ifvqhsg","pricing_plan_id":"cebpf4jnsgd1na2vs0mg"},{"bike_id":"5086513f-38b2-4d32-bf7b-ef747c2370bc","system_id":"levelo_inurba_marseille","lat":43.27922,"lon":5.39582,"is_reserved":false,"is_disabled":false,"rental_uris":{"android":"levelo://app?vid=5086513f-38b2-4d32-bf7b-ef747c2370bc","ios":"levelo://app?vid=5086513f-38b2-4d32-bf7b-ef747c2370bc"},"vehicle_type_id":"4","last_reported":1752217963,"current_range_meters":16000,"station_id":"ce4bhf92rcd13ifvqf40","pricing_plan_id":"cebpf4jnsgd1na2vs0mg"},{"bike_id":"03e64300-c9c7-4231-a992-9dda12de8de2","system_id":"levelo_inurba_marseille","lat":43.28708,"lon":5.39986,"is_reserved":false,"is_disabled":false,"rental_uris":{"android":"levelo://app?vid=03e64300-c9c7-4231-a992-9dda12de8de2","ios":"levelo://app?vid=03e64300-c9c7-4231-a992-9dda12de8de2"},"vehicle_type_id":"4","last_reported":1752217963,"current_range_meters":16400,"station_id":"ce4bho92rcd13ifvqh3g","pricing_plan_id":"cebpf4jnsgd1na2vs0mg"},{"bike_id":"36d841ea-e6f4-4ff1-8465-d05e720a58e5","system_id":"levelo_inurba_marseille","lat":43.28735,"lon":5.40008,"is_reserved":false,"is_disabled":true,"rental_uris":{"android":"levelo://app?vid=36d841ea-e6f4-4ff1-8465-d05e720a58e5","ios":"levelo://app?vid=36d841ea-e6f4-4ff1-8465-d05e720a58e5"},"vehicle_type_id":"4","last_reported":1752217963,"current_range_meters":16400,"station_id":"ce4bho92rcd13ifvqh3g","pricing_plan_id":"cebpf4jnsgd1na2vs0mg"},{"bike_id":"530fdaa0-3dcf-48bd-ae6d-18f67ca1c283","system_id":"levelo_inurba_marseille","lat":43.297111,"lon":5.366155,"is_reserved":false,"is_disabled":false,"rental_uris":{"android":"levelo://app?vid=530fdaa0-3dcf-48bd-ae6d-18f67ca1c283","ios":"levelo://app?vid=530fdaa0-3dcf-48bd-ae6d-18f67ca1c283"},"vehicle_type_id":"4","last_reported":1752217963,"current_range_meters":16400,"station_id":"","pricing_plan_id":"cebpf4jnsgd1na2vs0mg"},{"bike_id":"30909b7f-2dc3-45ae-b1c4-7c6559ae14cb","system_id":"levelo_inurba_marseille","lat":43.26785,"lon":5.39415,"is_reserved":false,"is_disabled":false,"rental_uris":{"android":"levelo://app?vid=30909b7f-2dc3-45ae-b1c4-7c6559ae14cb","ios":"levelo://app?vid=30909b7f-2dc3-45ae-b1c4-7c6559ae14cb"},"vehicle_type_id":"4","last_reported":1752217963,"current_range_meters":16400,"station_id":"ce4bhh12rcd13ifvqfg0","pricing_plan_id":"cebpf4jnsgd1na2vs0mg"},{"bike_id":"9d4f14f9-e9e1-4507-8658-c8951cc4b985","system_id":"levelo_inurba_marseille","lat":43.28475,"lon":5.38413,"is_reserved":false,"is_disabled":false,"rental_uris":{"android":"levelo://app?vid=9d4f14f9-e9e1-4507-8658-c8951cc4b985","ios":"levelo://app?vid=9d4f14f9-e9e1-4507-8658-c8951cc4b985"},"vehicle_type_id":"4","last_reported":1752217963,"current_range_meters":16400,"station_id":"ce4bh512rcd13ifvqe3g","pricing_plan_id":"cebpf4jnsgd1na2vs0mg"},{"bike_id":"647a1903-1834-4730-b34e-6397917620f0","system_id":"levelo_inurba_marseille","lat":43.31659,"lon":5.37033,"is_reserved":false,"is_disabled":false,"rental_uris":{"android":"levelo://app?vid=647a1903-1834-4730-b34e-6397917620f0","ios":"levelo://app?vid=647a1903-1834-4730-b34e-6397917620f0"},"vehicle_type_id":"4","last_reported":1752217963,"current_range_meters":16400,"station_id":"","pricing_plan_id":"cebpf4jnsgd1na2vs0mg"},{"bike_id":"4cca035e-1c48-4ce6-a762-95e4b4249c57","system_id":"levelo_inurba_marseille","lat":43.30642,"lon":5.40105,"is_reserved":false,"is_disabled":false,"rental_uris":{"android":"levelo://app?vid=4cca035e-1c48-4ce6-a762-95e4b4249c57","ios":"levelo://app?vid=4cca035e-1c48-4ce6-a762-95e4b4249c57"},"vehicle_type_id":"4","last_reported":1752217963,"current_range_meters":16400,"station_id":"ce4bh112rcd13ifvqda0","pricing_plan_id":"cebpf4jnsgd1na2vs0mg"},{"bike_id":"bd69f1e7-b901-41a0-b2c9-aee4bd027443","system_id":"levelo_inurba_marseille","lat":43.211906,"lon":5.350754,"is_reserved":false,"is_disabled":false,"rental_uris":{"android":"levelo://app?vid=bd69f1e7-b901-41a0-b2c9-aee4bd027443","ios":"levelo://app?vid=bd69f1e7-b901-41a0-b2c9-aee4bd027443"},"vehicle_type_id":"4","last_reported":1752217963,"current_range_meters":16400,"station_id":"st_cvj6sg6p6f1abm77japg","pricing_plan_id":"cebpf4jnsgd1na2vs0mg"},{"bike_id":"2974747e-ea3f-40ca-a42c-269a75d6da9b","system_id":"levelo_inurba_marseille","lat":43.2927,"lon":5.36843,"is_reserved":false,"is_disabled":false,"rental_uris":{"android":"levelo://app?vid=2974747e-ea3f-40ca-a42c-269a75d6da9b","ios":"levelo://app?vid=2974747e-ea3f-40ca-a42c-269a75d6da9b"},"vehicle_type_id":"4","last_reported":1752217963,"current_range_meters":16400,"station_id":"ce4bhbp2rcd13ifvqesg","pricing_plan_id":"cebpf4jnsgd1na2vs0mg"},{"bike_id":"8ee7dd87-f939-43f5-ae0f-857b7343dcd7","system_id":"levelo_inurba_marseille","lat":43.28858,"lon":5.35835,"is_reserved":false,"is_disabled":false,"rental_uris":{"android":"levelo://app?vid=8ee7dd87-f939-43f5-ae0f-857b7343dcd7","ios":"levelo://app?vid=8ee7dd87-f939-43f5-ae0f-857b7343dcd7"},"vehicle_type_id":"4","last_reported":1752217963,"current_range_meters":16400,"station_id":"ce4bhb12rcd13ifvqem0","pricing_plan_id":"cebpf4jnsgd1na2vs0mg"},{"bike_id":"03d285ad-fd72-47fb-9975-6f1db5bfd76f","system_id":"levelo_inurba_marseille","lat":43.298653,"lon":5.397337,"is_reserved":false,"is_disabled":true,"rental_uris":{"android":"levelo://app?vid=03d285ad-fd72-47fb-9975-6f1db5bfd76f","ios":"levelo://app?vid=03d285ad-fd72-47fb-9975-6f1db5bfd76f"},"vehicle_type_id":"4","last_reported":1752217963,"current_range_meters":16400,"station_id":"ce4bh0h2rcd13ifvqd50","pricing_plan_id":"cebpf4jnsgd1na2vs0mg"},{"bike_id":"959e9e15-c8fe-4fd7-a388-570e3c4e34bd","system_id":"levelo_inurba_marseille","lat":43.306472,"lon":5.400733,"is_reserved":false,"is_disabled":false,"rental_uris":{"android":"levelo://app?vid=959e9e15-c8fe-4fd7-a388-570e3c4e34bd","ios":"levelo://app?vid=959e9e15-c8fe-4fd7-a388-570e3c4e34bd"},"vehicle_type_id":"4","last_reported":1752217963,"current_range_meters":16400,"station_id":"ce4bh112rcd13ifvqda0","pricing_plan_id":"cebpf4jnsgd1na2vs0mg"},{"bike_id":"4a45e5ca-f29e-489f-b18f-8e2f7daebc90","system_id":"levelo_inurba_marseille","lat":43.24178,"lon":5.39728,"is_reserved":false,"is_disabled":false,"rental_uris":{"android":"levelo://app?vid=4a45e5ca-f29e-489f-b18f-8e2f7daebc90","ios":"levelo://app?vid=4a45e5ca-f29e-489f-b18f-8e2f7daebc90"},"vehicle_type_id":"4","last_reported":1752217963,"current_range_meters":16800,"station_id":"ce4bhn12rcd13ifvqgpg","pricing_plan_id":"cebpf4jnsgd1na2vs0mg"},{"bike_id":"7f941e81-3761-4ae9-a1ad-e3246230c081","system_id":"levelo_inurba_marseille","lat":43.31483,"lon":5.37299,"is_reserved":false,"is_disabled":false,"rental_uris":{"android":"levelo://app?vid=7f941e81-3761-4ae9-a1ad-e3246230c081","ios":"levelo://app?vid=7f941e81-3761-4ae9-a1ad-e3246230c081"},"vehicle_type_id":"4","last_reported":1752217963,"current_range_meters":16800,"station_id":"ce4bgt12rcd13ifvqcd0","pricing_plan_id":"cebpf4jnsgd1na2vs0mg"},{"bike_id":"ecec5a70-47e2-4076-ac88-b63310387724","system_id":"levelo_inurba_marseille","lat":43.21746,"lon":5.34607,"is_reserved":false,"is_disabled":false,"rental_uris":{"android":"levelo://app?vid=ecec5a70-47e2-4076-ac88-b63310387724","ios":"levelo://app?vid=ecec5a70-47e2-4076-ac88-b63310387724"},"vehicle_type_id":"4","last_reported":1752217963,"current_range_meters":16800,"station_id":"st_cvj6r9ubvosntc0bgbag","pricing_plan_id":"cebpf4jnsgd1na2vs0mg"},{"bike_id":"405dbd18-f6e1-4f7d-ab36-07194d21eec1","system_id":"levelo_inurba_marseille","lat":43.29199,"lon":5.358004,"is_reserved":false,"is_disabled":false,"rental_uris":{"android":"levelo://app?vid=405dbd18-f6e1-4f7d-ab36-07194d21eec1","ios":"levelo://app?vid=405dbd18-f6e1-4f7d-ab36-07194d21eec1"},"vehicle_type_id":"4","last_reported":1752217963,"current_range_meters":16800,"station_id":"","pricing_plan_id":"cebpf4jnsgd1na2vs0mg"},{"bike_id":"2f8a5f2d-3e40-49a3-af7d-3f339ed1b4f8","system_id":"levelo_inurba_marseille","lat":43.31715,"lon":5.37733,"is_reserved":false,"is_disabled":false,"rental_uris":{"android":"levelo://app?vid=2f8a5f2d-3e40-49a3-af7d-3f339ed1b4f8","ios":"levelo://app?vid=2f8a5f2d-3e40-49a3-af7d-3f339ed1b4f8"},"vehicle_type_id":"4","last_reported":1752217963,"current_range_meters":16800,"station_id":"ce4bgth2rcd13ifvqch0","pricing_plan_id":"cebpf4jnsgd1na2vs0mg"},{"bike_id":"dafa5a87-b26d-4379-9a6b-1f02133b78a6","system_id":"levelo_inurba_marseille","lat":43.211875,"lon":5.35075,"is_reserved":false,"is_disabled":false,"rental_uris":{"android":"levelo://app?vid=dafa5a87-b26d-4379-9a6b-1f02133b78a6","ios":"levelo://app?vid=dafa5a87-b26d-4379-9a6b-1f02133b78a6"},"vehicle_type_id":"4","last_reported":1752217963,"current_range_meters":16800,"station_id":"st_cvj6sg6p6f1abm77japg","pricing_plan_id":"cebpf4jnsgd1na2vs0mg"},{"bike_id":"aaefc596-a337-4872-81e7-0d4dda8941ad","system_id":"levelo_inurba_marseille","lat":43.30915,"lon":5.36844,"is_reserved":false,"is_disabled":false,"rental_uris":{"android":"levelo://app?vid=aaefc596-a337-4872-81e7-0d4dda8941ad","ios":"levelo://app?vid=aaefc596-a337-4872-81e7-0d4dda8941ad"},"vehicle_type_id":"4","last_reported":1752217963,"current_range_meters":16800,"station_id":"ce4bgn92rcd13ifvqbvg","pricing_plan_id":"cebpf4jnsgd1na2vs0mg"},{"bike_id":"8929c1bf-fd4d-44e4-aa66-b3eb6538c998","system_id":"levelo_inurba_marseille","lat":43.28574,"lon":5.42953,"is_reserved":false,"is_disabled":false,"rental_uris":{"android":"levelo://app?vid=8929c1bf-fd4d-44e4-aa66-b3eb6538c998","ios":"levelo://app?vid=8929c1bf-fd4d-44e4-aa66-b3eb6538c998"},"vehicle_type_id":"4","last_reported":1752217963,"current_range_meters":17200,"station_id":"","pricing_plan_id":"cebpf4jnsgd1na2vs0mg"},{"bike_id":"544fd96a-212d-4bf4-ac8c-98996c88d0e7","system_id":"levelo_inurba_marseille","lat":43.254503,"lon":5.376664,"is_reserved":false,"is_disabled":false,"rental_uris":{"android":"levelo://app?vid=544fd96a-212d-4bf4-ac8c-98996c88d0e7","ios":"levelo://app?vid=544fd96a-212d-4bf4-ac8c-98996c88d0e7"},"vehicle_type_id":"4","last_reported":1752217963,"current_range_meters":17200,"station_id":"ce4bhh12rcd13ifvqff0","pricing_plan_id":"cebpf4jnsgd1na2vs0mg"},{"bike_id":"388da5fd-54e1-4106-9f06-3e9f9ee2fc42","system_id":"levelo_inurba_marseille","lat":43.31361,"lon":5.36712,"is_reserved":false,"is_disabled":false,"rental_uris":{"android":"levelo://app?vid=388da5fd-54e1-4106-9f06-3e9f9ee2fc42","ios":"levelo://app?vid=388da5fd-54e1-4106-9f06-3e9f9ee2fc42"},"vehicle_type_id":"4","last_reported":1752217963,"current_range_meters":17200,"station_id":"ce4bgr92rcd13ifvqc6g","pricing_plan_id":"cebpf4jnsgd1na2vs0mg"},{"bike_id":"f84d414b-b83e-4804-9933-e2e4067ccad4","system_id":"levelo_inurba_marseille","lat":43.31701,"lon":5.40474,"is_reserved":false,"is_disabled":false,"rental_uris":{"android":"levelo://app?vid=f84d414b-b83e-4804-9933-e2e4067ccad4","ios":"levelo://app?vid=f84d414b-b83e-4804-9933-e2e4067ccad4"},"vehicle_type_id":"4","last_reported":1752217963,"current_range_meters":17200,"station_id":"ce4bh012rcd13ifvqd00","pricing_plan_id":"cebpf4jnsgd1na2vs0mg"},{"bike_id":"e9a96a1c-fa0a-4839-9366-a4dff59b658f","system_id":"levelo_inurba_marseille","lat":43.2315,"lon":5.43713,"is_reserved":false,"is_disabled":false,"rental_uris":{"android":"levelo://app?vid=e9a96a1c-fa0a-4839-9366-a4dff59b658f","ios":"levelo://app?vid=e9a96a1c-fa0a-4839-9366-a4dff59b658f"},"vehicle_type_id":"4","last_reported":1752217963,"current_range_meters":17200,"station_id":"ce4bhmp2rcd13ifvqgog","pricing_plan_id":"cebpf4jnsgd1na2vs0mg"},{"bike_id":"af1cde33-5506-4304-9bde-62aa1392a4b6","system_id":"levelo_inurba_marseille","lat":43.32365,"lon":5.3888,"is_reserved":false,"is_disabled":false,"rental_uris":{"android":"levelo://app?vid=af1cde33-5506-4304-9bde-62aa1392a4b6","ios":"levelo://app?vid=af1cde33-5506-4304-9bde-62aa1392a4b6"},"vehicle_type_id":"4","last_reported":1752217963,"current_range_meters":17200,"station_id":"ce4bhqp2rcd13ifvqhog","pricing_plan_id":"cebpf4jnsgd1na2vs0mg"},{"bike_id":"36cbf188-215a-4461-9776-81452bd4ad24","system_id":"levelo_inurba_marseille","lat":43.2955,"lon":5.42294,"is_reserved":false,"is_disabled":false,"rental_uris":{"android":"levelo://app?vid=36cbf188-215a-4461-9776-81452bd4ad24","ios":"levelo://app?vid=36cbf188-215a-4461-9776-81452bd4ad24"},"vehicle_type_id":"4","last_reported":1752217963,"current_range_meters":17200,"station_id":"ce4bhph2rcd13ifvqhdg","pricing_plan_id":"cebpf4jnsgd1na2vs0mg"},{"bike_id":"7b5cd6ce-df57-4328-854d-cb2d1407ab18","system_id":"levelo_inurba_marseille","lat":43.330704,"lon":5.390283,"is_reserved":false,"is_disabled":false,"rental_uris":{"android":"levelo://app?vid=7b5cd6ce-df57-4328-854d-cb2d1407ab18","ios":"levelo://app?vid=7b5cd6ce-df57-4328-854d-cb2d1407ab18"},"vehicle_type_id":"4","last_reported":1752217963,"current_range_meters":17200,"station_id":"","pricing_plan_id":"cebpf4jnsgd1na2vs0mg"},{"bike_id":"f87da4a0-0285-4527-bfeb-b47ac7e63f89","system_id":"levelo_inurba_marseille","lat":43.30906,"lon":5.36849,"is_reserved":false,"is_disabled":false,"rental_uris":{"android":"levelo://app?vid=f87da4a0-0285-4527-bfeb-b47ac7e63f89","ios":"levelo://app?vid=f87da4a0-0285-4527-bfeb-b47ac7e63f89"},"vehicle_type_id":"4","last_reported":1752217963,"current_range_meters":17200,"station_id":"ce4bgn92rcd13ifvqbvg","pricing_plan_id":"cebpf4jnsgd1na2vs0mg"},{"bike_id":"3b7bf651-6938-43f8-a187-93c03b2fd4c1","system_id":"levelo_inurba_marseille","lat":43.25915,"lon":5.40913,"is_reserved":false,"is_disabled":false,"rental_uris":{"android":"levelo://app?vid=3b7bf651-6938-43f8-a187-93c03b2fd4c1","ios":"levelo://app?vid=3b7bf651-6938-43f8-a187-93c03b2fd4c1"},"vehicle_type_id":"4","last_reported":1752217963,"current_range_meters":17600,"station_id":"ce4bhm92rcd13ifvqglg","pricing_plan_id":"cebpf4jnsgd1na2vs0mg"},{"bike_id":"e9fd0cf8-573b-4177-88a6-f1faf33e8aca","system_id":"levelo_inurba_marseille","lat":43.290005,"lon":5.356029,"is_reserved":false,"is_disabled":true,"rental_uris":{"android":"levelo://app?vid=e9fd0cf8-573b-4177-88a6-f1faf33e8aca","ios":"levelo://app?vid=e9fd0cf8-573b-4177-88a6-f1faf33e8aca"},"vehicle_type_id":"4","last_reported":1752217963,"current_range_meters":17600,"station_id":"ce4bhb92rcd13ifvqen0","pricing_plan_id":"cebpf4jnsgd1na2vs0mg"},{"bike_id":"27eb85dd-0f39-499f-a8bc-e12131484b1f","system_id":"levelo_inurba_marseille","lat":43.30633,"lon":5.40097,"is_reserved":false,"is_disabled":false,"rental_uris":{"android":"levelo://app?vid=27eb85dd-0f39-499f-a8bc-e12131484b1f","ios":"levelo://app?vid=27eb85dd-0f39-499f-a8bc-e12131484b1f"},"vehicle_type_id":"4","last_reported":1752217963,"current_range_meters":17200,"station_id":"ce4bh112rcd13ifvqda0","pricing_plan_id":"cebpf4jnsgd1na2vs0mg"},{"bike_id":"43b90c82-97e0-4fa7-8b67-2448f07d529e","system_id":"levelo_inurba_marseille","lat":43.2118,"lon":5.35075,"is_reserved":false,"is_disabled":false,"rental_uris":{"android":"levelo://app?vid=43b90c82-97e0-4fa7-8b67-2448f07d529e","ios":"levelo://app?vid=43b90c82-97e0-4fa7-8b67-2448f07d529e"},"vehicle_type_id":"4","last_reported":1752217963,"current_range_meters":17600,"station_id":"","pricing_plan_id":"cebpf4jnsgd1na2vs0mg"},{"bike_id":"90bc1451-ed8f-4f1a-807c-2488b3557cb8","system_id":"levelo_inurba_marseille","lat":43.30642,"lon":5.40083,"is_reserved":false,"is_disabled":false,"rental_uris":{"android":"levelo://app?vid=90bc1451-ed8f-4f1a-807c-2488b3557cb8","ios":"levelo://app?vid=90bc1451-ed8f-4f1a-807c-2488b3557cb8"},"vehicle_type_id":"4","last_reported":1752217963,"current_range_meters":17600,"station_id":"ce4bh112rcd13ifvqda0","pricing_plan_id":"cebpf4jnsgd1na2vs0mg"},{"bike_id":"2a16ae50-7dbe-4fc6-bba2-cf897e5fa99d","system_id":"levelo_inurba_marseille","lat":43.29035,"lon":5.3814,"is_reserved":false,"is_disabled":true,"rental_uris":{"android":"levelo://app?vid=2a16ae50-7dbe-4fc6-bba2-cf897e5fa99d","ios":"levelo://app?vid=2a16ae50-7dbe-4fc6-bba2-cf897e5fa99d"},"vehicle_type_id":"4","last_reported":1752217963,"current_range_meters":17600,"station_id":"ce4bh4p2rcd13ifvqe1g","pricing_plan_id":"cebpf4jnsgd1na2vs0mg"},{"bike_id":"37b84a38-055a-4a6e-a56a-8ff3d0c1b2ec","system_id":"levelo_inurba_marseille","lat":43.21196,"lon":5.35067,"is_reserved":false,"is_disabled":false,"rental_uris":{"android":"levelo://app?vid=37b84a38-055a-4a6e-a56a-8ff3d0c1b2ec","ios":"levelo://app?vid=37b84a38-055a-4a6e-a56a-8ff3d0c1b2ec"},"vehicle_type_id":"4","last_reported":1752217963,"current_range_meters":17600,"station_id":"st_cvj6sg6p6f1abm77japg","pricing_plan_id":"cebpf4jnsgd1na2vs0mg"},{"bike_id":"2f527fc3-4056-48dd-944b-75e90662fbaa","system_id":"levelo_inurba_marseille","lat":43.31226,"lon":5.36853,"is_reserved":false,"is_disabled":false,"rental_uris":{"android":"levelo://app?vid=2f527fc3-4056-48dd-944b-75e90662fbaa","ios":"levelo://app?vid=2f527fc3-4056-48dd-944b-75e90662fbaa"},"vehicle_type_id":"4","last_reported":1752217963,"current_range_meters":17600,"station_id":"ce4bgl92rcd13ifvqbq0","pricing_plan_id":"cebpf4jnsgd1na2vs0mg"},{"bike_id":"aa986104-aa69-4322-b801-68409e9f022b","system_id":"levelo_inurba_marseille","lat":43.30898,"lon":5.37213,"is_reserved":false,"is_disabled":false,"rental_uris":{"android":"levelo://app?vid=aa986104-aa69-4322-b801-68409e9f022b","ios":"levelo://app?vid=aa986104-aa69-4322-b801-68409e9f022b"},"vehicle_type_id":"4","last_reported":1752217963,"current_range_meters":17600,"station_id":"ce4bguh2rcd13ifvqckg","pricing_plan_id":"cebpf4jnsgd1na2vs0mg"},{"bike_id":"c8b423c9-7d56-4df7-bdcc-1b935bdb1a15","system_id":"levelo_inurba_marseille","lat":43.29427,"lon":5.38606,"is_reserved":false,"is_disabled":true,"rental_uris":{"android":"levelo://app?vid=c8b423c9-7d56-4df7-bdcc-1b935bdb1a15","ios":"levelo://app?vid=c8b423c9-7d56-4df7-bdcc-1b935bdb1a15"},"vehicle_type_id":"4","last_reported":1752217963,"current_range_meters":18000,"station_id":"ce4bh2h2rcd13ifvqdh0","pricing_plan_id":"cebpf4jnsgd1na2vs0mg"},{"bike_id":"6c3a7318-d3e4-476f-a85c-a2e2690716a4","system_id":"levelo_inurba_marseille","lat":43.30144,"lon":5.38797,"is_reserved":false,"is_disabled":false,"rental_uris":{"android":"levelo://app?vid=6c3a7318-d3e4-476f-a85c-a2e2690716a4","ios":"levelo://app?vid=6c3a7318-d3e4-476f-a85c-a2e2690716a4"},"vehicle_type_id":"4","last_reported":1752217963,"current_range_meters":18000,"station_id":"ce4bghh2rcd13ifvqb60","pricing_plan_id":"cebpf4jnsgd1na2vs0mg"},{"bike_id":"8fccf46e-4269-459a-bd9a-cdd93f6b32bc","system_id":"levelo_inurba_marseille","lat":43.30359,"lon":5.41862,"is_reserved":false,"is_disabled":true,"rental_uris":{"android":"levelo://app?vid=8fccf46e-4269-459a-bd9a-cdd93f6b32bc","ios":"levelo://app?vid=8fccf46e-4269-459a-bd9a-cdd93f6b32bc"},"vehicle_type_id":"4","last_reported":1752217963,"current_range_meters":18000,"station_id":"ce4bhop2rcd13ifvqh7g","pricing_plan_id":"cebpf4jnsgd1na2vs0mg"},{"bike_id":"2d770725-67ca-4330-bd6e-642a0ad20097","system_id":"levelo_inurba_marseille","lat":43.317,"lon":5.40451,"is_reserved":false,"is_disabled":false,"rental_uris":{"android":"levelo://app?vid=2d770725-67ca-4330-bd6e-642a0ad20097","ios":"levelo://app?vid=2d770725-67ca-4330-bd6e-642a0ad20097"},"vehicle_type_id":"4","last_reported":1752217963,"current_range_meters":18000,"station_id":"ce4bh012rcd13ifvqd00","pricing_plan_id":"cebpf4jnsgd1na2vs0mg"},{"bike_id":"2b267503-c82c-4788-a302-ba1d9923bfd2","system_id":"levelo_inurba_marseille","lat":43.320398,"lon":5.415381,"is_reserved":false,"is_disabled":false,"rental_uris":{"android":"levelo://app?vid=2b267503-c82c-4788-a302-ba1d9923bfd2","ios":"levelo://app?vid=2b267503-c82c-4788-a302-ba1d9923bfd2"},"vehicle_type_id":"4","last_reported":1752217963,"current_range_meters":18000,"station_id":"ce4bhq92rcd13ifvqhkg","pricing_plan_id":"cebpf4jnsgd1na2vs0mg"},{"bike_id":"cf87d91a-869d-4f08-9c8f-54bb51e0b3f1","system_id":"levelo_inurba_marseille","lat":43.29235,"lon":5.36495,"is_reserved":false,"is_disabled":false,"rental_uris":{"android":"levelo://app?vid=cf87d91a-869d-4f08-9c8f-54bb51e0b3f1","ios":"levelo://app?vid=cf87d91a-869d-4f08-9c8f-54bb51e0b3f1"},"vehicle_type_id":"4","last_reported":1752217963,"current_range_meters":18000,"station_id":"ce4bhe12rcd13ifvqf30","pricing_plan_id":"cebpf4jnsgd1na2vs0mg"},{"bike_id":"0071df5e-976a-4f61-b1cf-510f06ddb0ca","system_id":"levelo_inurba_marseille","lat":43.26552,"lon":5.37285,"is_reserved":false,"is_disabled":false,"rental_uris":{"android":"levelo://app?vid=0071df5e-976a-4f61-b1cf-510f06ddb0ca","ios":"levelo://app?vid=0071df5e-976a-4f61-b1cf-510f06ddb0ca"},"vehicle_type_id":"4","last_reported":1752217963,"current_range_meters":18000,"station_id":"ce4bhg12rcd13ifvqf70","pricing_plan_id":"cebpf4jnsgd1na2vs0mg"},{"bike_id":"36292df2-5c29-4c1a-85e2-1325f84a5b2e","system_id":"levelo_inurba_marseille","lat":43.297763,"lon":5.37096,"is_reserved":false,"is_disabled":false,"rental_uris":{"android":"levelo://app?vid=36292df2-5c29-4c1a-85e2-1325f84a5b2e","ios":"levelo://app?vid=36292df2-5c29-4c1a-85e2-1325f84a5b2e"},"vehicle_type_id":"4","last_reported":1752217963,"current_range_meters":18000,"station_id":"ce4bgop2rcd13ifvqc1g","pricing_plan_id":"cebpf4jnsgd1na2vs0mg"},{"bike_id":"5f9facdb-d1e1-40e1-8ceb-766e4b9ac193","system_id":"levelo_inurba_marseille","lat":43.21754,"lon":5.345992,"is_reserved":false,"is_disabled":false,"rental_uris":{"android":"levelo://app?vid=5f9facdb-d1e1-40e1-8ceb-766e4b9ac193","ios":"levelo://app?vid=5f9facdb-d1e1-40e1-8ceb-766e4b9ac193"},"vehicle_type_id":"4","last_reported":1752217963,"current_range_meters":18000,"station_id":"","pricing_plan_id":"cebpf4jnsgd1na2vs0mg"},{"bike_id":"ad023729-3d33-44a6-99ca-a047715b7f88","system_id":"levelo_inurba_marseille","lat":43.211911,"lon":5.350769,"is_reserved":false,"is_disabled":false,"rental_uris":{"android":"levelo://app?vid=ad023729-3d33-44a6-99ca-a047715b7f88","ios":"levelo://app?vid=ad023729-3d33-44a6-99ca-a047715b7f88"},"vehicle_type_id":"4","last_reported":1752217963,"current_range_meters":18000,"station_id":"st_cvj6sg6p6f1abm77japg","pricing_plan_id":"cebpf4jnsgd1na2vs0mg"},{"bike_id":"eb6a2290-40e2-4780-bdeb-a149c699215d","system_id":"levelo_inurba_marseille","lat":43.27949,"lon":5.41051,"is_reserved":false,"is_disabled":false,"rental_uris":{"android":"levelo://app?vid=eb6a2290-40e2-4780-bdeb-a149c699215d","ios":"levelo://app?vid=eb6a2290-40e2-4780-bdeb-a149c699215d"},"vehicle_type_id":"4","last_reported":1752217963,"current_range_meters":18000,"station_id":"ce4bhnp2rcd13ifvqh0g","pricing_plan_id":"cebpf4jnsgd1na2vs0mg"},{"bike_id":"0c83541e-4f70-4285-9739-3516faf20acb","system_id":"levelo_inurba_marseille","lat":43.31346,"lon":5.36726,"is_reserved":false,"is_disabled":false,"rental_uris":{"android":"levelo://app?vid=0c83541e-4f70-4285-9739-3516faf20acb","ios":"levelo://app?vid=0c83541e-4f70-4285-9739-3516faf20acb"},"vehicle_type_id":"4","last_reported":1752217963,"current_range_meters":18000,"station_id":"ce4bgr92rcd13ifvqc6g","pricing_plan_id":"cebpf4jnsgd1na2vs0mg"},{"bike_id":"dbba3321-20c7-4989-a7b5-ea9ab2c4b3e8","system_id":"levelo_inurba_marseille","lat":43.261935,"lon":5.374477,"is_reserved":false,"is_disabled":false,"rental_uris":{"android":"levelo://app?vid=dbba3321-20c7-4989-a7b5-ea9ab2c4b3e8","ios":"levelo://app?vid=dbba3321-20c7-4989-a7b5-ea9ab2c4b3e8"},"vehicle_type_id":"4","last_reported":1752217963,"current_range_meters":18000,"station_id":"ce4bhgp2rcd13ifvqfc0","pricing_plan_id":"cebpf4jnsgd1na2vs0mg"},{"bike_id":"aeee596e-8591-4264-99d2-225a4dd68aea","system_id":"levelo_inurba_marseille","lat":43.3247,"lon":5.36591,"is_reserved":false,"is_disabled":false,"rental_uris":{"android":"levelo://app?vid=aeee596e-8591-4264-99d2-225a4dd68aea","ios":"levelo://app?vid=aeee596e-8591-4264-99d2-225a4dd68aea"},"vehicle_type_id":"4","last_reported":1752217963,"current_range_meters":18800,"station_id":"ce4bhs12rcd13ifvqhvg","pricing_plan_id":"cebpf4jnsgd1na2vs0mg"},{"bike_id":"0aec8017-dd1c-4bcc-ab92-4eae79ccaa1a","system_id":"levelo_inurba_marseille","lat":43.29622,"lon":5.37169,"is_reserved":false,"is_disabled":false,"rental_uris":{"android":"levelo://app?vid=0aec8017-dd1c-4bcc-ab92-4eae79ccaa1a","ios":"levelo://app?vid=0aec8017-dd1c-4bcc-ab92-4eae79ccaa1a"},"vehicle_type_id":"4","last_reported":1752217963,"current_range_meters":18800,"station_id":"ce4bgnh2rcd13ifvqc0g","pricing_plan_id":"cebpf4jnsgd1na2vs0mg"},{"bike_id":"61198919-e72c-4fce-bc96-126627987dc0","system_id":"levelo_inurba_marseille","lat":43.295778,"lon":5.378873,"is_reserved":false,"is_disabled":false,"rental_uris":{"android":"levelo://app?vid=61198919-e72c-4fce-bc96-126627987dc0","ios":"levelo://app?vid=61198919-e72c-4fce-bc96-126627987dc0"},"vehicle_type_id":"4","last_reported":1752217963,"current_range_meters":18800,"station_id":"","pricing_plan_id":"cebpf4jnsgd1na2vs0mg"},{"bike_id":"6521e789-0000-44ca-a5cb-067f82af0bad","system_id":"levelo_inurba_marseille","lat":43.30538,"lon":5.36551,"is_reserved":false,"is_disabled":false,"rental_uris":{"android":"levelo://app?vid=6521e789-0000-44ca-a5cb-067f82af0bad","ios":"levelo://app?vid=6521e789-0000-44ca-a5cb-067f82af0bad"},"vehicle_type_id":"4","last_reported":1752217963,"current_range_meters":18800,"station_id":"ce4bgs12rcd13ifvqcag","pricing_plan_id":"cebpf4jnsgd1na2vs0mg"},{"bike_id":"452e8211-4f44-45d0-814a-3e9e25b8c44e","system_id":"levelo_inurba_marseille","lat":43.211911,"lon":5.350754,"is_reserved":false,"is_disabled":false,"rental_uris":{"android":"levelo://app?vid=452e8211-4f44-45d0-814a-3e9e25b8c44e","ios":"levelo://app?vid=452e8211-4f44-45d0-814a-3e9e25b8c44e"},"vehicle_type_id":"4","last_reported":1752217963,"current_range_meters":18800,"station_id":"st_cvj6sg6p6f1abm77japg","pricing_plan_id":"cebpf4jnsgd1na2vs0mg"},{"bike_id":"e86ba8c9-208d-482c-a826-4c100938472a","system_id":"levelo_inurba_marseille","lat":43.211961,"lon":5.350612,"is_reserved":false,"is_disabled":false,"rental_uris":{"android":"levelo://app?vid=e86ba8c9-208d-482c-a826-4c100938472a","ios":"levelo://app?vid=e86ba8c9-208d-482c-a826-4c100938472a"},"vehicle_type_id":"4","last_reported":1752217963,"current_range_meters":18800,"station_id":"st_cvj6sg6p6f1abm77japg","pricing_plan_id":"cebpf4jnsgd1na2vs0mg"},{"bike_id":"1780c8dc-4362-48ef-92b2-a427e38a65e4","system_id":"levelo_inurba_marseille","lat":43.27078,"lon":5.42253,"is_reserved":false,"is_disabled":false,"rental_uris":{"android":"levelo://app?vid=1780c8dc-4362-48ef-92b2-a427e38a65e4","ios":"levelo://app?vid=1780c8dc-4362-48ef-92b2-a427e38a65e4"},"vehicle_type_id":"4","last_reported":1752217963,"current_range_meters":18800,"station_id":"ce4bhk92rcd13ifvqgb0","pricing_plan_id":"cebpf4jnsgd1na2vs0mg"},{"bike_id":"300a1896-3e0c-42cb-be1d-2ae38372d433","system_id":"levelo_inurba_marseille","lat":43.29921,"lon":5.37483,"is_reserved":false,"is_disabled":false,"rental_uris":{"android":"levelo://app?vid=300a1896-3e0c-42cb-be1d-2ae38372d433","ios":"levelo://app?vid=300a1896-3e0c-42cb-be1d-2ae38372d433"},"vehicle_type_id":"4","last_reported":1752217963,"current_range_meters":19200,"station_id":"ce4bgjh2rcd13ifvqbg0","pricing_plan_id":"cebpf4jnsgd1na2vs0mg"},{"bike_id":"73fc64ba-06ad-4b61-a38f-6d393ed934b2","system_id":"levelo_inurba_marseille","lat":43.29286,"lon":5.4012,"is_reserved":false,"is_disabled":false,"rental_uris":{"android":"levelo://app?vid=73fc64ba-06ad-4b61-a38f-6d393ed934b2","ios":"levelo://app?vid=73fc64ba-06ad-4b61-a38f-6d393ed934b2"},"vehicle_type_id":"4","last_reported":1752217963,"current_range_meters":19200,"station_id":"ce4bh312rcd13ifvqdk0","pricing_plan_id":"cebpf4jnsgd1na2vs0mg"},{"bike_id":"eefad29d-7045-47a6-b736-49381205a29f","system_id":"levelo_inurba_marseille","lat":43.24386,"lon":5.37062,"is_reserved":false,"is_disabled":false,"rental_uris":{"android":"levelo://app?vid=eefad29d-7045-47a6-b736-49381205a29f","ios":"levelo://app?vid=eefad29d-7045-47a6-b736-49381205a29f"},"vehicle_type_id":"4","last_reported":1752217963,"current_range_meters":19200,"station_id":"ce4bhhh2rcd13ifvqfk0","pricing_plan_id":"cebpf4jnsgd1na2vs0mg"},{"bike_id":"af88938c-394c-4617-9e5b-1831f8aecb42","system_id":"levelo_inurba_marseille","lat":43.29075,"lon":5.37158,"is_reserved":false,"is_disabled":false,"rental_uris":{"android":"levelo://app?vid=af88938c-394c-4617-9e5b-1831f8aecb42","ios":"levelo://app?vid=af88938c-394c-4617-9e5b-1831f8aecb42"},"vehicle_type_id":"4","last_reported":1752217963,"current_range_meters":19200,"station_id":"ce4bh5p2rcd13ifvqe4g","pricing_plan_id":"cebpf4jnsgd1na2vs0mg"},{"bike_id":"1ff7f599-c139-4361-a4cd-833942dcaa8e","system_id":"levelo_inurba_marseille","lat":43.30459,"lon":5.37904,"is_reserved":false,"is_disabled":false,"rental_uris":{"android":"levelo://app?vid=1ff7f599-c139-4361-a4cd-833942dcaa8e","ios":"levelo://app?vid=1ff7f599-c139-4361-a4cd-833942dcaa8e"},"vehicle_type_id":"4","last_reported":1752217963,"current_range_meters":19200,"station_id":"ce4bgup2rcd13ifvqcn0","pricing_plan_id":"cebpf4jnsgd1na2vs0mg"},{"bike_id":"9d0d85e3-ee19-452d-93c5-fbfc98a09acf","system_id":"levelo_inurba_marseille","lat":43.295051,"lon":5.438568,"is_reserved":false,"is_disabled":false,"rental_uris":{"android":"levelo://app?vid=9d0d85e3-ee19-452d-93c5-fbfc98a09acf","ios":"levelo://app?vid=9d0d85e3-ee19-452d-93c5-fbfc98a09acf"},"vehicle_type_id":"4","last_reported":1752217963,"current_range_meters":19200,"station_id":"","pricing_plan_id":"cebpf4jnsgd1na2vs0mg"},{"bike_id":"a81ede20-43a9-47cd-942d-8fb15c54f5f7","system_id":"levelo_inurba_marseille","lat":43.30065,"lon":5.45155,"is_reserved":false,"is_disabled":false,"rental_uris":{"android":"levelo://app?vid=a81ede20-43a9-47cd-942d-8fb15c54f5f7","ios":"levelo://app?vid=a81ede20-43a9-47cd-942d-8fb15c54f5f7"},"vehicle_type_id":"4","last_reported":1752217963,"current_range_meters":19600,"station_id":"","pricing_plan_id":"cebpf4jnsgd1na2vs0mg"},{"bike_id":"a2063ca4-0942-4330-828c-f06e39fa7fe8","system_id":"levelo_inurba_marseille","lat":43.25937,"lon":5.40902,"is_reserved":false,"is_disabled":false,"rental_uris":{"android":"levelo://app?vid=a2063ca4-0942-4330-828c-f06e39fa7fe8","ios":"levelo://app?vid=a2063ca4-0942-4330-828c-f06e39fa7fe8"},"vehicle_type_id":"4","last_reported":1752217963,"current_range_meters":19600,"station_id":"ce4bhm92rcd13ifvqglg","pricing_plan_id":"cebpf4jnsgd1na2vs0mg"},{"bike_id":"a57ea438-d14c-4a30-9aba-c87c42dd735d","system_id":"levelo_inurba_marseille","lat":43.31252,"lon":5.36831,"is_reserved":false,"is_disabled":false,"rental_uris":{"android":"levelo://app?vid=a57ea438-d14c-4a30-9aba-c87c42dd735d","ios":"levelo://app?vid=a57ea438-d14c-4a30-9aba-c87c42dd735d"},"vehicle_type_id":"4","last_reported":1752217963,"current_range_meters":19600,"station_id":"ce4bgl92rcd13ifvqbq0","pricing_plan_id":"cebpf4jnsgd1na2vs0mg"},{"bike_id":"85512058-0851-4083-ad75-1b0f1fd73b1f","system_id":"levelo_inurba_marseille","lat":43.30952,"lon":5.39035,"is_reserved":false,"is_disabled":false,"rental_uris":{"android":"levelo://app?vid=85512058-0851-4083-ad75-1b0f1fd73b1f","ios":"levelo://app?vid=85512058-0851-4083-ad75-1b0f1fd73b1f"},"vehicle_type_id":"4","last_reported":1752217963,"current_range_meters":19600,"station_id":"ce4bgup2rcd13ifvqco0","pricing_plan_id":"cebpf4jnsgd1na2vs0mg"},{"bike_id":"abf1a8c0-6ede-4042-bd8a-a3b1d9cb4d9d","system_id":"levelo_inurba_marseille","lat":43.284715,"lon":5.384153,"is_reserved":false,"is_disabled":false,"rental_uris":{"android":"levelo://app?vid=abf1a8c0-6ede-4042-bd8a-a3b1d9cb4d9d","ios":"levelo://app?vid=abf1a8c0-6ede-4042-bd8a-a3b1d9cb4d9d"},"vehicle_type_id":"4","last_reported":1752217963,"current_range_meters":19600,"station_id":"ce4bh512rcd13ifvqe3g","pricing_plan_id":"cebpf4jnsgd1na2vs0mg"},{"bike_id":"68e03bbc-6cfc-4845-b778-7d1296186f6b","system_id":"levelo_inurba_marseille","lat":43.33607,"lon":5.41033,"is_reserved":false,"is_disabled":false,"rental_uris":{"android":"levelo://app?vid=68e03bbc-6cfc-4845-b778-7d1296186f6b","ios":"levelo://app?vid=68e03bbc-6cfc-4845-b778-7d1296186f6b"},"vehicle_type_id":"4","last_reported":1752217963,"current_range_meters":19200,"station_id":"ce4bhqh2rcd13ifvqhmg","pricing_plan_id":"cebpf4jnsgd1na2vs0mg"},{"bike_id":"790c377f-77f7-4730-a831-b0f708a46319","system_id":"levelo_inurba_marseille","lat":43.33606,"lon":5.410377,"is_reserved":false,"is_disabled":false,"rental_uris":{"android":"levelo://app?vid=790c377f-77f7-4730-a831-b0f708a46319","ios":"levelo://app?vid=790c377f-77f7-4730-a831-b0f708a46319"},"vehicle_type_id":"4","last_reported":1752217963,"current_range_meters":19600,"station_id":"ce4bhqh2rcd13ifvqhmg","pricing_plan_id":"cebpf4jnsgd1na2vs0mg"},{"bike_id":"d2e8f5b4-fa3f-42f7-bbe6-f1de007db237","system_id":"levelo_inurba_marseille","lat":43.25922,"lon":5.40913,"is_reserved":false,"is_disabled":false,"rental_uris":{"android":"levelo://app?vid=d2e8f5b4-fa3f-42f7-bbe6-f1de007db237","ios":"levelo://app?vid=d2e8f5b4-fa3f-42f7-bbe6-f1de007db237"},"vehicle_type_id":"4","last_reported":1752217963,"current_range_meters":19600,"station_id":"ce4bhm92rcd13ifvqglg","pricing_plan_id":"cebpf4jnsgd1na2vs0mg"},{"bike_id":"f2aa09c6-a146-467e-a892-7c5d712fbb07","system_id":"levelo_inurba_marseille","lat":43.25719,"lon":5.41115,"is_reserved":false,"is_disabled":false,"rental_uris":{"android":"levelo://app?vid=f2aa09c6-a146-467e-a892-7c5d712fbb07","ios":"levelo://app?vid=f2aa09c6-a146-467e-a892-7c5d712fbb07"},"vehicle_type_id":"4","last_reported":1752217963,"current_range_meters":20000,"station_id":"ce4bhkp2rcd13ifvqgd0","pricing_plan_id":"cebpf4jnsgd1na2vs0mg"},{"bike_id":"526dc334-b67f-420b-913d-085337838b95","system_id":"levelo_inurba_marseille","lat":43.33723,"lon":5.39195,"is_reserved":false,"is_disabled":false,"rental_uris":{"android":"levelo://app?vid=526dc334-b67f-420b-913d-085337838b95","ios":"levelo://app?vid=526dc334-b67f-420b-913d-085337838b95"},"vehicle_type_id":"4","last_reported":1752217963,"current_range_meters":20000,"station_id":"ce4bhr92rcd13ifvqhsg","pricing_plan_id":"cebpf4jnsgd1na2vs0mg"},{"bike_id":"548305b1-fa79-46fd-a796-f7d488f08666","system_id":"levelo_inurba_marseille","lat":43.260172,"lon":5.417474,"is_reserved":false,"is_disabled":false,"rental_uris":{"android":"levelo://app?vid=548305b1-fa79-46fd-a796-f7d488f08666","ios":"levelo://app?vid=548305b1-fa79-46fd-a796-f7d488f08666"},"vehicle_type_id":"4","last_reported":1752217963,"current_range_meters":20000,"station_id":"","pricing_plan_id":"cebpf4jnsgd1na2vs0mg"},{"bike_id":"8279d6a0-6a79-4415-a61e-d96b0b5da5bc","system_id":"levelo_inurba_marseille","lat":43.267017,"lon":5.382966,"is_reserved":false,"is_disabled":false,"rental_uris":{"android":"levelo://app?vid=8279d6a0-6a79-4415-a61e-d96b0b5da5bc","ios":"levelo://app?vid=8279d6a0-6a79-4415-a61e-d96b0b5da5bc"},"vehicle_type_id":"4","last_reported":1752217963,"current_range_meters":20000,"station_id":"ce4bhg92rcd13ifvqf90","pricing_plan_id":"cebpf4jnsgd1na2vs0mg"},{"bike_id":"fcbb4eb6-520b-430e-92f0-ea9ed436eb96","system_id":"levelo_inurba_marseille","lat":43.30879,"lon":5.37198,"is_reserved":false,"is_disabled":false,"rental_uris":{"android":"levelo://app?vid=fcbb4eb6-520b-430e-92f0-ea9ed436eb96","ios":"levelo://app?vid=fcbb4eb6-520b-430e-92f0-ea9ed436eb96"},"vehicle_type_id":"4","last_reported":1752217963,"current_range_meters":20000,"station_id":"ce4bguh2rcd13ifvqckg","pricing_plan_id":"cebpf4jnsgd1na2vs0mg"},{"bike_id":"c3f1dff1-d91e-445c-870d-1340ef47f564","system_id":"levelo_inurba_marseille","lat":43.30533,"lon":5.36523,"is_reserved":false,"is_disabled":false,"rental_uris":{"android":"levelo://app?vid=c3f1dff1-d91e-445c-870d-1340ef47f564","ios":"levelo://app?vid=c3f1dff1-d91e-445c-870d-1340ef47f564"},"vehicle_type_id":"4","last_reported":1752217963,"current_range_meters":20000,"station_id":"ce4bgs12rcd13ifvqcag","pricing_plan_id":"cebpf4jnsgd1na2vs0mg"},{"bike_id":"08d4bac5-4f26-4856-816c-79c34ce7d14b","system_id":"levelo_inurba_marseille","lat":43.29763,"lon":5.37089,"is_reserved":false,"is_disabled":false,"rental_uris":{"android":"levelo://app?vid=08d4bac5-4f26-4856-816c-79c34ce7d14b","ios":"levelo://app?vid=08d4bac5-4f26-4856-816c-79c34ce7d14b"},"vehicle_type_id":"4","last_reported":1752217963,"current_range_meters":20400,"station_id":"ce4bgop2rcd13ifvqc1g","pricing_plan_id":"cebpf4jnsgd1na2vs0mg"},{"bike_id":"f13872ab-8eaa-44e3-b5c1-b3018fdd74ad","system_id":"levelo_inurba_marseille","lat":43.32475,"lon":5.36562,"is_reserved":false,"is_disabled":false,"rental_uris":{"android":"levelo://app?vid=f13872ab-8eaa-44e3-b5c1-b3018fdd74ad","ios":"levelo://app?vid=f13872ab-8eaa-44e3-b5c1-b3018fdd74ad"},"vehicle_type_id":"4","last_reported":1752217963,"current_range_meters":20400,"station_id":"ce4bhs12rcd13ifvqhvg","pricing_plan_id":"cebpf4jnsgd1na2vs0mg"},{"bike_id":"13b50ee2-3034-4958-b7dc-159c30415fa7","system_id":"levelo_inurba_marseille","lat":43.29835,"lon":5.36274,"is_reserved":false,"is_disabled":false,"rental_uris":{"android":"levelo://app?vid=13b50ee2-3034-4958-b7dc-159c30415fa7","ios":"levelo://app?vid=13b50ee2-3034-4958-b7dc-159c30415fa7"},"vehicle_type_id":"4","last_reported":1752217963,"current_range_meters":20400,"station_id":"ce4bgpp2rcd13ifvqc3g","pricing_plan_id":"cebpf4jnsgd1na2vs0mg"},{"bike_id":"51f85182-cfc4-4d44-a133-f8a74aedc7f1","system_id":"levelo_inurba_marseille","lat":43.25581,"lon":5.38222,"is_reserved":false,"is_disabled":false,"rental_uris":{"android":"levelo://app?vid=51f85182-cfc4-4d44-a133-f8a74aedc7f1","ios":"levelo://app?vid=51f85182-cfc4-4d44-a133-f8a74aedc7f1"},"vehicle_type_id":"4","last_reported":1752217963,"current_range_meters":20000,"station_id":"ce4bhih2rcd13ifvqfs0","pricing_plan_id":"cebpf4jnsgd1na2vs0mg"},{"bike_id":"00bc0b3b-e317-4a17-a011-a3a9a29d816a","system_id":"levelo_inurba_marseille","lat":43.211965,"lon":5.350681,"is_reserved":false,"is_disabled":false,"rental_uris":{"android":"levelo://app?vid=00bc0b3b-e317-4a17-a011-a3a9a29d816a","ios":"levelo://app?vid=00bc0b3b-e317-4a17-a011-a3a9a29d816a"},"vehicle_type_id":"4","last_reported":1752217963,"current_range_meters":20800,"station_id":"st_cvj6sg6p6f1abm77japg","pricing_plan_id":"cebpf4jnsgd1na2vs0mg"},{"bike_id":"36616fb1-f2e8-4951-b4b0-74b208b1f387","system_id":"levelo_inurba_marseille","lat":43.259099,"lon":5.408416,"is_reserved":false,"is_disabled":false,"rental_uris":{"android":"levelo://app?vid=36616fb1-f2e8-4951-b4b0-74b208b1f387","ios":"levelo://app?vid=36616fb1-f2e8-4951-b4b0-74b208b1f387"},"vehicle_type_id":"4","last_reported":1752217963,"current_range_meters":20800,"station_id":"ce4bhm92rcd13ifvqglg","pricing_plan_id":"cebpf4jnsgd1na2vs0mg"},{"bike_id":"d0c2ba9c-6dd8-445b-98ac-5fa250014856","system_id":"levelo_inurba_marseille","lat":43.28612,"lon":5.37067,"is_reserved":false,"is_disabled":false,"rental_uris":{"android":"levelo://app?vid=d0c2ba9c-6dd8-445b-98ac-5fa250014856","ios":"levelo://app?vid=d0c2ba9c-6dd8-445b-98ac-5fa250014856"},"vehicle_type_id":"4","last_reported":1752217963,"current_range_meters":20800,"station_id":"ce4bht12rcd13ifvqi60","pricing_plan_id":"cebpf4jnsgd1na2vs0mg"},{"bike_id":"92d4980f-514c-481c-8923-ed40484a99d1","system_id":"levelo_inurba_marseille","lat":43.25932,"lon":5.40909,"is_reserved":false,"is_disabled":false,"rental_uris":{"android":"levelo://app?vid=92d4980f-514c-481c-8923-ed40484a99d1","ios":"levelo://app?vid=92d4980f-514c-481c-8923-ed40484a99d1"},"vehicle_type_id":"4","last_reported":1752217963,"current_range_meters":20800,"station_id":"ce4bhm92rcd13ifvqglg","pricing_plan_id":"cebpf4jnsgd1na2vs0mg"},{"bike_id":"99a179d0-b27e-4a21-8792-9c3110e658a6","system_id":"levelo_inurba_marseille","lat":43.30914,"lon":5.36844,"is_reserved":false,"is_disabled":false,"rental_uris":{"android":"levelo://app?vid=99a179d0-b27e-4a21-8792-9c3110e658a6","ios":"levelo://app?vid=99a179d0-b27e-4a21-8792-9c3110e658a6"},"vehicle_type_id":"4","last_reported":1752217963,"current_range_meters":20800,"station_id":"ce4bgn92rcd13ifvqbvg","pricing_plan_id":"cebpf4jnsgd1na2vs0mg"},{"bike_id":"54e396f9-9d94-4b8f-95e4-893836693cd7","system_id":"levelo_inurba_marseille","lat":43.27981,"lon":5.41648,"is_reserved":false,"is_disabled":false,"rental_uris":{"android":"levelo://app?vid=54e396f9-9d94-4b8f-95e4-893836693cd7","ios":"levelo://app?vid=54e396f9-9d94-4b8f-95e4-893836693cd7"},"vehicle_type_id":"4","last_reported":1752217963,"current_range_meters":21600,"station_id":"ce4bho12rcd13ifvqh1g","pricing_plan_id":"cebpf4jnsgd1na2vs0mg"},{"bike_id":"6b1f0dae-2da8-499c-bf18-f31fffbc1d6f","system_id":"levelo_inurba_marseille","lat":43.292962,"lon":5.369028,"is_reserved":false,"is_disabled":false,"rental_uris":{"android":"levelo://app?vid=6b1f0dae-2da8-499c-bf18-f31fffbc1d6f","ios":"levelo://app?vid=6b1f0dae-2da8-499c-bf18-f31fffbc1d6f"},"vehicle_type_id":"4","last_reported":1752217963,"current_range_meters":21600,"station_id":"ce4bgl92rcd13ifvqbq0","pricing_plan_id":"cebpf4jnsgd1na2vs0mg"},{"bike_id":"f2aa76a8-0108-4aaa-8504-061f5f4b25e0","system_id":"levelo_inurba_marseille","lat":43.28702,"lon":5.39974,"is_reserved":false,"is_disabled":false,"rental_uris":{"android":"levelo://app?vid=f2aa76a8-0108-4aaa-8504-061f5f4b25e0","ios":"levelo://app?vid=f2aa76a8-0108-4aaa-8504-061f5f4b25e0"},"vehicle_type_id":"4","last_reported":1752217963,"current_range_meters":21600,"station_id":"ce4bho92rcd13ifvqh3g","pricing_plan_id":"cebpf4jnsgd1na2vs0mg"},{"bike_id":"ca37c126-611a-4de8-80ec-675761471f30","system_id":"levelo_inurba_marseille","lat":43.27973,"lon":5.38737,"is_reserved":false,"is_disabled":false,"rental_uris":{"android":"levelo://app?vid=ca37c126-611a-4de8-80ec-675761471f30","ios":"levelo://app?vid=ca37c126-611a-4de8-80ec-675761471f30"},"vehicle_type_id":"4","last_reported":1752217963,"current_range_meters":21600,"station_id":"ce4bhg12rcd13ifvqf80","pricing_plan_id":"cebpf4jnsgd1na2vs0mg"},{"bike_id":"078fab8e-0d4a-4bfc-867e-c4adfc2ac53b","system_id":"levelo_inurba_marseille","lat":43.2721,"lon":5.391574,"is_reserved":false,"is_disabled":true,"rental_uris":{"android":"levelo://app?vid=078fab8e-0d4a-4bfc-867e-c4adfc2ac53b","ios":"levelo://app?vid=078fab8e-0d4a-4bfc-867e-c4adfc2ac53b"},"vehicle_type_id":"4","last_reported":1752217963,"current_range_meters":21600,"station_id":"ce4bhhp2rcd13ifvqfm0","pricing_plan_id":"cebpf4jnsgd1na2vs0mg"},{"bike_id":"13f31871-be5c-4b79-bf42-5feb898aec06","system_id":"levelo_inurba_marseille","lat":43.31366,"lon":5.36736,"is_reserved":false,"is_disabled":false,"rental_uris":{"android":"levelo://app?vid=13f31871-be5c-4b79-bf42-5feb898aec06","ios":"levelo://app?vid=13f31871-be5c-4b79-bf42-5feb898aec06"},"vehicle_type_id":"4","last_reported":1752217963,"current_range_meters":21600,"station_id":"ce4bgr92rcd13ifvqc6g","pricing_plan_id":"cebpf4jnsgd1na2vs0mg"},