{"last_updated":1758985710,"ttl":60,"version":"2.2","data":{"bikes":[{"bike_id":"d9e38e8f-8a68-4972-9e2e-c54bfbf45797","system_id":"levelo_inurba_marseille","lat":43.318942,"lon":5.407323,"is_reserved":false,"is_disabled":false,"rental_uris":{"android":"levelo://app?vid=d9e38e8f-8a68-4972-9e2e-c54bfbf45797","ios":"levelo://app?vid=d9e38e8f-8a68-4972-9e2e-c54bfbf45797"},"vehicle_type_id":"4","last_reported":1758985711,"current_range_meters":2000,"station_id":"ce4bhq12rcd13ifvqhig","pricing_plan_id":"cebpf4jnsgd1na2vs0mg"},{"bike_id":"9a0dc5f9-3be5-4cb6-8359-34212218f4a7","system_id":"levelo_inurba_marseille","lat":43.248096,"lon":5.374622,"is_reserved":false,"is_disabled":false,"rental_uris":{"android":"levelo://app?vid=9a0dc5f9-3be5-4cb6-8359-34212218f4a7","ios":"levelo://app?vid=9a0dc5f9-3be5-4cb6-8359-34212218f4a7"},"vehicle_type_id":"4","last_reported":1758985711,"current_range_meters":2800,"station_id":"","pricing_plan_id":"cebpf4jnsgd1na2vs0mg"},{"bike_id":"1ee58adc-2584-46e8-8ff0-5461fc5e53bd","system_id":"levelo_inurba_marseille","lat":43.303359,"lon":5.404317,"is_reserved":false,"is_disabled":false,"rental_uris":{"android":"levelo://app?vid=1ee58adc-2584-46e8-8ff0-5461fc5e53bd","ios":"levelo://app?vid=1ee58adc-2584-46e8-8ff0-5461fc5e53bd"},"vehicle_type_id":"4","last_reported":1758985711,"current_range_meters":2000,"station_id":"ce4bh012rcd13ifvqd10","pricing_plan_id":"cebpf4jnsgd1na2vs0mg"},{"bike_id":"536c8689-3ae1-4daf-88d5-a1be1a91f1f7","system_id":"levelo_inurba_marseille","lat":43.30246,"lon":5.40042,"is_reserved":false,"is_disabled":false,"rental_uris":{"android":"levelo://app?vid=536c8689-3ae1-4daf-88d5-a1be1a91f1f7","ios":"levelo://app?vid=536c8689-3ae1-4daf-88d5-a1be1a91f1f7"},"vehicle_type_id":"4","last_reported":1758985711,"current_range_meters":2800,"station_id":"ce4bgvh2rcd13ifvqcs0","pricing_plan_id":"cebpf4jnsgd1na2vs0mg"},{"bike_id":"9fa3af95-5135-4039-8b60-714d37f422b8","system_id":"levelo_inurba_marseille","lat":43.29228,"lon":5.36058,"is_reserved":false,"is_disabled":false,"rental_uris":{"android":"levelo://app?vid=9fa3af95-5135-4039-8b60-714d37f422b8","ios":"levelo://app?vid=9fa3af95-5135-4039-8b60-714d37f422b8"},"vehicle_type_id":"4","last_reported":1758985711,"current_range_meters":2800,"station_id":"ce4bhbh2rcd13ifvqeqg","pricing_plan_id":"cebpf4jnsgd1na2vs0mg"},{"bike_id":"588bb5c6-d90f-4edd-b1de-2d2164a39c00","system_id":"levelo_inurba_marseille","lat":43.32948,"lon":5.39046,"is_reserved":false,"is_disabled":false,"rental_uris":{"android":"levelo://app?vid=588bb5c6-d90f-4edd-b1de-2d2164a39c00","ios":"levelo://app?vid=588bb5c6-d90f-4edd-b1de-2d2164a39c00"},"vehicle_type_id":"4","last_reported":1758985711,"current_range_meters":2800,"station_id":"","pricing_plan_id":"cebpf4jnsgd1na2vs0mg"},{"bike_id":"f43cb7ef-9606-4da8-a5f6-2ada5d46039e","system_id":"levelo_inurba_marseille","lat":43.31166,"lon":5.38716,"is_reserved":false,"is_disabled":false,"rental_uris":{"android":"levelo://app?vid=f43cb7ef-9606-4da8-a5f6-2ada5d46039e","ios":"levelo://app?vid=f43cb7ef-9606-4da8-a5f6-2ada5d46039e"},"vehicle_type_id":"4","last_reported":1758985711,"current_range_meters":2000,"station_id":"ce4bgv12rcd13ifvqcp0","pricing_plan_id":"cebpf4jnsgd1na2vs0mg"},{"bike_id":"3eff4bbf-c449-47ab-8c15-3c6c31da6637","system_id":"levelo_inurba_marseille","lat":43.24634,"lon":5.43145,"is_reserved":false,"is_disabled":false,"rental_uris":{"android":"levelo://app?vid=3eff4bbf-c449-47ab-8c15-3c6c31da6637","ios":"levelo://app?vid=3eff4bbf-c449-47ab-8c15-3c6c31da6637"},"vehicle_type_id":"4","last_reported":1758985711,"current_range_meters":3200,"station_id":"st_d2m6c4gdas8pm72e190g","pricing_plan_id":"cebpf4jnsgd1na2vs0mg"},{"bike_id":"9463b34d-e80a-410b-a515-ef64cc84472f","system_id":"levelo_inurba_marseille","lat":43.26502,"lon":5.39538,"is_reserved":false,"is_disabled":false,"rental_uris":{"android":"levelo://app?vid=9463b34d-e80a-410b-a515-ef64cc84472f","ios":"levelo://app?vid=9463b34d-e80a-410b-a515-ef64cc84472f"},"vehicle_type_id":"4","last_reported":1758985711,"current_range_meters":3200,"station_id":"ce4bhi12rcd13ifvqfq0","pricing_plan_id":"cebpf4jnsgd1na2vs0mg"},{"bike_id":"192d9b12-98e6-4eca-bbb7-0f0018c0995b","system_id":"levelo_inurba_marseille","lat":43.21766,"lon":5.34623,"is_reserved":false,"is_disabled":false,"rental_uris":{"android":"levelo://app?vid=192d9b12-98e6-4eca-bbb7-0f0018c0995b","ios":"levelo://app?vid=192d9b12-98e6-4eca-bbb7-0f0018c0995b"},"vehicle_type_id":"4","last_reported":1758985711,"current_range_meters":3200,"station_id":"st_cvj6r9ubvosntc0bgbag","pricing_plan_id":"cebpf4jnsgd1na2vs0mg"},{"bike_id":"a581bdea-2b1e-4888-bbaf-27e08cddff08","system_id":"levelo_inurba_marseille","lat":43.31074,"lon":5.42443,"is_reserved":false,"is_disabled":false,"rental_uris":{"android":"levelo://app?vid=a581bdea-2b1e-4888-bbaf-27e08cddff08","ios":"levelo://app?vid=a581bdea-2b1e-4888-bbaf-27e08cddff08"},"vehicle_type_id":"4","last_reported":1758985711,"current_range_meters":3200,"station_id":"ce4bhp92rcd13ifvqhag","pricing_plan_id":"cebpf4jnsgd1na2vs0mg"},{"bike_id":"b8ccb50e-fdf3-4a1b-bdf9-33a30bf314fa","system_id":"levelo_inurba_marseille","lat":43.26205,"lon":5.3788,"is_reserved":false,"is_disabled":false,"rental_uris":{"android":"levelo://app?vid=b8ccb50e-fdf3-4a1b-bdf9-33a30bf314fa","ios":"levelo://app?vid=b8ccb50e-fdf3-4a1b-bdf9-33a30bf314fa"},"vehicle_type_id":"4","last_reported":1758985711,"current_range_meters":3200,"station_id":"ce4bhjp2rcd13ifvqg90","pricing_plan_id":"cebpf4jnsgd1na2vs0mg"},{"bike_id":"2c29b1c8-0ee2-4960-94d2-b21f291103aa","system_id":"levelo_inurba_marseille","lat":43.29685,"lon":5.37306,"is_reserved":false,"is_disabled":false,"rental_uris":{"android":"levelo://app?vid=2c29b1c8-0ee2-4960-94d2-b21f291103aa","ios":"levelo://app?vid=2c29b1c8-0ee2-4960-94d2-b21f291103aa"},"vehicle_type_id":"4","last_reported":1758985711,"current_range_meters":3200,"station_id":"ce4bgk12rcd13ifvqbj0","pricing_plan_id":"cebpf4jnsgd1na2vs0mg"},{"bike_id":"003515e8-8117-44bb-979d-5f47e8d50fda","system_id":"levelo_inurba_marseille","lat":43.30635,"lon":5.3755,"is_reserved":false,"is_disabled":false,"rental_uris":{"android":"levelo://app?vid=003515e8-8117-44bb-979d-5f47e8d50fda","ios":"levelo://app?vid=003515e8-8117-44bb-979d-5f47e8d50fda"},"vehicle_type_id":"4","last_reported":1758985711,"current_range_meters":3600,"station_id":"","pricing_plan_id":"cebpf4jnsgd1na2vs0mg"},{"bike_id":"84308a20-88ff-4fe8-a36b-c2daf41712a7","system_id":"levelo_inurba_marseille","lat":43.24173,"lon":5.3639,"is_reserved":false,"is_disabled":false,"rental_uris":{"android":"levelo://app?vid=84308a20-88ff-4fe8-a36b-c2daf41712a7","ios":"levelo://app?vid=84308a20-88ff-4fe8-a36b-c2daf41712a7"},"vehicle_type_id":"4","last_reported":1758985711,"current_range_meters":3600,"station_id":"cpo36qri1sfpv3e86is0","pricing_plan_id":"cebpf4jnsgd1na2vs0mg"},{"bike_id":"671bebd3-b2c6-4fbf-a748-c0773669b1aa","system_id":"levelo_inurba_marseille","lat":43.26233,"lon":5.40454,"is_reserved":false,"is_disabled":false,"rental_uris":{"android":"levelo://app?vid=671bebd3-b2c6-4fbf-a748-c0773669b1aa","ios":"levelo://app?vid=671bebd3-b2c6-4fbf-a748-c0773669b1aa"},"vehicle_type_id":"4","last_reported":1758985711,"current_range_meters":3600,"station_id":"ce4bhmh2rcd13ifvqgmg","pricing_plan_id":"cebpf4jnsgd1na2vs0mg"},{"bike_id":"e74e2801-a95f-43bc-b728-55df4d230ac9","system_id":"levelo_inurba_marseille","lat":43.28158,"lon":5.42646,"is_reserved":false,"is_disabled":false,"rental_uris":{"android":"levelo://app?vid=e74e2801-a95f-43bc-b728-55df4d230ac9","ios":"levelo://app?vid=e74e2801-a95f-43bc-b728-55df4d230ac9"},"vehicle_type_id":"4","last_reported":1758985711,"current_range_meters":3600,"station_id":"ce4bhnh2rcd13ifvqgug","pricing_plan_id":"cebpf4jnsgd1na2vs0mg"},{"bike_id":"fde39d9b-b8c4-4f52-b7a6-a42f515b5272","system_id":"levelo_inurba_marseille","lat":43.29928,"lon":5.37474,"is_reserved":false,"is_disabled":false,"rental_uris":{"android":"levelo://app?vid=fde39d9b-b8c4-4f52-b7a6-a42f515b5272","ios":"levelo://app?vid=fde39d9b-b8c4-4f52-b7a6-a42f515b5272"},"vehicle_type_id":"4","last_reported":1758985711,"current_range_meters":4000,"station_id":"ce4bgjh2rcd13ifvqbg0","pricing_plan_id":"cebpf4jnsgd1na2vs0mg"},{"bike_id":"f897d300-643c-4c7a-951b-f56d70ef23ca","system_id":"levelo_inurba_marseille","lat":43.303318,"lon":5.390696,"is_reserved":false,"is_disabled":false,"rental_uris":{"android":"levelo://app?vid=f897d300-643c-4c7a-951b-f56d70ef23ca","ios":"levelo://app?vid=f897d300-643c-4c7a-951b-f56d70ef23ca"},"vehicle_type_id":"4","last_reported":1758985711,"current_range_meters":4000,"station_id":"","pricing_plan_id":"cebpf4jnsgd1na2vs0mg"},{"bike_id":"73f75474-3661-4de2-8aa6-381b40c2caa8","system_id":"levelo_inurba_marseille","lat":43.273874,"lon":5.362556,"is_reserved":false,"is_disabled":false,"rental_uris":{"android":"levelo://app?vid=73f75474-3661-4de2-8aa6-381b40c2caa8","ios":"levelo://app?vid=73f75474-3661-4de2-8aa6-381b40c2caa8"},"vehicle_type_id":"4","last_reported":1758985711,"current_range_meters":4000,"station_id":"ce4bhbh2rcd13ifvqeo0","pricing_plan_id":"cebpf4jnsgd1na2vs0mg"},{"bike_id":"00ea7089-72cc-44a1-9156-241d65565adf","system_id":"levelo_inurba_marseille","lat":43.30422,"lon":5.41282,"is_reserved":false,"is_disabled":false,"rental_uris":{"android":"levelo://app?vid=00ea7089-72cc-44a1-9156-241d65565adf","ios":"levelo://app?vid=00ea7089-72cc-44a1-9156-241d65565adf"},"vehicle_type_id":"4","last_reported":1758985711,"current_range_meters":3600,"station_id":"ce4bhop2rcd13ifvqh8g","pricing_plan_id":"cebpf4jnsgd1na2vs0mg"},{"bike_id":"ddb09110-eb4e-452e-9f61-577edec6a52f","system_id":"levelo_inurba_marseille","lat":43.29173,"lon":5.37161,"is_reserved":false,"is_disabled":false,"rental_uris":{"android":"levelo://app?vid=ddb09110-eb4e-452e-9f61-577edec6a52f","ios":"levelo://app?vid=ddb09110-eb4e-452e-9f61-577edec6a52f"},"vehicle_type_id":"4","last_reported":1758985711,"current_range_meters":0,"station_id":"ce4bha92rcd13ifvqeh0","pricing_plan_id":"cebpf4jnsgd1na2vs0mg"},{"bike_id":"b6f3f6aa-5432-4a75-9fcf-4e6d4514012d","system_id":"levelo_inurba_marseille","lat":43.224809,"lon":5.347746,"is_reserved":false,"is_disabled":false,"rental_uris":{"android":"levelo://app?vid=b6f3f6aa-5432-4a75-9fcf-4e6d4514012d","ios":"levelo://app?vid=b6f3f6aa-5432-4a75-9fcf-4e6d4514012d"},"vehicle_type_id":"4","last_reported":1758985711,"current_range_meters":4400,"station_id":"","pricing_plan_id":"cebpf4jnsgd1na2vs0mg"},{"bike_id":"762957b6-4e5c-48b9-b00f-07f527c09085","system_id":"levelo_inurba_marseille","lat":43.3079,"lon":5.37643,"is_reserved":false,"is_disabled":false,"rental_uris":{"android":"levelo://app?vid=762957b6-4e5c-48b9-b00f-07f527c09085","ios":"levelo://app?vid=762957b6-4e5c-48b9-b00f-07f527c09085"},"vehicle_type_id":"4","last_reported":1758985711,"current_range_meters":4400,"station_id":"ce4bgv92rcd13ifvqcq0","pricing_plan_id":"cebpf4jnsgd1na2vs0mg"},{"bike_id":"9a819dc8-447d-4df7-8b5f-0b18332a26a7","system_id":"levelo_inurba_marseille","lat":43.33121,"lon":5.37585,"is_reserved":false,"is_disabled":false,"rental_uris":{"android":"levelo://app?vid=9a819dc8-447d-4df7-8b5f-0b18332a26a7","ios":"levelo://app?vid=9a819dc8-447d-4df7-8b5f-0b18332a26a7"},"vehicle_type_id":"4","last_reported":1758985711,"current_range_meters":4400,"station_id":"","pricing_plan_id":"cebpf4jnsgd1na2vs0mg"},{"bike_id":"fdfeacc7-257a-4a84-b37c-bedccee1cea4","system_id":"levelo_inurba_marseille","lat":43.30889,"lon":5.39659,"is_reserved":false,"is_disabled":false,"rental_uris":{"android":"levelo://app?vid=fdfeacc7-257a-4a84-b37c-bedccee1cea4","ios":"levelo://app?vid=fdfeacc7-257a-4a84-b37c-bedccee1cea4"},"vehicle_type_id":"4","last_reported":1758985711,"current_range_meters":4800,"station_id":"ce4bh012rcd13ifvqcv0","pricing_plan_id":"cebpf4jnsgd1na2vs0mg"},{"bike_id":"6f536cfc-952a-49af-a4fa-64c1f94dc090","system_id":"levelo_inurba_marseille","lat":43.243856,"lon":5.370566,"is_reserved":false,"is_disabled":false,"rental_uris":{"android":"levelo://app?vid=6f536cfc-952a-49af-a4fa-64c1f94dc090","ios":"levelo://app?vid=6f536cfc-952a-49af-a4fa-64c1f94dc090"},"vehicle_type_id":"4","last_reported":1758985711,"current_range_meters":4800,"station_id":"ce4bhhh2rcd13ifvqfk0","pricing_plan_id":"cebpf4jnsgd1na2vs0mg"},{"bike_id":"860e43b1-a5df-4593-9eea-ba1325cf1a04","system_id":"levelo_inurba_marseille","lat":43.29367,"lon":5.37842,"is_reserved":false,"is_disabled":false,"rental_uris":{"android":"levelo://app?vid=860e43b1-a5df-4593-9eea-ba1325cf1a04","ios":"levelo://app?vid=860e43b1-a5df-4593-9eea-ba1325cf1a04"},"vehicle_type_id":"4","last_reported":1758985711,"current_range_meters":5600,"station_id":"ce4bgjh2rcd13ifvqbf0","pricing_plan_id":"cebpf4jnsgd1na2vs0mg"},{"bike_id":"690c566e-ac56-455b-841c-02cde0aa02cf","system_id":"levelo_inurba_marseille","lat":43.30494,"lon":5.3746,"is_reserved":false,"is_disabled":false,"rental_uris":{"android":"levelo://app?vid=690c566e-ac56-455b-841c-02cde0aa02cf","ios":"levelo://app?vid=690c566e-ac56-455b-841c-02cde0aa02cf"},"vehicle_type_id":"4","last_reported":1758985711,"current_range_meters":5600,"station_id":"","pricing_plan_id":"cebpf4jnsgd1na2vs0mg"},{"bike_id":"c7f6a08b-c655-4213-b2ba-7d02e7f382fe","system_id":"levelo_inurba_marseille","lat":43.27988,"lon":5.39483,"is_reserved":false,"is_disabled":false,"rental_uris":{"android":"levelo://app?vid=c7f6a08b-c655-4213-b2ba-7d02e7f382fe","ios":"levelo://app?vid=c7f6a08b-c655-4213-b2ba-7d02e7f382fe"},"vehicle_type_id":"4","last_reported":1758985711,"current_range_meters":5600,"station_id":"","pricing_plan_id":"cebpf4jnsgd1na2vs0mg"},{"bike_id":"2ae51fe0-4479-4430-b0dd-c85b350f9f2e","system_id":"levelo_inurba_marseille","lat":43.290335,"lon":5.37568,"is_reserved":false,"is_disabled":false,"rental_uris":{"android":"levelo://app?vid=2ae51fe0-4479-4430-b0dd-c85b350f9f2e","ios":"levelo://app?vid=2ae51fe0-4479-4430-b0dd-c85b350f9f2e"},"vehicle_type_id":"4","last_reported":1758985711,"current_range_meters":5600,"station_id":"ce4bh692rcd13ifvqe90","pricing_plan_id":"cebpf4jnsgd1na2vs0mg"},{"bike_id":"ad0a54c9-b6a0-4ace-86c4-1d84fa15a1e9","system_id":"levelo_inurba_marseille","lat":43.305191,"lon":5.36543,"is_reserved":false,"is_disabled":false,"rental_uris":{"android":"levelo://app?vid=ad0a54c9-b6a0-4ace-86c4-1d84fa15a1e9","ios":"levelo://app?vid=ad0a54c9-b6a0-4ace-86c4-1d84fa15a1e9"},"vehicle_type_id":"4","last_reported":1758985711,"current_range_meters":6000,"station_id":"ce4bgs12rcd13ifvqcag","pricing_plan_id":"cebpf4jnsgd1na2vs0mg"},{"bike_id":"4e8c96f8-d6e6-4560-b7d4-0d0e22f5ebb0","system_id":"levelo_inurba_marseille","lat":43.2849,"lon":5.38414,"is_reserved":false,"is_disabled":false,"rental_uris":{"android":"levelo://app?vid=4e8c96f8-d6e6-4560-b7d4-0d0e22f5ebb0","ios":"levelo://app?vid=4e8c96f8-d6e6-4560-b7d4-0d0e22f5ebb0"},"vehicle_type_id":"4","last_reported":1758985711,"current_range_meters":6000,"station_id":"ce4bh512rcd13ifvqe3g","pricing_plan_id":"cebpf4jnsgd1na2vs0mg"},{"bike_id":"1028cd2b-b4fc-4d5c-9515-2844e29f4322","system_id":"levelo_inurba_marseille","lat":43.225362,"lon":5.348472,"is_reserved":false,"is_disabled":false,"rental_uris":{"android":"levelo://app?vid=1028cd2b-b4fc-4d5c-9515-2844e29f4322","ios":"levelo://app?vid=1028cd2b-b4fc-4d5c-9515-2844e29f4322"},"vehicle_type_id":"4","last_reported":1758985711,"current_range_meters":6000,"station_id":"","pricing_plan_id":"cebpf4jnsgd1na2vs0mg"},{"bike_id":"3ff019b4-f200-434f-bdbd-2de527b20d7e","system_id":"levelo_inurba_marseille","lat":43.21193,"lon":5.35074,"is_reserved":false,"is_disabled":false,"rental_uris":{"android":"levelo://app?vid=3ff019b4-f200-434f-bdbd-2de527b20d7e","ios":"levelo://app?vid=3ff019b4-f200-434f-bdbd-2de527b20d7e"},"vehicle_type_id":"4","last_reported":1758985711,"current_range_meters":6000,"station_id":"st_cvj6sg6p6f1abm77japg","pricing_plan_id":"cebpf4jnsgd1na2vs0mg"},{"bike_id":"041cd397-24ab-4e04-af23-07b961e161f4","system_id":"levelo_inurba_marseille","lat":43.337444,"lon":5.374475,"is_reserved":false,"is_disabled":false,"rental_uris":{"android":"levelo://app?vid=041cd397-24ab-4e04-af23-07b961e161f4","ios":"levelo://app?vid=041cd397-24ab-4e04-af23-07b961e161f4"},"vehicle_type_id":"4","last_reported":1758985711,"current_range_meters":6000,"station_id":"","pricing_plan_id":"cebpf4jnsgd1na2vs0mg"},{"bike_id":"3bb63206-f7eb-4006-bd4c-ec6dde938f0b","system_id":"levelo_inurba_marseille","lat":43.265745,"lon":5.403155,"is_reserved":false,"is_disabled":false,"rental_uris":{"android":"levelo://app?vid=3bb63206-f7eb-4006-bd4c-ec6dde938f0b","ios":"levelo://app?vid=3bb63206-f7eb-4006-bd4c-ec6dde938f0b"},"vehicle_type_id":"4","last_reported":1758985711,"current_range_meters":6000,"station_id":"ce4bhmp2rcd13ifvqgng","pricing_plan_id":"cebpf4jnsgd1na2vs0mg"},{"bike_id":"e1e0b7d5-8284-466b-b442-84189984127b","system_id":"levelo_inurba_marseille","lat":43.29915,"lon":5.38147,"is_reserved":false,"is_disabled":false,"rental_uris":{"android":"levelo://app?vid=e1e0b7d5-8284-466b-b442-84189984127b","ios":"levelo://app?vid=e1e0b7d5-8284-466b-b442-84189984127b"},"vehicle_type_id":"4","last_reported":1758985711,"current_range_meters":5600,"station_id":"ce4bgj12rcd13ifvqbc0","pricing_plan_id":"cebpf4jnsgd1na2vs0mg"},{"bike_id":"9b2a4166-4bf6-4740-b018-82f7f5312a3d","system_id":"levelo_inurba_marseille","lat":43.26934,"lon":5.40242,"is_reserved":false,"is_disabled":true,"rental_uris":{"android":"levelo://app?vid=9b2a4166-4bf6-4740-b018-82f7f5312a3d","ios":"levelo://app?vid=9b2a4166-4bf6-4740-b018-82f7f5312a3d"},"vehicle_type_id":"4","last_reported":1758985711,"current_range_meters":6400,"station_id":"cjm6bp8fraef2m0cb0m0","pricing_plan_id":"cebpf4jnsgd1na2vs0mg"},{"bike_id":"97e453a1-9ee3-4669-a08b-71b2d5e2a5a9","system_id":"levelo_inurba_marseille","lat":43.26061,"lon":5.39398,"is_reserved":false,"is_disabled":false,"rental_uris":{"android":"levelo://app?vid=97e453a1-9ee3-4669-a08b-71b2d5e2a5a9","ios":"levelo://app?vid=97e453a1-9ee3-4669-a08b-71b2d5e2a5a9"},"vehicle_type_id":"4","last_reported":1758985711,"current_range_meters":6400,"station_id":"ce4bhh92rcd13ifvqfj0","pricing_plan_id":"cebpf4jnsgd1na2vs0mg"},{"bike_id":"0b1eb747-8274-4a8a-a752-7c30d6b68dc6","system_id":"levelo_inurba_marseille","lat":43.29896,"lon":5.43669,"is_reserved":false,"is_disabled":false,"rental_uris":{"android":"levelo://app?vid=0b1eb747-8274-4a8a-a752-7c30d6b68dc6","ios":"levelo://app?vid=0b1eb747-8274-4a8a-a752-7c30d6b68dc6"},"vehicle_type_id":"4","last_reported":1758985711,"current_range_meters":6400,"station_id":"ce4bhpp2rcd13ifvqhfg","pricing_plan_id":"cebpf4jnsgd1na2vs0mg"},{"bike_id":"30cff23f-9ac7-42af-81d5-809cd71ec949","system_id":"levelo_inurba_marseille","lat":43.31231,"lon":5.36861,"is_reserved":false,"is_disabled":false,"rental_uris":{"android":"levelo://app?vid=30cff23f-9ac7-42af-81d5-809cd71ec949","ios":"levelo://app?vid=30cff23f-9ac7-42af-81d5-809cd71ec949"},"vehicle_type_id":"4","last_reported":1758985711,"current_range_meters":6000,"station_id":"ce4bgl92rcd13ifvqbq0","pricing_plan_id":"cebpf4jnsgd1na2vs0mg"},{"bike_id":"d76d10b8-8b27-4e43-bcd9-ce199d8cf477","system_id":"levelo_inurba_marseille","lat":43.283724,"lon":5.386248,"is_reserved":false,"is_disabled":false,"rental_uris":{"android":"levelo://app?vid=d76d10b8-8b27-4e43-bcd9-ce199d8cf477","ios":"levelo://app?vid=d76d10b8-8b27-4e43-bcd9-ce199d8cf477"},"vehicle_type_id":"4","last_reported":1758985711,"current_range_meters":6400,"station_id":"ce4bh492rcd13ifvqdvg","pricing_plan_id":"cebpf4jnsgd1na2vs0mg"},{"bike_id":"799e87b9-cce6-496e-bb4a-331cbe296196","system_id":"levelo_inurba_marseille","lat":43.28411,"lon":5.37517,"is_reserved":false,"is_disabled":false,"rental_uris":{"android":"levelo://app?vid=799e87b9-cce6-496e-bb4a-331cbe296196","ios":"levelo://app?vid=799e87b9-cce6-496e-bb4a-331cbe296196"},"vehicle_type_id":"4","last_reported":1758985711,"current_range_meters":6400,"station_id":"ce4bh412rcd13ifvqds0","pricing_plan_id":"cebpf4jnsgd1na2vs0mg"},{"bike_id":"8b9e7949-26de-42e5-b96f-087fe53c5a09","system_id":"levelo_inurba_marseille","lat":43.25721,"lon":5.41113,"is_reserved":false,"is_disabled":false,"rental_uris":{"android":"levelo://app?vid=8b9e7949-26de-42e5-b96f-087fe53c5a09","ios":"levelo://app?vid=8b9e7949-26de-42e5-b96f-087fe53c5a09"},"vehicle_type_id":"4","last_reported":1758985711,"current_range_meters":6400,"station_id":"ce4bhkp2rcd13ifvqgd0","pricing_plan_id":"cebpf4jnsgd1na2vs0mg"},{"bike_id":"a462cce2-9104-46a9-a432-ba7c3c35eb6a","system_id":"levelo_inurba_marseille","lat":43.27063,"lon":5.40253,"is_reserved":false,"is_disabled":true,"rental_uris":{"android":"levelo://app?vid=a462cce2-9104-46a9-a432-ba7c3c35eb6a","ios":"levelo://app?vid=a462cce2-9104-46a9-a432-ba7c3c35eb6a"},"vehicle_type_id":"4","last_reported":1758985711,"current_range_meters":6400,"station_id":"ce4bhk92rcd13ifvqgc0","pricing_plan_id":"cebpf4jnsgd1na2vs0mg"},{"bike_id":"75611fb7-df45-4d9f-9db0-a181136cc424","system_id":"levelo_inurba_marseille","lat":43.2174,"lon":5.34616,"is_reserved":false,"is_disabled":false,"rental_uris":{"android":"levelo://app?vid=75611fb7-df45-4d9f-9db0-a181136cc424","ios":"levelo://app?vid=75611fb7-df45-4d9f-9db0-a181136cc424"},"vehicle_type_id":"4","last_reported":1758985711,"current_range_meters":6800,"station_id":"st_cvj6r9ubvosntc0bgbag","pricing_plan_id":"cebpf4jnsgd1na2vs0mg"},{"bike_id":"70f338f7-49f8-4c23-9b29-3b32f0203cbe","system_id":"levelo_inurba_marseille","lat":43.29262,"lon":5.40911,"is_reserved":false,"is_disabled":false,"rental_uris":{"android":"levelo://app?vid=70f338f7-49f8-4c23-9b29-3b32f0203cbe","ios":"levelo://app?vid=70f338f7-49f8-4c23-9b29-3b32f0203cbe"},"vehicle_type_id":"4","last_reported":1758985711,"current_range_meters":6400,"station_id":"ce4bh192rcd13ifvqdc0","pricing_plan_id":"cebpf4jnsgd1na2vs0mg"},{"bike_id":"174dfb4f-f618-4c2f-be1c-ae0d6b405e94","system_id":"levelo_inurba_marseille","lat":43.29717,"lon":5.38272,"is_reserved":false,"is_disabled":false,"rental_uris":{"android":"levelo://app?vid=174dfb4f-f618-4c2f-be1c-ae0d6b405e94","ios":"levelo://app?vid=174dfb4f-f618-4c2f-be1c-ae0d6b405e94"},"vehicle_type_id":"4","last_reported":1758985711,"current_range_meters":6800,"station_id":"","pricing_plan_id":"cebpf4jnsgd1na2vs0mg"},{"bike_id":"4ea066be-d5c0-4685-b39a-612a810bdfbb","system_id":"levelo_inurba_marseille","lat":43.33768,"lon":5.37471,"is_reserved":false,"is_disabled":true,"rental_uris":{"android":"levelo://app?vid=4ea066be-d5c0-4685-b39a-612a810bdfbb","ios":"levelo://app?vid=4ea066be-d5c0-4685-b39a-612a810bdfbb"},"vehicle_type_id":"4","last_reported":1758985711,"current_range_meters":6800,"station_id":"","pricing_plan_id":"cebpf4jnsgd1na2vs0mg"},{"bike_id":"8e6d213b-0a87-409b-b7aa-e2e7e315b1fa","system_id":"levelo_inurba_marseille","lat":43.246297,"lon":5.431441,"is_reserved":false,"is_disabled":false,"rental_uris":{"android":"levelo://app?vid=8e6d213b-0a87-409b-b7aa-e2e7e315b1fa","ios":"levelo://app?vid=8e6d213b-0a87-409b-b7aa-e2e7e315b1fa"},"vehicle_type_id":"4","last_reported":1758985711,"current_range_meters":6800,"station_id":"st_d2m6c4gdas8pm72e190g","pricing_plan_id":"cebpf4jnsgd1na2vs0mg"},{"bike_id":"4a71c627-115d-442b-9c97-5e8c38c350de","system_id":"levelo_inurba_marseille","lat":43.30607,"lon":5.37229,"is_reserved":false,"is_disabled":false,"rental_uris":{"android":"levelo://app?vid=4a71c627-115d-442b-9c97-5e8c38c350de","ios":"levelo://app?vid=4a71c627-115d-442b-9c97-5e8c38c350de"},"vehicle_type_id":"4","last_reported":1758985711,"current_range_meters":6800,"station_id":"ce4bgqh2rcd13ifvqc4g","pricing_plan_id":"cebpf4jnsgd1na2vs0mg"},{"bike_id":"2b6208b1-eda0-4415-9c3d-5245ea5391d3","system_id":"levelo_inurba_marseille","lat":43.21743,"lon":5.34605,"is_reserved":false,"is_disabled":false,"rental_uris":{"android":"levelo://app?vid=2b6208b1-eda0-4415-9c3d-5245ea5391d3","ios":"levelo://app?vid=2b6208b1-eda0-4415-9c3d-5245ea5391d3"},"vehicle_type_id":"4","last_reported":1758985711,"current_range_meters":6800,"station_id":"st_cvj6r9ubvosntc0bgbag","pricing_plan_id":"cebpf4jnsgd1na2vs0mg"},{"bike_id":"1ab530a4-27c9-486b-a71a-df0b45c867f0","system_id":"levelo_inurba_marseille","lat":43.21748,"lon":5.34607,"is_reserved":false,"is_disabled":false,"rental_uris":{"android":"levelo://app?vid=1ab530a4-27c9-486b-a71a-df0b45c867f0","ios":"levelo://app?vid=1ab530a4-27c9-486b-a71a-df0b45c867f0"},"vehicle_type_id":"4","last_reported":1758985711,"current_range_meters":6800,"station_id":"st_cvj6r9ubvosntc0bgbag","pricing_plan_id":"cebpf4jnsgd1na2vs0mg"},{"bike_id":"c70a1105-9c8e-4603-9fad-2f8df08821e0","system_id":"levelo_inurba_marseille","lat":43.31488,"lon":5.37311,"is_reserved":false,"is_disabled":false,"rental_uris":{"android":"levelo://app?vid=c70a1105-9c8e-4603-9fad-2f8df08821e0","ios":"levelo://app?vid=c70a1105-9c8e-4603-9fad-2f8df08821e0"},"vehicle_type_id":"4","last_reported":1758985711,"current_range_meters":6800,"station_id":"ce4bgt12rcd13ifvqcd0","pricing_plan_id":"cebpf4jnsgd1na2vs0mg"},{"bike_id":"cafa73fe-cb65-4deb-8ec4-57e0ad306eff","system_id":"levelo_inurba_marseille","lat":43.31327,"lon":5.39684,"is_reserved":false,"is_disabled":false,"rental_uris":{"android":"levelo://app?vid=cafa73fe-cb65-4deb-8ec4-57e0ad306eff","ios":"levelo://app?vid=cafa73fe-cb65-4deb-8ec4-57e0ad306eff"},"vehicle_type_id":"4","last_reported":1758985711,"current_range_meters":7200,"station_id":"ce4bgvp2rcd13ifvqcu0","pricing_plan_id":"cebpf4jnsgd1na2vs0mg"},{"bike_id":"f849856a-c256-4ecc-926e-aac4522cdd49","system_id":"levelo_inurba_marseille","lat":43.29687,"lon":5.37294,"is_reserved":false,"is_disabled":false,"rental_uris":{"android":"levelo://app?vid=f849856a-c256-4ecc-926e-aac4522cdd49","ios":"levelo://app?vid=f849856a-c256-4ecc-926e-aac4522cdd49"},"vehicle_type_id":"4","last_reported":1758985711,"current_range_meters":6800,"station_id":"ce4bgk12rcd13ifvqbj0","pricing_plan_id":"cebpf4jnsgd1na2vs0mg"},{"bike_id":"227aba3d-2a99-448f-ad2e-eaf34348e050","system_id":"levelo_inurba_marseille","lat":43.31079,"lon":5.38351,"is_reserved":false,"is_disabled":false,"rental_uris":{"android":"levelo://app?vid=227aba3d-2a99-448f-ad2e-eaf34348e050","ios":"levelo://app?vid=227aba3d-2a99-448f-ad2e-eaf34348e050"},"vehicle_type_id":"4","last_reported":1758985711,"current_range_meters":7200,"station_id":"ce4bgv92rcd13ifvqcr0","pricing_plan_id":"cebpf4jnsgd1na2vs0mg"},{"bike_id":"a564f41d-b18d-41bf-939f-e8aeb31eb5a2","system_id":"levelo_inurba_marseille","lat":43.290997,"lon":5.381219,"is_reserved":false,"is_disabled":false,"rental_uris":{"android":"levelo://app?vid=a564f41d-b18d-41bf-939f-e8aeb31eb5a2","ios":"levelo://app?vid=a564f41d-b18d-41bf-939f-e8aeb31eb5a2"},"vehicle_type_id":"4","last_reported":1758985711,"current_range_meters":7200,"station_id":"ce4bh512rcd13ifvqe2g","pricing_plan_id":"cebpf4jnsgd1na2vs0mg"},{"bike_id":"8b01b534-10cc-4764-b5a9-ba6293b6316b","system_id":"levelo_inurba_marseille","lat":43.2928,"lon":5.3684,"is_reserved":false,"is_disabled":false,"rental_uris":{"android":"levelo://app?vid=8b01b534-10cc-4764-b5a9-ba6293b6316b","ios":"levelo://app?vid=8b01b534-10cc-4764-b5a9-ba6293b6316b"},"vehicle_type_id":"4","last_reported":1758985711,"current_range_meters":7200,"station_id":"ce4bhbp2rcd13ifvqesg","pricing_plan_id":"cebpf4jnsgd1na2vs0mg"},{"bike_id":"96556b0a-96bb-429a-bb24-c505c64bdf1f","system_id":"levelo_inurba_marseille","lat":43.3031,"lon":5.36896,"is_reserved":false,"is_disabled":false,"rental_uris":{"android":"levelo://app?vid=96556b0a-96bb-429a-bb24-c505c64bdf1f","ios":"levelo://app?vid=96556b0a-96bb-429a-bb24-c505c64bdf1f"},"vehicle_type_id":"4","last_reported":1758985711,"current_range_meters":7200,"station_id":"ce4bgqh2rcd13ifvqc5g","pricing_plan_id":"cebpf4jnsgd1na2vs0mg"},{"bike_id":"c2207658-b923-4a8f-a2fa-281c17511191","system_id":"levelo_inurba_marseille","lat":43.32481,"lon":5.3657,"is_reserved":false,"is_disabled":false,"rental_uris":{"android":"levelo://app?vid=c2207658-b923-4a8f-a2fa-281c17511191","ios":"levelo://app?vid=c2207658-b923-4a8f-a2fa-281c17511191"},"vehicle_type_id":"4","last_reported":1758985711,"current_range_meters":7200,"station_id":"ce4bhs12rcd13ifvqhvg","pricing_plan_id":"cebpf4jnsgd1na2vs0mg"},{"bike_id":"7b65e264-2dd9-4f1a-9195-0dbc1cf0a026","system_id":"levelo_inurba_marseille","lat":43.27999,"lon":5.4001,"is_reserved":false,"is_disabled":false,"rental_uris":{"android":"levelo://app?vid=7b65e264-2dd9-4f1a-9195-0dbc1cf0a026","ios":"levelo://app?vid=7b65e264-2dd9-4f1a-9195-0dbc1cf0a026"},"vehicle_type_id":"4","last_reported":1758985711,"current_range_meters":7200,"station_id":"ce4bho92rcd13ifvqh4g","pricing_plan_id":"cebpf4jnsgd1na2vs0mg"},{"bike_id":"ab669aea-d410-4682-9528-132bb524bfb0","system_id":"levelo_inurba_marseille","lat":43.30607,"lon":5.37228,"is_reserved":false,"is_disabled":false,"rental_uris":{"android":"levelo://app?vid=ab669aea-d410-4682-9528-132bb524bfb0","ios":"levelo://app?vid=ab669aea-d410-4682-9528-132bb524bfb0"},"vehicle_type_id":"4","last_reported":1758985711,"current_range_meters":8000,"station_id":"ce4bgqh2rcd13ifvqc4g","pricing_plan_id":"cebpf4jnsgd1na2vs0mg"},{"bike_id":"5365e873-98ea-45e2-9689-7e119051f22e","system_id":"levelo_inurba_marseille","lat":43.33031,"lon":5.3941,"is_reserved":false,"is_disabled":false,"rental_uris":{"android":"levelo://app?vid=5365e873-98ea-45e2-9689-7e119051f22e","ios":"levelo://app?vid=5365e873-98ea-45e2-9689-7e119051f22e"},"vehicle_type_id":"4","last_reported":1758985711,"current_range_meters":8000,"station_id":"","pricing_plan_id":"cebpf4jnsgd1na2vs0mg"},{"bike_id":"d2b4ac83-91e6-46fb-9929-4b55b0b2c4f5","system_id":"levelo_inurba_marseille","lat":43.2571,"lon":5.41127,"is_reserved":false,"is_disabled":false,"rental_uris":{"android":"levelo://app?vid=d2b4ac83-91e6-46fb-9929-4b55b0b2c4f5","ios":"levelo://app?vid=d2b4ac83-91e6-46fb-9929-4b55b0b2c4f5"},"vehicle_type_id":"4","last_reported":1758985711,"current_range_meters":8000,"station_id":"ce4bhkp2rcd13ifvqgd0","pricing_plan_id":"cebpf4jnsgd1na2vs0mg"},{"bike_id":"7ab7b248-1efd-474c-85fe-f754c25e0959","system_id":"levelo_inurba_marseille","lat":43.29528,"lon":5.39399,"is_reserved":false,"is_disabled":false,"rental_uris":{"android":"levelo://app?vid=7ab7b248-1efd-474c-85fe-f754c25e0959","ios":"levelo://app?vid=7ab7b248-1efd-474c-85fe-f754c25e0959"},"vehicle_type_id":"4","last_reported":1758985711,"current_range_meters":8400,"station_id":"ce4bh292rcd13ifvqdf0","pricing_plan_id":"cebpf4jnsgd1na2vs0mg"},{"bike_id":"cd5332c8-b7a4-42d8-bbee-d21346d785c0","system_id":"levelo_inurba_marseille","lat":43.32458,"lon":5.36605,"is_reserved":false,"is_disabled":false,"rental_uris":{"android":"levelo://app?vid=cd5332c8-b7a4-42d8-bbee-d21346d785c0","ios":"levelo://app?vid=cd5332c8-b7a4-42d8-bbee-d21346d785c0"},"vehicle_type_id":"4","last_reported":1758985711,"current_range_meters":8400,"station_id":"ce4bhs12rcd13ifvqhvg","pricing_plan_id":"cebpf4jnsgd1na2vs0mg"},{"bike_id":"bbf8b031-b1fa-473a-9fea-719f81c76dd9","system_id":"levelo_inurba_marseille","lat":43.225664,"lon":5.416335,"is_reserved":false,"is_disabled":false,"rental_uris":{"android":"levelo://app?vid=bbf8b031-b1fa-473a-9fea-719f81c76dd9","ios":"levelo://app?vid=bbf8b031-b1fa-473a-9fea-719f81c76dd9"},"vehicle_type_id":"4","last_reported":1758985711,"current_range_meters":8400,"station_id":"st_d2o4gvlbi1j2169b742g","pricing_plan_id":"cebpf4jnsgd1na2vs0mg"},{"bike_id":"2b0e9966-024b-40ec-9450-d8b651ab0b40","system_id":"levelo_inurba_marseille","lat":43.290466,"lon":5.359197,"is_reserved":false,"is_disabled":false,"rental_uris":{"android":"levelo://app?vid=2b0e9966-024b-40ec-9450-d8b651ab0b40","ios":"levelo://app?vid=2b0e9966-024b-40ec-9450-d8b651ab0b40"},"vehicle_type_id":"4","last_reported":1758985711,"current_range_meters":8000,"station_id":"ce4bha92rcd13ifvqeg0","pricing_plan_id":"cebpf4jnsgd1na2vs0mg"},{"bike_id":"cbf80f75-81ee-4261-9002-a4534fd56b8e","system_id":"levelo_inurba_marseille","lat":43.30649,"lon":5.4011,"is_reserved":false,"is_disabled":false,"rental_uris":{"android":"levelo://app?vid=cbf80f75-81ee-4261-9002-a4534fd56b8e","ios":"levelo://app?vid=cbf80f75-81ee-4261-9002-a4534fd56b8e"},"vehicle_type_id":"4","last_reported":1758985711,"current_range_meters":8000,"station_id":"ce4bh112rcd13ifvqda0","pricing_plan_id":"cebpf4jnsgd1na2vs0mg"},{"bike_id":"a639c491-c436-478a-8d5d-bd2c30b918ff","system_id":"levelo_inurba_marseille","lat":43.29763,"lon":5.37215,"is_reserved":false,"is_disabled":false,"rental_uris":{"android":"levelo://app?vid=a639c491-c436-478a-8d5d-bd2c30b918ff","ios":"levelo://app?vid=a639c491-c436-478a-8d5d-bd2c30b918ff"},"vehicle_type_id":"4","last_reported":1758985711,"current_range_meters":8400,"station_id":"","pricing_plan_id":"cebpf4jnsgd1na2vs0mg"},{"bike_id":"13812f8d-0f36-4403-b3f5-9209345f0937","system_id":"levelo_inurba_marseille","lat":43.28155,"lon":5.42641,"is_reserved":false,"is_disabled":false,"rental_uris":{"android":"levelo://app?vid=13812f8d-0f36-4403-b3f5-9209345f0937","ios":"levelo://app?vid=13812f8d-0f36-4403-b3f5-9209345f0937"},"vehicle_type_id":"4","last_reported":1758985711,"current_range_meters":8400,"station_id":"ce4bhnh2rcd13ifvqgug","pricing_plan_id":"cebpf4jnsgd1na2vs0mg"},{"bike_id":"fc0bc1b2-0717-4798-abc2-3f101386e6d7","system_id":"levelo_inurba_marseille","lat":43.29167,"lon":5.37153,"is_reserved":false,"is_disabled":false,"rental_uris":{"android":"levelo://app?vid=fc0bc1b2-0717-4798-abc2-3f101386e6d7","ios":"levelo://app?vid=fc0bc1b2-0717-4798-abc2-3f101386e6d7"},"vehicle_type_id":"4","last_reported":1758985711,"current_range_meters":8800,"station_id":"ce4bha92rcd13ifvqeh0","pricing_plan_id":"cebpf4jnsgd1na2vs0mg"},{"bike_id":"a6bb3f7e-1291-473c-8705-9c817f65406c","system_id":"levelo_inurba_marseille","lat":43.21745,"lon":5.34607,"is_reserved":false,"is_disabled":false,"rental_uris":{"android":"levelo://app?vid=a6bb3f7e-1291-473c-8705-9c817f65406c","ios":"levelo://app?vid=a6bb3f7e-1291-473c-8705-9c817f65406c"},"vehicle_type_id":"4","last_reported":1758985711,"current_range_meters":8800,"station_id":"st_cvj6r9ubvosntc0bgbag","pricing_plan_id":"cebpf4jnsgd1na2vs0mg"},{"bike_id":"fb11ced9-a050-4463-99f5-fbab01415b71","system_id":"levelo_inurba_marseille","lat":43.230974,"lon":5.354772,"is_reserved":false,"is_disabled":false,"rental_uris":{"android":"levelo://app?vid=fb11ced9-a050-4463-99f5-fbab01415b71","ios":"levelo://app?vid=fb11ced9-a050-4463-99f5-fbab01415b71"},"vehicle_type_id":"4","last_reported":1758985711,"current_range_meters":8400,"station_id":"cpo3342slgdg3j2ifvpg","pricing_plan_id":"cebpf4jnsgd1na2vs0mg"},{"bike_id":"2907de3a-cdb7-4c49-945b-9d4546080cdd","system_id":"levelo_inurba_marseille","lat":43.2948,"lon":5.36231,"is_reserved":false,"is_disabled":false,"rental_uris":{"android":"levelo://app?vid=2907de3a-cdb7-4c49-945b-9d4546080cdd","ios":"levelo://app?vid=2907de3a-cdb7-4c49-945b-9d4546080cdd"},"vehicle_type_id":"4","last_reported":1758985711,"current_range_meters":8800,"station_id":"","pricing_plan_id":"cebpf4jnsgd1na2vs0mg"},{"bike_id":"8c541215-7535-4993-bdb7-dfc6ca009105","system_id":"levelo_inurba_marseille","lat":43.28486,"lon":5.38404,"is_reserved":false,"is_disabled":false,"rental_uris":{"android":"levelo://app?vid=8c541215-7535-4993-bdb7-dfc6ca009105","ios":"levelo://app?vid=8c541215-7535-4993-bdb7-dfc6ca009105"},"vehicle_type_id":"4","last_reported":1758985711,"current_range_meters":8400,"station_id":"ce4bh512rcd13ifvqe3g","pricing_plan_id":"cebpf4jnsgd1na2vs0mg"},{"bike_id":"08fe2b08-b3fa-43f8-ae73-04061f76318d","system_id":"levelo_inurba_marseille","lat":43.305552,"lon":5.365395,"is_reserved":false,"is_disabled":false,"rental_uris":{"android":"levelo://app?vid=08fe2b08-b3fa-43f8-ae73-04061f76318d","ios":"levelo://app?vid=08fe2b08-b3fa-43f8-ae73-04061f76318d"},"vehicle_type_id":"4","last_reported":1758985711,"current_range_meters":8800,"station_id":"","pricing_plan_id":"cebpf4jnsgd1na2vs0mg"},{"bike_id":"f444778e-a9b4-4c7d-837a-1cee4cc6cfc0","system_id":"levelo_inurba_marseille","lat":43.28932,"lon":5.36647,"is_reserved":false,"is_disabled":false,"rental_uris":{"android":"levelo://app?vid=f444778e-a9b4-4c7d-837a-1cee4cc6cfc0","ios":"levelo://app?vid=f444778e-a9b4-4c7d-837a-1cee4cc6cfc0"},"vehicle_type_id":"4","last_reported":1758985711,"current_range_meters":8400,"station_id":"ce4bhap2rcd13ifvqek0","pricing_plan_id":"cebpf4jnsgd1na2vs0mg"},{"bike_id":"b74614dc-4a54-42f1-ab49-c1c07ce9bf7f","system_id":"levelo_inurba_marseille","lat":43.211935,"lon":5.350723,"is_reserved":false,"is_disabled":false,"rental_uris":{"android":"levelo://app?vid=b74614dc-4a54-42f1-ab49-c1c07ce9bf7f","ios":"levelo://app?vid=b74614dc-4a54-42f1-ab49-c1c07ce9bf7f"},"vehicle_type_id":"4","last_reported":1758985711,"current_range_meters":8800,"station_id":"st_cvj6sg6p6f1abm77japg","pricing_plan_id":"cebpf4jnsgd1na2vs0mg"},{"bike_id":"c3fe7d43-61d7-483c-9ade-516d24794cef","system_id":"levelo_inurba_marseille","lat":43.29886,"lon":5.39761,"is_reserved":false,"is_disabled":false,"rental_uris":{"android":"levelo://app?vid=c3fe7d43-61d7-483c-9ade-516d24794cef","ios":"levelo://app?vid=c3fe7d43-61d7-483c-9ade-516d24794cef"},"vehicle_type_id":"4","last_reported":1758985711,"current_range_meters":9200,"station_id":"ce4bh0h2rcd13ifvqd50","pricing_plan_id":"cebpf4jnsgd1na2vs0mg"},{"bike_id":"38a8e334-269e-46a5-8043-b0b0568fcfad","system_id":"levelo_inurba_marseille","lat":43.29052,"lon":5.37577,"is_reserved":false,"is_disabled":false,"rental_uris":{"android":"levelo://app?vid=38a8e334-269e-46a5-8043-b0b0568fcfad","ios":"levelo://app?vid=38a8e334-269e-46a5-8043-b0b0568fcfad"},"vehicle_type_id":"4","last_reported":1758985711,"current_range_meters":9200,"station_id":"ce4bh692rcd13ifvqe90","pricing_plan_id":"cebpf4jnsgd1na2vs0mg"},{"bike_id":"443f7dc3-4c35-4975-a8f4-b6a0ee79874b","system_id":"levelo_inurba_marseille","lat":43.29244,"lon":5.37219,"is_reserved":false,"is_disabled":false,"rental_uris":{"android":"levelo://app?vid=443f7dc3-4c35-4975-a8f4-b6a0ee79874b","ios":"levelo://app?vid=443f7dc3-4c35-4975-a8f4-b6a0ee79874b"},"vehicle_type_id":"4","last_reported":1758985711,"current_range_meters":9200,"station_id":"","pricing_plan_id":"cebpf4jnsgd1na2vs0mg"},{"bike_id":"a93e51be-49bd-4cf6-bbf0-e9d7336579d8","system_id":"levelo_inurba_marseille","lat":43.28268,"lon":5.35062,"is_reserved":false,"is_disabled":false,"rental_uris":{"android":"levelo://app?vid=a93e51be-49bd-4cf6-bbf0-e9d7336579d8","ios":"levelo://app?vid=a93e51be-49bd-4cf6-bbf0-e9d7336579d8"},"vehicle_type_id":"4","last_reported":1758985711,"current_range_meters":9200,"station_id":"ce4bhbp2rcd13ifvqerg","pricing_plan_id":"cebpf4jnsgd1na2vs0mg"},{"bike_id":"fb96d448-e8dc-46a8-a1db-c7f054ffafb7","system_id":"levelo_inurba_marseille","lat":43.32666,"lon":5.4099,"is_reserved":false,"is_disabled":false,"rental_uris":{"android":"levelo://app?vid=fb96d448-e8dc-46a8-a1db-c7f054ffafb7","ios":"levelo://app?vid=fb96d448-e8dc-46a8-a1db-c7f054ffafb7"},"vehicle_type_id":"4","last_reported":1758985711,"current_range_meters":9200,"station_id":"ce4bhpp2rcd13ifvqhgg","pricing_plan_id":"cebpf4jnsgd1na2vs0mg"},{"bike_id":"5bfdff97-3089-4f1a-acba-1011ce8f0a3a","system_id":"levelo_inurba_marseille","lat":43.24426,"lon":5.38383,"is_reserved":false,"is_disabled":false,"rental_uris":{"android":"levelo://app?vid=5bfdff97-3089-4f1a-acba-1011ce8f0a3a","ios":"levelo://app?vid=5bfdff97-3089-4f1a-acba-1011ce8f0a3a"},"vehicle_type_id":"4","last_reported":1758985711,"current_range_meters":9600,"station_id":"","pricing_plan_id":"cebpf4jnsgd1na2vs0mg"},{"bike_id":"cdc89dd7-79fa-4381-8161-d2091b5ca7d4","system_id":"levelo_inurba_marseille","lat":43.225724,"lon":5.41655,"is_reserved":false,"is_disabled":false,"rental_uris":{"android":"levelo://app?vid=cdc89dd7-79fa-4381-8161-d2091b5ca7d4","ios":"levelo://app?vid=cdc89dd7-79fa-4381-8161-d2091b5ca7d4"},"vehicle_type_id":"4","last_reported":1758985711,"current_range_meters":9600,"station_id":"st_d2o4gvlbi1j2169b742g","pricing_plan_id":"cebpf4jnsgd1na2vs0mg"},{"bike_id":"ee96a502-9b76-492e-840a-498b02aefe72","system_id":"levelo_inurba_marseille","lat":43.32477,"lon":5.39171,"is_reserved":false,"is_disabled":false,"rental_uris":{"android":"levelo://app?vid=ee96a502-9b76-492e-840a-498b02aefe72","ios":"levelo://app?vid=ee96a502-9b76-492e-840a-498b02aefe72"},"vehicle_type_id":"4","last_reported":1758985711,"current_range_meters":9600,"station_id":"","pricing_plan_id":"cebpf4jnsgd1na2vs0mg"},{"bike_id":"fee74e98-eb52-4f66-a612-109c75f34aa6","system_id":"levelo_inurba_marseille","lat":43.296216,"lon":5.379492,"is_reserved":false,"is_disabled":false,"rental_uris":{"android":"levelo://app?vid=fee74e98-eb52-4f66-a612-109c75f34aa6","ios":"levelo://app?vid=fee74e98-eb52-4f66-a612-109c75f34aa6"},"vehicle_type_id":"4","last_reported":1758985711,"current_range_meters":9600,"station_id":"","pricing_plan_id":"cebpf4jnsgd1na2vs0mg"},{"bike_id":"918baccf-9ea6-40d8-90f0-d2e692a11be8","system_id":"levelo_inurba_marseille","lat":43.248103,"lon":5.374616,"is_reserved":false,"is_disabled":false,"rental_uris":{"android":"levelo://app?vid=918baccf-9ea6-40d8-90f0-d2e692a11be8","ios":"levelo://app?vid=918baccf-9ea6-40d8-90f0-d2e692a11be8"},"vehicle_type_id":"4","last_reported":1758985711,"current_range_meters":9600,"station_id":"ce4bhgh2rcd13ifvqfb0","pricing_plan_id":"cebpf4jnsgd1na2vs0mg"},{"bike_id":"0b2fda4e-ac18-414b-8b05-54fcdd4fc421","system_id":"levelo_inurba_marseille","lat":43.32286,"lon":5.38269,"is_reserved":false,"is_disabled":false,"rental_uris":{"android":"levelo://app?vid=0b2fda4e-ac18-414b-8b05-54fcdd4fc421","ios":"levelo://app?vid=0b2fda4e-ac18-414b-8b05-54fcdd4fc421"},"vehicle_type_id":"4","last_reported":1758985711,"current_range_meters":9600,"station_id":"ce4bhr12rcd13ifvqhqg","pricing_plan_id":"cebpf4jnsgd1na2vs0mg"},{"bike_id":"78f2dd2d-b0db-4aae-8579-822eeab25b1c","system_id":"levelo_inurba_marseille","lat":43.29687,"lon":5.37306,"is_reserved":false,"is_disabled":false,"rental_uris":{"android":"levelo://app?vid=78f2dd2d-b0db-4aae-8579-822eeab25b1c","ios":"levelo://app?vid=78f2dd2d-b0db-4aae-8579-822eeab25b1c"},"vehicle_type_id":"4","last_reported":1758985711,"current_range_meters":9200,"station_id":"ce4bgk12rcd13ifvqbj0","pricing_plan_id":"cebpf4jnsgd1na2vs0mg"},{"bike_id":"5f657238-3924-4edf-9381-8ddeee15c693","system_id":"levelo_inurba_marseille","lat":43.225334,"lon":5.348386,"is_reserved":false,"is_disabled":false,"rental_uris":{"android":"levelo://app?vid=5f657238-3924-4edf-9381-8ddeee15c693","ios":"levelo://app?vid=5f657238-3924-4edf-9381-8ddeee15c693"},"vehicle_type_id":"4","last_reported":1758985711,"current_range_meters":10000,"station_id":"","pricing_plan_id":"cebpf4jnsgd1na2vs0mg"},{"bike_id":"8360fe96-8a6b-4a67-9ba4-0ef948b002e1","system_id":"levelo_inurba_marseille","lat":43.25011,"lon":5.38919,"is_reserved":false,"is_disabled":false,"rental_uris":{"android":"levelo://app?vid=8360fe96-8a6b-4a67-9ba4-0ef948b002e1","ios":"levelo://app?vid=8360fe96-8a6b-4a67-9ba4-0ef948b002e1"},"vehicle_type_id":"4","last_reported":1758985711,"current_range_meters":10000,"station_id":"ce4bhgp2rcd13ifvqfd0","pricing_plan_id":"cebpf4jnsgd1na2vs0mg"},{"bike_id":"37cd8290-4338-45a9-b876-121a99d59514","system_id":"levelo_inurba_marseille","lat":43.21191,"lon":5.35077,"is_reserved":false,"is_disabled":false,"rental_uris":{"android":"levelo://app?vid=37cd8290-4338-45a9-b876-121a99d59514","ios":"levelo://app?vid=37cd8290-4338-45a9-b876-121a99d59514"},"vehicle_type_id":"4","last_reported":1758985711,"current_range_meters":10000,"station_id":"st_cvj6sg6p6f1abm77japg","pricing_plan_id":"cebpf4jnsgd1na2vs0mg"},{"bike_id":"6c00a6a0-3cf0-48a9-b218-0693fab11be9","system_id":"levelo_inurba_marseille","lat":43.30297,"lon":5.43504,"is_reserved":false,"is_disabled":false,"rental_uris":{"android":"levelo://app?vid=6c00a6a0-3cf0-48a9-b218-0693fab11be9","ios":"levelo://app?vid=6c00a6a0-3cf0-48a9-b218-0693fab11be9"},"vehicle_type_id":"4","last_reported":1758985711,"current_range_meters":10000,"station_id":"","pricing_plan_id":"cebpf4jnsgd1na2vs0mg"},{"bike_id":"9743fd3d-b83a-49fe-b055-16ed840cdbf1","system_id":"levelo_inurba_marseille","lat":43.299411,"lon":5.385201,"is_reserved":false,"is_disabled":true,"rental_uris":{"android":"levelo://app?vid=9743fd3d-b83a-49fe-b055-16ed840cdbf1","ios":"levelo://app?vid=9743fd3d-b83a-49fe-b055-16ed840cdbf1"},"vehicle_type_id":"4","last_reported":1758985711,"current_range_meters":10000,"station_id":"","pricing_plan_id":"cebpf4jnsgd1na2vs0mg"},{"bike_id":"43941ab2-d908-4dc0-897c-3e94d5a58d06","system_id":"levelo_inurba_marseille","lat":43.29689,"lon":5.37282,"is_reserved":false,"is_disabled":false,"rental_uris":{"android":"levelo://app?vid=43941ab2-d908-4dc0-897c-3e94d5a58d06","ios":"levelo://app?vid=43941ab2-d908-4dc0-897c-3e94d5a58d06"},"vehicle_type_id":"4","last_reported":1758985711,"current_range_meters":10000,"station_id":"ce4bgk12rcd13ifvqbj0","pricing_plan_id":"cebpf4jnsgd1na2vs0mg"},{"bike_id":"02cd8139-aa9e-4144-8d0c-7d6e570a5ef6","system_id":"levelo_inurba_marseille","lat":43.29906,"lon":5.43663,"is_reserved":false,"is_disabled":false,"rental_uris":{"android":"levelo://app?vid=02cd8139-aa9e-4144-8d0c-7d6e570a5ef6","ios":"levelo://app?vid=02cd8139-aa9e-4144-8d0c-7d6e570a5ef6"},"vehicle_type_id":"4","last_reported":1758985711,"current_range_meters":10000,"station_id":"ce4bhpp2rcd13ifvqhfg","pricing_plan_id":"cebpf4jnsgd1na2vs0mg"},{"bike_id":"9fbddd05-2989-4334-ae90-4b704f620e6e","system_id":"levelo_inurba_marseille","lat":43.25487,"lon":5.37646,"is_reserved":false,"is_disabled":false,"rental_uris":{"android":"levelo://app?vid=9fbddd05-2989-4334-ae90-4b704f620e6e","ios":"levelo://app?vid=9fbddd05-2989-4334-ae90-4b704f620e6e"},"vehicle_type_id":"4","last_reported":1758985711,"current_range_meters":10800,"station_id":"ce4bhh12rcd13ifvqff0","pricing_plan_id":"cebpf4jnsgd1na2vs0mg"},{"bike_id":"fd4b5ad5-2581-44dd-90b2-f4a8fbdc2423","system_id":"levelo_inurba_marseille","lat":43.299011,"lon":5.364989,"is_reserved":false,"is_disabled":false,"rental_uris":{"android":"levelo://app?vid=fd4b5ad5-2581-44dd-90b2-f4a8fbdc2423","ios":"levelo://app?vid=fd4b5ad5-2581-44dd-90b2-f4a8fbdc2423"},"vehicle_type_id":"4","last_reported":1758985711,"current_range_meters":10800,"station_id":"","pricing_plan_id":"cebpf4jnsgd1na2vs0mg"},{"bike_id":"cd52d724-6e36-4c8e-9efa-f35ff15b1a8b","system_id":"levelo_inurba_marseille","lat":43.3172,"lon":5.42407,"is_reserved":false,"is_disabled":false,"rental_uris":{"android":"levelo://app?vid=cd52d724-6e36-4c8e-9efa-f35ff15b1a8b","ios":"levelo://app?vid=cd52d724-6e36-4c8e-9efa-f35ff15b1a8b"},"vehicle_type_id":"4","last_reported":1758985711,"current_range_meters":10800,"station_id":"ce4bhp92rcd13ifvqhbg","pricing_plan_id":"cebpf4jnsgd1na2vs0mg"},{"bike_id":"c39b7d4e-f994-4b8f-815c-ec46e2beb5e6","system_id":"levelo_inurba_marseille","lat":43.26782,"lon":5.39412,"is_reserved":false,"is_disabled":false,"rental_uris":{"android":"levelo://app?vid=c39b7d4e-f994-4b8f-815c-ec46e2beb5e6","ios":"levelo://app?vid=c39b7d4e-f994-4b8f-815c-ec46e2beb5e6"},"vehicle_type_id":"4","last_reported":1758985711,"current_range_meters":10000,"station_id":"ce4bhh12rcd13ifvqfg0","pricing_plan_id":"cebpf4jnsgd1na2vs0mg"},{"bike_id":"ccea33ad-6ab7-4a34-96c5-31f7cdf54269","system_id":"levelo_inurba_marseille","lat":43.315325,"lon":5.367735,"is_reserved":false,"is_disabled":false,"rental_uris":{"android":"levelo://app?vid=ccea33ad-6ab7-4a34-96c5-31f7cdf54269","ios":"levelo://app?vid=ccea33ad-6ab7-4a34-96c5-31f7cdf54269"},"vehicle_type_id":"4","last_reported":1758985711,"current_range_meters":10800,"station_id":"ce4bhsh2rcd13ifvqi2g","pricing_plan_id":"cebpf4jnsgd1na2vs0mg"},{"bike_id":"0d80b8e9-b75c-4f4d-8550-097cf2543aba","system_id":"levelo_inurba_marseille","lat":43.30901,"lon":5.37187,"is_reserved":false,"is_disabled":false,"rental_uris":{"android":"levelo://app?vid=0d80b8e9-b75c-4f4d-8550-097cf2543aba","ios":"levelo://app?vid=0d80b8e9-b75c-4f4d-8550-097cf2543aba"},"vehicle_type_id":"4","last_reported":1758985711,"current_range_meters":11200,"station_id":"ce4bguh2rcd13ifvqckg","pricing_plan_id":"cebpf4jnsgd1na2vs0mg"},{"bike_id":"63d52c35-c9c9-44eb-9780-1b2f9145123b","system_id":"levelo_inurba_marseille","lat":43.29627,"lon":5.377037,"is_reserved":false,"is_disabled":false,"rental_uris":{"android":"levelo://app?vid=63d52c35-c9c9-44eb-9780-1b2f9145123b","ios":"levelo://app?vid=63d52c35-c9c9-44eb-9780-1b2f9145123b"},"vehicle_type_id":"4","last_reported":1758985711,"current_range_meters":11200,"station_id":"","pricing_plan_id":"cebpf4jnsgd1na2vs0mg"},{"bike_id":"fd7db3b2-bf6f-47a6-a193-d9e54fb8924d","system_id":"levelo_inurba_marseille","lat":43.30517,"lon":5.36668,"is_reserved":false,"is_disabled":false,"rental_uris":{"android":"levelo://app?vid=fd7db3b2-bf6f-47a6-a193-d9e54fb8924d","ios":"levelo://app?vid=fd7db3b2-bf6f-47a6-a193-d9e54fb8924d"},"vehicle_type_id":"4","last_reported":1758985711,"current_range_meters":11200,"station_id":"","pricing_plan_id":"cebpf4jnsgd1na2vs0mg"},{"bike_id":"9bb4db31-0bf9-4171-bca1-76cb045f53a3","system_id":"levelo_inurba_marseille","lat":43.26924,"lon":5.389081,"is_reserved":false,"is_disabled":false,"rental_uris":{"android":"levelo://app?vid=9bb4db31-0bf9-4171-bca1-76cb045f53a3","ios":"levelo://app?vid=9bb4db31-0bf9-4171-bca1-76cb045f53a3"},"vehicle_type_id":"4","last_reported":1758985711,"current_range_meters":11200,"station_id":"ce4bhhh2rcd13ifvqfl0","pricing_plan_id":"cebpf4jnsgd1na2vs0mg"},{"bike_id":"c286402c-896d-486e-bda1-7e7e87bd29fc","system_id":"levelo_inurba_marseille","lat":43.30366,"lon":5.42481,"is_reserved":false,"is_disabled":false,"rental_uris":{"android":"levelo://app?vid=c286402c-896d-486e-bda1-7e7e87bd29fc","ios":"levelo://app?vid=c286402c-896d-486e-bda1-7e7e87bd29fc"},"vehicle_type_id":"4","last_reported":1758985711,"current_range_meters":11200,"station_id":"ce4bhoh2rcd13ifvqh6g","pricing_plan_id":"cebpf4jnsgd1na2vs0mg"},{"bike_id":"01bf55f2-4ac6-46f6-8504-3267bf31e1a6","system_id":"levelo_inurba_marseille","lat":43.2973,"lon":5.381787,"is_reserved":false,"is_disabled":false,"rental_uris":{"android":"levelo://app?vid=01bf55f2-4ac6-46f6-8504-3267bf31e1a6","ios":"levelo://app?vid=01bf55f2-4ac6-46f6-8504-3267bf31e1a6"},"vehicle_type_id":"4","last_reported":1758985711,"current_range_meters":11200,"station_id":"","pricing_plan_id":"cebpf4jnsgd1na2vs0mg"},{"bike_id":"e6c9e7e9-8a6c-49cd-af7d-c554051b0a08","system_id":"levelo_inurba_marseille","lat":43.28419,"lon":5.34987,"is_reserved":false,"is_disabled":false,"rental_uris":{"android":"levelo://app?vid=e6c9e7e9-8a6c-49cd-af7d-c554051b0a08","ios":"levelo://app?vid=e6c9e7e9-8a6c-49cd-af7d-c554051b0a08"},"vehicle_type_id":"4","last_reported":1758985711,"current_range_meters":11200,"station_id":"ce4bhbh2rcd13ifvqepg","pricing_plan_id":"cebpf4jnsgd1na2vs0mg"},{"bike_id":"1c28470f-e877-48ba-9c26-09056d1e5ed2","system_id":"levelo_inurba_marseille","lat":43.29275,"lon":5.36853,"is_reserved":false,"is_disabled":false,"rental_uris":{"android":"levelo://app?vid=1c28470f-e877-48ba-9c26-09056d1e5ed2","ios":"levelo://app?vid=1c28470f-e877-48ba-9c26-09056d1e5ed2"},"vehicle_type_id":"4","last_reported":1758985711,"current_range_meters":11200,"station_id":"ce4bhbp2rcd13ifvqesg","pricing_plan_id":"cebpf4jnsgd1na2vs0mg"},{"bike_id":"befccaaa-4b56-49b0-8d41-b70f3ed48054","system_id":"levelo_inurba_marseille","lat":43.27056,"lon":5.40266,"is_reserved":false,"is_disabled":false,"rental_uris":{"android":"levelo://app?vid=befccaaa-4b56-49b0-8d41-b70f3ed48054","ios":"levelo://app?vid=befccaaa-4b56-49b0-8d41-b70f3ed48054"},"vehicle_type_id":"4","last_reported":1758985711,"current_range_meters":11600,"station_id":"ce4bhk92rcd13ifvqgc0","pricing_plan_id":"cebpf4jnsgd1na2vs0mg"},{"bike_id":"96b33dc2-b609-483c-a0c9-0fd5b0197342","system_id":"levelo_inurba_marseille","lat":43.28462,"lon":5.35882,"is_reserved":false,"is_disabled":false,"rental_uris":{"android":"levelo://app?vid=96b33dc2-b609-483c-a0c9-0fd5b0197342","ios":"levelo://app?vid=96b33dc2-b609-483c-a0c9-0fd5b0197342"},"vehicle_type_id":"4","last_reported":1758985711,"current_range_meters":11200,"station_id":"ce4bhah2rcd13ifvqei0","pricing_plan_id":"cebpf4jnsgd1na2vs0mg"},{"bike_id":"3f51e03c-3abb-4dde-8cdd-da596aa3252f","system_id":"levelo_inurba_marseille","lat":43.27666,"lon":5.38907,"is_reserved":false,"is_disabled":true,"rental_uris":{"android":"levelo://app?vid=3f51e03c-3abb-4dde-8cdd-da596aa3252f","ios":"levelo://app?vid=3f51e03c-3abb-4dde-8cdd-da596aa3252f"},"vehicle_type_id":"4","last_reported":1758985711,"current_range_meters":11600,"station_id":"ce4bhi12rcd13ifvqfo0","pricing_plan_id":"cebpf4jnsgd1na2vs0mg"},{"bike_id":"aad593ae-c6d9-40ea-8439-23991b3680e8","system_id":"levelo_inurba_marseille","lat":43.21183,"lon":5.35073,"is_reserved":false,"is_disabled":false,"rental_uris":{"android":"levelo://app?vid=aad593ae-c6d9-40ea-8439-23991b3680e8","ios":"levelo://app?vid=aad593ae-c6d9-40ea-8439-23991b3680e8"},"vehicle_type_id":"4","last_reported":1758985711,"current_range_meters":11600,"station_id":"st_cvj6sg6p6f1abm77japg","pricing_plan_id":"cebpf4jnsgd1na2vs0mg"},{"bike_id":"5e1050a1-ccb8-43c5-acf0-b4a273596534","system_id":"levelo_inurba_marseille","lat":43.2415,"lon":5.36404,"is_reserved":false,"is_disabled":false,"rental_uris":{"android":"levelo://app?vid=5e1050a1-ccb8-43c5-acf0-b4a273596534","ios":"levelo://app?vid=5e1050a1-ccb8-43c5-acf0-b4a273596534"},"vehicle_type_id":"4","last_reported":1758985711,"current_range_meters":11600,"station_id":"cpo36qri1sfpv3e86is0","pricing_plan_id":"cebpf4jnsgd1na2vs0mg"},{"bike_id":"1c14f608-9eb0-4b58-8221-e6e5ed28265b","system_id":"levelo_inurba_marseille","lat":43.24359,"lon":5.3712,"is_reserved":false,"is_disabled":false,"rental_uris":{"android":"levelo://app?vid=1c14f608-9eb0-4b58-8221-e6e5ed28265b","ios":"levelo://app?vid=1c14f608-9eb0-4b58-8221-e6e5ed28265b"},"vehicle_type_id":"4","last_reported":1758985711,"current_range_meters":11600,"station_id":"ce4bhhh2rcd13ifvqfk0","pricing_plan_id":"cebpf4jnsgd1na2vs0mg"},{"bike_id":"456626cb-c655-41c4-930e-709cc96e1c3e","system_id":"levelo_inurba_marseille","lat":43.32658,"lon":5.40996,"is_reserved":false,"is_disabled":false,"rental_uris":{"android":"levelo://app?vid=456626cb-c655-41c4-930e-709cc96e1c3e","ios":"levelo://app?vid=456626cb-c655-41c4-930e-709cc96e1c3e"},"vehicle_type_id":"4","last_reported":1758985711,"current_range_meters":12000,"station_id":"ce4bhpp2rcd13ifvqhgg","pricing_plan_id":"cebpf4jnsgd1na2vs0mg"},{"bike_id":"26293089-e827-4a91-b336-c1833ecbc843","system_id":"levelo_inurba_marseille","lat":43.21737,"lon":5.34624,"is_reserved":false,"is_disabled":false,"rental_uris":{"android":"levelo://app?vid=26293089-e827-4a91-b336-c1833ecbc843","ios":"levelo://app?vid=26293089-e827-4a91-b336-c1833ecbc843"},"vehicle_type_id":"4","last_reported":1758985711,"current_range_meters":12000,"station_id":"st_cvj6r9ubvosntc0bgbag","pricing_plan_id":"cebpf4jnsgd1na2vs0mg"},{"bike_id":"10214b51-40da-4f32-b4d7-c6e7f4b2f81a","system_id":"levelo_inurba_marseille","lat":43.21738,"lon":5.34614,"is_reserved":false,"is_disabled":false,"rental_uris":{"android":"levelo://app?vid=10214b51-40da-4f32-b4d7-c6e7f4b2f81a","ios":"levelo://app?vid=10214b51-40da-4f32-b4d7-c6e7f4b2f81a"},"vehicle_type_id":"4","last_reported":1758985711,"current_range_meters":12400,"station_id":"st_cvj6r9ubvosntc0bgbag","pricing_plan_id":"cebpf4jnsgd1na2vs0mg"},{"bike_id":"052c59a7-1cc4-4bbc-97f5-180981a63118","system_id":"levelo_inurba_marseille","lat":43.24624,"lon":5.43166,"is_reserved":false,"is_disabled":false,"rental_uris":{"android":"levelo://app?vid=052c59a7-1cc4-4bbc-97f5-180981a63118","ios":"levelo://app?vid=052c59a7-1cc4-4bbc-97f5-180981a63118"},"vehicle_type_id":"4","last_reported":1758985711,"current_range_meters":12000,"station_id":"st_d2m6c4gdas8pm72e190g","pricing_plan_id":"cebpf4jnsgd1na2vs0mg"},{"bike_id":"80bdba63-46f3-4274-b0d9-d9711409b6a8","system_id":"levelo_inurba_marseille","lat":43.270752,"lon":5.402497,"is_reserved":false,"is_disabled":false,"rental_uris":{"android":"levelo://app?vid=80bdba63-46f3-4274-b0d9-d9711409b6a8","ios":"levelo://app?vid=80bdba63-46f3-4274-b0d9-d9711409b6a8"},"vehicle_type_id":"4","last_reported":1758985711,"current_range_meters":12000,"station_id":"","pricing_plan_id":"cebpf4jnsgd1na2vs0mg"},{"bike_id":"e1b21af0-faf6-4dcf-b1af-d812fc2cf574","system_id":"levelo_inurba_marseille","lat":43.24389,"lon":5.37062,"is_reserved":false,"is_disabled":false,"rental_uris":{"android":"levelo://app?vid=e1b21af0-faf6-4dcf-b1af-d812fc2cf574","ios":"levelo://app?vid=e1b21af0-faf6-4dcf-b1af-d812fc2cf574"},"vehicle_type_id":"4","last_reported":1758985711,"current_range_meters":12000,"station_id":"ce4bhhh2rcd13ifvqfk0","pricing_plan_id":"cebpf4jnsgd1na2vs0mg"},{"bike_id":"d2a79f0c-c7fb-406a-9826-a7171d853221","system_id":"levelo_inurba_marseille","lat":43.297569,"lon":5.371178,"is_reserved":false,"is_disabled":false,"rental_uris":{"android":"levelo://app?vid=d2a79f0c-c7fb-406a-9826-a7171d853221","ios":"levelo://app?vid=d2a79f0c-c7fb-406a-9826-a7171d853221"},"vehicle_type_id":"4","last_reported":1758985711,"current_range_meters":12000,"station_id":"ce4bgop2rcd13ifvqc1g","pricing_plan_id":"cebpf4jnsgd1na2vs0mg"},{"bike_id":"707c9825-3671-4dda-ab57-90639a798fff","system_id":"levelo_inurba_marseille","lat":43.31366,"lon":5.38491,"is_reserved":false,"is_disabled":false,"rental_uris":{"android":"levelo://app?vid=707c9825-3671-4dda-ab57-90639a798fff","ios":"levelo://app?vid=707c9825-3671-4dda-ab57-90639a798fff"},"vehicle_type_id":"4","last_reported":1758985711,"current_range_meters":12000,"station_id":"ce4bgt92rcd13ifvqcf0","pricing_plan_id":"cebpf4jnsgd1na2vs0mg"},{"bike_id":"934ea1ec-b7f6-49a1-9efa-287317d4eb22","system_id":"levelo_inurba_marseille","lat":43.29048,"lon":5.35914,"is_reserved":false,"is_disabled":false,"rental_uris":{"android":"levelo://app?vid=934ea1ec-b7f6-49a1-9efa-287317d4eb22","ios":"levelo://app?vid=934ea1ec-b7f6-49a1-9efa-287317d4eb22"},"vehicle_type_id":"4","last_reported":1758985711,"current_range_meters":12400,"station_id":"","pricing_plan_id":"cebpf4jnsgd1na2vs0mg"},{"bike_id":"8f512fef-4ee9-4a04-89ed-755460ef284d","system_id":"levelo_inurba_marseille","lat":43.29519,"lon":5.37508,"is_reserved":false,"is_disabled":false,"rental_uris":{"android":"levelo://app?vid=8f512fef-4ee9-4a04-89ed-755460ef284d","ios":"levelo://app?vid=8f512fef-4ee9-4a04-89ed-755460ef284d"},"vehicle_type_id":"4","last_reported":1758985711,"current_range_meters":12400,"station_id":"ce4bgkp2rcd13ifvqbmg","pricing_plan_id":"cebpf4jnsgd1na2vs0mg"},{"bike_id":"5bb42022-0e19-48bc-a5b4-218bb1d7482e","system_id":"levelo_inurba_marseille","lat":43.31163,"lon":5.3782,"is_reserved":false,"is_disabled":false,"rental_uris":{"android":"levelo://app?vid=5bb42022-0e19-48bc-a5b4-218bb1d7482e","ios":"levelo://app?vid=5bb42022-0e19-48bc-a5b4-218bb1d7482e"},"vehicle_type_id":"4","last_reported":1758985711,"current_range_meters":12400,"station_id":"","pricing_plan_id":"cebpf4jnsgd1na2vs0mg"},{"bike_id":"4a846cef-6b69-4d86-98dd-7d974b7c24ad","system_id":"levelo_inurba_marseille","lat":43.27428,"lon":5.39405,"is_reserved":false,"is_disabled":false,"rental_uris":{"android":"levelo://app?vid=4a846cef-6b69-4d86-98dd-7d974b7c24ad","ios":"levelo://app?vid=4a846cef-6b69-4d86-98dd-7d974b7c24ad"},"vehicle_type_id":"4","last_reported":1758985711,"current_range_meters":12400,"station_id":"ce4bhdp2rcd13ifvqf20","pricing_plan_id":"cebpf4jnsgd1na2vs0mg"},{"bike_id":"d7720e15-3e8d-4ddf-bc70-8dce8a1e1d42","system_id":"levelo_inurba_marseille","lat":43.2322,"lon":5.3552,"is_reserved":false,"is_disabled":false,"rental_uris":{"android":"levelo://app?vid=d7720e15-3e8d-4ddf-bc70-8dce8a1e1d42","ios":"levelo://app?vid=d7720e15-3e8d-4ddf-bc70-8dce8a1e1d42"},"vehicle_type_id":"4","last_reported":1758985711,"current_range_meters":12400,"station_id":"ce4bhu92rcd13ifvqi70","pricing_plan_id":"cebpf4jnsgd1na2vs0mg"},{"bike_id":"88708a69-7464-415f-a934-1a433f4adfc1","system_id":"levelo_inurba_marseille","lat":43.317587,"lon":5.390157,"is_reserved":false,"is_disabled":false,"rental_uris":{"android":"levelo://app?vid=88708a69-7464-415f-a934-1a433f4adfc1","ios":"levelo://app?vid=88708a69-7464-415f-a934-1a433f4adfc1"},"vehicle_type_id":"4","last_reported":1758985711,"current_range_meters":12000,"station_id":"ce4bhqp2rcd13ifvqhng","pricing_plan_id":"cebpf4jnsgd1na2vs0mg"},{"bike_id":"360c0746-c854-4629-884f-7c911de53d9d","system_id":"levelo_inurba_marseille","lat":43.31216,"lon":5.3797,"is_reserved":false,"is_disabled":false,"rental_uris":{"android":"levelo://app?vid=360c0746-c854-4629-884f-7c911de53d9d","ios":"levelo://app?vid=360c0746-c854-4629-884f-7c911de53d9d"},"vehicle_type_id":"4","last_reported":1758985711,"current_range_meters":12800,"station_id":"","pricing_plan_id":"cebpf4jnsgd1na2vs0mg"},{"bike_id":"9de5eb4a-2bba-4d94-b5d2-50807c7d8cc2","system_id":"levelo_inurba_marseille","lat":43.22534,"lon":5.34839,"is_reserved":false,"is_disabled":false,"rental_uris":{"android":"levelo://app?vid=9de5eb4a-2bba-4d94-b5d2-50807c7d8cc2","ios":"levelo://app?vid=9de5eb4a-2bba-4d94-b5d2-50807c7d8cc2"},"vehicle_type_id":"4","last_reported":1758985711,"current_range_meters":12800,"station_id":"","pricing_plan_id":"cebpf4jnsgd1na2vs0mg"},{"bike_id":"720623f7-9148-4a0e-ade4-a205c6fa44f0","system_id":"levelo_inurba_marseille","lat":43.28979,"lon":5.42912,"is_reserved":false,"is_disabled":false,"rental_uris":{"android":"levelo://app?vid=720623f7-9148-4a0e-ade4-a205c6fa44f0","ios":"levelo://app?vid=720623f7-9148-4a0e-ade4-a205c6fa44f0"},"vehicle_type_id":"4","last_reported":1758985711,"current_range_meters":13600,"station_id":"","pricing_plan_id":"cebpf4jnsgd1na2vs0mg"},{"bike_id":"f6314e0b-a5c4-44fd-b20d-fb8be0ba0651","system_id":"levelo_inurba_marseille","lat":43.29264,"lon":5.40906,"is_reserved":false,"is_disabled":false,"rental_uris":{"android":"levelo://app?vid=f6314e0b-a5c4-44fd-b20d-fb8be0ba0651","ios":"levelo://app?vid=f6314e0b-a5c4-44fd-b20d-fb8be0ba0651"},"vehicle_type_id":"4","last_reported":1758985711,"current_range_meters":12800,"station_id":"ce4bh192rcd13ifvqdc0","pricing_plan_id":"cebpf4jnsgd1na2vs0mg"},{"bike_id":"6f2a8670-25c3-41db-bde8-c63bdd9113dd","system_id":"levelo_inurba_marseille","lat":43.28158,"lon":5.42644,"is_reserved":false,"is_disabled":false,"rental_uris":{"android":"levelo://app?vid=6f2a8670-25c3-41db-bde8-c63bdd9113dd","ios":"levelo://app?vid=6f2a8670-25c3-41db-bde8-c63bdd9113dd"},"vehicle_type_id":"4","last_reported":1758985711,"current_range_meters":12800,"station_id":"ce4bhnh2rcd13ifvqgug","pricing_plan_id":"cebpf4jnsgd1na2vs0mg"},{"bike_id":"1c4ec14f-ef26-439e-9e77-acde20978ec0","system_id":"levelo_inurba_marseille","lat":43.23197,"lon":5.39959,"is_reserved":false,"is_disabled":false,"rental_uris":{"android":"levelo://app?vid=1c4ec14f-ef26-439e-9e77-acde20978ec0","ios":"levelo://app?vid=1c4ec14f-ef26-439e-9e77-acde20978ec0"},"vehicle_type_id":"4","last_reported":1758985711,"current_range_meters":12800,"station_id":"ce4bhn12rcd13ifvqgqg","pricing_plan_id":"cebpf4jnsgd1na2vs0mg"},{"bike_id":"46ac5fb6-ac2e-43e8-84c9-c4e46889ea29","system_id":"levelo_inurba_marseille","lat":43.21223,"lon":5.35079,"is_reserved":false,"is_disabled":false,"rental_uris":{"android":"levelo://app?vid=46ac5fb6-ac2e-43e8-84c9-c4e46889ea29","ios":"levelo://app?vid=46ac5fb6-ac2e-43e8-84c9-c4e46889ea29"},"vehicle_type_id":"4","last_reported":1758985711,"current_range_meters":12800,"station_id":"st_cvj6sg6p6f1abm77japg","pricing_plan_id":"cebpf4jnsgd1na2vs0mg"},{"bike_id":"03350417-1098-4d6c-b8fe-9e64358744bf","system_id":"levelo_inurba_marseille","lat":43.31116,"lon":5.37597,"is_reserved":false,"is_disabled":false,"rental_uris":{"android":"levelo://app?vid=03350417-1098-4d6c-b8fe-9e64358744bf","ios":"levelo://app?vid=03350417-1098-4d6c-b8fe-9e64358744bf"},"vehicle_type_id":"4","last_reported":1758985711,"current_range_meters":12800,"station_id":"","pricing_plan_id":"cebpf4jnsgd1na2vs0mg"},{"bike_id":"71649b2c-48f8-4b8a-b9c0-477bd83fa14b","system_id":"levelo_inurba_marseille","lat":43.28424,"lon":5.34979,"is_reserved":false,"is_disabled":false,"rental_uris":{"android":"levelo://app?vid=71649b2c-48f8-4b8a-b9c0-477bd83fa14b","ios":"levelo://app?vid=71649b2c-48f8-4b8a-b9c0-477bd83fa14b"},"vehicle_type_id":"4","last_reported":1758985711,"current_range_meters":13600,"station_id":"ce4bhbh2rcd13ifvqepg","pricing_plan_id":"cebpf4jnsgd1na2vs0mg"},{"bike_id":"cd119ae5-1417-41f1-a8e2-920696e70b86","system_id":"levelo_inurba_marseille","lat":43.225688,"lon":5.416317,"is_reserved":false,"is_disabled":false,"rental_uris":{"android":"levelo://app?vid=cd119ae5-1417-41f1-a8e2-920696e70b86","ios":"levelo://app?vid=cd119ae5-1417-41f1-a8e2-920696e70b86"},"vehicle_type_id":"4","last_reported":1758985711,"current_range_meters":13600,"station_id":"st_d2o4gvlbi1j2169b742g","pricing_plan_id":"cebpf4jnsgd1na2vs0mg"},{"bike_id":"6ef3024a-2129-46d2-8f53-f8c4119ef86c","system_id":"levelo_inurba_marseille","lat":43.22928,"lon":5.3538,"is_reserved":false,"is_disabled":false,"rental_uris":{"android":"levelo://app?vid=6ef3024a-2129-46d2-8f53-f8c4119ef86c","ios":"levelo://app?vid=6ef3024a-2129-46d2-8f53-f8c4119ef86c"},"vehicle_type_id":"4","last_reported":1758985711,"current_range_meters":13600,"station_id":"cpo3532slgdg3j2ikp40","pricing_plan_id":"cebpf4jnsgd1na2vs0mg"},{"bike_id":"2a7adc97-2b29-41e1-8a87-0ddee422e867","system_id":"levelo_inurba_marseille","lat":43.32349,"lon":5.36724,"is_reserved":false,"is_disabled":false,"rental_uris":{"android":"levelo://app?vid=2a7adc97-2b29-41e1-8a87-0ddee422e867","ios":"levelo://app?vid=2a7adc97-2b29-41e1-8a87-0ddee422e867"},"vehicle_type_id":"4","last_reported":1758985711,"current_range_meters":13600,"station_id":"ce4bhsh2rcd13ifvqi2g","pricing_plan_id":"cebpf4jnsgd1na2vs0mg"},{"bike_id":"a79771f7-9547-42c9-9edd-e8630ba14d95","system_id":"levelo_inurba_marseille","lat":43.23197,"lon":5.35524,"is_reserved":false,"is_disabled":false,"rental_uris":{"android":"levelo://app?vid=a79771f7-9547-42c9-9edd-e8630ba14d95","ios":"levelo://app?vid=a79771f7-9547-42c9-9edd-e8630ba14d95"},"vehicle_type_id":"4","last_reported":1758985711,"current_range_meters":13600,"station_id":"ce4bhu92rcd13ifvqi70","pricing_plan_id":"cebpf4jnsgd1na2vs0mg"},{"bike_id":"367cc5de-fbd0-47d1-8fa2-cb83d9fcf585","system_id":"levelo_inurba_marseille","lat":43.25745,"lon":5.39557,"is_reserved":false,"is_disabled":false,"rental_uris":{"android":"levelo://app?vid=367cc5de-fbd0-47d1-8fa2-cb83d9fcf585","ios":"levelo://app?vid=367cc5de-fbd0-47d1-8fa2-cb83d9fcf585"},"vehicle_type_id":"4","last_reported":1758985711,"current_range_meters":13600,"station_id":"","pricing_plan_id":"cebpf4jnsgd1na2vs0mg"},{"bike_id":"695662ab-65fe-4c59-81b6-3dceb9f5066d","system_id":"levelo_inurba_marseille","lat":43.25571,"lon":5.38266,"is_reserved":false,"is_disabled":true,"rental_uris":{"android":"levelo://app?vid=695662ab-65fe-4c59-81b6-3dceb9f5066d","ios":"levelo://app?vid=695662ab-65fe-4c59-81b6-3dceb9f5066d"},"vehicle_type_id":"4","last_reported":1758985711,"current_range_meters":13600,"station_id":"ce4bhih2rcd13ifvqfs0","pricing_plan_id":"cebpf4jnsgd1na2vs0mg"},{"bike_id":"759c991d-4906-4370-a4b2-7bf10ab7b8e0","system_id":"levelo_inurba_marseille","lat":43.27375,"lon":5.36256,"is_reserved":false,"is_disabled":false,"rental_uris":{"android":"levelo://app?vid=759c991d-4906-4370-a4b2-7bf10ab7b8e0","ios":"levelo://app?vid=759c991d-4906-4370-a4b2-7bf10ab7b8e0"},"vehicle_type_id":"4","last_reported":1758985711,"current_range_meters":13600,"station_id":"ce4bhbh2rcd13ifvqeo0","pricing_plan_id":"cebpf4jnsgd1na2vs0mg"},{"bike_id":"9feae468-b8bd-422a-8fcb-2d68fc5ee82c","system_id":"levelo_inurba_marseille","lat":43.3339,"lon":5.42019,"is_reserved":false,"is_disabled":false,"rental_uris":{"android":"levelo://app?vid=9feae468-b8bd-422a-8fcb-2d68fc5ee82c","ios":"levelo://app?vid=9feae468-b8bd-422a-8fcb-2d68fc5ee82c"},"vehicle_type_id":"4","last_reported":1758985711,"current_range_meters":14000,"station_id":"","pricing_plan_id":"cebpf4jnsgd1na2vs0mg"},{"bike_id":"349977c5-2efd-48ed-8dd8-9cfd0d464679","system_id":"levelo_inurba_marseille","lat":43.21193,"lon":5.35083,"is_reserved":false,"is_disabled":false,"rental_uris":{"android":"levelo://app?vid=349977c5-2efd-48ed-8dd8-9cfd0d464679","ios":"levelo://app?vid=349977c5-2efd-48ed-8dd8-9cfd0d464679"},"vehicle_type_id":"4","last_reported":1758985711,"current_range_meters":14000,"station_id":"st_cvj6sg6p6f1abm77japg","pricing_plan_id":"cebpf4jnsgd1na2vs0mg"},{"bike_id":"fb1f00f0-4275-4c6e-8a59-3367c7a547e7","system_id":"levelo_inurba_marseille","lat":43.24643,"lon":5.38882,"is_reserved":false,"is_disabled":false,"rental_uris":{"android":"levelo://app?vid=fb1f00f0-4275-4c6e-8a59-3367c7a547e7","ios":"levelo://app?vid=fb1f00f0-4275-4c6e-8a59-3367c7a547e7"},"vehicle_type_id":"4","last_reported":1758985711,"current_range_meters":14000,"station_id":"ce4bhg12rcd13ifvqf60","pricing_plan_id":"cebpf4jnsgd1na2vs0mg"},{"bike_id":"041ae0e6-01b7-4c46-a9e7-54eeab6f9699","system_id":"levelo_inurba_marseille","lat":43.284111,"lon":5.34971,"is_reserved":false,"is_disabled":false,"rental_uris":{"android":"levelo://app?vid=041ae0e6-01b7-4c46-a9e7-54eeab6f9699","ios":"levelo://app?vid=041ae0e6-01b7-4c46-a9e7-54eeab6f9699"},"vehicle_type_id":"4","last_reported":1758985711,"current_range_meters":14000,"station_id":"ce4bhbh2rcd13ifvqepg","pricing_plan_id":"cebpf4jnsgd1na2vs0mg"},{"bike_id":"bc48c9cb-13b1-4ab4-970e-68b4c58d6cd1","system_id":"levelo_inurba_marseille","lat":43.21745,"lon":5.34601,"is_reserved":false,"is_disabled":false,"rental_uris":{"android":"levelo://app?vid=bc48c9cb-13b1-4ab4-970e-68b4c58d6cd1","ios":"levelo://app?vid=bc48c9cb-13b1-4ab4-970e-68b4c58d6cd1"},"vehicle_type_id":"4","last_reported":1758985711,"current_range_meters":14000,"station_id":"st_cvj6r9ubvosntc0bgbag","pricing_plan_id":"cebpf4jnsgd1na2vs0mg"},{"bike_id":"6ea7e838-2bf7-468a-bf5e-4dca1ea96177","system_id":"levelo_inurba_marseille","lat":43.21748,"lon":5.34602,"is_reserved":false,"is_disabled":false,"rental_uris":{"android":"levelo://app?vid=6ea7e838-2bf7-468a-bf5e-4dca1ea96177","ios":"levelo://app?vid=6ea7e838-2bf7-468a-bf5e-4dca1ea96177"},"vehicle_type_id":"4","last_reported":1758985711,"current_range_meters":14000,"station_id":"st_cvj6r9ubvosntc0bgbag","pricing_plan_id":"cebpf4jnsgd1na2vs0mg"},{"bike_id":"14da1355-4d67-4829-9350-a9d20bf1d1a9","system_id":"levelo_inurba_marseille","lat":43.306456,"lon":5.40094,"is_reserved":false,"is_disabled":false,"rental_uris":{"android":"levelo://app?vid=14da1355-4d67-4829-9350-a9d20bf1d1a9","ios":"levelo://app?vid=14da1355-4d67-4829-9350-a9d20bf1d1a9"},"vehicle_type_id":"4","last_reported":1758985711,"current_range_meters":14000,"station_id":"ce4bh112rcd13ifvqda0","pricing_plan_id":"cebpf4jnsgd1na2vs0mg"},{"bike_id":"ea3ad4d1-662c-4032-8511-d541290c4648","system_id":"levelo_inurba_marseille","lat":43.28269,"lon":5.35067,"is_reserved":false,"is_disabled":false,"rental_uris":{"android":"levelo://app?vid=ea3ad4d1-662c-4032-8511-d541290c4648","ios":"levelo://app?vid=ea3ad4d1-662c-4032-8511-d541290c4648"},"vehicle_type_id":"4","last_reported":1758985711,"current_range_meters":14000,"station_id":"ce4bhbp2rcd13ifvqerg","pricing_plan_id":"cebpf4jnsgd1na2vs0mg"},{"bike_id":"3374a858-b919-4f37-b6b7-508ab13a8fee","system_id":"levelo_inurba_marseille","lat":43.24389,"lon":5.37068,"is_reserved":false,"is_disabled":false,"rental_uris":{"android":"levelo://app?vid=3374a858-b919-4f37-b6b7-508ab13a8fee","ios":"levelo://app?vid=3374a858-b919-4f37-b6b7-508ab13a8fee"},"vehicle_type_id":"4","last_reported":1758985711,"current_range_meters":14400,"station_id":"ce4bhhh2rcd13ifvqfk0","pricing_plan_id":"cebpf4jnsgd1na2vs0mg"},{"bike_id":"6d4fa21f-0f41-49ae-93a6-059b63d3c466","system_id":"levelo_inurba_marseille","lat":43.23963,"lon":5.36621,"is_reserved":false,"is_disabled":false,"rental_uris":{"android":"levelo://app?vid=6d4fa21f-0f41-49ae-93a6-059b63d3c466","ios":"levelo://app?vid=6d4fa21f-0f41-49ae-93a6-059b63d3c466"},"vehicle_type_id":"4","last_reported":1758985711,"current_range_meters":14800,"station_id":"ce4bhi12rcd13ifvqfp0","pricing_plan_id":"cebpf4jnsgd1na2vs0mg"},{"bike_id":"59dbe335-3513-43ec-a383-b1d03a5c4c38","system_id":"levelo_inurba_marseille","lat":43.30301,"lon":5.39217,"is_reserved":false,"is_disabled":false,"rental_uris":{"android":"levelo://app?vid=59dbe335-3513-43ec-a383-b1d03a5c4c38","ios":"levelo://app?vid=59dbe335-3513-43ec-a383-b1d03a5c4c38"},"vehicle_type_id":"4","last_reported":1758985711,"current_range_meters":14400,"station_id":"ce4bgkh2rcd13ifvqbk0","pricing_plan_id":"cebpf4jnsgd1na2vs0mg"},{"bike_id":"a35b5087-e8d6-4cff-ba8a-b4b8beb29196","system_id":"levelo_inurba_marseille","lat":43.241725,"lon":5.363962,"is_reserved":false,"is_disabled":false,"rental_uris":{"android":"levelo://app?vid=a35b5087-e8d6-4cff-ba8a-b4b8beb29196","ios":"levelo://app?vid=a35b5087-e8d6-4cff-ba8a-b4b8beb29196"},"vehicle_type_id":"4","last_reported":1758985711,"current_range_meters":14400,"station_id":"cpo36qri1sfpv3e86is0","pricing_plan_id":"cebpf4jnsgd1na2vs0mg"},{"bike_id":"0e688cb7-c0aa-4626-b449-e15f2f173be7","system_id":"levelo_inurba_marseille","lat":43.26643,"lon":5.38271,"is_reserved":false,"is_disabled":false,"rental_uris":{"android":"levelo://app?vid=0e688cb7-c0aa-4626-b449-e15f2f173be7","ios":"levelo://app?vid=0e688cb7-c0aa-4626-b449-e15f2f173be7"},"vehicle_type_id":"4","last_reported":1758985711,"current_range_meters":14800,"station_id":"ce4bhg92rcd13ifvqf90","pricing_plan_id":"cebpf4jnsgd1na2vs0mg"},{"bike_id":"40071427-3dc4-4250-b7f9-f582d39547d5","system_id":"levelo_inurba_marseille","lat":43.28614,"lon":5.3511,"is_reserved":false,"is_disabled":false,"rental_uris":{"android":"levelo://app?vid=40071427-3dc4-4250-b7f9-f582d39547d5","ios":"levelo://app?vid=40071427-3dc4-4250-b7f9-f582d39547d5"},"vehicle_type_id":"4","last_reported":1758985711,"current_range_meters":14800,"station_id":"ce4bhch2rcd13ifvqeug","pricing_plan_id":"cebpf4jnsgd1na2vs0mg"},{"bike_id":"dbde707b-9342-4b19-9f9f-3235df7805f2","system_id":"levelo_inurba_marseille","lat":43.26561,"lon":5.3728,"is_reserved":false,"is_disabled":false,"rental_uris":{"android":"levelo://app?vid=dbde707b-9342-4b19-9f9f-3235df7805f2","ios":"levelo://app?vid=dbde707b-9342-4b19-9f9f-3235df7805f2"},"vehicle_type_id":"4","last_reported":1758985711,"current_range_meters":14800,"station_id":"ce4bhg12rcd13ifvqf70","pricing_plan_id":"cebpf4jnsgd1na2vs0mg"},{"bike_id":"7a9821bc-a2fe-45d1-8a60-a0192f399340","system_id":"levelo_inurba_marseille","lat":43.30638,"lon":5.40067,"is_reserved":false,"is_disabled":false,"rental_uris":{"android":"levelo://app?vid=7a9821bc-a2fe-45d1-8a60-a0192f399340","ios":"levelo://app?vid=7a9821bc-a2fe-45d1-8a60-a0192f399340"},"vehicle_type_id":"4","last_reported":1758985711,"current_range_meters":14800,"station_id":"ce4bh112rcd13ifvqda0","pricing_plan_id":"cebpf4jnsgd1na2vs0mg"},{"bike_id":"8c57add6-9585-4279-81d0-bcfd5e52d359","system_id":"levelo_inurba_marseille","lat":43.23965,"lon":5.3663,"is_reserved":false,"is_disabled":false,"rental_uris":{"android":"levelo://app?vid=8c57add6-9585-4279-81d0-bcfd5e52d359","ios":"levelo://app?vid=8c57add6-9585-4279-81d0-bcfd5e52d359"},"vehicle_type_id":"4","last_reported":1758985711,"current_range_meters":14800,"station_id":"ce4bhi12rcd13ifvqfp0","pricing_plan_id":"cebpf4jnsgd1na2vs0mg"},{"bike_id":"804751d6-92e8-42de-824b-829236914131","system_id":"levelo_inurba_marseille","lat":43.23968,"lon":5.36626,"is_reserved":false,"is_disabled":false,"rental_uris":{"android":"levelo://app?vid=804751d6-92e8-42de-824b-829236914131","ios":"levelo://app?vid=804751d6-92e8-42de-824b-829236914131"},"vehicle_type_id":"4","last_reported":1758985711,"current_range_meters":14800,"station_id":"ce4bhi12rcd13ifvqfp0","pricing_plan_id":"cebpf4jnsgd1na2vs0mg"},{"bike_id":"5b889bea-626d-4698-89ea-f17d22b9b0ae","system_id":"levelo_inurba_marseille","lat":43.2454,"lon":5.39531,"is_reserved":false,"is_disabled":false,"rental_uris":{"android":"levelo://app?vid=5b889bea-626d-4698-89ea-f17d22b9b0ae","ios":"levelo://app?vid=5b889bea-626d-4698-89ea-f17d22b9b0ae"},"vehicle_type_id":"4","last_reported":1758985711,"current_range_meters":14400,"station_id":"ce4bhlp2rcd13ifvqgjg","pricing_plan_id":"cebpf4jnsgd1na2vs0mg"},{"bike_id":"51e288cf-12c7-4fce-b6d6-5e87a4a86e40","system_id":"levelo_inurba_marseille","lat":43.29261,"lon":5.37619,"is_reserved":false,"is_disabled":false,"rental_uris":{"android":"levelo://app?vid=51e288cf-12c7-4fce-b6d6-5e87a4a86e40","ios":"levelo://app?vid=51e288cf-12c7-4fce-b6d6-5e87a4a86e40"},"vehicle_type_id":"4","last_reported":1758985711,"current_range_meters":15200,"station_id":"ce4bgi12rcd13ifvqb80","pricing_plan_id":"cebpf4jnsgd1na2vs0mg"},{"bike_id":"a5eb6b1c-4986-42c7-b3d8-8da34ebe8ad1","system_id":"levelo_inurba_marseille","lat":43.27222,"lon":5.39187,"is_reserved":false,"is_disabled":false,"rental_uris":{"android":"levelo://app?vid=a5eb6b1c-4986-42c7-b3d8-8da34ebe8ad1","ios":"levelo://app?vid=a5eb6b1c-4986-42c7-b3d8-8da34ebe8ad1"},"vehicle_type_id":"4","last_reported":1758985711,"current_range_meters":15200,"station_id":"ce4bhhp2rcd13ifvqfm0","pricing_plan_id":"cebpf4jnsgd1na2vs0mg"},{"bike_id":"dc4883ea-8f06-44d1-8b3d-6660e39a87ec","system_id":"levelo_inurba_marseille","lat":43.22936,"lon":5.35382,"is_reserved":false,"is_disabled":true,"rental_uris":{"android":"levelo://app?vid=dc4883ea-8f06-44d1-8b3d-6660e39a87ec","ios":"levelo://app?vid=dc4883ea-8f06-44d1-8b3d-6660e39a87ec"},"vehicle_type_id":"4","last_reported":1758985711,"current_range_meters":15200,"station_id":"cpo3532slgdg3j2ikp40","pricing_plan_id":"cebpf4jnsgd1na2vs0mg"},{"bike_id":"40160ca7-1c86-416c-acdd-981ef869ed29","system_id":"levelo_inurba_marseille","lat":43.23193,"lon":5.35549,"is_reserved":false,"is_disabled":false,"rental_uris":{"android":"levelo://app?vid=40160ca7-1c86-416c-acdd-981ef869ed29","ios":"levelo://app?vid=40160ca7-1c86-416c-acdd-981ef869ed29"},"vehicle_type_id":"4","last_reported":1758985711,"current_range_meters":15200,"station_id":"ce4bhu92rcd13ifvqi70","pricing_plan_id":"cebpf4jnsgd1na2vs0mg"},{"bike_id":"647e3f4c-403c-49e0-994c-e38c89a2fd87","system_id":"levelo_inurba_marseille","lat":43.2417,"lon":5.36396,"is_reserved":false,"is_disabled":false,"rental_uris":{"android":"levelo://app?vid=647e3f4c-403c-49e0-994c-e38c89a2fd87","ios":"levelo://app?vid=647e3f4c-403c-49e0-994c-e38c89a2fd87"},"vehicle_type_id":"4","last_reported":1758985711,"current_range_meters":15200,"station_id":"cpo36qri1sfpv3e86is0","pricing_plan_id":"cebpf4jnsgd1na2vs0mg"},{"bike_id":"4c02c545-ad59-45b1-9b9c-d3678a5922c7","system_id":"levelo_inurba_marseille","lat":43.337444,"lon":5.374475,"is_reserved":false,"is_disabled":false,"rental_uris":{"android":"levelo://app?vid=4c02c545-ad59-45b1-9b9c-d3678a5922c7","ios":"levelo://app?vid=4c02c545-ad59-45b1-9b9c-d3678a5922c7"},"vehicle_type_id":"4","last_reported":1758985711,"current_range_meters":15200,"station_id":"","pricing_plan_id":"cebpf4jnsgd1na2vs0mg"},{"bike_id":"c097f066-7651-435e-913f-a8a7838aba88","system_id":"levelo_inurba_marseille","lat":43.33722,"lon":5.37459,"is_reserved":false,"is_disabled":false,"rental_uris":{"android":"levelo://app?vid=c097f066-7651-435e-913f-a8a7838aba88","ios":"levelo://app?vid=c097f066-7651-435e-913f-a8a7838aba88"},"vehicle_type_id":"4","last_reported":1758985711,"current_range_meters":15200,"station_id":"","pricing_plan_id":"cebpf4jnsgd1na2vs0mg"},{"bike_id":"960f7b2a-3413-47d5-8d50-bb0752c0da9d","system_id":"levelo_inurba_marseille","lat":43.3049,"lon":5.37458,"is_reserved":false,"is_disabled":false,"rental_uris":{"android":"levelo://app?vid=960f7b2a-3413-47d5-8d50-bb0752c0da9d","ios":"levelo://app?vid=960f7b2a-3413-47d5-8d50-bb0752c0da9d"},"vehicle_type_id":"4","last_reported":1758985711,"current_range_meters":15200,"station_id":"","pricing_plan_id":"cebpf4jnsgd1na2vs0mg"},{"bike_id":"399d5f1a-22b7-460e-a6db-03a6bc924f79","system_id":"levelo_inurba_marseille","lat":43.3133,"lon":5.39695,"is_reserved":false,"is_disabled":false,"rental_uris":{"android":"levelo://app?vid=399d5f1a-22b7-460e-a6db-03a6bc924f79","ios":"levelo://app?vid=399d5f1a-22b7-460e-a6db-03a6bc924f79"},"vehicle_type_id":"4","last_reported":1758985711,"current_range_meters":15200,"station_id":"ce4bgvp2rcd13ifvqcu0","pricing_plan_id":"cebpf4jnsgd1na2vs0mg"},{"bike_id":"c833070b-baa0-4f6e-84a4-dad65aacc2ad","system_id":"levelo_inurba_marseille","lat":43.232042,"lon":5.355521,"is_reserved":false,"is_disabled":false,"rental_uris":{"android":"levelo://app?vid=c833070b-baa0-4f6e-84a4-dad65aacc2ad","ios":"levelo://app?vid=c833070b-baa0-4f6e-84a4-dad65aacc2ad"},"vehicle_type_id":"4","last_reported":1758985711,"current_range_meters":15200,"station_id":"ce4bhu92rcd13ifvqi70","pricing_plan_id":"cebpf4jnsgd1na2vs0mg"},{"bike_id":"ee41a1c0-bc1b-4d8a-8f43-33053b06d26f","system_id":"levelo_inurba_marseille","lat":43.2418,"lon":5.36395,"is_reserved":false,"is_disabled":false,"rental_uris":{"android":"levelo://app?vid=ee41a1c0-bc1b-4d8a-8f43-33053b06d26f","ios":"levelo://app?vid=ee41a1c0-bc1b-4d8a-8f43-33053b06d26f"},"vehicle_type_id":"4","last_reported":1758985711,"current_range_meters":15200,"station_id":"cpo36qri1sfpv3e86is0","pricing_plan_id":"cebpf4jnsgd1na2vs0mg"},{"bike_id":"70c99b1b-3a05-46b7-b778-e5482d7a6288","system_id":"levelo_inurba_marseille","lat":43.27313,"lon":5.3911,"is_reserved":false,"is_disabled":false,"rental_uris":{"android":"levelo://app?vid=70c99b1b-3a05-46b7-b778-e5482d7a6288","ios":"levelo://app?vid=70c99b1b-3a05-46b7-b778-e5482d7a6288"},"vehicle_type_id":"4","last_reported":1758985711,"current_range_meters":16000,"station_id":"ce4bhgp2rcd13ifvqfe0","pricing_plan_id":"cebpf4jnsgd1na2vs0mg"},{"bike_id":"096c311a-e31f-4e60-ab8c-de0b76354103","system_id":"levelo_inurba_marseille","lat":43.27183,"lon":5.41001,"is_reserved":false,"is_disabled":true,"rental_uris":{"android":"levelo://app?vid=096c311a-e31f-4e60-ab8c-de0b76354103","ios":"levelo://app?vid=096c311a-e31f-4e60-ab8c-de0b76354103"},"vehicle_type_id":"4","last_reported":1758985711,"current_range_meters":16000,"station_id":"ce4bhl12rcd13ifvqgf0","pricing_plan_id":"cebpf4jnsgd1na2vs0mg"},{"bike_id":"b8527da5-a495-4d5b-b851-2eca8d2602f2","system_id":"levelo_inurba_marseille","lat":43.25574,"lon":5.41135,"is_reserved":false,"is_disabled":false,"rental_uris":{"android":"levelo://app?vid=b8527da5-a495-4d5b-b851-2eca8d2602f2","ios":"levelo://app?vid=b8527da5-a495-4d5b-b851-2eca8d2602f2"},"vehicle_type_id":"4","last_reported":1758985711,"current_range_meters":16000,"station_id":"ce4bhkp2rcd13ifvqgd0","pricing_plan_id":"cebpf4jnsgd1na2vs0mg"},{"bike_id":"85c7ac65-0172-4766-8977-f4ba34ed9c93","system_id":"levelo_inurba_marseille","lat":43.25354,"lon":5.42144,"is_reserved":false,"is_disabled":false,"rental_uris":{"android":"levelo://app?vid=85c7ac65-0172-4766-8977-f4ba34ed9c93","ios":"levelo://app?vid=85c7ac65-0172-4766-8977-f4ba34ed9c93"},"vehicle_type_id":"4","last_reported":1758985711,"current_range_meters":16000,"station_id":"st_d2m65c5bi1j21697t3ng","pricing_plan_id":"cebpf4jnsgd1na2vs0mg"},{"bike_id":"6d98ab21-1faa-4b15-97b2-a1dd6f53a5a7","system_id":"levelo_inurba_marseille","lat":43.27417,"lon":5.3941,"is_reserved":false,"is_disabled":true,"rental_uris":{"android":"levelo://app?vid=6d98ab21-1faa-4b15-97b2-a1dd6f53a5a7","ios":"levelo://app?vid=6d98ab21-1faa-4b15-97b2-a1dd6f53a5a7"},"vehicle_type_id":"4","last_reported":1758985711,"current_range_meters":16000,"station_id":"ce4bhdp2rcd13ifvqf20","pricing_plan_id":"cebpf4jnsgd1na2vs0mg"},{"bike_id":"f189cd99-1367-4ce9-aec4-c5622714256b","system_id":"levelo_inurba_marseille","lat":43.29271,"lon":5.36843,"is_reserved":false,"is_disabled":false,"rental_uris":{"android":"levelo://app?vid=f189cd99-1367-4ce9-aec4-c5622714256b","ios":"levelo://app?vid=f189cd99-1367-4ce9-aec4-c5622714256b"},"vehicle_type_id":"4","last_reported":1758985711,"current_range_meters":16000,"station_id":"ce4bhbp2rcd13ifvqesg","pricing_plan_id":"cebpf4jnsgd1na2vs0mg"},{"bike_id":"cb0a43cc-2f6b-482a-91bb-c383cccf5be4","system_id":"levelo_inurba_marseille","lat":43.319944,"lon":5.380493,"is_reserved":false,"is_disabled":false,"rental_uris":{"android":"levelo://app?vid=cb0a43cc-2f6b-482a-91bb-c383cccf5be4","ios":"levelo://app?vid=cb0a43cc-2f6b-482a-91bb-c383cccf5be4"},"vehicle_type_id":"4","last_reported":1758985711,"current_range_meters":16000,"station_id":"","pricing_plan_id":"cebpf4jnsgd1na2vs0mg"},{"bike_id":"7d07c9c0-71a1-4105-ae00-6535dfc4b33e","system_id":"levelo_inurba_marseille","lat":43.292511,"lon":5.401357,"is_reserved":false,"is_disabled":false,"rental_uris":{"android":"levelo://app?vid=7d07c9c0-71a1-4105-ae00-6535dfc4b33e","ios":"levelo://app?vid=7d07c9c0-71a1-4105-ae00-6535dfc4b33e"},"vehicle_type_id":"4","last_reported":1758985711,"current_range_meters":16000,"station_id":"ce4bh512rcd13ifvqe2g","pricing_plan_id":"cebpf4jnsgd1na2vs0mg"},{"bike_id":"b2128a0b-f4e0-420e-b312-dd085d5460bd","system_id":"levelo_inurba_marseille","lat":43.26208,"lon":5.37914,"is_reserved":false,"is_disabled":false,"rental_uris":{"android":"levelo://app?vid=b2128a0b-f4e0-420e-b312-dd085d5460bd","ios":"levelo://app?vid=b2128a0b-f4e0-420e-b312-dd085d5460bd"},"vehicle_type_id":"4","last_reported":1758985711,"current_range_meters":16000,"station_id":"ce4bhjp2rcd13ifvqg90","pricing_plan_id":"cebpf4jnsgd1na2vs0mg"},{"bike_id":"bee0d985-86ef-4df9-9d1a-fa2cbb71f060","system_id":"levelo_inurba_marseille","lat":43.27338,"lon":5.39075,"is_reserved":false,"is_disabled":false,"rental_uris":{"android":"levelo://app?vid=bee0d985-86ef-4df9-9d1a-fa2cbb71f060","ios":"levelo://app?vid=bee0d985-86ef-4df9-9d1a-fa2cbb71f060"},"vehicle_type_id":"4","last_reported":1758985711,"current_range_meters":16000,"station_id":"ce4bhgp2rcd13ifvqfe0","pricing_plan_id":"cebpf4jnsgd1na2vs0mg"},{"bike_id":"976fd36e-2f5c-424c-baa8-068b37f1eb42","system_id":"levelo_inurba_marseille","lat":43.27555,"lon":5.38427,"is_reserved":false,"is_disabled":false,"rental_uris":{"android":"levelo://app?vid=976fd36e-2f5c-424c-baa8-068b37f1eb42","ios":"levelo://app?vid=976fd36e-2f5c-424c-baa8-068b37f1eb42"},"vehicle_type_id":"4","last_reported":1758985711,"current_range_meters":16400,"station_id":"ce4bhh92rcd13ifvqfi0","pricing_plan_id":"cebpf4jnsgd1na2vs0mg"},{"bike_id":"e54b8c9f-4f66-4c52-b603-24745fa68456","system_id":"levelo_inurba_marseille","lat":43.25717,"lon":5.41102,"is_reserved":false,"is_disabled":false,"rental_uris":{"android":"levelo://app?vid=e54b8c9f-4f66-4c52-b603-24745fa68456","ios":"levelo://app?vid=e54b8c9f-4f66-4c52-b603-24745fa68456"},"vehicle_type_id":"4","last_reported":1758985711,"current_range_meters":16400,"station_id":"ce4bhkp2rcd13ifvqgd0","pricing_plan_id":"cebpf4jnsgd1na2vs0mg"},{"bike_id":"61f066a7-184f-43bc-b959-8ad24ef2814a","system_id":"levelo_inurba_marseille","lat":43.28416,"lon":5.34994,"is_reserved":false,"is_disabled":false,"rental_uris":{"android":"levelo://app?vid=61f066a7-184f-43bc-b959-8ad24ef2814a","ios":"levelo://app?vid=61f066a7-184f-43bc-b959-8ad24ef2814a"},"vehicle_type_id":"4","last_reported":1758985711,"current_range_meters":16400,"station_id":"ce4bhbh2rcd13ifvqepg","pricing_plan_id":"cebpf4jnsgd1na2vs0mg"},{"bike_id":"84c891a1-4a82-4cf6-988c-89243ddc524a","system_id":"levelo_inurba_marseille","lat":43.25582,"lon":5.38248,"is_reserved":false,"is_disabled":false,"rental_uris":{"android":"levelo://app?vid=84c891a1-4a82-4cf6-988c-89243ddc524a","ios":"levelo://app?vid=84c891a1-4a82-4cf6-988c-89243ddc524a"},"vehicle_type_id":"4","last_reported":1758985711,"current_range_meters":16400,"station_id":"ce4bhih2rcd13ifvqfs0","pricing_plan_id":"cebpf4jnsgd1na2vs0mg"},{"bike_id":"d66cd03b-dbeb-4aa4-961e-bd97aeefe4a4","system_id":"levelo_inurba_marseille","lat":43.25954,"lon":5.41373,"is_reserved":false,"is_disabled":false,"rental_uris":{"android":"levelo://app?vid=d66cd03b-dbeb-4aa4-961e-bd97aeefe4a4","ios":"levelo://app?vid=d66cd03b-dbeb-4aa4-961e-bd97aeefe4a4"},"vehicle_type_id":"4","last_reported":1758985711,"current_range_meters":16400,"station_id":"","pricing_plan_id":"cebpf4jnsgd1na2vs0mg"},{"bike_id":"9de9d211-3c50-44e8-9827-00bbe75915db","system_id":"levelo_inurba_marseille","lat":43.2867,"lon":5.36353,"is_reserved":false,"is_disabled":false,"rental_uris":{"android":"levelo://app?vid=9de9d211-3c50-44e8-9827-00bbe75915db","ios":"levelo://app?vid=9de9d211-3c50-44e8-9827-00bbe75915db"},"vehicle_type_id":"4","last_reported":1758985711,"current_range_meters":16400,"station_id":"ce4bhah2rcd13ifvqej0","pricing_plan_id":"cebpf4jnsgd1na2vs0mg"},{"bike_id":"1d8fe1e6-4b2d-4353-adb0-d99ca989cd5a","system_id":"levelo_inurba_marseille","lat":43.2173,"lon":5.346,"is_reserved":false,"is_disabled":false,"rental_uris":{"android":"levelo://app?vid=1d8fe1e6-4b2d-4353-adb0-d99ca989cd5a","ios":"levelo://app?vid=1d8fe1e6-4b2d-4353-adb0-d99ca989cd5a"},"vehicle_type_id":"4","last_reported":1758985711,"current_range_meters":16800,"station_id":"","pricing_plan_id":"cebpf4jnsgd1na2vs0mg"},{"bike_id":"95bafeb0-6c7b-407a-a73b-a6569ff5cb66","system_id":"levelo_inurba_marseille","lat":43.33777,"lon":5.37497,"is_reserved":false,"is_disabled":false,"rental_uris":{"android":"levelo://app?vid=95bafeb0-6c7b-407a-a73b-a6569ff5cb66","ios":"levelo://app?vid=95bafeb0-6c7b-407a-a73b-a6569ff5cb66"},"vehicle_type_id":"4","last_reported":1758985711,"current_range_meters":16800,"station_id":"","pricing_plan_id":"cebpf4jnsgd1na2vs0mg"},{"bike_id":"75a1808b-f036-45a0-9b9e-d8442cdf8f90","system_id":"levelo_inurba_marseille","lat":43.250005,"lon":5.389333,"is_reserved":false,"is_disabled":false,"rental_uris":{"android":"levelo://app?vid=75a1808b-f036-45a0-9b9e-d8442cdf8f90","ios":"levelo://app?vid=75a1808b-f036-45a0-9b9e-d8442cdf8f90"},"vehicle_type_id":"4","last_reported":1758985711,"current_range_meters":16800,"station_id":"ce4bhgp2rcd13ifvqfd0","pricing_plan_id":"cebpf4jnsgd1na2vs0mg"},{"bike_id":"2243febf-ebaf-474b-8e3e-799410e4c867","system_id":"levelo_inurba_marseille","lat":43.32571,"lon":5.3635,"is_reserved":false,"is_disabled":false,"rental_uris":{"android":"levelo://app?vid=2243febf-ebaf-474b-8e3e-799410e4c867","ios":"levelo://app?vid=2243febf-ebaf-474b-8e3e-799410e4c867"},"vehicle_type_id":"4","last_reported":1758985711,"current_range_meters":16800,"station_id":"","pricing_plan_id":"cebpf4jnsgd1na2vs0mg"},{"bike_id":"f4c53ff4-73a4-4134-bb3f-bbf464878afb","system_id":"levelo_inurba_marseille","lat":43.21748,"lon":5.346,"is_reserved":false,"is_disabled":true,"rental_uris":{"android":"levelo://app?vid=f4c53ff4-73a4-4134-bb3f-bbf464878afb","ios":"levelo://app?vid=f4c53ff4-73a4-4134-bb3f-bbf464878afb"},"vehicle_type_id":"4","last_reported":1758985711,"current_range_meters":16800,"station_id":"st_cvj6r9ubvosntc0bgbag","pricing_plan_id":"cebpf4jnsgd1na2vs0mg"},{"bike_id":"4f22dce1-4ec1-470a-99fa-d21517df2f5d","system_id":"levelo_inurba_marseille","lat":43.26215,"lon":5.37441,"is_reserved":false,"is_disabled":false,"rental_uris":{"android":"levelo://app?vid=4f22dce1-4ec1-470a-99fa-d21517df2f5d","ios":"levelo://app?vid=4f22dce1-4ec1-470a-99fa-d21517df2f5d"},"vehicle_type_id":"4","last_reported":1758985711,"current_range_meters":16800,"station_id":"ce4bhgp2rcd13ifvqfc0","pricing_plan_id":"cebpf4jnsgd1na2vs0mg"},{"bike_id":"0c0a5218-8fa3-4150-ba30-8a819f82a4b9","system_id":"levelo_inurba_marseille","lat":43.2862,"lon":5.35102,"is_reserved":false,"is_disabled":false,"rental_uris":{"android":"levelo://app?vid=0c0a5218-8fa3-4150-ba30-8a819f82a4b9","ios":"levelo://app?vid=0c0a5218-8fa3-4150-ba30-8a819f82a4b9"},"vehicle_type_id":"4","last_reported":1758985711,"current_range_meters":16800,"station_id":"ce4bhch2rcd13ifvqeug","pricing_plan_id":"cebpf4jnsgd1na2vs0mg"},{"bike_id":"54fff988-c74f-45fc-a0eb-29489bfa1777","system_id":"levelo_inurba_marseille","lat":43.24653,"lon":5.3888,"is_reserved":false,"is_disabled":false,"rental_uris":{"android":"levelo://app?vid=54fff988-c74f-45fc-a0eb-29489bfa1777","ios":"levelo://app?vid=54fff988-c74f-45fc-a0eb-29489bfa1777"},"vehicle_type_id":"4","last_reported":1758985711,"current_range_meters":16800,"station_id":"ce4bhg12rcd13ifvqf60","pricing_plan_id":"cebpf4jnsgd1na2vs0mg"},{"bike_id":"b219c086-dfbe-4625-9649-9c9028fcc568","system_id":"levelo_inurba_marseille","lat":43.24801,"lon":5.37453,"is_reserved":false,"is_disabled":false,"rental_uris":{"android":"levelo://app?vid=b219c086-dfbe-4625-9649-9c9028fcc568","ios":"levelo://app?vid=b219c086-dfbe-4625-9649-9c9028fcc568"},"vehicle_type_id":"4","last_reported":1758985711,"current_range_meters":16800,"station_id":"ce4bhgh2rcd13ifvqfb0","pricing_plan_id":"cebpf4jnsgd1na2vs0mg"},{"bike_id":"78330589-cbfc-4139-a4ac-4a094f2e8641","system_id":"levelo_inurba_marseille","lat":43.307749,"lon":5.376527,"is_reserved":false,"is_disabled":false,"rental_uris":{"android":"levelo://app?vid=78330589-cbfc-4139-a4ac-4a094f2e8641","ios":"levelo://app?vid=78330589-cbfc-4139-a4ac-4a094f2e8641"},"vehicle_type_id":"4","last_reported":1758985711,"current_range_meters":16400,"station_id":"ce4bgv92rcd13ifvqcq0","pricing_plan_id":"cebpf4jnsgd1na2vs0mg"},{"bike_id":"8ba5e33b-48f1-42b5-a531-76085f7229c8","system_id":"levelo_inurba_marseille","lat":43.246355,"lon":5.431409,"is_reserved":false,"is_disabled":false,"rental_uris":{"android":"levelo://app?vid=8ba5e33b-48f1-42b5-a531-76085f7229c8","ios":"levelo://app?vid=8ba5e33b-48f1-42b5-a531-76085f7229c8"},"vehicle_type_id":"4","last_reported":1758985711,"current_range_meters":16800,"station_id":"st_d2m6c4gdas8pm72e190g","pricing_plan_id":"cebpf4jnsgd1na2vs0mg"},{"bike_id":"c081d6ac-5788-49e0-94f1-f96219519e58","system_id":"levelo_inurba_marseille","lat":43.24653,"lon":5.38886,"is_reserved":false,"is_disabled":false,"rental_uris":{"android":"levelo://app?vid=c081d6ac-5788-49e0-94f1-f96219519e58","ios":"levelo://app?vid=c081d6ac-5788-49e0-94f1-f96219519e58"},"vehicle_type_id":"4","last_reported":1758985711,"current_range_meters":16800,"station_id":"ce4bhg12rcd13ifvqf60","pricing_plan_id":"cebpf4jnsgd1na2vs0mg"},{"bike_id":"61f72c81-84af-4d24-903d-9a7cb27e68a1","system_id":"levelo_inurba_marseille","lat":43.24638,"lon":5.43144,"is_reserved":false,"is_disabled":false,"rental_uris":{"android":"levelo://app?vid=61f72c81-84af-4d24-903d-9a7cb27e68a1","ios":"levelo://app?vid=61f72c81-84af-4d24-903d-9a7cb27e68a1"},"vehicle_type_id":"4","last_reported":1758985711,"current_range_meters":16800,"station_id":"st_d2m6c4gdas8pm72e190g","pricing_plan_id":"cebpf4jnsgd1na2vs0mg"},{"bike_id":"258ab053-1083-4ca9-a32a-1e85f085fc22","system_id":"levelo_inurba_marseille","lat":43.337444,"lon":5.374475,"is_reserved":false,"is_disabled":false,"rental_uris":{"android":"levelo://app?vid=258ab053-1083-4ca9-a32a-1e85f085fc22","ios":"levelo://app?vid=258ab053-1083-4ca9-a32a-1e85f085fc22"},"vehicle_type_id":"4","last_reported":1758985711,"current_range_meters":16800,"station_id":"","pricing_plan_id":"cebpf4jnsgd1na2vs0mg"},{"bike_id":"f62fe733-90ac-444a-a20a-73d227678ff7","system_id":"levelo_inurba_marseille","lat":43.29611,"lon":5.37729,"is_reserved":false,"is_disabled":true,"rental_uris":{"android":"levelo://app?vid=f62fe733-90ac-444a-a20a-73d227678ff7","ios":"levelo://app?vid=f62fe733-90ac-444a-a20a-73d227678ff7"},"vehicle_type_id":"4","last_reported":1758985711,"current_range_meters":17200,"station_id":"ce4bgi92rcd13ifvqb90","pricing_plan_id":"cebpf4jnsgd1na2vs0mg"},{"bike_id":"85281e4f-a640-4e95-9ed3-f61c9f551e60","system_id":"levelo_inurba_marseille","lat":43.22564,"lon":5.41621,"is_reserved":false,"is_disabled":false,"rental_uris":{"android":"levelo://app?vid=85281e4f-a640-4e95-9ed3-f61c9f551e60","ios":"levelo://app?vid=85281e4f-a640-4e95-9ed3-f61c9f551e60"},"vehicle_type_id":"4","last_reported":1758985711,"current_range_meters":17200,"station_id":"st_d2o4gvlbi1j2169b742g","pricing_plan_id":"cebpf4jnsgd1na2vs0mg"},{"bike_id":"61c13e37-1625-4287-958b-e4edbceea3c6","system_id":"levelo_inurba_marseille","lat":43.28605,"lon":5.35119,"is_reserved":false,"is_disabled":false,"rental_uris":{"android":"levelo://app?vid=61c13e37-1625-4287-958b-e4edbceea3c6","ios":"levelo://app?vid=61c13e37-1625-4287-958b-e4edbceea3c6"},"vehicle_type_id":"4","last_reported":1758985711,"current_range_meters":17200,"station_id":"ce4bhch2rcd13ifvqeug","pricing_plan_id":"cebpf4jnsgd1na2vs0mg"},{"bike_id":"33ac03ed-dfbb-4aa1-aee0-f01e22e067d9","system_id":"levelo_inurba_marseille","lat":43.24611,"lon":5.43166,"is_reserved":false,"is_disabled":false,"rental_uris":{"android":"levelo://app?vid=33ac03ed-dfbb-4aa1-aee0-f01e22e067d9","ios":"levelo://app?vid=33ac03ed-dfbb-4aa1-aee0-f01e22e067d9"},"vehicle_type_id":"4","last_reported":1758985711,"current_range_meters":17200,"station_id":"st_d2m6c4gdas8pm72e190g","pricing_plan_id":"cebpf4jnsgd1na2vs0mg"},{"bike_id":"5c3c65f6-8f42-47e2-91d7-1f43c9861737","system_id":"levelo_inurba_marseille","lat":43.29032,"lon":5.38648,"is_reserved":false,"is_disabled":false,"rental_uris":{"android":"levelo://app?vid=5c3c65f6-8f42-47e2-91d7-1f43c9861737","ios":"levelo://app?vid=5c3c65f6-8f42-47e2-91d7-1f43c9861737"},"vehicle_type_id":"4","last_reported":1758985711,"current_range_meters":17200,"station_id":"ce4bh4p2rcd13ifvqe0g","pricing_plan_id":"cebpf4jnsgd1na2vs0mg"},{"bike_id":"ce90b0c1-6c36-4837-a050-6c45b26dd091","system_id":"levelo_inurba_marseille","lat":43.23186,"lon":5.35585,"is_reserved":false,"is_disabled":false,"rental_uris":{"android":"levelo://app?vid=ce90b0c1-6c36-4837-a050-6c45b26dd091","ios":"levelo://app?vid=ce90b0c1-6c36-4837-a050-6c45b26dd091"},"vehicle_type_id":"4","last_reported":1758985711,"current_range_meters":17200,"station_id":"ce4bhu92rcd13ifvqi70","pricing_plan_id":"cebpf4jnsgd1na2vs0mg"},{"bike_id":"9390e164-b674-4802-be48-3fb0b7a8f767","system_id":"levelo_inurba_marseille","lat":43.28205,"lon":5.39065,"is_reserved":false,"is_disabled":false,"rental_uris":{"android":"levelo://app?vid=9390e164-b674-4802-be48-3fb0b7a8f767","ios":"levelo://app?vid=9390e164-b674-4802-be48-3fb0b7a8f767"},"vehicle_type_id":"4","last_reported":1758985711,"current_range_meters":17200,"station_id":"ce4bhn92rcd13ifvqgsg","pricing_plan_id":"cebpf4jnsgd1na2vs0mg"},{"bike_id":"0d0352bf-f394-45c0-baef-aa15dd4a4c38","system_id":"levelo_inurba_marseille","lat":43.24614,"lon":5.43154,"is_reserved":false,"is_disabled":false,"rental_uris":{"android":"levelo://app?vid=0d0352bf-f394-45c0-baef-aa15dd4a4c38","ios":"levelo://app?vid=0d0352bf-f394-45c0-baef-aa15dd4a4c38"},"vehicle_type_id":"4","last_reported":1758985711,"current_range_meters":17200,"station_id":"st_d2m6c4gdas8pm72e190g","pricing_plan_id":"cebpf4jnsgd1na2vs0mg"},{"bike_id":"91f03681-11bd-4a24-811a-6c09a89c8efe","system_id":"levelo_inurba_marseille","lat":43.25035,"lon":5.38915,"is_reserved":false,"is_disabled":false,"rental_uris":{"android":"levelo://app?vid=91f03681-11bd-4a24-811a-6c09a89c8efe","ios":"levelo://app?vid=91f03681-11bd-4a24-811a-6c09a89c8efe"},"vehicle_type_id":"4","last_reported":1758985711,"current_range_meters":17200,"station_id":"ce4bhgp2rcd13ifvqfd0","pricing_plan_id":"cebpf4jnsgd1na2vs0mg"},{"bike_id":"55224ea1-6a4c-45b9-916c-15d070eb03d0","system_id":"levelo_inurba_marseille","lat":43.27372,"lon":5.3626,"is_reserved":false,"is_disabled":false,"rental_uris":{"android":"levelo://app?vid=55224ea1-6a4c-45b9-916c-15d070eb03d0","ios":"levelo://app?vid=55224ea1-6a4c-45b9-916c-15d070eb03d0"},"vehicle_type_id":"4","last_reported":1758985711,"current_range_meters":17200,"station_id":"ce4bhbh2rcd13ifvqeo0","pricing_plan_id":"cebpf4jnsgd1na2vs0mg"},{"bike_id":"b8d472ba-313d-4484-a422-be5304b0fdd4","system_id":"levelo_inurba_marseille","lat":43.30647,"lon":5.4011,"is_reserved":false,"is_disabled":false,"rental_uris":{"android":"levelo://app?vid=b8d472ba-313d-4484-a422-be5304b0fdd4","ios":"levelo://app?vid=b8d472ba-313d-4484-a422-be5304b0fdd4"},"vehicle_type_id":"4","last_reported":1758985711,"current_range_meters":17200,"station_id":"ce4bh112rcd13ifvqda0","pricing_plan_id":"cebpf4jnsgd1na2vs0mg"},