{"last_updated":1680368673,"ttl":30,"version":"2.2","data":{"bikes":[{"bike_id":"7af32390-978c-4d5b-9243-b8692043da1c","system_id":"levelo_inurba_marseille","lat":43.30944,"lon":5.37225,"is_reserved":false,"is_disabled":false,"rental_uris":{"android":"levelo://app?vid=7af32390-978c-4d5b-9243-b8692043da1c","ios":"levelo://app?vid=7af32390-978c-4d5b-9243-b8692043da1c"},"vehicle_type_id":"4","last_reported":1680368673,"current_range_meters":2800,"station_id":"","pricing_plan_id":"free"},{"bike_id":"226edee4-25eb-4bba-9768-85fdb497ca33","system_id":"levelo_inurba_marseille","lat":43.30884,"lon":5.37194,"is_reserved":false,"is_disabled":false,"rental_uris":{"android":"levelo://app?vid=226edee4-25eb-4bba-9768-85fdb497ca33","ios":"levelo://app?vid=226edee4-25eb-4bba-9768-85fdb497ca33"},"vehicle_type_id":"4","last_reported":1680368673,"current_range_meters":9600,"station_id":"","pricing_plan_id":"free"},{"bike_id":"4375db69-a256-444a-bc93-a7e01c900a0b","system_id":"levelo_inurba_marseille","lat":43.31706,"lon":5.3773,"is_reserved":false,"is_disabled":false,"rental_uris":{"android":"levelo://app?vid=4375db69-a256-444a-bc93-a7e01c900a0b","ios":"levelo://app?vid=4375db69-a256-444a-bc93-a7e01c900a0b"},"vehicle_type_id":"4","last_reported":1680368673,"current_range_meters":0,"station_id":"ce4bgth2rcd13ifvqch0","pricing_plan_id":"free"},{"bike_id":"8cc5a597-3073-4e5b-a491-b243c0db2c78","system_id":"levelo_inurba_marseille","lat":43.31353,"lon":5.38248,"is_reserved":false,"is_disabled":false,"rental_uris":{"android":"levelo://app?vid=8cc5a597-3073-4e5b-a491-b243c0db2c78","ios":"levelo://app?vid=8cc5a597-3073-4e5b-a491-b243c0db2c78"},"vehicle_type_id":"4","last_reported":1680368673,"current_range_meters":14800,"station_id":"","pricing_plan_id":"free"},{"bike_id":"664c0c7f-71fc-46b9-af0b-2a940a4d1759","system_id":"levelo_inurba_marseille","lat":43.30797,"lon":5.3815,"is_reserved":false,"is_disabled":false,"rental_uris":{"android":"levelo://app?vid=664c0c7f-71fc-46b9-af0b-2a940a4d1759","ios":"levelo://app?vid=664c0c7f-71fc-46b9-af0b-2a940a4d1759"},"vehicle_type_id":"4","last_reported":1680368673,"current_range_meters":15600,"station_id":"ce4bgt12rcd13ifvqce0","pricing_plan_id":"free"},{"bike_id":"f7fc6d10-c435-4d8e-a3a8-df68fc0f9142","system_id":"levelo_inurba_marseille","lat":43.30795,"lon":5.38158,"is_reserved":false,"is_disabled":false,"rental_uris":{"android":"levelo://app?vid=f7fc6d10-c435-4d8e-a3a8-df68fc0f9142","ios":"levelo://app?vid=f7fc6d10-c435-4d8e-a3a8-df68fc0f9142"},"vehicle_type_id":"4","last_reported":1680368673,"current_range_meters":0,"station_id":"ce4bgt12rcd13ifvqce0","pricing_plan_id":"free"},{"bike_id":"62594e90-9288-457e-98f4-c4758b062d51","system_id":"levelo_inurba_marseille","lat":43.30795,"lon":5.38159,"is_reserved":false,"is_disabled":false,"rental_uris":{"android":"levelo://app?vid=62594e90-9288-457e-98f4-c4758b062d51","ios":"levelo://app?vid=62594e90-9288-457e-98f4-c4758b062d51"},"vehicle_type_id":"4","last_reported":1680368673,"current_range_meters":11600,"station_id":"ce4bgt12rcd13ifvqce0","pricing_plan_id":"free"},{"bike_id":"7c603f89-e8a1-46ca-b856-23c611621e93","system_id":"levelo_inurba_marseille","lat":43.30789,"lon":5.38156,"is_reserved":false,"is_disabled":false,"rental_uris":{"android":"levelo://app?vid=7c603f89-e8a1-46ca-b856-23c611621e93","ios":"levelo://app?vid=7c603f89-e8a1-46ca-b856-23c611621e93"},"vehicle_type_id":"4","last_reported":1680368673,"current_range_meters":21200,"station_id":"ce4bgt12rcd13ifvqce0","pricing_plan_id":"free"},{"bike_id":"f260d93e-cf54-449a-8627-6830b5c322f8","system_id":"levelo_inurba_marseille","lat":43.304606,"lon":5.379026,"is_reserved":false,"is_disabled":false,"rental_uris":{"android":"levelo://app?vid=f260d93e-cf54-449a-8627-6830b5c322f8","ios":"levelo://app?vid=f260d93e-cf54-449a-8627-6830b5c322f8"},"vehicle_type_id":"4","last_reported":1680368673,"current_range_meters":14000,"station_id":"ce4bgup2rcd13ifvqcn0","pricing_plan_id":"free"},{"bike_id":"fd1fb480-e739-47cd-9fc2-8276f5036f11","system_id":"levelo_inurba_marseille","lat":43.30142,"lon":5.37417,"is_reserved":false,"is_disabled":false,"rental_uris":{"android":"levelo://app?vid=fd1fb480-e739-47cd-9fc2-8276f5036f11","ios":"levelo://app?vid=fd1fb480-e739-47cd-9fc2-8276f5036f11"},"vehicle_type_id":"4","last_reported":1680368673,"current_range_meters":0,"station_id":"ce4bgs92rcd13ifvqcc0","pricing_plan_id":"free"},{"bike_id":"4de35a96-0eb0-4ef9-9e35-f02eb5ccfac8","system_id":"levelo_inurba_marseille","lat":43.313571,"lon":5.384829,"is_reserved":false,"is_disabled":false,"rental_uris":{"android":"levelo://app?vid=4de35a96-0eb0-4ef9-9e35-f02eb5ccfac8","ios":"levelo://app?vid=4de35a96-0eb0-4ef9-9e35-f02eb5ccfac8"},"vehicle_type_id":"4","last_reported":1680368673,"current_range_meters":14800,"station_id":"ce4bgt92rcd13ifvqcf0","pricing_plan_id":"free"},{"bike_id":"4f4fff7b-569e-4f7b-9838-bc67ace3d9aa","system_id":"levelo_inurba_marseille","lat":43.313571,"lon":5.384829,"is_reserved":false,"is_disabled":false,"rental_uris":{"android":"levelo://app?vid=4f4fff7b-569e-4f7b-9838-bc67ace3d9aa","ios":"levelo://app?vid=4f4fff7b-569e-4f7b-9838-bc67ace3d9aa"},"vehicle_type_id":"4","last_reported":1680368673,"current_range_meters":29200,"station_id":"ce4bgt92rcd13ifvqcf0","pricing_plan_id":"free"},{"bike_id":"98e2ff2b-8232-4b4e-bef6-f8169ff4a0af","system_id":"levelo_inurba_marseille","lat":43.299094,"lon":5.365415,"is_reserved":false,"is_disabled":false,"rental_uris":{"android":"levelo://app?vid=98e2ff2b-8232-4b4e-bef6-f8169ff4a0af","ios":"levelo://app?vid=98e2ff2b-8232-4b4e-bef6-f8169ff4a0af"},"vehicle_type_id":"4","last_reported":1680368673,"current_range_meters":0,"station_id":"ce4bgm92rcd13ifvqbr0","pricing_plan_id":"free"},{"bike_id":"315fffbe-c074-4166-abc4-3b121ac4cb52","system_id":"levelo_inurba_marseille","lat":43.31192,"lon":5.38572,"is_reserved":false,"is_disabled":false,"rental_uris":{"android":"levelo://app?vid=315fffbe-c074-4166-abc4-3b121ac4cb52","ios":"levelo://app?vid=315fffbe-c074-4166-abc4-3b121ac4cb52"},"vehicle_type_id":"4","last_reported":1680368673,"current_range_meters":21600,"station_id":"","pricing_plan_id":"free"},{"bike_id":"246cc744-c9fd-4e2e-88c9-5a28513c0d85","system_id":"levelo_inurba_marseille","lat":43.298433,"lon":5.362774,"is_reserved":false,"is_disabled":false,"rental_uris":{"android":"levelo://app?vid=246cc744-c9fd-4e2e-88c9-5a28513c0d85","ios":"levelo://app?vid=246cc744-c9fd-4e2e-88c9-5a28513c0d85"},"vehicle_type_id":"4","last_reported":1680368673,"current_range_meters":24400,"station_id":"ce4bgpp2rcd13ifvqc3g","pricing_plan_id":"free"},{"bike_id":"80d6a1eb-5d93-48a2-a7e4-4850c39279c6","system_id":"levelo_inurba_marseille","lat":43.298433,"lon":5.362774,"is_reserved":false,"is_disabled":false,"rental_uris":{"android":"levelo://app?vid=80d6a1eb-5d93-48a2-a7e4-4850c39279c6","ios":"levelo://app?vid=80d6a1eb-5d93-48a2-a7e4-4850c39279c6"},"vehicle_type_id":"4","last_reported":1680368673,"current_range_meters":7200,"station_id":"ce4bgpp2rcd13ifvqc3g","pricing_plan_id":"free"},{"bike_id":"7baeb317-3186-4c58-b9c9-8282d0b623ea","system_id":"levelo_inurba_marseille","lat":43.29843,"lon":5.36274,"is_reserved":false,"is_disabled":false,"rental_uris":{"android":"levelo://app?vid=7baeb317-3186-4c58-b9c9-8282d0b623ea","ios":"levelo://app?vid=7baeb317-3186-4c58-b9c9-8282d0b623ea"},"vehicle_type_id":"4","last_reported":1680368673,"current_range_meters":24000,"station_id":"ce4bgpp2rcd13ifvqc3g","pricing_plan_id":"free"},{"bike_id":"b7123c75-15da-4dc1-9525-56a2606530ff","system_id":"levelo_inurba_marseille","lat":43.299243,"lon":5.37481,"is_reserved":false,"is_disabled":false,"rental_uris":{"android":"levelo://app?vid=b7123c75-15da-4dc1-9525-56a2606530ff","ios":"levelo://app?vid=b7123c75-15da-4dc1-9525-56a2606530ff"},"vehicle_type_id":"4","last_reported":1680368673,"current_range_meters":0,"station_id":"ce4bgjh2rcd13ifvqbg0","pricing_plan_id":"free"},{"bike_id":"c251dea3-1684-41c7-b961-3f4f6158d447","system_id":"levelo_inurba_marseille","lat":43.29588,"lon":5.36769,"is_reserved":false,"is_disabled":false,"rental_uris":{"android":"levelo://app?vid=c251dea3-1684-41c7-b961-3f4f6158d447","ios":"levelo://app?vid=c251dea3-1684-41c7-b961-3f4f6158d447"},"vehicle_type_id":"4","last_reported":1680368673,"current_range_meters":0,"station_id":"","pricing_plan_id":"free"},{"bike_id":"cd51c82c-a857-4fd3-9b09-99a1fb0aa78c","system_id":"levelo_inurba_marseille","lat":43.29647,"lon":5.37477,"is_reserved":false,"is_disabled":false,"rental_uris":{"android":"levelo://app?vid=cd51c82c-a857-4fd3-9b09-99a1fb0aa78c","ios":"levelo://app?vid=cd51c82c-a857-4fd3-9b09-99a1fb0aa78c"},"vehicle_type_id":"4","last_reported":1680368673,"current_range_meters":25600,"station_id":"","pricing_plan_id":"free"},{"bike_id":"a33b8d52-2458-4584-b6ee-d0cd37057f7d","system_id":"levelo_inurba_marseille","lat":43.317557,"lon":5.390173,"is_reserved":false,"is_disabled":false,"rental_uris":{"android":"levelo://app?vid=a33b8d52-2458-4584-b6ee-d0cd37057f7d","ios":"levelo://app?vid=a33b8d52-2458-4584-b6ee-d0cd37057f7d"},"vehicle_type_id":"4","last_reported":1680368673,"current_range_meters":400,"station_id":"ce4bhqp2rcd13ifvqhng","pricing_plan_id":"free"},{"bike_id":"f0dcfa51-cace-4f1b-b35e-5bff726d8405","system_id":"levelo_inurba_marseille","lat":43.29468,"lon":5.37624,"is_reserved":false,"is_disabled":false,"rental_uris":{"android":"levelo://app?vid=f0dcfa51-cace-4f1b-b35e-5bff726d8405","ios":"levelo://app?vid=f0dcfa51-cace-4f1b-b35e-5bff726d8405"},"vehicle_type_id":"4","last_reported":1680368673,"current_range_meters":4000,"station_id":"","pricing_plan_id":"free"},{"bike_id":"782cfab9-b0ad-45e9-9b03-e0dd8605d584","system_id":"levelo_inurba_marseille","lat":43.32368,"lon":5.38884,"is_reserved":false,"is_disabled":false,"rental_uris":{"android":"levelo://app?vid=782cfab9-b0ad-45e9-9b03-e0dd8605d584","ios":"levelo://app?vid=782cfab9-b0ad-45e9-9b03-e0dd8605d584"},"vehicle_type_id":"4","last_reported":1680368673,"current_range_meters":3200,"station_id":"ce4bhqp2rcd13ifvqhog","pricing_plan_id":"free"},{"bike_id":"66db677b-7e13-4484-aecd-30c2a7c444da","system_id":"levelo_inurba_marseille","lat":43.32365,"lon":5.38889,"is_reserved":false,"is_disabled":false,"rental_uris":{"android":"levelo://app?vid=66db677b-7e13-4484-aecd-30c2a7c444da","ios":"levelo://app?vid=66db677b-7e13-4484-aecd-30c2a7c444da"},"vehicle_type_id":"4","last_reported":1680368673,"current_range_meters":400,"station_id":"ce4bhqp2rcd13ifvqhog","pricing_plan_id":"free"},{"bike_id":"95b66866-60c1-4768-93de-d8d4d313f29f","system_id":"levelo_inurba_marseille","lat":43.293259,"lon":5.371586,"is_reserved":false,"is_disabled":false,"rental_uris":{"android":"levelo://app?vid=95b66866-60c1-4768-93de-d8d4d313f29f","ios":"levelo://app?vid=95b66866-60c1-4768-93de-d8d4d313f29f"},"vehicle_type_id":"4","last_reported":1680368673,"current_range_meters":3200,"station_id":"ce4bgh92rcd13ifvqb40","pricing_plan_id":"free"},{"bike_id":"58d66ff8-3ae5-41eb-a8a9-cefeebed49dc","system_id":"levelo_inurba_marseille","lat":43.29422,"lon":5.37922,"is_reserved":false,"is_disabled":false,"rental_uris":{"android":"levelo://app?vid=58d66ff8-3ae5-41eb-a8a9-cefeebed49dc","ios":"levelo://app?vid=58d66ff8-3ae5-41eb-a8a9-cefeebed49dc"},"vehicle_type_id":"4","last_reported":1680368673,"current_range_meters":0,"station_id":"","pricing_plan_id":"free"},{"bike_id":"99c0a9a8-f344-483e-bf5f-49996246ef84","system_id":"levelo_inurba_marseille","lat":43.2936,"lon":5.37835,"is_reserved":false,"is_disabled":false,"rental_uris":{"android":"levelo://app?vid=99c0a9a8-f344-483e-bf5f-49996246ef84","ios":"levelo://app?vid=99c0a9a8-f344-483e-bf5f-49996246ef84"},"vehicle_type_id":"4","last_reported":1680368673,"current_range_meters":0,"station_id":"ce4bgjh2rcd13ifvqbf0","pricing_plan_id":"free"},{"bike_id":"a791f645-4916-44de-a143-c6a20a800efd","system_id":"levelo_inurba_marseille","lat":43.291671,"lon":5.371575,"is_reserved":false,"is_disabled":false,"rental_uris":{"android":"levelo://app?vid=a791f645-4916-44de-a143-c6a20a800efd","ios":"levelo://app?vid=a791f645-4916-44de-a143-c6a20a800efd"},"vehicle_type_id":"4","last_reported":1680368673,"current_range_meters":18000,"station_id":"ce4bha92rcd13ifvqeh0","pricing_plan_id":"free"},{"bike_id":"7d07c19a-44ee-443c-9038-9c994e7ebb5f","system_id":"levelo_inurba_marseille","lat":43.313291,"lon":5.396838,"is_reserved":false,"is_disabled":false,"rental_uris":{"android":"levelo://app?vid=7d07c19a-44ee-443c-9038-9c994e7ebb5f","ios":"levelo://app?vid=7d07c19a-44ee-443c-9038-9c994e7ebb5f"},"vehicle_type_id":"4","last_reported":1680368673,"current_range_meters":0,"station_id":"ce4bgvp2rcd13ifvqcu0","pricing_plan_id":"free"},{"bike_id":"3b98f1c7-7b8b-4a66-9538-a7f26cb5a8d9","system_id":"levelo_inurba_marseille","lat":43.32686,"lon":5.3912,"is_reserved":false,"is_disabled":false,"rental_uris":{"android":"levelo://app?vid=3b98f1c7-7b8b-4a66-9538-a7f26cb5a8d9","ios":"levelo://app?vid=3b98f1c7-7b8b-4a66-9538-a7f26cb5a8d9"},"vehicle_type_id":"4","last_reported":1680368673,"current_range_meters":6800,"station_id":"","pricing_plan_id":"free"},{"bike_id":"a8833150-9a9f-479c-ae2f-10daead4cabc","system_id":"levelo_inurba_marseille","lat":43.3021,"lon":5.39463,"is_reserved":false,"is_disabled":false,"rental_uris":{"android":"levelo://app?vid=a8833150-9a9f-479c-ae2f-10daead4cabc","ios":"levelo://app?vid=a8833150-9a9f-479c-ae2f-10daead4cabc"},"vehicle_type_id":"4","last_reported":1680368673,"current_range_meters":0,"station_id":"ce4bh0p2rcd13ifvqd70","pricing_plan_id":"free"},{"bike_id":"d7139a97-24ec-41b5-ae48-c1ddde70e0e2","system_id":"levelo_inurba_marseille","lat":43.290624,"lon":5.359245,"is_reserved":false,"is_disabled":false,"rental_uris":{"android":"levelo://app?vid=d7139a97-24ec-41b5-ae48-c1ddde70e0e2","ios":"levelo://app?vid=d7139a97-24ec-41b5-ae48-c1ddde70e0e2"},"vehicle_type_id":"4","last_reported":1680368673,"current_range_meters":0,"station_id":"ce4bha92rcd13ifvqeg0","pricing_plan_id":"free"},{"bike_id":"5e6046f2-484b-4ccc-9c65-825b4a647f2b","system_id":"levelo_inurba_marseille","lat":43.32727,"lon":5.39256,"is_reserved":false,"is_disabled":false,"rental_uris":{"android":"levelo://app?vid=5e6046f2-484b-4ccc-9c65-825b4a647f2b","ios":"levelo://app?vid=5e6046f2-484b-4ccc-9c65-825b4a647f2b"},"vehicle_type_id":"4","last_reported":1680368673,"current_range_meters":4000,"station_id":"","pricing_plan_id":"free"},{"bike_id":"f63686c6-2aa5-4493-9457-40298d9860d3","system_id":"levelo_inurba_marseille","lat":43.292644,"lon":5.384257,"is_reserved":false,"is_disabled":false,"rental_uris":{"android":"levelo://app?vid=f63686c6-2aa5-4493-9457-40298d9860d3","ios":"levelo://app?vid=f63686c6-2aa5-4493-9457-40298d9860d3"},"vehicle_type_id":"4","last_reported":1680368673,"current_range_meters":24000,"station_id":"ce4bh692rcd13ifvqea0","pricing_plan_id":"free"},{"bike_id":"41fadeff-b082-4bf4-bb34-fc304d762eff","system_id":"levelo_inurba_marseille","lat":43.29346,"lon":5.3864,"is_reserved":false,"is_disabled":false,"rental_uris":{"android":"levelo://app?vid=41fadeff-b082-4bf4-bb34-fc304d762eff","ios":"levelo://app?vid=41fadeff-b082-4bf4-bb34-fc304d762eff"},"vehicle_type_id":"4","last_reported":1680368673,"current_range_meters":0,"station_id":"","pricing_plan_id":"free"},{"bike_id":"7ccb953d-c766-4f58-9678-f10a8fb9870c","system_id":"levelo_inurba_marseille","lat":43.290995,"lon":5.381361,"is_reserved":false,"is_disabled":false,"rental_uris":{"android":"levelo://app?vid=7ccb953d-c766-4f58-9678-f10a8fb9870c","ios":"levelo://app?vid=7ccb953d-c766-4f58-9678-f10a8fb9870c"},"vehicle_type_id":"4","last_reported":1680368673,"current_range_meters":800,"station_id":"ce4bh512rcd13ifvqe2g","pricing_plan_id":"free"},{"bike_id":"18224f97-905a-4084-817e-f4e6b1f18d7b","system_id":"levelo_inurba_marseille","lat":43.28877,"lon":5.3608,"is_reserved":false,"is_disabled":false,"rental_uris":{"android":"levelo://app?vid=18224f97-905a-4084-817e-f4e6b1f18d7b","ios":"levelo://app?vid=18224f97-905a-4084-817e-f4e6b1f18d7b"},"vehicle_type_id":"4","last_reported":1680368673,"current_range_meters":0,"station_id":"","pricing_plan_id":"free"},{"bike_id":"1c9ddd8c-419a-40c9-8eae-cbe101acb6db","system_id":"levelo_inurba_marseille","lat":43.289741,"lon":5.378306,"is_reserved":false,"is_disabled":false,"rental_uris":{"android":"levelo://app?vid=1c9ddd8c-419a-40c9-8eae-cbe101acb6db","ios":"levelo://app?vid=1c9ddd8c-419a-40c9-8eae-cbe101acb6db"},"vehicle_type_id":"4","last_reported":1680368673,"current_range_meters":12800,"station_id":"ce4bh9p2rcd13ifvqed0","pricing_plan_id":"free"},{"bike_id":"8edc140f-7c6a-4477-862f-6e1830123887","system_id":"levelo_inurba_marseille","lat":43.289741,"lon":5.378306,"is_reserved":false,"is_disabled":false,"rental_uris":{"android":"levelo://app?vid=8edc140f-7c6a-4477-862f-6e1830123887","ios":"levelo://app?vid=8edc140f-7c6a-4477-862f-6e1830123887"},"vehicle_type_id":"4","last_reported":1680368673,"current_range_meters":9200,"station_id":"ce4bh9p2rcd13ifvqed0","pricing_plan_id":"free"},{"bike_id":"79b3f0d6-28f1-498e-a6c3-7a0bf737e973","system_id":"levelo_inurba_marseille","lat":43.289741,"lon":5.378306,"is_reserved":false,"is_disabled":false,"rental_uris":{"android":"levelo://app?vid=79b3f0d6-28f1-498e-a6c3-7a0bf737e973","ios":"levelo://app?vid=79b3f0d6-28f1-498e-a6c3-7a0bf737e973"},"vehicle_type_id":"4","last_reported":1680368673,"current_range_meters":10400,"station_id":"ce4bh9p2rcd13ifvqed0","pricing_plan_id":"free"},{"bike_id":"d5e7f912-9db7-421f-bdbd-ea6cba1b86fc","system_id":"levelo_inurba_marseille","lat":43.28975,"lon":5.37842,"is_reserved":false,"is_disabled":false,"rental_uris":{"android":"levelo://app?vid=d5e7f912-9db7-421f-bdbd-ea6cba1b86fc","ios":"levelo://app?vid=d5e7f912-9db7-421f-bdbd-ea6cba1b86fc"},"vehicle_type_id":"4","last_reported":1680368673,"current_range_meters":11200,"station_id":"ce4bh9p2rcd13ifvqed0","pricing_plan_id":"free"},{"bike_id":"cfc2f2c7-339c-4cbd-b396-d5eeaecde886","system_id":"levelo_inurba_marseille","lat":43.28856,"lon":5.358371,"is_reserved":false,"is_disabled":false,"rental_uris":{"android":"levelo://app?vid=cfc2f2c7-339c-4cbd-b396-d5eeaecde886","ios":"levelo://app?vid=cfc2f2c7-339c-4cbd-b396-d5eeaecde886"},"vehicle_type_id":"4","last_reported":1680368673,"current_range_meters":0,"station_id":"ce4bhb12rcd13ifvqem0","pricing_plan_id":"free"},{"bike_id":"0b8f9862-ff07-4109-92c7-4664d7c7fa5e","system_id":"levelo_inurba_marseille","lat":43.28856,"lon":5.358371,"is_reserved":false,"is_disabled":false,"rental_uris":{"android":"levelo://app?vid=0b8f9862-ff07-4109-92c7-4664d7c7fa5e","ios":"levelo://app?vid=0b8f9862-ff07-4109-92c7-4664d7c7fa5e"},"vehicle_type_id":"4","last_reported":1680368673,"current_range_meters":0,"station_id":"ce4bhb12rcd13ifvqem0","pricing_plan_id":"free"},{"bike_id":"8da554b7-a47d-4580-b62d-82b554803b69","system_id":"levelo_inurba_marseille","lat":43.33763,"lon":5.37456,"is_reserved":false,"is_disabled":false,"rental_uris":{"android":"levelo://app?vid=8da554b7-a47d-4580-b62d-82b554803b69","ios":"levelo://app?vid=8da554b7-a47d-4580-b62d-82b554803b69"},"vehicle_type_id":"4","last_reported":1680368673,"current_range_meters":27600,"station_id":"","pricing_plan_id":"free"},{"bike_id":"4b9fc23b-2a6d-41ea-8a95-41660cd54724","system_id":"levelo_inurba_marseille","lat":43.30642,"lon":5.401031,"is_reserved":false,"is_disabled":false,"rental_uris":{"android":"levelo://app?vid=4b9fc23b-2a6d-41ea-8a95-41660cd54724","ios":"levelo://app?vid=4b9fc23b-2a6d-41ea-8a95-41660cd54724"},"vehicle_type_id":"4","last_reported":1680368673,"current_range_meters":1600,"station_id":"ce4bh112rcd13ifvqda0","pricing_plan_id":"free"},{"bike_id":"e5974871-55c5-492d-b81a-e3ab162bd5bf","system_id":"levelo_inurba_marseille","lat":43.286593,"lon":5.363346,"is_reserved":false,"is_disabled":false,"rental_uris":{"android":"levelo://app?vid=e5974871-55c5-492d-b81a-e3ab162bd5bf","ios":"levelo://app?vid=e5974871-55c5-492d-b81a-e3ab162bd5bf"},"vehicle_type_id":"4","last_reported":1680368673,"current_range_meters":3200,"station_id":"ce4bhah2rcd13ifvqej0","pricing_plan_id":"free"},{"bike_id":"3ac1b10d-1c12-428f-b35b-376c8aa49967","system_id":"levelo_inurba_marseille","lat":43.29521,"lon":5.3941,"is_reserved":false,"is_disabled":false,"rental_uris":{"android":"levelo://app?vid=3ac1b10d-1c12-428f-b35b-376c8aa49967","ios":"levelo://app?vid=3ac1b10d-1c12-428f-b35b-376c8aa49967"},"vehicle_type_id":"4","last_reported":1680368673,"current_range_meters":0,"station_id":"","pricing_plan_id":"free"},{"bike_id":"c22f27a7-72e8-4783-bb6e-898510e334cf","system_id":"levelo_inurba_marseille","lat":43.289184,"lon":5.366408,"is_reserved":false,"is_disabled":false,"rental_uris":{"android":"levelo://app?vid=c22f27a7-72e8-4783-bb6e-898510e334cf","ios":"levelo://app?vid=c22f27a7-72e8-4783-bb6e-898510e334cf"},"vehicle_type_id":"4","last_reported":1680368673,"current_range_meters":2400,"station_id":"ce4bhap2rcd13ifvqek0","pricing_plan_id":"free"},{"bike_id":"9845f8c7-1858-4632-8299-6d829bf57718","system_id":"levelo_inurba_marseille","lat":43.302759,"lon":5.400793,"is_reserved":false,"is_disabled":false,"rental_uris":{"android":"levelo://app?vid=9845f8c7-1858-4632-8299-6d829bf57718","ios":"levelo://app?vid=9845f8c7-1858-4632-8299-6d829bf57718"},"vehicle_type_id":"4","last_reported":1680368673,"current_range_meters":0,"station_id":"ce4bgvh2rcd13ifvqcs0","pricing_plan_id":"free"},{"bike_id":"bea65cf6-c026-40c1-b2f0-001e1feca9b0","system_id":"levelo_inurba_marseille","lat":43.28717,"lon":5.3795,"is_reserved":false,"is_disabled":false,"rental_uris":{"android":"levelo://app?vid=bea65cf6-c026-40c1-b2f0-001e1feca9b0","ios":"levelo://app?vid=bea65cf6-c026-40c1-b2f0-001e1feca9b0"},"vehicle_type_id":"4","last_reported":1680368673,"current_range_meters":0,"station_id":"ce4bh9p2rcd13ifvqec0","pricing_plan_id":"free"},{"bike_id":"6a181029-a2de-407f-a050-6261adc1832e","system_id":"levelo_inurba_marseille","lat":43.295713,"lon":5.399639,"is_reserved":false,"is_disabled":false,"rental_uris":{"android":"levelo://app?vid=6a181029-a2de-407f-a050-6261adc1832e","ios":"levelo://app?vid=6a181029-a2de-407f-a050-6261adc1832e"},"vehicle_type_id":"4","last_reported":1680368673,"current_range_meters":1200,"station_id":"ce4bh312rcd13ifvqdj0","pricing_plan_id":"free"},{"bike_id":"e4f60037-5755-4191-a614-c7144649b87f","system_id":"levelo_inurba_marseille","lat":43.284787,"lon":5.384116,"is_reserved":false,"is_disabled":false,"rental_uris":{"android":"levelo://app?vid=e4f60037-5755-4191-a614-c7144649b87f","ios":"levelo://app?vid=e4f60037-5755-4191-a614-c7144649b87f"},"vehicle_type_id":"4","last_reported":1680368673,"current_range_meters":30400,"station_id":"ce4bh512rcd13ifvqe3g","pricing_plan_id":"free"},{"bike_id":"c87e371e-3452-4290-b428-62fd88dc20d9","system_id":"levelo_inurba_marseille","lat":43.288497,"lon":5.393089,"is_reserved":false,"is_disabled":false,"rental_uris":{"android":"levelo://app?vid=c87e371e-3452-4290-b428-62fd88dc20d9","ios":"levelo://app?vid=c87e371e-3452-4290-b428-62fd88dc20d9"},"vehicle_type_id":"4","last_reported":1680368673,"current_range_meters":1600,"station_id":"ce4bh2p2rcd13ifvqdi0","pricing_plan_id":"free"},{"bike_id":"c1f52ef9-60e9-4e62-8456-a4f1f3869a47","system_id":"levelo_inurba_marseille","lat":43.284219,"lon":5.3497,"is_reserved":false,"is_disabled":false,"rental_uris":{"android":"levelo://app?vid=c1f52ef9-60e9-4e62-8456-a4f1f3869a47","ios":"levelo://app?vid=c1f52ef9-60e9-4e62-8456-a4f1f3869a47"},"vehicle_type_id":"4","last_reported":1680368673,"current_range_meters":10000,"station_id":"ce4bhbh2rcd13ifvqepg","pricing_plan_id":"free"},{"bike_id":"244a078b-52bb-4b46-8c46-52ab6a9d56ba","system_id":"levelo_inurba_marseille","lat":43.284219,"lon":5.3497,"is_reserved":false,"is_disabled":false,"rental_uris":{"android":"levelo://app?vid=244a078b-52bb-4b46-8c46-52ab6a9d56ba","ios":"levelo://app?vid=244a078b-52bb-4b46-8c46-52ab6a9d56ba"},"vehicle_type_id":"4","last_reported":1680368673,"current_range_meters":0,"station_id":"ce4bhbh2rcd13ifvqepg","pricing_plan_id":"free"},{"bike_id":"eded0e69-305e-453b-9701-887618536239","system_id":"levelo_inurba_marseille","lat":43.284217,"lon":5.349697,"is_reserved":false,"is_disabled":false,"rental_uris":{"android":"levelo://app?vid=eded0e69-305e-453b-9701-887618536239","ios":"levelo://app?vid=eded0e69-305e-453b-9701-887618536239"},"vehicle_type_id":"4","last_reported":1680368673,"current_range_meters":10800,"station_id":"ce4bhbh2rcd13ifvqepg","pricing_plan_id":"free"},{"bike_id":"060e09d9-16e4-4d00-aa0c-9cc6b00754f1","system_id":"levelo_inurba_marseille","lat":43.284217,"lon":5.349697,"is_reserved":false,"is_disabled":false,"rental_uris":{"android":"levelo://app?vid=060e09d9-16e4-4d00-aa0c-9cc6b00754f1","ios":"levelo://app?vid=060e09d9-16e4-4d00-aa0c-9cc6b00754f1"},"vehicle_type_id":"4","last_reported":1680368673,"current_range_meters":1200,"station_id":"ce4bhbh2rcd13ifvqepg","pricing_plan_id":"free"},{"bike_id":"ec63062b-b0bb-44f6-8bd1-caf3417a5c89","system_id":"levelo_inurba_marseille","lat":43.284217,"lon":5.349697,"is_reserved":false,"is_disabled":false,"rental_uris":{"android":"levelo://app?vid=ec63062b-b0bb-44f6-8bd1-caf3417a5c89","ios":"levelo://app?vid=ec63062b-b0bb-44f6-8bd1-caf3417a5c89"},"vehicle_type_id":"4","last_reported":1680368673,"current_range_meters":8400,"station_id":"ce4bhbh2rcd13ifvqepg","pricing_plan_id":"free"},{"bike_id":"66d62137-f6f5-4d98-bc3a-b60fb88240a4","system_id":"levelo_inurba_marseille","lat":43.292724,"lon":5.401131,"is_reserved":false,"is_disabled":false,"rental_uris":{"android":"levelo://app?vid=66d62137-f6f5-4d98-bc3a-b60fb88240a4","ios":"levelo://app?vid=66d62137-f6f5-4d98-bc3a-b60fb88240a4"},"vehicle_type_id":"4","last_reported":1680368673,"current_range_meters":4000,"station_id":"ce4bh312rcd13ifvqdk0","pricing_plan_id":"free"},{"bike_id":"dd9ba433-6589-4ef6-8260-9354a097594e","system_id":"levelo_inurba_marseille","lat":43.320202,"lon":5.409511,"is_reserved":false,"is_disabled":false,"rental_uris":{"android":"levelo://app?vid=dd9ba433-6589-4ef6-8260-9354a097594e","ios":"levelo://app?vid=dd9ba433-6589-4ef6-8260-9354a097594e"},"vehicle_type_id":"4","last_reported":1680368673,"current_range_meters":400,"station_id":"","pricing_plan_id":"free"},{"bike_id":"ea18e2d9-dad9-46e6-9a34-3cf2f72645f0","system_id":"levelo_inurba_marseille","lat":43.292724,"lon":5.401131,"is_reserved":false,"is_disabled":false,"rental_uris":{"android":"levelo://app?vid=ea18e2d9-dad9-46e6-9a34-3cf2f72645f0","ios":"levelo://app?vid=ea18e2d9-dad9-46e6-9a34-3cf2f72645f0"},"vehicle_type_id":"4","last_reported":1680368673,"current_range_meters":0,"station_id":"ce4bh312rcd13ifvqdk0","pricing_plan_id":"free"},{"bike_id":"9d149aee-c89e-4498-9ce1-70cb0953afc4","system_id":"levelo_inurba_marseille","lat":43.32085,"lon":5.40969,"is_reserved":false,"is_disabled":false,"rental_uris":{"android":"levelo://app?vid=9d149aee-c89e-4498-9ce1-70cb0953afc4","ios":"levelo://app?vid=9d149aee-c89e-4498-9ce1-70cb0953afc4"},"vehicle_type_id":"4","last_reported":1680368673,"current_range_meters":0,"station_id":"","pricing_plan_id":"free"},{"bike_id":"6eb77d80-e590-4f76-a68a-9dcddf045e81","system_id":"levelo_inurba_marseille","lat":43.28274,"lon":5.35066,"is_reserved":false,"is_disabled":false,"rental_uris":{"android":"levelo://app?vid=6eb77d80-e590-4f76-a68a-9dcddf045e81","ios":"levelo://app?vid=6eb77d80-e590-4f76-a68a-9dcddf045e81"},"vehicle_type_id":"4","last_reported":1680368673,"current_range_meters":0,"station_id":"ce4bhbp2rcd13ifvqerg","pricing_plan_id":"free"},{"bike_id":"a9b4dd6a-2ee5-4832-9c79-4400b5ef7ada","system_id":"levelo_inurba_marseille","lat":43.29041,"lon":5.399634,"is_reserved":false,"is_disabled":false,"rental_uris":{"android":"levelo://app?vid=a9b4dd6a-2ee5-4832-9c79-4400b5ef7ada","ios":"levelo://app?vid=a9b4dd6a-2ee5-4832-9c79-4400b5ef7ada"},"vehicle_type_id":"4","last_reported":1680368673,"current_range_meters":14400,"station_id":"ce4bh392rcd13ifvqdm0","pricing_plan_id":"free"},{"bike_id":"db12b1f7-3503-47e6-b369-077321d6d8d5","system_id":"levelo_inurba_marseille","lat":43.304188,"lon":5.412904,"is_reserved":false,"is_disabled":false,"rental_uris":{"android":"levelo://app?vid=db12b1f7-3503-47e6-b369-077321d6d8d5","ios":"levelo://app?vid=db12b1f7-3503-47e6-b369-077321d6d8d5"},"vehicle_type_id":"4","last_reported":1680368673,"current_range_meters":6800,"station_id":"ce4bhop2rcd13ifvqh8g","pricing_plan_id":"free"},{"bike_id":"2469cc9e-2ad0-419d-ae76-3a5a11c383e1","system_id":"levelo_inurba_marseille","lat":43.27835,"lon":5.37929,"is_reserved":false,"is_disabled":false,"rental_uris":{"android":"levelo://app?vid=2469cc9e-2ad0-419d-ae76-3a5a11c383e1","ios":"levelo://app?vid=2469cc9e-2ad0-419d-ae76-3a5a11c383e1"},"vehicle_type_id":"4","last_reported":1680368673,"current_range_meters":400,"station_id":"","pricing_plan_id":"free"},{"bike_id":"a3456f22-afd6-48a7-947e-d4abaf5c0047","system_id":"levelo_inurba_marseille","lat":43.27969,"lon":5.3873,"is_reserved":false,"is_disabled":false,"rental_uris":{"android":"levelo://app?vid=a3456f22-afd6-48a7-947e-d4abaf5c0047","ios":"levelo://app?vid=a3456f22-afd6-48a7-947e-d4abaf5c0047"},"vehicle_type_id":"4","last_reported":1680368673,"current_range_meters":0,"station_id":"ce4bhg12rcd13ifvqf80","pricing_plan_id":"free"},{"bike_id":"e61239f4-f80e-4606-a59e-fffa795fe118","system_id":"levelo_inurba_marseille","lat":43.325233,"lon":5.414318,"is_reserved":false,"is_disabled":false,"rental_uris":{"android":"levelo://app?vid=e61239f4-f80e-4606-a59e-fffa795fe118","ios":"levelo://app?vid=e61239f4-f80e-4606-a59e-fffa795fe118"},"vehicle_type_id":"4","last_reported":1680368673,"current_range_meters":29200,"station_id":"ce4bhq12rcd13ifvqhhg","pricing_plan_id":"free"},{"bike_id":"c039a361-b26a-4f72-9260-4ee9d907d6c9","system_id":"levelo_inurba_marseille","lat":43.325233,"lon":5.414318,"is_reserved":false,"is_disabled":false,"rental_uris":{"android":"levelo://app?vid=c039a361-b26a-4f72-9260-4ee9d907d6c9","ios":"levelo://app?vid=c039a361-b26a-4f72-9260-4ee9d907d6c9"},"vehicle_type_id":"4","last_reported":1680368673,"current_range_meters":3600,"station_id":"ce4bhq12rcd13ifvqhhg","pricing_plan_id":"free"},{"bike_id":"b0d51680-cd2d-4134-a927-92fc0ee9107f","system_id":"levelo_inurba_marseille","lat":43.28078,"lon":5.39661,"is_reserved":false,"is_disabled":false,"rental_uris":{"android":"levelo://app?vid=b0d51680-cd2d-4134-a927-92fc0ee9107f","ios":"levelo://app?vid=b0d51680-cd2d-4134-a927-92fc0ee9107f"},"vehicle_type_id":"4","last_reported":1680368673,"current_range_meters":12800,"station_id":"ce4bho12rcd13ifvqh2g","pricing_plan_id":"free"},{"bike_id":"eed7757a-62a4-4567-a377-093c9d088fc6","system_id":"levelo_inurba_marseille","lat":43.28072,"lon":5.39659,"is_reserved":false,"is_disabled":false,"rental_uris":{"android":"levelo://app?vid=eed7757a-62a4-4567-a377-093c9d088fc6","ios":"levelo://app?vid=eed7757a-62a4-4567-a377-093c9d088fc6"},"vehicle_type_id":"4","last_reported":1680368673,"current_range_meters":1600,"station_id":"ce4bho12rcd13ifvqh2g","pricing_plan_id":"free"},{"bike_id":"a42ddceb-ae97-4b7c-a67e-eef4d2eba0c0","system_id":"levelo_inurba_marseille","lat":43.27374,"lon":5.36261,"is_reserved":false,"is_disabled":false,"rental_uris":{"android":"levelo://app?vid=a42ddceb-ae97-4b7c-a67e-eef4d2eba0c0","ios":"levelo://app?vid=a42ddceb-ae97-4b7c-a67e-eef4d2eba0c0"},"vehicle_type_id":"4","last_reported":1680368673,"current_range_meters":1200,"station_id":"ce4bhbh2rcd13ifvqeo0","pricing_plan_id":"free"},{"bike_id":"b4081c68-3cfb-44dd-ac91-288dd198dd99","system_id":"levelo_inurba_marseille","lat":43.27373,"lon":5.36255,"is_reserved":false,"is_disabled":false,"rental_uris":{"android":"levelo://app?vid=b4081c68-3cfb-44dd-ac91-288dd198dd99","ios":"levelo://app?vid=b4081c68-3cfb-44dd-ac91-288dd198dd99"},"vehicle_type_id":"4","last_reported":1680368673,"current_range_meters":31200,"station_id":"ce4bhbh2rcd13ifvqeo0","pricing_plan_id":"free"},{"bike_id":"c8f1ff47-424a-47c8-9190-35e3915454cb","system_id":"levelo_inurba_marseille","lat":43.273609,"lon":5.362708,"is_reserved":false,"is_disabled":false,"rental_uris":{"android":"levelo://app?vid=c8f1ff47-424a-47c8-9190-35e3915454cb","ios":"levelo://app?vid=c8f1ff47-424a-47c8-9190-35e3915454cb"},"vehicle_type_id":"4","last_reported":1680368673,"current_range_meters":31200,"station_id":"ce4bhbh2rcd13ifvqeo0","pricing_plan_id":"free"},{"bike_id":"7f7d8ce6-3863-4dc4-986b-08a912c3291e","system_id":"levelo_inurba_marseille","lat":43.336134,"lon":5.410341,"is_reserved":false,"is_disabled":false,"rental_uris":{"android":"levelo://app?vid=7f7d8ce6-3863-4dc4-986b-08a912c3291e","ios":"levelo://app?vid=7f7d8ce6-3863-4dc4-986b-08a912c3291e"},"vehicle_type_id":"4","last_reported":1680368673,"current_range_meters":5200,"station_id":"ce4bhqh2rcd13ifvqhmg","pricing_plan_id":"free"},{"bike_id":"ae814b88-cabc-46f8-a953-634750e8e68d","system_id":"levelo_inurba_marseille","lat":43.336134,"lon":5.410341,"is_reserved":false,"is_disabled":false,"rental_uris":{"android":"levelo://app?vid=ae814b88-cabc-46f8-a953-634750e8e68d","ios":"levelo://app?vid=ae814b88-cabc-46f8-a953-634750e8e68d"},"vehicle_type_id":"4","last_reported":1680368673,"current_range_meters":12400,"station_id":"ce4bhqh2rcd13ifvqhmg","pricing_plan_id":"free"},{"bike_id":"6fbda49e-d18f-4aba-80bc-cf60e47f4b3a","system_id":"levelo_inurba_marseille","lat":43.27252,"lon":5.39092,"is_reserved":false,"is_disabled":false,"rental_uris":{"android":"levelo://app?vid=6fbda49e-d18f-4aba-80bc-cf60e47f4b3a","ios":"levelo://app?vid=6fbda49e-d18f-4aba-80bc-cf60e47f4b3a"},"vehicle_type_id":"4","last_reported":1680368673,"current_range_meters":0,"station_id":"","pricing_plan_id":"free"},{"bike_id":"cec9dd5f-21b6-4ca1-b07d-75afc299ebae","system_id":"levelo_inurba_marseille","lat":43.295523,"lon":5.422926,"is_reserved":false,"is_disabled":false,"rental_uris":{"android":"levelo://app?vid=cec9dd5f-21b6-4ca1-b07d-75afc299ebae","ios":"levelo://app?vid=cec9dd5f-21b6-4ca1-b07d-75afc299ebae"},"vehicle_type_id":"4","last_reported":1680368673,"current_range_meters":0,"station_id":"ce4bhph2rcd13ifvqhdg","pricing_plan_id":"free"},{"bike_id":"b724f3aa-22c2-4403-8f46-06e04222ad21","system_id":"levelo_inurba_marseille","lat":43.278128,"lon":5.407195,"is_reserved":false,"is_disabled":false,"rental_uris":{"android":"levelo://app?vid=b724f3aa-22c2-4403-8f46-06e04222ad21","ios":"levelo://app?vid=b724f3aa-22c2-4403-8f46-06e04222ad21"},"vehicle_type_id":"4","last_reported":1680368673,"current_range_meters":23600,"station_id":"ce4bhnh2rcd13ifvqgtg","pricing_plan_id":"free"},{"bike_id":"ed3c4970-1615-41d4-be9a-6a4e34081ec0","system_id":"levelo_inurba_marseille","lat":43.31177,"lon":5.42943,"is_reserved":false,"is_disabled":false,"rental_uris":{"android":"levelo://app?vid=ed3c4970-1615-41d4-be9a-6a4e34081ec0","ios":"levelo://app?vid=ed3c4970-1615-41d4-be9a-6a4e34081ec0"},"vehicle_type_id":"4","last_reported":1680368673,"current_range_meters":0,"station_id":"","pricing_plan_id":"free"},{"bike_id":"e0a99ce9-9269-4193-b9da-0f9e9e3dc4cf","system_id":"levelo_inurba_marseille","lat":43.26681,"lon":5.382694,"is_reserved":false,"is_disabled":false,"rental_uris":{"android":"levelo://app?vid=e0a99ce9-9269-4193-b9da-0f9e9e3dc4cf","ios":"levelo://app?vid=e0a99ce9-9269-4193-b9da-0f9e9e3dc4cf"},"vehicle_type_id":"4","last_reported":1680368673,"current_range_meters":3200,"station_id":"ce4bhg92rcd13ifvqf90","pricing_plan_id":"free"},{"bike_id":"5ca07a70-a0d7-4939-88f5-ede667faa5dc","system_id":"levelo_inurba_marseille","lat":43.26562,"lon":5.37289,"is_reserved":false,"is_disabled":false,"rental_uris":{"android":"levelo://app?vid=5ca07a70-a0d7-4939-88f5-ede667faa5dc","ios":"levelo://app?vid=5ca07a70-a0d7-4939-88f5-ede667faa5dc"},"vehicle_type_id":"4","last_reported":1680368673,"current_range_meters":25600,"station_id":"ce4bhg12rcd13ifvqf70","pricing_plan_id":"free"},{"bike_id":"ad6c885f-80ee-4277-8253-95a947efd319","system_id":"levelo_inurba_marseille","lat":43.2656,"lon":5.37285,"is_reserved":false,"is_disabled":false,"rental_uris":{"android":"levelo://app?vid=ad6c885f-80ee-4277-8253-95a947efd319","ios":"levelo://app?vid=ad6c885f-80ee-4277-8253-95a947efd319"},"vehicle_type_id":"4","last_reported":1680368673,"current_range_meters":21200,"station_id":"ce4bhg12rcd13ifvqf70","pricing_plan_id":"free"},{"bike_id":"faf3c95f-66bb-444b-bd3f-77e8c7ee61e6","system_id":"levelo_inurba_marseille","lat":43.265714,"lon":5.372891,"is_reserved":false,"is_disabled":false,"rental_uris":{"android":"levelo://app?vid=faf3c95f-66bb-444b-bd3f-77e8c7ee61e6","ios":"levelo://app?vid=faf3c95f-66bb-444b-bd3f-77e8c7ee61e6"},"vehicle_type_id":"4","last_reported":1680368673,"current_range_meters":6400,"station_id":"ce4bhg12rcd13ifvqf70","pricing_plan_id":"free"},{"bike_id":"aedb8153-2e9e-47c4-bf83-49815a7a6b35","system_id":"levelo_inurba_marseille","lat":43.265714,"lon":5.372891,"is_reserved":false,"is_disabled":false,"rental_uris":{"android":"levelo://app?vid=aedb8153-2e9e-47c4-bf83-49815a7a6b35","ios":"levelo://app?vid=aedb8153-2e9e-47c4-bf83-49815a7a6b35"},"vehicle_type_id":"4","last_reported":1680368673,"current_range_meters":8800,"station_id":"ce4bhg12rcd13ifvqf70","pricing_plan_id":"free"},{"bike_id":"a2327179-2500-41da-b471-7c7cb3b971d7","system_id":"levelo_inurba_marseille","lat":43.26555,"lon":5.37288,"is_reserved":false,"is_disabled":false,"rental_uris":{"android":"levelo://app?vid=a2327179-2500-41da-b471-7c7cb3b971d7","ios":"levelo://app?vid=a2327179-2500-41da-b471-7c7cb3b971d7"},"vehicle_type_id":"4","last_reported":1680368673,"current_range_meters":800,"station_id":"ce4bhg12rcd13ifvqf70","pricing_plan_id":"free"},{"bike_id":"c08e970a-924e-4e06-9997-3a0dea7888b2","system_id":"levelo_inurba_marseille","lat":43.26553,"lon":5.37283,"is_reserved":false,"is_disabled":false,"rental_uris":{"android":"levelo://app?vid=c08e970a-924e-4e06-9997-3a0dea7888b2","ios":"levelo://app?vid=c08e970a-924e-4e06-9997-3a0dea7888b2"},"vehicle_type_id":"4","last_reported":1680368673,"current_range_meters":27200,"station_id":"ce4bhg12rcd13ifvqf70","pricing_plan_id":"free"},{"bike_id":"62178271-a5a1-454b-b00f-de8f1380036f","system_id":"levelo_inurba_marseille","lat":43.27996,"lon":5.416624,"is_reserved":false,"is_disabled":false,"rental_uris":{"android":"levelo://app?vid=62178271-a5a1-454b-b00f-de8f1380036f","ios":"levelo://app?vid=62178271-a5a1-454b-b00f-de8f1380036f"},"vehicle_type_id":"4","last_reported":1680368673,"current_range_meters":28000,"station_id":"ce4bho12rcd13ifvqh1g","pricing_plan_id":"free"},{"bike_id":"1fd57141-c55d-4d22-9293-7e2097f2709d","system_id":"levelo_inurba_marseille","lat":43.2716,"lon":5.40553,"is_reserved":false,"is_disabled":false,"rental_uris":{"android":"levelo://app?vid=1fd57141-c55d-4d22-9293-7e2097f2709d","ios":"levelo://app?vid=1fd57141-c55d-4d22-9293-7e2097f2709d"},"vehicle_type_id":"4","last_reported":1680368673,"current_range_meters":0,"station_id":"","pricing_plan_id":"free"},{"bike_id":"eb238f57-03bd-4784-87c3-dd4883fdf96b","system_id":"levelo_inurba_marseille","lat":43.2716,"lon":5.40555,"is_reserved":false,"is_disabled":false,"rental_uris":{"android":"levelo://app?vid=eb238f57-03bd-4784-87c3-dd4883fdf96b","ios":"levelo://app?vid=eb238f57-03bd-4784-87c3-dd4883fdf96b"},"vehicle_type_id":"4","last_reported":1680368673,"current_range_meters":4800,"station_id":"","pricing_plan_id":"free"},{"bike_id":"c2641f51-ed78-47e3-87b8-5792efda4288","system_id":"levelo_inurba_marseille","lat":43.308051,"lon":5.43527,"is_reserved":false,"is_disabled":false,"rental_uris":{"android":"levelo://app?vid=c2641f51-ed78-47e3-87b8-5792efda4288","ios":"levelo://app?vid=c2641f51-ed78-47e3-87b8-5792efda4288"},"vehicle_type_id":"4","last_reported":1680368673,"current_range_meters":400,"station_id":"ce4bhph2rcd13ifvqheg","pricing_plan_id":"free"},{"bike_id":"b5726782-6fec-4d66-b45e-f01d5964dee0","system_id":"levelo_inurba_marseille","lat":43.30798,"lon":5.43532,"is_reserved":false,"is_disabled":false,"rental_uris":{"android":"levelo://app?vid=b5726782-6fec-4d66-b45e-f01d5964dee0","ios":"levelo://app?vid=b5726782-6fec-4d66-b45e-f01d5964dee0"},"vehicle_type_id":"4","last_reported":1680368673,"current_range_meters":7200,"station_id":"ce4bhph2rcd13ifvqheg","pricing_plan_id":"free"},{"bike_id":"be1b754a-2682-479e-867d-c90ba4be636c","system_id":"levelo_inurba_marseille","lat":43.26184,"lon":5.37443,"is_reserved":false,"is_disabled":false,"rental_uris":{"android":"levelo://app?vid=be1b754a-2682-479e-867d-c90ba4be636c","ios":"levelo://app?vid=be1b754a-2682-479e-867d-c90ba4be636c"},"vehicle_type_id":"4","last_reported":1680368673,"current_range_meters":0,"station_id":"","pricing_plan_id":"free"},{"bike_id":"84efebda-3dc9-42c8-9323-fe1e0bb94b4f","system_id":"levelo_inurba_marseille","lat":43.317104,"lon":5.436818,"is_reserved":false,"is_disabled":false,"rental_uris":{"android":"levelo://app?vid=84efebda-3dc9-42c8-9323-fe1e0bb94b4f","ios":"levelo://app?vid=84efebda-3dc9-42c8-9323-fe1e0bb94b4f"},"vehicle_type_id":"4","last_reported":1680368673,"current_range_meters":11600,"station_id":"ce4bhp92rcd13ifvqhcg","pricing_plan_id":"free"},{"bike_id":"5b0cd165-e32b-495c-b5cb-80ddf1d23dc4","system_id":"levelo_inurba_marseille","lat":43.31708,"lon":5.43717,"is_reserved":false,"is_disabled":false,"rental_uris":{"android":"levelo://app?vid=5b0cd165-e32b-495c-b5cb-80ddf1d23dc4","ios":"levelo://app?vid=5b0cd165-e32b-495c-b5cb-80ddf1d23dc4"},"vehicle_type_id":"4","last_reported":1680368673,"current_range_meters":18400,"station_id":"","pricing_plan_id":"free"},{"bike_id":"e46b31a2-bc73-42f4-9dc9-bbdcbe0c6228","system_id":"levelo_inurba_marseille","lat":43.267959,"lon":5.402685,"is_reserved":false,"is_disabled":false,"rental_uris":{"android":"levelo://app?vid=e46b31a2-bc73-42f4-9dc9-bbdcbe0c6228","ios":"levelo://app?vid=e46b31a2-bc73-42f4-9dc9-bbdcbe0c6228"},"vehicle_type_id":"4","last_reported":1680368673,"current_range_meters":15200,"station_id":"ce501612rcd8frsf0b60","pricing_plan_id":"free"},{"bike_id":"e75cc772-a647-445f-9077-80ee6c1aeaf8","system_id":"levelo_inurba_marseille","lat":43.29892,"lon":5.43668,"is_reserved":false,"is_disabled":false,"rental_uris":{"android":"levelo://app?vid=e75cc772-a647-445f-9077-80ee6c1aeaf8","ios":"levelo://app?vid=e75cc772-a647-445f-9077-80ee6c1aeaf8"},"vehicle_type_id":"4","last_reported":1680368673,"current_range_meters":9600,"station_id":"ce4bhpp2rcd13ifvqhfg","pricing_plan_id":"free"},{"bike_id":"cb072951-6296-4753-9fe4-cf8d66f14927","system_id":"levelo_inurba_marseille","lat":43.298768,"lon":5.43643,"is_reserved":false,"is_disabled":false,"rental_uris":{"android":"levelo://app?vid=cb072951-6296-4753-9fe4-cf8d66f14927","ios":"levelo://app?vid=cb072951-6296-4753-9fe4-cf8d66f14927"},"vehicle_type_id":"4","last_reported":1680368673,"current_range_meters":30800,"station_id":"ce4bhpp2rcd13ifvqhfg","pricing_plan_id":"free"},{"bike_id":"5b3980df-1e0d-4134-9e9f-773b6ed36452","system_id":"levelo_inurba_marseille","lat":43.29887,"lon":5.4367,"is_reserved":false,"is_disabled":false,"rental_uris":{"android":"levelo://app?vid=5b3980df-1e0d-4134-9e9f-773b6ed36452","ios":"levelo://app?vid=5b3980df-1e0d-4134-9e9f-773b6ed36452"},"vehicle_type_id":"4","last_reported":1680368673,"current_range_meters":13600,"station_id":"ce4bhpp2rcd13ifvqhfg","pricing_plan_id":"free"},{"bike_id":"5bdd52d0-bcab-4b2c-816a-a1eb15f02b86","system_id":"levelo_inurba_marseille","lat":43.2607,"lon":5.393983,"is_reserved":false,"is_disabled":false,"rental_uris":{"android":"levelo://app?vid=5bdd52d0-bcab-4b2c-816a-a1eb15f02b86","ios":"levelo://app?vid=5bdd52d0-bcab-4b2c-816a-a1eb15f02b86"},"vehicle_type_id":"4","last_reported":1680368673,"current_range_meters":18400,"station_id":"ce4bhh92rcd13ifvqfj0","pricing_plan_id":"free"},{"bike_id":"8d11dd0a-18e4-4405-85fc-b13fb9d28b25","system_id":"levelo_inurba_marseille","lat":43.2607,"lon":5.393983,"is_reserved":false,"is_disabled":false,"rental_uris":{"android":"levelo://app?vid=8d11dd0a-18e4-4405-85fc-b13fb9d28b25","ios":"levelo://app?vid=8d11dd0a-18e4-4405-85fc-b13fb9d28b25"},"vehicle_type_id":"4","last_reported":1680368673,"current_range_meters":10400,"station_id":"ce4bhh92rcd13ifvqfj0","pricing_plan_id":"free"},{"bike_id":"3209d76a-ce9e-4f23-956f-a9283bb64ae0","system_id":"levelo_inurba_marseille","lat":43.2607,"lon":5.393983,"is_reserved":false,"is_disabled":false,"rental_uris":{"android":"levelo://app?vid=3209d76a-ce9e-4f23-956f-a9283bb64ae0","ios":"levelo://app?vid=3209d76a-ce9e-4f23-956f-a9283bb64ae0"},"vehicle_type_id":"4","last_reported":1680368673,"current_range_meters":11600,"station_id":"ce4bhh92rcd13ifvqfj0","pricing_plan_id":"free"},{"bike_id":"a8cd0620-c2ac-455b-b0d8-d2a56827f7db","system_id":"levelo_inurba_marseille","lat":43.2607,"lon":5.393983,"is_reserved":false,"is_disabled":false,"rental_uris":{"android":"levelo://app?vid=a8cd0620-c2ac-455b-b0d8-d2a56827f7db","ios":"levelo://app?vid=a8cd0620-c2ac-455b-b0d8-d2a56827f7db"},"vehicle_type_id":"4","last_reported":1680368673,"current_range_meters":16800,"station_id":"ce4bhh92rcd13ifvqfj0","pricing_plan_id":"free"},{"bike_id":"3a29d132-a3c1-4edf-900f-2dda9a3adcf7","system_id":"levelo_inurba_marseille","lat":43.2607,"lon":5.393983,"is_reserved":false,"is_disabled":false,"rental_uris":{"android":"levelo://app?vid=3a29d132-a3c1-4edf-900f-2dda9a3adcf7","ios":"levelo://app?vid=3a29d132-a3c1-4edf-900f-2dda9a3adcf7"},"vehicle_type_id":"4","last_reported":1680368673,"current_range_meters":1600,"station_id":"ce4bhh92rcd13ifvqfj0","pricing_plan_id":"free"},{"bike_id":"34276713-ad2e-4574-81a5-6d4b34a2a8f6","system_id":"levelo_inurba_marseille","lat":43.260909,"lon":5.397591,"is_reserved":false,"is_disabled":false,"rental_uris":{"android":"levelo://app?vid=34276713-ad2e-4574-81a5-6d4b34a2a8f6","ios":"levelo://app?vid=34276713-ad2e-4574-81a5-6d4b34a2a8f6"},"vehicle_type_id":"4","last_reported":1680368673,"current_range_meters":0,"station_id":"ce4bhi12rcd13ifvqfq0","pricing_plan_id":"free"},{"bike_id":"2dfb0dab-6bf2-4ece-b591-4d5c2941a1f8","system_id":"levelo_inurba_marseille","lat":43.25579,"lon":5.3824,"is_reserved":false,"is_disabled":false,"rental_uris":{"android":"levelo://app?vid=2dfb0dab-6bf2-4ece-b591-4d5c2941a1f8","ios":"levelo://app?vid=2dfb0dab-6bf2-4ece-b591-4d5c2941a1f8"},"vehicle_type_id":"4","last_reported":1680368673,"current_range_meters":22000,"station_id":"ce4bhih2rcd13ifvqfs0","pricing_plan_id":"free"},{"bike_id":"fad9aec2-77b8-4396-b7ce-72ead4db955d","system_id":"levelo_inurba_marseille","lat":43.270721,"lon":5.422764,"is_reserved":false,"is_disabled":false,"rental_uris":{"android":"levelo://app?vid=fad9aec2-77b8-4396-b7ce-72ead4db955d","ios":"levelo://app?vid=fad9aec2-77b8-4396-b7ce-72ead4db955d"},"vehicle_type_id":"4","last_reported":1680368673,"current_range_meters":22000,"station_id":"ce4bhk92rcd13ifvqgb0","pricing_plan_id":"free"},{"bike_id":"723c5263-76ff-4b20-8e67-29e29d8452a4","system_id":"levelo_inurba_marseille","lat":43.2479,"lon":5.374457,"is_reserved":false,"is_disabled":false,"rental_uris":{"android":"levelo://app?vid=723c5263-76ff-4b20-8e67-29e29d8452a4","ios":"levelo://app?vid=723c5263-76ff-4b20-8e67-29e29d8452a4"},"vehicle_type_id":"4","last_reported":1680368673,"current_range_meters":1200,"station_id":"ce4bhgh2rcd13ifvqfb0","pricing_plan_id":"free"},{"bike_id":"66afad4c-7bdd-4dc1-a521-5f1777bc99a8","system_id":"levelo_inurba_marseille","lat":43.2479,"lon":5.374457,"is_reserved":false,"is_disabled":false,"rental_uris":{"android":"levelo://app?vid=66afad4c-7bdd-4dc1-a521-5f1777bc99a8","ios":"levelo://app?vid=66afad4c-7bdd-4dc1-a521-5f1777bc99a8"},"vehicle_type_id":"4","last_reported":1680368673,"current_range_meters":5600,"station_id":"ce4bhgh2rcd13ifvqfb0","pricing_plan_id":"free"},{"bike_id":"040c99cb-05e0-485a-b3ed-f2a09b7f7764","system_id":"levelo_inurba_marseille","lat":43.2479,"lon":5.374457,"is_reserved":false,"is_disabled":false,"rental_uris":{"android":"levelo://app?vid=040c99cb-05e0-485a-b3ed-f2a09b7f7764","ios":"levelo://app?vid=040c99cb-05e0-485a-b3ed-f2a09b7f7764"},"vehicle_type_id":"4","last_reported":1680368673,"current_range_meters":2000,"station_id":"ce4bhgh2rcd13ifvqfb0","pricing_plan_id":"free"},{"bike_id":"5a52e692-8a02-4898-92e5-aa7d5e21d3e1","system_id":"levelo_inurba_marseille","lat":43.25102,"lon":5.403214,"is_reserved":false,"is_disabled":false,"rental_uris":{"android":"levelo://app?vid=5a52e692-8a02-4898-92e5-aa7d5e21d3e1","ios":"levelo://app?vid=5a52e692-8a02-4898-92e5-aa7d5e21d3e1"},"vehicle_type_id":"4","last_reported":1680368673,"current_range_meters":800,"station_id":"ce4bhlh2rcd13ifvqgig","pricing_plan_id":"free"},{"bike_id":"16858856-049c-4355-a578-8c7b315d5189","system_id":"levelo_inurba_marseille","lat":43.25102,"lon":5.403214,"is_reserved":false,"is_disabled":false,"rental_uris":{"android":"levelo://app?vid=16858856-049c-4355-a578-8c7b315d5189","ios":"levelo://app?vid=16858856-049c-4355-a578-8c7b315d5189"},"vehicle_type_id":"4","last_reported":1680368673,"current_range_meters":0,"station_id":"ce4bhlh2rcd13ifvqgig","pricing_plan_id":"free"},{"bike_id":"61a84d7e-47ab-401a-8c06-9199ac9a5eef","system_id":"levelo_inurba_marseille","lat":43.24591,"lon":5.37376,"is_reserved":false,"is_disabled":false,"rental_uris":{"android":"levelo://app?vid=61a84d7e-47ab-401a-8c06-9199ac9a5eef","ios":"levelo://app?vid=61a84d7e-47ab-401a-8c06-9199ac9a5eef"},"vehicle_type_id":"4","last_reported":1680368673,"current_range_meters":31200,"station_id":"","pricing_plan_id":"free"},{"bike_id":"b096c9f0-aa66-498f-96a8-27f2f4a96eca","system_id":"levelo_inurba_marseille","lat":43.245581,"lon":5.395069,"is_reserved":false,"is_disabled":false,"rental_uris":{"android":"levelo://app?vid=b096c9f0-aa66-498f-96a8-27f2f4a96eca","ios":"levelo://app?vid=b096c9f0-aa66-498f-96a8-27f2f4a96eca"},"vehicle_type_id":"4","last_reported":1680368673,"current_range_meters":3200,"station_id":"ce4bhlp2rcd13ifvqgjg","pricing_plan_id":"free"},{"bike_id":"38993e16-8065-46bb-ba4b-ab67e0712f7f","system_id":"levelo_inurba_marseille","lat":43.24138,"lon":5.37136,"is_reserved":false,"is_disabled":false,"rental_uris":{"android":"levelo://app?vid=38993e16-8065-46bb-ba4b-ab67e0712f7f","ios":"levelo://app?vid=38993e16-8065-46bb-ba4b-ab67e0712f7f"},"vehicle_type_id":"4","last_reported":1680368673,"current_range_meters":2400,"station_id":"","pricing_plan_id":"free"},{"bike_id":"9155c12b-faf4-4aa0-b1d1-a59fe28c0d3c","system_id":"levelo_inurba_marseille","lat":43.239588,"lon":5.366238,"is_reserved":false,"is_disabled":false,"rental_uris":{"android":"levelo://app?vid=9155c12b-faf4-4aa0-b1d1-a59fe28c0d3c","ios":"levelo://app?vid=9155c12b-faf4-4aa0-b1d1-a59fe28c0d3c"},"vehicle_type_id":"4","last_reported":1680368673,"current_range_meters":4000,"station_id":"ce4bhi12rcd13ifvqfp0","pricing_plan_id":"free"},{"bike_id":"63ebb3ba-e520-403a-ae42-297e2aa31ea6","system_id":"levelo_inurba_marseille","lat":43.231919,"lon":5.355532,"is_reserved":false,"is_disabled":false,"rental_uris":{"android":"levelo://app?vid=63ebb3ba-e520-403a-ae42-297e2aa31ea6","ios":"levelo://app?vid=63ebb3ba-e520-403a-ae42-297e2aa31ea6"},"vehicle_type_id":"4","last_reported":1680368673,"current_range_meters":16000,"station_id":"ce4bhu92rcd13ifvqi70","pricing_plan_id":"free"},{"bike_id":"0d3f4e52-e67b-45ae-8cbd-ed8d1a164153","system_id":"levelo_inurba_marseille","lat":43.231919,"lon":5.355532,"is_reserved":false,"is_disabled":false,"rental_uris":{"android":"levelo://app?vid=0d3f4e52-e67b-45ae-8cbd-ed8d1a164153","ios":"levelo://app?vid=0d3f4e52-e67b-45ae-8cbd-ed8d1a164153"},"vehicle_type_id":"4","last_reported":1680368673,"current_range_meters":18400,"station_id":"ce4bhu92rcd13ifvqi70","pricing_plan_id":"free"},{"bike_id":"69daa838-e0c0-435b-a5c6-b13ac36e7751","system_id":"levelo_inurba_marseille","lat":43.231923,"lon":5.355545,"is_reserved":false,"is_disabled":false,"rental_uris":{"android":"levelo://app?vid=69daa838-e0c0-435b-a5c6-b13ac36e7751","ios":"levelo://app?vid=69daa838-e0c0-435b-a5c6-b13ac36e7751"},"vehicle_type_id":"4","last_reported":1680368673,"current_range_meters":5200,"station_id":"ce4bhu92rcd13ifvqi70","pricing_plan_id":"free"},{"bike_id":"aebf33a8-34d1-4a1e-a437-1141c438f732","system_id":"levelo_inurba_marseille","lat":43.23191,"lon":5.35549,"is_reserved":false,"is_disabled":false,"rental_uris":{"android":"levelo://app?vid=aebf33a8-34d1-4a1e-a437-1141c438f732","ios":"levelo://app?vid=aebf33a8-34d1-4a1e-a437-1141c438f732"},"vehicle_type_id":"4","last_reported":1680368673,"current_range_meters":0,"station_id":"ce4bhu92rcd13ifvqi70","pricing_plan_id":"free"}]}}