{"last_updated":1751559204,"ttl":60,"version":"2.2","data":{"bikes":[{"bike_id":"3da29fb8-fc97-44c6-b9ac-31dd456b2fd4","system_id":"levelo_inurba_marseille","lat":43.33771,"lon":5.37424,"is_reserved":false,"is_disabled":true,"rental_uris":{"android":"levelo://app?vid=3da29fb8-fc97-44c6-b9ac-31dd456b2fd4","ios":"levelo://app?vid=3da29fb8-fc97-44c6-b9ac-31dd456b2fd4"},"vehicle_type_id":"4","last_reported":1751559205,"current_range_meters":0,"station_id":"","pricing_plan_id":"cebpf4jnsgd1na2vs0mg"},{"bike_id":"01861ad8-a8d7-4be6-816e-651927c87584","system_id":"levelo_inurba_marseille","lat":43.33751,"lon":5.37456,"is_reserved":false,"is_disabled":true,"rental_uris":{"android":"levelo://app?vid=01861ad8-a8d7-4be6-816e-651927c87584","ios":"levelo://app?vid=01861ad8-a8d7-4be6-816e-651927c87584"},"vehicle_type_id":"4","last_reported":1751559205,"current_range_meters":0,"station_id":"","pricing_plan_id":"cebpf4jnsgd1na2vs0mg"},{"bike_id":"da921d92-526f-401b-95dc-b12109d1091d","system_id":"levelo_inurba_marseille","lat":43.36193,"lon":5.34936,"is_reserved":false,"is_disabled":true,"rental_uris":{"android":"levelo://app?vid=da921d92-526f-401b-95dc-b12109d1091d","ios":"levelo://app?vid=da921d92-526f-401b-95dc-b12109d1091d"},"vehicle_type_id":"4","last_reported":1751559205,"current_range_meters":0,"station_id":"","pricing_plan_id":"cebpf4jnsgd1na2vs0mg"},{"bike_id":"a6d7a0d5-d9ae-4fc1-b44b-2efbae6ccc62","system_id":"levelo_inurba_marseille","lat":43.21751,"lon":5.34601,"is_reserved":false,"is_disabled":true,"rental_uris":{"android":"levelo://app?vid=a6d7a0d5-d9ae-4fc1-b44b-2efbae6ccc62","ios":"levelo://app?vid=a6d7a0d5-d9ae-4fc1-b44b-2efbae6ccc62"},"vehicle_type_id":"4","last_reported":1751559205,"current_range_meters":0,"station_id":"","pricing_plan_id":"cebpf4jnsgd1na2vs0mg"},{"bike_id":"6e5b5a4d-1ee5-4068-9613-fb44ab4d8a9a","system_id":"levelo_inurba_marseille","lat":43.34891,"lon":5.346323,"is_reserved":false,"is_disabled":true,"rental_uris":{"android":"levelo://app?vid=6e5b5a4d-1ee5-4068-9613-fb44ab4d8a9a","ios":"levelo://app?vid=6e5b5a4d-1ee5-4068-9613-fb44ab4d8a9a"},"vehicle_type_id":"4","last_reported":1751559205,"current_range_meters":0,"station_id":"","pricing_plan_id":"cebpf4jnsgd1na2vs0mg"},{"bike_id":"711daaef-62a7-4507-b46e-24f8c3ebc905","system_id":"levelo_inurba_marseille","lat":43.21749,"lon":5.346,"is_reserved":false,"is_disabled":true,"rental_uris":{"android":"levelo://app?vid=711daaef-62a7-4507-b46e-24f8c3ebc905","ios":"levelo://app?vid=711daaef-62a7-4507-b46e-24f8c3ebc905"},"vehicle_type_id":"4","last_reported":1751559205,"current_range_meters":0,"station_id":"","pricing_plan_id":"cebpf4jnsgd1na2vs0mg"},{"bike_id":"8e365e3c-559a-4ba6-a6c5-4c159e2434fc","system_id":"levelo_inurba_marseille","lat":43.21756,"lon":5.34599,"is_reserved":false,"is_disabled":true,"rental_uris":{"android":"levelo://app?vid=8e365e3c-559a-4ba6-a6c5-4c159e2434fc","ios":"levelo://app?vid=8e365e3c-559a-4ba6-a6c5-4c159e2434fc"},"vehicle_type_id":"4","last_reported":1751559205,"current_range_meters":0,"station_id":"","pricing_plan_id":"cebpf4jnsgd1na2vs0mg"},{"bike_id":"b87537a5-0ef7-4a87-9959-cd0a9fa65894","system_id":"levelo_inurba_marseille","lat":43.29365,"lon":5.37143,"is_reserved":false,"is_disabled":true,"rental_uris":{"android":"levelo://app?vid=b87537a5-0ef7-4a87-9959-cd0a9fa65894","ios":"levelo://app?vid=b87537a5-0ef7-4a87-9959-cd0a9fa65894"},"vehicle_type_id":"4","last_reported":1751559205,"current_range_meters":0,"station_id":"","pricing_plan_id":"cebpf4jnsgd1na2vs0mg"},{"bike_id":"5fe1f33a-ebc4-4182-b521-7ef3eadc1773","system_id":"levelo_inurba_marseille","lat":43.26885,"lon":5.36867,"is_reserved":false,"is_disabled":true,"rental_uris":{"android":"levelo://app?vid=5fe1f33a-ebc4-4182-b521-7ef3eadc1773","ios":"levelo://app?vid=5fe1f33a-ebc4-4182-b521-7ef3eadc1773"},"vehicle_type_id":"4","last_reported":1751559205,"current_range_meters":0,"station_id":"","pricing_plan_id":"cebpf4jnsgd1na2vs0mg"},{"bike_id":"e28f055a-c16b-4fc7-a968-99f27f6549e3","system_id":"levelo_inurba_marseille","lat":43.30886,"lon":5.39653,"is_reserved":false,"is_disabled":true,"rental_uris":{"android":"levelo://app?vid=e28f055a-c16b-4fc7-a968-99f27f6549e3","ios":"levelo://app?vid=e28f055a-c16b-4fc7-a968-99f27f6549e3"},"vehicle_type_id":"4","last_reported":1751559205,"current_range_meters":0,"station_id":"ce4bh012rcd13ifvqcv0","pricing_plan_id":"cebpf4jnsgd1na2vs0mg"},{"bike_id":"3e814db0-48cb-4c2e-8260-f461a61a5c32","system_id":"levelo_inurba_marseille","lat":43.288561,"lon":5.358475,"is_reserved":false,"is_disabled":true,"rental_uris":{"android":"levelo://app?vid=3e814db0-48cb-4c2e-8260-f461a61a5c32","ios":"levelo://app?vid=3e814db0-48cb-4c2e-8260-f461a61a5c32"},"vehicle_type_id":"4","last_reported":1751559205,"current_range_meters":0,"station_id":"ce4bhb12rcd13ifvqem0","pricing_plan_id":"cebpf4jnsgd1na2vs0mg"},{"bike_id":"3e43f5b1-a8dc-4985-ad50-a2d247dad6fd","system_id":"levelo_inurba_marseille","lat":43.29006,"lon":5.35619,"is_reserved":false,"is_disabled":true,"rental_uris":{"android":"levelo://app?vid=3e43f5b1-a8dc-4985-ad50-a2d247dad6fd","ios":"levelo://app?vid=3e43f5b1-a8dc-4985-ad50-a2d247dad6fd"},"vehicle_type_id":"4","last_reported":1751559205,"current_range_meters":0,"station_id":"ce4bhb92rcd13ifvqen0","pricing_plan_id":"cebpf4jnsgd1na2vs0mg"},{"bike_id":"652c1320-3ff3-449d-a3db-9779af1db2dd","system_id":"levelo_inurba_marseille","lat":43.27372,"lon":5.36253,"is_reserved":false,"is_disabled":true,"rental_uris":{"android":"levelo://app?vid=652c1320-3ff3-449d-a3db-9779af1db2dd","ios":"levelo://app?vid=652c1320-3ff3-449d-a3db-9779af1db2dd"},"vehicle_type_id":"4","last_reported":1751559205,"current_range_meters":0,"station_id":"ce4bhbh2rcd13ifvqeo0","pricing_plan_id":"cebpf4jnsgd1na2vs0mg"},{"bike_id":"f383f62e-c1bb-4282-a457-d609b6657997","system_id":"levelo_inurba_marseille","lat":43.27369,"lon":5.3626,"is_reserved":false,"is_disabled":true,"rental_uris":{"android":"levelo://app?vid=f383f62e-c1bb-4282-a457-d609b6657997","ios":"levelo://app?vid=f383f62e-c1bb-4282-a457-d609b6657997"},"vehicle_type_id":"4","last_reported":1751559205,"current_range_meters":0,"station_id":"ce4bhbh2rcd13ifvqeo0","pricing_plan_id":"cebpf4jnsgd1na2vs0mg"},{"bike_id":"4b600fce-7888-409f-8609-fc0d52809e77","system_id":"levelo_inurba_marseille","lat":43.28416,"lon":5.34973,"is_reserved":false,"is_disabled":true,"rental_uris":{"android":"levelo://app?vid=4b600fce-7888-409f-8609-fc0d52809e77","ios":"levelo://app?vid=4b600fce-7888-409f-8609-fc0d52809e77"},"vehicle_type_id":"4","last_reported":1751559205,"current_range_meters":0,"station_id":"ce4bhbh2rcd13ifvqepg","pricing_plan_id":"cebpf4jnsgd1na2vs0mg"},{"bike_id":"02f7c4ae-b351-4d36-9674-a28a5d89eab3","system_id":"levelo_inurba_marseille","lat":43.28263,"lon":5.35064,"is_reserved":false,"is_disabled":true,"rental_uris":{"android":"levelo://app?vid=02f7c4ae-b351-4d36-9674-a28a5d89eab3","ios":"levelo://app?vid=02f7c4ae-b351-4d36-9674-a28a5d89eab3"},"vehicle_type_id":"4","last_reported":1751559205,"current_range_meters":0,"station_id":"ce4bhbp2rcd13ifvqerg","pricing_plan_id":"cebpf4jnsgd1na2vs0mg"},{"bike_id":"ed697172-e456-47cd-8de8-51b4995fe1db","system_id":"levelo_inurba_marseille","lat":43.26679,"lon":5.38267,"is_reserved":false,"is_disabled":true,"rental_uris":{"android":"levelo://app?vid=ed697172-e456-47cd-8de8-51b4995fe1db","ios":"levelo://app?vid=ed697172-e456-47cd-8de8-51b4995fe1db"},"vehicle_type_id":"4","last_reported":1751559205,"current_range_meters":0,"station_id":"ce4bhg92rcd13ifvqf90","pricing_plan_id":"cebpf4jnsgd1na2vs0mg"},{"bike_id":"952d0715-e4ce-4fcd-9296-9b33e8f4004f","system_id":"levelo_inurba_marseille","lat":43.24808,"lon":5.37455,"is_reserved":false,"is_disabled":true,"rental_uris":{"android":"levelo://app?vid=952d0715-e4ce-4fcd-9296-9b33e8f4004f","ios":"levelo://app?vid=952d0715-e4ce-4fcd-9296-9b33e8f4004f"},"vehicle_type_id":"4","last_reported":1751559205,"current_range_meters":0,"station_id":"ce4bhgh2rcd13ifvqfb0","pricing_plan_id":"cebpf4jnsgd1na2vs0mg"},{"bike_id":"9af56e80-a0ba-458c-9a21-252367fea0d1","system_id":"levelo_inurba_marseille","lat":43.25502,"lon":5.37652,"is_reserved":false,"is_disabled":true,"rental_uris":{"android":"levelo://app?vid=9af56e80-a0ba-458c-9a21-252367fea0d1","ios":"levelo://app?vid=9af56e80-a0ba-458c-9a21-252367fea0d1"},"vehicle_type_id":"4","last_reported":1751559205,"current_range_meters":0,"station_id":"ce4bhh12rcd13ifvqff0","pricing_plan_id":"cebpf4jnsgd1na2vs0mg"},{"bike_id":"a444a166-625c-408e-be16-85ffe0dd6b75","system_id":"levelo_inurba_marseille","lat":43.24388,"lon":5.37066,"is_reserved":false,"is_disabled":true,"rental_uris":{"android":"levelo://app?vid=a444a166-625c-408e-be16-85ffe0dd6b75","ios":"levelo://app?vid=a444a166-625c-408e-be16-85ffe0dd6b75"},"vehicle_type_id":"4","last_reported":1751559205,"current_range_meters":0,"station_id":"ce4bhhh2rcd13ifvqfk0","pricing_plan_id":"cebpf4jnsgd1na2vs0mg"},{"bike_id":"45a36d42-3f75-4451-929c-2980bab85fb7","system_id":"levelo_inurba_marseille","lat":43.23167,"lon":5.4374,"is_reserved":false,"is_disabled":true,"rental_uris":{"android":"levelo://app?vid=45a36d42-3f75-4451-929c-2980bab85fb7","ios":"levelo://app?vid=45a36d42-3f75-4451-929c-2980bab85fb7"},"vehicle_type_id":"4","last_reported":1751559205,"current_range_meters":0,"station_id":"ce4bhmp2rcd13ifvqgog","pricing_plan_id":"cebpf4jnsgd1na2vs0mg"},{"bike_id":"74048b68-e069-4d0c-8b6b-30443c3a8faa","system_id":"levelo_inurba_marseille","lat":43.32079,"lon":5.41537,"is_reserved":false,"is_disabled":true,"rental_uris":{"android":"levelo://app?vid=74048b68-e069-4d0c-8b6b-30443c3a8faa","ios":"levelo://app?vid=74048b68-e069-4d0c-8b6b-30443c3a8faa"},"vehicle_type_id":"4","last_reported":1751559205,"current_range_meters":0,"station_id":"ce4bhq92rcd13ifvqhkg","pricing_plan_id":"cebpf4jnsgd1na2vs0mg"},{"bike_id":"04c7fb47-1720-471f-a2ec-7c34d6db3486","system_id":"levelo_inurba_marseille","lat":43.23179,"lon":5.35557,"is_reserved":false,"is_disabled":true,"rental_uris":{"android":"levelo://app?vid=04c7fb47-1720-471f-a2ec-7c34d6db3486","ios":"levelo://app?vid=04c7fb47-1720-471f-a2ec-7c34d6db3486"},"vehicle_type_id":"4","last_reported":1751559205,"current_range_meters":0,"station_id":"ce4bhu92rcd13ifvqi70","pricing_plan_id":"cebpf4jnsgd1na2vs0mg"},{"bike_id":"c92f6434-eff2-49a3-b8b3-b878ee716b1a","system_id":"levelo_inurba_marseille","lat":43.24171,"lon":5.36389,"is_reserved":false,"is_disabled":true,"rental_uris":{"android":"levelo://app?vid=c92f6434-eff2-49a3-b8b3-b878ee716b1a","ios":"levelo://app?vid=c92f6434-eff2-49a3-b8b3-b878ee716b1a"},"vehicle_type_id":"4","last_reported":1751559205,"current_range_meters":0,"station_id":"cpo36qri1sfpv3e86is0","pricing_plan_id":"cebpf4jnsgd1na2vs0mg"},{"bike_id":"34525e0e-88eb-4fe8-be83-e19f0f1185d3","system_id":"levelo_inurba_marseille","lat":43.22509,"lon":5.34775,"is_reserved":false,"is_disabled":true,"rental_uris":{"android":"levelo://app?vid=34525e0e-88eb-4fe8-be83-e19f0f1185d3","ios":"levelo://app?vid=34525e0e-88eb-4fe8-be83-e19f0f1185d3"},"vehicle_type_id":"4","last_reported":1751559205,"current_range_meters":0,"station_id":"st_cvj5dfep6f1abm77gieg","pricing_plan_id":"cebpf4jnsgd1na2vs0mg"},{"bike_id":"9795e511-4f68-494d-9846-41f87f5dd923","system_id":"levelo_inurba_marseille","lat":43.22521,"lon":5.3479,"is_reserved":false,"is_disabled":true,"rental_uris":{"android":"levelo://app?vid=9795e511-4f68-494d-9846-41f87f5dd923","ios":"levelo://app?vid=9795e511-4f68-494d-9846-41f87f5dd923"},"vehicle_type_id":"4","last_reported":1751559205,"current_range_meters":0,"station_id":"st_cvj5dfep6f1abm77gieg","pricing_plan_id":"cebpf4jnsgd1na2vs0mg"},{"bike_id":"7750661e-3127-4501-aa76-1d7cb6be5070","system_id":"levelo_inurba_marseille","lat":43.217527,"lon":5.345953,"is_reserved":false,"is_disabled":true,"rental_uris":{"android":"levelo://app?vid=7750661e-3127-4501-aa76-1d7cb6be5070","ios":"levelo://app?vid=7750661e-3127-4501-aa76-1d7cb6be5070"},"vehicle_type_id":"4","last_reported":1751559205,"current_range_meters":0,"station_id":"st_cvj6r9ubvosntc0bgbag","pricing_plan_id":"cebpf4jnsgd1na2vs0mg"},{"bike_id":"769698de-3c05-4055-8d38-d929f96938c1","system_id":"levelo_inurba_marseille","lat":43.30213,"lon":5.39465,"is_reserved":false,"is_disabled":true,"rental_uris":{"android":"levelo://app?vid=769698de-3c05-4055-8d38-d929f96938c1","ios":"levelo://app?vid=769698de-3c05-4055-8d38-d929f96938c1"},"vehicle_type_id":"4","last_reported":1751559205,"current_range_meters":400,"station_id":"ce4bh0p2rcd13ifvqd70","pricing_plan_id":"cebpf4jnsgd1na2vs0mg"},{"bike_id":"5e804ab7-5ab8-4c0c-a715-3c700e0cff90","system_id":"levelo_inurba_marseille","lat":43.302711,"lon":5.391089,"is_reserved":false,"is_disabled":true,"rental_uris":{"android":"levelo://app?vid=5e804ab7-5ab8-4c0c-a715-3c700e0cff90","ios":"levelo://app?vid=5e804ab7-5ab8-4c0c-a715-3c700e0cff90"},"vehicle_type_id":"4","last_reported":1751559205,"current_range_meters":400,"station_id":"ce4bh0p2rcd13ifvqd80","pricing_plan_id":"cebpf4jnsgd1na2vs0mg"},{"bike_id":"63c09f62-0d4b-49d8-a598-9c2842ddc5ec","system_id":"levelo_inurba_marseille","lat":43.24169,"lon":5.36396,"is_reserved":false,"is_disabled":true,"rental_uris":{"android":"levelo://app?vid=63c09f62-0d4b-49d8-a598-9c2842ddc5ec","ios":"levelo://app?vid=63c09f62-0d4b-49d8-a598-9c2842ddc5ec"},"vehicle_type_id":"4","last_reported":1751559205,"current_range_meters":400,"station_id":"cpo36qri1sfpv3e86is0","pricing_plan_id":"cebpf4jnsgd1na2vs0mg"},{"bike_id":"0eca01b0-547b-4c65-b425-468a60e09376","system_id":"levelo_inurba_marseille","lat":43.27968,"lon":5.38736,"is_reserved":false,"is_disabled":true,"rental_uris":{"android":"levelo://app?vid=0eca01b0-547b-4c65-b425-468a60e09376","ios":"levelo://app?vid=0eca01b0-547b-4c65-b425-468a60e09376"},"vehicle_type_id":"4","last_reported":1751559205,"current_range_meters":800,"station_id":"ce4bhg12rcd13ifvqf80","pricing_plan_id":"cebpf4jnsgd1na2vs0mg"},{"bike_id":"be77fd35-6557-4d0c-aca9-bd192ed60f05","system_id":"levelo_inurba_marseille","lat":43.26216,"lon":5.37448,"is_reserved":false,"is_disabled":true,"rental_uris":{"android":"levelo://app?vid=be77fd35-6557-4d0c-aca9-bd192ed60f05","ios":"levelo://app?vid=be77fd35-6557-4d0c-aca9-bd192ed60f05"},"vehicle_type_id":"4","last_reported":1751559205,"current_range_meters":800,"station_id":"ce4bhgp2rcd13ifvqfc0","pricing_plan_id":"cebpf4jnsgd1na2vs0mg"},{"bike_id":"bc5dd2b3-3385-463b-a084-678650a16b75","system_id":"levelo_inurba_marseille","lat":43.268446,"lon":5.370804,"is_reserved":false,"is_disabled":true,"rental_uris":{"android":"levelo://app?vid=bc5dd2b3-3385-463b-a084-678650a16b75","ios":"levelo://app?vid=bc5dd2b3-3385-463b-a084-678650a16b75"},"vehicle_type_id":"4","last_reported":1751559205,"current_range_meters":1200,"station_id":"","pricing_plan_id":"cebpf4jnsgd1na2vs0mg"},{"bike_id":"8b88b270-5af1-4673-95e7-ff4e8d6f579d","system_id":"levelo_inurba_marseille","lat":43.29518,"lon":5.39026,"is_reserved":false,"is_disabled":true,"rental_uris":{"android":"levelo://app?vid=8b88b270-5af1-4673-95e7-ff4e8d6f579d","ios":"levelo://app?vid=8b88b270-5af1-4673-95e7-ff4e8d6f579d"},"vehicle_type_id":"4","last_reported":1751559205,"current_range_meters":1200,"station_id":"ce4bh3p2rcd13ifvqdp0","pricing_plan_id":"cebpf4jnsgd1na2vs0mg"},{"bike_id":"e2786366-f266-446d-89c4-ec23c66d262e","system_id":"levelo_inurba_marseille","lat":43.29033,"lon":5.3865,"is_reserved":false,"is_disabled":true,"rental_uris":{"android":"levelo://app?vid=e2786366-f266-446d-89c4-ec23c66d262e","ios":"levelo://app?vid=e2786366-f266-446d-89c4-ec23c66d262e"},"vehicle_type_id":"4","last_reported":1751559205,"current_range_meters":1200,"station_id":"ce4bh4p2rcd13ifvqe0g","pricing_plan_id":"cebpf4jnsgd1na2vs0mg"},{"bike_id":"d0e3c28f-af7d-41f7-9009-114b1fcd234c","system_id":"levelo_inurba_marseille","lat":43.279707,"lon":5.387486,"is_reserved":false,"is_disabled":true,"rental_uris":{"android":"levelo://app?vid=d0e3c28f-af7d-41f7-9009-114b1fcd234c","ios":"levelo://app?vid=d0e3c28f-af7d-41f7-9009-114b1fcd234c"},"vehicle_type_id":"4","last_reported":1751559205,"current_range_meters":1200,"station_id":"ce4bhg12rcd13ifvqf80","pricing_plan_id":"cebpf4jnsgd1na2vs0mg"},{"bike_id":"c468d144-73b5-48d0-af8c-13728cf4a901","system_id":"levelo_inurba_marseille","lat":43.2395,"lon":5.36644,"is_reserved":false,"is_disabled":true,"rental_uris":{"android":"levelo://app?vid=c468d144-73b5-48d0-af8c-13728cf4a901","ios":"levelo://app?vid=c468d144-73b5-48d0-af8c-13728cf4a901"},"vehicle_type_id":"4","last_reported":1751559205,"current_range_meters":1200,"station_id":"ce4bhi12rcd13ifvqfp0","pricing_plan_id":"cebpf4jnsgd1na2vs0mg"},{"bike_id":"c75b1f76-63f1-41f3-af54-bba928914391","system_id":"levelo_inurba_marseille","lat":43.23199,"lon":5.35551,"is_reserved":false,"is_disabled":true,"rental_uris":{"android":"levelo://app?vid=c75b1f76-63f1-41f3-af54-bba928914391","ios":"levelo://app?vid=c75b1f76-63f1-41f3-af54-bba928914391"},"vehicle_type_id":"4","last_reported":1751559205,"current_range_meters":1200,"station_id":"ce4bhu92rcd13ifvqi70","pricing_plan_id":"cebpf4jnsgd1na2vs0mg"},{"bike_id":"347e4955-ecd8-46f5-8a2d-1ffe156d51e2","system_id":"levelo_inurba_marseille","lat":43.277222,"lon":5.356499,"is_reserved":false,"is_disabled":true,"rental_uris":{"android":"levelo://app?vid=347e4955-ecd8-46f5-8a2d-1ffe156d51e2","ios":"levelo://app?vid=347e4955-ecd8-46f5-8a2d-1ffe156d51e2"},"vehicle_type_id":"4","last_reported":1751559205,"current_range_meters":1600,"station_id":"ce4bgj92rcd13ifvqbe0","pricing_plan_id":"cebpf4jnsgd1na2vs0mg"},{"bike_id":"03f5e5c9-2075-4931-b52c-d63f20a70674","system_id":"levelo_inurba_marseille","lat":43.29933,"lon":5.36544,"is_reserved":false,"is_disabled":true,"rental_uris":{"android":"levelo://app?vid=03f5e5c9-2075-4931-b52c-d63f20a70674","ios":"levelo://app?vid=03f5e5c9-2075-4931-b52c-d63f20a70674"},"vehicle_type_id":"4","last_reported":1751559205,"current_range_meters":1600,"station_id":"ce4bgm92rcd13ifvqbr0","pricing_plan_id":"cebpf4jnsgd1na2vs0mg"},{"bike_id":"c55a57ae-0c48-46d1-b809-ada20c2612f6","system_id":"levelo_inurba_marseille","lat":43.28261,"lon":5.35062,"is_reserved":false,"is_disabled":true,"rental_uris":{"android":"levelo://app?vid=c55a57ae-0c48-46d1-b809-ada20c2612f6","ios":"levelo://app?vid=c55a57ae-0c48-46d1-b809-ada20c2612f6"},"vehicle_type_id":"4","last_reported":1751559205,"current_range_meters":1600,"station_id":"ce4bhbp2rcd13ifvqerg","pricing_plan_id":"cebpf4jnsgd1na2vs0mg"},{"bike_id":"f07fdfaa-348d-43f0-b3e7-83fcf392621c","system_id":"levelo_inurba_marseille","lat":43.25499,"lon":5.37648,"is_reserved":false,"is_disabled":true,"rental_uris":{"android":"levelo://app?vid=f07fdfaa-348d-43f0-b3e7-83fcf392621c","ios":"levelo://app?vid=f07fdfaa-348d-43f0-b3e7-83fcf392621c"},"vehicle_type_id":"4","last_reported":1751559205,"current_range_meters":1600,"station_id":"ce4bhh12rcd13ifvqff0","pricing_plan_id":"cebpf4jnsgd1na2vs0mg"},{"bike_id":"c7130faa-128a-4437-bd07-5643e1dd7fe2","system_id":"levelo_inurba_marseille","lat":43.25495,"lon":5.37649,"is_reserved":false,"is_disabled":true,"rental_uris":{"android":"levelo://app?vid=c7130faa-128a-4437-bd07-5643e1dd7fe2","ios":"levelo://app?vid=c7130faa-128a-4437-bd07-5643e1dd7fe2"},"vehicle_type_id":"4","last_reported":1751559205,"current_range_meters":1600,"station_id":"ce4bhh12rcd13ifvqff0","pricing_plan_id":"cebpf4jnsgd1na2vs0mg"},{"bike_id":"a2c92704-2832-4be5-8a42-68399d7df435","system_id":"levelo_inurba_marseille","lat":43.24664,"lon":5.38169,"is_reserved":false,"is_disabled":true,"rental_uris":{"android":"levelo://app?vid=a2c92704-2832-4be5-8a42-68399d7df435","ios":"levelo://app?vid=a2c92704-2832-4be5-8a42-68399d7df435"},"vehicle_type_id":"4","last_reported":1751559205,"current_range_meters":1600,"station_id":"ce4bhih2rcd13ifvqfr0","pricing_plan_id":"cebpf4jnsgd1na2vs0mg"},{"bike_id":"f9436eb2-856d-40f0-8a6a-87da792402e6","system_id":"levelo_inurba_marseille","lat":43.24169,"lon":5.36395,"is_reserved":false,"is_disabled":true,"rental_uris":{"android":"levelo://app?vid=f9436eb2-856d-40f0-8a6a-87da792402e6","ios":"levelo://app?vid=f9436eb2-856d-40f0-8a6a-87da792402e6"},"vehicle_type_id":"4","last_reported":1751559205,"current_range_meters":1600,"station_id":"cpo36qri1sfpv3e86is0","pricing_plan_id":"cebpf4jnsgd1na2vs0mg"},{"bike_id":"c1289e5b-2d36-4017-934d-b91758fb3084","system_id":"levelo_inurba_marseille","lat":43.29573,"lon":5.39972,"is_reserved":false,"is_disabled":true,"rental_uris":{"android":"levelo://app?vid=c1289e5b-2d36-4017-934d-b91758fb3084","ios":"levelo://app?vid=c1289e5b-2d36-4017-934d-b91758fb3084"},"vehicle_type_id":"4","last_reported":1751559205,"current_range_meters":2000,"station_id":"ce4bh312rcd13ifvqdj0","pricing_plan_id":"cebpf4jnsgd1na2vs0mg"},{"bike_id":"2f687125-1a9f-44d8-b9f3-e13362cda66f","system_id":"levelo_inurba_marseille","lat":43.28414,"lon":5.34982,"is_reserved":false,"is_disabled":true,"rental_uris":{"android":"levelo://app?vid=2f687125-1a9f-44d8-b9f3-e13362cda66f","ios":"levelo://app?vid=2f687125-1a9f-44d8-b9f3-e13362cda66f"},"vehicle_type_id":"4","last_reported":1751559205,"current_range_meters":2000,"station_id":"ce4bhbh2rcd13ifvqepg","pricing_plan_id":"cebpf4jnsgd1na2vs0mg"},{"bike_id":"82fe187f-756c-4548-a7c4-3fc3ac31b7d2","system_id":"levelo_inurba_marseille","lat":43.21764,"lon":5.34592,"is_reserved":false,"is_disabled":true,"rental_uris":{"android":"levelo://app?vid=82fe187f-756c-4548-a7c4-3fc3ac31b7d2","ios":"levelo://app?vid=82fe187f-756c-4548-a7c4-3fc3ac31b7d2"},"vehicle_type_id":"4","last_reported":1751559205,"current_range_meters":2000,"station_id":"st_cvj6r9ubvosntc0bgbag","pricing_plan_id":"cebpf4jnsgd1na2vs0mg"},{"bike_id":"e937601b-c2f9-46b4-9586-c4a1a9ac3404","system_id":"levelo_inurba_marseille","lat":43.29437,"lon":5.39762,"is_reserved":false,"is_disabled":false,"rental_uris":{"android":"levelo://app?vid=e937601b-c2f9-46b4-9586-c4a1a9ac3404","ios":"levelo://app?vid=e937601b-c2f9-46b4-9586-c4a1a9ac3404"},"vehicle_type_id":"4","last_reported":1751559205,"current_range_meters":2800,"station_id":"ce4bh3h2rcd13ifvqdo0","pricing_plan_id":"cebpf4jnsgd1na2vs0mg"},{"bike_id":"2a61bd12-524d-435e-a2ea-fe411853f23f","system_id":"levelo_inurba_marseille","lat":43.29296,"lon":5.3682,"is_reserved":false,"is_disabled":false,"rental_uris":{"android":"levelo://app?vid=2a61bd12-524d-435e-a2ea-fe411853f23f","ios":"levelo://app?vid=2a61bd12-524d-435e-a2ea-fe411853f23f"},"vehicle_type_id":"4","last_reported":1751559205,"current_range_meters":2800,"station_id":"ce4bhbp2rcd13ifvqesg","pricing_plan_id":"cebpf4jnsgd1na2vs0mg"},{"bike_id":"9b65cfb8-484a-459c-9e43-0d2478ac8c94","system_id":"levelo_inurba_marseille","lat":43.290071,"lon":5.356107,"is_reserved":false,"is_disabled":false,"rental_uris":{"android":"levelo://app?vid=9b65cfb8-484a-459c-9e43-0d2478ac8c94","ios":"levelo://app?vid=9b65cfb8-484a-459c-9e43-0d2478ac8c94"},"vehicle_type_id":"4","last_reported":1751559205,"current_range_meters":3200,"station_id":"ce4bhb92rcd13ifvqen0","pricing_plan_id":"cebpf4jnsgd1na2vs0mg"},{"bike_id":"39637bc7-3640-42e5-8c91-be51e1f42a4f","system_id":"levelo_inurba_marseille","lat":43.27374,"lon":5.36253,"is_reserved":false,"is_disabled":false,"rental_uris":{"android":"levelo://app?vid=39637bc7-3640-42e5-8c91-be51e1f42a4f","ios":"levelo://app?vid=39637bc7-3640-42e5-8c91-be51e1f42a4f"},"vehicle_type_id":"4","last_reported":1751559205,"current_range_meters":3200,"station_id":"ce4bhbh2rcd13ifvqeo0","pricing_plan_id":"cebpf4jnsgd1na2vs0mg"},{"bike_id":"1bb58a1d-d725-4f80-b968-99f03ab27331","system_id":"levelo_inurba_marseille","lat":43.29973,"lon":5.38493,"is_reserved":false,"is_disabled":false,"rental_uris":{"android":"levelo://app?vid=1bb58a1d-d725-4f80-b968-99f03ab27331","ios":"levelo://app?vid=1bb58a1d-d725-4f80-b968-99f03ab27331"},"vehicle_type_id":"4","last_reported":1751559205,"current_range_meters":3600,"station_id":"ce4bgj92rcd13ifvqbd0","pricing_plan_id":"cebpf4jnsgd1na2vs0mg"},{"bike_id":"480b0bbd-f554-445d-bf04-1cc1864a5e4c","system_id":"levelo_inurba_marseille","lat":43.299622,"lon":5.384915,"is_reserved":false,"is_disabled":false,"rental_uris":{"android":"levelo://app?vid=480b0bbd-f554-445d-bf04-1cc1864a5e4c","ios":"levelo://app?vid=480b0bbd-f554-445d-bf04-1cc1864a5e4c"},"vehicle_type_id":"4","last_reported":1751559205,"current_range_meters":3600,"station_id":"ce4bgj92rcd13ifvqbd0","pricing_plan_id":"cebpf4jnsgd1na2vs0mg"},{"bike_id":"6c02a286-4af3-406b-b81f-8ace75198be3","system_id":"levelo_inurba_marseille","lat":43.29602,"lon":5.38092,"is_reserved":false,"is_disabled":false,"rental_uris":{"android":"levelo://app?vid=6c02a286-4af3-406b-b81f-8ace75198be3","ios":"levelo://app?vid=6c02a286-4af3-406b-b81f-8ace75198be3"},"vehicle_type_id":"4","last_reported":1751559205,"current_range_meters":3600,"station_id":"ce4bgl12rcd13ifvqbo0","pricing_plan_id":"cebpf4jnsgd1na2vs0mg"},{"bike_id":"4792b17c-c917-4b11-a8f3-6466f0a03dc8","system_id":"levelo_inurba_marseille","lat":43.23152,"lon":5.43721,"is_reserved":false,"is_disabled":false,"rental_uris":{"android":"levelo://app?vid=4792b17c-c917-4b11-a8f3-6466f0a03dc8","ios":"levelo://app?vid=4792b17c-c917-4b11-a8f3-6466f0a03dc8"},"vehicle_type_id":"4","last_reported":1751559205,"current_range_meters":3600,"station_id":"ce4bhmp2rcd13ifvqgog","pricing_plan_id":"cebpf4jnsgd1na2vs0mg"},{"bike_id":"8becf1b9-b72c-4763-a062-bbd587ae45bf","system_id":"levelo_inurba_marseille","lat":43.32615,"lon":5.42544,"is_reserved":false,"is_disabled":false,"rental_uris":{"android":"levelo://app?vid=8becf1b9-b72c-4763-a062-bbd587ae45bf","ios":"levelo://app?vid=8becf1b9-b72c-4763-a062-bbd587ae45bf"},"vehicle_type_id":"4","last_reported":1751559205,"current_range_meters":4000,"station_id":"","pricing_plan_id":"cebpf4jnsgd1na2vs0mg"},{"bike_id":"a338f12c-600f-4597-b78a-96cc13e07464","system_id":"levelo_inurba_marseille","lat":43.2842,"lon":5.3498,"is_reserved":false,"is_disabled":false,"rental_uris":{"android":"levelo://app?vid=a338f12c-600f-4597-b78a-96cc13e07464","ios":"levelo://app?vid=a338f12c-600f-4597-b78a-96cc13e07464"},"vehicle_type_id":"4","last_reported":1751559205,"current_range_meters":4000,"station_id":"ce4bhbh2rcd13ifvqepg","pricing_plan_id":"cebpf4jnsgd1na2vs0mg"},{"bike_id":"8914153f-8291-4377-9eae-a3828a70c4f3","system_id":"levelo_inurba_marseille","lat":43.304291,"lon":5.388943,"is_reserved":false,"is_disabled":false,"rental_uris":{"android":"levelo://app?vid=8914153f-8291-4377-9eae-a3828a70c4f3","ios":"levelo://app?vid=8914153f-8291-4377-9eae-a3828a70c4f3"},"vehicle_type_id":"4","last_reported":1751559205,"current_range_meters":4400,"station_id":"ce4bgk12rcd13ifvqbi0","pricing_plan_id":"cebpf4jnsgd1na2vs0mg"},{"bike_id":"780c9720-3019-45e9-97e3-02b0ca7da901","system_id":"levelo_inurba_marseille","lat":43.28698,"lon":5.399838,"is_reserved":false,"is_disabled":false,"rental_uris":{"android":"levelo://app?vid=780c9720-3019-45e9-97e3-02b0ca7da901","ios":"levelo://app?vid=780c9720-3019-45e9-97e3-02b0ca7da901"},"vehicle_type_id":"4","last_reported":1751559205,"current_range_meters":4400,"station_id":"ce4bho92rcd13ifvqh3g","pricing_plan_id":"cebpf4jnsgd1na2vs0mg"},{"bike_id":"89002112-abc9-43e5-a629-2858fd107213","system_id":"levelo_inurba_marseille","lat":43.32548,"lon":5.41447,"is_reserved":false,"is_disabled":false,"rental_uris":{"android":"levelo://app?vid=89002112-abc9-43e5-a629-2858fd107213","ios":"levelo://app?vid=89002112-abc9-43e5-a629-2858fd107213"},"vehicle_type_id":"4","last_reported":1751559205,"current_range_meters":4400,"station_id":"ce4bhq12rcd13ifvqhhg","pricing_plan_id":"cebpf4jnsgd1na2vs0mg"},{"bike_id":"84743ac8-a45f-4332-8e31-305077ca14ea","system_id":"levelo_inurba_marseille","lat":43.2989,"lon":5.38882,"is_reserved":false,"is_disabled":false,"rental_uris":{"android":"levelo://app?vid=84743ac8-a45f-4332-8e31-305077ca14ea","ios":"levelo://app?vid=84743ac8-a45f-4332-8e31-305077ca14ea"},"vehicle_type_id":"4","last_reported":1751559205,"current_range_meters":4800,"station_id":"ce4bh392rcd13ifvqdl0","pricing_plan_id":"cebpf4jnsgd1na2vs0mg"},{"bike_id":"369bb3e7-b4a9-44fd-9aee-e34e2ac35115","system_id":"levelo_inurba_marseille","lat":43.29437,"lon":5.39756,"is_reserved":false,"is_disabled":false,"rental_uris":{"android":"levelo://app?vid=369bb3e7-b4a9-44fd-9aee-e34e2ac35115","ios":"levelo://app?vid=369bb3e7-b4a9-44fd-9aee-e34e2ac35115"},"vehicle_type_id":"4","last_reported":1751559205,"current_range_meters":4800,"station_id":"ce4bh3h2rcd13ifvqdo0","pricing_plan_id":"cebpf4jnsgd1na2vs0mg"},{"bike_id":"f0c697b7-658a-463b-bb77-b73ef61d0fa8","system_id":"levelo_inurba_marseille","lat":43.27809,"lon":5.4071,"is_reserved":false,"is_disabled":false,"rental_uris":{"android":"levelo://app?vid=f0c697b7-658a-463b-bb77-b73ef61d0fa8","ios":"levelo://app?vid=f0c697b7-658a-463b-bb77-b73ef61d0fa8"},"vehicle_type_id":"4","last_reported":1751559205,"current_range_meters":4800,"station_id":"ce4bhnh2rcd13ifvqgtg","pricing_plan_id":"cebpf4jnsgd1na2vs0mg"},{"bike_id":"e5c5f84c-fc12-4f06-a4e0-b32ba9aeae21","system_id":"levelo_inurba_marseille","lat":43.287185,"lon":5.37939,"is_reserved":false,"is_disabled":false,"rental_uris":{"android":"levelo://app?vid=e5c5f84c-fc12-4f06-a4e0-b32ba9aeae21","ios":"levelo://app?vid=e5c5f84c-fc12-4f06-a4e0-b32ba9aeae21"},"vehicle_type_id":"4","last_reported":1751559205,"current_range_meters":5600,"station_id":"ce4bh9p2rcd13ifvqec0","pricing_plan_id":"cebpf4jnsgd1na2vs0mg"},{"bike_id":"c355807d-17ef-4436-b11f-8269a58353c6","system_id":"levelo_inurba_marseille","lat":43.28434,"lon":5.34988,"is_reserved":false,"is_disabled":false,"rental_uris":{"android":"levelo://app?vid=c355807d-17ef-4436-b11f-8269a58353c6","ios":"levelo://app?vid=c355807d-17ef-4436-b11f-8269a58353c6"},"vehicle_type_id":"4","last_reported":1751559205,"current_range_meters":5600,"station_id":"ce4bhbh2rcd13ifvqepg","pricing_plan_id":"cebpf4jnsgd1na2vs0mg"},{"bike_id":"97772c60-611d-4aff-a906-7a8f8ae8af38","system_id":"levelo_inurba_marseille","lat":43.23196,"lon":5.35554,"is_reserved":false,"is_disabled":false,"rental_uris":{"android":"levelo://app?vid=97772c60-611d-4aff-a906-7a8f8ae8af38","ios":"levelo://app?vid=97772c60-611d-4aff-a906-7a8f8ae8af38"},"vehicle_type_id":"4","last_reported":1751559205,"current_range_meters":5600,"station_id":"ce4bhu92rcd13ifvqi70","pricing_plan_id":"cebpf4jnsgd1na2vs0mg"},{"bike_id":"a7fe31aa-30bc-4fcb-bd9b-bde962df6789","system_id":"levelo_inurba_marseille","lat":43.28934,"lon":5.36623,"is_reserved":false,"is_disabled":false,"rental_uris":{"android":"levelo://app?vid=a7fe31aa-30bc-4fcb-bd9b-bde962df6789","ios":"levelo://app?vid=a7fe31aa-30bc-4fcb-bd9b-bde962df6789"},"vehicle_type_id":"4","last_reported":1751559205,"current_range_meters":6000,"station_id":"ce4bhap2rcd13ifvqek0","pricing_plan_id":"cebpf4jnsgd1na2vs0mg"},{"bike_id":"8a73edb3-ac80-4778-9f59-faebcac59ba5","system_id":"levelo_inurba_marseille","lat":43.28614,"lon":5.35107,"is_reserved":false,"is_disabled":false,"rental_uris":{"android":"levelo://app?vid=8a73edb3-ac80-4778-9f59-faebcac59ba5","ios":"levelo://app?vid=8a73edb3-ac80-4778-9f59-faebcac59ba5"},"vehicle_type_id":"4","last_reported":1751559205,"current_range_meters":6000,"station_id":"ce4bhch2rcd13ifvqeug","pricing_plan_id":"cebpf4jnsgd1na2vs0mg"},{"bike_id":"0cdc50b3-043d-4091-b6a3-516c0eb55b4d","system_id":"levelo_inurba_marseille","lat":43.23965,"lon":5.36631,"is_reserved":false,"is_disabled":false,"rental_uris":{"android":"levelo://app?vid=0cdc50b3-043d-4091-b6a3-516c0eb55b4d","ios":"levelo://app?vid=0cdc50b3-043d-4091-b6a3-516c0eb55b4d"},"vehicle_type_id":"4","last_reported":1751559205,"current_range_meters":6000,"station_id":"ce4bhi12rcd13ifvqfp0","pricing_plan_id":"cebpf4jnsgd1na2vs0mg"},{"bike_id":"27aa6aa9-4a25-489b-8925-4d3f24914a3c","system_id":"levelo_inurba_marseille","lat":43.27999,"lon":5.41666,"is_reserved":false,"is_disabled":false,"rental_uris":{"android":"levelo://app?vid=27aa6aa9-4a25-489b-8925-4d3f24914a3c","ios":"levelo://app?vid=27aa6aa9-4a25-489b-8925-4d3f24914a3c"},"vehicle_type_id":"4","last_reported":1751559205,"current_range_meters":6000,"station_id":"ce4bho12rcd13ifvqh1g","pricing_plan_id":"cebpf4jnsgd1na2vs0mg"},{"bike_id":"8a66890a-a59b-4bef-8e35-490c4eae833b","system_id":"levelo_inurba_marseille","lat":43.225,"lon":5.347894,"is_reserved":false,"is_disabled":false,"rental_uris":{"android":"levelo://app?vid=8a66890a-a59b-4bef-8e35-490c4eae833b","ios":"levelo://app?vid=8a66890a-a59b-4bef-8e35-490c4eae833b"},"vehicle_type_id":"4","last_reported":1751559205,"current_range_meters":6400,"station_id":"st_cvj5dfep6f1abm77gieg","pricing_plan_id":"cebpf4jnsgd1na2vs0mg"},{"bike_id":"da99aa1e-36a3-4994-9cca-4e3e2d4b9135","system_id":"levelo_inurba_marseille","lat":43.298486,"lon":5.362795,"is_reserved":false,"is_disabled":false,"rental_uris":{"android":"levelo://app?vid=da99aa1e-36a3-4994-9cca-4e3e2d4b9135","ios":"levelo://app?vid=da99aa1e-36a3-4994-9cca-4e3e2d4b9135"},"vehicle_type_id":"4","last_reported":1751559205,"current_range_meters":6800,"station_id":"","pricing_plan_id":"cebpf4jnsgd1na2vs0mg"},{"bike_id":"de3d3d25-7354-49cb-8fa4-5acf1471cb8d","system_id":"levelo_inurba_marseille","lat":43.21192,"lon":5.35075,"is_reserved":false,"is_disabled":false,"rental_uris":{"android":"levelo://app?vid=de3d3d25-7354-49cb-8fa4-5acf1471cb8d","ios":"levelo://app?vid=de3d3d25-7354-49cb-8fa4-5acf1471cb8d"},"vehicle_type_id":"4","last_reported":1751559205,"current_range_meters":6800,"station_id":"st_cvj6sg6p6f1abm77japg","pricing_plan_id":"cebpf4jnsgd1na2vs0mg"},{"bike_id":"52fca1e6-8ced-447a-8458-b55088d707ce","system_id":"levelo_inurba_marseille","lat":43.28424,"lon":5.34969,"is_reserved":false,"is_disabled":false,"rental_uris":{"android":"levelo://app?vid=52fca1e6-8ced-447a-8458-b55088d707ce","ios":"levelo://app?vid=52fca1e6-8ced-447a-8458-b55088d707ce"},"vehicle_type_id":"4","last_reported":1751559205,"current_range_meters":7200,"station_id":"ce4bhbh2rcd13ifvqepg","pricing_plan_id":"cebpf4jnsgd1na2vs0mg"},{"bike_id":"05ee7334-3f6f-4486-a8b6-5c962b30bb46","system_id":"levelo_inurba_marseille","lat":43.29557,"lon":5.42289,"is_reserved":false,"is_disabled":false,"rental_uris":{"android":"levelo://app?vid=05ee7334-3f6f-4486-a8b6-5c962b30bb46","ios":"levelo://app?vid=05ee7334-3f6f-4486-a8b6-5c962b30bb46"},"vehicle_type_id":"4","last_reported":1751559205,"current_range_meters":7200,"station_id":"ce4bhph2rcd13ifvqhdg","pricing_plan_id":"cebpf4jnsgd1na2vs0mg"},{"bike_id":"cb95bd3d-7522-40a3-8670-8df0cbab0841","system_id":"levelo_inurba_marseille","lat":43.23199,"lon":5.35552,"is_reserved":false,"is_disabled":false,"rental_uris":{"android":"levelo://app?vid=cb95bd3d-7522-40a3-8670-8df0cbab0841","ios":"levelo://app?vid=cb95bd3d-7522-40a3-8670-8df0cbab0841"},"vehicle_type_id":"4","last_reported":1751559205,"current_range_meters":7200,"station_id":"ce4bhu92rcd13ifvqi70","pricing_plan_id":"cebpf4jnsgd1na2vs0mg"},{"bike_id":"08487b46-e9f2-43a3-a5f3-4d248386c9d3","system_id":"levelo_inurba_marseille","lat":43.297155,"lon":5.366059,"is_reserved":false,"is_disabled":false,"rental_uris":{"android":"levelo://app?vid=08487b46-e9f2-43a3-a5f3-4d248386c9d3","ios":"levelo://app?vid=08487b46-e9f2-43a3-a5f3-4d248386c9d3"},"vehicle_type_id":"4","last_reported":1751559205,"current_range_meters":8000,"station_id":"ce4bgn12rcd13ifvqbt0","pricing_plan_id":"cebpf4jnsgd1na2vs0mg"},{"bike_id":"6fd984eb-53e8-4c34-88e5-a8b000f10860","system_id":"levelo_inurba_marseille","lat":43.25577,"lon":5.38228,"is_reserved":false,"is_disabled":false,"rental_uris":{"android":"levelo://app?vid=6fd984eb-53e8-4c34-88e5-a8b000f10860","ios":"levelo://app?vid=6fd984eb-53e8-4c34-88e5-a8b000f10860"},"vehicle_type_id":"4","last_reported":1751559205,"current_range_meters":8000,"station_id":"ce4bhih2rcd13ifvqfs0","pricing_plan_id":"cebpf4jnsgd1na2vs0mg"},{"bike_id":"1f3a1c84-f619-4971-a4b8-c1b8f9186fbd","system_id":"levelo_inurba_marseille","lat":43.30426,"lon":5.38897,"is_reserved":false,"is_disabled":false,"rental_uris":{"android":"levelo://app?vid=1f3a1c84-f619-4971-a4b8-c1b8f9186fbd","ios":"levelo://app?vid=1f3a1c84-f619-4971-a4b8-c1b8f9186fbd"},"vehicle_type_id":"4","last_reported":1751559205,"current_range_meters":8400,"station_id":"ce4bgk12rcd13ifvqbi0","pricing_plan_id":"cebpf4jnsgd1na2vs0mg"},{"bike_id":"bcb7fef8-02a6-43ba-bf22-dfb46d788820","system_id":"levelo_inurba_marseille","lat":43.30423,"lon":5.388972,"is_reserved":false,"is_disabled":false,"rental_uris":{"android":"levelo://app?vid=bcb7fef8-02a6-43ba-bf22-dfb46d788820","ios":"levelo://app?vid=bcb7fef8-02a6-43ba-bf22-dfb46d788820"},"vehicle_type_id":"4","last_reported":1751559205,"current_range_meters":8400,"station_id":"ce4bgk12rcd13ifvqbi0","pricing_plan_id":"cebpf4jnsgd1na2vs0mg"},{"bike_id":"70bdd5c1-131d-4562-829c-ff34990a2828","system_id":"levelo_inurba_marseille","lat":43.28718,"lon":5.3794,"is_reserved":false,"is_disabled":false,"rental_uris":{"android":"levelo://app?vid=70bdd5c1-131d-4562-829c-ff34990a2828","ios":"levelo://app?vid=70bdd5c1-131d-4562-829c-ff34990a2828"},"vehicle_type_id":"4","last_reported":1751559205,"current_range_meters":8400,"station_id":"ce4bh9p2rcd13ifvqec0","pricing_plan_id":"cebpf4jnsgd1na2vs0mg"},{"bike_id":"b369f055-cd22-4fb6-a728-69430ded506c","system_id":"levelo_inurba_marseille","lat":43.21727,"lon":5.346423,"is_reserved":false,"is_disabled":false,"rental_uris":{"android":"levelo://app?vid=b369f055-cd22-4fb6-a728-69430ded506c","ios":"levelo://app?vid=b369f055-cd22-4fb6-a728-69430ded506c"},"vehicle_type_id":"4","last_reported":1751559205,"current_range_meters":8400,"station_id":"st_cvj6r9ubvosntc0bgbag","pricing_plan_id":"cebpf4jnsgd1na2vs0mg"},{"bike_id":"729078ba-c1ab-4784-b530-0b12a1d95864","system_id":"levelo_inurba_marseille","lat":43.28413,"lon":5.34992,"is_reserved":false,"is_disabled":false,"rental_uris":{"android":"levelo://app?vid=729078ba-c1ab-4784-b530-0b12a1d95864","ios":"levelo://app?vid=729078ba-c1ab-4784-b530-0b12a1d95864"},"vehicle_type_id":"4","last_reported":1751559205,"current_range_meters":8800,"station_id":"ce4bhbh2rcd13ifvqepg","pricing_plan_id":"cebpf4jnsgd1na2vs0mg"},{"bike_id":"8a8f9912-929a-4385-82d1-4b66e81d4ba2","system_id":"levelo_inurba_marseille","lat":43.282513,"lon":5.350664,"is_reserved":false,"is_disabled":false,"rental_uris":{"android":"levelo://app?vid=8a8f9912-929a-4385-82d1-4b66e81d4ba2","ios":"levelo://app?vid=8a8f9912-929a-4385-82d1-4b66e81d4ba2"},"vehicle_type_id":"4","last_reported":1751559205,"current_range_meters":8800,"station_id":"ce4bhbp2rcd13ifvqerg","pricing_plan_id":"cebpf4jnsgd1na2vs0mg"},{"bike_id":"2daec926-cf6a-4897-b995-077bc43c57ec","system_id":"levelo_inurba_marseille","lat":43.28678,"lon":5.35163,"is_reserved":false,"is_disabled":false,"rental_uris":{"android":"levelo://app?vid=2daec926-cf6a-4897-b995-077bc43c57ec","ios":"levelo://app?vid=2daec926-cf6a-4897-b995-077bc43c57ec"},"vehicle_type_id":"4","last_reported":1751559205,"current_range_meters":9200,"station_id":"","pricing_plan_id":"cebpf4jnsgd1na2vs0mg"},{"bike_id":"9a7d342a-ff8e-46c4-af1e-6e0519bd67dc","system_id":"levelo_inurba_marseille","lat":43.291433,"lon":5.355899,"is_reserved":false,"is_disabled":false,"rental_uris":{"android":"levelo://app?vid=9a7d342a-ff8e-46c4-af1e-6e0519bd67dc","ios":"levelo://app?vid=9a7d342a-ff8e-46c4-af1e-6e0519bd67dc"},"vehicle_type_id":"4","last_reported":1751559205,"current_range_meters":9200,"station_id":"","pricing_plan_id":"cebpf4jnsgd1na2vs0mg"},{"bike_id":"3cc6114a-cec5-49ca-a6ca-96f8022cfaff","system_id":"levelo_inurba_marseille","lat":43.29186,"lon":5.35804,"is_reserved":false,"is_disabled":false,"rental_uris":{"android":"levelo://app?vid=3cc6114a-cec5-49ca-a6ca-96f8022cfaff","ios":"levelo://app?vid=3cc6114a-cec5-49ca-a6ca-96f8022cfaff"},"vehicle_type_id":"4","last_reported":1751559205,"current_range_meters":9200,"station_id":"ce4bhb12rcd13ifvqel0","pricing_plan_id":"cebpf4jnsgd1na2vs0mg"},{"bike_id":"22c65f34-5b9a-4ce8-b3b0-5a1a52b259a2","system_id":"levelo_inurba_marseille","lat":43.297094,"lon":5.401832,"is_reserved":false,"is_disabled":false,"rental_uris":{"android":"levelo://app?vid=22c65f34-5b9a-4ce8-b3b0-5a1a52b259a2","ios":"levelo://app?vid=22c65f34-5b9a-4ce8-b3b0-5a1a52b259a2"},"vehicle_type_id":"4","last_reported":1751559205,"current_range_meters":9600,"station_id":"","pricing_plan_id":"cebpf4jnsgd1na2vs0mg"},{"bike_id":"bf00a211-3496-4df0-8e4e-99767047ca09","system_id":"levelo_inurba_marseille","lat":43.2997,"lon":5.37593,"is_reserved":false,"is_disabled":false,"rental_uris":{"android":"levelo://app?vid=bf00a211-3496-4df0-8e4e-99767047ca09","ios":"levelo://app?vid=bf00a211-3496-4df0-8e4e-99767047ca09"},"vehicle_type_id":"4","last_reported":1751559205,"current_range_meters":9600,"station_id":"","pricing_plan_id":"cebpf4jnsgd1na2vs0mg"},{"bike_id":"e26ba497-efc7-4420-b8c5-9fa5e27f2ce4","system_id":"levelo_inurba_marseille","lat":43.313473,"lon":5.370778,"is_reserved":false,"is_disabled":false,"rental_uris":{"android":"levelo://app?vid=e26ba497-efc7-4420-b8c5-9fa5e27f2ce4","ios":"levelo://app?vid=e26ba497-efc7-4420-b8c5-9fa5e27f2ce4"},"vehicle_type_id":"4","last_reported":1751559205,"current_range_meters":9600,"station_id":"","pricing_plan_id":"cebpf4jnsgd1na2vs0mg"},{"bike_id":"276c2ca6-6496-41e7-9699-fd8af00ba47d","system_id":"levelo_inurba_marseille","lat":43.29535,"lon":5.38538,"is_reserved":false,"is_disabled":false,"rental_uris":{"android":"levelo://app?vid=276c2ca6-6496-41e7-9699-fd8af00ba47d","ios":"levelo://app?vid=276c2ca6-6496-41e7-9699-fd8af00ba47d"},"vehicle_type_id":"4","last_reported":1751559205,"current_range_meters":9600,"station_id":"ce4bgih2rcd13ifvqba0","pricing_plan_id":"cebpf4jnsgd1na2vs0mg"},{"bike_id":"bdaf118f-24f0-4353-86bd-bcfa04c4a67a","system_id":"levelo_inurba_marseille","lat":43.28411,"lon":5.37508,"is_reserved":false,"is_disabled":false,"rental_uris":{"android":"levelo://app?vid=bdaf118f-24f0-4353-86bd-bcfa04c4a67a","ios":"levelo://app?vid=bdaf118f-24f0-4353-86bd-bcfa04c4a67a"},"vehicle_type_id":"4","last_reported":1751559205,"current_range_meters":9600,"station_id":"ce4bh412rcd13ifvqds0","pricing_plan_id":"cebpf4jnsgd1na2vs0mg"},{"bike_id":"c1658b09-1d46-4641-9341-bdc36682757d","system_id":"levelo_inurba_marseille","lat":43.2841,"lon":5.349903,"is_reserved":false,"is_disabled":false,"rental_uris":{"android":"levelo://app?vid=c1658b09-1d46-4641-9341-bdc36682757d","ios":"levelo://app?vid=c1658b09-1d46-4641-9341-bdc36682757d"},"vehicle_type_id":"4","last_reported":1751559205,"current_range_meters":9600,"station_id":"ce4bhbh2rcd13ifvqepg","pricing_plan_id":"cebpf4jnsgd1na2vs0mg"},{"bike_id":"1a43afe0-8a19-4189-a294-1ea434f9e02d","system_id":"levelo_inurba_marseille","lat":43.28426,"lon":5.34987,"is_reserved":false,"is_disabled":false,"rental_uris":{"android":"levelo://app?vid=1a43afe0-8a19-4189-a294-1ea434f9e02d","ios":"levelo://app?vid=1a43afe0-8a19-4189-a294-1ea434f9e02d"},"vehicle_type_id":"4","last_reported":1751559205,"current_range_meters":9600,"station_id":"ce4bhbh2rcd13ifvqepg","pricing_plan_id":"cebpf4jnsgd1na2vs0mg"},{"bike_id":"8d4ef848-be40-4840-a560-36bb9d3988fe","system_id":"levelo_inurba_marseille","lat":43.27904,"lon":5.38007,"is_reserved":false,"is_disabled":false,"rental_uris":{"android":"levelo://app?vid=8d4ef848-be40-4840-a560-36bb9d3988fe","ios":"levelo://app?vid=8d4ef848-be40-4840-a560-36bb9d3988fe"},"vehicle_type_id":"4","last_reported":1751559205,"current_range_meters":9600,"station_id":"ce4bhf92rcd13ifvqf50","pricing_plan_id":"cebpf4jnsgd1na2vs0mg"},{"bike_id":"b44c5f08-ff86-44db-a0f4-3b801f7529e3","system_id":"levelo_inurba_marseille","lat":43.32058,"lon":5.41525,"is_reserved":false,"is_disabled":false,"rental_uris":{"android":"levelo://app?vid=b44c5f08-ff86-44db-a0f4-3b801f7529e3","ios":"levelo://app?vid=b44c5f08-ff86-44db-a0f4-3b801f7529e3"},"vehicle_type_id":"4","last_reported":1751559205,"current_range_meters":9600,"station_id":"ce4bhq92rcd13ifvqhkg","pricing_plan_id":"cebpf4jnsgd1na2vs0mg"},{"bike_id":"bcfd0eda-b9ab-4bec-9ca3-3f2b86617415","system_id":"levelo_inurba_marseille","lat":43.211959,"lon":5.350775,"is_reserved":false,"is_disabled":false,"rental_uris":{"android":"levelo://app?vid=bcfd0eda-b9ab-4bec-9ca3-3f2b86617415","ios":"levelo://app?vid=bcfd0eda-b9ab-4bec-9ca3-3f2b86617415"},"vehicle_type_id":"4","last_reported":1751559205,"current_range_meters":9600,"station_id":"st_cvj6sg6p6f1abm77japg","pricing_plan_id":"cebpf4jnsgd1na2vs0mg"},{"bike_id":"3b89618a-ba2a-4085-8408-eaeaf12575a8","system_id":"levelo_inurba_marseille","lat":43.309479,"lon":5.390374,"is_reserved":false,"is_disabled":false,"rental_uris":{"android":"levelo://app?vid=3b89618a-ba2a-4085-8408-eaeaf12575a8","ios":"levelo://app?vid=3b89618a-ba2a-4085-8408-eaeaf12575a8"},"vehicle_type_id":"4","last_reported":1751559205,"current_range_meters":10000,"station_id":"ce4bgup2rcd13ifvqco0","pricing_plan_id":"cebpf4jnsgd1na2vs0mg"},{"bike_id":"e2531913-9310-4566-aef9-35ec0627529a","system_id":"levelo_inurba_marseille","lat":43.28619,"lon":5.35105,"is_reserved":false,"is_disabled":false,"rental_uris":{"android":"levelo://app?vid=e2531913-9310-4566-aef9-35ec0627529a","ios":"levelo://app?vid=e2531913-9310-4566-aef9-35ec0627529a"},"vehicle_type_id":"4","last_reported":1751559205,"current_range_meters":10000,"station_id":"ce4bhch2rcd13ifvqeug","pricing_plan_id":"cebpf4jnsgd1na2vs0mg"},{"bike_id":"5178491c-c0b4-4e6a-87ac-cfa85a0b7461","system_id":"levelo_inurba_marseille","lat":43.279342,"lon":5.411623,"is_reserved":false,"is_disabled":false,"rental_uris":{"android":"levelo://app?vid=5178491c-c0b4-4e6a-87ac-cfa85a0b7461","ios":"levelo://app?vid=5178491c-c0b4-4e6a-87ac-cfa85a0b7461"},"vehicle_type_id":"4","last_reported":1751559205,"current_range_meters":10000,"station_id":"ce4bhnh2rcd13ifvqgug","pricing_plan_id":"cebpf4jnsgd1na2vs0mg"},{"bike_id":"ef50a132-c502-4afc-a8c2-7de6a0df1152","system_id":"levelo_inurba_marseille","lat":43.225081,"lon":5.34786,"is_reserved":false,"is_disabled":false,"rental_uris":{"android":"levelo://app?vid=ef50a132-c502-4afc-a8c2-7de6a0df1152","ios":"levelo://app?vid=ef50a132-c502-4afc-a8c2-7de6a0df1152"},"vehicle_type_id":"4","last_reported":1751559205,"current_range_meters":10000,"station_id":"st_cvj5dfep6f1abm77gieg","pricing_plan_id":"cebpf4jnsgd1na2vs0mg"},{"bike_id":"28c75291-5f74-4748-bf50-14bbc70e09ae","system_id":"levelo_inurba_marseille","lat":43.30132,"lon":5.38782,"is_reserved":false,"is_disabled":false,"rental_uris":{"android":"levelo://app?vid=28c75291-5f74-4748-bf50-14bbc70e09ae","ios":"levelo://app?vid=28c75291-5f74-4748-bf50-14bbc70e09ae"},"vehicle_type_id":"4","last_reported":1751559205,"current_range_meters":10800,"station_id":"ce4bghh2rcd13ifvqb60","pricing_plan_id":"cebpf4jnsgd1na2vs0mg"},{"bike_id":"e36eeb04-35cc-4a52-97d7-6ba58bfe555b","system_id":"levelo_inurba_marseille","lat":43.29555,"lon":5.42282,"is_reserved":false,"is_disabled":false,"rental_uris":{"android":"levelo://app?vid=e36eeb04-35cc-4a52-97d7-6ba58bfe555b","ios":"levelo://app?vid=e36eeb04-35cc-4a52-97d7-6ba58bfe555b"},"vehicle_type_id":"4","last_reported":1751559205,"current_range_meters":10800,"station_id":"ce4bhph2rcd13ifvqhdg","pricing_plan_id":"cebpf4jnsgd1na2vs0mg"},{"bike_id":"16a8afe6-e43e-4d1b-a7bd-ed83d113735a","system_id":"levelo_inurba_marseille","lat":43.32436,"lon":5.41185,"is_reserved":false,"is_disabled":false,"rental_uris":{"android":"levelo://app?vid=16a8afe6-e43e-4d1b-a7bd-ed83d113735a","ios":"levelo://app?vid=16a8afe6-e43e-4d1b-a7bd-ed83d113735a"},"vehicle_type_id":"4","last_reported":1751559205,"current_range_meters":11200,"station_id":"","pricing_plan_id":"cebpf4jnsgd1na2vs0mg"},{"bike_id":"8ed61abe-6008-4eea-85ab-0d899ee9eae9","system_id":"levelo_inurba_marseille","lat":43.29419,"lon":5.38616,"is_reserved":false,"is_disabled":false,"rental_uris":{"android":"levelo://app?vid=8ed61abe-6008-4eea-85ab-0d899ee9eae9","ios":"levelo://app?vid=8ed61abe-6008-4eea-85ab-0d899ee9eae9"},"vehicle_type_id":"4","last_reported":1751559205,"current_range_meters":11200,"station_id":"ce4bh2h2rcd13ifvqdh0","pricing_plan_id":"cebpf4jnsgd1na2vs0mg"},{"bike_id":"ca647976-6c4a-4c74-8955-463de21012af","system_id":"levelo_inurba_marseille","lat":43.29007,"lon":5.35613,"is_reserved":false,"is_disabled":false,"rental_uris":{"android":"levelo://app?vid=ca647976-6c4a-4c74-8955-463de21012af","ios":"levelo://app?vid=ca647976-6c4a-4c74-8955-463de21012af"},"vehicle_type_id":"4","last_reported":1751559205,"current_range_meters":11200,"station_id":"ce4bhb92rcd13ifvqen0","pricing_plan_id":"cebpf4jnsgd1na2vs0mg"},{"bike_id":"65a09e99-6f5f-46e0-b8f3-c288eb195e49","system_id":"levelo_inurba_marseille","lat":43.2841,"lon":5.34995,"is_reserved":false,"is_disabled":false,"rental_uris":{"android":"levelo://app?vid=65a09e99-6f5f-46e0-b8f3-c288eb195e49","ios":"levelo://app?vid=65a09e99-6f5f-46e0-b8f3-c288eb195e49"},"vehicle_type_id":"4","last_reported":1751559205,"current_range_meters":11200,"station_id":"ce4bhbh2rcd13ifvqepg","pricing_plan_id":"cebpf4jnsgd1na2vs0mg"},{"bike_id":"cfdf57ed-e293-4628-906f-f34e265cbd4c","system_id":"levelo_inurba_marseille","lat":43.29276,"lon":5.36851,"is_reserved":false,"is_disabled":false,"rental_uris":{"android":"levelo://app?vid=cfdf57ed-e293-4628-906f-f34e265cbd4c","ios":"levelo://app?vid=cfdf57ed-e293-4628-906f-f34e265cbd4c"},"vehicle_type_id":"4","last_reported":1751559205,"current_range_meters":11200,"station_id":"ce4bhbp2rcd13ifvqesg","pricing_plan_id":"cebpf4jnsgd1na2vs0mg"},{"bike_id":"7797b2d5-6701-4e43-b0f0-7bc6f20b9cdc","system_id":"levelo_inurba_marseille","lat":43.26211,"lon":5.374423,"is_reserved":false,"is_disabled":false,"rental_uris":{"android":"levelo://app?vid=7797b2d5-6701-4e43-b0f0-7bc6f20b9cdc","ios":"levelo://app?vid=7797b2d5-6701-4e43-b0f0-7bc6f20b9cdc"},"vehicle_type_id":"4","last_reported":1751559205,"current_range_meters":11200,"station_id":"ce4bhgp2rcd13ifvqfc0","pricing_plan_id":"cebpf4jnsgd1na2vs0mg"},{"bike_id":"b1242795-0576-4e4d-a89f-9d7f8310ff08","system_id":"levelo_inurba_marseille","lat":43.24174,"lon":5.36393,"is_reserved":false,"is_disabled":false,"rental_uris":{"android":"levelo://app?vid=b1242795-0576-4e4d-a89f-9d7f8310ff08","ios":"levelo://app?vid=b1242795-0576-4e4d-a89f-9d7f8310ff08"},"vehicle_type_id":"4","last_reported":1751559205,"current_range_meters":11600,"station_id":"cpo36qri1sfpv3e86is0","pricing_plan_id":"cebpf4jnsgd1na2vs0mg"},{"bike_id":"29642250-d3d5-4b31-b991-8592abc384d7","system_id":"levelo_inurba_marseille","lat":43.28685,"lon":5.38323,"is_reserved":false,"is_disabled":false,"rental_uris":{"android":"levelo://app?vid=29642250-d3d5-4b31-b991-8592abc384d7","ios":"levelo://app?vid=29642250-d3d5-4b31-b991-8592abc384d7"},"vehicle_type_id":"4","last_reported":1751559205,"current_range_meters":12000,"station_id":"ce4bhgh2rcd13ifvqfa0","pricing_plan_id":"cebpf4jnsgd1na2vs0mg"},{"bike_id":"d025c4a0-d5e0-41ef-b654-3a7ae31e3039","system_id":"levelo_inurba_marseille","lat":43.28,"lon":5.41664,"is_reserved":false,"is_disabled":false,"rental_uris":{"android":"levelo://app?vid=d025c4a0-d5e0-41ef-b654-3a7ae31e3039","ios":"levelo://app?vid=d025c4a0-d5e0-41ef-b654-3a7ae31e3039"},"vehicle_type_id":"4","last_reported":1751559205,"current_range_meters":12000,"station_id":"ce4bho12rcd13ifvqh1g","pricing_plan_id":"cebpf4jnsgd1na2vs0mg"},{"bike_id":"b2748913-424f-42e5-b5ad-6390c3b377e9","system_id":"levelo_inurba_marseille","lat":43.30418,"lon":5.41284,"is_reserved":false,"is_disabled":false,"rental_uris":{"android":"levelo://app?vid=b2748913-424f-42e5-b5ad-6390c3b377e9","ios":"levelo://app?vid=b2748913-424f-42e5-b5ad-6390c3b377e9"},"vehicle_type_id":"4","last_reported":1751559205,"current_range_meters":12000,"station_id":"ce4bhop2rcd13ifvqh8g","pricing_plan_id":"cebpf4jnsgd1na2vs0mg"},{"bike_id":"b30e31d7-58a6-4ca8-84c8-7339151a0883","system_id":"levelo_inurba_marseille","lat":43.24159,"lon":5.36401,"is_reserved":false,"is_disabled":false,"rental_uris":{"android":"levelo://app?vid=b30e31d7-58a6-4ca8-84c8-7339151a0883","ios":"levelo://app?vid=b30e31d7-58a6-4ca8-84c8-7339151a0883"},"vehicle_type_id":"4","last_reported":1751559205,"current_range_meters":12000,"station_id":"cpo36qri1sfpv3e86is0","pricing_plan_id":"cebpf4jnsgd1na2vs0mg"},{"bike_id":"11970aec-b8fb-425b-a042-b89e477d801a","system_id":"levelo_inurba_marseille","lat":43.2417,"lon":5.36397,"is_reserved":false,"is_disabled":false,"rental_uris":{"android":"levelo://app?vid=11970aec-b8fb-425b-a042-b89e477d801a","ios":"levelo://app?vid=11970aec-b8fb-425b-a042-b89e477d801a"},"vehicle_type_id":"4","last_reported":1751559205,"current_range_meters":12000,"station_id":"cpo36qri1sfpv3e86is0","pricing_plan_id":"cebpf4jnsgd1na2vs0mg"},{"bike_id":"0e030323-4386-4e72-9a0d-0f6a2ff539de","system_id":"levelo_inurba_marseille","lat":43.29649,"lon":5.40547,"is_reserved":false,"is_disabled":false,"rental_uris":{"android":"levelo://app?vid=0e030323-4386-4e72-9a0d-0f6a2ff539de","ios":"levelo://app?vid=0e030323-4386-4e72-9a0d-0f6a2ff539de"},"vehicle_type_id":"4","last_reported":1751559205,"current_range_meters":12400,"station_id":"","pricing_plan_id":"cebpf4jnsgd1na2vs0mg"},{"bike_id":"b7a190bb-0b58-4561-847c-f01ec571983c","system_id":"levelo_inurba_marseille","lat":43.28419,"lon":5.34993,"is_reserved":false,"is_disabled":false,"rental_uris":{"android":"levelo://app?vid=b7a190bb-0b58-4561-847c-f01ec571983c","ios":"levelo://app?vid=b7a190bb-0b58-4561-847c-f01ec571983c"},"vehicle_type_id":"4","last_reported":1751559205,"current_range_meters":12400,"station_id":"ce4bhbh2rcd13ifvqepg","pricing_plan_id":"cebpf4jnsgd1na2vs0mg"},{"bike_id":"a588469b-12ca-41c6-8c6f-3f3bda5b7f15","system_id":"levelo_inurba_marseille","lat":43.31574,"lon":5.38376,"is_reserved":false,"is_disabled":false,"rental_uris":{"android":"levelo://app?vid=a588469b-12ca-41c6-8c6f-3f3bda5b7f15","ios":"levelo://app?vid=a588469b-12ca-41c6-8c6f-3f3bda5b7f15"},"vehicle_type_id":"4","last_reported":1751559205,"current_range_meters":12800,"station_id":"","pricing_plan_id":"cebpf4jnsgd1na2vs0mg"},{"bike_id":"c679caa5-6447-49de-9e68-ead6c3bd7d31","system_id":"levelo_inurba_marseille","lat":43.28934,"lon":5.36647,"is_reserved":false,"is_disabled":false,"rental_uris":{"android":"levelo://app?vid=c679caa5-6447-49de-9e68-ead6c3bd7d31","ios":"levelo://app?vid=c679caa5-6447-49de-9e68-ead6c3bd7d31"},"vehicle_type_id":"4","last_reported":1751559205,"current_range_meters":12800,"station_id":"ce4bhap2rcd13ifvqek0","pricing_plan_id":"cebpf4jnsgd1na2vs0mg"},{"bike_id":"912d67f3-78e7-48fd-8929-37f0572cfee4","system_id":"levelo_inurba_marseille","lat":43.26404,"lon":5.37367,"is_reserved":false,"is_disabled":false,"rental_uris":{"android":"levelo://app?vid=912d67f3-78e7-48fd-8929-37f0572cfee4","ios":"levelo://app?vid=912d67f3-78e7-48fd-8929-37f0572cfee4"},"vehicle_type_id":"4","last_reported":1751559205,"current_range_meters":13600,"station_id":"","pricing_plan_id":"cebpf4jnsgd1na2vs0mg"},{"bike_id":"d45bff28-55b4-4223-9bbc-bc7cb67eeaea","system_id":"levelo_inurba_marseille","lat":43.28355,"lon":5.3811,"is_reserved":false,"is_disabled":false,"rental_uris":{"android":"levelo://app?vid=d45bff28-55b4-4223-9bbc-bc7cb67eeaea","ios":"levelo://app?vid=d45bff28-55b4-4223-9bbc-bc7cb67eeaea"},"vehicle_type_id":"4","last_reported":1751559205,"current_range_meters":13600,"station_id":"ce4bh412rcd13ifvqdr0","pricing_plan_id":"cebpf4jnsgd1na2vs0mg"},{"bike_id":"3b753967-68ac-497d-b237-6eeb00254464","system_id":"levelo_inurba_marseille","lat":43.28417,"lon":5.3498,"is_reserved":false,"is_disabled":false,"rental_uris":{"android":"levelo://app?vid=3b753967-68ac-497d-b237-6eeb00254464","ios":"levelo://app?vid=3b753967-68ac-497d-b237-6eeb00254464"},"vehicle_type_id":"4","last_reported":1751559205,"current_range_meters":13600,"station_id":"ce4bhbh2rcd13ifvqepg","pricing_plan_id":"cebpf4jnsgd1na2vs0mg"},{"bike_id":"ffc4ee84-d1be-4ebc-8ebf-1a1ca37b8401","system_id":"levelo_inurba_marseille","lat":43.30876,"lon":5.37401,"is_reserved":false,"is_disabled":false,"rental_uris":{"android":"levelo://app?vid=ffc4ee84-d1be-4ebc-8ebf-1a1ca37b8401","ios":"levelo://app?vid=ffc4ee84-d1be-4ebc-8ebf-1a1ca37b8401"},"vehicle_type_id":"4","last_reported":1751559205,"current_range_meters":14000,"station_id":"","pricing_plan_id":"cebpf4jnsgd1na2vs0mg"},{"bike_id":"08f825ce-08d3-4d7a-94e7-8f6984c22dd1","system_id":"levelo_inurba_marseille","lat":43.29534,"lon":5.3855,"is_reserved":false,"is_disabled":false,"rental_uris":{"android":"levelo://app?vid=08f825ce-08d3-4d7a-94e7-8f6984c22dd1","ios":"levelo://app?vid=08f825ce-08d3-4d7a-94e7-8f6984c22dd1"},"vehicle_type_id":"4","last_reported":1751559205,"current_range_meters":14000,"station_id":"ce4bgih2rcd13ifvqba0","pricing_plan_id":"cebpf4jnsgd1na2vs0mg"},{"bike_id":"ade4e392-da05-4a93-996b-34548959c193","system_id":"levelo_inurba_marseille","lat":43.29538,"lon":5.38533,"is_reserved":false,"is_disabled":false,"rental_uris":{"android":"levelo://app?vid=ade4e392-da05-4a93-996b-34548959c193","ios":"levelo://app?vid=ade4e392-da05-4a93-996b-34548959c193"},"vehicle_type_id":"4","last_reported":1751559205,"current_range_meters":14000,"station_id":"ce4bgih2rcd13ifvqba0","pricing_plan_id":"cebpf4jnsgd1na2vs0mg"},{"bike_id":"827bcbe0-2cb4-4d90-9356-8c071e40d22c","system_id":"levelo_inurba_marseille","lat":43.29631,"lon":5.40596,"is_reserved":false,"is_disabled":false,"rental_uris":{"android":"levelo://app?vid=827bcbe0-2cb4-4d90-9356-8c071e40d22c","ios":"levelo://app?vid=827bcbe0-2cb4-4d90-9356-8c071e40d22c"},"vehicle_type_id":"4","last_reported":1751559205,"current_range_meters":14000,"station_id":"ce4bh0h2rcd13ifvqd60","pricing_plan_id":"cebpf4jnsgd1na2vs0mg"},{"bike_id":"9c23527d-2419-4524-8ee9-5558a4a23a7a","system_id":"levelo_inurba_marseille","lat":43.2846,"lon":5.35887,"is_reserved":false,"is_disabled":false,"rental_uris":{"android":"levelo://app?vid=9c23527d-2419-4524-8ee9-5558a4a23a7a","ios":"levelo://app?vid=9c23527d-2419-4524-8ee9-5558a4a23a7a"},"vehicle_type_id":"4","last_reported":1751559205,"current_range_meters":14000,"station_id":"ce4bhah2rcd13ifvqei0","pricing_plan_id":"cebpf4jnsgd1na2vs0mg"},{"bike_id":"8b3755fc-2284-401e-bc3a-14d8474e8e49","system_id":"levelo_inurba_marseille","lat":43.28637,"lon":5.35139,"is_reserved":false,"is_disabled":false,"rental_uris":{"android":"levelo://app?vid=8b3755fc-2284-401e-bc3a-14d8474e8e49","ios":"levelo://app?vid=8b3755fc-2284-401e-bc3a-14d8474e8e49"},"vehicle_type_id":"4","last_reported":1751559205,"current_range_meters":14000,"station_id":"ce4bhch2rcd13ifvqeug","pricing_plan_id":"cebpf4jnsgd1na2vs0mg"},{"bike_id":"bc290229-0e6e-4e91-b153-2c4479ac595d","system_id":"levelo_inurba_marseille","lat":43.32349,"lon":5.4062,"is_reserved":false,"is_disabled":false,"rental_uris":{"android":"levelo://app?vid=bc290229-0e6e-4e91-b153-2c4479ac595d","ios":"levelo://app?vid=bc290229-0e6e-4e91-b153-2c4479ac595d"},"vehicle_type_id":"4","last_reported":1751559205,"current_range_meters":14000,"station_id":"ce4bhq92rcd13ifvqhjg","pricing_plan_id":"cebpf4jnsgd1na2vs0mg"},{"bike_id":"4a3a0be6-706c-43b8-8009-9c10375fa4c8","system_id":"levelo_inurba_marseille","lat":43.24168,"lon":5.36404,"is_reserved":false,"is_disabled":false,"rental_uris":{"android":"levelo://app?vid=4a3a0be6-706c-43b8-8009-9c10375fa4c8","ios":"levelo://app?vid=4a3a0be6-706c-43b8-8009-9c10375fa4c8"},"vehicle_type_id":"4","last_reported":1751559205,"current_range_meters":14000,"station_id":"cpo36qri1sfpv3e86is0","pricing_plan_id":"cebpf4jnsgd1na2vs0mg"},{"bike_id":"0884593c-e6cb-4565-8d12-b550f5f6fdc8","system_id":"levelo_inurba_marseille","lat":43.28617,"lon":5.35111,"is_reserved":false,"is_disabled":false,"rental_uris":{"android":"levelo://app?vid=0884593c-e6cb-4565-8d12-b550f5f6fdc8","ios":"levelo://app?vid=0884593c-e6cb-4565-8d12-b550f5f6fdc8"},"vehicle_type_id":"4","last_reported":1751559205,"current_range_meters":14400,"station_id":"ce4bhch2rcd13ifvqeug","pricing_plan_id":"cebpf4jnsgd1na2vs0mg"},{"bike_id":"ba154a12-11bd-42a5-958a-5992f5d043d1","system_id":"levelo_inurba_marseille","lat":43.30521,"lon":5.37084,"is_reserved":false,"is_disabled":false,"rental_uris":{"android":"levelo://app?vid=ba154a12-11bd-42a5-958a-5992f5d043d1","ios":"levelo://app?vid=ba154a12-11bd-42a5-958a-5992f5d043d1"},"vehicle_type_id":"4","last_reported":1751559205,"current_range_meters":15200,"station_id":"","pricing_plan_id":"cebpf4jnsgd1na2vs0mg"},{"bike_id":"e02bdf32-cc8a-41b5-97c1-5c569debfc51","system_id":"levelo_inurba_marseille","lat":43.30429,"lon":5.38889,"is_reserved":false,"is_disabled":false,"rental_uris":{"android":"levelo://app?vid=e02bdf32-cc8a-41b5-97c1-5c569debfc51","ios":"levelo://app?vid=e02bdf32-cc8a-41b5-97c1-5c569debfc51"},"vehicle_type_id":"4","last_reported":1751559205,"current_range_meters":15200,"station_id":"ce4bgk12rcd13ifvqbi0","pricing_plan_id":"cebpf4jnsgd1na2vs0mg"},{"bike_id":"2e2e885c-0a76-4368-b351-41141e5c350c","system_id":"levelo_inurba_marseille","lat":43.25115,"lon":5.40323,"is_reserved":false,"is_disabled":false,"rental_uris":{"android":"levelo://app?vid=2e2e885c-0a76-4368-b351-41141e5c350c","ios":"levelo://app?vid=2e2e885c-0a76-4368-b351-41141e5c350c"},"vehicle_type_id":"4","last_reported":1751559205,"current_range_meters":15200,"station_id":"ce4bhlh2rcd13ifvqgig","pricing_plan_id":"cebpf4jnsgd1na2vs0mg"},{"bike_id":"f75b6efc-1f3e-481f-981e-22458a06be8e","system_id":"levelo_inurba_marseille","lat":43.3303,"lon":5.39053,"is_reserved":false,"is_disabled":false,"rental_uris":{"android":"levelo://app?vid=f75b6efc-1f3e-481f-981e-22458a06be8e","ios":"levelo://app?vid=f75b6efc-1f3e-481f-981e-22458a06be8e"},"vehicle_type_id":"4","last_reported":1751559205,"current_range_meters":15200,"station_id":"ce4bhr92rcd13ifvqhrg","pricing_plan_id":"cebpf4jnsgd1na2vs0mg"},{"bike_id":"39865cd7-27d9-477e-99c0-f0ff8dfb8629","system_id":"levelo_inurba_marseille","lat":43.2119,"lon":5.35067,"is_reserved":false,"is_disabled":false,"rental_uris":{"android":"levelo://app?vid=39865cd7-27d9-477e-99c0-f0ff8dfb8629","ios":"levelo://app?vid=39865cd7-27d9-477e-99c0-f0ff8dfb8629"},"vehicle_type_id":"4","last_reported":1751559205,"current_range_meters":15200,"station_id":"st_cvj6sg6p6f1abm77japg","pricing_plan_id":"cebpf4jnsgd1na2vs0mg"},{"bike_id":"37b84a38-055a-4a6e-a56a-8ff3d0c1b2ec","system_id":"levelo_inurba_marseille","lat":43.211959,"lon":5.350728,"is_reserved":false,"is_disabled":false,"rental_uris":{"android":"levelo://app?vid=37b84a38-055a-4a6e-a56a-8ff3d0c1b2ec","ios":"levelo://app?vid=37b84a38-055a-4a6e-a56a-8ff3d0c1b2ec"},"vehicle_type_id":"4","last_reported":1751559205,"current_range_meters":15200,"station_id":"st_cvj6sg6p6f1abm77japg","pricing_plan_id":"cebpf4jnsgd1na2vs0mg"},{"bike_id":"175513bb-dce2-48e2-83c8-1e9f1cb23cd0","system_id":"levelo_inurba_marseille","lat":43.286255,"lon":5.412651,"is_reserved":false,"is_disabled":false,"rental_uris":{"android":"levelo://app?vid=175513bb-dce2-48e2-83c8-1e9f1cb23cd0","ios":"levelo://app?vid=175513bb-dce2-48e2-83c8-1e9f1cb23cd0"},"vehicle_type_id":"4","last_reported":1751559205,"current_range_meters":16000,"station_id":"","pricing_plan_id":"cebpf4jnsgd1na2vs0mg"},{"bike_id":"d6a97fc8-7c5d-4b77-9d38-d22003db8fe5","system_id":"levelo_inurba_marseille","lat":43.34721,"lon":5.36602,"is_reserved":false,"is_disabled":false,"rental_uris":{"android":"levelo://app?vid=d6a97fc8-7c5d-4b77-9d38-d22003db8fe5","ios":"levelo://app?vid=d6a97fc8-7c5d-4b77-9d38-d22003db8fe5"},"vehicle_type_id":"4","last_reported":1751559205,"current_range_meters":16000,"station_id":"","pricing_plan_id":"cebpf4jnsgd1na2vs0mg"},{"bike_id":"03dadb48-a496-411e-ac48-a7f4462b8cdf","system_id":"levelo_inurba_marseille","lat":43.30292,"lon":5.39221,"is_reserved":false,"is_disabled":false,"rental_uris":{"android":"levelo://app?vid=03dadb48-a496-411e-ac48-a7f4462b8cdf","ios":"levelo://app?vid=03dadb48-a496-411e-ac48-a7f4462b8cdf"},"vehicle_type_id":"4","last_reported":1751559205,"current_range_meters":16000,"station_id":"ce4bgkh2rcd13ifvqbk0","pricing_plan_id":"cebpf4jnsgd1na2vs0mg"},{"bike_id":"aa249cc0-72ee-4290-9bb9-598473bbef1a","system_id":"levelo_inurba_marseille","lat":43.29088,"lon":5.38128,"is_reserved":false,"is_disabled":false,"rental_uris":{"android":"levelo://app?vid=aa249cc0-72ee-4290-9bb9-598473bbef1a","ios":"levelo://app?vid=aa249cc0-72ee-4290-9bb9-598473bbef1a"},"vehicle_type_id":"4","last_reported":1751559205,"current_range_meters":16000,"station_id":"ce4bh512rcd13ifvqe2g","pricing_plan_id":"cebpf4jnsgd1na2vs0mg"},{"bike_id":"d4a349db-f22d-4680-8253-fdaa0586ff9a","system_id":"levelo_inurba_marseille","lat":43.273695,"lon":5.362525,"is_reserved":false,"is_disabled":false,"rental_uris":{"android":"levelo://app?vid=d4a349db-f22d-4680-8253-fdaa0586ff9a","ios":"levelo://app?vid=d4a349db-f22d-4680-8253-fdaa0586ff9a"},"vehicle_type_id":"4","last_reported":1751559205,"current_range_meters":16000,"station_id":"ce4bhbh2rcd13ifvqeo0","pricing_plan_id":"cebpf4jnsgd1na2vs0mg"},{"bike_id":"44a9443d-3135-4a25-856d-9bda0e293f4a","system_id":"levelo_inurba_marseille","lat":43.28427,"lon":5.34987,"is_reserved":false,"is_disabled":false,"rental_uris":{"android":"levelo://app?vid=44a9443d-3135-4a25-856d-9bda0e293f4a","ios":"levelo://app?vid=44a9443d-3135-4a25-856d-9bda0e293f4a"},"vehicle_type_id":"4","last_reported":1751559205,"current_range_meters":16000,"station_id":"ce4bhbh2rcd13ifvqepg","pricing_plan_id":"cebpf4jnsgd1na2vs0mg"},{"bike_id":"e99f07fa-756f-44b5-ba7e-c3bc9046d58c","system_id":"levelo_inurba_marseille","lat":43.28619,"lon":5.351,"is_reserved":false,"is_disabled":false,"rental_uris":{"android":"levelo://app?vid=e99f07fa-756f-44b5-ba7e-c3bc9046d58c","ios":"levelo://app?vid=e99f07fa-756f-44b5-ba7e-c3bc9046d58c"},"vehicle_type_id":"4","last_reported":1751559205,"current_range_meters":16000,"station_id":"ce4bhch2rcd13ifvqeug","pricing_plan_id":"cebpf4jnsgd1na2vs0mg"},{"bike_id":"429fa18c-0d06-4a5d-a9f7-cd69cbe19891","system_id":"levelo_inurba_marseille","lat":43.25474,"lon":5.37699,"is_reserved":false,"is_disabled":false,"rental_uris":{"android":"levelo://app?vid=429fa18c-0d06-4a5d-a9f7-cd69cbe19891","ios":"levelo://app?vid=429fa18c-0d06-4a5d-a9f7-cd69cbe19891"},"vehicle_type_id":"4","last_reported":1751559205,"current_range_meters":16000,"station_id":"ce4bhh12rcd13ifvqff0","pricing_plan_id":"cebpf4jnsgd1na2vs0mg"},{"bike_id":"7c67e7dd-7a7f-426b-9249-641f91643932","system_id":"levelo_inurba_marseille","lat":43.24168,"lon":5.36397,"is_reserved":false,"is_disabled":false,"rental_uris":{"android":"levelo://app?vid=7c67e7dd-7a7f-426b-9249-641f91643932","ios":"levelo://app?vid=7c67e7dd-7a7f-426b-9249-641f91643932"},"vehicle_type_id":"4","last_reported":1751559205,"current_range_meters":16000,"station_id":"cpo36qri1sfpv3e86is0","pricing_plan_id":"cebpf4jnsgd1na2vs0mg"},{"bike_id":"4d4995e7-0bba-4ac2-a238-afd84a5e99b5","system_id":"levelo_inurba_marseille","lat":43.304848,"lon":5.398345,"is_reserved":false,"is_disabled":false,"rental_uris":{"android":"levelo://app?vid=4d4995e7-0bba-4ac2-a238-afd84a5e99b5","ios":"levelo://app?vid=4d4995e7-0bba-4ac2-a238-afd84a5e99b5"},"vehicle_type_id":"4","last_reported":1751559205,"current_range_meters":16400,"station_id":"","pricing_plan_id":"cebpf4jnsgd1na2vs0mg"},{"bike_id":"0c4b7fdb-b39e-49b3-a2b0-ae3d0f43e89d","system_id":"levelo_inurba_marseille","lat":43.32904,"lon":5.40556,"is_reserved":false,"is_disabled":false,"rental_uris":{"android":"levelo://app?vid=0c4b7fdb-b39e-49b3-a2b0-ae3d0f43e89d","ios":"levelo://app?vid=0c4b7fdb-b39e-49b3-a2b0-ae3d0f43e89d"},"vehicle_type_id":"4","last_reported":1751559205,"current_range_meters":16400,"station_id":"","pricing_plan_id":"cebpf4jnsgd1na2vs0mg"},{"bike_id":"66ea6aa9-e1cf-437c-b812-8dc418b91907","system_id":"levelo_inurba_marseille","lat":43.29516,"lon":5.39411,"is_reserved":false,"is_disabled":false,"rental_uris":{"android":"levelo://app?vid=66ea6aa9-e1cf-437c-b812-8dc418b91907","ios":"levelo://app?vid=66ea6aa9-e1cf-437c-b812-8dc418b91907"},"vehicle_type_id":"4","last_reported":1751559205,"current_range_meters":16400,"station_id":"ce4bh292rcd13ifvqdf0","pricing_plan_id":"cebpf4jnsgd1na2vs0mg"},{"bike_id":"b5480ddf-8f57-4c5d-9217-6b71bffc190d","system_id":"levelo_inurba_marseille","lat":43.28852,"lon":5.35861,"is_reserved":false,"is_disabled":false,"rental_uris":{"android":"levelo://app?vid=b5480ddf-8f57-4c5d-9217-6b71bffc190d","ios":"levelo://app?vid=b5480ddf-8f57-4c5d-9217-6b71bffc190d"},"vehicle_type_id":"4","last_reported":1751559205,"current_range_meters":16400,"station_id":"ce4bhb12rcd13ifvqem0","pricing_plan_id":"cebpf4jnsgd1na2vs0mg"},{"bike_id":"db6b4215-49c9-4aef-845e-4d7d939d3d90","system_id":"levelo_inurba_marseille","lat":43.262132,"lon":5.374435,"is_reserved":false,"is_disabled":false,"rental_uris":{"android":"levelo://app?vid=db6b4215-49c9-4aef-845e-4d7d939d3d90","ios":"levelo://app?vid=db6b4215-49c9-4aef-845e-4d7d939d3d90"},"vehicle_type_id":"4","last_reported":1751559205,"current_range_meters":16400,"station_id":"ce4bhgp2rcd13ifvqfc0","pricing_plan_id":"cebpf4jnsgd1na2vs0mg"},{"bike_id":"2596bf02-4b4e-4a73-96c0-306657fb5dc9","system_id":"levelo_inurba_marseille","lat":43.26207,"lon":5.37439,"is_reserved":false,"is_disabled":false,"rental_uris":{"android":"levelo://app?vid=2596bf02-4b4e-4a73-96c0-306657fb5dc9","ios":"levelo://app?vid=2596bf02-4b4e-4a73-96c0-306657fb5dc9"},"vehicle_type_id":"4","last_reported":1751559205,"current_range_meters":16400,"station_id":"ce4bhgp2rcd13ifvqfc0","pricing_plan_id":"cebpf4jnsgd1na2vs0mg"},{"bike_id":"98c351bd-5b05-4667-a61c-65588be6d001","system_id":"levelo_inurba_marseille","lat":43.25501,"lon":5.37651,"is_reserved":false,"is_disabled":false,"rental_uris":{"android":"levelo://app?vid=98c351bd-5b05-4667-a61c-65588be6d001","ios":"levelo://app?vid=98c351bd-5b05-4667-a61c-65588be6d001"},"vehicle_type_id":"4","last_reported":1751559205,"current_range_meters":16400,"station_id":"ce4bhh12rcd13ifvqff0","pricing_plan_id":"cebpf4jnsgd1na2vs0mg"},{"bike_id":"a6715104-7492-4ec6-a996-23050baf8551","system_id":"levelo_inurba_marseille","lat":43.22499,"lon":5.34772,"is_reserved":false,"is_disabled":false,"rental_uris":{"android":"levelo://app?vid=a6715104-7492-4ec6-a996-23050baf8551","ios":"levelo://app?vid=a6715104-7492-4ec6-a996-23050baf8551"},"vehicle_type_id":"4","last_reported":1751559205,"current_range_meters":16400,"station_id":"st_cvj5dfep6f1abm77gieg","pricing_plan_id":"cebpf4jnsgd1na2vs0mg"},{"bike_id":"af213e10-6367-4cec-af17-63aa54d97712","system_id":"levelo_inurba_marseille","lat":43.27617,"lon":5.36108,"is_reserved":false,"is_disabled":false,"rental_uris":{"android":"levelo://app?vid=af213e10-6367-4cec-af17-63aa54d97712","ios":"levelo://app?vid=af213e10-6367-4cec-af17-63aa54d97712"},"vehicle_type_id":"4","last_reported":1751559205,"current_range_meters":16800,"station_id":"ce4bgj92rcd13ifvqbe0","pricing_plan_id":"cebpf4jnsgd1na2vs0mg"},{"bike_id":"7ab1a795-ce92-4d6c-a196-1a8646dda6f4","system_id":"levelo_inurba_marseille","lat":43.28418,"lon":5.34998,"is_reserved":false,"is_disabled":false,"rental_uris":{"android":"levelo://app?vid=7ab1a795-ce92-4d6c-a196-1a8646dda6f4","ios":"levelo://app?vid=7ab1a795-ce92-4d6c-a196-1a8646dda6f4"},"vehicle_type_id":"4","last_reported":1751559205,"current_range_meters":16800,"station_id":"ce4bhbh2rcd13ifvqepg","pricing_plan_id":"cebpf4jnsgd1na2vs0mg"},{"bike_id":"80a421f9-82c6-43e6-aaa0-88dda18c110c","system_id":"levelo_inurba_marseille","lat":43.28414,"lon":5.34994,"is_reserved":false,"is_disabled":false,"rental_uris":{"android":"levelo://app?vid=80a421f9-82c6-43e6-aaa0-88dda18c110c","ios":"levelo://app?vid=80a421f9-82c6-43e6-aaa0-88dda18c110c"},"vehicle_type_id":"4","last_reported":1751559205,"current_range_meters":16800,"station_id":"ce4bhbh2rcd13ifvqepg","pricing_plan_id":"cebpf4jnsgd1na2vs0mg"},{"bike_id":"e872df2e-b231-46ae-bc87-b1c2c8d81daf","system_id":"levelo_inurba_marseille","lat":43.28615,"lon":5.35109,"is_reserved":false,"is_disabled":false,"rental_uris":{"android":"levelo://app?vid=e872df2e-b231-46ae-bc87-b1c2c8d81daf","ios":"levelo://app?vid=e872df2e-b231-46ae-bc87-b1c2c8d81daf"},"vehicle_type_id":"4","last_reported":1751559205,"current_range_meters":16800,"station_id":"ce4bhch2rcd13ifvqeug","pricing_plan_id":"cebpf4jnsgd1na2vs0mg"},{"bike_id":"603f229c-09b9-4145-9510-d250a8eff49b","system_id":"levelo_inurba_marseille","lat":43.286141,"lon":5.351113,"is_reserved":false,"is_disabled":false,"rental_uris":{"android":"levelo://app?vid=603f229c-09b9-4145-9510-d250a8eff49b","ios":"levelo://app?vid=603f229c-09b9-4145-9510-d250a8eff49b"},"vehicle_type_id":"4","last_reported":1751559205,"current_range_meters":16800,"station_id":"ce4bhch2rcd13ifvqeug","pricing_plan_id":"cebpf4jnsgd1na2vs0mg"},{"bike_id":"6ee47da4-9cb7-4584-be45-580a2eecea99","system_id":"levelo_inurba_marseille","lat":43.25508,"lon":5.37662,"is_reserved":false,"is_disabled":false,"rental_uris":{"android":"levelo://app?vid=6ee47da4-9cb7-4584-be45-580a2eecea99","ios":"levelo://app?vid=6ee47da4-9cb7-4584-be45-580a2eecea99"},"vehicle_type_id":"4","last_reported":1751559205,"current_range_meters":16800,"station_id":"ce4bhh12rcd13ifvqff0","pricing_plan_id":"cebpf4jnsgd1na2vs0mg"},{"bike_id":"7e21e8f2-09c8-4cc5-8113-278ebd23888d","system_id":"levelo_inurba_marseille","lat":43.21209,"lon":5.350747,"is_reserved":false,"is_disabled":false,"rental_uris":{"android":"levelo://app?vid=7e21e8f2-09c8-4cc5-8113-278ebd23888d","ios":"levelo://app?vid=7e21e8f2-09c8-4cc5-8113-278ebd23888d"},"vehicle_type_id":"4","last_reported":1751559205,"current_range_meters":16800,"station_id":"st_cvj6sg6p6f1abm77japg","pricing_plan_id":"cebpf4jnsgd1na2vs0mg"},{"bike_id":"dfbce5f2-d4be-4fb4-b96e-89f73ba79196","system_id":"levelo_inurba_marseille","lat":43.21192,"lon":5.35074,"is_reserved":false,"is_disabled":false,"rental_uris":{"android":"levelo://app?vid=dfbce5f2-d4be-4fb4-b96e-89f73ba79196","ios":"levelo://app?vid=dfbce5f2-d4be-4fb4-b96e-89f73ba79196"},"vehicle_type_id":"4","last_reported":1751559205,"current_range_meters":16800,"station_id":"st_cvj6sg6p6f1abm77japg","pricing_plan_id":"cebpf4jnsgd1na2vs0mg"},{"bike_id":"0c5e46df-9adb-4aa5-842c-17a1961c0106","system_id":"levelo_inurba_marseille","lat":43.27991,"lon":5.40708,"is_reserved":false,"is_disabled":false,"rental_uris":{"android":"levelo://app?vid=0c5e46df-9adb-4aa5-842c-17a1961c0106","ios":"levelo://app?vid=0c5e46df-9adb-4aa5-842c-17a1961c0106"},"vehicle_type_id":"4","last_reported":1751559205,"current_range_meters":17200,"station_id":"","pricing_plan_id":"cebpf4jnsgd1na2vs0mg"},{"bike_id":"072c1623-0cde-4bde-882e-9ebd9afe837d","system_id":"levelo_inurba_marseille","lat":43.2313,"lon":5.43748,"is_reserved":false,"is_disabled":false,"rental_uris":{"android":"levelo://app?vid=072c1623-0cde-4bde-882e-9ebd9afe837d","ios":"levelo://app?vid=072c1623-0cde-4bde-882e-9ebd9afe837d"},"vehicle_type_id":"4","last_reported":1751559205,"current_range_meters":17200,"station_id":"","pricing_plan_id":"cebpf4jnsgd1na2vs0mg"},{"bike_id":"922db25a-f09e-427d-960f-52551cab0aeb","system_id":"levelo_inurba_marseille","lat":43.28043,"lon":5.3696,"is_reserved":false,"is_disabled":false,"rental_uris":{"android":"levelo://app?vid=922db25a-f09e-427d-960f-52551cab0aeb","ios":"levelo://app?vid=922db25a-f09e-427d-960f-52551cab0aeb"},"vehicle_type_id":"4","last_reported":1751559205,"current_range_meters":17200,"station_id":"ce4bha12rcd13ifvqef0","pricing_plan_id":"cebpf4jnsgd1na2vs0mg"},{"bike_id":"efd39573-3e62-4943-bd41-7a5e046acff7","system_id":"levelo_inurba_marseille","lat":43.27369,"lon":5.36253,"is_reserved":false,"is_disabled":false,"rental_uris":{"android":"levelo://app?vid=efd39573-3e62-4943-bd41-7a5e046acff7","ios":"levelo://app?vid=efd39573-3e62-4943-bd41-7a5e046acff7"},"vehicle_type_id":"4","last_reported":1751559205,"current_range_meters":17200,"station_id":"ce4bhbh2rcd13ifvqeo0","pricing_plan_id":"cebpf4jnsgd1na2vs0mg"},{"bike_id":"5e197122-e8ec-4f01-b370-6bbfc10c6950","system_id":"levelo_inurba_marseille","lat":43.2119,"lon":5.35064,"is_reserved":false,"is_disabled":false,"rental_uris":{"android":"levelo://app?vid=5e197122-e8ec-4f01-b370-6bbfc10c6950","ios":"levelo://app?vid=5e197122-e8ec-4f01-b370-6bbfc10c6950"},"vehicle_type_id":"4","last_reported":1751559205,"current_range_meters":17200,"station_id":"st_cvj6sg6p6f1abm77japg","pricing_plan_id":"cebpf4jnsgd1na2vs0mg"},{"bike_id":"cc04118e-9312-4bf8-9106-d64e829afbaa","system_id":"levelo_inurba_marseille","lat":43.212025,"lon":5.350716,"is_reserved":false,"is_disabled":false,"rental_uris":{"android":"levelo://app?vid=cc04118e-9312-4bf8-9106-d64e829afbaa","ios":"levelo://app?vid=cc04118e-9312-4bf8-9106-d64e829afbaa"},"vehicle_type_id":"4","last_reported":1751559205,"current_range_meters":17200,"station_id":"st_cvj6sg6p6f1abm77japg","pricing_plan_id":"cebpf4jnsgd1na2vs0mg"},{"bike_id":"0ac7b5d2-7a7e-4e1d-840f-7c4deb9a9b72","system_id":"levelo_inurba_marseille","lat":43.290059,"lon":5.356143,"is_reserved":false,"is_disabled":false,"rental_uris":{"android":"levelo://app?vid=0ac7b5d2-7a7e-4e1d-840f-7c4deb9a9b72","ios":"levelo://app?vid=0ac7b5d2-7a7e-4e1d-840f-7c4deb9a9b72"},"vehicle_type_id":"4","last_reported":1751559205,"current_range_meters":17600,"station_id":"ce4bhb92rcd13ifvqen0","pricing_plan_id":"cebpf4jnsgd1na2vs0mg"},{"bike_id":"5598d938-8bfc-4250-bd61-6a56a6c0876b","system_id":"levelo_inurba_marseille","lat":43.27378,"lon":5.3626,"is_reserved":false,"is_disabled":false,"rental_uris":{"android":"levelo://app?vid=5598d938-8bfc-4250-bd61-6a56a6c0876b","ios":"levelo://app?vid=5598d938-8bfc-4250-bd61-6a56a6c0876b"},"vehicle_type_id":"4","last_reported":1751559205,"current_range_meters":17600,"station_id":"ce4bhbh2rcd13ifvqeo0","pricing_plan_id":"cebpf4jnsgd1na2vs0mg"},{"bike_id":"b35c913a-6b27-4cc6-9ebb-fdd74d5d7c59","system_id":"levelo_inurba_marseille","lat":43.284095,"lon":5.350199,"is_reserved":false,"is_disabled":false,"rental_uris":{"android":"levelo://app?vid=b35c913a-6b27-4cc6-9ebb-fdd74d5d7c59","ios":"levelo://app?vid=b35c913a-6b27-4cc6-9ebb-fdd74d5d7c59"},"vehicle_type_id":"4","last_reported":1751559205,"current_range_meters":17600,"station_id":"ce4bhbh2rcd13ifvqepg","pricing_plan_id":"cebpf4jnsgd1na2vs0mg"},{"bike_id":"d2207051-380d-44a6-b551-18362ab8ad18","system_id":"levelo_inurba_marseille","lat":43.26558,"lon":5.37283,"is_reserved":false,"is_disabled":false,"rental_uris":{"android":"levelo://app?vid=d2207051-380d-44a6-b551-18362ab8ad18","ios":"levelo://app?vid=d2207051-380d-44a6-b551-18362ab8ad18"},"vehicle_type_id":"4","last_reported":1751559205,"current_range_meters":17600,"station_id":"ce4bhg12rcd13ifvqf70","pricing_plan_id":"cebpf4jnsgd1na2vs0mg"},{"bike_id":"55aa929b-2db6-4ab6-8121-df233a47781a","system_id":"levelo_inurba_marseille","lat":43.26233,"lon":5.37422,"is_reserved":false,"is_disabled":false,"rental_uris":{"android":"levelo://app?vid=55aa929b-2db6-4ab6-8121-df233a47781a","ios":"levelo://app?vid=55aa929b-2db6-4ab6-8121-df233a47781a"},"vehicle_type_id":"4","last_reported":1751559205,"current_range_meters":17600,"station_id":"ce4bhgp2rcd13ifvqfc0","pricing_plan_id":"cebpf4jnsgd1na2vs0mg"},{"bike_id":"085a9b83-3f84-40f5-9e64-5af9b3d60f63","system_id":"levelo_inurba_marseille","lat":43.29901,"lon":5.43659,"is_reserved":false,"is_disabled":false,"rental_uris":{"android":"levelo://app?vid=085a9b83-3f84-40f5-9e64-5af9b3d60f63","ios":"levelo://app?vid=085a9b83-3f84-40f5-9e64-5af9b3d60f63"},"vehicle_type_id":"4","last_reported":1751559205,"current_range_meters":17600,"station_id":"ce4bhpp2rcd13ifvqhfg","pricing_plan_id":"cebpf4jnsgd1na2vs0mg"},{"bike_id":"04e6c422-f573-4b46-85ae-d31c2fc5977b","system_id":"levelo_inurba_marseille","lat":43.24173,"lon":5.36395,"is_reserved":false,"is_disabled":false,"rental_uris":{"android":"levelo://app?vid=04e6c422-f573-4b46-85ae-d31c2fc5977b","ios":"levelo://app?vid=04e6c422-f573-4b46-85ae-d31c2fc5977b"},"vehicle_type_id":"4","last_reported":1751559205,"current_range_meters":17600,"station_id":"cpo36qri1sfpv3e86is0","pricing_plan_id":"cebpf4jnsgd1na2vs0mg"},{"bike_id":"1c8ab180-05fd-405f-9922-b2b2c2d5142f","system_id":"levelo_inurba_marseille","lat":43.337897,"lon":5.38131,"is_reserved":false,"is_disabled":false,"rental_uris":{"android":"levelo://app?vid=1c8ab180-05fd-405f-9922-b2b2c2d5142f","ios":"levelo://app?vid=1c8ab180-05fd-405f-9922-b2b2c2d5142f"},"vehicle_type_id":"4","last_reported":1751559205,"current_range_meters":18000,"station_id":"","pricing_plan_id":"cebpf4jnsgd1na2vs0mg"},{"bike_id":"e4de7ec1-5d27-4cc0-91da-4cdaaeb5b67d","system_id":"levelo_inurba_marseille","lat":43.28938,"lon":5.36638,"is_reserved":false,"is_disabled":false,"rental_uris":{"android":"levelo://app?vid=e4de7ec1-5d27-4cc0-91da-4cdaaeb5b67d","ios":"levelo://app?vid=e4de7ec1-5d27-4cc0-91da-4cdaaeb5b67d"},"vehicle_type_id":"4","last_reported":1751559205,"current_range_meters":18000,"station_id":"ce4bhap2rcd13ifvqek0","pricing_plan_id":"cebpf4jnsgd1na2vs0mg"},{"bike_id":"1481e14a-065f-47bf-8387-dea0d5d886f6","system_id":"levelo_inurba_marseille","lat":43.29004,"lon":5.35612,"is_reserved":false,"is_disabled":false,"rental_uris":{"android":"levelo://app?vid=1481e14a-065f-47bf-8387-dea0d5d886f6","ios":"levelo://app?vid=1481e14a-065f-47bf-8387-dea0d5d886f6"},"vehicle_type_id":"4","last_reported":1751559205,"current_range_meters":18000,"station_id":"ce4bhb92rcd13ifvqen0","pricing_plan_id":"cebpf4jnsgd1na2vs0mg"},{"bike_id":"e20d6e1c-7ee8-4361-ae44-7c201ec402d8","system_id":"levelo_inurba_marseille","lat":43.28269,"lon":5.35065,"is_reserved":false,"is_disabled":false,"rental_uris":{"android":"levelo://app?vid=e20d6e1c-7ee8-4361-ae44-7c201ec402d8","ios":"levelo://app?vid=e20d6e1c-7ee8-4361-ae44-7c201ec402d8"},"vehicle_type_id":"4","last_reported":1751559205,"current_range_meters":18000,"station_id":"ce4bhbp2rcd13ifvqerg","pricing_plan_id":"cebpf4jnsgd1na2vs0mg"},{"bike_id":"8da684ae-3f97-4764-8de8-9018770f9653","system_id":"levelo_inurba_marseille","lat":43.25085,"lon":5.39522,"is_reserved":false,"is_disabled":false,"rental_uris":{"android":"levelo://app?vid=8da684ae-3f97-4764-8de8-9018770f9653","ios":"levelo://app?vid=8da684ae-3f97-4764-8de8-9018770f9653"},"vehicle_type_id":"4","last_reported":1751559205,"current_range_meters":18000,"station_id":"ce4bhm12rcd13ifvqgkg","pricing_plan_id":"cebpf4jnsgd1na2vs0mg"},{"bike_id":"e0cf4f92-46df-473e-911f-2c957751a417","system_id":"levelo_inurba_marseille","lat":43.27807,"lon":5.40715,"is_reserved":false,"is_disabled":false,"rental_uris":{"android":"levelo://app?vid=e0cf4f92-46df-473e-911f-2c957751a417","ios":"levelo://app?vid=e0cf4f92-46df-473e-911f-2c957751a417"},"vehicle_type_id":"4","last_reported":1751559205,"current_range_meters":18000,"station_id":"ce4bhnh2rcd13ifvqgtg","pricing_plan_id":"cebpf4jnsgd1na2vs0mg"},{"bike_id":"5ecbe7d9-b835-47e3-87d6-0fd67017673c","system_id":"levelo_inurba_marseille","lat":43.32103,"lon":5.36771,"is_reserved":false,"is_disabled":false,"rental_uris":{"android":"levelo://app?vid=5ecbe7d9-b835-47e3-87d6-0fd67017673c","ios":"levelo://app?vid=5ecbe7d9-b835-47e3-87d6-0fd67017673c"},"vehicle_type_id":"4","last_reported":1751559205,"current_range_meters":18000,"station_id":"ce4bhrh2rcd13ifvqhug","pricing_plan_id":"cebpf4jnsgd1na2vs0mg"},{"bike_id":"076c3d66-e5ad-4afa-9a54-22c0e2ed0417","system_id":"levelo_inurba_marseille","lat":43.24169,"lon":5.36398,"is_reserved":false,"is_disabled":false,"rental_uris":{"android":"levelo://app?vid=076c3d66-e5ad-4afa-9a54-22c0e2ed0417","ios":"levelo://app?vid=076c3d66-e5ad-4afa-9a54-22c0e2ed0417"},"vehicle_type_id":"4","last_reported":1751559205,"current_range_meters":18000,"station_id":"cpo36qri1sfpv3e86is0","pricing_plan_id":"cebpf4jnsgd1na2vs0mg"},{"bike_id":"d3bdb41c-8b0a-446d-98af-e6de2988fc13","system_id":"levelo_inurba_marseille","lat":43.22493,"lon":5.3484,"is_reserved":false,"is_disabled":false,"rental_uris":{"android":"levelo://app?vid=d3bdb41c-8b0a-446d-98af-e6de2988fc13","ios":"levelo://app?vid=d3bdb41c-8b0a-446d-98af-e6de2988fc13"},"vehicle_type_id":"4","last_reported":1751559205,"current_range_meters":18000,"station_id":"st_cvj5dfep6f1abm77gieg","pricing_plan_id":"cebpf4jnsgd1na2vs0mg"},{"bike_id":"5f1e5526-9ff8-4075-8194-48a897f058b4","system_id":"levelo_inurba_marseille","lat":43.211963,"lon":5.350783,"is_reserved":false,"is_disabled":false,"rental_uris":{"android":"levelo://app?vid=5f1e5526-9ff8-4075-8194-48a897f058b4","ios":"levelo://app?vid=5f1e5526-9ff8-4075-8194-48a897f058b4"},"vehicle_type_id":"4","last_reported":1751559205,"current_range_meters":18000,"station_id":"st_cvj6sg6p6f1abm77japg","pricing_plan_id":"cebpf4jnsgd1na2vs0mg"},{"bike_id":"b48a69ba-cc9a-4ea8-937f-26c60ea77ab6","system_id":"levelo_inurba_marseille","lat":43.28354,"lon":5.38105,"is_reserved":false,"is_disabled":false,"rental_uris":{"android":"levelo://app?vid=b48a69ba-cc9a-4ea8-937f-26c60ea77ab6","ios":"levelo://app?vid=b48a69ba-cc9a-4ea8-937f-26c60ea77ab6"},"vehicle_type_id":"4","last_reported":1751559205,"current_range_meters":18800,"station_id":"ce4bh412rcd13ifvqdr0","pricing_plan_id":"cebpf4jnsgd1na2vs0mg"},{"bike_id":"14ecf157-0e2a-4d14-860f-77ba787d04dc","system_id":"levelo_inurba_marseille","lat":43.28611,"lon":5.35099,"is_reserved":false,"is_disabled":false,"rental_uris":{"android":"levelo://app?vid=14ecf157-0e2a-4d14-860f-77ba787d04dc","ios":"levelo://app?vid=14ecf157-0e2a-4d14-860f-77ba787d04dc"},"vehicle_type_id":"4","last_reported":1751559205,"current_range_meters":18800,"station_id":"ce4bhch2rcd13ifvqeug","pricing_plan_id":"cebpf4jnsgd1na2vs0mg"},{"bike_id":"b29e6e1b-dc12-4e23-a724-1dbf28cc08b7","system_id":"levelo_inurba_marseille","lat":43.24169,"lon":5.3639,"is_reserved":false,"is_disabled":false,"rental_uris":{"android":"levelo://app?vid=b29e6e1b-dc12-4e23-a724-1dbf28cc08b7","ios":"levelo://app?vid=b29e6e1b-dc12-4e23-a724-1dbf28cc08b7"},"vehicle_type_id":"4","last_reported":1751559205,"current_range_meters":18800,"station_id":"cpo36qri1sfpv3e86is0","pricing_plan_id":"cebpf4jnsgd1na2vs0mg"},{"bike_id":"32c0fc37-6823-41d0-9497-8d1eea24742c","system_id":"levelo_inurba_marseille","lat":43.241701,"lon":5.364011,"is_reserved":false,"is_disabled":false,"rental_uris":{"android":"levelo://app?vid=32c0fc37-6823-41d0-9497-8d1eea24742c","ios":"levelo://app?vid=32c0fc37-6823-41d0-9497-8d1eea24742c"},"vehicle_type_id":"4","last_reported":1751559205,"current_range_meters":18800,"station_id":"cpo36qri1sfpv3e86is0","pricing_plan_id":"cebpf4jnsgd1na2vs0mg"},{"bike_id":"ba926bfc-9632-4680-b0ed-32a040d6fb83","system_id":"levelo_inurba_marseille","lat":43.21763,"lon":5.346,"is_reserved":false,"is_disabled":false,"rental_uris":{"android":"levelo://app?vid=ba926bfc-9632-4680-b0ed-32a040d6fb83","ios":"levelo://app?vid=ba926bfc-9632-4680-b0ed-32a040d6fb83"},"vehicle_type_id":"4","last_reported":1751559205,"current_range_meters":18800,"station_id":"st_cvj6r9ubvosntc0bgbag","pricing_plan_id":"cebpf4jnsgd1na2vs0mg"},{"bike_id":"b13877a6-4825-4d82-b46b-67fa8ad66c5d","system_id":"levelo_inurba_marseille","lat":43.21193,"lon":5.35079,"is_reserved":false,"is_disabled":false,"rental_uris":{"android":"levelo://app?vid=b13877a6-4825-4d82-b46b-67fa8ad66c5d","ios":"levelo://app?vid=b13877a6-4825-4d82-b46b-67fa8ad66c5d"},"vehicle_type_id":"4","last_reported":1751559205,"current_range_meters":18800,"station_id":"st_cvj6sg6p6f1abm77japg","pricing_plan_id":"cebpf4jnsgd1na2vs0mg"},{"bike_id":"7712491c-e18b-4b09-bb79-30880b357c07","system_id":"levelo_inurba_marseille","lat":43.21188,"lon":5.35069,"is_reserved":false,"is_disabled":false,"rental_uris":{"android":"levelo://app?vid=7712491c-e18b-4b09-bb79-30880b357c07","ios":"levelo://app?vid=7712491c-e18b-4b09-bb79-30880b357c07"},"vehicle_type_id":"4","last_reported":1751559205,"current_range_meters":18800,"station_id":"st_cvj6sg6p6f1abm77japg","pricing_plan_id":"cebpf4jnsgd1na2vs0mg"},{"bike_id":"10eccae7-0bbe-49ca-bae9-0d8adaf89e9d","system_id":"levelo_inurba_marseille","lat":43.27623,"lon":5.36111,"is_reserved":false,"is_disabled":false,"rental_uris":{"android":"levelo://app?vid=10eccae7-0bbe-49ca-bae9-0d8adaf89e9d","ios":"levelo://app?vid=10eccae7-0bbe-49ca-bae9-0d8adaf89e9d"},"vehicle_type_id":"4","last_reported":1751559205,"current_range_meters":19200,"station_id":"ce4bgj92rcd13ifvqbe0","pricing_plan_id":"cebpf4jnsgd1na2vs0mg"},{"bike_id":"d6e4beea-9eae-48fa-a170-61b877438408","system_id":"levelo_inurba_marseille","lat":43.2827,"lon":5.35084,"is_reserved":false,"is_disabled":false,"rental_uris":{"android":"levelo://app?vid=d6e4beea-9eae-48fa-a170-61b877438408","ios":"levelo://app?vid=d6e4beea-9eae-48fa-a170-61b877438408"},"vehicle_type_id":"4","last_reported":1751559205,"current_range_meters":19200,"station_id":"ce4bhbp2rcd13ifvqerg","pricing_plan_id":"cebpf4jnsgd1na2vs0mg"},{"bike_id":"08e81811-c9ab-430d-a98b-a4424b37dd49","system_id":"levelo_inurba_marseille","lat":43.295568,"lon":5.422973,"is_reserved":false,"is_disabled":false,"rental_uris":{"android":"levelo://app?vid=08e81811-c9ab-430d-a98b-a4424b37dd49","ios":"levelo://app?vid=08e81811-c9ab-430d-a98b-a4424b37dd49"},"vehicle_type_id":"4","last_reported":1751559205,"current_range_meters":19200,"station_id":"ce4bhph2rcd13ifvqhdg","pricing_plan_id":"cebpf4jnsgd1na2vs0mg"},{"bike_id":"4d7d0e67-4e2a-4d1d-a833-b5acfb4e2b86","system_id":"levelo_inurba_marseille","lat":43.217515,"lon":5.34601,"is_reserved":false,"is_disabled":false,"rental_uris":{"android":"levelo://app?vid=4d7d0e67-4e2a-4d1d-a833-b5acfb4e2b86","ios":"levelo://app?vid=4d7d0e67-4e2a-4d1d-a833-b5acfb4e2b86"},"vehicle_type_id":"4","last_reported":1751559205,"current_range_meters":19200,"station_id":"st_cvj6r9ubvosntc0bgbag","pricing_plan_id":"cebpf4jnsgd1na2vs0mg"},{"bike_id":"39fa5f31-4afa-4271-a36e-400e3970d6f0","system_id":"levelo_inurba_marseille","lat":43.30386,"lon":5.3761,"is_reserved":false,"is_disabled":false,"rental_uris":{"android":"levelo://app?vid=39fa5f31-4afa-4271-a36e-400e3970d6f0","ios":"levelo://app?vid=39fa5f31-4afa-4271-a36e-400e3970d6f0"},"vehicle_type_id":"4","last_reported":1751559205,"current_range_meters":19600,"station_id":"","pricing_plan_id":"cebpf4jnsgd1na2vs0mg"},{"bike_id":"fadb4ada-0d4d-4f39-8db8-6e571198b2d2","system_id":"levelo_inurba_marseille","lat":43.30304,"lon":5.38899,"is_reserved":false,"is_disabled":false,"rental_uris":{"android":"levelo://app?vid=fadb4ada-0d4d-4f39-8db8-6e571198b2d2","ios":"levelo://app?vid=fadb4ada-0d4d-4f39-8db8-6e571198b2d2"},"vehicle_type_id":"4","last_reported":1751559205,"current_range_meters":19600,"station_id":"","pricing_plan_id":"cebpf4jnsgd1na2vs0mg"},{"bike_id":"09a99f33-1b62-4980-a40d-2999d100d2ff","system_id":"levelo_inurba_marseille","lat":43.284858,"lon":5.395018,"is_reserved":false,"is_disabled":false,"rental_uris":{"android":"levelo://app?vid=09a99f33-1b62-4980-a40d-2999d100d2ff","ios":"levelo://app?vid=09a99f33-1b62-4980-a40d-2999d100d2ff"},"vehicle_type_id":"4","last_reported":1751559205,"current_range_meters":19600,"station_id":"","pricing_plan_id":"cebpf4jnsgd1na2vs0mg"},{"bike_id":"b5d3a1fd-0d3b-4fd3-a4e6-eac12cdde09a","system_id":"levelo_inurba_marseille","lat":43.282708,"lon":5.350716,"is_reserved":false,"is_disabled":false,"rental_uris":{"android":"levelo://app?vid=b5d3a1fd-0d3b-4fd3-a4e6-eac12cdde09a","ios":"levelo://app?vid=b5d3a1fd-0d3b-4fd3-a4e6-eac12cdde09a"},"vehicle_type_id":"4","last_reported":1751559205,"current_range_meters":19600,"station_id":"ce4bhbp2rcd13ifvqerg","pricing_plan_id":"cebpf4jnsgd1na2vs0mg"},{"bike_id":"4d5bd039-f1cc-46c1-9560-7fe302c1dc0a","system_id":"levelo_inurba_marseille","lat":43.24072,"lon":5.37761,"is_reserved":false,"is_disabled":false,"rental_uris":{"android":"levelo://app?vid=4d5bd039-f1cc-46c1-9560-7fe302c1dc0a","ios":"levelo://app?vid=4d5bd039-f1cc-46c1-9560-7fe302c1dc0a"},"vehicle_type_id":"4","last_reported":1751559205,"current_range_meters":19600,"station_id":"ce4bhnp2rcd13ifvqgvg","pricing_plan_id":"cebpf4jnsgd1na2vs0mg"},{"bike_id":"4b8da722-ee9e-48a4-a5e5-3a8a10364708","system_id":"levelo_inurba_marseille","lat":43.31226,"lon":5.3781,"is_reserved":false,"is_disabled":false,"rental_uris":{"android":"levelo://app?vid=4b8da722-ee9e-48a4-a5e5-3a8a10364708","ios":"levelo://app?vid=4b8da722-ee9e-48a4-a5e5-3a8a10364708"},"vehicle_type_id":"4","last_reported":1751559205,"current_range_meters":20000,"station_id":"","pricing_plan_id":"cebpf4jnsgd1na2vs0mg"},{"bike_id":"63acad33-6ce0-4879-bb8b-7b4910bd10f3","system_id":"levelo_inurba_marseille","lat":43.2477,"lon":5.41193,"is_reserved":false,"is_disabled":false,"rental_uris":{"android":"levelo://app?vid=63acad33-6ce0-4879-bb8b-7b4910bd10f3","ios":"levelo://app?vid=63acad33-6ce0-4879-bb8b-7b4910bd10f3"},"vehicle_type_id":"4","last_reported":1751559205,"current_range_meters":20000,"station_id":"","pricing_plan_id":"cebpf4jnsgd1na2vs0mg"},{"bike_id":"a8944b91-8697-4738-9fb4-28a90dceb5ac","system_id":"levelo_inurba_marseille","lat":43.29204,"lon":5.39315,"is_reserved":false,"is_disabled":false,"rental_uris":{"android":"levelo://app?vid=a8944b91-8697-4738-9fb4-28a90dceb5ac","ios":"levelo://app?vid=a8944b91-8697-4738-9fb4-28a90dceb5ac"},"vehicle_type_id":"4","last_reported":1751559205,"current_range_meters":20000,"station_id":"ce4bh192rcd13ifvqdd0","pricing_plan_id":"cebpf4jnsgd1na2vs0mg"},{"bike_id":"bdcb5287-cab4-4ae5-8571-bd20e083a3c2","system_id":"levelo_inurba_marseille","lat":43.30348,"lon":5.37884,"is_reserved":false,"is_disabled":false,"rental_uris":{"android":"levelo://app?vid=bdcb5287-cab4-4ae5-8571-bd20e083a3c2","ios":"levelo://app?vid=bdcb5287-cab4-4ae5-8571-bd20e083a3c2"},"vehicle_type_id":"4","last_reported":1751559205,"current_range_meters":20400,"station_id":"","pricing_plan_id":"cebpf4jnsgd1na2vs0mg"},{"bike_id":"7ac510a6-907d-4497-8ef4-8084e820f9fa","system_id":"levelo_inurba_marseille","lat":43.286203,"lon":5.351004,"is_reserved":false,"is_disabled":false,"rental_uris":{"android":"levelo://app?vid=7ac510a6-907d-4497-8ef4-8084e820f9fa","ios":"levelo://app?vid=7ac510a6-907d-4497-8ef4-8084e820f9fa"},"vehicle_type_id":"4","last_reported":1751559205,"current_range_meters":20400,"station_id":"ce4bhch2rcd13ifvqeug","pricing_plan_id":"cebpf4jnsgd1na2vs0mg"},{"bike_id":"208f3ca8-5ae1-4afa-bf93-2fb945fa389b","system_id":"levelo_inurba_marseille","lat":43.23054,"lon":5.35501,"is_reserved":false,"is_disabled":false,"rental_uris":{"android":"levelo://app?vid=208f3ca8-5ae1-4afa-bf93-2fb945fa389b","ios":"levelo://app?vid=208f3ca8-5ae1-4afa-bf93-2fb945fa389b"},"vehicle_type_id":"4","last_reported":1751559205,"current_range_meters":20400,"station_id":"cpo3342slgdg3j2ifvpg","pricing_plan_id":"cebpf4jnsgd1na2vs0mg"},{"bike_id":"c13c93ac-6b62-443c-9e36-caf61b27325a","system_id":"levelo_inurba_marseille","lat":43.21191,"lon":5.35066,"is_reserved":false,"is_disabled":false,"rental_uris":{"android":"levelo://app?vid=c13c93ac-6b62-443c-9e36-caf61b27325a","ios":"levelo://app?vid=c13c93ac-6b62-443c-9e36-caf61b27325a"},"vehicle_type_id":"4","last_reported":1751559205,"current_range_meters":20400,"station_id":"st_cvj6sg6p6f1abm77japg","pricing_plan_id":"cebpf4jnsgd1na2vs0mg"},{"bike_id":"7be93d05-2405-4cfe-a0c4-c6f3670e10c7","system_id":"levelo_inurba_marseille","lat":43.212194,"lon":5.350769,"is_reserved":false,"is_disabled":false,"rental_uris":{"android":"levelo://app?vid=7be93d05-2405-4cfe-a0c4-c6f3670e10c7","ios":"levelo://app?vid=7be93d05-2405-4cfe-a0c4-c6f3670e10c7"},"vehicle_type_id":"4","last_reported":1751559205,"current_range_meters":20400,"station_id":"st_cvj6sg6p6f1abm77japg","pricing_plan_id":"cebpf4jnsgd1na2vs0mg"},{"bike_id":"82f7f926-60ca-4c42-b9ef-0e6e8aaf63ff","system_id":"levelo_inurba_marseille","lat":43.28355,"lon":5.38104,"is_reserved":false,"is_disabled":false,"rental_uris":{"android":"levelo://app?vid=82f7f926-60ca-4c42-b9ef-0e6e8aaf63ff","ios":"levelo://app?vid=82f7f926-60ca-4c42-b9ef-0e6e8aaf63ff"},"vehicle_type_id":"4","last_reported":1751559205,"current_range_meters":20800,"station_id":"ce4bh412rcd13ifvqdr0","pricing_plan_id":"cebpf4jnsgd1na2vs0mg"},{"bike_id":"52c650f7-26b0-43a1-b21d-2069c710899e","system_id":"levelo_inurba_marseille","lat":43.29164,"lon":5.37162,"is_reserved":false,"is_disabled":false,"rental_uris":{"android":"levelo://app?vid=52c650f7-26b0-43a1-b21d-2069c710899e","ios":"levelo://app?vid=52c650f7-26b0-43a1-b21d-2069c710899e"},"vehicle_type_id":"4","last_reported":1751559205,"current_range_meters":20800,"station_id":"ce4bha92rcd13ifvqeh0","pricing_plan_id":"cebpf4jnsgd1na2vs0mg"},{"bike_id":"a563c58e-9dc2-4cbd-8cfa-c7436eb1cb3c","system_id":"levelo_inurba_marseille","lat":43.289343,"lon":5.3662,"is_reserved":false,"is_disabled":false,"rental_uris":{"android":"levelo://app?vid=a563c58e-9dc2-4cbd-8cfa-c7436eb1cb3c","ios":"levelo://app?vid=a563c58e-9dc2-4cbd-8cfa-c7436eb1cb3c"},"vehicle_type_id":"4","last_reported":1751559205,"current_range_meters":20800,"station_id":"ce4bhap2rcd13ifvqek0","pricing_plan_id":"cebpf4jnsgd1na2vs0mg"},{"bike_id":"2bff0257-f783-4746-b89d-5a6e98036db7","system_id":"levelo_inurba_marseille","lat":43.28422,"lon":5.34984,"is_reserved":false,"is_disabled":false,"rental_uris":{"android":"levelo://app?vid=2bff0257-f783-4746-b89d-5a6e98036db7","ios":"levelo://app?vid=2bff0257-f783-4746-b89d-5a6e98036db7"},"vehicle_type_id":"4","last_reported":1751559205,"current_range_meters":20800,"station_id":"ce4bhbh2rcd13ifvqepg","pricing_plan_id":"cebpf4jnsgd1na2vs0mg"},{"bike_id":"8448df16-456f-4ece-8f85-d173378c0589","system_id":"levelo_inurba_marseille","lat":43.28634,"lon":5.35089,"is_reserved":false,"is_disabled":false,"rental_uris":{"android":"levelo://app?vid=8448df16-456f-4ece-8f85-d173378c0589","ios":"levelo://app?vid=8448df16-456f-4ece-8f85-d173378c0589"},"vehicle_type_id":"4","last_reported":1751559205,"current_range_meters":20800,"station_id":"ce4bhch2rcd13ifvqeug","pricing_plan_id":"cebpf4jnsgd1na2vs0mg"},{"bike_id":"de451598-d329-4bed-9ec7-59723b2ce2fc","system_id":"levelo_inurba_marseille","lat":43.26191,"lon":5.37452,"is_reserved":false,"is_disabled":false,"rental_uris":{"android":"levelo://app?vid=de451598-d329-4bed-9ec7-59723b2ce2fc","ios":"levelo://app?vid=de451598-d329-4bed-9ec7-59723b2ce2fc"},"vehicle_type_id":"4","last_reported":1751559205,"current_range_meters":20800,"station_id":"ce4bhgp2rcd13ifvqfc0","pricing_plan_id":"cebpf4jnsgd1na2vs0mg"},{"bike_id":"fc737241-98fa-43ab-8b83-53ec2440c48e","system_id":"levelo_inurba_marseille","lat":43.27075,"lon":5.42281,"is_reserved":false,"is_disabled":false,"rental_uris":{"android":"levelo://app?vid=fc737241-98fa-43ab-8b83-53ec2440c48e","ios":"levelo://app?vid=fc737241-98fa-43ab-8b83-53ec2440c48e"},"vehicle_type_id":"4","last_reported":1751559205,"current_range_meters":20800,"station_id":"ce4bhk92rcd13ifvqgb0","pricing_plan_id":"cebpf4jnsgd1na2vs0mg"},{"bike_id":"b026cb5d-429a-48e4-a0f1-08f953aafc46","system_id":"levelo_inurba_marseille","lat":43.23157,"lon":5.43711,"is_reserved":false,"is_disabled":false,"rental_uris":{"android":"levelo://app?vid=b026cb5d-429a-48e4-a0f1-08f953aafc46","ios":"levelo://app?vid=b026cb5d-429a-48e4-a0f1-08f953aafc46"},"vehicle_type_id":"4","last_reported":1751559205,"current_range_meters":20800,"station_id":"ce4bhmp2rcd13ifvqgog","pricing_plan_id":"cebpf4jnsgd1na2vs0mg"},{"bike_id":"acaea3d4-89fe-49f6-a119-3f6302ae77b1","system_id":"levelo_inurba_marseille","lat":43.295571,"lon":5.422917,"is_reserved":false,"is_disabled":false,"rental_uris":{"android":"levelo://app?vid=acaea3d4-89fe-49f6-a119-3f6302ae77b1","ios":"levelo://app?vid=acaea3d4-89fe-49f6-a119-3f6302ae77b1"},"vehicle_type_id":"4","last_reported":1751559205,"current_range_meters":20800,"station_id":"ce4bhph2rcd13ifvqhdg","pricing_plan_id":"cebpf4jnsgd1na2vs0mg"},{"bike_id":"8734bc42-361e-4c72-9212-27e99f10c61f","system_id":"levelo_inurba_marseille","lat":43.27404,"lon":5.4273,"is_reserved":false,"is_disabled":false,"rental_uris":{"android":"levelo://app?vid=8734bc42-361e-4c72-9212-27e99f10c61f","ios":"levelo://app?vid=8734bc42-361e-4c72-9212-27e99f10c61f"},"vehicle_type_id":"4","last_reported":1751559205,"current_range_meters":21600,"station_id":"","pricing_plan_id":"cebpf4jnsgd1na2vs0mg"},