{"last_updated":1702573601,"ttl":30,"version":"2.2","data":{"bikes":[{"bike_id":"d8b088ce-ef60-4e65-a7c5-e19ef13da7af","system_id":"levelo_inurba_marseille","lat":43.312239,"lon":5.368562,"is_reserved":false,"is_disabled":false,"rental_uris":{"android":"levelo://app?vid=d8b088ce-ef60-4e65-a7c5-e19ef13da7af","ios":"levelo://app?vid=d8b088ce-ef60-4e65-a7c5-e19ef13da7af"},"vehicle_type_id":"4","last_reported":1702573601,"current_range_meters":13600,"station_id":"ce4bgl92rcd13ifvqbq0","pricing_plan_id":"free"},{"bike_id":"53d8c61f-4215-4d90-90ec-7e3068075b0f","system_id":"levelo_inurba_marseille","lat":43.309039,"lon":5.371797,"is_reserved":false,"is_disabled":false,"rental_uris":{"android":"levelo://app?vid=53d8c61f-4215-4d90-90ec-7e3068075b0f","ios":"levelo://app?vid=53d8c61f-4215-4d90-90ec-7e3068075b0f"},"vehicle_type_id":"4","last_reported":1702573601,"current_range_meters":28400,"station_id":"ce4bguh2rcd13ifvqckg","pricing_plan_id":"free"},{"bike_id":"6598fe0a-0e14-432a-8111-f8b14e8fe7d0","system_id":"levelo_inurba_marseille","lat":43.3155,"lon":5.37324,"is_reserved":false,"is_disabled":false,"rental_uris":{"android":"levelo://app?vid=6598fe0a-0e14-432a-8111-f8b14e8fe7d0","ios":"levelo://app?vid=6598fe0a-0e14-432a-8111-f8b14e8fe7d0"},"vehicle_type_id":"4","last_reported":1702573601,"current_range_meters":24000,"station_id":"","pricing_plan_id":"free"},{"bike_id":"3f8b821f-e430-4a35-bf14-f8b6e777ea11","system_id":"levelo_inurba_marseille","lat":43.313939,"lon":5.375306,"is_reserved":false,"is_disabled":false,"rental_uris":{"android":"levelo://app?vid=3f8b821f-e430-4a35-bf14-f8b6e777ea11","ios":"levelo://app?vid=3f8b821f-e430-4a35-bf14-f8b6e777ea11"},"vehicle_type_id":"4","last_reported":1702573601,"current_range_meters":3200,"station_id":"","pricing_plan_id":"free"},{"bike_id":"c30e9319-44d0-438b-b466-6a557d44488a","system_id":"levelo_inurba_marseille","lat":43.305712,"lon":5.365641,"is_reserved":false,"is_disabled":false,"rental_uris":{"android":"levelo://app?vid=c30e9319-44d0-438b-b466-6a557d44488a","ios":"levelo://app?vid=c30e9319-44d0-438b-b466-6a557d44488a"},"vehicle_type_id":"4","last_reported":1702573601,"current_range_meters":19200,"station_id":"ce4bgs12rcd13ifvqcag","pricing_plan_id":"free"},{"bike_id":"599b55ee-2952-4290-8366-702186e45e38","system_id":"levelo_inurba_marseille","lat":43.305421,"lon":5.367286,"is_reserved":false,"is_disabled":false,"rental_uris":{"android":"levelo://app?vid=599b55ee-2952-4290-8366-702186e45e38","ios":"levelo://app?vid=599b55ee-2952-4290-8366-702186e45e38"},"vehicle_type_id":"4","last_reported":1702573601,"current_range_meters":18800,"station_id":"","pricing_plan_id":"free"},{"bike_id":"77c6a744-7ad8-449b-a14d-6d6ec6253426","system_id":"levelo_inurba_marseille","lat":43.30537,"lon":5.367345,"is_reserved":false,"is_disabled":false,"rental_uris":{"android":"levelo://app?vid=77c6a744-7ad8-449b-a14d-6d6ec6253426","ios":"levelo://app?vid=77c6a744-7ad8-449b-a14d-6d6ec6253426"},"vehicle_type_id":"4","last_reported":1702573601,"current_range_meters":6400,"station_id":"ce4bgrp2rcd13ifvqc9g","pricing_plan_id":"free"},{"bike_id":"6a8a5102-cce5-4a6a-b78a-a0678a507200","system_id":"levelo_inurba_marseille","lat":43.305311,"lon":5.36704,"is_reserved":false,"is_disabled":false,"rental_uris":{"android":"levelo://app?vid=6a8a5102-cce5-4a6a-b78a-a0678a507200","ios":"levelo://app?vid=6a8a5102-cce5-4a6a-b78a-a0678a507200"},"vehicle_type_id":"4","last_reported":1702573601,"current_range_meters":26000,"station_id":"ce4bgrp2rcd13ifvqc9g","pricing_plan_id":"free"},{"bike_id":"5462f972-a677-442d-bc07-b3ab3d58eb11","system_id":"levelo_inurba_marseille","lat":43.305368,"lon":5.367343,"is_reserved":false,"is_disabled":false,"rental_uris":{"android":"levelo://app?vid=5462f972-a677-442d-bc07-b3ab3d58eb11","ios":"levelo://app?vid=5462f972-a677-442d-bc07-b3ab3d58eb11"},"vehicle_type_id":"4","last_reported":1702573601,"current_range_meters":7600,"station_id":"ce4bgrp2rcd13ifvqc9g","pricing_plan_id":"free"},{"bike_id":"7e746265-8646-4fe7-b578-d256b61bda32","system_id":"levelo_inurba_marseille","lat":43.305368,"lon":5.367343,"is_reserved":false,"is_disabled":false,"rental_uris":{"android":"levelo://app?vid=7e746265-8646-4fe7-b578-d256b61bda32","ios":"levelo://app?vid=7e746265-8646-4fe7-b578-d256b61bda32"},"vehicle_type_id":"4","last_reported":1702573601,"current_range_meters":25200,"station_id":"ce4bgrp2rcd13ifvqc9g","pricing_plan_id":"free"},{"bike_id":"955e4ab2-16e5-44e8-a986-a2f50ff96c06","system_id":"levelo_inurba_marseille","lat":43.305382,"lon":5.365389,"is_reserved":false,"is_disabled":false,"rental_uris":{"android":"levelo://app?vid=955e4ab2-16e5-44e8-a986-a2f50ff96c06","ios":"levelo://app?vid=955e4ab2-16e5-44e8-a986-a2f50ff96c06"},"vehicle_type_id":"4","last_reported":1702573601,"current_range_meters":22400,"station_id":"","pricing_plan_id":"free"},{"bike_id":"0a325745-0ad9-4155-b063-b2c9cb1cfb16","system_id":"levelo_inurba_marseille","lat":43.305368,"lon":5.367343,"is_reserved":false,"is_disabled":false,"rental_uris":{"android":"levelo://app?vid=0a325745-0ad9-4155-b063-b2c9cb1cfb16","ios":"levelo://app?vid=0a325745-0ad9-4155-b063-b2c9cb1cfb16"},"vehicle_type_id":"4","last_reported":1702573601,"current_range_meters":26800,"station_id":"ce4bgrp2rcd13ifvqc9g","pricing_plan_id":"free"},{"bike_id":"e63fb3e0-df0c-485b-b756-2c74f3516713","system_id":"levelo_inurba_marseille","lat":43.305293,"lon":5.367029,"is_reserved":false,"is_disabled":false,"rental_uris":{"android":"levelo://app?vid=e63fb3e0-df0c-485b-b756-2c74f3516713","ios":"levelo://app?vid=e63fb3e0-df0c-485b-b756-2c74f3516713"},"vehicle_type_id":"4","last_reported":1702573601,"current_range_meters":26000,"station_id":"ce4bgrp2rcd13ifvqc9g","pricing_plan_id":"free"},{"bike_id":"ac80316f-23b4-4803-a1cb-d1df101adacd","system_id":"levelo_inurba_marseille","lat":43.305368,"lon":5.367343,"is_reserved":false,"is_disabled":false,"rental_uris":{"android":"levelo://app?vid=ac80316f-23b4-4803-a1cb-d1df101adacd","ios":"levelo://app?vid=ac80316f-23b4-4803-a1cb-d1df101adacd"},"vehicle_type_id":"4","last_reported":1702573601,"current_range_meters":27600,"station_id":"ce4bgrp2rcd13ifvqc9g","pricing_plan_id":"free"},{"bike_id":"0f522df8-547a-4089-a2c1-84fe6feb7074","system_id":"levelo_inurba_marseille","lat":43.305282,"lon":5.367037,"is_reserved":false,"is_disabled":false,"rental_uris":{"android":"levelo://app?vid=0f522df8-547a-4089-a2c1-84fe6feb7074","ios":"levelo://app?vid=0f522df8-547a-4089-a2c1-84fe6feb7074"},"vehicle_type_id":"4","last_reported":1702573601,"current_range_meters":21200,"station_id":"","pricing_plan_id":"free"},{"bike_id":"8c29db9e-7bf3-4890-923b-9348a9e6a0f4","system_id":"levelo_inurba_marseille","lat":43.305368,"lon":5.367343,"is_reserved":false,"is_disabled":false,"rental_uris":{"android":"levelo://app?vid=8c29db9e-7bf3-4890-923b-9348a9e6a0f4","ios":"levelo://app?vid=8c29db9e-7bf3-4890-923b-9348a9e6a0f4"},"vehicle_type_id":"4","last_reported":1702573601,"current_range_meters":26000,"station_id":"ce4bgrp2rcd13ifvqc9g","pricing_plan_id":"free"},{"bike_id":"6241a442-5a88-4ba2-95f3-70f032009931","system_id":"levelo_inurba_marseille","lat":43.305333,"lon":5.365337,"is_reserved":false,"is_disabled":false,"rental_uris":{"android":"levelo://app?vid=6241a442-5a88-4ba2-95f3-70f032009931","ios":"levelo://app?vid=6241a442-5a88-4ba2-95f3-70f032009931"},"vehicle_type_id":"4","last_reported":1702573601,"current_range_meters":25200,"station_id":"","pricing_plan_id":"free"},{"bike_id":"89cf0a48-0476-4388-a01a-22b1f09c1b79","system_id":"levelo_inurba_marseille","lat":43.305322,"lon":5.365337,"is_reserved":false,"is_disabled":false,"rental_uris":{"android":"levelo://app?vid=89cf0a48-0476-4388-a01a-22b1f09c1b79","ios":"levelo://app?vid=89cf0a48-0476-4388-a01a-22b1f09c1b79"},"vehicle_type_id":"4","last_reported":1702573601,"current_range_meters":29600,"station_id":"ce4bgs12rcd13ifvqcag","pricing_plan_id":"free"},{"bike_id":"1a0bdc41-dc64-42b6-9900-7e698642f621","system_id":"levelo_inurba_marseille","lat":43.305706,"lon":5.365654,"is_reserved":false,"is_disabled":false,"rental_uris":{"android":"levelo://app?vid=1a0bdc41-dc64-42b6-9900-7e698642f621","ios":"levelo://app?vid=1a0bdc41-dc64-42b6-9900-7e698642f621"},"vehicle_type_id":"4","last_reported":1702573601,"current_range_meters":28800,"station_id":"ce4bgs12rcd13ifvqcag","pricing_plan_id":"free"},{"bike_id":"2d176148-303b-48f0-b6fe-dc8a6e7f8a12","system_id":"levelo_inurba_marseille","lat":43.305706,"lon":5.365654,"is_reserved":false,"is_disabled":false,"rental_uris":{"android":"levelo://app?vid=2d176148-303b-48f0-b6fe-dc8a6e7f8a12","ios":"levelo://app?vid=2d176148-303b-48f0-b6fe-dc8a6e7f8a12"},"vehicle_type_id":"4","last_reported":1702573601,"current_range_meters":30400,"station_id":"ce4bgs12rcd13ifvqcag","pricing_plan_id":"free"},{"bike_id":"04520d89-8b4d-4a16-9c16-9f1264cefdba","system_id":"levelo_inurba_marseille","lat":43.305706,"lon":5.365654,"is_reserved":false,"is_disabled":false,"rental_uris":{"android":"levelo://app?vid=04520d89-8b4d-4a16-9c16-9f1264cefdba","ios":"levelo://app?vid=04520d89-8b4d-4a16-9c16-9f1264cefdba"},"vehicle_type_id":"4","last_reported":1702573601,"current_range_meters":19200,"station_id":"ce4bgs12rcd13ifvqcag","pricing_plan_id":"free"},{"bike_id":"402655e4-ab39-4abe-8ffb-b30d38f08e55","system_id":"levelo_inurba_marseille","lat":43.305706,"lon":5.365654,"is_reserved":false,"is_disabled":false,"rental_uris":{"android":"levelo://app?vid=402655e4-ab39-4abe-8ffb-b30d38f08e55","ios":"levelo://app?vid=402655e4-ab39-4abe-8ffb-b30d38f08e55"},"vehicle_type_id":"4","last_reported":1702573601,"current_range_meters":26000,"station_id":"ce4bgs12rcd13ifvqcag","pricing_plan_id":"free"},{"bike_id":"fd5c7167-e3ec-489a-b2b6-d2ad72df41db","system_id":"levelo_inurba_marseille","lat":43.305706,"lon":5.365654,"is_reserved":false,"is_disabled":false,"rental_uris":{"android":"levelo://app?vid=fd5c7167-e3ec-489a-b2b6-d2ad72df41db","ios":"levelo://app?vid=fd5c7167-e3ec-489a-b2b6-d2ad72df41db"},"vehicle_type_id":"4","last_reported":1702573601,"current_range_meters":29600,"station_id":"ce4bgs12rcd13ifvqcag","pricing_plan_id":"free"},{"bike_id":"a8397355-5064-42cb-9a05-cdb8cb4d5c7c","system_id":"levelo_inurba_marseille","lat":43.305989,"lon":5.37225,"is_reserved":false,"is_disabled":false,"rental_uris":{"android":"levelo://app?vid=a8397355-5064-42cb-9a05-cdb8cb4d5c7c","ios":"levelo://app?vid=a8397355-5064-42cb-9a05-cdb8cb4d5c7c"},"vehicle_type_id":"4","last_reported":1702573601,"current_range_meters":0,"station_id":"ce4bgqh2rcd13ifvqc4g","pricing_plan_id":"free"},{"bike_id":"79f9f84e-a6c8-4695-bd25-df16ec670902","system_id":"levelo_inurba_marseille","lat":43.311131,"lon":5.377651,"is_reserved":false,"is_disabled":false,"rental_uris":{"android":"levelo://app?vid=79f9f84e-a6c8-4695-bd25-df16ec670902","ios":"levelo://app?vid=79f9f84e-a6c8-4695-bd25-df16ec670902"},"vehicle_type_id":"4","last_reported":1702573601,"current_range_meters":400,"station_id":"ce4bgt92rcd13ifvqcg0","pricing_plan_id":"free"},{"bike_id":"62dc6f05-be73-45a1-a0b9-ee4c4ffcdf87","system_id":"levelo_inurba_marseille","lat":43.31109,"lon":5.37773,"is_reserved":false,"is_disabled":false,"rental_uris":{"android":"levelo://app?vid=62dc6f05-be73-45a1-a0b9-ee4c4ffcdf87","ios":"levelo://app?vid=62dc6f05-be73-45a1-a0b9-ee4c4ffcdf87"},"vehicle_type_id":"4","last_reported":1702573601,"current_range_meters":4800,"station_id":"ce4bgt92rcd13ifvqcg0","pricing_plan_id":"free"},{"bike_id":"5bbaa39f-00c9-482b-9085-410759dff561","system_id":"levelo_inurba_marseille","lat":43.311131,"lon":5.377651,"is_reserved":false,"is_disabled":false,"rental_uris":{"android":"levelo://app?vid=5bbaa39f-00c9-482b-9085-410759dff561","ios":"levelo://app?vid=5bbaa39f-00c9-482b-9085-410759dff561"},"vehicle_type_id":"4","last_reported":1702573601,"current_range_meters":21600,"station_id":"ce4bgt92rcd13ifvqcg0","pricing_plan_id":"free"},{"bike_id":"88a7723b-e260-46a5-a4a9-94a23a540fa1","system_id":"levelo_inurba_marseille","lat":43.307945,"lon":5.376487,"is_reserved":false,"is_disabled":false,"rental_uris":{"android":"levelo://app?vid=88a7723b-e260-46a5-a4a9-94a23a540fa1","ios":"levelo://app?vid=88a7723b-e260-46a5-a4a9-94a23a540fa1"},"vehicle_type_id":"4","last_reported":1702573601,"current_range_meters":12800,"station_id":"ce4bgv92rcd13ifvqcq0","pricing_plan_id":"free"},{"bike_id":"7db546d3-feba-4da6-847d-106c2bd301b9","system_id":"levelo_inurba_marseille","lat":43.307945,"lon":5.376487,"is_reserved":false,"is_disabled":false,"rental_uris":{"android":"levelo://app?vid=7db546d3-feba-4da6-847d-106c2bd301b9","ios":"levelo://app?vid=7db546d3-feba-4da6-847d-106c2bd301b9"},"vehicle_type_id":"4","last_reported":1702573601,"current_range_meters":13200,"station_id":"ce4bgv92rcd13ifvqcq0","pricing_plan_id":"free"},{"bike_id":"27518e65-ccbd-4b8e-a8b7-d148ae19fa4e","system_id":"levelo_inurba_marseille","lat":43.317075,"lon":5.377367,"is_reserved":false,"is_disabled":false,"rental_uris":{"android":"levelo://app?vid=27518e65-ccbd-4b8e-a8b7-d148ae19fa4e","ios":"levelo://app?vid=27518e65-ccbd-4b8e-a8b7-d148ae19fa4e"},"vehicle_type_id":"4","last_reported":1702573601,"current_range_meters":28400,"station_id":"ce4bgth2rcd13ifvqch0","pricing_plan_id":"free"},{"bike_id":"e5085a46-d85f-4110-ac6d-03d00a76c07c","system_id":"levelo_inurba_marseille","lat":43.30313,"lon":5.368933,"is_reserved":false,"is_disabled":false,"rental_uris":{"android":"levelo://app?vid=e5085a46-d85f-4110-ac6d-03d00a76c07c","ios":"levelo://app?vid=e5085a46-d85f-4110-ac6d-03d00a76c07c"},"vehicle_type_id":"4","last_reported":1702573601,"current_range_meters":4800,"station_id":"","pricing_plan_id":"free"},{"bike_id":"b2db75f9-9391-4e0a-a199-3ab2781631a7","system_id":"levelo_inurba_marseille","lat":43.303046,"lon":5.368981,"is_reserved":false,"is_disabled":false,"rental_uris":{"android":"levelo://app?vid=b2db75f9-9391-4e0a-a199-3ab2781631a7","ios":"levelo://app?vid=b2db75f9-9391-4e0a-a199-3ab2781631a7"},"vehicle_type_id":"4","last_reported":1702573601,"current_range_meters":24000,"station_id":"ce4bgqh2rcd13ifvqc5g","pricing_plan_id":"free"},{"bike_id":"dfb8b2c4-afb3-44e0-bb8f-5e69b88821cf","system_id":"levelo_inurba_marseille","lat":43.319935,"lon":5.381699,"is_reserved":false,"is_disabled":false,"rental_uris":{"android":"levelo://app?vid=dfb8b2c4-afb3-44e0-bb8f-5e69b88821cf","ios":"levelo://app?vid=dfb8b2c4-afb3-44e0-bb8f-5e69b88821cf"},"vehicle_type_id":"4","last_reported":1702573601,"current_range_meters":16400,"station_id":"ce4bhr12rcd13ifvqhpg","pricing_plan_id":"free"},{"bike_id":"561aea32-ae98-4416-b56f-e013c09bbc95","system_id":"levelo_inurba_marseille","lat":43.313571,"lon":5.384829,"is_reserved":false,"is_disabled":false,"rental_uris":{"android":"levelo://app?vid=561aea32-ae98-4416-b56f-e013c09bbc95","ios":"levelo://app?vid=561aea32-ae98-4416-b56f-e013c09bbc95"},"vehicle_type_id":"4","last_reported":1702573601,"current_range_meters":10400,"station_id":"ce4bgt92rcd13ifvqcf0","pricing_plan_id":"free"},{"bike_id":"575555c7-c7a8-4500-b8f3-c1462e73d15b","system_id":"levelo_inurba_marseille","lat":43.299724,"lon":5.371829,"is_reserved":false,"is_disabled":false,"rental_uris":{"android":"levelo://app?vid=575555c7-c7a8-4500-b8f3-c1462e73d15b","ios":"levelo://app?vid=575555c7-c7a8-4500-b8f3-c1462e73d15b"},"vehicle_type_id":"4","last_reported":1702573601,"current_range_meters":24000,"station_id":"ce4bgr92rcd13ifvqc7g","pricing_plan_id":"free"},{"bike_id":"a8413290-58c1-47bb-8a58-6b42613bafa5","system_id":"levelo_inurba_marseille","lat":43.298433,"lon":5.362774,"is_reserved":false,"is_disabled":false,"rental_uris":{"android":"levelo://app?vid=a8413290-58c1-47bb-8a58-6b42613bafa5","ios":"levelo://app?vid=a8413290-58c1-47bb-8a58-6b42613bafa5"},"vehicle_type_id":"4","last_reported":1702573601,"current_range_meters":27600,"station_id":"ce4bgpp2rcd13ifvqc3g","pricing_plan_id":"free"},{"bike_id":"3853a075-e552-437a-9f80-8d4466a91a3d","system_id":"levelo_inurba_marseille","lat":43.29779,"lon":5.37105,"is_reserved":false,"is_disabled":false,"rental_uris":{"android":"levelo://app?vid=3853a075-e552-437a-9f80-8d4466a91a3d","ios":"levelo://app?vid=3853a075-e552-437a-9f80-8d4466a91a3d"},"vehicle_type_id":"4","last_reported":1702573601,"current_range_meters":1600,"station_id":"ce4bgop2rcd13ifvqc1g","pricing_plan_id":"free"},{"bike_id":"975b6a93-9a93-4fbc-8190-13b430d64414","system_id":"levelo_inurba_marseille","lat":43.322872,"lon":5.382756,"is_reserved":false,"is_disabled":false,"rental_uris":{"android":"levelo://app?vid=975b6a93-9a93-4fbc-8190-13b430d64414","ios":"levelo://app?vid=975b6a93-9a93-4fbc-8190-13b430d64414"},"vehicle_type_id":"4","last_reported":1702573601,"current_range_meters":19600,"station_id":"ce4bhr12rcd13ifvqhqg","pricing_plan_id":"free"},{"bike_id":"98b5fa64-e3ed-4ec7-af7c-c042242233af","system_id":"levelo_inurba_marseille","lat":43.29587,"lon":5.36766,"is_reserved":false,"is_disabled":false,"rental_uris":{"android":"levelo://app?vid=98b5fa64-e3ed-4ec7-af7c-c042242233af","ios":"levelo://app?vid=98b5fa64-e3ed-4ec7-af7c-c042242233af"},"vehicle_type_id":"4","last_reported":1702573601,"current_range_meters":14000,"station_id":"ce4bgph2rcd13ifvqc2g","pricing_plan_id":"free"},{"bike_id":"bfdc1e29-a210-4543-bb87-fa502abd9043","system_id":"levelo_inurba_marseille","lat":43.299028,"lon":5.381509,"is_reserved":false,"is_disabled":false,"rental_uris":{"android":"levelo://app?vid=bfdc1e29-a210-4543-bb87-fa502abd9043","ios":"levelo://app?vid=bfdc1e29-a210-4543-bb87-fa502abd9043"},"vehicle_type_id":"4","last_reported":1702573601,"current_range_meters":26400,"station_id":"ce4bgj12rcd13ifvqbc0","pricing_plan_id":"free"},{"bike_id":"99bcb68d-9573-4c84-89c1-480668e37fc0","system_id":"levelo_inurba_marseille","lat":43.296935,"lon":5.376544,"is_reserved":false,"is_disabled":false,"rental_uris":{"android":"levelo://app?vid=99bcb68d-9573-4c84-89c1-480668e37fc0","ios":"levelo://app?vid=99bcb68d-9573-4c84-89c1-480668e37fc0"},"vehicle_type_id":"4","last_reported":1702573601,"current_range_meters":2400,"station_id":"ce4bgkh2rcd13ifvqbl0","pricing_plan_id":"free"},{"bike_id":"952322fe-bbb5-4901-b66f-7dcb4ecb276e","system_id":"levelo_inurba_marseille","lat":43.317542,"lon":5.390092,"is_reserved":false,"is_disabled":false,"rental_uris":{"android":"levelo://app?vid=952322fe-bbb5-4901-b66f-7dcb4ecb276e","ios":"levelo://app?vid=952322fe-bbb5-4901-b66f-7dcb4ecb276e"},"vehicle_type_id":"4","last_reported":1702573601,"current_range_meters":24800,"station_id":"ce4bhqp2rcd13ifvqhng","pricing_plan_id":"free"},{"bike_id":"4107d609-9416-453a-9725-5bd16c75a974","system_id":"levelo_inurba_marseille","lat":43.317557,"lon":5.390173,"is_reserved":false,"is_disabled":false,"rental_uris":{"android":"levelo://app?vid=4107d609-9416-453a-9725-5bd16c75a974","ios":"levelo://app?vid=4107d609-9416-453a-9725-5bd16c75a974"},"vehicle_type_id":"4","last_reported":1702573601,"current_range_meters":22400,"station_id":"ce4bhqp2rcd13ifvqhng","pricing_plan_id":"free"},{"bike_id":"fbe056af-6ec6-45ad-bb90-d02e6a1f5a4b","system_id":"levelo_inurba_marseille","lat":43.295748,"lon":5.37522,"is_reserved":false,"is_disabled":false,"rental_uris":{"android":"levelo://app?vid=fbe056af-6ec6-45ad-bb90-d02e6a1f5a4b","ios":"levelo://app?vid=fbe056af-6ec6-45ad-bb90-d02e6a1f5a4b"},"vehicle_type_id":"4","last_reported":1702573601,"current_range_meters":0,"station_id":"ce4bgh92rcd13ifvqb50","pricing_plan_id":"free"},{"bike_id":"cf5987ff-362a-40d9-b206-48d54e5e07e8","system_id":"levelo_inurba_marseille","lat":43.304278,"lon":5.388868,"is_reserved":false,"is_disabled":false,"rental_uris":{"android":"levelo://app?vid=cf5987ff-362a-40d9-b206-48d54e5e07e8","ios":"levelo://app?vid=cf5987ff-362a-40d9-b206-48d54e5e07e8"},"vehicle_type_id":"4","last_reported":1702573601,"current_range_meters":16000,"station_id":"ce4bgk12rcd13ifvqbi0","pricing_plan_id":"free"},{"bike_id":"859b3faf-ed5d-4579-8a04-955279cd0722","system_id":"levelo_inurba_marseille","lat":43.294162,"lon":5.386292,"is_reserved":false,"is_disabled":false,"rental_uris":{"android":"levelo://app?vid=859b3faf-ed5d-4579-8a04-955279cd0722","ios":"levelo://app?vid=859b3faf-ed5d-4579-8a04-955279cd0722"},"vehicle_type_id":"4","last_reported":1702573601,"current_range_meters":24400,"station_id":"ce4bh2h2rcd13ifvqdh0","pricing_plan_id":"free"},{"bike_id":"2db874cf-fb38-4190-9817-4f597bb5d48d","system_id":"levelo_inurba_marseille","lat":43.29601,"lon":5.381084,"is_reserved":false,"is_disabled":false,"rental_uris":{"android":"levelo://app?vid=2db874cf-fb38-4190-9817-4f597bb5d48d","ios":"levelo://app?vid=2db874cf-fb38-4190-9817-4f597bb5d48d"},"vehicle_type_id":"4","last_reported":1702573601,"current_range_meters":4800,"station_id":"ce4bgl12rcd13ifvqbo0","pricing_plan_id":"free"},{"bike_id":"d9f7fcfa-ed7b-4abc-8d7a-1853a6aee9d0","system_id":"levelo_inurba_marseille","lat":43.29602,"lon":5.381084,"is_reserved":false,"is_disabled":false,"rental_uris":{"android":"levelo://app?vid=d9f7fcfa-ed7b-4abc-8d7a-1853a6aee9d0","ios":"levelo://app?vid=d9f7fcfa-ed7b-4abc-8d7a-1853a6aee9d0"},"vehicle_type_id":"4","last_reported":1702573601,"current_range_meters":30000,"station_id":"ce4bgl12rcd13ifvqbo0","pricing_plan_id":"free"},{"bike_id":"31409189-f044-4b16-bb0b-2f24d27aa47b","system_id":"levelo_inurba_marseille","lat":43.293009,"lon":5.374584,"is_reserved":false,"is_disabled":false,"rental_uris":{"android":"levelo://app?vid=31409189-f044-4b16-bb0b-2f24d27aa47b","ios":"levelo://app?vid=31409189-f044-4b16-bb0b-2f24d27aa47b"},"vehicle_type_id":"4","last_reported":1702573601,"current_range_meters":12800,"station_id":"ce4bgi12rcd13ifvqb70","pricing_plan_id":"free"},{"bike_id":"01bf88b4-e93c-4894-8616-5be408012778","system_id":"levelo_inurba_marseille","lat":43.292311,"lon":5.360731,"is_reserved":false,"is_disabled":false,"rental_uris":{"android":"levelo://app?vid=01bf88b4-e93c-4894-8616-5be408012778","ios":"levelo://app?vid=01bf88b4-e93c-4894-8616-5be408012778"},"vehicle_type_id":"4","last_reported":1702573601,"current_range_meters":18000,"station_id":"ce4bhbh2rcd13ifvqeqg","pricing_plan_id":"free"},{"bike_id":"01cbf16e-ebdf-4621-8a12-efc0d46e968e","system_id":"levelo_inurba_marseille","lat":43.292311,"lon":5.360731,"is_reserved":false,"is_disabled":false,"rental_uris":{"android":"levelo://app?vid=01cbf16e-ebdf-4621-8a12-efc0d46e968e","ios":"levelo://app?vid=01cbf16e-ebdf-4621-8a12-efc0d46e968e"},"vehicle_type_id":"4","last_reported":1702573601,"current_range_meters":10800,"station_id":"ce4bhbh2rcd13ifvqeqg","pricing_plan_id":"free"},{"bike_id":"046ca8e8-3c2d-454d-8f12-f386c8301ae0","system_id":"levelo_inurba_marseille","lat":43.292311,"lon":5.360731,"is_reserved":false,"is_disabled":false,"rental_uris":{"android":"levelo://app?vid=046ca8e8-3c2d-454d-8f12-f386c8301ae0","ios":"levelo://app?vid=046ca8e8-3c2d-454d-8f12-f386c8301ae0"},"vehicle_type_id":"4","last_reported":1702573601,"current_range_meters":16800,"station_id":"ce4bhbh2rcd13ifvqeqg","pricing_plan_id":"free"},{"bike_id":"eb6dbc69-7e57-4d3b-b0f1-8ce3e3e0ba66","system_id":"levelo_inurba_marseille","lat":43.300852,"lon":5.390859,"is_reserved":false,"is_disabled":false,"rental_uris":{"android":"levelo://app?vid=eb6dbc69-7e57-4d3b-b0f1-8ce3e3e0ba66","ios":"levelo://app?vid=eb6dbc69-7e57-4d3b-b0f1-8ce3e3e0ba66"},"vehicle_type_id":"4","last_reported":1702573601,"current_range_meters":1600,"station_id":"ce4bh192rcd13ifvqdb0","pricing_plan_id":"free"},{"bike_id":"c4abe20a-5319-4a70-926b-862f58e04a27","system_id":"levelo_inurba_marseille","lat":43.3009,"lon":5.39078,"is_reserved":false,"is_disabled":false,"rental_uris":{"android":"levelo://app?vid=c4abe20a-5319-4a70-926b-862f58e04a27","ios":"levelo://app?vid=c4abe20a-5319-4a70-926b-862f58e04a27"},"vehicle_type_id":"4","last_reported":1702573601,"current_range_meters":0,"station_id":"ce4bh192rcd13ifvqdb0","pricing_plan_id":"free"},{"bike_id":"5f590107-df5f-442e-aae4-6a6eeff972ad","system_id":"levelo_inurba_marseille","lat":43.300852,"lon":5.390859,"is_reserved":false,"is_disabled":false,"rental_uris":{"android":"levelo://app?vid=5f590107-df5f-442e-aae4-6a6eeff972ad","ios":"levelo://app?vid=5f590107-df5f-442e-aae4-6a6eeff972ad"},"vehicle_type_id":"4","last_reported":1702573601,"current_range_meters":11600,"station_id":"ce4bh192rcd13ifvqdb0","pricing_plan_id":"free"},{"bike_id":"f49022ab-d6f4-4465-bbac-1057addbfb7c","system_id":"levelo_inurba_marseille","lat":43.29872,"lon":5.38911,"is_reserved":false,"is_disabled":false,"rental_uris":{"android":"levelo://app?vid=f49022ab-d6f4-4465-bbac-1057addbfb7c","ios":"levelo://app?vid=f49022ab-d6f4-4465-bbac-1057addbfb7c"},"vehicle_type_id":"4","last_reported":1702573601,"current_range_meters":0,"station_id":"","pricing_plan_id":"free"},{"bike_id":"42b4a5f3-ca29-42b6-8d41-38f6ea27b77d","system_id":"levelo_inurba_marseille","lat":43.309038,"lon":5.396546,"is_reserved":false,"is_disabled":false,"rental_uris":{"android":"levelo://app?vid=42b4a5f3-ca29-42b6-8d41-38f6ea27b77d","ios":"levelo://app?vid=42b4a5f3-ca29-42b6-8d41-38f6ea27b77d"},"vehicle_type_id":"4","last_reported":1702573601,"current_range_meters":5600,"station_id":"ce4bh012rcd13ifvqcv0","pricing_plan_id":"free"},{"bike_id":"82dfcffa-7138-425d-980e-b9eac7a03452","system_id":"levelo_inurba_marseille","lat":43.313291,"lon":5.396838,"is_reserved":false,"is_disabled":false,"rental_uris":{"android":"levelo://app?vid=82dfcffa-7138-425d-980e-b9eac7a03452","ios":"levelo://app?vid=82dfcffa-7138-425d-980e-b9eac7a03452"},"vehicle_type_id":"4","last_reported":1702573601,"current_range_meters":17200,"station_id":"ce4bgvp2rcd13ifvqcu0","pricing_plan_id":"free"},{"bike_id":"2340f691-2b3e-42e2-9465-40ac91b558d8","system_id":"levelo_inurba_marseille","lat":43.31329,"lon":5.39698,"is_reserved":false,"is_disabled":false,"rental_uris":{"android":"levelo://app?vid=2340f691-2b3e-42e2-9465-40ac91b558d8","ios":"levelo://app?vid=2340f691-2b3e-42e2-9465-40ac91b558d8"},"vehicle_type_id":"4","last_reported":1702573601,"current_range_meters":31200,"station_id":"ce4bgvp2rcd13ifvqcu0","pricing_plan_id":"free"},{"bike_id":"44cf8603-7855-4f28-8526-94d6d5ae2e70","system_id":"levelo_inurba_marseille","lat":43.313291,"lon":5.396838,"is_reserved":false,"is_disabled":false,"rental_uris":{"android":"levelo://app?vid=44cf8603-7855-4f28-8526-94d6d5ae2e70","ios":"levelo://app?vid=44cf8603-7855-4f28-8526-94d6d5ae2e70"},"vehicle_type_id":"4","last_reported":1702573601,"current_range_meters":6400,"station_id":"ce4bgvp2rcd13ifvqcu0","pricing_plan_id":"free"},{"bike_id":"ac8bf6e8-cbe9-4392-ae2f-5ff60a925278","system_id":"levelo_inurba_marseille","lat":43.29035,"lon":5.37568,"is_reserved":false,"is_disabled":false,"rental_uris":{"android":"levelo://app?vid=ac8bf6e8-cbe9-4392-ae2f-5ff60a925278","ios":"levelo://app?vid=ac8bf6e8-cbe9-4392-ae2f-5ff60a925278"},"vehicle_type_id":"4","last_reported":1702573601,"current_range_meters":0,"station_id":"ce4bh692rcd13ifvqe90","pricing_plan_id":"free"},{"bike_id":"099cbabb-5c98-4776-9084-a92de4d53597","system_id":"levelo_inurba_marseille","lat":43.289184,"lon":5.366408,"is_reserved":false,"is_disabled":false,"rental_uris":{"android":"levelo://app?vid=099cbabb-5c98-4776-9084-a92de4d53597","ios":"levelo://app?vid=099cbabb-5c98-4776-9084-a92de4d53597"},"vehicle_type_id":"4","last_reported":1702573601,"current_range_meters":13200,"station_id":"ce4bhap2rcd13ifvqek0","pricing_plan_id":"free"},{"bike_id":"3eda3ed8-950a-450a-be73-0af4ef7fd2e0","system_id":"levelo_inurba_marseille","lat":43.289184,"lon":5.366408,"is_reserved":false,"is_disabled":false,"rental_uris":{"android":"levelo://app?vid=3eda3ed8-950a-450a-be73-0af4ef7fd2e0","ios":"levelo://app?vid=3eda3ed8-950a-450a-be73-0af4ef7fd2e0"},"vehicle_type_id":"4","last_reported":1702573601,"current_range_meters":0,"station_id":"ce4bhap2rcd13ifvqek0","pricing_plan_id":"free"},{"bike_id":"ea70d032-a75a-4817-bf88-4058872b4d0a","system_id":"levelo_inurba_marseille","lat":43.292644,"lon":5.384257,"is_reserved":false,"is_disabled":false,"rental_uris":{"android":"levelo://app?vid=ea70d032-a75a-4817-bf88-4058872b4d0a","ios":"levelo://app?vid=ea70d032-a75a-4817-bf88-4058872b4d0a"},"vehicle_type_id":"4","last_reported":1702573601,"current_range_meters":10400,"station_id":"ce4bh692rcd13ifvqea0","pricing_plan_id":"free"},{"bike_id":"16ed694c-4e7e-4cee-a7f8-2f6fb59fc55e","system_id":"levelo_inurba_marseille","lat":43.292644,"lon":5.384257,"is_reserved":false,"is_disabled":false,"rental_uris":{"android":"levelo://app?vid=16ed694c-4e7e-4cee-a7f8-2f6fb59fc55e","ios":"levelo://app?vid=16ed694c-4e7e-4cee-a7f8-2f6fb59fc55e"},"vehicle_type_id":"4","last_reported":1702573601,"current_range_meters":18400,"station_id":"ce4bh692rcd13ifvqea0","pricing_plan_id":"free"},{"bike_id":"9430066a-b3f6-4803-82ef-db8ee806a880","system_id":"levelo_inurba_marseille","lat":43.330442,"lon":5.389148,"is_reserved":false,"is_disabled":false,"rental_uris":{"android":"levelo://app?vid=9430066a-b3f6-4803-82ef-db8ee806a880","ios":"levelo://app?vid=9430066a-b3f6-4803-82ef-db8ee806a880"},"vehicle_type_id":"4","last_reported":1702573601,"current_range_meters":5200,"station_id":"ce4bhr92rcd13ifvqhrg","pricing_plan_id":"free"},{"bike_id":"e36fc3c3-3f2f-4976-afc1-efdf79dee1e9","system_id":"levelo_inurba_marseille","lat":43.33042,"lon":5.38923,"is_reserved":false,"is_disabled":false,"rental_uris":{"android":"levelo://app?vid=e36fc3c3-3f2f-4976-afc1-efdf79dee1e9","ios":"levelo://app?vid=e36fc3c3-3f2f-4976-afc1-efdf79dee1e9"},"vehicle_type_id":"4","last_reported":1702573601,"current_range_meters":10000,"station_id":"ce4bhr92rcd13ifvqhrg","pricing_plan_id":"free"},{"bike_id":"6ff53075-2a77-4b25-b73f-f93a3c131458","system_id":"levelo_inurba_marseille","lat":43.290103,"lon":5.356114,"is_reserved":false,"is_disabled":false,"rental_uris":{"android":"levelo://app?vid=6ff53075-2a77-4b25-b73f-f93a3c131458","ios":"levelo://app?vid=6ff53075-2a77-4b25-b73f-f93a3c131458"},"vehicle_type_id":"4","last_reported":1702573601,"current_range_meters":13200,"station_id":"ce4bhb92rcd13ifvqen0","pricing_plan_id":"free"},{"bike_id":"87e2e07d-7fb3-49ab-8fe6-fb8c06fa836a","system_id":"levelo_inurba_marseille","lat":43.29774,"lon":5.39338,"is_reserved":false,"is_disabled":false,"rental_uris":{"android":"levelo://app?vid=87e2e07d-7fb3-49ab-8fe6-fb8c06fa836a","ios":"levelo://app?vid=87e2e07d-7fb3-49ab-8fe6-fb8c06fa836a"},"vehicle_type_id":"4","last_reported":1702573601,"current_range_meters":27200,"station_id":"chh1huq6cuj3fo74tm60","pricing_plan_id":"free"},{"bike_id":"66795f17-0534-447f-880b-a57702a494df","system_id":"levelo_inurba_marseille","lat":43.33753,"lon":5.374496,"is_reserved":false,"is_disabled":false,"rental_uris":{"android":"levelo://app?vid=66795f17-0534-447f-880b-a57702a494df","ios":"levelo://app?vid=66795f17-0534-447f-880b-a57702a494df"},"vehicle_type_id":"4","last_reported":1702573601,"current_range_meters":31600,"station_id":"","pricing_plan_id":"free"},{"bike_id":"a8380a10-7fd3-48e9-974d-e8687e1a130c","system_id":"levelo_inurba_marseille","lat":43.33772,"lon":5.37436,"is_reserved":false,"is_disabled":false,"rental_uris":{"android":"levelo://app?vid=a8380a10-7fd3-48e9-974d-e8687e1a130c","ios":"levelo://app?vid=a8380a10-7fd3-48e9-974d-e8687e1a130c"},"vehicle_type_id":"4","last_reported":1702573601,"current_range_meters":29600,"station_id":"","pricing_plan_id":"free"},{"bike_id":"7cb25d0a-302a-464d-9342-40f54d6bc997","system_id":"levelo_inurba_marseille","lat":43.298681,"lon":5.397225,"is_reserved":false,"is_disabled":false,"rental_uris":{"android":"levelo://app?vid=7cb25d0a-302a-464d-9342-40f54d6bc997","ios":"levelo://app?vid=7cb25d0a-302a-464d-9342-40f54d6bc997"},"vehicle_type_id":"4","last_reported":1702573601,"current_range_meters":0,"station_id":"ce4bh0h2rcd13ifvqd50","pricing_plan_id":"free"},{"bike_id":"d560e33b-32d0-4741-91ec-080b3482f59b","system_id":"levelo_inurba_marseille","lat":43.286039,"lon":5.370681,"is_reserved":false,"is_disabled":false,"rental_uris":{"android":"levelo://app?vid=d560e33b-32d0-4741-91ec-080b3482f59b","ios":"levelo://app?vid=d560e33b-32d0-4741-91ec-080b3482f59b"},"vehicle_type_id":"4","last_reported":1702573601,"current_range_meters":23200,"station_id":"ce4bht12rcd13ifvqi60","pricing_plan_id":"free"},{"bike_id":"f7eaf665-56d6-4fe5-985f-61da020dca3a","system_id":"levelo_inurba_marseille","lat":43.28991,"lon":5.386785,"is_reserved":false,"is_disabled":false,"rental_uris":{"android":"levelo://app?vid=f7eaf665-56d6-4fe5-985f-61da020dca3a","ios":"levelo://app?vid=f7eaf665-56d6-4fe5-985f-61da020dca3a"},"vehicle_type_id":"4","last_reported":1702573601,"current_range_meters":24400,"station_id":"ce4bh4p2rcd13ifvqe0g","pricing_plan_id":"free"},{"bike_id":"bbead17a-7aec-435d-b28e-b592d41ac1a4","system_id":"levelo_inurba_marseille","lat":43.28457,"lon":5.35893,"is_reserved":false,"is_disabled":false,"rental_uris":{"android":"levelo://app?vid=bbead17a-7aec-435d-b28e-b592d41ac1a4","ios":"levelo://app?vid=bbead17a-7aec-435d-b28e-b592d41ac1a4"},"vehicle_type_id":"4","last_reported":1702573601,"current_range_meters":0,"station_id":"ce4bhah2rcd13ifvqei0","pricing_plan_id":"free"},{"bike_id":"7d014438-3673-4659-9a8a-066cf413b75d","system_id":"levelo_inurba_marseille","lat":43.284538,"lon":5.358657,"is_reserved":false,"is_disabled":false,"rental_uris":{"android":"levelo://app?vid=7d014438-3673-4659-9a8a-066cf413b75d","ios":"levelo://app?vid=7d014438-3673-4659-9a8a-066cf413b75d"},"vehicle_type_id":"4","last_reported":1702573601,"current_range_meters":3200,"station_id":"ce4bhah2rcd13ifvqei0","pricing_plan_id":"free"},{"bike_id":"c48ba9ff-2e0f-4b85-a8a0-22b670d2f615","system_id":"levelo_inurba_marseille","lat":43.284538,"lon":5.358657,"is_reserved":false,"is_disabled":false,"rental_uris":{"android":"levelo://app?vid=c48ba9ff-2e0f-4b85-a8a0-22b670d2f615","ios":"levelo://app?vid=c48ba9ff-2e0f-4b85-a8a0-22b670d2f615"},"vehicle_type_id":"4","last_reported":1702573601,"current_range_meters":9600,"station_id":"ce4bhah2rcd13ifvqei0","pricing_plan_id":"free"},{"bike_id":"1d7f9c51-452e-4d79-aec2-c167fb5a1cdd","system_id":"levelo_inurba_marseille","lat":43.284534,"lon":5.358662,"is_reserved":false,"is_disabled":false,"rental_uris":{"android":"levelo://app?vid=1d7f9c51-452e-4d79-aec2-c167fb5a1cdd","ios":"levelo://app?vid=1d7f9c51-452e-4d79-aec2-c167fb5a1cdd"},"vehicle_type_id":"4","last_reported":1702573601,"current_range_meters":400,"station_id":"ce4bhah2rcd13ifvqei0","pricing_plan_id":"free"},{"bike_id":"c12c3030-d00f-4d02-bf2f-17b9379ad2b5","system_id":"levelo_inurba_marseille","lat":43.286595,"lon":5.386795,"is_reserved":false,"is_disabled":false,"rental_uris":{"android":"levelo://app?vid=c12c3030-d00f-4d02-bf2f-17b9379ad2b5","ios":"levelo://app?vid=c12c3030-d00f-4d02-bf2f-17b9379ad2b5"},"vehicle_type_id":"4","last_reported":1702573601,"current_range_meters":800,"station_id":"ce4bh492rcd13ifvqdug","pricing_plan_id":"free"},{"bike_id":"d134b4ba-2df8-478a-9975-5e37ce9eb6d7","system_id":"levelo_inurba_marseille","lat":43.286595,"lon":5.386795,"is_reserved":false,"is_disabled":false,"rental_uris":{"android":"levelo://app?vid=d134b4ba-2df8-478a-9975-5e37ce9eb6d7","ios":"levelo://app?vid=d134b4ba-2df8-478a-9975-5e37ce9eb6d7"},"vehicle_type_id":"4","last_reported":1702573601,"current_range_meters":20000,"station_id":"ce4bh492rcd13ifvqdug","pricing_plan_id":"free"},{"bike_id":"726b67ab-cbe5-40a9-b9b2-6f5278f0478b","system_id":"levelo_inurba_marseille","lat":43.323464,"lon":5.406297,"is_reserved":false,"is_disabled":false,"rental_uris":{"android":"levelo://app?vid=726b67ab-cbe5-40a9-b9b2-6f5278f0478b","ios":"levelo://app?vid=726b67ab-cbe5-40a9-b9b2-6f5278f0478b"},"vehicle_type_id":"4","last_reported":1702573601,"current_range_meters":19600,"station_id":"ce4bhq92rcd13ifvqhjg","pricing_plan_id":"free"},{"bike_id":"a4f75e3e-de9e-4f44-b01d-84924fb7e2b5","system_id":"levelo_inurba_marseille","lat":43.297946,"lon":5.404063,"is_reserved":false,"is_disabled":false,"rental_uris":{"android":"levelo://app?vid=a4f75e3e-de9e-4f44-b01d-84924fb7e2b5","ios":"levelo://app?vid=a4f75e3e-de9e-4f44-b01d-84924fb7e2b5"},"vehicle_type_id":"4","last_reported":1702573601,"current_range_meters":20800,"station_id":"ce4bh112rcd13ifvqd90","pricing_plan_id":"free"},{"bike_id":"37663a6c-23c5-42c7-9ddf-83b9dcd0f7a3","system_id":"levelo_inurba_marseille","lat":43.284219,"lon":5.3497,"is_reserved":false,"is_disabled":false,"rental_uris":{"android":"levelo://app?vid=37663a6c-23c5-42c7-9ddf-83b9dcd0f7a3","ios":"levelo://app?vid=37663a6c-23c5-42c7-9ddf-83b9dcd0f7a3"},"vehicle_type_id":"4","last_reported":1702573601,"current_range_meters":25200,"station_id":"ce4bhbh2rcd13ifvqepg","pricing_plan_id":"free"},{"bike_id":"eebdcfa8-24f6-4442-96f7-c458cd3fecb2","system_id":"levelo_inurba_marseille","lat":43.282754,"lon":5.350519,"is_reserved":false,"is_disabled":false,"rental_uris":{"android":"levelo://app?vid=eebdcfa8-24f6-4442-96f7-c458cd3fecb2","ios":"levelo://app?vid=eebdcfa8-24f6-4442-96f7-c458cd3fecb2"},"vehicle_type_id":"4","last_reported":1702573601,"current_range_meters":12400,"station_id":"ce4bhbp2rcd13ifvqerg","pricing_plan_id":"free"},{"bike_id":"ce195bd3-efe7-4ef7-8b7c-8649002637fb","system_id":"levelo_inurba_marseille","lat":43.282754,"lon":5.350519,"is_reserved":false,"is_disabled":false,"rental_uris":{"android":"levelo://app?vid=ce195bd3-efe7-4ef7-8b7c-8649002637fb","ios":"levelo://app?vid=ce195bd3-efe7-4ef7-8b7c-8649002637fb"},"vehicle_type_id":"4","last_reported":1702573601,"current_range_meters":6800,"station_id":"ce4bhbp2rcd13ifvqerg","pricing_plan_id":"free"},{"bike_id":"f95792a0-26cb-4273-9af4-2edc7636837d","system_id":"levelo_inurba_marseille","lat":43.287185,"lon":5.379373,"is_reserved":false,"is_disabled":false,"rental_uris":{"android":"levelo://app?vid=f95792a0-26cb-4273-9af4-2edc7636837d","ios":"levelo://app?vid=f95792a0-26cb-4273-9af4-2edc7636837d"},"vehicle_type_id":"4","last_reported":1702573601,"current_range_meters":17200,"station_id":"ce4bh9p2rcd13ifvqec0","pricing_plan_id":"free"},{"bike_id":"d52ba69b-7325-49c2-b343-dd0cc2e58052","system_id":"levelo_inurba_marseille","lat":43.280382,"lon":5.369291,"is_reserved":false,"is_disabled":false,"rental_uris":{"android":"levelo://app?vid=d52ba69b-7325-49c2-b343-dd0cc2e58052","ios":"levelo://app?vid=d52ba69b-7325-49c2-b343-dd0cc2e58052"},"vehicle_type_id":"4","last_reported":1702573601,"current_range_meters":0,"station_id":"ce4bha12rcd13ifvqef0","pricing_plan_id":"free"},{"bike_id":"86a9e89c-c37e-4f89-9123-ca965b100307","system_id":"levelo_inurba_marseille","lat":43.281044,"lon":5.378308,"is_reserved":false,"is_disabled":false,"rental_uris":{"android":"levelo://app?vid=86a9e89c-c37e-4f89-9123-ca965b100307","ios":"levelo://app?vid=86a9e89c-c37e-4f89-9123-ca965b100307"},"vehicle_type_id":"4","last_reported":1702573601,"current_range_meters":28800,"station_id":"ce4bha12rcd13ifvqee0","pricing_plan_id":"free"},{"bike_id":"9ae0aa91-a760-46e3-b496-9f1368ddca95","system_id":"levelo_inurba_marseille","lat":43.284462,"lon":5.392121,"is_reserved":false,"is_disabled":false,"rental_uris":{"android":"levelo://app?vid=9ae0aa91-a760-46e3-b496-9f1368ddca95","ios":"levelo://app?vid=9ae0aa91-a760-46e3-b496-9f1368ddca95"},"vehicle_type_id":"4","last_reported":1702573601,"current_range_meters":18800,"station_id":"ce4bhoh2rcd13ifvqh5g","pricing_plan_id":"free"},{"bike_id":"fcbf1db1-8d0c-4f34-8422-677d166ef754","system_id":"levelo_inurba_marseille","lat":43.285742,"lon":5.395004,"is_reserved":false,"is_disabled":false,"rental_uris":{"android":"levelo://app?vid=fcbf1db1-8d0c-4f34-8422-677d166ef754","ios":"levelo://app?vid=fcbf1db1-8d0c-4f34-8422-677d166ef754"},"vehicle_type_id":"4","last_reported":1702573601,"current_range_meters":28800,"station_id":"ce4bh292rcd13ifvqdg0","pricing_plan_id":"free"},{"bike_id":"ba0683d0-150f-445e-8f70-1432a10d8794","system_id":"levelo_inurba_marseille","lat":43.285742,"lon":5.395004,"is_reserved":false,"is_disabled":false,"rental_uris":{"android":"levelo://app?vid=ba0683d0-150f-445e-8f70-1432a10d8794","ios":"levelo://app?vid=ba0683d0-150f-445e-8f70-1432a10d8794"},"vehicle_type_id":"4","last_reported":1702573601,"current_range_meters":5600,"station_id":"ce4bh292rcd13ifvqdg0","pricing_plan_id":"free"},{"bike_id":"14fb9455-a50b-4286-945e-cf8cf5644aac","system_id":"levelo_inurba_marseille","lat":43.28573,"lon":5.394992,"is_reserved":false,"is_disabled":false,"rental_uris":{"android":"levelo://app?vid=14fb9455-a50b-4286-945e-cf8cf5644aac","ios":"levelo://app?vid=14fb9455-a50b-4286-945e-cf8cf5644aac"},"vehicle_type_id":"4","last_reported":1702573601,"current_range_meters":20000,"station_id":"ce4bh292rcd13ifvqdg0","pricing_plan_id":"free"},{"bike_id":"a6750e93-4d83-46ef-8dc0-4c546875d106","system_id":"levelo_inurba_marseille","lat":43.304188,"lon":5.412904,"is_reserved":false,"is_disabled":false,"rental_uris":{"android":"levelo://app?vid=a6750e93-4d83-46ef-8dc0-4c546875d106","ios":"levelo://app?vid=a6750e93-4d83-46ef-8dc0-4c546875d106"},"vehicle_type_id":"4","last_reported":1702573601,"current_range_meters":28800,"station_id":"ce4bhop2rcd13ifvqh8g","pricing_plan_id":"free"},{"bike_id":"6aa1ca26-280e-4611-a198-09a5d6f61677","system_id":"levelo_inurba_marseille","lat":43.304188,"lon":5.412904,"is_reserved":false,"is_disabled":false,"rental_uris":{"android":"levelo://app?vid=6aa1ca26-280e-4611-a198-09a5d6f61677","ios":"levelo://app?vid=6aa1ca26-280e-4611-a198-09a5d6f61677"},"vehicle_type_id":"4","last_reported":1702573601,"current_range_meters":26000,"station_id":"ce4bhop2rcd13ifvqh8g","pricing_plan_id":"free"},{"bike_id":"31240c21-0ca3-42f7-9c43-127d722b9d0a","system_id":"levelo_inurba_marseille","lat":43.304188,"lon":5.412904,"is_reserved":false,"is_disabled":false,"rental_uris":{"android":"levelo://app?vid=31240c21-0ca3-42f7-9c43-127d722b9d0a","ios":"levelo://app?vid=31240c21-0ca3-42f7-9c43-127d722b9d0a"},"vehicle_type_id":"4","last_reported":1702573601,"current_range_meters":2400,"station_id":"ce4bhop2rcd13ifvqh8g","pricing_plan_id":"free"},{"bike_id":"f6a36720-0064-4021-bf8f-66f00ab5612e","system_id":"levelo_inurba_marseille","lat":43.304188,"lon":5.412904,"is_reserved":false,"is_disabled":false,"rental_uris":{"android":"levelo://app?vid=f6a36720-0064-4021-bf8f-66f00ab5612e","ios":"levelo://app?vid=f6a36720-0064-4021-bf8f-66f00ab5612e"},"vehicle_type_id":"4","last_reported":1702573601,"current_range_meters":26000,"station_id":"ce4bhop2rcd13ifvqh8g","pricing_plan_id":"free"},{"bike_id":"b54a58ff-8d62-4811-bddd-ef8ca7e2b7b7","system_id":"levelo_inurba_marseille","lat":43.279087,"lon":5.380114,"is_reserved":false,"is_disabled":false,"rental_uris":{"android":"levelo://app?vid=b54a58ff-8d62-4811-bddd-ef8ca7e2b7b7","ios":"levelo://app?vid=b54a58ff-8d62-4811-bddd-ef8ca7e2b7b7"},"vehicle_type_id":"4","last_reported":1702573601,"current_range_meters":20800,"station_id":"ce4bhf92rcd13ifvqf50","pricing_plan_id":"free"},{"bike_id":"aa1dcfac-3e88-4f77-bcbb-d553189db288","system_id":"levelo_inurba_marseille","lat":43.279087,"lon":5.380114,"is_reserved":false,"is_disabled":false,"rental_uris":{"android":"levelo://app?vid=aa1dcfac-3e88-4f77-bcbb-d553189db288","ios":"levelo://app?vid=aa1dcfac-3e88-4f77-bcbb-d553189db288"},"vehicle_type_id":"4","last_reported":1702573601,"current_range_meters":7600,"station_id":"ce4bhf92rcd13ifvqf50","pricing_plan_id":"free"},{"bike_id":"d013b075-1c9c-489b-94f3-91dad3afe693","system_id":"levelo_inurba_marseille","lat":43.278401,"lon":5.392152,"is_reserved":false,"is_disabled":false,"rental_uris":{"android":"levelo://app?vid=d013b075-1c9c-489b-94f3-91dad3afe693","ios":"levelo://app?vid=d013b075-1c9c-489b-94f3-91dad3afe693"},"vehicle_type_id":"4","last_reported":1702573601,"current_range_meters":800,"station_id":"ce4bhjp2rcd13ifvqga0","pricing_plan_id":"free"},{"bike_id":"c4cfb68b-0ac0-4a8c-b786-f9b41850db55","system_id":"levelo_inurba_marseille","lat":43.27376,"lon":5.3626,"is_reserved":false,"is_disabled":false,"rental_uris":{"android":"levelo://app?vid=c4cfb68b-0ac0-4a8c-b786-f9b41850db55","ios":"levelo://app?vid=c4cfb68b-0ac0-4a8c-b786-f9b41850db55"},"vehicle_type_id":"4","last_reported":1702573601,"current_range_meters":31200,"station_id":"ce4bhbh2rcd13ifvqeo0","pricing_plan_id":"free"},{"bike_id":"14c7c1af-e26c-4e7c-a133-f32a63fcd9bd","system_id":"levelo_inurba_marseille","lat":43.273609,"lon":5.362708,"is_reserved":false,"is_disabled":false,"rental_uris":{"android":"levelo://app?vid=14c7c1af-e26c-4e7c-a133-f32a63fcd9bd","ios":"levelo://app?vid=14c7c1af-e26c-4e7c-a133-f32a63fcd9bd"},"vehicle_type_id":"4","last_reported":1702573601,"current_range_meters":23200,"station_id":"ce4bhbh2rcd13ifvqeo0","pricing_plan_id":"free"},{"bike_id":"4f9f833f-5c12-40c4-80c3-8ffdf8d196f5","system_id":"levelo_inurba_marseille","lat":43.275625,"lon":5.384392,"is_reserved":false,"is_disabled":false,"rental_uris":{"android":"levelo://app?vid=4f9f833f-5c12-40c4-80c3-8ffdf8d196f5","ios":"levelo://app?vid=4f9f833f-5c12-40c4-80c3-8ffdf8d196f5"},"vehicle_type_id":"4","last_reported":1702573601,"current_range_meters":7600,"station_id":"ce4bhh92rcd13ifvqfi0","pricing_plan_id":"free"},{"bike_id":"3ca2c2d2-99b0-4aa6-a05d-e30f02e6a7fb","system_id":"levelo_inurba_marseille","lat":43.276092,"lon":5.395289,"is_reserved":false,"is_disabled":false,"rental_uris":{"android":"levelo://app?vid=3ca2c2d2-99b0-4aa6-a05d-e30f02e6a7fb","ios":"levelo://app?vid=3ca2c2d2-99b0-4aa6-a05d-e30f02e6a7fb"},"vehicle_type_id":"4","last_reported":1702573601,"current_range_meters":29600,"station_id":"","pricing_plan_id":"free"},{"bike_id":"17a716d9-3cc1-4742-98c4-2bc2d159146b","system_id":"levelo_inurba_marseille","lat":43.274099,"lon":5.394019,"is_reserved":false,"is_disabled":false,"rental_uris":{"android":"levelo://app?vid=17a716d9-3cc1-4742-98c4-2bc2d159146b","ios":"levelo://app?vid=17a716d9-3cc1-4742-98c4-2bc2d159146b"},"vehicle_type_id":"4","last_reported":1702573601,"current_range_meters":18800,"station_id":"ce4bhdp2rcd13ifvqf20","pricing_plan_id":"free"},{"bike_id":"9dbb7f9f-6559-4778-ab55-cb584a7c6343","system_id":"levelo_inurba_marseille","lat":43.272116,"lon":5.391747,"is_reserved":false,"is_disabled":false,"rental_uris":{"android":"levelo://app?vid=9dbb7f9f-6559-4778-ab55-cb584a7c6343","ios":"levelo://app?vid=9dbb7f9f-6559-4778-ab55-cb584a7c6343"},"vehicle_type_id":"4","last_reported":1702573601,"current_range_meters":0,"station_id":"ce4bhhp2rcd13ifvqfm0","pricing_plan_id":"free"},{"bike_id":"39edcc08-b52e-4b99-97a3-17748973c2ec","system_id":"levelo_inurba_marseille","lat":43.278128,"lon":5.407195,"is_reserved":false,"is_disabled":false,"rental_uris":{"android":"levelo://app?vid=39edcc08-b52e-4b99-97a3-17748973c2ec","ios":"levelo://app?vid=39edcc08-b52e-4b99-97a3-17748973c2ec"},"vehicle_type_id":"4","last_reported":1702573601,"current_range_meters":7200,"station_id":"ce4bhnh2rcd13ifvqgtg","pricing_plan_id":"free"},{"bike_id":"dece0df7-358c-422c-a02f-fc6e58e218b2","system_id":"levelo_inurba_marseille","lat":43.278128,"lon":5.407195,"is_reserved":false,"is_disabled":false,"rental_uris":{"android":"levelo://app?vid=dece0df7-358c-422c-a02f-fc6e58e218b2","ios":"levelo://app?vid=dece0df7-358c-422c-a02f-fc6e58e218b2"},"vehicle_type_id":"4","last_reported":1702573601,"current_range_meters":15200,"station_id":"ce4bhnh2rcd13ifvqgtg","pricing_plan_id":"free"},{"bike_id":"397a6e06-090a-426f-bb53-17b8c2ca57bc","system_id":"levelo_inurba_marseille","lat":43.279465,"lon":5.410561,"is_reserved":false,"is_disabled":false,"rental_uris":{"android":"levelo://app?vid=397a6e06-090a-426f-bb53-17b8c2ca57bc","ios":"levelo://app?vid=397a6e06-090a-426f-bb53-17b8c2ca57bc"},"vehicle_type_id":"4","last_reported":1702573601,"current_range_meters":10000,"station_id":"ce4bhnp2rcd13ifvqh0g","pricing_plan_id":"free"},{"bike_id":"04b3d846-1da3-4e37-aa5f-d8bcc257dd52","system_id":"levelo_inurba_marseille","lat":43.269596,"lon":5.393348,"is_reserved":false,"is_disabled":false,"rental_uris":{"android":"levelo://app?vid=04b3d846-1da3-4e37-aa5f-d8bcc257dd52","ios":"levelo://app?vid=04b3d846-1da3-4e37-aa5f-d8bcc257dd52"},"vehicle_type_id":"4","last_reported":1702573601,"current_range_meters":0,"station_id":"","pricing_plan_id":"free"},{"bike_id":"8056f38d-5089-4bba-b1d0-81828c211483","system_id":"levelo_inurba_marseille","lat":43.26681,"lon":5.382694,"is_reserved":false,"is_disabled":false,"rental_uris":{"android":"levelo://app?vid=8056f38d-5089-4bba-b1d0-81828c211483","ios":"levelo://app?vid=8056f38d-5089-4bba-b1d0-81828c211483"},"vehicle_type_id":"4","last_reported":1702573601,"current_range_meters":21200,"station_id":"ce4bhg92rcd13ifvqf90","pricing_plan_id":"free"},{"bike_id":"95a32182-f8d2-4441-a4d1-4319bdd5db3e","system_id":"levelo_inurba_marseille","lat":43.27996,"lon":5.416624,"is_reserved":false,"is_disabled":false,"rental_uris":{"android":"levelo://app?vid=95a32182-f8d2-4441-a4d1-4319bdd5db3e","ios":"levelo://app?vid=95a32182-f8d2-4441-a4d1-4319bdd5db3e"},"vehicle_type_id":"4","last_reported":1702573601,"current_range_meters":16800,"station_id":"ce4bho12rcd13ifvqh1g","pricing_plan_id":"free"},{"bike_id":"7576db3c-e515-4c8c-9f61-b08c264ff7f9","system_id":"levelo_inurba_marseille","lat":43.27996,"lon":5.416624,"is_reserved":false,"is_disabled":false,"rental_uris":{"android":"levelo://app?vid=7576db3c-e515-4c8c-9f61-b08c264ff7f9","ios":"levelo://app?vid=7576db3c-e515-4c8c-9f61-b08c264ff7f9"},"vehicle_type_id":"4","last_reported":1702573601,"current_range_meters":2000,"station_id":"ce4bho12rcd13ifvqh1g","pricing_plan_id":"free"},{"bike_id":"c86ab27b-09a6-46c8-8666-f1315f87b74d","system_id":"levelo_inurba_marseille","lat":43.27996,"lon":5.416624,"is_reserved":false,"is_disabled":false,"rental_uris":{"android":"levelo://app?vid=c86ab27b-09a6-46c8-8666-f1315f87b74d","ios":"levelo://app?vid=c86ab27b-09a6-46c8-8666-f1315f87b74d"},"vehicle_type_id":"4","last_reported":1702573601,"current_range_meters":10000,"station_id":"ce4bho12rcd13ifvqh1g","pricing_plan_id":"free"},{"bike_id":"3019e1f6-c67f-4ae0-a0cb-263d26ed5440","system_id":"levelo_inurba_marseille","lat":43.265714,"lon":5.372891,"is_reserved":false,"is_disabled":false,"rental_uris":{"android":"levelo://app?vid=3019e1f6-c67f-4ae0-a0cb-263d26ed5440","ios":"levelo://app?vid=3019e1f6-c67f-4ae0-a0cb-263d26ed5440"},"vehicle_type_id":"4","last_reported":1702573601,"current_range_meters":0,"station_id":"ce4bhg12rcd13ifvqf70","pricing_plan_id":"free"},{"bike_id":"ff01f087-7e19-44b5-a996-64a82df569ba","system_id":"levelo_inurba_marseille","lat":43.25102,"lon":5.403214,"is_reserved":false,"is_disabled":false,"rental_uris":{"android":"levelo://app?vid=ff01f087-7e19-44b5-a996-64a82df569ba","ios":"levelo://app?vid=ff01f087-7e19-44b5-a996-64a82df569ba"},"vehicle_type_id":"4","last_reported":1702573601,"current_range_meters":24800,"station_id":"ce4bhlh2rcd13ifvqgig","pricing_plan_id":"free"},{"bike_id":"82b9e567-bf87-4442-b8c8-61bb48dde2f5","system_id":"levelo_inurba_marseille","lat":43.308051,"lon":5.43527,"is_reserved":false,"is_disabled":false,"rental_uris":{"android":"levelo://app?vid=82b9e567-bf87-4442-b8c8-61bb48dde2f5","ios":"levelo://app?vid=82b9e567-bf87-4442-b8c8-61bb48dde2f5"},"vehicle_type_id":"4","last_reported":1702573601,"current_range_meters":30000,"station_id":"ce4bhph2rcd13ifvqheg","pricing_plan_id":"free"},{"bike_id":"6608fb5f-c34b-40e1-8d57-c8fe1c96c99e","system_id":"levelo_inurba_marseille","lat":43.26566,"lon":5.39013,"is_reserved":false,"is_disabled":false,"rental_uris":{"android":"levelo://app?vid=6608fb5f-c34b-40e1-8d57-c8fe1c96c99e","ios":"levelo://app?vid=6608fb5f-c34b-40e1-8d57-c8fe1c96c99e"},"vehicle_type_id":"4","last_reported":1702573601,"current_range_meters":0,"station_id":"ce4bhe12rcd13ifvqf30","pricing_plan_id":"free"},{"bike_id":"527e3d64-fbbf-46d2-a77b-c64d7c77f03c","system_id":"levelo_inurba_marseille","lat":43.265569,"lon":5.390047,"is_reserved":false,"is_disabled":false,"rental_uris":{"android":"levelo://app?vid=527e3d64-fbbf-46d2-a77b-c64d7c77f03c","ios":"levelo://app?vid=527e3d64-fbbf-46d2-a77b-c64d7c77f03c"},"vehicle_type_id":"4","last_reported":1702573601,"current_range_meters":15600,"station_id":"ce4bhe12rcd13ifvqf30","pricing_plan_id":"free"},{"bike_id":"7f84783e-5acd-446e-9626-60df6c193f32","system_id":"levelo_inurba_marseille","lat":43.261782,"lon":5.374515,"is_reserved":false,"is_disabled":false,"rental_uris":{"android":"levelo://app?vid=7f84783e-5acd-446e-9626-60df6c193f32","ios":"levelo://app?vid=7f84783e-5acd-446e-9626-60df6c193f32"},"vehicle_type_id":"4","last_reported":1702573601,"current_range_meters":13200,"station_id":"ce4bhgp2rcd13ifvqfc0","pricing_plan_id":"free"},{"bike_id":"503fb083-fb82-4ad3-b4e1-6cc786325b8b","system_id":"levelo_inurba_marseille","lat":43.317104,"lon":5.436818,"is_reserved":false,"is_disabled":false,"rental_uris":{"android":"levelo://app?vid=503fb083-fb82-4ad3-b4e1-6cc786325b8b","ios":"levelo://app?vid=503fb083-fb82-4ad3-b4e1-6cc786325b8b"},"vehicle_type_id":"4","last_reported":1702573601,"current_range_meters":22400,"station_id":"ce4bhp92rcd13ifvqhcg","pricing_plan_id":"free"},{"bike_id":"2bde36bb-dd0d-4e34-a48f-2fd953208141","system_id":"levelo_inurba_marseille","lat":43.26202,"lon":5.379299,"is_reserved":false,"is_disabled":false,"rental_uris":{"android":"levelo://app?vid=2bde36bb-dd0d-4e34-a48f-2fd953208141","ios":"levelo://app?vid=2bde36bb-dd0d-4e34-a48f-2fd953208141"},"vehicle_type_id":"4","last_reported":1702573601,"current_range_meters":22000,"station_id":"ce4bhjp2rcd13ifvqg90","pricing_plan_id":"free"},{"bike_id":"d6aae4c1-52ad-4aad-9610-4c7861bdb65d","system_id":"levelo_inurba_marseille","lat":43.26203,"lon":5.37926,"is_reserved":false,"is_disabled":false,"rental_uris":{"android":"levelo://app?vid=d6aae4c1-52ad-4aad-9610-4c7861bdb65d","ios":"levelo://app?vid=d6aae4c1-52ad-4aad-9610-4c7861bdb65d"},"vehicle_type_id":"4","last_reported":1702573601,"current_range_meters":31200,"station_id":"ce4bhjp2rcd13ifvqg90","pricing_plan_id":"free"},{"bike_id":"c2923c8a-f72b-4f39-9ebd-6f23e8589080","system_id":"levelo_inurba_marseille","lat":43.262012,"lon":5.379307,"is_reserved":false,"is_disabled":false,"rental_uris":{"android":"levelo://app?vid=c2923c8a-f72b-4f39-9ebd-6f23e8589080","ios":"levelo://app?vid=c2923c8a-f72b-4f39-9ebd-6f23e8589080"},"vehicle_type_id":"4","last_reported":1702573601,"current_range_meters":5600,"station_id":"ce4bhjp2rcd13ifvqg90","pricing_plan_id":"free"},{"bike_id":"aaea5209-a708-4458-8480-1875eab17711","system_id":"levelo_inurba_marseille","lat":43.271368,"lon":5.40928,"is_reserved":false,"is_disabled":false,"rental_uris":{"android":"levelo://app?vid=aaea5209-a708-4458-8480-1875eab17711","ios":"levelo://app?vid=aaea5209-a708-4458-8480-1875eab17711"},"vehicle_type_id":"4","last_reported":1702573601,"current_range_meters":28800,"station_id":"ce4bhl12rcd13ifvqgf0","pricing_plan_id":"free"},{"bike_id":"aade3f43-ca2e-4058-b556-4c6e7bc4fb08","system_id":"levelo_inurba_marseille","lat":43.26202,"lon":5.379299,"is_reserved":false,"is_disabled":false,"rental_uris":{"android":"levelo://app?vid=aade3f43-ca2e-4058-b556-4c6e7bc4fb08","ios":"levelo://app?vid=aade3f43-ca2e-4058-b556-4c6e7bc4fb08"},"vehicle_type_id":"4","last_reported":1702573601,"current_range_meters":8800,"station_id":"ce4bhjp2rcd13ifvqg90","pricing_plan_id":"free"},{"bike_id":"38a4a3ac-b01c-43e0-abb4-5a012521fc8c","system_id":"levelo_inurba_marseille","lat":43.298768,"lon":5.43643,"is_reserved":false,"is_disabled":false,"rental_uris":{"android":"levelo://app?vid=38a4a3ac-b01c-43e0-abb4-5a012521fc8c","ios":"levelo://app?vid=38a4a3ac-b01c-43e0-abb4-5a012521fc8c"},"vehicle_type_id":"4","last_reported":1702573601,"current_range_meters":31200,"station_id":"ce4bhpp2rcd13ifvqhfg","pricing_plan_id":"free"},{"bike_id":"fe5fe943-5fdd-4892-88fa-556a32663088","system_id":"levelo_inurba_marseille","lat":43.298768,"lon":5.43643,"is_reserved":false,"is_disabled":false,"rental_uris":{"android":"levelo://app?vid=fe5fe943-5fdd-4892-88fa-556a32663088","ios":"levelo://app?vid=fe5fe943-5fdd-4892-88fa-556a32663088"},"vehicle_type_id":"4","last_reported":1702573601,"current_range_meters":27200,"station_id":"ce4bhpp2rcd13ifvqhfg","pricing_plan_id":"free"},{"bike_id":"e08cb7a0-f6bd-4a79-b1de-9d6a715917f8","system_id":"levelo_inurba_marseille","lat":43.29894,"lon":5.43672,"is_reserved":false,"is_disabled":false,"rental_uris":{"android":"levelo://app?vid=e08cb7a0-f6bd-4a79-b1de-9d6a715917f8","ios":"levelo://app?vid=e08cb7a0-f6bd-4a79-b1de-9d6a715917f8"},"vehicle_type_id":"4","last_reported":1702573601,"current_range_meters":16000,"station_id":"ce4bhpp2rcd13ifvqhfg","pricing_plan_id":"free"},{"bike_id":"6a2754f4-4c18-4e78-91e9-00c997a06754","system_id":"levelo_inurba_marseille","lat":43.26023,"lon":5.37552,"is_reserved":false,"is_disabled":false,"rental_uris":{"android":"levelo://app?vid=6a2754f4-4c18-4e78-91e9-00c997a06754","ios":"levelo://app?vid=6a2754f4-4c18-4e78-91e9-00c997a06754"},"vehicle_type_id":"4","last_reported":1702573601,"current_range_meters":25200,"station_id":"ce4bhgh2rcd13ifvqfa0","pricing_plan_id":"free"},{"bike_id":"26a8f147-17a7-45f3-bd6e-68e821061f13","system_id":"levelo_inurba_marseille","lat":43.281548,"lon":5.42643,"is_reserved":false,"is_disabled":false,"rental_uris":{"android":"levelo://app?vid=26a8f147-17a7-45f3-bd6e-68e821061f13","ios":"levelo://app?vid=26a8f147-17a7-45f3-bd6e-68e821061f13"},"vehicle_type_id":"4","last_reported":1702573601,"current_range_meters":19600,"station_id":"ce4bhnh2rcd13ifvqgug","pricing_plan_id":"free"},{"bike_id":"01fe1d58-f4d8-43ad-a020-ed57d041c898","system_id":"levelo_inurba_marseille","lat":43.281548,"lon":5.42643,"is_reserved":false,"is_disabled":false,"rental_uris":{"android":"levelo://app?vid=01fe1d58-f4d8-43ad-a020-ed57d041c898","ios":"levelo://app?vid=01fe1d58-f4d8-43ad-a020-ed57d041c898"},"vehicle_type_id":"4","last_reported":1702573601,"current_range_meters":0,"station_id":"ce4bhnh2rcd13ifvqgug","pricing_plan_id":"free"},{"bike_id":"8834b350-77fd-4efb-a3f5-5787c412c375","system_id":"levelo_inurba_marseille","lat":43.255756,"lon":5.382303,"is_reserved":false,"is_disabled":false,"rental_uris":{"android":"levelo://app?vid=8834b350-77fd-4efb-a3f5-5787c412c375","ios":"levelo://app?vid=8834b350-77fd-4efb-a3f5-5787c412c375"},"vehicle_type_id":"4","last_reported":1702573601,"current_range_meters":10000,"station_id":"ce4bhih2rcd13ifvqfs0","pricing_plan_id":"free"},{"bike_id":"62d2fe72-b3f9-424b-b478-95d59fb90be4","system_id":"levelo_inurba_marseille","lat":43.255756,"lon":5.382303,"is_reserved":false,"is_disabled":false,"rental_uris":{"android":"levelo://app?vid=62d2fe72-b3f9-424b-b478-95d59fb90be4","ios":"levelo://app?vid=62d2fe72-b3f9-424b-b478-95d59fb90be4"},"vehicle_type_id":"4","last_reported":1702573601,"current_range_meters":7200,"station_id":"ce4bhih2rcd13ifvqfs0","pricing_plan_id":"free"},{"bike_id":"11e8c394-4590-4a6d-9066-b1f6ffbedac9","system_id":"levelo_inurba_marseille","lat":43.25577,"lon":5.3824,"is_reserved":false,"is_disabled":false,"rental_uris":{"android":"levelo://app?vid=11e8c394-4590-4a6d-9066-b1f6ffbedac9","ios":"levelo://app?vid=11e8c394-4590-4a6d-9066-b1f6ffbedac9"},"vehicle_type_id":"4","last_reported":1702573601,"current_range_meters":5600,"station_id":"ce4bhih2rcd13ifvqfs0","pricing_plan_id":"free"},{"bike_id":"88be4a43-fb05-4951-9adf-cdf88304db73","system_id":"levelo_inurba_marseille","lat":43.257079,"lon":5.411051,"is_reserved":false,"is_disabled":false,"rental_uris":{"android":"levelo://app?vid=88be4a43-fb05-4951-9adf-cdf88304db73","ios":"levelo://app?vid=88be4a43-fb05-4951-9adf-cdf88304db73"},"vehicle_type_id":"4","last_reported":1702573601,"current_range_meters":15600,"station_id":"ce4bhkp2rcd13ifvqgd0","pricing_plan_id":"free"},{"bike_id":"62e14e39-c79e-46ea-9296-a127260f0307","system_id":"levelo_inurba_marseille","lat":43.250009,"lon":5.389195,"is_reserved":false,"is_disabled":false,"rental_uris":{"android":"levelo://app?vid=62e14e39-c79e-46ea-9296-a127260f0307","ios":"levelo://app?vid=62e14e39-c79e-46ea-9296-a127260f0307"},"vehicle_type_id":"4","last_reported":1702573601,"current_range_meters":15200,"station_id":"ce4bhgp2rcd13ifvqfd0","pricing_plan_id":"free"},{"bike_id":"84f4850e-f9e7-4787-827e-49c5374bb2a9","system_id":"levelo_inurba_marseille","lat":43.2479,"lon":5.374457,"is_reserved":false,"is_disabled":false,"rental_uris":{"android":"levelo://app?vid=84f4850e-f9e7-4787-827e-49c5374bb2a9","ios":"levelo://app?vid=84f4850e-f9e7-4787-827e-49c5374bb2a9"},"vehicle_type_id":"4","last_reported":1702573601,"current_range_meters":11200,"station_id":"ce4bhgh2rcd13ifvqfb0","pricing_plan_id":"free"},{"bike_id":"913945bd-b901-4fe7-9be9-455b1fac13cf","system_id":"levelo_inurba_marseille","lat":43.2479,"lon":5.374457,"is_reserved":false,"is_disabled":false,"rental_uris":{"android":"levelo://app?vid=913945bd-b901-4fe7-9be9-455b1fac13cf","ios":"levelo://app?vid=913945bd-b901-4fe7-9be9-455b1fac13cf"},"vehicle_type_id":"4","last_reported":1702573601,"current_range_meters":400,"station_id":"ce4bhgh2rcd13ifvqfb0","pricing_plan_id":"free"},{"bike_id":"5e676c46-8388-4dc2-89b6-61bae21d3d39","system_id":"levelo_inurba_marseille","lat":43.2479,"lon":5.374457,"is_reserved":false,"is_disabled":false,"rental_uris":{"android":"levelo://app?vid=5e676c46-8388-4dc2-89b6-61bae21d3d39","ios":"levelo://app?vid=5e676c46-8388-4dc2-89b6-61bae21d3d39"},"vehicle_type_id":"4","last_reported":1702573601,"current_range_meters":0,"station_id":"ce4bhgh2rcd13ifvqfb0","pricing_plan_id":"free"},{"bike_id":"41141c1c-d172-4264-ae0f-545f42a7f1d0","system_id":"levelo_inurba_marseille","lat":43.250966,"lon":5.395186,"is_reserved":false,"is_disabled":false,"rental_uris":{"android":"levelo://app?vid=41141c1c-d172-4264-ae0f-545f42a7f1d0","ios":"levelo://app?vid=41141c1c-d172-4264-ae0f-545f42a7f1d0"},"vehicle_type_id":"4","last_reported":1702573601,"current_range_meters":31200,"station_id":"ce4bhm12rcd13ifvqgkg","pricing_plan_id":"free"},{"bike_id":"5255a6a9-c351-4453-a332-38bff53825c0","system_id":"levelo_inurba_marseille","lat":43.250966,"lon":5.395186,"is_reserved":false,"is_disabled":false,"rental_uris":{"android":"levelo://app?vid=5255a6a9-c351-4453-a332-38bff53825c0","ios":"levelo://app?vid=5255a6a9-c351-4453-a332-38bff53825c0"},"vehicle_type_id":"4","last_reported":1702573601,"current_range_meters":25600,"station_id":"ce4bhm12rcd13ifvqgkg","pricing_plan_id":"free"},{"bike_id":"8b944aed-d944-43c8-8b07-2f53593c5d68","system_id":"levelo_inurba_marseille","lat":43.24659,"lon":5.38161,"is_reserved":false,"is_disabled":false,"rental_uris":{"android":"levelo://app?vid=8b944aed-d944-43c8-8b07-2f53593c5d68","ios":"levelo://app?vid=8b944aed-d944-43c8-8b07-2f53593c5d68"},"vehicle_type_id":"4","last_reported":1702573601,"current_range_meters":16400,"station_id":"ce4bhih2rcd13ifvqfr0","pricing_plan_id":"free"},{"bike_id":"9e2d2f44-c362-45d0-9fc8-d33c01cfabd5","system_id":"levelo_inurba_marseille","lat":43.24693,"lon":5.382096,"is_reserved":false,"is_disabled":false,"rental_uris":{"android":"levelo://app?vid=9e2d2f44-c362-45d0-9fc8-d33c01cfabd5","ios":"levelo://app?vid=9e2d2f44-c362-45d0-9fc8-d33c01cfabd5"},"vehicle_type_id":"4","last_reported":1702573601,"current_range_meters":23600,"station_id":"ce4bhih2rcd13ifvqfr0","pricing_plan_id":"free"},{"bike_id":"1065b0f2-972f-413c-92d8-c383f9b632a5","system_id":"levelo_inurba_marseille","lat":43.25114,"lon":5.40323,"is_reserved":false,"is_disabled":false,"rental_uris":{"android":"levelo://app?vid=1065b0f2-972f-413c-92d8-c383f9b632a5","ios":"levelo://app?vid=1065b0f2-972f-413c-92d8-c383f9b632a5"},"vehicle_type_id":"4","last_reported":1702573601,"current_range_meters":400,"station_id":"ce4bhlh2rcd13ifvqgig","pricing_plan_id":"free"},{"bike_id":"6d03604f-6c9a-4952-abc9-4537de57cd87","system_id":"levelo_inurba_marseille","lat":43.25102,"lon":5.403214,"is_reserved":false,"is_disabled":false,"rental_uris":{"android":"levelo://app?vid=6d03604f-6c9a-4952-abc9-4537de57cd87","ios":"levelo://app?vid=6d03604f-6c9a-4952-abc9-4537de57cd87"},"vehicle_type_id":"4","last_reported":1702573601,"current_range_meters":1200,"station_id":"ce4bhlh2rcd13ifvqgig","pricing_plan_id":"free"},{"bike_id":"58e4cb29-5b2e-4975-b279-c9c325f24de6","system_id":"levelo_inurba_marseille","lat":43.246467,"lon":5.388984,"is_reserved":false,"is_disabled":false,"rental_uris":{"android":"levelo://app?vid=58e4cb29-5b2e-4975-b279-c9c325f24de6","ios":"levelo://app?vid=58e4cb29-5b2e-4975-b279-c9c325f24de6"},"vehicle_type_id":"4","last_reported":1702573601,"current_range_meters":14400,"station_id":"ce4bhg12rcd13ifvqf60","pricing_plan_id":"free"},{"bike_id":"943e52e8-36d7-4fec-9ddf-e07fe42c8d89","system_id":"levelo_inurba_marseille","lat":43.246461,"lon":5.389014,"is_reserved":false,"is_disabled":false,"rental_uris":{"android":"levelo://app?vid=943e52e8-36d7-4fec-9ddf-e07fe42c8d89","ios":"levelo://app?vid=943e52e8-36d7-4fec-9ddf-e07fe42c8d89"},"vehicle_type_id":"4","last_reported":1702573601,"current_range_meters":25600,"station_id":"ce4bhg12rcd13ifvqf60","pricing_plan_id":"free"},{"bike_id":"822a4f91-7aec-491c-88e6-a88cfdf40e0a","system_id":"levelo_inurba_marseille","lat":43.245581,"lon":5.395069,"is_reserved":false,"is_disabled":false,"rental_uris":{"android":"levelo://app?vid=822a4f91-7aec-491c-88e6-a88cfdf40e0a","ios":"levelo://app?vid=822a4f91-7aec-491c-88e6-a88cfdf40e0a"},"vehicle_type_id":"4","last_reported":1702573601,"current_range_meters":5200,"station_id":"ce4bhlp2rcd13ifvqgjg","pricing_plan_id":"free"},{"bike_id":"efa33a7e-064e-4ea4-9007-4055ac60daad","system_id":"levelo_inurba_marseille","lat":43.240623,"lon":5.377642,"is_reserved":false,"is_disabled":false,"rental_uris":{"android":"levelo://app?vid=efa33a7e-064e-4ea4-9007-4055ac60daad","ios":"levelo://app?vid=efa33a7e-064e-4ea4-9007-4055ac60daad"},"vehicle_type_id":"4","last_reported":1702573601,"current_range_meters":23200,"station_id":"ce4bhnp2rcd13ifvqgvg","pricing_plan_id":"free"},{"bike_id":"3a814a24-07d8-4e6f-9e30-e43634a525e4","system_id":"levelo_inurba_marseille","lat":43.23965,"lon":5.36639,"is_reserved":false,"is_disabled":false,"rental_uris":{"android":"levelo://app?vid=3a814a24-07d8-4e6f-9e30-e43634a525e4","ios":"levelo://app?vid=3a814a24-07d8-4e6f-9e30-e43634a525e4"},"vehicle_type_id":"4","last_reported":1702573601,"current_range_meters":6400,"station_id":"ce4bhi12rcd13ifvqfp0","pricing_plan_id":"free"},{"bike_id":"39bf9e7f-bd9e-46b0-84fb-a4482e6eaab3","system_id":"levelo_inurba_marseille","lat":43.239588,"lon":5.366238,"is_reserved":false,"is_disabled":false,"rental_uris":{"android":"levelo://app?vid=39bf9e7f-bd9e-46b0-84fb-a4482e6eaab3","ios":"levelo://app?vid=39bf9e7f-bd9e-46b0-84fb-a4482e6eaab3"},"vehicle_type_id":"4","last_reported":1702573601,"current_range_meters":15200,"station_id":"ce4bhi12rcd13ifvqfp0","pricing_plan_id":"free"},{"bike_id":"1497ed62-688b-4d39-afdc-e76c42d6a7ae","system_id":"levelo_inurba_marseille","lat":43.23961,"lon":5.36624,"is_reserved":false,"is_disabled":false,"rental_uris":{"android":"levelo://app?vid=1497ed62-688b-4d39-afdc-e76c42d6a7ae","ios":"levelo://app?vid=1497ed62-688b-4d39-afdc-e76c42d6a7ae"},"vehicle_type_id":"4","last_reported":1702573601,"current_range_meters":24400,"station_id":"ce4bhi12rcd13ifvqfp0","pricing_plan_id":"free"},{"bike_id":"09e850ea-4841-45dc-8933-cb5bc12f1ec2","system_id":"levelo_inurba_marseille","lat":43.2396,"lon":5.3662,"is_reserved":false,"is_disabled":false,"rental_uris":{"android":"levelo://app?vid=09e850ea-4841-45dc-8933-cb5bc12f1ec2","ios":"levelo://app?vid=09e850ea-4841-45dc-8933-cb5bc12f1ec2"},"vehicle_type_id":"4","last_reported":1702573601,"current_range_meters":12000,"station_id":"ce4bhi12rcd13ifvqfp0","pricing_plan_id":"free"},{"bike_id":"417c4bb2-53a9-4a4c-a128-5a6478c52446","system_id":"levelo_inurba_marseille","lat":43.23958,"lon":5.36636,"is_reserved":false,"is_disabled":false,"rental_uris":{"android":"levelo://app?vid=417c4bb2-53a9-4a4c-a128-5a6478c52446","ios":"levelo://app?vid=417c4bb2-53a9-4a4c-a128-5a6478c52446"},"vehicle_type_id":"4","last_reported":1702573601,"current_range_meters":23200,"station_id":"ce4bhi12rcd13ifvqfp0","pricing_plan_id":"free"},{"bike_id":"afbbb295-f557-4479-a8ee-a8121c3c0f23","system_id":"levelo_inurba_marseille","lat":43.241782,"lon":5.397261,"is_reserved":false,"is_disabled":false,"rental_uris":{"android":"levelo://app?vid=afbbb295-f557-4479-a8ee-a8121c3c0f23","ios":"levelo://app?vid=afbbb295-f557-4479-a8ee-a8121c3c0f23"},"vehicle_type_id":"4","last_reported":1702573601,"current_range_meters":10400,"station_id":"ce4bhn12rcd13ifvqgpg","pricing_plan_id":"free"},{"bike_id":"2f0b2c9f-fd28-4993-9b9e-ba8c6a9f51d3","system_id":"levelo_inurba_marseille","lat":43.241782,"lon":5.397261,"is_reserved":false,"is_disabled":false,"rental_uris":{"android":"levelo://app?vid=2f0b2c9f-fd28-4993-9b9e-ba8c6a9f51d3","ios":"levelo://app?vid=2f0b2c9f-fd28-4993-9b9e-ba8c6a9f51d3"},"vehicle_type_id":"4","last_reported":1702573601,"current_range_meters":12800,"station_id":"ce4bhn12rcd13ifvqgpg","pricing_plan_id":"free"},{"bike_id":"80ea88fb-99da-415c-8bc2-06a644dc3817","system_id":"levelo_inurba_marseille","lat":43.241782,"lon":5.397261,"is_reserved":false,"is_disabled":false,"rental_uris":{"android":"levelo://app?vid=80ea88fb-99da-415c-8bc2-06a644dc3817","ios":"levelo://app?vid=80ea88fb-99da-415c-8bc2-06a644dc3817"},"vehicle_type_id":"4","last_reported":1702573601,"current_range_meters":12800,"station_id":"ce4bhn12rcd13ifvqgpg","pricing_plan_id":"free"},{"bike_id":"1c152701-4b2a-4bae-9910-af52ecb96d7d","system_id":"levelo_inurba_marseille","lat":43.23195,"lon":5.35555,"is_reserved":false,"is_disabled":false,"rental_uris":{"android":"levelo://app?vid=1c152701-4b2a-4bae-9910-af52ecb96d7d","ios":"levelo://app?vid=1c152701-4b2a-4bae-9910-af52ecb96d7d"},"vehicle_type_id":"4","last_reported":1702573601,"current_range_meters":19200,"station_id":"ce4bhu92rcd13ifvqi70","pricing_plan_id":"free"},{"bike_id":"5c56cc11-c1ca-430f-b898-95a1151d8a21","system_id":"levelo_inurba_marseille","lat":43.23192,"lon":5.35556,"is_reserved":false,"is_disabled":false,"rental_uris":{"android":"levelo://app?vid=5c56cc11-c1ca-430f-b898-95a1151d8a21","ios":"levelo://app?vid=5c56cc11-c1ca-430f-b898-95a1151d8a21"},"vehicle_type_id":"4","last_reported":1702573601,"current_range_meters":0,"station_id":"ce4bhu92rcd13ifvqi70","pricing_plan_id":"free"},{"bike_id":"830d849e-9bc4-45c0-a5c3-bdc822c53da0","system_id":"levelo_inurba_marseille","lat":43.231794,"lon":5.400052,"is_reserved":false,"is_disabled":false,"rental_uris":{"android":"levelo://app?vid=830d849e-9bc4-45c0-a5c3-bdc822c53da0","ios":"levelo://app?vid=830d849e-9bc4-45c0-a5c3-bdc822c53da0"},"vehicle_type_id":"4","last_reported":1702573601,"current_range_meters":24000,"station_id":"ce4bhn12rcd13ifvqgqg","pricing_plan_id":"free"},{"bike_id":"a77fff13-9f20-4e3b-b9d6-ff4e799f8066","system_id":"levelo_inurba_marseille","lat":43.231793,"lon":5.400044,"is_reserved":false,"is_disabled":false,"rental_uris":{"android":"levelo://app?vid=a77fff13-9f20-4e3b-b9d6-ff4e799f8066","ios":"levelo://app?vid=a77fff13-9f20-4e3b-b9d6-ff4e799f8066"},"vehicle_type_id":"4","last_reported":1702573601,"current_range_meters":29600,"station_id":"ce4bhn12rcd13ifvqgqg","pricing_plan_id":"free"},{"bike_id":"32517d1a-0587-47fa-be31-a7bdf69cd9d3","system_id":"levelo_inurba_marseille","lat":43.231793,"lon":5.400044,"is_reserved":false,"is_disabled":false,"rental_uris":{"android":"levelo://app?vid=32517d1a-0587-47fa-be31-a7bdf69cd9d3","ios":"levelo://app?vid=32517d1a-0587-47fa-be31-a7bdf69cd9d3"},"vehicle_type_id":"4","last_reported":1702573601,"current_range_meters":12000,"station_id":"ce4bhn12rcd13ifvqgqg","pricing_plan_id":"free"},{"bike_id":"dd7ed4dd-77c8-413e-9e14-33a4d651f1aa","system_id":"levelo_inurba_marseille","lat":43.231793,"lon":5.400044,"is_reserved":false,"is_disabled":false,"rental_uris":{"android":"levelo://app?vid=dd7ed4dd-77c8-413e-9e14-33a4d651f1aa","ios":"levelo://app?vid=dd7ed4dd-77c8-413e-9e14-33a4d651f1aa"},"vehicle_type_id":"4","last_reported":1702573601,"current_range_meters":27600,"station_id":"ce4bhn12rcd13ifvqgqg","pricing_plan_id":"free"},{"bike_id":"5baad603-16af-4b46-9899-8c12c42ef7f0","system_id":"levelo_inurba_marseille","lat":43.231562,"lon":5.436933,"is_reserved":false,"is_disabled":false,"rental_uris":{"android":"levelo://app?vid=5baad603-16af-4b46-9899-8c12c42ef7f0","ios":"levelo://app?vid=5baad603-16af-4b46-9899-8c12c42ef7f0"},"vehicle_type_id":"4","last_reported":1702573601,"current_range_meters":31200,"station_id":"ce4bhmp2rcd13ifvqgog","pricing_plan_id":"free"}]}}