{"last_updated":1731351967,"ttl":60,"version":"2.2","data":{"bikes":[{"bike_id":"2afb4c00-67cc-42f1-ae32-502f5aecb4b2","system_id":"levelo_inurba_marseille","lat":43.24082,"lon":5.3774,"is_reserved":false,"is_disabled":false,"rental_uris":{"android":"levelo://app?vid=2afb4c00-67cc-42f1-ae32-502f5aecb4b2","ios":"levelo://app?vid=2afb4c00-67cc-42f1-ae32-502f5aecb4b2"},"vehicle_type_id":"4","last_reported":1731351967,"current_range_meters":33200,"station_id":"ce4bhnp2rcd13ifvqgvg","pricing_plan_id":"cebpf4jnsgd1na2vs0mg"},{"bike_id":"55f338da-564d-4339-bcb5-5d0a4b68c4e6","system_id":"levelo_inurba_marseille","lat":43.31047,"lon":5.40099,"is_reserved":false,"is_disabled":false,"rental_uris":{"android":"levelo://app?vid=55f338da-564d-4339-bcb5-5d0a4b68c4e6","ios":"levelo://app?vid=55f338da-564d-4339-bcb5-5d0a4b68c4e6"},"vehicle_type_id":"4","last_reported":1731351967,"current_range_meters":6400,"station_id":"","pricing_plan_id":"cebpf4jnsgd1na2vs0mg"},{"bike_id":"994fdd0f-62b4-4c25-9ecb-bcf812893036","system_id":"levelo_inurba_marseille","lat":43.28981,"lon":5.3782,"is_reserved":false,"is_disabled":false,"rental_uris":{"android":"levelo://app?vid=994fdd0f-62b4-4c25-9ecb-bcf812893036","ios":"levelo://app?vid=994fdd0f-62b4-4c25-9ecb-bcf812893036"},"vehicle_type_id":"4","last_reported":1731351967,"current_range_meters":30800,"station_id":"ce4bh9p2rcd13ifvqed0","pricing_plan_id":"cebpf4jnsgd1na2vs0mg"},{"bike_id":"8f45636c-e28d-4a7a-b2e9-4585b3568dba","system_id":"levelo_inurba_marseille","lat":43.30608,"lon":5.37218,"is_reserved":false,"is_disabled":false,"rental_uris":{"android":"levelo://app?vid=8f45636c-e28d-4a7a-b2e9-4585b3568dba","ios":"levelo://app?vid=8f45636c-e28d-4a7a-b2e9-4585b3568dba"},"vehicle_type_id":"4","last_reported":1731351967,"current_range_meters":39200,"station_id":"ce4bgqh2rcd13ifvqc4g","pricing_plan_id":"cebpf4jnsgd1na2vs0mg"},{"bike_id":"092dc3c4-ec94-48f1-bf24-36eadab65fb9","system_id":"levelo_inurba_marseille","lat":43.29032,"lon":5.38629,"is_reserved":false,"is_disabled":false,"rental_uris":{"android":"levelo://app?vid=092dc3c4-ec94-48f1-bf24-36eadab65fb9","ios":"levelo://app?vid=092dc3c4-ec94-48f1-bf24-36eadab65fb9"},"vehicle_type_id":"4","last_reported":1731351967,"current_range_meters":36000,"station_id":"ce4bh4p2rcd13ifvqe0g","pricing_plan_id":"cebpf4jnsgd1na2vs0mg"},{"bike_id":"64d90b08-5e61-4c38-bbaa-d680bf80640e","system_id":"levelo_inurba_marseille","lat":43.29024,"lon":5.38623,"is_reserved":false,"is_disabled":false,"rental_uris":{"android":"levelo://app?vid=64d90b08-5e61-4c38-bbaa-d680bf80640e","ios":"levelo://app?vid=64d90b08-5e61-4c38-bbaa-d680bf80640e"},"vehicle_type_id":"4","last_reported":1731351967,"current_range_meters":38800,"station_id":"ce4bh4p2rcd13ifvqe0g","pricing_plan_id":"cebpf4jnsgd1na2vs0mg"},{"bike_id":"f1069912-40f7-4b73-b2b1-ba73bc2c051d","system_id":"levelo_inurba_marseille","lat":43.2679,"lon":5.39414,"is_reserved":false,"is_disabled":false,"rental_uris":{"android":"levelo://app?vid=f1069912-40f7-4b73-b2b1-ba73bc2c051d","ios":"levelo://app?vid=f1069912-40f7-4b73-b2b1-ba73bc2c051d"},"vehicle_type_id":"4","last_reported":1731351967,"current_range_meters":38400,"station_id":"ce4bhh12rcd13ifvqfg0","pricing_plan_id":"cebpf4jnsgd1na2vs0mg"},{"bike_id":"e8f6a345-613f-4d73-b3c6-ff7badec834d","system_id":"levelo_inurba_marseille","lat":43.29216,"lon":5.3932,"is_reserved":false,"is_disabled":false,"rental_uris":{"android":"levelo://app?vid=e8f6a345-613f-4d73-b3c6-ff7badec834d","ios":"levelo://app?vid=e8f6a345-613f-4d73-b3c6-ff7badec834d"},"vehicle_type_id":"4","last_reported":1731351967,"current_range_meters":36800,"station_id":"ce4bh192rcd13ifvqdd0","pricing_plan_id":"cebpf4jnsgd1na2vs0mg"},{"bike_id":"6bf6494e-2c22-47ab-a239-0d3ffefdcce6","system_id":"levelo_inurba_marseille","lat":43.28925,"lon":5.383903,"is_reserved":false,"is_disabled":false,"rental_uris":{"android":"levelo://app?vid=6bf6494e-2c22-47ab-a239-0d3ffefdcce6","ios":"levelo://app?vid=6bf6494e-2c22-47ab-a239-0d3ffefdcce6"},"vehicle_type_id":"4","last_reported":1731351967,"current_range_meters":8000,"station_id":"ce4bh612rcd13ifvqe6g","pricing_plan_id":"cebpf4jnsgd1na2vs0mg"},{"bike_id":"b60d171a-c530-4b12-b1ce-068899dc5a94","system_id":"levelo_inurba_marseille","lat":43.31122,"lon":5.37754,"is_reserved":false,"is_disabled":false,"rental_uris":{"android":"levelo://app?vid=b60d171a-c530-4b12-b1ce-068899dc5a94","ios":"levelo://app?vid=b60d171a-c530-4b12-b1ce-068899dc5a94"},"vehicle_type_id":"4","last_reported":1731351967,"current_range_meters":38800,"station_id":"ce4bgt92rcd13ifvqcg0","pricing_plan_id":"cebpf4jnsgd1na2vs0mg"},{"bike_id":"4c0f6987-6003-458e-b26d-8c7570128565","system_id":"levelo_inurba_marseille","lat":43.29529,"lon":5.38533,"is_reserved":false,"is_disabled":false,"rental_uris":{"android":"levelo://app?vid=4c0f6987-6003-458e-b26d-8c7570128565","ios":"levelo://app?vid=4c0f6987-6003-458e-b26d-8c7570128565"},"vehicle_type_id":"4","last_reported":1731351967,"current_range_meters":4000,"station_id":"ce4bgih2rcd13ifvqba0","pricing_plan_id":"cebpf4jnsgd1na2vs0mg"},{"bike_id":"9d1321dd-1fbe-408e-9e13-0e21e4e610ef","system_id":"levelo_inurba_marseille","lat":43.28029,"lon":5.36938,"is_reserved":false,"is_disabled":false,"rental_uris":{"android":"levelo://app?vid=9d1321dd-1fbe-408e-9e13-0e21e4e610ef","ios":"levelo://app?vid=9d1321dd-1fbe-408e-9e13-0e21e4e610ef"},"vehicle_type_id":"4","last_reported":1731351967,"current_range_meters":29600,"station_id":"ce4bha12rcd13ifvqef0","pricing_plan_id":"cebpf4jnsgd1na2vs0mg"},{"bike_id":"d58636f1-224d-48a3-ac68-59d52e30576f","system_id":"levelo_inurba_marseille","lat":43.32365,"lon":5.38886,"is_reserved":false,"is_disabled":false,"rental_uris":{"android":"levelo://app?vid=d58636f1-224d-48a3-ac68-59d52e30576f","ios":"levelo://app?vid=d58636f1-224d-48a3-ac68-59d52e30576f"},"vehicle_type_id":"4","last_reported":1731351967,"current_range_meters":34000,"station_id":"ce4bhqp2rcd13ifvqhog","pricing_plan_id":"cebpf4jnsgd1na2vs0mg"},{"bike_id":"00f7bd09-eb18-4ae0-9231-d3b4d0bbc19e","system_id":"levelo_inurba_marseille","lat":43.28412,"lon":5.3751,"is_reserved":false,"is_disabled":false,"rental_uris":{"android":"levelo://app?vid=00f7bd09-eb18-4ae0-9231-d3b4d0bbc19e","ios":"levelo://app?vid=00f7bd09-eb18-4ae0-9231-d3b4d0bbc19e"},"vehicle_type_id":"4","last_reported":1731351967,"current_range_meters":38800,"station_id":"ce4bh412rcd13ifvqds0","pricing_plan_id":"cebpf4jnsgd1na2vs0mg"},{"bike_id":"434cce1a-9eee-4e8b-8865-499812afcbe8","system_id":"levelo_inurba_marseille","lat":43.25825,"lon":5.39434,"is_reserved":false,"is_disabled":false,"rental_uris":{"android":"levelo://app?vid=434cce1a-9eee-4e8b-8865-499812afcbe8","ios":"levelo://app?vid=434cce1a-9eee-4e8b-8865-499812afcbe8"},"vehicle_type_id":"4","last_reported":1731351967,"current_range_meters":4400,"station_id":"ce4bhip2rcd13ifvqft0","pricing_plan_id":"cebpf4jnsgd1na2vs0mg"},{"bike_id":"45cbcec8-866a-410e-ac80-4597d326b6ff","system_id":"levelo_inurba_marseille","lat":43.29035,"lon":5.38638,"is_reserved":false,"is_disabled":false,"rental_uris":{"android":"levelo://app?vid=45cbcec8-866a-410e-ac80-4597d326b6ff","ios":"levelo://app?vid=45cbcec8-866a-410e-ac80-4597d326b6ff"},"vehicle_type_id":"4","last_reported":1731351967,"current_range_meters":36000,"station_id":"ce4bh4p2rcd13ifvqe0g","pricing_plan_id":"cebpf4jnsgd1na2vs0mg"},{"bike_id":"b3e9156c-7ae6-49e2-9b82-9b89f0e3e830","system_id":"levelo_inurba_marseille","lat":43.28612,"lon":5.351,"is_reserved":false,"is_disabled":false,"rental_uris":{"android":"levelo://app?vid=b3e9156c-7ae6-49e2-9b82-9b89f0e3e830","ios":"levelo://app?vid=b3e9156c-7ae6-49e2-9b82-9b89f0e3e830"},"vehicle_type_id":"4","last_reported":1731351967,"current_range_meters":26800,"station_id":"ce4bhch2rcd13ifvqeug","pricing_plan_id":"cebpf4jnsgd1na2vs0mg"},{"bike_id":"f2bb0ef5-d968-45c3-80f1-a26a67a37856","system_id":"levelo_inurba_marseille","lat":43.2927,"lon":5.38427,"is_reserved":false,"is_disabled":false,"rental_uris":{"android":"levelo://app?vid=f2bb0ef5-d968-45c3-80f1-a26a67a37856","ios":"levelo://app?vid=f2bb0ef5-d968-45c3-80f1-a26a67a37856"},"vehicle_type_id":"4","last_reported":1731351967,"current_range_meters":25200,"station_id":"ce4bh692rcd13ifvqea0","pricing_plan_id":"cebpf4jnsgd1na2vs0mg"},{"bike_id":"121d62dd-bb92-4146-bb00-6ccc5ba0d151","system_id":"levelo_inurba_marseille","lat":43.24666,"lon":5.3817,"is_reserved":false,"is_disabled":false,"rental_uris":{"android":"levelo://app?vid=121d62dd-bb92-4146-bb00-6ccc5ba0d151","ios":"levelo://app?vid=121d62dd-bb92-4146-bb00-6ccc5ba0d151"},"vehicle_type_id":"4","last_reported":1731351967,"current_range_meters":20800,"station_id":"ce4bhih2rcd13ifvqfr0","pricing_plan_id":"cebpf4jnsgd1na2vs0mg"},{"bike_id":"c70d368e-3479-4af6-8a41-9cc8b73acc70","system_id":"levelo_inurba_marseille","lat":43.32331,"lon":5.40625,"is_reserved":false,"is_disabled":false,"rental_uris":{"android":"levelo://app?vid=c70d368e-3479-4af6-8a41-9cc8b73acc70","ios":"levelo://app?vid=c70d368e-3479-4af6-8a41-9cc8b73acc70"},"vehicle_type_id":"4","last_reported":1731351967,"current_range_meters":9600,"station_id":"ce4bhq92rcd13ifvqhjg","pricing_plan_id":"cebpf4jnsgd1na2vs0mg"},{"bike_id":"1ec31f50-d96c-47c6-9806-96f227089cd4","system_id":"levelo_inurba_marseille","lat":43.27493,"lon":5.42455,"is_reserved":false,"is_disabled":false,"rental_uris":{"android":"levelo://app?vid=1ec31f50-d96c-47c6-9806-96f227089cd4","ios":"levelo://app?vid=1ec31f50-d96c-47c6-9806-96f227089cd4"},"vehicle_type_id":"4","last_reported":1731351967,"current_range_meters":36400,"station_id":"ce4bhn92rcd13ifvqgrg","pricing_plan_id":"cebpf4jnsgd1na2vs0mg"},{"bike_id":"04a78320-ad8c-4850-8cdb-0babaaeb3325","system_id":"levelo_inurba_marseille","lat":43.31124,"lon":5.37758,"is_reserved":false,"is_disabled":false,"rental_uris":{"android":"levelo://app?vid=04a78320-ad8c-4850-8cdb-0babaaeb3325","ios":"levelo://app?vid=04a78320-ad8c-4850-8cdb-0babaaeb3325"},"vehicle_type_id":"4","last_reported":1731351967,"current_range_meters":20400,"station_id":"ce4bgt92rcd13ifvqcg0","pricing_plan_id":"cebpf4jnsgd1na2vs0mg"},{"bike_id":"c703ba82-47b7-4c1e-b785-e8dcfa156a6d","system_id":"levelo_inurba_marseille","lat":43.27986,"lon":5.3874,"is_reserved":false,"is_disabled":false,"rental_uris":{"android":"levelo://app?vid=c703ba82-47b7-4c1e-b785-e8dcfa156a6d","ios":"levelo://app?vid=c703ba82-47b7-4c1e-b785-e8dcfa156a6d"},"vehicle_type_id":"4","last_reported":1731351967,"current_range_meters":37600,"station_id":"ce4bhg12rcd13ifvqf80","pricing_plan_id":"cebpf4jnsgd1na2vs0mg"},{"bike_id":"a1641918-aae2-45fb-9db9-16929a866439","system_id":"levelo_inurba_marseille","lat":43.26781,"lon":5.39417,"is_reserved":false,"is_disabled":false,"rental_uris":{"android":"levelo://app?vid=a1641918-aae2-45fb-9db9-16929a866439","ios":"levelo://app?vid=a1641918-aae2-45fb-9db9-16929a866439"},"vehicle_type_id":"4","last_reported":1731351967,"current_range_meters":38000,"station_id":"ce4bhh12rcd13ifvqfg0","pricing_plan_id":"cebpf4jnsgd1na2vs0mg"},{"bike_id":"367225f2-982f-49ea-a1e0-eb5e37010245","system_id":"levelo_inurba_marseille","lat":43.29589,"lon":5.38099,"is_reserved":false,"is_disabled":false,"rental_uris":{"android":"levelo://app?vid=367225f2-982f-49ea-a1e0-eb5e37010245","ios":"levelo://app?vid=367225f2-982f-49ea-a1e0-eb5e37010245"},"vehicle_type_id":"4","last_reported":1731351967,"current_range_meters":10800,"station_id":"ce4bgl12rcd13ifvqbo0","pricing_plan_id":"cebpf4jnsgd1na2vs0mg"},{"bike_id":"59a307ea-acec-44f2-a4ef-7e7d74d8ed8b","system_id":"levelo_inurba_marseille","lat":43.28075,"lon":5.39663,"is_reserved":false,"is_disabled":false,"rental_uris":{"android":"levelo://app?vid=59a307ea-acec-44f2-a4ef-7e7d74d8ed8b","ios":"levelo://app?vid=59a307ea-acec-44f2-a4ef-7e7d74d8ed8b"},"vehicle_type_id":"4","last_reported":1731351967,"current_range_meters":38800,"station_id":"ce4bho12rcd13ifvqh2g","pricing_plan_id":"cebpf4jnsgd1na2vs0mg"},{"bike_id":"a5412a88-98df-46f9-9df1-ac8a95c18b7a","system_id":"levelo_inurba_marseille","lat":43.2979,"lon":5.39333,"is_reserved":false,"is_disabled":false,"rental_uris":{"android":"levelo://app?vid=a5412a88-98df-46f9-9df1-ac8a95c18b7a","ios":"levelo://app?vid=a5412a88-98df-46f9-9df1-ac8a95c18b7a"},"vehicle_type_id":"4","last_reported":1731351967,"current_range_meters":5600,"station_id":"chh1huq6cuj3fo74tm60","pricing_plan_id":"cebpf4jnsgd1na2vs0mg"},{"bike_id":"55f1a7c3-896e-434c-b890-0d70bff8f621","system_id":"levelo_inurba_marseille","lat":43.24652,"lon":5.3889,"is_reserved":false,"is_disabled":false,"rental_uris":{"android":"levelo://app?vid=55f1a7c3-896e-434c-b890-0d70bff8f621","ios":"levelo://app?vid=55f1a7c3-896e-434c-b890-0d70bff8f621"},"vehicle_type_id":"4","last_reported":1731351967,"current_range_meters":16000,"station_id":"ce4bhg12rcd13ifvqf60","pricing_plan_id":"cebpf4jnsgd1na2vs0mg"},{"bike_id":"4839c812-e2cb-432b-a0ef-e2817e346c52","system_id":"levelo_inurba_marseille","lat":43.29197,"lon":5.39316,"is_reserved":false,"is_disabled":false,"rental_uris":{"android":"levelo://app?vid=4839c812-e2cb-432b-a0ef-e2817e346c52","ios":"levelo://app?vid=4839c812-e2cb-432b-a0ef-e2817e346c52"},"vehicle_type_id":"4","last_reported":1731351967,"current_range_meters":38800,"station_id":"ce4bh192rcd13ifvqdd0","pricing_plan_id":"cebpf4jnsgd1na2vs0mg"},{"bike_id":"fa6fe35b-4bee-4b92-bff1-dbb081cc5d9e","system_id":"levelo_inurba_marseille","lat":43.27083,"lon":5.42267,"is_reserved":false,"is_disabled":false,"rental_uris":{"android":"levelo://app?vid=fa6fe35b-4bee-4b92-bff1-dbb081cc5d9e","ios":"levelo://app?vid=fa6fe35b-4bee-4b92-bff1-dbb081cc5d9e"},"vehicle_type_id":"4","last_reported":1731351967,"current_range_meters":16800,"station_id":"ce4bhk92rcd13ifvqgb0","pricing_plan_id":"cebpf4jnsgd1na2vs0mg"},{"bike_id":"471e1f62-51e4-4556-bb48-2828e393c998","system_id":"levelo_inurba_marseille","lat":43.31998,"lon":5.38155,"is_reserved":false,"is_disabled":false,"rental_uris":{"android":"levelo://app?vid=471e1f62-51e4-4556-bb48-2828e393c998","ios":"levelo://app?vid=471e1f62-51e4-4556-bb48-2828e393c998"},"vehicle_type_id":"4","last_reported":1731351967,"current_range_meters":18800,"station_id":"ce4bhr12rcd13ifvqhpg","pricing_plan_id":"cebpf4jnsgd1na2vs0mg"},{"bike_id":"559bd072-f310-4512-84b3-f8905c0e2e83","system_id":"levelo_inurba_marseille","lat":43.29198,"lon":5.393255,"is_reserved":false,"is_disabled":false,"rental_uris":{"android":"levelo://app?vid=559bd072-f310-4512-84b3-f8905c0e2e83","ios":"levelo://app?vid=559bd072-f310-4512-84b3-f8905c0e2e83"},"vehicle_type_id":"4","last_reported":1731351967,"current_range_meters":25200,"station_id":"ce4bgup2rcd13ifvqco0","pricing_plan_id":"cebpf4jnsgd1na2vs0mg"},{"bike_id":"ef931ee8-959f-4de7-baaf-760b94bf2e52","system_id":"levelo_inurba_marseille","lat":43.29359,"lon":5.37825,"is_reserved":false,"is_disabled":false,"rental_uris":{"android":"levelo://app?vid=ef931ee8-959f-4de7-baaf-760b94bf2e52","ios":"levelo://app?vid=ef931ee8-959f-4de7-baaf-760b94bf2e52"},"vehicle_type_id":"4","last_reported":1731351967,"current_range_meters":26000,"station_id":"ce4bgjh2rcd13ifvqbf0","pricing_plan_id":"cebpf4jnsgd1na2vs0mg"},{"bike_id":"3603859d-120d-4ec8-81ce-2906c962f38f","system_id":"levelo_inurba_marseille","lat":43.28008,"lon":5.40015,"is_reserved":false,"is_disabled":false,"rental_uris":{"android":"levelo://app?vid=3603859d-120d-4ec8-81ce-2906c962f38f","ios":"levelo://app?vid=3603859d-120d-4ec8-81ce-2906c962f38f"},"vehicle_type_id":"4","last_reported":1731351967,"current_range_meters":38000,"station_id":"ce4bho92rcd13ifvqh4g","pricing_plan_id":"cebpf4jnsgd1na2vs0mg"},{"bike_id":"7d4e928b-b552-481b-8981-f5e4cb2a9109","system_id":"levelo_inurba_marseille","lat":43.28106,"lon":5.37837,"is_reserved":false,"is_disabled":false,"rental_uris":{"android":"levelo://app?vid=7d4e928b-b552-481b-8981-f5e4cb2a9109","ios":"levelo://app?vid=7d4e928b-b552-481b-8981-f5e4cb2a9109"},"vehicle_type_id":"4","last_reported":1731351967,"current_range_meters":29600,"station_id":"ce4bha12rcd13ifvqee0","pricing_plan_id":"cebpf4jnsgd1na2vs0mg"},{"bike_id":"fb6f1128-2dcc-4e9f-9593-afe72622ebc9","system_id":"levelo_inurba_marseille","lat":43.29618,"lon":5.37158,"is_reserved":false,"is_disabled":false,"rental_uris":{"android":"levelo://app?vid=fb6f1128-2dcc-4e9f-9593-afe72622ebc9","ios":"levelo://app?vid=fb6f1128-2dcc-4e9f-9593-afe72622ebc9"},"vehicle_type_id":"4","last_reported":1731351967,"current_range_meters":10800,"station_id":"ce4bgnh2rcd13ifvqc0g","pricing_plan_id":"cebpf4jnsgd1na2vs0mg"},{"bike_id":"213ebe40-36f1-4662-b159-1ff1ce218bf9","system_id":"levelo_inurba_marseille","lat":43.30597,"lon":5.37228,"is_reserved":false,"is_disabled":false,"rental_uris":{"android":"levelo://app?vid=213ebe40-36f1-4662-b159-1ff1ce218bf9","ios":"levelo://app?vid=213ebe40-36f1-4662-b159-1ff1ce218bf9"},"vehicle_type_id":"4","last_reported":1731351967,"current_range_meters":37600,"station_id":"ce4bgth2rcd13ifvqch0","pricing_plan_id":"cebpf4jnsgd1na2vs0mg"},{"bike_id":"d9a23c15-de1b-409c-a1bb-c645bf0c824f","system_id":"levelo_inurba_marseille","lat":43.28678,"lon":5.3636,"is_reserved":false,"is_disabled":false,"rental_uris":{"android":"levelo://app?vid=d9a23c15-de1b-409c-a1bb-c645bf0c824f","ios":"levelo://app?vid=d9a23c15-de1b-409c-a1bb-c645bf0c824f"},"vehicle_type_id":"4","last_reported":1731351967,"current_range_meters":4000,"station_id":"ce4bhah2rcd13ifvqej0","pricing_plan_id":"cebpf4jnsgd1na2vs0mg"},{"bike_id":"ae279f89-737d-470f-9f3a-cba727395ebe","system_id":"levelo_inurba_marseille","lat":43.30095,"lon":5.39086,"is_reserved":false,"is_disabled":false,"rental_uris":{"android":"levelo://app?vid=ae279f89-737d-470f-9f3a-cba727395ebe","ios":"levelo://app?vid=ae279f89-737d-470f-9f3a-cba727395ebe"},"vehicle_type_id":"4","last_reported":1731351967,"current_range_meters":2000,"station_id":"ce4bh192rcd13ifvqdb0","pricing_plan_id":"cebpf4jnsgd1na2vs0mg"},{"bike_id":"047fda03-fe7d-4b79-a357-2b6fc387f4c3","system_id":"levelo_inurba_marseille","lat":43.31325,"lon":5.3969,"is_reserved":false,"is_disabled":false,"rental_uris":{"android":"levelo://app?vid=047fda03-fe7d-4b79-a357-2b6fc387f4c3","ios":"levelo://app?vid=047fda03-fe7d-4b79-a357-2b6fc387f4c3"},"vehicle_type_id":"4","last_reported":1731351967,"current_range_meters":25600,"station_id":"ce4bgvp2rcd13ifvqcu0","pricing_plan_id":"cebpf4jnsgd1na2vs0mg"},{"bike_id":"c976cdde-0993-47a0-9228-5a2ed120aff4","system_id":"levelo_inurba_marseille","lat":43.27556,"lon":5.38417,"is_reserved":false,"is_disabled":false,"rental_uris":{"android":"levelo://app?vid=c976cdde-0993-47a0-9228-5a2ed120aff4","ios":"levelo://app?vid=c976cdde-0993-47a0-9228-5a2ed120aff4"},"vehicle_type_id":"4","last_reported":1731351967,"current_range_meters":9200,"station_id":"ce4bhh92rcd13ifvqfi0","pricing_plan_id":"cebpf4jnsgd1na2vs0mg"},{"bike_id":"2972f759-c98e-4fe7-9758-85d215895273","system_id":"levelo_inurba_marseille","lat":43.23961,"lon":5.3662,"is_reserved":false,"is_disabled":false,"rental_uris":{"android":"levelo://app?vid=2972f759-c98e-4fe7-9758-85d215895273","ios":"levelo://app?vid=2972f759-c98e-4fe7-9758-85d215895273"},"vehicle_type_id":"4","last_reported":1731351967,"current_range_meters":29600,"station_id":"ce4bhi12rcd13ifvqfp0","pricing_plan_id":"cebpf4jnsgd1na2vs0mg"},{"bike_id":"4e51ffaf-349f-47c5-9cb4-eb6ae2f1c2b5","system_id":"levelo_inurba_marseille","lat":43.30422,"lon":5.41286,"is_reserved":false,"is_disabled":false,"rental_uris":{"android":"levelo://app?vid=4e51ffaf-349f-47c5-9cb4-eb6ae2f1c2b5","ios":"levelo://app?vid=4e51ffaf-349f-47c5-9cb4-eb6ae2f1c2b5"},"vehicle_type_id":"4","last_reported":1731351967,"current_range_meters":30400,"station_id":"ce4bhop2rcd13ifvqh8g","pricing_plan_id":"cebpf4jnsgd1na2vs0mg"},{"bike_id":"043e1f05-e86f-4895-8e35-d644ba28c570","system_id":"levelo_inurba_marseille","lat":43.28348,"lon":5.38097,"is_reserved":false,"is_disabled":false,"rental_uris":{"android":"levelo://app?vid=043e1f05-e86f-4895-8e35-d644ba28c570","ios":"levelo://app?vid=043e1f05-e86f-4895-8e35-d644ba28c570"},"vehicle_type_id":"4","last_reported":1731351967,"current_range_meters":10000,"station_id":"ce4bh412rcd13ifvqdr0","pricing_plan_id":"cebpf4jnsgd1na2vs0mg"},{"bike_id":"86977c67-0dfc-4f57-920a-757eb89a3420","system_id":"levelo_inurba_marseille","lat":43.30888,"lon":5.37182,"is_reserved":false,"is_disabled":false,"rental_uris":{"android":"levelo://app?vid=86977c67-0dfc-4f57-920a-757eb89a3420","ios":"levelo://app?vid=86977c67-0dfc-4f57-920a-757eb89a3420"},"vehicle_type_id":"4","last_reported":1731351967,"current_range_meters":8000,"station_id":"ce4bguh2rcd13ifvqckg","pricing_plan_id":"cebpf4jnsgd1na2vs0mg"},{"bike_id":"5c1f38bb-bad5-4282-9b73-762d3938bcf1","system_id":"levelo_inurba_marseille","lat":43.25115,"lon":5.40314,"is_reserved":false,"is_disabled":false,"rental_uris":{"android":"levelo://app?vid=5c1f38bb-bad5-4282-9b73-762d3938bcf1","ios":"levelo://app?vid=5c1f38bb-bad5-4282-9b73-762d3938bcf1"},"vehicle_type_id":"4","last_reported":1731351967,"current_range_meters":9600,"station_id":"ce4bhlh2rcd13ifvqgig","pricing_plan_id":"cebpf4jnsgd1na2vs0mg"},{"bike_id":"9667da3e-d9dd-4f46-a36e-53cbc8aa1c45","system_id":"levelo_inurba_marseille","lat":43.29005,"lon":5.35609,"is_reserved":false,"is_disabled":false,"rental_uris":{"android":"levelo://app?vid=9667da3e-d9dd-4f46-a36e-53cbc8aa1c45","ios":"levelo://app?vid=9667da3e-d9dd-4f46-a36e-53cbc8aa1c45"},"vehicle_type_id":"4","last_reported":1731351967,"current_range_meters":10000,"station_id":"ce4bhb92rcd13ifvqen0","pricing_plan_id":"cebpf4jnsgd1na2vs0mg"},{"bike_id":"591b98ec-b2f7-4eb7-95ba-034c7bebdbdb","system_id":"levelo_inurba_marseille","lat":43.24392,"lon":5.37059,"is_reserved":false,"is_disabled":false,"rental_uris":{"android":"levelo://app?vid=591b98ec-b2f7-4eb7-95ba-034c7bebdbdb","ios":"levelo://app?vid=591b98ec-b2f7-4eb7-95ba-034c7bebdbdb"},"vehicle_type_id":"4","last_reported":1731351967,"current_range_meters":2800,"station_id":"ce4bhhh2rcd13ifvqfk0","pricing_plan_id":"cebpf4jnsgd1na2vs0mg"},{"bike_id":"91502544-7373-49df-9bfd-277b26bd7761","system_id":"levelo_inurba_marseille","lat":43.32656,"lon":5.40997,"is_reserved":false,"is_disabled":false,"rental_uris":{"android":"levelo://app?vid=91502544-7373-49df-9bfd-277b26bd7761","ios":"levelo://app?vid=91502544-7373-49df-9bfd-277b26bd7761"},"vehicle_type_id":"4","last_reported":1731351967,"current_range_meters":24400,"station_id":"ce4bhpp2rcd13ifvqhgg","pricing_plan_id":"cebpf4jnsgd1na2vs0mg"},{"bike_id":"c4eff357-f502-4ce3-b77a-84b78657675f","system_id":"levelo_inurba_marseille","lat":43.292999,"lon":5.374582,"is_reserved":false,"is_disabled":false,"rental_uris":{"android":"levelo://app?vid=c4eff357-f502-4ce3-b77a-84b78657675f","ios":"levelo://app?vid=c4eff357-f502-4ce3-b77a-84b78657675f"},"vehicle_type_id":"4","last_reported":1731351967,"current_range_meters":6400,"station_id":"ce4bgi12rcd13ifvqb70","pricing_plan_id":"cebpf4jnsgd1na2vs0mg"},{"bike_id":"3260cc4a-31ee-4f29-b1d9-1f2c1c8e2cb4","system_id":"levelo_inurba_marseille","lat":43.25724,"lon":5.41114,"is_reserved":false,"is_disabled":false,"rental_uris":{"android":"levelo://app?vid=3260cc4a-31ee-4f29-b1d9-1f2c1c8e2cb4","ios":"levelo://app?vid=3260cc4a-31ee-4f29-b1d9-1f2c1c8e2cb4"},"vehicle_type_id":"4","last_reported":1731351967,"current_range_meters":9600,"station_id":"ce4bhkp2rcd13ifvqgd0","pricing_plan_id":"cebpf4jnsgd1na2vs0mg"},{"bike_id":"987f7718-3c7a-46f6-8c12-2d4dd2bc5fbe","system_id":"levelo_inurba_marseille","lat":43.31065,"lon":5.38354,"is_reserved":false,"is_disabled":false,"rental_uris":{"android":"levelo://app?vid=987f7718-3c7a-46f6-8c12-2d4dd2bc5fbe","ios":"levelo://app?vid=987f7718-3c7a-46f6-8c12-2d4dd2bc5fbe"},"vehicle_type_id":"4","last_reported":1731351967,"current_range_meters":14400,"station_id":"ce4bgv92rcd13ifvqcr0","pricing_plan_id":"cebpf4jnsgd1na2vs0mg"},{"bike_id":"383785a9-c67d-4d95-b2fe-b3de29c1c7b8","system_id":"levelo_inurba_marseille","lat":43.31125,"lon":5.37759,"is_reserved":false,"is_disabled":false,"rental_uris":{"android":"levelo://app?vid=383785a9-c67d-4d95-b2fe-b3de29c1c7b8","ios":"levelo://app?vid=383785a9-c67d-4d95-b2fe-b3de29c1c7b8"},"vehicle_type_id":"4","last_reported":1731351967,"current_range_meters":38800,"station_id":"ce4bgt92rcd13ifvqcg0","pricing_plan_id":"cebpf4jnsgd1na2vs0mg"},{"bike_id":"02ad33ac-76da-464f-ab6a-86bd9a5cdaf1","system_id":"levelo_inurba_marseille","lat":43.28031,"lon":5.36942,"is_reserved":false,"is_disabled":false,"rental_uris":{"android":"levelo://app?vid=02ad33ac-76da-464f-ab6a-86bd9a5cdaf1","ios":"levelo://app?vid=02ad33ac-76da-464f-ab6a-86bd9a5cdaf1"},"vehicle_type_id":"4","last_reported":1731351967,"current_range_meters":38800,"station_id":"ce4bha12rcd13ifvqef0","pricing_plan_id":"cebpf4jnsgd1na2vs0mg"},{"bike_id":"c5dc9c41-ac51-43a9-bda9-2260a79499d5","system_id":"levelo_inurba_marseille","lat":43.29195,"lon":5.39325,"is_reserved":false,"is_disabled":false,"rental_uris":{"android":"levelo://app?vid=c5dc9c41-ac51-43a9-bda9-2260a79499d5","ios":"levelo://app?vid=c5dc9c41-ac51-43a9-bda9-2260a79499d5"},"vehicle_type_id":"4","last_reported":1731351967,"current_range_meters":20800,"station_id":"ce4bh192rcd13ifvqdd0","pricing_plan_id":"cebpf4jnsgd1na2vs0mg"},{"bike_id":"9c4f8c3d-4199-41d5-ae4c-2187a1769153","system_id":"levelo_inurba_marseille","lat":43.33026,"lon":5.39037,"is_reserved":false,"is_disabled":false,"rental_uris":{"android":"levelo://app?vid=9c4f8c3d-4199-41d5-ae4c-2187a1769153","ios":"levelo://app?vid=9c4f8c3d-4199-41d5-ae4c-2187a1769153"},"vehicle_type_id":"4","last_reported":1731351967,"current_range_meters":33600,"station_id":"ce4bhr92rcd13ifvqhrg","pricing_plan_id":"cebpf4jnsgd1na2vs0mg"},{"bike_id":"4e9e58bf-f64f-4d79-bae2-59521fa3c1b2","system_id":"levelo_inurba_marseille","lat":43.25726,"lon":5.41109,"is_reserved":false,"is_disabled":false,"rental_uris":{"android":"levelo://app?vid=4e9e58bf-f64f-4d79-bae2-59521fa3c1b2","ios":"levelo://app?vid=4e9e58bf-f64f-4d79-bae2-59521fa3c1b2"},"vehicle_type_id":"4","last_reported":1731351967,"current_range_meters":2000,"station_id":"ce4bhkp2rcd13ifvqgd0","pricing_plan_id":"cebpf4jnsgd1na2vs0mg"},{"bike_id":"09b52fef-14b3-420a-ab3c-68dca18fe3a6","system_id":"levelo_inurba_marseille","lat":43.29622,"lon":5.37152,"is_reserved":false,"is_disabled":false,"rental_uris":{"android":"levelo://app?vid=09b52fef-14b3-420a-ab3c-68dca18fe3a6","ios":"levelo://app?vid=09b52fef-14b3-420a-ab3c-68dca18fe3a6"},"vehicle_type_id":"4","last_reported":1731351967,"current_range_meters":36800,"station_id":"ce4bgnh2rcd13ifvqc0g","pricing_plan_id":"cebpf4jnsgd1na2vs0mg"},{"bike_id":"f5f7adb1-08a0-41e5-84f8-4eacbb87fa6f","system_id":"levelo_inurba_marseille","lat":43.23966,"lon":5.36628,"is_reserved":false,"is_disabled":false,"rental_uris":{"android":"levelo://app?vid=f5f7adb1-08a0-41e5-84f8-4eacbb87fa6f","ios":"levelo://app?vid=f5f7adb1-08a0-41e5-84f8-4eacbb87fa6f"},"vehicle_type_id":"4","last_reported":1731351967,"current_range_meters":37600,"station_id":"ce4bhi12rcd13ifvqfp0","pricing_plan_id":"cebpf4jnsgd1na2vs0mg"},{"bike_id":"cd3763b4-c6c9-439a-8c88-6b6d78464d6e","system_id":"levelo_inurba_marseille","lat":43.337444,"lon":5.374475,"is_reserved":false,"is_disabled":false,"rental_uris":{"android":"levelo://app?vid=cd3763b4-c6c9-439a-8c88-6b6d78464d6e","ios":"levelo://app?vid=cd3763b4-c6c9-439a-8c88-6b6d78464d6e"},"vehicle_type_id":"4","last_reported":1731351967,"current_range_meters":35600,"station_id":"","pricing_plan_id":"cebpf4jnsgd1na2vs0mg"},{"bike_id":"a64e486f-ab51-45e7-ae26-9bf3a4451217","system_id":"levelo_inurba_marseille","lat":43.32001,"lon":5.38161,"is_reserved":false,"is_disabled":false,"rental_uris":{"android":"levelo://app?vid=a64e486f-ab51-45e7-ae26-9bf3a4451217","ios":"levelo://app?vid=a64e486f-ab51-45e7-ae26-9bf3a4451217"},"vehicle_type_id":"4","last_reported":1731351967,"current_range_meters":38400,"station_id":"ce4bhr12rcd13ifvqhpg","pricing_plan_id":"cebpf4jnsgd1na2vs0mg"},{"bike_id":"0f9d1579-d7e2-4dee-be70-5c81a3c273c3","system_id":"levelo_inurba_marseille","lat":43.29874,"lon":5.38905,"is_reserved":false,"is_disabled":false,"rental_uris":{"android":"levelo://app?vid=0f9d1579-d7e2-4dee-be70-5c81a3c273c3","ios":"levelo://app?vid=0f9d1579-d7e2-4dee-be70-5c81a3c273c3"},"vehicle_type_id":"4","last_reported":1731351967,"current_range_meters":6000,"station_id":"ce4bh392rcd13ifvqdl0","pricing_plan_id":"cebpf4jnsgd1na2vs0mg"},{"bike_id":"ec0d5b65-e62a-413b-9197-414b4915261c","system_id":"levelo_inurba_marseille","lat":43.26806,"lon":5.40269,"is_reserved":false,"is_disabled":false,"rental_uris":{"android":"levelo://app?vid=ec0d5b65-e62a-413b-9197-414b4915261c","ios":"levelo://app?vid=ec0d5b65-e62a-413b-9197-414b4915261c"},"vehicle_type_id":"4","last_reported":1731351967,"current_range_meters":22400,"station_id":"ce501612rcd8frsf0b60","pricing_plan_id":"cebpf4jnsgd1na2vs0mg"},{"bike_id":"453dc6b0-f2d0-4daa-aab9-663747a21ebe","system_id":"levelo_inurba_marseille","lat":43.3414,"lon":5.40905,"is_reserved":false,"is_disabled":false,"rental_uris":{"android":"levelo://app?vid=453dc6b0-f2d0-4daa-aab9-663747a21ebe","ios":"levelo://app?vid=453dc6b0-f2d0-4daa-aab9-663747a21ebe"},"vehicle_type_id":"4","last_reported":1731351967,"current_range_meters":37600,"station_id":"ce4bhqh2rcd13ifvqhlg","pricing_plan_id":"cebpf4jnsgd1na2vs0mg"},{"bike_id":"9ea03112-e3ff-41ed-9b61-7472236d0c14","system_id":"levelo_inurba_marseille","lat":43.29972,"lon":5.37174,"is_reserved":false,"is_disabled":false,"rental_uris":{"android":"levelo://app?vid=9ea03112-e3ff-41ed-9b61-7472236d0c14","ios":"levelo://app?vid=9ea03112-e3ff-41ed-9b61-7472236d0c14"},"vehicle_type_id":"4","last_reported":1731351967,"current_range_meters":33600,"station_id":"ce4bgr92rcd13ifvqc7g","pricing_plan_id":"cebpf4jnsgd1na2vs0mg"},{"bike_id":"2f291f54-e03f-4144-a0dc-af97991b25e0","system_id":"levelo_inurba_marseille","lat":43.30242,"lon":5.40038,"is_reserved":false,"is_disabled":false,"rental_uris":{"android":"levelo://app?vid=2f291f54-e03f-4144-a0dc-af97991b25e0","ios":"levelo://app?vid=2f291f54-e03f-4144-a0dc-af97991b25e0"},"vehicle_type_id":"4","last_reported":1731351967,"current_range_meters":37600,"station_id":"ce4bgvh2rcd13ifvqcs0","pricing_plan_id":"cebpf4jnsgd1na2vs0mg"},{"bike_id":"00df0da5-e326-4e92-bd9c-a0b3df25d56d","system_id":"levelo_inurba_marseille","lat":43.28403,"lon":5.37516,"is_reserved":false,"is_disabled":false,"rental_uris":{"android":"levelo://app?vid=00df0da5-e326-4e92-bd9c-a0b3df25d56d","ios":"levelo://app?vid=00df0da5-e326-4e92-bd9c-a0b3df25d56d"},"vehicle_type_id":"4","last_reported":1731351967,"current_range_meters":14400,"station_id":"ce4bh412rcd13ifvqds0","pricing_plan_id":"cebpf4jnsgd1na2vs0mg"},{"bike_id":"de8f8a52-83a3-48e0-ab76-d5a5ed7cfd7b","system_id":"levelo_inurba_marseille","lat":43.29029,"lon":5.37557,"is_reserved":false,"is_disabled":false,"rental_uris":{"android":"levelo://app?vid=de8f8a52-83a3-48e0-ab76-d5a5ed7cfd7b","ios":"levelo://app?vid=de8f8a52-83a3-48e0-ab76-d5a5ed7cfd7b"},"vehicle_type_id":"4","last_reported":1731351967,"current_range_meters":38800,"station_id":"ce4bh692rcd13ifvqe90","pricing_plan_id":"cebpf4jnsgd1na2vs0mg"},{"bike_id":"da582da9-2b00-47c0-a184-639f15460a80","system_id":"levelo_inurba_marseille","lat":43.29032,"lon":5.38654,"is_reserved":false,"is_disabled":false,"rental_uris":{"android":"levelo://app?vid=da582da9-2b00-47c0-a184-639f15460a80","ios":"levelo://app?vid=da582da9-2b00-47c0-a184-639f15460a80"},"vehicle_type_id":"4","last_reported":1731351967,"current_range_meters":38800,"station_id":"ce4bh4p2rcd13ifvqe0g","pricing_plan_id":"cebpf4jnsgd1na2vs0mg"},{"bike_id":"1bc1cdec-a36d-4afc-9c5f-86119b712618","system_id":"levelo_inurba_marseille","lat":43.29269,"lon":5.38434,"is_reserved":false,"is_disabled":false,"rental_uris":{"android":"levelo://app?vid=1bc1cdec-a36d-4afc-9c5f-86119b712618","ios":"levelo://app?vid=1bc1cdec-a36d-4afc-9c5f-86119b712618"},"vehicle_type_id":"4","last_reported":1731351967,"current_range_meters":24800,"station_id":"ce4bh692rcd13ifvqea0","pricing_plan_id":"cebpf4jnsgd1na2vs0mg"},{"bike_id":"c41ab3d2-6e03-44fc-a5f5-a6ca987fde04","system_id":"levelo_inurba_marseille","lat":43.28855,"lon":5.35848,"is_reserved":false,"is_disabled":false,"rental_uris":{"android":"levelo://app?vid=c41ab3d2-6e03-44fc-a5f5-a6ca987fde04","ios":"levelo://app?vid=c41ab3d2-6e03-44fc-a5f5-a6ca987fde04"},"vehicle_type_id":"4","last_reported":1731351967,"current_range_meters":38800,"station_id":"ce4bhb12rcd13ifvqem0","pricing_plan_id":"cebpf4jnsgd1na2vs0mg"},{"bike_id":"5847243e-3d84-47dc-98d1-c8e94c4067b9","system_id":"levelo_inurba_marseille","lat":43.27561,"lon":5.38416,"is_reserved":false,"is_disabled":false,"rental_uris":{"android":"levelo://app?vid=5847243e-3d84-47dc-98d1-c8e94c4067b9","ios":"levelo://app?vid=5847243e-3d84-47dc-98d1-c8e94c4067b9"},"vehicle_type_id":"4","last_reported":1731351967,"current_range_meters":38800,"station_id":"ce4bhh92rcd13ifvqfi0","pricing_plan_id":"cebpf4jnsgd1na2vs0mg"},{"bike_id":"63add468-333e-4d73-a81c-e35f40275632","system_id":"levelo_inurba_marseille","lat":43.28412,"lon":5.375,"is_reserved":false,"is_disabled":false,"rental_uris":{"android":"levelo://app?vid=63add468-333e-4d73-a81c-e35f40275632","ios":"levelo://app?vid=63add468-333e-4d73-a81c-e35f40275632"},"vehicle_type_id":"4","last_reported":1731351967,"current_range_meters":38800,"station_id":"ce4bh412rcd13ifvqds0","pricing_plan_id":"cebpf4jnsgd1na2vs0mg"},{"bike_id":"fa72b5cb-5c09-4c3c-a958-319a657ce2d3","system_id":"levelo_inurba_marseille","lat":43.3169,"lon":5.40473,"is_reserved":false,"is_disabled":false,"rental_uris":{"android":"levelo://app?vid=fa72b5cb-5c09-4c3c-a958-319a657ce2d3","ios":"levelo://app?vid=fa72b5cb-5c09-4c3c-a958-319a657ce2d3"},"vehicle_type_id":"4","last_reported":1731351967,"current_range_meters":37600,"station_id":"ce4bh012rcd13ifvqd00","pricing_plan_id":"cebpf4jnsgd1na2vs0mg"},{"bike_id":"22a2914a-6d99-4b9f-a055-86e657c3c38f","system_id":"levelo_inurba_marseille","lat":43.31994,"lon":5.38153,"is_reserved":false,"is_disabled":false,"rental_uris":{"android":"levelo://app?vid=22a2914a-6d99-4b9f-a055-86e657c3c38f","ios":"levelo://app?vid=22a2914a-6d99-4b9f-a055-86e657c3c38f"},"vehicle_type_id":"4","last_reported":1731351967,"current_range_meters":8000,"station_id":"ce4bhr12rcd13ifvqhpg","pricing_plan_id":"cebpf4jnsgd1na2vs0mg"},{"bike_id":"1d75d4ce-da07-47a0-83ad-027ef32b7b53","system_id":"levelo_inurba_marseille","lat":43.27413,"lon":5.3895,"is_reserved":false,"is_disabled":false,"rental_uris":{"android":"levelo://app?vid=1d75d4ce-da07-47a0-83ad-027ef32b7b53","ios":"levelo://app?vid=1d75d4ce-da07-47a0-83ad-027ef32b7b53"},"vehicle_type_id":"4","last_reported":1731351967,"current_range_meters":20000,"station_id":"","pricing_plan_id":"cebpf4jnsgd1na2vs0mg"},{"bike_id":"4b030070-7462-4bf2-bebf-0530c956675b","system_id":"levelo_inurba_marseille","lat":43.29252,"lon":5.38433,"is_reserved":false,"is_disabled":false,"rental_uris":{"android":"levelo://app?vid=4b030070-7462-4bf2-bebf-0530c956675b","ios":"levelo://app?vid=4b030070-7462-4bf2-bebf-0530c956675b"},"vehicle_type_id":"4","last_reported":1731351967,"current_range_meters":9600,"station_id":"ce4bh692rcd13ifvqea0","pricing_plan_id":"cebpf4jnsgd1na2vs0mg"},{"bike_id":"29ebb781-7a43-461f-90ee-9c81dae14e79","system_id":"levelo_inurba_marseille","lat":43.31361,"lon":5.38481,"is_reserved":false,"is_disabled":false,"rental_uris":{"android":"levelo://app?vid=29ebb781-7a43-461f-90ee-9c81dae14e79","ios":"levelo://app?vid=29ebb781-7a43-461f-90ee-9c81dae14e79"},"vehicle_type_id":"4","last_reported":1731351967,"current_range_meters":29600,"station_id":"ce4bgt92rcd13ifvqcf0","pricing_plan_id":"cebpf4jnsgd1na2vs0mg"},{"bike_id":"faa62358-1a10-4de5-b65a-29c8e6988d2f","system_id":"levelo_inurba_marseille","lat":43.28369,"lon":5.38625,"is_reserved":false,"is_disabled":false,"rental_uris":{"android":"levelo://app?vid=faa62358-1a10-4de5-b65a-29c8e6988d2f","ios":"levelo://app?vid=faa62358-1a10-4de5-b65a-29c8e6988d2f"},"vehicle_type_id":"4","last_reported":1731351967,"current_range_meters":39200,"station_id":"ce4bh492rcd13ifvqdvg","pricing_plan_id":"cebpf4jnsgd1na2vs0mg"},{"bike_id":"5877dc46-bdba-4ea8-8494-170b565f2cde","system_id":"levelo_inurba_marseille","lat":43.30308,"lon":5.39207,"is_reserved":false,"is_disabled":false,"rental_uris":{"android":"levelo://app?vid=5877dc46-bdba-4ea8-8494-170b565f2cde","ios":"levelo://app?vid=5877dc46-bdba-4ea8-8494-170b565f2cde"},"vehicle_type_id":"4","last_reported":1731351967,"current_range_meters":39200,"station_id":"ce4bgkh2rcd13ifvqbk0","pricing_plan_id":"cebpf4jnsgd1na2vs0mg"},{"bike_id":"58619a3d-722c-4d96-a931-d2f898b47aef","system_id":"levelo_inurba_marseille","lat":43.28658,"lon":5.38661,"is_reserved":false,"is_disabled":false,"rental_uris":{"android":"levelo://app?vid=58619a3d-722c-4d96-a931-d2f898b47aef","ios":"levelo://app?vid=58619a3d-722c-4d96-a931-d2f898b47aef"},"vehicle_type_id":"4","last_reported":1731351967,"current_range_meters":34000,"station_id":"ce4bh492rcd13ifvqdug","pricing_plan_id":"cebpf4jnsgd1na2vs0mg"},{"bike_id":"b30b0191-dd94-48bc-bc45-cd3cc8fab956","system_id":"levelo_inurba_marseille","lat":43.24653,"lon":5.38896,"is_reserved":false,"is_disabled":false,"rental_uris":{"android":"levelo://app?vid=b30b0191-dd94-48bc-bc45-cd3cc8fab956","ios":"levelo://app?vid=b30b0191-dd94-48bc-bc45-cd3cc8fab956"},"vehicle_type_id":"4","last_reported":1731351967,"current_range_meters":24000,"station_id":"ce4bhg12rcd13ifvqf60","pricing_plan_id":"cebpf4jnsgd1na2vs0mg"},{"bike_id":"1335ed3a-9d45-429f-9ab0-128debef84ee","system_id":"levelo_inurba_marseille","lat":43.32497,"lon":5.36565,"is_reserved":false,"is_disabled":false,"rental_uris":{"android":"levelo://app?vid=1335ed3a-9d45-429f-9ab0-128debef84ee","ios":"levelo://app?vid=1335ed3a-9d45-429f-9ab0-128debef84ee"},"vehicle_type_id":"4","last_reported":1731351967,"current_range_meters":36800,"station_id":"ce4bhs12rcd13ifvqhvg","pricing_plan_id":"cebpf4jnsgd1na2vs0mg"},{"bike_id":"8cdd11b4-168a-41ea-9f71-35de459a706a","system_id":"levelo_inurba_marseille","lat":43.2922,"lon":5.39334,"is_reserved":false,"is_disabled":false,"rental_uris":{"android":"levelo://app?vid=8cdd11b4-168a-41ea-9f71-35de459a706a","ios":"levelo://app?vid=8cdd11b4-168a-41ea-9f71-35de459a706a"},"vehicle_type_id":"4","last_reported":1731351967,"current_range_meters":34800,"station_id":"ce4bh192rcd13ifvqdd0","pricing_plan_id":"cebpf4jnsgd1na2vs0mg"},{"bike_id":"8ee68b47-21a8-43fc-980a-6b60482d41fe","system_id":"levelo_inurba_marseille","lat":43.257083,"lon":5.410578,"is_reserved":false,"is_disabled":false,"rental_uris":{"android":"levelo://app?vid=8ee68b47-21a8-43fc-980a-6b60482d41fe","ios":"levelo://app?vid=8ee68b47-21a8-43fc-980a-6b60482d41fe"},"vehicle_type_id":"4","last_reported":1731351967,"current_range_meters":14000,"station_id":"ce4bhkp2rcd13ifvqgd0","pricing_plan_id":"cebpf4jnsgd1na2vs0mg"},{"bike_id":"c4deb4cc-b275-4266-9b30-a0a2f4b844b9","system_id":"levelo_inurba_marseille","lat":43.31171,"lon":5.38731,"is_reserved":false,"is_disabled":false,"rental_uris":{"android":"levelo://app?vid=c4deb4cc-b275-4266-9b30-a0a2f4b844b9","ios":"levelo://app?vid=c4deb4cc-b275-4266-9b30-a0a2f4b844b9"},"vehicle_type_id":"4","last_reported":1731351967,"current_range_meters":36400,"station_id":"ce4bgv12rcd13ifvqcp0","pricing_plan_id":"cebpf4jnsgd1na2vs0mg"},{"bike_id":"784616cb-3dcc-4a17-ae25-f5786a0d223a","system_id":"levelo_inurba_marseille","lat":43.337444,"lon":5.374475,"is_reserved":false,"is_disabled":false,"rental_uris":{"android":"levelo://app?vid=784616cb-3dcc-4a17-ae25-f5786a0d223a","ios":"levelo://app?vid=784616cb-3dcc-4a17-ae25-f5786a0d223a"},"vehicle_type_id":"4","last_reported":1731351967,"current_range_meters":36000,"station_id":"","pricing_plan_id":"cebpf4jnsgd1na2vs0mg"},{"bike_id":"a981cddb-35b3-4b69-a3bf-cfde7e96370a","system_id":"levelo_inurba_marseille","lat":43.246378,"lon":5.416683,"is_reserved":false,"is_disabled":false,"rental_uris":{"android":"levelo://app?vid=a981cddb-35b3-4b69-a3bf-cfde7e96370a","ios":"levelo://app?vid=a981cddb-35b3-4b69-a3bf-cfde7e96370a"},"vehicle_type_id":"4","last_reported":1731351967,"current_range_meters":5600,"station_id":"ce4bhmp2rcd13ifvqgog","pricing_plan_id":"cebpf4jnsgd1na2vs0mg"},{"bike_id":"38494b26-732c-4693-af81-a3cf4c4e1902","system_id":"levelo_inurba_marseille","lat":43.31368,"lon":5.37446,"is_reserved":false,"is_disabled":false,"rental_uris":{"android":"levelo://app?vid=38494b26-732c-4693-af81-a3cf4c4e1902","ios":"levelo://app?vid=38494b26-732c-4693-af81-a3cf4c4e1902"},"vehicle_type_id":"4","last_reported":1731351967,"current_range_meters":12400,"station_id":"","pricing_plan_id":"cebpf4jnsgd1na2vs0mg"},{"bike_id":"d0e9ba6a-6659-4c5f-bec5-6165b7b3dd0f","system_id":"levelo_inurba_marseille","lat":43.26213,"lon":5.3744,"is_reserved":false,"is_disabled":false,"rental_uris":{"android":"levelo://app?vid=d0e9ba6a-6659-4c5f-bec5-6165b7b3dd0f","ios":"levelo://app?vid=d0e9ba6a-6659-4c5f-bec5-6165b7b3dd0f"},"vehicle_type_id":"4","last_reported":1731351967,"current_range_meters":33600,"station_id":"ce4bhgp2rcd13ifvqfc0","pricing_plan_id":"cebpf4jnsgd1na2vs0mg"},{"bike_id":"149a25e1-de66-4227-a304-696a821a4039","system_id":"levelo_inurba_marseille","lat":43.29026,"lon":5.37559,"is_reserved":false,"is_disabled":false,"rental_uris":{"android":"levelo://app?vid=149a25e1-de66-4227-a304-696a821a4039","ios":"levelo://app?vid=149a25e1-de66-4227-a304-696a821a4039"},"vehicle_type_id":"4","last_reported":1731351967,"current_range_meters":39200,"station_id":"ce4bh692rcd13ifvqe90","pricing_plan_id":"cebpf4jnsgd1na2vs0mg"},{"bike_id":"181fa628-fd06-4339-88f4-5d411c857699","system_id":"levelo_inurba_marseille","lat":43.27065,"lon":5.42281,"is_reserved":false,"is_disabled":false,"rental_uris":{"android":"levelo://app?vid=181fa628-fd06-4339-88f4-5d411c857699","ios":"levelo://app?vid=181fa628-fd06-4339-88f4-5d411c857699"},"vehicle_type_id":"4","last_reported":1731351967,"current_range_meters":36000,"station_id":"ce4bhk92rcd13ifvqgb0","pricing_plan_id":"cebpf4jnsgd1na2vs0mg"},{"bike_id":"f78d5976-a055-4d0c-afdb-4cc2a4b79214","system_id":"levelo_inurba_marseille","lat":43.31175,"lon":5.38717,"is_reserved":false,"is_disabled":false,"rental_uris":{"android":"levelo://app?vid=f78d5976-a055-4d0c-afdb-4cc2a4b79214","ios":"levelo://app?vid=f78d5976-a055-4d0c-afdb-4cc2a4b79214"},"vehicle_type_id":"4","last_reported":1731351967,"current_range_meters":30000,"station_id":"ce4bgv12rcd13ifvqcp0","pricing_plan_id":"cebpf4jnsgd1na2vs0mg"},{"bike_id":"76bd189f-a827-4105-a5be-41bea64f18ba","system_id":"levelo_inurba_marseille","lat":43.27995,"lon":5.41661,"is_reserved":false,"is_disabled":false,"rental_uris":{"android":"levelo://app?vid=76bd189f-a827-4105-a5be-41bea64f18ba","ios":"levelo://app?vid=76bd189f-a827-4105-a5be-41bea64f18ba"},"vehicle_type_id":"4","last_reported":1731351967,"current_range_meters":31200,"station_id":"ce4bho12rcd13ifvqh1g","pricing_plan_id":"cebpf4jnsgd1na2vs0mg"},{"bike_id":"7850f28b-9f96-4505-b836-dc09cdad1c29","system_id":"levelo_inurba_marseille","lat":43.28923,"lon":5.38372,"is_reserved":false,"is_disabled":false,"rental_uris":{"android":"levelo://app?vid=7850f28b-9f96-4505-b836-dc09cdad1c29","ios":"levelo://app?vid=7850f28b-9f96-4505-b836-dc09cdad1c29"},"vehicle_type_id":"4","last_reported":1731351967,"current_range_meters":22400,"station_id":"ce4bh612rcd13ifvqe6g","pricing_plan_id":"cebpf4jnsgd1na2vs0mg"},{"bike_id":"8046cf83-800a-4fbc-ad87-b439893e0919","system_id":"levelo_inurba_marseille","lat":43.291962,"lon":5.393229,"is_reserved":false,"is_disabled":false,"rental_uris":{"android":"levelo://app?vid=8046cf83-800a-4fbc-ad87-b439893e0919","ios":"levelo://app?vid=8046cf83-800a-4fbc-ad87-b439893e0919"},"vehicle_type_id":"4","last_reported":1731351967,"current_range_meters":19600,"station_id":"ce4bh192rcd13ifvqdd0","pricing_plan_id":"cebpf4jnsgd1na2vs0mg"},{"bike_id":"38befafa-005a-48da-b8a2-6e79b9913cfd","system_id":"levelo_inurba_marseille","lat":43.30431,"lon":5.4255,"is_reserved":false,"is_disabled":false,"rental_uris":{"android":"levelo://app?vid=38befafa-005a-48da-b8a2-6e79b9913cfd","ios":"levelo://app?vid=38befafa-005a-48da-b8a2-6e79b9913cfd"},"vehicle_type_id":"4","last_reported":1731351967,"current_range_meters":6000,"station_id":"","pricing_plan_id":"cebpf4jnsgd1na2vs0mg"},{"bike_id":"941ea951-b8b2-41e8-9dc6-73721a59ab36","system_id":"levelo_inurba_marseille","lat":43.28079,"lon":5.39658,"is_reserved":false,"is_disabled":false,"rental_uris":{"android":"levelo://app?vid=941ea951-b8b2-41e8-9dc6-73721a59ab36","ios":"levelo://app?vid=941ea951-b8b2-41e8-9dc6-73721a59ab36"},"vehicle_type_id":"4","last_reported":1731351967,"current_range_meters":17600,"station_id":"ce4bho12rcd13ifvqh2g","pricing_plan_id":"cebpf4jnsgd1na2vs0mg"},{"bike_id":"0ff30c97-d032-4bd2-b806-0ba1b23f1458","system_id":"levelo_inurba_marseille","lat":43.29898,"lon":5.43667,"is_reserved":false,"is_disabled":false,"rental_uris":{"android":"levelo://app?vid=0ff30c97-d032-4bd2-b806-0ba1b23f1458","ios":"levelo://app?vid=0ff30c97-d032-4bd2-b806-0ba1b23f1458"},"vehicle_type_id":"4","last_reported":1731351967,"current_range_meters":38800,"station_id":"ce4bhpp2rcd13ifvqhfg","pricing_plan_id":"cebpf4jnsgd1na2vs0mg"},{"bike_id":"647db640-e6dc-4daa-9749-1b2ec76d71b3","system_id":"levelo_inurba_marseille","lat":43.27069,"lon":5.42278,"is_reserved":false,"is_disabled":false,"rental_uris":{"android":"levelo://app?vid=647db640-e6dc-4daa-9749-1b2ec76d71b3","ios":"levelo://app?vid=647db640-e6dc-4daa-9749-1b2ec76d71b3"},"vehicle_type_id":"4","last_reported":1731351967,"current_range_meters":13600,"station_id":"ce4bhk92rcd13ifvqgb0","pricing_plan_id":"cebpf4jnsgd1na2vs0mg"},{"bike_id":"3c1cdd4f-c4b1-4df5-96c5-2df84a5937fb","system_id":"levelo_inurba_marseille","lat":43.29535,"lon":5.38547,"is_reserved":false,"is_disabled":false,"rental_uris":{"android":"levelo://app?vid=3c1cdd4f-c4b1-4df5-96c5-2df84a5937fb","ios":"levelo://app?vid=3c1cdd4f-c4b1-4df5-96c5-2df84a5937fb"},"vehicle_type_id":"4","last_reported":1731351967,"current_range_meters":8400,"station_id":"ce4bgih2rcd13ifvqba0","pricing_plan_id":"cebpf4jnsgd1na2vs0mg"},{"bike_id":"fc01d943-4616-4d37-8e17-5947c751d06c","system_id":"levelo_inurba_marseille","lat":43.28102,"lon":5.37837,"is_reserved":false,"is_disabled":false,"rental_uris":{"android":"levelo://app?vid=fc01d943-4616-4d37-8e17-5947c751d06c","ios":"levelo://app?vid=fc01d943-4616-4d37-8e17-5947c751d06c"},"vehicle_type_id":"4","last_reported":1731351967,"current_range_meters":30800,"station_id":"ce4bha12rcd13ifvqee0","pricing_plan_id":"cebpf4jnsgd1na2vs0mg"},{"bike_id":"6e7edb60-78e3-46d3-81b0-56489f199812","system_id":"levelo_inurba_marseille","lat":43.2805,"lon":5.36955,"is_reserved":false,"is_disabled":false,"rental_uris":{"android":"levelo://app?vid=6e7edb60-78e3-46d3-81b0-56489f199812","ios":"levelo://app?vid=6e7edb60-78e3-46d3-81b0-56489f199812"},"vehicle_type_id":"4","last_reported":1731351967,"current_range_meters":38400,"station_id":"ce4bha12rcd13ifvqef0","pricing_plan_id":"cebpf4jnsgd1na2vs0mg"},{"bike_id":"7d250d0a-c6fc-4d65-82f7-a1a00a43422b","system_id":"levelo_inurba_marseille","lat":43.30423,"lon":5.39752,"is_reserved":false,"is_disabled":false,"rental_uris":{"android":"levelo://app?vid=7d250d0a-c6fc-4d65-82f7-a1a00a43422b","ios":"levelo://app?vid=7d250d0a-c6fc-4d65-82f7-a1a00a43422b"},"vehicle_type_id":"4","last_reported":1731351967,"current_range_meters":35600,"station_id":"ce4bh092rcd13ifvqd20","pricing_plan_id":"cebpf4jnsgd1na2vs0mg"},{"bike_id":"3e50a673-a70a-4e99-8474-4a8234c1885d","system_id":"levelo_inurba_marseille","lat":43.31273,"lon":5.40169,"is_reserved":false,"is_disabled":false,"rental_uris":{"android":"levelo://app?vid=3e50a673-a70a-4e99-8474-4a8234c1885d","ios":"levelo://app?vid=3e50a673-a70a-4e99-8474-4a8234c1885d"},"vehicle_type_id":"4","last_reported":1731351967,"current_range_meters":10000,"station_id":"ce4bh092rcd13ifvqd30","pricing_plan_id":"cebpf4jnsgd1na2vs0mg"},{"bike_id":"ca470591-2acf-4dcf-8a9b-56688197c9a2","system_id":"levelo_inurba_marseille","lat":43.28661,"lon":5.36353,"is_reserved":false,"is_disabled":false,"rental_uris":{"android":"levelo://app?vid=ca470591-2acf-4dcf-8a9b-56688197c9a2","ios":"levelo://app?vid=ca470591-2acf-4dcf-8a9b-56688197c9a2"},"vehicle_type_id":"4","last_reported":1731351967,"current_range_meters":35600,"station_id":"ce4bhah2rcd13ifvqej0","pricing_plan_id":"cebpf4jnsgd1na2vs0mg"},{"bike_id":"a875991b-6091-43df-8026-3e7fab422ca5","system_id":"levelo_inurba_marseille","lat":43.31266,"lon":5.40165,"is_reserved":false,"is_disabled":false,"rental_uris":{"android":"levelo://app?vid=a875991b-6091-43df-8026-3e7fab422ca5","ios":"levelo://app?vid=a875991b-6091-43df-8026-3e7fab422ca5"},"vehicle_type_id":"4","last_reported":1731351967,"current_range_meters":38800,"station_id":"ce4bh092rcd13ifvqd30","pricing_plan_id":"cebpf4jnsgd1na2vs0mg"},{"bike_id":"93a14ad8-918f-46b2-9e2d-8501e389861e","system_id":"levelo_inurba_marseille","lat":43.31269,"lon":5.40163,"is_reserved":false,"is_disabled":false,"rental_uris":{"android":"levelo://app?vid=93a14ad8-918f-46b2-9e2d-8501e389861e","ios":"levelo://app?vid=93a14ad8-918f-46b2-9e2d-8501e389861e"},"vehicle_type_id":"4","last_reported":1731351967,"current_range_meters":35200,"station_id":"ce4bh092rcd13ifvqd30","pricing_plan_id":"cebpf4jnsgd1na2vs0mg"},{"bike_id":"fb832c4f-3624-48e6-a89f-949dba4f7d94","system_id":"levelo_inurba_marseille","lat":43.29207,"lon":5.39349,"is_reserved":false,"is_disabled":false,"rental_uris":{"android":"levelo://app?vid=fb832c4f-3624-48e6-a89f-949dba4f7d94","ios":"levelo://app?vid=fb832c4f-3624-48e6-a89f-949dba4f7d94"},"vehicle_type_id":"4","last_reported":1731351967,"current_range_meters":20400,"station_id":"ce4bh192rcd13ifvqdd0","pricing_plan_id":"cebpf4jnsgd1na2vs0mg"},{"bike_id":"aa3d8cef-4f42-43db-a53b-34012abaac8b","system_id":"levelo_inurba_marseille","lat":43.31316,"lon":5.39692,"is_reserved":false,"is_disabled":false,"rental_uris":{"android":"levelo://app?vid=aa3d8cef-4f42-43db-a53b-34012abaac8b","ios":"levelo://app?vid=aa3d8cef-4f42-43db-a53b-34012abaac8b"},"vehicle_type_id":"4","last_reported":1731351967,"current_range_meters":8000,"station_id":"ce4bgvp2rcd13ifvqcu0","pricing_plan_id":"cebpf4jnsgd1na2vs0mg"},{"bike_id":"b4b5ff53-1d49-415e-911e-46d96627e14b","system_id":"levelo_inurba_marseille","lat":43.23175,"lon":5.3999,"is_reserved":false,"is_disabled":false,"rental_uris":{"android":"levelo://app?vid=b4b5ff53-1d49-415e-911e-46d96627e14b","ios":"levelo://app?vid=b4b5ff53-1d49-415e-911e-46d96627e14b"},"vehicle_type_id":"4","last_reported":1731351967,"current_range_meters":16000,"station_id":"ce4bhn12rcd13ifvqgqg","pricing_plan_id":"cebpf4jnsgd1na2vs0mg"},{"bike_id":"0389f6ba-9b11-4bae-aa59-6c887bee55e5","system_id":"levelo_inurba_marseille","lat":43.322033,"lon":5.387085,"is_reserved":false,"is_disabled":false,"rental_uris":{"android":"levelo://app?vid=0389f6ba-9b11-4bae-aa59-6c887bee55e5","ios":"levelo://app?vid=0389f6ba-9b11-4bae-aa59-6c887bee55e5"},"vehicle_type_id":"4","last_reported":1731351967,"current_range_meters":29600,"station_id":"","pricing_plan_id":"cebpf4jnsgd1na2vs0mg"},{"bike_id":"835fa522-c4fa-49b1-9060-16512c31e15b","system_id":"levelo_inurba_marseille","lat":43.27169,"lon":5.40993,"is_reserved":false,"is_disabled":false,"rental_uris":{"android":"levelo://app?vid=835fa522-c4fa-49b1-9060-16512c31e15b","ios":"levelo://app?vid=835fa522-c4fa-49b1-9060-16512c31e15b"},"vehicle_type_id":"4","last_reported":1731351967,"current_range_meters":8400,"station_id":"ce4bhl12rcd13ifvqgf0","pricing_plan_id":"cebpf4jnsgd1na2vs0mg"},{"bike_id":"ebcde1de-8525-485a-b73b-444959bdcd1a","system_id":"levelo_inurba_marseille","lat":43.2903,"lon":5.38622,"is_reserved":false,"is_disabled":false,"rental_uris":{"android":"levelo://app?vid=ebcde1de-8525-485a-b73b-444959bdcd1a","ios":"levelo://app?vid=ebcde1de-8525-485a-b73b-444959bdcd1a"},"vehicle_type_id":"4","last_reported":1731351967,"current_range_meters":5600,"station_id":"ce4bh4p2rcd13ifvqe0g","pricing_plan_id":"cebpf4jnsgd1na2vs0mg"},{"bike_id":"7b15861c-1755-434b-a895-3ed885d417ff","system_id":"levelo_inurba_marseille","lat":43.33612,"lon":5.41034,"is_reserved":false,"is_disabled":false,"rental_uris":{"android":"levelo://app?vid=7b15861c-1755-434b-a895-3ed885d417ff","ios":"levelo://app?vid=7b15861c-1755-434b-a895-3ed885d417ff"},"vehicle_type_id":"4","last_reported":1731351967,"current_range_meters":12000,"station_id":"ce4bhqh2rcd13ifvqhmg","pricing_plan_id":"cebpf4jnsgd1na2vs0mg"},{"bike_id":"ac5941e1-3fd0-4a36-b1af-70a3352289e4","system_id":"levelo_inurba_marseille","lat":43.28038,"lon":5.36945,"is_reserved":false,"is_disabled":false,"rental_uris":{"android":"levelo://app?vid=ac5941e1-3fd0-4a36-b1af-70a3352289e4","ios":"levelo://app?vid=ac5941e1-3fd0-4a36-b1af-70a3352289e4"},"vehicle_type_id":"4","last_reported":1731351967,"current_range_meters":38800,"station_id":"ce4bha12rcd13ifvqef0","pricing_plan_id":"cebpf4jnsgd1na2vs0mg"},{"bike_id":"cea1dc05-a4d7-4e3b-9bb2-58dffc883b55","system_id":"levelo_inurba_marseille","lat":43.29414,"lon":5.38616,"is_reserved":false,"is_disabled":false,"rental_uris":{"android":"levelo://app?vid=cea1dc05-a4d7-4e3b-9bb2-58dffc883b55","ios":"levelo://app?vid=cea1dc05-a4d7-4e3b-9bb2-58dffc883b55"},"vehicle_type_id":"4","last_reported":1731351967,"current_range_meters":0,"station_id":"ce4bh2h2rcd13ifvqdh0","pricing_plan_id":"cebpf4jnsgd1na2vs0mg"},{"bike_id":"a479f20c-b97a-4bf3-ac62-9cf49ce781ed","system_id":"levelo_inurba_marseille","lat":43.25001,"lon":5.38922,"is_reserved":false,"is_disabled":false,"rental_uris":{"android":"levelo://app?vid=a479f20c-b97a-4bf3-ac62-9cf49ce781ed","ios":"levelo://app?vid=a479f20c-b97a-4bf3-ac62-9cf49ce781ed"},"vehicle_type_id":"4","last_reported":1731351967,"current_range_meters":30000,"station_id":"ce4bhgp2rcd13ifvqfd0","pricing_plan_id":"cebpf4jnsgd1na2vs0mg"},{"bike_id":"394b9be2-9626-4d0a-ba24-0ca07b2a4404","system_id":"levelo_inurba_marseille","lat":43.30331,"lon":5.40425,"is_reserved":false,"is_disabled":false,"rental_uris":{"android":"levelo://app?vid=394b9be2-9626-4d0a-ba24-0ca07b2a4404","ios":"levelo://app?vid=394b9be2-9626-4d0a-ba24-0ca07b2a4404"},"vehicle_type_id":"4","last_reported":1731351967,"current_range_meters":800,"station_id":"ce4bh012rcd13ifvqd10","pricing_plan_id":"cebpf4jnsgd1na2vs0mg"},{"bike_id":"645daa1e-4314-4ebf-a438-7228c7b1b95b","system_id":"levelo_inurba_marseille","lat":43.29886,"lon":5.38906,"is_reserved":false,"is_disabled":false,"rental_uris":{"android":"levelo://app?vid=645daa1e-4314-4ebf-a438-7228c7b1b95b","ios":"levelo://app?vid=645daa1e-4314-4ebf-a438-7228c7b1b95b"},"vehicle_type_id":"4","last_reported":1731351967,"current_range_meters":37600,"station_id":"ce4bh392rcd13ifvqdl0","pricing_plan_id":"cebpf4jnsgd1na2vs0mg"},{"bike_id":"9e22c680-5ff4-4adf-87bd-063d6a5c4995","system_id":"levelo_inurba_marseille","lat":43.27817,"lon":5.40709,"is_reserved":false,"is_disabled":false,"rental_uris":{"android":"levelo://app?vid=9e22c680-5ff4-4adf-87bd-063d6a5c4995","ios":"levelo://app?vid=9e22c680-5ff4-4adf-87bd-063d6a5c4995"},"vehicle_type_id":"4","last_reported":1731351967,"current_range_meters":31200,"station_id":"ce4bhnh2rcd13ifvqgtg","pricing_plan_id":"cebpf4jnsgd1na2vs0mg"},{"bike_id":"9defb237-7576-4fff-93c4-858a7ecc28ae","system_id":"levelo_inurba_marseille","lat":43.29038,"lon":5.37569,"is_reserved":false,"is_disabled":false,"rental_uris":{"android":"levelo://app?vid=9defb237-7576-4fff-93c4-858a7ecc28ae","ios":"levelo://app?vid=9defb237-7576-4fff-93c4-858a7ecc28ae"},"vehicle_type_id":"4","last_reported":1731351967,"current_range_meters":38800,"station_id":"ce4bh692rcd13ifvqe90","pricing_plan_id":"cebpf4jnsgd1na2vs0mg"},{"bike_id":"16019305-413c-4c55-9996-6d008dc4ffe9","system_id":"levelo_inurba_marseille","lat":43.29873,"lon":5.38888,"is_reserved":false,"is_disabled":false,"rental_uris":{"android":"levelo://app?vid=16019305-413c-4c55-9996-6d008dc4ffe9","ios":"levelo://app?vid=16019305-413c-4c55-9996-6d008dc4ffe9"},"vehicle_type_id":"4","last_reported":1731351967,"current_range_meters":38800,"station_id":"ce4bh392rcd13ifvqdl0","pricing_plan_id":"cebpf4jnsgd1na2vs0mg"},{"bike_id":"85a47318-0b48-4ac4-9075-2df1aeacaa9d","system_id":"levelo_inurba_marseille","lat":43.28701,"lon":5.37381,"is_reserved":false,"is_disabled":false,"rental_uris":{"android":"levelo://app?vid=85a47318-0b48-4ac4-9075-2df1aeacaa9d","ios":"levelo://app?vid=85a47318-0b48-4ac4-9075-2df1aeacaa9d"},"vehicle_type_id":"4","last_reported":1731351967,"current_range_meters":38800,"station_id":"ce4bh3p2rcd13ifvqdq0","pricing_plan_id":"cebpf4jnsgd1na2vs0mg"},{"bike_id":"e657934c-b5f8-4cef-9a6a-3a4125f39711","system_id":"levelo_inurba_marseille","lat":43.31222,"lon":5.36854,"is_reserved":false,"is_disabled":false,"rental_uris":{"android":"levelo://app?vid=e657934c-b5f8-4cef-9a6a-3a4125f39711","ios":"levelo://app?vid=e657934c-b5f8-4cef-9a6a-3a4125f39711"},"vehicle_type_id":"4","last_reported":1731351967,"current_range_meters":32800,"station_id":"ce4bgl92rcd13ifvqbq0","pricing_plan_id":"cebpf4jnsgd1na2vs0mg"},{"bike_id":"35d3420c-a8df-4fb3-a2da-a21e79ab0bb5","system_id":"levelo_inurba_marseille","lat":43.25577,"lon":5.3824,"is_reserved":false,"is_disabled":false,"rental_uris":{"android":"levelo://app?vid=35d3420c-a8df-4fb3-a2da-a21e79ab0bb5","ios":"levelo://app?vid=35d3420c-a8df-4fb3-a2da-a21e79ab0bb5"},"vehicle_type_id":"4","last_reported":1731351967,"current_range_meters":36800,"station_id":"ce4bhih2rcd13ifvqfs0","pricing_plan_id":"cebpf4jnsgd1na2vs0mg"},{"bike_id":"d726c951-3674-4c0f-a84e-e4334510c57d","system_id":"levelo_inurba_marseille","lat":43.29785,"lon":5.39355,"is_reserved":false,"is_disabled":false,"rental_uris":{"android":"levelo://app?vid=d726c951-3674-4c0f-a84e-e4334510c57d","ios":"levelo://app?vid=d726c951-3674-4c0f-a84e-e4334510c57d"},"vehicle_type_id":"4","last_reported":1731351967,"current_range_meters":7200,"station_id":"chh1huq6cuj3fo74tm60","pricing_plan_id":"cebpf4jnsgd1na2vs0mg"},{"bike_id":"d4253cd9-56f0-4058-8dbb-47d2e12b90c0","system_id":"levelo_inurba_marseille","lat":43.29934,"lon":5.36537,"is_reserved":false,"is_disabled":false,"rental_uris":{"android":"levelo://app?vid=d4253cd9-56f0-4058-8dbb-47d2e12b90c0","ios":"levelo://app?vid=d4253cd9-56f0-4058-8dbb-47d2e12b90c0"},"vehicle_type_id":"4","last_reported":1731351967,"current_range_meters":38800,"station_id":"ce4bgm92rcd13ifvqbr0","pricing_plan_id":"cebpf4jnsgd1na2vs0mg"},{"bike_id":"c8cc08d6-9716-4256-92ac-a0e7bbcc71a9","system_id":"levelo_inurba_marseille","lat":43.28576,"lon":5.39495,"is_reserved":false,"is_disabled":false,"rental_uris":{"android":"levelo://app?vid=c8cc08d6-9716-4256-92ac-a0e7bbcc71a9","ios":"levelo://app?vid=c8cc08d6-9716-4256-92ac-a0e7bbcc71a9"},"vehicle_type_id":"4","last_reported":1731351967,"current_range_meters":31200,"station_id":"ce4bh292rcd13ifvqdg0","pricing_plan_id":"cebpf4jnsgd1na2vs0mg"},{"bike_id":"4c1830c8-c462-4f42-979f-b3fe7de750b7","system_id":"levelo_inurba_marseille","lat":43.29039,"lon":5.38648,"is_reserved":false,"is_disabled":false,"rental_uris":{"android":"levelo://app?vid=4c1830c8-c462-4f42-979f-b3fe7de750b7","ios":"levelo://app?vid=4c1830c8-c462-4f42-979f-b3fe7de750b7"},"vehicle_type_id":"4","last_reported":1731351967,"current_range_meters":16400,"station_id":"ce4bh4p2rcd13ifvqe0g","pricing_plan_id":"cebpf4jnsgd1na2vs0mg"},{"bike_id":"dae78a48-3da0-45bb-bd43-1861b1847e12","system_id":"levelo_inurba_marseille","lat":43.28338,"lon":5.38102,"is_reserved":false,"is_disabled":false,"rental_uris":{"android":"levelo://app?vid=dae78a48-3da0-45bb-bd43-1861b1847e12","ios":"levelo://app?vid=dae78a48-3da0-45bb-bd43-1861b1847e12"},"vehicle_type_id":"4","last_reported":1731351967,"current_range_meters":38800,"station_id":"ce4bh412rcd13ifvqdr0","pricing_plan_id":"cebpf4jnsgd1na2vs0mg"},{"bike_id":"f7403d44-18bb-4fcd-a284-5d8276d25914","system_id":"levelo_inurba_marseille","lat":43.24663,"lon":5.38168,"is_reserved":false,"is_disabled":false,"rental_uris":{"android":"levelo://app?vid=f7403d44-18bb-4fcd-a284-5d8276d25914","ios":"levelo://app?vid=f7403d44-18bb-4fcd-a284-5d8276d25914"},"vehicle_type_id":"4","last_reported":1731351967,"current_range_meters":30800,"station_id":"ce4bhih2rcd13ifvqfr0","pricing_plan_id":"cebpf4jnsgd1na2vs0mg"},{"bike_id":"a1c29d06-e30c-4263-99e6-77fcc59dbca1","system_id":"levelo_inurba_marseille","lat":43.31338,"lon":5.36713,"is_reserved":false,"is_disabled":false,"rental_uris":{"android":"levelo://app?vid=a1c29d06-e30c-4263-99e6-77fcc59dbca1","ios":"levelo://app?vid=a1c29d06-e30c-4263-99e6-77fcc59dbca1"},"vehicle_type_id":"4","last_reported":1731351967,"current_range_meters":38000,"station_id":"ce4bgr92rcd13ifvqc6g","pricing_plan_id":"cebpf4jnsgd1na2vs0mg"},{"bike_id":"17e30027-6a6d-4e1c-b83a-ccb011001914","system_id":"levelo_inurba_marseille","lat":43.30779,"lon":5.37653,"is_reserved":false,"is_disabled":false,"rental_uris":{"android":"levelo://app?vid=17e30027-6a6d-4e1c-b83a-ccb011001914","ios":"levelo://app?vid=17e30027-6a6d-4e1c-b83a-ccb011001914"},"vehicle_type_id":"4","last_reported":1731351967,"current_range_meters":20400,"station_id":"ce4bgv92rcd13ifvqcq0","pricing_plan_id":"cebpf4jnsgd1na2vs0mg"},{"bike_id":"b2f3adca-b446-441d-a1ab-5903c30fd432","system_id":"levelo_inurba_marseille","lat":43.33772,"lon":5.37447,"is_reserved":false,"is_disabled":false,"rental_uris":{"android":"levelo://app?vid=b2f3adca-b446-441d-a1ab-5903c30fd432","ios":"levelo://app?vid=b2f3adca-b446-441d-a1ab-5903c30fd432"},"vehicle_type_id":"4","last_reported":1731351967,"current_range_meters":9600,"station_id":"","pricing_plan_id":"cebpf4jnsgd1na2vs0mg"},{"bike_id":"3772b6dd-11d7-47bd-9c13-b2f385717191","system_id":"levelo_inurba_marseille","lat":43.28044,"lon":5.36946,"is_reserved":false,"is_disabled":false,"rental_uris":{"android":"levelo://app?vid=3772b6dd-11d7-47bd-9c13-b2f385717191","ios":"levelo://app?vid=3772b6dd-11d7-47bd-9c13-b2f385717191"},"vehicle_type_id":"4","last_reported":1731351967,"current_range_meters":38800,"station_id":"ce4bha12rcd13ifvqef0","pricing_plan_id":"cebpf4jnsgd1na2vs0mg"},{"bike_id":"fd9fd0aa-0804-4953-a041-494b11c6f5c1","system_id":"levelo_inurba_marseille","lat":43.29879,"lon":5.38909,"is_reserved":false,"is_disabled":false,"rental_uris":{"android":"levelo://app?vid=fd9fd0aa-0804-4953-a041-494b11c6f5c1","ios":"levelo://app?vid=fd9fd0aa-0804-4953-a041-494b11c6f5c1"},"vehicle_type_id":"4","last_reported":1731351967,"current_range_meters":37600,"station_id":"ce4bh392rcd13ifvqdl0","pricing_plan_id":"cebpf4jnsgd1na2vs0mg"},{"bike_id":"e5c6a069-c3d9-4d24-bb15-a3690f76ebcb","system_id":"levelo_inurba_marseille","lat":43.28658,"lon":5.38657,"is_reserved":false,"is_disabled":false,"rental_uris":{"android":"levelo://app?vid=e5c6a069-c3d9-4d24-bb15-a3690f76ebcb","ios":"levelo://app?vid=e5c6a069-c3d9-4d24-bb15-a3690f76ebcb"},"vehicle_type_id":"4","last_reported":1731351967,"current_range_meters":38800,"station_id":"ce4bh492rcd13ifvqdug","pricing_plan_id":"cebpf4jnsgd1na2vs0mg"},{"bike_id":"7da11c66-20ba-4a0e-8c57-44743c199ffa","system_id":"levelo_inurba_marseille","lat":43.28265,"lon":5.35059,"is_reserved":false,"is_disabled":false,"rental_uris":{"android":"levelo://app?vid=7da11c66-20ba-4a0e-8c57-44743c199ffa","ios":"levelo://app?vid=7da11c66-20ba-4a0e-8c57-44743c199ffa"},"vehicle_type_id":"4","last_reported":1731351967,"current_range_meters":4400,"station_id":"ce4bhbp2rcd13ifvqerg","pricing_plan_id":"cebpf4jnsgd1na2vs0mg"},{"bike_id":"aad3d547-4758-4fc0-a6b2-6b786b2b228e","system_id":"levelo_inurba_marseille","lat":43.27834,"lon":5.39207,"is_reserved":false,"is_disabled":false,"rental_uris":{"android":"levelo://app?vid=aad3d547-4758-4fc0-a6b2-6b786b2b228e","ios":"levelo://app?vid=aad3d547-4758-4fc0-a6b2-6b786b2b228e"},"vehicle_type_id":"4","last_reported":1731351967,"current_range_meters":29600,"station_id":"ce4bhjp2rcd13ifvqga0","pricing_plan_id":"cebpf4jnsgd1na2vs0mg"},{"bike_id":"07fbb9b1-bcc2-417e-ba58-6542ed6a193d","system_id":"levelo_inurba_marseille","lat":43.299347,"lon":5.374167,"is_reserved":false,"is_disabled":false,"rental_uris":{"android":"levelo://app?vid=07fbb9b1-bcc2-417e-ba58-6542ed6a193d","ios":"levelo://app?vid=07fbb9b1-bcc2-417e-ba58-6542ed6a193d"},"vehicle_type_id":"4","last_reported":1731351967,"current_range_meters":37600,"station_id":"ce4bgjh2rcd13ifvqbg0","pricing_plan_id":"cebpf4jnsgd1na2vs0mg"},{"bike_id":"b72ca6e7-47e9-42be-9a97-b74e22acdc0e","system_id":"levelo_inurba_marseille","lat":43.32101,"lon":5.36784,"is_reserved":false,"is_disabled":false,"rental_uris":{"android":"levelo://app?vid=b72ca6e7-47e9-42be-9a97-b74e22acdc0e","ios":"levelo://app?vid=b72ca6e7-47e9-42be-9a97-b74e22acdc0e"},"vehicle_type_id":"4","last_reported":1731351967,"current_range_meters":28800,"station_id":"ce4bhrh2rcd13ifvqhug","pricing_plan_id":"cebpf4jnsgd1na2vs0mg"},{"bike_id":"0e8b328d-d250-4022-b102-700ab6c44fe0","system_id":"levelo_inurba_marseille","lat":43.28041,"lon":5.36949,"is_reserved":false,"is_disabled":false,"rental_uris":{"android":"levelo://app?vid=0e8b328d-d250-4022-b102-700ab6c44fe0","ios":"levelo://app?vid=0e8b328d-d250-4022-b102-700ab6c44fe0"},"vehicle_type_id":"4","last_reported":1731351967,"current_range_meters":37600,"station_id":"ce4bha12rcd13ifvqef0","pricing_plan_id":"cebpf4jnsgd1na2vs0mg"},{"bike_id":"acc60b5c-190b-48e0-acc4-dca642836c04","system_id":"levelo_inurba_marseille","lat":43.32541,"lon":5.41442,"is_reserved":false,"is_disabled":false,"rental_uris":{"android":"levelo://app?vid=acc60b5c-190b-48e0-acc4-dca642836c04","ios":"levelo://app?vid=acc60b5c-190b-48e0-acc4-dca642836c04"},"vehicle_type_id":"4","last_reported":1731351967,"current_range_meters":19600,"station_id":"ce4bhq12rcd13ifvqhhg","pricing_plan_id":"cebpf4jnsgd1na2vs0mg"},{"bike_id":"755d47d5-03c1-4a41-9bbc-7f3962d7f720","system_id":"levelo_inurba_marseille","lat":43.27813,"lon":5.40719,"is_reserved":false,"is_disabled":false,"rental_uris":{"android":"levelo://app?vid=755d47d5-03c1-4a41-9bbc-7f3962d7f720","ios":"levelo://app?vid=755d47d5-03c1-4a41-9bbc-7f3962d7f720"},"vehicle_type_id":"4","last_reported":1731351967,"current_range_meters":25200,"station_id":"ce4bhnh2rcd13ifvqgtg","pricing_plan_id":"cebpf4jnsgd1na2vs0mg"},{"bike_id":"c6f73ec4-f7a3-4af7-a2d2-a8900e6f0747","system_id":"levelo_inurba_marseille","lat":43.29026,"lon":5.38638,"is_reserved":false,"is_disabled":false,"rental_uris":{"android":"levelo://app?vid=c6f73ec4-f7a3-4af7-a2d2-a8900e6f0747","ios":"levelo://app?vid=c6f73ec4-f7a3-4af7-a2d2-a8900e6f0747"},"vehicle_type_id":"4","last_reported":1731351967,"current_range_meters":38800,"station_id":"ce4bh4p2rcd13ifvqe0g","pricing_plan_id":"cebpf4jnsgd1na2vs0mg"},{"bike_id":"d200f736-33ff-4949-a4fa-9c168ba1cf59","system_id":"levelo_inurba_marseille","lat":43.28415,"lon":5.35001,"is_reserved":false,"is_disabled":false,"rental_uris":{"android":"levelo://app?vid=d200f736-33ff-4949-a4fa-9c168ba1cf59","ios":"levelo://app?vid=d200f736-33ff-4949-a4fa-9c168ba1cf59"},"vehicle_type_id":"4","last_reported":1731351967,"current_range_meters":38800,"station_id":"ce4bhbh2rcd13ifvqepg","pricing_plan_id":"cebpf4jnsgd1na2vs0mg"},{"bike_id":"fd6a0f4f-5b00-4928-a0bc-0129b56fe322","system_id":"levelo_inurba_marseille","lat":43.30243,"lon":5.40036,"is_reserved":false,"is_disabled":false,"rental_uris":{"android":"levelo://app?vid=fd6a0f4f-5b00-4928-a0bc-0129b56fe322","ios":"levelo://app?vid=fd6a0f4f-5b00-4928-a0bc-0129b56fe322"},"vehicle_type_id":"4","last_reported":1731351967,"current_range_meters":6400,"station_id":"","pricing_plan_id":"cebpf4jnsgd1na2vs0mg"},{"bike_id":"0e051361-0507-42ff-8b4f-247309f4be8a","system_id":"levelo_inurba_marseille","lat":43.27431,"lon":5.39408,"is_reserved":false,"is_disabled":false,"rental_uris":{"android":"levelo://app?vid=0e051361-0507-42ff-8b4f-247309f4be8a","ios":"levelo://app?vid=0e051361-0507-42ff-8b4f-247309f4be8a"},"vehicle_type_id":"4","last_reported":1731351967,"current_range_meters":29600,"station_id":"ce4bhdp2rcd13ifvqf20","pricing_plan_id":"cebpf4jnsgd1na2vs0mg"},{"bike_id":"319c8a9b-eb4e-417d-8ef2-0d2f01e6c97c","system_id":"levelo_inurba_marseille","lat":43.24178,"lon":5.39731,"is_reserved":false,"is_disabled":false,"rental_uris":{"android":"levelo://app?vid=319c8a9b-eb4e-417d-8ef2-0d2f01e6c97c","ios":"levelo://app?vid=319c8a9b-eb4e-417d-8ef2-0d2f01e6c97c"},"vehicle_type_id":"4","last_reported":1731351967,"current_range_meters":38800,"station_id":"ce4bhn12rcd13ifvqgpg","pricing_plan_id":"cebpf4jnsgd1na2vs0mg"},{"bike_id":"a950f1cd-6d61-41f0-b2ea-5beb60e6521a","system_id":"levelo_inurba_marseille","lat":43.29417,"lon":5.38623,"is_reserved":false,"is_disabled":false,"rental_uris":{"android":"levelo://app?vid=a950f1cd-6d61-41f0-b2ea-5beb60e6521a","ios":"levelo://app?vid=a950f1cd-6d61-41f0-b2ea-5beb60e6521a"},"vehicle_type_id":"4","last_reported":1731351967,"current_range_meters":30800,"station_id":"ce4bh2h2rcd13ifvqdh0","pricing_plan_id":"cebpf4jnsgd1na2vs0mg"},{"bike_id":"2c507cd7-54ef-475c-8faa-961482f8a251","system_id":"levelo_inurba_marseille","lat":43.29557,"lon":5.42289,"is_reserved":false,"is_disabled":false,"rental_uris":{"android":"levelo://app?vid=2c507cd7-54ef-475c-8faa-961482f8a251","ios":"levelo://app?vid=2c507cd7-54ef-475c-8faa-961482f8a251"},"vehicle_type_id":"4","last_reported":1731351967,"current_range_meters":25600,"station_id":"ce4bhph2rcd13ifvqhdg","pricing_plan_id":"cebpf4jnsgd1na2vs0mg"},{"bike_id":"f6798b59-feb5-429d-a8da-f75b65aed1ef","system_id":"levelo_inurba_marseille","lat":43.29793,"lon":5.37103,"is_reserved":false,"is_disabled":false,"rental_uris":{"android":"levelo://app?vid=f6798b59-feb5-429d-a8da-f75b65aed1ef","ios":"levelo://app?vid=f6798b59-feb5-429d-a8da-f75b65aed1ef"},"vehicle_type_id":"4","last_reported":1731351967,"current_range_meters":27600,"station_id":"ce4bgop2rcd13ifvqc1g","pricing_plan_id":"cebpf4jnsgd1na2vs0mg"},{"bike_id":"962da607-a5b2-4807-a032-a5268bec654a","system_id":"levelo_inurba_marseille","lat":43.29531,"lon":5.38555,"is_reserved":false,"is_disabled":false,"rental_uris":{"android":"levelo://app?vid=962da607-a5b2-4807-a032-a5268bec654a","ios":"levelo://app?vid=962da607-a5b2-4807-a032-a5268bec654a"},"vehicle_type_id":"4","last_reported":1731351967,"current_range_meters":38400,"station_id":"ce4bh0p2rcd13ifvqd70","pricing_plan_id":"cebpf4jnsgd1na2vs0mg"},{"bike_id":"4523f9d1-1e7c-4bfc-9ad4-43c28cbf100a","system_id":"levelo_inurba_marseille","lat":43.26779,"lon":5.3942,"is_reserved":false,"is_disabled":false,"rental_uris":{"android":"levelo://app?vid=4523f9d1-1e7c-4bfc-9ad4-43c28cbf100a","ios":"levelo://app?vid=4523f9d1-1e7c-4bfc-9ad4-43c28cbf100a"},"vehicle_type_id":"4","last_reported":1731351967,"current_range_meters":12400,"station_id":"ce4bhh12rcd13ifvqfg0","pricing_plan_id":"cebpf4jnsgd1na2vs0mg"},{"bike_id":"c02a192e-5825-44fe-a0c9-fd04411f4ff2","system_id":"levelo_inurba_marseille","lat":43.25014,"lon":5.38909,"is_reserved":false,"is_disabled":false,"rental_uris":{"android":"levelo://app?vid=c02a192e-5825-44fe-a0c9-fd04411f4ff2","ios":"levelo://app?vid=c02a192e-5825-44fe-a0c9-fd04411f4ff2"},"vehicle_type_id":"4","last_reported":1731351967,"current_range_meters":23200,"station_id":"ce4bhgp2rcd13ifvqfd0","pricing_plan_id":"cebpf4jnsgd1na2vs0mg"},{"bike_id":"d7e62703-035e-4c4e-82c6-53d8204b8f45","system_id":"levelo_inurba_marseille","lat":43.31535,"lon":5.38031,"is_reserved":false,"is_disabled":false,"rental_uris":{"android":"levelo://app?vid=d7e62703-035e-4c4e-82c6-53d8204b8f45","ios":"levelo://app?vid=d7e62703-035e-4c4e-82c6-53d8204b8f45"},"vehicle_type_id":"4","last_reported":1731351967,"current_range_meters":24400,"station_id":"ce4bhsp2rcd13ifvqi50","pricing_plan_id":"cebpf4jnsgd1na2vs0mg"},{"bike_id":"feb86f62-2c80-4064-8e38-33c5534046da","system_id":"levelo_inurba_marseille","lat":43.28187,"lon":5.39888,"is_reserved":false,"is_disabled":false,"rental_uris":{"android":"levelo://app?vid=feb86f62-2c80-4064-8e38-33c5534046da","ios":"levelo://app?vid=feb86f62-2c80-4064-8e38-33c5534046da"},"vehicle_type_id":"4","last_reported":1731351967,"current_range_meters":14800,"station_id":"","pricing_plan_id":"cebpf4jnsgd1na2vs0mg"},{"bike_id":"6221706d-0bd3-4421-91b6-cb1b8e665395","system_id":"levelo_inurba_marseille","lat":43.29602,"lon":5.38105,"is_reserved":false,"is_disabled":false,"rental_uris":{"android":"levelo://app?vid=6221706d-0bd3-4421-91b6-cb1b8e665395","ios":"levelo://app?vid=6221706d-0bd3-4421-91b6-cb1b8e665395"},"vehicle_type_id":"4","last_reported":1731351967,"current_range_meters":24400,"station_id":"ce4bgl12rcd13ifvqbo0","pricing_plan_id":"cebpf4jnsgd1na2vs0mg"},{"bike_id":"89056f4d-b834-4f56-b6be-015e2d158279","system_id":"levelo_inurba_marseille","lat":43.23193,"lon":5.35557,"is_reserved":false,"is_disabled":false,"rental_uris":{"android":"levelo://app?vid=89056f4d-b834-4f56-b6be-015e2d158279","ios":"levelo://app?vid=89056f4d-b834-4f56-b6be-015e2d158279"},"vehicle_type_id":"4","last_reported":1731351967,"current_range_meters":38800,"station_id":"ce4bhu92rcd13ifvqi70","pricing_plan_id":"cebpf4jnsgd1na2vs0mg"},{"bike_id":"10b6bafa-b2cc-4e77-aaad-8bd6f3ff5c54","system_id":"levelo_inurba_marseille","lat":43.28462,"lon":5.35879,"is_reserved":false,"is_disabled":false,"rental_uris":{"android":"levelo://app?vid=10b6bafa-b2cc-4e77-aaad-8bd6f3ff5c54","ios":"levelo://app?vid=10b6bafa-b2cc-4e77-aaad-8bd6f3ff5c54"},"vehicle_type_id":"4","last_reported":1731351967,"current_range_meters":22800,"station_id":"ce4bhah2rcd13ifvqei0","pricing_plan_id":"cebpf4jnsgd1na2vs0mg"},{"bike_id":"aacd8d04-f915-46b2-a9b0-d24ad7ae9b34","system_id":"levelo_inurba_marseille","lat":43.31311,"lon":5.40188,"is_reserved":false,"is_disabled":false,"rental_uris":{"android":"levelo://app?vid=aacd8d04-f915-46b2-a9b0-d24ad7ae9b34","ios":"levelo://app?vid=aacd8d04-f915-46b2-a9b0-d24ad7ae9b34"},"vehicle_type_id":"4","last_reported":1731351967,"current_range_meters":38800,"station_id":"ce4bh092rcd13ifvqd30","pricing_plan_id":"cebpf4jnsgd1na2vs0mg"},{"bike_id":"973a83b5-b8a7-4c01-be8b-a7839e0f16b3","system_id":"levelo_inurba_marseille","lat":43.29975,"lon":5.37175,"is_reserved":false,"is_disabled":false,"rental_uris":{"android":"levelo://app?vid=973a83b5-b8a7-4c01-be8b-a7839e0f16b3","ios":"levelo://app?vid=973a83b5-b8a7-4c01-be8b-a7839e0f16b3"},"vehicle_type_id":"4","last_reported":1731351967,"current_range_meters":38800,"station_id":"ce4bgr92rcd13ifvqc7g","pricing_plan_id":"cebpf4jnsgd1na2vs0mg"},{"bike_id":"5cb3547d-5919-49c8-9621-92bb6be20901","system_id":"levelo_inurba_marseille","lat":43.27373,"lon":5.36251,"is_reserved":false,"is_disabled":false,"rental_uris":{"android":"levelo://app?vid=5cb3547d-5919-49c8-9621-92bb6be20901","ios":"levelo://app?vid=5cb3547d-5919-49c8-9621-92bb6be20901"},"vehicle_type_id":"4","last_reported":1731351967,"current_range_meters":32400,"station_id":"ce4bhbh2rcd13ifvqeo0","pricing_plan_id":"cebpf4jnsgd1na2vs0mg"},{"bike_id":"18f9a154-7fff-4c2f-94ea-60aecef5de09","system_id":"levelo_inurba_marseille","lat":43.30419,"lon":5.41279,"is_reserved":false,"is_disabled":false,"rental_uris":{"android":"levelo://app?vid=18f9a154-7fff-4c2f-94ea-60aecef5de09","ios":"levelo://app?vid=18f9a154-7fff-4c2f-94ea-60aecef5de09"},"vehicle_type_id":"4","last_reported":1731351967,"current_range_meters":17200,"station_id":"ce4bhop2rcd13ifvqh8g","pricing_plan_id":"cebpf4jnsgd1na2vs0mg"},{"bike_id":"39fe44f9-8cc5-47a5-a8d0-08c77f21768b","system_id":"levelo_inurba_marseille","lat":43.23183,"lon":5.39981,"is_reserved":false,"is_disabled":false,"rental_uris":{"android":"levelo://app?vid=39fe44f9-8cc5-47a5-a8d0-08c77f21768b","ios":"levelo://app?vid=39fe44f9-8cc5-47a5-a8d0-08c77f21768b"},"vehicle_type_id":"4","last_reported":1731351967,"current_range_meters":11600,"station_id":"ce4bhn12rcd13ifvqgqg","pricing_plan_id":"cebpf4jnsgd1na2vs0mg"},{"bike_id":"155fa34d-6f6d-46d2-9294-e1f68ee8da40","system_id":"levelo_inurba_marseille","lat":43.27971,"lon":5.38753,"is_reserved":false,"is_disabled":false,"rental_uris":{"android":"levelo://app?vid=155fa34d-6f6d-46d2-9294-e1f68ee8da40","ios":"levelo://app?vid=155fa34d-6f6d-46d2-9294-e1f68ee8da40"},"vehicle_type_id":"4","last_reported":1731351967,"current_range_meters":20400,"station_id":"ce4bhg12rcd13ifvqf80","pricing_plan_id":"cebpf4jnsgd1na2vs0mg"},{"bike_id":"0645e66a-acf2-4abb-857b-9f01934d08a1","system_id":"levelo_inurba_marseille","lat":43.30782,"lon":5.37652,"is_reserved":false,"is_disabled":false,"rental_uris":{"android":"levelo://app?vid=0645e66a-acf2-4abb-857b-9f01934d08a1","ios":"levelo://app?vid=0645e66a-acf2-4abb-857b-9f01934d08a1"},"vehicle_type_id":"4","last_reported":1731351967,"current_range_meters":24000,"station_id":"ce4bgv92rcd13ifvqcq0","pricing_plan_id":"cebpf4jnsgd1na2vs0mg"},{"bike_id":"a8b1ff1b-fb4c-4aba-aa28-04f63a2aa4d6","system_id":"levelo_inurba_marseille","lat":43.287063,"lon":5.373937,"is_reserved":false,"is_disabled":false,"rental_uris":{"android":"levelo://app?vid=a8b1ff1b-fb4c-4aba-aa28-04f63a2aa4d6","ios":"levelo://app?vid=a8b1ff1b-fb4c-4aba-aa28-04f63a2aa4d6"},"vehicle_type_id":"4","last_reported":1731351967,"current_range_meters":38800,"station_id":"ce4bh3p2rcd13ifvqdq0","pricing_plan_id":"cebpf4jnsgd1na2vs0mg"},{"bike_id":"b16943e1-6e4b-4767-8789-7da828786277","system_id":"levelo_inurba_marseille","lat":43.34183,"lon":5.38614,"is_reserved":false,"is_disabled":false,"rental_uris":{"android":"levelo://app?vid=b16943e1-6e4b-4767-8789-7da828786277","ios":"levelo://app?vid=b16943e1-6e4b-4767-8789-7da828786277"},"vehicle_type_id":"4","last_reported":1731351967,"current_range_meters":11600,"station_id":"","pricing_plan_id":"cebpf4jnsgd1na2vs0mg"},{"bike_id":"bd74318b-c861-482e-b392-4e6c1bbcd35c","system_id":"levelo_inurba_marseille","lat":43.29849,"lon":5.36284,"is_reserved":false,"is_disabled":false,"rental_uris":{"android":"levelo://app?vid=bd74318b-c861-482e-b392-4e6c1bbcd35c","ios":"levelo://app?vid=bd74318b-c861-482e-b392-4e6c1bbcd35c"},"vehicle_type_id":"4","last_reported":1731351967,"current_range_meters":38800,"station_id":"ce4bgpp2rcd13ifvqc3g","pricing_plan_id":"cebpf4jnsgd1na2vs0mg"},{"bike_id":"727bd72c-3213-4297-b83b-8613fcc7dc17","system_id":"levelo_inurba_marseille","lat":43.29697,"lon":5.36595,"is_reserved":false,"is_disabled":false,"rental_uris":{"android":"levelo://app?vid=727bd72c-3213-4297-b83b-8613fcc7dc17","ios":"levelo://app?vid=727bd72c-3213-4297-b83b-8613fcc7dc17"},"vehicle_type_id":"4","last_reported":1731351967,"current_range_meters":30400,"station_id":"ce4bgn12rcd13ifvqbt0","pricing_plan_id":"cebpf4jnsgd1na2vs0mg"},{"bike_id":"88c3dca1-adfa-4b98-8e87-c851e170c625","system_id":"levelo_inurba_marseille","lat":43.27933,"lon":5.41046,"is_reserved":false,"is_disabled":false,"rental_uris":{"android":"levelo://app?vid=88c3dca1-adfa-4b98-8e87-c851e170c625","ios":"levelo://app?vid=88c3dca1-adfa-4b98-8e87-c851e170c625"},"vehicle_type_id":"4","last_reported":1731351967,"current_range_meters":8000,"station_id":"ce4bhnp2rcd13ifvqh0g","pricing_plan_id":"cebpf4jnsgd1na2vs0mg"},{"bike_id":"38c7f514-5104-44a4-b9f7-32de1bbc6ec4","system_id":"levelo_inurba_marseille","lat":43.29064,"lon":5.37569,"is_reserved":false,"is_disabled":false,"rental_uris":{"android":"levelo://app?vid=38c7f514-5104-44a4-b9f7-32de1bbc6ec4","ios":"levelo://app?vid=38c7f514-5104-44a4-b9f7-32de1bbc6ec4"},"vehicle_type_id":"4","last_reported":1731351967,"current_range_meters":36800,"station_id":"ce4bhh12rcd13ifvqfg0","pricing_plan_id":"cebpf4jnsgd1na2vs0mg"},{"bike_id":"8348cd56-76c9-4efc-b5dc-8cb04d9ea85c","system_id":"levelo_inurba_marseille","lat":43.29036,"lon":5.38632,"is_reserved":false,"is_disabled":false,"rental_uris":{"android":"levelo://app?vid=8348cd56-76c9-4efc-b5dc-8cb04d9ea85c","ios":"levelo://app?vid=8348cd56-76c9-4efc-b5dc-8cb04d9ea85c"},"vehicle_type_id":"4","last_reported":1731351967,"current_range_meters":25600,"station_id":"ce4bh4p2rcd13ifvqe0g","pricing_plan_id":"cebpf4jnsgd1na2vs0mg"},{"bike_id":"dc12c22a-8cf2-4528-b50b-ec412d178453","system_id":"levelo_inurba_marseille","lat":43.31721,"lon":5.42406,"is_reserved":false,"is_disabled":false,"rental_uris":{"android":"levelo://app?vid=dc12c22a-8cf2-4528-b50b-ec412d178453","ios":"levelo://app?vid=dc12c22a-8cf2-4528-b50b-ec412d178453"},"vehicle_type_id":"4","last_reported":1731351967,"current_range_meters":38800,"station_id":"ce4bhp92rcd13ifvqhbg","pricing_plan_id":"cebpf4jnsgd1na2vs0mg"},{"bike_id":"3dfc655f-dc40-40e1-adc8-dad4496f2e4c","system_id":"levelo_inurba_marseille","lat":43.23968,"lon":5.36642,"is_reserved":false,"is_disabled":false,"rental_uris":{"android":"levelo://app?vid=3dfc655f-dc40-40e1-adc8-dad4496f2e4c","ios":"levelo://app?vid=3dfc655f-dc40-40e1-adc8-dad4496f2e4c"},"vehicle_type_id":"4","last_reported":1731351967,"current_range_meters":34000,"station_id":"ce4bhi12rcd13ifvqfp0","pricing_plan_id":"cebpf4jnsgd1na2vs0mg"},{"bike_id":"eec21073-d454-4da5-9da0-11eb3f716d82","system_id":"levelo_inurba_marseille","lat":43.302979,"lon":5.392069,"is_reserved":false,"is_disabled":false,"rental_uris":{"android":"levelo://app?vid=eec21073-d454-4da5-9da0-11eb3f716d82","ios":"levelo://app?vid=eec21073-d454-4da5-9da0-11eb3f716d82"},"vehicle_type_id":"4","last_reported":1731351967,"current_range_meters":36000,"station_id":"ce4bgkh2rcd13ifvqbk0","pricing_plan_id":"cebpf4jnsgd1na2vs0mg"},{"bike_id":"670a0569-1cd2-4534-816e-2223647a4790","system_id":"levelo_inurba_marseille","lat":43.337444,"lon":5.374475,"is_reserved":false,"is_disabled":false,"rental_uris":{"android":"levelo://app?vid=670a0569-1cd2-4534-816e-2223647a4790","ios":"levelo://app?vid=670a0569-1cd2-4534-816e-2223647a4790"},"vehicle_type_id":"4","last_reported":1731351967,"current_range_meters":35600,"station_id":"","pricing_plan_id":"cebpf4jnsgd1na2vs0mg"},{"bike_id":"e88e150d-7a68-484d-af4a-48f78f25324b","system_id":"levelo_inurba_marseille","lat":43.29531,"lon":5.39031,"is_reserved":false,"is_disabled":false,"rental_uris":{"android":"levelo://app?vid=e88e150d-7a68-484d-af4a-48f78f25324b","ios":"levelo://app?vid=e88e150d-7a68-484d-af4a-48f78f25324b"},"vehicle_type_id":"4","last_reported":1731351967,"current_range_meters":27600,"station_id":"ce4bh3p2rcd13ifvqdp0","pricing_plan_id":"cebpf4jnsgd1na2vs0mg"},{"bike_id":"cda4d5ca-16db-4d45-9822-14141a1915b8","system_id":"levelo_inurba_marseille","lat":43.3172,"lon":5.42401,"is_reserved":false,"is_disabled":false,"rental_uris":{"android":"levelo://app?vid=cda4d5ca-16db-4d45-9822-14141a1915b8","ios":"levelo://app?vid=cda4d5ca-16db-4d45-9822-14141a1915b8"},"vehicle_type_id":"4","last_reported":1731351967,"current_range_meters":10800,"station_id":"ce4bhp92rcd13ifvqhbg","pricing_plan_id":"cebpf4jnsgd1na2vs0mg"},{"bike_id":"fb5b0b38-958b-4312-be53-8891ace6d1ef","system_id":"levelo_inurba_marseille","lat":43.31363,"lon":5.38496,"is_reserved":false,"is_disabled":false,"rental_uris":{"android":"levelo://app?vid=fb5b0b38-958b-4312-be53-8891ace6d1ef","ios":"levelo://app?vid=fb5b0b38-958b-4312-be53-8891ace6d1ef"},"vehicle_type_id":"4","last_reported":1731351967,"current_range_meters":18800,"station_id":"ce4bgt92rcd13ifvqcf0","pricing_plan_id":"cebpf4jnsgd1na2vs0mg"},{"bike_id":"5f1ee66f-2f7a-464f-aba5-b55a506f409d","system_id":"levelo_inurba_marseille","lat":43.290332,"lon":5.386446,"is_reserved":false,"is_disabled":false,"rental_uris":{"android":"levelo://app?vid=5f1ee66f-2f7a-464f-aba5-b55a506f409d","ios":"levelo://app?vid=5f1ee66f-2f7a-464f-aba5-b55a506f409d"},"vehicle_type_id":"4","last_reported":1731351967,"current_range_meters":15200,"station_id":"ce4bh4p2rcd13ifvqe0g","pricing_plan_id":"cebpf4jnsgd1na2vs0mg"},{"bike_id":"83e316b1-24aa-42bf-8889-311526d41b73","system_id":"levelo_inurba_marseille","lat":43.299591,"lon":5.384771,"is_reserved":false,"is_disabled":false,"rental_uris":{"android":"levelo://app?vid=83e316b1-24aa-42bf-8889-311526d41b73","ios":"levelo://app?vid=83e316b1-24aa-42bf-8889-311526d41b73"},"vehicle_type_id":"4","last_reported":1731351967,"current_range_meters":6800,"station_id":"ce4bgj92rcd13ifvqbd0","pricing_plan_id":"cebpf4jnsgd1na2vs0mg"},{"bike_id":"5b86b072-d114-4fe3-b97d-b7eec3b13ee7","system_id":"levelo_inurba_marseille","lat":43.25932,"lon":5.40904,"is_reserved":false,"is_disabled":false,"rental_uris":{"android":"levelo://app?vid=5b86b072-d114-4fe3-b97d-b7eec3b13ee7","ios":"levelo://app?vid=5b86b072-d114-4fe3-b97d-b7eec3b13ee7"},"vehicle_type_id":"4","last_reported":1731351967,"current_range_meters":8000,"station_id":"ce4bhm92rcd13ifvqglg","pricing_plan_id":"cebpf4jnsgd1na2vs0mg"},{"bike_id":"0bc2265c-24b5-44e3-8190-ee0bcb5dfb65","system_id":"levelo_inurba_marseille","lat":43.30565,"lon":5.38408,"is_reserved":false,"is_disabled":false,"rental_uris":{"android":"levelo://app?vid=0bc2265c-24b5-44e3-8190-ee0bcb5dfb65","ios":"levelo://app?vid=0bc2265c-24b5-44e3-8190-ee0bcb5dfb65"},"vehicle_type_id":"4","last_reported":1731351967,"current_range_meters":8800,"station_id":"ce4bhg12rcd13ifvqf80","pricing_plan_id":"cebpf4jnsgd1na2vs0mg"},{"bike_id":"155ae41f-f233-4773-b011-603ce1c6702b","system_id":"levelo_inurba_marseille","lat":43.30307,"lon":5.39204,"is_reserved":false,"is_disabled":false,"rental_uris":{"android":"levelo://app?vid=155ae41f-f233-4773-b011-603ce1c6702b","ios":"levelo://app?vid=155ae41f-f233-4773-b011-603ce1c6702b"},"vehicle_type_id":"4","last_reported":1731351967,"current_range_meters":26000,"station_id":"ce4bgkh2rcd13ifvqbk0","pricing_plan_id":"cebpf4jnsgd1na2vs0mg"},{"bike_id":"dbc92809-ab3d-4f9b-983c-1501faba548f","system_id":"levelo_inurba_marseille","lat":43.27577,"lon":5.38418,"is_reserved":false,"is_disabled":false,"rental_uris":{"android":"levelo://app?vid=dbc92809-ab3d-4f9b-983c-1501faba548f","ios":"levelo://app?vid=dbc92809-ab3d-4f9b-983c-1501faba548f"},"vehicle_type_id":"4","last_reported":1731351967,"current_range_meters":5600,"station_id":"ce4bhh92rcd13ifvqfi0","pricing_plan_id":"cebpf4jnsgd1na2vs0mg"},{"bike_id":"7079b5ba-2cbc-4fe2-827c-9b7adcabd462","system_id":"levelo_inurba_marseille","lat":43.32488,"lon":5.36573,"is_reserved":false,"is_disabled":false,"rental_uris":{"android":"levelo://app?vid=7079b5ba-2cbc-4fe2-827c-9b7adcabd462","ios":"levelo://app?vid=7079b5ba-2cbc-4fe2-827c-9b7adcabd462"},"vehicle_type_id":"4","last_reported":1731351967,"current_range_meters":38800,"station_id":"ce4bhs12rcd13ifvqhvg","pricing_plan_id":"cebpf4jnsgd1na2vs0mg"},{"bike_id":"8a59f7ba-2456-4e5e-9314-809f890b4a6f","system_id":"levelo_inurba_marseille","lat":43.27999,"lon":5.41659,"is_reserved":false,"is_disabled":false,"rental_uris":{"android":"levelo://app?vid=8a59f7ba-2456-4e5e-9314-809f890b4a6f","ios":"levelo://app?vid=8a59f7ba-2456-4e5e-9314-809f890b4a6f"},"vehicle_type_id":"4","last_reported":1731351967,"current_range_meters":24800,"station_id":"ce4bho12rcd13ifvqh1g","pricing_plan_id":"cebpf4jnsgd1na2vs0mg"},{"bike_id":"6c70179e-28df-4a98-8b24-db5e64a1d48a","system_id":"levelo_inurba_marseille","lat":43.31119,"lon":5.37759,"is_reserved":false,"is_disabled":false,"rental_uris":{"android":"levelo://app?vid=6c70179e-28df-4a98-8b24-db5e64a1d48a","ios":"levelo://app?vid=6c70179e-28df-4a98-8b24-db5e64a1d48a"},"vehicle_type_id":"4","last_reported":1731351967,"current_range_meters":24000,"station_id":"ce4bgt92rcd13ifvqcg0","pricing_plan_id":"cebpf4jnsgd1na2vs0mg"},{"bike_id":"0febbc68-e455-4cf3-b7b2-8bcafd2da79d","system_id":"levelo_inurba_marseille","lat":43.25581,"lon":5.38241,"is_reserved":false,"is_disabled":false,"rental_uris":{"android":"levelo://app?vid=0febbc68-e455-4cf3-b7b2-8bcafd2da79d","ios":"levelo://app?vid=0febbc68-e455-4cf3-b7b2-8bcafd2da79d"},"vehicle_type_id":"4","last_reported":1731351967,"current_range_meters":19200,"station_id":"ce4bhih2rcd13ifvqfs0","pricing_plan_id":"cebpf4jnsgd1na2vs0mg"},{"bike_id":"f3a76cdf-3163-4926-abf7-0f4c6a7d74d1","system_id":"levelo_inurba_marseille","lat":43.2756,"lon":5.38397,"is_reserved":false,"is_disabled":false,"rental_uris":{"android":"levelo://app?vid=f3a76cdf-3163-4926-abf7-0f4c6a7d74d1","ios":"levelo://app?vid=f3a76cdf-3163-4926-abf7-0f4c6a7d74d1"},"vehicle_type_id":"4","last_reported":1731351967,"current_range_meters":2800,"station_id":"ce4bhh92rcd13ifvqfi0","pricing_plan_id":"cebpf4jnsgd1na2vs0mg"},{"bike_id":"8f7c081b-07e5-4888-b6ff-652a3b0665bd","system_id":"levelo_inurba_marseille","lat":43.31263,"lon":5.40162,"is_reserved":false,"is_disabled":false,"rental_uris":{"android":"levelo://app?vid=8f7c081b-07e5-4888-b6ff-652a3b0665bd","ios":"levelo://app?vid=8f7c081b-07e5-4888-b6ff-652a3b0665bd"},"vehicle_type_id":"4","last_reported":1731351967,"current_range_meters":38800,"station_id":"ce4bh092rcd13ifvqd30","pricing_plan_id":"cebpf4jnsgd1na2vs0mg"},{"bike_id":"f0cd50c0-6579-4f01-bb1f-4b7dc690ec71","system_id":"levelo_inurba_marseille","lat":43.26781,"lon":5.39415,"is_reserved":false,"is_disabled":false,"rental_uris":{"android":"levelo://app?vid=f0cd50c0-6579-4f01-bb1f-4b7dc690ec71","ios":"levelo://app?vid=f0cd50c0-6579-4f01-bb1f-4b7dc690ec71"},"vehicle_type_id":"4","last_reported":1731351967,"current_range_meters":36400,"station_id":"ce4bhh12rcd13ifvqfg0","pricing_plan_id":"cebpf4jnsgd1na2vs0mg"},{"bike_id":"d2a0f534-30a6-4a98-911f-cd3468c49581","system_id":"levelo_inurba_marseille","lat":43.30188,"lon":5.36613,"is_reserved":false,"is_disabled":false,"rental_uris":{"android":"levelo://app?vid=d2a0f534-30a6-4a98-911f-cd3468c49581","ios":"levelo://app?vid=d2a0f534-30a6-4a98-911f-cd3468c49581"},"vehicle_type_id":"4","last_reported":1731351967,"current_range_meters":37600,"station_id":"ce4bgrh2rcd13ifvqc8g","pricing_plan_id":"cebpf4jnsgd1na2vs0mg"},{"bike_id":"45c8d003-94a8-4c34-8ccb-71ab5a6e79f3","system_id":"levelo_inurba_marseille","lat":43.28359,"lon":5.38618,"is_reserved":false,"is_disabled":false,"rental_uris":{"android":"levelo://app?vid=45c8d003-94a8-4c34-8ccb-71ab5a6e79f3","ios":"levelo://app?vid=45c8d003-94a8-4c34-8ccb-71ab5a6e79f3"},"vehicle_type_id":"4","last_reported":1731351967,"current_range_meters":14400,"station_id":"ce4bh492rcd13ifvqdvg","pricing_plan_id":"cebpf4jnsgd1na2vs0mg"},{"bike_id":"95861fcb-0cff-401d-9b26-ce9494ae7d36","system_id":"levelo_inurba_marseille","lat":43.2407,"lon":5.37767,"is_reserved":false,"is_disabled":false,"rental_uris":{"android":"levelo://app?vid=95861fcb-0cff-401d-9b26-ce9494ae7d36","ios":"levelo://app?vid=95861fcb-0cff-401d-9b26-ce9494ae7d36"},"vehicle_type_id":"4","last_reported":1731351967,"current_range_meters":8400,"station_id":"ce4bhnp2rcd13ifvqgvg","pricing_plan_id":"cebpf4jnsgd1na2vs0mg"},{"bike_id":"4dc0e3bd-ab9c-461a-835f-d4784d7b8326","system_id":"levelo_inurba_marseille","lat":43.31325,"lon":5.42359,"is_reserved":false,"is_disabled":false,"rental_uris":{"android":"levelo://app?vid=4dc0e3bd-ab9c-461a-835f-d4784d7b8326","ios":"levelo://app?vid=4dc0e3bd-ab9c-461a-835f-d4784d7b8326"},"vehicle_type_id":"4","last_reported":1731351967,"current_range_meters":8000,"station_id":"ce4bhp92rcd13ifvqhcg","pricing_plan_id":"cebpf4jnsgd1na2vs0mg"},{"bike_id":"08e55194-28ed-4aa6-94e3-214d6cef5e53","system_id":"levelo_inurba_marseille","lat":43.3064,"lon":5.40077,"is_reserved":false,"is_disabled":false,"rental_uris":{"android":"levelo://app?vid=08e55194-28ed-4aa6-94e3-214d6cef5e53","ios":"levelo://app?vid=08e55194-28ed-4aa6-94e3-214d6cef5e53"},"vehicle_type_id":"4","last_reported":1731351967,"current_range_meters":30800,"station_id":"ce4bh112rcd13ifvqda0","pricing_plan_id":"cebpf4jnsgd1na2vs0mg"},{"bike_id":"018d0267-5ace-48c7-96c6-4a1fb60e0c7c","system_id":"levelo_inurba_marseille","lat":43.31482,"lon":5.37307,"is_reserved":false,"is_disabled":false,"rental_uris":{"android":"levelo://app?vid=018d0267-5ace-48c7-96c6-4a1fb60e0c7c","ios":"levelo://app?vid=018d0267-5ace-48c7-96c6-4a1fb60e0c7c"},"vehicle_type_id":"4","last_reported":1731351967,"current_range_meters":24000,"station_id":"ce4bgt12rcd13ifvqcd0","pricing_plan_id":"cebpf4jnsgd1na2vs0mg"},{"bike_id":"dbfe17eb-b9d3-45ba-8d73-93d8f15d33ea","system_id":"levelo_inurba_marseille","lat":43.29971,"lon":5.38496,"is_reserved":false,"is_disabled":false,"rental_uris":{"android":"levelo://app?vid=dbfe17eb-b9d3-45ba-8d73-93d8f15d33ea","ios":"levelo://app?vid=dbfe17eb-b9d3-45ba-8d73-93d8f15d33ea"},"vehicle_type_id":"4","last_reported":1731351967,"current_range_meters":6000,"station_id":"ce4bgj92rcd13ifvqbd0","pricing_plan_id":"cebpf4jnsgd1na2vs0mg"},{"bike_id":"c30c7c17-b515-4143-9517-47b104debd66","system_id":"levelo_inurba_marseille","lat":43.337444,"lon":5.374475,"is_reserved":false,"is_disabled":false,"rental_uris":{"android":"levelo://app?vid=c30c7c17-b515-4143-9517-47b104debd66","ios":"levelo://app?vid=c30c7c17-b515-4143-9517-47b104debd66"},"vehicle_type_id":"4","last_reported":1731351967,"current_range_meters":9200,"station_id":"","pricing_plan_id":"cebpf4jnsgd1na2vs0mg"},{"bike_id":"a7c4b617-2161-4909-ba5a-46a42b730c51","system_id":"levelo_inurba_marseille","lat":43.25112,"lon":5.40321,"is_reserved":false,"is_disabled":false,"rental_uris":{"android":"levelo://app?vid=a7c4b617-2161-4909-ba5a-46a42b730c51","ios":"levelo://app?vid=a7c4b617-2161-4909-ba5a-46a42b730c51"},"vehicle_type_id":"4","last_reported":1731351967,"current_range_meters":7200,"station_id":"ce4bhlh2rcd13ifvqgig","pricing_plan_id":"cebpf4jnsgd1na2vs0mg"},{"bike_id":"a3737c00-2b24-45c7-87f6-a52becd1e5b4","system_id":"levelo_inurba_marseille","lat":43.27087,"lon":5.37987,"is_reserved":false,"is_disabled":false,"rental_uris":{"android":"levelo://app?vid=a3737c00-2b24-45c7-87f6-a52becd1e5b4","ios":"levelo://app?vid=a3737c00-2b24-45c7-87f6-a52becd1e5b4"},"vehicle_type_id":"4","last_reported":1731351967,"current_range_meters":30400,"station_id":"","pricing_plan_id":"cebpf4jnsgd1na2vs0mg"},{"bike_id":"53817cba-4c0c-4988-b4bb-6dbf4947a161","system_id":"levelo_inurba_marseille","lat":43.31151,"lon":5.39472,"is_reserved":false,"is_disabled":false,"rental_uris":{"android":"levelo://app?vid=53817cba-4c0c-4988-b4bb-6dbf4947a161","ios":"levelo://app?vid=53817cba-4c0c-4988-b4bb-6dbf4947a161"},"vehicle_type_id":"4","last_reported":1731351967,"current_range_meters":26000,"station_id":"","pricing_plan_id":"cebpf4jnsgd1na2vs0mg"},{"bike_id":"030a3152-a7c2-49bc-a68e-3c1a0437a626","system_id":"levelo_inurba_marseille","lat":43.31752,"lon":5.39016,"is_reserved":false,"is_disabled":false,"rental_uris":{"android":"levelo://app?vid=030a3152-a7c2-49bc-a68e-3c1a0437a626","ios":"levelo://app?vid=030a3152-a7c2-49bc-a68e-3c1a0437a626"},"vehicle_type_id":"4","last_reported":1731351967,"current_range_meters":6400,"station_id":"ce4bhqp2rcd13ifvqhng","pricing_plan_id":"cebpf4jnsgd1na2vs0mg"},{"bike_id":"5bc82e0b-7fa1-447e-a829-4300583802e4","system_id":"levelo_inurba_marseille","lat":43.31262,"lon":5.38206,"is_reserved":false,"is_disabled":false,"rental_uris":{"android":"levelo://app?vid=5bc82e0b-7fa1-447e-a829-4300583802e4","ios":"levelo://app?vid=5bc82e0b-7fa1-447e-a829-4300583802e4"},"vehicle_type_id":"4","last_reported":1731351967,"current_range_meters":14800,"station_id":"ce4bhsp2rcd13ifvqi50","pricing_plan_id":"cebpf4jnsgd1na2vs0mg"},{"bike_id":"3c8af3c5-bb73-4ccb-bf1c-ce6f9151d77c","system_id":"levelo_inurba_marseille","lat":43.239671,"lon":5.366305,"is_reserved":false,"is_disabled":false,"rental_uris":{"android":"levelo://app?vid=3c8af3c5-bb73-4ccb-bf1c-ce6f9151d77c","ios":"levelo://app?vid=3c8af3c5-bb73-4ccb-bf1c-ce6f9151d77c"},"vehicle_type_id":"4","last_reported":1731351967,"current_range_meters":39200,"station_id":"ce4bhi12rcd13ifvqfp0","pricing_plan_id":"cebpf4jnsgd1na2vs0mg"},{"bike_id":"01d5a510-61fb-490a-91df-9435699f9003","system_id":"levelo_inurba_marseille","lat":43.30546,"lon":5.36557,"is_reserved":false,"is_disabled":false,"rental_uris":{"android":"levelo://app?vid=01d5a510-61fb-490a-91df-9435699f9003","ios":"levelo://app?vid=01d5a510-61fb-490a-91df-9435699f9003"},"vehicle_type_id":"4","last_reported":1731351967,"current_range_meters":39200,"station_id":"ce4bgs12rcd13ifvqcag","pricing_plan_id":"cebpf4jnsgd1na2vs0mg"},{"bike_id":"525d5400-220e-4f48-882c-7f1d15d8df98","system_id":"levelo_inurba_marseille","lat":43.2645,"lon":5.39073,"is_reserved":false,"is_disabled":false,"rental_uris":{"android":"levelo://app?vid=525d5400-220e-4f48-882c-7f1d15d8df98","ios":"levelo://app?vid=525d5400-220e-4f48-882c-7f1d15d8df98"},"vehicle_type_id":"4","last_reported":1731351967,"current_range_meters":9600,"station_id":"","pricing_plan_id":"cebpf4jnsgd1na2vs0mg"},{"bike_id":"53f36564-5333-43ec-948a-d82c731013f1","system_id":"levelo_inurba_marseille","lat":43.29533,"lon":5.38543,"is_reserved":false,"is_disabled":false,"rental_uris":{"android":"levelo://app?vid=53f36564-5333-43ec-948a-d82c731013f1","ios":"levelo://app?vid=53f36564-5333-43ec-948a-d82c731013f1"},"vehicle_type_id":"4","last_reported":1731351967,"current_range_meters":18000,"station_id":"ce4bgih2rcd13ifvqba0","pricing_plan_id":"cebpf4jnsgd1na2vs0mg"},{"bike_id":"c6ff7b33-38f4-450a-86f8-ed1ad8e608d7","system_id":"levelo_inurba_marseille","lat":43.30668,"lon":5.40098,"is_reserved":false,"is_disabled":false,"rental_uris":{"android":"levelo://app?vid=c6ff7b33-38f4-450a-86f8-ed1ad8e608d7","ios":"levelo://app?vid=c6ff7b33-38f4-450a-86f8-ed1ad8e608d7"},"vehicle_type_id":"4","last_reported":1731351967,"current_range_meters":38800,"station_id":"ce4bh112rcd13ifvqda0","pricing_plan_id":"cebpf4jnsgd1na2vs0mg"},{"bike_id":"b00db9b0-c3e3-4539-b55c-e73ecb5a06ba","system_id":"levelo_inurba_marseille","lat":43.23194,"lon":5.35557,"is_reserved":false,"is_disabled":false,"rental_uris":{"android":"levelo://app?vid=b00db9b0-c3e3-4539-b55c-e73ecb5a06ba","ios":"levelo://app?vid=b00db9b0-c3e3-4539-b55c-e73ecb5a06ba"},"vehicle_type_id":"4","last_reported":1731351967,"current_range_meters":3600,"station_id":"ce4bhu92rcd13ifvqi70","pricing_plan_id":"cebpf4jnsgd1na2vs0mg"},{"bike_id":"670593ae-9180-43b6-9182-34a36d6899d4","system_id":"levelo_inurba_marseille","lat":43.29553,"lon":5.37523,"is_reserved":false,"is_disabled":false,"rental_uris":{"android":"levelo://app?vid=670593ae-9180-43b6-9182-34a36d6899d4","ios":"levelo://app?vid=670593ae-9180-43b6-9182-34a36d6899d4"},"vehicle_type_id":"4","last_reported":1731351967,"current_range_meters":21600,"station_id":"ce4bgh92rcd13ifvqb50","pricing_plan_id":"cebpf4jnsgd1na2vs0mg"},{"bike_id":"e0186bf7-9328-4e9f-b211-014fa0c8e51e","system_id":"levelo_inurba_marseille","lat":43.27562,"lon":5.38428,"is_reserved":false,"is_disabled":false,"rental_uris":{"android":"levelo://app?vid=e0186bf7-9328-4e9f-b211-014fa0c8e51e","ios":"levelo://app?vid=e0186bf7-9328-4e9f-b211-014fa0c8e51e"},"vehicle_type_id":"4","last_reported":1731351967,"current_range_meters":37600,"station_id":"ce4bhh92rcd13ifvqfi0","pricing_plan_id":"cebpf4jnsgd1na2vs0mg"},{"bike_id":"5b7e2828-0426-4f26-b2f2-3a9ef13be55c","system_id":"levelo_inurba_marseille","lat":43.29523,"lon":5.39401,"is_reserved":false,"is_disabled":false,"rental_uris":{"android":"levelo://app?vid=5b7e2828-0426-4f26-b2f2-3a9ef13be55c","ios":"levelo://app?vid=5b7e2828-0426-4f26-b2f2-3a9ef13be55c"},"vehicle_type_id":"4","last_reported":1731351967,"current_range_meters":31200,"station_id":"ce4bh292rcd13ifvqdf0","pricing_plan_id":"cebpf4jnsgd1na2vs0mg"},{"bike_id":"99973592-84be-4718-8200-51366bd2ca45","system_id":"levelo_inurba_marseille","lat":43.308952,"lon":5.371886,"is_reserved":false,"is_disabled":false,"rental_uris":{"android":"levelo://app?vid=99973592-84be-4718-8200-51366bd2ca45","ios":"levelo://app?vid=99973592-84be-4718-8200-51366bd2ca45"},"vehicle_type_id":"4","last_reported":1731351967,"current_range_meters":32800,"station_id":"ce4bguh2rcd13ifvqckg","pricing_plan_id":"cebpf4jnsgd1na2vs0mg"},{"bike_id":"caf2133f-9347-4322-af10-ea81779c0d54","system_id":"levelo_inurba_marseille","lat":43.26809,"lon":5.40258,"is_reserved":false,"is_disabled":false,"rental_uris":{"android":"levelo://app?vid=caf2133f-9347-4322-af10-ea81779c0d54","ios":"levelo://app?vid=caf2133f-9347-4322-af10-ea81779c0d54"},"vehicle_type_id":"4","last_reported":1731351967,"current_range_meters":9600,"station_id":"ce501612rcd8frsf0b60","pricing_plan_id":"cebpf4jnsgd1na2vs0mg"},