{"last_updated":1704125290,"ttl":30,"version":"2.2","data":{"bikes":[{"bike_id":"7d85abb0-786c-454d-939c-3f7819b2c5c6","system_id":"levelo_inurba_marseille","lat":43.31341,"lon":5.367098,"is_reserved":false,"is_disabled":false,"rental_uris":{"android":"levelo://app?vid=7d85abb0-786c-454d-939c-3f7819b2c5c6","ios":"levelo://app?vid=7d85abb0-786c-454d-939c-3f7819b2c5c6"},"vehicle_type_id":"4","last_reported":1704125291,"current_range_meters":31600,"station_id":"ce4bgr92rcd13ifvqc6g","pricing_plan_id":"free"},{"bike_id":"19681d20-0e94-4d95-bd6e-75843e212133","system_id":"levelo_inurba_marseille","lat":43.313391,"lon":5.36706,"is_reserved":false,"is_disabled":false,"rental_uris":{"android":"levelo://app?vid=19681d20-0e94-4d95-bd6e-75843e212133","ios":"levelo://app?vid=19681d20-0e94-4d95-bd6e-75843e212133"},"vehicle_type_id":"4","last_reported":1704125291,"current_range_meters":28800,"station_id":"ce4bgr92rcd13ifvqc6g","pricing_plan_id":"free"},{"bike_id":"a996665b-2d87-4552-8a22-15efdfad4c1d","system_id":"levelo_inurba_marseille","lat":43.31341,"lon":5.367098,"is_reserved":false,"is_disabled":false,"rental_uris":{"android":"levelo://app?vid=a996665b-2d87-4552-8a22-15efdfad4c1d","ios":"levelo://app?vid=a996665b-2d87-4552-8a22-15efdfad4c1d"},"vehicle_type_id":"4","last_reported":1704125291,"current_range_meters":20000,"station_id":"ce4bgr92rcd13ifvqc6g","pricing_plan_id":"free"},{"bike_id":"b34e513e-d39c-49a1-ab01-a270d2fa3059","system_id":"levelo_inurba_marseille","lat":43.31341,"lon":5.367098,"is_reserved":false,"is_disabled":false,"rental_uris":{"android":"levelo://app?vid=b34e513e-d39c-49a1-ab01-a270d2fa3059","ios":"levelo://app?vid=b34e513e-d39c-49a1-ab01-a270d2fa3059"},"vehicle_type_id":"4","last_reported":1704125291,"current_range_meters":27600,"station_id":"ce4bgr92rcd13ifvqc6g","pricing_plan_id":"free"},{"bike_id":"919dfe44-fe7e-443f-8c95-a074229b7bd7","system_id":"levelo_inurba_marseille","lat":43.312239,"lon":5.368562,"is_reserved":false,"is_disabled":false,"rental_uris":{"android":"levelo://app?vid=919dfe44-fe7e-443f-8c95-a074229b7bd7","ios":"levelo://app?vid=919dfe44-fe7e-443f-8c95-a074229b7bd7"},"vehicle_type_id":"4","last_reported":1704125291,"current_range_meters":26800,"station_id":"ce4bgl92rcd13ifvqbq0","pricing_plan_id":"free"},{"bike_id":"d7f04f80-0fd8-4dd0-9d52-1496823fdfee","system_id":"levelo_inurba_marseille","lat":43.312239,"lon":5.368562,"is_reserved":false,"is_disabled":false,"rental_uris":{"android":"levelo://app?vid=d7f04f80-0fd8-4dd0-9d52-1496823fdfee","ios":"levelo://app?vid=d7f04f80-0fd8-4dd0-9d52-1496823fdfee"},"vehicle_type_id":"4","last_reported":1704125291,"current_range_meters":29200,"station_id":"ce4bgl92rcd13ifvqbq0","pricing_plan_id":"free"},{"bike_id":"44a9498d-b1bb-4a79-8fdb-f829f6d9457c","system_id":"levelo_inurba_marseille","lat":43.312239,"lon":5.368562,"is_reserved":false,"is_disabled":false,"rental_uris":{"android":"levelo://app?vid=44a9498d-b1bb-4a79-8fdb-f829f6d9457c","ios":"levelo://app?vid=44a9498d-b1bb-4a79-8fdb-f829f6d9457c"},"vehicle_type_id":"4","last_reported":1704125291,"current_range_meters":26800,"station_id":"ce4bgl92rcd13ifvqbq0","pricing_plan_id":"free"},{"bike_id":"33ecc7cb-a5cc-4ab9-afe8-3a61e292b84d","system_id":"levelo_inurba_marseille","lat":43.312239,"lon":5.368562,"is_reserved":false,"is_disabled":false,"rental_uris":{"android":"levelo://app?vid=33ecc7cb-a5cc-4ab9-afe8-3a61e292b84d","ios":"levelo://app?vid=33ecc7cb-a5cc-4ab9-afe8-3a61e292b84d"},"vehicle_type_id":"4","last_reported":1704125291,"current_range_meters":31200,"station_id":"ce4bgl92rcd13ifvqbq0","pricing_plan_id":"free"},{"bike_id":"b05899b3-8ab3-4589-a279-f47585ec22ec","system_id":"levelo_inurba_marseille","lat":43.309058,"lon":5.368478,"is_reserved":false,"is_disabled":false,"rental_uris":{"android":"levelo://app?vid=b05899b3-8ab3-4589-a279-f47585ec22ec","ios":"levelo://app?vid=b05899b3-8ab3-4589-a279-f47585ec22ec"},"vehicle_type_id":"4","last_reported":1704125291,"current_range_meters":29600,"station_id":"ce4bgn92rcd13ifvqbvg","pricing_plan_id":"free"},{"bike_id":"6620e0de-7ddb-40be-b326-1e18fa56b2c0","system_id":"levelo_inurba_marseille","lat":43.30559,"lon":5.36708,"is_reserved":false,"is_disabled":false,"rental_uris":{"android":"levelo://app?vid=6620e0de-7ddb-40be-b326-1e18fa56b2c0","ios":"levelo://app?vid=6620e0de-7ddb-40be-b326-1e18fa56b2c0"},"vehicle_type_id":"4","last_reported":1704125291,"current_range_meters":31200,"station_id":"ce4bgrp2rcd13ifvqc9g","pricing_plan_id":"free"},{"bike_id":"fcd4091a-97ab-4e2b-8c12-0c8375797e63","system_id":"levelo_inurba_marseille","lat":43.30558,"lon":5.36703,"is_reserved":false,"is_disabled":false,"rental_uris":{"android":"levelo://app?vid=fcd4091a-97ab-4e2b-8c12-0c8375797e63","ios":"levelo://app?vid=fcd4091a-97ab-4e2b-8c12-0c8375797e63"},"vehicle_type_id":"4","last_reported":1704125291,"current_range_meters":18800,"station_id":"ce4bgrp2rcd13ifvqc9g","pricing_plan_id":"free"},{"bike_id":"b8c5c408-e8d1-489c-89dc-c2c21936d2ee","system_id":"levelo_inurba_marseille","lat":43.305368,"lon":5.367343,"is_reserved":false,"is_disabled":false,"rental_uris":{"android":"levelo://app?vid=b8c5c408-e8d1-489c-89dc-c2c21936d2ee","ios":"levelo://app?vid=b8c5c408-e8d1-489c-89dc-c2c21936d2ee"},"vehicle_type_id":"4","last_reported":1704125291,"current_range_meters":15200,"station_id":"ce4bgrp2rcd13ifvqc9g","pricing_plan_id":"free"},{"bike_id":"6cc10ba3-514e-4b87-b859-081a0f2df958","system_id":"levelo_inurba_marseille","lat":43.305706,"lon":5.365654,"is_reserved":false,"is_disabled":false,"rental_uris":{"android":"levelo://app?vid=6cc10ba3-514e-4b87-b859-081a0f2df958","ios":"levelo://app?vid=6cc10ba3-514e-4b87-b859-081a0f2df958"},"vehicle_type_id":"4","last_reported":1704125291,"current_range_meters":22800,"station_id":"ce4bgs12rcd13ifvqcag","pricing_plan_id":"free"},{"bike_id":"6d713102-f80e-45c0-8242-91acd30af2e0","system_id":"levelo_inurba_marseille","lat":43.311125,"lon":5.377624,"is_reserved":false,"is_disabled":false,"rental_uris":{"android":"levelo://app?vid=6d713102-f80e-45c0-8242-91acd30af2e0","ios":"levelo://app?vid=6d713102-f80e-45c0-8242-91acd30af2e0"},"vehicle_type_id":"4","last_reported":1704125291,"current_range_meters":25200,"station_id":"ce4bgt92rcd13ifvqcg0","pricing_plan_id":"free"},{"bike_id":"25af9e1c-886c-4f64-92f2-5ca68e46ae4a","system_id":"levelo_inurba_marseille","lat":43.31722,"lon":5.37668,"is_reserved":false,"is_disabled":false,"rental_uris":{"android":"levelo://app?vid=25af9e1c-886c-4f64-92f2-5ca68e46ae4a","ios":"levelo://app?vid=25af9e1c-886c-4f64-92f2-5ca68e46ae4a"},"vehicle_type_id":"4","last_reported":1704125291,"current_range_meters":17600,"station_id":"","pricing_plan_id":"free"},{"bike_id":"d9d105f3-e262-45d4-949d-7934e366a77b","system_id":"levelo_inurba_marseille","lat":43.307945,"lon":5.376487,"is_reserved":false,"is_disabled":false,"rental_uris":{"android":"levelo://app?vid=d9d105f3-e262-45d4-949d-7934e366a77b","ios":"levelo://app?vid=d9d105f3-e262-45d4-949d-7934e366a77b"},"vehicle_type_id":"4","last_reported":1704125291,"current_range_meters":0,"station_id":"ce4bgv92rcd13ifvqcq0","pricing_plan_id":"free"},{"bike_id":"f9ae486b-b863-49d9-a516-4fbb2113a3cc","system_id":"levelo_inurba_marseille","lat":43.31648,"lon":5.37786,"is_reserved":false,"is_disabled":false,"rental_uris":{"android":"levelo://app?vid=f9ae486b-b863-49d9-a516-4fbb2113a3cc","ios":"levelo://app?vid=f9ae486b-b863-49d9-a516-4fbb2113a3cc"},"vehicle_type_id":"4","last_reported":1704125291,"current_range_meters":18400,"station_id":"","pricing_plan_id":"free"},{"bike_id":"c5b7308a-375f-463e-bb00-e0e039803241","system_id":"levelo_inurba_marseille","lat":43.301939,"lon":5.366286,"is_reserved":false,"is_disabled":false,"rental_uris":{"android":"levelo://app?vid=c5b7308a-375f-463e-bb00-e0e039803241","ios":"levelo://app?vid=c5b7308a-375f-463e-bb00-e0e039803241"},"vehicle_type_id":"4","last_reported":1704125291,"current_range_meters":27600,"station_id":"ce4bgrh2rcd13ifvqc8g","pricing_plan_id":"free"},{"bike_id":"06e7aa5c-9417-4cdd-acec-73fa44d8009a","system_id":"levelo_inurba_marseille","lat":43.301939,"lon":5.366286,"is_reserved":false,"is_disabled":false,"rental_uris":{"android":"levelo://app?vid=06e7aa5c-9417-4cdd-acec-73fa44d8009a","ios":"levelo://app?vid=06e7aa5c-9417-4cdd-acec-73fa44d8009a"},"vehicle_type_id":"4","last_reported":1704125291,"current_range_meters":30000,"station_id":"ce4bgrh2rcd13ifvqc8g","pricing_plan_id":"free"},{"bike_id":"16503b00-600c-42e4-acb0-40cca7f9eb4f","system_id":"levelo_inurba_marseille","lat":43.30196,"lon":5.36617,"is_reserved":false,"is_disabled":false,"rental_uris":{"android":"levelo://app?vid=16503b00-600c-42e4-acb0-40cca7f9eb4f","ios":"levelo://app?vid=16503b00-600c-42e4-acb0-40cca7f9eb4f"},"vehicle_type_id":"4","last_reported":1704125291,"current_range_meters":31600,"station_id":"ce4bgrh2rcd13ifvqc8g","pricing_plan_id":"free"},{"bike_id":"be2855b1-da16-402f-91e0-70b13e437797","system_id":"levelo_inurba_marseille","lat":43.301939,"lon":5.366286,"is_reserved":false,"is_disabled":false,"rental_uris":{"android":"levelo://app?vid=be2855b1-da16-402f-91e0-70b13e437797","ios":"levelo://app?vid=be2855b1-da16-402f-91e0-70b13e437797"},"vehicle_type_id":"4","last_reported":1704125291,"current_range_meters":28000,"station_id":"ce4bgrh2rcd13ifvqc8g","pricing_plan_id":"free"},{"bike_id":"856b0c6f-ff8f-440c-ba13-0054a6628d7c","system_id":"levelo_inurba_marseille","lat":43.301939,"lon":5.366286,"is_reserved":false,"is_disabled":false,"rental_uris":{"android":"levelo://app?vid=856b0c6f-ff8f-440c-ba13-0054a6628d7c","ios":"levelo://app?vid=856b0c6f-ff8f-440c-ba13-0054a6628d7c"},"vehicle_type_id":"4","last_reported":1704125291,"current_range_meters":12400,"station_id":"ce4bgrh2rcd13ifvqc8g","pricing_plan_id":"free"},{"bike_id":"dffc2115-7fb4-446b-a125-f242d4063b8a","system_id":"levelo_inurba_marseille","lat":43.304708,"lon":5.379039,"is_reserved":false,"is_disabled":false,"rental_uris":{"android":"levelo://app?vid=dffc2115-7fb4-446b-a125-f242d4063b8a","ios":"levelo://app?vid=dffc2115-7fb4-446b-a125-f242d4063b8a"},"vehicle_type_id":"4","last_reported":1704125291,"current_range_meters":14400,"station_id":"","pricing_plan_id":"free"},{"bike_id":"a07da0ff-219d-4390-b170-36589bb97693","system_id":"levelo_inurba_marseille","lat":43.304606,"lon":5.379026,"is_reserved":false,"is_disabled":false,"rental_uris":{"android":"levelo://app?vid=a07da0ff-219d-4390-b170-36589bb97693","ios":"levelo://app?vid=a07da0ff-219d-4390-b170-36589bb97693"},"vehicle_type_id":"4","last_reported":1704125291,"current_range_meters":8000,"station_id":"ce4bgup2rcd13ifvqcn0","pricing_plan_id":"free"},{"bike_id":"093bf620-0655-47a6-8dca-b6fcd94ee381","system_id":"levelo_inurba_marseille","lat":43.304606,"lon":5.379026,"is_reserved":false,"is_disabled":false,"rental_uris":{"android":"levelo://app?vid=093bf620-0655-47a6-8dca-b6fcd94ee381","ios":"levelo://app?vid=093bf620-0655-47a6-8dca-b6fcd94ee381"},"vehicle_type_id":"4","last_reported":1704125291,"current_range_meters":12400,"station_id":"ce4bgup2rcd13ifvqcn0","pricing_plan_id":"free"},{"bike_id":"79f0d8a4-334f-4f3c-a8df-bf0b7ddfd4c9","system_id":"levelo_inurba_marseille","lat":43.32483,"lon":5.3657,"is_reserved":false,"is_disabled":false,"rental_uris":{"android":"levelo://app?vid=79f0d8a4-334f-4f3c-a8df-bf0b7ddfd4c9","ios":"levelo://app?vid=79f0d8a4-334f-4f3c-a8df-bf0b7ddfd4c9"},"vehicle_type_id":"4","last_reported":1704125291,"current_range_meters":31200,"station_id":"ce4bhs12rcd13ifvqhvg","pricing_plan_id":"free"},{"bike_id":"37654fee-c31e-4e93-a13c-b8fb11c15bab","system_id":"levelo_inurba_marseille","lat":43.302799,"lon":5.377003,"is_reserved":false,"is_disabled":false,"rental_uris":{"android":"levelo://app?vid=37654fee-c31e-4e93-a13c-b8fb11c15bab","ios":"levelo://app?vid=37654fee-c31e-4e93-a13c-b8fb11c15bab"},"vehicle_type_id":"4","last_reported":1704125291,"current_range_meters":28800,"station_id":"ce4bguh2rcd13ifvqcj0","pricing_plan_id":"free"},{"bike_id":"12cc3e03-e48b-4f30-bfc9-f1b37a6da005","system_id":"levelo_inurba_marseille","lat":43.302791,"lon":5.37703,"is_reserved":false,"is_disabled":false,"rental_uris":{"android":"levelo://app?vid=12cc3e03-e48b-4f30-bfc9-f1b37a6da005","ios":"levelo://app?vid=12cc3e03-e48b-4f30-bfc9-f1b37a6da005"},"vehicle_type_id":"4","last_reported":1704125291,"current_range_meters":30400,"station_id":"ce4bguh2rcd13ifvqcj0","pricing_plan_id":"free"},{"bike_id":"2a6c552b-c8f3-404a-aceb-36f8473ac999","system_id":"levelo_inurba_marseille","lat":43.28573,"lon":5.394992,"is_reserved":false,"is_disabled":false,"rental_uris":{"android":"levelo://app?vid=2a6c552b-c8f3-404a-aceb-36f8473ac999","ios":"levelo://app?vid=2a6c552b-c8f3-404a-aceb-36f8473ac999"},"vehicle_type_id":"4","last_reported":1704125291,"current_range_meters":30000,"station_id":"ce4bh292rcd13ifvqdg0","pricing_plan_id":"free"},{"bike_id":"f1c4a9f6-f95e-4244-be32-9b3daec9f8d4","system_id":"levelo_inurba_marseille","lat":43.319935,"lon":5.381699,"is_reserved":false,"is_disabled":false,"rental_uris":{"android":"levelo://app?vid=f1c4a9f6-f95e-4244-be32-9b3daec9f8d4","ios":"levelo://app?vid=f1c4a9f6-f95e-4244-be32-9b3daec9f8d4"},"vehicle_type_id":"4","last_reported":1704125291,"current_range_meters":24800,"station_id":"ce4bhr12rcd13ifvqhpg","pricing_plan_id":"free"},{"bike_id":"5c44696d-f757-4e6c-b38f-00d725722da5","system_id":"levelo_inurba_marseille","lat":43.299222,"lon":5.365554,"is_reserved":false,"is_disabled":false,"rental_uris":{"android":"levelo://app?vid=5c44696d-f757-4e6c-b38f-00d725722da5","ios":"levelo://app?vid=5c44696d-f757-4e6c-b38f-00d725722da5"},"vehicle_type_id":"4","last_reported":1704125291,"current_range_meters":8800,"station_id":"ce4bgm92rcd13ifvqbr0","pricing_plan_id":"free"},{"bike_id":"34050645-765a-4e56-b9bd-039b74964d5f","system_id":"levelo_inurba_marseille","lat":43.299222,"lon":5.365554,"is_reserved":false,"is_disabled":false,"rental_uris":{"android":"levelo://app?vid=34050645-765a-4e56-b9bd-039b74964d5f","ios":"levelo://app?vid=34050645-765a-4e56-b9bd-039b74964d5f"},"vehicle_type_id":"4","last_reported":1704125291,"current_range_meters":24000,"station_id":"ce4bgm92rcd13ifvqbr0","pricing_plan_id":"free"},{"bike_id":"5a7b6f71-2a1a-475e-9087-fdbf7ac8818b","system_id":"levelo_inurba_marseille","lat":43.3,"lon":5.37409,"is_reserved":false,"is_disabled":false,"rental_uris":{"android":"levelo://app?vid=5a7b6f71-2a1a-475e-9087-fdbf7ac8818b","ios":"levelo://app?vid=5a7b6f71-2a1a-475e-9087-fdbf7ac8818b"},"vehicle_type_id":"4","last_reported":1704125291,"current_range_meters":22000,"station_id":"","pricing_plan_id":"free"},{"bike_id":"cb61b1ee-3eb8-48f3-841d-c9b1d0b581e2","system_id":"levelo_inurba_marseille","lat":43.304606,"lon":5.379026,"is_reserved":false,"is_disabled":false,"rental_uris":{"android":"levelo://app?vid=cb61b1ee-3eb8-48f3-841d-c9b1d0b581e2","ios":"levelo://app?vid=cb61b1ee-3eb8-48f3-841d-c9b1d0b581e2"},"vehicle_type_id":"4","last_reported":1704125291,"current_range_meters":800,"station_id":"ce4bgup2rcd13ifvqcn0","pricing_plan_id":"free"},{"bike_id":"45be1f6c-adf3-4113-8854-aa518c525d85","system_id":"levelo_inurba_marseille","lat":43.310651,"lon":5.386145,"is_reserved":false,"is_disabled":false,"rental_uris":{"android":"levelo://app?vid=45be1f6c-adf3-4113-8854-aa518c525d85","ios":"levelo://app?vid=45be1f6c-adf3-4113-8854-aa518c525d85"},"vehicle_type_id":"4","last_reported":1704125291,"current_range_meters":26400,"station_id":"","pricing_plan_id":"free"},{"bike_id":"a7cc8da7-23dc-48b9-8331-ad80bc4b63e2","system_id":"levelo_inurba_marseille","lat":43.298433,"lon":5.362774,"is_reserved":false,"is_disabled":false,"rental_uris":{"android":"levelo://app?vid=a7cc8da7-23dc-48b9-8331-ad80bc4b63e2","ios":"levelo://app?vid=a7cc8da7-23dc-48b9-8331-ad80bc4b63e2"},"vehicle_type_id":"4","last_reported":1704125291,"current_range_meters":24000,"station_id":"ce4bgpp2rcd13ifvqc3g","pricing_plan_id":"free"},{"bike_id":"16942a59-a5a2-4bd9-aee5-b6ecbfb7ce2f","system_id":"levelo_inurba_marseille","lat":43.299243,"lon":5.37481,"is_reserved":false,"is_disabled":false,"rental_uris":{"android":"levelo://app?vid=16942a59-a5a2-4bd9-aee5-b6ecbfb7ce2f","ios":"levelo://app?vid=16942a59-a5a2-4bd9-aee5-b6ecbfb7ce2f"},"vehicle_type_id":"4","last_reported":1704125291,"current_range_meters":8000,"station_id":"ce4bgjh2rcd13ifvqbg0","pricing_plan_id":"free"},{"bike_id":"3c9bf24c-b538-4eae-99f5-9903fe75c815","system_id":"levelo_inurba_marseille","lat":43.322872,"lon":5.382756,"is_reserved":false,"is_disabled":false,"rental_uris":{"android":"levelo://app?vid=3c9bf24c-b538-4eae-99f5-9903fe75c815","ios":"levelo://app?vid=3c9bf24c-b538-4eae-99f5-9903fe75c815"},"vehicle_type_id":"4","last_reported":1704125291,"current_range_meters":7200,"station_id":"ce4bhr12rcd13ifvqhqg","pricing_plan_id":"free"},{"bike_id":"3406ac08-144e-419c-8a8c-9c89910b5b78","system_id":"levelo_inurba_marseille","lat":43.328248,"lon":5.36683,"is_reserved":false,"is_disabled":false,"rental_uris":{"android":"levelo://app?vid=3406ac08-144e-419c-8a8c-9c89910b5b78","ios":"levelo://app?vid=3406ac08-144e-419c-8a8c-9c89910b5b78"},"vehicle_type_id":"4","last_reported":1704125291,"current_range_meters":22000,"station_id":"ce4bhs92rcd13ifvqi0g","pricing_plan_id":"free"},{"bike_id":"ea7074d7-b7c9-4941-82c2-dff391bae9cb","system_id":"levelo_inurba_marseille","lat":43.32827,"lon":5.36682,"is_reserved":false,"is_disabled":false,"rental_uris":{"android":"levelo://app?vid=ea7074d7-b7c9-4941-82c2-dff391bae9cb","ios":"levelo://app?vid=ea7074d7-b7c9-4941-82c2-dff391bae9cb"},"vehicle_type_id":"4","last_reported":1704125291,"current_range_meters":20000,"station_id":"ce4bhs92rcd13ifvqi0g","pricing_plan_id":"free"},{"bike_id":"8233d320-3015-483d-9317-9f5ea8045c87","system_id":"levelo_inurba_marseille","lat":43.3283,"lon":5.36692,"is_reserved":false,"is_disabled":false,"rental_uris":{"android":"levelo://app?vid=8233d320-3015-483d-9317-9f5ea8045c87","ios":"levelo://app?vid=8233d320-3015-483d-9317-9f5ea8045c87"},"vehicle_type_id":"4","last_reported":1704125291,"current_range_meters":6400,"station_id":"","pricing_plan_id":"free"},{"bike_id":"777e7b6f-5840-4b9c-afcf-288933a9c0d9","system_id":"levelo_inurba_marseille","lat":43.328371,"lon":5.366909,"is_reserved":false,"is_disabled":false,"rental_uris":{"android":"levelo://app?vid=777e7b6f-5840-4b9c-afcf-288933a9c0d9","ios":"levelo://app?vid=777e7b6f-5840-4b9c-afcf-288933a9c0d9"},"vehicle_type_id":"4","last_reported":1704125291,"current_range_meters":24000,"station_id":"ce4bhs92rcd13ifvqi0g","pricing_plan_id":"free"},{"bike_id":"36cdfdfc-7da0-4d6d-8735-898275b3a109","system_id":"levelo_inurba_marseille","lat":43.297163,"lon":5.365866,"is_reserved":false,"is_disabled":false,"rental_uris":{"android":"levelo://app?vid=36cdfdfc-7da0-4d6d-8735-898275b3a109","ios":"levelo://app?vid=36cdfdfc-7da0-4d6d-8735-898275b3a109"},"vehicle_type_id":"4","last_reported":1704125291,"current_range_meters":18400,"station_id":"ce4bgn12rcd13ifvqbt0","pricing_plan_id":"free"},{"bike_id":"370cccf7-c9ba-46c2-819b-c8e8cacc4c21","system_id":"levelo_inurba_marseille","lat":43.3277,"lon":5.37458,"is_reserved":false,"is_disabled":false,"rental_uris":{"android":"levelo://app?vid=370cccf7-c9ba-46c2-819b-c8e8cacc4c21","ios":"levelo://app?vid=370cccf7-c9ba-46c2-819b-c8e8cacc4c21"},"vehicle_type_id":"4","last_reported":1704125291,"current_range_meters":12000,"station_id":"","pricing_plan_id":"free"},{"bike_id":"b3b2fed5-b74a-426a-a194-84d13e925a7d","system_id":"levelo_inurba_marseille","lat":43.29573,"lon":5.367355,"is_reserved":false,"is_disabled":false,"rental_uris":{"android":"levelo://app?vid=b3b2fed5-b74a-426a-a194-84d13e925a7d","ios":"levelo://app?vid=b3b2fed5-b74a-426a-a194-84d13e925a7d"},"vehicle_type_id":"4","last_reported":1704125291,"current_range_meters":12400,"station_id":"ce4bgph2rcd13ifvqc2g","pricing_plan_id":"free"},{"bike_id":"77d51744-95e3-4801-b840-1487b949a7ce","system_id":"levelo_inurba_marseille","lat":43.317557,"lon":5.390173,"is_reserved":false,"is_disabled":false,"rental_uris":{"android":"levelo://app?vid=77d51744-95e3-4801-b840-1487b949a7ce","ios":"levelo://app?vid=77d51744-95e3-4801-b840-1487b949a7ce"},"vehicle_type_id":"4","last_reported":1704125291,"current_range_meters":30800,"station_id":"ce4bhqp2rcd13ifvqhng","pricing_plan_id":"free"},{"bike_id":"5eb924fa-c39a-4260-b8ee-d69e93c5f06a","system_id":"levelo_inurba_marseille","lat":43.317557,"lon":5.390173,"is_reserved":false,"is_disabled":false,"rental_uris":{"android":"levelo://app?vid=5eb924fa-c39a-4260-b8ee-d69e93c5f06a","ios":"levelo://app?vid=5eb924fa-c39a-4260-b8ee-d69e93c5f06a"},"vehicle_type_id":"4","last_reported":1704125291,"current_range_meters":28000,"station_id":"ce4bhqp2rcd13ifvqhng","pricing_plan_id":"free"},{"bike_id":"89041833-1fc4-4374-bd3b-95137a9affed","system_id":"levelo_inurba_marseille","lat":43.304278,"lon":5.388868,"is_reserved":false,"is_disabled":false,"rental_uris":{"android":"levelo://app?vid=89041833-1fc4-4374-bd3b-95137a9affed","ios":"levelo://app?vid=89041833-1fc4-4374-bd3b-95137a9affed"},"vehicle_type_id":"4","last_reported":1704125291,"current_range_meters":2400,"station_id":"ce4bgk12rcd13ifvqbi0","pricing_plan_id":"free"},{"bike_id":"d60802d6-4f47-444a-b234-883690eec05b","system_id":"levelo_inurba_marseille","lat":43.33062,"lon":5.3627,"is_reserved":false,"is_disabled":false,"rental_uris":{"android":"levelo://app?vid=d60802d6-4f47-444a-b234-883690eec05b","ios":"levelo://app?vid=d60802d6-4f47-444a-b234-883690eec05b"},"vehicle_type_id":"4","last_reported":1704125291,"current_range_meters":19200,"station_id":"","pricing_plan_id":"free"},{"bike_id":"fcf13ae5-655e-48f7-ba14-15580742a6f5","system_id":"levelo_inurba_marseille","lat":43.296277,"lon":5.377108,"is_reserved":false,"is_disabled":false,"rental_uris":{"android":"levelo://app?vid=fcf13ae5-655e-48f7-ba14-15580742a6f5","ios":"levelo://app?vid=fcf13ae5-655e-48f7-ba14-15580742a6f5"},"vehicle_type_id":"4","last_reported":1704125291,"current_range_meters":15200,"station_id":"ce4bgi92rcd13ifvqb90","pricing_plan_id":"free"},{"bike_id":"b113a601-d18b-4817-8c76-565864c33d1c","system_id":"levelo_inurba_marseille","lat":43.296263,"lon":5.377094,"is_reserved":false,"is_disabled":false,"rental_uris":{"android":"levelo://app?vid=b113a601-d18b-4817-8c76-565864c33d1c","ios":"levelo://app?vid=b113a601-d18b-4817-8c76-565864c33d1c"},"vehicle_type_id":"4","last_reported":1704125291,"current_range_meters":23600,"station_id":"ce4bgi92rcd13ifvqb90","pricing_plan_id":"free"},{"bike_id":"1d29da03-a1e4-4647-a7f2-3eb087882685","system_id":"levelo_inurba_marseille","lat":43.296263,"lon":5.377094,"is_reserved":false,"is_disabled":false,"rental_uris":{"android":"levelo://app?vid=1d29da03-a1e4-4647-a7f2-3eb087882685","ios":"levelo://app?vid=1d29da03-a1e4-4647-a7f2-3eb087882685"},"vehicle_type_id":"4","last_reported":1704125291,"current_range_meters":27600,"station_id":"ce4bgi92rcd13ifvqb90","pricing_plan_id":"free"},{"bike_id":"7119845d-00aa-4d9f-be8c-fc97d41f1380","system_id":"levelo_inurba_marseille","lat":43.297594,"lon":5.381134,"is_reserved":false,"is_disabled":false,"rental_uris":{"android":"levelo://app?vid=7119845d-00aa-4d9f-be8c-fc97d41f1380","ios":"levelo://app?vid=7119845d-00aa-4d9f-be8c-fc97d41f1380"},"vehicle_type_id":"4","last_reported":1704125291,"current_range_meters":7600,"station_id":"ce4bgip2rcd13ifvqbb0","pricing_plan_id":"free"},{"bike_id":"2ad54cd6-d657-4b51-8ad6-b3ea011f3929","system_id":"levelo_inurba_marseille","lat":43.29976,"lon":5.38498,"is_reserved":false,"is_disabled":false,"rental_uris":{"android":"levelo://app?vid=2ad54cd6-d657-4b51-8ad6-b3ea011f3929","ios":"levelo://app?vid=2ad54cd6-d657-4b51-8ad6-b3ea011f3929"},"vehicle_type_id":"4","last_reported":1704125291,"current_range_meters":27600,"station_id":"ce4bgj92rcd13ifvqbd0","pricing_plan_id":"free"},{"bike_id":"18256ee0-3256-44f7-9c5a-298edac82d41","system_id":"levelo_inurba_marseille","lat":43.292311,"lon":5.360731,"is_reserved":false,"is_disabled":false,"rental_uris":{"android":"levelo://app?vid=18256ee0-3256-44f7-9c5a-298edac82d41","ios":"levelo://app?vid=18256ee0-3256-44f7-9c5a-298edac82d41"},"vehicle_type_id":"4","last_reported":1704125291,"current_range_meters":3200,"station_id":"ce4bhbh2rcd13ifvqeqg","pricing_plan_id":"free"},{"bike_id":"e17f47b2-3166-47b8-83f0-bf2dacd947e9","system_id":"levelo_inurba_marseille","lat":43.32367,"lon":5.388836,"is_reserved":false,"is_disabled":false,"rental_uris":{"android":"levelo://app?vid=e17f47b2-3166-47b8-83f0-bf2dacd947e9","ios":"levelo://app?vid=e17f47b2-3166-47b8-83f0-bf2dacd947e9"},"vehicle_type_id":"4","last_reported":1704125291,"current_range_meters":16400,"station_id":"ce4bhqp2rcd13ifvqhog","pricing_plan_id":"free"},{"bike_id":"179cabdd-56a6-43ee-8dbf-6a7a01a9a058","system_id":"levelo_inurba_marseille","lat":43.29602,"lon":5.381084,"is_reserved":false,"is_disabled":false,"rental_uris":{"android":"levelo://app?vid=179cabdd-56a6-43ee-8dbf-6a7a01a9a058","ios":"levelo://app?vid=179cabdd-56a6-43ee-8dbf-6a7a01a9a058"},"vehicle_type_id":"4","last_reported":1704125291,"current_range_meters":16000,"station_id":"ce4bgl12rcd13ifvqbo0","pricing_plan_id":"free"},{"bike_id":"01e774cb-1248-42e2-b287-9d87dca5d3b2","system_id":"levelo_inurba_marseille","lat":43.305994,"lon":5.393687,"is_reserved":false,"is_disabled":false,"rental_uris":{"android":"levelo://app?vid=01e774cb-1248-42e2-b287-9d87dca5d3b2","ios":"levelo://app?vid=01e774cb-1248-42e2-b287-9d87dca5d3b2"},"vehicle_type_id":"4","last_reported":1704125291,"current_range_meters":26400,"station_id":"ce4bh0p2rcd13ifvqd80","pricing_plan_id":"free"},{"bike_id":"b32c4c14-24ed-4a99-9022-037969aa23dc","system_id":"levelo_inurba_marseille","lat":43.303002,"lon":5.392142,"is_reserved":false,"is_disabled":false,"rental_uris":{"android":"levelo://app?vid=b32c4c14-24ed-4a99-9022-037969aa23dc","ios":"levelo://app?vid=b32c4c14-24ed-4a99-9022-037969aa23dc"},"vehicle_type_id":"4","last_reported":1704125291,"current_range_meters":20400,"station_id":"ce4bgkh2rcd13ifvqbk0","pricing_plan_id":"free"},{"bike_id":"8b16a87c-bf5d-418c-8b41-cce3ee80f447","system_id":"levelo_inurba_marseille","lat":43.302992,"lon":5.392136,"is_reserved":false,"is_disabled":false,"rental_uris":{"android":"levelo://app?vid=8b16a87c-bf5d-418c-8b41-cce3ee80f447","ios":"levelo://app?vid=8b16a87c-bf5d-418c-8b41-cce3ee80f447"},"vehicle_type_id":"4","last_reported":1704125291,"current_range_meters":18400,"station_id":"ce4bgkh2rcd13ifvqbk0","pricing_plan_id":"free"},{"bike_id":"e55fa8a2-35a2-40ad-b350-0b215c98ab14","system_id":"levelo_inurba_marseille","lat":43.2936,"lon":5.37835,"is_reserved":false,"is_disabled":false,"rental_uris":{"android":"levelo://app?vid=e55fa8a2-35a2-40ad-b350-0b215c98ab14","ios":"levelo://app?vid=e55fa8a2-35a2-40ad-b350-0b215c98ab14"},"vehicle_type_id":"4","last_reported":1704125291,"current_range_meters":21600,"station_id":"ce4bgjh2rcd13ifvqbf0","pricing_plan_id":"free"},{"bike_id":"729ee800-d788-41e0-8432-805f142b3f42","system_id":"levelo_inurba_marseille","lat":43.2936,"lon":5.37835,"is_reserved":false,"is_disabled":false,"rental_uris":{"android":"levelo://app?vid=729ee800-d788-41e0-8432-805f142b3f42","ios":"levelo://app?vid=729ee800-d788-41e0-8432-805f142b3f42"},"vehicle_type_id":"4","last_reported":1704125291,"current_range_meters":19200,"station_id":"ce4bgjh2rcd13ifvqbf0","pricing_plan_id":"free"},{"bike_id":"453c26e7-1304-498d-9fbc-6cb9b1e286e8","system_id":"levelo_inurba_marseille","lat":43.300965,"lon":5.390882,"is_reserved":false,"is_disabled":false,"rental_uris":{"android":"levelo://app?vid=453c26e7-1304-498d-9fbc-6cb9b1e286e8","ios":"levelo://app?vid=453c26e7-1304-498d-9fbc-6cb9b1e286e8"},"vehicle_type_id":"4","last_reported":1704125291,"current_range_meters":24000,"station_id":"","pricing_plan_id":"free"},{"bike_id":"32995bde-fb01-44fb-9c88-cde115101ea8","system_id":"levelo_inurba_marseille","lat":43.30085,"lon":5.390856,"is_reserved":false,"is_disabled":false,"rental_uris":{"android":"levelo://app?vid=32995bde-fb01-44fb-9c88-cde115101ea8","ios":"levelo://app?vid=32995bde-fb01-44fb-9c88-cde115101ea8"},"vehicle_type_id":"4","last_reported":1704125291,"current_range_meters":2800,"station_id":"ce4bh192rcd13ifvqdb0","pricing_plan_id":"free"},{"bike_id":"9db7d0cd-17e0-4c08-9d5a-1ef50f4f78e6","system_id":"levelo_inurba_marseille","lat":43.291994,"lon":5.357886,"is_reserved":false,"is_disabled":false,"rental_uris":{"android":"levelo://app?vid=9db7d0cd-17e0-4c08-9d5a-1ef50f4f78e6","ios":"levelo://app?vid=9db7d0cd-17e0-4c08-9d5a-1ef50f4f78e6"},"vehicle_type_id":"4","last_reported":1704125291,"current_range_meters":25200,"station_id":"ce4bhb12rcd13ifvqel0","pricing_plan_id":"free"},{"bike_id":"51fe0035-e91e-4635-9934-a79c590a740d","system_id":"levelo_inurba_marseille","lat":43.291994,"lon":5.357886,"is_reserved":false,"is_disabled":false,"rental_uris":{"android":"levelo://app?vid=51fe0035-e91e-4635-9934-a79c590a740d","ios":"levelo://app?vid=51fe0035-e91e-4635-9934-a79c590a740d"},"vehicle_type_id":"4","last_reported":1704125291,"current_range_meters":22800,"station_id":"ce4bhb12rcd13ifvqel0","pricing_plan_id":"free"},{"bike_id":"668942d6-33c2-433a-a4c3-8da233302454","system_id":"levelo_inurba_marseille","lat":43.313291,"lon":5.396838,"is_reserved":false,"is_disabled":false,"rental_uris":{"android":"levelo://app?vid=668942d6-33c2-433a-a4c3-8da233302454","ios":"levelo://app?vid=668942d6-33c2-433a-a4c3-8da233302454"},"vehicle_type_id":"4","last_reported":1704125291,"current_range_meters":30000,"station_id":"ce4bgvp2rcd13ifvqcu0","pricing_plan_id":"free"},{"bike_id":"19ab5abf-5af1-46b3-b028-ed9957f5b833","system_id":"levelo_inurba_marseille","lat":43.290779,"lon":5.371482,"is_reserved":false,"is_disabled":false,"rental_uris":{"android":"levelo://app?vid=19ab5abf-5af1-46b3-b028-ed9957f5b833","ios":"levelo://app?vid=19ab5abf-5af1-46b3-b028-ed9957f5b833"},"vehicle_type_id":"4","last_reported":1704125291,"current_range_meters":6800,"station_id":"ce4bh5p2rcd13ifvqe4g","pricing_plan_id":"free"},{"bike_id":"856ca90b-1f18-4525-9447-b0772f5c6829","system_id":"levelo_inurba_marseille","lat":43.302008,"lon":5.394694,"is_reserved":false,"is_disabled":false,"rental_uris":{"android":"levelo://app?vid=856ca90b-1f18-4525-9447-b0772f5c6829","ios":"levelo://app?vid=856ca90b-1f18-4525-9447-b0772f5c6829"},"vehicle_type_id":"4","last_reported":1704125291,"current_range_meters":26400,"station_id":"ce4bh0p2rcd13ifvqd70","pricing_plan_id":"free"},{"bike_id":"464ebecb-c3f7-425d-8615-29f6b62805b6","system_id":"levelo_inurba_marseille","lat":43.302008,"lon":5.394694,"is_reserved":false,"is_disabled":false,"rental_uris":{"android":"levelo://app?vid=464ebecb-c3f7-425d-8615-29f6b62805b6","ios":"levelo://app?vid=464ebecb-c3f7-425d-8615-29f6b62805b6"},"vehicle_type_id":"4","last_reported":1704125291,"current_range_meters":6400,"station_id":"ce4bh0p2rcd13ifvqd70","pricing_plan_id":"free"},{"bike_id":"9b371a42-4f02-4e67-8dff-826719136fbd","system_id":"levelo_inurba_marseille","lat":43.302008,"lon":5.394694,"is_reserved":false,"is_disabled":false,"rental_uris":{"android":"levelo://app?vid=9b371a42-4f02-4e67-8dff-826719136fbd","ios":"levelo://app?vid=9b371a42-4f02-4e67-8dff-826719136fbd"},"vehicle_type_id":"4","last_reported":1704125291,"current_range_meters":31200,"station_id":"ce4bh0p2rcd13ifvqd70","pricing_plan_id":"free"},{"bike_id":"9d41fec4-3968-4f48-9cb1-ec355f72f18a","system_id":"levelo_inurba_marseille","lat":43.294153,"lon":5.386305,"is_reserved":false,"is_disabled":false,"rental_uris":{"android":"levelo://app?vid=9d41fec4-3968-4f48-9cb1-ec355f72f18a","ios":"levelo://app?vid=9d41fec4-3968-4f48-9cb1-ec355f72f18a"},"vehicle_type_id":"4","last_reported":1704125291,"current_range_meters":14800,"station_id":"ce4bh2h2rcd13ifvqdh0","pricing_plan_id":"free"},{"bike_id":"f20786e3-b6ef-4548-9b89-d1590329f1fd","system_id":"levelo_inurba_marseille","lat":43.289184,"lon":5.366408,"is_reserved":false,"is_disabled":false,"rental_uris":{"android":"levelo://app?vid=f20786e3-b6ef-4548-9b89-d1590329f1fd","ios":"levelo://app?vid=f20786e3-b6ef-4548-9b89-d1590329f1fd"},"vehicle_type_id":"4","last_reported":1704125291,"current_range_meters":16800,"station_id":"ce4bhap2rcd13ifvqek0","pricing_plan_id":"free"},{"bike_id":"d1d2d483-6093-4c06-9b31-086410a37697","system_id":"levelo_inurba_marseille","lat":43.292644,"lon":5.384257,"is_reserved":false,"is_disabled":false,"rental_uris":{"android":"levelo://app?vid=d1d2d483-6093-4c06-9b31-086410a37697","ios":"levelo://app?vid=d1d2d483-6093-4c06-9b31-086410a37697"},"vehicle_type_id":"4","last_reported":1704125291,"current_range_meters":12800,"station_id":"ce4bh692rcd13ifvqea0","pricing_plan_id":"free"},{"bike_id":"b3ec5417-bfee-44b8-824b-a60416376970","system_id":"levelo_inurba_marseille","lat":43.292644,"lon":5.384257,"is_reserved":false,"is_disabled":false,"rental_uris":{"android":"levelo://app?vid=b3ec5417-bfee-44b8-824b-a60416376970","ios":"levelo://app?vid=b3ec5417-bfee-44b8-824b-a60416376970"},"vehicle_type_id":"4","last_reported":1704125291,"current_range_meters":10400,"station_id":"ce4bh692rcd13ifvqea0","pricing_plan_id":"free"},{"bike_id":"c206333e-94c6-4ced-a562-614a6b9e23b4","system_id":"levelo_inurba_marseille","lat":43.29004,"lon":5.3561,"is_reserved":false,"is_disabled":false,"rental_uris":{"android":"levelo://app?vid=c206333e-94c6-4ced-a562-614a6b9e23b4","ios":"levelo://app?vid=c206333e-94c6-4ced-a562-614a6b9e23b4"},"vehicle_type_id":"4","last_reported":1704125291,"current_range_meters":11600,"station_id":"ce4bhb92rcd13ifvqen0","pricing_plan_id":"free"},{"bike_id":"10ccba7c-9bde-49be-908c-1bf608af9dc4","system_id":"levelo_inurba_marseille","lat":43.29,"lon":5.35603,"is_reserved":false,"is_disabled":false,"rental_uris":{"android":"levelo://app?vid=10ccba7c-9bde-49be-908c-1bf608af9dc4","ios":"levelo://app?vid=10ccba7c-9bde-49be-908c-1bf608af9dc4"},"vehicle_type_id":"4","last_reported":1704125291,"current_range_meters":30000,"station_id":"ce4bhb92rcd13ifvqen0","pricing_plan_id":"free"},{"bike_id":"f1cf3fef-7db7-49af-94a3-21ce52276cb7","system_id":"levelo_inurba_marseille","lat":43.290995,"lon":5.381361,"is_reserved":false,"is_disabled":false,"rental_uris":{"android":"levelo://app?vid=f1cf3fef-7db7-49af-94a3-21ce52276cb7","ios":"levelo://app?vid=f1cf3fef-7db7-49af-94a3-21ce52276cb7"},"vehicle_type_id":"4","last_reported":1704125291,"current_range_meters":21200,"station_id":"ce4bh512rcd13ifvqe2g","pricing_plan_id":"free"},{"bike_id":"68676939-d6ef-40ac-bd6a-8200b416b372","system_id":"levelo_inurba_marseille","lat":43.290995,"lon":5.381361,"is_reserved":false,"is_disabled":false,"rental_uris":{"android":"levelo://app?vid=68676939-d6ef-40ac-bd6a-8200b416b372","ios":"levelo://app?vid=68676939-d6ef-40ac-bd6a-8200b416b372"},"vehicle_type_id":"4","last_reported":1704125291,"current_range_meters":17600,"station_id":"ce4bh512rcd13ifvqe2g","pricing_plan_id":"free"},{"bike_id":"a4833b57-7993-4e8f-8a16-7725f667b84e","system_id":"levelo_inurba_marseille","lat":43.297815,"lon":5.393548,"is_reserved":false,"is_disabled":false,"rental_uris":{"android":"levelo://app?vid=a4833b57-7993-4e8f-8a16-7725f667b84e","ios":"levelo://app?vid=a4833b57-7993-4e8f-8a16-7725f667b84e"},"vehicle_type_id":"4","last_reported":1704125291,"current_range_meters":29200,"station_id":"chh1huq6cuj3fo74tm60","pricing_plan_id":"free"},{"bike_id":"891e99cc-b383-415e-b204-6dddbcb897ea","system_id":"levelo_inurba_marseille","lat":43.290827,"lon":5.381421,"is_reserved":false,"is_disabled":false,"rental_uris":{"android":"levelo://app?vid=891e99cc-b383-415e-b204-6dddbcb897ea","ios":"levelo://app?vid=891e99cc-b383-415e-b204-6dddbcb897ea"},"vehicle_type_id":"4","last_reported":1704125291,"current_range_meters":21200,"station_id":"","pricing_plan_id":"free"},{"bike_id":"1d8b7cf5-3b69-4713-9abc-3e71287d6022","system_id":"levelo_inurba_marseille","lat":43.297815,"lon":5.393548,"is_reserved":false,"is_disabled":false,"rental_uris":{"android":"levelo://app?vid=1d8b7cf5-3b69-4713-9abc-3e71287d6022","ios":"levelo://app?vid=1d8b7cf5-3b69-4713-9abc-3e71287d6022"},"vehicle_type_id":"4","last_reported":1704125291,"current_range_meters":0,"station_id":"chh1huq6cuj3fo74tm60","pricing_plan_id":"free"},{"bike_id":"7c1f4e11-3674-47fc-ab12-ec2cf0dd4868","system_id":"levelo_inurba_marseille","lat":43.289743,"lon":5.378304,"is_reserved":false,"is_disabled":false,"rental_uris":{"android":"levelo://app?vid=7c1f4e11-3674-47fc-ab12-ec2cf0dd4868","ios":"levelo://app?vid=7c1f4e11-3674-47fc-ab12-ec2cf0dd4868"},"vehicle_type_id":"4","last_reported":1704125291,"current_range_meters":18000,"station_id":"ce4bh9p2rcd13ifvqed0","pricing_plan_id":"free"},{"bike_id":"8d96df2d-9c2f-4ae7-93d6-54d0d646bc27","system_id":"levelo_inurba_marseille","lat":43.29779,"lon":5.3935,"is_reserved":false,"is_disabled":false,"rental_uris":{"android":"levelo://app?vid=8d96df2d-9c2f-4ae7-93d6-54d0d646bc27","ios":"levelo://app?vid=8d96df2d-9c2f-4ae7-93d6-54d0d646bc27"},"vehicle_type_id":"4","last_reported":1704125291,"current_range_meters":15600,"station_id":"chh1huq6cuj3fo74tm60","pricing_plan_id":"free"},{"bike_id":"7d3f0707-26fc-41d0-8f63-88674e57e19c","system_id":"levelo_inurba_marseille","lat":43.330442,"lon":5.389148,"is_reserved":false,"is_disabled":false,"rental_uris":{"android":"levelo://app?vid=7d3f0707-26fc-41d0-8f63-88674e57e19c","ios":"levelo://app?vid=7d3f0707-26fc-41d0-8f63-88674e57e19c"},"vehicle_type_id":"4","last_reported":1704125291,"current_range_meters":10800,"station_id":"ce4bhr92rcd13ifvqhrg","pricing_plan_id":"free"},{"bike_id":"13d41c86-d361-4b17-ae49-6b5491dd4e85","system_id":"levelo_inurba_marseille","lat":43.330442,"lon":5.389148,"is_reserved":false,"is_disabled":false,"rental_uris":{"android":"levelo://app?vid=13d41c86-d361-4b17-ae49-6b5491dd4e85","ios":"levelo://app?vid=13d41c86-d361-4b17-ae49-6b5491dd4e85"},"vehicle_type_id":"4","last_reported":1704125291,"current_range_meters":28400,"station_id":"ce4bhr92rcd13ifvqhrg","pricing_plan_id":"free"},{"bike_id":"3fb17f96-10bb-4471-b446-d16a7a779c01","system_id":"levelo_inurba_marseille","lat":43.297815,"lon":5.393548,"is_reserved":false,"is_disabled":false,"rental_uris":{"android":"levelo://app?vid=3fb17f96-10bb-4471-b446-d16a7a779c01","ios":"levelo://app?vid=3fb17f96-10bb-4471-b446-d16a7a779c01"},"vehicle_type_id":"4","last_reported":1704125291,"current_range_meters":24800,"station_id":"chh1huq6cuj3fo74tm60","pricing_plan_id":"free"},{"bike_id":"983ae15b-e6ac-4e63-857d-b1c023399b7b","system_id":"levelo_inurba_marseille","lat":43.330442,"lon":5.389148,"is_reserved":false,"is_disabled":false,"rental_uris":{"android":"levelo://app?vid=983ae15b-e6ac-4e63-857d-b1c023399b7b","ios":"levelo://app?vid=983ae15b-e6ac-4e63-857d-b1c023399b7b"},"vehicle_type_id":"4","last_reported":1704125291,"current_range_meters":27200,"station_id":"ce4bhr92rcd13ifvqhrg","pricing_plan_id":"free"},{"bike_id":"1d5fe3cc-c168-43c9-b70f-679ea776183c","system_id":"levelo_inurba_marseille","lat":43.28856,"lon":5.358371,"is_reserved":false,"is_disabled":false,"rental_uris":{"android":"levelo://app?vid=1d5fe3cc-c168-43c9-b70f-679ea776183c","ios":"levelo://app?vid=1d5fe3cc-c168-43c9-b70f-679ea776183c"},"vehicle_type_id":"4","last_reported":1704125291,"current_range_meters":16400,"station_id":"ce4bhb12rcd13ifvqem0","pricing_plan_id":"free"},{"bike_id":"943133c8-8f24-4b72-a32a-03cc522f6efc","system_id":"levelo_inurba_marseille","lat":43.28856,"lon":5.358371,"is_reserved":false,"is_disabled":false,"rental_uris":{"android":"levelo://app?vid=943133c8-8f24-4b72-a32a-03cc522f6efc","ios":"levelo://app?vid=943133c8-8f24-4b72-a32a-03cc522f6efc"},"vehicle_type_id":"4","last_reported":1704125291,"current_range_meters":12000,"station_id":"ce4bhb12rcd13ifvqem0","pricing_plan_id":"free"},{"bike_id":"afad0d4d-a92d-484f-b576-505288f508e6","system_id":"levelo_inurba_marseille","lat":43.312609,"lon":5.401662,"is_reserved":false,"is_disabled":false,"rental_uris":{"android":"levelo://app?vid=afad0d4d-a92d-484f-b576-505288f508e6","ios":"levelo://app?vid=afad0d4d-a92d-484f-b576-505288f508e6"},"vehicle_type_id":"4","last_reported":1704125291,"current_range_meters":20400,"station_id":"ce4bh092rcd13ifvqd30","pricing_plan_id":"free"},{"bike_id":"acdd791b-b005-455d-8a15-399fdf59a552","system_id":"levelo_inurba_marseille","lat":43.337419,"lon":5.374721,"is_reserved":false,"is_disabled":false,"rental_uris":{"android":"levelo://app?vid=acdd791b-b005-455d-8a15-399fdf59a552","ios":"levelo://app?vid=acdd791b-b005-455d-8a15-399fdf59a552"},"vehicle_type_id":"4","last_reported":1704125291,"current_range_meters":6000,"station_id":"","pricing_plan_id":"free"},{"bike_id":"41a7d31f-1e0a-4058-8171-d9146d4a8418","system_id":"levelo_inurba_marseille","lat":43.33761,"lon":5.37466,"is_reserved":false,"is_disabled":false,"rental_uris":{"android":"levelo://app?vid=41a7d31f-1e0a-4058-8171-d9146d4a8418","ios":"levelo://app?vid=41a7d31f-1e0a-4058-8171-d9146d4a8418"},"vehicle_type_id":"4","last_reported":1704125291,"current_range_meters":29200,"station_id":"","pricing_plan_id":"free"},{"bike_id":"2388a477-2335-49ba-9cd5-aeb3c94fb0cf","system_id":"levelo_inurba_marseille","lat":43.306412,"lon":5.401035,"is_reserved":false,"is_disabled":false,"rental_uris":{"android":"levelo://app?vid=2388a477-2335-49ba-9cd5-aeb3c94fb0cf","ios":"levelo://app?vid=2388a477-2335-49ba-9cd5-aeb3c94fb0cf"},"vehicle_type_id":"4","last_reported":1704125291,"current_range_meters":6800,"station_id":"ce4bh112rcd13ifvqda0","pricing_plan_id":"free"},{"bike_id":"2148a64f-4c5c-45b2-bde1-6d66f34c9f10","system_id":"levelo_inurba_marseille","lat":43.337677,"lon":5.37461,"is_reserved":false,"is_disabled":false,"rental_uris":{"android":"levelo://app?vid=2148a64f-4c5c-45b2-bde1-6d66f34c9f10","ios":"levelo://app?vid=2148a64f-4c5c-45b2-bde1-6d66f34c9f10"},"vehicle_type_id":"4","last_reported":1704125291,"current_range_meters":24000,"station_id":"","pricing_plan_id":"free"},{"bike_id":"7e9a59ee-058b-4752-9380-1129ce8586dd","system_id":"levelo_inurba_marseille","lat":43.28727,"lon":5.36078,"is_reserved":false,"is_disabled":false,"rental_uris":{"android":"levelo://app?vid=7e9a59ee-058b-4752-9380-1129ce8586dd","ios":"levelo://app?vid=7e9a59ee-058b-4752-9380-1129ce8586dd"},"vehicle_type_id":"4","last_reported":1704125291,"current_range_meters":27600,"station_id":"cki0cbj6b192h4jlfktg","pricing_plan_id":"free"},{"bike_id":"c0a6d5ac-6e55-461a-b220-9a7d3bc7a0df","system_id":"levelo_inurba_marseille","lat":43.306412,"lon":5.401035,"is_reserved":false,"is_disabled":false,"rental_uris":{"android":"levelo://app?vid=c0a6d5ac-6e55-461a-b220-9a7d3bc7a0df","ios":"levelo://app?vid=c0a6d5ac-6e55-461a-b220-9a7d3bc7a0df"},"vehicle_type_id":"4","last_reported":1704125291,"current_range_meters":7600,"station_id":"ce4bh112rcd13ifvqda0","pricing_plan_id":"free"},{"bike_id":"4978b832-c2b9-41d7-8bfc-27d2430db808","system_id":"levelo_inurba_marseille","lat":43.298681,"lon":5.397225,"is_reserved":false,"is_disabled":false,"rental_uris":{"android":"levelo://app?vid=4978b832-c2b9-41d7-8bfc-27d2430db808","ios":"levelo://app?vid=4978b832-c2b9-41d7-8bfc-27d2430db808"},"vehicle_type_id":"4","last_reported":1704125291,"current_range_meters":12800,"station_id":"ce4bh0h2rcd13ifvqd50","pricing_plan_id":"free"},{"bike_id":"90b14df3-4153-404b-8b05-790584f2670a","system_id":"levelo_inurba_marseille","lat":43.286591,"lon":5.363346,"is_reserved":false,"is_disabled":false,"rental_uris":{"android":"levelo://app?vid=90b14df3-4153-404b-8b05-790584f2670a","ios":"levelo://app?vid=90b14df3-4153-404b-8b05-790584f2670a"},"vehicle_type_id":"4","last_reported":1704125291,"current_range_meters":27200,"station_id":"ce4bhah2rcd13ifvqej0","pricing_plan_id":"free"},{"bike_id":"f182ad30-578d-439a-b895-037c49f93cbb","system_id":"levelo_inurba_marseille","lat":43.28039,"lon":5.369297,"is_reserved":false,"is_disabled":false,"rental_uris":{"android":"levelo://app?vid=f182ad30-578d-439a-b895-037c49f93cbb","ios":"levelo://app?vid=f182ad30-578d-439a-b895-037c49f93cbb"},"vehicle_type_id":"4","last_reported":1704125291,"current_range_meters":31600,"station_id":"ce4bha12rcd13ifvqef0","pricing_plan_id":"free"},{"bike_id":"427a649b-20a1-4849-9052-90460c4c555b","system_id":"levelo_inurba_marseille","lat":43.290336,"lon":5.386425,"is_reserved":false,"is_disabled":false,"rental_uris":{"android":"levelo://app?vid=427a649b-20a1-4849-9052-90460c4c555b","ios":"levelo://app?vid=427a649b-20a1-4849-9052-90460c4c555b"},"vehicle_type_id":"4","last_reported":1704125291,"current_range_meters":28000,"station_id":"ce4bh4p2rcd13ifvqe0g","pricing_plan_id":"free"},{"bike_id":"d985490d-041f-4595-997b-836cae338900","system_id":"levelo_inurba_marseille","lat":43.286039,"lon":5.370681,"is_reserved":false,"is_disabled":false,"rental_uris":{"android":"levelo://app?vid=d985490d-041f-4595-997b-836cae338900","ios":"levelo://app?vid=d985490d-041f-4595-997b-836cae338900"},"vehicle_type_id":"4","last_reported":1704125291,"current_range_meters":14800,"station_id":"ce4bht12rcd13ifvqi60","pricing_plan_id":"free"},{"bike_id":"bba896a5-792a-4d9a-a436-821c3d86166a","system_id":"levelo_inurba_marseille","lat":43.316828,"lon":5.404723,"is_reserved":false,"is_disabled":false,"rental_uris":{"android":"levelo://app?vid=bba896a5-792a-4d9a-a436-821c3d86166a","ios":"levelo://app?vid=bba896a5-792a-4d9a-a436-821c3d86166a"},"vehicle_type_id":"4","last_reported":1704125291,"current_range_meters":27600,"station_id":"ce4bh012rcd13ifvqd00","pricing_plan_id":"free"},{"bike_id":"a32f45e5-7b35-4e4c-b435-e11c51b0e22a","system_id":"levelo_inurba_marseille","lat":43.284214,"lon":5.349706,"is_reserved":false,"is_disabled":false,"rental_uris":{"android":"levelo://app?vid=a32f45e5-7b35-4e4c-b435-e11c51b0e22a","ios":"levelo://app?vid=a32f45e5-7b35-4e4c-b435-e11c51b0e22a"},"vehicle_type_id":"4","last_reported":1704125291,"current_range_meters":24000,"station_id":"ce4bhbh2rcd13ifvqepg","pricing_plan_id":"free"},{"bike_id":"c443df9c-d149-4377-b0d1-4c3bef885dd4","system_id":"levelo_inurba_marseille","lat":43.316828,"lon":5.404723,"is_reserved":false,"is_disabled":false,"rental_uris":{"android":"levelo://app?vid=c443df9c-d149-4377-b0d1-4c3bef885dd4","ios":"levelo://app?vid=c443df9c-d149-4377-b0d1-4c3bef885dd4"},"vehicle_type_id":"4","last_reported":1704125291,"current_range_meters":29600,"station_id":"ce4bh012rcd13ifvqd00","pricing_plan_id":"free"},{"bike_id":"bcfa79b9-b0ae-43f2-9451-24b11d7891b9","system_id":"levelo_inurba_marseille","lat":43.291994,"lon":5.392907,"is_reserved":false,"is_disabled":false,"rental_uris":{"android":"levelo://app?vid=bcfa79b9-b0ae-43f2-9451-24b11d7891b9","ios":"levelo://app?vid=bcfa79b9-b0ae-43f2-9451-24b11d7891b9"},"vehicle_type_id":"4","last_reported":1704125291,"current_range_meters":7600,"station_id":"ce4bh192rcd13ifvqdd0","pricing_plan_id":"free"},{"bike_id":"7be1fd96-9df7-4dc2-864e-e485fc92ec9f","system_id":"levelo_inurba_marseille","lat":43.28457,"lon":5.35896,"is_reserved":false,"is_disabled":false,"rental_uris":{"android":"levelo://app?vid=7be1fd96-9df7-4dc2-864e-e485fc92ec9f","ios":"levelo://app?vid=7be1fd96-9df7-4dc2-864e-e485fc92ec9f"},"vehicle_type_id":"4","last_reported":1704125291,"current_range_meters":26000,"station_id":"","pricing_plan_id":"free"},{"bike_id":"cb2ee55a-ee57-41e5-b85f-bae49a78399d","system_id":"levelo_inurba_marseille","lat":43.28614,"lon":5.351,"is_reserved":false,"is_disabled":false,"rental_uris":{"android":"levelo://app?vid=cb2ee55a-ee57-41e5-b85f-bae49a78399d","ios":"levelo://app?vid=cb2ee55a-ee57-41e5-b85f-bae49a78399d"},"vehicle_type_id":"4","last_reported":1704125291,"current_range_meters":20400,"station_id":"ce4bhch2rcd13ifvqeug","pricing_plan_id":"free"},{"bike_id":"9712f9d9-d7ea-4e92-a7aa-c97565ad50a6","system_id":"levelo_inurba_marseille","lat":43.285856,"lon":5.350771,"is_reserved":false,"is_disabled":false,"rental_uris":{"android":"levelo://app?vid=9712f9d9-d7ea-4e92-a7aa-c97565ad50a6","ios":"levelo://app?vid=9712f9d9-d7ea-4e92-a7aa-c97565ad50a6"},"vehicle_type_id":"4","last_reported":1704125291,"current_range_meters":23200,"station_id":"ce4bhch2rcd13ifvqeug","pricing_plan_id":"free"},{"bike_id":"18bd282a-6633-47c2-ba42-c4aedc053b7f","system_id":"levelo_inurba_marseille","lat":43.283998,"lon":5.375062,"is_reserved":false,"is_disabled":false,"rental_uris":{"android":"levelo://app?vid=18bd282a-6633-47c2-ba42-c4aedc053b7f","ios":"levelo://app?vid=18bd282a-6633-47c2-ba42-c4aedc053b7f"},"vehicle_type_id":"4","last_reported":1704125291,"current_range_meters":26000,"station_id":"ce4bh412rcd13ifvqds0","pricing_plan_id":"free"},{"bike_id":"831f791e-c9eb-4dc4-bfeb-65241816a261","system_id":"levelo_inurba_marseille","lat":43.286595,"lon":5.386795,"is_reserved":false,"is_disabled":false,"rental_uris":{"android":"levelo://app?vid=831f791e-c9eb-4dc4-bfeb-65241816a261","ios":"levelo://app?vid=831f791e-c9eb-4dc4-bfeb-65241816a261"},"vehicle_type_id":"4","last_reported":1704125291,"current_range_meters":4000,"station_id":"ce4bh492rcd13ifvqdug","pricing_plan_id":"free"},{"bike_id":"85c0510a-db77-416c-9cc7-f838301b5cd3","system_id":"levelo_inurba_marseille","lat":43.286595,"lon":5.386795,"is_reserved":false,"is_disabled":false,"rental_uris":{"android":"levelo://app?vid=85c0510a-db77-416c-9cc7-f838301b5cd3","ios":"levelo://app?vid=85c0510a-db77-416c-9cc7-f838301b5cd3"},"vehicle_type_id":"4","last_reported":1704125291,"current_range_meters":9600,"station_id":"ce4bh492rcd13ifvqdug","pricing_plan_id":"free"},{"bike_id":"8af6642b-e526-4770-8a06-6b115e68c32b","system_id":"levelo_inurba_marseille","lat":43.3372,"lon":5.39183,"is_reserved":false,"is_disabled":false,"rental_uris":{"android":"levelo://app?vid=8af6642b-e526-4770-8a06-6b115e68c32b","ios":"levelo://app?vid=8af6642b-e526-4770-8a06-6b115e68c32b"},"vehicle_type_id":"4","last_reported":1704125291,"current_range_meters":24400,"station_id":"ce4bhr92rcd13ifvqhsg","pricing_plan_id":"free"},{"bike_id":"1860c054-e673-4084-804e-8832a59aeb53","system_id":"levelo_inurba_marseille","lat":43.337168,"lon":5.391825,"is_reserved":false,"is_disabled":false,"rental_uris":{"android":"levelo://app?vid=1860c054-e673-4084-804e-8832a59aeb53","ios":"levelo://app?vid=1860c054-e673-4084-804e-8832a59aeb53"},"vehicle_type_id":"4","last_reported":1704125291,"current_range_meters":27600,"station_id":"ce4bhr92rcd13ifvqhsg","pricing_plan_id":"free"},{"bike_id":"4143bd54-6a9c-44c9-9fb7-f15a2ead2498","system_id":"levelo_inurba_marseille","lat":43.29795,"lon":5.404086,"is_reserved":false,"is_disabled":false,"rental_uris":{"android":"levelo://app?vid=4143bd54-6a9c-44c9-9fb7-f15a2ead2498","ios":"levelo://app?vid=4143bd54-6a9c-44c9-9fb7-f15a2ead2498"},"vehicle_type_id":"4","last_reported":1704125291,"current_range_meters":28400,"station_id":"ce4bh112rcd13ifvqd90","pricing_plan_id":"free"},{"bike_id":"a1cdc2c3-3ff7-4fda-bf2b-8f9613cfc7db","system_id":"levelo_inurba_marseille","lat":43.288501,"lon":5.393087,"is_reserved":false,"is_disabled":false,"rental_uris":{"android":"levelo://app?vid=a1cdc2c3-3ff7-4fda-bf2b-8f9613cfc7db","ios":"levelo://app?vid=a1cdc2c3-3ff7-4fda-bf2b-8f9613cfc7db"},"vehicle_type_id":"4","last_reported":1704125291,"current_range_meters":14000,"station_id":"ce4bh2p2rcd13ifvqdi0","pricing_plan_id":"free"},{"bike_id":"815df7b1-eb70-49f9-9b93-bdef005a1639","system_id":"levelo_inurba_marseille","lat":43.284219,"lon":5.3497,"is_reserved":false,"is_disabled":false,"rental_uris":{"android":"levelo://app?vid=815df7b1-eb70-49f9-9b93-bdef005a1639","ios":"levelo://app?vid=815df7b1-eb70-49f9-9b93-bdef005a1639"},"vehicle_type_id":"4","last_reported":1704125291,"current_range_meters":30800,"station_id":"ce4bhbh2rcd13ifvqepg","pricing_plan_id":"free"},{"bike_id":"e66eb6ab-0946-4702-a509-720e5946a983","system_id":"levelo_inurba_marseille","lat":43.284219,"lon":5.3497,"is_reserved":false,"is_disabled":false,"rental_uris":{"android":"levelo://app?vid=e66eb6ab-0946-4702-a509-720e5946a983","ios":"levelo://app?vid=e66eb6ab-0946-4702-a509-720e5946a983"},"vehicle_type_id":"4","last_reported":1704125291,"current_range_meters":29600,"station_id":"ce4bhbh2rcd13ifvqepg","pricing_plan_id":"free"},{"bike_id":"07ce3283-9bab-40bf-8b26-72b3cfef7452","system_id":"levelo_inurba_marseille","lat":43.284219,"lon":5.3497,"is_reserved":false,"is_disabled":false,"rental_uris":{"android":"levelo://app?vid=07ce3283-9bab-40bf-8b26-72b3cfef7452","ios":"levelo://app?vid=07ce3283-9bab-40bf-8b26-72b3cfef7452"},"vehicle_type_id":"4","last_reported":1704125291,"current_range_meters":31600,"station_id":"ce4bhbh2rcd13ifvqepg","pricing_plan_id":"free"},{"bike_id":"b924de06-84c0-4487-a6f0-edd67915c447","system_id":"levelo_inurba_marseille","lat":43.284214,"lon":5.349706,"is_reserved":false,"is_disabled":false,"rental_uris":{"android":"levelo://app?vid=b924de06-84c0-4487-a6f0-edd67915c447","ios":"levelo://app?vid=b924de06-84c0-4487-a6f0-edd67915c447"},"vehicle_type_id":"4","last_reported":1704125291,"current_range_meters":27600,"station_id":"ce4bhbh2rcd13ifvqepg","pricing_plan_id":"free"},{"bike_id":"bf484915-3c31-461f-a9d2-7ffde0d90705","system_id":"levelo_inurba_marseille","lat":43.284217,"lon":5.349697,"is_reserved":false,"is_disabled":false,"rental_uris":{"android":"levelo://app?vid=bf484915-3c31-461f-a9d2-7ffde0d90705","ios":"levelo://app?vid=bf484915-3c31-461f-a9d2-7ffde0d90705"},"vehicle_type_id":"4","last_reported":1704125291,"current_range_meters":19200,"station_id":"ce4bhbh2rcd13ifvqepg","pricing_plan_id":"free"},{"bike_id":"fddd2611-feab-4620-876b-52cc1e62e134","system_id":"levelo_inurba_marseille","lat":43.284219,"lon":5.3497,"is_reserved":false,"is_disabled":false,"rental_uris":{"android":"levelo://app?vid=fddd2611-feab-4620-876b-52cc1e62e134","ios":"levelo://app?vid=fddd2611-feab-4620-876b-52cc1e62e134"},"vehicle_type_id":"4","last_reported":1704125291,"current_range_meters":31600,"station_id":"ce4bhbh2rcd13ifvqepg","pricing_plan_id":"free"},{"bike_id":"b6bd7d30-f6ac-4b63-98bc-6948b1d49107","system_id":"levelo_inurba_marseille","lat":43.284214,"lon":5.349706,"is_reserved":false,"is_disabled":false,"rental_uris":{"android":"levelo://app?vid=b6bd7d30-f6ac-4b63-98bc-6948b1d49107","ios":"levelo://app?vid=b6bd7d30-f6ac-4b63-98bc-6948b1d49107"},"vehicle_type_id":"4","last_reported":1704125291,"current_range_meters":19200,"station_id":"ce4bhbh2rcd13ifvqepg","pricing_plan_id":"free"},{"bike_id":"d731d671-a3f5-4243-ac4b-1201edd40e88","system_id":"levelo_inurba_marseille","lat":43.284217,"lon":5.349697,"is_reserved":false,"is_disabled":false,"rental_uris":{"android":"levelo://app?vid=d731d671-a3f5-4243-ac4b-1201edd40e88","ios":"levelo://app?vid=d731d671-a3f5-4243-ac4b-1201edd40e88"},"vehicle_type_id":"4","last_reported":1704125291,"current_range_meters":31200,"station_id":"ce4bhbh2rcd13ifvqepg","pricing_plan_id":"free"},{"bike_id":"fdaed254-768f-4eb1-882a-539209c05fd1","system_id":"levelo_inurba_marseille","lat":43.284219,"lon":5.3497,"is_reserved":false,"is_disabled":false,"rental_uris":{"android":"levelo://app?vid=fdaed254-768f-4eb1-882a-539209c05fd1","ios":"levelo://app?vid=fdaed254-768f-4eb1-882a-539209c05fd1"},"vehicle_type_id":"4","last_reported":1704125291,"current_range_meters":22400,"station_id":"ce4bhbh2rcd13ifvqepg","pricing_plan_id":"free"},{"bike_id":"3a1044d1-2076-4898-a7a7-eaca9090fada","system_id":"levelo_inurba_marseille","lat":43.284219,"lon":5.3497,"is_reserved":false,"is_disabled":false,"rental_uris":{"android":"levelo://app?vid=3a1044d1-2076-4898-a7a7-eaca9090fada","ios":"levelo://app?vid=3a1044d1-2076-4898-a7a7-eaca9090fada"},"vehicle_type_id":"4","last_reported":1704125291,"current_range_meters":24000,"station_id":"ce4bhbh2rcd13ifvqepg","pricing_plan_id":"free"},{"bike_id":"c4842957-daa2-4150-9acd-bbbe2df74d61","system_id":"levelo_inurba_marseille","lat":43.28414,"lon":5.34989,"is_reserved":false,"is_disabled":false,"rental_uris":{"android":"levelo://app?vid=c4842957-daa2-4150-9acd-bbbe2df74d61","ios":"levelo://app?vid=c4842957-daa2-4150-9acd-bbbe2df74d61"},"vehicle_type_id":"4","last_reported":1704125291,"current_range_meters":22800,"station_id":"ce4bhbh2rcd13ifvqepg","pricing_plan_id":"free"},{"bike_id":"42453d5c-7409-4c34-978a-bda9a64c32f1","system_id":"levelo_inurba_marseille","lat":43.284219,"lon":5.3497,"is_reserved":false,"is_disabled":false,"rental_uris":{"android":"levelo://app?vid=42453d5c-7409-4c34-978a-bda9a64c32f1","ios":"levelo://app?vid=42453d5c-7409-4c34-978a-bda9a64c32f1"},"vehicle_type_id":"4","last_reported":1704125291,"current_range_meters":22000,"station_id":"ce4bhbh2rcd13ifvqepg","pricing_plan_id":"free"},{"bike_id":"c300481a-12d0-44b1-9f3d-562ea210089d","system_id":"levelo_inurba_marseille","lat":43.28413,"lon":5.34977,"is_reserved":false,"is_disabled":false,"rental_uris":{"android":"levelo://app?vid=c300481a-12d0-44b1-9f3d-562ea210089d","ios":"levelo://app?vid=c300481a-12d0-44b1-9f3d-562ea210089d"},"vehicle_type_id":"4","last_reported":1704125291,"current_range_meters":12000,"station_id":"ce4bhbh2rcd13ifvqepg","pricing_plan_id":"free"},{"bike_id":"d226521a-d32e-4d5c-8e69-6b20335f32a9","system_id":"levelo_inurba_marseille","lat":43.282754,"lon":5.350519,"is_reserved":false,"is_disabled":false,"rental_uris":{"android":"levelo://app?vid=d226521a-d32e-4d5c-8e69-6b20335f32a9","ios":"levelo://app?vid=d226521a-d32e-4d5c-8e69-6b20335f32a9"},"vehicle_type_id":"4","last_reported":1704125291,"current_range_meters":27600,"station_id":"ce4bhbp2rcd13ifvqerg","pricing_plan_id":"free"},{"bike_id":"5e64ce10-d373-435f-ae19-258794bf35f1","system_id":"levelo_inurba_marseille","lat":43.282754,"lon":5.350519,"is_reserved":false,"is_disabled":false,"rental_uris":{"android":"levelo://app?vid=5e64ce10-d373-435f-ae19-258794bf35f1","ios":"levelo://app?vid=5e64ce10-d373-435f-ae19-258794bf35f1"},"vehicle_type_id":"4","last_reported":1704125291,"current_range_meters":15600,"station_id":"ce4bhbp2rcd13ifvqerg","pricing_plan_id":"free"},{"bike_id":"19298927-f1ae-4de7-a3f5-da468743d241","system_id":"levelo_inurba_marseille","lat":43.282754,"lon":5.350519,"is_reserved":false,"is_disabled":false,"rental_uris":{"android":"levelo://app?vid=19298927-f1ae-4de7-a3f5-da468743d241","ios":"levelo://app?vid=19298927-f1ae-4de7-a3f5-da468743d241"},"vehicle_type_id":"4","last_reported":1704125291,"current_range_meters":10000,"station_id":"ce4bhbp2rcd13ifvqerg","pricing_plan_id":"free"},{"bike_id":"4df270d6-7f51-40d4-beb6-32efee89fda9","system_id":"levelo_inurba_marseille","lat":43.282754,"lon":5.350519,"is_reserved":false,"is_disabled":false,"rental_uris":{"android":"levelo://app?vid=4df270d6-7f51-40d4-beb6-32efee89fda9","ios":"levelo://app?vid=4df270d6-7f51-40d4-beb6-32efee89fda9"},"vehicle_type_id":"4","last_reported":1704125291,"current_range_meters":20400,"station_id":"ce4bhbp2rcd13ifvqerg","pricing_plan_id":"free"},{"bike_id":"0f19595c-cda9-4d84-947f-511c2f7d82a0","system_id":"levelo_inurba_marseille","lat":43.282754,"lon":5.350519,"is_reserved":false,"is_disabled":false,"rental_uris":{"android":"levelo://app?vid=0f19595c-cda9-4d84-947f-511c2f7d82a0","ios":"levelo://app?vid=0f19595c-cda9-4d84-947f-511c2f7d82a0"},"vehicle_type_id":"4","last_reported":1704125291,"current_range_meters":18800,"station_id":"ce4bhbp2rcd13ifvqerg","pricing_plan_id":"free"},{"bike_id":"7a1beebc-52c8-47ad-9484-9d71ab7861e3","system_id":"levelo_inurba_marseille","lat":43.28039,"lon":5.369297,"is_reserved":false,"is_disabled":false,"rental_uris":{"android":"levelo://app?vid=7a1beebc-52c8-47ad-9484-9d71ab7861e3","ios":"levelo://app?vid=7a1beebc-52c8-47ad-9484-9d71ab7861e3"},"vehicle_type_id":"4","last_reported":1704125291,"current_range_meters":11600,"station_id":"ce4bha12rcd13ifvqef0","pricing_plan_id":"free"},{"bike_id":"afe0dd3e-cfc2-445a-8e8b-55c69bfc2dcf","system_id":"levelo_inurba_marseille","lat":43.282744,"lon":5.350533,"is_reserved":false,"is_disabled":false,"rental_uris":{"android":"levelo://app?vid=afe0dd3e-cfc2-445a-8e8b-55c69bfc2dcf","ios":"levelo://app?vid=afe0dd3e-cfc2-445a-8e8b-55c69bfc2dcf"},"vehicle_type_id":"4","last_reported":1704125291,"current_range_meters":12400,"station_id":"ce4bhbp2rcd13ifvqerg","pricing_plan_id":"free"},{"bike_id":"df044df3-dc84-4895-9b9a-0c47d09763a4","system_id":"levelo_inurba_marseille","lat":43.28039,"lon":5.369297,"is_reserved":false,"is_disabled":false,"rental_uris":{"android":"levelo://app?vid=df044df3-dc84-4895-9b9a-0c47d09763a4","ios":"levelo://app?vid=df044df3-dc84-4895-9b9a-0c47d09763a4"},"vehicle_type_id":"4","last_reported":1704125291,"current_range_meters":10400,"station_id":"ce4bha12rcd13ifvqef0","pricing_plan_id":"free"},{"bike_id":"6d3fab3c-d48a-4d5f-8846-4ea335dae319","system_id":"levelo_inurba_marseille","lat":43.28039,"lon":5.369297,"is_reserved":false,"is_disabled":false,"rental_uris":{"android":"levelo://app?vid=6d3fab3c-d48a-4d5f-8846-4ea335dae319","ios":"levelo://app?vid=6d3fab3c-d48a-4d5f-8846-4ea335dae319"},"vehicle_type_id":"4","last_reported":1704125291,"current_range_meters":12400,"station_id":"ce4bha12rcd13ifvqef0","pricing_plan_id":"free"},{"bike_id":"000b77d2-fa2a-40ab-aa90-9060ca5fefb4","system_id":"levelo_inurba_marseille","lat":43.296263,"lon":5.40601,"is_reserved":false,"is_disabled":false,"rental_uris":{"android":"levelo://app?vid=000b77d2-fa2a-40ab-aa90-9060ca5fefb4","ios":"levelo://app?vid=000b77d2-fa2a-40ab-aa90-9060ca5fefb4"},"vehicle_type_id":"4","last_reported":1704125291,"current_range_meters":28800,"station_id":"ce4bh0h2rcd13ifvqd60","pricing_plan_id":"free"},{"bike_id":"fd5f4e4d-1c9a-42d3-b666-c676a9fa26fb","system_id":"levelo_inurba_marseille","lat":43.28573,"lon":5.394992,"is_reserved":false,"is_disabled":false,"rental_uris":{"android":"levelo://app?vid=fd5f4e4d-1c9a-42d3-b666-c676a9fa26fb","ios":"levelo://app?vid=fd5f4e4d-1c9a-42d3-b666-c676a9fa26fb"},"vehicle_type_id":"4","last_reported":1704125291,"current_range_meters":3200,"station_id":"ce4bh292rcd13ifvqdg0","pricing_plan_id":"free"},{"bike_id":"96aff345-470d-4af2-864a-0693fe726d29","system_id":"levelo_inurba_marseille","lat":43.285645,"lon":5.39504,"is_reserved":false,"is_disabled":false,"rental_uris":{"android":"levelo://app?vid=96aff345-470d-4af2-864a-0693fe726d29","ios":"levelo://app?vid=96aff345-470d-4af2-864a-0693fe726d29"},"vehicle_type_id":"4","last_reported":1704125291,"current_range_meters":31200,"station_id":"ce4bh292rcd13ifvqdg0","pricing_plan_id":"free"},{"bike_id":"4266b66e-7361-4f27-bdcb-46d22a6ef3c4","system_id":"levelo_inurba_marseille","lat":43.304188,"lon":5.412904,"is_reserved":false,"is_disabled":false,"rental_uris":{"android":"levelo://app?vid=4266b66e-7361-4f27-bdcb-46d22a6ef3c4","ios":"levelo://app?vid=4266b66e-7361-4f27-bdcb-46d22a6ef3c4"},"vehicle_type_id":"4","last_reported":1704125291,"current_range_meters":25200,"station_id":"ce4bhop2rcd13ifvqh8g","pricing_plan_id":"free"},{"bike_id":"d6c9d56f-5a1e-4097-a2f2-c1bc2bc8b0e2","system_id":"levelo_inurba_marseille","lat":43.304188,"lon":5.412904,"is_reserved":false,"is_disabled":false,"rental_uris":{"android":"levelo://app?vid=d6c9d56f-5a1e-4097-a2f2-c1bc2bc8b0e2","ios":"levelo://app?vid=d6c9d56f-5a1e-4097-a2f2-c1bc2bc8b0e2"},"vehicle_type_id":"4","last_reported":1704125291,"current_range_meters":12800,"station_id":"ce4bhop2rcd13ifvqh8g","pricing_plan_id":"free"},{"bike_id":"f2a77905-389b-48fc-84c0-3ad634214821","system_id":"levelo_inurba_marseille","lat":43.30413,"lon":5.41281,"is_reserved":false,"is_disabled":false,"rental_uris":{"android":"levelo://app?vid=f2a77905-389b-48fc-84c0-3ad634214821","ios":"levelo://app?vid=f2a77905-389b-48fc-84c0-3ad634214821"},"vehicle_type_id":"4","last_reported":1704125291,"current_range_meters":26800,"station_id":"ce4bhop2rcd13ifvqh8g","pricing_plan_id":"free"},{"bike_id":"a70ea176-2a88-48a1-a68a-09ffde90689e","system_id":"levelo_inurba_marseille","lat":43.30416,"lon":5.41286,"is_reserved":false,"is_disabled":false,"rental_uris":{"android":"levelo://app?vid=a70ea176-2a88-48a1-a68a-09ffde90689e","ios":"levelo://app?vid=a70ea176-2a88-48a1-a68a-09ffde90689e"},"vehicle_type_id":"4","last_reported":1704125291,"current_range_meters":20000,"station_id":"ce4bhop2rcd13ifvqh8g","pricing_plan_id":"free"},{"bike_id":"2576e190-5033-4702-ac19-3aadc3130251","system_id":"levelo_inurba_marseille","lat":43.290779,"lon":5.371482,"is_reserved":false,"is_disabled":false,"rental_uris":{"android":"levelo://app?vid=2576e190-5033-4702-ac19-3aadc3130251","ios":"levelo://app?vid=2576e190-5033-4702-ac19-3aadc3130251"},"vehicle_type_id":"4","last_reported":1704125291,"current_range_meters":27200,"station_id":"ce4bh5p2rcd13ifvqe4g","pricing_plan_id":"free"},{"bike_id":"9b79004f-b235-4acf-aaf6-11dfc1bcc384","system_id":"levelo_inurba_marseille","lat":43.292569,"lon":5.409107,"is_reserved":false,"is_disabled":false,"rental_uris":{"android":"levelo://app?vid=9b79004f-b235-4acf-aaf6-11dfc1bcc384","ios":"levelo://app?vid=9b79004f-b235-4acf-aaf6-11dfc1bcc384"},"vehicle_type_id":"4","last_reported":1704125291,"current_range_meters":31200,"station_id":"ce4bh192rcd13ifvqdc0","pricing_plan_id":"free"},{"bike_id":"0f84f884-bab3-4200-8cc7-d4f2c72d9909","system_id":"levelo_inurba_marseille","lat":43.292571,"lon":5.409107,"is_reserved":false,"is_disabled":false,"rental_uris":{"android":"levelo://app?vid=0f84f884-bab3-4200-8cc7-d4f2c72d9909","ios":"levelo://app?vid=0f84f884-bab3-4200-8cc7-d4f2c72d9909"},"vehicle_type_id":"4","last_reported":1704125291,"current_range_meters":31600,"station_id":"ce4bh192rcd13ifvqdc0","pricing_plan_id":"free"},{"bike_id":"13083173-d784-4a87-850f-f602f8724e39","system_id":"levelo_inurba_marseille","lat":43.27618,"lon":5.361009,"is_reserved":false,"is_disabled":false,"rental_uris":{"android":"levelo://app?vid=13083173-d784-4a87-850f-f602f8724e39","ios":"levelo://app?vid=13083173-d784-4a87-850f-f602f8724e39"},"vehicle_type_id":"4","last_reported":1704125291,"current_range_meters":21200,"station_id":"ce4bgj92rcd13ifvqbe0","pricing_plan_id":"free"},{"bike_id":"d2a3da75-7092-415e-b8a8-ce83ba1178e9","system_id":"levelo_inurba_marseille","lat":43.280784,"lon":5.396622,"is_reserved":false,"is_disabled":false,"rental_uris":{"android":"levelo://app?vid=d2a3da75-7092-415e-b8a8-ce83ba1178e9","ios":"levelo://app?vid=d2a3da75-7092-415e-b8a8-ce83ba1178e9"},"vehicle_type_id":"4","last_reported":1704125291,"current_range_meters":17200,"station_id":"ce4bho12rcd13ifvqh2g","pricing_plan_id":"free"},{"bike_id":"9443765f-359f-4674-8822-13206f57c02e","system_id":"levelo_inurba_marseille","lat":43.280784,"lon":5.396622,"is_reserved":false,"is_disabled":false,"rental_uris":{"android":"levelo://app?vid=9443765f-359f-4674-8822-13206f57c02e","ios":"levelo://app?vid=9443765f-359f-4674-8822-13206f57c02e"},"vehicle_type_id":"4","last_reported":1704125291,"current_range_meters":2000,"station_id":"ce4bho12rcd13ifvqh2g","pricing_plan_id":"free"},{"bike_id":"52710c2c-e727-4072-b4b3-43bca13f4228","system_id":"levelo_inurba_marseille","lat":43.280784,"lon":5.396622,"is_reserved":false,"is_disabled":false,"rental_uris":{"android":"levelo://app?vid=52710c2c-e727-4072-b4b3-43bca13f4228","ios":"levelo://app?vid=52710c2c-e727-4072-b4b3-43bca13f4228"},"vehicle_type_id":"4","last_reported":1704125291,"current_range_meters":23600,"station_id":"ce4bho12rcd13ifvqh2g","pricing_plan_id":"free"},{"bike_id":"bd726a23-5118-4f62-8c5e-1477bf66150b","system_id":"levelo_inurba_marseille","lat":43.280784,"lon":5.396622,"is_reserved":false,"is_disabled":false,"rental_uris":{"android":"levelo://app?vid=bd726a23-5118-4f62-8c5e-1477bf66150b","ios":"levelo://app?vid=bd726a23-5118-4f62-8c5e-1477bf66150b"},"vehicle_type_id":"4","last_reported":1704125291,"current_range_meters":27200,"station_id":"ce4bho12rcd13ifvqh2g","pricing_plan_id":"free"},{"bike_id":"e1838f9f-299f-437d-abd8-4f286644fe17","system_id":"levelo_inurba_marseille","lat":43.280784,"lon":5.396622,"is_reserved":false,"is_disabled":false,"rental_uris":{"android":"levelo://app?vid=e1838f9f-299f-437d-abd8-4f286644fe17","ios":"levelo://app?vid=e1838f9f-299f-437d-abd8-4f286644fe17"},"vehicle_type_id":"4","last_reported":1704125291,"current_range_meters":28800,"station_id":"ce4bho12rcd13ifvqh2g","pricing_plan_id":"free"},{"bike_id":"9727190a-b3e3-4d96-a370-472e6c8b4d96","system_id":"levelo_inurba_marseille","lat":43.303837,"lon":5.418724,"is_reserved":false,"is_disabled":false,"rental_uris":{"android":"levelo://app?vid=9727190a-b3e3-4d96-a370-472e6c8b4d96","ios":"levelo://app?vid=9727190a-b3e3-4d96-a370-472e6c8b4d96"},"vehicle_type_id":"4","last_reported":1704125291,"current_range_meters":8000,"station_id":"ce4bhop2rcd13ifvqh7g","pricing_plan_id":"free"},{"bike_id":"2a699643-87e9-4113-8a01-1e82245f7f45","system_id":"levelo_inurba_marseille","lat":43.303837,"lon":5.418724,"is_reserved":false,"is_disabled":false,"rental_uris":{"android":"levelo://app?vid=2a699643-87e9-4113-8a01-1e82245f7f45","ios":"levelo://app?vid=2a699643-87e9-4113-8a01-1e82245f7f45"},"vehicle_type_id":"4","last_reported":1704125291,"current_range_meters":18000,"station_id":"ce4bhop2rcd13ifvqh7g","pricing_plan_id":"free"},{"bike_id":"274d9a72-069f-4bbb-8dd5-f58c8b3273e9","system_id":"levelo_inurba_marseille","lat":43.303837,"lon":5.418724,"is_reserved":false,"is_disabled":false,"rental_uris":{"android":"levelo://app?vid=274d9a72-069f-4bbb-8dd5-f58c8b3273e9","ios":"levelo://app?vid=274d9a72-069f-4bbb-8dd5-f58c8b3273e9"},"vehicle_type_id":"4","last_reported":1704125291,"current_range_meters":11600,"station_id":"ce4bhop2rcd13ifvqh7g","pricing_plan_id":"free"},{"bike_id":"04c08a77-6188-490c-ba8b-ed51e8242526","system_id":"levelo_inurba_marseille","lat":43.303837,"lon":5.418724,"is_reserved":false,"is_disabled":false,"rental_uris":{"android":"levelo://app?vid=04c08a77-6188-490c-ba8b-ed51e8242526","ios":"levelo://app?vid=04c08a77-6188-490c-ba8b-ed51e8242526"},"vehicle_type_id":"4","last_reported":1704125291,"current_range_meters":27200,"station_id":"ce4bhop2rcd13ifvqh7g","pricing_plan_id":"free"},{"bike_id":"4e4ff796-b6c2-4ed5-bf16-c931dd6520f7","system_id":"levelo_inurba_marseille","lat":43.303837,"lon":5.418724,"is_reserved":false,"is_disabled":false,"rental_uris":{"android":"levelo://app?vid=4e4ff796-b6c2-4ed5-bf16-c931dd6520f7","ios":"levelo://app?vid=4e4ff796-b6c2-4ed5-bf16-c931dd6520f7"},"vehicle_type_id":"4","last_reported":1704125291,"current_range_meters":26800,"station_id":"ce4bhop2rcd13ifvqh7g","pricing_plan_id":"free"},{"bike_id":"9ebd5be7-ea73-40bb-b2ae-8a925684cc42","system_id":"levelo_inurba_marseille","lat":43.273613,"lon":5.362705,"is_reserved":false,"is_disabled":false,"rental_uris":{"android":"levelo://app?vid=9ebd5be7-ea73-40bb-b2ae-8a925684cc42","ios":"levelo://app?vid=9ebd5be7-ea73-40bb-b2ae-8a925684cc42"},"vehicle_type_id":"4","last_reported":1704125291,"current_range_meters":23200,"station_id":"ce4bhbh2rcd13ifvqeo0","pricing_plan_id":"free"},{"bike_id":"838e390a-0d2f-44c2-87a4-d40aabcd8ccc","system_id":"levelo_inurba_marseille","lat":43.27671,"lon":5.389198,"is_reserved":false,"is_disabled":false,"rental_uris":{"android":"levelo://app?vid=838e390a-0d2f-44c2-87a4-d40aabcd8ccc","ios":"levelo://app?vid=838e390a-0d2f-44c2-87a4-d40aabcd8ccc"},"vehicle_type_id":"4","last_reported":1704125291,"current_range_meters":400,"station_id":"","pricing_plan_id":"free"},{"bike_id":"29db4e75-73a9-45d1-8a88-78686b16c358","system_id":"levelo_inurba_marseille","lat":43.27998,"lon":5.40019,"is_reserved":false,"is_disabled":false,"rental_uris":{"android":"levelo://app?vid=29db4e75-73a9-45d1-8a88-78686b16c358","ios":"levelo://app?vid=29db4e75-73a9-45d1-8a88-78686b16c358"},"vehicle_type_id":"4","last_reported":1704125291,"current_range_meters":19200,"station_id":"ce4bho92rcd13ifvqh4g","pricing_plan_id":"free"},{"bike_id":"ad8ead7b-2150-462d-9ff1-f4303c6e32bd","system_id":"levelo_inurba_marseille","lat":43.279972,"lon":5.400248,"is_reserved":false,"is_disabled":false,"rental_uris":{"android":"levelo://app?vid=ad8ead7b-2150-462d-9ff1-f4303c6e32bd","ios":"levelo://app?vid=ad8ead7b-2150-462d-9ff1-f4303c6e32bd"},"vehicle_type_id":"4","last_reported":1704125291,"current_range_meters":27600,"station_id":"ce4bho92rcd13ifvqh4g","pricing_plan_id":"free"},{"bike_id":"c8e7703b-2edf-4796-b45d-2438019a9059","system_id":"levelo_inurba_marseille","lat":43.317121,"lon":5.423936,"is_reserved":false,"is_disabled":false,"rental_uris":{"android":"levelo://app?vid=c8e7703b-2edf-4796-b45d-2438019a9059","ios":"levelo://app?vid=c8e7703b-2edf-4796-b45d-2438019a9059"},"vehicle_type_id":"4","last_reported":1704125291,"current_range_meters":14800,"station_id":"ce4bhp92rcd13ifvqhbg","pricing_plan_id":"free"},{"bike_id":"95620b28-48e0-40ed-8f4c-f7654a31b6da","system_id":"levelo_inurba_marseille","lat":43.317121,"lon":5.423936,"is_reserved":false,"is_disabled":false,"rental_uris":{"android":"levelo://app?vid=95620b28-48e0-40ed-8f4c-f7654a31b6da","ios":"levelo://app?vid=95620b28-48e0-40ed-8f4c-f7654a31b6da"},"vehicle_type_id":"4","last_reported":1704125291,"current_range_meters":31200,"station_id":"ce4bhp92rcd13ifvqhbg","pricing_plan_id":"free"},{"bike_id":"f3e351f0-7ca3-497e-a450-69da3118abd7","system_id":"levelo_inurba_marseille","lat":43.31725,"lon":5.42397,"is_reserved":false,"is_disabled":false,"rental_uris":{"android":"levelo://app?vid=f3e351f0-7ca3-497e-a450-69da3118abd7","ios":"levelo://app?vid=f3e351f0-7ca3-497e-a450-69da3118abd7"},"vehicle_type_id":"4","last_reported":1704125291,"current_range_meters":28800,"station_id":"ce4bhp92rcd13ifvqhbg","pricing_plan_id":"free"},{"bike_id":"4760841b-4fd7-4b7d-aef3-782de75b0909","system_id":"levelo_inurba_marseille","lat":43.317121,"lon":5.423936,"is_reserved":false,"is_disabled":false,"rental_uris":{"android":"levelo://app?vid=4760841b-4fd7-4b7d-aef3-782de75b0909","ios":"levelo://app?vid=4760841b-4fd7-4b7d-aef3-782de75b0909"},"vehicle_type_id":"4","last_reported":1704125291,"current_range_meters":25600,"station_id":"ce4bhp92rcd13ifvqhbg","pricing_plan_id":"free"},{"bike_id":"450ed659-c181-4eab-9bb5-1bc0054378de","system_id":"levelo_inurba_marseille","lat":43.31721,"lon":5.42402,"is_reserved":false,"is_disabled":false,"rental_uris":{"android":"levelo://app?vid=450ed659-c181-4eab-9bb5-1bc0054378de","ios":"levelo://app?vid=450ed659-c181-4eab-9bb5-1bc0054378de"},"vehicle_type_id":"4","last_reported":1704125291,"current_range_meters":28800,"station_id":"ce4bhp92rcd13ifvqhbg","pricing_plan_id":"free"},{"bike_id":"e2340435-a767-4a07-9db0-637fd4bce462","system_id":"levelo_inurba_marseille","lat":43.317121,"lon":5.423936,"is_reserved":false,"is_disabled":false,"rental_uris":{"android":"levelo://app?vid=e2340435-a767-4a07-9db0-637fd4bce462","ios":"levelo://app?vid=e2340435-a767-4a07-9db0-637fd4bce462"},"vehicle_type_id":"4","last_reported":1704125291,"current_range_meters":14000,"station_id":"ce4bhp92rcd13ifvqhbg","pricing_plan_id":"free"},{"bike_id":"f3df15e8-aad3-4eb3-8655-ae037bdab9c9","system_id":"levelo_inurba_marseille","lat":43.310785,"lon":5.424305,"is_reserved":false,"is_disabled":false,"rental_uris":{"android":"levelo://app?vid=f3df15e8-aad3-4eb3-8655-ae037bdab9c9","ios":"levelo://app?vid=f3df15e8-aad3-4eb3-8655-ae037bdab9c9"},"vehicle_type_id":"4","last_reported":1704125291,"current_range_meters":13600,"station_id":"ce4bhp92rcd13ifvqhag","pricing_plan_id":"free"},{"bike_id":"5207cc93-8b83-4cd4-bf21-e3b17bacc613","system_id":"levelo_inurba_marseille","lat":43.310785,"lon":5.424305,"is_reserved":false,"is_disabled":false,"rental_uris":{"android":"levelo://app?vid=5207cc93-8b83-4cd4-bf21-e3b17bacc613","ios":"levelo://app?vid=5207cc93-8b83-4cd4-bf21-e3b17bacc613"},"vehicle_type_id":"4","last_reported":1704125291,"current_range_meters":16400,"station_id":"ce4bhp92rcd13ifvqhag","pricing_plan_id":"free"},{"bike_id":"5e3452d0-bbc8-463b-8852-ec98e809d5a0","system_id":"levelo_inurba_marseille","lat":43.317121,"lon":5.423936,"is_reserved":false,"is_disabled":false,"rental_uris":{"android":"levelo://app?vid=5e3452d0-bbc8-463b-8852-ec98e809d5a0","ios":"levelo://app?vid=5e3452d0-bbc8-463b-8852-ec98e809d5a0"},"vehicle_type_id":"4","last_reported":1704125291,"current_range_meters":31600,"station_id":"ce4bhp92rcd13ifvqhbg","pricing_plan_id":"free"},{"bike_id":"72be8c87-95b5-44a3-a58e-8e3ac1a66cf3","system_id":"levelo_inurba_marseille","lat":43.340804,"lon":5.410219,"is_reserved":false,"is_disabled":false,"rental_uris":{"android":"levelo://app?vid=72be8c87-95b5-44a3-a58e-8e3ac1a66cf3","ios":"levelo://app?vid=72be8c87-95b5-44a3-a58e-8e3ac1a66cf3"},"vehicle_type_id":"4","last_reported":1704125291,"current_range_meters":28800,"station_id":"ce4bhqh2rcd13ifvqhlg","pricing_plan_id":"free"},{"bike_id":"1c8ff813-fcb9-4e19-aa73-92df65925e00","system_id":"levelo_inurba_marseille","lat":43.299222,"lon":5.365554,"is_reserved":false,"is_disabled":false,"rental_uris":{"android":"levelo://app?vid=1c8ff813-fcb9-4e19-aa73-92df65925e00","ios":"levelo://app?vid=1c8ff813-fcb9-4e19-aa73-92df65925e00"},"vehicle_type_id":"4","last_reported":1704125291,"current_range_meters":10800,"station_id":"ce4bgm92rcd13ifvqbr0","pricing_plan_id":"free"},{"bike_id":"aa5c63f9-4a04-46f0-a022-03547ab6b1c4","system_id":"levelo_inurba_marseille","lat":43.304096,"lon":5.425385,"is_reserved":false,"is_disabled":false,"rental_uris":{"android":"levelo://app?vid=aa5c63f9-4a04-46f0-a022-03547ab6b1c4","ios":"levelo://app?vid=aa5c63f9-4a04-46f0-a022-03547ab6b1c4"},"vehicle_type_id":"4","last_reported":1704125291,"current_range_meters":25600,"station_id":"ce4bhoh2rcd13ifvqh6g","pricing_plan_id":"free"},{"bike_id":"734bebb9-5ad4-4805-a71f-62901ed561c8","system_id":"levelo_inurba_marseille","lat":43.295523,"lon":5.422926,"is_reserved":false,"is_disabled":false,"rental_uris":{"android":"levelo://app?vid=734bebb9-5ad4-4805-a71f-62901ed561c8","ios":"levelo://app?vid=734bebb9-5ad4-4805-a71f-62901ed561c8"},"vehicle_type_id":"4","last_reported":1704125291,"current_range_meters":22400,"station_id":"ce4bhph2rcd13ifvqhdg","pricing_plan_id":"free"},{"bike_id":"d548d66b-88c9-49f9-867c-e26df10c9510","system_id":"levelo_inurba_marseille","lat":43.29553,"lon":5.42286,"is_reserved":false,"is_disabled":false,"rental_uris":{"android":"levelo://app?vid=d548d66b-88c9-49f9-867c-e26df10c9510","ios":"levelo://app?vid=d548d66b-88c9-49f9-867c-e26df10c9510"},"vehicle_type_id":"4","last_reported":1704125291,"current_range_meters":27600,"station_id":"ce4bhph2rcd13ifvqhdg","pricing_plan_id":"free"},{"bike_id":"306afd85-beb4-4f6c-b611-066e0436e9ba","system_id":"levelo_inurba_marseille","lat":43.29551,"lon":5.42286,"is_reserved":false,"is_disabled":false,"rental_uris":{"android":"levelo://app?vid=306afd85-beb4-4f6c-b611-066e0436e9ba","ios":"levelo://app?vid=306afd85-beb4-4f6c-b611-066e0436e9ba"},"vehicle_type_id":"4","last_reported":1704125291,"current_range_meters":30000,"station_id":"ce4bhph2rcd13ifvqhdg","pricing_plan_id":"free"},{"bike_id":"425f9578-de78-4e61-bdf4-7cfac3cad89a","system_id":"levelo_inurba_marseille","lat":43.279465,"lon":5.410561,"is_reserved":false,"is_disabled":false,"rental_uris":{"android":"levelo://app?vid=425f9578-de78-4e61-bdf4-7cfac3cad89a","ios":"levelo://app?vid=425f9578-de78-4e61-bdf4-7cfac3cad89a"},"vehicle_type_id":"4","last_reported":1704125291,"current_range_meters":25200,"station_id":"ce4bhnp2rcd13ifvqh0g","pricing_plan_id":"free"},{"bike_id":"30fd2104-1b14-4ca9-b095-799969957ed3","system_id":"levelo_inurba_marseille","lat":43.269319,"lon":5.389397,"is_reserved":false,"is_disabled":false,"rental_uris":{"android":"levelo://app?vid=30fd2104-1b14-4ca9-b095-799969957ed3","ios":"levelo://app?vid=30fd2104-1b14-4ca9-b095-799969957ed3"},"vehicle_type_id":"4","last_reported":1704125291,"current_range_meters":30400,"station_id":"ce4bhhh2rcd13ifvqfl0","pricing_plan_id":"free"},{"bike_id":"fca8f991-4466-4445-a8a9-a8e050297848","system_id":"levelo_inurba_marseille","lat":43.265714,"lon":5.372891,"is_reserved":false,"is_disabled":false,"rental_uris":{"android":"levelo://app?vid=fca8f991-4466-4445-a8a9-a8e050297848","ios":"levelo://app?vid=fca8f991-4466-4445-a8a9-a8e050297848"},"vehicle_type_id":"4","last_reported":1704125291,"current_range_meters":22000,"station_id":"ce4bhg12rcd13ifvqf70","pricing_plan_id":"free"},{"bike_id":"aa074c87-5e8c-48db-a798-93079e281f58","system_id":"levelo_inurba_marseille","lat":43.27996,"lon":5.416624,"is_reserved":false,"is_disabled":false,"rental_uris":{"android":"levelo://app?vid=aa074c87-5e8c-48db-a798-93079e281f58","ios":"levelo://app?vid=aa074c87-5e8c-48db-a798-93079e281f58"},"vehicle_type_id":"4","last_reported":1704125291,"current_range_meters":3200,"station_id":"ce4bho12rcd13ifvqh1g","pricing_plan_id":"free"},{"bike_id":"f652367e-f5ed-48e5-bf62-d744a5b9128b","system_id":"levelo_inurba_marseille","lat":43.27996,"lon":5.416624,"is_reserved":false,"is_disabled":false,"rental_uris":{"android":"levelo://app?vid=f652367e-f5ed-48e5-bf62-d744a5b9128b","ios":"levelo://app?vid=f652367e-f5ed-48e5-bf62-d744a5b9128b"},"vehicle_type_id":"4","last_reported":1704125291,"current_range_meters":13200,"station_id":"ce4bho12rcd13ifvqh1g","pricing_plan_id":"free"},{"bike_id":"b377144d-51fd-4147-8183-bef58cb936c6","system_id":"levelo_inurba_marseille","lat":43.27996,"lon":5.41663,"is_reserved":false,"is_disabled":false,"rental_uris":{"android":"levelo://app?vid=b377144d-51fd-4147-8183-bef58cb936c6","ios":"levelo://app?vid=b377144d-51fd-4147-8183-bef58cb936c6"},"vehicle_type_id":"4","last_reported":1704125291,"current_range_meters":1600,"station_id":"ce4bho12rcd13ifvqh1g","pricing_plan_id":"free"},{"bike_id":"4447dd41-80b5-40f6-a6e7-803616c4618b","system_id":"levelo_inurba_marseille","lat":43.27996,"lon":5.416624,"is_reserved":false,"is_disabled":false,"rental_uris":{"android":"levelo://app?vid=4447dd41-80b5-40f6-a6e7-803616c4618b","ios":"levelo://app?vid=4447dd41-80b5-40f6-a6e7-803616c4618b"},"vehicle_type_id":"4","last_reported":1704125291,"current_range_meters":11600,"station_id":"ce4bho12rcd13ifvqh1g","pricing_plan_id":"free"},{"bike_id":"136aa616-cd18-48d2-904b-2f78b63de31b","system_id":"levelo_inurba_marseille","lat":43.27993,"lon":5.4166,"is_reserved":false,"is_disabled":false,"rental_uris":{"android":"levelo://app?vid=136aa616-cd18-48d2-904b-2f78b63de31b","ios":"levelo://app?vid=136aa616-cd18-48d2-904b-2f78b63de31b"},"vehicle_type_id":"4","last_reported":1704125291,"current_range_meters":8800,"station_id":"ce4bho12rcd13ifvqh1g","pricing_plan_id":"free"},{"bike_id":"4e7b82a4-f271-4a72-bdbd-460d1cfbd58d","system_id":"levelo_inurba_marseille","lat":43.27181,"lon":5.404997,"is_reserved":false,"is_disabled":false,"rental_uris":{"android":"levelo://app?vid=4e7b82a4-f271-4a72-bdbd-460d1cfbd58d","ios":"levelo://app?vid=4e7b82a4-f271-4a72-bdbd-460d1cfbd58d"},"vehicle_type_id":"4","last_reported":1704125291,"current_range_meters":9600,"station_id":"","pricing_plan_id":"free"},{"bike_id":"5e606945-7c19-47ff-8248-6ec6794c7ad3","system_id":"levelo_inurba_marseille","lat":43.265569,"lon":5.390047,"is_reserved":false,"is_disabled":false,"rental_uris":{"android":"levelo://app?vid=5e606945-7c19-47ff-8248-6ec6794c7ad3","ios":"levelo://app?vid=5e606945-7c19-47ff-8248-6ec6794c7ad3"},"vehicle_type_id":"4","last_reported":1704125291,"current_range_meters":8400,"station_id":"ce4bhe12rcd13ifvqf30","pricing_plan_id":"free"},{"bike_id":"bf4c7316-708b-48f7-b6ea-f2f118b194e8","system_id":"levelo_inurba_marseille","lat":43.26949,"lon":5.40262,"is_reserved":false,"is_disabled":false,"rental_uris":{"android":"levelo://app?vid=bf4c7316-708b-48f7-b6ea-f2f118b194e8","ios":"levelo://app?vid=bf4c7316-708b-48f7-b6ea-f2f118b194e8"},"vehicle_type_id":"4","last_reported":1704125291,"current_range_meters":5200,"station_id":"cjm6bp8fraef2m0cb0m0","pricing_plan_id":"free"},{"bike_id":"dac5ea74-92f7-462e-b536-31f322bb01c0","system_id":"levelo_inurba_marseille","lat":43.331893,"lon":5.431791,"is_reserved":false,"is_disabled":false,"rental_uris":{"android":"levelo://app?vid=dac5ea74-92f7-462e-b536-31f322bb01c0","ios":"levelo://app?vid=dac5ea74-92f7-462e-b536-31f322bb01c0"},"vehicle_type_id":"4","last_reported":1704125291,"current_range_meters":6800,"station_id":"","pricing_plan_id":"free"},{"bike_id":"cfb01b3d-ce52-4ee7-96f4-f6bd9b5f4db7","system_id":"levelo_inurba_marseille","lat":43.261782,"lon":5.374515,"is_reserved":false,"is_disabled":false,"rental_uris":{"android":"levelo://app?vid=cfb01b3d-ce52-4ee7-96f4-f6bd9b5f4db7","ios":"levelo://app?vid=cfb01b3d-ce52-4ee7-96f4-f6bd9b5f4db7"},"vehicle_type_id":"4","last_reported":1704125291,"current_range_meters":4000,"station_id":"ce4bhgp2rcd13ifvqfc0","pricing_plan_id":"free"},{"bike_id":"63664e33-0612-46a1-83fd-d70edc586cba","system_id":"levelo_inurba_marseille","lat":43.26189,"lon":5.37442,"is_reserved":false,"is_disabled":false,"rental_uris":{"android":"levelo://app?vid=63664e33-0612-46a1-83fd-d70edc586cba","ios":"levelo://app?vid=63664e33-0612-46a1-83fd-d70edc586cba"},"vehicle_type_id":"4","last_reported":1704125291,"current_range_meters":9600,"station_id":"ce4bhgp2rcd13ifvqfc0","pricing_plan_id":"free"},{"bike_id":"8b365ef4-8d37-4009-b215-769aed674d0c","system_id":"levelo_inurba_marseille","lat":43.261782,"lon":5.374515,"is_reserved":false,"is_disabled":false,"rental_uris":{"android":"levelo://app?vid=8b365ef4-8d37-4009-b215-769aed674d0c","ios":"levelo://app?vid=8b365ef4-8d37-4009-b215-769aed674d0c"},"vehicle_type_id":"4","last_reported":1704125291,"current_range_meters":20000,"station_id":"ce4bhgp2rcd13ifvqfc0","pricing_plan_id":"free"},{"bike_id":"2791ad54-a765-494b-a78d-ea55f2870368","system_id":"levelo_inurba_marseille","lat":43.261782,"lon":5.374515,"is_reserved":false,"is_disabled":false,"rental_uris":{"android":"levelo://app?vid=2791ad54-a765-494b-a78d-ea55f2870368","ios":"levelo://app?vid=2791ad54-a765-494b-a78d-ea55f2870368"},"vehicle_type_id":"4","last_reported":1704125291,"current_range_meters":22000,"station_id":"ce4bhgp2rcd13ifvqfc0","pricing_plan_id":"free"},{"bike_id":"0bfaf941-dbcf-4754-adf8-632e259bdb0f","system_id":"levelo_inurba_marseille","lat":43.26186,"lon":5.37435,"is_reserved":false,"is_disabled":false,"rental_uris":{"android":"levelo://app?vid=0bfaf941-dbcf-4754-adf8-632e259bdb0f","ios":"levelo://app?vid=0bfaf941-dbcf-4754-adf8-632e259bdb0f"},"vehicle_type_id":"4","last_reported":1704125291,"current_range_meters":3600,"station_id":"ce4bhgp2rcd13ifvqfc0","pricing_plan_id":"free"},{"bike_id":"c693cffc-c1b1-4f48-a2af-4776d28f9155","system_id":"levelo_inurba_marseille","lat":43.31714,"lon":5.43707,"is_reserved":false,"is_disabled":false,"rental_uris":{"android":"levelo://app?vid=c693cffc-c1b1-4f48-a2af-4776d28f9155","ios":"levelo://app?vid=c693cffc-c1b1-4f48-a2af-4776d28f9155"},"vehicle_type_id":"4","last_reported":1704125291,"current_range_meters":20000,"station_id":"ce4bhp92rcd13ifvqhcg","pricing_plan_id":"free"},{"bike_id":"8c7df74b-a509-49f1-af95-b0a69adf8f56","system_id":"levelo_inurba_marseille","lat":43.31716,"lon":5.43707,"is_reserved":false,"is_disabled":false,"rental_uris":{"android":"levelo://app?vid=8c7df74b-a509-49f1-af95-b0a69adf8f56","ios":"levelo://app?vid=8c7df74b-a509-49f1-af95-b0a69adf8f56"},"vehicle_type_id":"4","last_reported":1704125291,"current_range_meters":29600,"station_id":"ce4bhp92rcd13ifvqhcg","pricing_plan_id":"free"},{"bike_id":"484df21c-c2fe-4645-b7aa-753d77aa2c38","system_id":"levelo_inurba_marseille","lat":43.26202,"lon":5.379299,"is_reserved":false,"is_disabled":false,"rental_uris":{"android":"levelo://app?vid=484df21c-c2fe-4645-b7aa-753d77aa2c38","ios":"levelo://app?vid=484df21c-c2fe-4645-b7aa-753d77aa2c38"},"vehicle_type_id":"4","last_reported":1704125291,"current_range_meters":30400,"station_id":"ce4bhjp2rcd13ifvqg90","pricing_plan_id":"free"},{"bike_id":"ffa52ca8-8979-44ef-ad1e-52f603f618de","system_id":"levelo_inurba_marseille","lat":43.271388,"lon":5.409269,"is_reserved":false,"is_disabled":false,"rental_uris":{"android":"levelo://app?vid=ffa52ca8-8979-44ef-ad1e-52f603f618de","ios":"levelo://app?vid=ffa52ca8-8979-44ef-ad1e-52f603f618de"},"vehicle_type_id":"4","last_reported":1704125291,"current_range_meters":24800,"station_id":"ce4bhl12rcd13ifvqgf0","pricing_plan_id":"free"},{"bike_id":"561232c7-db97-4857-969f-2ad8276e1366","system_id":"levelo_inurba_marseille","lat":43.292724,"lon":5.401131,"is_reserved":false,"is_disabled":false,"rental_uris":{"android":"levelo://app?vid=561232c7-db97-4857-969f-2ad8276e1366","ios":"levelo://app?vid=561232c7-db97-4857-969f-2ad8276e1366"},"vehicle_type_id":"4","last_reported":1704125291,"current_range_meters":6400,"station_id":"ce4bh312rcd13ifvqdk0","pricing_plan_id":"free"},{"bike_id":"aee55816-91af-4090-b86d-2303bacde030","system_id":"levelo_inurba_marseille","lat":43.261265,"lon":5.375078,"is_reserved":false,"is_disabled":false,"rental_uris":{"android":"levelo://app?vid=aee55816-91af-4090-b86d-2303bacde030","ios":"levelo://app?vid=aee55816-91af-4090-b86d-2303bacde030"},"vehicle_type_id":"4","last_reported":1704125291,"current_range_meters":21600,"station_id":"","pricing_plan_id":"free"},{"bike_id":"8f19da1f-6c17-4abd-8cf3-0f30c4e999bf","system_id":"levelo_inurba_marseille","lat":43.26202,"lon":5.379299,"is_reserved":false,"is_disabled":false,"rental_uris":{"android":"levelo://app?vid=8f19da1f-6c17-4abd-8cf3-0f30c4e999bf","ios":"levelo://app?vid=8f19da1f-6c17-4abd-8cf3-0f30c4e999bf"},"vehicle_type_id":"4","last_reported":1704125291,"current_range_meters":28400,"station_id":"ce4bhjp2rcd13ifvqg90","pricing_plan_id":"free"},{"bike_id":"f359195f-f069-42a0-b818-68741f0dae01","system_id":"levelo_inurba_marseille","lat":43.298768,"lon":5.43643,"is_reserved":false,"is_disabled":false,"rental_uris":{"android":"levelo://app?vid=f359195f-f069-42a0-b818-68741f0dae01","ios":"levelo://app?vid=f359195f-f069-42a0-b818-68741f0dae01"},"vehicle_type_id":"4","last_reported":1704125291,"current_range_meters":29600,"station_id":"ce4bhpp2rcd13ifvqhfg","pricing_plan_id":"free"},{"bike_id":"2aef17d2-5e1a-42db-a1a2-eebc4e3d678f","system_id":"levelo_inurba_marseille","lat":43.298768,"lon":5.43643,"is_reserved":false,"is_disabled":false,"rental_uris":{"android":"levelo://app?vid=2aef17d2-5e1a-42db-a1a2-eebc4e3d678f","ios":"levelo://app?vid=2aef17d2-5e1a-42db-a1a2-eebc4e3d678f"},"vehicle_type_id":"4","last_reported":1704125291,"current_range_meters":9200,"station_id":"ce4bhpp2rcd13ifvqhfg","pricing_plan_id":"free"},{"bike_id":"ec17f12b-76f2-4e38-bdf0-2f3dcd905333","system_id":"levelo_inurba_marseille","lat":43.298768,"lon":5.43643,"is_reserved":false,"is_disabled":false,"rental_uris":{"android":"levelo://app?vid=ec17f12b-76f2-4e38-bdf0-2f3dcd905333","ios":"levelo://app?vid=ec17f12b-76f2-4e38-bdf0-2f3dcd905333"},"vehicle_type_id":"4","last_reported":1704125291,"current_range_meters":28000,"station_id":"ce4bhpp2rcd13ifvqhfg","pricing_plan_id":"free"},{"bike_id":"20f673d4-ba18-4eae-8f31-f0ec0f555984","system_id":"levelo_inurba_marseille","lat":43.260225,"lon":5.375455,"is_reserved":false,"is_disabled":false,"rental_uris":{"android":"levelo://app?vid=20f673d4-ba18-4eae-8f31-f0ec0f555984","ios":"levelo://app?vid=20f673d4-ba18-4eae-8f31-f0ec0f555984"},"vehicle_type_id":"4","last_reported":1704125291,"current_range_meters":24800,"station_id":"ce4bhgh2rcd13ifvqfa0","pricing_plan_id":"free"},{"bike_id":"aafe7995-f2f8-413a-b501-8503c1e742a1","system_id":"levelo_inurba_marseille","lat":43.260219,"lon":5.37546,"is_reserved":false,"is_disabled":false,"rental_uris":{"android":"levelo://app?vid=aafe7995-f2f8-413a-b501-8503c1e742a1","ios":"levelo://app?vid=aafe7995-f2f8-413a-b501-8503c1e742a1"},"vehicle_type_id":"4","last_reported":1704125291,"current_range_meters":5600,"station_id":"ce4bhgh2rcd13ifvqfa0","pricing_plan_id":"free"},{"bike_id":"98b9164e-e0c2-43ae-827c-2e209a21d596","system_id":"levelo_inurba_marseille","lat":43.260219,"lon":5.37546,"is_reserved":false,"is_disabled":false,"rental_uris":{"android":"levelo://app?vid=98b9164e-e0c2-43ae-827c-2e209a21d596","ios":"levelo://app?vid=98b9164e-e0c2-43ae-827c-2e209a21d596"},"vehicle_type_id":"4","last_reported":1704125291,"current_range_meters":0,"station_id":"ce4bhgh2rcd13ifvqfa0","pricing_plan_id":"free"},{"bike_id":"0322d370-8956-46fb-9804-140e9d0b6e89","system_id":"levelo_inurba_marseille","lat":43.260225,"lon":5.375455,"is_reserved":false,"is_disabled":false,"rental_uris":{"android":"levelo://app?vid=0322d370-8956-46fb-9804-140e9d0b6e89","ios":"levelo://app?vid=0322d370-8956-46fb-9804-140e9d0b6e89"},"vehicle_type_id":"4","last_reported":1704125291,"current_range_meters":6000,"station_id":"ce4bhgh2rcd13ifvqfa0","pricing_plan_id":"free"},{"bike_id":"a994f371-a837-482a-b36b-3bceca163a1c","system_id":"levelo_inurba_marseille","lat":43.260219,"lon":5.37546,"is_reserved":false,"is_disabled":false,"rental_uris":{"android":"levelo://app?vid=a994f371-a837-482a-b36b-3bceca163a1c","ios":"levelo://app?vid=a994f371-a837-482a-b36b-3bceca163a1c"},"vehicle_type_id":"4","last_reported":1704125291,"current_range_meters":7600,"station_id":"ce4bhgh2rcd13ifvqfa0","pricing_plan_id":"free"},{"bike_id":"5f1555ac-704e-4a70-abf2-d97627b4f388","system_id":"levelo_inurba_marseille","lat":43.281548,"lon":5.42643,"is_reserved":false,"is_disabled":false,"rental_uris":{"android":"levelo://app?vid=5f1555ac-704e-4a70-abf2-d97627b4f388","ios":"levelo://app?vid=5f1555ac-704e-4a70-abf2-d97627b4f388"},"vehicle_type_id":"4","last_reported":1704125291,"current_range_meters":22400,"station_id":"ce4bhnh2rcd13ifvqgug","pricing_plan_id":"free"},{"bike_id":"51b307ad-3e03-4c88-8cbb-3669bbc8a1ad","system_id":"levelo_inurba_marseille","lat":43.281548,"lon":5.42643,"is_reserved":false,"is_disabled":false,"rental_uris":{"android":"levelo://app?vid=51b307ad-3e03-4c88-8cbb-3669bbc8a1ad","ios":"levelo://app?vid=51b307ad-3e03-4c88-8cbb-3669bbc8a1ad"},"vehicle_type_id":"4","last_reported":1704125291,"current_range_meters":31200,"station_id":"ce4bhnh2rcd13ifvqgug","pricing_plan_id":"free"},{"bike_id":"e32e8b2f-227a-41f1-a651-f92b4e26dae8","system_id":"levelo_inurba_marseille","lat":43.281548,"lon":5.42643,"is_reserved":false,"is_disabled":false,"rental_uris":{"android":"levelo://app?vid=e32e8b2f-227a-41f1-a651-f92b4e26dae8","ios":"levelo://app?vid=e32e8b2f-227a-41f1-a651-f92b4e26dae8"},"vehicle_type_id":"4","last_reported":1704125291,"current_range_meters":0,"station_id":"ce4bhnh2rcd13ifvqgug","pricing_plan_id":"free"},{"bike_id":"5a04ea17-eb41-4e08-b828-ac0858829f65","system_id":"levelo_inurba_marseille","lat":43.281548,"lon":5.42643,"is_reserved":false,"is_disabled":false,"rental_uris":{"android":"levelo://app?vid=5a04ea17-eb41-4e08-b828-ac0858829f65","ios":"levelo://app?vid=5a04ea17-eb41-4e08-b828-ac0858829f65"},"vehicle_type_id":"4","last_reported":1704125291,"current_range_meters":18400,"station_id":"ce4bhnh2rcd13ifvqgug","pricing_plan_id":"free"},{"bike_id":"20f457aa-21b0-4254-bd2f-8b6f31ce302e","system_id":"levelo_inurba_marseille","lat":43.281548,"lon":5.42643,"is_reserved":false,"is_disabled":false,"rental_uris":{"android":"levelo://app?vid=20f457aa-21b0-4254-bd2f-8b6f31ce302e","ios":"levelo://app?vid=20f457aa-21b0-4254-bd2f-8b6f31ce302e"},"vehicle_type_id":"4","last_reported":1704125291,"current_range_meters":31600,"station_id":"ce4bhnh2rcd13ifvqgug","pricing_plan_id":"free"},{"bike_id":"239866bf-d593-439b-8f00-008a123dffd7","system_id":"levelo_inurba_marseille","lat":43.281548,"lon":5.42643,"is_reserved":false,"is_disabled":false,"rental_uris":{"android":"levelo://app?vid=239866bf-d593-439b-8f00-008a123dffd7","ios":"levelo://app?vid=239866bf-d593-439b-8f00-008a123dffd7"},"vehicle_type_id":"4","last_reported":1704125291,"current_range_meters":31600,"station_id":"ce4bhnh2rcd13ifvqgug","pricing_plan_id":"free"},{"bike_id":"dd2ae354-b374-4e9f-a915-275627cc27df","system_id":"levelo_inurba_marseille","lat":43.281548,"lon":5.42643,"is_reserved":false,"is_disabled":false,"rental_uris":{"android":"levelo://app?vid=dd2ae354-b374-4e9f-a915-275627cc27df","ios":"levelo://app?vid=dd2ae354-b374-4e9f-a915-275627cc27df"},"vehicle_type_id":"4","last_reported":1704125291,"current_range_meters":26800,"station_id":"ce4bhnh2rcd13ifvqgug","pricing_plan_id":"free"},{"bike_id":"1a9dbf08-bcad-4147-8e53-eb4159c05375","system_id":"levelo_inurba_marseille","lat":43.2607,"lon":5.393983,"is_reserved":false,"is_disabled":false,"rental_uris":{"android":"levelo://app?vid=1a9dbf08-bcad-4147-8e53-eb4159c05375","ios":"levelo://app?vid=1a9dbf08-bcad-4147-8e53-eb4159c05375"},"vehicle_type_id":"4","last_reported":1704125291,"current_range_meters":16800,"station_id":"ce4bhh92rcd13ifvqfj0","pricing_plan_id":"free"},{"bike_id":"7ad50cc5-9788-45de-b807-fd22b7baeb89","system_id":"levelo_inurba_marseille","lat":43.2607,"lon":5.393983,"is_reserved":false,"is_disabled":false,"rental_uris":{"android":"levelo://app?vid=7ad50cc5-9788-45de-b807-fd22b7baeb89","ios":"levelo://app?vid=7ad50cc5-9788-45de-b807-fd22b7baeb89"},"vehicle_type_id":"4","last_reported":1704125291,"current_range_meters":10400,"station_id":"ce4bhh92rcd13ifvqfj0","pricing_plan_id":"free"},{"bike_id":"49358a4e-4549-42be-af7c-461aadd9058f","system_id":"levelo_inurba_marseille","lat":43.2607,"lon":5.393983,"is_reserved":false,"is_disabled":false,"rental_uris":{"android":"levelo://app?vid=49358a4e-4549-42be-af7c-461aadd9058f","ios":"levelo://app?vid=49358a4e-4549-42be-af7c-461aadd9058f"},"vehicle_type_id":"4","last_reported":1704125291,"current_range_meters":8400,"station_id":"ce4bhh92rcd13ifvqfj0","pricing_plan_id":"free"},{"bike_id":"82a21c20-5955-43b9-bb52-963fa6ef30bc","system_id":"levelo_inurba_marseille","lat":43.27494,"lon":5.42456,"is_reserved":false,"is_disabled":false,"rental_uris":{"android":"levelo://app?vid=82a21c20-5955-43b9-bb52-963fa6ef30bc","ios":"levelo://app?vid=82a21c20-5955-43b9-bb52-963fa6ef30bc"},"vehicle_type_id":"4","last_reported":1704125291,"current_range_meters":30800,"station_id":"ce4bhn92rcd13ifvqgrg","pricing_plan_id":"free"},{"bike_id":"caf09f30-57db-408a-af9f-64532c48b4fe","system_id":"levelo_inurba_marseille","lat":43.255756,"lon":5.382303,"is_reserved":false,"is_disabled":false,"rental_uris":{"android":"levelo://app?vid=caf09f30-57db-408a-af9f-64532c48b4fe","ios":"levelo://app?vid=caf09f30-57db-408a-af9f-64532c48b4fe"},"vehicle_type_id":"4","last_reported":1704125291,"current_range_meters":25200,"station_id":"ce4bhih2rcd13ifvqfs0","pricing_plan_id":"free"},{"bike_id":"012042c3-55c4-4d69-9b12-969c1c6a20e7","system_id":"levelo_inurba_marseille","lat":43.255756,"lon":5.382303,"is_reserved":false,"is_disabled":false,"rental_uris":{"android":"levelo://app?vid=012042c3-55c4-4d69-9b12-969c1c6a20e7","ios":"levelo://app?vid=012042c3-55c4-4d69-9b12-969c1c6a20e7"},"vehicle_type_id":"4","last_reported":1704125291,"current_range_meters":31600,"station_id":"ce4bhih2rcd13ifvqfs0","pricing_plan_id":"free"},{"bike_id":"93b843ef-8548-448d-bc1d-b4fab4e7ef33","system_id":"levelo_inurba_marseille","lat":43.254947,"lon":5.376454,"is_reserved":false,"is_disabled":false,"rental_uris":{"android":"levelo://app?vid=93b843ef-8548-448d-bc1d-b4fab4e7ef33","ios":"levelo://app?vid=93b843ef-8548-448d-bc1d-b4fab4e7ef33"},"vehicle_type_id":"4","last_reported":1704125291,"current_range_meters":24800,"station_id":"ce4bhh12rcd13ifvqff0","pricing_plan_id":"free"},{"bike_id":"6e2d5958-e868-41d2-bed3-d9f3ab684fa8","system_id":"levelo_inurba_marseille","lat":43.254945,"lon":5.376454,"is_reserved":false,"is_disabled":false,"rental_uris":{"android":"levelo://app?vid=6e2d5958-e868-41d2-bed3-d9f3ab684fa8","ios":"levelo://app?vid=6e2d5958-e868-41d2-bed3-d9f3ab684fa8"},"vehicle_type_id":"4","last_reported":1704125291,"current_range_meters":10000,"station_id":"ce4bhh12rcd13ifvqff0","pricing_plan_id":"free"},{"bike_id":"b8b38ea0-fd03-49c8-ba02-da08fa98ea33","system_id":"levelo_inurba_marseille","lat":43.254947,"lon":5.376454,"is_reserved":false,"is_disabled":false,"rental_uris":{"android":"levelo://app?vid=b8b38ea0-fd03-49c8-ba02-da08fa98ea33","ios":"levelo://app?vid=b8b38ea0-fd03-49c8-ba02-da08fa98ea33"},"vehicle_type_id":"4","last_reported":1704125291,"current_range_meters":27200,"station_id":"ce4bhh12rcd13ifvqff0","pricing_plan_id":"free"},{"bike_id":"16045ca1-c53e-4085-bf70-5638d4b802d2","system_id":"levelo_inurba_marseille","lat":43.258658,"lon":5.398935,"is_reserved":false,"is_disabled":false,"rental_uris":{"android":"levelo://app?vid=16045ca1-c53e-4085-bf70-5638d4b802d2","ios":"levelo://app?vid=16045ca1-c53e-4085-bf70-5638d4b802d2"},