{"last_updated":1742285606,"ttl":60,"version":"2.2","data":{"bikes":[{"bike_id":"f56192d3-54ea-41fd-b81b-6148ce6d0ec3","system_id":"levelo_inurba_marseille","lat":43.28849,"lon":5.3933,"is_reserved":false,"is_disabled":false,"rental_uris":{"android":"levelo://app?vid=f56192d3-54ea-41fd-b81b-6148ce6d0ec3","ios":"levelo://app?vid=f56192d3-54ea-41fd-b81b-6148ce6d0ec3"},"vehicle_type_id":"4","last_reported":1742285606,"current_range_meters":2000,"station_id":"ce4bh2p2rcd13ifvqdi0","pricing_plan_id":"cebpf4jnsgd1na2vs0mg"},{"bike_id":"69a2c503-b544-4f50-9d9f-7c6cfe685bc3","system_id":"levelo_inurba_marseille","lat":43.30463,"lon":5.3791,"is_reserved":false,"is_disabled":false,"rental_uris":{"android":"levelo://app?vid=69a2c503-b544-4f50-9d9f-7c6cfe685bc3","ios":"levelo://app?vid=69a2c503-b544-4f50-9d9f-7c6cfe685bc3"},"vehicle_type_id":"4","last_reported":1742285606,"current_range_meters":2800,"station_id":"ce4bgup2rcd13ifvqcn0","pricing_plan_id":"cebpf4jnsgd1na2vs0mg"},{"bike_id":"68f2d5f8-3774-4445-98f3-c0555707b069","system_id":"levelo_inurba_marseille","lat":43.25019,"lon":5.3891,"is_reserved":false,"is_disabled":false,"rental_uris":{"android":"levelo://app?vid=68f2d5f8-3774-4445-98f3-c0555707b069","ios":"levelo://app?vid=68f2d5f8-3774-4445-98f3-c0555707b069"},"vehicle_type_id":"4","last_reported":1742285606,"current_range_meters":2800,"station_id":"ce4bhgp2rcd13ifvqfd0","pricing_plan_id":"cebpf4jnsgd1na2vs0mg"},{"bike_id":"c3456231-470a-4ec5-80e8-047e117b3926","system_id":"levelo_inurba_marseille","lat":43.29039,"lon":5.37566,"is_reserved":false,"is_disabled":false,"rental_uris":{"android":"levelo://app?vid=c3456231-470a-4ec5-80e8-047e117b3926","ios":"levelo://app?vid=c3456231-470a-4ec5-80e8-047e117b3926"},"vehicle_type_id":"4","last_reported":1742285606,"current_range_meters":3200,"station_id":"ce4bh692rcd13ifvqe90","pricing_plan_id":"cebpf4jnsgd1na2vs0mg"},{"bike_id":"41cceb08-fdce-4e6f-8a0d-22c3c0be2742","system_id":"levelo_inurba_marseille","lat":43.28614,"lon":5.37053,"is_reserved":false,"is_disabled":false,"rental_uris":{"android":"levelo://app?vid=41cceb08-fdce-4e6f-8a0d-22c3c0be2742","ios":"levelo://app?vid=41cceb08-fdce-4e6f-8a0d-22c3c0be2742"},"vehicle_type_id":"4","last_reported":1742285606,"current_range_meters":3200,"station_id":"ce4bht12rcd13ifvqi60","pricing_plan_id":"cebpf4jnsgd1na2vs0mg"},{"bike_id":"427f8971-810b-41c5-adaa-7bb62f1efb21","system_id":"levelo_inurba_marseille","lat":43.24644,"lon":5.38932,"is_reserved":false,"is_disabled":false,"rental_uris":{"android":"levelo://app?vid=427f8971-810b-41c5-adaa-7bb62f1efb21","ios":"levelo://app?vid=427f8971-810b-41c5-adaa-7bb62f1efb21"},"vehicle_type_id":"4","last_reported":1742285606,"current_range_meters":3200,"station_id":"ce4bhg12rcd13ifvqf60","pricing_plan_id":"cebpf4jnsgd1na2vs0mg"},{"bike_id":"e716de96-f6ed-4cd4-9be4-3d143eeaac14","system_id":"levelo_inurba_marseille","lat":43.24072,"lon":5.37711,"is_reserved":false,"is_disabled":false,"rental_uris":{"android":"levelo://app?vid=e716de96-f6ed-4cd4-9be4-3d143eeaac14","ios":"levelo://app?vid=e716de96-f6ed-4cd4-9be4-3d143eeaac14"},"vehicle_type_id":"4","last_reported":1742285606,"current_range_meters":3600,"station_id":"ce4bhnp2rcd13ifvqgvg","pricing_plan_id":"cebpf4jnsgd1na2vs0mg"},{"bike_id":"3593a90d-b603-416f-b9d3-d7deec12b6d4","system_id":"levelo_inurba_marseille","lat":43.292284,"lon":5.360531,"is_reserved":false,"is_disabled":true,"rental_uris":{"android":"levelo://app?vid=3593a90d-b603-416f-b9d3-d7deec12b6d4","ios":"levelo://app?vid=3593a90d-b603-416f-b9d3-d7deec12b6d4"},"vehicle_type_id":"4","last_reported":1742285606,"current_range_meters":3600,"station_id":"ce4bha92rcd13ifvqeg0","pricing_plan_id":"cebpf4jnsgd1na2vs0mg"},{"bike_id":"9db33768-0edf-4f21-9edd-ac42a5ac13c9","system_id":"levelo_inurba_marseille","lat":43.27496,"lon":5.42434,"is_reserved":false,"is_disabled":false,"rental_uris":{"android":"levelo://app?vid=9db33768-0edf-4f21-9edd-ac42a5ac13c9","ios":"levelo://app?vid=9db33768-0edf-4f21-9edd-ac42a5ac13c9"},"vehicle_type_id":"4","last_reported":1742285606,"current_range_meters":4000,"station_id":"ce4bhn92rcd13ifvqgrg","pricing_plan_id":"cebpf4jnsgd1na2vs0mg"},{"bike_id":"6457a333-7dd0-40a6-91ad-6e9b8b134cbe","system_id":"levelo_inurba_marseille","lat":43.24071,"lon":5.37752,"is_reserved":false,"is_disabled":false,"rental_uris":{"android":"levelo://app?vid=6457a333-7dd0-40a6-91ad-6e9b8b134cbe","ios":"levelo://app?vid=6457a333-7dd0-40a6-91ad-6e9b8b134cbe"},"vehicle_type_id":"4","last_reported":1742285606,"current_range_meters":4000,"station_id":"ce4bhnp2rcd13ifvqgvg","pricing_plan_id":"cebpf4jnsgd1na2vs0mg"},{"bike_id":"cd6bd228-ec34-418f-8538-14abbf44a6a3","system_id":"levelo_inurba_marseille","lat":43.31997,"lon":5.37459,"is_reserved":false,"is_disabled":false,"rental_uris":{"android":"levelo://app?vid=cd6bd228-ec34-418f-8538-14abbf44a6a3","ios":"levelo://app?vid=cd6bd228-ec34-418f-8538-14abbf44a6a3"},"vehicle_type_id":"4","last_reported":1742285606,"current_range_meters":4000,"station_id":"","pricing_plan_id":"cebpf4jnsgd1na2vs0mg"},{"bike_id":"abd48a52-c8cc-4abb-a801-8dce64155a4a","system_id":"levelo_inurba_marseille","lat":43.24969,"lon":5.38933,"is_reserved":false,"is_disabled":false,"rental_uris":{"android":"levelo://app?vid=abd48a52-c8cc-4abb-a801-8dce64155a4a","ios":"levelo://app?vid=abd48a52-c8cc-4abb-a801-8dce64155a4a"},"vehicle_type_id":"4","last_reported":1742285606,"current_range_meters":4000,"station_id":"ce4bhgp2rcd13ifvqfd0","pricing_plan_id":"cebpf4jnsgd1na2vs0mg"},{"bike_id":"e39f083d-4542-4f7b-9173-1e8fe9e09597","system_id":"levelo_inurba_marseille","lat":43.27503,"lon":5.42497,"is_reserved":false,"is_disabled":true,"rental_uris":{"android":"levelo://app?vid=e39f083d-4542-4f7b-9173-1e8fe9e09597","ios":"levelo://app?vid=e39f083d-4542-4f7b-9173-1e8fe9e09597"},"vehicle_type_id":"4","last_reported":1742285606,"current_range_meters":4000,"station_id":"ce4bhn92rcd13ifvqgrg","pricing_plan_id":"cebpf4jnsgd1na2vs0mg"},{"bike_id":"4a82e9fa-897e-4db9-9848-eca7bdecdfdc","system_id":"levelo_inurba_marseille","lat":43.2788,"lon":5.38263,"is_reserved":false,"is_disabled":false,"rental_uris":{"android":"levelo://app?vid=4a82e9fa-897e-4db9-9848-eca7bdecdfdc","ios":"levelo://app?vid=4a82e9fa-897e-4db9-9848-eca7bdecdfdc"},"vehicle_type_id":"4","last_reported":1742285606,"current_range_meters":4000,"station_id":"","pricing_plan_id":"cebpf4jnsgd1na2vs0mg"},{"bike_id":"f7c857bd-4ed8-41c9-8704-9eff12a04d79","system_id":"levelo_inurba_marseille","lat":43.25932,"lon":5.40896,"is_reserved":false,"is_disabled":false,"rental_uris":{"android":"levelo://app?vid=f7c857bd-4ed8-41c9-8704-9eff12a04d79","ios":"levelo://app?vid=f7c857bd-4ed8-41c9-8704-9eff12a04d79"},"vehicle_type_id":"4","last_reported":1742285606,"current_range_meters":4000,"station_id":"ce4bhm92rcd13ifvqglg","pricing_plan_id":"cebpf4jnsgd1na2vs0mg"},{"bike_id":"3321b332-d0a2-4d1d-8681-1afa7f086e3f","system_id":"levelo_inurba_marseille","lat":43.26178,"lon":5.37938,"is_reserved":false,"is_disabled":false,"rental_uris":{"android":"levelo://app?vid=3321b332-d0a2-4d1d-8681-1afa7f086e3f","ios":"levelo://app?vid=3321b332-d0a2-4d1d-8681-1afa7f086e3f"},"vehicle_type_id":"4","last_reported":1742285606,"current_range_meters":4400,"station_id":"ce4bhjp2rcd13ifvqg90","pricing_plan_id":"cebpf4jnsgd1na2vs0mg"},{"bike_id":"8ea01813-0120-4e50-ad05-69582c1baabf","system_id":"levelo_inurba_marseille","lat":43.2785,"lon":5.39211,"is_reserved":false,"is_disabled":false,"rental_uris":{"android":"levelo://app?vid=8ea01813-0120-4e50-ad05-69582c1baabf","ios":"levelo://app?vid=8ea01813-0120-4e50-ad05-69582c1baabf"},"vehicle_type_id":"4","last_reported":1742285606,"current_range_meters":4000,"station_id":"ce4bhjp2rcd13ifvqga0","pricing_plan_id":"cebpf4jnsgd1na2vs0mg"},{"bike_id":"f400a41d-90ce-412e-a1a3-fdba722936d0","system_id":"levelo_inurba_marseille","lat":43.24068,"lon":5.37755,"is_reserved":false,"is_disabled":false,"rental_uris":{"android":"levelo://app?vid=f400a41d-90ce-412e-a1a3-fdba722936d0","ios":"levelo://app?vid=f400a41d-90ce-412e-a1a3-fdba722936d0"},"vehicle_type_id":"4","last_reported":1742285606,"current_range_meters":4400,"station_id":"ce4bhnp2rcd13ifvqgvg","pricing_plan_id":"cebpf4jnsgd1na2vs0mg"},{"bike_id":"a561f3af-dc1c-4af4-b9a4-ead55b35e495","system_id":"levelo_inurba_marseille","lat":43.23189,"lon":5.35554,"is_reserved":false,"is_disabled":false,"rental_uris":{"android":"levelo://app?vid=a561f3af-dc1c-4af4-b9a4-ead55b35e495","ios":"levelo://app?vid=a561f3af-dc1c-4af4-b9a4-ead55b35e495"},"vehicle_type_id":"4","last_reported":1742285606,"current_range_meters":4400,"station_id":"ce4bhu92rcd13ifvqi70","pricing_plan_id":"cebpf4jnsgd1na2vs0mg"},{"bike_id":"6b8ffa9f-0e09-4bfb-a7c9-f730a8d18a65","system_id":"levelo_inurba_marseille","lat":43.24399,"lon":5.37089,"is_reserved":false,"is_disabled":false,"rental_uris":{"android":"levelo://app?vid=6b8ffa9f-0e09-4bfb-a7c9-f730a8d18a65","ios":"levelo://app?vid=6b8ffa9f-0e09-4bfb-a7c9-f730a8d18a65"},"vehicle_type_id":"4","last_reported":1742285606,"current_range_meters":4400,"station_id":"ce4bhhh2rcd13ifvqfk0","pricing_plan_id":"cebpf4jnsgd1na2vs0mg"},{"bike_id":"9498b8d1-1a26-4adb-94b7-abf5278caff7","system_id":"levelo_inurba_marseille","lat":43.2587,"lon":5.39909,"is_reserved":false,"is_disabled":false,"rental_uris":{"android":"levelo://app?vid=9498b8d1-1a26-4adb-94b7-abf5278caff7","ios":"levelo://app?vid=9498b8d1-1a26-4adb-94b7-abf5278caff7"},"vehicle_type_id":"4","last_reported":1742285606,"current_range_meters":4400,"station_id":"ce4bhl92rcd13ifvqghg","pricing_plan_id":"cebpf4jnsgd1na2vs0mg"},{"bike_id":"43c8207c-26dc-456c-a71a-f9eb93c79664","system_id":"levelo_inurba_marseille","lat":43.30201,"lon":5.39458,"is_reserved":false,"is_disabled":true,"rental_uris":{"android":"levelo://app?vid=43c8207c-26dc-456c-a71a-f9eb93c79664","ios":"levelo://app?vid=43c8207c-26dc-456c-a71a-f9eb93c79664"},"vehicle_type_id":"4","last_reported":1742285606,"current_range_meters":4400,"station_id":"ce4bh0p2rcd13ifvqd70","pricing_plan_id":"cebpf4jnsgd1na2vs0mg"},{"bike_id":"5cfc60fd-a0bc-40a4-8145-0002e4a7b29e","system_id":"levelo_inurba_marseille","lat":43.24177,"lon":5.39729,"is_reserved":false,"is_disabled":false,"rental_uris":{"android":"levelo://app?vid=5cfc60fd-a0bc-40a4-8145-0002e4a7b29e","ios":"levelo://app?vid=5cfc60fd-a0bc-40a4-8145-0002e4a7b29e"},"vehicle_type_id":"4","last_reported":1742285606,"current_range_meters":4400,"station_id":"ce4bhn12rcd13ifvqgpg","pricing_plan_id":"cebpf4jnsgd1na2vs0mg"},{"bike_id":"b6a7d729-692e-45a5-93d2-e00a3fea9ab6","system_id":"levelo_inurba_marseille","lat":43.30955,"lon":5.39035,"is_reserved":false,"is_disabled":false,"rental_uris":{"android":"levelo://app?vid=b6a7d729-692e-45a5-93d2-e00a3fea9ab6","ios":"levelo://app?vid=b6a7d729-692e-45a5-93d2-e00a3fea9ab6"},"vehicle_type_id":"4","last_reported":1742285606,"current_range_meters":4400,"station_id":"ce4bgup2rcd13ifvqco0","pricing_plan_id":"cebpf4jnsgd1na2vs0mg"},{"bike_id":"d338a385-d4c2-41a1-9930-9a25e879d875","system_id":"levelo_inurba_marseille","lat":43.29877,"lon":5.39732,"is_reserved":false,"is_disabled":false,"rental_uris":{"android":"levelo://app?vid=d338a385-d4c2-41a1-9930-9a25e879d875","ios":"levelo://app?vid=d338a385-d4c2-41a1-9930-9a25e879d875"},"vehicle_type_id":"4","last_reported":1742285606,"current_range_meters":4800,"station_id":"ce4bh0h2rcd13ifvqd50","pricing_plan_id":"cebpf4jnsgd1na2vs0mg"},{"bike_id":"259b2a62-eee3-46d4-9ba2-779b7755c371","system_id":"levelo_inurba_marseille","lat":43.26216,"lon":5.3747,"is_reserved":false,"is_disabled":true,"rental_uris":{"android":"levelo://app?vid=259b2a62-eee3-46d4-9ba2-779b7755c371","ios":"levelo://app?vid=259b2a62-eee3-46d4-9ba2-779b7755c371"},"vehicle_type_id":"4","last_reported":1742285606,"current_range_meters":4800,"station_id":"ce4bhgp2rcd13ifvqfc0","pricing_plan_id":"cebpf4jnsgd1na2vs0mg"},{"bike_id":"00b38910-46c9-4b46-bb25-824b27bc0b50","system_id":"levelo_inurba_marseille","lat":43.30168,"lon":5.38086,"is_reserved":false,"is_disabled":false,"rental_uris":{"android":"levelo://app?vid=00b38910-46c9-4b46-bb25-824b27bc0b50","ios":"levelo://app?vid=00b38910-46c9-4b46-bb25-824b27bc0b50"},"vehicle_type_id":"4","last_reported":1742285606,"current_range_meters":4800,"station_id":"ce4bgjp2rcd13ifvqbh0","pricing_plan_id":"cebpf4jnsgd1na2vs0mg"},{"bike_id":"2b7011fc-7dee-42c2-86d6-7293fa23c29b","system_id":"levelo_inurba_marseille","lat":43.286136,"lon":5.35108,"is_reserved":false,"is_disabled":true,"rental_uris":{"android":"levelo://app?vid=2b7011fc-7dee-42c2-86d6-7293fa23c29b","ios":"levelo://app?vid=2b7011fc-7dee-42c2-86d6-7293fa23c29b"},"vehicle_type_id":"4","last_reported":1742285606,"current_range_meters":4800,"station_id":"","pricing_plan_id":"cebpf4jnsgd1na2vs0mg"},{"bike_id":"74620aff-b1f0-4b60-8841-bc8a0a2edc3e","system_id":"levelo_inurba_marseille","lat":43.231931,"lon":5.355551,"is_reserved":false,"is_disabled":false,"rental_uris":{"android":"levelo://app?vid=74620aff-b1f0-4b60-8841-bc8a0a2edc3e","ios":"levelo://app?vid=74620aff-b1f0-4b60-8841-bc8a0a2edc3e"},"vehicle_type_id":"4","last_reported":1742285606,"current_range_meters":5600,"station_id":"ce4bhu92rcd13ifvqi70","pricing_plan_id":"cebpf4jnsgd1na2vs0mg"},{"bike_id":"80d41b72-34e4-4ec5-8c7f-745069e87ff0","system_id":"levelo_inurba_marseille","lat":43.307871,"lon":5.376381,"is_reserved":false,"is_disabled":false,"rental_uris":{"android":"levelo://app?vid=80d41b72-34e4-4ec5-8c7f-745069e87ff0","ios":"levelo://app?vid=80d41b72-34e4-4ec5-8c7f-745069e87ff0"},"vehicle_type_id":"4","last_reported":1742285606,"current_range_meters":5600,"station_id":"ce4bgv92rcd13ifvqcq0","pricing_plan_id":"cebpf4jnsgd1na2vs0mg"},{"bike_id":"2fe6b5d4-c6f7-40d2-9a0b-4798d57f392b","system_id":"levelo_inurba_marseille","lat":43.23061,"lon":5.35492,"is_reserved":false,"is_disabled":false,"rental_uris":{"android":"levelo://app?vid=2fe6b5d4-c6f7-40d2-9a0b-4798d57f392b","ios":"levelo://app?vid=2fe6b5d4-c6f7-40d2-9a0b-4798d57f392b"},"vehicle_type_id":"4","last_reported":1742285606,"current_range_meters":5600,"station_id":"cpo3342slgdg3j2ifvpg","pricing_plan_id":"cebpf4jnsgd1na2vs0mg"},{"bike_id":"9dcb622a-e621-4cef-b659-02a845217b91","system_id":"levelo_inurba_marseille","lat":43.32379,"lon":5.38884,"is_reserved":false,"is_disabled":false,"rental_uris":{"android":"levelo://app?vid=9dcb622a-e621-4cef-b659-02a845217b91","ios":"levelo://app?vid=9dcb622a-e621-4cef-b659-02a845217b91"},"vehicle_type_id":"4","last_reported":1742285606,"current_range_meters":5600,"station_id":"ce4bhqp2rcd13ifvqhog","pricing_plan_id":"cebpf4jnsgd1na2vs0mg"},{"bike_id":"50ed2785-4884-498c-8849-58205dde41b1","system_id":"levelo_inurba_marseille","lat":43.27183,"lon":5.39181,"is_reserved":false,"is_disabled":false,"rental_uris":{"android":"levelo://app?vid=50ed2785-4884-498c-8849-58205dde41b1","ios":"levelo://app?vid=50ed2785-4884-498c-8849-58205dde41b1"},"vehicle_type_id":"4","last_reported":1742285606,"current_range_meters":5600,"station_id":"ce4bhhp2rcd13ifvqfm0","pricing_plan_id":"cebpf4jnsgd1na2vs0mg"},{"bike_id":"4c24f8a2-fcb8-48f4-9cb1-53d858f2edb5","system_id":"levelo_inurba_marseille","lat":43.30457,"lon":5.37903,"is_reserved":false,"is_disabled":false,"rental_uris":{"android":"levelo://app?vid=4c24f8a2-fcb8-48f4-9cb1-53d858f2edb5","ios":"levelo://app?vid=4c24f8a2-fcb8-48f4-9cb1-53d858f2edb5"},"vehicle_type_id":"4","last_reported":1742285606,"current_range_meters":5600,"station_id":"ce4bgup2rcd13ifvqcn0","pricing_plan_id":"cebpf4jnsgd1na2vs0mg"},{"bike_id":"8bc63912-7dfa-449e-af91-4e937ec4ef73","system_id":"levelo_inurba_marseille","lat":43.27939,"lon":5.41058,"is_reserved":false,"is_disabled":false,"rental_uris":{"android":"levelo://app?vid=8bc63912-7dfa-449e-af91-4e937ec4ef73","ios":"levelo://app?vid=8bc63912-7dfa-449e-af91-4e937ec4ef73"},"vehicle_type_id":"4","last_reported":1742285606,"current_range_meters":5600,"station_id":"ce4bhnp2rcd13ifvqh0g","pricing_plan_id":"cebpf4jnsgd1na2vs0mg"},{"bike_id":"ef511bc9-127f-4f4c-82af-5f8602d7eff9","system_id":"levelo_inurba_marseille","lat":43.31375,"lon":5.36723,"is_reserved":false,"is_disabled":false,"rental_uris":{"android":"levelo://app?vid=ef511bc9-127f-4f4c-82af-5f8602d7eff9","ios":"levelo://app?vid=ef511bc9-127f-4f4c-82af-5f8602d7eff9"},"vehicle_type_id":"4","last_reported":1742285606,"current_range_meters":5600,"station_id":"ce4bgr92rcd13ifvqc6g","pricing_plan_id":"cebpf4jnsgd1na2vs0mg"},{"bike_id":"021238b5-2b9d-46d2-b80c-a5e816fdc135","system_id":"levelo_inurba_marseille","lat":43.29515,"lon":5.42483,"is_reserved":false,"is_disabled":false,"rental_uris":{"android":"levelo://app?vid=021238b5-2b9d-46d2-b80c-a5e816fdc135","ios":"levelo://app?vid=021238b5-2b9d-46d2-b80c-a5e816fdc135"},"vehicle_type_id":"4","last_reported":1742285606,"current_range_meters":5600,"station_id":"","pricing_plan_id":"cebpf4jnsgd1na2vs0mg"},{"bike_id":"443a43ca-6da0-4460-8048-a31901ee5c6d","system_id":"levelo_inurba_marseille","lat":43.31336,"lon":5.36735,"is_reserved":false,"is_disabled":false,"rental_uris":{"android":"levelo://app?vid=443a43ca-6da0-4460-8048-a31901ee5c6d","ios":"levelo://app?vid=443a43ca-6da0-4460-8048-a31901ee5c6d"},"vehicle_type_id":"4","last_reported":1742285606,"current_range_meters":5600,"station_id":"ce4bgr92rcd13ifvqc6g","pricing_plan_id":"cebpf4jnsgd1na2vs0mg"},{"bike_id":"3e082b84-a32a-4ba1-a806-5f92b77c9a6a","system_id":"levelo_inurba_marseille","lat":43.30268,"lon":5.37726,"is_reserved":false,"is_disabled":false,"rental_uris":{"android":"levelo://app?vid=3e082b84-a32a-4ba1-a806-5f92b77c9a6a","ios":"levelo://app?vid=3e082b84-a32a-4ba1-a806-5f92b77c9a6a"},"vehicle_type_id":"4","last_reported":1742285606,"current_range_meters":5600,"station_id":"ce4bguh2rcd13ifvqcj0","pricing_plan_id":"cebpf4jnsgd1na2vs0mg"},{"bike_id":"d4622cc8-63da-48ca-a619-891bf5197ebe","system_id":"levelo_inurba_marseille","lat":43.30282,"lon":5.37717,"is_reserved":false,"is_disabled":false,"rental_uris":{"android":"levelo://app?vid=d4622cc8-63da-48ca-a619-891bf5197ebe","ios":"levelo://app?vid=d4622cc8-63da-48ca-a619-891bf5197ebe"},"vehicle_type_id":"4","last_reported":1742285606,"current_range_meters":4800,"station_id":"ce4bguh2rcd13ifvqcj0","pricing_plan_id":"cebpf4jnsgd1na2vs0mg"},{"bike_id":"13534d29-a474-499b-9fd6-327e1bac90d2","system_id":"levelo_inurba_marseille","lat":43.28944,"lon":5.36382,"is_reserved":false,"is_disabled":false,"rental_uris":{"android":"levelo://app?vid=13534d29-a474-499b-9fd6-327e1bac90d2","ios":"levelo://app?vid=13534d29-a474-499b-9fd6-327e1bac90d2"},"vehicle_type_id":"4","last_reported":1742285606,"current_range_meters":5600,"station_id":"ce4bhc92rcd13ifvqetg","pricing_plan_id":"cebpf4jnsgd1na2vs0mg"},{"bike_id":"9ee8265a-0fdc-4849-933f-8351e6c3b1de","system_id":"levelo_inurba_marseille","lat":43.23189,"lon":5.39987,"is_reserved":false,"is_disabled":false,"rental_uris":{"android":"levelo://app?vid=9ee8265a-0fdc-4849-933f-8351e6c3b1de","ios":"levelo://app?vid=9ee8265a-0fdc-4849-933f-8351e6c3b1de"},"vehicle_type_id":"4","last_reported":1742285606,"current_range_meters":5600,"station_id":"ce4bhn12rcd13ifvqgqg","pricing_plan_id":"cebpf4jnsgd1na2vs0mg"},{"bike_id":"472bb641-da33-4636-aa40-8e7abd76d569","system_id":"levelo_inurba_marseille","lat":43.29306,"lon":5.37465,"is_reserved":false,"is_disabled":false,"rental_uris":{"android":"levelo://app?vid=472bb641-da33-4636-aa40-8e7abd76d569","ios":"levelo://app?vid=472bb641-da33-4636-aa40-8e7abd76d569"},"vehicle_type_id":"4","last_reported":1742285606,"current_range_meters":5600,"station_id":"ce4bgi12rcd13ifvqb70","pricing_plan_id":"cebpf4jnsgd1na2vs0mg"},{"bike_id":"9b901284-d22c-458a-a33b-2c3451cdee4f","system_id":"levelo_inurba_marseille","lat":43.25004,"lon":5.38928,"is_reserved":false,"is_disabled":false,"rental_uris":{"android":"levelo://app?vid=9b901284-d22c-458a-a33b-2c3451cdee4f","ios":"levelo://app?vid=9b901284-d22c-458a-a33b-2c3451cdee4f"},"vehicle_type_id":"4","last_reported":1742285606,"current_range_meters":5600,"station_id":"ce4bhgp2rcd13ifvqfd0","pricing_plan_id":"cebpf4jnsgd1na2vs0mg"},{"bike_id":"299e1023-94f9-44ff-aa28-69259b9be03b","system_id":"levelo_inurba_marseille","lat":43.31346,"lon":5.36711,"is_reserved":false,"is_disabled":false,"rental_uris":{"android":"levelo://app?vid=299e1023-94f9-44ff-aa28-69259b9be03b","ios":"levelo://app?vid=299e1023-94f9-44ff-aa28-69259b9be03b"},"vehicle_type_id":"4","last_reported":1742285606,"current_range_meters":6000,"station_id":"ce4bgr92rcd13ifvqc6g","pricing_plan_id":"cebpf4jnsgd1na2vs0mg"},{"bike_id":"4d46e037-8954-462a-b34f-64963174e243","system_id":"levelo_inurba_marseille","lat":43.27927,"lon":5.41125,"is_reserved":false,"is_disabled":false,"rental_uris":{"android":"levelo://app?vid=4d46e037-8954-462a-b34f-64963174e243","ios":"levelo://app?vid=4d46e037-8954-462a-b34f-64963174e243"},"vehicle_type_id":"4","last_reported":1742285606,"current_range_meters":6000,"station_id":"","pricing_plan_id":"cebpf4jnsgd1na2vs0mg"},{"bike_id":"40d52e74-1999-437f-acf3-0bd9d37c759c","system_id":"levelo_inurba_marseille","lat":43.31232,"lon":5.36861,"is_reserved":false,"is_disabled":false,"rental_uris":{"android":"levelo://app?vid=40d52e74-1999-437f-acf3-0bd9d37c759c","ios":"levelo://app?vid=40d52e74-1999-437f-acf3-0bd9d37c759c"},"vehicle_type_id":"4","last_reported":1742285606,"current_range_meters":6000,"station_id":"ce4bgl92rcd13ifvqbq0","pricing_plan_id":"cebpf4jnsgd1na2vs0mg"},{"bike_id":"d5621d71-3596-4f8d-a0f7-c0888b884e3a","system_id":"levelo_inurba_marseille","lat":43.28706,"lon":5.37388,"is_reserved":false,"is_disabled":false,"rental_uris":{"android":"levelo://app?vid=d5621d71-3596-4f8d-a0f7-c0888b884e3a","ios":"levelo://app?vid=d5621d71-3596-4f8d-a0f7-c0888b884e3a"},"vehicle_type_id":"4","last_reported":1742285606,"current_range_meters":5600,"station_id":"ce4bh3p2rcd13ifvqdq0","pricing_plan_id":"cebpf4jnsgd1na2vs0mg"},{"bike_id":"2bccc7ba-380a-4c14-b3e9-87e4e9df9a00","system_id":"levelo_inurba_marseille","lat":43.30542,"lon":5.36547,"is_reserved":false,"is_disabled":false,"rental_uris":{"android":"levelo://app?vid=2bccc7ba-380a-4c14-b3e9-87e4e9df9a00","ios":"levelo://app?vid=2bccc7ba-380a-4c14-b3e9-87e4e9df9a00"},"vehicle_type_id":"4","last_reported":1742285606,"current_range_meters":6400,"station_id":"ce4bgs12rcd13ifvqcag","pricing_plan_id":"cebpf4jnsgd1na2vs0mg"},{"bike_id":"1ffc2ce7-fc8d-4088-8af1-7c559d45ff56","system_id":"levelo_inurba_marseille","lat":43.31362,"lon":5.36722,"is_reserved":false,"is_disabled":false,"rental_uris":{"android":"levelo://app?vid=1ffc2ce7-fc8d-4088-8af1-7c559d45ff56","ios":"levelo://app?vid=1ffc2ce7-fc8d-4088-8af1-7c559d45ff56"},"vehicle_type_id":"4","last_reported":1742285606,"current_range_meters":6400,"station_id":"ce4bgr92rcd13ifvqc6g","pricing_plan_id":"cebpf4jnsgd1na2vs0mg"},{"bike_id":"0c4ff9ee-0186-4652-83ac-1ecaab7985c8","system_id":"levelo_inurba_marseille","lat":43.309448,"lon":5.390307,"is_reserved":false,"is_disabled":false,"rental_uris":{"android":"levelo://app?vid=0c4ff9ee-0186-4652-83ac-1ecaab7985c8","ios":"levelo://app?vid=0c4ff9ee-0186-4652-83ac-1ecaab7985c8"},"vehicle_type_id":"4","last_reported":1742285606,"current_range_meters":9600,"station_id":"ce4bgup2rcd13ifvqcn0","pricing_plan_id":"cebpf4jnsgd1na2vs0mg"},{"bike_id":"ac13bb18-fac9-468b-a3ac-62f37833720e","system_id":"levelo_inurba_marseille","lat":43.29267,"lon":5.37645,"is_reserved":false,"is_disabled":false,"rental_uris":{"android":"levelo://app?vid=ac13bb18-fac9-468b-a3ac-62f37833720e","ios":"levelo://app?vid=ac13bb18-fac9-468b-a3ac-62f37833720e"},"vehicle_type_id":"4","last_reported":1742285606,"current_range_meters":6400,"station_id":"ce4bgi12rcd13ifvqb80","pricing_plan_id":"cebpf4jnsgd1na2vs0mg"},{"bike_id":"bd95e462-c605-4bd6-b0a6-7ecc3176c361","system_id":"levelo_inurba_marseille","lat":43.27191,"lon":5.40992,"is_reserved":false,"is_disabled":false,"rental_uris":{"android":"levelo://app?vid=bd95e462-c605-4bd6-b0a6-7ecc3176c361","ios":"levelo://app?vid=bd95e462-c605-4bd6-b0a6-7ecc3176c361"},"vehicle_type_id":"4","last_reported":1742285606,"current_range_meters":6400,"station_id":"ce4bhl12rcd13ifvqgf0","pricing_plan_id":"cebpf4jnsgd1na2vs0mg"},{"bike_id":"2e2b336b-74aa-4bc7-9bcb-98974336f2d7","system_id":"levelo_inurba_marseille","lat":43.24082,"lon":5.37754,"is_reserved":false,"is_disabled":false,"rental_uris":{"android":"levelo://app?vid=2e2b336b-74aa-4bc7-9bcb-98974336f2d7","ios":"levelo://app?vid=2e2b336b-74aa-4bc7-9bcb-98974336f2d7"},"vehicle_type_id":"4","last_reported":1742285606,"current_range_meters":6400,"station_id":"ce4bhnp2rcd13ifvqgvg","pricing_plan_id":"cebpf4jnsgd1na2vs0mg"},{"bike_id":"6f2d066f-cc4f-473e-a070-cee8fcf3bef7","system_id":"levelo_inurba_marseille","lat":43.287179,"lon":5.3794,"is_reserved":false,"is_disabled":false,"rental_uris":{"android":"levelo://app?vid=6f2d066f-cc4f-473e-a070-cee8fcf3bef7","ios":"levelo://app?vid=6f2d066f-cc4f-473e-a070-cee8fcf3bef7"},"vehicle_type_id":"4","last_reported":1742285606,"current_range_meters":6400,"station_id":"ce4bhkp2rcd13ifvqgd0","pricing_plan_id":"cebpf4jnsgd1na2vs0mg"},{"bike_id":"73ba6054-b256-49f9-a881-8617a962027d","system_id":"levelo_inurba_marseille","lat":43.23053,"lon":5.3549,"is_reserved":false,"is_disabled":false,"rental_uris":{"android":"levelo://app?vid=73ba6054-b256-49f9-a881-8617a962027d","ios":"levelo://app?vid=73ba6054-b256-49f9-a881-8617a962027d"},"vehicle_type_id":"4","last_reported":1742285606,"current_range_meters":6800,"station_id":"cpo3342slgdg3j2ifvpg","pricing_plan_id":"cebpf4jnsgd1na2vs0mg"},{"bike_id":"358749a9-bf0f-4427-9316-55aeb97b46e4","system_id":"levelo_inurba_marseille","lat":43.31359,"lon":5.36715,"is_reserved":false,"is_disabled":false,"rental_uris":{"android":"levelo://app?vid=358749a9-bf0f-4427-9316-55aeb97b46e4","ios":"levelo://app?vid=358749a9-bf0f-4427-9316-55aeb97b46e4"},"vehicle_type_id":"4","last_reported":1742285606,"current_range_meters":6800,"station_id":"ce4bgr92rcd13ifvqc6g","pricing_plan_id":"cebpf4jnsgd1na2vs0mg"},{"bike_id":"057c4299-c24d-4a02-8ede-b4bf9523726b","system_id":"levelo_inurba_marseille","lat":43.23162,"lon":5.43736,"is_reserved":false,"is_disabled":false,"rental_uris":{"android":"levelo://app?vid=057c4299-c24d-4a02-8ede-b4bf9523726b","ios":"levelo://app?vid=057c4299-c24d-4a02-8ede-b4bf9523726b"},"vehicle_type_id":"4","last_reported":1742285606,"current_range_meters":6800,"station_id":"ce4bhmp2rcd13ifvqgog","pricing_plan_id":"cebpf4jnsgd1na2vs0mg"},{"bike_id":"d1676c12-45d0-460a-ab7d-e6bd42a8628c","system_id":"levelo_inurba_marseille","lat":43.25933,"lon":5.40952,"is_reserved":false,"is_disabled":false,"rental_uris":{"android":"levelo://app?vid=d1676c12-45d0-460a-ab7d-e6bd42a8628c","ios":"levelo://app?vid=d1676c12-45d0-460a-ab7d-e6bd42a8628c"},"vehicle_type_id":"4","last_reported":1742285606,"current_range_meters":6800,"station_id":"ce4bhm92rcd13ifvqglg","pricing_plan_id":"cebpf4jnsgd1na2vs0mg"},{"bike_id":"e95151cd-abc4-4dae-8ab5-1de4cba734f5","system_id":"levelo_inurba_marseille","lat":43.24171,"lon":5.39735,"is_reserved":false,"is_disabled":false,"rental_uris":{"android":"levelo://app?vid=e95151cd-abc4-4dae-8ab5-1de4cba734f5","ios":"levelo://app?vid=e95151cd-abc4-4dae-8ab5-1de4cba734f5"},"vehicle_type_id":"4","last_reported":1742285606,"current_range_meters":6800,"station_id":"ce4bhn12rcd13ifvqgpg","pricing_plan_id":"cebpf4jnsgd1na2vs0mg"},{"bike_id":"52f18ca7-0da6-4f56-bf62-6b733fb0deaf","system_id":"levelo_inurba_marseille","lat":43.25503,"lon":5.37647,"is_reserved":false,"is_disabled":false,"rental_uris":{"android":"levelo://app?vid=52f18ca7-0da6-4f56-bf62-6b733fb0deaf","ios":"levelo://app?vid=52f18ca7-0da6-4f56-bf62-6b733fb0deaf"},"vehicle_type_id":"4","last_reported":1742285606,"current_range_meters":6800,"station_id":"ce4bhh12rcd13ifvqff0","pricing_plan_id":"cebpf4jnsgd1na2vs0mg"},{"bike_id":"fa5f15ab-8994-45e1-84de-31aa4c8b3ced","system_id":"levelo_inurba_marseille","lat":43.23198,"lon":5.35553,"is_reserved":false,"is_disabled":false,"rental_uris":{"android":"levelo://app?vid=fa5f15ab-8994-45e1-84de-31aa4c8b3ced","ios":"levelo://app?vid=fa5f15ab-8994-45e1-84de-31aa4c8b3ced"},"vehicle_type_id":"4","last_reported":1742285606,"current_range_meters":6800,"station_id":"ce4bhu92rcd13ifvqi70","pricing_plan_id":"cebpf4jnsgd1na2vs0mg"},{"bike_id":"43242342-73bc-4a76-a912-16362c9b752f","system_id":"levelo_inurba_marseille","lat":43.24076,"lon":5.37758,"is_reserved":false,"is_disabled":false,"rental_uris":{"android":"levelo://app?vid=43242342-73bc-4a76-a912-16362c9b752f","ios":"levelo://app?vid=43242342-73bc-4a76-a912-16362c9b752f"},"vehicle_type_id":"4","last_reported":1742285606,"current_range_meters":6800,"station_id":"ce4bhnp2rcd13ifvqgvg","pricing_plan_id":"cebpf4jnsgd1na2vs0mg"},{"bike_id":"b54a649d-2707-4569-87ee-d2c230e19409","system_id":"levelo_inurba_marseille","lat":43.27478,"lon":5.40905,"is_reserved":false,"is_disabled":false,"rental_uris":{"android":"levelo://app?vid=b54a649d-2707-4569-87ee-d2c230e19409","ios":"levelo://app?vid=b54a649d-2707-4569-87ee-d2c230e19409"},"vehicle_type_id":"4","last_reported":1742285606,"current_range_meters":6800,"station_id":"","pricing_plan_id":"cebpf4jnsgd1na2vs0mg"},{"bike_id":"dd117a7c-a536-40a1-91af-43693b0b8fe5","system_id":"levelo_inurba_marseille","lat":43.25932,"lon":5.40882,"is_reserved":false,"is_disabled":false,"rental_uris":{"android":"levelo://app?vid=dd117a7c-a536-40a1-91af-43693b0b8fe5","ios":"levelo://app?vid=dd117a7c-a536-40a1-91af-43693b0b8fe5"},"vehicle_type_id":"4","last_reported":1742285606,"current_range_meters":6800,"station_id":"ce4bhm92rcd13ifvqglg","pricing_plan_id":"cebpf4jnsgd1na2vs0mg"},{"bike_id":"ced8bd45-8f38-4cae-b402-59337f6c62b1","system_id":"levelo_inurba_marseille","lat":43.292558,"lon":5.409071,"is_reserved":false,"is_disabled":false,"rental_uris":{"android":"levelo://app?vid=ced8bd45-8f38-4cae-b402-59337f6c62b1","ios":"levelo://app?vid=ced8bd45-8f38-4cae-b402-59337f6c62b1"},"vehicle_type_id":"4","last_reported":1742285606,"current_range_meters":6800,"station_id":"ce4bh192rcd13ifvqdc0","pricing_plan_id":"cebpf4jnsgd1na2vs0mg"},{"bike_id":"c028cc28-0425-4ffd-8361-35263e1b282e","system_id":"levelo_inurba_marseille","lat":43.26204,"lon":5.37937,"is_reserved":false,"is_disabled":false,"rental_uris":{"android":"levelo://app?vid=c028cc28-0425-4ffd-8361-35263e1b282e","ios":"levelo://app?vid=c028cc28-0425-4ffd-8361-35263e1b282e"},"vehicle_type_id":"4","last_reported":1742285606,"current_range_meters":6800,"station_id":"ce4bhjp2rcd13ifvqg90","pricing_plan_id":"cebpf4jnsgd1na2vs0mg"},{"bike_id":"5e31fbed-d4b7-49e5-97ef-d23adbdbc443","system_id":"levelo_inurba_marseille","lat":43.25753,"lon":5.41194,"is_reserved":false,"is_disabled":false,"rental_uris":{"android":"levelo://app?vid=5e31fbed-d4b7-49e5-97ef-d23adbdbc443","ios":"levelo://app?vid=5e31fbed-d4b7-49e5-97ef-d23adbdbc443"},"vehicle_type_id":"4","last_reported":1742285606,"current_range_meters":6800,"station_id":"","pricing_plan_id":"cebpf4jnsgd1na2vs0mg"},{"bike_id":"d155b6d7-4f04-4869-a663-a1baa5b8f97e","system_id":"levelo_inurba_marseille","lat":43.231931,"lon":5.355571,"is_reserved":false,"is_disabled":false,"rental_uris":{"android":"levelo://app?vid=d155b6d7-4f04-4869-a663-a1baa5b8f97e","ios":"levelo://app?vid=d155b6d7-4f04-4869-a663-a1baa5b8f97e"},"vehicle_type_id":"4","last_reported":1742285606,"current_range_meters":7200,"station_id":"ce4bhu92rcd13ifvqi70","pricing_plan_id":"cebpf4jnsgd1na2vs0mg"},{"bike_id":"0452794a-f238-449d-9cbc-919488d00919","system_id":"levelo_inurba_marseille","lat":43.272034,"lon":5.391844,"is_reserved":false,"is_disabled":false,"rental_uris":{"android":"levelo://app?vid=0452794a-f238-449d-9cbc-919488d00919","ios":"levelo://app?vid=0452794a-f238-449d-9cbc-919488d00919"},"vehicle_type_id":"4","last_reported":1742285606,"current_range_meters":7200,"station_id":"ce4bhh92rcd13ifvqfh0","pricing_plan_id":"cebpf4jnsgd1na2vs0mg"},{"bike_id":"a721223e-025d-42c9-b095-5c32c709b862","system_id":"levelo_inurba_marseille","lat":43.27065,"lon":5.42274,"is_reserved":false,"is_disabled":false,"rental_uris":{"android":"levelo://app?vid=a721223e-025d-42c9-b095-5c32c709b862","ios":"levelo://app?vid=a721223e-025d-42c9-b095-5c32c709b862"},"vehicle_type_id":"4","last_reported":1742285606,"current_range_meters":7200,"station_id":"ce4bhk92rcd13ifvqgb0","pricing_plan_id":"cebpf4jnsgd1na2vs0mg"},{"bike_id":"ad552d4b-dc7e-45d1-ab1a-030768554e99","system_id":"levelo_inurba_marseille","lat":43.27498,"lon":5.42458,"is_reserved":false,"is_disabled":false,"rental_uris":{"android":"levelo://app?vid=ad552d4b-dc7e-45d1-ab1a-030768554e99","ios":"levelo://app?vid=ad552d4b-dc7e-45d1-ab1a-030768554e99"},"vehicle_type_id":"4","last_reported":1742285606,"current_range_meters":7200,"station_id":"ce4bhn92rcd13ifvqgrg","pricing_plan_id":"cebpf4jnsgd1na2vs0mg"},{"bike_id":"fc592314-6ddb-4b06-8ab3-83aa73e7be47","system_id":"levelo_inurba_marseille","lat":43.31093,"lon":5.42436,"is_reserved":false,"is_disabled":false,"rental_uris":{"android":"levelo://app?vid=fc592314-6ddb-4b06-8ab3-83aa73e7be47","ios":"levelo://app?vid=fc592314-6ddb-4b06-8ab3-83aa73e7be47"},"vehicle_type_id":"4","last_reported":1742285606,"current_range_meters":7200,"station_id":"ce4bhp92rcd13ifvqhag","pricing_plan_id":"cebpf4jnsgd1na2vs0mg"},{"bike_id":"981a08f4-9369-4fa1-9087-4e6b195ff34d","system_id":"levelo_inurba_marseille","lat":43.28001,"lon":5.40032,"is_reserved":false,"is_disabled":false,"rental_uris":{"android":"levelo://app?vid=981a08f4-9369-4fa1-9087-4e6b195ff34d","ios":"levelo://app?vid=981a08f4-9369-4fa1-9087-4e6b195ff34d"},"vehicle_type_id":"4","last_reported":1742285606,"current_range_meters":7200,"station_id":"ce4bho92rcd13ifvqh4g","pricing_plan_id":"cebpf4jnsgd1na2vs0mg"},{"bike_id":"cc7d340a-80ae-4c38-8c96-82194e0f9b43","system_id":"levelo_inurba_marseille","lat":43.29273,"lon":5.37629,"is_reserved":false,"is_disabled":false,"rental_uris":{"android":"levelo://app?vid=cc7d340a-80ae-4c38-8c96-82194e0f9b43","ios":"levelo://app?vid=cc7d340a-80ae-4c38-8c96-82194e0f9b43"},"vehicle_type_id":"4","last_reported":1742285606,"current_range_meters":8000,"station_id":"ce4bgi12rcd13ifvqb80","pricing_plan_id":"cebpf4jnsgd1na2vs0mg"},{"bike_id":"b1b41327-66f3-4983-ac80-93a6af2a034d","system_id":"levelo_inurba_marseille","lat":43.23066,"lon":5.35489,"is_reserved":false,"is_disabled":false,"rental_uris":{"android":"levelo://app?vid=b1b41327-66f3-4983-ac80-93a6af2a034d","ios":"levelo://app?vid=b1b41327-66f3-4983-ac80-93a6af2a034d"},"vehicle_type_id":"4","last_reported":1742285606,"current_range_meters":8000,"station_id":"cpo3342slgdg3j2ifvpg","pricing_plan_id":"cebpf4jnsgd1na2vs0mg"},{"bike_id":"f4654f29-4219-4ff4-9bb7-7a943c17af68","system_id":"levelo_inurba_marseille","lat":43.25461,"lon":5.41745,"is_reserved":false,"is_disabled":false,"rental_uris":{"android":"levelo://app?vid=f4654f29-4219-4ff4-9bb7-7a943c17af68","ios":"levelo://app?vid=f4654f29-4219-4ff4-9bb7-7a943c17af68"},"vehicle_type_id":"4","last_reported":1742285606,"current_range_meters":8000,"station_id":"","pricing_plan_id":"cebpf4jnsgd1na2vs0mg"},{"bike_id":"b7567473-0624-49b2-8642-8bab66eaccb2","system_id":"levelo_inurba_marseille","lat":43.27563,"lon":5.38426,"is_reserved":false,"is_disabled":false,"rental_uris":{"android":"levelo://app?vid=b7567473-0624-49b2-8642-8bab66eaccb2","ios":"levelo://app?vid=b7567473-0624-49b2-8642-8bab66eaccb2"},"vehicle_type_id":"4","last_reported":1742285606,"current_range_meters":8000,"station_id":"ce4bhh92rcd13ifvqfi0","pricing_plan_id":"cebpf4jnsgd1na2vs0mg"},{"bike_id":"6d8e8090-a4c7-4966-a3f4-a833922b9e5a","system_id":"levelo_inurba_marseille","lat":43.231949,"lon":5.355596,"is_reserved":false,"is_disabled":false,"rental_uris":{"android":"levelo://app?vid=6d8e8090-a4c7-4966-a3f4-a833922b9e5a","ios":"levelo://app?vid=6d8e8090-a4c7-4966-a3f4-a833922b9e5a"},"vehicle_type_id":"4","last_reported":1742285606,"current_range_meters":8000,"station_id":"ce4bhu92rcd13ifvqi70","pricing_plan_id":"cebpf4jnsgd1na2vs0mg"},{"bike_id":"fdd32235-7856-4b5e-abd5-c8668ad042b7","system_id":"levelo_inurba_marseille","lat":43.30899,"lon":5.37193,"is_reserved":false,"is_disabled":false,"rental_uris":{"android":"levelo://app?vid=fdd32235-7856-4b5e-abd5-c8668ad042b7","ios":"levelo://app?vid=fdd32235-7856-4b5e-abd5-c8668ad042b7"},"vehicle_type_id":"4","last_reported":1742285606,"current_range_meters":8000,"station_id":"ce4bguh2rcd13ifvqckg","pricing_plan_id":"cebpf4jnsgd1na2vs0mg"},{"bike_id":"2665cc4b-07ed-4ae6-a66f-2b09983c709d","system_id":"levelo_inurba_marseille","lat":43.33761,"lon":5.37489,"is_reserved":false,"is_disabled":false,"rental_uris":{"android":"levelo://app?vid=2665cc4b-07ed-4ae6-a66f-2b09983c709d","ios":"levelo://app?vid=2665cc4b-07ed-4ae6-a66f-2b09983c709d"},"vehicle_type_id":"4","last_reported":1742285606,"current_range_meters":8000,"station_id":"","pricing_plan_id":"cebpf4jnsgd1na2vs0mg"},{"bike_id":"b0e99555-3f97-4b50-81d1-7e765c24f7a3","system_id":"levelo_inurba_marseille","lat":43.32104,"lon":5.36769,"is_reserved":false,"is_disabled":false,"rental_uris":{"android":"levelo://app?vid=b0e99555-3f97-4b50-81d1-7e765c24f7a3","ios":"levelo://app?vid=b0e99555-3f97-4b50-81d1-7e765c24f7a3"},"vehicle_type_id":"4","last_reported":1742285606,"current_range_meters":8000,"station_id":"ce4bhrh2rcd13ifvqhug","pricing_plan_id":"cebpf4jnsgd1na2vs0mg"},{"bike_id":"df22a083-8fbb-40ab-8bc3-4f155e555e5b","system_id":"levelo_inurba_marseille","lat":43.24064,"lon":5.37747,"is_reserved":false,"is_disabled":false,"rental_uris":{"android":"levelo://app?vid=df22a083-8fbb-40ab-8bc3-4f155e555e5b","ios":"levelo://app?vid=df22a083-8fbb-40ab-8bc3-4f155e555e5b"},"vehicle_type_id":"4","last_reported":1742285606,"current_range_meters":8000,"station_id":"ce4bhnp2rcd13ifvqgvg","pricing_plan_id":"cebpf4jnsgd1na2vs0mg"},{"bike_id":"7e2fd363-1345-4671-93c3-9edc4652ce3c","system_id":"levelo_inurba_marseille","lat":43.24077,"lon":5.37743,"is_reserved":false,"is_disabled":false,"rental_uris":{"android":"levelo://app?vid=7e2fd363-1345-4671-93c3-9edc4652ce3c","ios":"levelo://app?vid=7e2fd363-1345-4671-93c3-9edc4652ce3c"},"vehicle_type_id":"4","last_reported":1742285606,"current_range_meters":8000,"station_id":"ce4bhnp2rcd13ifvqgvg","pricing_plan_id":"cebpf4jnsgd1na2vs0mg"},{"bike_id":"0d3accb9-853e-4df0-b9d8-4607b8048f46","system_id":"levelo_inurba_marseille","lat":43.24167,"lon":5.36391,"is_reserved":false,"is_disabled":false,"rental_uris":{"android":"levelo://app?vid=0d3accb9-853e-4df0-b9d8-4607b8048f46","ios":"levelo://app?vid=0d3accb9-853e-4df0-b9d8-4607b8048f46"},"vehicle_type_id":"4","last_reported":1742285606,"current_range_meters":8000,"station_id":"cpo36qri1sfpv3e86is0","pricing_plan_id":"cebpf4jnsgd1na2vs0mg"},{"bike_id":"831df63a-07b0-45d0-97a5-ddebc7803c49","system_id":"levelo_inurba_marseille","lat":43.26689,"lon":5.38272,"is_reserved":false,"is_disabled":false,"rental_uris":{"android":"levelo://app?vid=831df63a-07b0-45d0-97a5-ddebc7803c49","ios":"levelo://app?vid=831df63a-07b0-45d0-97a5-ddebc7803c49"},"vehicle_type_id":"4","last_reported":1742285606,"current_range_meters":8000,"station_id":"ce4bhg92rcd13ifvqf90","pricing_plan_id":"cebpf4jnsgd1na2vs0mg"},{"bike_id":"70533b04-4f86-4823-8b2b-60cfc8ad8617","system_id":"levelo_inurba_marseille","lat":43.31356,"lon":5.36715,"is_reserved":false,"is_disabled":false,"rental_uris":{"android":"levelo://app?vid=70533b04-4f86-4823-8b2b-60cfc8ad8617","ios":"levelo://app?vid=70533b04-4f86-4823-8b2b-60cfc8ad8617"},"vehicle_type_id":"4","last_reported":1742285606,"current_range_meters":8000,"station_id":"ce4bgr92rcd13ifvqc6g","pricing_plan_id":"cebpf4jnsgd1na2vs0mg"},{"bike_id":"9770fec9-49b7-4cc3-aa3a-56c1594590a2","system_id":"levelo_inurba_marseille","lat":43.29905,"lon":5.38144,"is_reserved":false,"is_disabled":false,"rental_uris":{"android":"levelo://app?vid=9770fec9-49b7-4cc3-aa3a-56c1594590a2","ios":"levelo://app?vid=9770fec9-49b7-4cc3-aa3a-56c1594590a2"},"vehicle_type_id":"4","last_reported":1742285606,"current_range_meters":8400,"station_id":"ce4bgj12rcd13ifvqbc0","pricing_plan_id":"cebpf4jnsgd1na2vs0mg"},{"bike_id":"b0d4f5f0-79ce-4a3f-92ac-2959ecb2dee0","system_id":"levelo_inurba_marseille","lat":43.32906,"lon":5.39078,"is_reserved":false,"is_disabled":false,"rental_uris":{"android":"levelo://app?vid=b0d4f5f0-79ce-4a3f-92ac-2959ecb2dee0","ios":"levelo://app?vid=b0d4f5f0-79ce-4a3f-92ac-2959ecb2dee0"},"vehicle_type_id":"4","last_reported":1742285606,"current_range_meters":8400,"station_id":"","pricing_plan_id":"cebpf4jnsgd1na2vs0mg"},{"bike_id":"737a1d64-a21d-4452-b1f9-a22f87a8d6bd","system_id":"levelo_inurba_marseille","lat":43.2305,"lon":5.35458,"is_reserved":false,"is_disabled":false,"rental_uris":{"android":"levelo://app?vid=737a1d64-a21d-4452-b1f9-a22f87a8d6bd","ios":"levelo://app?vid=737a1d64-a21d-4452-b1f9-a22f87a8d6bd"},"vehicle_type_id":"4","last_reported":1742285606,"current_range_meters":8400,"station_id":"cpo3342slgdg3j2ifvpg","pricing_plan_id":"cebpf4jnsgd1na2vs0mg"},{"bike_id":"8fe7e33b-57fc-439c-ba02-015988635c80","system_id":"levelo_inurba_marseille","lat":43.27072,"lon":5.42282,"is_reserved":false,"is_disabled":true,"rental_uris":{"android":"levelo://app?vid=8fe7e33b-57fc-439c-ba02-015988635c80","ios":"levelo://app?vid=8fe7e33b-57fc-439c-ba02-015988635c80"},"vehicle_type_id":"4","last_reported":1742285606,"current_range_meters":8400,"station_id":"ce4bhk92rcd13ifvqgb0","pricing_plan_id":"cebpf4jnsgd1na2vs0mg"},{"bike_id":"836e6160-43fb-4e74-bca4-6228c501760e","system_id":"levelo_inurba_marseille","lat":43.25537,"lon":5.3768,"is_reserved":false,"is_disabled":false,"rental_uris":{"android":"levelo://app?vid=836e6160-43fb-4e74-bca4-6228c501760e","ios":"levelo://app?vid=836e6160-43fb-4e74-bca4-6228c501760e"},"vehicle_type_id":"4","last_reported":1742285606,"current_range_meters":8400,"station_id":"ce4bhh12rcd13ifvqff0","pricing_plan_id":"cebpf4jnsgd1na2vs0mg"},{"bike_id":"bf53558a-323c-40e3-9c37-ac64ba388e1c","system_id":"levelo_inurba_marseille","lat":43.23963,"lon":5.3664,"is_reserved":false,"is_disabled":false,"rental_uris":{"android":"levelo://app?vid=bf53558a-323c-40e3-9c37-ac64ba388e1c","ios":"levelo://app?vid=bf53558a-323c-40e3-9c37-ac64ba388e1c"},"vehicle_type_id":"4","last_reported":1742285606,"current_range_meters":8400,"station_id":"ce4bhi12rcd13ifvqfp0","pricing_plan_id":"cebpf4jnsgd1na2vs0mg"},{"bike_id":"1fc941af-49e5-4662-97d6-1c72f4b15be5","system_id":"levelo_inurba_marseille","lat":43.2678,"lon":5.39418,"is_reserved":false,"is_disabled":false,"rental_uris":{"android":"levelo://app?vid=1fc941af-49e5-4662-97d6-1c72f4b15be5","ios":"levelo://app?vid=1fc941af-49e5-4662-97d6-1c72f4b15be5"},"vehicle_type_id":"4","last_reported":1742285606,"current_range_meters":8400,"station_id":"ce4bhh12rcd13ifvqfg0","pricing_plan_id":"cebpf4jnsgd1na2vs0mg"},{"bike_id":"ea7f16e6-de90-4692-b642-b4503d1ac536","system_id":"levelo_inurba_marseille","lat":43.24384,"lon":5.37067,"is_reserved":false,"is_disabled":false,"rental_uris":{"android":"levelo://app?vid=ea7f16e6-de90-4692-b642-b4503d1ac536","ios":"levelo://app?vid=ea7f16e6-de90-4692-b642-b4503d1ac536"},"vehicle_type_id":"4","last_reported":1742285606,"current_range_meters":8800,"station_id":"ce4bhhh2rcd13ifvqfk0","pricing_plan_id":"cebpf4jnsgd1na2vs0mg"},{"bike_id":"97a1e633-c2b3-487e-8569-9036bf18d175","system_id":"levelo_inurba_marseille","lat":43.2417,"lon":5.36399,"is_reserved":false,"is_disabled":false,"rental_uris":{"android":"levelo://app?vid=97a1e633-c2b3-487e-8569-9036bf18d175","ios":"levelo://app?vid=97a1e633-c2b3-487e-8569-9036bf18d175"},"vehicle_type_id":"4","last_reported":1742285606,"current_range_meters":8800,"station_id":"cpo36qri1sfpv3e86is0","pricing_plan_id":"cebpf4jnsgd1na2vs0mg"},{"bike_id":"af480e05-13aa-4c1e-b89b-32097f534fd4","system_id":"levelo_inurba_marseille","lat":43.30301,"lon":5.39218,"is_reserved":false,"is_disabled":false,"rental_uris":{"android":"levelo://app?vid=af480e05-13aa-4c1e-b89b-32097f534fd4","ios":"levelo://app?vid=af480e05-13aa-4c1e-b89b-32097f534fd4"},"vehicle_type_id":"4","last_reported":1742285606,"current_range_meters":8800,"station_id":"ce4bgkh2rcd13ifvqbk0","pricing_plan_id":"cebpf4jnsgd1na2vs0mg"},{"bike_id":"2e5d6cf4-8893-46b8-886b-3950dbb0f29a","system_id":"levelo_inurba_marseille","lat":43.26688,"lon":5.38277,"is_reserved":false,"is_disabled":false,"rental_uris":{"android":"levelo://app?vid=2e5d6cf4-8893-46b8-886b-3950dbb0f29a","ios":"levelo://app?vid=2e5d6cf4-8893-46b8-886b-3950dbb0f29a"},"vehicle_type_id":"4","last_reported":1742285606,"current_range_meters":8800,"station_id":"ce4bhg92rcd13ifvqf90","pricing_plan_id":"cebpf4jnsgd1na2vs0mg"},{"bike_id":"ba17eb78-f062-4f77-b8b0-1a4a31d62a9e","system_id":"levelo_inurba_marseille","lat":43.25734,"lon":5.41103,"is_reserved":false,"is_disabled":true,"rental_uris":{"android":"levelo://app?vid=ba17eb78-f062-4f77-b8b0-1a4a31d62a9e","ios":"levelo://app?vid=ba17eb78-f062-4f77-b8b0-1a4a31d62a9e"},"vehicle_type_id":"4","last_reported":1742285606,"current_range_meters":8800,"station_id":"ce4bhkp2rcd13ifvqgd0","pricing_plan_id":"cebpf4jnsgd1na2vs0mg"},{"bike_id":"2d28a042-eb20-4272-a235-0789695f5954","system_id":"levelo_inurba_marseille","lat":43.26226,"lon":5.3793,"is_reserved":false,"is_disabled":false,"rental_uris":{"android":"levelo://app?vid=2d28a042-eb20-4272-a235-0789695f5954","ios":"levelo://app?vid=2d28a042-eb20-4272-a235-0789695f5954"},"vehicle_type_id":"4","last_reported":1742285606,"current_range_meters":9200,"station_id":"ce4bhjp2rcd13ifvqg90","pricing_plan_id":"cebpf4jnsgd1na2vs0mg"},{"bike_id":"50805743-af93-468a-bd73-cb8e3f1d8216","system_id":"levelo_inurba_marseille","lat":43.29263,"lon":5.38426,"is_reserved":false,"is_disabled":false,"rental_uris":{"android":"levelo://app?vid=50805743-af93-468a-bd73-cb8e3f1d8216","ios":"levelo://app?vid=50805743-af93-468a-bd73-cb8e3f1d8216"},"vehicle_type_id":"4","last_reported":1742285606,"current_range_meters":8800,"station_id":"ce4bh692rcd13ifvqea0","pricing_plan_id":"cebpf4jnsgd1na2vs0mg"},{"bike_id":"ac18547a-c1ce-4669-8d38-edb0d1e4b616","system_id":"levelo_inurba_marseille","lat":43.29634,"lon":5.37145,"is_reserved":false,"is_disabled":false,"rental_uris":{"android":"levelo://app?vid=ac18547a-c1ce-4669-8d38-edb0d1e4b616","ios":"levelo://app?vid=ac18547a-c1ce-4669-8d38-edb0d1e4b616"},"vehicle_type_id":"4","last_reported":1742285606,"current_range_meters":9200,"station_id":"ce4bgnh2rcd13ifvqc0g","pricing_plan_id":"cebpf4jnsgd1na2vs0mg"},{"bike_id":"cc127605-97f5-449d-ad23-12b6f80c9639","system_id":"levelo_inurba_marseille","lat":43.29335,"lon":5.37425,"is_reserved":false,"is_disabled":true,"rental_uris":{"android":"levelo://app?vid=cc127605-97f5-449d-ad23-12b6f80c9639","ios":"levelo://app?vid=cc127605-97f5-449d-ad23-12b6f80c9639"},"vehicle_type_id":"4","last_reported":1742285606,"current_range_meters":9200,"station_id":"ce4bgi12rcd13ifvqb70","pricing_plan_id":"cebpf4jnsgd1na2vs0mg"},{"bike_id":"868be9a8-f36a-485e-a0ce-22cad0d8453f","system_id":"levelo_inurba_marseille","lat":43.25728,"lon":5.41109,"is_reserved":false,"is_disabled":false,"rental_uris":{"android":"levelo://app?vid=868be9a8-f36a-485e-a0ce-22cad0d8453f","ios":"levelo://app?vid=868be9a8-f36a-485e-a0ce-22cad0d8453f"},"vehicle_type_id":"4","last_reported":1742285606,"current_range_meters":9200,"station_id":"ce4bhkp2rcd13ifvqgd0","pricing_plan_id":"cebpf4jnsgd1na2vs0mg"},{"bike_id":"08058f9b-5fd7-489c-a6cd-58711359da60","system_id":"levelo_inurba_marseille","lat":43.3255,"lon":5.41454,"is_reserved":false,"is_disabled":false,"rental_uris":{"android":"levelo://app?vid=08058f9b-5fd7-489c-a6cd-58711359da60","ios":"levelo://app?vid=08058f9b-5fd7-489c-a6cd-58711359da60"},"vehicle_type_id":"4","last_reported":1742285606,"current_range_meters":9200,"station_id":"ce4bhq12rcd13ifvqhhg","pricing_plan_id":"cebpf4jnsgd1na2vs0mg"},{"bike_id":"42e35520-f310-4cc9-afe0-cc69621e6853","system_id":"levelo_inurba_marseille","lat":43.32383,"lon":5.38878,"is_reserved":false,"is_disabled":false,"rental_uris":{"android":"levelo://app?vid=42e35520-f310-4cc9-afe0-cc69621e6853","ios":"levelo://app?vid=42e35520-f310-4cc9-afe0-cc69621e6853"},"vehicle_type_id":"4","last_reported":1742285606,"current_range_meters":9200,"station_id":"ce4bhqp2rcd13ifvqhog","pricing_plan_id":"cebpf4jnsgd1na2vs0mg"},{"bike_id":"e098cbd9-5f9e-4001-8b66-ff429a0cc254","system_id":"levelo_inurba_marseille","lat":43.314944,"lon":5.373041,"is_reserved":false,"is_disabled":false,"rental_uris":{"android":"levelo://app?vid=e098cbd9-5f9e-4001-8b66-ff429a0cc254","ios":"levelo://app?vid=e098cbd9-5f9e-4001-8b66-ff429a0cc254"},"vehicle_type_id":"4","last_reported":1742285606,"current_range_meters":9200,"station_id":"ce4bgt12rcd13ifvqcd0","pricing_plan_id":"cebpf4jnsgd1na2vs0mg"},{"bike_id":"741d391f-90d7-4181-bd12-a5dd4665e554","system_id":"levelo_inurba_marseille","lat":43.2591,"lon":5.40883,"is_reserved":false,"is_disabled":false,"rental_uris":{"android":"levelo://app?vid=741d391f-90d7-4181-bd12-a5dd4665e554","ios":"levelo://app?vid=741d391f-90d7-4181-bd12-a5dd4665e554"},"vehicle_type_id":"4","last_reported":1742285606,"current_range_meters":9200,"station_id":"ce4bhm92rcd13ifvqglg","pricing_plan_id":"cebpf4jnsgd1na2vs0mg"},{"bike_id":"d56e2316-61e8-4f07-895c-bed8ee9e55b9","system_id":"levelo_inurba_marseille","lat":43.26229,"lon":5.4045,"is_reserved":false,"is_disabled":false,"rental_uris":{"android":"levelo://app?vid=d56e2316-61e8-4f07-895c-bed8ee9e55b9","ios":"levelo://app?vid=d56e2316-61e8-4f07-895c-bed8ee9e55b9"},"vehicle_type_id":"4","last_reported":1742285606,"current_range_meters":9200,"station_id":"ce4bhmh2rcd13ifvqgmg","pricing_plan_id":"cebpf4jnsgd1na2vs0mg"},{"bike_id":"686c5451-9017-4fa7-88ba-fd894c9f08f1","system_id":"levelo_inurba_marseille","lat":43.29807,"lon":5.38102,"is_reserved":false,"is_disabled":false,"rental_uris":{"android":"levelo://app?vid=686c5451-9017-4fa7-88ba-fd894c9f08f1","ios":"levelo://app?vid=686c5451-9017-4fa7-88ba-fd894c9f08f1"},"vehicle_type_id":"4","last_reported":1742285606,"current_range_meters":9200,"station_id":"ce4bgip2rcd13ifvqbb0","pricing_plan_id":"cebpf4jnsgd1na2vs0mg"},{"bike_id":"b7f2b7c5-99ba-492d-89fe-49761132c1c4","system_id":"levelo_inurba_marseille","lat":43.29053,"lon":5.39951,"is_reserved":false,"is_disabled":false,"rental_uris":{"android":"levelo://app?vid=b7f2b7c5-99ba-492d-89fe-49761132c1c4","ios":"levelo://app?vid=b7f2b7c5-99ba-492d-89fe-49761132c1c4"},"vehicle_type_id":"4","last_reported":1742285606,"current_range_meters":9200,"station_id":"ce4bh392rcd13ifvqdm0","pricing_plan_id":"cebpf4jnsgd1na2vs0mg"},{"bike_id":"6ae89089-e9a4-4c17-97a1-ce9d0ea01326","system_id":"levelo_inurba_marseille","lat":43.24075,"lon":5.37755,"is_reserved":false,"is_disabled":false,"rental_uris":{"android":"levelo://app?vid=6ae89089-e9a4-4c17-97a1-ce9d0ea01326","ios":"levelo://app?vid=6ae89089-e9a4-4c17-97a1-ce9d0ea01326"},"vehicle_type_id":"4","last_reported":1742285606,"current_range_meters":9600,"station_id":"ce4bhnp2rcd13ifvqgvg","pricing_plan_id":"cebpf4jnsgd1na2vs0mg"},{"bike_id":"aa27012c-8a2b-4120-83a6-4c3640491807","system_id":"levelo_inurba_marseille","lat":43.25006,"lon":5.38927,"is_reserved":false,"is_disabled":false,"rental_uris":{"android":"levelo://app?vid=aa27012c-8a2b-4120-83a6-4c3640491807","ios":"levelo://app?vid=aa27012c-8a2b-4120-83a6-4c3640491807"},"vehicle_type_id":"4","last_reported":1742285606,"current_range_meters":9600,"station_id":"ce4bhgp2rcd13ifvqfd0","pricing_plan_id":"cebpf4jnsgd1na2vs0mg"},{"bike_id":"ecb3efb9-db03-45f6-af54-c654e6ed333d","system_id":"levelo_inurba_marseille","lat":43.30179,"lon":5.38096,"is_reserved":false,"is_disabled":false,"rental_uris":{"android":"levelo://app?vid=ecb3efb9-db03-45f6-af54-c654e6ed333d","ios":"levelo://app?vid=ecb3efb9-db03-45f6-af54-c654e6ed333d"},"vehicle_type_id":"4","last_reported":1742285606,"current_range_meters":9600,"station_id":"ce4bgjp2rcd13ifvqbh0","pricing_plan_id":"cebpf4jnsgd1na2vs0mg"},{"bike_id":"09be20b3-ccfa-43d5-8616-036d82fe33a0","system_id":"levelo_inurba_marseille","lat":43.24996,"lon":5.38934,"is_reserved":false,"is_disabled":false,"rental_uris":{"android":"levelo://app?vid=09be20b3-ccfa-43d5-8616-036d82fe33a0","ios":"levelo://app?vid=09be20b3-ccfa-43d5-8616-036d82fe33a0"},"vehicle_type_id":"4","last_reported":1742285606,"current_range_meters":9600,"station_id":"ce4bhgp2rcd13ifvqfd0","pricing_plan_id":"cebpf4jnsgd1na2vs0mg"},{"bike_id":"ac767398-3a37-4b25-a151-49e4b1e3ef78","system_id":"levelo_inurba_marseille","lat":43.25107,"lon":5.39526,"is_reserved":false,"is_disabled":false,"rental_uris":{"android":"levelo://app?vid=ac767398-3a37-4b25-a151-49e4b1e3ef78","ios":"levelo://app?vid=ac767398-3a37-4b25-a151-49e4b1e3ef78"},"vehicle_type_id":"4","last_reported":1742285606,"current_range_meters":9600,"station_id":"ce4bhm12rcd13ifvqgkg","pricing_plan_id":"cebpf4jnsgd1na2vs0mg"},{"bike_id":"ebaedfeb-7672-4f76-8969-024922876924","system_id":"levelo_inurba_marseille","lat":43.3095,"lon":5.39027,"is_reserved":false,"is_disabled":false,"rental_uris":{"android":"levelo://app?vid=ebaedfeb-7672-4f76-8969-024922876924","ios":"levelo://app?vid=ebaedfeb-7672-4f76-8969-024922876924"},"vehicle_type_id":"4","last_reported":1742285606,"current_range_meters":9600,"station_id":"ce4bgup2rcd13ifvqco0","pricing_plan_id":"cebpf4jnsgd1na2vs0mg"},{"bike_id":"0b60e72b-d8b1-4266-9b63-b94b87c1ad4b","system_id":"levelo_inurba_marseille","lat":43.23166,"lon":5.40017,"is_reserved":false,"is_disabled":false,"rental_uris":{"android":"levelo://app?vid=0b60e72b-d8b1-4266-9b63-b94b87c1ad4b","ios":"levelo://app?vid=0b60e72b-d8b1-4266-9b63-b94b87c1ad4b"},"vehicle_type_id":"4","last_reported":1742285606,"current_range_meters":10000,"station_id":"ce4bhn12rcd13ifvqgqg","pricing_plan_id":"cebpf4jnsgd1na2vs0mg"},{"bike_id":"39d2df96-c36f-4593-8a68-432fe8c8d072","system_id":"levelo_inurba_marseille","lat":43.29903,"lon":5.43668,"is_reserved":false,"is_disabled":false,"rental_uris":{"android":"levelo://app?vid=39d2df96-c36f-4593-8a68-432fe8c8d072","ios":"levelo://app?vid=39d2df96-c36f-4593-8a68-432fe8c8d072"},"vehicle_type_id":"4","last_reported":1742285606,"current_range_meters":10000,"station_id":"ce4bhpp2rcd13ifvqhfg","pricing_plan_id":"cebpf4jnsgd1na2vs0mg"},{"bike_id":"2b5d8bf7-89b8-4c50-b0d6-be65aaf4879d","system_id":"levelo_inurba_marseille","lat":43.284915,"lon":5.385522,"is_reserved":false,"is_disabled":false,"rental_uris":{"android":"levelo://app?vid=2b5d8bf7-89b8-4c50-b0d6-be65aaf4879d","ios":"levelo://app?vid=2b5d8bf7-89b8-4c50-b0d6-be65aaf4879d"},"vehicle_type_id":"4","last_reported":1742285606,"current_range_meters":9600,"station_id":"ce4bh8p2rcd13ifvqeb0","pricing_plan_id":"cebpf4jnsgd1na2vs0mg"},{"bike_id":"a6afbc5c-0f48-47ca-b482-47cd182694d0","system_id":"levelo_inurba_marseille","lat":43.2439,"lon":5.37061,"is_reserved":false,"is_disabled":false,"rental_uris":{"android":"levelo://app?vid=a6afbc5c-0f48-47ca-b482-47cd182694d0","ios":"levelo://app?vid=a6afbc5c-0f48-47ca-b482-47cd182694d0"},"vehicle_type_id":"4","last_reported":1742285606,"current_range_meters":10000,"station_id":"ce4bhhh2rcd13ifvqfk0","pricing_plan_id":"cebpf4jnsgd1na2vs0mg"},{"bike_id":"d0ecd06f-b344-485c-8550-9fa5bf448f53","system_id":"levelo_inurba_marseille","lat":43.25834,"lon":5.3944,"is_reserved":false,"is_disabled":false,"rental_uris":{"android":"levelo://app?vid=d0ecd06f-b344-485c-8550-9fa5bf448f53","ios":"levelo://app?vid=d0ecd06f-b344-485c-8550-9fa5bf448f53"},"vehicle_type_id":"4","last_reported":1742285606,"current_range_meters":10000,"station_id":"ce4bhip2rcd13ifvqft0","pricing_plan_id":"cebpf4jnsgd1na2vs0mg"},{"bike_id":"7a8e8798-43a3-4dc4-a3c9-076c9d012b6a","system_id":"levelo_inurba_marseille","lat":43.27339,"lon":5.39065,"is_reserved":false,"is_disabled":false,"rental_uris":{"android":"levelo://app?vid=7a8e8798-43a3-4dc4-a3c9-076c9d012b6a","ios":"levelo://app?vid=7a8e8798-43a3-4dc4-a3c9-076c9d012b6a"},"vehicle_type_id":"4","last_reported":1742285606,"current_range_meters":10000,"station_id":"ce4bhgp2rcd13ifvqfe0","pricing_plan_id":"cebpf4jnsgd1na2vs0mg"},{"bike_id":"738d5a2a-1fe0-49dd-a3a3-3b9ad8ed3acf","system_id":"levelo_inurba_marseille","lat":43.29398,"lon":5.38656,"is_reserved":false,"is_disabled":true,"rental_uris":{"android":"levelo://app?vid=738d5a2a-1fe0-49dd-a3a3-3b9ad8ed3acf","ios":"levelo://app?vid=738d5a2a-1fe0-49dd-a3a3-3b9ad8ed3acf"},"vehicle_type_id":"4","last_reported":1742285606,"current_range_meters":10000,"station_id":"ce4bh2h2rcd13ifvqdh0","pricing_plan_id":"cebpf4jnsgd1na2vs0mg"},{"bike_id":"60ba5b69-d171-44fe-b70d-d520985a06d5","system_id":"levelo_inurba_marseille","lat":43.32342,"lon":5.38904,"is_reserved":false,"is_disabled":false,"rental_uris":{"android":"levelo://app?vid=60ba5b69-d171-44fe-b70d-d520985a06d5","ios":"levelo://app?vid=60ba5b69-d171-44fe-b70d-d520985a06d5"},"vehicle_type_id":"4","last_reported":1742285606,"current_range_meters":10000,"station_id":"ce4bhqp2rcd13ifvqhog","pricing_plan_id":"cebpf4jnsgd1na2vs0mg"},{"bike_id":"8ac28d78-5edd-4b74-a78b-469ba0ce1454","system_id":"levelo_inurba_marseille","lat":43.27075,"lon":5.4229,"is_reserved":false,"is_disabled":false,"rental_uris":{"android":"levelo://app?vid=8ac28d78-5edd-4b74-a78b-469ba0ce1454","ios":"levelo://app?vid=8ac28d78-5edd-4b74-a78b-469ba0ce1454"},"vehicle_type_id":"4","last_reported":1742285606,"current_range_meters":10000,"station_id":"ce4bhk92rcd13ifvqgb0","pricing_plan_id":"cebpf4jnsgd1na2vs0mg"},{"bike_id":"4e950670-b096-4049-8c8c-3012830ea5a4","system_id":"levelo_inurba_marseille","lat":43.244,"lon":5.3705,"is_reserved":false,"is_disabled":false,"rental_uris":{"android":"levelo://app?vid=4e950670-b096-4049-8c8c-3012830ea5a4","ios":"levelo://app?vid=4e950670-b096-4049-8c8c-3012830ea5a4"},"vehicle_type_id":"4","last_reported":1742285606,"current_range_meters":10000,"station_id":"ce4bhhh2rcd13ifvqfk0","pricing_plan_id":"cebpf4jnsgd1na2vs0mg"},{"bike_id":"97ff4d61-d071-48d5-8de5-d2d9caa412e4","system_id":"levelo_inurba_marseille","lat":43.27331,"lon":5.39095,"is_reserved":false,"is_disabled":false,"rental_uris":{"android":"levelo://app?vid=97ff4d61-d071-48d5-8de5-d2d9caa412e4","ios":"levelo://app?vid=97ff4d61-d071-48d5-8de5-d2d9caa412e4"},"vehicle_type_id":"4","last_reported":1742285606,"current_range_meters":10800,"station_id":"ce4bhgp2rcd13ifvqfe0","pricing_plan_id":"cebpf4jnsgd1na2vs0mg"},{"bike_id":"21ccb767-52a1-45b3-a164-abf872aeb2d6","system_id":"levelo_inurba_marseille","lat":43.33606,"lon":5.41029,"is_reserved":false,"is_disabled":false,"rental_uris":{"android":"levelo://app?vid=21ccb767-52a1-45b3-a164-abf872aeb2d6","ios":"levelo://app?vid=21ccb767-52a1-45b3-a164-abf872aeb2d6"},"vehicle_type_id":"4","last_reported":1742285606,"current_range_meters":10800,"station_id":"ce4bhqh2rcd13ifvqhmg","pricing_plan_id":"cebpf4jnsgd1na2vs0mg"},{"bike_id":"46f86cfe-e322-4c0a-850e-059e67acc8cb","system_id":"levelo_inurba_marseille","lat":43.2955,"lon":5.37513,"is_reserved":false,"is_disabled":false,"rental_uris":{"android":"levelo://app?vid=46f86cfe-e322-4c0a-850e-059e67acc8cb","ios":"levelo://app?vid=46f86cfe-e322-4c0a-850e-059e67acc8cb"},"vehicle_type_id":"4","last_reported":1742285606,"current_range_meters":10800,"station_id":"ce4bgkp2rcd13ifvqbmg","pricing_plan_id":"cebpf4jnsgd1na2vs0mg"},{"bike_id":"519efbbc-7577-4063-8eac-658ef30e98a3","system_id":"levelo_inurba_marseille","lat":43.25011,"lon":5.38932,"is_reserved":false,"is_disabled":false,"rental_uris":{"android":"levelo://app?vid=519efbbc-7577-4063-8eac-658ef30e98a3","ios":"levelo://app?vid=519efbbc-7577-4063-8eac-658ef30e98a3"},"vehicle_type_id":"4","last_reported":1742285606,"current_range_meters":10800,"station_id":"ce4bhgp2rcd13ifvqfd0","pricing_plan_id":"cebpf4jnsgd1na2vs0mg"},{"bike_id":"34899676-bd70-447c-bdd2-2c1d0fed5b4d","system_id":"levelo_inurba_marseille","lat":43.24078,"lon":5.37749,"is_reserved":false,"is_disabled":false,"rental_uris":{"android":"levelo://app?vid=34899676-bd70-447c-bdd2-2c1d0fed5b4d","ios":"levelo://app?vid=34899676-bd70-447c-bdd2-2c1d0fed5b4d"},"vehicle_type_id":"4","last_reported":1742285606,"current_range_meters":10800,"station_id":"ce4bhnp2rcd13ifvqgvg","pricing_plan_id":"cebpf4jnsgd1na2vs0mg"},{"bike_id":"3de59f78-f300-4a54-9926-b844c98baa30","system_id":"levelo_inurba_marseille","lat":43.2732,"lon":5.39086,"is_reserved":false,"is_disabled":false,"rental_uris":{"android":"levelo://app?vid=3de59f78-f300-4a54-9926-b844c98baa30","ios":"levelo://app?vid=3de59f78-f300-4a54-9926-b844c98baa30"},"vehicle_type_id":"4","last_reported":1742285606,"current_range_meters":10800,"station_id":"ce4bhgp2rcd13ifvqfe0","pricing_plan_id":"cebpf4jnsgd1na2vs0mg"},{"bike_id":"cb151f2f-c8d4-493c-8040-3bc4d320acac","system_id":"levelo_inurba_marseille","lat":43.30796,"lon":5.38147,"is_reserved":false,"is_disabled":true,"rental_uris":{"android":"levelo://app?vid=cb151f2f-c8d4-493c-8040-3bc4d320acac","ios":"levelo://app?vid=cb151f2f-c8d4-493c-8040-3bc4d320acac"},"vehicle_type_id":"4","last_reported":1742285606,"current_range_meters":10000,"station_id":"ce4bgt12rcd13ifvqce0","pricing_plan_id":"cebpf4jnsgd1na2vs0mg"},{"bike_id":"96e89a39-929a-49fe-8d6c-e47bf8ca7a6f","system_id":"levelo_inurba_marseille","lat":43.23053,"lon":5.35513,"is_reserved":false,"is_disabled":false,"rental_uris":{"android":"levelo://app?vid=96e89a39-929a-49fe-8d6c-e47bf8ca7a6f","ios":"levelo://app?vid=96e89a39-929a-49fe-8d6c-e47bf8ca7a6f"},"vehicle_type_id":"4","last_reported":1742285606,"current_range_meters":10800,"station_id":"cpo3342slgdg3j2ifvpg","pricing_plan_id":"cebpf4jnsgd1na2vs0mg"},{"bike_id":"4b1f4456-9760-47b5-999a-daec5b8a0537","system_id":"levelo_inurba_marseille","lat":43.27501,"lon":5.42463,"is_reserved":false,"is_disabled":false,"rental_uris":{"android":"levelo://app?vid=4b1f4456-9760-47b5-999a-daec5b8a0537","ios":"levelo://app?vid=4b1f4456-9760-47b5-999a-daec5b8a0537"},"vehicle_type_id":"4","last_reported":1742285606,"current_range_meters":10800,"station_id":"ce4bhn92rcd13ifvqgrg","pricing_plan_id":"cebpf4jnsgd1na2vs0mg"},{"bike_id":"89a9a07a-5569-426e-baa6-da72a98a25be","system_id":"levelo_inurba_marseille","lat":43.32338,"lon":5.38896,"is_reserved":false,"is_disabled":false,"rental_uris":{"android":"levelo://app?vid=89a9a07a-5569-426e-baa6-da72a98a25be","ios":"levelo://app?vid=89a9a07a-5569-426e-baa6-da72a98a25be"},"vehicle_type_id":"4","last_reported":1742285606,"current_range_meters":10800,"station_id":"ce4bhqp2rcd13ifvqhog","pricing_plan_id":"cebpf4jnsgd1na2vs0mg"},{"bike_id":"9a82933c-4cbf-4e7f-8492-c81d97d1d570","system_id":"levelo_inurba_marseille","lat":43.33608,"lon":5.41033,"is_reserved":false,"is_disabled":false,"rental_uris":{"android":"levelo://app?vid=9a82933c-4cbf-4e7f-8492-c81d97d1d570","ios":"levelo://app?vid=9a82933c-4cbf-4e7f-8492-c81d97d1d570"},"vehicle_type_id":"4","last_reported":1742285606,"current_range_meters":11200,"station_id":"ce4bhqh2rcd13ifvqhmg","pricing_plan_id":"cebpf4jnsgd1na2vs0mg"},{"bike_id":"b611c071-f0bb-41a2-aa25-420b921bc079","system_id":"levelo_inurba_marseille","lat":43.23057,"lon":5.35499,"is_reserved":false,"is_disabled":false,"rental_uris":{"android":"levelo://app?vid=b611c071-f0bb-41a2-aa25-420b921bc079","ios":"levelo://app?vid=b611c071-f0bb-41a2-aa25-420b921bc079"},"vehicle_type_id":"4","last_reported":1742285606,"current_range_meters":11200,"station_id":"cpo3342slgdg3j2ifvpg","pricing_plan_id":"cebpf4jnsgd1na2vs0mg"},{"bike_id":"c01cdb3a-6c83-4c6f-9453-ef47f23ff0f3","system_id":"levelo_inurba_marseille","lat":43.23151,"lon":5.43722,"is_reserved":false,"is_disabled":false,"rental_uris":{"android":"levelo://app?vid=c01cdb3a-6c83-4c6f-9453-ef47f23ff0f3","ios":"levelo://app?vid=c01cdb3a-6c83-4c6f-9453-ef47f23ff0f3"},"vehicle_type_id":"4","last_reported":1742285606,"current_range_meters":11200,"station_id":"ce4bhmp2rcd13ifvqgog","pricing_plan_id":"cebpf4jnsgd1na2vs0mg"},{"bike_id":"bf2adad1-5d63-4d04-b47d-a7a246bd8a9f","system_id":"levelo_inurba_marseille","lat":43.31372,"lon":5.38491,"is_reserved":false,"is_disabled":false,"rental_uris":{"android":"levelo://app?vid=bf2adad1-5d63-4d04-b47d-a7a246bd8a9f","ios":"levelo://app?vid=bf2adad1-5d63-4d04-b47d-a7a246bd8a9f"},"vehicle_type_id":"4","last_reported":1742285606,"current_range_meters":11200,"station_id":"ce4bgt92rcd13ifvqcf0","pricing_plan_id":"cebpf4jnsgd1na2vs0mg"},{"bike_id":"5b9abdf1-3bd3-4da9-8cf3-0850e045aa24","system_id":"levelo_inurba_marseille","lat":43.23061,"lon":5.3548,"is_reserved":false,"is_disabled":false,"rental_uris":{"android":"levelo://app?vid=5b9abdf1-3bd3-4da9-8cf3-0850e045aa24","ios":"levelo://app?vid=5b9abdf1-3bd3-4da9-8cf3-0850e045aa24"},"vehicle_type_id":"4","last_reported":1742285606,"current_range_meters":11200,"station_id":"cpo3342slgdg3j2ifvpg","pricing_plan_id":"cebpf4jnsgd1na2vs0mg"},{"bike_id":"68cc12d4-dbb0-4edf-b050-67efc670d3a8","system_id":"levelo_inurba_marseille","lat":43.30899,"lon":5.36842,"is_reserved":false,"is_disabled":false,"rental_uris":{"android":"levelo://app?vid=68cc12d4-dbb0-4edf-b050-67efc670d3a8","ios":"levelo://app?vid=68cc12d4-dbb0-4edf-b050-67efc670d3a8"},"vehicle_type_id":"4","last_reported":1742285606,"current_range_meters":11200,"station_id":"ce4bgn92rcd13ifvqbvg","pricing_plan_id":"cebpf4jnsgd1na2vs0mg"},{"bike_id":"b54560c3-60b8-4a05-97d2-1a6e84e105c7","system_id":"levelo_inurba_marseille","lat":43.28612,"lon":5.35105,"is_reserved":false,"is_disabled":false,"rental_uris":{"android":"levelo://app?vid=b54560c3-60b8-4a05-97d2-1a6e84e105c7","ios":"levelo://app?vid=b54560c3-60b8-4a05-97d2-1a6e84e105c7"},"vehicle_type_id":"4","last_reported":1742285606,"current_range_meters":11600,"station_id":"ce4bhch2rcd13ifvqeug","pricing_plan_id":"cebpf4jnsgd1na2vs0mg"},{"bike_id":"52f71405-f6a3-4dcb-9351-93f3d88614de","system_id":"levelo_inurba_marseille","lat":43.2827,"lon":5.35083,"is_reserved":false,"is_disabled":true,"rental_uris":{"android":"levelo://app?vid=52f71405-f6a3-4dcb-9351-93f3d88614de","ios":"levelo://app?vid=52f71405-f6a3-4dcb-9351-93f3d88614de"},"vehicle_type_id":"4","last_reported":1742285606,"current_range_meters":11600,"station_id":"ce4bhbp2rcd13ifvqerg","pricing_plan_id":"cebpf4jnsgd1na2vs0mg"},{"bike_id":"0facd547-c90b-4b04-bcb9-1e415c41d2cc","system_id":"levelo_inurba_marseille","lat":43.24388,"lon":5.37054,"is_reserved":false,"is_disabled":false,"rental_uris":{"android":"levelo://app?vid=0facd547-c90b-4b04-bcb9-1e415c41d2cc","ios":"levelo://app?vid=0facd547-c90b-4b04-bcb9-1e415c41d2cc"},"vehicle_type_id":"4","last_reported":1742285606,"current_range_meters":11200,"station_id":"ce4bhhh2rcd13ifvqfk0","pricing_plan_id":"cebpf4jnsgd1na2vs0mg"},{"bike_id":"7f2d3a10-fb38-49e6-9c91-ea2286af82e2","system_id":"levelo_inurba_marseille","lat":43.25915,"lon":5.40894,"is_reserved":false,"is_disabled":false,"rental_uris":{"android":"levelo://app?vid=7f2d3a10-fb38-49e6-9c91-ea2286af82e2","ios":"levelo://app?vid=7f2d3a10-fb38-49e6-9c91-ea2286af82e2"},"vehicle_type_id":"4","last_reported":1742285606,"current_range_meters":11600,"station_id":"ce4bhm92rcd13ifvqglg","pricing_plan_id":"cebpf4jnsgd1na2vs0mg"},{"bike_id":"95e8bd10-722b-428e-9ba1-696e5935b5c2","system_id":"levelo_inurba_marseille","lat":43.29842,"lon":5.36268,"is_reserved":false,"is_disabled":false,"rental_uris":{"android":"levelo://app?vid=95e8bd10-722b-428e-9ba1-696e5935b5c2","ios":"levelo://app?vid=95e8bd10-722b-428e-9ba1-696e5935b5c2"},"vehicle_type_id":"4","last_reported":1742285606,"current_range_meters":11200,"station_id":"ce4bgpp2rcd13ifvqc3g","pricing_plan_id":"cebpf4jnsgd1na2vs0mg"},{"bike_id":"69c60920-4190-479f-8615-c3f960573ed4","system_id":"levelo_inurba_marseille","lat":43.32037,"lon":5.38063,"is_reserved":false,"is_disabled":false,"rental_uris":{"android":"levelo://app?vid=69c60920-4190-479f-8615-c3f960573ed4","ios":"levelo://app?vid=69c60920-4190-479f-8615-c3f960573ed4"},"vehicle_type_id":"4","last_reported":1742285606,"current_range_meters":11600,"station_id":"","pricing_plan_id":"cebpf4jnsgd1na2vs0mg"},{"bike_id":"6d985db4-1dee-417e-a887-82d742f29815","system_id":"levelo_inurba_marseille","lat":43.27062,"lon":5.4026,"is_reserved":false,"is_disabled":true,"rental_uris":{"android":"levelo://app?vid=6d985db4-1dee-417e-a887-82d742f29815","ios":"levelo://app?vid=6d985db4-1dee-417e-a887-82d742f29815"},"vehicle_type_id":"4","last_reported":1742285606,"current_range_meters":12000,"station_id":"ce4bhk92rcd13ifvqgc0","pricing_plan_id":"cebpf4jnsgd1na2vs0mg"},{"bike_id":"522f99cb-f105-4bf1-8b05-dccec75ba908","system_id":"levelo_inurba_marseille","lat":43.302756,"lon":5.37683,"is_reserved":false,"is_disabled":true,"rental_uris":{"android":"levelo://app?vid=522f99cb-f105-4bf1-8b05-dccec75ba908","ios":"levelo://app?vid=522f99cb-f105-4bf1-8b05-dccec75ba908"},"vehicle_type_id":"4","last_reported":1742285606,"current_range_meters":12000,"station_id":"","pricing_plan_id":"cebpf4jnsgd1na2vs0mg"},{"bike_id":"b1e39243-783f-4a86-9697-abcd0c733491","system_id":"levelo_inurba_marseille","lat":43.23159,"lon":5.43721,"is_reserved":false,"is_disabled":false,"rental_uris":{"android":"levelo://app?vid=b1e39243-783f-4a86-9697-abcd0c733491","ios":"levelo://app?vid=b1e39243-783f-4a86-9697-abcd0c733491"},"vehicle_type_id":"4","last_reported":1742285606,"current_range_meters":11600,"station_id":"ce4bhmp2rcd13ifvqgog","pricing_plan_id":"cebpf4jnsgd1na2vs0mg"},{"bike_id":"1b816da1-b5df-49f9-9180-41dff3e2b872","system_id":"levelo_inurba_marseille","lat":43.24175,"lon":5.39731,"is_reserved":false,"is_disabled":false,"rental_uris":{"android":"levelo://app?vid=1b816da1-b5df-49f9-9180-41dff3e2b872","ios":"levelo://app?vid=1b816da1-b5df-49f9-9180-41dff3e2b872"},"vehicle_type_id":"4","last_reported":1742285606,"current_range_meters":12000,"station_id":"ce4bhn12rcd13ifvqgpg","pricing_plan_id":"cebpf4jnsgd1na2vs0mg"},{"bike_id":"0115ca1f-4c74-4f2c-87dd-beb67b595748","system_id":"levelo_inurba_marseille","lat":43.25726,"lon":5.411,"is_reserved":false,"is_disabled":false,"rental_uris":{"android":"levelo://app?vid=0115ca1f-4c74-4f2c-87dd-beb67b595748","ios":"levelo://app?vid=0115ca1f-4c74-4f2c-87dd-beb67b595748"},"vehicle_type_id":"4","last_reported":1742285606,"current_range_meters":12000,"station_id":"ce4bhkp2rcd13ifvqgd0","pricing_plan_id":"cebpf4jnsgd1na2vs0mg"},{"bike_id":"9603036f-f909-4536-879a-5d5942573840","system_id":"levelo_inurba_marseille","lat":43.30466,"lon":5.37914,"is_reserved":false,"is_disabled":false,"rental_uris":{"android":"levelo://app?vid=9603036f-f909-4536-879a-5d5942573840","ios":"levelo://app?vid=9603036f-f909-4536-879a-5d5942573840"},"vehicle_type_id":"4","last_reported":1742285606,"current_range_meters":12000,"station_id":"ce4bgup2rcd13ifvqcn0","pricing_plan_id":"cebpf4jnsgd1na2vs0mg"},{"bike_id":"9219e2a6-0805-4d74-9c99-849ecfbc8e3c","system_id":"levelo_inurba_marseille","lat":43.27992,"lon":5.40008,"is_reserved":false,"is_disabled":false,"rental_uris":{"android":"levelo://app?vid=9219e2a6-0805-4d74-9c99-849ecfbc8e3c","ios":"levelo://app?vid=9219e2a6-0805-4d74-9c99-849ecfbc8e3c"},"vehicle_type_id":"4","last_reported":1742285606,"current_range_meters":12000,"station_id":"ce4bho92rcd13ifvqh4g","pricing_plan_id":"cebpf4jnsgd1na2vs0mg"},{"bike_id":"d00028dc-9b0d-47df-ad9d-778d21fb21b2","system_id":"levelo_inurba_marseille","lat":43.23195,"lon":5.35532,"is_reserved":false,"is_disabled":false,"rental_uris":{"android":"levelo://app?vid=d00028dc-9b0d-47df-ad9d-778d21fb21b2","ios":"levelo://app?vid=d00028dc-9b0d-47df-ad9d-778d21fb21b2"},"vehicle_type_id":"4","last_reported":1742285606,"current_range_meters":12400,"station_id":"ce4bhu92rcd13ifvqi70","pricing_plan_id":"cebpf4jnsgd1na2vs0mg"},{"bike_id":"ca449ead-c100-48e0-a4b1-3e9c7db4225d","system_id":"levelo_inurba_marseille","lat":43.30903,"lon":5.37209,"is_reserved":false,"is_disabled":false,"rental_uris":{"android":"levelo://app?vid=ca449ead-c100-48e0-a4b1-3e9c7db4225d","ios":"levelo://app?vid=ca449ead-c100-48e0-a4b1-3e9c7db4225d"},"vehicle_type_id":"4","last_reported":1742285606,"current_range_meters":12000,"station_id":"ce4bguh2rcd13ifvqckg","pricing_plan_id":"cebpf4jnsgd1na2vs0mg"},{"bike_id":"ca1c0a28-8faf-435f-9d8b-370c3a07ff34","system_id":"levelo_inurba_marseille","lat":43.24172,"lon":5.36397,"is_reserved":false,"is_disabled":false,"rental_uris":{"android":"levelo://app?vid=ca1c0a28-8faf-435f-9d8b-370c3a07ff34","ios":"levelo://app?vid=ca1c0a28-8faf-435f-9d8b-370c3a07ff34"},"vehicle_type_id":"4","last_reported":1742285606,"current_range_meters":12400,"station_id":"cpo36qri1sfpv3e86is0","pricing_plan_id":"cebpf4jnsgd1na2vs0mg"},{"bike_id":"7c5152e2-a35d-483e-9be2-8cbde26f245c","system_id":"levelo_inurba_marseille","lat":43.31481,"lon":5.37306,"is_reserved":false,"is_disabled":false,"rental_uris":{"android":"levelo://app?vid=7c5152e2-a35d-483e-9be2-8cbde26f245c","ios":"levelo://app?vid=7c5152e2-a35d-483e-9be2-8cbde26f245c"},"vehicle_type_id":"4","last_reported":1742285606,"current_range_meters":12400,"station_id":"ce4bgt12rcd13ifvqcd0","pricing_plan_id":"cebpf4jnsgd1na2vs0mg"},{"bike_id":"5af3a913-cfc7-4aef-bd0a-ea12d8868e7a","system_id":"levelo_inurba_marseille","lat":43.27628,"lon":5.38991,"is_reserved":false,"is_disabled":false,"rental_uris":{"android":"levelo://app?vid=5af3a913-cfc7-4aef-bd0a-ea12d8868e7a","ios":"levelo://app?vid=5af3a913-cfc7-4aef-bd0a-ea12d8868e7a"},"vehicle_type_id":"4","last_reported":1742285606,"current_range_meters":12400,"station_id":"ce4bhi12rcd13ifvqfo0","pricing_plan_id":"cebpf4jnsgd1na2vs0mg"},{"bike_id":"f1082f8f-40ab-4bdd-9fb0-b0e914f5f252","system_id":"levelo_inurba_marseille","lat":43.29312,"lon":5.37462,"is_reserved":false,"is_disabled":false,"rental_uris":{"android":"levelo://app?vid=f1082f8f-40ab-4bdd-9fb0-b0e914f5f252","ios":"levelo://app?vid=f1082f8f-40ab-4bdd-9fb0-b0e914f5f252"},"vehicle_type_id":"4","last_reported":1742285606,"current_range_meters":12000,"station_id":"ce4bgi12rcd13ifvqb70","pricing_plan_id":"cebpf4jnsgd1na2vs0mg"},{"bike_id":"b6f9b9ce-289a-4e66-b4d0-984ba11df15f","system_id":"levelo_inurba_marseille","lat":43.31224,"lon":5.36849,"is_reserved":false,"is_disabled":false,"rental_uris":{"android":"levelo://app?vid=b6f9b9ce-289a-4e66-b4d0-984ba11df15f","ios":"levelo://app?vid=b6f9b9ce-289a-4e66-b4d0-984ba11df15f"},"vehicle_type_id":"4","last_reported":1742285606,"current_range_meters":12800,"station_id":"ce4bgl92rcd13ifvqbq0","pricing_plan_id":"cebpf4jnsgd1na2vs0mg"},{"bike_id":"ae5607e8-7e53-43b8-bdfb-f4fb95825493","system_id":"levelo_inurba_marseille","lat":43.26928,"lon":5.38459,"is_reserved":false,"is_disabled":false,"rental_uris":{"android":"levelo://app?vid=ae5607e8-7e53-43b8-bdfb-f4fb95825493","ios":"levelo://app?vid=ae5607e8-7e53-43b8-bdfb-f4fb95825493"},"vehicle_type_id":"4","last_reported":1742285606,"current_range_meters":12800,"station_id":"","pricing_plan_id":"cebpf4jnsgd1na2vs0mg"},{"bike_id":"ab11fa9b-759f-447f-a4f1-b143e2360775","system_id":"levelo_inurba_marseille","lat":43.31352,"lon":5.39166,"is_reserved":false,"is_disabled":false,"rental_uris":{"android":"levelo://app?vid=ab11fa9b-759f-447f-a4f1-b143e2360775","ios":"levelo://app?vid=ab11fa9b-759f-447f-a4f1-b143e2360775"},"vehicle_type_id":"4","last_reported":1742285606,"current_range_meters":12800,"station_id":"","pricing_plan_id":"cebpf4jnsgd1na2vs0mg"},{"bike_id":"858d25c4-ac98-4d98-8cf5-98c8469b7682","system_id":"levelo_inurba_marseille","lat":43.3046,"lon":5.37899,"is_reserved":false,"is_disabled":false,"rental_uris":{"android":"levelo://app?vid=858d25c4-ac98-4d98-8cf5-98c8469b7682","ios":"levelo://app?vid=858d25c4-ac98-4d98-8cf5-98c8469b7682"},"vehicle_type_id":"4","last_reported":1742285606,"current_range_meters":12800,"station_id":"ce4bgup2rcd13ifvqcn0","pricing_plan_id":"cebpf4jnsgd1na2vs0mg"},{"bike_id":"d36c89e8-07d2-4942-be59-0b2e43ed175d","system_id":"levelo_inurba_marseille","lat":43.25924,"lon":5.40914,"is_reserved":false,"is_disabled":false,"rental_uris":{"android":"levelo://app?vid=d36c89e8-07d2-4942-be59-0b2e43ed175d","ios":"levelo://app?vid=d36c89e8-07d2-4942-be59-0b2e43ed175d"},"vehicle_type_id":"4","last_reported":1742285606,"current_range_meters":12800,"station_id":"ce4bhm92rcd13ifvqglg","pricing_plan_id":"cebpf4jnsgd1na2vs0mg"},{"bike_id":"76b632d0-8b02-4a2b-8149-49a6898b0f04","system_id":"levelo_inurba_marseille","lat":43.23156,"lon":5.43703,"is_reserved":false,"is_disabled":false,"rental_uris":{"android":"levelo://app?vid=76b632d0-8b02-4a2b-8149-49a6898b0f04","ios":"levelo://app?vid=76b632d0-8b02-4a2b-8149-49a6898b0f04"},"vehicle_type_id":"4","last_reported":1742285606,"current_range_meters":12800,"station_id":"ce4bhmp2rcd13ifvqgog","pricing_plan_id":"cebpf4jnsgd1na2vs0mg"},{"bike_id":"8581e34a-e545-4ecd-94c3-9ab5366e4794","system_id":"levelo_inurba_marseille","lat":43.27514,"lon":5.42476,"is_reserved":false,"is_disabled":false,"rental_uris":{"android":"levelo://app?vid=8581e34a-e545-4ecd-94c3-9ab5366e4794","ios":"levelo://app?vid=8581e34a-e545-4ecd-94c3-9ab5366e4794"},"vehicle_type_id":"4","last_reported":1742285606,"current_range_meters":12800,"station_id":"ce4bhn92rcd13ifvqgrg","pricing_plan_id":"cebpf4jnsgd1na2vs0mg"},{"bike_id":"71dd0600-0710-44a4-a251-04de9e0bf6be","system_id":"levelo_inurba_marseille","lat":43.29887,"lon":5.38138,"is_reserved":false,"is_disabled":true,"rental_uris":{"android":"levelo://app?vid=71dd0600-0710-44a4-a251-04de9e0bf6be","ios":"levelo://app?vid=71dd0600-0710-44a4-a251-04de9e0bf6be"},"vehicle_type_id":"4","last_reported":1742285606,"current_range_meters":12800,"station_id":"ce4bgj12rcd13ifvqbc0","pricing_plan_id":"cebpf4jnsgd1na2vs0mg"},{"bike_id":"2ff0bf88-6fcd-42ec-a3e0-38f5efd75038","system_id":"levelo_inurba_marseille","lat":43.31329,"lon":5.36831,"is_reserved":false,"is_disabled":false,"rental_uris":{"android":"levelo://app?vid=2ff0bf88-6fcd-42ec-a3e0-38f5efd75038","ios":"levelo://app?vid=2ff0bf88-6fcd-42ec-a3e0-38f5efd75038"},"vehicle_type_id":"4","last_reported":1742285606,"current_range_meters":12800,"station_id":"","pricing_plan_id":"cebpf4jnsgd1na2vs0mg"},{"bike_id":"c066afa6-5959-4d1b-bb54-2638080a7f09","system_id":"levelo_inurba_marseille","lat":43.2849,"lon":5.38559,"is_reserved":false,"is_disabled":false,"rental_uris":{"android":"levelo://app?vid=c066afa6-5959-4d1b-bb54-2638080a7f09","ios":"levelo://app?vid=c066afa6-5959-4d1b-bb54-2638080a7f09"},"vehicle_type_id":"4","last_reported":1742285606,"current_range_meters":12800,"station_id":"ce4bh8p2rcd13ifvqeb0","pricing_plan_id":"cebpf4jnsgd1na2vs0mg"},{"bike_id":"a9fc1a67-82f5-4e62-b564-05634c85849f","system_id":"levelo_inurba_marseille","lat":43.29167,"lon":5.37161,"is_reserved":false,"is_disabled":false,"rental_uris":{"android":"levelo://app?vid=a9fc1a67-82f5-4e62-b564-05634c85849f","ios":"levelo://app?vid=a9fc1a67-82f5-4e62-b564-05634c85849f"},"vehicle_type_id":"4","last_reported":1742285606,"current_range_meters":12800,"station_id":"ce4bha92rcd13ifvqeh0","pricing_plan_id":"cebpf4jnsgd1na2vs0mg"},{"bike_id":"4ea2f8ba-453f-42eb-a36d-78c8ddcfbee6","system_id":"levelo_inurba_marseille","lat":43.31363,"lon":5.36729,"is_reserved":false,"is_disabled":false,"rental_uris":{"android":"levelo://app?vid=4ea2f8ba-453f-42eb-a36d-78c8ddcfbee6","ios":"levelo://app?vid=4ea2f8ba-453f-42eb-a36d-78c8ddcfbee6"},"vehicle_type_id":"4","last_reported":1742285606,"current_range_meters":12800,"station_id":"ce4bgr92rcd13ifvqc6g","pricing_plan_id":"cebpf4jnsgd1na2vs0mg"},{"bike_id":"c37cbd6d-70ab-4858-898b-dfde83293413","system_id":"levelo_inurba_marseille","lat":43.26201,"lon":5.37931,"is_reserved":false,"is_disabled":false,"rental_uris":{"android":"levelo://app?vid=c37cbd6d-70ab-4858-898b-dfde83293413","ios":"levelo://app?vid=c37cbd6d-70ab-4858-898b-dfde83293413"},"vehicle_type_id":"4","last_reported":1742285606,"current_range_meters":13600,"station_id":"ce4bhjp2rcd13ifvqg90","pricing_plan_id":"cebpf4jnsgd1na2vs0mg"},{"bike_id":"30afd827-1af8-40de-a576-149b865b7207","system_id":"levelo_inurba_marseille","lat":43.2403,"lon":5.37754,"is_reserved":false,"is_disabled":false,"rental_uris":{"android":"levelo://app?vid=30afd827-1af8-40de-a576-149b865b7207","ios":"levelo://app?vid=30afd827-1af8-40de-a576-149b865b7207"},"vehicle_type_id":"4","last_reported":1742285606,"current_range_meters":13600,"station_id":"ce4bhnp2rcd13ifvqgvg","pricing_plan_id":"cebpf4jnsgd1na2vs0mg"},{"bike_id":"ff037ac5-a7ea-45e6-93cf-7d394f2f7759","system_id":"levelo_inurba_marseille","lat":43.3048,"lon":5.36525,"is_reserved":false,"is_disabled":false,"rental_uris":{"android":"levelo://app?vid=ff037ac5-a7ea-45e6-93cf-7d394f2f7759","ios":"levelo://app?vid=ff037ac5-a7ea-45e6-93cf-7d394f2f7759"},"vehicle_type_id":"4","last_reported":1742285606,"current_range_meters":13600,"station_id":"","pricing_plan_id":"cebpf4jnsgd1na2vs0mg"},{"bike_id":"b3e77073-222d-4f08-97e1-729a2c44c2e2","system_id":"levelo_inurba_marseille","lat":43.24166,"lon":5.36428,"is_reserved":false,"is_disabled":false,"rental_uris":{"android":"levelo://app?vid=b3e77073-222d-4f08-97e1-729a2c44c2e2","ios":"levelo://app?vid=b3e77073-222d-4f08-97e1-729a2c44c2e2"},"vehicle_type_id":"4","last_reported":1742285606,"current_range_meters":13600,"station_id":"cpo36qri1sfpv3e86is0","pricing_plan_id":"cebpf4jnsgd1na2vs0mg"},{"bike_id":"fbc1d39d-8a74-485c-b223-434b00da1b4d","system_id":"levelo_inurba_marseille","lat":43.28552,"lon":5.38968,"is_reserved":false,"is_disabled":false,"rental_uris":{"android":"levelo://app?vid=fbc1d39d-8a74-485c-b223-434b00da1b4d","ios":"levelo://app?vid=fbc1d39d-8a74-485c-b223-434b00da1b4d"},"vehicle_type_id":"4","last_reported":1742285606,"current_range_meters":13600,"station_id":"","pricing_plan_id":"cebpf4jnsgd1na2vs0mg"},{"bike_id":"175919c0-deb0-4e48-9a06-eea90edc3e69","system_id":"levelo_inurba_marseille","lat":43.23215,"lon":5.35571,"is_reserved":false,"is_disabled":false,"rental_uris":{"android":"levelo://app?vid=175919c0-deb0-4e48-9a06-eea90edc3e69","ios":"levelo://app?vid=175919c0-deb0-4e48-9a06-eea90edc3e69"},"vehicle_type_id":"4","last_reported":1742285606,"current_range_meters":13600,"station_id":"ce4bhu92rcd13ifvqi70","pricing_plan_id":"cebpf4jnsgd1na2vs0mg"},{"bike_id":"89cb3140-d211-4c4d-97ca-7e01c3c4da90","system_id":"levelo_inurba_marseille","lat":43.231941,"lon":5.355585,"is_reserved":false,"is_disabled":false,"rental_uris":{"android":"levelo://app?vid=89cb3140-d211-4c4d-97ca-7e01c3c4da90","ios":"levelo://app?vid=89cb3140-d211-4c4d-97ca-7e01c3c4da90"},"vehicle_type_id":"4","last_reported":1742285606,"current_range_meters":13600,"station_id":"ce4bhu92rcd13ifvqi70","pricing_plan_id":"cebpf4jnsgd1na2vs0mg"},{"bike_id":"0d8011d2-740d-4898-8f44-8bbfcee4f52c","system_id":"levelo_inurba_marseille","lat":43.29276,"lon":5.37635,"is_reserved":false,"is_disabled":false,"rental_uris":{"android":"levelo://app?vid=0d8011d2-740d-4898-8f44-8bbfcee4f52c","ios":"levelo://app?vid=0d8011d2-740d-4898-8f44-8bbfcee4f52c"},"vehicle_type_id":"4","last_reported":1742285606,"current_range_meters":13600,"station_id":"ce4bgi12rcd13ifvqb80","pricing_plan_id":"cebpf4jnsgd1na2vs0mg"},{"bike_id":"f756af3a-bb86-47ef-868b-a23db24477df","system_id":"levelo_inurba_marseille","lat":43.23199,"lon":5.39986,"is_reserved":false,"is_disabled":false,"rental_uris":{"android":"levelo://app?vid=f756af3a-bb86-47ef-868b-a23db24477df","ios":"levelo://app?vid=f756af3a-bb86-47ef-868b-a23db24477df"},"vehicle_type_id":"4","last_reported":1742285606,"current_range_meters":13600,"station_id":"ce4bhn12rcd13ifvqgqg","pricing_plan_id":"cebpf4jnsgd1na2vs0mg"},{"bike_id":"c8ff204e-f0f9-43b6-854c-6ea6315f1ec3","system_id":"levelo_inurba_marseille","lat":43.29162,"lon":5.37159,"is_reserved":false,"is_disabled":false,"rental_uris":{"android":"levelo://app?vid=c8ff204e-f0f9-43b6-854c-6ea6315f1ec3","ios":"levelo://app?vid=c8ff204e-f0f9-43b6-854c-6ea6315f1ec3"},"vehicle_type_id":"4","last_reported":1742285606,"current_range_meters":13600,"station_id":"ce4bha92rcd13ifvqeh0","pricing_plan_id":"cebpf4jnsgd1na2vs0mg"},{"bike_id":"c776cdf6-4aad-4c80-abae-c3f0681a6a16","system_id":"levelo_inurba_marseille","lat":43.27946,"lon":5.41049,"is_reserved":false,"is_disabled":false,"rental_uris":{"android":"levelo://app?vid=c776cdf6-4aad-4c80-abae-c3f0681a6a16","ios":"levelo://app?vid=c776cdf6-4aad-4c80-abae-c3f0681a6a16"},"vehicle_type_id":"4","last_reported":1742285606,"current_range_meters":14000,"station_id":"ce4bhnp2rcd13ifvqh0g","pricing_plan_id":"cebpf4jnsgd1na2vs0mg"},{"bike_id":"01cd1ae6-bf8d-4270-b368-31e9791618b1","system_id":"levelo_inurba_marseille","lat":43.31345,"lon":5.36735,"is_reserved":false,"is_disabled":false,"rental_uris":{"android":"levelo://app?vid=01cd1ae6-bf8d-4270-b368-31e9791618b1","ios":"levelo://app?vid=01cd1ae6-bf8d-4270-b368-31e9791618b1"},"vehicle_type_id":"4","last_reported":1742285606,"current_range_meters":14400,"station_id":"ce4bgr92rcd13ifvqc6g","pricing_plan_id":"cebpf4jnsgd1na2vs0mg"},{"bike_id":"50880c33-fb65-4637-84ac-20bb27eda8b5","system_id":"levelo_inurba_marseille","lat":43.23198,"lon":5.35562,"is_reserved":false,"is_disabled":false,"rental_uris":{"android":"levelo://app?vid=50880c33-fb65-4637-84ac-20bb27eda8b5","ios":"levelo://app?vid=50880c33-fb65-4637-84ac-20bb27eda8b5"},"vehicle_type_id":"4","last_reported":1742285606,"current_range_meters":14400,"station_id":"ce4bhu92rcd13ifvqi70","pricing_plan_id":"cebpf4jnsgd1na2vs0mg"},{"bike_id":"46fb0b1b-1955-4ab4-b766-1924deb90ec6","system_id":"levelo_inurba_marseille","lat":43.24072,"lon":5.37734,"is_reserved":false,"is_disabled":false,"rental_uris":{"android":"levelo://app?vid=46fb0b1b-1955-4ab4-b766-1924deb90ec6","ios":"levelo://app?vid=46fb0b1b-1955-4ab4-b766-1924deb90ec6"},"vehicle_type_id":"4","last_reported":1742285606,"current_range_meters":14400,"station_id":"ce4bhnp2rcd13ifvqgvg","pricing_plan_id":"cebpf4jnsgd1na2vs0mg"},{"bike_id":"592cab22-4c30-4418-b7c0-b6a3bf0e600a","system_id":"levelo_inurba_marseille","lat":43.30465,"lon":5.37908,"is_reserved":false,"is_disabled":false,"rental_uris":{"android":"levelo://app?vid=592cab22-4c30-4418-b7c0-b6a3bf0e600a","ios":"levelo://app?vid=592cab22-4c30-4418-b7c0-b6a3bf0e600a"},"vehicle_type_id":"4","last_reported":1742285606,"current_range_meters":14800,"station_id":"ce4bgup2rcd13ifvqcn0","pricing_plan_id":"cebpf4jnsgd1na2vs0mg"},{"bike_id":"89c71be1-4e0c-4e4c-b380-146488b4338b","system_id":"levelo_inurba_marseille","lat":43.230529,"lon":5.354943,"is_reserved":false,"is_disabled":false,"rental_uris":{"android":"levelo://app?vid=89c71be1-4e0c-4e4c-b380-146488b4338b","ios":"levelo://app?vid=89c71be1-4e0c-4e4c-b380-146488b4338b"},"vehicle_type_id":"4","last_reported":1742285606,"current_range_meters":14800,"station_id":"cpo3342slgdg3j2ifvpg","pricing_plan_id":"cebpf4jnsgd1na2vs0mg"},{"bike_id":"623b1d48-fe8c-4a6a-b45e-f5a8ef1ac996","system_id":"levelo_inurba_marseille","lat":43.30546,"lon":5.3654,"is_reserved":false,"is_disabled":false,"rental_uris":{"android":"levelo://app?vid=623b1d48-fe8c-4a6a-b45e-f5a8ef1ac996","ios":"levelo://app?vid=623b1d48-fe8c-4a6a-b45e-f5a8ef1ac996"},"vehicle_type_id":"4","last_reported":1742285606,"current_range_meters":14800,"station_id":"ce4bgs12rcd13ifvqcag","pricing_plan_id":"cebpf4jnsgd1na2vs0mg"},{"bike_id":"3ff5b050-68c5-4a99-b893-90fe4502bc0b","system_id":"levelo_inurba_marseille","lat":43.3237,"lon":5.38889,"is_reserved":false,"is_disabled":false,"rental_uris":{"android":"levelo://app?vid=3ff5b050-68c5-4a99-b893-90fe4502bc0b","ios":"levelo://app?vid=3ff5b050-68c5-4a99-b893-90fe4502bc0b"},"vehicle_type_id":"4","last_reported":1742285606,"current_range_meters":14800,"station_id":"ce4bhqp2rcd13ifvqhog","pricing_plan_id":"cebpf4jnsgd1na2vs0mg"},{"bike_id":"d7f17d72-4fe7-4f42-8539-9c3d50cfa84a","system_id":"levelo_inurba_marseille","lat":43.2396,"lon":5.36633,"is_reserved":false,"is_disabled":false,"rental_uris":{"android":"levelo://app?vid=d7f17d72-4fe7-4f42-8539-9c3d50cfa84a","ios":"levelo://app?vid=d7f17d72-4fe7-4f42-8539-9c3d50cfa84a"},"vehicle_type_id":"4","last_reported":1742285606,"current_range_meters":14400,"station_id":"ce4bhi12rcd13ifvqfp0","pricing_plan_id":"cebpf4jnsgd1na2vs0mg"},{"bike_id":"336112d5-1ff2-41f0-8300-0005718086bf","system_id":"levelo_inurba_marseille","lat":43.29038,"lon":5.39965,"is_reserved":false,"is_disabled":false,"rental_uris":{"android":"levelo://app?vid=336112d5-1ff2-41f0-8300-0005718086bf","ios":"levelo://app?vid=336112d5-1ff2-41f0-8300-0005718086bf"},"vehicle_type_id":"4","last_reported":1742285606,"current_range_meters":15200,"station_id":"ce4bh392rcd13ifvqdm0","pricing_plan_id":"cebpf4jnsgd1na2vs0mg"},{"bike_id":"ecf39652-93f6-41c8-9e6c-a8506e206056","system_id":"levelo_inurba_marseille","lat":43.29741,"lon":5.37682,"is_reserved":false,"is_disabled":false,"rental_uris":{"android":"levelo://app?vid=ecf39652-93f6-41c8-9e6c-a8506e206056","ios":"levelo://app?vid=ecf39652-93f6-41c8-9e6c-a8506e206056"},"vehicle_type_id":"4","last_reported":1742285606,"current_range_meters":15200,"station_id":"ce4bgkh2rcd13ifvqbl0","pricing_plan_id":"cebpf4jnsgd1na2vs0mg"},{"bike_id":"621842ae-d4f4-4d33-bfbc-6bb7f25f1e09","system_id":"levelo_inurba_marseille","lat":43.284715,"lon":5.384143,"is_reserved":false,"is_disabled":false,"rental_uris":{"android":"levelo://app?vid=621842ae-d4f4-4d33-bfbc-6bb7f25f1e09","ios":"levelo://app?vid=621842ae-d4f4-4d33-bfbc-6bb7f25f1e09"},"vehicle_type_id":"4","last_reported":1742285606,"current_range_meters":15200,"station_id":"ce4bgs92rcd13ifvqcc0","pricing_plan_id":"cebpf4jnsgd1na2vs0mg"},{"bike_id":"e60c1153-ceb4-4f72-92cd-2dc1051b5e4c","system_id":"levelo_inurba_marseille","lat":43.26066,"lon":5.39392,"is_reserved":false,"is_disabled":true,"rental_uris":{"android":"levelo://app?vid=e60c1153-ceb4-4f72-92cd-2dc1051b5e4c","ios":"levelo://app?vid=e60c1153-ceb4-4f72-92cd-2dc1051b5e4c"},"vehicle_type_id":"4","last_reported":1742285606,"current_range_meters":16000,"station_id":"ce4bhh92rcd13ifvqfj0","pricing_plan_id":"cebpf4jnsgd1na2vs0mg"},{"bike_id":"350d42fd-169b-4a43-828e-1cb1a8ded326","system_id":"levelo_inurba_marseille","lat":43.24056,"lon":5.3775,"is_reserved":false,"is_disabled":false,"rental_uris":{"android":"levelo://app?vid=350d42fd-169b-4a43-828e-1cb1a8ded326","ios":"levelo://app?vid=350d42fd-169b-4a43-828e-1cb1a8ded326"},"vehicle_type_id":"4","last_reported":1742285606,"current_range_meters":16000,"station_id":"ce4bhnp2rcd13ifvqgvg","pricing_plan_id":"cebpf4jnsgd1na2vs0mg"},{"bike_id":"36039125-2a17-48d0-b828-86cfdcb61646","system_id":"levelo_inurba_marseille","lat":43.30421,"lon":5.41292,"is_reserved":false,"is_disabled":true,"rental_uris":{"android":"levelo://app?vid=36039125-2a17-48d0-b828-86cfdcb61646","ios":"levelo://app?vid=36039125-2a17-48d0-b828-86cfdcb61646"},"vehicle_type_id":"4","last_reported":1742285606,"current_range_meters":16000,"station_id":"ce4bhop2rcd13ifvqh8g","pricing_plan_id":"cebpf4jnsgd1na2vs0mg"},{"bike_id":"80089352-853f-4fe4-a138-d11ecf02aaec","system_id":"levelo_inurba_marseille","lat":43.23158,"lon":5.43719,"is_reserved":false,"is_disabled":false,"rental_uris":{"android":"levelo://app?vid=80089352-853f-4fe4-a138-d11ecf02aaec","ios":"levelo://app?vid=80089352-853f-4fe4-a138-d11ecf02aaec"},"vehicle_type_id":"4","last_reported":1742285606,"current_range_meters":15200,"station_id":"ce4bhmp2rcd13ifvqgog","pricing_plan_id":"cebpf4jnsgd1na2vs0mg"},{"bike_id":"28024c4b-d681-42cc-95f3-413dca1422e8","system_id":"levelo_inurba_marseille","lat":43.25816,"lon":5.39435,"is_reserved":false,"is_disabled":false,"rental_uris":{"android":"levelo://app?vid=28024c4b-d681-42cc-95f3-413dca1422e8","ios":"levelo://app?vid=28024c4b-d681-42cc-95f3-413dca1422e8"},"vehicle_type_id":"4","last_reported":1742285606,"current_range_meters":15200,"station_id":"ce4bhip2rcd13ifvqft0","pricing_plan_id":"cebpf4jnsgd1na2vs0mg"},{"bike_id":"c08cbb70-84d6-4161-9491-997f32dfb1fb","system_id":"levelo_inurba_marseille","lat":43.27521,"lon":5.42469,"is_reserved":false,"is_disabled":false,"rental_uris":{"android":"levelo://app?vid=c08cbb70-84d6-4161-9491-997f32dfb1fb","ios":"levelo://app?vid=c08cbb70-84d6-4161-9491-997f32dfb1fb"},"vehicle_type_id":"4","last_reported":1742285606,"current_range_meters":16000,"station_id":"ce4bhn92rcd13ifvqgrg","pricing_plan_id":"cebpf4jnsgd1na2vs0mg"},{"bike_id":"fbe5248a-99c9-47ac-a734-21990a4411d0","system_id":"levelo_inurba_marseille","lat":43.2657,"lon":5.37301,"is_reserved":false,"is_disabled":false,"rental_uris":{"android":"levelo://app?vid=fbe5248a-99c9-47ac-a734-21990a4411d0","ios":"levelo://app?vid=fbe5248a-99c9-47ac-a734-21990a4411d0"},"vehicle_type_id":"4","last_reported":1742285606,"current_range_meters":16000,"station_id":"ce4bhg12rcd13ifvqf70","pricing_plan_id":"cebpf4jnsgd1na2vs0mg"},{"bike_id":"f5b5b897-b776-4f00-9f85-b4d42ed7205c","system_id":"levelo_inurba_marseille","lat":43.2593,"lon":5.40933,"is_reserved":false,"is_disabled":false,"rental_uris":{"android":"levelo://app?vid=f5b5b897-b776-4f00-9f85-b4d42ed7205c","ios":"levelo://app?vid=f5b5b897-b776-4f00-9f85-b4d42ed7205c"},"vehicle_type_id":"4","last_reported":1742285606,"current_range_meters":16000,"station_id":"ce4bhm92rcd13ifvqglg","pricing_plan_id":"cebpf4jnsgd1na2vs0mg"},{"bike_id":"3fee9467-fcc2-4ee2-9ca8-ddcafe96bcc7","system_id":"levelo_inurba_marseille","lat":43.26191,"lon":5.37924,"is_reserved":false,"is_disabled":false,"rental_uris":{"android":"levelo://app?vid=3fee9467-fcc2-4ee2-9ca8-ddcafe96bcc7","ios":"levelo://app?vid=3fee9467-fcc2-4ee2-9ca8-ddcafe96bcc7"},"vehicle_type_id":"4","last_reported":1742285606,"current_range_meters":16000,"station_id":"ce4bhjp2rcd13ifvqg90","pricing_plan_id":"cebpf4jnsgd1na2vs0mg"},{"bike_id":"3c054d98-734f-40a9-bc9f-5a6912ba9713","system_id":"levelo_inurba_marseille","lat":43.33602,"lon":5.41031,"is_reserved":false,"is_disabled":false,"rental_uris":{"android":"levelo://app?vid=3c054d98-734f-40a9-bc9f-5a6912ba9713","ios":"levelo://app?vid=3c054d98-734f-40a9-bc9f-5a6912ba9713"},"vehicle_type_id":"4","last_reported":1742285606,"current_range_meters":16000,"station_id":"ce4bhqh2rcd13ifvqhmg","pricing_plan_id":"cebpf4jnsgd1na2vs0mg"},{"bike_id":"d6083815-2ecf-4115-b16d-7d0888079fed","system_id":"levelo_inurba_marseille","lat":43.26089,"lon":5.39425,"is_reserved":false,"is_disabled":false,"rental_uris":{"android":"levelo://app?vid=d6083815-2ecf-4115-b16d-7d0888079fed","ios":"levelo://app?vid=d6083815-2ecf-4115-b16d-7d0888079fed"},"vehicle_type_id":"4","last_reported":1742285606,"current_range_meters":16400,"station_id":"ce4bhh92rcd13ifvqfj0","pricing_plan_id":"cebpf4jnsgd1na2vs0mg"},{"bike_id":"3455258b-4135-46b9-9a26-10bf95160e40","system_id":"levelo_inurba_marseille","lat":43.2321,"lon":5.3558,"is_reserved":false,"is_disabled":false,"rental_uris":{"android":"levelo://app?vid=3455258b-4135-46b9-9a26-10bf95160e40","ios":"levelo://app?vid=3455258b-4135-46b9-9a26-10bf95160e40"},"vehicle_type_id":"4","last_reported":1742285606,"current_range_meters":16400,"station_id":"ce4bhu92rcd13ifvqi70","pricing_plan_id":"cebpf4jnsgd1na2vs0mg"},{"bike_id":"2ebdd665-45bc-41e4-ba36-29ebf27d9e85","system_id":"levelo_inurba_marseille","lat":43.25893,"lon":5.40751,"is_reserved":false,"is_disabled":false,"rental_uris":{"android":"levelo://app?vid=2ebdd665-45bc-41e4-ba36-29ebf27d9e85","ios":"levelo://app?vid=2ebdd665-45bc-41e4-ba36-29ebf27d9e85"},"vehicle_type_id":"4","last_reported":1742285606,"current_range_meters":16400,"station_id":"ce4bhm92rcd13ifvqglg","pricing_plan_id":"cebpf4jnsgd1na2vs0mg"},{"bike_id":"1eef6fe9-8462-4804-b1c7-1b92116f17de","system_id":"levelo_inurba_marseille","lat":43.31755,"lon":5.39014,"is_reserved":false,"is_disabled":false,"rental_uris":{"android":"levelo://app?vid=1eef6fe9-8462-4804-b1c7-1b92116f17de","ios":"levelo://app?vid=1eef6fe9-8462-4804-b1c7-1b92116f17de"},"vehicle_type_id":"4","last_reported":1742285606,"current_range_meters":16400,"station_id":"ce4bhqp2rcd13ifvqhng","pricing_plan_id":"cebpf4jnsgd1na2vs0mg"},{"bike_id":"28951e89-2e57-4255-887a-c8c3fec46bb6","system_id":"levelo_inurba_marseille","lat":43.24043,"lon":5.37738,"is_reserved":false,"is_disabled":false,"rental_uris":{"android":"levelo://app?vid=28951e89-2e57-4255-887a-c8c3fec46bb6","ios":"levelo://app?vid=28951e89-2e57-4255-887a-c8c3fec46bb6"},"vehicle_type_id":"4","last_reported":1742285606,"current_range_meters":16400,"station_id":"ce4bhnp2rcd13ifvqgvg","pricing_plan_id":"cebpf4jnsgd1na2vs0mg"},{"bike_id":"96bf66e7-7f87-485d-89f4-5f3ed6723217","system_id":"levelo_inurba_marseille","lat":43.30959,"lon":5.39038,"is_reserved":false,"is_disabled":false,"rental_uris":{"android":"levelo://app?vid=96bf66e7-7f87-485d-89f4-5f3ed6723217","ios":"levelo://app?vid=96bf66e7-7f87-485d-89f4-5f3ed6723217"},"vehicle_type_id":"4","last_reported":1742285606,"current_range_meters":16400,"station_id":"ce4bgup2rcd13ifvqco0","pricing_plan_id":"cebpf4jnsgd1na2vs0mg"},{"bike_id":"46d9b679-8ebc-4c21-835a-832ae81a8ee4","system_id":"levelo_inurba_marseille","lat":43.33021,"lon":5.39089,"is_reserved":false,"is_disabled":false,"rental_uris":{"android":"levelo://app?vid=46d9b679-8ebc-4c21-835a-832ae81a8ee4","ios":"levelo://app?vid=46d9b679-8ebc-4c21-835a-832ae81a8ee4"},"vehicle_type_id":"4","last_reported":1742285606,"current_range_meters":16800,"station_id":"ce4bhr92rcd13ifvqhrg","pricing_plan_id":"cebpf4jnsgd1na2vs0mg"},{"bike_id":"36f5e068-26e9-485b-84a3-fa1ce5017122","system_id":"levelo_inurba_marseille","lat":43.26982,"lon":5.38875,"is_reserved":false,"is_disabled":false,"rental_uris":{"android":"levelo://app?vid=36f5e068-26e9-485b-84a3-fa1ce5017122","ios":"levelo://app?vid=36f5e068-26e9-485b-84a3-fa1ce5017122"},"vehicle_type_id":"4","last_reported":1742285606,"current_range_meters":16800,"station_id":"","pricing_plan_id":"cebpf4jnsgd1na2vs0mg"},{"bike_id":"f52a9808-de99-4214-b6d8-d8a401436e34","system_id":"levelo_inurba_marseille","lat":43.31276,"lon":5.39075,"is_reserved":false,"is_disabled":false,"rental_uris":{"android":"levelo://app?vid=f52a9808-de99-4214-b6d8-d8a401436e34","ios":"levelo://app?vid=f52a9808-de99-4214-b6d8-d8a401436e34"},"vehicle_type_id":"4","last_reported":1742285606,"current_range_meters":16800,"station_id":"","pricing_plan_id":"cebpf4jnsgd1na2vs0mg"},{"bike_id":"17a325ac-356b-477c-93aa-3c23f302566a","system_id":"levelo_inurba_marseille","lat":43.29036,"lon":5.39962,"is_reserved":false,"is_disabled":false,"rental_uris":{"android":"levelo://app?vid=17a325ac-356b-477c-93aa-3c23f302566a","ios":"levelo://app?vid=17a325ac-356b-477c-93aa-3c23f302566a"},"vehicle_type_id":"4","last_reported":1742285606,"current_range_meters":16800,"station_id":"ce4bh392rcd13ifvqdm0","pricing_plan_id":"cebpf4jnsgd1na2vs0mg"},{"bike_id":"95f28da3-ba24-4f59-96a4-78e2d7cd063b","system_id":"levelo_inurba_marseille","lat":43.267766,"lon":5.394156,"is_reserved":false,"is_disabled":false,"rental_uris":{"android":"levelo://app?vid=95f28da3-ba24-4f59-96a4-78e2d7cd063b","ios":"levelo://app?vid=95f28da3-ba24-4f59-96a4-78e2d7cd063b"},"vehicle_type_id":"4","last_reported":1742285606,"current_range_meters":16800,"station_id":"ce4bhmp2rcd13ifvqgog","pricing_plan_id":"cebpf4jnsgd1na2vs0mg"},{"bike_id":"847805a7-24da-4255-ad62-d3f769aa6bd6","system_id":"levelo_inurba_marseille","lat":43.25026,"lon":5.38907,"is_reserved":false,"is_disabled":false,"rental_uris":{"android":"levelo://app?vid=847805a7-24da-4255-ad62-d3f769aa6bd6","ios":"levelo://app?vid=847805a7-24da-4255-ad62-d3f769aa6bd6"},"vehicle_type_id":"4","last_reported":1742285606,"current_range_meters":16800,"station_id":"ce4bhgp2rcd13ifvqfd0","pricing_plan_id":"cebpf4jnsgd1na2vs0mg"},{"bike_id":"17de7194-1106-4cb0-a50e-5e7210f238fb","system_id":"levelo_inurba_marseille","lat":43.30318,"lon":5.36878,"is_reserved":false,"is_disabled":false,"rental_uris":{"android":"levelo://app?vid=17de7194-1106-4cb0-a50e-5e7210f238fb","ios":"levelo://app?vid=17de7194-1106-4cb0-a50e-5e7210f238fb"},"vehicle_type_id":"4","last_reported":1742285606,"current_range_meters":17200,"station_id":"ce4bgqh2rcd13ifvqc5g","pricing_plan_id":"cebpf4jnsgd1na2vs0mg"},{"bike_id":"c0d04bbc-cc6b-49e7-ab65-b2e8bfbd968e","system_id":"levelo_inurba_marseille","lat":43.26601,"lon":5.39036,"is_reserved":false,"is_disabled":false,"rental_uris":{"android":"levelo://app?vid=c0d04bbc-cc6b-49e7-ab65-b2e8bfbd968e","ios":"levelo://app?vid=c0d04bbc-cc6b-49e7-ab65-b2e8bfbd968e"},