{"last_updated":1781197806,"ttl":60,"version":"2.2","data":{"bikes":[{"bike_id":"ec12d144-24c8-4071-abf6-197e520eae96","system_id":"levelo_inurba_marseille","lat":43.337444,"lon":5.374475,"is_reserved":false,"is_disabled":false,"rental_uris":{"android":"levelo://app?vid=ec12d144-24c8-4071-abf6-197e520eae96","ios":"levelo://app?vid=ec12d144-24c8-4071-abf6-197e520eae96"},"vehicle_type_id":"4","last_reported":1781197807,"current_range_meters":0,"station_id":"","pricing_plan_id":"cebpf4jnsgd1na2vs0mg"},{"bike_id":"8022e8e5-89bf-47dc-bbcb-b6e3eb39ca4f","system_id":"levelo_inurba_marseille","lat":43.28618,"lon":5.35101,"is_reserved":false,"is_disabled":false,"rental_uris":{"android":"levelo://app?vid=8022e8e5-89bf-47dc-bbcb-b6e3eb39ca4f","ios":"levelo://app?vid=8022e8e5-89bf-47dc-bbcb-b6e3eb39ca4f"},"vehicle_type_id":"4","last_reported":1781197807,"current_range_meters":2800,"station_id":"ce4bhch2rcd13ifvqeug","pricing_plan_id":"cebpf4jnsgd1na2vs0mg"},{"bike_id":"1ba6b602-0ae1-4414-9bce-c8400347684f","system_id":"levelo_inurba_marseille","lat":43.30194,"lon":5.39468,"is_reserved":false,"is_disabled":false,"rental_uris":{"android":"levelo://app?vid=1ba6b602-0ae1-4414-9bce-c8400347684f","ios":"levelo://app?vid=1ba6b602-0ae1-4414-9bce-c8400347684f"},"vehicle_type_id":"4","last_reported":1781197807,"current_range_meters":2800,"station_id":"ce4bh0p2rcd13ifvqd70","pricing_plan_id":"cebpf4jnsgd1na2vs0mg"},{"bike_id":"a11b2e5e-e3ca-47c7-9609-831c8af766ac","system_id":"levelo_inurba_marseille","lat":43.28468,"lon":5.35877,"is_reserved":false,"is_disabled":false,"rental_uris":{"android":"levelo://app?vid=a11b2e5e-e3ca-47c7-9609-831c8af766ac","ios":"levelo://app?vid=a11b2e5e-e3ca-47c7-9609-831c8af766ac"},"vehicle_type_id":"4","last_reported":1781197807,"current_range_meters":2800,"station_id":"ce4bhah2rcd13ifvqei0","pricing_plan_id":"cebpf4jnsgd1na2vs0mg"},{"bike_id":"bfead3df-3898-46ff-8027-03c813a765b0","system_id":"levelo_inurba_marseille","lat":43.30118,"lon":5.43116,"is_reserved":false,"is_disabled":false,"rental_uris":{"android":"levelo://app?vid=bfead3df-3898-46ff-8027-03c813a765b0","ios":"levelo://app?vid=bfead3df-3898-46ff-8027-03c813a765b0"},"vehicle_type_id":"4","last_reported":1781197807,"current_range_meters":2800,"station_id":"st_d3js3co5814s73ftftug","pricing_plan_id":"cebpf4jnsgd1na2vs0mg"},{"bike_id":"42232ce1-fc59-4cd8-ab00-86cae2fc4e27","system_id":"levelo_inurba_marseille","lat":43.30296,"lon":5.36882,"is_reserved":false,"is_disabled":false,"rental_uris":{"android":"levelo://app?vid=42232ce1-fc59-4cd8-ab00-86cae2fc4e27","ios":"levelo://app?vid=42232ce1-fc59-4cd8-ab00-86cae2fc4e27"},"vehicle_type_id":"4","last_reported":1781197807,"current_range_meters":2800,"station_id":"ce4bgqh2rcd13ifvqc5g","pricing_plan_id":"cebpf4jnsgd1na2vs0mg"},{"bike_id":"d8029d7d-5747-457f-acb5-bb5dd2df0ba3","system_id":"levelo_inurba_marseille","lat":43.2558,"lon":5.38227,"is_reserved":false,"is_disabled":false,"rental_uris":{"android":"levelo://app?vid=d8029d7d-5747-457f-acb5-bb5dd2df0ba3","ios":"levelo://app?vid=d8029d7d-5747-457f-acb5-bb5dd2df0ba3"},"vehicle_type_id":"4","last_reported":1781197807,"current_range_meters":2800,"station_id":"ce4bhih2rcd13ifvqfs0","pricing_plan_id":"cebpf4jnsgd1na2vs0mg"},{"bike_id":"96befd9e-8f8f-4d53-a450-97f0cd95db8f","system_id":"levelo_inurba_marseille","lat":43.30545,"lon":5.36543,"is_reserved":false,"is_disabled":false,"rental_uris":{"android":"levelo://app?vid=96befd9e-8f8f-4d53-a450-97f0cd95db8f","ios":"levelo://app?vid=96befd9e-8f8f-4d53-a450-97f0cd95db8f"},"vehicle_type_id":"4","last_reported":1781197807,"current_range_meters":2800,"station_id":"ce4bgs12rcd13ifvqcag","pricing_plan_id":"cebpf4jnsgd1na2vs0mg"},{"bike_id":"853b0d6f-b336-492c-8d19-63652c554c7e","system_id":"levelo_inurba_marseille","lat":43.25447,"lon":5.42597,"is_reserved":false,"is_disabled":false,"rental_uris":{"android":"levelo://app?vid=853b0d6f-b336-492c-8d19-63652c554c7e","ios":"levelo://app?vid=853b0d6f-b336-492c-8d19-63652c554c7e"},"vehicle_type_id":"4","last_reported":1781197807,"current_range_meters":2800,"station_id":"","pricing_plan_id":"cebpf4jnsgd1na2vs0mg"},{"bike_id":"4d735a9e-f2c8-4bb6-9521-dc1073864621","system_id":"levelo_inurba_marseille","lat":43.29264,"lon":5.42117,"is_reserved":false,"is_disabled":false,"rental_uris":{"android":"levelo://app?vid=4d735a9e-f2c8-4bb6-9521-dc1073864621","ios":"levelo://app?vid=4d735a9e-f2c8-4bb6-9521-dc1073864621"},"vehicle_type_id":"4","last_reported":1781197807,"current_range_meters":2800,"station_id":"","pricing_plan_id":"cebpf4jnsgd1na2vs0mg"},{"bike_id":"4049d71b-4392-4df9-b1a1-7eb7b6eda940","system_id":"levelo_inurba_marseille","lat":43.28996,"lon":5.35602,"is_reserved":false,"is_disabled":false,"rental_uris":{"android":"levelo://app?vid=4049d71b-4392-4df9-b1a1-7eb7b6eda940","ios":"levelo://app?vid=4049d71b-4392-4df9-b1a1-7eb7b6eda940"},"vehicle_type_id":"4","last_reported":1781197807,"current_range_meters":2800,"station_id":"ce4bhb92rcd13ifvqen0","pricing_plan_id":"cebpf4jnsgd1na2vs0mg"},{"bike_id":"8c0d823e-f14c-4ecc-b4c3-f6e0026728a3","system_id":"levelo_inurba_marseille","lat":43.29248,"lon":5.40907,"is_reserved":false,"is_disabled":false,"rental_uris":{"android":"levelo://app?vid=8c0d823e-f14c-4ecc-b4c3-f6e0026728a3","ios":"levelo://app?vid=8c0d823e-f14c-4ecc-b4c3-f6e0026728a3"},"vehicle_type_id":"4","last_reported":1781197807,"current_range_meters":3200,"station_id":"ce4bh192rcd13ifvqdc0","pricing_plan_id":"cebpf4jnsgd1na2vs0mg"},{"bike_id":"2ff017c8-2cbc-493f-b435-f6a67427a94c","system_id":"levelo_inurba_marseille","lat":43.30129,"lon":5.4312,"is_reserved":false,"is_disabled":false,"rental_uris":{"android":"levelo://app?vid=2ff017c8-2cbc-493f-b435-f6a67427a94c","ios":"levelo://app?vid=2ff017c8-2cbc-493f-b435-f6a67427a94c"},"vehicle_type_id":"4","last_reported":1781197807,"current_range_meters":3200,"station_id":"st_d3js3co5814s73ftftug","pricing_plan_id":"cebpf4jnsgd1na2vs0mg"},{"bike_id":"b8e1a24a-7512-4270-8ef7-153af91efd33","system_id":"levelo_inurba_marseille","lat":43.27161,"lon":5.409758,"is_reserved":false,"is_disabled":false,"rental_uris":{"android":"levelo://app?vid=b8e1a24a-7512-4270-8ef7-153af91efd33","ios":"levelo://app?vid=b8e1a24a-7512-4270-8ef7-153af91efd33"},"vehicle_type_id":"4","last_reported":1781197807,"current_range_meters":3200,"station_id":"ce4bhl12rcd13ifvqgf0","pricing_plan_id":"cebpf4jnsgd1na2vs0mg"},{"bike_id":"c46384f4-53c8-4f51-8b80-c45773b69697","system_id":"levelo_inurba_marseille","lat":43.30141,"lon":5.37725,"is_reserved":false,"is_disabled":false,"rental_uris":{"android":"levelo://app?vid=c46384f4-53c8-4f51-8b80-c45773b69697","ios":"levelo://app?vid=c46384f4-53c8-4f51-8b80-c45773b69697"},"vehicle_type_id":"4","last_reported":1781197807,"current_range_meters":3200,"station_id":"","pricing_plan_id":"cebpf4jnsgd1na2vs0mg"},{"bike_id":"4c9315b6-5037-48f8-acd1-7a92cedaad02","system_id":"levelo_inurba_marseille","lat":43.2727,"lon":5.41048,"is_reserved":false,"is_disabled":false,"rental_uris":{"android":"levelo://app?vid=4c9315b6-5037-48f8-acd1-7a92cedaad02","ios":"levelo://app?vid=4c9315b6-5037-48f8-acd1-7a92cedaad02"},"vehicle_type_id":"4","last_reported":1781197807,"current_range_meters":3200,"station_id":"","pricing_plan_id":"cebpf4jnsgd1na2vs0mg"},{"bike_id":"7ac41086-4600-4b20-aa08-a46adcbcbd0d","system_id":"levelo_inurba_marseille","lat":43.30941,"lon":5.3905,"is_reserved":false,"is_disabled":false,"rental_uris":{"android":"levelo://app?vid=7ac41086-4600-4b20-aa08-a46adcbcbd0d","ios":"levelo://app?vid=7ac41086-4600-4b20-aa08-a46adcbcbd0d"},"vehicle_type_id":"4","last_reported":1781197807,"current_range_meters":3200,"station_id":"ce4bgup2rcd13ifvqco0","pricing_plan_id":"cebpf4jnsgd1na2vs0mg"},{"bike_id":"d49e3626-67a9-4718-bf77-30e85dfe500d","system_id":"levelo_inurba_marseille","lat":43.28845,"lon":5.35857,"is_reserved":false,"is_disabled":false,"rental_uris":{"android":"levelo://app?vid=d49e3626-67a9-4718-bf77-30e85dfe500d","ios":"levelo://app?vid=d49e3626-67a9-4718-bf77-30e85dfe500d"},"vehicle_type_id":"4","last_reported":1781197807,"current_range_meters":3200,"station_id":"ce4bhb12rcd13ifvqem0","pricing_plan_id":"cebpf4jnsgd1na2vs0mg"},{"bike_id":"683a5cb4-23ad-4e17-a7ba-421543a86b87","system_id":"levelo_inurba_marseille","lat":43.27949,"lon":5.41034,"is_reserved":false,"is_disabled":false,"rental_uris":{"android":"levelo://app?vid=683a5cb4-23ad-4e17-a7ba-421543a86b87","ios":"levelo://app?vid=683a5cb4-23ad-4e17-a7ba-421543a86b87"},"vehicle_type_id":"4","last_reported":1781197807,"current_range_meters":3200,"station_id":"ce4bhnp2rcd13ifvqh0g","pricing_plan_id":"cebpf4jnsgd1na2vs0mg"},{"bike_id":"7435abdc-e93c-44fd-88f6-d4d29fa898e4","system_id":"levelo_inurba_marseille","lat":43.25519,"lon":5.37643,"is_reserved":false,"is_disabled":false,"rental_uris":{"android":"levelo://app?vid=7435abdc-e93c-44fd-88f6-d4d29fa898e4","ios":"levelo://app?vid=7435abdc-e93c-44fd-88f6-d4d29fa898e4"},"vehicle_type_id":"4","last_reported":1781197807,"current_range_meters":3200,"station_id":"ce4bhh12rcd13ifvqff0","pricing_plan_id":"cebpf4jnsgd1na2vs0mg"},{"bike_id":"1b0eac04-f591-4a98-a859-f6b12de18cd7","system_id":"levelo_inurba_marseille","lat":43.28715,"lon":5.46672,"is_reserved":false,"is_disabled":false,"rental_uris":{"android":"levelo://app?vid=1b0eac04-f591-4a98-a859-f6b12de18cd7","ios":"levelo://app?vid=1b0eac04-f591-4a98-a859-f6b12de18cd7"},"vehicle_type_id":"4","last_reported":1781197807,"current_range_meters":3200,"station_id":"st_d6tc3vkotcvc738tfjhg","pricing_plan_id":"cebpf4jnsgd1na2vs0mg"},{"bike_id":"6901ca2e-b694-4b08-81a0-bd226035eeb2","system_id":"levelo_inurba_marseille","lat":43.258617,"lon":5.398925,"is_reserved":false,"is_disabled":false,"rental_uris":{"android":"levelo://app?vid=6901ca2e-b694-4b08-81a0-bd226035eeb2","ios":"levelo://app?vid=6901ca2e-b694-4b08-81a0-bd226035eeb2"},"vehicle_type_id":"4","last_reported":1781197807,"current_range_meters":3200,"station_id":"ce4bhl92rcd13ifvqghg","pricing_plan_id":"cebpf4jnsgd1na2vs0mg"},{"bike_id":"4a395321-24bf-4869-a413-2eb942d64d33","system_id":"levelo_inurba_marseille","lat":43.27945,"lon":5.41047,"is_reserved":false,"is_disabled":false,"rental_uris":{"android":"levelo://app?vid=4a395321-24bf-4869-a413-2eb942d64d33","ios":"levelo://app?vid=4a395321-24bf-4869-a413-2eb942d64d33"},"vehicle_type_id":"4","last_reported":1781197807,"current_range_meters":3200,"station_id":"ce4bhnp2rcd13ifvqh0g","pricing_plan_id":"cebpf4jnsgd1na2vs0mg"},{"bike_id":"a9a5deed-6dd5-4b9d-a1ef-052e3bfa26f3","system_id":"levelo_inurba_marseille","lat":43.31363,"lon":5.38495,"is_reserved":false,"is_disabled":false,"rental_uris":{"android":"levelo://app?vid=a9a5deed-6dd5-4b9d-a1ef-052e3bfa26f3","ios":"levelo://app?vid=a9a5deed-6dd5-4b9d-a1ef-052e3bfa26f3"},"vehicle_type_id":"4","last_reported":1781197807,"current_range_meters":3200,"station_id":"ce4bgt92rcd13ifvqcf0","pricing_plan_id":"cebpf4jnsgd1na2vs0mg"},{"bike_id":"c50a9e43-666a-4ebb-bb15-fba6ac3b0d59","system_id":"levelo_inurba_marseille","lat":43.29308,"lon":5.36334,"is_reserved":false,"is_disabled":false,"rental_uris":{"android":"levelo://app?vid=c50a9e43-666a-4ebb-bb15-fba6ac3b0d59","ios":"levelo://app?vid=c50a9e43-666a-4ebb-bb15-fba6ac3b0d59"},"vehicle_type_id":"4","last_reported":1781197807,"current_range_meters":3200,"station_id":"","pricing_plan_id":"cebpf4jnsgd1na2vs0mg"},{"bike_id":"66834094-2585-4fc6-9d67-9a7222400c5e","system_id":"levelo_inurba_marseille","lat":43.29167,"lon":5.37789,"is_reserved":false,"is_disabled":false,"rental_uris":{"android":"levelo://app?vid=66834094-2585-4fc6-9d67-9a7222400c5e","ios":"levelo://app?vid=66834094-2585-4fc6-9d67-9a7222400c5e"},"vehicle_type_id":"4","last_reported":1781197807,"current_range_meters":3600,"station_id":"","pricing_plan_id":"cebpf4jnsgd1na2vs0mg"},{"bike_id":"9e31d97a-31b9-410e-9434-f7b5d67de84c","system_id":"levelo_inurba_marseille","lat":43.25508,"lon":5.37642,"is_reserved":false,"is_disabled":false,"rental_uris":{"android":"levelo://app?vid=9e31d97a-31b9-410e-9434-f7b5d67de84c","ios":"levelo://app?vid=9e31d97a-31b9-410e-9434-f7b5d67de84c"},"vehicle_type_id":"4","last_reported":1781197807,"current_range_meters":3600,"station_id":"ce4bhh12rcd13ifvqff0","pricing_plan_id":"cebpf4jnsgd1na2vs0mg"},{"bike_id":"12df29cc-abfa-41e4-9d8d-6005376fb963","system_id":"levelo_inurba_marseille","lat":43.266188,"lon":5.394222,"is_reserved":false,"is_disabled":false,"rental_uris":{"android":"levelo://app?vid=12df29cc-abfa-41e4-9d8d-6005376fb963","ios":"levelo://app?vid=12df29cc-abfa-41e4-9d8d-6005376fb963"},"vehicle_type_id":"4","last_reported":1781197807,"current_range_meters":3600,"station_id":"","pricing_plan_id":"cebpf4jnsgd1na2vs0mg"},{"bike_id":"e2301970-743d-48b6-a9cc-2abc9beb0150","system_id":"levelo_inurba_marseille","lat":43.29308,"lon":5.37169,"is_reserved":false,"is_disabled":false,"rental_uris":{"android":"levelo://app?vid=e2301970-743d-48b6-a9cc-2abc9beb0150","ios":"levelo://app?vid=e2301970-743d-48b6-a9cc-2abc9beb0150"},"vehicle_type_id":"4","last_reported":1781197807,"current_range_meters":3600,"station_id":"ce4bgh92rcd13ifvqb40","pricing_plan_id":"cebpf4jnsgd1na2vs0mg"},{"bike_id":"33676267-77eb-4130-9e3f-9f08bed2d07a","system_id":"levelo_inurba_marseille","lat":43.28864,"lon":5.42523,"is_reserved":false,"is_disabled":false,"rental_uris":{"android":"levelo://app?vid=33676267-77eb-4130-9e3f-9f08bed2d07a","ios":"levelo://app?vid=33676267-77eb-4130-9e3f-9f08bed2d07a"},"vehicle_type_id":"4","last_reported":1781197807,"current_range_meters":3600,"station_id":"st_d3b462108ojc7389ooeg","pricing_plan_id":"cebpf4jnsgd1na2vs0mg"},{"bike_id":"3786e928-0940-4ad2-8296-b59caea8c8ee","system_id":"levelo_inurba_marseille","lat":43.27832,"lon":5.3921,"is_reserved":false,"is_disabled":false,"rental_uris":{"android":"levelo://app?vid=3786e928-0940-4ad2-8296-b59caea8c8ee","ios":"levelo://app?vid=3786e928-0940-4ad2-8296-b59caea8c8ee"},"vehicle_type_id":"4","last_reported":1781197807,"current_range_meters":3600,"station_id":"ce4bhjp2rcd13ifvqga0","pricing_plan_id":"cebpf4jnsgd1na2vs0mg"},{"bike_id":"0cee5721-df1a-483b-b6a3-784952a64139","system_id":"levelo_inurba_marseille","lat":43.29046,"lon":5.37558,"is_reserved":false,"is_disabled":false,"rental_uris":{"android":"levelo://app?vid=0cee5721-df1a-483b-b6a3-784952a64139","ios":"levelo://app?vid=0cee5721-df1a-483b-b6a3-784952a64139"},"vehicle_type_id":"4","last_reported":1781197807,"current_range_meters":3600,"station_id":"ce4bh692rcd13ifvqe90","pricing_plan_id":"cebpf4jnsgd1na2vs0mg"},{"bike_id":"5c17057b-bf5f-46fb-a6d3-4474bdd8a421","system_id":"levelo_inurba_marseille","lat":43.292687,"lon":5.384379,"is_reserved":false,"is_disabled":false,"rental_uris":{"android":"levelo://app?vid=5c17057b-bf5f-46fb-a6d3-4474bdd8a421","ios":"levelo://app?vid=5c17057b-bf5f-46fb-a6d3-4474bdd8a421"},"vehicle_type_id":"4","last_reported":1781197807,"current_range_meters":3600,"station_id":"ce4bh692rcd13ifvqea0","pricing_plan_id":"cebpf4jnsgd1na2vs0mg"},{"bike_id":"d98def91-4d49-4279-871c-6e205e273a6a","system_id":"levelo_inurba_marseille","lat":43.21754,"lon":5.34598,"is_reserved":false,"is_disabled":false,"rental_uris":{"android":"levelo://app?vid=d98def91-4d49-4279-871c-6e205e273a6a","ios":"levelo://app?vid=d98def91-4d49-4279-871c-6e205e273a6a"},"vehicle_type_id":"4","last_reported":1781197807,"current_range_meters":3600,"station_id":"st_cvj6r9ubvosntc0bgbag","pricing_plan_id":"cebpf4jnsgd1na2vs0mg"},{"bike_id":"2a8ee5a0-6852-44b0-a6e2-f4e4bf4a3fe5","system_id":"levelo_inurba_marseille","lat":43.25501,"lon":5.38923,"is_reserved":false,"is_disabled":true,"rental_uris":{"android":"levelo://app?vid=2a8ee5a0-6852-44b0-a6e2-f4e4bf4a3fe5","ios":"levelo://app?vid=2a8ee5a0-6852-44b0-a6e2-f4e4bf4a3fe5"},"vehicle_type_id":"4","last_reported":1781197807,"current_range_meters":3600,"station_id":"","pricing_plan_id":"cebpf4jnsgd1na2vs0mg"},{"bike_id":"627383c3-1ca4-4292-a0f0-c21bf7584678","system_id":"levelo_inurba_marseille","lat":43.28743,"lon":5.42695,"is_reserved":false,"is_disabled":false,"rental_uris":{"android":"levelo://app?vid=627383c3-1ca4-4292-a0f0-c21bf7584678","ios":"levelo://app?vid=627383c3-1ca4-4292-a0f0-c21bf7584678"},"vehicle_type_id":"4","last_reported":1781197807,"current_range_meters":3600,"station_id":"","pricing_plan_id":"cebpf4jnsgd1na2vs0mg"},{"bike_id":"291a9c35-35dd-42aa-bdfc-4e281234a90a","system_id":"levelo_inurba_marseille","lat":43.28492,"lon":5.38541,"is_reserved":false,"is_disabled":true,"rental_uris":{"android":"levelo://app?vid=291a9c35-35dd-42aa-bdfc-4e281234a90a","ios":"levelo://app?vid=291a9c35-35dd-42aa-bdfc-4e281234a90a"},"vehicle_type_id":"4","last_reported":1781197807,"current_range_meters":3600,"station_id":"ce4bh8p2rcd13ifvqeb0","pricing_plan_id":"cebpf4jnsgd1na2vs0mg"},{"bike_id":"a949ab75-be2f-4de3-87b1-03b69d2967c5","system_id":"levelo_inurba_marseille","lat":43.25181,"lon":5.41127,"is_reserved":false,"is_disabled":false,"rental_uris":{"android":"levelo://app?vid=a949ab75-be2f-4de3-87b1-03b69d2967c5","ios":"levelo://app?vid=a949ab75-be2f-4de3-87b1-03b69d2967c5"},"vehicle_type_id":"4","last_reported":1781197807,"current_range_meters":3600,"station_id":"","pricing_plan_id":"cebpf4jnsgd1na2vs0mg"},{"bike_id":"d4a485ca-544f-4e15-a3d5-638351c050dc","system_id":"levelo_inurba_marseille","lat":43.2873,"lon":5.40387,"is_reserved":false,"is_disabled":false,"rental_uris":{"android":"levelo://app?vid=d4a485ca-544f-4e15-a3d5-638351c050dc","ios":"levelo://app?vid=d4a485ca-544f-4e15-a3d5-638351c050dc"},"vehicle_type_id":"4","last_reported":1781197807,"current_range_meters":3600,"station_id":"","pricing_plan_id":"cebpf4jnsgd1na2vs0mg"},{"bike_id":"e95e7472-05d7-4211-a763-a62d24393e40","system_id":"levelo_inurba_marseille","lat":43.24998,"lon":5.3893,"is_reserved":false,"is_disabled":false,"rental_uris":{"android":"levelo://app?vid=e95e7472-05d7-4211-a763-a62d24393e40","ios":"levelo://app?vid=e95e7472-05d7-4211-a763-a62d24393e40"},"vehicle_type_id":"4","last_reported":1781197807,"current_range_meters":3600,"station_id":"ce4bhgp2rcd13ifvqfd0","pricing_plan_id":"cebpf4jnsgd1na2vs0mg"},{"bike_id":"564980c7-4086-4d0c-b20e-906bc61640a8","system_id":"levelo_inurba_marseille","lat":43.29675,"lon":5.36326,"is_reserved":false,"is_disabled":false,"rental_uris":{"android":"levelo://app?vid=564980c7-4086-4d0c-b20e-906bc61640a8","ios":"levelo://app?vid=564980c7-4086-4d0c-b20e-906bc61640a8"},"vehicle_type_id":"4","last_reported":1781197807,"current_range_meters":3600,"station_id":"","pricing_plan_id":"cebpf4jnsgd1na2vs0mg"},{"bike_id":"03d15c59-a7ba-4731-92c9-d0a95469168a","system_id":"levelo_inurba_marseille","lat":43.28703,"lon":5.37412,"is_reserved":false,"is_disabled":false,"rental_uris":{"android":"levelo://app?vid=03d15c59-a7ba-4731-92c9-d0a95469168a","ios":"levelo://app?vid=03d15c59-a7ba-4731-92c9-d0a95469168a"},"vehicle_type_id":"4","last_reported":1781197807,"current_range_meters":3600,"station_id":"ce4bh3p2rcd13ifvqdq0","pricing_plan_id":"cebpf4jnsgd1na2vs0mg"},{"bike_id":"c43919d3-4bf8-4e05-8a93-60e0a8cf9977","system_id":"levelo_inurba_marseille","lat":43.28458,"lon":5.35895,"is_reserved":false,"is_disabled":false,"rental_uris":{"android":"levelo://app?vid=c43919d3-4bf8-4e05-8a93-60e0a8cf9977","ios":"levelo://app?vid=c43919d3-4bf8-4e05-8a93-60e0a8cf9977"},"vehicle_type_id":"4","last_reported":1781197807,"current_range_meters":3600,"station_id":"ce4bhah2rcd13ifvqei0","pricing_plan_id":"cebpf4jnsgd1na2vs0mg"},{"bike_id":"61e05d2d-ee99-4e44-b53d-2198150acbb6","system_id":"levelo_inurba_marseille","lat":43.31723,"lon":5.42398,"is_reserved":false,"is_disabled":false,"rental_uris":{"android":"levelo://app?vid=61e05d2d-ee99-4e44-b53d-2198150acbb6","ios":"levelo://app?vid=61e05d2d-ee99-4e44-b53d-2198150acbb6"},"vehicle_type_id":"4","last_reported":1781197807,"current_range_meters":3600,"station_id":"ce4bhp92rcd13ifvqhbg","pricing_plan_id":"cebpf4jnsgd1na2vs0mg"},{"bike_id":"1140d017-c3b9-43dd-ba73-6e5a45e2fcc8","system_id":"levelo_inurba_marseille","lat":43.31991,"lon":5.38168,"is_reserved":false,"is_disabled":false,"rental_uris":{"android":"levelo://app?vid=1140d017-c3b9-43dd-ba73-6e5a45e2fcc8","ios":"levelo://app?vid=1140d017-c3b9-43dd-ba73-6e5a45e2fcc8"},"vehicle_type_id":"4","last_reported":1781197807,"current_range_meters":3600,"station_id":"ce4bhr12rcd13ifvqhpg","pricing_plan_id":"cebpf4jnsgd1na2vs0mg"},{"bike_id":"fafdb545-4263-4738-90a4-2c4a24e0b45a","system_id":"levelo_inurba_marseille","lat":43.33348,"lon":5.41065,"is_reserved":false,"is_disabled":false,"rental_uris":{"android":"levelo://app?vid=fafdb545-4263-4738-90a4-2c4a24e0b45a","ios":"levelo://app?vid=fafdb545-4263-4738-90a4-2c4a24e0b45a"},"vehicle_type_id":"4","last_reported":1781197807,"current_range_meters":3600,"station_id":"","pricing_plan_id":"cebpf4jnsgd1na2vs0mg"},{"bike_id":"60726254-c8fc-4392-ad13-50ba34082b25","system_id":"levelo_inurba_marseille","lat":43.28154,"lon":5.40508,"is_reserved":false,"is_disabled":false,"rental_uris":{"android":"levelo://app?vid=60726254-c8fc-4392-ad13-50ba34082b25","ios":"levelo://app?vid=60726254-c8fc-4392-ad13-50ba34082b25"},"vehicle_type_id":"4","last_reported":1781197807,"current_range_meters":3600,"station_id":"","pricing_plan_id":"cebpf4jnsgd1na2vs0mg"},{"bike_id":"3a0a3c1e-d128-4138-b2e1-df846eb876c4","system_id":"levelo_inurba_marseille","lat":43.28686,"lon":5.39456,"is_reserved":false,"is_disabled":false,"rental_uris":{"android":"levelo://app?vid=3a0a3c1e-d128-4138-b2e1-df846eb876c4","ios":"levelo://app?vid=3a0a3c1e-d128-4138-b2e1-df846eb876c4"},"vehicle_type_id":"4","last_reported":1781197807,"current_range_meters":4000,"station_id":"","pricing_plan_id":"cebpf4jnsgd1na2vs0mg"},{"bike_id":"b0a672d8-9aa4-445e-b20a-7a96ec74be5c","system_id":"levelo_inurba_marseille","lat":43.25123,"lon":5.40328,"is_reserved":false,"is_disabled":false,"rental_uris":{"android":"levelo://app?vid=b0a672d8-9aa4-445e-b20a-7a96ec74be5c","ios":"levelo://app?vid=b0a672d8-9aa4-445e-b20a-7a96ec74be5c"},"vehicle_type_id":"4","last_reported":1781197807,"current_range_meters":4000,"station_id":"ce4bhlh2rcd13ifvqgig","pricing_plan_id":"cebpf4jnsgd1na2vs0mg"},{"bike_id":"f08c3be2-cfdb-4635-85e3-64cf9d60fa94","system_id":"levelo_inurba_marseille","lat":43.286985,"lon":5.399978,"is_reserved":false,"is_disabled":false,"rental_uris":{"android":"levelo://app?vid=f08c3be2-cfdb-4635-85e3-64cf9d60fa94","ios":"levelo://app?vid=f08c3be2-cfdb-4635-85e3-64cf9d60fa94"},"vehicle_type_id":"4","last_reported":1781197807,"current_range_meters":4000,"station_id":"ce4bho92rcd13ifvqh3g","pricing_plan_id":"cebpf4jnsgd1na2vs0mg"},{"bike_id":"4ae240d0-771b-4975-92bc-995163448de4","system_id":"levelo_inurba_marseille","lat":43.28399,"lon":5.37524,"is_reserved":false,"is_disabled":false,"rental_uris":{"android":"levelo://app?vid=4ae240d0-771b-4975-92bc-995163448de4","ios":"levelo://app?vid=4ae240d0-771b-4975-92bc-995163448de4"},"vehicle_type_id":"4","last_reported":1781197807,"current_range_meters":4000,"station_id":"ce4bh412rcd13ifvqds0","pricing_plan_id":"cebpf4jnsgd1na2vs0mg"},{"bike_id":"6b011dd8-6f33-43d6-aaeb-d49b19b20327","system_id":"levelo_inurba_marseille","lat":43.305354,"lon":5.384158,"is_reserved":false,"is_disabled":false,"rental_uris":{"android":"levelo://app?vid=6b011dd8-6f33-43d6-aaeb-d49b19b20327","ios":"levelo://app?vid=6b011dd8-6f33-43d6-aaeb-d49b19b20327"},"vehicle_type_id":"4","last_reported":1781197807,"current_range_meters":4000,"station_id":"ce4bgg92rcd13ifvqb30","pricing_plan_id":"cebpf4jnsgd1na2vs0mg"},{"bike_id":"cc044a5d-6424-486c-a90d-3884464a6b29","system_id":"levelo_inurba_marseille","lat":43.32068,"lon":5.3629,"is_reserved":false,"is_disabled":false,"rental_uris":{"android":"levelo://app?vid=cc044a5d-6424-486c-a90d-3884464a6b29","ios":"levelo://app?vid=cc044a5d-6424-486c-a90d-3884464a6b29"},"vehicle_type_id":"4","last_reported":1781197807,"current_range_meters":4000,"station_id":"","pricing_plan_id":"cebpf4jnsgd1na2vs0mg"},{"bike_id":"fbdfa317-724b-4527-894d-7d409cedbf5f","system_id":"levelo_inurba_marseille","lat":43.26059,"lon":5.39398,"is_reserved":false,"is_disabled":false,"rental_uris":{"android":"levelo://app?vid=fbdfa317-724b-4527-894d-7d409cedbf5f","ios":"levelo://app?vid=fbdfa317-724b-4527-894d-7d409cedbf5f"},"vehicle_type_id":"4","last_reported":1781197807,"current_range_meters":4000,"station_id":"ce4bhh92rcd13ifvqfj0","pricing_plan_id":"cebpf4jnsgd1na2vs0mg"},{"bike_id":"0b542d53-e4b2-4fd5-adf4-084e17c09620","system_id":"levelo_inurba_marseille","lat":43.30117,"lon":5.431,"is_reserved":false,"is_disabled":false,"rental_uris":{"android":"levelo://app?vid=0b542d53-e4b2-4fd5-adf4-084e17c09620","ios":"levelo://app?vid=0b542d53-e4b2-4fd5-adf4-084e17c09620"},"vehicle_type_id":"4","last_reported":1781197807,"current_range_meters":4000,"station_id":"st_d3js3co5814s73ftftug","pricing_plan_id":"cebpf4jnsgd1na2vs0mg"},{"bike_id":"8b476511-21d9-4a0f-a1a0-2547d4284bd0","system_id":"levelo_inurba_marseille","lat":43.28725,"lon":5.36077,"is_reserved":false,"is_disabled":false,"rental_uris":{"android":"levelo://app?vid=8b476511-21d9-4a0f-a1a0-2547d4284bd0","ios":"levelo://app?vid=8b476511-21d9-4a0f-a1a0-2547d4284bd0"},"vehicle_type_id":"4","last_reported":1781197807,"current_range_meters":4000,"station_id":"cki0cbj6b192h4jlfktg","pricing_plan_id":"cebpf4jnsgd1na2vs0mg"},{"bike_id":"a9328395-ed20-4aea-ac99-4a705f9a6b53","system_id":"levelo_inurba_marseille","lat":43.24803,"lon":5.37463,"is_reserved":false,"is_disabled":false,"rental_uris":{"android":"levelo://app?vid=a9328395-ed20-4aea-ac99-4a705f9a6b53","ios":"levelo://app?vid=a9328395-ed20-4aea-ac99-4a705f9a6b53"},"vehicle_type_id":"4","last_reported":1781197807,"current_range_meters":4000,"station_id":"ce4bhgh2rcd13ifvqfb0","pricing_plan_id":"cebpf4jnsgd1na2vs0mg"},{"bike_id":"275ccc7e-94df-483f-99d9-fb0c10646c72","system_id":"levelo_inurba_marseille","lat":43.25515,"lon":5.37663,"is_reserved":false,"is_disabled":false,"rental_uris":{"android":"levelo://app?vid=275ccc7e-94df-483f-99d9-fb0c10646c72","ios":"levelo://app?vid=275ccc7e-94df-483f-99d9-fb0c10646c72"},"vehicle_type_id":"4","last_reported":1781197807,"current_range_meters":4000,"station_id":"ce4bhh12rcd13ifvqff0","pricing_plan_id":"cebpf4jnsgd1na2vs0mg"},{"bike_id":"bf539b84-afa2-4007-87d8-e4322ff02469","system_id":"levelo_inurba_marseille","lat":43.23414,"lon":5.40921,"is_reserved":false,"is_disabled":false,"rental_uris":{"android":"levelo://app?vid=bf539b84-afa2-4007-87d8-e4322ff02469","ios":"levelo://app?vid=bf539b84-afa2-4007-87d8-e4322ff02469"},"vehicle_type_id":"4","last_reported":1781197807,"current_range_meters":4000,"station_id":"","pricing_plan_id":"cebpf4jnsgd1na2vs0mg"},{"bike_id":"e8ea4ff6-ba66-4e6a-b105-9749a7339726","system_id":"levelo_inurba_marseille","lat":43.28033,"lon":5.36944,"is_reserved":false,"is_disabled":false,"rental_uris":{"android":"levelo://app?vid=e8ea4ff6-ba66-4e6a-b105-9749a7339726","ios":"levelo://app?vid=e8ea4ff6-ba66-4e6a-b105-9749a7339726"},"vehicle_type_id":"4","last_reported":1781197807,"current_range_meters":4000,"station_id":"ce4bha12rcd13ifvqef0","pricing_plan_id":"cebpf4jnsgd1na2vs0mg"},{"bike_id":"f93b2dc7-4f0c-4717-805c-b65405acd262","system_id":"levelo_inurba_marseille","lat":43.278125,"lon":5.407109,"is_reserved":false,"is_disabled":false,"rental_uris":{"android":"levelo://app?vid=f93b2dc7-4f0c-4717-805c-b65405acd262","ios":"levelo://app?vid=f93b2dc7-4f0c-4717-805c-b65405acd262"},"vehicle_type_id":"4","last_reported":1781197807,"current_range_meters":4000,"station_id":"ce4bhnh2rcd13ifvqgtg","pricing_plan_id":"cebpf4jnsgd1na2vs0mg"},{"bike_id":"9bc8e64f-5060-4d6d-a18b-5f738ea8b87f","system_id":"levelo_inurba_marseille","lat":43.2894,"lon":5.36637,"is_reserved":false,"is_disabled":false,"rental_uris":{"android":"levelo://app?vid=9bc8e64f-5060-4d6d-a18b-5f738ea8b87f","ios":"levelo://app?vid=9bc8e64f-5060-4d6d-a18b-5f738ea8b87f"},"vehicle_type_id":"4","last_reported":1781197807,"current_range_meters":4000,"station_id":"ce4bhap2rcd13ifvqek0","pricing_plan_id":"cebpf4jnsgd1na2vs0mg"},{"bike_id":"9a10f9e3-728b-4544-ba01-8671e0ef2922","system_id":"levelo_inurba_marseille","lat":43.2721,"lon":5.39181,"is_reserved":false,"is_disabled":false,"rental_uris":{"android":"levelo://app?vid=9a10f9e3-728b-4544-ba01-8671e0ef2922","ios":"levelo://app?vid=9a10f9e3-728b-4544-ba01-8671e0ef2922"},"vehicle_type_id":"4","last_reported":1781197807,"current_range_meters":4000,"station_id":"ce4bhhp2rcd13ifvqfm0","pricing_plan_id":"cebpf4jnsgd1na2vs0mg"},{"bike_id":"9ab96a4c-4cb3-4f29-b0a9-0f63d1e018a9","system_id":"levelo_inurba_marseille","lat":43.28154,"lon":5.42647,"is_reserved":false,"is_disabled":false,"rental_uris":{"android":"levelo://app?vid=9ab96a4c-4cb3-4f29-b0a9-0f63d1e018a9","ios":"levelo://app?vid=9ab96a4c-4cb3-4f29-b0a9-0f63d1e018a9"},"vehicle_type_id":"4","last_reported":1781197807,"current_range_meters":4000,"station_id":"ce4bhnh2rcd13ifvqgug","pricing_plan_id":"cebpf4jnsgd1na2vs0mg"},{"bike_id":"9c950017-90b1-4f2a-8b80-26f2a3bd699c","system_id":"levelo_inurba_marseille","lat":43.27179,"lon":5.40987,"is_reserved":false,"is_disabled":false,"rental_uris":{"android":"levelo://app?vid=9c950017-90b1-4f2a-8b80-26f2a3bd699c","ios":"levelo://app?vid=9c950017-90b1-4f2a-8b80-26f2a3bd699c"},"vehicle_type_id":"4","last_reported":1781197807,"current_range_meters":4000,"station_id":"ce4bhl12rcd13ifvqgf0","pricing_plan_id":"cebpf4jnsgd1na2vs0mg"},{"bike_id":"5fc2a880-f9d1-4a1b-a179-0f96533ae1ea","system_id":"levelo_inurba_marseille","lat":43.313197,"lon":5.396874,"is_reserved":false,"is_disabled":false,"rental_uris":{"android":"levelo://app?vid=5fc2a880-f9d1-4a1b-a179-0f96533ae1ea","ios":"levelo://app?vid=5fc2a880-f9d1-4a1b-a179-0f96533ae1ea"},"vehicle_type_id":"4","last_reported":1781197807,"current_range_meters":4000,"station_id":"ce4bgvp2rcd13ifvqcu0","pricing_plan_id":"cebpf4jnsgd1na2vs0mg"},{"bike_id":"14b4b371-8f26-4cf1-95b4-880cc3bc4611","system_id":"levelo_inurba_marseille","lat":43.29328,"lon":5.37166,"is_reserved":false,"is_disabled":true,"rental_uris":{"android":"levelo://app?vid=14b4b371-8f26-4cf1-95b4-880cc3bc4611","ios":"levelo://app?vid=14b4b371-8f26-4cf1-95b4-880cc3bc4611"},"vehicle_type_id":"4","last_reported":1781197807,"current_range_meters":4000,"station_id":"ce4bgh92rcd13ifvqb40","pricing_plan_id":"cebpf4jnsgd1na2vs0mg"},{"bike_id":"f8671556-b7c4-4a04-86c9-422f70a6fa84","system_id":"levelo_inurba_marseille","lat":43.33455,"lon":5.42038,"is_reserved":false,"is_disabled":false,"rental_uris":{"android":"levelo://app?vid=f8671556-b7c4-4a04-86c9-422f70a6fa84","ios":"levelo://app?vid=f8671556-b7c4-4a04-86c9-422f70a6fa84"},"vehicle_type_id":"4","last_reported":1781197807,"current_range_meters":4000,"station_id":"","pricing_plan_id":"cebpf4jnsgd1na2vs0mg"},{"bike_id":"479a476a-158f-4fed-bb39-6f43ac9d4715","system_id":"levelo_inurba_marseille","lat":43.32106,"lon":5.36762,"is_reserved":false,"is_disabled":false,"rental_uris":{"android":"levelo://app?vid=479a476a-158f-4fed-bb39-6f43ac9d4715","ios":"levelo://app?vid=479a476a-158f-4fed-bb39-6f43ac9d4715"},"vehicle_type_id":"4","last_reported":1781197807,"current_range_meters":4400,"station_id":"ce4bhrh2rcd13ifvqhug","pricing_plan_id":"cebpf4jnsgd1na2vs0mg"},{"bike_id":"4ac9e88b-c671-4557-8838-fe3557509874","system_id":"levelo_inurba_marseille","lat":43.2409,"lon":5.37751,"is_reserved":false,"is_disabled":false,"rental_uris":{"android":"levelo://app?vid=4ac9e88b-c671-4557-8838-fe3557509874","ios":"levelo://app?vid=4ac9e88b-c671-4557-8838-fe3557509874"},"vehicle_type_id":"4","last_reported":1781197807,"current_range_meters":4400,"station_id":"ce4bhnp2rcd13ifvqgvg","pricing_plan_id":"cebpf4jnsgd1na2vs0mg"},{"bike_id":"133f387d-583b-4c1e-b11b-37b8feca2c43","system_id":"levelo_inurba_marseille","lat":43.25572,"lon":5.38228,"is_reserved":false,"is_disabled":false,"rental_uris":{"android":"levelo://app?vid=133f387d-583b-4c1e-b11b-37b8feca2c43","ios":"levelo://app?vid=133f387d-583b-4c1e-b11b-37b8feca2c43"},"vehicle_type_id":"4","last_reported":1781197807,"current_range_meters":4400,"station_id":"ce4bhih2rcd13ifvqfs0","pricing_plan_id":"cebpf4jnsgd1na2vs0mg"},{"bike_id":"845a3784-b288-41b3-8cc0-32d8dd65a7d5","system_id":"levelo_inurba_marseille","lat":43.29435,"lon":5.43328,"is_reserved":false,"is_disabled":false,"rental_uris":{"android":"levelo://app?vid=845a3784-b288-41b3-8cc0-32d8dd65a7d5","ios":"levelo://app?vid=845a3784-b288-41b3-8cc0-32d8dd65a7d5"},"vehicle_type_id":"4","last_reported":1781197807,"current_range_meters":4400,"station_id":"","pricing_plan_id":"cebpf4jnsgd1na2vs0mg"},{"bike_id":"e1c6c299-9da3-4fb8-8020-b461c214840d","system_id":"levelo_inurba_marseille","lat":43.32013,"lon":5.39148,"is_reserved":false,"is_disabled":false,"rental_uris":{"android":"levelo://app?vid=e1c6c299-9da3-4fb8-8020-b461c214840d","ios":"levelo://app?vid=e1c6c299-9da3-4fb8-8020-b461c214840d"},"vehicle_type_id":"4","last_reported":1781197807,"current_range_meters":4400,"station_id":"","pricing_plan_id":"cebpf4jnsgd1na2vs0mg"},{"bike_id":"3a75f0d0-f871-460b-9645-7adb90b5c1ca","system_id":"levelo_inurba_marseille","lat":43.25129,"lon":5.40305,"is_reserved":false,"is_disabled":true,"rental_uris":{"android":"levelo://app?vid=3a75f0d0-f871-460b-9645-7adb90b5c1ca","ios":"levelo://app?vid=3a75f0d0-f871-460b-9645-7adb90b5c1ca"},"vehicle_type_id":"4","last_reported":1781197807,"current_range_meters":4400,"station_id":"ce4bhlh2rcd13ifvqgig","pricing_plan_id":"cebpf4jnsgd1na2vs0mg"},{"bike_id":"42ab4671-2301-46f8-9519-bfd13f8940d6","system_id":"levelo_inurba_marseille","lat":43.30646,"lon":5.40085,"is_reserved":false,"is_disabled":false,"rental_uris":{"android":"levelo://app?vid=42ab4671-2301-46f8-9519-bfd13f8940d6","ios":"levelo://app?vid=42ab4671-2301-46f8-9519-bfd13f8940d6"},"vehicle_type_id":"4","last_reported":1781197807,"current_range_meters":4400,"station_id":"ce4bh112rcd13ifvqda0","pricing_plan_id":"cebpf4jnsgd1na2vs0mg"},{"bike_id":"9a8a462e-2574-4eb2-8721-7810bbfd7f84","system_id":"levelo_inurba_marseille","lat":43.24813,"lon":5.37458,"is_reserved":false,"is_disabled":false,"rental_uris":{"android":"levelo://app?vid=9a8a462e-2574-4eb2-8721-7810bbfd7f84","ios":"levelo://app?vid=9a8a462e-2574-4eb2-8721-7810bbfd7f84"},"vehicle_type_id":"4","last_reported":1781197807,"current_range_meters":4400,"station_id":"ce4bhgh2rcd13ifvqfb0","pricing_plan_id":"cebpf4jnsgd1na2vs0mg"},{"bike_id":"dbfcfd77-7952-4123-b787-388bf592f800","system_id":"levelo_inurba_marseille","lat":43.28705,"lon":5.37402,"is_reserved":false,"is_disabled":false,"rental_uris":{"android":"levelo://app?vid=dbfcfd77-7952-4123-b787-388bf592f800","ios":"levelo://app?vid=dbfcfd77-7952-4123-b787-388bf592f800"},"vehicle_type_id":"4","last_reported":1781197807,"current_range_meters":4400,"station_id":"ce4bh3p2rcd13ifvqdq0","pricing_plan_id":"cebpf4jnsgd1na2vs0mg"},{"bike_id":"db72bd6f-8485-4449-8451-6864dfd97dde","system_id":"levelo_inurba_marseille","lat":43.31102,"lon":5.42435,"is_reserved":false,"is_disabled":false,"rental_uris":{"android":"levelo://app?vid=db72bd6f-8485-4449-8451-6864dfd97dde","ios":"levelo://app?vid=db72bd6f-8485-4449-8451-6864dfd97dde"},"vehicle_type_id":"4","last_reported":1781197807,"current_range_meters":4400,"station_id":"ce4bhp92rcd13ifvqhag","pricing_plan_id":"cebpf4jnsgd1na2vs0mg"},{"bike_id":"4df93a2d-aa6a-4b31-93fb-7fa77fa8a80d","system_id":"levelo_inurba_marseille","lat":43.32196,"lon":5.44064,"is_reserved":false,"is_disabled":false,"rental_uris":{"android":"levelo://app?vid=4df93a2d-aa6a-4b31-93fb-7fa77fa8a80d","ios":"levelo://app?vid=4df93a2d-aa6a-4b31-93fb-7fa77fa8a80d"},"vehicle_type_id":"4","last_reported":1781197807,"current_range_meters":4400,"station_id":"","pricing_plan_id":"cebpf4jnsgd1na2vs0mg"},{"bike_id":"8369abbd-c3fb-412a-8d1a-49e51529efce","system_id":"levelo_inurba_marseille","lat":43.3014,"lon":5.37407,"is_reserved":false,"is_disabled":false,"rental_uris":{"android":"levelo://app?vid=8369abbd-c3fb-412a-8d1a-49e51529efce","ios":"levelo://app?vid=8369abbd-c3fb-412a-8d1a-49e51529efce"},"vehicle_type_id":"4","last_reported":1781197807,"current_range_meters":4800,"station_id":"ce4bgs92rcd13ifvqcc0","pricing_plan_id":"cebpf4jnsgd1na2vs0mg"},{"bike_id":"582c6b7b-37e6-4a03-8f89-52fb5665e43d","system_id":"levelo_inurba_marseille","lat":43.29026,"lon":5.38643,"is_reserved":false,"is_disabled":true,"rental_uris":{"android":"levelo://app?vid=582c6b7b-37e6-4a03-8f89-52fb5665e43d","ios":"levelo://app?vid=582c6b7b-37e6-4a03-8f89-52fb5665e43d"},"vehicle_type_id":"4","last_reported":1781197807,"current_range_meters":4800,"station_id":"ce4bh4p2rcd13ifvqe0g","pricing_plan_id":"cebpf4jnsgd1na2vs0mg"},{"bike_id":"66cd7895-3596-465a-b696-b2c96505697e","system_id":"levelo_inurba_marseille","lat":43.3031,"lon":5.36903,"is_reserved":false,"is_disabled":false,"rental_uris":{"android":"levelo://app?vid=66cd7895-3596-465a-b696-b2c96505697e","ios":"levelo://app?vid=66cd7895-3596-465a-b696-b2c96505697e"},"vehicle_type_id":"4","last_reported":1781197807,"current_range_meters":4800,"station_id":"ce4bgqh2rcd13ifvqc5g","pricing_plan_id":"cebpf4jnsgd1na2vs0mg"},{"bike_id":"ab450d47-d293-44a6-8426-9362fe0e8737","system_id":"levelo_inurba_marseille","lat":43.27583,"lon":5.43389,"is_reserved":false,"is_disabled":false,"rental_uris":{"android":"levelo://app?vid=ab450d47-d293-44a6-8426-9362fe0e8737","ios":"levelo://app?vid=ab450d47-d293-44a6-8426-9362fe0e8737"},"vehicle_type_id":"4","last_reported":1781197807,"current_range_meters":4800,"station_id":"","pricing_plan_id":"cebpf4jnsgd1na2vs0mg"},{"bike_id":"5c9da68b-f7bd-4695-b8a4-22504347c861","system_id":"levelo_inurba_marseille","lat":43.3009,"lon":5.39066,"is_reserved":false,"is_disabled":false,"rental_uris":{"android":"levelo://app?vid=5c9da68b-f7bd-4695-b8a4-22504347c861","ios":"levelo://app?vid=5c9da68b-f7bd-4695-b8a4-22504347c861"},"vehicle_type_id":"4","last_reported":1781197807,"current_range_meters":4800,"station_id":"ce4bh192rcd13ifvqdb0","pricing_plan_id":"cebpf4jnsgd1na2vs0mg"},{"bike_id":"6ba15c2b-70bf-4892-8b14-66870b37121b","system_id":"levelo_inurba_marseille","lat":43.29777,"lon":5.37101,"is_reserved":false,"is_disabled":true,"rental_uris":{"android":"levelo://app?vid=6ba15c2b-70bf-4892-8b14-66870b37121b","ios":"levelo://app?vid=6ba15c2b-70bf-4892-8b14-66870b37121b"},"vehicle_type_id":"4","last_reported":1781197807,"current_range_meters":4800,"station_id":"ce4bgop2rcd13ifvqc1g","pricing_plan_id":"cebpf4jnsgd1na2vs0mg"},{"bike_id":"e5b34fba-cd8c-4a53-8a20-a0626d0691ff","system_id":"levelo_inurba_marseille","lat":43.29776,"lon":5.36526,"is_reserved":false,"is_disabled":false,"rental_uris":{"android":"levelo://app?vid=e5b34fba-cd8c-4a53-8a20-a0626d0691ff","ios":"levelo://app?vid=e5b34fba-cd8c-4a53-8a20-a0626d0691ff"},"vehicle_type_id":"4","last_reported":1781197807,"current_range_meters":4800,"station_id":"","pricing_plan_id":"cebpf4jnsgd1na2vs0mg"},{"bike_id":"18ef74f6-f248-4a2c-8cf7-9e3e238771e6","system_id":"levelo_inurba_marseille","lat":43.286124,"lon":5.351112,"is_reserved":false,"is_disabled":false,"rental_uris":{"android":"levelo://app?vid=18ef74f6-f248-4a2c-8cf7-9e3e238771e6","ios":"levelo://app?vid=18ef74f6-f248-4a2c-8cf7-9e3e238771e6"},"vehicle_type_id":"4","last_reported":1781197807,"current_range_meters":4800,"station_id":"ce4bhch2rcd13ifvqeug","pricing_plan_id":"cebpf4jnsgd1na2vs0mg"},{"bike_id":"36a52cc1-4b60-4aac-8384-5286b63a149c","system_id":"levelo_inurba_marseille","lat":43.32108,"lon":5.36778,"is_reserved":false,"is_disabled":false,"rental_uris":{"android":"levelo://app?vid=36a52cc1-4b60-4aac-8384-5286b63a149c","ios":"levelo://app?vid=36a52cc1-4b60-4aac-8384-5286b63a149c"},"vehicle_type_id":"4","last_reported":1781197807,"current_range_meters":4800,"station_id":"ce4bhrh2rcd13ifvqhug","pricing_plan_id":"cebpf4jnsgd1na2vs0mg"},{"bike_id":"de87dfdf-9a67-40d1-8879-92e22647face","system_id":"levelo_inurba_marseille","lat":43.29201,"lon":5.35803,"is_reserved":false,"is_disabled":false,"rental_uris":{"android":"levelo://app?vid=de87dfdf-9a67-40d1-8879-92e22647face","ios":"levelo://app?vid=de87dfdf-9a67-40d1-8879-92e22647face"},"vehicle_type_id":"4","last_reported":1781197807,"current_range_meters":4800,"station_id":"ce4bhb12rcd13ifvqel0","pricing_plan_id":"cebpf4jnsgd1na2vs0mg"},{"bike_id":"a4b00031-ee09-4aec-8eb7-94d1603e3e96","system_id":"levelo_inurba_marseille","lat":43.32091,"lon":5.36767,"is_reserved":false,"is_disabled":false,"rental_uris":{"android":"levelo://app?vid=a4b00031-ee09-4aec-8eb7-94d1603e3e96","ios":"levelo://app?vid=a4b00031-ee09-4aec-8eb7-94d1603e3e96"},"vehicle_type_id":"4","last_reported":1781197807,"current_range_meters":4800,"station_id":"ce4bhrh2rcd13ifvqhug","pricing_plan_id":"cebpf4jnsgd1na2vs0mg"},{"bike_id":"52b5cc7f-53b1-4f19-a7b8-affa151d76ea","system_id":"levelo_inurba_marseille","lat":43.29223,"lon":5.36063,"is_reserved":false,"is_disabled":false,"rental_uris":{"android":"levelo://app?vid=52b5cc7f-53b1-4f19-a7b8-affa151d76ea","ios":"levelo://app?vid=52b5cc7f-53b1-4f19-a7b8-affa151d76ea"},"vehicle_type_id":"4","last_reported":1781197807,"current_range_meters":4800,"station_id":"ce4bhbh2rcd13ifvqeqg","pricing_plan_id":"cebpf4jnsgd1na2vs0mg"},{"bike_id":"ef46ea88-19ea-4602-9ccf-0735d9dea442","system_id":"levelo_inurba_marseille","lat":43.25578,"lon":5.38235,"is_reserved":false,"is_disabled":false,"rental_uris":{"android":"levelo://app?vid=ef46ea88-19ea-4602-9ccf-0735d9dea442","ios":"levelo://app?vid=ef46ea88-19ea-4602-9ccf-0735d9dea442"},"vehicle_type_id":"4","last_reported":1781197807,"current_range_meters":4800,"station_id":"ce4bhih2rcd13ifvqfs0","pricing_plan_id":"cebpf4jnsgd1na2vs0mg"},{"bike_id":"fd2f0fe2-2447-45be-8c9a-456f406e59a8","system_id":"levelo_inurba_marseille","lat":43.30303,"lon":5.36896,"is_reserved":false,"is_disabled":false,"rental_uris":{"android":"levelo://app?vid=fd2f0fe2-2447-45be-8c9a-456f406e59a8","ios":"levelo://app?vid=fd2f0fe2-2447-45be-8c9a-456f406e59a8"},"vehicle_type_id":"4","last_reported":1781197807,"current_range_meters":4800,"station_id":"ce4bgqh2rcd13ifvqc5g","pricing_plan_id":"cebpf4jnsgd1na2vs0mg"},{"bike_id":"1d885001-881f-4c7a-ac86-1941adfead6e","system_id":"levelo_inurba_marseille","lat":43.25524,"lon":5.37694,"is_reserved":false,"is_disabled":false,"rental_uris":{"android":"levelo://app?vid=1d885001-881f-4c7a-ac86-1941adfead6e","ios":"levelo://app?vid=1d885001-881f-4c7a-ac86-1941adfead6e"},"vehicle_type_id":"4","last_reported":1781197807,"current_range_meters":4800,"station_id":"","pricing_plan_id":"cebpf4jnsgd1na2vs0mg"},{"bike_id":"10735159-3397-4800-83f9-6dea2cbec6ca","system_id":"levelo_inurba_marseille","lat":43.33545,"lon":5.3745,"is_reserved":false,"is_disabled":false,"rental_uris":{"android":"levelo://app?vid=10735159-3397-4800-83f9-6dea2cbec6ca","ios":"levelo://app?vid=10735159-3397-4800-83f9-6dea2cbec6ca"},"vehicle_type_id":"4","last_reported":1781197807,"current_range_meters":4800,"station_id":"st_d46tts09ee8s73dlu43g","pricing_plan_id":"cebpf4jnsgd1na2vs0mg"},{"bike_id":"a35d6ad5-98df-4043-bf93-164e38cc614c","system_id":"levelo_inurba_marseille","lat":43.33112,"lon":5.40802,"is_reserved":false,"is_disabled":false,"rental_uris":{"android":"levelo://app?vid=a35d6ad5-98df-4043-bf93-164e38cc614c","ios":"levelo://app?vid=a35d6ad5-98df-4043-bf93-164e38cc614c"},"vehicle_type_id":"4","last_reported":1781197807,"current_range_meters":4800,"station_id":"","pricing_plan_id":"cebpf4jnsgd1na2vs0mg"},{"bike_id":"9caa4f18-c443-48c6-a3d1-f58fac60bb1f","system_id":"levelo_inurba_marseille","lat":43.26126,"lon":5.37523,"is_reserved":false,"is_disabled":false,"rental_uris":{"android":"levelo://app?vid=9caa4f18-c443-48c6-a3d1-f58fac60bb1f","ios":"levelo://app?vid=9caa4f18-c443-48c6-a3d1-f58fac60bb1f"},"vehicle_type_id":"4","last_reported":1781197807,"current_range_meters":4800,"station_id":"","pricing_plan_id":"cebpf4jnsgd1na2vs0mg"},{"bike_id":"bdbbd131-bf92-417f-9076-b3a981ac0b8c","system_id":"levelo_inurba_marseille","lat":43.28994,"lon":5.35613,"is_reserved":false,"is_disabled":false,"rental_uris":{"android":"levelo://app?vid=bdbbd131-bf92-417f-9076-b3a981ac0b8c","ios":"levelo://app?vid=bdbbd131-bf92-417f-9076-b3a981ac0b8c"},"vehicle_type_id":"4","last_reported":1781197807,"current_range_meters":5600,"station_id":"ce4bhb92rcd13ifvqen0","pricing_plan_id":"cebpf4jnsgd1na2vs0mg"},{"bike_id":"95eff826-fe1f-4c6c-8cdc-c1f6d9b69ee3","system_id":"levelo_inurba_marseille","lat":43.29243,"lon":5.40905,"is_reserved":false,"is_disabled":false,"rental_uris":{"android":"levelo://app?vid=95eff826-fe1f-4c6c-8cdc-c1f6d9b69ee3","ios":"levelo://app?vid=95eff826-fe1f-4c6c-8cdc-c1f6d9b69ee3"},"vehicle_type_id":"4","last_reported":1781197807,"current_range_meters":5600,"station_id":"ce4bh192rcd13ifvqdc0","pricing_plan_id":"cebpf4jnsgd1na2vs0mg"},{"bike_id":"a1c015e9-3e11-46f0-b642-1fa3036dfa73","system_id":"levelo_inurba_marseille","lat":43.33165,"lon":5.37694,"is_reserved":false,"is_disabled":false,"rental_uris":{"android":"levelo://app?vid=a1c015e9-3e11-46f0-b642-1fa3036dfa73","ios":"levelo://app?vid=a1c015e9-3e11-46f0-b642-1fa3036dfa73"},"vehicle_type_id":"4","last_reported":1781197807,"current_range_meters":5600,"station_id":"st_d46cu089ee8s73dldbu0","pricing_plan_id":"cebpf4jnsgd1na2vs0mg"},{"bike_id":"8c3751c6-167b-4a23-9042-bfc04858d292","system_id":"levelo_inurba_marseille","lat":43.30934,"lon":5.40141,"is_reserved":false,"is_disabled":false,"rental_uris":{"android":"levelo://app?vid=8c3751c6-167b-4a23-9042-bfc04858d292","ios":"levelo://app?vid=8c3751c6-167b-4a23-9042-bfc04858d292"},"vehicle_type_id":"4","last_reported":1781197807,"current_range_meters":5600,"station_id":"ce4bgvp2rcd13ifvqct0","pricing_plan_id":"cebpf4jnsgd1na2vs0mg"},{"bike_id":"10a47c39-f489-414e-ad25-ec902a9401ec","system_id":"levelo_inurba_marseille","lat":43.30004,"lon":5.38502,"is_reserved":false,"is_disabled":false,"rental_uris":{"android":"levelo://app?vid=10a47c39-f489-414e-ad25-ec902a9401ec","ios":"levelo://app?vid=10a47c39-f489-414e-ad25-ec902a9401ec"},"vehicle_type_id":"4","last_reported":1781197807,"current_range_meters":5600,"station_id":"ce4bgj92rcd13ifvqbd0","pricing_plan_id":"cebpf4jnsgd1na2vs0mg"},{"bike_id":"e0232ac7-413f-4fe8-8e0d-aa865a785733","system_id":"levelo_inurba_marseille","lat":43.295716,"lon":5.399739,"is_reserved":false,"is_disabled":false,"rental_uris":{"android":"levelo://app?vid=e0232ac7-413f-4fe8-8e0d-aa865a785733","ios":"levelo://app?vid=e0232ac7-413f-4fe8-8e0d-aa865a785733"},"vehicle_type_id":"4","last_reported":1781197807,"current_range_meters":5600,"station_id":"ce4bh312rcd13ifvqdj0","pricing_plan_id":"cebpf4jnsgd1na2vs0mg"},{"bike_id":"31fc7de1-dd09-4bfa-8e79-85621200c510","system_id":"levelo_inurba_marseille","lat":43.29034,"lon":5.38646,"is_reserved":false,"is_disabled":false,"rental_uris":{"android":"levelo://app?vid=31fc7de1-dd09-4bfa-8e79-85621200c510","ios":"levelo://app?vid=31fc7de1-dd09-4bfa-8e79-85621200c510"},"vehicle_type_id":"4","last_reported":1781197807,"current_range_meters":5600,"station_id":"ce4bh4p2rcd13ifvqe0g","pricing_plan_id":"cebpf4jnsgd1na2vs0mg"},{"bike_id":"c2fd1dcf-9515-4468-8e03-d5ed5d6a02f1","system_id":"levelo_inurba_marseille","lat":43.28861,"lon":5.35856,"is_reserved":false,"is_disabled":false,"rental_uris":{"android":"levelo://app?vid=c2fd1dcf-9515-4468-8e03-d5ed5d6a02f1","ios":"levelo://app?vid=c2fd1dcf-9515-4468-8e03-d5ed5d6a02f1"},"vehicle_type_id":"4","last_reported":1781197807,"current_range_meters":5600,"station_id":"ce4bhb12rcd13ifvqem0","pricing_plan_id":"cebpf4jnsgd1na2vs0mg"},{"bike_id":"8fc6c904-2783-424f-bb15-096ef2954f10","system_id":"levelo_inurba_marseille","lat":43.26195,"lon":5.37452,"is_reserved":false,"is_disabled":false,"rental_uris":{"android":"levelo://app?vid=8fc6c904-2783-424f-bb15-096ef2954f10","ios":"levelo://app?vid=8fc6c904-2783-424f-bb15-096ef2954f10"},"vehicle_type_id":"4","last_reported":1781197807,"current_range_meters":5600,"station_id":"ce4bhgp2rcd13ifvqfc0","pricing_plan_id":"cebpf4jnsgd1na2vs0mg"},{"bike_id":"06b0e4c9-7d0e-4204-99ac-ea2c0040b0a5","system_id":"levelo_inurba_marseille","lat":43.27942,"lon":5.41032,"is_reserved":false,"is_disabled":false,"rental_uris":{"android":"levelo://app?vid=06b0e4c9-7d0e-4204-99ac-ea2c0040b0a5","ios":"levelo://app?vid=06b0e4c9-7d0e-4204-99ac-ea2c0040b0a5"},"vehicle_type_id":"4","last_reported":1781197807,"current_range_meters":6000,"station_id":"ce4bhnp2rcd13ifvqh0g","pricing_plan_id":"cebpf4jnsgd1na2vs0mg"},{"bike_id":"e2efc7c7-a347-4a56-a140-e9f45c94d1eb","system_id":"levelo_inurba_marseille","lat":43.28491,"lon":5.38548,"is_reserved":false,"is_disabled":true,"rental_uris":{"android":"levelo://app?vid=e2efc7c7-a347-4a56-a140-e9f45c94d1eb","ios":"levelo://app?vid=e2efc7c7-a347-4a56-a140-e9f45c94d1eb"},"vehicle_type_id":"4","last_reported":1781197807,"current_range_meters":6000,"station_id":"ce4bh8p2rcd13ifvqeb0","pricing_plan_id":"cebpf4jnsgd1na2vs0mg"},{"bike_id":"402cee7f-7d33-47c7-a4a6-ec74389838c4","system_id":"levelo_inurba_marseille","lat":43.31451,"lon":5.37387,"is_reserved":false,"is_disabled":false,"rental_uris":{"android":"levelo://app?vid=402cee7f-7d33-47c7-a4a6-ec74389838c4","ios":"levelo://app?vid=402cee7f-7d33-47c7-a4a6-ec74389838c4"},"vehicle_type_id":"4","last_reported":1781197807,"current_range_meters":6000,"station_id":"","pricing_plan_id":"cebpf4jnsgd1na2vs0mg"},{"bike_id":"c95dd1a6-418f-447b-8e7a-518ea18f86a9","system_id":"levelo_inurba_marseille","lat":43.254981,"lon":5.376467,"is_reserved":false,"is_disabled":false,"rental_uris":{"android":"levelo://app?vid=c95dd1a6-418f-447b-8e7a-518ea18f86a9","ios":"levelo://app?vid=c95dd1a6-418f-447b-8e7a-518ea18f86a9"},"vehicle_type_id":"4","last_reported":1781197807,"current_range_meters":6000,"station_id":"ce4bhh12rcd13ifvqff0","pricing_plan_id":"cebpf4jnsgd1na2vs0mg"},{"bike_id":"dd3df797-97c2-4c60-a20a-fe565888944b","system_id":"levelo_inurba_marseille","lat":43.282693,"lon":5.350689,"is_reserved":false,"is_disabled":false,"rental_uris":{"android":"levelo://app?vid=dd3df797-97c2-4c60-a20a-fe565888944b","ios":"levelo://app?vid=dd3df797-97c2-4c60-a20a-fe565888944b"},"vehicle_type_id":"4","last_reported":1781197807,"current_range_meters":6000,"station_id":"ce4bhbp2rcd13ifvqerg","pricing_plan_id":"cebpf4jnsgd1na2vs0mg"},{"bike_id":"c580a5a7-6827-4811-a67d-b57c1bfa4c98","system_id":"levelo_inurba_marseille","lat":43.29881,"lon":5.38903,"is_reserved":false,"is_disabled":false,"rental_uris":{"android":"levelo://app?vid=c580a5a7-6827-4811-a67d-b57c1bfa4c98","ios":"levelo://app?vid=c580a5a7-6827-4811-a67d-b57c1bfa4c98"},"vehicle_type_id":"4","last_reported":1781197807,"current_range_meters":6000,"station_id":"ce4bh392rcd13ifvqdl0","pricing_plan_id":"cebpf4jnsgd1na2vs0mg"},{"bike_id":"8620ffbb-f3b5-42be-b32a-717f7b53cc19","system_id":"levelo_inurba_marseille","lat":43.310561,"lon":5.371635,"is_reserved":false,"is_disabled":false,"rental_uris":{"android":"levelo://app?vid=8620ffbb-f3b5-42be-b32a-717f7b53cc19","ios":"levelo://app?vid=8620ffbb-f3b5-42be-b32a-717f7b53cc19"},"vehicle_type_id":"4","last_reported":1781197807,"current_range_meters":6000,"station_id":"st_d4kl2rp97mjs73e7tdfg","pricing_plan_id":"cebpf4jnsgd1na2vs0mg"},{"bike_id":"e24b70c6-3a8a-4e01-ab56-31a97bcc3861","system_id":"levelo_inurba_marseille","lat":43.29261,"lon":5.38444,"is_reserved":false,"is_disabled":false,"rental_uris":{"android":"levelo://app?vid=e24b70c6-3a8a-4e01-ab56-31a97bcc3861","ios":"levelo://app?vid=e24b70c6-3a8a-4e01-ab56-31a97bcc3861"},"vehicle_type_id":"4","last_reported":1781197807,"current_range_meters":6000,"station_id":"ce4bh692rcd13ifvqea0","pricing_plan_id":"cebpf4jnsgd1na2vs0mg"},{"bike_id":"0a863416-481b-47ce-a3aa-6d981f931e44","system_id":"levelo_inurba_marseille","lat":43.30866,"lon":5.37205,"is_reserved":false,"is_disabled":false,"rental_uris":{"android":"levelo://app?vid=0a863416-481b-47ce-a3aa-6d981f931e44","ios":"levelo://app?vid=0a863416-481b-47ce-a3aa-6d981f931e44"},"vehicle_type_id":"4","last_reported":1781197807,"current_range_meters":6000,"station_id":"ce4bguh2rcd13ifvqckg","pricing_plan_id":"cebpf4jnsgd1na2vs0mg"},{"bike_id":"a9c6ea0e-e582-4254-8783-076f5e9d8d41","system_id":"levelo_inurba_marseille","lat":43.2885,"lon":5.39327,"is_reserved":false,"is_disabled":true,"rental_uris":{"android":"levelo://app?vid=a9c6ea0e-e582-4254-8783-076f5e9d8d41","ios":"levelo://app?vid=a9c6ea0e-e582-4254-8783-076f5e9d8d41"},"vehicle_type_id":"4","last_reported":1781197807,"current_range_meters":6000,"station_id":"ce4bh2p2rcd13ifvqdi0","pricing_plan_id":"cebpf4jnsgd1na2vs0mg"},{"bike_id":"becf7538-a49a-47b2-898c-da691a16b228","system_id":"levelo_inurba_marseille","lat":43.29025,"lon":5.35924,"is_reserved":false,"is_disabled":true,"rental_uris":{"android":"levelo://app?vid=becf7538-a49a-47b2-898c-da691a16b228","ios":"levelo://app?vid=becf7538-a49a-47b2-898c-da691a16b228"},"vehicle_type_id":"4","last_reported":1781197807,"current_range_meters":6000,"station_id":"ce4bha92rcd13ifvqeg0","pricing_plan_id":"cebpf4jnsgd1na2vs0mg"},{"bike_id":"f3b95f24-52dc-4192-a43b-1ba67c7439a2","system_id":"levelo_inurba_marseille","lat":43.26552,"lon":5.39029,"is_reserved":false,"is_disabled":false,"rental_uris":{"android":"levelo://app?vid=f3b95f24-52dc-4192-a43b-1ba67c7439a2","ios":"levelo://app?vid=f3b95f24-52dc-4192-a43b-1ba67c7439a2"},"vehicle_type_id":"4","last_reported":1781197807,"current_range_meters":6000,"station_id":"ce4bhe12rcd13ifvqf30","pricing_plan_id":"cebpf4jnsgd1na2vs0mg"},{"bike_id":"79eaab26-b3ae-4543-b904-4f081a11153b","system_id":"levelo_inurba_marseille","lat":43.30148,"lon":5.39855,"is_reserved":false,"is_disabled":false,"rental_uris":{"android":"levelo://app?vid=79eaab26-b3ae-4543-b904-4f081a11153b","ios":"levelo://app?vid=79eaab26-b3ae-4543-b904-4f081a11153b"},"vehicle_type_id":"4","last_reported":1781197807,"current_range_meters":6000,"station_id":"ce4bh0h2rcd13ifvqd40","pricing_plan_id":"cebpf4jnsgd1na2vs0mg"},{"bike_id":"7c131e63-4882-494d-814c-185065bffc7c","system_id":"levelo_inurba_marseille","lat":43.28477,"lon":5.48395,"is_reserved":false,"is_disabled":false,"rental_uris":{"android":"levelo://app?vid=7c131e63-4882-494d-814c-185065bffc7c","ios":"levelo://app?vid=7c131e63-4882-494d-814c-185065bffc7c"},"vehicle_type_id":"4","last_reported":1781197807,"current_range_meters":6000,"station_id":"st_d3svhcjqgbts73a3dn0g","pricing_plan_id":"cebpf4jnsgd1na2vs0mg"},{"bike_id":"72596ebd-ea6d-4b6d-968a-acb42e5b04cf","system_id":"levelo_inurba_marseille","lat":43.29626,"lon":5.37891,"is_reserved":false,"is_disabled":false,"rental_uris":{"android":"levelo://app?vid=72596ebd-ea6d-4b6d-968a-acb42e5b04cf","ios":"levelo://app?vid=72596ebd-ea6d-4b6d-968a-acb42e5b04cf"},"vehicle_type_id":"4","last_reported":1781197807,"current_range_meters":6000,"station_id":"","pricing_plan_id":"cebpf4jnsgd1na2vs0mg"},{"bike_id":"4343f291-38b8-47e7-a883-039a0fd0f77e","system_id":"levelo_inurba_marseille","lat":43.32102,"lon":5.3677,"is_reserved":false,"is_disabled":false,"rental_uris":{"android":"levelo://app?vid=4343f291-38b8-47e7-a883-039a0fd0f77e","ios":"levelo://app?vid=4343f291-38b8-47e7-a883-039a0fd0f77e"},"vehicle_type_id":"4","last_reported":1781197807,"current_range_meters":6000,"station_id":"ce4bhrh2rcd13ifvqhug","pricing_plan_id":"cebpf4jnsgd1na2vs0mg"},{"bike_id":"23e2fe29-0de1-483d-98c1-f40e1d8edbef","system_id":"levelo_inurba_marseille","lat":43.29891,"lon":5.37478,"is_reserved":false,"is_disabled":false,"rental_uris":{"android":"levelo://app?vid=23e2fe29-0de1-483d-98c1-f40e1d8edbef","ios":"levelo://app?vid=23e2fe29-0de1-483d-98c1-f40e1d8edbef"},"vehicle_type_id":"4","last_reported":1781197807,"current_range_meters":6000,"station_id":"ce4bgjh2rcd13ifvqbg0","pricing_plan_id":"cebpf4jnsgd1na2vs0mg"},{"bike_id":"d2fae584-e8a4-411b-8497-01e9defa4f72","system_id":"levelo_inurba_marseille","lat":43.28609,"lon":5.35097,"is_reserved":false,"is_disabled":false,"rental_uris":{"android":"levelo://app?vid=d2fae584-e8a4-411b-8497-01e9defa4f72","ios":"levelo://app?vid=d2fae584-e8a4-411b-8497-01e9defa4f72"},"vehicle_type_id":"4","last_reported":1781197807,"current_range_meters":6000,"station_id":"ce4bhch2rcd13ifvqeug","pricing_plan_id":"cebpf4jnsgd1na2vs0mg"},{"bike_id":"98e6de8e-0f4e-4c67-ae3a-b0415bbd3bd5","system_id":"levelo_inurba_marseille","lat":43.23384,"lon":5.41237,"is_reserved":false,"is_disabled":false,"rental_uris":{"android":"levelo://app?vid=98e6de8e-0f4e-4c67-ae3a-b0415bbd3bd5","ios":"levelo://app?vid=98e6de8e-0f4e-4c67-ae3a-b0415bbd3bd5"},"vehicle_type_id":"4","last_reported":1781197807,"current_range_meters":6000,"station_id":"st_d75pvndhf9lc73cqq3eg","pricing_plan_id":"cebpf4jnsgd1na2vs0mg"},{"bike_id":"76f5dd5d-ca31-4b0e-8dbb-b6ce3553ebe9","system_id":"levelo_inurba_marseille","lat":43.26056,"lon":5.39401,"is_reserved":false,"is_disabled":false,"rental_uris":{"android":"levelo://app?vid=76f5dd5d-ca31-4b0e-8dbb-b6ce3553ebe9","ios":"levelo://app?vid=76f5dd5d-ca31-4b0e-8dbb-b6ce3553ebe9"},"vehicle_type_id":"4","last_reported":1781197807,"current_range_meters":6000,"station_id":"ce4bhh92rcd13ifvqfj0","pricing_plan_id":"cebpf4jnsgd1na2vs0mg"},{"bike_id":"348c1799-edc2-471f-ac9e-a85ada82a8f7","system_id":"levelo_inurba_marseille","lat":43.292786,"lon":5.401117,"is_reserved":false,"is_disabled":false,"rental_uris":{"android":"levelo://app?vid=348c1799-edc2-471f-ac9e-a85ada82a8f7","ios":"levelo://app?vid=348c1799-edc2-471f-ac9e-a85ada82a8f7"},"vehicle_type_id":"4","last_reported":1781197807,"current_range_meters":6000,"station_id":"ce4bh312rcd13ifvqdk0","pricing_plan_id":"cebpf4jnsgd1na2vs0mg"},{"bike_id":"ec5b1716-e832-4cef-af7f-e28b95c9fdfd","system_id":"levelo_inurba_marseille","lat":43.27906,"lon":5.3801,"is_reserved":false,"is_disabled":false,"rental_uris":{"android":"levelo://app?vid=ec5b1716-e832-4cef-af7f-e28b95c9fdfd","ios":"levelo://app?vid=ec5b1716-e832-4cef-af7f-e28b95c9fdfd"},"vehicle_type_id":"4","last_reported":1781197807,"current_range_meters":6000,"station_id":"ce4bhf92rcd13ifvqf50","pricing_plan_id":"cebpf4jnsgd1na2vs0mg"},{"bike_id":"edf2326f-ceec-4053-a5b7-296bf2242f08","system_id":"levelo_inurba_marseille","lat":43.28613,"lon":5.35108,"is_reserved":false,"is_disabled":false,"rental_uris":{"android":"levelo://app?vid=edf2326f-ceec-4053-a5b7-296bf2242f08","ios":"levelo://app?vid=edf2326f-ceec-4053-a5b7-296bf2242f08"},"vehicle_type_id":"4","last_reported":1781197807,"current_range_meters":6000,"station_id":"ce4bhch2rcd13ifvqeug","pricing_plan_id":"cebpf4jnsgd1na2vs0mg"},{"bike_id":"2a2c2d33-3013-45bd-9a55-0489956e0aa4","system_id":"levelo_inurba_marseille","lat":43.24387,"lon":5.37047,"is_reserved":false,"is_disabled":false,"rental_uris":{"android":"levelo://app?vid=2a2c2d33-3013-45bd-9a55-0489956e0aa4","ios":"levelo://app?vid=2a2c2d33-3013-45bd-9a55-0489956e0aa4"},"vehicle_type_id":"4","last_reported":1781197807,"current_range_meters":6000,"station_id":"ce4bhhh2rcd13ifvqfk0","pricing_plan_id":"cebpf4jnsgd1na2vs0mg"},{"bike_id":"3584e241-1942-4015-86a4-f6e09519a952","system_id":"levelo_inurba_marseille","lat":43.2894,"lon":5.36633,"is_reserved":false,"is_disabled":false,"rental_uris":{"android":"levelo://app?vid=3584e241-1942-4015-86a4-f6e09519a952","ios":"levelo://app?vid=3584e241-1942-4015-86a4-f6e09519a952"},"vehicle_type_id":"4","last_reported":1781197807,"current_range_meters":6000,"station_id":"ce4bhap2rcd13ifvqek0","pricing_plan_id":"cebpf4jnsgd1na2vs0mg"},{"bike_id":"4b7cb865-699f-44e6-8307-8bc6503aa00c","system_id":"levelo_inurba_marseille","lat":43.29265,"lon":5.38436,"is_reserved":false,"is_disabled":false,"rental_uris":{"android":"levelo://app?vid=4b7cb865-699f-44e6-8307-8bc6503aa00c","ios":"levelo://app?vid=4b7cb865-699f-44e6-8307-8bc6503aa00c"},"vehicle_type_id":"4","last_reported":1781197807,"current_range_meters":6000,"station_id":"ce4bh692rcd13ifvqea0","pricing_plan_id":"cebpf4jnsgd1na2vs0mg"},{"bike_id":"f6bac920-035a-425f-9d43-04738b60b9e9","system_id":"levelo_inurba_marseille","lat":43.29261,"lon":5.38915,"is_reserved":false,"is_disabled":false,"rental_uris":{"android":"levelo://app?vid=f6bac920-035a-425f-9d43-04738b60b9e9","ios":"levelo://app?vid=f6bac920-035a-425f-9d43-04738b60b9e9"},"vehicle_type_id":"4","last_reported":1781197807,"current_range_meters":6000,"station_id":"","pricing_plan_id":"cebpf4jnsgd1na2vs0mg"},{"bike_id":"a2e67601-4678-407f-a001-e53cd8d57696","system_id":"levelo_inurba_marseille","lat":43.29534,"lon":5.38533,"is_reserved":false,"is_disabled":false,"rental_uris":{"android":"levelo://app?vid=a2e67601-4678-407f-a001-e53cd8d57696","ios":"levelo://app?vid=a2e67601-4678-407f-a001-e53cd8d57696"},"vehicle_type_id":"4","last_reported":1781197807,"current_range_meters":6400,"station_id":"ce4bgih2rcd13ifvqba0","pricing_plan_id":"cebpf4jnsgd1na2vs0mg"},{"bike_id":"cebd1f5e-4615-475e-bb1f-b98342d910da","system_id":"levelo_inurba_marseille","lat":43.25093,"lon":5.39522,"is_reserved":false,"is_disabled":false,"rental_uris":{"android":"levelo://app?vid=cebd1f5e-4615-475e-bb1f-b98342d910da","ios":"levelo://app?vid=cebd1f5e-4615-475e-bb1f-b98342d910da"},"vehicle_type_id":"4","last_reported":1781197807,"current_range_meters":6400,"station_id":"ce4bhm12rcd13ifvqgkg","pricing_plan_id":"cebpf4jnsgd1na2vs0mg"},{"bike_id":"a49e079e-56e5-45de-9def-f5d53e5437d9","system_id":"levelo_inurba_marseille","lat":43.28037,"lon":5.35373,"is_reserved":false,"is_disabled":false,"rental_uris":{"android":"levelo://app?vid=a49e079e-56e5-45de-9def-f5d53e5437d9","ios":"levelo://app?vid=a49e079e-56e5-45de-9def-f5d53e5437d9"},"vehicle_type_id":"4","last_reported":1781197807,"current_range_meters":6400,"station_id":"","pricing_plan_id":"cebpf4jnsgd1na2vs0mg"},{"bike_id":"e30ddbc6-0254-49b9-9ae4-b157e53a94df","system_id":"levelo_inurba_marseille","lat":43.26226,"lon":5.37424,"is_reserved":false,"is_disabled":false,"rental_uris":{"android":"levelo://app?vid=e30ddbc6-0254-49b9-9ae4-b157e53a94df","ios":"levelo://app?vid=e30ddbc6-0254-49b9-9ae4-b157e53a94df"},"vehicle_type_id":"4","last_reported":1781197807,"current_range_meters":6400,"station_id":"","pricing_plan_id":"cebpf4jnsgd1na2vs0mg"},{"bike_id":"7a2582a1-9f4e-4b77-a662-c666529e13ef","system_id":"levelo_inurba_marseille","lat":43.28046,"lon":5.35011,"is_reserved":false,"is_disabled":false,"rental_uris":{"android":"levelo://app?vid=7a2582a1-9f4e-4b77-a662-c666529e13ef","ios":"levelo://app?vid=7a2582a1-9f4e-4b77-a662-c666529e13ef"},"vehicle_type_id":"4","last_reported":1781197807,"current_range_meters":6400,"station_id":"","pricing_plan_id":"cebpf4jnsgd1na2vs0mg"},{"bike_id":"4908349b-5ebc-4660-a3ea-eb93537ac639","system_id":"levelo_inurba_marseille","lat":43.28939,"lon":5.36635,"is_reserved":false,"is_disabled":false,"rental_uris":{"android":"levelo://app?vid=4908349b-5ebc-4660-a3ea-eb93537ac639","ios":"levelo://app?vid=4908349b-5ebc-4660-a3ea-eb93537ac639"},"vehicle_type_id":"4","last_reported":1781197807,"current_range_meters":6400,"station_id":"ce4bhap2rcd13ifvqek0","pricing_plan_id":"cebpf4jnsgd1na2vs0mg"},{"bike_id":"f4604c3b-a56a-425f-8d90-3b8e1f77f859","system_id":"levelo_inurba_marseille","lat":43.31361,"lon":5.38499,"is_reserved":false,"is_disabled":false,"rental_uris":{"android":"levelo://app?vid=f4604c3b-a56a-425f-8d90-3b8e1f77f859","ios":"levelo://app?vid=f4604c3b-a56a-425f-8d90-3b8e1f77f859"},"vehicle_type_id":"4","last_reported":1781197807,"current_range_meters":6400,"station_id":"ce4bgt92rcd13ifvqcf0","pricing_plan_id":"cebpf4jnsgd1na2vs0mg"},{"bike_id":"de648162-aaef-4bfd-86bb-810a5c9563cf","system_id":"levelo_inurba_marseille","lat":43.26488,"lon":5.39544,"is_reserved":false,"is_disabled":false,"rental_uris":{"android":"levelo://app?vid=de648162-aaef-4bfd-86bb-810a5c9563cf","ios":"levelo://app?vid=de648162-aaef-4bfd-86bb-810a5c9563cf"},"vehicle_type_id":"4","last_reported":1781197807,"current_range_meters":6400,"station_id":"ce4bhi12rcd13ifvqfq0","pricing_plan_id":"cebpf4jnsgd1na2vs0mg"},{"bike_id":"0564cd6d-a64d-4fca-810b-dbd0a1477331","system_id":"levelo_inurba_marseille","lat":43.30534,"lon":5.36536,"is_reserved":false,"is_disabled":false,"rental_uris":{"android":"levelo://app?vid=0564cd6d-a64d-4fca-810b-dbd0a1477331","ios":"levelo://app?vid=0564cd6d-a64d-4fca-810b-dbd0a1477331"},"vehicle_type_id":"4","last_reported":1781197807,"current_range_meters":6400,"station_id":"ce4bgs12rcd13ifvqcag","pricing_plan_id":"cebpf4jnsgd1na2vs0mg"},{"bike_id":"da574a64-3ef9-4e8e-a509-4406a1c66c78","system_id":"levelo_inurba_marseille","lat":43.30323,"lon":5.40431,"is_reserved":false,"is_disabled":false,"rental_uris":{"android":"levelo://app?vid=da574a64-3ef9-4e8e-a509-4406a1c66c78","ios":"levelo://app?vid=da574a64-3ef9-4e8e-a509-4406a1c66c78"},"vehicle_type_id":"4","last_reported":1781197807,"current_range_meters":6400,"station_id":"ce4bh012rcd13ifvqd10","pricing_plan_id":"cebpf4jnsgd1na2vs0mg"},{"bike_id":"77897976-bf15-41c0-a7b8-ff99ccfc10c8","system_id":"levelo_inurba_marseille","lat":43.30897,"lon":5.36848,"is_reserved":false,"is_disabled":false,"rental_uris":{"android":"levelo://app?vid=77897976-bf15-41c0-a7b8-ff99ccfc10c8","ios":"levelo://app?vid=77897976-bf15-41c0-a7b8-ff99ccfc10c8"},"vehicle_type_id":"4","last_reported":1781197807,"current_range_meters":6400,"station_id":"ce4bgn92rcd13ifvqbvg","pricing_plan_id":"cebpf4jnsgd1na2vs0mg"},{"bike_id":"e286b9db-9cdb-47bf-83f8-bf3f4913b34e","system_id":"levelo_inurba_marseille","lat":43.31112,"lon":5.37761,"is_reserved":false,"is_disabled":false,"rental_uris":{"android":"levelo://app?vid=e286b9db-9cdb-47bf-83f8-bf3f4913b34e","ios":"levelo://app?vid=e286b9db-9cdb-47bf-83f8-bf3f4913b34e"},"vehicle_type_id":"4","last_reported":1781197807,"current_range_meters":6400,"station_id":"ce4bgt92rcd13ifvqcg0","pricing_plan_id":"cebpf4jnsgd1na2vs0mg"},{"bike_id":"6c62831c-9b39-40ac-9aed-8a9376fe693e","system_id":"levelo_inurba_marseille","lat":43.23989,"lon":5.36602,"is_reserved":false,"is_disabled":false,"rental_uris":{"android":"levelo://app?vid=6c62831c-9b39-40ac-9aed-8a9376fe693e","ios":"levelo://app?vid=6c62831c-9b39-40ac-9aed-8a9376fe693e"},"vehicle_type_id":"4","last_reported":1781197807,"current_range_meters":6400,"station_id":"ce4bhi12rcd13ifvqfp0","pricing_plan_id":"cebpf4jnsgd1na2vs0mg"},{"bike_id":"55b5bfc5-4cc2-4013-8a9d-77fc56d78c5e","system_id":"levelo_inurba_marseille","lat":43.29252,"lon":5.38443,"is_reserved":false,"is_disabled":false,"rental_uris":{"android":"levelo://app?vid=55b5bfc5-4cc2-4013-8a9d-77fc56d78c5e","ios":"levelo://app?vid=55b5bfc5-4cc2-4013-8a9d-77fc56d78c5e"},"vehicle_type_id":"4","last_reported":1781197807,"current_range_meters":6400,"station_id":"ce4bh692rcd13ifvqea0","pricing_plan_id":"cebpf4jnsgd1na2vs0mg"},{"bike_id":"5ef8b45c-5a2e-4ef3-b317-791d97d054bf","system_id":"levelo_inurba_marseille","lat":43.27148,"lon":5.41431,"is_reserved":false,"is_disabled":false,"rental_uris":{"android":"levelo://app?vid=5ef8b45c-5a2e-4ef3-b317-791d97d054bf","ios":"levelo://app?vid=5ef8b45c-5a2e-4ef3-b317-791d97d054bf"},"vehicle_type_id":"4","last_reported":1781197807,"current_range_meters":6400,"station_id":"","pricing_plan_id":"cebpf4jnsgd1na2vs0mg"},{"bike_id":"bd989f36-7291-418d-a774-4e15181579a2","system_id":"levelo_inurba_marseille","lat":43.29525,"lon":5.37503,"is_reserved":false,"is_disabled":false,"rental_uris":{"android":"levelo://app?vid=bd989f36-7291-418d-a774-4e15181579a2","ios":"levelo://app?vid=bd989f36-7291-418d-a774-4e15181579a2"},"vehicle_type_id":"4","last_reported":1781197807,"current_range_meters":6400,"station_id":"ce4bgkp2rcd13ifvqbmg","pricing_plan_id":"cebpf4jnsgd1na2vs0mg"},{"bike_id":"ce0eeb0a-ebd0-4f1e-8513-9678a210d4e4","system_id":"levelo_inurba_marseille","lat":43.30129,"lon":5.39852,"is_reserved":false,"is_disabled":false,"rental_uris":{"android":"levelo://app?vid=ce0eeb0a-ebd0-4f1e-8513-9678a210d4e4","ios":"levelo://app?vid=ce0eeb0a-ebd0-4f1e-8513-9678a210d4e4"},"vehicle_type_id":"4","last_reported":1781197807,"current_range_meters":6400,"station_id":"ce4bh0h2rcd13ifvqd40","pricing_plan_id":"cebpf4jnsgd1na2vs0mg"},{"bike_id":"05dbeb00-c94d-4fd8-88ff-0b9e5369bba0","system_id":"levelo_inurba_marseille","lat":43.24395,"lon":5.37048,"is_reserved":false,"is_disabled":false,"rental_uris":{"android":"levelo://app?vid=05dbeb00-c94d-4fd8-88ff-0b9e5369bba0","ios":"levelo://app?vid=05dbeb00-c94d-4fd8-88ff-0b9e5369bba0"},"vehicle_type_id":"4","last_reported":1781197807,"current_range_meters":6800,"station_id":"ce4bhhh2rcd13ifvqfk0","pricing_plan_id":"cebpf4jnsgd1na2vs0mg"},{"bike_id":"1a40880f-06f1-44a4-ba92-708afeb30515","system_id":"levelo_inurba_marseille","lat":43.26181,"lon":5.37463,"is_reserved":false,"is_disabled":false,"rental_uris":{"android":"levelo://app?vid=1a40880f-06f1-44a4-ba92-708afeb30515","ios":"levelo://app?vid=1a40880f-06f1-44a4-ba92-708afeb30515"},"vehicle_type_id":"4","last_reported":1781197807,"current_range_meters":6800,"station_id":"ce4bhgp2rcd13ifvqfc0","pricing_plan_id":"cebpf4jnsgd1na2vs0mg"},{"bike_id":"3baa0b0a-3f15-4a6e-8e8a-c926251735e9","system_id":"levelo_inurba_marseille","lat":43.30548,"lon":5.36529,"is_reserved":false,"is_disabled":true,"rental_uris":{"android":"levelo://app?vid=3baa0b0a-3f15-4a6e-8e8a-c926251735e9","ios":"levelo://app?vid=3baa0b0a-3f15-4a6e-8e8a-c926251735e9"},"vehicle_type_id":"4","last_reported":1781197807,"current_range_meters":6800,"station_id":"ce4bgs12rcd13ifvqcag","pricing_plan_id":"cebpf4jnsgd1na2vs0mg"},{"bike_id":"4d7fee42-cecd-4e64-8d3f-1c596a5db7db","system_id":"levelo_inurba_marseille","lat":43.30119,"lon":5.39871,"is_reserved":false,"is_disabled":false,"rental_uris":{"android":"levelo://app?vid=4d7fee42-cecd-4e64-8d3f-1c596a5db7db","ios":"levelo://app?vid=4d7fee42-cecd-4e64-8d3f-1c596a5db7db"},"vehicle_type_id":"4","last_reported":1781197807,"current_range_meters":6800,"station_id":"ce4bh0h2rcd13ifvqd40","pricing_plan_id":"cebpf4jnsgd1na2vs0mg"},{"bike_id":"23ae47f5-c564-485d-805f-a3f32f7b712a","system_id":"levelo_inurba_marseille","lat":43.278123,"lon":5.40714,"is_reserved":false,"is_disabled":false,"rental_uris":{"android":"levelo://app?vid=23ae47f5-c564-485d-805f-a3f32f7b712a","ios":"levelo://app?vid=23ae47f5-c564-485d-805f-a3f32f7b712a"},"vehicle_type_id":"4","last_reported":1781197807,"current_range_meters":6800,"station_id":"ce4bhnh2rcd13ifvqgtg","pricing_plan_id":"cebpf4jnsgd1na2vs0mg"},{"bike_id":"742dca8c-f5db-4c45-bb54-d3bc982dbb56","system_id":"levelo_inurba_marseille","lat":43.30423,"lon":5.38905,"is_reserved":false,"is_disabled":false,"rental_uris":{"android":"levelo://app?vid=742dca8c-f5db-4c45-bb54-d3bc982dbb56","ios":"levelo://app?vid=742dca8c-f5db-4c45-bb54-d3bc982dbb56"},"vehicle_type_id":"4","last_reported":1781197807,"current_range_meters":6800,"station_id":"ce4bgk12rcd13ifvqbi0","pricing_plan_id":"cebpf4jnsgd1na2vs0mg"},{"bike_id":"406c92e3-e806-4551-a2b6-fea67fbe0a72","system_id":"levelo_inurba_marseille","lat":43.28629,"lon":5.35074,"is_reserved":false,"is_disabled":false,"rental_uris":{"android":"levelo://app?vid=406c92e3-e806-4551-a2b6-fea67fbe0a72","ios":"levelo://app?vid=406c92e3-e806-4551-a2b6-fea67fbe0a72"},"vehicle_type_id":"4","last_reported":1781197807,"current_range_meters":6800,"station_id":"ce4bhch2rcd13ifvqeug","pricing_plan_id":"cebpf4jnsgd1na2vs0mg"},{"bike_id":"6bcc356f-7f69-45b4-a42f-c8af24594173","system_id":"levelo_inurba_marseille","lat":43.29617,"lon":5.38091,"is_reserved":false,"is_disabled":false,"rental_uris":{"android":"levelo://app?vid=6bcc356f-7f69-45b4-a42f-c8af24594173","ios":"levelo://app?vid=6bcc356f-7f69-45b4-a42f-c8af24594173"},"vehicle_type_id":"4","last_reported":1781197807,"current_range_meters":6800,"station_id":"ce4bgl12rcd13ifvqbo0","pricing_plan_id":"cebpf4jnsgd1na2vs0mg"},{"bike_id":"0cd4bdea-60f9-4336-a1a5-9ab073b44c7e","system_id":"levelo_inurba_marseille","lat":43.24377,"lon":5.37044,"is_reserved":false,"is_disabled":false,"rental_uris":{"android":"levelo://app?vid=0cd4bdea-60f9-4336-a1a5-9ab073b44c7e","ios":"levelo://app?vid=0cd4bdea-60f9-4336-a1a5-9ab073b44c7e"},"vehicle_type_id":"4","last_reported":1781197807,"current_range_meters":6800,"station_id":"ce4bhhh2rcd13ifvqfk0","pricing_plan_id":"cebpf4jnsgd1na2vs0mg"},{"bike_id":"58f3b7a4-2899-49d0-9e34-3aa19aecec65","system_id":"levelo_inurba_marseille","lat":43.25506,"lon":5.37627,"is_reserved":false,"is_disabled":false,"rental_uris":{"android":"levelo://app?vid=58f3b7a4-2899-49d0-9e34-3aa19aecec65","ios":"levelo://app?vid=58f3b7a4-2899-49d0-9e34-3aa19aecec65"},"vehicle_type_id":"4","last_reported":1781197807,"current_range_meters":6800,"station_id":"ce4bhh12rcd13ifvqff0","pricing_plan_id":"cebpf4jnsgd1na2vs0mg"},{"bike_id":"bf0d513d-d24a-47b1-bcdb-11e9c8e00198","system_id":"levelo_inurba_marseille","lat":43.26377,"lon":5.4109,"is_reserved":false,"is_disabled":true,"rental_uris":{"android":"levelo://app?vid=bf0d513d-d24a-47b1-bcdb-11e9c8e00198","ios":"levelo://app?vid=bf0d513d-d24a-47b1-bcdb-11e9c8e00198"},"vehicle_type_id":"4","last_reported":1781197807,"current_range_meters":6800,"station_id":"st_d4e5ca6na9uc73bfl5fg","pricing_plan_id":"cebpf4jnsgd1na2vs0mg"},{"bike_id":"cdaffa5f-9ecb-409f-93bc-f132f49ebaf0","system_id":"levelo_inurba_marseille","lat":43.27615,"lon":5.36109,"is_reserved":false,"is_disabled":false,"rental_uris":{"android":"levelo://app?vid=cdaffa5f-9ecb-409f-93bc-f132f49ebaf0","ios":"levelo://app?vid=cdaffa5f-9ecb-409f-93bc-f132f49ebaf0"},"vehicle_type_id":"4","last_reported":1781197807,"current_range_meters":6800,"station_id":"ce4bgj92rcd13ifvqbe0","pricing_plan_id":"cebpf4jnsgd1na2vs0mg"},{"bike_id":"c04f0199-230f-4953-a5df-8fce6b3982f2","system_id":"levelo_inurba_marseille","lat":43.29708,"lon":5.37694,"is_reserved":false,"is_disabled":false,"rental_uris":{"android":"levelo://app?vid=c04f0199-230f-4953-a5df-8fce6b3982f2","ios":"levelo://app?vid=c04f0199-230f-4953-a5df-8fce6b3982f2"},"vehicle_type_id":"4","last_reported":1781197807,"current_range_meters":6800,"station_id":"ce4bgkh2rcd13ifvqbl0","pricing_plan_id":"cebpf4jnsgd1na2vs0mg"},{"bike_id":"a769e0dd-1c2d-4c1f-a6a6-73690ff322de","system_id":"levelo_inurba_marseille","lat":43.24169,"lon":5.36394,"is_reserved":false,"is_disabled":false,"rental_uris":{"android":"levelo://app?vid=a769e0dd-1c2d-4c1f-a6a6-73690ff322de","ios":"levelo://app?vid=a769e0dd-1c2d-4c1f-a6a6-73690ff322de"},"vehicle_type_id":"4","last_reported":1781197807,"current_range_meters":6800,"station_id":"cpo36qri1sfpv3e86is0","pricing_plan_id":"cebpf4jnsgd1na2vs0mg"},{"bike_id":"563e7e66-6e25-4625-b398-b66a26715b2e","system_id":"levelo_inurba_marseille","lat":43.26561,"lon":5.39008,"is_reserved":false,"is_disabled":false,"rental_uris":{"android":"levelo://app?vid=563e7e66-6e25-4625-b398-b66a26715b2e","ios":"levelo://app?vid=563e7e66-6e25-4625-b398-b66a26715b2e"},"vehicle_type_id":"4","last_reported":1781197807,"current_range_meters":6800,"station_id":"ce4bhe12rcd13ifvqf30","pricing_plan_id":"cebpf4jnsgd1na2vs0mg"},{"bike_id":"0b82006f-4b29-4ac2-a960-04c8216d56ec","system_id":"levelo_inurba_marseille","lat":43.29557,"lon":5.42286,"is_reserved":false,"is_disabled":false,"rental_uris":{"android":"levelo://app?vid=0b82006f-4b29-4ac2-a960-04c8216d56ec","ios":"levelo://app?vid=0b82006f-4b29-4ac2-a960-04c8216d56ec"},"vehicle_type_id":"4","last_reported":1781197807,"current_range_meters":6800,"station_id":"ce4bhph2rcd13ifvqhdg","pricing_plan_id":"cebpf4jnsgd1na2vs0mg"},{"bike_id":"8cefebe2-8167-47a3-a6cd-77300f7941d4","system_id":"levelo_inurba_marseille","lat":43.27906,"lon":5.38013,"is_reserved":false,"is_disabled":false,"rental_uris":{"android":"levelo://app?vid=8cefebe2-8167-47a3-a6cd-77300f7941d4","ios":"levelo://app?vid=8cefebe2-8167-47a3-a6cd-77300f7941d4"},"vehicle_type_id":"4","last_reported":1781197807,"current_range_meters":6800,"station_id":"ce4bhf92rcd13ifvqf50","pricing_plan_id":"cebpf4jnsgd1na2vs0mg"},{"bike_id":"8682f4e8-0798-4b4f-8fef-c4dc002ea1c8","system_id":"levelo_inurba_marseille","lat":43.29147,"lon":5.46111,"is_reserved":false,"is_disabled":false,"rental_uris":{"android":"levelo://app?vid=8682f4e8-0798-4b4f-8fef-c4dc002ea1c8","ios":"levelo://app?vid=8682f4e8-0798-4b4f-8fef-c4dc002ea1c8"},"vehicle_type_id":"4","last_reported":1781197807,"current_range_meters":6800,"station_id":"","pricing_plan_id":"cebpf4jnsgd1na2vs0mg"},{"bike_id":"81d74d6d-e206-41fc-b16a-b8618b8cab2e","system_id":"levelo_inurba_marseille","lat":43.28855,"lon":5.3584,"is_reserved":false,"is_disabled":false,"rental_uris":{"android":"levelo://app?vid=81d74d6d-e206-41fc-b16a-b8618b8cab2e","ios":"levelo://app?vid=81d74d6d-e206-41fc-b16a-b8618b8cab2e"},"vehicle_type_id":"4","last_reported":1781197807,"current_range_meters":6800,"station_id":"ce4bhb12rcd13ifvqem0","pricing_plan_id":"cebpf4jnsgd1na2vs0mg"},{"bike_id":"643a5108-6712-460c-84ac-96a9e310c2a1","system_id":"levelo_inurba_marseille","lat":43.32348,"lon":5.36765,"is_reserved":false,"is_disabled":false,"rental_uris":{"android":"levelo://app?vid=643a5108-6712-460c-84ac-96a9e310c2a1","ios":"levelo://app?vid=643a5108-6712-460c-84ac-96a9e310c2a1"},"vehicle_type_id":"4","last_reported":1781197807,"current_range_meters":7200,"station_id":"ce4bhsh2rcd13ifvqi2g","pricing_plan_id":"cebpf4jnsgd1na2vs0mg"},{"bike_id":"b2ad6388-0d4f-4e9c-8ff3-f1ad38b97382","system_id":"levelo_inurba_marseille","lat":43.27676,"lon":5.42441,"is_reserved":false,"is_disabled":false,"rental_uris":{"android":"levelo://app?vid=b2ad6388-0d4f-4e9c-8ff3-f1ad38b97382","ios":"levelo://app?vid=b2ad6388-0d4f-4e9c-8ff3-f1ad38b97382"},"vehicle_type_id":"4","last_reported":1781197807,"current_range_meters":7200,"station_id":"","pricing_plan_id":"cebpf4jnsgd1na2vs0mg"},{"bike_id":"a5e77653-46b7-42be-ae06-dd075d05a062","system_id":"levelo_inurba_marseille","lat":43.32485,"lon":5.36561,"is_reserved":false,"is_disabled":false,"rental_uris":{"android":"levelo://app?vid=a5e77653-46b7-42be-ae06-dd075d05a062","ios":"levelo://app?vid=a5e77653-46b7-42be-ae06-dd075d05a062"},"vehicle_type_id":"4","last_reported":1781197807,"current_range_meters":7200,"station_id":"ce4bhs12rcd13ifvqhvg","pricing_plan_id":"cebpf4jnsgd1na2vs0mg"},{"bike_id":"26b1a4fe-db60-4abf-b75b-1cace0009ea3","system_id":"levelo_inurba_marseille","lat":43.29193,"lon":5.39332,"is_reserved":false,"is_disabled":false,"rental_uris":{"android":"levelo://app?vid=26b1a4fe-db60-4abf-b75b-1cace0009ea3","ios":"levelo://app?vid=26b1a4fe-db60-4abf-b75b-1cace0009ea3"},"vehicle_type_id":"4","last_reported":1781197807,"current_range_meters":7200,"station_id":"ce4bh192rcd13ifvqdd0","pricing_plan_id":"cebpf4jnsgd1na2vs0mg"},{"bike_id":"680f1b78-f257-4001-b384-47c4c774d972","system_id":"levelo_inurba_marseille","lat":43.26205,"lon":5.37926,"is_reserved":false,"is_disabled":false,"rental_uris":{"android":"levelo://app?vid=680f1b78-f257-4001-b384-47c4c774d972","ios":"levelo://app?vid=680f1b78-f257-4001-b384-47c4c774d972"},"vehicle_type_id":"4","last_reported":1781197807,"current_range_meters":7200,"station_id":"ce4bhjp2rcd13ifvqg90","pricing_plan_id":"cebpf4jnsgd1na2vs0mg"},{"bike_id":"a4519ab8-8a91-4627-a831-ddbbcc2b09e2","system_id":"levelo_inurba_marseille","lat":43.30393,"lon":5.39753,"is_reserved":false,"is_disabled":true,"rental_uris":{"android":"levelo://app?vid=a4519ab8-8a91-4627-a831-ddbbcc2b09e2","ios":"levelo://app?vid=a4519ab8-8a91-4627-a831-ddbbcc2b09e2"},"vehicle_type_id":"4","last_reported":1781197807,"current_range_meters":7200,"station_id":"ce4bh092rcd13ifvqd20","pricing_plan_id":"cebpf4jnsgd1na2vs0mg"},{"bike_id":"17369bee-43fb-4510-ab11-4bc54a77a2f2","system_id":"levelo_inurba_marseille","lat":43.28609,"lon":5.35108,"is_reserved":false,"is_disabled":false,"rental_uris":{"android":"levelo://app?vid=17369bee-43fb-4510-ab11-4bc54a77a2f2","ios":"levelo://app?vid=17369bee-43fb-4510-ab11-4bc54a77a2f2"},"vehicle_type_id":"4","last_reported":1781197807,"current_range_meters":7200,"station_id":"ce4bhch2rcd13ifvqeug","pricing_plan_id":"cebpf4jnsgd1na2vs0mg"},{"bike_id":"881888ae-a557-4839-8727-7a22b1a564b2","system_id":"levelo_inurba_marseille","lat":43.29032,"lon":5.38637,"is_reserved":false,"is_disabled":false,"rental_uris":{"android":"levelo://app?vid=881888ae-a557-4839-8727-7a22b1a564b2","ios":"levelo://app?vid=881888ae-a557-4839-8727-7a22b1a564b2"},"vehicle_type_id":"4","last_reported":1781197807,"current_range_meters":7200,"station_id":"ce4bh4p2rcd13ifvqe0g","pricing_plan_id":"cebpf4jnsgd1na2vs0mg"},{"bike_id":"fb7a7915-3284-46c7-8f39-e4136b86d37e","system_id":"levelo_inurba_marseille","lat":43.30731,"lon":5.42449,"is_reserved":false,"is_disabled":false,"rental_uris":{"android":"levelo://app?vid=fb7a7915-3284-46c7-8f39-e4136b86d37e","ios":"levelo://app?vid=fb7a7915-3284-46c7-8f39-e4136b86d37e"},"vehicle_type_id":"4","last_reported":1781197807,"current_range_meters":7200,"station_id":"st_cvj6ca6bvosntc0bfgr0","pricing_plan_id":"cebpf4jnsgd1na2vs0mg"},{"bike_id":"40de0209-043c-4ed6-84c3-7ac1da5cf58d","system_id":"levelo_inurba_marseille","lat":43.32096,"lon":5.36783,"is_reserved":false,"is_disabled":false,"rental_uris":{"android":"levelo://app?vid=40de0209-043c-4ed6-84c3-7ac1da5cf58d","ios":"levelo://app?vid=40de0209-043c-4ed6-84c3-7ac1da5cf58d"},"vehicle_type_id":"4","last_reported":1781197807,"current_range_meters":7200,"station_id":"ce4bhrh2rcd13ifvqhug","pricing_plan_id":"cebpf4jnsgd1na2vs0mg"},{"bike_id":"b6f797d5-1f5a-4a93-860f-56d9b3b13099","system_id":"levelo_inurba_marseille","lat":43.30535,"lon":5.36686,"is_reserved":false,"is_disabled":false,"rental_uris":{"android":"levelo://app?vid=b6f797d5-1f5a-4a93-860f-56d9b3b13099","ios":"levelo://app?vid=b6f797d5-1f5a-4a93-860f-56d9b3b13099"},"vehicle_type_id":"4","last_reported":1781197807,"current_range_meters":7200,"station_id":"ce4bgrp2rcd13ifvqc9g","pricing_plan_id":"cebpf4jnsgd1na2vs0mg"},{"bike_id":"0897e38a-eddc-452e-893b-11cfd070e43c","system_id":"levelo_inurba_marseille","lat":43.2793,"lon":5.39538,"is_reserved":false,"is_disabled":false,"rental_uris":{"android":"levelo://app?vid=0897e38a-eddc-452e-893b-11cfd070e43c","ios":"levelo://app?vid=0897e38a-eddc-452e-893b-11cfd070e43c"},"vehicle_type_id":"4","last_reported":1781197807,"current_range_meters":7200,"station_id":"ce4bhf92rcd13ifvqf40","pricing_plan_id":"cebpf4jnsgd1na2vs0mg"},{"bike_id":"95d4cd27-1914-4549-910d-e788342e2817","system_id":"levelo_inurba_marseille","lat":43.2549,"lon":5.37659,"is_reserved":false,"is_disabled":false,"rental_uris":{"android":"levelo://app?vid=95d4cd27-1914-4549-910d-e788342e2817","ios":"levelo://app?vid=95d4cd27-1914-4549-910d-e788342e2817"},"vehicle_type_id":"4","last_reported":1781197807,"current_range_meters":7200,"station_id":"ce4bhh12rcd13ifvqff0","pricing_plan_id":"cebpf4jnsgd1na2vs0mg"},{"bike_id":"8859d173-9f5d-4e39-86ed-34ec86a90175","system_id":"levelo_inurba_marseille","lat":43.29937,"lon":5.42764,"is_reserved":false,"is_disabled":false,"rental_uris":{"android":"levelo://app?vid=8859d173-9f5d-4e39-86ed-34ec86a90175","ios":"levelo://app?vid=8859d173-9f5d-4e39-86ed-34ec86a90175"},"vehicle_type_id":"4","last_reported":1781197807,"current_range_meters":7200,"station_id":"","pricing_plan_id":"cebpf4jnsgd1na2vs0mg"},{"bike_id":"2bb8c10e-733f-43f8-b4b0-4888973c18f9","system_id":"levelo_inurba_marseille","lat":43.21745,"lon":5.34596,"is_reserved":false,"is_disabled":false,"rental_uris":{"android":"levelo://app?vid=2bb8c10e-733f-43f8-b4b0-4888973c18f9","ios":"levelo://app?vid=2bb8c10e-733f-43f8-b4b0-4888973c18f9"},"vehicle_type_id":"4","last_reported":1781197807,"current_range_meters":7200,"station_id":"st_cvj6r9ubvosntc0bgbag","pricing_plan_id":"cebpf4jnsgd1na2vs0mg"},{"bike_id":"1c41dc46-1f82-4573-ba68-5ef7e321cb8a","system_id":"levelo_inurba_marseille","lat":43.260644,"lon":5.394014,"is_reserved":false,"is_disabled":false,"rental_uris":{"android":"levelo://app?vid=1c41dc46-1f82-4573-ba68-5ef7e321cb8a","ios":"levelo://app?vid=1c41dc46-1f82-4573-ba68-5ef7e321cb8a"},"vehicle_type_id":"4","last_reported":1781197807,"current_range_meters":7200,"station_id":"ce4bhh92rcd13ifvqfj0","pricing_plan_id":"cebpf4jnsgd1na2vs0mg"},{"bike_id":"60210465-87aa-4993-adce-44c433a76140","system_id":"levelo_inurba_marseille","lat":43.27323,"lon":5.36279,"is_reserved":false,"is_disabled":false,"rental_uris":{"android":"levelo://app?vid=60210465-87aa-4993-adce-44c433a76140","ios":"levelo://app?vid=60210465-87aa-4993-adce-44c433a76140"},"vehicle_type_id":"4","last_reported":1781197807,"current_range_meters":7200,"station_id":"ce4bhbh2rcd13ifvqeo0","pricing_plan_id":"cebpf4jnsgd1na2vs0mg"},{"bike_id":"be131038-ef51-4c89-9bb8-eccfb033c258","system_id":"levelo_inurba_marseille","lat":43.305501,"lon":5.367136,"is_reserved":false,"is_disabled":false,"rental_uris":{"android":"levelo://app?vid=be131038-ef51-4c89-9bb8-eccfb033c258","ios":"levelo://app?vid=be131038-ef51-4c89-9bb8-eccfb033c258"},"vehicle_type_id":"4","last_reported":1781197807,"current_range_meters":7200,"station_id":"ce4bgrp2rcd13ifvqc9g","pricing_plan_id":"cebpf4jnsgd1na2vs0mg"},{"bike_id":"9bf3acb7-ae48-43f0-8aa5-1d1aeddbe5cb","system_id":"levelo_inurba_marseille","lat":43.29425,"lon":5.38655,"is_reserved":false,"is_disabled":false,"rental_uris":{"android":"levelo://app?vid=9bf3acb7-ae48-43f0-8aa5-1d1aeddbe5cb","ios":"levelo://app?vid=9bf3acb7-ae48-43f0-8aa5-1d1aeddbe5cb"},"vehicle_type_id":"4","last_reported":1781197807,"current_range_meters":7200,"station_id":"","pricing_plan_id":"cebpf4jnsgd1na2vs0mg"},{"bike_id":"a2bc473d-7b8f-40ea-ac5e-ed52523ca79c","system_id":"levelo_inurba_marseille","lat":43.28411,"lon":5.34997,"is_reserved":false,"is_disabled":false,"rental_uris":{"android":"levelo://app?vid=a2bc473d-7b8f-40ea-ac5e-ed52523ca79c","ios":"levelo://app?vid=a2bc473d-7b8f-40ea-ac5e-ed52523ca79c"},"vehicle_type_id":"4","last_reported":1781197807,"current_range_meters":7200,"station_id":"ce4bhbh2rcd13ifvqepg","pricing_plan_id":"cebpf4jnsgd1na2vs0mg"},{"bike_id":"397736ae-ddf7-4a55-b20d-a9b88be08d15","system_id":"levelo_inurba_marseille","lat":43.29259,"lon":5.38439,"is_reserved":false,"is_disabled":false,"rental_uris":{"android":"levelo://app?vid=397736ae-ddf7-4a55-b20d-a9b88be08d15","ios":"levelo://app?vid=397736ae-ddf7-4a55-b20d-a9b88be08d15"},"vehicle_type_id":"4","last_reported":1781197807,"current_range_meters":7200,"station_id":"ce4bh692rcd13ifvqea0","pricing_plan_id":"cebpf4jnsgd1na2vs0mg"},{"bike_id":"75248494-6e46-4c4b-92d2-9db9ddbe9016","system_id":"levelo_inurba_marseille","lat":43.28476,"lon":5.48404,"is_reserved":false,"is_disabled":false,"rental_uris":{"android":"levelo://app?vid=75248494-6e46-4c4b-92d2-9db9ddbe9016","ios":"levelo://app?vid=75248494-6e46-4c4b-92d2-9db9ddbe9016"},"vehicle_type_id":"4","last_reported":1781197807,"current_range_meters":7200,"station_id":"st_d3svhcjqgbts73a3dn0g","pricing_plan_id":"cebpf4jnsgd1na2vs0mg"},{"bike_id":"078a9912-314b-4791-a1b5-9e120e7893fe","system_id":"levelo_inurba_marseille","lat":43.26022,"lon":5.37547,"is_reserved":false,"is_disabled":false,"rental_uris":{"android":"levelo://app?vid=078a9912-314b-4791-a1b5-9e120e7893fe","ios":"levelo://app?vid=078a9912-314b-4791-a1b5-9e120e7893fe"},"vehicle_type_id":"4","last_reported":1781197807,"current_range_meters":7200,"station_id":"ce4bhgh2rcd13ifvqfa0","pricing_plan_id":"cebpf4jnsgd1na2vs0mg"},{"bike_id":"f5a5ab0f-5796-48bd-acca-c9f744318380","system_id":"levelo_inurba_marseille","lat":43.28078,"lon":5.39658,"is_reserved":false,"is_disabled":false,"rental_uris":{"android":"levelo://app?vid=f5a5ab0f-5796-48bd-acca-c9f744318380","ios":"levelo://app?vid=f5a5ab0f-5796-48bd-acca-c9f744318380"},"vehicle_type_id":"4","last_reported":1781197807,"current_range_meters":7200,"station_id":"ce4bho12rcd13ifvqh2g","pricing_plan_id":"cebpf4jnsgd1na2vs0mg"},{"bike_id":"a8cff10f-925f-47d3-8d2a-4913d17e9425","system_id":"levelo_inurba_marseille","lat":43.30246,"lon":5.40036,"is_reserved":false,"is_disabled":true,"rental_uris":{"android":"levelo://app?vid=a8cff10f-925f-47d3-8d2a-4913d17e9425","ios":"levelo://app?vid=a8cff10f-925f-47d3-8d2a-4913d17e9425"},"vehicle_type_id":"4","last_reported":1781197807,"current_range_meters":8000,"station_id":"ce4bgvh2rcd13ifvqcs0","pricing_plan_id":"cebpf4jnsgd1na2vs0mg"},{"bike_id":"06667cc3-d524-4e6b-85b7-e9f231cd5446","system_id":"levelo_inurba_marseille","lat":43.29535,"lon":5.38545,"is_reserved":false,"is_disabled":false,"rental_uris":{"android":"levelo://app?vid=06667cc3-d524-4e6b-85b7-e9f231cd5446","ios":"levelo://app?vid=06667cc3-d524-4e6b-85b7-e9f231cd5446"},"vehicle_type_id":"4","last_reported":1781197807,"current_range_meters":8000,"station_id":"ce4bgih2rcd13ifvqba0","pricing_plan_id":"cebpf4jnsgd1na2vs0mg"},{"bike_id":"1c2a1b5b-c049-4e5c-b1d0-b40ecc795b35","system_id":"levelo_inurba_marseille","lat":43.23003,"lon":5.43687,"is_reserved":false,"is_disabled":false,"rental_uris":{"android":"levelo://app?vid=1c2a1b5b-c049-4e5c-b1d0-b40ecc795b35","ios":"levelo://app?vid=1c2a1b5b-c049-4e5c-b1d0-b40ecc795b35"},"vehicle_type_id":"4","last_reported":1781197807,"current_range_meters":8000,"station_id":"","pricing_plan_id":"cebpf4jnsgd1na2vs0mg"},{"bike_id":"70eaaf10-991d-4235-857f-4132c8289c1e","system_id":"levelo_inurba_marseille","lat":43.25514,"lon":5.37658,"is_reserved":false,"is_disabled":false,"rental_uris":{"android":"levelo://app?vid=70eaaf10-991d-4235-857f-4132c8289c1e","ios":"levelo://app?vid=70eaaf10-991d-4235-857f-4132c8289c1e"},"vehicle_type_id":"4","last_reported":1781197807,"current_range_meters":8000,"station_id":"ce4bhh12rcd13ifvqff0","pricing_plan_id":"cebpf4jnsgd1na2vs0mg"},{"bike_id":"59d963d0-d1fe-483b-80d5-41df37ab3e9b","system_id":"levelo_inurba_marseille","lat":43.25563,"lon":5.38251,"is_reserved":false,"is_disabled":false,"rental_uris":{"android":"levelo://app?vid=59d963d0-d1fe-483b-80d5-41df37ab3e9b","ios":"levelo://app?vid=59d963d0-d1fe-483b-80d5-41df37ab3e9b"},"vehicle_type_id":"4","last_reported":1781197807,"current_range_meters":8000,"station_id":"ce4bhih2rcd13ifvqfs0","pricing_plan_id":"cebpf4jnsgd1na2vs0mg"},{"bike_id":"8b68988e-9815-49c3-8ffe-7f55ebdc9aa2","system_id":"levelo_inurba_marseille","lat":43.29866,"lon":5.39714,"is_reserved":false,"is_disabled":false,"rental_uris":{"android":"levelo://app?vid=8b68988e-9815-49c3-8ffe-7f55ebdc9aa2","ios":"levelo://app?vid=8b68988e-9815-49c3-8ffe-7f55ebdc9aa2"},"vehicle_type_id":"4","last_reported":1781197807,"current_range_meters":8000,"station_id":"ce4bh0h2rcd13ifvqd50","pricing_plan_id":"cebpf4jnsgd1na2vs0mg"},{"bike_id":"315d3cd3-9556-47d2-bf87-42573b9faa84","system_id":"levelo_inurba_marseille","lat":43.29899,"lon":5.38371,"is_reserved":false,"is_disabled":false,"rental_uris":{"android":"levelo://app?vid=315d3cd3-9556-47d2-bf87-42573b9faa84","ios":"levelo://app?vid=315d3cd3-9556-47d2-bf87-42573b9faa84"},"vehicle_type_id":"4","last_reported":1781197807,"current_range_meters":8000,"station_id":"","pricing_plan_id":"cebpf4jnsgd1na2vs0mg"},{"bike_id":"e76b8826-608a-43d5-84ee-3eea9bc7666f","system_id":"levelo_inurba_marseille","lat":43.28448,"lon":5.39572,"is_reserved":false,"is_disabled":false,"rental_uris":{"android":"levelo://app?vid=e76b8826-608a-43d5-84ee-3eea9bc7666f","ios":"levelo://app?vid=e76b8826-608a-43d5-84ee-3eea9bc7666f"},"vehicle_type_id":"4","last_reported":1781197807,"current_range_meters":8000,"station_id":"","pricing_plan_id":"cebpf4jnsgd1na2vs0mg"},{"bike_id":"e47dfd39-5c0c-45eb-a41f-cf3fd7d5df32","system_id":"levelo_inurba_marseille","lat":43.28958,"lon":5.46089,"is_reserved":false,"is_disabled":true,"rental_uris":{"android":"levelo://app?vid=e47dfd39-5c0c-45eb-a41f-cf3fd7d5df32","ios":"levelo://app?vid=e47dfd39-5c0c-45eb-a41f-cf3fd7d5df32"},"vehicle_type_id":"4","last_reported":1781197807,"current_range_meters":8000,"station_id":"","pricing_plan_id":"cebpf4jnsgd1na2vs0mg"},{"bike_id":"14308449-0dbe-45aa-a61a-4feced6ded38","system_id":"levelo_inurba_marseille","lat":43.28727,"lon":5.37933,"is_reserved":false,"is_disabled":false,"rental_uris":{"android":"levelo://app?vid=14308449-0dbe-45aa-a61a-4feced6ded38","ios":"levelo://app?vid=14308449-0dbe-45aa-a61a-4feced6ded38"},"vehicle_type_id":"4","last_reported":1781197807,"current_range_meters":8000,"station_id":"ce4bh9p2rcd13ifvqec0","pricing_plan_id":"cebpf4jnsgd1na2vs0mg"},{"bike_id":"52716c02-83b1-4a05-9eb2-0620f56d974b","system_id":"levelo_inurba_marseille","lat":43.28624,"lon":5.35105,"is_reserved":false,"is_disabled":false,"rental_uris":{"android":"levelo://app?vid=52716c02-83b1-4a05-9eb2-0620f56d974b","ios":"levelo://app?vid=52716c02-83b1-4a05-9eb2-0620f56d974b"},"vehicle_type_id":"4","last_reported":1781197807,"current_range_meters":8000,"station_id":"ce4bhch2rcd13ifvqeug","pricing_plan_id":"cebpf4jnsgd1na2vs0mg"},{"bike_id":"017e1eac-cffb-4346-8fbc-29896656e102","system_id":"levelo_inurba_marseille","lat":43.28572,"lon":5.39505,"is_reserved":false,"is_disabled":false,"rental_uris":{"android":"levelo://app?vid=017e1eac-cffb-4346-8fbc-29896656e102","ios":"levelo://app?vid=017e1eac-cffb-4346-8fbc-29896656e102"},"vehicle_type_id":"4","last_reported":1781197807,"current_range_meters":8000,"station_id":"ce4bh292rcd13ifvqdg0","pricing_plan_id":"cebpf4jnsgd1na2vs0mg"},{"bike_id":"b6d507f5-c915-4915-8d1e-3c84726370da","system_id":"levelo_inurba_marseille","lat":43.32112,"lon":5.36759,"is_reserved":false,"is_disabled":false,"rental_uris":{"android":"levelo://app?vid=b6d507f5-c915-4915-8d1e-3c84726370da","ios":"levelo://app?vid=b6d507f5-c915-4915-8d1e-3c84726370da"},"vehicle_type_id":"4","last_reported":1781197807,"current_range_meters":8000,"station_id":"ce4bhrh2rcd13ifvqhug","pricing_plan_id":"cebpf4jnsgd1na2vs0mg"},{"bike_id":"f63e0e69-6a54-4e19-8d8e-f67680de3ed1","system_id":"levelo_inurba_marseille","lat":43.24643,"lon":5.4316,"is_reserved":false,"is_disabled":false,"rental_uris":{"android":"levelo://app?vid=f63e0e69-6a54-4e19-8d8e-f67680de3ed1","ios":"levelo://app?vid=f63e0e69-6a54-4e19-8d8e-f67680de3ed1"},"vehicle_type_id":"4","last_reported":1781197807,"current_range_meters":8000,"station_id":"st_d2m6c4gdas8pm72e190g","pricing_plan_id":"cebpf4jnsgd1na2vs0mg"},{"bike_id":"44db3cc5-4513-4364-9997-6be5a1a3518c","system_id":"levelo_inurba_marseille","lat":43.30905,"lon":5.36851,"is_reserved":false,"is_disabled":false,"rental_uris":{"android":"levelo://app?vid=44db3cc5-4513-4364-9997-6be5a1a3518c","ios":"levelo://app?vid=44db3cc5-4513-4364-9997-6be5a1a3518c"},"vehicle_type_id":"4","last_reported":1781197807,"current_range_meters":8000,"station_id":"ce4bgn92rcd13ifvqbvg","pricing_plan_id":"cebpf4jnsgd1na2vs0mg"},{"bike_id":"f5e9febd-6634-4f01-a9e2-02e0474362af","system_id":"levelo_inurba_marseille","lat":43.28939,"lon":5.36388,"is_reserved":false,"is_disabled":false,"rental_uris":{"android":"levelo://app?vid=f5e9febd-6634-4f01-a9e2-02e0474362af","ios":"levelo://app?vid=f5e9febd-6634-4f01-a9e2-02e0474362af"},"vehicle_type_id":"4","last_reported":1781197807,"current_range_meters":8000,"station_id":"ce4bhc92rcd13ifvqetg","pricing_plan_id":"cebpf4jnsgd1na2vs0mg"},{"bike_id":"c93c5c3d-0399-41f2-9364-8579b4d871cd","system_id":"levelo_inurba_marseille","lat":43.24007,"lon":5.3628,"is_reserved":false,"is_disabled":false,"rental_uris":{"android":"levelo://app?vid=c93c5c3d-0399-41f2-9364-8579b4d871cd","ios":"levelo://app?vid=c93c5c3d-0399-41f2-9364-8579b4d871cd"},"vehicle_type_id":"4","last_reported":1781197807,"current_range_meters":8000,"station_id":"","pricing_plan_id":"cebpf4jnsgd1na2vs0mg"},{"bike_id":"1b40dc04-77e2-4947-b2af-2f79fe1834e3","system_id":"levelo_inurba_marseille","lat":43.289351,"lon":5.36639,"is_reserved":false,"is_disabled":false,"rental_uris":{"android":"levelo://app?vid=1b40dc04-77e2-4947-b2af-2f79fe1834e3","ios":"levelo://app?vid=1b40dc04-77e2-4947-b2af-2f79fe1834e3"},"vehicle_type_id":"4","last_reported":1781197807,"current_range_meters":8000,"station_id":"ce4bhap2rcd13ifvqek0","pricing_plan_id":"cebpf4jnsgd1na2vs0mg"},{"bike_id":"f165abb2-7744-4ffb-b278-55e94862d529","system_id":"levelo_inurba_marseille","lat":43.25556,"lon":5.39165,"is_reserved":false,"is_disabled":false,"rental_uris":{"android":"levelo://app?vid=f165abb2-7744-4ffb-b278-55e94862d529","ios":"levelo://app?vid=f165abb2-7744-4ffb-b278-55e94862d529"},"vehicle_type_id":"4","last_reported":1781197807,"current_range_meters":8000,"station_id":"","pricing_plan_id":"cebpf4jnsgd1na2vs0mg"},{"bike_id":"0b3dff6b-0444-44f0-8bb8-a5d1fe2145d1","system_id":"levelo_inurba_marseille","lat":43.29082,"lon":5.38148,"is_reserved":false,"is_disabled":false,"rental_uris":{"android":"levelo://app?vid=0b3dff6b-0444-44f0-8bb8-a5d1fe2145d1","ios":"levelo://app?vid=0b3dff6b-0444-44f0-8bb8-a5d1fe2145d1"},"vehicle_type_id":"4","last_reported":1781197807,"current_range_meters":8000,"station_id":"ce4bh512rcd13ifvqe2g","pricing_plan_id":"cebpf4jnsgd1na2vs0mg"},{"bike_id":"2507d607-3822-4c87-a669-ab9b0690fc01","system_id":"levelo_inurba_marseille","lat":43.28606,"lon":5.35106,"is_reserved":false,"is_disabled":false,"rental_uris":{"android":"levelo://app?vid=2507d607-3822-4c87-a669-ab9b0690fc01","ios":"levelo://app?vid=2507d607-3822-4c87-a669-ab9b0690fc01"},"vehicle_type_id":"4","last_reported":1781197807,"current_range_meters":8000,"station_id":"ce4bhch2rcd13ifvqeug","pricing_plan_id":"cebpf4jnsgd1na2vs0mg"},{"bike_id":"e9ce25b8-b480-4907-8ce1-b8aecfbb3105","system_id":"levelo_inurba_marseille","lat":43.3234,"lon":5.36743,"is_reserved":false,"is_disabled":false,"rental_uris":{"android":"levelo://app?vid=e9ce25b8-b480-4907-8ce1-b8aecfbb3105","ios":"levelo://app?vid=e9ce25b8-b480-4907-8ce1-b8aecfbb3105"},"vehicle_type_id":"4","last_reported":1781197807,"current_range_meters":8000,"station_id":"ce4bhsh2rcd13ifvqi2g","pricing_plan_id":"cebpf4jnsgd1na2vs0mg"},{"bike_id":"154a4988-c768-4d61-b1b6-de5533699c92","system_id":"levelo_inurba_marseille","lat":43.25334,"lon":5.42158,"is_reserved":false,"is_disabled":false,"rental_uris":{"android":"levelo://app?vid=154a4988-c768-4d61-b1b6-de5533699c92","ios":"levelo://app?vid=154a4988-c768-4d61-b1b6-de5533699c92"},"vehicle_type_id":"4","last_reported":1781197807,"current_range_meters":8000,"station_id":"st_d2m65c5bi1j21697t3ng","pricing_plan_id":"cebpf4jnsgd1na2vs0mg"},{"bike_id":"edd7f6cf-c00d-4334-ba4f-ddda86c6a12e","system_id":"levelo_inurba_marseille","lat":43.3029,"lon":5.37644,"is_reserved":false,"is_disabled":false,"rental_uris":{"android":"levelo://app?vid=edd7f6cf-c00d-4334-ba4f-ddda86c6a12e","ios":"levelo://app?vid=edd7f6cf-c00d-4334-ba4f-ddda86c6a12e"},"vehicle_type_id":"4","last_reported":1781197807,"current_range_meters":8000,"station_id":"","pricing_plan_id":"cebpf4jnsgd1na2vs0mg"},{"bike_id":"0193df8e-e671-4439-b878-059ede893bd0","system_id":"levelo_inurba_marseille","lat":43.24654,"lon":5.38177,"is_reserved":false,"is_disabled":false,"rental_uris":{"android":"levelo://app?vid=0193df8e-e671-4439-b878-059ede893bd0","ios":"levelo://app?vid=0193df8e-e671-4439-b878-059ede893bd0"},"vehicle_type_id":"4","last_reported":1781197807,"current_range_meters":8000,"station_id":"ce4bhih2rcd13ifvqfr0","pricing_plan_id":"cebpf4jnsgd1na2vs0mg"},{"bike_id":"3a44773b-a64a-45f6-9197-56969bf49878","system_id":"levelo_inurba_marseille","lat":43.29702,"lon":5.3704,"is_reserved":false,"is_disabled":false,"rental_uris":{"android":"levelo://app?vid=3a44773b-a64a-45f6-9197-56969bf49878","ios":"levelo://app?vid=3a44773b-a64a-45f6-9197-56969bf49878"},"vehicle_type_id":"4","last_reported":1781197807,"current_range_meters":8000,"station_id":"","pricing_plan_id":"cebpf4jnsgd1na2vs0mg"},{"bike_id":"b02cdffe-9f65-4666-8020-2150e9d5e172","system_id":"levelo_inurba_marseille","lat":43.30425,"lon":5.39728,"is_reserved":false,"is_disabled":false,"rental_uris":{"android":"levelo://app?vid=b02cdffe-9f65-4666-8020-2150e9d5e172","ios":"levelo://app?vid=b02cdffe-9f65-4666-8020-2150e9d5e172"},"vehicle_type_id":"4","last_reported":1781197807,"current_range_meters":8000,"station_id":"ce4bh092rcd13ifvqd20","pricing_plan_id":"cebpf4jnsgd1na2vs0mg"},{"bike_id":"72ebc911-855a-48d2-b663-2ba2aa4538e9","system_id":"levelo_inurba_marseille","lat":43.26562,"lon":5.39023,"is_reserved":false,"is_disabled":false,"rental_uris":{"android":"levelo://app?vid=72ebc911-855a-48d2-b663-2ba2aa4538e9","ios":"levelo://app?vid=72ebc911-855a-48d2-b663-2ba2aa4538e9"},"vehicle_type_id":"4","last_reported":1781197807,"current_range_meters":8000,"station_id":"ce4bhe12rcd13ifvqf30","pricing_plan_id":"cebpf4jnsgd1na2vs0mg"},