{"last_updated":1726157428,"ttl":30,"version":"2.2","data":{"bikes":[{"bike_id":"2ca2fd52-6283-4397-ac7e-8db28b0c8f78","system_id":"levelo_inurba_marseille","lat":43.23198,"lon":5.35544,"is_reserved":false,"is_disabled":false,"rental_uris":{"android":"levelo://app?vid=2ca2fd52-6283-4397-ac7e-8db28b0c8f78","ios":"levelo://app?vid=2ca2fd52-6283-4397-ac7e-8db28b0c8f78"},"vehicle_type_id":"4","last_reported":1726157428,"current_range_meters":17200,"station_id":"ce4bhu92rcd13ifvqi70","pricing_plan_id":"cebpf4jnsgd1na2vs0mg"},{"bike_id":"9b633d55-16bf-493b-aaf9-bf563c4bdace","system_id":"levelo_inurba_marseille","lat":43.28474,"lon":5.35897,"is_reserved":false,"is_disabled":false,"rental_uris":{"android":"levelo://app?vid=9b633d55-16bf-493b-aaf9-bf563c4bdace","ios":"levelo://app?vid=9b633d55-16bf-493b-aaf9-bf563c4bdace"},"vehicle_type_id":"4","last_reported":1726157428,"current_range_meters":21600,"station_id":"ce4bhah2rcd13ifvqei0","pricing_plan_id":"cebpf4jnsgd1na2vs0mg"},{"bike_id":"4b734f86-0ef7-4988-a4d9-48ef903ff75e","system_id":"levelo_inurba_marseille","lat":43.28355,"lon":5.38617,"is_reserved":false,"is_disabled":false,"rental_uris":{"android":"levelo://app?vid=4b734f86-0ef7-4988-a4d9-48ef903ff75e","ios":"levelo://app?vid=4b734f86-0ef7-4988-a4d9-48ef903ff75e"},"vehicle_type_id":"4","last_reported":1726157428,"current_range_meters":28800,"station_id":"ce4bh492rcd13ifvqdvg","pricing_plan_id":"cebpf4jnsgd1na2vs0mg"},{"bike_id":"1a316ad0-e134-45f8-b3e3-f29478e77e97","system_id":"levelo_inurba_marseille","lat":43.29913,"lon":5.38137,"is_reserved":false,"is_disabled":false,"rental_uris":{"android":"levelo://app?vid=1a316ad0-e134-45f8-b3e3-f29478e77e97","ios":"levelo://app?vid=1a316ad0-e134-45f8-b3e3-f29478e77e97"},"vehicle_type_id":"4","last_reported":1726157428,"current_range_meters":5600,"station_id":"ce4bgj12rcd13ifvqbc0","pricing_plan_id":"cebpf4jnsgd1na2vs0mg"},{"bike_id":"ae8c7bd4-e320-4650-aaec-5acdea38c512","system_id":"levelo_inurba_marseille","lat":43.28032,"lon":5.38678,"is_reserved":false,"is_disabled":false,"rental_uris":{"android":"levelo://app?vid=ae8c7bd4-e320-4650-aaec-5acdea38c512","ios":"levelo://app?vid=ae8c7bd4-e320-4650-aaec-5acdea38c512"},"vehicle_type_id":"4","last_reported":1726157428,"current_range_meters":24800,"station_id":"","pricing_plan_id":"cebpf4jnsgd1na2vs0mg"},{"bike_id":"4559dba1-b0cb-4c88-804d-ea24100e4a9a","system_id":"levelo_inurba_marseille","lat":43.29202,"lon":5.39312,"is_reserved":false,"is_disabled":false,"rental_uris":{"android":"levelo://app?vid=4559dba1-b0cb-4c88-804d-ea24100e4a9a","ios":"levelo://app?vid=4559dba1-b0cb-4c88-804d-ea24100e4a9a"},"vehicle_type_id":"4","last_reported":1726157428,"current_range_meters":13600,"station_id":"ce4bh192rcd13ifvqdd0","pricing_plan_id":"cebpf4jnsgd1na2vs0mg"},{"bike_id":"5719a3e9-cc5b-4f9a-80eb-ef485afc34c1","system_id":"levelo_inurba_marseille","lat":43.28268,"lon":5.35084,"is_reserved":false,"is_disabled":false,"rental_uris":{"android":"levelo://app?vid=5719a3e9-cc5b-4f9a-80eb-ef485afc34c1","ios":"levelo://app?vid=5719a3e9-cc5b-4f9a-80eb-ef485afc34c1"},"vehicle_type_id":"4","last_reported":1726157428,"current_range_meters":12000,"station_id":"ce4bhbp2rcd13ifvqerg","pricing_plan_id":"cebpf4jnsgd1na2vs0mg"},{"bike_id":"734cfc93-9406-4004-a9bc-fc2955def429","system_id":"levelo_inurba_marseille","lat":43.31761,"lon":5.39024,"is_reserved":false,"is_disabled":false,"rental_uris":{"android":"levelo://app?vid=734cfc93-9406-4004-a9bc-fc2955def429","ios":"levelo://app?vid=734cfc93-9406-4004-a9bc-fc2955def429"},"vehicle_type_id":"4","last_reported":1726157428,"current_range_meters":19200,"station_id":"ce4bhqp2rcd13ifvqhng","pricing_plan_id":"cebpf4jnsgd1na2vs0mg"},{"bike_id":"7af558d3-8aef-446c-9435-4b586807eed0","system_id":"levelo_inurba_marseille","lat":43.30795,"lon":5.38137,"is_reserved":false,"is_disabled":false,"rental_uris":{"android":"levelo://app?vid=7af558d3-8aef-446c-9435-4b586807eed0","ios":"levelo://app?vid=7af558d3-8aef-446c-9435-4b586807eed0"},"vehicle_type_id":"4","last_reported":1726157428,"current_range_meters":2800,"station_id":"ce4bgt12rcd13ifvqce0","pricing_plan_id":"cebpf4jnsgd1na2vs0mg"},{"bike_id":"92263f01-9ac4-42e4-9666-8246c483ae1a","system_id":"levelo_inurba_marseille","lat":43.24652,"lon":5.3889,"is_reserved":false,"is_disabled":false,"rental_uris":{"android":"levelo://app?vid=92263f01-9ac4-42e4-9666-8246c483ae1a","ios":"levelo://app?vid=92263f01-9ac4-42e4-9666-8246c483ae1a"},"vehicle_type_id":"4","last_reported":1726157428,"current_range_meters":14800,"station_id":"ce4bhg12rcd13ifvqf60","pricing_plan_id":"cebpf4jnsgd1na2vs0mg"},{"bike_id":"650e4e07-d530-477d-ab84-1854aa2fc4d8","system_id":"levelo_inurba_marseille","lat":43.2904,"lon":5.3996,"is_reserved":false,"is_disabled":false,"rental_uris":{"android":"levelo://app?vid=650e4e07-d530-477d-ab84-1854aa2fc4d8","ios":"levelo://app?vid=650e4e07-d530-477d-ab84-1854aa2fc4d8"},"vehicle_type_id":"4","last_reported":1726157428,"current_range_meters":7200,"station_id":"ce4bh392rcd13ifvqdm0","pricing_plan_id":"cebpf4jnsgd1na2vs0mg"},{"bike_id":"9afc9927-d8ed-4e6f-8327-dc9f0dbb025b","system_id":"levelo_inurba_marseille","lat":43.29335,"lon":5.38583,"is_reserved":false,"is_disabled":false,"rental_uris":{"android":"levelo://app?vid=9afc9927-d8ed-4e6f-8327-dc9f0dbb025b","ios":"levelo://app?vid=9afc9927-d8ed-4e6f-8327-dc9f0dbb025b"},"vehicle_type_id":"4","last_reported":1726157428,"current_range_meters":4800,"station_id":"","pricing_plan_id":"cebpf4jnsgd1na2vs0mg"},{"bike_id":"59d8d392-500f-483b-a76f-0a7099f3fc1d","system_id":"levelo_inurba_marseille","lat":43.28931,"lon":5.38395,"is_reserved":false,"is_disabled":false,"rental_uris":{"android":"levelo://app?vid=59d8d392-500f-483b-a76f-0a7099f3fc1d","ios":"levelo://app?vid=59d8d392-500f-483b-a76f-0a7099f3fc1d"},"vehicle_type_id":"4","last_reported":1726157428,"current_range_meters":20800,"station_id":"ce4bh612rcd13ifvqe6g","pricing_plan_id":"cebpf4jnsgd1na2vs0mg"},{"bike_id":"13ec4916-f0ea-4897-8afc-596425b42c42","system_id":"levelo_inurba_marseille","lat":43.2319,"lon":5.35541,"is_reserved":false,"is_disabled":false,"rental_uris":{"android":"levelo://app?vid=13ec4916-f0ea-4897-8afc-596425b42c42","ios":"levelo://app?vid=13ec4916-f0ea-4897-8afc-596425b42c42"},"vehicle_type_id":"4","last_reported":1726157428,"current_range_meters":34000,"station_id":"ce4bhu92rcd13ifvqi70","pricing_plan_id":"cebpf4jnsgd1na2vs0mg"},{"bike_id":"da3d8083-0db6-4723-b7e4-1d5bec0e2ae7","system_id":"levelo_inurba_marseille","lat":43.28433,"lon":5.39192,"is_reserved":false,"is_disabled":false,"rental_uris":{"android":"levelo://app?vid=da3d8083-0db6-4723-b7e4-1d5bec0e2ae7","ios":"levelo://app?vid=da3d8083-0db6-4723-b7e4-1d5bec0e2ae7"},"vehicle_type_id":"4","last_reported":1726157428,"current_range_meters":30000,"station_id":"ce4bhoh2rcd13ifvqh5g","pricing_plan_id":"cebpf4jnsgd1na2vs0mg"},{"bike_id":"a59d64a6-0c90-478e-8726-6eda2f84c2f7","system_id":"levelo_inurba_marseille","lat":43.254905,"lon":5.374162,"is_reserved":false,"is_disabled":false,"rental_uris":{"android":"levelo://app?vid=a59d64a6-0c90-478e-8726-6eda2f84c2f7","ios":"levelo://app?vid=a59d64a6-0c90-478e-8726-6eda2f84c2f7"},"vehicle_type_id":"4","last_reported":1726157428,"current_range_meters":6800,"station_id":"ce4bhgh2rcd13ifvqfa0","pricing_plan_id":"cebpf4jnsgd1na2vs0mg"},{"bike_id":"acd8a3d5-a9db-4ea3-b234-2a790cfd605a","system_id":"levelo_inurba_marseille","lat":43.23964,"lon":5.36625,"is_reserved":false,"is_disabled":false,"rental_uris":{"android":"levelo://app?vid=acd8a3d5-a9db-4ea3-b234-2a790cfd605a","ios":"levelo://app?vid=acd8a3d5-a9db-4ea3-b234-2a790cfd605a"},"vehicle_type_id":"4","last_reported":1726157428,"current_range_meters":20000,"station_id":"ce4bhi12rcd13ifvqfp0","pricing_plan_id":"cebpf4jnsgd1na2vs0mg"},{"bike_id":"a44d6438-9a8f-499a-ad31-c6c562623f03","system_id":"levelo_inurba_marseille","lat":43.28613,"lon":5.35101,"is_reserved":false,"is_disabled":false,"rental_uris":{"android":"levelo://app?vid=a44d6438-9a8f-499a-ad31-c6c562623f03","ios":"levelo://app?vid=a44d6438-9a8f-499a-ad31-c6c562623f03"},"vehicle_type_id":"4","last_reported":1726157428,"current_range_meters":19600,"station_id":"ce4bhch2rcd13ifvqeug","pricing_plan_id":"cebpf4jnsgd1na2vs0mg"},{"bike_id":"ee5bd0a5-1257-48de-9343-ea8521c36cdd","system_id":"levelo_inurba_marseille","lat":43.23194,"lon":5.35552,"is_reserved":false,"is_disabled":false,"rental_uris":{"android":"levelo://app?vid=ee5bd0a5-1257-48de-9343-ea8521c36cdd","ios":"levelo://app?vid=ee5bd0a5-1257-48de-9343-ea8521c36cdd"},"vehicle_type_id":"4","last_reported":1726157428,"current_range_meters":8000,"station_id":"ce4bhu92rcd13ifvqi70","pricing_plan_id":"cebpf4jnsgd1na2vs0mg"},{"bike_id":"995d3a7e-289e-4ebd-b785-9d2da426ad57","system_id":"levelo_inurba_marseille","lat":43.23196,"lon":5.35548,"is_reserved":false,"is_disabled":false,"rental_uris":{"android":"levelo://app?vid=995d3a7e-289e-4ebd-b785-9d2da426ad57","ios":"levelo://app?vid=995d3a7e-289e-4ebd-b785-9d2da426ad57"},"vehicle_type_id":"4","last_reported":1726157428,"current_range_meters":28400,"station_id":"ce4bhu92rcd13ifvqi70","pricing_plan_id":"cebpf4jnsgd1na2vs0mg"},{"bike_id":"74c67d55-8a5f-40c9-8066-d68354718f8c","system_id":"levelo_inurba_marseille","lat":43.23188,"lon":5.35551,"is_reserved":false,"is_disabled":false,"rental_uris":{"android":"levelo://app?vid=74c67d55-8a5f-40c9-8066-d68354718f8c","ios":"levelo://app?vid=74c67d55-8a5f-40c9-8066-d68354718f8c"},"vehicle_type_id":"4","last_reported":1726157428,"current_range_meters":30800,"station_id":"ce4bhu92rcd13ifvqi70","pricing_plan_id":"cebpf4jnsgd1na2vs0mg"},{"bike_id":"86a397a5-5a46-427a-884b-f528ef77038a","system_id":"levelo_inurba_marseille","lat":43.28616,"lon":5.351,"is_reserved":false,"is_disabled":false,"rental_uris":{"android":"levelo://app?vid=86a397a5-5a46-427a-884b-f528ef77038a","ios":"levelo://app?vid=86a397a5-5a46-427a-884b-f528ef77038a"},"vehicle_type_id":"4","last_reported":1726157428,"current_range_meters":16400,"station_id":"ce4bhch2rcd13ifvqeug","pricing_plan_id":"cebpf4jnsgd1na2vs0mg"},{"bike_id":"0996fe95-784c-4bc8-bc04-5f026d9db188","system_id":"levelo_inurba_marseille","lat":43.3302,"lon":5.39029,"is_reserved":false,"is_disabled":false,"rental_uris":{"android":"levelo://app?vid=0996fe95-784c-4bc8-bc04-5f026d9db188","ios":"levelo://app?vid=0996fe95-784c-4bc8-bc04-5f026d9db188"},"vehicle_type_id":"4","last_reported":1726157428,"current_range_meters":25200,"station_id":"ce4bhr92rcd13ifvqhrg","pricing_plan_id":"cebpf4jnsgd1na2vs0mg"},{"bike_id":"12ab67fc-3193-4e29-bf33-053d347db09d","system_id":"levelo_inurba_marseille","lat":43.25585,"lon":5.38232,"is_reserved":false,"is_disabled":false,"rental_uris":{"android":"levelo://app?vid=12ab67fc-3193-4e29-bf33-053d347db09d","ios":"levelo://app?vid=12ab67fc-3193-4e29-bf33-053d347db09d"},"vehicle_type_id":"4","last_reported":1726157428,"current_range_meters":13600,"station_id":"ce4bhih2rcd13ifvqfs0","pricing_plan_id":"cebpf4jnsgd1na2vs0mg"},{"bike_id":"ef499256-3ecd-4012-8734-0d0bd48b0863","system_id":"levelo_inurba_marseille","lat":43.28156,"lon":5.42647,"is_reserved":false,"is_disabled":false,"rental_uris":{"android":"levelo://app?vid=ef499256-3ecd-4012-8734-0d0bd48b0863","ios":"levelo://app?vid=ef499256-3ecd-4012-8734-0d0bd48b0863"},"vehicle_type_id":"4","last_reported":1726157428,"current_range_meters":16400,"station_id":"ce4bhnh2rcd13ifvqgug","pricing_plan_id":"cebpf4jnsgd1na2vs0mg"},{"bike_id":"36bdcafa-5258-4d82-894c-0af17c11cce1","system_id":"levelo_inurba_marseille","lat":43.29599,"lon":5.38098,"is_reserved":false,"is_disabled":false,"rental_uris":{"android":"levelo://app?vid=36bdcafa-5258-4d82-894c-0af17c11cce1","ios":"levelo://app?vid=36bdcafa-5258-4d82-894c-0af17c11cce1"},"vehicle_type_id":"4","last_reported":1726157428,"current_range_meters":2800,"station_id":"ce4bgl12rcd13ifvqbo0","pricing_plan_id":"cebpf4jnsgd1na2vs0mg"},{"bike_id":"f95797f5-d9ec-45fc-9ec0-12f334cd7cab","system_id":"levelo_inurba_marseille","lat":43.29031,"lon":5.3864,"is_reserved":false,"is_disabled":false,"rental_uris":{"android":"levelo://app?vid=f95797f5-d9ec-45fc-9ec0-12f334cd7cab","ios":"levelo://app?vid=f95797f5-d9ec-45fc-9ec0-12f334cd7cab"},"vehicle_type_id":"4","last_reported":1726157428,"current_range_meters":20800,"station_id":"ce4bh4p2rcd13ifvqe0g","pricing_plan_id":"cebpf4jnsgd1na2vs0mg"},{"bike_id":"a41d64cd-c173-465d-9c1c-9361adf830bd","system_id":"levelo_inurba_marseille","lat":43.28607,"lon":5.37055,"is_reserved":false,"is_disabled":false,"rental_uris":{"android":"levelo://app?vid=a41d64cd-c173-465d-9c1c-9361adf830bd","ios":"levelo://app?vid=a41d64cd-c173-465d-9c1c-9361adf830bd"},"vehicle_type_id":"4","last_reported":1726157428,"current_range_meters":8800,"station_id":"ce4bht12rcd13ifvqi60","pricing_plan_id":"cebpf4jnsgd1na2vs0mg"},{"bike_id":"8d6d4259-42bc-48a3-8f7d-ea0d3803efc9","system_id":"levelo_inurba_marseille","lat":43.31336,"lon":5.39689,"is_reserved":false,"is_disabled":false,"rental_uris":{"android":"levelo://app?vid=8d6d4259-42bc-48a3-8f7d-ea0d3803efc9","ios":"levelo://app?vid=8d6d4259-42bc-48a3-8f7d-ea0d3803efc9"},"vehicle_type_id":"4","last_reported":1726157428,"current_range_meters":36000,"station_id":"ce4bgvp2rcd13ifvqcu0","pricing_plan_id":"cebpf4jnsgd1na2vs0mg"},{"bike_id":"d54209f6-3398-4e00-8b3a-a3ed0a88f3b6","system_id":"levelo_inurba_marseille","lat":43.24557,"lon":5.37325,"is_reserved":false,"is_disabled":false,"rental_uris":{"android":"levelo://app?vid=d54209f6-3398-4e00-8b3a-a3ed0a88f3b6","ios":"levelo://app?vid=d54209f6-3398-4e00-8b3a-a3ed0a88f3b6"},"vehicle_type_id":"4","last_reported":1726157428,"current_range_meters":32800,"station_id":"","pricing_plan_id":"cebpf4jnsgd1na2vs0mg"},{"bike_id":"8f8acd34-b5ec-42d7-8eff-8a3155e32c59","system_id":"levelo_inurba_marseille","lat":43.28618,"lon":5.35103,"is_reserved":false,"is_disabled":false,"rental_uris":{"android":"levelo://app?vid=8f8acd34-b5ec-42d7-8eff-8a3155e32c59","ios":"levelo://app?vid=8f8acd34-b5ec-42d7-8eff-8a3155e32c59"},"vehicle_type_id":"4","last_reported":1726157428,"current_range_meters":28400,"station_id":"ce4bhch2rcd13ifvqeug","pricing_plan_id":"cebpf4jnsgd1na2vs0mg"},{"bike_id":"ef30abd7-9e15-4d74-8be0-e6a81613bcff","system_id":"levelo_inurba_marseille","lat":43.291901,"lon":5.357998,"is_reserved":false,"is_disabled":false,"rental_uris":{"android":"levelo://app?vid=ef30abd7-9e15-4d74-8be0-e6a81613bcff","ios":"levelo://app?vid=ef30abd7-9e15-4d74-8be0-e6a81613bcff"},"vehicle_type_id":"4","last_reported":1726157428,"current_range_meters":18800,"station_id":"ce4bhb12rcd13ifvqel0","pricing_plan_id":"cebpf4jnsgd1na2vs0mg"},{"bike_id":"64ddb26d-f281-4560-9f1a-977cf9d654d6","system_id":"levelo_inurba_marseille","lat":43.2944,"lon":5.38616,"is_reserved":false,"is_disabled":false,"rental_uris":{"android":"levelo://app?vid=64ddb26d-f281-4560-9f1a-977cf9d654d6","ios":"levelo://app?vid=64ddb26d-f281-4560-9f1a-977cf9d654d6"},"vehicle_type_id":"4","last_reported":1726157428,"current_range_meters":31200,"station_id":"ce4bh2h2rcd13ifvqdh0","pricing_plan_id":"cebpf4jnsgd1na2vs0mg"},{"bike_id":"aec0beaf-526b-4120-aa2d-19e9b95e5416","system_id":"levelo_inurba_marseille","lat":43.30892,"lon":5.39632,"is_reserved":false,"is_disabled":false,"rental_uris":{"android":"levelo://app?vid=aec0beaf-526b-4120-aa2d-19e9b95e5416","ios":"levelo://app?vid=aec0beaf-526b-4120-aa2d-19e9b95e5416"},"vehicle_type_id":"4","last_reported":1726157428,"current_range_meters":21600,"station_id":"ce4bh012rcd13ifvqcv0","pricing_plan_id":"cebpf4jnsgd1na2vs0mg"},{"bike_id":"a66c1af2-a51d-400f-929c-885fc70e5a2f","system_id":"levelo_inurba_marseille","lat":43.258209,"lon":5.394437,"is_reserved":false,"is_disabled":false,"rental_uris":{"android":"levelo://app?vid=a66c1af2-a51d-400f-929c-885fc70e5a2f","ios":"levelo://app?vid=a66c1af2-a51d-400f-929c-885fc70e5a2f"},"vehicle_type_id":"4","last_reported":1726157428,"current_range_meters":8000,"station_id":"ce4bhip2rcd13ifvqft0","pricing_plan_id":"cebpf4jnsgd1na2vs0mg"},{"bike_id":"3fd95b83-0fdb-4146-a785-5a14738680ad","system_id":"levelo_inurba_marseille","lat":43.25722,"lon":5.41115,"is_reserved":false,"is_disabled":false,"rental_uris":{"android":"levelo://app?vid=3fd95b83-0fdb-4146-a785-5a14738680ad","ios":"levelo://app?vid=3fd95b83-0fdb-4146-a785-5a14738680ad"},"vehicle_type_id":"4","last_reported":1726157428,"current_range_meters":5600,"station_id":"ce4bhkp2rcd13ifvqgd0","pricing_plan_id":"cebpf4jnsgd1na2vs0mg"},{"bike_id":"d4ca384e-a23d-4802-be23-f450736c27cb","system_id":"levelo_inurba_marseille","lat":43.27904,"lon":5.38013,"is_reserved":false,"is_disabled":false,"rental_uris":{"android":"levelo://app?vid=d4ca384e-a23d-4802-be23-f450736c27cb","ios":"levelo://app?vid=d4ca384e-a23d-4802-be23-f450736c27cb"},"vehicle_type_id":"4","last_reported":1726157428,"current_range_meters":13600,"station_id":"ce4bhf92rcd13ifvqf50","pricing_plan_id":"cebpf4jnsgd1na2vs0mg"},{"bike_id":"deb66642-87df-40d6-8403-82e14024cfaa","system_id":"levelo_inurba_marseille","lat":43.26691,"lon":5.38278,"is_reserved":false,"is_disabled":false,"rental_uris":{"android":"levelo://app?vid=deb66642-87df-40d6-8403-82e14024cfaa","ios":"levelo://app?vid=deb66642-87df-40d6-8403-82e14024cfaa"},"vehicle_type_id":"4","last_reported":1726157428,"current_range_meters":12400,"station_id":"ce4bhg92rcd13ifvqf90","pricing_plan_id":"cebpf4jnsgd1na2vs0mg"},{"bike_id":"cf0c997c-6915-4342-994a-5fd8592d1202","system_id":"levelo_inurba_marseille","lat":43.2509,"lon":5.39519,"is_reserved":false,"is_disabled":false,"rental_uris":{"android":"levelo://app?vid=cf0c997c-6915-4342-994a-5fd8592d1202","ios":"levelo://app?vid=cf0c997c-6915-4342-994a-5fd8592d1202"},"vehicle_type_id":"4","last_reported":1726157428,"current_range_meters":36000,"station_id":"ce4bhm12rcd13ifvqgkg","pricing_plan_id":"cebpf4jnsgd1na2vs0mg"},{"bike_id":"0a1f63c4-8197-4edd-9c0f-886e05340093","system_id":"levelo_inurba_marseille","lat":43.26217,"lon":5.37439,"is_reserved":false,"is_disabled":false,"rental_uris":{"android":"levelo://app?vid=0a1f63c4-8197-4edd-9c0f-886e05340093","ios":"levelo://app?vid=0a1f63c4-8197-4edd-9c0f-886e05340093"},"vehicle_type_id":"4","last_reported":1726157428,"current_range_meters":36800,"station_id":"ce4bhgp2rcd13ifvqfc0","pricing_plan_id":"cebpf4jnsgd1na2vs0mg"},{"bike_id":"86b6a2b1-86a4-46ee-8c7e-90cb86d3d820","system_id":"levelo_inurba_marseille","lat":43.31334,"lon":5.397,"is_reserved":false,"is_disabled":false,"rental_uris":{"android":"levelo://app?vid=86b6a2b1-86a4-46ee-8c7e-90cb86d3d820","ios":"levelo://app?vid=86b6a2b1-86a4-46ee-8c7e-90cb86d3d820"},"vehicle_type_id":"4","last_reported":1726157428,"current_range_meters":38800,"station_id":"ce4bgvp2rcd13ifvqcu0","pricing_plan_id":"cebpf4jnsgd1na2vs0mg"},{"bike_id":"bfd227fa-67d9-4c54-8bab-187fc6fa249d","system_id":"levelo_inurba_marseille","lat":43.29659,"lon":5.37715,"is_reserved":false,"is_disabled":false,"rental_uris":{"android":"levelo://app?vid=bfd227fa-67d9-4c54-8bab-187fc6fa249d","ios":"levelo://app?vid=bfd227fa-67d9-4c54-8bab-187fc6fa249d"},"vehicle_type_id":"4","last_reported":1726157428,"current_range_meters":2000,"station_id":"ce4bgi92rcd13ifvqb90","pricing_plan_id":"cebpf4jnsgd1na2vs0mg"},{"bike_id":"789b8746-a6b1-4f98-b771-3d4750b00cdd","system_id":"levelo_inurba_marseille","lat":43.301421,"lon":5.37401,"is_reserved":false,"is_disabled":false,"rental_uris":{"android":"levelo://app?vid=789b8746-a6b1-4f98-b771-3d4750b00cdd","ios":"levelo://app?vid=789b8746-a6b1-4f98-b771-3d4750b00cdd"},"vehicle_type_id":"4","last_reported":1726157428,"current_range_meters":5600,"station_id":"ce4bgs92rcd13ifvqcc0","pricing_plan_id":"cebpf4jnsgd1na2vs0mg"},{"bike_id":"2e45f92a-11a7-4e51-9167-1a1b76df1622","system_id":"levelo_inurba_marseille","lat":43.29958,"lon":5.4132,"is_reserved":false,"is_disabled":false,"rental_uris":{"android":"levelo://app?vid=2e45f92a-11a7-4e51-9167-1a1b76df1622","ios":"levelo://app?vid=2e45f92a-11a7-4e51-9167-1a1b76df1622"},"vehicle_type_id":"4","last_reported":1726157428,"current_range_meters":20400,"station_id":"ce4bhp12rcd13ifvqh9g","pricing_plan_id":"cebpf4jnsgd1na2vs0mg"},{"bike_id":"4067cf6c-6e3d-4ac9-99bf-c1b92b69f736","system_id":"levelo_inurba_marseille","lat":43.32489,"lon":5.3656,"is_reserved":false,"is_disabled":false,"rental_uris":{"android":"levelo://app?vid=4067cf6c-6e3d-4ac9-99bf-c1b92b69f736","ios":"levelo://app?vid=4067cf6c-6e3d-4ac9-99bf-c1b92b69f736"},"vehicle_type_id":"4","last_reported":1726157428,"current_range_meters":25200,"station_id":"ce4bhs12rcd13ifvqhvg","pricing_plan_id":"cebpf4jnsgd1na2vs0mg"},{"bike_id":"289084d7-136a-4b23-8f3a-ce25f5628920","system_id":"levelo_inurba_marseille","lat":43.28731,"lon":5.36086,"is_reserved":false,"is_disabled":false,"rental_uris":{"android":"levelo://app?vid=289084d7-136a-4b23-8f3a-ce25f5628920","ios":"levelo://app?vid=289084d7-136a-4b23-8f3a-ce25f5628920"},"vehicle_type_id":"4","last_reported":1726157428,"current_range_meters":22000,"station_id":"cki0cbj6b192h4jlfktg","pricing_plan_id":"cebpf4jnsgd1na2vs0mg"},{"bike_id":"38bf01e6-5b68-48f6-890c-ce3aec8c9c38","system_id":"levelo_inurba_marseille","lat":43.28729,"lon":5.36087,"is_reserved":false,"is_disabled":false,"rental_uris":{"android":"levelo://app?vid=38bf01e6-5b68-48f6-890c-ce3aec8c9c38","ios":"levelo://app?vid=38bf01e6-5b68-48f6-890c-ce3aec8c9c38"},"vehicle_type_id":"4","last_reported":1726157428,"current_range_meters":36400,"station_id":"cki0cbj6b192h4jlfktg","pricing_plan_id":"cebpf4jnsgd1na2vs0mg"},{"bike_id":"9381fb41-da63-40e2-9541-adb576079fea","system_id":"levelo_inurba_marseille","lat":43.28404,"lon":5.37507,"is_reserved":false,"is_disabled":false,"rental_uris":{"android":"levelo://app?vid=9381fb41-da63-40e2-9541-adb576079fea","ios":"levelo://app?vid=9381fb41-da63-40e2-9541-adb576079fea"},"vehicle_type_id":"4","last_reported":1726157428,"current_range_meters":16400,"station_id":"ce4bh412rcd13ifvqds0","pricing_plan_id":"cebpf4jnsgd1na2vs0mg"},{"bike_id":"78f2321c-620e-4931-92df-aa1402eaa710","system_id":"levelo_inurba_marseille","lat":43.2594,"lon":5.40891,"is_reserved":false,"is_disabled":false,"rental_uris":{"android":"levelo://app?vid=78f2321c-620e-4931-92df-aa1402eaa710","ios":"levelo://app?vid=78f2321c-620e-4931-92df-aa1402eaa710"},"vehicle_type_id":"4","last_reported":1726157428,"current_range_meters":30400,"station_id":"","pricing_plan_id":"cebpf4jnsgd1na2vs0mg"},{"bike_id":"0aa1d0ab-53f2-4521-8ee9-a9f807a8a0bf","system_id":"levelo_inurba_marseille","lat":43.29024,"lon":5.38633,"is_reserved":false,"is_disabled":false,"rental_uris":{"android":"levelo://app?vid=0aa1d0ab-53f2-4521-8ee9-a9f807a8a0bf","ios":"levelo://app?vid=0aa1d0ab-53f2-4521-8ee9-a9f807a8a0bf"},"vehicle_type_id":"4","last_reported":1726157428,"current_range_meters":32800,"station_id":"ce4bh4p2rcd13ifvqe0g","pricing_plan_id":"cebpf4jnsgd1na2vs0mg"},{"bike_id":"b413d41f-7993-42f5-a3cc-daaaeaf22886","system_id":"levelo_inurba_marseille","lat":43.3248,"lon":5.36555,"is_reserved":false,"is_disabled":false,"rental_uris":{"android":"levelo://app?vid=b413d41f-7993-42f5-a3cc-daaaeaf22886","ios":"levelo://app?vid=b413d41f-7993-42f5-a3cc-daaaeaf22886"},"vehicle_type_id":"4","last_reported":1726157428,"current_range_meters":27200,"station_id":"ce4bhs12rcd13ifvqhvg","pricing_plan_id":"cebpf4jnsgd1na2vs0mg"},{"bike_id":"72b39f8a-cd60-4019-a980-2eeb51921fb2","system_id":"levelo_inurba_marseille","lat":43.2902,"lon":5.38121,"is_reserved":false,"is_disabled":false,"rental_uris":{"android":"levelo://app?vid=72b39f8a-cd60-4019-a980-2eeb51921fb2","ios":"levelo://app?vid=72b39f8a-cd60-4019-a980-2eeb51921fb2"},"vehicle_type_id":"4","last_reported":1726157428,"current_range_meters":30400,"station_id":"ce4bh4p2rcd13ifvqe1g","pricing_plan_id":"cebpf4jnsgd1na2vs0mg"},{"bike_id":"a246e985-ae85-4ffd-8b05-d41b14134d40","system_id":"levelo_inurba_marseille","lat":43.2942,"lon":5.38629,"is_reserved":false,"is_disabled":false,"rental_uris":{"android":"levelo://app?vid=a246e985-ae85-4ffd-8b05-d41b14134d40","ios":"levelo://app?vid=a246e985-ae85-4ffd-8b05-d41b14134d40"},"vehicle_type_id":"4","last_reported":1726157428,"current_range_meters":5600,"station_id":"ce4bh2h2rcd13ifvqdh0","pricing_plan_id":"cebpf4jnsgd1na2vs0mg"},{"bike_id":"ed2e71d1-4633-4f7e-9675-d0426cc4942c","system_id":"levelo_inurba_marseille","lat":43.27437,"lon":5.39388,"is_reserved":false,"is_disabled":false,"rental_uris":{"android":"levelo://app?vid=ed2e71d1-4633-4f7e-9675-d0426cc4942c","ios":"levelo://app?vid=ed2e71d1-4633-4f7e-9675-d0426cc4942c"},"vehicle_type_id":"4","last_reported":1726157428,"current_range_meters":10800,"station_id":"ce4bhdp2rcd13ifvqf20","pricing_plan_id":"cebpf4jnsgd1na2vs0mg"},{"bike_id":"02820403-f30f-4d27-b6a1-f86293845c78","system_id":"levelo_inurba_marseille","lat":43.29284,"lon":5.40109,"is_reserved":false,"is_disabled":false,"rental_uris":{"android":"levelo://app?vid=02820403-f30f-4d27-b6a1-f86293845c78","ios":"levelo://app?vid=02820403-f30f-4d27-b6a1-f86293845c78"},"vehicle_type_id":"4","last_reported":1726157428,"current_range_meters":25200,"station_id":"ce4bh312rcd13ifvqdk0","pricing_plan_id":"cebpf4jnsgd1na2vs0mg"},{"bike_id":"96cb29cb-8da1-4dd6-bd35-ee190827a973","system_id":"levelo_inurba_marseille","lat":43.26563,"lon":5.37283,"is_reserved":false,"is_disabled":false,"rental_uris":{"android":"levelo://app?vid=96cb29cb-8da1-4dd6-bd35-ee190827a973","ios":"levelo://app?vid=96cb29cb-8da1-4dd6-bd35-ee190827a973"},"vehicle_type_id":"4","last_reported":1726157428,"current_range_meters":9200,"station_id":"ce4bhg12rcd13ifvqf70","pricing_plan_id":"cebpf4jnsgd1na2vs0mg"},{"bike_id":"a61c9e04-bce5-4e44-99ea-7dd65bcde295","system_id":"levelo_inurba_marseille","lat":43.29006,"lon":5.35611,"is_reserved":false,"is_disabled":false,"rental_uris":{"android":"levelo://app?vid=a61c9e04-bce5-4e44-99ea-7dd65bcde295","ios":"levelo://app?vid=a61c9e04-bce5-4e44-99ea-7dd65bcde295"},"vehicle_type_id":"4","last_reported":1726157428,"current_range_meters":29600,"station_id":"ce4bhb92rcd13ifvqen0","pricing_plan_id":"cebpf4jnsgd1na2vs0mg"},{"bike_id":"cd75701b-d41a-41fb-929e-c69d8fbf02a7","system_id":"levelo_inurba_marseille","lat":43.23963,"lon":5.36631,"is_reserved":false,"is_disabled":false,"rental_uris":{"android":"levelo://app?vid=cd75701b-d41a-41fb-929e-c69d8fbf02a7","ios":"levelo://app?vid=cd75701b-d41a-41fb-929e-c69d8fbf02a7"},"vehicle_type_id":"4","last_reported":1726157428,"current_range_meters":31200,"station_id":"ce4bhi12rcd13ifvqfp0","pricing_plan_id":"cebpf4jnsgd1na2vs0mg"},{"bike_id":"4f956cbf-ae26-47fc-9fa2-1f791789e116","system_id":"levelo_inurba_marseille","lat":43.29258,"lon":5.40904,"is_reserved":false,"is_disabled":false,"rental_uris":{"android":"levelo://app?vid=4f956cbf-ae26-47fc-9fa2-1f791789e116","ios":"levelo://app?vid=4f956cbf-ae26-47fc-9fa2-1f791789e116"},"vehicle_type_id":"4","last_reported":1726157428,"current_range_meters":30400,"station_id":"ce4bh192rcd13ifvqdc0","pricing_plan_id":"cebpf4jnsgd1na2vs0mg"},{"bike_id":"ca33d2bf-c9f2-4944-aec8-d1b6204ec37b","system_id":"levelo_inurba_marseille","lat":43.2954,"lon":5.42275,"is_reserved":false,"is_disabled":false,"rental_uris":{"android":"levelo://app?vid=ca33d2bf-c9f2-4944-aec8-d1b6204ec37b","ios":"levelo://app?vid=ca33d2bf-c9f2-4944-aec8-d1b6204ec37b"},"vehicle_type_id":"4","last_reported":1726157428,"current_range_meters":20800,"station_id":"ce4bhph2rcd13ifvqhdg","pricing_plan_id":"cebpf4jnsgd1na2vs0mg"},{"bike_id":"c656f0c2-d159-4239-8efa-29d6dc93af17","system_id":"levelo_inurba_marseille","lat":43.28273,"lon":5.35065,"is_reserved":false,"is_disabled":false,"rental_uris":{"android":"levelo://app?vid=c656f0c2-d159-4239-8efa-29d6dc93af17","ios":"levelo://app?vid=c656f0c2-d159-4239-8efa-29d6dc93af17"},"vehicle_type_id":"4","last_reported":1726157428,"current_range_meters":19600,"station_id":"ce4bhbp2rcd13ifvqerg","pricing_plan_id":"cebpf4jnsgd1na2vs0mg"},{"bike_id":"cac78a6e-a1e0-4f97-9b48-10fba0a2004d","system_id":"levelo_inurba_marseille","lat":43.23181,"lon":5.35542,"is_reserved":false,"is_disabled":false,"rental_uris":{"android":"levelo://app?vid=cac78a6e-a1e0-4f97-9b48-10fba0a2004d","ios":"levelo://app?vid=cac78a6e-a1e0-4f97-9b48-10fba0a2004d"},"vehicle_type_id":"4","last_reported":1726157428,"current_range_meters":4400,"station_id":"ce4bhu92rcd13ifvqi70","pricing_plan_id":"cebpf4jnsgd1na2vs0mg"},{"bike_id":"dbf7abdb-f78e-4482-b47b-9f70c8ec69b6","system_id":"levelo_inurba_marseille","lat":43.29966,"lon":5.3717,"is_reserved":false,"is_disabled":false,"rental_uris":{"android":"levelo://app?vid=dbf7abdb-f78e-4482-b47b-9f70c8ec69b6","ios":"levelo://app?vid=dbf7abdb-f78e-4482-b47b-9f70c8ec69b6"},"vehicle_type_id":"4","last_reported":1726157428,"current_range_meters":19200,"station_id":"ce4bgr92rcd13ifvqc7g","pricing_plan_id":"cebpf4jnsgd1na2vs0mg"},{"bike_id":"2c4577b3-3689-495e-a3c3-a78eafd4dc43","system_id":"levelo_inurba_marseille","lat":43.26555,"lon":5.37285,"is_reserved":false,"is_disabled":false,"rental_uris":{"android":"levelo://app?vid=2c4577b3-3689-495e-a3c3-a78eafd4dc43","ios":"levelo://app?vid=2c4577b3-3689-495e-a3c3-a78eafd4dc43"},"vehicle_type_id":"4","last_reported":1726157428,"current_range_meters":26000,"station_id":"ce4bhg12rcd13ifvqf70","pricing_plan_id":"cebpf4jnsgd1na2vs0mg"},{"bike_id":"ae374b7a-fd9c-4bf9-af30-7f2e91baa86e","system_id":"levelo_inurba_marseille","lat":43.33596,"lon":5.41001,"is_reserved":false,"is_disabled":false,"rental_uris":{"android":"levelo://app?vid=ae374b7a-fd9c-4bf9-af30-7f2e91baa86e","ios":"levelo://app?vid=ae374b7a-fd9c-4bf9-af30-7f2e91baa86e"},"vehicle_type_id":"4","last_reported":1726157428,"current_range_meters":19600,"station_id":"ce4bhqh2rcd13ifvqhmg","pricing_plan_id":"cebpf4jnsgd1na2vs0mg"},{"bike_id":"b5dca88b-f146-445d-b20f-90db535188f5","system_id":"levelo_inurba_marseille","lat":43.31082,"lon":5.42433,"is_reserved":false,"is_disabled":false,"rental_uris":{"android":"levelo://app?vid=b5dca88b-f146-445d-b20f-90db535188f5","ios":"levelo://app?vid=b5dca88b-f146-445d-b20f-90db535188f5"},"vehicle_type_id":"4","last_reported":1726157428,"current_range_meters":30400,"station_id":"ce4bhp92rcd13ifvqhag","pricing_plan_id":"cebpf4jnsgd1na2vs0mg"},{"bike_id":"4e09195e-9004-4fa3-8ab0-1d4ac6be3f74","system_id":"levelo_inurba_marseille","lat":43.29707,"lon":5.36822,"is_reserved":false,"is_disabled":false,"rental_uris":{"android":"levelo://app?vid=4e09195e-9004-4fa3-8ab0-1d4ac6be3f74","ios":"levelo://app?vid=4e09195e-9004-4fa3-8ab0-1d4ac6be3f74"},"vehicle_type_id":"4","last_reported":1726157428,"current_range_meters":24800,"station_id":"","pricing_plan_id":"cebpf4jnsgd1na2vs0mg"},{"bike_id":"7dea9175-0fb5-4d49-ac6e-d13b7c47ac00","system_id":"levelo_inurba_marseille","lat":43.25712,"lon":5.41109,"is_reserved":false,"is_disabled":false,"rental_uris":{"android":"levelo://app?vid=7dea9175-0fb5-4d49-ac6e-d13b7c47ac00","ios":"levelo://app?vid=7dea9175-0fb5-4d49-ac6e-d13b7c47ac00"},"vehicle_type_id":"4","last_reported":1726157428,"current_range_meters":19600,"station_id":"ce4bhkp2rcd13ifvqgd0","pricing_plan_id":"cebpf4jnsgd1na2vs0mg"},{"bike_id":"60d5bda9-f640-405a-935d-62d1314e50fa","system_id":"levelo_inurba_marseille","lat":43.23964,"lon":5.36627,"is_reserved":false,"is_disabled":false,"rental_uris":{"android":"levelo://app?vid=60d5bda9-f640-405a-935d-62d1314e50fa","ios":"levelo://app?vid=60d5bda9-f640-405a-935d-62d1314e50fa"},"vehicle_type_id":"4","last_reported":1726157428,"current_range_meters":28800,"station_id":"ce4bhi12rcd13ifvqfp0","pricing_plan_id":"cebpf4jnsgd1na2vs0mg"},{"bike_id":"97e008d2-6738-494e-bcb9-877b5439b28f","system_id":"levelo_inurba_marseille","lat":43.303528,"lon":5.418921,"is_reserved":false,"is_disabled":false,"rental_uris":{"android":"levelo://app?vid=97e008d2-6738-494e-bcb9-877b5439b28f","ios":"levelo://app?vid=97e008d2-6738-494e-bcb9-877b5439b28f"},"vehicle_type_id":"4","last_reported":1726157428,"current_range_meters":6000,"station_id":"ce4bhop2rcd13ifvqh7g","pricing_plan_id":"cebpf4jnsgd1na2vs0mg"},{"bike_id":"0ffa0517-76c8-4eca-ac44-ef6722886452","system_id":"levelo_inurba_marseille","lat":43.30652,"lon":5.40086,"is_reserved":false,"is_disabled":false,"rental_uris":{"android":"levelo://app?vid=0ffa0517-76c8-4eca-ac44-ef6722886452","ios":"levelo://app?vid=0ffa0517-76c8-4eca-ac44-ef6722886452"},"vehicle_type_id":"4","last_reported":1726157428,"current_range_meters":18800,"station_id":"ce4bh112rcd13ifvqda0","pricing_plan_id":"cebpf4jnsgd1na2vs0mg"},{"bike_id":"efb59f73-7fcf-41a0-95bd-4f78ea947972","system_id":"levelo_inurba_marseille","lat":43.2418,"lon":5.39711,"is_reserved":false,"is_disabled":false,"rental_uris":{"android":"levelo://app?vid=efb59f73-7fcf-41a0-95bd-4f78ea947972","ios":"levelo://app?vid=efb59f73-7fcf-41a0-95bd-4f78ea947972"},"vehicle_type_id":"4","last_reported":1726157428,"current_range_meters":39200,"station_id":"ce4bhn12rcd13ifvqgpg","pricing_plan_id":"cebpf4jnsgd1na2vs0mg"},{"bike_id":"9163cc20-d457-4a59-bb69-e012a5ecf5a9","system_id":"levelo_inurba_marseille","lat":43.28459,"lon":5.35892,"is_reserved":false,"is_disabled":false,"rental_uris":{"android":"levelo://app?vid=9163cc20-d457-4a59-bb69-e012a5ecf5a9","ios":"levelo://app?vid=9163cc20-d457-4a59-bb69-e012a5ecf5a9"},"vehicle_type_id":"4","last_reported":1726157428,"current_range_meters":4400,"station_id":"ce4bhah2rcd13ifvqei0","pricing_plan_id":"cebpf4jnsgd1na2vs0mg"},{"bike_id":"6c628841-818b-48d9-a2e2-352a08a9fd6b","system_id":"levelo_inurba_marseille","lat":43.29205,"lon":5.3933,"is_reserved":false,"is_disabled":false,"rental_uris":{"android":"levelo://app?vid=6c628841-818b-48d9-a2e2-352a08a9fd6b","ios":"levelo://app?vid=6c628841-818b-48d9-a2e2-352a08a9fd6b"},"vehicle_type_id":"4","last_reported":1726157428,"current_range_meters":13600,"station_id":"ce4bh192rcd13ifvqdd0","pricing_plan_id":"cebpf4jnsgd1na2vs0mg"},{"bike_id":"0b554793-3ba8-4ac5-81bd-c7f24de6bd83","system_id":"levelo_inurba_marseille","lat":43.30091,"lon":5.39068,"is_reserved":false,"is_disabled":false,"rental_uris":{"android":"levelo://app?vid=0b554793-3ba8-4ac5-81bd-c7f24de6bd83","ios":"levelo://app?vid=0b554793-3ba8-4ac5-81bd-c7f24de6bd83"},"vehicle_type_id":"4","last_reported":1726157428,"current_range_meters":8800,"station_id":"ce4bgj92rcd13ifvqbd0","pricing_plan_id":"cebpf4jnsgd1na2vs0mg"},{"bike_id":"2d9f6a36-1e8d-46ce-8819-b2bb04006d43","system_id":"levelo_inurba_marseille","lat":43.25586,"lon":5.38219,"is_reserved":false,"is_disabled":false,"rental_uris":{"android":"levelo://app?vid=2d9f6a36-1e8d-46ce-8819-b2bb04006d43","ios":"levelo://app?vid=2d9f6a36-1e8d-46ce-8819-b2bb04006d43"},"vehicle_type_id":"4","last_reported":1726157428,"current_range_meters":36800,"station_id":"ce4bhih2rcd13ifvqfs0","pricing_plan_id":"cebpf4jnsgd1na2vs0mg"},{"bike_id":"1e0df5ba-fa4d-4573-807a-e855b81fe691","system_id":"levelo_inurba_marseille","lat":43.23965,"lon":5.36626,"is_reserved":false,"is_disabled":false,"rental_uris":{"android":"levelo://app?vid=1e0df5ba-fa4d-4573-807a-e855b81fe691","ios":"levelo://app?vid=1e0df5ba-fa4d-4573-807a-e855b81fe691"},"vehicle_type_id":"4","last_reported":1726157428,"current_range_meters":34000,"station_id":"ce4bhi12rcd13ifvqfp0","pricing_plan_id":"cebpf4jnsgd1na2vs0mg"},{"bike_id":"1ba23b36-7cb5-4abd-ab43-2c0479f56518","system_id":"levelo_inurba_marseille","lat":43.28453,"lon":5.35887,"is_reserved":false,"is_disabled":false,"rental_uris":{"android":"levelo://app?vid=1ba23b36-7cb5-4abd-ab43-2c0479f56518","ios":"levelo://app?vid=1ba23b36-7cb5-4abd-ab43-2c0479f56518"},"vehicle_type_id":"4","last_reported":1726157428,"current_range_meters":13600,"station_id":"ce4bhah2rcd13ifvqei0","pricing_plan_id":"cebpf4jnsgd1na2vs0mg"},{"bike_id":"dc673159-4558-442e-82c9-34dc9a337649","system_id":"levelo_inurba_marseille","lat":43.29924,"lon":5.37574,"is_reserved":false,"is_disabled":false,"rental_uris":{"android":"levelo://app?vid=dc673159-4558-442e-82c9-34dc9a337649","ios":"levelo://app?vid=dc673159-4558-442e-82c9-34dc9a337649"},"vehicle_type_id":"4","last_reported":1726157428,"current_range_meters":17200,"station_id":"","pricing_plan_id":"cebpf4jnsgd1na2vs0mg"},{"bike_id":"43b076ce-b398-4f6c-8997-a77c5b81b9f2","system_id":"levelo_inurba_marseille","lat":43.28994,"lon":5.35602,"is_reserved":false,"is_disabled":false,"rental_uris":{"android":"levelo://app?vid=43b076ce-b398-4f6c-8997-a77c5b81b9f2","ios":"levelo://app?vid=43b076ce-b398-4f6c-8997-a77c5b81b9f2"},"vehicle_type_id":"4","last_reported":1726157428,"current_range_meters":3200,"station_id":"ce4bhb92rcd13ifvqen0","pricing_plan_id":"cebpf4jnsgd1na2vs0mg"},{"bike_id":"7d348dd9-aba5-4535-bda9-b52ada6017ef","system_id":"levelo_inurba_marseille","lat":43.26199,"lon":5.37451,"is_reserved":false,"is_disabled":false,"rental_uris":{"android":"levelo://app?vid=7d348dd9-aba5-4535-bda9-b52ada6017ef","ios":"levelo://app?vid=7d348dd9-aba5-4535-bda9-b52ada6017ef"},"vehicle_type_id":"4","last_reported":1726157428,"current_range_meters":36000,"station_id":"ce4bhgp2rcd13ifvqfc0","pricing_plan_id":"cebpf4jnsgd1na2vs0mg"},{"bike_id":"9340655d-ea2c-48d6-979b-f6f98ed342dc","system_id":"levelo_inurba_marseille","lat":43.30634,"lon":5.40073,"is_reserved":false,"is_disabled":false,"rental_uris":{"android":"levelo://app?vid=9340655d-ea2c-48d6-979b-f6f98ed342dc","ios":"levelo://app?vid=9340655d-ea2c-48d6-979b-f6f98ed342dc"},"vehicle_type_id":"4","last_reported":1726157428,"current_range_meters":24800,"station_id":"ce4bh112rcd13ifvqda0","pricing_plan_id":"cebpf4jnsgd1na2vs0mg"},{"bike_id":"59a2b5a9-0f56-40d5-a59c-cb2592419b75","system_id":"levelo_inurba_marseille","lat":43.25593,"lon":5.38225,"is_reserved":false,"is_disabled":false,"rental_uris":{"android":"levelo://app?vid=59a2b5a9-0f56-40d5-a59c-cb2592419b75","ios":"levelo://app?vid=59a2b5a9-0f56-40d5-a59c-cb2592419b75"},"vehicle_type_id":"4","last_reported":1726157428,"current_range_meters":38800,"station_id":"ce4bhih2rcd13ifvqfs0","pricing_plan_id":"cebpf4jnsgd1na2vs0mg"},{"bike_id":"8fa69eb8-1a55-49f2-bed4-e655bbb0033b","system_id":"levelo_inurba_marseille","lat":43.29245,"lon":5.4089,"is_reserved":false,"is_disabled":false,"rental_uris":{"android":"levelo://app?vid=8fa69eb8-1a55-49f2-bed4-e655bbb0033b","ios":"levelo://app?vid=8fa69eb8-1a55-49f2-bed4-e655bbb0033b"},"vehicle_type_id":"4","last_reported":1726157428,"current_range_meters":4400,"station_id":"ce4bh192rcd13ifvqdc0","pricing_plan_id":"cebpf4jnsgd1na2vs0mg"},{"bike_id":"f895a5c7-e8a3-4bd9-a494-2be69eefde5c","system_id":"levelo_inurba_marseille","lat":43.28451,"lon":5.35891,"is_reserved":false,"is_disabled":false,"rental_uris":{"android":"levelo://app?vid=f895a5c7-e8a3-4bd9-a494-2be69eefde5c","ios":"levelo://app?vid=f895a5c7-e8a3-4bd9-a494-2be69eefde5c"},"vehicle_type_id":"4","last_reported":1726157428,"current_range_meters":2800,"station_id":"ce4bhah2rcd13ifvqei0","pricing_plan_id":"cebpf4jnsgd1na2vs0mg"},{"bike_id":"19510ac0-bff4-45d4-bdb2-93c175745534","system_id":"levelo_inurba_marseille","lat":43.29729,"lon":5.37687,"is_reserved":false,"is_disabled":false,"rental_uris":{"android":"levelo://app?vid=19510ac0-bff4-45d4-bdb2-93c175745534","ios":"levelo://app?vid=19510ac0-bff4-45d4-bdb2-93c175745534"},"vehicle_type_id":"4","last_reported":1726157428,"current_range_meters":32400,"station_id":"ce4bgkh2rcd13ifvqbl0","pricing_plan_id":"cebpf4jnsgd1na2vs0mg"},{"bike_id":"442f1fb6-358b-4b20-9b6c-396781c53232","system_id":"levelo_inurba_marseille","lat":43.26575,"lon":5.39,"is_reserved":false,"is_disabled":false,"rental_uris":{"android":"levelo://app?vid=442f1fb6-358b-4b20-9b6c-396781c53232","ios":"levelo://app?vid=442f1fb6-358b-4b20-9b6c-396781c53232"},"vehicle_type_id":"4","last_reported":1726157428,"current_range_meters":12400,"station_id":"ce4bhe12rcd13ifvqf30","pricing_plan_id":"cebpf4jnsgd1na2vs0mg"},{"bike_id":"16cb9bcd-ae89-453d-b0fd-7edc58cc0ea2","system_id":"levelo_inurba_marseille","lat":43.28999,"lon":5.35613,"is_reserved":false,"is_disabled":false,"rental_uris":{"android":"levelo://app?vid=16cb9bcd-ae89-453d-b0fd-7edc58cc0ea2","ios":"levelo://app?vid=16cb9bcd-ae89-453d-b0fd-7edc58cc0ea2"},"vehicle_type_id":"4","last_reported":1726157428,"current_range_meters":38800,"station_id":"ce4bhb92rcd13ifvqen0","pricing_plan_id":"cebpf4jnsgd1na2vs0mg"},{"bike_id":"dc5dca54-8ebf-43b2-acf8-9ae498c9992e","system_id":"levelo_inurba_marseille","lat":43.29543,"lon":5.38546,"is_reserved":false,"is_disabled":false,"rental_uris":{"android":"levelo://app?vid=dc5dca54-8ebf-43b2-acf8-9ae498c9992e","ios":"levelo://app?vid=dc5dca54-8ebf-43b2-acf8-9ae498c9992e"},"vehicle_type_id":"4","last_reported":1726157428,"current_range_meters":34800,"station_id":"ce4bgih2rcd13ifvqba0","pricing_plan_id":"cebpf4jnsgd1na2vs0mg"},{"bike_id":"deaeb920-23ab-4b51-a90a-3a4d369b9959","system_id":"levelo_inurba_marseille","lat":43.26552,"lon":5.37289,"is_reserved":false,"is_disabled":false,"rental_uris":{"android":"levelo://app?vid=deaeb920-23ab-4b51-a90a-3a4d369b9959","ios":"levelo://app?vid=deaeb920-23ab-4b51-a90a-3a4d369b9959"},"vehicle_type_id":"4","last_reported":1726157428,"current_range_meters":11600,"station_id":"ce4bhg12rcd13ifvqf70","pricing_plan_id":"cebpf4jnsgd1na2vs0mg"},{"bike_id":"2978c8ef-7735-4057-b33e-747fe355072e","system_id":"levelo_inurba_marseille","lat":43.25909,"lon":5.37601,"is_reserved":false,"is_disabled":false,"rental_uris":{"android":"levelo://app?vid=2978c8ef-7735-4057-b33e-747fe355072e","ios":"levelo://app?vid=2978c8ef-7735-4057-b33e-747fe355072e"},"vehicle_type_id":"4","last_reported":1726157428,"current_range_meters":3600,"station_id":"","pricing_plan_id":"cebpf4jnsgd1na2vs0mg"},{"bike_id":"ddc7fdac-4aaa-4e5c-8701-ecba14a3090e","system_id":"levelo_inurba_marseille","lat":43.30115,"lon":5.3986,"is_reserved":false,"is_disabled":false,"rental_uris":{"android":"levelo://app?vid=ddc7fdac-4aaa-4e5c-8701-ecba14a3090e","ios":"levelo://app?vid=ddc7fdac-4aaa-4e5c-8701-ecba14a3090e"},"vehicle_type_id":"4","last_reported":1726157428,"current_range_meters":29600,"station_id":"ce4bh0h2rcd13ifvqd40","pricing_plan_id":"cebpf4jnsgd1na2vs0mg"},{"bike_id":"f7c58805-67e8-44d9-b79d-ae9d0c384f1e","system_id":"levelo_inurba_marseille","lat":43.29714,"lon":5.36599,"is_reserved":false,"is_disabled":false,"rental_uris":{"android":"levelo://app?vid=f7c58805-67e8-44d9-b79d-ae9d0c384f1e","ios":"levelo://app?vid=f7c58805-67e8-44d9-b79d-ae9d0c384f1e"},"vehicle_type_id":"4","last_reported":1726157428,"current_range_meters":13600,"station_id":"ce4bgn12rcd13ifvqbt0","pricing_plan_id":"cebpf4jnsgd1na2vs0mg"},{"bike_id":"dd332fda-665c-45f4-a043-c551b8b3248d","system_id":"levelo_inurba_marseille","lat":43.30792,"lon":5.43519,"is_reserved":false,"is_disabled":false,"rental_uris":{"android":"levelo://app?vid=dd332fda-665c-45f4-a043-c551b8b3248d","ios":"levelo://app?vid=dd332fda-665c-45f4-a043-c551b8b3248d"},"vehicle_type_id":"4","last_reported":1726157428,"current_range_meters":16800,"station_id":"ce4bhph2rcd13ifvqheg","pricing_plan_id":"cebpf4jnsgd1na2vs0mg"},{"bike_id":"0eb9438b-6906-4f87-8906-4ec29521b4fa","system_id":"levelo_inurba_marseille","lat":43.29795,"lon":5.38106,"is_reserved":false,"is_disabled":false,"rental_uris":{"android":"levelo://app?vid=0eb9438b-6906-4f87-8906-4ec29521b4fa","ios":"levelo://app?vid=0eb9438b-6906-4f87-8906-4ec29521b4fa"},"vehicle_type_id":"4","last_reported":1726157428,"current_range_meters":11600,"station_id":"ce4bgip2rcd13ifvqbb0","pricing_plan_id":"cebpf4jnsgd1na2vs0mg"},{"bike_id":"c04d4476-e066-42f5-9923-2a6a5a177212","system_id":"levelo_inurba_marseille","lat":43.29261,"lon":5.40905,"is_reserved":false,"is_disabled":false,"rental_uris":{"android":"levelo://app?vid=c04d4476-e066-42f5-9923-2a6a5a177212","ios":"levelo://app?vid=c04d4476-e066-42f5-9923-2a6a5a177212"},"vehicle_type_id":"4","last_reported":1726157428,"current_range_meters":10000,"station_id":"ce4bh192rcd13ifvqdc0","pricing_plan_id":"cebpf4jnsgd1na2vs0mg"},{"bike_id":"c5e96473-727a-418c-919e-8d3acae62332","system_id":"levelo_inurba_marseille","lat":43.29219,"lon":5.36042,"is_reserved":false,"is_disabled":false,"rental_uris":{"android":"levelo://app?vid=c5e96473-727a-418c-919e-8d3acae62332","ios":"levelo://app?vid=c5e96473-727a-418c-919e-8d3acae62332"},"vehicle_type_id":"4","last_reported":1726157428,"current_range_meters":9600,"station_id":"ce4bhbh2rcd13ifvqeqg","pricing_plan_id":"cebpf4jnsgd1na2vs0mg"},{"bike_id":"586a8a04-2bc4-442a-9e9b-fc6e8ce7cc89","system_id":"levelo_inurba_marseille","lat":43.29197,"lon":5.39324,"is_reserved":false,"is_disabled":false,"rental_uris":{"android":"levelo://app?vid=586a8a04-2bc4-442a-9e9b-fc6e8ce7cc89","ios":"levelo://app?vid=586a8a04-2bc4-442a-9e9b-fc6e8ce7cc89"},"vehicle_type_id":"4","last_reported":1726157428,"current_range_meters":11200,"station_id":"ce4bh192rcd13ifvqdd0","pricing_plan_id":"cebpf4jnsgd1na2vs0mg"},{"bike_id":"1b6b4677-9c6b-4e29-9bf6-abb793cfb377","system_id":"levelo_inurba_marseille","lat":43.29225,"lon":5.36045,"is_reserved":false,"is_disabled":false,"rental_uris":{"android":"levelo://app?vid=1b6b4677-9c6b-4e29-9bf6-abb793cfb377","ios":"levelo://app?vid=1b6b4677-9c6b-4e29-9bf6-abb793cfb377"},"vehicle_type_id":"4","last_reported":1726157428,"current_range_meters":8400,"station_id":"ce4bhbh2rcd13ifvqeqg","pricing_plan_id":"cebpf4jnsgd1na2vs0mg"},{"bike_id":"42730b64-4326-485c-ac36-4ff31138a499","system_id":"levelo_inurba_marseille","lat":43.31328,"lon":5.39689,"is_reserved":false,"is_disabled":false,"rental_uris":{"android":"levelo://app?vid=42730b64-4326-485c-ac36-4ff31138a499","ios":"levelo://app?vid=42730b64-4326-485c-ac36-4ff31138a499"},"vehicle_type_id":"4","last_reported":1726157428,"current_range_meters":11200,"station_id":"ce4bgvp2rcd13ifvqcu0","pricing_plan_id":"cebpf4jnsgd1na2vs0mg"},{"bike_id":"bb7acf50-b6bc-4b2d-adf4-833abc23b24c","system_id":"levelo_inurba_marseille","lat":43.23193,"lon":5.35546,"is_reserved":false,"is_disabled":false,"rental_uris":{"android":"levelo://app?vid=bb7acf50-b6bc-4b2d-adf4-833abc23b24c","ios":"levelo://app?vid=bb7acf50-b6bc-4b2d-adf4-833abc23b24c"},"vehicle_type_id":"4","last_reported":1726157428,"current_range_meters":14800,"station_id":"ce4bhu92rcd13ifvqi70","pricing_plan_id":"cebpf4jnsgd1na2vs0mg"},{"bike_id":"c39e3501-b3ab-468a-b809-ebc9a51ecbee","system_id":"levelo_inurba_marseille","lat":43.313686,"lon":5.384774,"is_reserved":false,"is_disabled":false,"rental_uris":{"android":"levelo://app?vid=c39e3501-b3ab-468a-b809-ebc9a51ecbee","ios":"levelo://app?vid=c39e3501-b3ab-468a-b809-ebc9a51ecbee"},"vehicle_type_id":"4","last_reported":1726157428,"current_range_meters":23200,"station_id":"ce4bgt92rcd13ifvqcf0","pricing_plan_id":"cebpf4jnsgd1na2vs0mg"},{"bike_id":"8065c7d2-6b7f-42b9-bf39-a5c7a8ee9a7d","system_id":"levelo_inurba_marseille","lat":43.31761,"lon":5.39006,"is_reserved":false,"is_disabled":false,"rental_uris":{"android":"levelo://app?vid=8065c7d2-6b7f-42b9-bf39-a5c7a8ee9a7d","ios":"levelo://app?vid=8065c7d2-6b7f-42b9-bf39-a5c7a8ee9a7d"},"vehicle_type_id":"4","last_reported":1726157428,"current_range_meters":5600,"station_id":"ce4bhqp2rcd13ifvqhng","pricing_plan_id":"cebpf4jnsgd1na2vs0mg"},{"bike_id":"8eff384a-46bc-44b5-a7c3-c23a94eadd4c","system_id":"levelo_inurba_marseille","lat":43.24384,"lon":5.37049,"is_reserved":false,"is_disabled":false,"rental_uris":{"android":"levelo://app?vid=8eff384a-46bc-44b5-a7c3-c23a94eadd4c","ios":"levelo://app?vid=8eff384a-46bc-44b5-a7c3-c23a94eadd4c"},"vehicle_type_id":"4","last_reported":1726157428,"current_range_meters":30800,"station_id":"ce4bhhh2rcd13ifvqfk0","pricing_plan_id":"cebpf4jnsgd1na2vs0mg"},{"bike_id":"86f19a36-bb1a-4269-88e8-5864eaf9f751","system_id":"levelo_inurba_marseille","lat":43.2509,"lon":5.39518,"is_reserved":false,"is_disabled":false,"rental_uris":{"android":"levelo://app?vid=86f19a36-bb1a-4269-88e8-5864eaf9f751","ios":"levelo://app?vid=86f19a36-bb1a-4269-88e8-5864eaf9f751"},"vehicle_type_id":"4","last_reported":1726157428,"current_range_meters":25600,"station_id":"ce4bhm12rcd13ifvqgkg","pricing_plan_id":"cebpf4jnsgd1na2vs0mg"},{"bike_id":"50fb6d89-86ce-4ee8-95c5-1d49845cec9b","system_id":"levelo_inurba_marseille","lat":43.25104,"lon":5.40323,"is_reserved":false,"is_disabled":false,"rental_uris":{"android":"levelo://app?vid=50fb6d89-86ce-4ee8-95c5-1d49845cec9b","ios":"levelo://app?vid=50fb6d89-86ce-4ee8-95c5-1d49845cec9b"},"vehicle_type_id":"4","last_reported":1726157428,"current_range_meters":17200,"station_id":"ce4bhlh2rcd13ifvqgig","pricing_plan_id":"cebpf4jnsgd1na2vs0mg"},{"bike_id":"fd6b6a1f-b001-4db9-9087-2349d3247844","system_id":"levelo_inurba_marseille","lat":43.3133,"lon":5.3969,"is_reserved":false,"is_disabled":false,"rental_uris":{"android":"levelo://app?vid=fd6b6a1f-b001-4db9-9087-2349d3247844","ios":"levelo://app?vid=fd6b6a1f-b001-4db9-9087-2349d3247844"},"vehicle_type_id":"4","last_reported":1726157428,"current_range_meters":33200,"station_id":"ce4bgvp2rcd13ifvqcu0","pricing_plan_id":"cebpf4jnsgd1na2vs0mg"},{"bike_id":"dd2d66a6-976d-43e6-83be-d6211ff78acc","system_id":"levelo_inurba_marseille","lat":43.33722,"lon":5.39176,"is_reserved":false,"is_disabled":false,"rental_uris":{"android":"levelo://app?vid=dd2d66a6-976d-43e6-83be-d6211ff78acc","ios":"levelo://app?vid=dd2d66a6-976d-43e6-83be-d6211ff78acc"},"vehicle_type_id":"4","last_reported":1726157428,"current_range_meters":10800,"station_id":"ce4bhr92rcd13ifvqhsg","pricing_plan_id":"cebpf4jnsgd1na2vs0mg"},{"bike_id":"5ef7b96a-1cb8-4f42-af16-3a0d049b19cc","system_id":"levelo_inurba_marseille","lat":43.29557,"lon":5.42275,"is_reserved":false,"is_disabled":false,"rental_uris":{"android":"levelo://app?vid=5ef7b96a-1cb8-4f42-af16-3a0d049b19cc","ios":"levelo://app?vid=5ef7b96a-1cb8-4f42-af16-3a0d049b19cc"},"vehicle_type_id":"4","last_reported":1726157428,"current_range_meters":12800,"station_id":"ce4bhph2rcd13ifvqhdg","pricing_plan_id":"cebpf4jnsgd1na2vs0mg"},{"bike_id":"bd7be440-8a27-4193-813b-1ecc460eb61e","system_id":"levelo_inurba_marseille","lat":43.33018,"lon":5.3903,"is_reserved":false,"is_disabled":false,"rental_uris":{"android":"levelo://app?vid=bd7be440-8a27-4193-813b-1ecc460eb61e","ios":"levelo://app?vid=bd7be440-8a27-4193-813b-1ecc460eb61e"},"vehicle_type_id":"4","last_reported":1726157428,"current_range_meters":6000,"station_id":"ce4bhr92rcd13ifvqhrg","pricing_plan_id":"cebpf4jnsgd1na2vs0mg"},{"bike_id":"87692f4e-dc87-48f5-85ba-80f054d01568","system_id":"levelo_inurba_marseille","lat":43.30143,"lon":5.39879,"is_reserved":false,"is_disabled":false,"rental_uris":{"android":"levelo://app?vid=87692f4e-dc87-48f5-85ba-80f054d01568","ios":"levelo://app?vid=87692f4e-dc87-48f5-85ba-80f054d01568"},"vehicle_type_id":"4","last_reported":1726157428,"current_range_meters":37600,"station_id":"ce4bh0h2rcd13ifvqd40","pricing_plan_id":"cebpf4jnsgd1na2vs0mg"},{"bike_id":"33b083fb-ff53-40c5-be9d-074bcef857d3","system_id":"levelo_inurba_marseille","lat":43.28001,"lon":5.40012,"is_reserved":false,"is_disabled":false,"rental_uris":{"android":"levelo://app?vid=33b083fb-ff53-40c5-be9d-074bcef857d3","ios":"levelo://app?vid=33b083fb-ff53-40c5-be9d-074bcef857d3"},"vehicle_type_id":"4","last_reported":1726157428,"current_range_meters":38800,"station_id":"ce4bho92rcd13ifvqh4g","pricing_plan_id":"cebpf4jnsgd1na2vs0mg"},{"bike_id":"d63b08fd-7716-422a-94e4-8f1dfff5bb11","system_id":"levelo_inurba_marseille","lat":43.28616,"lon":5.35102,"is_reserved":false,"is_disabled":false,"rental_uris":{"android":"levelo://app?vid=d63b08fd-7716-422a-94e4-8f1dfff5bb11","ios":"levelo://app?vid=d63b08fd-7716-422a-94e4-8f1dfff5bb11"},"vehicle_type_id":"4","last_reported":1726157428,"current_range_meters":17600,"station_id":"ce4bhch2rcd13ifvqeug","pricing_plan_id":"cebpf4jnsgd1na2vs0mg"},{"bike_id":"99374d67-231b-4a1d-9c5d-05c4776b67dc","system_id":"levelo_inurba_marseille","lat":43.2902,"lon":5.37572,"is_reserved":false,"is_disabled":false,"rental_uris":{"android":"levelo://app?vid=99374d67-231b-4a1d-9c5d-05c4776b67dc","ios":"levelo://app?vid=99374d67-231b-4a1d-9c5d-05c4776b67dc"},"vehicle_type_id":"4","last_reported":1726157428,"current_range_meters":4800,"station_id":"ce4bh692rcd13ifvqe90","pricing_plan_id":"cebpf4jnsgd1na2vs0mg"},{"bike_id":"b781299c-a925-4393-999c-d99d7f19c72d","system_id":"levelo_inurba_marseille","lat":43.26231,"lon":5.39678,"is_reserved":false,"is_disabled":false,"rental_uris":{"android":"levelo://app?vid=b781299c-a925-4393-999c-d99d7f19c72d","ios":"levelo://app?vid=b781299c-a925-4393-999c-d99d7f19c72d"},"vehicle_type_id":"4","last_reported":1726157428,"current_range_meters":8800,"station_id":"","pricing_plan_id":"cebpf4jnsgd1na2vs0mg"},{"bike_id":"7ad9c4c2-8e82-4e19-bf1e-a8777466a1dc","system_id":"levelo_inurba_marseille","lat":43.28423,"lon":5.34985,"is_reserved":false,"is_disabled":false,"rental_uris":{"android":"levelo://app?vid=7ad9c4c2-8e82-4e19-bf1e-a8777466a1dc","ios":"levelo://app?vid=7ad9c4c2-8e82-4e19-bf1e-a8777466a1dc"},"vehicle_type_id":"4","last_reported":1726157428,"current_range_meters":38400,"station_id":"ce4bhbh2rcd13ifvqepg","pricing_plan_id":"cebpf4jnsgd1na2vs0mg"},{"bike_id":"599eaaf8-a1b9-4b78-8074-8ec83fd4d3da","system_id":"levelo_inurba_marseille","lat":43.23193,"lon":5.35545,"is_reserved":false,"is_disabled":false,"rental_uris":{"android":"levelo://app?vid=599eaaf8-a1b9-4b78-8074-8ec83fd4d3da","ios":"levelo://app?vid=599eaaf8-a1b9-4b78-8074-8ec83fd4d3da"},"vehicle_type_id":"4","last_reported":1726157428,"current_range_meters":7200,"station_id":"ce4bhu92rcd13ifvqi70","pricing_plan_id":"cebpf4jnsgd1na2vs0mg"},{"bike_id":"09f085b5-f74f-4476-bc66-1e5e5540af85","system_id":"levelo_inurba_marseille","lat":43.29523,"lon":5.37511,"is_reserved":false,"is_disabled":false,"rental_uris":{"android":"levelo://app?vid=09f085b5-f74f-4476-bc66-1e5e5540af85","ios":"levelo://app?vid=09f085b5-f74f-4476-bc66-1e5e5540af85"},"vehicle_type_id":"4","last_reported":1726157428,"current_range_meters":28000,"station_id":"ce4bgkp2rcd13ifvqbmg","pricing_plan_id":"cebpf4jnsgd1na2vs0mg"},{"bike_id":"3fb32a89-abdd-430d-a868-a77f44c9138f","system_id":"levelo_inurba_marseille","lat":43.308938,"lon":5.396573,"is_reserved":false,"is_disabled":false,"rental_uris":{"android":"levelo://app?vid=3fb32a89-abdd-430d-a868-a77f44c9138f","ios":"levelo://app?vid=3fb32a89-abdd-430d-a868-a77f44c9138f"},"vehicle_type_id":"4","last_reported":1726157428,"current_range_meters":34800,"station_id":"ce4bh012rcd13ifvqcv0","pricing_plan_id":"cebpf4jnsgd1na2vs0mg"},{"bike_id":"7a76b28c-a19b-433d-b3cc-6943cc03681a","system_id":"levelo_inurba_marseille","lat":43.31266,"lon":5.40182,"is_reserved":false,"is_disabled":false,"rental_uris":{"android":"levelo://app?vid=7a76b28c-a19b-433d-b3cc-6943cc03681a","ios":"levelo://app?vid=7a76b28c-a19b-433d-b3cc-6943cc03681a"},"vehicle_type_id":"4","last_reported":1726157428,"current_range_meters":30400,"station_id":"ce4bh092rcd13ifvqd30","pricing_plan_id":"cebpf4jnsgd1na2vs0mg"},{"bike_id":"02b04dae-b08b-477e-94cd-64b35f979af4","system_id":"levelo_inurba_marseille","lat":43.31333,"lon":5.39685,"is_reserved":false,"is_disabled":false,"rental_uris":{"android":"levelo://app?vid=02b04dae-b08b-477e-94cd-64b35f979af4","ios":"levelo://app?vid=02b04dae-b08b-477e-94cd-64b35f979af4"},"vehicle_type_id":"4","last_reported":1726157428,"current_range_meters":9600,"station_id":"ce4bgvp2rcd13ifvqcu0","pricing_plan_id":"cebpf4jnsgd1na2vs0mg"},{"bike_id":"0ae4c82d-7bf7-4f75-9cfc-82f2792f9ace","system_id":"levelo_inurba_marseille","lat":43.30908,"lon":5.36846,"is_reserved":false,"is_disabled":false,"rental_uris":{"android":"levelo://app?vid=0ae4c82d-7bf7-4f75-9cfc-82f2792f9ace","ios":"levelo://app?vid=0ae4c82d-7bf7-4f75-9cfc-82f2792f9ace"},"vehicle_type_id":"4","last_reported":1726157428,"current_range_meters":14800,"station_id":"ce4bgn92rcd13ifvqbvg","pricing_plan_id":"cebpf4jnsgd1na2vs0mg"},{"bike_id":"174abb8b-305a-442b-8ea7-e8f57019a553","system_id":"levelo_inurba_marseille","lat":43.25876,"lon":5.39899,"is_reserved":false,"is_disabled":false,"rental_uris":{"android":"levelo://app?vid=174abb8b-305a-442b-8ea7-e8f57019a553","ios":"levelo://app?vid=174abb8b-305a-442b-8ea7-e8f57019a553"},"vehicle_type_id":"4","last_reported":1726157428,"current_range_meters":18800,"station_id":"ce4bhl92rcd13ifvqghg","pricing_plan_id":"cebpf4jnsgd1na2vs0mg"},{"bike_id":"7551d42d-8659-416d-896d-f767a7f37efa","system_id":"levelo_inurba_marseille","lat":43.24547,"lon":5.39521,"is_reserved":false,"is_disabled":false,"rental_uris":{"android":"levelo://app?vid=7551d42d-8659-416d-896d-f767a7f37efa","ios":"levelo://app?vid=7551d42d-8659-416d-896d-f767a7f37efa"},"vehicle_type_id":"4","last_reported":1726157428,"current_range_meters":36800,"station_id":"ce4bhlp2rcd13ifvqgjg","pricing_plan_id":"cebpf4jnsgd1na2vs0mg"},{"bike_id":"dc686f47-01f5-4a98-ac1c-77d1cebffb8c","system_id":"levelo_inurba_marseille","lat":43.23968,"lon":5.36629,"is_reserved":false,"is_disabled":false,"rental_uris":{"android":"levelo://app?vid=dc686f47-01f5-4a98-ac1c-77d1cebffb8c","ios":"levelo://app?vid=dc686f47-01f5-4a98-ac1c-77d1cebffb8c"},"vehicle_type_id":"4","last_reported":1726157428,"current_range_meters":26000,"station_id":"ce4bhi12rcd13ifvqfp0","pricing_plan_id":"cebpf4jnsgd1na2vs0mg"},{"bike_id":"8499aa7d-3df7-4854-8a3b-728308216b5a","system_id":"levelo_inurba_marseille","lat":43.25497,"lon":5.37645,"is_reserved":false,"is_disabled":false,"rental_uris":{"android":"levelo://app?vid=8499aa7d-3df7-4854-8a3b-728308216b5a","ios":"levelo://app?vid=8499aa7d-3df7-4854-8a3b-728308216b5a"},"vehicle_type_id":"4","last_reported":1726157428,"current_range_meters":20800,"station_id":"ce4bhh12rcd13ifvqff0","pricing_plan_id":"cebpf4jnsgd1na2vs0mg"},{"bike_id":"613cf67c-974f-4103-adda-eea159ab92b9","system_id":"levelo_inurba_marseille","lat":43.28276,"lon":5.35055,"is_reserved":false,"is_disabled":false,"rental_uris":{"android":"levelo://app?vid=613cf67c-974f-4103-adda-eea159ab92b9","ios":"levelo://app?vid=613cf67c-974f-4103-adda-eea159ab92b9"},"vehicle_type_id":"4","last_reported":1726157428,"current_range_meters":34000,"station_id":"ce4bhbp2rcd13ifvqerg","pricing_plan_id":"cebpf4jnsgd1na2vs0mg"},{"bike_id":"9a9b3e07-a9f9-4c91-a2a1-04b85a388a8a","system_id":"levelo_inurba_marseille","lat":43.30138,"lon":5.39877,"is_reserved":false,"is_disabled":false,"rental_uris":{"android":"levelo://app?vid=9a9b3e07-a9f9-4c91-a2a1-04b85a388a8a","ios":"levelo://app?vid=9a9b3e07-a9f9-4c91-a2a1-04b85a388a8a"},"vehicle_type_id":"4","last_reported":1726157428,"current_range_meters":8400,"station_id":"ce4bh0h2rcd13ifvqd40","pricing_plan_id":"cebpf4jnsgd1na2vs0mg"},{"bike_id":"462552d9-a18b-4931-98aa-694bb42cde8d","system_id":"levelo_inurba_marseille","lat":43.25086,"lon":5.39515,"is_reserved":false,"is_disabled":false,"rental_uris":{"android":"levelo://app?vid=462552d9-a18b-4931-98aa-694bb42cde8d","ios":"levelo://app?vid=462552d9-a18b-4931-98aa-694bb42cde8d"},"vehicle_type_id":"4","last_reported":1726157428,"current_range_meters":4400,"station_id":"ce4bhm12rcd13ifvqgkg","pricing_plan_id":"cebpf4jnsgd1na2vs0mg"},{"bike_id":"5596ce60-9839-4211-8445-311576022290","system_id":"levelo_inurba_marseille","lat":43.25584,"lon":5.38235,"is_reserved":false,"is_disabled":false,"rental_uris":{"android":"levelo://app?vid=5596ce60-9839-4211-8445-311576022290","ios":"levelo://app?vid=5596ce60-9839-4211-8445-311576022290"},"vehicle_type_id":"4","last_reported":1726157428,"current_range_meters":38400,"station_id":"ce4bhih2rcd13ifvqfs0","pricing_plan_id":"cebpf4jnsgd1na2vs0mg"},{"bike_id":"f0a60357-a4a7-4d95-b710-e17cc5202ab2","system_id":"levelo_inurba_marseille","lat":43.32658,"lon":5.40987,"is_reserved":false,"is_disabled":false,"rental_uris":{"android":"levelo://app?vid=f0a60357-a4a7-4d95-b710-e17cc5202ab2","ios":"levelo://app?vid=f0a60357-a4a7-4d95-b710-e17cc5202ab2"},"vehicle_type_id":"4","last_reported":1726157428,"current_range_meters":32000,"station_id":"ce4bhpp2rcd13ifvqhgg","pricing_plan_id":"cebpf4jnsgd1na2vs0mg"},{"bike_id":"9c1c8234-7840-4bea-8e39-cbca34b58d96","system_id":"levelo_inurba_marseille","lat":43.31331,"lon":5.39686,"is_reserved":false,"is_disabled":false,"rental_uris":{"android":"levelo://app?vid=9c1c8234-7840-4bea-8e39-cbca34b58d96","ios":"levelo://app?vid=9c1c8234-7840-4bea-8e39-cbca34b58d96"},"vehicle_type_id":"4","last_reported":1726157428,"current_range_meters":24000,"station_id":"ce4bgvp2rcd13ifvqcu0","pricing_plan_id":"cebpf4jnsgd1na2vs0mg"},{"bike_id":"7e30533e-4494-4f63-98a5-7809aac44858","system_id":"levelo_inurba_marseille","lat":43.29551,"lon":5.4228,"is_reserved":false,"is_disabled":false,"rental_uris":{"android":"levelo://app?vid=7e30533e-4494-4f63-98a5-7809aac44858","ios":"levelo://app?vid=7e30533e-4494-4f63-98a5-7809aac44858"},"vehicle_type_id":"4","last_reported":1726157428,"current_range_meters":19600,"station_id":"ce4bhph2rcd13ifvqhdg","pricing_plan_id":"cebpf4jnsgd1na2vs0mg"},{"bike_id":"0812723c-bd87-43d9-ba80-42e1368ee507","system_id":"levelo_inurba_marseille","lat":43.25937,"lon":5.409,"is_reserved":false,"is_disabled":false,"rental_uris":{"android":"levelo://app?vid=0812723c-bd87-43d9-ba80-42e1368ee507","ios":"levelo://app?vid=0812723c-bd87-43d9-ba80-42e1368ee507"},"vehicle_type_id":"4","last_reported":1726157428,"current_range_meters":24800,"station_id":"ce4bhm92rcd13ifvqglg","pricing_plan_id":"cebpf4jnsgd1na2vs0mg"},{"bike_id":"c4310ef9-c829-4b33-b312-fead80e91af1","system_id":"levelo_inurba_marseille","lat":43.24659,"lon":5.38162,"is_reserved":false,"is_disabled":false,"rental_uris":{"android":"levelo://app?vid=c4310ef9-c829-4b33-b312-fead80e91af1","ios":"levelo://app?vid=c4310ef9-c829-4b33-b312-fead80e91af1"},"vehicle_type_id":"4","last_reported":1726157428,"current_range_meters":2000,"station_id":"ce4bhih2rcd13ifvqfr0","pricing_plan_id":"cebpf4jnsgd1na2vs0mg"},{"bike_id":"1fe838ac-1327-4572-9c6e-70a6ec3cd45e","system_id":"levelo_inurba_marseille","lat":43.30544,"lon":5.36525,"is_reserved":false,"is_disabled":false,"rental_uris":{"android":"levelo://app?vid=1fe838ac-1327-4572-9c6e-70a6ec3cd45e","ios":"levelo://app?vid=1fe838ac-1327-4572-9c6e-70a6ec3cd45e"},"vehicle_type_id":"4","last_reported":1726157428,"current_range_meters":2000,"station_id":"ce4bgs12rcd13ifvqcag","pricing_plan_id":"cebpf4jnsgd1na2vs0mg"},{"bike_id":"ffb75a01-fc80-4660-869b-cc5d08a92319","system_id":"levelo_inurba_marseille","lat":43.324848,"lon":5.36575,"is_reserved":false,"is_disabled":false,"rental_uris":{"android":"levelo://app?vid=ffb75a01-fc80-4660-869b-cc5d08a92319","ios":"levelo://app?vid=ffb75a01-fc80-4660-869b-cc5d08a92319"},"vehicle_type_id":"4","last_reported":1726157428,"current_range_meters":20800,"station_id":"ce4bhs12rcd13ifvqhvg","pricing_plan_id":"cebpf4jnsgd1na2vs0mg"},{"bike_id":"04f3e99f-e6c7-4fbf-b251-81eac8250857","system_id":"levelo_inurba_marseille","lat":43.27907,"lon":5.38005,"is_reserved":false,"is_disabled":false,"rental_uris":{"android":"levelo://app?vid=04f3e99f-e6c7-4fbf-b251-81eac8250857","ios":"levelo://app?vid=04f3e99f-e6c7-4fbf-b251-81eac8250857"},"vehicle_type_id":"4","last_reported":1726157428,"current_range_meters":23200,"station_id":"ce4bhf92rcd13ifvqf50","pricing_plan_id":"cebpf4jnsgd1na2vs0mg"},{"bike_id":"a7b7f8d0-3d61-4c0b-9251-35f7e67c851d","system_id":"levelo_inurba_marseille","lat":43.29511,"lon":5.39023,"is_reserved":false,"is_disabled":false,"rental_uris":{"android":"levelo://app?vid=a7b7f8d0-3d61-4c0b-9251-35f7e67c851d","ios":"levelo://app?vid=a7b7f8d0-3d61-4c0b-9251-35f7e67c851d"},"vehicle_type_id":"4","last_reported":1726157428,"current_range_meters":17600,"station_id":"ce4bh3p2rcd13ifvqdp0","pricing_plan_id":"cebpf4jnsgd1na2vs0mg"},{"bike_id":"388ca8a9-1740-4fb2-ac3f-13aaabe5a8f1","system_id":"levelo_inurba_marseille","lat":43.28271,"lon":5.35056,"is_reserved":false,"is_disabled":false,"rental_uris":{"android":"levelo://app?vid=388ca8a9-1740-4fb2-ac3f-13aaabe5a8f1","ios":"levelo://app?vid=388ca8a9-1740-4fb2-ac3f-13aaabe5a8f1"},"vehicle_type_id":"4","last_reported":1726157428,"current_range_meters":29600,"station_id":"ce4bhbp2rcd13ifvqerg","pricing_plan_id":"cebpf4jnsgd1na2vs0mg"},{"bike_id":"1a8ea2fa-505f-4bc7-a9bf-4eea4727ec73","system_id":"levelo_inurba_marseille","lat":43.25113,"lon":5.40322,"is_reserved":false,"is_disabled":false,"rental_uris":{"android":"levelo://app?vid=1a8ea2fa-505f-4bc7-a9bf-4eea4727ec73","ios":"levelo://app?vid=1a8ea2fa-505f-4bc7-a9bf-4eea4727ec73"},"vehicle_type_id":"4","last_reported":1726157428,"current_range_meters":2000,"station_id":"ce4bhlh2rcd13ifvqgig","pricing_plan_id":"cebpf4jnsgd1na2vs0mg"},{"bike_id":"af9421c8-e08e-45c9-9f79-72574fc04e9d","system_id":"levelo_inurba_marseille","lat":43.24172,"lon":5.36383,"is_reserved":false,"is_disabled":false,"rental_uris":{"android":"levelo://app?vid=af9421c8-e08e-45c9-9f79-72574fc04e9d","ios":"levelo://app?vid=af9421c8-e08e-45c9-9f79-72574fc04e9d"},"vehicle_type_id":"4","last_reported":1726157428,"current_range_meters":34800,"station_id":"cpo36qri1sfpv3e86is0","pricing_plan_id":"cebpf4jnsgd1na2vs0mg"},{"bike_id":"cf0038ba-9482-4d1d-a7a2-e2b8ae3fde8f","system_id":"levelo_inurba_marseille","lat":43.28934,"lon":5.36397,"is_reserved":false,"is_disabled":false,"rental_uris":{"android":"levelo://app?vid=cf0038ba-9482-4d1d-a7a2-e2b8ae3fde8f","ios":"levelo://app?vid=cf0038ba-9482-4d1d-a7a2-e2b8ae3fde8f"},"vehicle_type_id":"4","last_reported":1726157428,"current_range_meters":11200,"station_id":"ce4bhc92rcd13ifvqetg","pricing_plan_id":"cebpf4jnsgd1na2vs0mg"},{"bike_id":"eb26547d-d2dc-4271-9b46-5531bc5409a9","system_id":"levelo_inurba_marseille","lat":43.26063,"lon":5.3939,"is_reserved":false,"is_disabled":false,"rental_uris":{"android":"levelo://app?vid=eb26547d-d2dc-4271-9b46-5531bc5409a9","ios":"levelo://app?vid=eb26547d-d2dc-4271-9b46-5531bc5409a9"},"vehicle_type_id":"4","last_reported":1726157428,"current_range_meters":6000,"station_id":"ce4bhh92rcd13ifvqfj0","pricing_plan_id":"cebpf4jnsgd1na2vs0mg"},{"bike_id":"f400d370-a20e-4ced-86f0-64f62510749c","system_id":"levelo_inurba_marseille","lat":43.3237,"lon":5.38926,"is_reserved":false,"is_disabled":false,"rental_uris":{"android":"levelo://app?vid=f400d370-a20e-4ced-86f0-64f62510749c","ios":"levelo://app?vid=f400d370-a20e-4ced-86f0-64f62510749c"},"vehicle_type_id":"4","last_reported":1726157428,"current_range_meters":8800,"station_id":"","pricing_plan_id":"cebpf4jnsgd1na2vs0mg"},{"bike_id":"062db2c0-7f42-4b55-aea4-0d55c94e85c9","system_id":"levelo_inurba_marseille","lat":43.25869,"lon":5.39902,"is_reserved":false,"is_disabled":false,"rental_uris":{"android":"levelo://app?vid=062db2c0-7f42-4b55-aea4-0d55c94e85c9","ios":"levelo://app?vid=062db2c0-7f42-4b55-aea4-0d55c94e85c9"},"vehicle_type_id":"4","last_reported":1726157428,"current_range_meters":22800,"station_id":"ce4bhl92rcd13ifvqghg","pricing_plan_id":"cebpf4jnsgd1na2vs0mg"},{"bike_id":"d5b8cd47-7a67-4090-a97d-ed8237088151","system_id":"levelo_inurba_marseille","lat":43.2656,"lon":5.37283,"is_reserved":false,"is_disabled":false,"rental_uris":{"android":"levelo://app?vid=d5b8cd47-7a67-4090-a97d-ed8237088151","ios":"levelo://app?vid=d5b8cd47-7a67-4090-a97d-ed8237088151"},"vehicle_type_id":"4","last_reported":1726157428,"current_range_meters":8000,"station_id":"ce4bhg12rcd13ifvqf70","pricing_plan_id":"cebpf4jnsgd1na2vs0mg"},{"bike_id":"397aeeb8-6532-4e9d-b1db-bfacd11b78c7","system_id":"levelo_inurba_marseille","lat":43.296269,"lon":5.40588,"is_reserved":false,"is_disabled":false,"rental_uris":{"android":"levelo://app?vid=397aeeb8-6532-4e9d-b1db-bfacd11b78c7","ios":"levelo://app?vid=397aeeb8-6532-4e9d-b1db-bfacd11b78c7"},"vehicle_type_id":"4","last_reported":1726157428,"current_range_meters":19600,"station_id":"ce4bh0h2rcd13ifvqd60","pricing_plan_id":"cebpf4jnsgd1na2vs0mg"},{"bike_id":"80f03b46-f19d-432d-b9b8-c613b9ca59d3","system_id":"levelo_inurba_marseille","lat":43.281781,"lon":5.394779,"is_reserved":false,"is_disabled":false,"rental_uris":{"android":"levelo://app?vid=80f03b46-f19d-432d-b9b8-c613b9ca59d3","ios":"levelo://app?vid=80f03b46-f19d-432d-b9b8-c613b9ca59d3"},"vehicle_type_id":"4","last_reported":1726157428,"current_range_meters":24800,"station_id":"ce4bho12rcd13ifvqh2g","pricing_plan_id":"cebpf4jnsgd1na2vs0mg"},{"bike_id":"13e8ed3a-03c3-4aeb-b2e4-5599eee620ac","system_id":"levelo_inurba_marseille","lat":43.32485,"lon":5.36565,"is_reserved":false,"is_disabled":false,"rental_uris":{"android":"levelo://app?vid=13e8ed3a-03c3-4aeb-b2e4-5599eee620ac","ios":"levelo://app?vid=13e8ed3a-03c3-4aeb-b2e4-5599eee620ac"},"vehicle_type_id":"4","last_reported":1726157428,"current_range_meters":26800,"station_id":"ce4bhs12rcd13ifvqhvg","pricing_plan_id":"cebpf4jnsgd1na2vs0mg"},{"bike_id":"dc839b57-bd97-41c0-af2d-936fe9e00637","system_id":"levelo_inurba_marseille","lat":43.29103,"lon":5.38151,"is_reserved":false,"is_disabled":false,"rental_uris":{"android":"levelo://app?vid=dc839b57-bd97-41c0-af2d-936fe9e00637","ios":"levelo://app?vid=dc839b57-bd97-41c0-af2d-936fe9e00637"},"vehicle_type_id":"4","last_reported":1726157428,"current_range_meters":13600,"station_id":"ce4bh512rcd13ifvqe2g","pricing_plan_id":"cebpf4jnsgd1na2vs0mg"},{"bike_id":"c3857a62-27f9-4ebc-b879-a946461d831e","system_id":"levelo_inurba_marseille","lat":43.32368,"lon":5.38884,"is_reserved":false,"is_disabled":false,"rental_uris":{"android":"levelo://app?vid=c3857a62-27f9-4ebc-b879-a946461d831e","ios":"levelo://app?vid=c3857a62-27f9-4ebc-b879-a946461d831e"},"vehicle_type_id":"4","last_reported":1726157428,"current_range_meters":16000,"station_id":"ce4bhqp2rcd13ifvqhog","pricing_plan_id":"cebpf4jnsgd1na2vs0mg"},{"bike_id":"4d418e79-2a08-4dd6-abf8-b5e3e58e82e3","system_id":"levelo_inurba_marseille","lat":43.30881,"lon":5.39633,"is_reserved":false,"is_disabled":false,"rental_uris":{"android":"levelo://app?vid=4d418e79-2a08-4dd6-abf8-b5e3e58e82e3","ios":"levelo://app?vid=4d418e79-2a08-4dd6-abf8-b5e3e58e82e3"},"vehicle_type_id":"4","last_reported":1726157428,"current_range_meters":10800,"station_id":"ce4bh012rcd13ifvqcv0","pricing_plan_id":"cebpf4jnsgd1na2vs0mg"},{"bike_id":"820bc699-9d49-4822-b984-61ec2ac21bca","system_id":"levelo_inurba_marseille","lat":43.31715,"lon":5.37744,"is_reserved":false,"is_disabled":false,"rental_uris":{"android":"levelo://app?vid=820bc699-9d49-4822-b984-61ec2ac21bca","ios":"levelo://app?vid=820bc699-9d49-4822-b984-61ec2ac21bca"},"vehicle_type_id":"4","last_reported":1726157428,"current_range_meters":23200,"station_id":"ce4bgth2rcd13ifvqch0","pricing_plan_id":"cebpf4jnsgd1na2vs0mg"},{"bike_id":"d2b5438d-c3ce-408a-97f0-f77b818c95bf","system_id":"levelo_inurba_marseille","lat":43.25927,"lon":5.40901,"is_reserved":false,"is_disabled":false,"rental_uris":{"android":"levelo://app?vid=d2b5438d-c3ce-408a-97f0-f77b818c95bf","ios":"levelo://app?vid=d2b5438d-c3ce-408a-97f0-f77b818c95bf"},"vehicle_type_id":"4","last_reported":1726157428,"current_range_meters":9200,"station_id":"ce4bhm92rcd13ifvqglg","pricing_plan_id":"cebpf4jnsgd1na2vs0mg"},{"bike_id":"0e30b7b5-0db0-4355-b513-edbe03190a76","system_id":"levelo_inurba_marseille","lat":43.29877,"lon":5.39735,"is_reserved":false,"is_disabled":false,"rental_uris":{"android":"levelo://app?vid=0e30b7b5-0db0-4355-b513-edbe03190a76","ios":"levelo://app?vid=0e30b7b5-0db0-4355-b513-edbe03190a76"},"vehicle_type_id":"4","last_reported":1726157428,"current_range_meters":5600,"station_id":"ce4bh0h2rcd13ifvqd50","pricing_plan_id":"cebpf4jnsgd1na2vs0mg"},{"bike_id":"adb02dce-d0f5-4f95-a122-f90ac052a03b","system_id":"levelo_inurba_marseille","lat":43.304138,"lon":5.412808,"is_reserved":false,"is_disabled":false,"rental_uris":{"android":"levelo://app?vid=adb02dce-d0f5-4f95-a122-f90ac052a03b","ios":"levelo://app?vid=adb02dce-d0f5-4f95-a122-f90ac052a03b"},"vehicle_type_id":"4","last_reported":1726157428,"current_range_meters":27200,"station_id":"ce4bhop2rcd13ifvqh8g","pricing_plan_id":"cebpf4jnsgd1na2vs0mg"},{"bike_id":"bd496dc8-cb74-4481-acf7-0a6de3a6501b","system_id":"levelo_inurba_marseille","lat":43.299744,"lon":5.397158,"is_reserved":false,"is_disabled":false,"rental_uris":{"android":"levelo://app?vid=bd496dc8-cb74-4481-acf7-0a6de3a6501b","ios":"levelo://app?vid=bd496dc8-cb74-4481-acf7-0a6de3a6501b"},"vehicle_type_id":"4","last_reported":1726157428,"current_range_meters":22800,"station_id":"ce4bh0h2rcd13ifvqd50","pricing_plan_id":"cebpf4jnsgd1na2vs0mg"},{"bike_id":"d671915b-a617-47f8-ae79-5be8e474beee","system_id":"levelo_inurba_marseille","lat":43.31116,"lon":5.37768,"is_reserved":false,"is_disabled":false,"rental_uris":{"android":"levelo://app?vid=d671915b-a617-47f8-ae79-5be8e474beee","ios":"levelo://app?vid=d671915b-a617-47f8-ae79-5be8e474beee"},"vehicle_type_id":"4","last_reported":1726157428,"current_range_meters":4800,"station_id":"ce4bgt92rcd13ifvqcg0","pricing_plan_id":"cebpf4jnsgd1na2vs0mg"},{"bike_id":"2be6eeef-4e9f-4359-a61f-e26ca49a3d93","system_id":"levelo_inurba_marseille","lat":43.266712,"lon":5.382872,"is_reserved":false,"is_disabled":false,"rental_uris":{"android":"levelo://app?vid=2be6eeef-4e9f-4359-a61f-e26ca49a3d93","ios":"levelo://app?vid=2be6eeef-4e9f-4359-a61f-e26ca49a3d93"},"vehicle_type_id":"4","last_reported":1726157428,"current_range_meters":6000,"station_id":"ce4bhg92rcd13ifvqf90","pricing_plan_id":"cebpf4jnsgd1na2vs0mg"},{"bike_id":"8dd8438a-605c-4e2e-b3e7-6ddb4b97ab5b","system_id":"levelo_inurba_marseille","lat":43.28458,"lon":5.35879,"is_reserved":false,"is_disabled":false,"rental_uris":{"android":"levelo://app?vid=8dd8438a-605c-4e2e-b3e7-6ddb4b97ab5b","ios":"levelo://app?vid=8dd8438a-605c-4e2e-b3e7-6ddb4b97ab5b"},"vehicle_type_id":"4","last_reported":1726157428,"current_range_meters":4400,"station_id":"ce4bhah2rcd13ifvqei0","pricing_plan_id":"cebpf4jnsgd1na2vs0mg"},{"bike_id":"c12c1968-eebe-46fd-ad1c-5b38eb74aca3","system_id":"levelo_inurba_marseille","lat":43.29259,"lon":5.40901,"is_reserved":false,"is_disabled":false,"rental_uris":{"android":"levelo://app?vid=c12c1968-eebe-46fd-ad1c-5b38eb74aca3","ios":"levelo://app?vid=c12c1968-eebe-46fd-ad1c-5b38eb74aca3"},"vehicle_type_id":"4","last_reported":1726157428,"current_range_meters":20400,"station_id":"ce4bh192rcd13ifvqdc0","pricing_plan_id":"cebpf4jnsgd1na2vs0mg"},{"bike_id":"58900521-f788-4090-90d4-8129e5641ef0","system_id":"levelo_inurba_marseille","lat":43.28614,"lon":5.35103,"is_reserved":false,"is_disabled":false,"rental_uris":{"android":"levelo://app?vid=58900521-f788-4090-90d4-8129e5641ef0","ios":"levelo://app?vid=58900521-f788-4090-90d4-8129e5641ef0"},"vehicle_type_id":"4","last_reported":1726157428,"current_range_meters":28400,"station_id":"ce4bhch2rcd13ifvqeug","pricing_plan_id":"cebpf4jnsgd1na2vs0mg"},{"bike_id":"d49f7c35-1919-4180-80f9-f0c58e6eaad2","system_id":"levelo_inurba_marseille","lat":43.29067,"lon":5.3716,"is_reserved":false,"is_disabled":false,"rental_uris":{"android":"levelo://app?vid=d49f7c35-1919-4180-80f9-f0c58e6eaad2","ios":"levelo://app?vid=d49f7c35-1919-4180-80f9-f0c58e6eaad2"},"vehicle_type_id":"4","last_reported":1726157428,"current_range_meters":2000,"station_id":"ce4bh5p2rcd13ifvqe4g","pricing_plan_id":"cebpf4jnsgd1na2vs0mg"},{"bike_id":"aabbb97b-a90f-465e-9fe1-2283a462b843","system_id":"levelo_inurba_marseille","lat":43.24805,"lon":5.37454,"is_reserved":false,"is_disabled":false,"rental_uris":{"android":"levelo://app?vid=aabbb97b-a90f-465e-9fe1-2283a462b843","ios":"levelo://app?vid=aabbb97b-a90f-465e-9fe1-2283a462b843"},"vehicle_type_id":"4","last_reported":1726157428,"current_range_meters":25200,"station_id":"ce4bhgh2rcd13ifvqfb0","pricing_plan_id":"cebpf4jnsgd1na2vs0mg"},{"bike_id":"60a6822c-1b4f-4662-b87f-cf226bb5c650","system_id":"levelo_inurba_marseille","lat":43.29024,"lon":5.35594,"is_reserved":false,"is_disabled":false,"rental_uris":{"android":"levelo://app?vid=60a6822c-1b4f-4662-b87f-cf226bb5c650","ios":"levelo://app?vid=60a6822c-1b4f-4662-b87f-cf226bb5c650"},"vehicle_type_id":"4","last_reported":1726157428,"current_range_meters":3600,"station_id":"ce4bgph2rcd13ifvqc2g","pricing_plan_id":"cebpf4jnsgd1na2vs0mg"},{"bike_id":"b64dd14e-48e3-40f5-a2fb-7abf69c1a52a","system_id":"levelo_inurba_marseille","lat":43.29882,"lon":5.39741,"is_reserved":false,"is_disabled":false,"rental_uris":{"android":"levelo://app?vid=b64dd14e-48e3-40f5-a2fb-7abf69c1a52a","ios":"levelo://app?vid=b64dd14e-48e3-40f5-a2fb-7abf69c1a52a"},"vehicle_type_id":"4","last_reported":1726157428,"current_range_meters":25600,"station_id":"ce4bh0h2rcd13ifvqd50","pricing_plan_id":"cebpf4jnsgd1na2vs0mg"},{"bike_id":"d676ee8b-db69-43d0-9729-a996f631516d","system_id":"levelo_inurba_marseille","lat":43.28414,"lon":5.37511,"is_reserved":false,"is_disabled":false,"rental_uris":{"android":"levelo://app?vid=d676ee8b-db69-43d0-9729-a996f631516d","ios":"levelo://app?vid=d676ee8b-db69-43d0-9729-a996f631516d"},"vehicle_type_id":"4","last_reported":1726157428,"current_range_meters":19200,"station_id":"ce4bh412rcd13ifvqds0","pricing_plan_id":"cebpf4jnsgd1na2vs0mg"},{"bike_id":"484e281b-d769-40f0-833f-0c9034ef74e8","system_id":"levelo_inurba_marseille","lat":43.30637,"lon":5.40073,"is_reserved":false,"is_disabled":false,"rental_uris":{"android":"levelo://app?vid=484e281b-d769-40f0-833f-0c9034ef74e8","ios":"levelo://app?vid=484e281b-d769-40f0-833f-0c9034ef74e8"},"vehicle_type_id":"4","last_reported":1726157428,"current_range_meters":24400,"station_id":"ce4bh112rcd13ifvqda0","pricing_plan_id":"cebpf4jnsgd1na2vs0mg"},{"bike_id":"59a4a50e-7904-4b14-9a1d-ebfe2b8ccaa4","system_id":"levelo_inurba_marseille","lat":43.29816,"lon":5.40404,"is_reserved":false,"is_disabled":false,"rental_uris":{"android":"levelo://app?vid=59a4a50e-7904-4b14-9a1d-ebfe2b8ccaa4","ios":"levelo://app?vid=59a4a50e-7904-4b14-9a1d-ebfe2b8ccaa4"},"vehicle_type_id":"4","last_reported":1726157428,"current_range_meters":33200,"station_id":"ce4bh112rcd13ifvqd90","pricing_plan_id":"cebpf4jnsgd1na2vs0mg"},{"bike_id":"2ac1ce92-e83f-48c1-8be0-35e4da4cb98f","system_id":"levelo_inurba_marseille","lat":43.24178,"lon":5.39722,"is_reserved":false,"is_disabled":false,"rental_uris":{"android":"levelo://app?vid=2ac1ce92-e83f-48c1-8be0-35e4da4cb98f","ios":"levelo://app?vid=2ac1ce92-e83f-48c1-8be0-35e4da4cb98f"},"vehicle_type_id":"4","last_reported":1726157428,"current_range_meters":16400,"station_id":"ce4bhn12rcd13ifvqgpg","pricing_plan_id":"cebpf4jnsgd1na2vs0mg"},{"bike_id":"f466871e-6a83-4c36-bd1e-6ca5fa258041","system_id":"levelo_inurba_marseille","lat":43.3248,"lon":5.36567,"is_reserved":false,"is_disabled":false,"rental_uris":{"android":"levelo://app?vid=f466871e-6a83-4c36-bd1e-6ca5fa258041","ios":"levelo://app?vid=f466871e-6a83-4c36-bd1e-6ca5fa258041"},"vehicle_type_id":"4","last_reported":1726157428,"current_range_meters":28800,"station_id":"ce4bhs12rcd13ifvqhvg","pricing_plan_id":"cebpf4jnsgd1na2vs0mg"},{"bike_id":"0336d870-c49d-4470-a71f-452942676f5a","system_id":"levelo_inurba_marseille","lat":43.24385,"lon":5.37054,"is_reserved":false,"is_disabled":false,"rental_uris":{"android":"levelo://app?vid=0336d870-c49d-4470-a71f-452942676f5a","ios":"levelo://app?vid=0336d870-c49d-4470-a71f-452942676f5a"},"vehicle_type_id":"4","last_reported":1726157428,"current_range_meters":30400,"station_id":"ce4bhhh2rcd13ifvqfk0","pricing_plan_id":"cebpf4jnsgd1na2vs0mg"},{"bike_id":"9afcae87-1369-4b02-9c8d-d1de22085f82","system_id":"levelo_inurba_marseille","lat":43.24175,"lon":5.39721,"is_reserved":false,"is_disabled":false,"rental_uris":{"android":"levelo://app?vid=9afcae87-1369-4b02-9c8d-d1de22085f82","ios":"levelo://app?vid=9afcae87-1369-4b02-9c8d-d1de22085f82"},"vehicle_type_id":"4","last_reported":1726157428,"current_range_meters":28800,"station_id":"ce4bhn12rcd13ifvqgpg","pricing_plan_id":"cebpf4jnsgd1na2vs0mg"},{"bike_id":"83ed2c2a-c3e6-4c71-877c-ab224ee59227","system_id":"levelo_inurba_marseille","lat":43.29528,"lon":5.39028,"is_reserved":false,"is_disabled":false,"rental_uris":{"android":"levelo://app?vid=83ed2c2a-c3e6-4c71-877c-ab224ee59227","ios":"levelo://app?vid=83ed2c2a-c3e6-4c71-877c-ab224ee59227"},"vehicle_type_id":"4","last_reported":1726157428,"current_range_meters":18800,"station_id":"ce4bh3p2rcd13ifvqdp0","pricing_plan_id":"cebpf4jnsgd1na2vs0mg"},{"bike_id":"97e80746-a3ce-45f2-8c1c-26d0c289628b","system_id":"levelo_inurba_marseille","lat":43.29571,"lon":5.39967,"is_reserved":false,"is_disabled":false,"rental_uris":{"android":"levelo://app?vid=97e80746-a3ce-45f2-8c1c-26d0c289628b","ios":"levelo://app?vid=97e80746-a3ce-45f2-8c1c-26d0c289628b"},"vehicle_type_id":"4","last_reported":1726157428,"current_range_meters":34800,"station_id":"ce4bh312rcd13ifvqdj0","pricing_plan_id":"cebpf4jnsgd1na2vs0mg"},{"bike_id":"1a9c0247-6efd-4b38-bc06-97e54d70b092","system_id":"levelo_inurba_marseille","lat":43.29556,"lon":5.42281,"is_reserved":false,"is_disabled":false,"rental_uris":{"android":"levelo://app?vid=1a9c0247-6efd-4b38-bc06-97e54d70b092","ios":"levelo://app?vid=1a9c0247-6efd-4b38-bc06-97e54d70b092"},"vehicle_type_id":"4","last_reported":1726157428,"current_range_meters":31200,"station_id":"ce4bhph2rcd13ifvqhdg","pricing_plan_id":"cebpf4jnsgd1na2vs0mg"},{"bike_id":"fef517ac-4e8a-466d-9f94-a669acbe686e","system_id":"levelo_inurba_marseille","lat":43.33724,"lon":5.39178,"is_reserved":false,"is_disabled":false,"rental_uris":{"android":"levelo://app?vid=fef517ac-4e8a-466d-9f94-a669acbe686e","ios":"levelo://app?vid=fef517ac-4e8a-466d-9f94-a669acbe686e"},"vehicle_type_id":"4","last_reported":1726157428,"current_range_meters":35200,"station_id":"ce4bhr92rcd13ifvqhsg","pricing_plan_id":"cebpf4jnsgd1na2vs0mg"},{"bike_id":"a84aba1b-8d3b-4764-a798-62e3df2b244b","system_id":"levelo_inurba_marseille","lat":43.23965,"lon":5.36622,"is_reserved":false,"is_disabled":false,"rental_uris":{"android":"levelo://app?vid=a84aba1b-8d3b-4764-a798-62e3df2b244b","ios":"levelo://app?vid=a84aba1b-8d3b-4764-a798-62e3df2b244b"},"vehicle_type_id":"4","last_reported":1726157428,"current_range_meters":22800,"station_id":"ce4bhi12rcd13ifvqfp0","pricing_plan_id":"cebpf4jnsgd1na2vs0mg"},{"bike_id":"ac9a0407-f13f-441a-bbda-398676892723","system_id":"levelo_inurba_marseille","lat":43.308,"lon":5.43528,"is_reserved":false,"is_disabled":false,"rental_uris":{"android":"levelo://app?vid=ac9a0407-f13f-441a-bbda-398676892723","ios":"levelo://app?vid=ac9a0407-f13f-441a-bbda-398676892723"},"vehicle_type_id":"4","last_reported":1726157428,"current_range_meters":21600,"station_id":"ce4bhph2rcd13ifvqheg","pricing_plan_id":"cebpf4jnsgd1na2vs0mg"},{"bike_id":"0e8d51cc-3c6c-4a03-81e2-24f533f0885d","system_id":"levelo_inurba_marseille","lat":43.2572,"lon":5.41106,"is_reserved":false,"is_disabled":false,"rental_uris":{"android":"levelo://app?vid=0e8d51cc-3c6c-4a03-81e2-24f533f0885d","ios":"levelo://app?vid=0e8d51cc-3c6c-4a03-81e2-24f533f0885d"},"vehicle_type_id":"4","last_reported":1726157428,"current_range_meters":39200,"station_id":"ce4bhkp2rcd13ifvqgd0","pricing_plan_id":"cebpf4jnsgd1na2vs0mg"},{"bike_id":"0c0566b0-d0a8-4611-be99-9c11b9df0b50","system_id":"levelo_inurba_marseille","lat":43.23182,"lon":5.3998,"is_reserved":false,"is_disabled":false,"rental_uris":{"android":"levelo://app?vid=0c0566b0-d0a8-4611-be99-9c11b9df0b50","ios":"levelo://app?vid=0c0566b0-d0a8-4611-be99-9c11b9df0b50"},"vehicle_type_id":"4","last_reported":1726157428,"current_range_meters":32000,"station_id":"ce4bhn12rcd13ifvqgqg","pricing_plan_id":"cebpf4jnsgd1na2vs0mg"},{"bike_id":"ab531019-5862-4524-a575-e051040f465e","system_id":"levelo_inurba_marseille","lat":43.25109,"lon":5.40323,"is_reserved":false,"is_disabled":false,"rental_uris":{"android":"levelo://app?vid=ab531019-5862-4524-a575-e051040f465e","ios":"levelo://app?vid=ab531019-5862-4524-a575-e051040f465e"},"vehicle_type_id":"4","last_reported":1726157428,"current_range_meters":30000,"station_id":"ce4bhlh2rcd13ifvqgig","pricing_plan_id":"cebpf4jnsgd1na2vs0mg"},{"bike_id":"0154c5d0-0dea-45f2-aa50-568e3d242970","system_id":"levelo_inurba_marseille","lat":43.29416,"lon":5.38625,"is_reserved":false,"is_disabled":false,"rental_uris":{"android":"levelo://app?vid=0154c5d0-0dea-45f2-aa50-568e3d242970","ios":"levelo://app?vid=0154c5d0-0dea-45f2-aa50-568e3d242970"},"vehicle_type_id":"4","last_reported":1726157428,"current_range_meters":20800,"station_id":"ce4bh2h2rcd13ifvqdh0","pricing_plan_id":"cebpf4jnsgd1na2vs0mg"},{"bike_id":"73d91b1c-aeb9-4ab6-b8f6-b93d97ab01f0","system_id":"levelo_inurba_marseille","lat":43.289887,"lon":5.37829,"is_reserved":false,"is_disabled":false,"rental_uris":{"android":"levelo://app?vid=73d91b1c-aeb9-4ab6-b8f6-b93d97ab01f0","ios":"levelo://app?vid=73d91b1c-aeb9-4ab6-b8f6-b93d97ab01f0"},"vehicle_type_id":"4","last_reported":1726157428,"current_range_meters":17600,"station_id":"ce4bh9p2rcd13ifvqed0","pricing_plan_id":"cebpf4jnsgd1na2vs0mg"},{"bike_id":"da7fb797-e2f8-44d2-aa80-39bc70474541","system_id":"levelo_inurba_marseille","lat":43.28273,"lon":5.35064,"is_reserved":false,"is_disabled":false,"rental_uris":{"android":"levelo://app?vid=da7fb797-e2f8-44d2-aa80-39bc70474541","ios":"levelo://app?vid=da7fb797-e2f8-44d2-aa80-39bc70474541"},"vehicle_type_id":"4","last_reported":1726157428,"current_range_meters":6800,"station_id":"ce4bhbp2rcd13ifvqerg","pricing_plan_id":"cebpf4jnsgd1na2vs0mg"},{"bike_id":"1d62640d-6f3f-4f9c-bb03-34ae22551572","system_id":"levelo_inurba_marseille","lat":43.29519,"lon":5.39028,"is_reserved":false,"is_disabled":false,"rental_uris":{"android":"levelo://app?vid=1d62640d-6f3f-4f9c-bb03-34ae22551572","ios":"levelo://app?vid=1d62640d-6f3f-4f9c-bb03-34ae22551572"},"vehicle_type_id":"4","last_reported":1726157428,"current_range_meters":30000,"station_id":"ce4bh3p2rcd13ifvqdp0","pricing_plan_id":"cebpf4jnsgd1na2vs0mg"},{"bike_id":"d2dd2061-a8fa-44ba-9b13-d1b3eb7c0fc8","system_id":"levelo_inurba_marseille","lat":43.30804,"lon":5.43525,"is_reserved":false,"is_disabled":false,"rental_uris":{"android":"levelo://app?vid=d2dd2061-a8fa-44ba-9b13-d1b3eb7c0fc8","ios":"levelo://app?vid=d2dd2061-a8fa-44ba-9b13-d1b3eb7c0fc8"},"vehicle_type_id":"4","last_reported":1726157428,"current_range_meters":37600,"station_id":"ce4bhph2rcd13ifvqheg","pricing_plan_id":"cebpf4jnsgd1na2vs0mg"},{"bike_id":"a3e9ec58-1f51-43f4-9114-cb1a1040335a","system_id":"levelo_inurba_marseille","lat":43.2843,"lon":5.45946,"is_reserved":false,"is_disabled":false,"rental_uris":{"android":"levelo://app?vid=a3e9ec58-1f51-43f4-9114-cb1a1040335a","ios":"levelo://app?vid=a3e9ec58-1f51-43f4-9114-cb1a1040335a"},"vehicle_type_id":"4","last_reported":1726157428,"current_range_meters":6000,"station_id":"","pricing_plan_id":"cebpf4jnsgd1na2vs0mg"},{"bike_id":"ee41233d-7057-4ec4-b3c6-63f582836de8","system_id":"levelo_inurba_marseille","lat":43.22935,"lon":5.35384,"is_reserved":false,"is_disabled":false,"rental_uris":{"android":"levelo://app?vid=ee41233d-7057-4ec4-b3c6-63f582836de8","ios":"levelo://app?vid=ee41233d-7057-4ec4-b3c6-63f582836de8"},"vehicle_type_id":"4","last_reported":1726157428,"current_range_meters":26000,"station_id":"cpo3532slgdg3j2ikp40","pricing_plan_id":"cebpf4jnsgd1na2vs0mg"},{"bike_id":"09b4cd6c-8a1d-4394-beb6-4408ab4c9565","system_id":"levelo_inurba_marseille","lat":43.30935,"lon":5.40144,"is_reserved":false,"is_disabled":false,"rental_uris":{"android":"levelo://app?vid=09b4cd6c-8a1d-4394-beb6-4408ab4c9565","ios":"levelo://app?vid=09b4cd6c-8a1d-4394-beb6-4408ab4c9565"},"vehicle_type_id":"4","last_reported":1726157428,"current_range_meters":6400,"station_id":"ce4bgvp2rcd13ifvqct0","pricing_plan_id":"cebpf4jnsgd1na2vs0mg"},{"bike_id":"269ab5c6-a447-416d-9c73-a5c530ca68a9","system_id":"levelo_inurba_marseille","lat":43.30882,"lon":5.39635,"is_reserved":false,"is_disabled":false,"rental_uris":{"android":"levelo://app?vid=269ab5c6-a447-416d-9c73-a5c530ca68a9","ios":"levelo://app?vid=269ab5c6-a447-416d-9c73-a5c530ca68a9"},"vehicle_type_id":"4","last_reported":1726157428,"current_range_meters":12400,"station_id":"ce4bh012rcd13ifvqcv0","pricing_plan_id":"cebpf4jnsgd1na2vs0mg"},{"bike_id":"5766a568-cd2a-4b01-b6e6-43080c95bf65","system_id":"levelo_inurba_marseille","lat":43.25826,"lon":5.39434,"is_reserved":false,"is_disabled":false,"rental_uris":{"android":"levelo://app?vid=5766a568-cd2a-4b01-b6e6-43080c95bf65","ios":"levelo://app?vid=5766a568-cd2a-4b01-b6e6-43080c95bf65"},"vehicle_type_id":"4","last_reported":1726157428,"current_range_meters":30800,"station_id":"ce4bhip2rcd13ifvqft0","pricing_plan_id":"cebpf4jnsgd1na2vs0mg"},{"bike_id":"5d94c169-c5da-4f64-9d9b-3327d8771371","system_id":"levelo_inurba_marseille","lat":43.30304,"lon":5.39204,"is_reserved":false,"is_disabled":false,"rental_uris":{"android":"levelo://app?vid=5d94c169-c5da-4f64-9d9b-3327d8771371","ios":"levelo://app?vid=5d94c169-c5da-4f64-9d9b-3327d8771371"},"vehicle_type_id":"4","last_reported":1726157428,"current_range_meters":2800,"station_id":"ce4bgkh2rcd13ifvqbk0","pricing_plan_id":"cebpf4jnsgd1na2vs0mg"},{"bike_id":"5e5a7ea7-7407-4cb6-ae1a-4a5912cc5184","system_id":"levelo_inurba_marseille","lat":43.26208,"lon":5.3792,"is_reserved":false,"is_disabled":false,"rental_uris":{"android":"levelo://app?vid=5e5a7ea7-7407-4cb6-ae1a-4a5912cc5184","ios":"levelo://app?vid=5e5a7ea7-7407-4cb6-ae1a-4a5912cc5184"},"vehicle_type_id":"4","last_reported":1726157428,"current_range_meters":38800,"station_id":"ce4bhjp2rcd13ifvqg90","pricing_plan_id":"cebpf4jnsgd1na2vs0mg"},{"bike_id":"c627b4af-8218-4bf8-8c3c-6671e85d6b01","system_id":"levelo_inurba_marseille","lat":43.28843,"lon":5.3586,"is_reserved":false,"is_disabled":false,"rental_uris":{"android":"levelo://app?vid=c627b4af-8218-4bf8-8c3c-6671e85d6b01","ios":"levelo://app?vid=c627b4af-8218-4bf8-8c3c-6671e85d6b01"},"vehicle_type_id":"4","last_reported":1726157428,"current_range_meters":15200,"station_id":"ce4bhb12rcd13ifvqem0","pricing_plan_id":"cebpf4jnsgd1na2vs0mg"},{"bike_id":"0f9c47df-fc89-441e-88bd-6534b3e7a23b","system_id":"levelo_inurba_marseille","lat":43.32384,"lon":5.38916,"is_reserved":false,"is_disabled":false,"rental_uris":{"android":"levelo://app?vid=0f9c47df-fc89-441e-88bd-6534b3e7a23b","ios":"levelo://app?vid=0f9c47df-fc89-441e-88bd-6534b3e7a23b"},"vehicle_type_id":"4","last_reported":1726157428,"current_range_meters":38400,"station_id":"ce4bhqp2rcd13ifvqhog","pricing_plan_id":"cebpf4jnsgd1na2vs0mg"},{"bike_id":"e0f7a8c9-4d6f-4206-b757-8bf46c707bc8","system_id":"levelo_inurba_marseille","lat":43.27584,"lon":5.38422,"is_reserved":false,"is_disabled":false,"rental_uris":{"android":"levelo://app?vid=e0f7a8c9-4d6f-4206-b757-8bf46c707bc8","ios":"levelo://app?vid=e0f7a8c9-4d6f-4206-b757-8bf46c707bc8"},"vehicle_type_id":"4","last_reported":1726157428,"current_range_meters":2000,"station_id":"ce4bhh92rcd13ifvqfi0","pricing_plan_id":"cebpf4jnsgd1na2vs0mg"},{"bike_id":"3617f3f3-30ac-48b9-af0f-db871d8588d8","system_id":"levelo_inurba_marseille","lat":43.31335,"lon":5.39694,"is_reserved":false,"is_disabled":false,"rental_uris":{"android":"levelo://app?vid=3617f3f3-30ac-48b9-af0f-db871d8588d8","ios":"levelo://app?vid=3617f3f3-30ac-48b9-af0f-db871d8588d8"},"vehicle_type_id":"4","last_reported":1726157428,"current_range_meters":30000,"station_id":"ce4bgvp2rcd13ifvqcu0","pricing_plan_id":"cebpf4jnsgd1na2vs0mg"},{"bike_id":"e2ff531d-38fd-4758-941f-a2d4310157d2","system_id":"levelo_inurba_marseille","lat":43.287227,"lon":5.360756,"is_reserved":false,"is_disabled":false,"rental_uris":{"android":"levelo://app?vid=e2ff531d-38fd-4758-941f-a2d4310157d2","ios":"levelo://app?vid=e2ff531d-38fd-4758-941f-a2d4310157d2"},"vehicle_type_id":"4","last_reported":1726157428,"current_range_meters":3600,"station_id":"cki0cbj6b192h4jlfktg","pricing_plan_id":"cebpf4jnsgd1na2vs0mg"},{"bike_id":"e1231c55-47ac-49ea-a8b4-7d052b6f3f11","system_id":"levelo_inurba_marseille","lat":43.28268,"lon":5.3505,"is_reserved":false,"is_disabled":false,"rental_uris":{"android":"levelo://app?vid=e1231c55-47ac-49ea-a8b4-7d052b6f3f11","ios":"levelo://app?vid=e1231c55-47ac-49ea-a8b4-7d052b6f3f11"},"vehicle_type_id":"4","last_reported":1726157428,"current_range_meters":34000,"station_id":"ce4bhbp2rcd13ifvqerg","pricing_plan_id":"cebpf4jnsgd1na2vs0mg"},{"bike_id":"0235134e-ba02-487b-a300-25b53776b8ad","system_id":"levelo_inurba_marseille","lat":43.29971,"lon":5.38495,"is_reserved":false,"is_disabled":false,"rental_uris":{"android":"levelo://app?vid=0235134e-ba02-487b-a300-25b53776b8ad","ios":"levelo://app?vid=0235134e-ba02-487b-a300-25b53776b8ad"},"vehicle_type_id":"4","last_reported":1726157428,"current_range_meters":4000,"station_id":"ce4bgj92rcd13ifvqbd0","pricing_plan_id":"cebpf4jnsgd1na2vs0mg"},{"bike_id":"fbffa912-ad74-473c-88bf-0cad7508abd2","system_id":"levelo_inurba_marseille","lat":43.28427,"lon":5.34987,"is_reserved":false,"is_disabled":false,"rental_uris":{"android":"levelo://app?vid=fbffa912-ad74-473c-88bf-0cad7508abd2","ios":"levelo://app?vid=fbffa912-ad74-473c-88bf-0cad7508abd2"},"vehicle_type_id":"4","last_reported":1726157428,"current_range_meters":37600,"station_id":"ce4bhbh2rcd13ifvqepg","pricing_plan_id":"cebpf4jnsgd1na2vs0mg"},{"bike_id":"c42baa57-8f08-435b-9275-7de8c1d04b90","system_id":"levelo_inurba_marseille","lat":43.28607,"lon":5.37068,"is_reserved":false,"is_disabled":false,"rental_uris":{"android":"levelo://app?vid=c42baa57-8f08-435b-9275-7de8c1d04b90","ios":"levelo://app?vid=c42baa57-8f08-435b-9275-7de8c1d04b90"},"vehicle_type_id":"4","last_reported":1726157428,"current_range_meters":10000,"station_id":"ce4bht12rcd13ifvqi60","pricing_plan_id":"cebpf4jnsgd1na2vs0mg"},{"bike_id":"27456eb4-2ca6-45d5-8bb3-8143ee586f74","system_id":"levelo_inurba_marseille","lat":43.290072,"lon":5.356152,"is_reserved":false,"is_disabled":false,"rental_uris":{"android":"levelo://app?vid=27456eb4-2ca6-45d5-8bb3-8143ee586f74","ios":"levelo://app?vid=27456eb4-2ca6-45d5-8bb3-8143ee586f74"},"vehicle_type_id":"4","last_reported":1726157428,"current_range_meters":14800,"station_id":"ce4bhb92rcd13ifvqen0","pricing_plan_id":"cebpf4jnsgd1na2vs0mg"},{"bike_id":"e27d9016-14f8-4f85-b8bf-929805dfbf12","system_id":"levelo_inurba_marseille","lat":43.292736,"lon":5.368408,"is_reserved":false,"is_disabled":false,"rental_uris":{"android":"levelo://app?vid=e27d9016-14f8-4f85-b8bf-929805dfbf12","ios":"levelo://app?vid=e27d9016-14f8-4f85-b8bf-929805dfbf12"},"vehicle_type_id":"4","last_reported":1726157428,"current_range_meters":38400,"station_id":"ce4bhbp2rcd13ifvqesg","pricing_plan_id":"cebpf4jnsgd1na2vs0mg"},{"bike_id":"7c6cb957-7c58-4b74-9ba8-74ac0718df23","system_id":"levelo_inurba_marseille","lat":43.25867,"lon":5.39901,"is_reserved":false,"is_disabled":false,"rental_uris":{"android":"levelo://app?vid=7c6cb957-7c58-4b74-9ba8-74ac0718df23","ios":"levelo://app?vid=7c6cb957-7c58-4b74-9ba8-74ac0718df23"},"vehicle_type_id":"4","last_reported":1726157428,"current_range_meters":18800,"station_id":"ce4bhl92rcd13ifvqghg","pricing_plan_id":"cebpf4jnsgd1na2vs0mg"},{"bike_id":"c43eeec0-8ed3-4c1e-b439-b619eb21074a","system_id":"levelo_inurba_marseille","lat":43.29187,"lon":5.35797,"is_reserved":false,"is_disabled":false,"rental_uris":{"android":"levelo://app?vid=c43eeec0-8ed3-4c1e-b439-b619eb21074a","ios":"levelo://app?vid=c43eeec0-8ed3-4c1e-b439-b619eb21074a"},"vehicle_type_id":"4","last_reported":1726157428,"current_range_meters":3600,"station_id":"ce4bhb12rcd13ifvqel0","pricing_plan_id":"cebpf4jnsgd1na2vs0mg"},{"bike_id":"2c27aca6-7059-4a64-811c-996b91fe7ffd","system_id":"levelo_inurba_marseille","lat":43.26811,"lon":5.40276,"is_reserved":false,"is_disabled":false,"rental_uris":{"android":"levelo://app?vid=2c27aca6-7059-4a64-811c-996b91fe7ffd","ios":"levelo://app?vid=2c27aca6-7059-4a64-811c-996b91fe7ffd"},"vehicle_type_id":"4","last_reported":1726157428,"current_range_meters":32400,"station_id":"ce501612rcd8frsf0b60","pricing_plan_id":"cebpf4jnsgd1na2vs0mg"},{"bike_id":"7d2029de-6696-4476-9d34-ceaec6672db4","system_id":"levelo_inurba_marseille","lat":43.28156,"lon":5.42645,"is_reserved":false,"is_disabled":false,"rental_uris":{"android":"levelo://app?vid=7d2029de-6696-4476-9d34-ceaec6672db4","ios":"levelo://app?vid=7d2029de-6696-4476-9d34-ceaec6672db4"},"vehicle_type_id":"4","last_reported":1726157428,"current_range_meters":2800,"station_id":"ce4bhnh2rcd13ifvqgug","pricing_plan_id":"cebpf4jnsgd1na2vs0mg"},{"bike_id":"0ef61a6a-a6b0-447e-94cb-8eb7770e4d1a","system_id":"levelo_inurba_marseille","lat":43.3019,"lon":5.36603,"is_reserved":false,"is_disabled":false,"rental_uris":{"android":"levelo://app?vid=0ef61a6a-a6b0-447e-94cb-8eb7770e4d1a","ios":"levelo://app?vid=0ef61a6a-a6b0-447e-94cb-8eb7770e4d1a"},"vehicle_type_id":"4","last_reported":1726157428,"current_range_meters":22800,"station_id":"ce4bgrh2rcd13ifvqc8g","pricing_plan_id":"cebpf4jnsgd1na2vs0mg"},{"bike_id":"2c02434e-40ee-433c-a8fd-aa3ffceff14f","system_id":"levelo_inurba_marseille","lat":43.32481,"lon":5.36548,"is_reserved":false,"is_disabled":false,"rental_uris":{"android":"levelo://app?vid=2c02434e-40ee-433c-a8fd-aa3ffceff14f","ios":"levelo://app?vid=2c02434e-40ee-433c-a8fd-aa3ffceff14f"},"vehicle_type_id":"4","last_reported":1726157428,"current_range_meters":36000,"station_id":"ce4bhs12rcd13ifvqhvg","pricing_plan_id":"cebpf4jnsgd1na2vs0mg"},{"bike_id":"4f4cc7c1-2c04-4086-8676-ade22b5f62ea","system_id":"levelo_inurba_marseille","lat":43.31496,"lon":5.37308,"is_reserved":false,"is_disabled":false,"rental_uris":{"android":"levelo://app?vid=4f4cc7c1-2c04-4086-8676-ade22b5f62ea","ios":"levelo://app?vid=4f4cc7c1-2c04-4086-8676-ade22b5f62ea"},"vehicle_type_id":"4","last_reported":1726157428,"current_range_meters":10000,"station_id":"ce4bgt12rcd13ifvqcd0","pricing_plan_id":"cebpf4jnsgd1na2vs0mg"},{"bike_id":"927a4349-3c40-48a2-b9a0-a483a16f61d0","system_id":"levelo_inurba_marseille","lat":43.32479,"lon":5.36573,"is_reserved":false,"is_disabled":false,"rental_uris":{"android":"levelo://app?vid=927a4349-3c40-48a2-b9a0-a483a16f61d0","ios":"levelo://app?vid=927a4349-3c40-48a2-b9a0-a483a16f61d0"},"vehicle_type_id":"4","last_reported":1726157428,"current_range_meters":11600,"station_id":"ce4bh112rcd13ifvqda0","pricing_plan_id":"cebpf4jnsgd1na2vs0mg"},{"bike_id":"006cfc95-98ce-4d8c-8128-a39bf48a8140","system_id":"levelo_inurba_marseille","lat":43.25553,"lon":5.38224,"is_reserved":false,"is_disabled":false,"rental_uris":{"android":"levelo://app?vid=006cfc95-98ce-4d8c-8128-a39bf48a8140","ios":"levelo://app?vid=006cfc95-98ce-4d8c-8128-a39bf48a8140"},"vehicle_type_id":"4","last_reported":1726157428,"current_range_meters":3600,"station_id":"ce4bhih2rcd13ifvqfs0","pricing_plan_id":"cebpf4jnsgd1na2vs0mg"},{"bike_id":"243e76db-695b-44e6-9635-1ca031129699","system_id":"levelo_inurba_marseille","lat":43.23181,"lon":5.39982,"is_reserved":false,"is_disabled":false,"rental_uris":{"android":"levelo://app?vid=243e76db-695b-44e6-9635-1ca031129699","ios":"levelo://app?vid=243e76db-695b-44e6-9635-1ca031129699"},"vehicle_type_id":"4","last_reported":1726157428,"current_range_meters":36400,"station_id":"ce4bhn12rcd13ifvqgqg","pricing_plan_id":"cebpf4jnsgd1na2vs0mg"},{"bike_id":"4e49c99d-0428-4cf5-bd69-b526089c74a9","system_id":"levelo_inurba_marseille","lat":43.246515,"lon":5.388936,"is_reserved":false,"is_disabled":false,"rental_uris":{"android":"levelo://app?vid=4e49c99d-0428-4cf5-bd69-b526089c74a9","ios":"levelo://app?vid=4e49c99d-0428-4cf5-bd69-b526089c74a9"},"vehicle_type_id":"4","last_reported":1726157428,"current_range_meters":5600,"station_id":"ce4bhg12rcd13ifvqf60","pricing_plan_id":"cebpf4jnsgd1na2vs0mg"},{"bike_id":"6ec73f58-eea1-4a23-914d-d8a2e1fd0d40","system_id":"levelo_inurba_marseille","lat":43.27376,"lon":5.36261,"is_reserved":false,"is_disabled":false,"rental_uris":{"android":"levelo://app?vid=6ec73f58-eea1-4a23-914d-d8a2e1fd0d40","ios":"levelo://app?vid=6ec73f58-eea1-4a23-914d-d8a2e1fd0d40"},"vehicle_type_id":"4","last_reported":1726157428,"current_range_meters":30000,"station_id":"ce4bhbh2rcd13ifvqeo0","pricing_plan_id":"cebpf4jnsgd1na2vs0mg"},{"bike_id":"b6743776-e665-4b59-8d81-1b2e4983f1d8","system_id":"levelo_inurba_marseille","lat":43.29536,"lon":5.37518,"is_reserved":false,"is_disabled":false,"rental_uris":{"android":"levelo://app?vid=b6743776-e665-4b59-8d81-1b2e4983f1d8","ios":"levelo://app?vid=b6743776-e665-4b59-8d81-1b2e4983f1d8"},"vehicle_type_id":"4","last_reported":1726157428,"current_range_meters":16800,"station_id":"ce4bgkp2rcd13ifvqbmg","pricing_plan_id":"cebpf4jnsgd1na2vs0mg"},