{"last_updated":1684051648,"ttl":30,"version":"2.2","data":{"bikes":[{"bike_id":"febc23c5-0cf4-48a3-bb4c-63084f78e6ac","system_id":"levelo_inurba_marseille","lat":43.31341,"lon":5.367098,"is_reserved":false,"is_disabled":false,"rental_uris":{"android":"levelo://app?vid=febc23c5-0cf4-48a3-bb4c-63084f78e6ac","ios":"levelo://app?vid=febc23c5-0cf4-48a3-bb4c-63084f78e6ac"},"vehicle_type_id":"4","last_reported":1684051648,"current_range_meters":31600,"station_id":"ce4bgr92rcd13ifvqc6g","pricing_plan_id":"free"},{"bike_id":"e6987441-362a-40f3-92bc-e5f9ecf6b8a9","system_id":"levelo_inurba_marseille","lat":43.31341,"lon":5.367098,"is_reserved":false,"is_disabled":false,"rental_uris":{"android":"levelo://app?vid=e6987441-362a-40f3-92bc-e5f9ecf6b8a9","ios":"levelo://app?vid=e6987441-362a-40f3-92bc-e5f9ecf6b8a9"},"vehicle_type_id":"4","last_reported":1684051648,"current_range_meters":31200,"station_id":"ce4bgr92rcd13ifvqc6g","pricing_plan_id":"free"},{"bike_id":"24abea9d-acff-40a0-8816-0a2f4e1dca42","system_id":"levelo_inurba_marseille","lat":43.31341,"lon":5.367098,"is_reserved":false,"is_disabled":false,"rental_uris":{"android":"levelo://app?vid=24abea9d-acff-40a0-8816-0a2f4e1dca42","ios":"levelo://app?vid=24abea9d-acff-40a0-8816-0a2f4e1dca42"},"vehicle_type_id":"4","last_reported":1684051648,"current_range_meters":30800,"station_id":"ce4bgr92rcd13ifvqc6g","pricing_plan_id":"free"},{"bike_id":"09c876cf-0b1b-4188-b85c-3c6995193ab3","system_id":"levelo_inurba_marseille","lat":43.31341,"lon":5.367098,"is_reserved":false,"is_disabled":false,"rental_uris":{"android":"levelo://app?vid=09c876cf-0b1b-4188-b85c-3c6995193ab3","ios":"levelo://app?vid=09c876cf-0b1b-4188-b85c-3c6995193ab3"},"vehicle_type_id":"4","last_reported":1684051648,"current_range_meters":30800,"station_id":"ce4bgr92rcd13ifvqc6g","pricing_plan_id":"free"},{"bike_id":"dcd566cd-4193-4d6e-8699-75ef45649505","system_id":"levelo_inurba_marseille","lat":43.313391,"lon":5.36706,"is_reserved":false,"is_disabled":false,"rental_uris":{"android":"levelo://app?vid=dcd566cd-4193-4d6e-8699-75ef45649505","ios":"levelo://app?vid=dcd566cd-4193-4d6e-8699-75ef45649505"},"vehicle_type_id":"4","last_reported":1684051648,"current_range_meters":27200,"station_id":"ce4bgr92rcd13ifvqc6g","pricing_plan_id":"free"},{"bike_id":"831b07ab-f194-4459-8e8b-0f4fa3d89a6c","system_id":"levelo_inurba_marseille","lat":43.312239,"lon":5.368562,"is_reserved":false,"is_disabled":false,"rental_uris":{"android":"levelo://app?vid=831b07ab-f194-4459-8e8b-0f4fa3d89a6c","ios":"levelo://app?vid=831b07ab-f194-4459-8e8b-0f4fa3d89a6c"},"vehicle_type_id":"4","last_reported":1684051648,"current_range_meters":30000,"station_id":"ce4bgl92rcd13ifvqbq0","pricing_plan_id":"free"},{"bike_id":"78639281-da9b-4878-980b-0e688644d586","system_id":"levelo_inurba_marseille","lat":43.312239,"lon":5.368562,"is_reserved":false,"is_disabled":false,"rental_uris":{"android":"levelo://app?vid=78639281-da9b-4878-980b-0e688644d586","ios":"levelo://app?vid=78639281-da9b-4878-980b-0e688644d586"},"vehicle_type_id":"4","last_reported":1684051648,"current_range_meters":22400,"station_id":"ce4bgl92rcd13ifvqbq0","pricing_plan_id":"free"},{"bike_id":"f797ecaa-7bf8-4df9-9ffe-c1010d3a4c25","system_id":"levelo_inurba_marseille","lat":43.312239,"lon":5.368562,"is_reserved":false,"is_disabled":false,"rental_uris":{"android":"levelo://app?vid=f797ecaa-7bf8-4df9-9ffe-c1010d3a4c25","ios":"levelo://app?vid=f797ecaa-7bf8-4df9-9ffe-c1010d3a4c25"},"vehicle_type_id":"4","last_reported":1684051648,"current_range_meters":31600,"station_id":"ce4bgl92rcd13ifvqbq0","pricing_plan_id":"free"},{"bike_id":"71b4b514-8551-431a-9fa6-dd4d82ac9363","system_id":"levelo_inurba_marseille","lat":43.312239,"lon":5.368562,"is_reserved":false,"is_disabled":false,"rental_uris":{"android":"levelo://app?vid=71b4b514-8551-431a-9fa6-dd4d82ac9363","ios":"levelo://app?vid=71b4b514-8551-431a-9fa6-dd4d82ac9363"},"vehicle_type_id":"4","last_reported":1684051648,"current_range_meters":31600,"station_id":"ce4bgl92rcd13ifvqbq0","pricing_plan_id":"free"},{"bike_id":"2d26492e-39ba-4382-8a0d-4d1faa8899bb","system_id":"levelo_inurba_marseille","lat":43.312239,"lon":5.368562,"is_reserved":false,"is_disabled":false,"rental_uris":{"android":"levelo://app?vid=2d26492e-39ba-4382-8a0d-4d1faa8899bb","ios":"levelo://app?vid=2d26492e-39ba-4382-8a0d-4d1faa8899bb"},"vehicle_type_id":"4","last_reported":1684051648,"current_range_meters":31600,"station_id":"ce4bgl92rcd13ifvqbq0","pricing_plan_id":"free"},{"bike_id":"8ef964a4-4196-49da-9746-a7e5f6817248","system_id":"levelo_inurba_marseille","lat":43.314811,"lon":5.373104,"is_reserved":false,"is_disabled":false,"rental_uris":{"android":"levelo://app?vid=8ef964a4-4196-49da-9746-a7e5f6817248","ios":"levelo://app?vid=8ef964a4-4196-49da-9746-a7e5f6817248"},"vehicle_type_id":"4","last_reported":1684051648,"current_range_meters":20000,"station_id":"ce4bgt12rcd13ifvqcd0","pricing_plan_id":"free"},{"bike_id":"49688296-0a6e-4240-b35b-1f53e18f31cf","system_id":"levelo_inurba_marseille","lat":43.314811,"lon":5.373104,"is_reserved":false,"is_disabled":false,"rental_uris":{"android":"levelo://app?vid=49688296-0a6e-4240-b35b-1f53e18f31cf","ios":"levelo://app?vid=49688296-0a6e-4240-b35b-1f53e18f31cf"},"vehicle_type_id":"4","last_reported":1684051648,"current_range_meters":31200,"station_id":"ce4bgt12rcd13ifvqcd0","pricing_plan_id":"free"},{"bike_id":"33fa6bb2-1523-48b6-b218-188a15738a79","system_id":"levelo_inurba_marseille","lat":43.308614,"lon":5.372098,"is_reserved":false,"is_disabled":false,"rental_uris":{"android":"levelo://app?vid=33fa6bb2-1523-48b6-b218-188a15738a79","ios":"levelo://app?vid=33fa6bb2-1523-48b6-b218-188a15738a79"},"vehicle_type_id":"4","last_reported":1684051648,"current_range_meters":4800,"station_id":"ce4bguh2rcd13ifvqckg","pricing_plan_id":"free"},{"bike_id":"fb28e72f-f8af-4413-93b8-085c3809b432","system_id":"levelo_inurba_marseille","lat":43.308614,"lon":5.372098,"is_reserved":false,"is_disabled":false,"rental_uris":{"android":"levelo://app?vid=fb28e72f-f8af-4413-93b8-085c3809b432","ios":"levelo://app?vid=fb28e72f-f8af-4413-93b8-085c3809b432"},"vehicle_type_id":"4","last_reported":1684051648,"current_range_meters":18800,"station_id":"ce4bguh2rcd13ifvqckg","pricing_plan_id":"free"},{"bike_id":"1f64b040-fb5d-421e-b479-849ead874972","system_id":"levelo_inurba_marseille","lat":43.30879,"lon":5.37187,"is_reserved":false,"is_disabled":false,"rental_uris":{"android":"levelo://app?vid=1f64b040-fb5d-421e-b479-849ead874972","ios":"levelo://app?vid=1f64b040-fb5d-421e-b479-849ead874972"},"vehicle_type_id":"4","last_reported":1684051648,"current_range_meters":13600,"station_id":"","pricing_plan_id":"free"},{"bike_id":"51b53848-6881-4dc0-985d-96013af7e1f3","system_id":"levelo_inurba_marseille","lat":43.308614,"lon":5.372098,"is_reserved":false,"is_disabled":false,"rental_uris":{"android":"levelo://app?vid=51b53848-6881-4dc0-985d-96013af7e1f3","ios":"levelo://app?vid=51b53848-6881-4dc0-985d-96013af7e1f3"},"vehicle_type_id":"4","last_reported":1684051648,"current_range_meters":19600,"station_id":"ce4bguh2rcd13ifvqckg","pricing_plan_id":"free"},{"bike_id":"ef42665b-7a58-430a-a09b-24ad7325a98d","system_id":"levelo_inurba_marseille","lat":43.30588,"lon":5.36563,"is_reserved":false,"is_disabled":false,"rental_uris":{"android":"levelo://app?vid=ef42665b-7a58-430a-a09b-24ad7325a98d","ios":"levelo://app?vid=ef42665b-7a58-430a-a09b-24ad7325a98d"},"vehicle_type_id":"4","last_reported":1684051648,"current_range_meters":12800,"station_id":"","pricing_plan_id":"free"},{"bike_id":"a0178b6e-f020-42fd-ae96-dbe870f3c189","system_id":"levelo_inurba_marseille","lat":43.30537,"lon":5.367345,"is_reserved":false,"is_disabled":false,"rental_uris":{"android":"levelo://app?vid=a0178b6e-f020-42fd-ae96-dbe870f3c189","ios":"levelo://app?vid=a0178b6e-f020-42fd-ae96-dbe870f3c189"},"vehicle_type_id":"4","last_reported":1684051648,"current_range_meters":17600,"station_id":"ce4bgrp2rcd13ifvqc9g","pricing_plan_id":"free"},{"bike_id":"9018c11a-b4a2-49d9-bb89-e1d8612f7a9a","system_id":"levelo_inurba_marseille","lat":43.305706,"lon":5.365654,"is_reserved":false,"is_disabled":false,"rental_uris":{"android":"levelo://app?vid=9018c11a-b4a2-49d9-bb89-e1d8612f7a9a","ios":"levelo://app?vid=9018c11a-b4a2-49d9-bb89-e1d8612f7a9a"},"vehicle_type_id":"4","last_reported":1684051648,"current_range_meters":29600,"station_id":"ce4bgs12rcd13ifvqcag","pricing_plan_id":"free"},{"bike_id":"87458fa8-4792-4fb7-9853-ce1572ad6276","system_id":"levelo_inurba_marseille","lat":43.305706,"lon":5.365654,"is_reserved":false,"is_disabled":false,"rental_uris":{"android":"levelo://app?vid=87458fa8-4792-4fb7-9853-ce1572ad6276","ios":"levelo://app?vid=87458fa8-4792-4fb7-9853-ce1572ad6276"},"vehicle_type_id":"4","last_reported":1684051648,"current_range_meters":31200,"station_id":"ce4bgs12rcd13ifvqcag","pricing_plan_id":"free"},{"bike_id":"13240473-3def-42a3-b095-8602f843b467","system_id":"levelo_inurba_marseille","lat":43.305706,"lon":5.365654,"is_reserved":false,"is_disabled":false,"rental_uris":{"android":"levelo://app?vid=13240473-3def-42a3-b095-8602f843b467","ios":"levelo://app?vid=13240473-3def-42a3-b095-8602f843b467"},"vehicle_type_id":"4","last_reported":1684051648,"current_range_meters":20400,"station_id":"ce4bgs12rcd13ifvqcag","pricing_plan_id":"free"},{"bike_id":"37443179-1f22-4e57-958f-25a4f7aae3dc","system_id":"levelo_inurba_marseille","lat":43.305706,"lon":5.365654,"is_reserved":false,"is_disabled":false,"rental_uris":{"android":"levelo://app?vid=37443179-1f22-4e57-958f-25a4f7aae3dc","ios":"levelo://app?vid=37443179-1f22-4e57-958f-25a4f7aae3dc"},"vehicle_type_id":"4","last_reported":1684051648,"current_range_meters":25600,"station_id":"ce4bgs12rcd13ifvqcag","pricing_plan_id":"free"},{"bike_id":"200eaba4-b409-4b23-9802-e4111d101ffd","system_id":"levelo_inurba_marseille","lat":43.305706,"lon":5.365654,"is_reserved":false,"is_disabled":false,"rental_uris":{"android":"levelo://app?vid=200eaba4-b409-4b23-9802-e4111d101ffd","ios":"levelo://app?vid=200eaba4-b409-4b23-9802-e4111d101ffd"},"vehicle_type_id":"4","last_reported":1684051648,"current_range_meters":29600,"station_id":"ce4bgs12rcd13ifvqcag","pricing_plan_id":"free"},{"bike_id":"2ad787c7-02e3-46f4-bfe3-51a52df73058","system_id":"levelo_inurba_marseille","lat":43.305706,"lon":5.365654,"is_reserved":false,"is_disabled":false,"rental_uris":{"android":"levelo://app?vid=2ad787c7-02e3-46f4-bfe3-51a52df73058","ios":"levelo://app?vid=2ad787c7-02e3-46f4-bfe3-51a52df73058"},"vehicle_type_id":"4","last_reported":1684051648,"current_range_meters":30000,"station_id":"ce4bgs12rcd13ifvqcag","pricing_plan_id":"free"},{"bike_id":"16c5cbb5-9cd5-4f5f-af46-f2cadf6be593","system_id":"levelo_inurba_marseille","lat":43.305706,"lon":5.365654,"is_reserved":false,"is_disabled":false,"rental_uris":{"android":"levelo://app?vid=16c5cbb5-9cd5-4f5f-af46-f2cadf6be593","ios":"levelo://app?vid=16c5cbb5-9cd5-4f5f-af46-f2cadf6be593"},"vehicle_type_id":"4","last_reported":1684051648,"current_range_meters":24000,"station_id":"ce4bgs12rcd13ifvqcag","pricing_plan_id":"free"},{"bike_id":"0db3ca76-8d39-470d-82e1-4167226e3252","system_id":"levelo_inurba_marseille","lat":43.305706,"lon":5.365654,"is_reserved":false,"is_disabled":false,"rental_uris":{"android":"levelo://app?vid=0db3ca76-8d39-470d-82e1-4167226e3252","ios":"levelo://app?vid=0db3ca76-8d39-470d-82e1-4167226e3252"},"vehicle_type_id":"4","last_reported":1684051648,"current_range_meters":31200,"station_id":"ce4bgs12rcd13ifvqcag","pricing_plan_id":"free"},{"bike_id":"fca00784-2e75-4453-a59d-99531596f0c9","system_id":"levelo_inurba_marseille","lat":43.305706,"lon":5.365654,"is_reserved":false,"is_disabled":false,"rental_uris":{"android":"levelo://app?vid=fca00784-2e75-4453-a59d-99531596f0c9","ios":"levelo://app?vid=fca00784-2e75-4453-a59d-99531596f0c9"},"vehicle_type_id":"4","last_reported":1684051648,"current_range_meters":30400,"station_id":"ce4bgs12rcd13ifvqcag","pricing_plan_id":"free"},{"bike_id":"86346738-7eb7-40cf-bbbe-1e9402b85f12","system_id":"levelo_inurba_marseille","lat":43.305989,"lon":5.37225,"is_reserved":false,"is_disabled":false,"rental_uris":{"android":"levelo://app?vid=86346738-7eb7-40cf-bbbe-1e9402b85f12","ios":"levelo://app?vid=86346738-7eb7-40cf-bbbe-1e9402b85f12"},"vehicle_type_id":"4","last_reported":1684051648,"current_range_meters":27200,"station_id":"ce4bgqh2rcd13ifvqc4g","pricing_plan_id":"free"},{"bike_id":"2449bf41-2170-429c-a41f-c625fbbebacd","system_id":"levelo_inurba_marseille","lat":43.305989,"lon":5.37225,"is_reserved":false,"is_disabled":false,"rental_uris":{"android":"levelo://app?vid=2449bf41-2170-429c-a41f-c625fbbebacd","ios":"levelo://app?vid=2449bf41-2170-429c-a41f-c625fbbebacd"},"vehicle_type_id":"4","last_reported":1684051648,"current_range_meters":30800,"station_id":"ce4bgqh2rcd13ifvqc4g","pricing_plan_id":"free"},{"bike_id":"7c56c654-cb5c-46b1-bdbe-ae24b1f7bb2c","system_id":"levelo_inurba_marseille","lat":43.305989,"lon":5.37225,"is_reserved":false,"is_disabled":false,"rental_uris":{"android":"levelo://app?vid=7c56c654-cb5c-46b1-bdbe-ae24b1f7bb2c","ios":"levelo://app?vid=7c56c654-cb5c-46b1-bdbe-ae24b1f7bb2c"},"vehicle_type_id":"4","last_reported":1684051648,"current_range_meters":29600,"station_id":"ce4bgqh2rcd13ifvqc4g","pricing_plan_id":"free"},{"bike_id":"9f6debf8-a185-478a-a3ff-21a37c1d2ecd","system_id":"levelo_inurba_marseille","lat":43.305989,"lon":5.37225,"is_reserved":false,"is_disabled":false,"rental_uris":{"android":"levelo://app?vid=9f6debf8-a185-478a-a3ff-21a37c1d2ecd","ios":"levelo://app?vid=9f6debf8-a185-478a-a3ff-21a37c1d2ecd"},"vehicle_type_id":"4","last_reported":1684051648,"current_range_meters":31200,"station_id":"ce4bgqh2rcd13ifvqc4g","pricing_plan_id":"free"},{"bike_id":"46473ef5-0d1e-4272-b85b-4cf1dd4ae982","system_id":"levelo_inurba_marseille","lat":43.305989,"lon":5.37225,"is_reserved":false,"is_disabled":false,"rental_uris":{"android":"levelo://app?vid=46473ef5-0d1e-4272-b85b-4cf1dd4ae982","ios":"levelo://app?vid=46473ef5-0d1e-4272-b85b-4cf1dd4ae982"},"vehicle_type_id":"4","last_reported":1684051648,"current_range_meters":31200,"station_id":"ce4bgqh2rcd13ifvqc4g","pricing_plan_id":"free"},{"bike_id":"5c1ff087-ae53-4ed3-9329-0bbad1983a33","system_id":"levelo_inurba_marseille","lat":43.305989,"lon":5.37225,"is_reserved":false,"is_disabled":false,"rental_uris":{"android":"levelo://app?vid=5c1ff087-ae53-4ed3-9329-0bbad1983a33","ios":"levelo://app?vid=5c1ff087-ae53-4ed3-9329-0bbad1983a33"},"vehicle_type_id":"4","last_reported":1684051648,"current_range_meters":26400,"station_id":"ce4bgqh2rcd13ifvqc4g","pricing_plan_id":"free"},{"bike_id":"151d50bc-3aee-48d5-9527-783274464e00","system_id":"levelo_inurba_marseille","lat":43.31187,"lon":5.37766,"is_reserved":false,"is_disabled":false,"rental_uris":{"android":"levelo://app?vid=151d50bc-3aee-48d5-9527-783274464e00","ios":"levelo://app?vid=151d50bc-3aee-48d5-9527-783274464e00"},"vehicle_type_id":"4","last_reported":1684051648,"current_range_meters":9600,"station_id":"","pricing_plan_id":"free"},{"bike_id":"84bda977-ebdf-437d-9ae9-737052ef034a","system_id":"levelo_inurba_marseille","lat":43.311125,"lon":5.377624,"is_reserved":false,"is_disabled":false,"rental_uris":{"android":"levelo://app?vid=84bda977-ebdf-437d-9ae9-737052ef034a","ios":"levelo://app?vid=84bda977-ebdf-437d-9ae9-737052ef034a"},"vehicle_type_id":"4","last_reported":1684051648,"current_range_meters":24800,"station_id":"ce4bgt92rcd13ifvqcg0","pricing_plan_id":"free"},{"bike_id":"f673bdf3-dbe5-4fbf-af1b-fa6014fe4e3b","system_id":"levelo_inurba_marseille","lat":43.31119,"lon":5.37767,"is_reserved":false,"is_disabled":false,"rental_uris":{"android":"levelo://app?vid=f673bdf3-dbe5-4fbf-af1b-fa6014fe4e3b","ios":"levelo://app?vid=f673bdf3-dbe5-4fbf-af1b-fa6014fe4e3b"},"vehicle_type_id":"4","last_reported":1684051648,"current_range_meters":10400,"station_id":"ce4bgt92rcd13ifvqcg0","pricing_plan_id":"free"},{"bike_id":"64c3c84b-cb5f-4ca6-9a00-eb0bd7357b82","system_id":"levelo_inurba_marseille","lat":43.311125,"lon":5.377624,"is_reserved":false,"is_disabled":false,"rental_uris":{"android":"levelo://app?vid=64c3c84b-cb5f-4ca6-9a00-eb0bd7357b82","ios":"levelo://app?vid=64c3c84b-cb5f-4ca6-9a00-eb0bd7357b82"},"vehicle_type_id":"4","last_reported":1684051648,"current_range_meters":23200,"station_id":"ce4bgt92rcd13ifvqcg0","pricing_plan_id":"free"},{"bike_id":"ecdc5015-01d1-4b53-a9d9-0aa1b2d14064","system_id":"levelo_inurba_marseille","lat":43.311125,"lon":5.377624,"is_reserved":false,"is_disabled":false,"rental_uris":{"android":"levelo://app?vid=ecdc5015-01d1-4b53-a9d9-0aa1b2d14064","ios":"levelo://app?vid=ecdc5015-01d1-4b53-a9d9-0aa1b2d14064"},"vehicle_type_id":"4","last_reported":1684051648,"current_range_meters":26400,"station_id":"ce4bgt92rcd13ifvqcg0","pricing_plan_id":"free"},{"bike_id":"93b0e58d-acbd-41e8-8b94-2c704b260b4f","system_id":"levelo_inurba_marseille","lat":43.317075,"lon":5.377367,"is_reserved":false,"is_disabled":false,"rental_uris":{"android":"levelo://app?vid=93b0e58d-acbd-41e8-8b94-2c704b260b4f","ios":"levelo://app?vid=93b0e58d-acbd-41e8-8b94-2c704b260b4f"},"vehicle_type_id":"4","last_reported":1684051648,"current_range_meters":29200,"station_id":"ce4bgth2rcd13ifvqch0","pricing_plan_id":"free"},{"bike_id":"4f771b04-864c-4e16-9678-f9511e13d0df","system_id":"levelo_inurba_marseille","lat":43.30233,"lon":5.36919,"is_reserved":false,"is_disabled":false,"rental_uris":{"android":"levelo://app?vid=4f771b04-864c-4e16-9678-f9511e13d0df","ios":"levelo://app?vid=4f771b04-864c-4e16-9678-f9511e13d0df"},"vehicle_type_id":"4","last_reported":1684051648,"current_range_meters":22000,"station_id":"","pricing_plan_id":"free"},{"bike_id":"6c0021fb-c4a8-4a5b-bd54-72298f7a6b24","system_id":"levelo_inurba_marseille","lat":43.304606,"lon":5.379026,"is_reserved":false,"is_disabled":false,"rental_uris":{"android":"levelo://app?vid=6c0021fb-c4a8-4a5b-bd54-72298f7a6b24","ios":"levelo://app?vid=6c0021fb-c4a8-4a5b-bd54-72298f7a6b24"},"vehicle_type_id":"4","last_reported":1684051648,"current_range_meters":22000,"station_id":"ce4bgup2rcd13ifvqcn0","pricing_plan_id":"free"},{"bike_id":"22db9de9-d3cf-4578-bf45-d686bea36ace","system_id":"levelo_inurba_marseille","lat":43.304606,"lon":5.379026,"is_reserved":false,"is_disabled":false,"rental_uris":{"android":"levelo://app?vid=22db9de9-d3cf-4578-bf45-d686bea36ace","ios":"levelo://app?vid=22db9de9-d3cf-4578-bf45-d686bea36ace"},"vehicle_type_id":"4","last_reported":1684051648,"current_range_meters":31600,"station_id":"ce4bgup2rcd13ifvqcn0","pricing_plan_id":"free"},{"bike_id":"ccbed042-a768-40a3-85c1-ed7e88950d87","system_id":"levelo_inurba_marseille","lat":43.304606,"lon":5.379026,"is_reserved":false,"is_disabled":false,"rental_uris":{"android":"levelo://app?vid=ccbed042-a768-40a3-85c1-ed7e88950d87","ios":"levelo://app?vid=ccbed042-a768-40a3-85c1-ed7e88950d87"},"vehicle_type_id":"4","last_reported":1684051648,"current_range_meters":31600,"station_id":"ce4bgup2rcd13ifvqcn0","pricing_plan_id":"free"},{"bike_id":"5f1fef8a-a1dd-479c-b9bb-abb98bcb3246","system_id":"levelo_inurba_marseille","lat":43.304606,"lon":5.379026,"is_reserved":false,"is_disabled":false,"rental_uris":{"android":"levelo://app?vid=5f1fef8a-a1dd-479c-b9bb-abb98bcb3246","ios":"levelo://app?vid=5f1fef8a-a1dd-479c-b9bb-abb98bcb3246"},"vehicle_type_id":"4","last_reported":1684051648,"current_range_meters":28000,"station_id":"ce4bgup2rcd13ifvqcn0","pricing_plan_id":"free"},{"bike_id":"31c379d8-f6a1-4784-af89-4ce76b207c64","system_id":"levelo_inurba_marseille","lat":43.304606,"lon":5.379026,"is_reserved":false,"is_disabled":false,"rental_uris":{"android":"levelo://app?vid=31c379d8-f6a1-4784-af89-4ce76b207c64","ios":"levelo://app?vid=31c379d8-f6a1-4784-af89-4ce76b207c64"},"vehicle_type_id":"4","last_reported":1684051648,"current_range_meters":27600,"station_id":"ce4bgup2rcd13ifvqcn0","pricing_plan_id":"free"},{"bike_id":"71b357f4-122d-4014-a715-fab6452b98f7","system_id":"levelo_inurba_marseille","lat":43.304606,"lon":5.379026,"is_reserved":false,"is_disabled":false,"rental_uris":{"android":"levelo://app?vid=71b357f4-122d-4014-a715-fab6452b98f7","ios":"levelo://app?vid=71b357f4-122d-4014-a715-fab6452b98f7"},"vehicle_type_id":"4","last_reported":1684051648,"current_range_meters":24800,"station_id":"ce4bgup2rcd13ifvqcn0","pricing_plan_id":"free"},{"bike_id":"0e4385b1-bf46-455c-ba85-b1c8ebc3ae57","system_id":"levelo_inurba_marseille","lat":43.304606,"lon":5.379026,"is_reserved":false,"is_disabled":false,"rental_uris":{"android":"levelo://app?vid=0e4385b1-bf46-455c-ba85-b1c8ebc3ae57","ios":"levelo://app?vid=0e4385b1-bf46-455c-ba85-b1c8ebc3ae57"},"vehicle_type_id":"4","last_reported":1684051648,"current_range_meters":27600,"station_id":"ce4bgup2rcd13ifvqcn0","pricing_plan_id":"free"},{"bike_id":"2fea3bfe-4513-4e7a-8ec9-b5a42d7fc9b0","system_id":"levelo_inurba_marseille","lat":43.304606,"lon":5.379026,"is_reserved":false,"is_disabled":false,"rental_uris":{"android":"levelo://app?vid=2fea3bfe-4513-4e7a-8ec9-b5a42d7fc9b0","ios":"levelo://app?vid=2fea3bfe-4513-4e7a-8ec9-b5a42d7fc9b0"},"vehicle_type_id":"4","last_reported":1684051648,"current_range_meters":24000,"station_id":"ce4bgup2rcd13ifvqcn0","pricing_plan_id":"free"},{"bike_id":"70c5e6b2-33ff-4b81-8534-3174fd406d12","system_id":"levelo_inurba_marseille","lat":43.304606,"lon":5.379026,"is_reserved":false,"is_disabled":false,"rental_uris":{"android":"levelo://app?vid=70c5e6b2-33ff-4b81-8534-3174fd406d12","ios":"levelo://app?vid=70c5e6b2-33ff-4b81-8534-3174fd406d12"},"vehicle_type_id":"4","last_reported":1684051648,"current_range_meters":19600,"station_id":"ce4bgup2rcd13ifvqcn0","pricing_plan_id":"free"},{"bike_id":"27e3ad0d-7f15-45fc-b485-8709add66d05","system_id":"levelo_inurba_marseille","lat":43.304606,"lon":5.379026,"is_reserved":false,"is_disabled":false,"rental_uris":{"android":"levelo://app?vid=27e3ad0d-7f15-45fc-b485-8709add66d05","ios":"levelo://app?vid=27e3ad0d-7f15-45fc-b485-8709add66d05"},"vehicle_type_id":"4","last_reported":1684051648,"current_range_meters":30400,"station_id":"ce4bgup2rcd13ifvqcn0","pricing_plan_id":"free"},{"bike_id":"8b0517c8-e7bb-4f9e-954c-7c0789a5ced5","system_id":"levelo_inurba_marseille","lat":43.304606,"lon":5.379026,"is_reserved":false,"is_disabled":false,"rental_uris":{"android":"levelo://app?vid=8b0517c8-e7bb-4f9e-954c-7c0789a5ced5","ios":"levelo://app?vid=8b0517c8-e7bb-4f9e-954c-7c0789a5ced5"},"vehicle_type_id":"4","last_reported":1684051648,"current_range_meters":30800,"station_id":"ce4bgup2rcd13ifvqcn0","pricing_plan_id":"free"},{"bike_id":"560dd8ae-a848-4b17-928a-0b9197fcb1c3","system_id":"levelo_inurba_marseille","lat":43.304606,"lon":5.379026,"is_reserved":false,"is_disabled":false,"rental_uris":{"android":"levelo://app?vid=560dd8ae-a848-4b17-928a-0b9197fcb1c3","ios":"levelo://app?vid=560dd8ae-a848-4b17-928a-0b9197fcb1c3"},"vehicle_type_id":"4","last_reported":1684051648,"current_range_meters":28400,"station_id":"ce4bgup2rcd13ifvqcn0","pricing_plan_id":"free"},{"bike_id":"8b3f125e-2732-4591-bde1-7baea21c5b8c","system_id":"levelo_inurba_marseille","lat":43.30146,"lon":5.37413,"is_reserved":false,"is_disabled":false,"rental_uris":{"android":"levelo://app?vid=8b3f125e-2732-4591-bde1-7baea21c5b8c","ios":"levelo://app?vid=8b3f125e-2732-4591-bde1-7baea21c5b8c"},"vehicle_type_id":"4","last_reported":1684051648,"current_range_meters":800,"station_id":"ce4bgs92rcd13ifvqcc0","pricing_plan_id":"free"},{"bike_id":"5647464b-8e56-46f9-b5ba-616ff7924d98","system_id":"levelo_inurba_marseille","lat":43.31999,"lon":5.38156,"is_reserved":false,"is_disabled":false,"rental_uris":{"android":"levelo://app?vid=5647464b-8e56-46f9-b5ba-616ff7924d98","ios":"levelo://app?vid=5647464b-8e56-46f9-b5ba-616ff7924d98"},"vehicle_type_id":"4","last_reported":1684051648,"current_range_meters":11600,"station_id":"","pricing_plan_id":"free"},{"bike_id":"e7525755-7224-4f62-991d-8132a9f74452","system_id":"levelo_inurba_marseille","lat":43.30065,"lon":5.37549,"is_reserved":false,"is_disabled":false,"rental_uris":{"android":"levelo://app?vid=e7525755-7224-4f62-991d-8132a9f74452","ios":"levelo://app?vid=e7525755-7224-4f62-991d-8132a9f74452"},"vehicle_type_id":"4","last_reported":1684051648,"current_range_meters":0,"station_id":"","pricing_plan_id":"free"},{"bike_id":"669ff634-2c6a-498b-818f-33acd72a3133","system_id":"levelo_inurba_marseille","lat":43.298433,"lon":5.362774,"is_reserved":false,"is_disabled":false,"rental_uris":{"android":"levelo://app?vid=669ff634-2c6a-498b-818f-33acd72a3133","ios":"levelo://app?vid=669ff634-2c6a-498b-818f-33acd72a3133"},"vehicle_type_id":"4","last_reported":1684051648,"current_range_meters":16800,"station_id":"ce4bgpp2rcd13ifvqc3g","pricing_plan_id":"free"},{"bike_id":"ea3a5b10-8c37-4ba0-a15a-2bc587607283","system_id":"levelo_inurba_marseille","lat":43.298433,"lon":5.362774,"is_reserved":false,"is_disabled":false,"rental_uris":{"android":"levelo://app?vid=ea3a5b10-8c37-4ba0-a15a-2bc587607283","ios":"levelo://app?vid=ea3a5b10-8c37-4ba0-a15a-2bc587607283"},"vehicle_type_id":"4","last_reported":1684051648,"current_range_meters":28800,"station_id":"ce4bgpp2rcd13ifvqc3g","pricing_plan_id":"free"},{"bike_id":"1c12acd4-7d12-4565-8ca4-1d1f27fc59f4","system_id":"levelo_inurba_marseille","lat":43.298433,"lon":5.362774,"is_reserved":false,"is_disabled":false,"rental_uris":{"android":"levelo://app?vid=1c12acd4-7d12-4565-8ca4-1d1f27fc59f4","ios":"levelo://app?vid=1c12acd4-7d12-4565-8ca4-1d1f27fc59f4"},"vehicle_type_id":"4","last_reported":1684051648,"current_range_meters":32000,"station_id":"ce4bgpp2rcd13ifvqc3g","pricing_plan_id":"free"},{"bike_id":"6a47e10d-3036-470a-9d20-19c656f5486d","system_id":"levelo_inurba_marseille","lat":43.298433,"lon":5.362774,"is_reserved":false,"is_disabled":false,"rental_uris":{"android":"levelo://app?vid=6a47e10d-3036-470a-9d20-19c656f5486d","ios":"levelo://app?vid=6a47e10d-3036-470a-9d20-19c656f5486d"},"vehicle_type_id":"4","last_reported":1684051648,"current_range_meters":31600,"station_id":"ce4bgpp2rcd13ifvqc3g","pricing_plan_id":"free"},{"bike_id":"2cf17ade-8004-4557-a7a7-554d637cd976","system_id":"levelo_inurba_marseille","lat":43.298433,"lon":5.362774,"is_reserved":false,"is_disabled":false,"rental_uris":{"android":"levelo://app?vid=2cf17ade-8004-4557-a7a7-554d637cd976","ios":"levelo://app?vid=2cf17ade-8004-4557-a7a7-554d637cd976"},"vehicle_type_id":"4","last_reported":1684051648,"current_range_meters":25200,"station_id":"ce4bgpp2rcd13ifvqc3g","pricing_plan_id":"free"},{"bike_id":"c3571467-17f5-42cf-94df-276334d4b22a","system_id":"levelo_inurba_marseille","lat":43.298433,"lon":5.362774,"is_reserved":false,"is_disabled":false,"rental_uris":{"android":"levelo://app?vid=c3571467-17f5-42cf-94df-276334d4b22a","ios":"levelo://app?vid=c3571467-17f5-42cf-94df-276334d4b22a"},"vehicle_type_id":"4","last_reported":1684051648,"current_range_meters":13200,"station_id":"ce4bgpp2rcd13ifvqc3g","pricing_plan_id":"free"},{"bike_id":"4d3bbd5f-a31e-421d-b242-6ad1bf85d74a","system_id":"levelo_inurba_marseille","lat":43.298433,"lon":5.362774,"is_reserved":false,"is_disabled":false,"rental_uris":{"android":"levelo://app?vid=4d3bbd5f-a31e-421d-b242-6ad1bf85d74a","ios":"levelo://app?vid=4d3bbd5f-a31e-421d-b242-6ad1bf85d74a"},"vehicle_type_id":"4","last_reported":1684051648,"current_range_meters":24800,"station_id":"ce4bgpp2rcd13ifvqc3g","pricing_plan_id":"free"},{"bike_id":"f14ca639-304e-4516-b1b0-d1aa16de755a","system_id":"levelo_inurba_marseille","lat":43.298433,"lon":5.362774,"is_reserved":false,"is_disabled":false,"rental_uris":{"android":"levelo://app?vid=f14ca639-304e-4516-b1b0-d1aa16de755a","ios":"levelo://app?vid=f14ca639-304e-4516-b1b0-d1aa16de755a"},"vehicle_type_id":"4","last_reported":1684051648,"current_range_meters":24000,"station_id":"ce4bgpp2rcd13ifvqc3g","pricing_plan_id":"free"},{"bike_id":"205914fb-c270-453d-8329-6d1d83256173","system_id":"levelo_inurba_marseille","lat":43.298433,"lon":5.362774,"is_reserved":false,"is_disabled":false,"rental_uris":{"android":"levelo://app?vid=205914fb-c270-453d-8329-6d1d83256173","ios":"levelo://app?vid=205914fb-c270-453d-8329-6d1d83256173"},"vehicle_type_id":"4","last_reported":1684051648,"current_range_meters":31600,"station_id":"ce4bgpp2rcd13ifvqc3g","pricing_plan_id":"free"},{"bike_id":"2f96f4b7-d3f1-4b87-b98f-caf50ba6d13d","system_id":"levelo_inurba_marseille","lat":43.32764,"lon":5.36699,"is_reserved":false,"is_disabled":false,"rental_uris":{"android":"levelo://app?vid=2f96f4b7-d3f1-4b87-b98f-caf50ba6d13d","ios":"levelo://app?vid=2f96f4b7-d3f1-4b87-b98f-caf50ba6d13d"},"vehicle_type_id":"4","last_reported":1684051648,"current_range_meters":8400,"station_id":"","pricing_plan_id":"free"},{"bike_id":"fc0b1b04-c329-4dcf-bf4d-f47a83066660","system_id":"levelo_inurba_marseille","lat":43.328371,"lon":5.366909,"is_reserved":false,"is_disabled":false,"rental_uris":{"android":"levelo://app?vid=fc0b1b04-c329-4dcf-bf4d-f47a83066660","ios":"levelo://app?vid=fc0b1b04-c329-4dcf-bf4d-f47a83066660"},"vehicle_type_id":"4","last_reported":1684051648,"current_range_meters":24400,"station_id":"ce4bhs92rcd13ifvqi0g","pricing_plan_id":"free"},{"bike_id":"b449a4e4-2b40-420f-9a30-3bbbb718557f","system_id":"levelo_inurba_marseille","lat":43.328371,"lon":5.366912,"is_reserved":false,"is_disabled":false,"rental_uris":{"android":"levelo://app?vid=b449a4e4-2b40-420f-9a30-3bbbb718557f","ios":"levelo://app?vid=b449a4e4-2b40-420f-9a30-3bbbb718557f"},"vehicle_type_id":"4","last_reported":1684051648,"current_range_meters":17600,"station_id":"ce4bhs92rcd13ifvqi0g","pricing_plan_id":"free"},{"bike_id":"34c470f1-ed41-47d6-8d65-5c286939ee04","system_id":"levelo_inurba_marseille","lat":43.328371,"lon":5.366912,"is_reserved":false,"is_disabled":false,"rental_uris":{"android":"levelo://app?vid=34c470f1-ed41-47d6-8d65-5c286939ee04","ios":"levelo://app?vid=34c470f1-ed41-47d6-8d65-5c286939ee04"},"vehicle_type_id":"4","last_reported":1684051648,"current_range_meters":16000,"station_id":"ce4bhs92rcd13ifvqi0g","pricing_plan_id":"free"},{"bike_id":"8b551262-3438-4831-9812-be7a47f77893","system_id":"levelo_inurba_marseille","lat":43.328371,"lon":5.366909,"is_reserved":false,"is_disabled":false,"rental_uris":{"android":"levelo://app?vid=8b551262-3438-4831-9812-be7a47f77893","ios":"levelo://app?vid=8b551262-3438-4831-9812-be7a47f77893"},"vehicle_type_id":"4","last_reported":1684051648,"current_range_meters":30800,"station_id":"ce4bhs92rcd13ifvqi0g","pricing_plan_id":"free"},{"bike_id":"05dd3660-fb8d-4649-b95f-77a48f876534","system_id":"levelo_inurba_marseille","lat":43.328371,"lon":5.366909,"is_reserved":false,"is_disabled":false,"rental_uris":{"android":"levelo://app?vid=05dd3660-fb8d-4649-b95f-77a48f876534","ios":"levelo://app?vid=05dd3660-fb8d-4649-b95f-77a48f876534"},"vehicle_type_id":"4","last_reported":1684051648,"current_range_meters":31200,"station_id":"ce4bhs92rcd13ifvqi0g","pricing_plan_id":"free"},{"bike_id":"439e171b-885c-4b84-971d-3c43043903d7","system_id":"levelo_inurba_marseille","lat":43.328371,"lon":5.366912,"is_reserved":false,"is_disabled":false,"rental_uris":{"android":"levelo://app?vid=439e171b-885c-4b84-971d-3c43043903d7","ios":"levelo://app?vid=439e171b-885c-4b84-971d-3c43043903d7"},"vehicle_type_id":"4","last_reported":1684051648,"current_range_meters":24400,"station_id":"ce4bhs92rcd13ifvqi0g","pricing_plan_id":"free"},{"bike_id":"ad50fbdc-6818-49a3-976a-84468e8cc53b","system_id":"levelo_inurba_marseille","lat":43.328371,"lon":5.366912,"is_reserved":false,"is_disabled":false,"rental_uris":{"android":"levelo://app?vid=ad50fbdc-6818-49a3-976a-84468e8cc53b","ios":"levelo://app?vid=ad50fbdc-6818-49a3-976a-84468e8cc53b"},"vehicle_type_id":"4","last_reported":1684051648,"current_range_meters":31200,"station_id":"ce4bhs92rcd13ifvqi0g","pricing_plan_id":"free"},{"bike_id":"216acc05-cd3c-4a35-b67b-82ab6e8e46bc","system_id":"levelo_inurba_marseille","lat":43.32829,"lon":5.36688,"is_reserved":false,"is_disabled":false,"rental_uris":{"android":"levelo://app?vid=216acc05-cd3c-4a35-b67b-82ab6e8e46bc","ios":"levelo://app?vid=216acc05-cd3c-4a35-b67b-82ab6e8e46bc"},"vehicle_type_id":"4","last_reported":1684051648,"current_range_meters":16400,"station_id":"ce4bhs92rcd13ifvqi0g","pricing_plan_id":"free"},{"bike_id":"98fc616f-05d8-4d1d-9c58-d04644bf4fef","system_id":"levelo_inurba_marseille","lat":43.328371,"lon":5.366912,"is_reserved":false,"is_disabled":false,"rental_uris":{"android":"levelo://app?vid=98fc616f-05d8-4d1d-9c58-d04644bf4fef","ios":"levelo://app?vid=98fc616f-05d8-4d1d-9c58-d04644bf4fef"},"vehicle_type_id":"4","last_reported":1684051648,"current_range_meters":30000,"station_id":"ce4bhs92rcd13ifvqi0g","pricing_plan_id":"free"},{"bike_id":"5bc79a87-8c51-4256-972d-10ecdbdb6305","system_id":"levelo_inurba_marseille","lat":43.328371,"lon":5.366912,"is_reserved":false,"is_disabled":false,"rental_uris":{"android":"levelo://app?vid=5bc79a87-8c51-4256-972d-10ecdbdb6305","ios":"levelo://app?vid=5bc79a87-8c51-4256-972d-10ecdbdb6305"},"vehicle_type_id":"4","last_reported":1684051648,"current_range_meters":16000,"station_id":"ce4bhs92rcd13ifvqi0g","pricing_plan_id":"free"},{"bike_id":"b60b2146-6e25-4d40-acc1-c67a07b5be20","system_id":"levelo_inurba_marseille","lat":43.328371,"lon":5.366909,"is_reserved":false,"is_disabled":false,"rental_uris":{"android":"levelo://app?vid=b60b2146-6e25-4d40-acc1-c67a07b5be20","ios":"levelo://app?vid=b60b2146-6e25-4d40-acc1-c67a07b5be20"},"vehicle_type_id":"4","last_reported":1684051648,"current_range_meters":31200,"station_id":"ce4bhs92rcd13ifvqi0g","pricing_plan_id":"free"},{"bike_id":"ef619222-d86f-4984-a46f-cda033f9cc5b","system_id":"levelo_inurba_marseille","lat":43.328371,"lon":5.366912,"is_reserved":false,"is_disabled":false,"rental_uris":{"android":"levelo://app?vid=ef619222-d86f-4984-a46f-cda033f9cc5b","ios":"levelo://app?vid=ef619222-d86f-4984-a46f-cda033f9cc5b"},"vehicle_type_id":"4","last_reported":1684051648,"current_range_meters":30800,"station_id":"ce4bhs92rcd13ifvqi0g","pricing_plan_id":"free"},{"bike_id":"f7e16b9b-dda5-4bba-9d80-00bc064f0f46","system_id":"levelo_inurba_marseille","lat":43.32835,"lon":5.36679,"is_reserved":false,"is_disabled":false,"rental_uris":{"android":"levelo://app?vid=f7e16b9b-dda5-4bba-9d80-00bc064f0f46","ios":"levelo://app?vid=f7e16b9b-dda5-4bba-9d80-00bc064f0f46"},"vehicle_type_id":"4","last_reported":1684051648,"current_range_meters":14800,"station_id":"ce4bhs92rcd13ifvqi0g","pricing_plan_id":"free"},{"bike_id":"aaca5fdf-1dee-4b81-aa4f-2d7102ec2d0c","system_id":"levelo_inurba_marseille","lat":43.32836,"lon":5.3669,"is_reserved":false,"is_disabled":false,"rental_uris":{"android":"levelo://app?vid=aaca5fdf-1dee-4b81-aa4f-2d7102ec2d0c","ios":"levelo://app?vid=aaca5fdf-1dee-4b81-aa4f-2d7102ec2d0c"},"vehicle_type_id":"4","last_reported":1684051648,"current_range_meters":19600,"station_id":"ce4bhs92rcd13ifvqi0g","pricing_plan_id":"free"},{"bike_id":"19dbfe5d-9e77-4915-8c62-a8b2b75c629f","system_id":"levelo_inurba_marseille","lat":43.29708,"lon":5.36613,"is_reserved":false,"is_disabled":false,"rental_uris":{"android":"levelo://app?vid=19dbfe5d-9e77-4915-8c62-a8b2b75c629f","ios":"levelo://app?vid=19dbfe5d-9e77-4915-8c62-a8b2b75c629f"},"vehicle_type_id":"4","last_reported":1684051648,"current_range_meters":4800,"station_id":"","pricing_plan_id":"free"},{"bike_id":"4ba1b106-5f31-45b5-8b6a-ab52977be42d","system_id":"levelo_inurba_marseille","lat":43.296131,"lon":5.370791,"is_reserved":false,"is_disabled":false,"rental_uris":{"android":"levelo://app?vid=4ba1b106-5f31-45b5-8b6a-ab52977be42d","ios":"levelo://app?vid=4ba1b106-5f31-45b5-8b6a-ab52977be42d"},"vehicle_type_id":"4","last_reported":1684051648,"current_range_meters":31200,"station_id":"ce4bgnh2rcd13ifvqc0g","pricing_plan_id":"free"},{"bike_id":"df450164-83ca-4156-9afb-c676284dbedb","system_id":"levelo_inurba_marseille","lat":43.296129,"lon":5.370777,"is_reserved":false,"is_disabled":false,"rental_uris":{"android":"levelo://app?vid=df450164-83ca-4156-9afb-c676284dbedb","ios":"levelo://app?vid=df450164-83ca-4156-9afb-c676284dbedb"},"vehicle_type_id":"4","last_reported":1684051648,"current_range_meters":16800,"station_id":"ce4bgnh2rcd13ifvqc0g","pricing_plan_id":"free"},{"bike_id":"8ade247a-3603-4130-a27a-f0552630f15b","system_id":"levelo_inurba_marseille","lat":43.296129,"lon":5.370777,"is_reserved":false,"is_disabled":false,"rental_uris":{"android":"levelo://app?vid=8ade247a-3603-4130-a27a-f0552630f15b","ios":"levelo://app?vid=8ade247a-3603-4130-a27a-f0552630f15b"},"vehicle_type_id":"4","last_reported":1684051648,"current_range_meters":24400,"station_id":"ce4bgnh2rcd13ifvqc0g","pricing_plan_id":"free"},{"bike_id":"42750e5e-5f72-4bef-aad7-e3d0aa825d68","system_id":"levelo_inurba_marseille","lat":43.296129,"lon":5.370777,"is_reserved":false,"is_disabled":false,"rental_uris":{"android":"levelo://app?vid=42750e5e-5f72-4bef-aad7-e3d0aa825d68","ios":"levelo://app?vid=42750e5e-5f72-4bef-aad7-e3d0aa825d68"},"vehicle_type_id":"4","last_reported":1684051648,"current_range_meters":12400,"station_id":"ce4bgnh2rcd13ifvqc0g","pricing_plan_id":"free"},{"bike_id":"cbc86b58-f326-47f3-b7fc-f8e510976089","system_id":"levelo_inurba_marseille","lat":43.296131,"lon":5.370773,"is_reserved":false,"is_disabled":false,"rental_uris":{"android":"levelo://app?vid=cbc86b58-f326-47f3-b7fc-f8e510976089","ios":"levelo://app?vid=cbc86b58-f326-47f3-b7fc-f8e510976089"},"vehicle_type_id":"4","last_reported":1684051648,"current_range_meters":15200,"station_id":"ce4bgnh2rcd13ifvqc0g","pricing_plan_id":"free"},{"bike_id":"87dddba0-63a3-4a2b-b8e0-53951dddd204","system_id":"levelo_inurba_marseille","lat":43.29573,"lon":5.367355,"is_reserved":false,"is_disabled":false,"rental_uris":{"android":"levelo://app?vid=87dddba0-63a3-4a2b-b8e0-53951dddd204","ios":"levelo://app?vid=87dddba0-63a3-4a2b-b8e0-53951dddd204"},"vehicle_type_id":"4","last_reported":1684051648,"current_range_meters":16400,"station_id":"ce4bgph2rcd13ifvqc2g","pricing_plan_id":"free"},{"bike_id":"f739e524-346a-4bf1-9771-377169e6b980","system_id":"levelo_inurba_marseille","lat":43.29573,"lon":5.367355,"is_reserved":false,"is_disabled":false,"rental_uris":{"android":"levelo://app?vid=f739e524-346a-4bf1-9771-377169e6b980","ios":"levelo://app?vid=f739e524-346a-4bf1-9771-377169e6b980"},"vehicle_type_id":"4","last_reported":1684051648,"current_range_meters":14800,"station_id":"ce4bgph2rcd13ifvqc2g","pricing_plan_id":"free"},{"bike_id":"27058e82-8977-4914-af1a-ad76eddcd8f9","system_id":"levelo_inurba_marseille","lat":43.29573,"lon":5.367355,"is_reserved":false,"is_disabled":false,"rental_uris":{"android":"levelo://app?vid=27058e82-8977-4914-af1a-ad76eddcd8f9","ios":"levelo://app?vid=27058e82-8977-4914-af1a-ad76eddcd8f9"},"vehicle_type_id":"4","last_reported":1684051648,"current_range_meters":14800,"station_id":"ce4bgph2rcd13ifvqc2g","pricing_plan_id":"free"},{"bike_id":"eccbc263-0c5a-4cd5-a44d-6c7ea73118e0","system_id":"levelo_inurba_marseille","lat":43.296129,"lon":5.370777,"is_reserved":false,"is_disabled":false,"rental_uris":{"android":"levelo://app?vid=eccbc263-0c5a-4cd5-a44d-6c7ea73118e0","ios":"levelo://app?vid=eccbc263-0c5a-4cd5-a44d-6c7ea73118e0"},"vehicle_type_id":"4","last_reported":1684051648,"current_range_meters":27200,"station_id":"ce4bgnh2rcd13ifvqc0g","pricing_plan_id":"free"},{"bike_id":"35d9912d-a31f-4868-a135-45a2b24e3c65","system_id":"levelo_inurba_marseille","lat":43.29573,"lon":5.367355,"is_reserved":false,"is_disabled":false,"rental_uris":{"android":"levelo://app?vid=35d9912d-a31f-4868-a135-45a2b24e3c65","ios":"levelo://app?vid=35d9912d-a31f-4868-a135-45a2b24e3c65"},"vehicle_type_id":"4","last_reported":1684051648,"current_range_meters":30400,"station_id":"ce4bgph2rcd13ifvqc2g","pricing_plan_id":"free"},{"bike_id":"1197b576-82d3-4fa6-8faa-9fbc5b30e25b","system_id":"levelo_inurba_marseille","lat":43.29726,"lon":5.37689,"is_reserved":false,"is_disabled":false,"rental_uris":{"android":"levelo://app?vid=1197b576-82d3-4fa6-8faa-9fbc5b30e25b","ios":"levelo://app?vid=1197b576-82d3-4fa6-8faa-9fbc5b30e25b"},"vehicle_type_id":"4","last_reported":1684051648,"current_range_meters":0,"station_id":"","pricing_plan_id":"free"},{"bike_id":"e8138305-2746-46ff-8877-22f86c217242","system_id":"levelo_inurba_marseille","lat":43.2991,"lon":5.38122,"is_reserved":false,"is_disabled":false,"rental_uris":{"android":"levelo://app?vid=e8138305-2746-46ff-8877-22f86c217242","ios":"levelo://app?vid=e8138305-2746-46ff-8877-22f86c217242"},"vehicle_type_id":"4","last_reported":1684051648,"current_range_meters":19200,"station_id":"ce4bgj12rcd13ifvqbc0","pricing_plan_id":"free"},{"bike_id":"95833676-ee2e-4e65-8016-b7a5ce14f44e","system_id":"levelo_inurba_marseille","lat":43.299028,"lon":5.381509,"is_reserved":false,"is_disabled":false,"rental_uris":{"android":"levelo://app?vid=95833676-ee2e-4e65-8016-b7a5ce14f44e","ios":"levelo://app?vid=95833676-ee2e-4e65-8016-b7a5ce14f44e"},"vehicle_type_id":"4","last_reported":1684051648,"current_range_meters":21600,"station_id":"ce4bgj12rcd13ifvqbc0","pricing_plan_id":"free"},{"bike_id":"53b9e83e-ccc8-46dd-9b1f-951956c120f5","system_id":"levelo_inurba_marseille","lat":43.299028,"lon":5.381509,"is_reserved":false,"is_disabled":false,"rental_uris":{"android":"levelo://app?vid=53b9e83e-ccc8-46dd-9b1f-951956c120f5","ios":"levelo://app?vid=53b9e83e-ccc8-46dd-9b1f-951956c120f5"},"vehicle_type_id":"4","last_reported":1684051648,"current_range_meters":22000,"station_id":"ce4bgj12rcd13ifvqbc0","pricing_plan_id":"free"},{"bike_id":"309d0d2d-1b44-4f27-b750-6baa1f46ccba","system_id":"levelo_inurba_marseille","lat":43.309589,"lon":5.390258,"is_reserved":false,"is_disabled":false,"rental_uris":{"android":"levelo://app?vid=309d0d2d-1b44-4f27-b750-6baa1f46ccba","ios":"levelo://app?vid=309d0d2d-1b44-4f27-b750-6baa1f46ccba"},"vehicle_type_id":"4","last_reported":1684051648,"current_range_meters":27600,"station_id":"ce4bgup2rcd13ifvqco0","pricing_plan_id":"free"},{"bike_id":"5a6c3b1b-b8eb-4eaa-82db-1c51f70c2b79","system_id":"levelo_inurba_marseille","lat":43.309589,"lon":5.390258,"is_reserved":false,"is_disabled":false,"rental_uris":{"android":"levelo://app?vid=5a6c3b1b-b8eb-4eaa-82db-1c51f70c2b79","ios":"levelo://app?vid=5a6c3b1b-b8eb-4eaa-82db-1c51f70c2b79"},"vehicle_type_id":"4","last_reported":1684051648,"current_range_meters":14800,"station_id":"ce4bgup2rcd13ifvqco0","pricing_plan_id":"free"},{"bike_id":"c4972440-0edb-4590-95e2-8012ae1775b1","system_id":"levelo_inurba_marseille","lat":43.309589,"lon":5.390258,"is_reserved":false,"is_disabled":false,"rental_uris":{"android":"levelo://app?vid=c4972440-0edb-4590-95e2-8012ae1775b1","ios":"levelo://app?vid=c4972440-0edb-4590-95e2-8012ae1775b1"},"vehicle_type_id":"4","last_reported":1684051648,"current_range_meters":30800,"station_id":"ce4bgup2rcd13ifvqco0","pricing_plan_id":"free"},{"bike_id":"eeb98850-8a68-43a8-9551-47d4b2fb7662","system_id":"levelo_inurba_marseille","lat":43.309474,"lon":5.390309,"is_reserved":false,"is_disabled":false,"rental_uris":{"android":"levelo://app?vid=eeb98850-8a68-43a8-9551-47d4b2fb7662","ios":"levelo://app?vid=eeb98850-8a68-43a8-9551-47d4b2fb7662"},"vehicle_type_id":"4","last_reported":1684051648,"current_range_meters":27600,"station_id":"","pricing_plan_id":"free"},{"bike_id":"363d09ac-48e9-461f-b825-1766b1b502c3","system_id":"levelo_inurba_marseille","lat":43.309589,"lon":5.390258,"is_reserved":false,"is_disabled":false,"rental_uris":{"android":"levelo://app?vid=363d09ac-48e9-461f-b825-1766b1b502c3","ios":"levelo://app?vid=363d09ac-48e9-461f-b825-1766b1b502c3"},"vehicle_type_id":"4","last_reported":1684051648,"current_range_meters":25600,"station_id":"ce4bgup2rcd13ifvqco0","pricing_plan_id":"free"},{"bike_id":"59782408-da8f-4234-a790-f6275cdc67ac","system_id":"levelo_inurba_marseille","lat":43.309589,"lon":5.390258,"is_reserved":false,"is_disabled":false,"rental_uris":{"android":"levelo://app?vid=59782408-da8f-4234-a790-f6275cdc67ac","ios":"levelo://app?vid=59782408-da8f-4234-a790-f6275cdc67ac"},"vehicle_type_id":"4","last_reported":1684051648,"current_range_meters":29600,"station_id":"ce4bgup2rcd13ifvqco0","pricing_plan_id":"free"},{"bike_id":"808e25be-9bda-49c7-af44-68800ae9ce5e","system_id":"levelo_inurba_marseille","lat":43.309589,"lon":5.390258,"is_reserved":false,"is_disabled":false,"rental_uris":{"android":"levelo://app?vid=808e25be-9bda-49c7-af44-68800ae9ce5e","ios":"levelo://app?vid=808e25be-9bda-49c7-af44-68800ae9ce5e"},"vehicle_type_id":"4","last_reported":1684051648,"current_range_meters":25200,"station_id":"ce4bgup2rcd13ifvqco0","pricing_plan_id":"free"},{"bike_id":"92e339d3-21f3-438e-8201-fe359df47132","system_id":"levelo_inurba_marseille","lat":43.29703,"lon":5.37717,"is_reserved":false,"is_disabled":false,"rental_uris":{"android":"levelo://app?vid=92e339d3-21f3-438e-8201-fe359df47132","ios":"levelo://app?vid=92e339d3-21f3-438e-8201-fe359df47132"},"vehicle_type_id":"4","last_reported":1684051648,"current_range_meters":29600,"station_id":"","pricing_plan_id":"free"},{"bike_id":"be1ed82e-206d-4caf-b060-ca67c034763e","system_id":"levelo_inurba_marseille","lat":43.309589,"lon":5.390258,"is_reserved":false,"is_disabled":false,"rental_uris":{"android":"levelo://app?vid=be1ed82e-206d-4caf-b060-ca67c034763e","ios":"levelo://app?vid=be1ed82e-206d-4caf-b060-ca67c034763e"},"vehicle_type_id":"4","last_reported":1684051648,"current_range_meters":28000,"station_id":"ce4bgup2rcd13ifvqco0","pricing_plan_id":"free"},{"bike_id":"57c3029e-a82c-41e0-8094-bac2abcea413","system_id":"levelo_inurba_marseille","lat":43.309589,"lon":5.390258,"is_reserved":false,"is_disabled":false,"rental_uris":{"android":"levelo://app?vid=57c3029e-a82c-41e0-8094-bac2abcea413","ios":"levelo://app?vid=57c3029e-a82c-41e0-8094-bac2abcea413"},"vehicle_type_id":"4","last_reported":1684051648,"current_range_meters":28400,"station_id":"ce4bgup2rcd13ifvqco0","pricing_plan_id":"free"},{"bike_id":"b14d555f-1417-4866-a107-aac5622b58c4","system_id":"levelo_inurba_marseille","lat":43.309589,"lon":5.390258,"is_reserved":false,"is_disabled":false,"rental_uris":{"android":"levelo://app?vid=b14d555f-1417-4866-a107-aac5622b58c4","ios":"levelo://app?vid=b14d555f-1417-4866-a107-aac5622b58c4"},"vehicle_type_id":"4","last_reported":1684051648,"current_range_meters":16000,"station_id":"ce4bgup2rcd13ifvqco0","pricing_plan_id":"free"},{"bike_id":"5bd6f28e-0bdc-4ca7-b39a-b08c12afb0cd","system_id":"levelo_inurba_marseille","lat":43.309589,"lon":5.390258,"is_reserved":false,"is_disabled":false,"rental_uris":{"android":"levelo://app?vid=5bd6f28e-0bdc-4ca7-b39a-b08c12afb0cd","ios":"levelo://app?vid=5bd6f28e-0bdc-4ca7-b39a-b08c12afb0cd"},"vehicle_type_id":"4","last_reported":1684051648,"current_range_meters":18800,"station_id":"ce4bgup2rcd13ifvqco0","pricing_plan_id":"free"},{"bike_id":"b9c5ccae-9ed6-43fa-b427-0fb6eac72783","system_id":"levelo_inurba_marseille","lat":43.309589,"lon":5.390258,"is_reserved":false,"is_disabled":false,"rental_uris":{"android":"levelo://app?vid=b9c5ccae-9ed6-43fa-b427-0fb6eac72783","ios":"levelo://app?vid=b9c5ccae-9ed6-43fa-b427-0fb6eac72783"},"vehicle_type_id":"4","last_reported":1684051648,"current_range_meters":25600,"station_id":"ce4bgup2rcd13ifvqco0","pricing_plan_id":"free"},{"bike_id":"8d249c4e-5841-43df-a8c1-1ee71a14ff90","system_id":"levelo_inurba_marseille","lat":43.31759,"lon":5.3901,"is_reserved":false,"is_disabled":false,"rental_uris":{"android":"levelo://app?vid=8d249c4e-5841-43df-a8c1-1ee71a14ff90","ios":"levelo://app?vid=8d249c4e-5841-43df-a8c1-1ee71a14ff90"},"vehicle_type_id":"4","last_reported":1684051648,"current_range_meters":26400,"station_id":"ce4bhqp2rcd13ifvqhng","pricing_plan_id":"free"},{"bike_id":"7e101d88-7926-4513-a08a-b2a6fdb92c65","system_id":"levelo_inurba_marseille","lat":43.31757,"lon":5.39015,"is_reserved":false,"is_disabled":false,"rental_uris":{"android":"levelo://app?vid=7e101d88-7926-4513-a08a-b2a6fdb92c65","ios":"levelo://app?vid=7e101d88-7926-4513-a08a-b2a6fdb92c65"},"vehicle_type_id":"4","last_reported":1684051648,"current_range_meters":26000,"station_id":"ce4bhqp2rcd13ifvqhng","pricing_plan_id":"free"},{"bike_id":"1b8e8455-d974-44bb-9a4e-7e7867c76231","system_id":"levelo_inurba_marseille","lat":43.31757,"lon":5.39019,"is_reserved":false,"is_disabled":false,"rental_uris":{"android":"levelo://app?vid=1b8e8455-d974-44bb-9a4e-7e7867c76231","ios":"levelo://app?vid=1b8e8455-d974-44bb-9a4e-7e7867c76231"},"vehicle_type_id":"4","last_reported":1684051648,"current_range_meters":13600,"station_id":"ce4bhqp2rcd13ifvqhng","pricing_plan_id":"free"},{"bike_id":"38e74c45-5a44-4348-b414-011e289b3422","system_id":"levelo_inurba_marseille","lat":43.317557,"lon":5.390173,"is_reserved":false,"is_disabled":false,"rental_uris":{"android":"levelo://app?vid=38e74c45-5a44-4348-b414-011e289b3422","ios":"levelo://app?vid=38e74c45-5a44-4348-b414-011e289b3422"},"vehicle_type_id":"4","last_reported":1684051648,"current_range_meters":16800,"station_id":"ce4bhqp2rcd13ifvqhng","pricing_plan_id":"free"},{"bike_id":"eb214527-8203-4410-a520-f2f2d1c67bb7","system_id":"levelo_inurba_marseille","lat":43.317557,"lon":5.390173,"is_reserved":false,"is_disabled":false,"rental_uris":{"android":"levelo://app?vid=eb214527-8203-4410-a520-f2f2d1c67bb7","ios":"levelo://app?vid=eb214527-8203-4410-a520-f2f2d1c67bb7"},"vehicle_type_id":"4","last_reported":1684051648,"current_range_meters":31200,"station_id":"ce4bhqp2rcd13ifvqhng","pricing_plan_id":"free"},{"bike_id":"80b60f6f-28ee-4635-a30c-377c46bb9c86","system_id":"levelo_inurba_marseille","lat":43.317557,"lon":5.390173,"is_reserved":false,"is_disabled":false,"rental_uris":{"android":"levelo://app?vid=80b60f6f-28ee-4635-a30c-377c46bb9c86","ios":"levelo://app?vid=80b60f6f-28ee-4635-a30c-377c46bb9c86"},"vehicle_type_id":"4","last_reported":1684051648,"current_range_meters":13600,"station_id":"ce4bhqp2rcd13ifvqhng","pricing_plan_id":"free"},{"bike_id":"1b325cea-ceaa-42a6-b5b5-d830a284156d","system_id":"levelo_inurba_marseille","lat":43.31754,"lon":5.39029,"is_reserved":false,"is_disabled":false,"rental_uris":{"android":"levelo://app?vid=1b325cea-ceaa-42a6-b5b5-d830a284156d","ios":"levelo://app?vid=1b325cea-ceaa-42a6-b5b5-d830a284156d"},"vehicle_type_id":"4","last_reported":1684051648,"current_range_meters":23200,"station_id":"ce4bhqp2rcd13ifvqhng","pricing_plan_id":"free"},{"bike_id":"2e4072c4-97ae-412f-891d-364f103e5e6c","system_id":"levelo_inurba_marseille","lat":43.31758,"lon":5.39029,"is_reserved":false,"is_disabled":false,"rental_uris":{"android":"levelo://app?vid=2e4072c4-97ae-412f-891d-364f103e5e6c","ios":"levelo://app?vid=2e4072c4-97ae-412f-891d-364f103e5e6c"},"vehicle_type_id":"4","last_reported":1684051648,"current_range_meters":15200,"station_id":"ce4bhqp2rcd13ifvqhng","pricing_plan_id":"free"},{"bike_id":"46fe8492-485e-4b45-949b-3fd957712adc","system_id":"levelo_inurba_marseille","lat":43.31752,"lon":5.39033,"is_reserved":false,"is_disabled":false,"rental_uris":{"android":"levelo://app?vid=46fe8492-485e-4b45-949b-3fd957712adc","ios":"levelo://app?vid=46fe8492-485e-4b45-949b-3fd957712adc"},"vehicle_type_id":"4","last_reported":1684051648,"current_range_meters":11200,"station_id":"ce4bhqp2rcd13ifvqhng","pricing_plan_id":"free"},{"bike_id":"588d3ccf-2866-4c65-a2b7-84e904452c99","system_id":"levelo_inurba_marseille","lat":43.298037,"lon":5.381066,"is_reserved":false,"is_disabled":false,"rental_uris":{"android":"levelo://app?vid=588d3ccf-2866-4c65-a2b7-84e904452c99","ios":"levelo://app?vid=588d3ccf-2866-4c65-a2b7-84e904452c99"},"vehicle_type_id":"4","last_reported":1684051648,"current_range_meters":18800,"station_id":"ce4bgip2rcd13ifvqbb0","pricing_plan_id":"free"},{"bike_id":"2e25b1ae-61a3-4143-a1da-0232da0e0481","system_id":"levelo_inurba_marseille","lat":43.295748,"lon":5.37522,"is_reserved":false,"is_disabled":false,"rental_uris":{"android":"levelo://app?vid=2e25b1ae-61a3-4143-a1da-0232da0e0481","ios":"levelo://app?vid=2e25b1ae-61a3-4143-a1da-0232da0e0481"},"vehicle_type_id":"4","last_reported":1684051648,"current_range_meters":6800,"station_id":"ce4bgh92rcd13ifvqb50","pricing_plan_id":"free"},{"bike_id":"1c257a26-4638-4f21-abd9-98324b3ad1a7","system_id":"levelo_inurba_marseille","lat":43.298037,"lon":5.381066,"is_reserved":false,"is_disabled":false,"rental_uris":{"android":"levelo://app?vid=1c257a26-4638-4f21-abd9-98324b3ad1a7","ios":"levelo://app?vid=1c257a26-4638-4f21-abd9-98324b3ad1a7"},"vehicle_type_id":"4","last_reported":1684051648,"current_range_meters":26800,"station_id":"ce4bgip2rcd13ifvqbb0","pricing_plan_id":"free"},{"bike_id":"27955a73-f429-42d6-abac-bf119e5514f6","system_id":"levelo_inurba_marseille","lat":43.295748,"lon":5.37522,"is_reserved":false,"is_disabled":false,"rental_uris":{"android":"levelo://app?vid=27955a73-f429-42d6-abac-bf119e5514f6","ios":"levelo://app?vid=27955a73-f429-42d6-abac-bf119e5514f6"},"vehicle_type_id":"4","last_reported":1684051648,"current_range_meters":6000,"station_id":"ce4bgh92rcd13ifvqb50","pricing_plan_id":"free"},{"bike_id":"88f618d7-4d89-4c5b-8025-45c009fc79d6","system_id":"levelo_inurba_marseille","lat":43.2979,"lon":5.3811,"is_reserved":false,"is_disabled":false,"rental_uris":{"android":"levelo://app?vid=88f618d7-4d89-4c5b-8025-45c009fc79d6","ios":"levelo://app?vid=88f618d7-4d89-4c5b-8025-45c009fc79d6"},"vehicle_type_id":"4","last_reported":1684051648,"current_range_meters":24800,"station_id":"ce4bgip2rcd13ifvqbb0","pricing_plan_id":"free"},{"bike_id":"81ebbd79-41a3-49f9-939b-1b79b83f26e3","system_id":"levelo_inurba_marseille","lat":43.29793,"lon":5.38116,"is_reserved":false,"is_disabled":false,"rental_uris":{"android":"levelo://app?vid=81ebbd79-41a3-49f9-939b-1b79b83f26e3","ios":"levelo://app?vid=81ebbd79-41a3-49f9-939b-1b79b83f26e3"},"vehicle_type_id":"4","last_reported":1684051648,"current_range_meters":22000,"station_id":"ce4bgip2rcd13ifvqbb0","pricing_plan_id":"free"},{"bike_id":"ac1c4fce-049a-47d5-aaee-be555a9009d7","system_id":"levelo_inurba_marseille","lat":43.30437,"lon":5.38897,"is_reserved":false,"is_disabled":false,"rental_uris":{"android":"levelo://app?vid=ac1c4fce-049a-47d5-aaee-be555a9009d7","ios":"levelo://app?vid=ac1c4fce-049a-47d5-aaee-be555a9009d7"},"vehicle_type_id":"4","last_reported":1684051648,"current_range_meters":27600,"station_id":"ce4bgk12rcd13ifvqbi0","pricing_plan_id":"free"},{"bike_id":"bd64df94-c4d6-4214-b32d-a23ed9cbf31c","system_id":"levelo_inurba_marseille","lat":43.29621,"lon":5.37718,"is_reserved":false,"is_disabled":false,"rental_uris":{"android":"levelo://app?vid=bd64df94-c4d6-4214-b32d-a23ed9cbf31c","ios":"levelo://app?vid=bd64df94-c4d6-4214-b32d-a23ed9cbf31c"},"vehicle_type_id":"4","last_reported":1684051648,"current_range_meters":28800,"station_id":"ce4bgi92rcd13ifvqb90","pricing_plan_id":"free"},{"bike_id":"bc60067f-ad1c-473d-823f-643f6086cf5e","system_id":"levelo_inurba_marseille","lat":43.29781,"lon":5.38108,"is_reserved":false,"is_disabled":false,"rental_uris":{"android":"levelo://app?vid=bc60067f-ad1c-473d-823f-643f6086cf5e","ios":"levelo://app?vid=bc60067f-ad1c-473d-823f-643f6086cf5e"},"vehicle_type_id":"4","last_reported":1684051648,"current_range_meters":24000,"station_id":"ce4bgip2rcd13ifvqbb0","pricing_plan_id":"free"},{"bike_id":"9cfc3a51-8b9c-4c44-b444-c01a9df5fa74","system_id":"levelo_inurba_marseille","lat":43.29614,"lon":5.37718,"is_reserved":false,"is_disabled":false,"rental_uris":{"android":"levelo://app?vid=9cfc3a51-8b9c-4c44-b444-c01a9df5fa74","ios":"levelo://app?vid=9cfc3a51-8b9c-4c44-b444-c01a9df5fa74"},"vehicle_type_id":"4","last_reported":1684051648,"current_range_meters":27600,"station_id":"ce4bgi92rcd13ifvqb90","pricing_plan_id":"free"},{"bike_id":"de33fa49-199b-484e-81a6-e04cd8530c0b","system_id":"levelo_inurba_marseille","lat":43.295279,"lon":5.375048,"is_reserved":false,"is_disabled":false,"rental_uris":{"android":"levelo://app?vid=de33fa49-199b-484e-81a6-e04cd8530c0b","ios":"levelo://app?vid=de33fa49-199b-484e-81a6-e04cd8530c0b"},"vehicle_type_id":"4","last_reported":1684051648,"current_range_meters":28800,"station_id":"ce4bgkp2rcd13ifvqbmg","pricing_plan_id":"free"},{"bike_id":"cd20fa76-e238-4dac-a5c4-4b46917f4d5c","system_id":"levelo_inurba_marseille","lat":43.295279,"lon":5.375048,"is_reserved":false,"is_disabled":false,"rental_uris":{"android":"levelo://app?vid=cd20fa76-e238-4dac-a5c4-4b46917f4d5c","ios":"levelo://app?vid=cd20fa76-e238-4dac-a5c4-4b46917f4d5c"},"vehicle_type_id":"4","last_reported":1684051648,"current_range_meters":31200,"station_id":"ce4bgkp2rcd13ifvqbmg","pricing_plan_id":"free"},{"bike_id":"946596b7-a368-4afc-8c56-d01d08fd12b0","system_id":"levelo_inurba_marseille","lat":43.299717,"lon":5.384845,"is_reserved":false,"is_disabled":false,"rental_uris":{"android":"levelo://app?vid=946596b7-a368-4afc-8c56-d01d08fd12b0","ios":"levelo://app?vid=946596b7-a368-4afc-8c56-d01d08fd12b0"},"vehicle_type_id":"4","last_reported":1684051648,"current_range_meters":27200,"station_id":"ce4bgj92rcd13ifvqbd0","pricing_plan_id":"free"},{"bike_id":"155c06d0-b8c6-40d0-b680-d8a7f0b736ad","system_id":"levelo_inurba_marseille","lat":43.295279,"lon":5.375048,"is_reserved":false,"is_disabled":false,"rental_uris":{"android":"levelo://app?vid=155c06d0-b8c6-40d0-b680-d8a7f0b736ad","ios":"levelo://app?vid=155c06d0-b8c6-40d0-b680-d8a7f0b736ad"},"vehicle_type_id":"4","last_reported":1684051648,"current_range_meters":11600,"station_id":"ce4bgkp2rcd13ifvqbmg","pricing_plan_id":"free"},{"bike_id":"98d43089-ff1e-40ee-a123-f18e174ce1c4","system_id":"levelo_inurba_marseille","lat":43.31447,"lon":5.39279,"is_reserved":false,"is_disabled":false,"rental_uris":{"android":"levelo://app?vid=98d43089-ff1e-40ee-a123-f18e174ce1c4","ios":"levelo://app?vid=98d43089-ff1e-40ee-a123-f18e174ce1c4"},"vehicle_type_id":"4","last_reported":1684051648,"current_range_meters":400,"station_id":"","pricing_plan_id":"free"},{"bike_id":"6f6b02ce-a50b-443a-a31d-aed834771e7b","system_id":"levelo_inurba_marseille","lat":43.31449,"lon":5.39288,"is_reserved":false,"is_disabled":false,"rental_uris":{"android":"levelo://app?vid=6f6b02ce-a50b-443a-a31d-aed834771e7b","ios":"levelo://app?vid=6f6b02ce-a50b-443a-a31d-aed834771e7b"},"vehicle_type_id":"4","last_reported":1684051648,"current_range_meters":2800,"station_id":"","pricing_plan_id":"free"},{"bike_id":"26a13052-0bf8-42cc-abb1-fb95fcb7c877","system_id":"levelo_inurba_marseille","lat":43.31442,"lon":5.39294,"is_reserved":false,"is_disabled":false,"rental_uris":{"android":"levelo://app?vid=26a13052-0bf8-42cc-abb1-fb95fcb7c877","ios":"levelo://app?vid=26a13052-0bf8-42cc-abb1-fb95fcb7c877"},"vehicle_type_id":"4","last_reported":1684051648,"current_range_meters":14800,"station_id":"","pricing_plan_id":"free"},{"bike_id":"81ed10b4-4906-4475-8232-fa191f82a80b","system_id":"levelo_inurba_marseille","lat":43.309589,"lon":5.390258,"is_reserved":false,"is_disabled":false,"rental_uris":{"android":"levelo://app?vid=81ed10b4-4906-4475-8232-fa191f82a80b","ios":"levelo://app?vid=81ed10b4-4906-4475-8232-fa191f82a80b"},"vehicle_type_id":"4","last_reported":1684051648,"current_range_meters":25600,"station_id":"ce4bgup2rcd13ifvqco0","pricing_plan_id":"free"},{"bike_id":"46ab862a-5b8e-4571-a5d9-bea2fd50d4a1","system_id":"levelo_inurba_marseille","lat":43.32369,"lon":5.38885,"is_reserved":false,"is_disabled":false,"rental_uris":{"android":"levelo://app?vid=46ab862a-5b8e-4571-a5d9-bea2fd50d4a1","ios":"levelo://app?vid=46ab862a-5b8e-4571-a5d9-bea2fd50d4a1"},"vehicle_type_id":"4","last_reported":1684051648,"current_range_meters":30000,"station_id":"ce4bhqp2rcd13ifvqhog","pricing_plan_id":"free"},{"bike_id":"6a2642fc-b753-4208-985a-371364f6d403","system_id":"levelo_inurba_marseille","lat":43.293085,"lon":5.371775,"is_reserved":false,"is_disabled":false,"rental_uris":{"android":"levelo://app?vid=6a2642fc-b753-4208-985a-371364f6d403","ios":"levelo://app?vid=6a2642fc-b753-4208-985a-371364f6d403"},"vehicle_type_id":"4","last_reported":1684051648,"current_range_meters":24400,"station_id":"","pricing_plan_id":"free"},{"bike_id":"2ff2862f-aa44-4c10-9bbe-27c2f139a4cd","system_id":"levelo_inurba_marseille","lat":43.293009,"lon":5.374584,"is_reserved":false,"is_disabled":false,"rental_uris":{"android":"levelo://app?vid=2ff2862f-aa44-4c10-9bbe-27c2f139a4cd","ios":"levelo://app?vid=2ff2862f-aa44-4c10-9bbe-27c2f139a4cd"},"vehicle_type_id":"4","last_reported":1684051648,"current_range_meters":22800,"station_id":"ce4bgi12rcd13ifvqb70","pricing_plan_id":"free"},{"bike_id":"71310500-a00d-4f63-a692-41782e820f55","system_id":"levelo_inurba_marseille","lat":43.29224,"lon":5.36052,"is_reserved":false,"is_disabled":false,"rental_uris":{"android":"levelo://app?vid=71310500-a00d-4f63-a692-41782e820f55","ios":"levelo://app?vid=71310500-a00d-4f63-a692-41782e820f55"},"vehicle_type_id":"4","last_reported":1684051648,"current_range_meters":21200,"station_id":"","pricing_plan_id":"free"},{"bike_id":"1c9643c4-51bb-4360-bcc2-91565217efc7","system_id":"levelo_inurba_marseille","lat":43.292663,"lon":5.376389,"is_reserved":false,"is_disabled":false,"rental_uris":{"android":"levelo://app?vid=1c9643c4-51bb-4360-bcc2-91565217efc7","ios":"levelo://app?vid=1c9643c4-51bb-4360-bcc2-91565217efc7"},"vehicle_type_id":"4","last_reported":1684051648,"current_range_meters":10800,"station_id":"ce4bgi12rcd13ifvqb80","pricing_plan_id":"free"},{"bike_id":"68da6d6a-d0cb-4466-b2e0-dd1b933823ba","system_id":"levelo_inurba_marseille","lat":43.29217,"lon":5.36043,"is_reserved":false,"is_disabled":false,"rental_uris":{"android":"levelo://app?vid=68da6d6a-d0cb-4466-b2e0-dd1b933823ba","ios":"levelo://app?vid=68da6d6a-d0cb-4466-b2e0-dd1b933823ba"},"vehicle_type_id":"4","last_reported":1684051648,"current_range_meters":18000,"station_id":"","pricing_plan_id":"free"},{"bike_id":"e2c56702-1ce9-420e-a848-01622caf81d2","system_id":"levelo_inurba_marseille","lat":43.292663,"lon":5.376394,"is_reserved":false,"is_disabled":false,"rental_uris":{"android":"levelo://app?vid=e2c56702-1ce9-420e-a848-01622caf81d2","ios":"levelo://app?vid=e2c56702-1ce9-420e-a848-01622caf81d2"},"vehicle_type_id":"4","last_reported":1684051648,"current_range_meters":27600,"station_id":"ce4bgi12rcd13ifvqb80","pricing_plan_id":"free"},{"bike_id":"ce0b3c2a-d01b-4ad1-b79f-0d549412ce8d","system_id":"levelo_inurba_marseille","lat":43.292663,"lon":5.376389,"is_reserved":false,"is_disabled":false,"rental_uris":{"android":"levelo://app?vid=ce0b3c2a-d01b-4ad1-b79f-0d549412ce8d","ios":"levelo://app?vid=ce0b3c2a-d01b-4ad1-b79f-0d549412ce8d"},"vehicle_type_id":"4","last_reported":1684051648,"current_range_meters":30800,"station_id":"ce4bgi12rcd13ifvqb80","pricing_plan_id":"free"},{"bike_id":"f583a6ea-9f89-41e8-af67-225a97b47935","system_id":"levelo_inurba_marseille","lat":43.291675,"lon":5.371583,"is_reserved":false,"is_disabled":false,"rental_uris":{"android":"levelo://app?vid=f583a6ea-9f89-41e8-af67-225a97b47935","ios":"levelo://app?vid=f583a6ea-9f89-41e8-af67-225a97b47935"},"vehicle_type_id":"4","last_reported":1684051648,"current_range_meters":20000,"station_id":"ce4bha92rcd13ifvqeh0","pricing_plan_id":"free"},{"bike_id":"8fb4f7d8-856c-462d-be16-ce46c14da3dd","system_id":"levelo_inurba_marseille","lat":43.29605,"lon":5.3854,"is_reserved":false,"is_disabled":false,"rental_uris":{"android":"levelo://app?vid=8fb4f7d8-856c-462d-be16-ce46c14da3dd","ios":"levelo://app?vid=8fb4f7d8-856c-462d-be16-ce46c14da3dd"},"vehicle_type_id":"4","last_reported":1684051648,"current_range_meters":20000,"station_id":"","pricing_plan_id":"free"},{"bike_id":"0de22fe6-f5bd-4a91-a882-a56a52302f31","system_id":"levelo_inurba_marseille","lat":43.309038,"lon":5.396546,"is_reserved":false,"is_disabled":false,"rental_uris":{"android":"levelo://app?vid=0de22fe6-f5bd-4a91-a882-a56a52302f31","ios":"levelo://app?vid=0de22fe6-f5bd-4a91-a882-a56a52302f31"},"vehicle_type_id":"4","last_reported":1684051648,"current_range_meters":17200,"station_id":"ce4bh012rcd13ifvqcv0","pricing_plan_id":"free"},{"bike_id":"a44435ac-430e-495b-be02-3c56d97b1615","system_id":"levelo_inurba_marseille","lat":43.29199,"lon":5.358092,"is_reserved":false,"is_disabled":false,"rental_uris":{"android":"levelo://app?vid=a44435ac-430e-495b-be02-3c56d97b1615","ios":"levelo://app?vid=a44435ac-430e-495b-be02-3c56d97b1615"},"vehicle_type_id":"4","last_reported":1684051648,"current_range_meters":29200,"station_id":"ce4bhb12rcd13ifvqel0","pricing_plan_id":"free"},{"bike_id":"c79cb25f-1e23-409f-94a6-d9859742c672","system_id":"levelo_inurba_marseille","lat":43.309038,"lon":5.396546,"is_reserved":false,"is_disabled":false,"rental_uris":{"android":"levelo://app?vid=c79cb25f-1e23-409f-94a6-d9859742c672","ios":"levelo://app?vid=c79cb25f-1e23-409f-94a6-d9859742c672"},"vehicle_type_id":"4","last_reported":1684051648,"current_range_meters":15600,"station_id":"ce4bh012rcd13ifvqcv0","pricing_plan_id":"free"},{"bike_id":"f54d2ac5-2892-476e-b185-b228218c5273","system_id":"levelo_inurba_marseille","lat":43.309038,"lon":5.396546,"is_reserved":false,"is_disabled":false,"rental_uris":{"android":"levelo://app?vid=f54d2ac5-2892-476e-b185-b228218c5273","ios":"levelo://app?vid=f54d2ac5-2892-476e-b185-b228218c5273"},"vehicle_type_id":"4","last_reported":1684051648,"current_range_meters":28800,"station_id":"ce4bh012rcd13ifvqcv0","pricing_plan_id":"free"},{"bike_id":"c191f11b-9047-458b-83bd-1e64c8f9ebbe","system_id":"levelo_inurba_marseille","lat":43.29197,"lon":5.35803,"is_reserved":false,"is_disabled":false,"rental_uris":{"android":"levelo://app?vid=c191f11b-9047-458b-83bd-1e64c8f9ebbe","ios":"levelo://app?vid=c191f11b-9047-458b-83bd-1e64c8f9ebbe"},"vehicle_type_id":"4","last_reported":1684051648,"current_range_meters":26400,"station_id":"","pricing_plan_id":"free"},{"bike_id":"da42fdc4-1e46-4b6a-9199-894601431afa","system_id":"levelo_inurba_marseille","lat":43.309038,"lon":5.396546,"is_reserved":false,"is_disabled":false,"rental_uris":{"android":"levelo://app?vid=da42fdc4-1e46-4b6a-9199-894601431afa","ios":"levelo://app?vid=da42fdc4-1e46-4b6a-9199-894601431afa"},"vehicle_type_id":"4","last_reported":1684051648,"current_range_meters":30400,"station_id":"ce4bh012rcd13ifvqcv0","pricing_plan_id":"free"},{"bike_id":"723c5ffd-0b1b-44cf-8cb5-bc8afe360d1d","system_id":"levelo_inurba_marseille","lat":43.309038,"lon":5.396546,"is_reserved":false,"is_disabled":false,"rental_uris":{"android":"levelo://app?vid=723c5ffd-0b1b-44cf-8cb5-bc8afe360d1d","ios":"levelo://app?vid=723c5ffd-0b1b-44cf-8cb5-bc8afe360d1d"},"vehicle_type_id":"4","last_reported":1684051648,"current_range_meters":31600,"station_id":"ce4bh012rcd13ifvqcv0","pricing_plan_id":"free"},{"bike_id":"a4512e4f-f802-4624-80d8-69688ef4f7ea","system_id":"levelo_inurba_marseille","lat":43.309038,"lon":5.396546,"is_reserved":false,"is_disabled":false,"rental_uris":{"android":"levelo://app?vid=a4512e4f-f802-4624-80d8-69688ef4f7ea","ios":"levelo://app?vid=a4512e4f-f802-4624-80d8-69688ef4f7ea"},"vehicle_type_id":"4","last_reported":1684051648,"current_range_meters":24800,"station_id":"ce4bh012rcd13ifvqcv0","pricing_plan_id":"free"},{"bike_id":"5f065ca9-3ba2-4c59-888c-7c829bc79e91","system_id":"levelo_inurba_marseille","lat":43.309038,"lon":5.396546,"is_reserved":false,"is_disabled":false,"rental_uris":{"android":"levelo://app?vid=5f065ca9-3ba2-4c59-888c-7c829bc79e91","ios":"levelo://app?vid=5f065ca9-3ba2-4c59-888c-7c829bc79e91"},"vehicle_type_id":"4","last_reported":1684051648,"current_range_meters":31200,"station_id":"ce4bh012rcd13ifvqcv0","pricing_plan_id":"free"},{"bike_id":"f2647d72-6fea-43c9-b2fb-8ed0793f2d8e","system_id":"levelo_inurba_marseille","lat":43.309038,"lon":5.396546,"is_reserved":false,"is_disabled":false,"rental_uris":{"android":"levelo://app?vid=f2647d72-6fea-43c9-b2fb-8ed0793f2d8e","ios":"levelo://app?vid=f2647d72-6fea-43c9-b2fb-8ed0793f2d8e"},"vehicle_type_id":"4","last_reported":1684051648,"current_range_meters":31200,"station_id":"ce4bh012rcd13ifvqcv0","pricing_plan_id":"free"},{"bike_id":"32ce23b9-17f2-4cbf-b8fc-478125b47c13","system_id":"levelo_inurba_marseille","lat":43.309038,"lon":5.396546,"is_reserved":false,"is_disabled":false,"rental_uris":{"android":"levelo://app?vid=32ce23b9-17f2-4cbf-b8fc-478125b47c13","ios":"levelo://app?vid=32ce23b9-17f2-4cbf-b8fc-478125b47c13"},"vehicle_type_id":"4","last_reported":1684051648,"current_range_meters":28800,"station_id":"ce4bh012rcd13ifvqcv0","pricing_plan_id":"free"},{"bike_id":"dba7d500-d15f-4a25-b5a4-7781e2c98f12","system_id":"levelo_inurba_marseille","lat":43.309038,"lon":5.396546,"is_reserved":false,"is_disabled":false,"rental_uris":{"android":"levelo://app?vid=dba7d500-d15f-4a25-b5a4-7781e2c98f12","ios":"levelo://app?vid=dba7d500-d15f-4a25-b5a4-7781e2c98f12"},"vehicle_type_id":"4","last_reported":1684051648,"current_range_meters":31600,"station_id":"ce4bh012rcd13ifvqcv0","pricing_plan_id":"free"},{"bike_id":"958169df-fb24-402f-b252-e6412e2025cd","system_id":"levelo_inurba_marseille","lat":43.309038,"lon":5.396546,"is_reserved":false,"is_disabled":false,"rental_uris":{"android":"levelo://app?vid=958169df-fb24-402f-b252-e6412e2025cd","ios":"levelo://app?vid=958169df-fb24-402f-b252-e6412e2025cd"},"vehicle_type_id":"4","last_reported":1684051648,"current_range_meters":25200,"station_id":"ce4bh012rcd13ifvqcv0","pricing_plan_id":"free"},{"bike_id":"57bae30c-b9d6-4a78-a27e-cb4858b99418","system_id":"levelo_inurba_marseille","lat":43.309038,"lon":5.396546,"is_reserved":false,"is_disabled":false,"rental_uris":{"android":"levelo://app?vid=57bae30c-b9d6-4a78-a27e-cb4858b99418","ios":"levelo://app?vid=57bae30c-b9d6-4a78-a27e-cb4858b99418"},"vehicle_type_id":"4","last_reported":1684051648,"current_range_meters":19600,"station_id":"ce4bh012rcd13ifvqcv0","pricing_plan_id":"free"},{"bike_id":"bb459314-17f6-417f-93dd-1cdb5c32a679","system_id":"levelo_inurba_marseille","lat":43.313291,"lon":5.396838,"is_reserved":false,"is_disabled":false,"rental_uris":{"android":"levelo://app?vid=bb459314-17f6-417f-93dd-1cdb5c32a679","ios":"levelo://app?vid=bb459314-17f6-417f-93dd-1cdb5c32a679"},"vehicle_type_id":"4","last_reported":1684051648,"current_range_meters":26800,"station_id":"ce4bgvp2rcd13ifvqcu0","pricing_plan_id":"free"},{"bike_id":"e45f9ceb-d7cf-44ac-ac01-ed8ef1fde44f","system_id":"levelo_inurba_marseille","lat":43.313291,"lon":5.396838,"is_reserved":false,"is_disabled":false,"rental_uris":{"android":"levelo://app?vid=e45f9ceb-d7cf-44ac-ac01-ed8ef1fde44f","ios":"levelo://app?vid=e45f9ceb-d7cf-44ac-ac01-ed8ef1fde44f"},"vehicle_type_id":"4","last_reported":1684051648,"current_range_meters":21600,"station_id":"ce4bgvp2rcd13ifvqcu0","pricing_plan_id":"free"},{"bike_id":"a1cbd7f1-b1d6-46ee-8d7a-e685f12f07db","system_id":"levelo_inurba_marseille","lat":43.313291,"lon":5.396838,"is_reserved":false,"is_disabled":false,"rental_uris":{"android":"levelo://app?vid=a1cbd7f1-b1d6-46ee-8d7a-e685f12f07db","ios":"levelo://app?vid=a1cbd7f1-b1d6-46ee-8d7a-e685f12f07db"},"vehicle_type_id":"4","last_reported":1684051648,"current_range_meters":22400,"station_id":"ce4bgvp2rcd13ifvqcu0","pricing_plan_id":"free"},{"bike_id":"37a4893f-16a4-4651-88c3-b64ea39cb114","system_id":"levelo_inurba_marseille","lat":43.2918,"lon":5.35798,"is_reserved":false,"is_disabled":false,"rental_uris":{"android":"levelo://app?vid=37a4893f-16a4-4651-88c3-b64ea39cb114","ios":"levelo://app?vid=37a4893f-16a4-4651-88c3-b64ea39cb114"},"vehicle_type_id":"4","last_reported":1684051648,"current_range_meters":31200,"station_id":"","pricing_plan_id":"free"},{"bike_id":"ca6c28b9-b30c-4c24-9264-4b53bf96aea0","system_id":"levelo_inurba_marseille","lat":43.29529,"lon":5.385581,"is_reserved":false,"is_disabled":false,"rental_uris":{"android":"levelo://app?vid=ca6c28b9-b30c-4c24-9264-4b53bf96aea0","ios":"levelo://app?vid=ca6c28b9-b30c-4c24-9264-4b53bf96aea0"},"vehicle_type_id":"4","last_reported":1684051648,"current_range_meters":17600,"station_id":"ce4bgih2rcd13ifvqba0","pricing_plan_id":"free"},{"bike_id":"62ec8753-44a7-44ae-a5c4-ee6401d48ff6","system_id":"levelo_inurba_marseille","lat":43.302008,"lon":5.394694,"is_reserved":false,"is_disabled":false,"rental_uris":{"android":"levelo://app?vid=62ec8753-44a7-44ae-a5c4-ee6401d48ff6","ios":"levelo://app?vid=62ec8753-44a7-44ae-a5c4-ee6401d48ff6"},"vehicle_type_id":"4","last_reported":1684051648,"current_range_meters":27200,"station_id":"ce4bh0p2rcd13ifvqd70","pricing_plan_id":"free"},{"bike_id":"8a2ab3c3-5950-4fd4-b7fe-b3e26e03a3fa","system_id":"levelo_inurba_marseille","lat":43.302008,"lon":5.394694,"is_reserved":false,"is_disabled":false,"rental_uris":{"android":"levelo://app?vid=8a2ab3c3-5950-4fd4-b7fe-b3e26e03a3fa","ios":"levelo://app?vid=8a2ab3c3-5950-4fd4-b7fe-b3e26e03a3fa"},"vehicle_type_id":"4","last_reported":1684051648,"current_range_meters":31600,"station_id":"ce4bh0p2rcd13ifvqd70","pricing_plan_id":"free"},{"bike_id":"e13f5143-3fda-4d49-9ffd-604f16631d6b","system_id":"levelo_inurba_marseille","lat":43.302008,"lon":5.394694,"is_reserved":false,"is_disabled":false,"rental_uris":{"android":"levelo://app?vid=e13f5143-3fda-4d49-9ffd-604f16631d6b","ios":"levelo://app?vid=e13f5143-3fda-4d49-9ffd-604f16631d6b"},"vehicle_type_id":"4","last_reported":1684051648,"current_range_meters":1600,"station_id":"ce4bh0p2rcd13ifvqd70","pricing_plan_id":"free"},{"bike_id":"ddcf36f2-37f5-45b7-9cbc-b96c6b01bbb8","system_id":"levelo_inurba_marseille","lat":43.290624,"lon":5.359245,"is_reserved":false,"is_disabled":false,"rental_uris":{"android":"levelo://app?vid=ddcf36f2-37f5-45b7-9cbc-b96c6b01bbb8","ios":"levelo://app?vid=ddcf36f2-37f5-45b7-9cbc-b96c6b01bbb8"},"vehicle_type_id":"4","last_reported":1684051648,"current_range_meters":30400,"station_id":"ce4bha92rcd13ifvqeg0","pricing_plan_id":"free"},{"bike_id":"7f9d37d8-8bc8-4c4f-a961-c65bf0b2ea5e","system_id":"levelo_inurba_marseille","lat":43.290624,"lon":5.359245,"is_reserved":false,"is_disabled":false,"rental_uris":{"android":"levelo://app?vid=7f9d37d8-8bc8-4c4f-a961-c65bf0b2ea5e","ios":"levelo://app?vid=7f9d37d8-8bc8-4c4f-a961-c65bf0b2ea5e"},"vehicle_type_id":"4","last_reported":1684051648,"current_range_meters":31600,"station_id":"ce4bha92rcd13ifvqeg0","pricing_plan_id":"free"},{"bike_id":"3750c500-713d-4068-bba6-aff0ab13f3bd","system_id":"levelo_inurba_marseille","lat":43.29046,"lon":5.35915,"is_reserved":false,"is_disabled":false,"rental_uris":{"android":"levelo://app?vid=3750c500-713d-4068-bba6-aff0ab13f3bd","ios":"levelo://app?vid=3750c500-713d-4068-bba6-aff0ab13f3bd"},"vehicle_type_id":"4","last_reported":1684051648,"current_range_meters":26000,"station_id":"","pricing_plan_id":"free"},{"bike_id":"1224167b-6a58-473a-9b4e-783f0b682561","system_id":"levelo_inurba_marseille","lat":43.290631,"lon":5.359244,"is_reserved":false,"is_disabled":false,"rental_uris":{"android":"levelo://app?vid=1224167b-6a58-473a-9b4e-783f0b682561","ios":"levelo://app?vid=1224167b-6a58-473a-9b4e-783f0b682561"},"vehicle_type_id":"4","last_reported":1684051648,"current_range_meters":30400,"station_id":"ce4bha92rcd13ifvqeg0","pricing_plan_id":"free"},{"bike_id":"fb321ffb-a62f-4378-967e-76f0bd16da39","system_id":"levelo_inurba_marseille","lat":43.290624,"lon":5.359245,"is_reserved":false,"is_disabled":false,"rental_uris":{"android":"levelo://app?vid=fb321ffb-a62f-4378-967e-76f0bd16da39","ios":"levelo://app?vid=fb321ffb-a62f-4378-967e-76f0bd16da39"},"vehicle_type_id":"4","last_reported":1684051648,"current_range_meters":29200,"station_id":"ce4bha92rcd13ifvqeg0","pricing_plan_id":"free"},{"bike_id":"833ec788-fd0f-478e-a139-d78d86914b8d","system_id":"levelo_inurba_marseille","lat":43.290631,"lon":5.359244,"is_reserved":false,"is_disabled":false,"rental_uris":{"android":"levelo://app?vid=833ec788-fd0f-478e-a139-d78d86914b8d","ios":"levelo://app?vid=833ec788-fd0f-478e-a139-d78d86914b8d"},"vehicle_type_id":"4","last_reported":1684051648,"current_range_meters":29600,"station_id":"ce4bha92rcd13ifvqeg0","pricing_plan_id":"free"},{"bike_id":"4667b277-eec9-41c5-8e0c-e05fa308b839","system_id":"levelo_inurba_marseille","lat":43.290631,"lon":5.359244,"is_reserved":false,"is_disabled":false,"rental_uris":{"android":"levelo://app?vid=4667b277-eec9-41c5-8e0c-e05fa308b839","ios":"levelo://app?vid=4667b277-eec9-41c5-8e0c-e05fa308b839"},"vehicle_type_id":"4","last_reported":1684051648,"current_range_meters":30800,"station_id":"ce4bha92rcd13ifvqeg0","pricing_plan_id":"free"},{"bike_id":"5f15ca38-2411-466e-9499-deef8b727ddb","system_id":"levelo_inurba_marseille","lat":43.29044,"lon":5.3591,"is_reserved":false,"is_disabled":false,"rental_uris":{"android":"levelo://app?vid=5f15ca38-2411-466e-9499-deef8b727ddb","ios":"levelo://app?vid=5f15ca38-2411-466e-9499-deef8b727ddb"},"vehicle_type_id":"4","last_reported":1684051648,"current_range_meters":30000,"station_id":"ce4bha92rcd13ifvqeg0","pricing_plan_id":"free"},{"bike_id":"f98d3d8e-cfaf-45ad-9b73-4ab7e17114df","system_id":"levelo_inurba_marseille","lat":43.290631,"lon":5.359244,"is_reserved":false,"is_disabled":false,"rental_uris":{"android":"levelo://app?vid=f98d3d8e-cfaf-45ad-9b73-4ab7e17114df","ios":"levelo://app?vid=f98d3d8e-cfaf-45ad-9b73-4ab7e17114df"},"vehicle_type_id":"4","last_reported":1684051648,"current_range_meters":26400,"station_id":"ce4bha92rcd13ifvqeg0","pricing_plan_id":"free"},{"bike_id":"898ad62c-7b44-48c9-bc93-09f6d5634813","system_id":"levelo_inurba_marseille","lat":43.29042,"lon":5.35916,"is_reserved":false,"is_disabled":false,"rental_uris":{"android":"levelo://app?vid=898ad62c-7b44-48c9-bc93-09f6d5634813","ios":"levelo://app?vid=898ad62c-7b44-48c9-bc93-09f6d5634813"},"vehicle_type_id":"4","last_reported":1684051648,"current_range_meters":31200,"station_id":"","pricing_plan_id":"free"},{"bike_id":"1ea73195-37e9-406e-a709-506f8392c5c1","system_id":"levelo_inurba_marseille","lat":43.29042,"lon":5.35915,"is_reserved":false,"is_disabled":false,"rental_uris":{"android":"levelo://app?vid=1ea73195-37e9-406e-a709-506f8392c5c1","ios":"levelo://app?vid=1ea73195-37e9-406e-a709-506f8392c5c1"},"vehicle_type_id":"4","last_reported":1684051648,"current_range_meters":18400,"station_id":"","pricing_plan_id":"free"},{"bike_id":"08e758c1-0412-4c02-982a-42cdc55b5264","system_id":"levelo_inurba_marseille","lat":43.29039,"lon":5.35917,"is_reserved":false,"is_disabled":false,"rental_uris":{"android":"levelo://app?vid=08e758c1-0412-4c02-982a-42cdc55b5264","ios":"levelo://app?vid=08e758c1-0412-4c02-982a-42cdc55b5264"},"vehicle_type_id":"4","last_reported":1684051648,"current_range_meters":24800,"station_id":"ce4bha92rcd13ifvqeg0","pricing_plan_id":"free"},{"bike_id":"ada55e5c-0c1c-4f6b-91e0-ac1682337a33","system_id":"levelo_inurba_marseille","lat":43.290631,"lon":5.359244,"is_reserved":false,"is_disabled":false,"rental_uris":{"android":"levelo://app?vid=ada55e5c-0c1c-4f6b-91e0-ac1682337a33","ios":"levelo://app?vid=ada55e5c-0c1c-4f6b-91e0-ac1682337a33"},"vehicle_type_id":"4","last_reported":1684051648,"current_range_meters":31600,"station_id":"ce4bha92rcd13ifvqeg0","pricing_plan_id":"free"},{"bike_id":"67c6f728-4968-41ce-8357-69752ff675f4","system_id":"levelo_inurba_marseille","lat":43.290631,"lon":5.359244,"is_reserved":false,"is_disabled":false,"rental_uris":{"android":"levelo://app?vid=67c6f728-4968-41ce-8357-69752ff675f4","ios":"levelo://app?vid=67c6f728-4968-41ce-8357-69752ff675f4"},"vehicle_type_id":"4","last_reported":1684051648,"current_range_meters":31600,"station_id":"ce4bha92rcd13ifvqeg0","pricing_plan_id":"free"},{"bike_id":"bedee10e-5dfc-450e-8b51-ca83bf1109a6","system_id":"levelo_inurba_marseille","lat":43.30488,"lon":5.39703,"is_reserved":false,"is_disabled":false,"rental_uris":{"android":"levelo://app?vid=bedee10e-5dfc-450e-8b51-ca83bf1109a6","ios":"levelo://app?vid=bedee10e-5dfc-450e-8b51-ca83bf1109a6"},"vehicle_type_id":"4","last_reported":1684051648,"current_range_meters":0,"station_id":"","pricing_plan_id":"free"},{"bike_id":"14325aaf-d638-444f-81f3-3e923dd06e26","system_id":"levelo_inurba_marseille","lat":43.290327,"lon":5.375711,"is_reserved":false,"is_disabled":false,"rental_uris":{"android":"levelo://app?vid=14325aaf-d638-444f-81f3-3e923dd06e26","ios":"levelo://app?vid=14325aaf-d638-444f-81f3-3e923dd06e26"},"vehicle_type_id":"4","last_reported":1684051648,"current_range_meters":31600,"station_id":"ce4bh692rcd13ifvqe90","pricing_plan_id":"free"},{"bike_id":"9f129774-36e1-42f1-8229-a7c2be11d89e","system_id":"levelo_inurba_marseille","lat":43.30485,"lon":5.39704,"is_reserved":false,"is_disabled":false,"rental_uris":{"android":"levelo://app?vid=9f129774-36e1-42f1-8229-a7c2be11d89e","ios":"levelo://app?vid=9f129774-36e1-42f1-8229-a7c2be11d89e"},"vehicle_type_id":"4","last_reported":1684051648,"current_range_meters":16400,"station_id":"","pricing_plan_id":"free"},{"bike_id":"5f63a001-90fc-4b58-b809-7380028ac8d6","system_id":"levelo_inurba_marseille","lat":43.294162,"lon":5.386292,"is_reserved":false,"is_disabled":false,"rental_uris":{"android":"levelo://app?vid=5f63a001-90fc-4b58-b809-7380028ac8d6","ios":"levelo://app?vid=5f63a001-90fc-4b58-b809-7380028ac8d6"},"vehicle_type_id":"4","last_reported":1684051648,"current_range_meters":28000,"station_id":"ce4bh2h2rcd13ifvqdh0","pricing_plan_id":"free"},{"bike_id":"81f3ca7f-c5d9-459c-be0b-c45034a8cb36","system_id":"levelo_inurba_marseille","lat":43.304296,"lon":5.397513,"is_reserved":false,"is_disabled":false,"rental_uris":{"android":"levelo://app?vid=81f3ca7f-c5d9-459c-be0b-c45034a8cb36","ios":"levelo://app?vid=81f3ca7f-c5d9-459c-be0b-c45034a8cb36"},"vehicle_type_id":"4","last_reported":1684051648,"current_range_meters":20400,"station_id":"ce4bh092rcd13ifvqd20","pricing_plan_id":"free"},{"bike_id":"5ae33ccd-1771-46b3-ac92-e53f04ca2f0c","system_id":"levelo_inurba_marseille","lat":43.29265,"lon":5.38447,"is_reserved":false,"is_disabled":false,"rental_uris":{"android":"levelo://app?vid=5ae33ccd-1771-46b3-ac92-e53f04ca2f0c","ios":"levelo://app?vid=5ae33ccd-1771-46b3-ac92-e53f04ca2f0c"},"vehicle_type_id":"4","last_reported":1684051648,"current_range_meters":25600,"station_id":"ce4bh692rcd13ifvqea0","pricing_plan_id":"free"},{"bike_id":"0e8bd176-f38c-48f7-acf6-78b33302beb0","system_id":"levelo_inurba_marseille","lat":43.292644,"lon":5.384257,"is_reserved":false,"is_disabled":false,"rental_uris":{"android":"levelo://app?vid=0e8bd176-f38c-48f7-acf6-78b33302beb0","ios":"levelo://app?vid=0e8bd176-f38c-48f7-acf6-78b33302beb0"},"vehicle_type_id":"4","last_reported":1684051648,"current_range_meters":30000,"station_id":"ce4bh692rcd13ifvqea0","pricing_plan_id":"free"},{"bike_id":"8b6e403f-21b3-494d-a41f-8f484f01b6c7","system_id":"levelo_inurba_marseille","lat":43.304274,"lon":5.397513,"is_reserved":false,"is_disabled":false,"rental_uris":{"android":"levelo://app?vid=8b6e403f-21b3-494d-a41f-8f484f01b6c7","ios":"levelo://app?vid=8b6e403f-21b3-494d-a41f-8f484f01b6c7"},"vehicle_type_id":"4","last_reported":1684051648,"current_range_meters":26000,"station_id":"ce4bh092rcd13ifvqd20","pricing_plan_id":"free"},{"bike_id":"3939d0ae-de6c-4939-9ede-f56d23826fe1","system_id":"levelo_inurba_marseille","lat":43.304274,"lon":5.397513,"is_reserved":false,"is_disabled":false,"rental_uris":{"android":"levelo://app?vid=3939d0ae-de6c-4939-9ede-f56d23826fe1","ios":"levelo://app?vid=3939d0ae-de6c-4939-9ede-f56d23826fe1"},"vehicle_type_id":"4","last_reported":1684051648,"current_range_meters":23200,"station_id":"ce4bh092rcd13ifvqd20","pricing_plan_id":"free"},{"bike_id":"19d810ab-8370-4eb6-8eb4-3f94413eb503","system_id":"levelo_inurba_marseille","lat":43.33042,"lon":5.38915,"is_reserved":false,"is_disabled":false,"rental_uris":{"android":"levelo://app?vid=19d810ab-8370-4eb6-8eb4-3f94413eb503","ios":"levelo://app?vid=19d810ab-8370-4eb6-8eb4-3f94413eb503"},"vehicle_type_id":"4","last_reported":1684051648,"current_range_meters":12800,"station_id":"ce4bhr92rcd13ifvqhrg","pricing_plan_id":"free"},{"bike_id":"9b34a26f-1256-4b06-a2cd-2e6177e89d22","system_id":"levelo_inurba_marseille","lat":43.33042,"lon":5.38918,"is_reserved":false,"is_disabled":false,"rental_uris":{"android":"levelo://app?vid=9b34a26f-1256-4b06-a2cd-2e6177e89d22","ios":"levelo://app?vid=9b34a26f-1256-4b06-a2cd-2e6177e89d22"},"vehicle_type_id":"4","last_reported":1684051648,"current_range_meters":24400,"station_id":"ce4bhr92rcd13ifvqhrg","pricing_plan_id":"free"},{"bike_id":"b8d0a2d7-4443-405c-9e1e-71d351b2ac12","system_id":"levelo_inurba_marseille","lat":43.33041,"lon":5.38922,"is_reserved":false,"is_disabled":false,"rental_uris":{"android":"levelo://app?vid=b8d0a2d7-4443-405c-9e1e-71d351b2ac12","ios":"levelo://app?vid=b8d0a2d7-4443-405c-9e1e-71d351b2ac12"},"vehicle_type_id":"4","last_reported":1684051648,"current_range_meters":19200,"station_id":"ce4bhr92rcd13ifvqhrg","pricing_plan_id":"free"},{"bike_id":"d9c65fb5-b538-43a6-8b06-cce8ee9f5b2a","system_id":"levelo_inurba_marseille","lat":43.33042,"lon":5.38921,"is_reserved":false,"is_disabled":false,"rental_uris":{"android":"levelo://app?vid=d9c65fb5-b538-43a6-8b06-cce8ee9f5b2a","ios":"levelo://app?vid=d9c65fb5-b538-43a6-8b06-cce8ee9f5b2a"},"vehicle_type_id":"4","last_reported":1684051648,"current_range_meters":26800,"station_id":"ce4bhr92rcd13ifvqhrg","pricing_plan_id":"free"},{"bike_id":"99d11ff8-cd4f-4243-907c-822c17bc769b","system_id":"levelo_inurba_marseille","lat":43.33042,"lon":5.38922,"is_reserved":false,"is_disabled":false,"rental_uris":{"android":"levelo://app?vid=99d11ff8-cd4f-4243-907c-822c17bc769b","ios":"levelo://app?vid=99d11ff8-cd4f-4243-907c-822c17bc769b"},"vehicle_type_id":"4","last_reported":1684051648,"current_range_meters":17600,"station_id":"ce4bhr92rcd13ifvqhrg","pricing_plan_id":"free"},{"bike_id":"7dfb63d7-3cea-4571-aa06-76c88bd9f321","system_id":"levelo_inurba_marseille","lat":43.33044,"lon":5.38921,"is_reserved":false,"is_disabled":false,"rental_uris":{"android":"levelo://app?vid=7dfb63d7-3cea-4571-aa06-76c88bd9f321","ios":"levelo://app?vid=7dfb63d7-3cea-4571-aa06-76c88bd9f321"},"vehicle_type_id":"4","last_reported":1684051648,"current_range_meters":24800,"station_id":"ce4bhr92rcd13ifvqhrg","pricing_plan_id":"free"},{"bike_id":"754ef565-0150-4f0d-8c0d-a8a5d6927613","system_id":"levelo_inurba_marseille","lat":43.33044,"lon":5.38922,"is_reserved":false,"is_disabled":false,"rental_uris":{"android":"levelo://app?vid=754ef565-0150-4f0d-8c0d-a8a5d6927613","ios":"levelo://app?vid=754ef565-0150-4f0d-8c0d-a8a5d6927613"},"vehicle_type_id":"4","last_reported":1684051648,"current_range_meters":16000,"station_id":"ce4bhr92rcd13ifvqhrg","pricing_plan_id":"free"},{"bike_id":"127ebec0-5800-449e-bff9-d1fd823ca15c","system_id":"levelo_inurba_marseille","lat":43.33046,"lon":5.38921,"is_reserved":false,"is_disabled":false,"rental_uris":{"android":"levelo://app?vid=127ebec0-5800-449e-bff9-d1fd823ca15c","ios":"levelo://app?vid=127ebec0-5800-449e-bff9-d1fd823ca15c"},"vehicle_type_id":"4","last_reported":1684051648,"current_range_meters":1600,"station_id":"ce4bhr92rcd13ifvqhrg","pricing_plan_id":"free"},{"bike_id":"28c1e377-839a-4343-9a7a-489f5c05ed8f","system_id":"levelo_inurba_marseille","lat":43.290104,"lon":5.356111,"is_reserved":false,"is_disabled":false,"rental_uris":{"android":"levelo://app?vid=28c1e377-839a-4343-9a7a-489f5c05ed8f","ios":"levelo://app?vid=28c1e377-839a-4343-9a7a-489f5c05ed8f"},"vehicle_type_id":"4","last_reported":1684051648,"current_range_meters":27600,"station_id":"ce4bhb92rcd13ifvqen0","pricing_plan_id":"free"},{"bike_id":"6bcc52dd-8a25-41ef-aa45-bc057db4a1ee","system_id":"levelo_inurba_marseille","lat":43.29177,"lon":5.38311,"is_reserved":false,"is_disabled":false,"rental_uris":{"android":"levelo://app?vid=6bcc52dd-8a25-41ef-aa45-bc057db4a1ee","ios":"levelo://app?vid=6bcc52dd-8a25-41ef-aa45-bc057db4a1ee"},"vehicle_type_id":"4","last_reported":1684051648,"current_range_meters":23600,"station_id":"","pricing_plan_id":"free"},{"bike_id":"f13eb56e-0fd7-4df4-94bf-fa8ffe4e5a27","system_id":"levelo_inurba_marseille","lat":43.29001,"lon":5.35608,"is_reserved":false,"is_disabled":false,"rental_uris":{"android":"levelo://app?vid=f13eb56e-0fd7-4df4-94bf-fa8ffe4e5a27","ios":"levelo://app?vid=f13eb56e-0fd7-4df4-94bf-fa8ffe4e5a27"},"vehicle_type_id":"4","last_reported":1684051648,"current_range_meters":0,"station_id":"ce4bhb92rcd13ifvqen0","pricing_plan_id":"free"},{"bike_id":"cad193f2-44f3-4b2a-bd83-5b224084ecef","system_id":"levelo_inurba_marseille","lat":43.29795,"lon":5.39345,"is_reserved":false,"is_disabled":false,"rental_uris":{"android":"levelo://app?vid=cad193f2-44f3-4b2a-bd83-5b224084ecef","ios":"levelo://app?vid=cad193f2-44f3-4b2a-bd83-5b224084ecef"},"vehicle_type_id":"4","last_reported":1684051648,"current_range_meters":26800,"station_id":"ce4bh212rcd13ifvqde0","pricing_plan_id":"free"},{"bike_id":"2d15947b-c62e-4a11-a551-874de57dd937","system_id":"levelo_inurba_marseille","lat":43.30977,"lon":5.40067,"is_reserved":false,"is_disabled":false,"rental_uris":{"android":"levelo://app?vid=2d15947b-c62e-4a11-a551-874de57dd937","ios":"levelo://app?vid=2d15947b-c62e-4a11-a551-874de57dd937"},"vehicle_type_id":"4","last_reported":1684051648,"current_range_meters":18400,"station_id":"","pricing_plan_id":"free"},{"bike_id":"38282d3e-2e21-47df-a618-a33ed0866fba","system_id":"levelo_inurba_marseille","lat":43.28856,"lon":5.358371,"is_reserved":false,"is_disabled":false,"rental_uris":{"android":"levelo://app?vid=38282d3e-2e21-47df-a618-a33ed0866fba","ios":"levelo://app?vid=38282d3e-2e21-47df-a618-a33ed0866fba"},"vehicle_type_id":"4","last_reported":1684051648,"current_range_meters":31600,"station_id":"ce4bhb12rcd13ifvqem0","pricing_plan_id":"free"},{"bike_id":"5756f64f-e044-45a7-94f7-df2142d3c10a","system_id":"levelo_inurba_marseille","lat":43.28852,"lon":5.35843,"is_reserved":false,"is_disabled":false,"rental_uris":{"android":"levelo://app?vid=5756f64f-e044-45a7-94f7-df2142d3c10a","ios":"levelo://app?vid=5756f64f-e044-45a7-94f7-df2142d3c10a"},"vehicle_type_id":"4","last_reported":1684051648,"current_range_meters":30800,"station_id":"ce4bhb12rcd13ifvqem0","pricing_plan_id":"free"},{"bike_id":"d7b722e4-1148-4a2b-80e2-134c9c61ec9c","system_id":"levelo_inurba_marseille","lat":43.28849,"lon":5.35838,"is_reserved":false,"is_disabled":false,"rental_uris":{"android":"levelo://app?vid=d7b722e4-1148-4a2b-80e2-134c9c61ec9c","ios":"levelo://app?vid=d7b722e4-1148-4a2b-80e2-134c9c61ec9c"},"vehicle_type_id":"4","last_reported":1684051648,"current_range_meters":25200,"station_id":"ce4bhb12rcd13ifvqem0","pricing_plan_id":"free"},{"bike_id":"235bfca5-3523-4573-9b75-a1fadb68ed6a","system_id":"levelo_inurba_marseille","lat":43.337328,"lon":5.374538,"is_reserved":false,"is_disabled":false,"rental_uris":{"android":"levelo://app?vid=235bfca5-3523-4573-9b75-a1fadb68ed6a","ios":"levelo://app?vid=235bfca5-3523-4573-9b75-a1fadb68ed6a"},"vehicle_type_id":"4","last_reported":1684051648,"current_range_meters":28000,"station_id":"ce4bhah2rcd13ifvqei0","pricing_plan_id":"free"},{"bike_id":"5b3ce0e7-ddde-4f08-9689-05c27b8dd4cc","system_id":"levelo_inurba_marseille","lat":43.337436,"lon":5.374627,"is_reserved":false,"is_disabled":false,"rental_uris":{"android":"levelo://app?vid=5b3ce0e7-ddde-4f08-9689-05c27b8dd4cc","ios":"levelo://app?vid=5b3ce0e7-ddde-4f08-9689-05c27b8dd4cc"},"vehicle_type_id":"4","last_reported":1684051648,"current_range_meters":28800,"station_id":"ce4bhnp2rcd13ifvqgvg","pricing_plan_id":"free"},{"bike_id":"3aa7e966-4bbe-4429-bc02-6ee6f2aab7d4","system_id":"levelo_inurba_marseille","lat":43.30642,"lon":5.401031,"is_reserved":false,"is_disabled":false,"rental_uris":{"android":"levelo://app?vid=3aa7e966-4bbe-4429-bc02-6ee6f2aab7d4","ios":"levelo://app?vid=3aa7e966-4bbe-4429-bc02-6ee6f2aab7d4"},"vehicle_type_id":"4","last_reported":1684051648,"current_range_meters":12800,"station_id":"ce4bh112rcd13ifvqda0","pricing_plan_id":"free"},{"bike_id":"543ddb2f-aa54-4606-b0cd-00c9b901d856","system_id":"levelo_inurba_marseille","lat":43.30642,"lon":5.401031,"is_reserved":false,"is_disabled":false,"rental_uris":{"android":"levelo://app?vid=543ddb2f-aa54-4606-b0cd-00c9b901d856","ios":"levelo://app?vid=543ddb2f-aa54-4606-b0cd-00c9b901d856"},"vehicle_type_id":"4","last_reported":1684051648,"current_range_meters":31600,"station_id":"ce4bh112rcd13ifvqda0","pricing_plan_id":"free"},{"bike_id":"928b6523-1908-4dcd-910c-d5b272d2eab2","system_id":"levelo_inurba_marseille","lat":43.30642,"lon":5.401031,"is_reserved":false,"is_disabled":false,"rental_uris":{"android":"levelo://app?vid=928b6523-1908-4dcd-910c-d5b272d2eab2","ios":"levelo://app?vid=928b6523-1908-4dcd-910c-d5b272d2eab2"},"vehicle_type_id":"4","last_reported":1684051648,"current_range_meters":30400,"station_id":"ce4bh112rcd13ifvqda0","pricing_plan_id":"free"},{"bike_id":"432302e1-dbd9-498e-809d-a8c2625e29cd","system_id":"levelo_inurba_marseille","lat":43.30642,"lon":5.401031,"is_reserved":false,"is_disabled":false,"rental_uris":{"android":"levelo://app?vid=432302e1-dbd9-498e-809d-a8c2625e29cd","ios":"levelo://app?vid=432302e1-dbd9-498e-809d-a8c2625e29cd"},"vehicle_type_id":"4","last_reported":1684051648,"current_range_meters":31600,"station_id":"ce4bh112rcd13ifvqda0","pricing_plan_id":"free"},{"bike_id":"fa4db330-7703-4052-b9ab-6b6713098153","system_id":"levelo_inurba_marseille","lat":43.337699,"lon":5.374324,"is_reserved":false,"is_disabled":false,"rental_uris":{"android":"levelo://app?vid=fa4db330-7703-4052-b9ab-6b6713098153","ios":"levelo://app?vid=fa4db330-7703-4052-b9ab-6b6713098153"},"vehicle_type_id":"4","last_reported":1684051648,"current_range_meters":30000,"station_id":"ce4bgj92rcd13ifvqbe0","pricing_plan_id":"free"},{"bike_id":"32c80cf4-321e-4323-9c96-9624a9f531e9","system_id":"levelo_inurba_marseille","lat":43.301117,"lon":5.398795,"is_reserved":false,"is_disabled":false,"rental_uris":{"android":"levelo://app?vid=32c80cf4-321e-4323-9c96-9624a9f531e9","ios":"levelo://app?vid=32c80cf4-321e-4323-9c96-9624a9f531e9"},"vehicle_type_id":"4","last_reported":1684051648,"current_range_meters":28800,"station_id":"ce4bh0h2rcd13ifvqd40","pricing_plan_id":"free"},{"bike_id":"3ac97c7a-765f-4370-8475-a943cd3db3cd","system_id":"levelo_inurba_marseille","lat":43.301117,"lon":5.398795,"is_reserved":false,"is_disabled":false,"rental_uris":{"android":"levelo://app?vid=3ac97c7a-765f-4370-8475-a943cd3db3cd","ios":"levelo://app?vid=3ac97c7a-765f-4370-8475-a943cd3db3cd"},"vehicle_type_id":"4","last_reported":1684051648,"current_range_meters":23600,"station_id":"ce4bh0h2rcd13ifvqd40","pricing_plan_id":"free"},{"bike_id":"8f916a68-5f2f-48f3-8f7b-afa2cecded21","system_id":"levelo_inurba_marseille","lat":43.298681,"lon":5.397225,"is_reserved":false,"is_disabled":false,"rental_uris":{"android":"levelo://app?vid=8f916a68-5f2f-48f3-8f7b-afa2cecded21","ios":"levelo://app?vid=8f916a68-5f2f-48f3-8f7b-afa2cecded21"},"vehicle_type_id":"4","last_reported":1684051648,"current_range_meters":24800,"station_id":"ce4bh0h2rcd13ifvqd50","pricing_plan_id":"free"},{"bike_id":"2fba1625-2703-483b-af76-9ef92f8f682d","system_id":"levelo_inurba_marseille","lat":43.286593,"lon":5.363346,"is_reserved":false,"is_disabled":false,"rental_uris":{"android":"levelo://app?vid=2fba1625-2703-483b-af76-9ef92f8f682d","ios":"levelo://app?vid=2fba1625-2703-483b-af76-9ef92f8f682d"},"vehicle_type_id":"4","last_reported":1684051648,"current_range_meters":30400,"station_id":"ce4bhah2rcd13ifvqej0","pricing_plan_id":"free"},{"bike_id":"ba75e851-8ff8-4567-8a64-15a80a7ca1f5","system_id":"levelo_inurba_marseille","lat":43.286591,"lon":5.363346,"is_reserved":false,"is_disabled":false,"rental_uris":{"android":"levelo://app?vid=ba75e851-8ff8-4567-8a64-15a80a7ca1f5","ios":"levelo://app?vid=ba75e851-8ff8-4567-8a64-15a80a7ca1f5"},"vehicle_type_id":"4","last_reported":1684051648,"current_range_meters":31600,"station_id":"ce4bhah2rcd13ifvqej0","pricing_plan_id":"free"},{"bike_id":"3105ece5-e1f8-4167-83e7-b0555ad4819b","system_id":"levelo_inurba_marseille","lat":43.286591,"lon":5.363346,"is_reserved":false,"is_disabled":false,"rental_uris":{"android":"levelo://app?vid=3105ece5-e1f8-4167-83e7-b0555ad4819b","ios":"levelo://app?vid=3105ece5-e1f8-4167-83e7-b0555ad4819b"},"vehicle_type_id":"4","last_reported":1684051648,"current_range_meters":31600,"station_id":"ce4bhah2rcd13ifvqej0","pricing_plan_id":"free"},{"bike_id":"4e694e8e-c5fc-46ac-bc98-16e75cbf6f33","system_id":"levelo_inurba_marseille","lat":43.286593,"lon":5.363346,"is_reserved":false,"is_disabled":false,"rental_uris":{"android":"levelo://app?vid=4e694e8e-c5fc-46ac-bc98-16e75cbf6f33","ios":"levelo://app?vid=4e694e8e-c5fc-46ac-bc98-16e75cbf6f33"},"vehicle_type_id":"4","last_reported":1684051648,"current_range_meters":29200,"station_id":"ce4bhah2rcd13ifvqej0","pricing_plan_id":"free"},{"bike_id":"4d500a4d-6c6c-47fa-8f40-5327c1a14aa6","system_id":"levelo_inurba_marseille","lat":43.298681,"lon":5.397225,"is_reserved":false,"is_disabled":false,"rental_uris":{"android":"levelo://app?vid=4d500a4d-6c6c-47fa-8f40-5327c1a14aa6","ios":"levelo://app?vid=4d500a4d-6c6c-47fa-8f40-5327c1a14aa6"},"vehicle_type_id":"4","last_reported":1684051648,"current_range_meters":31200,"station_id":"ce4bh0h2rcd13ifvqd50","pricing_plan_id":"free"},{"bike_id":"8c13b8ba-ff3c-41a3-bb9f-93124748a76c","system_id":"levelo_inurba_marseille","lat":43.286593,"lon":5.363346,"is_reserved":false,"is_disabled":false,"rental_uris":{"android":"levelo://app?vid=8c13b8ba-ff3c-41a3-bb9f-93124748a76c","ios":"levelo://app?vid=8c13b8ba-ff3c-41a3-bb9f-93124748a76c"},"vehicle_type_id":"4","last_reported":1684051648,"current_range_meters":31600,"station_id":"ce4bhah2rcd13ifvqej0","pricing_plan_id":"free"},{"bike_id":"3eccdf85-cecc-4db7-8a22-f768d053d8cb","system_id":"levelo_inurba_marseille","lat":43.298681,"lon":5.397225,"is_reserved":false,"is_disabled":false,"rental_uris":{"android":"levelo://app?vid=3eccdf85-cecc-4db7-8a22-f768d053d8cb","ios":"levelo://app?vid=3eccdf85-cecc-4db7-8a22-f768d053d8cb"},"vehicle_type_id":"4","last_reported":1684051648,"current_range_meters":31600,"station_id":"ce4bh0h2rcd13ifvqd50","pricing_plan_id":"free"},{"bike_id":"7de83389-1a30-48ed-af4f-00a8b1e72174","system_id":"levelo_inurba_marseille","lat":43.29022,"lon":5.38623,"is_reserved":false,"is_disabled":false,"rental_uris":{"android":"levelo://app?vid=7de83389-1a30-48ed-af4f-00a8b1e72174","ios":"levelo://app?vid=7de83389-1a30-48ed-af4f-00a8b1e72174"},"vehicle_type_id":"4","last_reported":1684051648,"current_range_meters":31200,"station_id":"ce4bh4p2rcd13ifvqe0g","pricing_plan_id":"free"},{"bike_id":"de402486-4ac5-4568-8c69-b724c720c119","system_id":"levelo_inurba_marseille","lat":43.302759,"lon":5.400793,"is_reserved":false,"is_disabled":false,"rental_uris":{"android":"levelo://app?vid=de402486-4ac5-4568-8c69-b724c720c119","ios":"levelo://app?vid=de402486-4ac5-4568-8c69-b724c720c119"},"vehicle_type_id":"4","last_reported":1684051648,"current_range_meters":16400,"station_id":"ce4bgvh2rcd13ifvqcs0","pricing_plan_id":"free"},{"bike_id":"35be71c0-beaa-494c-ba1d-895735629bb1","system_id":"levelo_inurba_marseille","lat":43.29027,"lon":5.38644,"is_reserved":false,"is_disabled":false,"rental_uris":{"android":"levelo://app?vid=35be71c0-beaa-494c-ba1d-895735629bb1","ios":"levelo://app?vid=35be71c0-beaa-494c-ba1d-895735629bb1"},"vehicle_type_id":"4","last_reported":1684051648,"current_range_meters":26000,"station_id":"ce4bh4p2rcd13ifvqe0g","pricing_plan_id":"free"},{"bike_id":"9aa6d738-d9ae-4daa-a149-dbc028502389","system_id":"levelo_inurba_marseille","lat":43.302759,"lon":5.400793,"is_reserved":false,"is_disabled":false,"rental_uris":{"android":"levelo://app?vid=9aa6d738-d9ae-4daa-a149-dbc028502389","ios":"levelo://app?vid=9aa6d738-d9ae-4daa-a149-dbc028502389"},"vehicle_type_id":"4","last_reported":1684051648,"current_range_meters":30000,"station_id":"ce4bgvh2rcd13ifvqcs0","pricing_plan_id":"free"},{"bike_id":"f92a6ef8-543c-4289-b85b-9c1358d8cb48","system_id":"levelo_inurba_marseille","lat":43.302759,"lon":5.400793,"is_reserved":false,"is_disabled":false,"rental_uris":{"android":"levelo://app?vid=f92a6ef8-543c-4289-b85b-9c1358d8cb48","ios":"levelo://app?vid=f92a6ef8-543c-4289-b85b-9c1358d8cb48"},"vehicle_type_id":"4","last_reported":1684051648,"current_range_meters":31600,"station_id":"ce4bgvh2rcd13ifvqcs0","pricing_plan_id":"free"},