{"last_updated":1744687889,"ttl":60,"version":"2.2","data":{"bikes":[{"bike_id":"17637803-ed28-487c-b796-1f9bd7ef5a65","system_id":"levelo_inurba_marseille","lat":43.23067,"lon":5.355,"is_reserved":false,"is_disabled":false,"rental_uris":{"android":"levelo://app?vid=17637803-ed28-487c-b796-1f9bd7ef5a65","ios":"levelo://app?vid=17637803-ed28-487c-b796-1f9bd7ef5a65"},"vehicle_type_id":"4","last_reported":1744687889,"current_range_meters":3200,"station_id":"cpo3342slgdg3j2ifvpg","pricing_plan_id":"cebpf4jnsgd1na2vs0mg"},{"bike_id":"01f418a6-9d3d-4b42-b963-d804fa33990b","system_id":"levelo_inurba_marseille","lat":43.28422,"lon":5.34996,"is_reserved":false,"is_disabled":false,"rental_uris":{"android":"levelo://app?vid=01f418a6-9d3d-4b42-b963-d804fa33990b","ios":"levelo://app?vid=01f418a6-9d3d-4b42-b963-d804fa33990b"},"vehicle_type_id":"4","last_reported":1744687889,"current_range_meters":3200,"station_id":"ce4bhbh2rcd13ifvqepg","pricing_plan_id":"cebpf4jnsgd1na2vs0mg"},{"bike_id":"78e5e9fc-0fc5-41fa-a1b1-617b5e4db10c","system_id":"levelo_inurba_marseille","lat":43.21754,"lon":5.3462,"is_reserved":false,"is_disabled":false,"rental_uris":{"android":"levelo://app?vid=78e5e9fc-0fc5-41fa-a1b1-617b5e4db10c","ios":"levelo://app?vid=78e5e9fc-0fc5-41fa-a1b1-617b5e4db10c"},"vehicle_type_id":"4","last_reported":1744687889,"current_range_meters":3200,"station_id":"st_cvj6r9ubvosntc0bgbag","pricing_plan_id":"cebpf4jnsgd1na2vs0mg"},{"bike_id":"8790ea9d-ddb1-4ad9-8ef3-439366a1b5f3","system_id":"levelo_inurba_marseille","lat":43.25005,"lon":5.38943,"is_reserved":false,"is_disabled":false,"rental_uris":{"android":"levelo://app?vid=8790ea9d-ddb1-4ad9-8ef3-439366a1b5f3","ios":"levelo://app?vid=8790ea9d-ddb1-4ad9-8ef3-439366a1b5f3"},"vehicle_type_id":"4","last_reported":1744687889,"current_range_meters":3600,"station_id":"ce4bhgp2rcd13ifvqfd0","pricing_plan_id":"cebpf4jnsgd1na2vs0mg"},{"bike_id":"76450c2c-888f-4d08-a5c0-d825237615aa","system_id":"levelo_inurba_marseille","lat":43.27223,"lon":5.42323,"is_reserved":false,"is_disabled":false,"rental_uris":{"android":"levelo://app?vid=76450c2c-888f-4d08-a5c0-d825237615aa","ios":"levelo://app?vid=76450c2c-888f-4d08-a5c0-d825237615aa"},"vehicle_type_id":"4","last_reported":1744687889,"current_range_meters":3600,"station_id":"","pricing_plan_id":"cebpf4jnsgd1na2vs0mg"},{"bike_id":"2acf4c65-abd7-4a99-a435-635e0b9d0ff0","system_id":"levelo_inurba_marseille","lat":43.27074,"lon":5.40301,"is_reserved":false,"is_disabled":false,"rental_uris":{"android":"levelo://app?vid=2acf4c65-abd7-4a99-a435-635e0b9d0ff0","ios":"levelo://app?vid=2acf4c65-abd7-4a99-a435-635e0b9d0ff0"},"vehicle_type_id":"4","last_reported":1744687889,"current_range_meters":4000,"station_id":"ce4bhk92rcd13ifvqgc0","pricing_plan_id":"cebpf4jnsgd1na2vs0mg"},{"bike_id":"2f7c83e8-c28e-49f8-9393-775130069462","system_id":"levelo_inurba_marseille","lat":43.27208,"lon":5.39226,"is_reserved":false,"is_disabled":true,"rental_uris":{"android":"levelo://app?vid=2f7c83e8-c28e-49f8-9393-775130069462","ios":"levelo://app?vid=2f7c83e8-c28e-49f8-9393-775130069462"},"vehicle_type_id":"4","last_reported":1744687889,"current_range_meters":4400,"station_id":"ce4bhhp2rcd13ifvqfm0","pricing_plan_id":"cebpf4jnsgd1na2vs0mg"},{"bike_id":"f90608a1-c7a7-40b9-a224-5a7adb0bb20f","system_id":"levelo_inurba_marseille","lat":43.28471,"lon":5.38485,"is_reserved":false,"is_disabled":false,"rental_uris":{"android":"levelo://app?vid=f90608a1-c7a7-40b9-a224-5a7adb0bb20f","ios":"levelo://app?vid=f90608a1-c7a7-40b9-a224-5a7adb0bb20f"},"vehicle_type_id":"4","last_reported":1744687889,"current_range_meters":4400,"station_id":"ce4bh512rcd13ifvqe3g","pricing_plan_id":"cebpf4jnsgd1na2vs0mg"},{"bike_id":"5c75444e-1511-4f27-88e9-b00df5215a0f","system_id":"levelo_inurba_marseille","lat":43.24179,"lon":5.3974,"is_reserved":false,"is_disabled":false,"rental_uris":{"android":"levelo://app?vid=5c75444e-1511-4f27-88e9-b00df5215a0f","ios":"levelo://app?vid=5c75444e-1511-4f27-88e9-b00df5215a0f"},"vehicle_type_id":"4","last_reported":1744687889,"current_range_meters":4400,"station_id":"ce4bhn12rcd13ifvqgpg","pricing_plan_id":"cebpf4jnsgd1na2vs0mg"},{"bike_id":"88d7b2ca-2977-42e7-9bc3-f19ae12a2f71","system_id":"levelo_inurba_marseille","lat":43.28409,"lon":5.37533,"is_reserved":false,"is_disabled":false,"rental_uris":{"android":"levelo://app?vid=88d7b2ca-2977-42e7-9bc3-f19ae12a2f71","ios":"levelo://app?vid=88d7b2ca-2977-42e7-9bc3-f19ae12a2f71"},"vehicle_type_id":"4","last_reported":1744687889,"current_range_meters":4400,"station_id":"ce4bh412rcd13ifvqds0","pricing_plan_id":"cebpf4jnsgd1na2vs0mg"},{"bike_id":"515271b0-9b96-43f1-9b62-f663213b7c02","system_id":"levelo_inurba_marseille","lat":43.29051,"lon":5.35681,"is_reserved":false,"is_disabled":false,"rental_uris":{"android":"levelo://app?vid=515271b0-9b96-43f1-9b62-f663213b7c02","ios":"levelo://app?vid=515271b0-9b96-43f1-9b62-f663213b7c02"},"vehicle_type_id":"4","last_reported":1744687889,"current_range_meters":4800,"station_id":"","pricing_plan_id":"cebpf4jnsgd1na2vs0mg"},{"bike_id":"1db06f83-e2df-4c88-abff-fe3fd63cf02f","system_id":"levelo_inurba_marseille","lat":43.24555,"lon":5.39538,"is_reserved":false,"is_disabled":false,"rental_uris":{"android":"levelo://app?vid=1db06f83-e2df-4c88-abff-fe3fd63cf02f","ios":"levelo://app?vid=1db06f83-e2df-4c88-abff-fe3fd63cf02f"},"vehicle_type_id":"4","last_reported":1744687889,"current_range_meters":4800,"station_id":"ce4bhlp2rcd13ifvqgjg","pricing_plan_id":"cebpf4jnsgd1na2vs0mg"},{"bike_id":"48981f29-3bcb-416e-b2f0-7091b2fa2597","system_id":"levelo_inurba_marseille","lat":43.28153,"lon":5.42658,"is_reserved":false,"is_disabled":false,"rental_uris":{"android":"levelo://app?vid=48981f29-3bcb-416e-b2f0-7091b2fa2597","ios":"levelo://app?vid=48981f29-3bcb-416e-b2f0-7091b2fa2597"},"vehicle_type_id":"4","last_reported":1744687889,"current_range_meters":4800,"station_id":"ce4bhnh2rcd13ifvqgug","pricing_plan_id":"cebpf4jnsgd1na2vs0mg"},{"bike_id":"cdefaf23-b564-4f66-ad44-d79e40a15561","system_id":"levelo_inurba_marseille","lat":43.30415,"lon":5.41313,"is_reserved":false,"is_disabled":true,"rental_uris":{"android":"levelo://app?vid=cdefaf23-b564-4f66-ad44-d79e40a15561","ios":"levelo://app?vid=cdefaf23-b564-4f66-ad44-d79e40a15561"},"vehicle_type_id":"4","last_reported":1744687889,"current_range_meters":5600,"station_id":"ce4bhop2rcd13ifvqh8g","pricing_plan_id":"cebpf4jnsgd1na2vs0mg"},{"bike_id":"96a94ade-6c36-45c3-b9f3-3c3a0426b20d","system_id":"levelo_inurba_marseille","lat":43.28627,"lon":5.35129,"is_reserved":false,"is_disabled":false,"rental_uris":{"android":"levelo://app?vid=96a94ade-6c36-45c3-b9f3-3c3a0426b20d","ios":"levelo://app?vid=96a94ade-6c36-45c3-b9f3-3c3a0426b20d"},"vehicle_type_id":"4","last_reported":1744687889,"current_range_meters":6000,"station_id":"ce4bhch2rcd13ifvqeug","pricing_plan_id":"cebpf4jnsgd1na2vs0mg"},{"bike_id":"322eeb52-7a97-4468-ac65-57ad4a52fb29","system_id":"levelo_inurba_marseille","lat":43.309295,"lon":5.40143,"is_reserved":false,"is_disabled":false,"rental_uris":{"android":"levelo://app?vid=322eeb52-7a97-4468-ac65-57ad4a52fb29","ios":"levelo://app?vid=322eeb52-7a97-4468-ac65-57ad4a52fb29"},"vehicle_type_id":"4","last_reported":1744687889,"current_range_meters":6000,"station_id":"ce4bgvp2rcd13ifvqct0","pricing_plan_id":"cebpf4jnsgd1na2vs0mg"},{"bike_id":"bc1e941d-5514-4193-a637-cfb6de114bfa","system_id":"levelo_inurba_marseille","lat":43.25582,"lon":5.38233,"is_reserved":false,"is_disabled":false,"rental_uris":{"android":"levelo://app?vid=bc1e941d-5514-4193-a637-cfb6de114bfa","ios":"levelo://app?vid=bc1e941d-5514-4193-a637-cfb6de114bfa"},"vehicle_type_id":"4","last_reported":1744687889,"current_range_meters":6400,"station_id":"ce4bhih2rcd13ifvqfs0","pricing_plan_id":"cebpf4jnsgd1na2vs0mg"},{"bike_id":"8e257129-2fc1-4b7e-9af0-0037d9dd9fc9","system_id":"levelo_inurba_marseille","lat":43.289824,"lon":5.375954,"is_reserved":false,"is_disabled":false,"rental_uris":{"android":"levelo://app?vid=8e257129-2fc1-4b7e-9af0-0037d9dd9fc9","ios":"levelo://app?vid=8e257129-2fc1-4b7e-9af0-0037d9dd9fc9"},"vehicle_type_id":"4","last_reported":1744687889,"current_range_meters":6800,"station_id":"","pricing_plan_id":"cebpf4jnsgd1na2vs0mg"},{"bike_id":"101df704-d3a4-4744-b23d-f516d37358f2","system_id":"levelo_inurba_marseille","lat":43.24133,"lon":5.39739,"is_reserved":false,"is_disabled":false,"rental_uris":{"android":"levelo://app?vid=101df704-d3a4-4744-b23d-f516d37358f2","ios":"levelo://app?vid=101df704-d3a4-4744-b23d-f516d37358f2"},"vehicle_type_id":"4","last_reported":1744687889,"current_range_meters":6800,"station_id":"ce4bhn12rcd13ifvqgpg","pricing_plan_id":"cebpf4jnsgd1na2vs0mg"},{"bike_id":"908a4406-d543-43dc-a517-e5c25834e9f3","system_id":"levelo_inurba_marseille","lat":43.28675,"lon":5.38685,"is_reserved":false,"is_disabled":false,"rental_uris":{"android":"levelo://app?vid=908a4406-d543-43dc-a517-e5c25834e9f3","ios":"levelo://app?vid=908a4406-d543-43dc-a517-e5c25834e9f3"},"vehicle_type_id":"4","last_reported":1744687889,"current_range_meters":6800,"station_id":"ce4bh492rcd13ifvqdug","pricing_plan_id":"cebpf4jnsgd1na2vs0mg"},{"bike_id":"0a7cab43-9343-46f0-9a4d-34c8fb861430","system_id":"levelo_inurba_marseille","lat":43.29176,"lon":5.3999,"is_reserved":false,"is_disabled":false,"rental_uris":{"android":"levelo://app?vid=0a7cab43-9343-46f0-9a4d-34c8fb861430","ios":"levelo://app?vid=0a7cab43-9343-46f0-9a4d-34c8fb861430"},"vehicle_type_id":"4","last_reported":1744687889,"current_range_meters":6800,"station_id":"","pricing_plan_id":"cebpf4jnsgd1na2vs0mg"},{"bike_id":"b19c5299-cb1d-4bd6-bf45-649248c4e47f","system_id":"levelo_inurba_marseille","lat":43.262,"lon":5.37925,"is_reserved":false,"is_disabled":false,"rental_uris":{"android":"levelo://app?vid=b19c5299-cb1d-4bd6-bf45-649248c4e47f","ios":"levelo://app?vid=b19c5299-cb1d-4bd6-bf45-649248c4e47f"},"vehicle_type_id":"4","last_reported":1744687889,"current_range_meters":7200,"station_id":"ce4bhjp2rcd13ifvqg90","pricing_plan_id":"cebpf4jnsgd1na2vs0mg"},{"bike_id":"509ab134-6120-4e27-96a8-d4c280f9dcae","system_id":"levelo_inurba_marseille","lat":43.28591,"lon":5.35112,"is_reserved":false,"is_disabled":false,"rental_uris":{"android":"levelo://app?vid=509ab134-6120-4e27-96a8-d4c280f9dcae","ios":"levelo://app?vid=509ab134-6120-4e27-96a8-d4c280f9dcae"},"vehicle_type_id":"4","last_reported":1744687889,"current_range_meters":7200,"station_id":"ce4bhch2rcd13ifvqeug","pricing_plan_id":"cebpf4jnsgd1na2vs0mg"},{"bike_id":"23513b38-7714-49c7-8754-f378019e100d","system_id":"levelo_inurba_marseille","lat":43.298664,"lon":5.397289,"is_reserved":false,"is_disabled":false,"rental_uris":{"android":"levelo://app?vid=23513b38-7714-49c7-8754-f378019e100d","ios":"levelo://app?vid=23513b38-7714-49c7-8754-f378019e100d"},"vehicle_type_id":"4","last_reported":1744687889,"current_range_meters":7200,"station_id":"ce4bh0h2rcd13ifvqd50","pricing_plan_id":"cebpf4jnsgd1na2vs0mg"},{"bike_id":"e8f703a1-eb3b-45ed-827d-ca43a8842bf7","system_id":"levelo_inurba_marseille","lat":43.29959,"lon":5.38542,"is_reserved":false,"is_disabled":true,"rental_uris":{"android":"levelo://app?vid=e8f703a1-eb3b-45ed-827d-ca43a8842bf7","ios":"levelo://app?vid=e8f703a1-eb3b-45ed-827d-ca43a8842bf7"},"vehicle_type_id":"4","last_reported":1744687889,"current_range_meters":7200,"station_id":"ce4bgj92rcd13ifvqbd0","pricing_plan_id":"cebpf4jnsgd1na2vs0mg"},{"bike_id":"e5fec748-d40e-4920-9754-2970802f80fb","system_id":"levelo_inurba_marseille","lat":43.303192,"lon":5.404399,"is_reserved":false,"is_disabled":false,"rental_uris":{"android":"levelo://app?vid=e5fec748-d40e-4920-9754-2970802f80fb","ios":"levelo://app?vid=e5fec748-d40e-4920-9754-2970802f80fb"},"vehicle_type_id":"4","last_reported":1744687889,"current_range_meters":7200,"station_id":"ce4bh012rcd13ifvqd10","pricing_plan_id":"cebpf4jnsgd1na2vs0mg"},{"bike_id":"f6151468-df2d-459f-ab57-449c0333cf42","system_id":"levelo_inurba_marseille","lat":43.24669,"lon":5.38174,"is_reserved":false,"is_disabled":false,"rental_uris":{"android":"levelo://app?vid=f6151468-df2d-459f-ab57-449c0333cf42","ios":"levelo://app?vid=f6151468-df2d-459f-ab57-449c0333cf42"},"vehicle_type_id":"4","last_reported":1744687889,"current_range_meters":7200,"station_id":"ce4bhih2rcd13ifvqfr0","pricing_plan_id":"cebpf4jnsgd1na2vs0mg"},{"bike_id":"8d24a072-21ed-41cd-b0aa-05b3f1373b74","system_id":"levelo_inurba_marseille","lat":43.31052,"lon":5.38339,"is_reserved":false,"is_disabled":true,"rental_uris":{"android":"levelo://app?vid=8d24a072-21ed-41cd-b0aa-05b3f1373b74","ios":"levelo://app?vid=8d24a072-21ed-41cd-b0aa-05b3f1373b74"},"vehicle_type_id":"4","last_reported":1744687889,"current_range_meters":8000,"station_id":"ce4bgv92rcd13ifvqcr0","pricing_plan_id":"cebpf4jnsgd1na2vs0mg"},{"bike_id":"e1cfb2db-9308-45d0-913f-899415789267","system_id":"levelo_inurba_marseille","lat":43.258274,"lon":5.394318,"is_reserved":false,"is_disabled":false,"rental_uris":{"android":"levelo://app?vid=e1cfb2db-9308-45d0-913f-899415789267","ios":"levelo://app?vid=e1cfb2db-9308-45d0-913f-899415789267"},"vehicle_type_id":"4","last_reported":1744687889,"current_range_meters":8000,"station_id":"ce4bhip2rcd13ifvqft0","pricing_plan_id":"cebpf4jnsgd1na2vs0mg"},{"bike_id":"9d3b61ff-82e2-485f-8f1c-4536742c0738","system_id":"levelo_inurba_marseille","lat":43.24534,"lon":5.3952,"is_reserved":false,"is_disabled":false,"rental_uris":{"android":"levelo://app?vid=9d3b61ff-82e2-485f-8f1c-4536742c0738","ios":"levelo://app?vid=9d3b61ff-82e2-485f-8f1c-4536742c0738"},"vehicle_type_id":"4","last_reported":1744687889,"current_range_meters":8000,"station_id":"ce4bhlp2rcd13ifvqgjg","pricing_plan_id":"cebpf4jnsgd1na2vs0mg"},{"bike_id":"7d0ec726-0d16-44fc-8c71-db7e88ada914","system_id":"levelo_inurba_marseille","lat":43.2623,"lon":5.40464,"is_reserved":false,"is_disabled":false,"rental_uris":{"android":"levelo://app?vid=7d0ec726-0d16-44fc-8c71-db7e88ada914","ios":"levelo://app?vid=7d0ec726-0d16-44fc-8c71-db7e88ada914"},"vehicle_type_id":"4","last_reported":1744687889,"current_range_meters":8000,"station_id":"ce4bhmh2rcd13ifvqgmg","pricing_plan_id":"cebpf4jnsgd1na2vs0mg"},{"bike_id":"d373ed4c-aba0-4974-b8ad-53c5cbe85936","system_id":"levelo_inurba_marseille","lat":43.294423,"lon":5.397566,"is_reserved":false,"is_disabled":true,"rental_uris":{"android":"levelo://app?vid=d373ed4c-aba0-4974-b8ad-53c5cbe85936","ios":"levelo://app?vid=d373ed4c-aba0-4974-b8ad-53c5cbe85936"},"vehicle_type_id":"4","last_reported":1744687889,"current_range_meters":8000,"station_id":"ce4bh3h2rcd13ifvqdo0","pricing_plan_id":"cebpf4jnsgd1na2vs0mg"},{"bike_id":"52467ef2-bb23-4d5a-aebd-2782338dc161","system_id":"levelo_inurba_marseille","lat":43.211864,"lon":5.350789,"is_reserved":false,"is_disabled":false,"rental_uris":{"android":"levelo://app?vid=52467ef2-bb23-4d5a-aebd-2782338dc161","ios":"levelo://app?vid=52467ef2-bb23-4d5a-aebd-2782338dc161"},"vehicle_type_id":"4","last_reported":1744687889,"current_range_meters":8000,"station_id":"st_cvj6sg6p6f1abm77japg","pricing_plan_id":"cebpf4jnsgd1na2vs0mg"},{"bike_id":"19a89524-a9e5-411c-9a2d-95c0f553dcf9","system_id":"levelo_inurba_marseille","lat":43.319876,"lon":5.381314,"is_reserved":false,"is_disabled":false,"rental_uris":{"android":"levelo://app?vid=19a89524-a9e5-411c-9a2d-95c0f553dcf9","ios":"levelo://app?vid=19a89524-a9e5-411c-9a2d-95c0f553dcf9"},"vehicle_type_id":"4","last_reported":1744687889,"current_range_meters":8000,"station_id":"ce4bhr12rcd13ifvqhpg","pricing_plan_id":"cebpf4jnsgd1na2vs0mg"},{"bike_id":"7ba3577b-f14a-47b3-8ecb-35158daf49ef","system_id":"levelo_inurba_marseille","lat":43.30039,"lon":5.39842,"is_reserved":false,"is_disabled":false,"rental_uris":{"android":"levelo://app?vid=7ba3577b-f14a-47b3-8ecb-35158daf49ef","ios":"levelo://app?vid=7ba3577b-f14a-47b3-8ecb-35158daf49ef"},"vehicle_type_id":"4","last_reported":1744687889,"current_range_meters":8000,"station_id":"","pricing_plan_id":"cebpf4jnsgd1na2vs0mg"},{"bike_id":"fdfb27fa-8de5-43d0-a105-970f3e1e6be9","system_id":"levelo_inurba_marseille","lat":43.29536,"lon":5.39035,"is_reserved":false,"is_disabled":false,"rental_uris":{"android":"levelo://app?vid=fdfb27fa-8de5-43d0-a105-970f3e1e6be9","ios":"levelo://app?vid=fdfb27fa-8de5-43d0-a105-970f3e1e6be9"},"vehicle_type_id":"4","last_reported":1744687889,"current_range_meters":8000,"station_id":"ce4bh3p2rcd13ifvqdp0","pricing_plan_id":"cebpf4jnsgd1na2vs0mg"},{"bike_id":"23a8ea30-12ac-4461-bdc1-f4d97b82bc27","system_id":"levelo_inurba_marseille","lat":43.30229,"lon":5.39514,"is_reserved":false,"is_disabled":false,"rental_uris":{"android":"levelo://app?vid=23a8ea30-12ac-4461-bdc1-f4d97b82bc27","ios":"levelo://app?vid=23a8ea30-12ac-4461-bdc1-f4d97b82bc27"},"vehicle_type_id":"4","last_reported":1744687889,"current_range_meters":8400,"station_id":"ce4bh0p2rcd13ifvqd70","pricing_plan_id":"cebpf4jnsgd1na2vs0mg"},{"bike_id":"aec81db4-fcfe-4664-a8ca-7074821111cd","system_id":"levelo_inurba_marseille","lat":43.24675,"lon":5.38164,"is_reserved":false,"is_disabled":false,"rental_uris":{"android":"levelo://app?vid=aec81db4-fcfe-4664-a8ca-7074821111cd","ios":"levelo://app?vid=aec81db4-fcfe-4664-a8ca-7074821111cd"},"vehicle_type_id":"4","last_reported":1744687889,"current_range_meters":8400,"station_id":"ce4bhih2rcd13ifvqfr0","pricing_plan_id":"cebpf4jnsgd1na2vs0mg"},{"bike_id":"33ac4b06-6650-43dd-8223-418132dee349","system_id":"levelo_inurba_marseille","lat":43.30245,"lon":5.40072,"is_reserved":false,"is_disabled":false,"rental_uris":{"android":"levelo://app?vid=33ac4b06-6650-43dd-8223-418132dee349","ios":"levelo://app?vid=33ac4b06-6650-43dd-8223-418132dee349"},"vehicle_type_id":"4","last_reported":1744687889,"current_range_meters":8400,"station_id":"ce4bgvh2rcd13ifvqcs0","pricing_plan_id":"cebpf4jnsgd1na2vs0mg"},{"bike_id":"b62d1434-c42b-4d2d-977d-d90a2291da9b","system_id":"levelo_inurba_marseille","lat":43.26936,"lon":5.40292,"is_reserved":false,"is_disabled":true,"rental_uris":{"android":"levelo://app?vid=b62d1434-c42b-4d2d-977d-d90a2291da9b","ios":"levelo://app?vid=b62d1434-c42b-4d2d-977d-d90a2291da9b"},"vehicle_type_id":"4","last_reported":1744687889,"current_range_meters":8400,"station_id":"cjm6bp8fraef2m0cb0m0","pricing_plan_id":"cebpf4jnsgd1na2vs0mg"},{"bike_id":"a805b716-d3f2-41f8-8ac2-43d02ff2936a","system_id":"levelo_inurba_marseille","lat":43.28352,"lon":5.38114,"is_reserved":false,"is_disabled":false,"rental_uris":{"android":"levelo://app?vid=a805b716-d3f2-41f8-8ac2-43d02ff2936a","ios":"levelo://app?vid=a805b716-d3f2-41f8-8ac2-43d02ff2936a"},"vehicle_type_id":"4","last_reported":1744687889,"current_range_meters":8400,"station_id":"ce4bh412rcd13ifvqdr0","pricing_plan_id":"cebpf4jnsgd1na2vs0mg"},{"bike_id":"2840dd03-7e3c-473f-8550-a29070d3bba2","system_id":"levelo_inurba_marseille","lat":43.29492,"lon":5.38289,"is_reserved":false,"is_disabled":false,"rental_uris":{"android":"levelo://app?vid=2840dd03-7e3c-473f-8550-a29070d3bba2","ios":"levelo://app?vid=2840dd03-7e3c-473f-8550-a29070d3bba2"},"vehicle_type_id":"4","last_reported":1744687889,"current_range_meters":8400,"station_id":"","pricing_plan_id":"cebpf4jnsgd1na2vs0mg"},{"bike_id":"8d220e8d-5197-4aac-999e-255051e03279","system_id":"levelo_inurba_marseille","lat":43.32341,"lon":5.36743,"is_reserved":false,"is_disabled":false,"rental_uris":{"android":"levelo://app?vid=8d220e8d-5197-4aac-999e-255051e03279","ios":"levelo://app?vid=8d220e8d-5197-4aac-999e-255051e03279"},"vehicle_type_id":"4","last_reported":1744687889,"current_range_meters":8400,"station_id":"ce4bhsh2rcd13ifvqi2g","pricing_plan_id":"cebpf4jnsgd1na2vs0mg"},{"bike_id":"4c6a994b-1f66-4f75-b0a4-f098669fe83f","system_id":"levelo_inurba_marseille","lat":43.30883,"lon":5.39662,"is_reserved":false,"is_disabled":false,"rental_uris":{"android":"levelo://app?vid=4c6a994b-1f66-4f75-b0a4-f098669fe83f","ios":"levelo://app?vid=4c6a994b-1f66-4f75-b0a4-f098669fe83f"},"vehicle_type_id":"4","last_reported":1744687889,"current_range_meters":8800,"station_id":"ce4bh012rcd13ifvqcv0","pricing_plan_id":"cebpf4jnsgd1na2vs0mg"},{"bike_id":"b4a19ddd-ec2c-4178-96c7-9e5bf749190e","system_id":"levelo_inurba_marseille","lat":43.29901,"lon":5.43681,"is_reserved":false,"is_disabled":false,"rental_uris":{"android":"levelo://app?vid=b4a19ddd-ec2c-4178-96c7-9e5bf749190e","ios":"levelo://app?vid=b4a19ddd-ec2c-4178-96c7-9e5bf749190e"},"vehicle_type_id":"4","last_reported":1744687889,"current_range_meters":8800,"station_id":"ce4bhpp2rcd13ifvqhfg","pricing_plan_id":"cebpf4jnsgd1na2vs0mg"},{"bike_id":"b3f4c05a-b8e2-47d5-8a37-55b62c22bc0d","system_id":"levelo_inurba_marseille","lat":43.279142,"lon":5.39579,"is_reserved":false,"is_disabled":false,"rental_uris":{"android":"levelo://app?vid=b3f4c05a-b8e2-47d5-8a37-55b62c22bc0d","ios":"levelo://app?vid=b3f4c05a-b8e2-47d5-8a37-55b62c22bc0d"},"vehicle_type_id":"4","last_reported":1744687889,"current_range_meters":8800,"station_id":"ce4bhf92rcd13ifvqf40","pricing_plan_id":"cebpf4jnsgd1na2vs0mg"},{"bike_id":"8f2adbcd-b044-4ad0-b1eb-0aa42ca31983","system_id":"levelo_inurba_marseille","lat":43.31067,"lon":5.3835,"is_reserved":false,"is_disabled":false,"rental_uris":{"android":"levelo://app?vid=8f2adbcd-b044-4ad0-b1eb-0aa42ca31983","ios":"levelo://app?vid=8f2adbcd-b044-4ad0-b1eb-0aa42ca31983"},"vehicle_type_id":"4","last_reported":1744687889,"current_range_meters":8800,"station_id":"ce4bgv92rcd13ifvqcr0","pricing_plan_id":"cebpf4jnsgd1na2vs0mg"},{"bike_id":"8a58a04e-f069-487b-905a-c2f308a407cd","system_id":"levelo_inurba_marseille","lat":43.33021,"lon":5.39054,"is_reserved":false,"is_disabled":false,"rental_uris":{"android":"levelo://app?vid=8a58a04e-f069-487b-905a-c2f308a407cd","ios":"levelo://app?vid=8a58a04e-f069-487b-905a-c2f308a407cd"},"vehicle_type_id":"4","last_reported":1744687889,"current_range_meters":8800,"station_id":"ce4bhr92rcd13ifvqhrg","pricing_plan_id":"cebpf4jnsgd1na2vs0mg"},{"bike_id":"000cce46-0aba-4c03-8967-d18cf441ccd3","system_id":"levelo_inurba_marseille","lat":43.302918,"lon":5.404242,"is_reserved":false,"is_disabled":false,"rental_uris":{"android":"levelo://app?vid=000cce46-0aba-4c03-8967-d18cf441ccd3","ios":"levelo://app?vid=000cce46-0aba-4c03-8967-d18cf441ccd3"},"vehicle_type_id":"4","last_reported":1744687889,"current_range_meters":8800,"station_id":"ce4bh012rcd13ifvqd10","pricing_plan_id":"cebpf4jnsgd1na2vs0mg"},{"bike_id":"f07728ba-90b2-4310-83fb-7ddced706373","system_id":"levelo_inurba_marseille","lat":43.31465,"lon":5.3732,"is_reserved":false,"is_disabled":false,"rental_uris":{"android":"levelo://app?vid=f07728ba-90b2-4310-83fb-7ddced706373","ios":"levelo://app?vid=f07728ba-90b2-4310-83fb-7ddced706373"},"vehicle_type_id":"4","last_reported":1744687889,"current_range_meters":8800,"station_id":"ce4bgt12rcd13ifvqcd0","pricing_plan_id":"cebpf4jnsgd1na2vs0mg"},{"bike_id":"16a2b383-68c4-40a9-8f59-77dc12518cf4","system_id":"levelo_inurba_marseille","lat":43.28701,"lon":5.37393,"is_reserved":false,"is_disabled":false,"rental_uris":{"android":"levelo://app?vid=16a2b383-68c4-40a9-8f59-77dc12518cf4","ios":"levelo://app?vid=16a2b383-68c4-40a9-8f59-77dc12518cf4"},"vehicle_type_id":"4","last_reported":1744687889,"current_range_meters":9200,"station_id":"ce4bh3p2rcd13ifvqdq0","pricing_plan_id":"cebpf4jnsgd1na2vs0mg"},{"bike_id":"e3c99b37-fd47-409b-b4da-3fe7d5fe9426","system_id":"levelo_inurba_marseille","lat":43.31321,"lon":5.397,"is_reserved":false,"is_disabled":false,"rental_uris":{"android":"levelo://app?vid=e3c99b37-fd47-409b-b4da-3fe7d5fe9426","ios":"levelo://app?vid=e3c99b37-fd47-409b-b4da-3fe7d5fe9426"},"vehicle_type_id":"4","last_reported":1744687889,"current_range_meters":9200,"station_id":"ce4bgvp2rcd13ifvqcu0","pricing_plan_id":"cebpf4jnsgd1na2vs0mg"},{"bike_id":"ffd9a623-0631-4899-8f41-7f2e09483ce4","system_id":"levelo_inurba_marseille","lat":43.28464,"lon":5.35888,"is_reserved":false,"is_disabled":false,"rental_uris":{"android":"levelo://app?vid=ffd9a623-0631-4899-8f41-7f2e09483ce4","ios":"levelo://app?vid=ffd9a623-0631-4899-8f41-7f2e09483ce4"},"vehicle_type_id":"4","last_reported":1744687889,"current_range_meters":9200,"station_id":"ce4bhah2rcd13ifvqei0","pricing_plan_id":"cebpf4jnsgd1na2vs0mg"},{"bike_id":"2f93173f-d02c-4e29-ab59-1fff882697d7","system_id":"levelo_inurba_marseille","lat":43.2406,"lon":5.37788,"is_reserved":false,"is_disabled":false,"rental_uris":{"android":"levelo://app?vid=2f93173f-d02c-4e29-ab59-1fff882697d7","ios":"levelo://app?vid=2f93173f-d02c-4e29-ab59-1fff882697d7"},"vehicle_type_id":"4","last_reported":1744687889,"current_range_meters":9200,"station_id":"ce4bhnp2rcd13ifvqgvg","pricing_plan_id":"cebpf4jnsgd1na2vs0mg"},{"bike_id":"31d640de-ded1-4a23-82fc-8080e8c65b5f","system_id":"levelo_inurba_marseille","lat":43.2893,"lon":5.36637,"is_reserved":false,"is_disabled":false,"rental_uris":{"android":"levelo://app?vid=31d640de-ded1-4a23-82fc-8080e8c65b5f","ios":"levelo://app?vid=31d640de-ded1-4a23-82fc-8080e8c65b5f"},"vehicle_type_id":"4","last_reported":1744687889,"current_range_meters":9600,"station_id":"ce4bhap2rcd13ifvqek0","pricing_plan_id":"cebpf4jnsgd1na2vs0mg"},{"bike_id":"7fedcfdc-5cab-4206-a7e8-0ce468b983c4","system_id":"levelo_inurba_marseille","lat":43.28412,"lon":5.37524,"is_reserved":false,"is_disabled":false,"rental_uris":{"android":"levelo://app?vid=7fedcfdc-5cab-4206-a7e8-0ce468b983c4","ios":"levelo://app?vid=7fedcfdc-5cab-4206-a7e8-0ce468b983c4"},"vehicle_type_id":"4","last_reported":1744687889,"current_range_meters":9600,"station_id":"ce4bh412rcd13ifvqds0","pricing_plan_id":"cebpf4jnsgd1na2vs0mg"},{"bike_id":"fb13c941-1858-46a4-86ad-2a5e302996c3","system_id":"levelo_inurba_marseille","lat":43.25866,"lon":5.39923,"is_reserved":false,"is_disabled":true,"rental_uris":{"android":"levelo://app?vid=fb13c941-1858-46a4-86ad-2a5e302996c3","ios":"levelo://app?vid=fb13c941-1858-46a4-86ad-2a5e302996c3"},"vehicle_type_id":"4","last_reported":1744687889,"current_range_meters":9600,"station_id":"ce4bhl92rcd13ifvqghg","pricing_plan_id":"cebpf4jnsgd1na2vs0mg"},{"bike_id":"e0c49b4e-20fa-4104-917d-fcb54a76eaa0","system_id":"levelo_inurba_marseille","lat":43.28352,"lon":5.38104,"is_reserved":false,"is_disabled":false,"rental_uris":{"android":"levelo://app?vid=e0c49b4e-20fa-4104-917d-fcb54a76eaa0","ios":"levelo://app?vid=e0c49b4e-20fa-4104-917d-fcb54a76eaa0"},"vehicle_type_id":"4","last_reported":1744687889,"current_range_meters":9600,"station_id":"ce4bh412rcd13ifvqdr0","pricing_plan_id":"cebpf4jnsgd1na2vs0mg"},{"bike_id":"df24e887-fe82-46f8-ad88-3f9e2f7268c0","system_id":"levelo_inurba_marseille","lat":43.284,"lon":5.37517,"is_reserved":false,"is_disabled":false,"rental_uris":{"android":"levelo://app?vid=df24e887-fe82-46f8-ad88-3f9e2f7268c0","ios":"levelo://app?vid=df24e887-fe82-46f8-ad88-3f9e2f7268c0"},"vehicle_type_id":"4","last_reported":1744687889,"current_range_meters":10000,"station_id":"ce4bh412rcd13ifvqds0","pricing_plan_id":"cebpf4jnsgd1na2vs0mg"},{"bike_id":"ef734429-5e24-498b-98db-95ee16873a56","system_id":"levelo_inurba_marseille","lat":43.27079,"lon":5.42293,"is_reserved":false,"is_disabled":false,"rental_uris":{"android":"levelo://app?vid=ef734429-5e24-498b-98db-95ee16873a56","ios":"levelo://app?vid=ef734429-5e24-498b-98db-95ee16873a56"},"vehicle_type_id":"4","last_reported":1744687889,"current_range_meters":10000,"station_id":"ce4bhk92rcd13ifvqgb0","pricing_plan_id":"cebpf4jnsgd1na2vs0mg"},{"bike_id":"677b30b3-8594-46cc-a68a-9743c3dc2167","system_id":"levelo_inurba_marseille","lat":43.28843,"lon":5.35869,"is_reserved":false,"is_disabled":false,"rental_uris":{"android":"levelo://app?vid=677b30b3-8594-46cc-a68a-9743c3dc2167","ios":"levelo://app?vid=677b30b3-8594-46cc-a68a-9743c3dc2167"},"vehicle_type_id":"4","last_reported":1744687889,"current_range_meters":10000,"station_id":"ce4bhb12rcd13ifvqem0","pricing_plan_id":"cebpf4jnsgd1na2vs0mg"},{"bike_id":"b7f2ab3e-7333-4a50-9375-1a8103e49920","system_id":"levelo_inurba_marseille","lat":43.25837,"lon":5.39409,"is_reserved":false,"is_disabled":false,"rental_uris":{"android":"levelo://app?vid=b7f2ab3e-7333-4a50-9375-1a8103e49920","ios":"levelo://app?vid=b7f2ab3e-7333-4a50-9375-1a8103e49920"},"vehicle_type_id":"4","last_reported":1744687889,"current_range_meters":10000,"station_id":"ce4bhip2rcd13ifvqft0","pricing_plan_id":"cebpf4jnsgd1na2vs0mg"},{"bike_id":"ff6c5bbc-009f-4fe9-b11b-60ef4508468b","system_id":"levelo_inurba_marseille","lat":43.28447,"lon":5.39243,"is_reserved":false,"is_disabled":true,"rental_uris":{"android":"levelo://app?vid=ff6c5bbc-009f-4fe9-b11b-60ef4508468b","ios":"levelo://app?vid=ff6c5bbc-009f-4fe9-b11b-60ef4508468b"},"vehicle_type_id":"4","last_reported":1744687889,"current_range_meters":10000,"station_id":"ce4bhoh2rcd13ifvqh5g","pricing_plan_id":"cebpf4jnsgd1na2vs0mg"},{"bike_id":"a12a4ca1-f810-4d74-a484-47aa7a760bde","system_id":"levelo_inurba_marseille","lat":43.270683,"lon":5.422798,"is_reserved":false,"is_disabled":false,"rental_uris":{"android":"levelo://app?vid=a12a4ca1-f810-4d74-a484-47aa7a760bde","ios":"levelo://app?vid=a12a4ca1-f810-4d74-a484-47aa7a760bde"},"vehicle_type_id":"4","last_reported":1744687889,"current_range_meters":10000,"station_id":"ce4bhk92rcd13ifvqgb0","pricing_plan_id":"cebpf4jnsgd1na2vs0mg"},{"bike_id":"843838ea-15ea-4750-a740-a6a4d52b3162","system_id":"levelo_inurba_marseille","lat":43.27958,"lon":5.41669,"is_reserved":false,"is_disabled":false,"rental_uris":{"android":"levelo://app?vid=843838ea-15ea-4750-a740-a6a4d52b3162","ios":"levelo://app?vid=843838ea-15ea-4750-a740-a6a4d52b3162"},"vehicle_type_id":"4","last_reported":1744687889,"current_range_meters":10800,"station_id":"ce4bho12rcd13ifvqh1g","pricing_plan_id":"cebpf4jnsgd1na2vs0mg"},{"bike_id":"0e8e0d85-2932-4765-902a-4c3b14a3eac4","system_id":"levelo_inurba_marseille","lat":43.25626,"lon":5.37684,"is_reserved":false,"is_disabled":false,"rental_uris":{"android":"levelo://app?vid=0e8e0d85-2932-4765-902a-4c3b14a3eac4","ios":"levelo://app?vid=0e8e0d85-2932-4765-902a-4c3b14a3eac4"},"vehicle_type_id":"4","last_reported":1744687889,"current_range_meters":10800,"station_id":"","pricing_plan_id":"cebpf4jnsgd1na2vs0mg"},{"bike_id":"2ed7ebbb-379a-46fd-8b26-cbbab63008ae","system_id":"levelo_inurba_marseille","lat":43.28361,"lon":5.38638,"is_reserved":false,"is_disabled":false,"rental_uris":{"android":"levelo://app?vid=2ed7ebbb-379a-46fd-8b26-cbbab63008ae","ios":"levelo://app?vid=2ed7ebbb-379a-46fd-8b26-cbbab63008ae"},"vehicle_type_id":"4","last_reported":1744687889,"current_range_meters":10800,"station_id":"ce4bh492rcd13ifvqdvg","pricing_plan_id":"cebpf4jnsgd1na2vs0mg"},{"bike_id":"d2cd86fd-90ef-4a72-a4eb-a819062a3218","system_id":"levelo_inurba_marseille","lat":43.284074,"lon":5.375195,"is_reserved":false,"is_disabled":false,"rental_uris":{"android":"levelo://app?vid=d2cd86fd-90ef-4a72-a4eb-a819062a3218","ios":"levelo://app?vid=d2cd86fd-90ef-4a72-a4eb-a819062a3218"},"vehicle_type_id":"4","last_reported":1744687889,"current_range_meters":10800,"station_id":"ce4bh412rcd13ifvqds0","pricing_plan_id":"cebpf4jnsgd1na2vs0mg"},{"bike_id":"33c2ae9d-70c1-4a78-aa2d-f399064824ec","system_id":"levelo_inurba_marseille","lat":43.29265,"lon":5.40952,"is_reserved":false,"is_disabled":false,"rental_uris":{"android":"levelo://app?vid=33c2ae9d-70c1-4a78-aa2d-f399064824ec","ios":"levelo://app?vid=33c2ae9d-70c1-4a78-aa2d-f399064824ec"},"vehicle_type_id":"4","last_reported":1744687889,"current_range_meters":11200,"station_id":"ce4bh192rcd13ifvqdc0","pricing_plan_id":"cebpf4jnsgd1na2vs0mg"},{"bike_id":"868f0d65-85fd-452d-98c1-4f41cd2dd503","system_id":"levelo_inurba_marseille","lat":43.31117,"lon":5.37773,"is_reserved":false,"is_disabled":false,"rental_uris":{"android":"levelo://app?vid=868f0d65-85fd-452d-98c1-4f41cd2dd503","ios":"levelo://app?vid=868f0d65-85fd-452d-98c1-4f41cd2dd503"},"vehicle_type_id":"4","last_reported":1744687889,"current_range_meters":11200,"station_id":"ce4bgt92rcd13ifvqcg0","pricing_plan_id":"cebpf4jnsgd1na2vs0mg"},{"bike_id":"27a55245-8dd2-4f1a-af63-95a9d7b71690","system_id":"levelo_inurba_marseille","lat":43.31072,"lon":5.37849,"is_reserved":false,"is_disabled":true,"rental_uris":{"android":"levelo://app?vid=27a55245-8dd2-4f1a-af63-95a9d7b71690","ios":"levelo://app?vid=27a55245-8dd2-4f1a-af63-95a9d7b71690"},"vehicle_type_id":"4","last_reported":1744687889,"current_range_meters":11200,"station_id":"","pricing_plan_id":"cebpf4jnsgd1na2vs0mg"},{"bike_id":"5bac84e2-3c94-4fdd-a5a6-3f7db5002922","system_id":"levelo_inurba_marseille","lat":43.26822,"lon":5.40253,"is_reserved":false,"is_disabled":false,"rental_uris":{"android":"levelo://app?vid=5bac84e2-3c94-4fdd-a5a6-3f7db5002922","ios":"levelo://app?vid=5bac84e2-3c94-4fdd-a5a6-3f7db5002922"},"vehicle_type_id":"4","last_reported":1744687889,"current_range_meters":11600,"station_id":"ce501612rcd8frsf0b60","pricing_plan_id":"cebpf4jnsgd1na2vs0mg"},{"bike_id":"073cf7d8-8976-45f8-a876-b8ff2d3c7521","system_id":"levelo_inurba_marseille","lat":43.313232,"lon":5.397024,"is_reserved":false,"is_disabled":false,"rental_uris":{"android":"levelo://app?vid=073cf7d8-8976-45f8-a876-b8ff2d3c7521","ios":"levelo://app?vid=073cf7d8-8976-45f8-a876-b8ff2d3c7521"},"vehicle_type_id":"4","last_reported":1744687889,"current_range_meters":11600,"station_id":"ce4bgvp2rcd13ifvqcu0","pricing_plan_id":"cebpf4jnsgd1na2vs0mg"},{"bike_id":"dd55a95c-84ae-4f2d-9924-3ca8c1853af4","system_id":"levelo_inurba_marseille","lat":43.26804,"lon":5.40252,"is_reserved":false,"is_disabled":false,"rental_uris":{"android":"levelo://app?vid=dd55a95c-84ae-4f2d-9924-3ca8c1853af4","ios":"levelo://app?vid=dd55a95c-84ae-4f2d-9924-3ca8c1853af4"},"vehicle_type_id":"4","last_reported":1744687889,"current_range_meters":11600,"station_id":"ce501612rcd8frsf0b60","pricing_plan_id":"cebpf4jnsgd1na2vs0mg"},{"bike_id":"3f7a0290-593e-4845-993f-1d6ded91c193","system_id":"levelo_inurba_marseille","lat":43.31695,"lon":5.37746,"is_reserved":false,"is_disabled":false,"rental_uris":{"android":"levelo://app?vid=3f7a0290-593e-4845-993f-1d6ded91c193","ios":"levelo://app?vid=3f7a0290-593e-4845-993f-1d6ded91c193"},"vehicle_type_id":"4","last_reported":1744687889,"current_range_meters":12000,"station_id":"ce4bgth2rcd13ifvqch0","pricing_plan_id":"cebpf4jnsgd1na2vs0mg"},{"bike_id":"0a901c4b-a6be-4ae3-9eea-df01ce0187d5","system_id":"levelo_inurba_marseille","lat":43.28694,"lon":5.3741,"is_reserved":false,"is_disabled":false,"rental_uris":{"android":"levelo://app?vid=0a901c4b-a6be-4ae3-9eea-df01ce0187d5","ios":"levelo://app?vid=0a901c4b-a6be-4ae3-9eea-df01ce0187d5"},"vehicle_type_id":"4","last_reported":1744687889,"current_range_meters":12000,"station_id":"ce4bh3p2rcd13ifvqdq0","pricing_plan_id":"cebpf4jnsgd1na2vs0mg"},{"bike_id":"9e2b7a76-1a9e-4918-befb-c6b174749d9d","system_id":"levelo_inurba_marseille","lat":43.28561,"lon":5.39495,"is_reserved":false,"is_disabled":false,"rental_uris":{"android":"levelo://app?vid=9e2b7a76-1a9e-4918-befb-c6b174749d9d","ios":"levelo://app?vid=9e2b7a76-1a9e-4918-befb-c6b174749d9d"},"vehicle_type_id":"4","last_reported":1744687889,"current_range_meters":12000,"station_id":"ce4bh292rcd13ifvqdg0","pricing_plan_id":"cebpf4jnsgd1na2vs0mg"},{"bike_id":"3a6cf755-31cc-43c3-a198-985c52f2e7d1","system_id":"levelo_inurba_marseille","lat":43.2846,"lon":5.35888,"is_reserved":false,"is_disabled":false,"rental_uris":{"android":"levelo://app?vid=3a6cf755-31cc-43c3-a198-985c52f2e7d1","ios":"levelo://app?vid=3a6cf755-31cc-43c3-a198-985c52f2e7d1"},"vehicle_type_id":"4","last_reported":1744687889,"current_range_meters":12000,"station_id":"ce4bhah2rcd13ifvqei0","pricing_plan_id":"cebpf4jnsgd1na2vs0mg"},{"bike_id":"93b02a0f-e2f5-49ef-90ae-4a058707e43d","system_id":"levelo_inurba_marseille","lat":43.29685,"lon":5.37318,"is_reserved":false,"is_disabled":true,"rental_uris":{"android":"levelo://app?vid=93b02a0f-e2f5-49ef-90ae-4a058707e43d","ios":"levelo://app?vid=93b02a0f-e2f5-49ef-90ae-4a058707e43d"},"vehicle_type_id":"4","last_reported":1744687889,"current_range_meters":12000,"station_id":"ce4bgk12rcd13ifvqbj0","pricing_plan_id":"cebpf4jnsgd1na2vs0mg"},{"bike_id":"e93a6700-c85e-4586-8fc9-b3f06c010eca","system_id":"levelo_inurba_marseille","lat":43.30292,"lon":5.36899,"is_reserved":false,"is_disabled":false,"rental_uris":{"android":"levelo://app?vid=e93a6700-c85e-4586-8fc9-b3f06c010eca","ios":"levelo://app?vid=e93a6700-c85e-4586-8fc9-b3f06c010eca"},"vehicle_type_id":"4","last_reported":1744687889,"current_range_meters":12000,"station_id":"ce4bgqh2rcd13ifvqc5g","pricing_plan_id":"cebpf4jnsgd1na2vs0mg"},{"bike_id":"9050bcb2-4fea-4bae-b3fe-93394c76bda1","system_id":"levelo_inurba_marseille","lat":43.316932,"lon":5.4048,"is_reserved":false,"is_disabled":false,"rental_uris":{"android":"levelo://app?vid=9050bcb2-4fea-4bae-b3fe-93394c76bda1","ios":"levelo://app?vid=9050bcb2-4fea-4bae-b3fe-93394c76bda1"},"vehicle_type_id":"4","last_reported":1744687889,"current_range_meters":12400,"station_id":"ce4bh012rcd13ifvqd00","pricing_plan_id":"cebpf4jnsgd1na2vs0mg"},{"bike_id":"9481a4d4-998c-4242-822b-0b8fa3017440","system_id":"levelo_inurba_marseille","lat":43.288561,"lon":5.393416,"is_reserved":false,"is_disabled":true,"rental_uris":{"android":"levelo://app?vid=9481a4d4-998c-4242-822b-0b8fa3017440","ios":"levelo://app?vid=9481a4d4-998c-4242-822b-0b8fa3017440"},"vehicle_type_id":"4","last_reported":1744687889,"current_range_meters":12400,"station_id":"ce4bh2p2rcd13ifvqdi0","pricing_plan_id":"cebpf4jnsgd1na2vs0mg"},{"bike_id":"56135a82-d19f-45ea-a72c-58b1131d0fcb","system_id":"levelo_inurba_marseille","lat":43.2807,"lon":5.39657,"is_reserved":false,"is_disabled":true,"rental_uris":{"android":"levelo://app?vid=56135a82-d19f-45ea-a72c-58b1131d0fcb","ios":"levelo://app?vid=56135a82-d19f-45ea-a72c-58b1131d0fcb"},"vehicle_type_id":"4","last_reported":1744687889,"current_range_meters":12400,"station_id":"ce4bho12rcd13ifvqh2g","pricing_plan_id":"cebpf4jnsgd1na2vs0mg"},{"bike_id":"ebc00508-063d-4173-a5d7-86b9fc557991","system_id":"levelo_inurba_marseille","lat":43.29572,"lon":5.3999,"is_reserved":false,"is_disabled":false,"rental_uris":{"android":"levelo://app?vid=ebc00508-063d-4173-a5d7-86b9fc557991","ios":"levelo://app?vid=ebc00508-063d-4173-a5d7-86b9fc557991"},"vehicle_type_id":"4","last_reported":1744687889,"current_range_meters":12400,"station_id":"ce4bh312rcd13ifvqdj0","pricing_plan_id":"cebpf4jnsgd1na2vs0mg"},{"bike_id":"45152fd8-c07c-4d52-b7a7-6670add35e00","system_id":"levelo_inurba_marseille","lat":43.26112,"lon":5.42091,"is_reserved":false,"is_disabled":false,"rental_uris":{"android":"levelo://app?vid=45152fd8-c07c-4d52-b7a7-6670add35e00","ios":"levelo://app?vid=45152fd8-c07c-4d52-b7a7-6670add35e00"},"vehicle_type_id":"4","last_reported":1744687889,"current_range_meters":12400,"station_id":"","pricing_plan_id":"cebpf4jnsgd1na2vs0mg"},{"bike_id":"95feb6b0-42d5-455d-872a-d685cd4cebc3","system_id":"levelo_inurba_marseille","lat":43.28583,"lon":5.39509,"is_reserved":false,"is_disabled":false,"rental_uris":{"android":"levelo://app?vid=95feb6b0-42d5-455d-872a-d685cd4cebc3","ios":"levelo://app?vid=95feb6b0-42d5-455d-872a-d685cd4cebc3"},"vehicle_type_id":"4","last_reported":1744687889,"current_range_meters":12800,"station_id":"ce4bh292rcd13ifvqdg0","pricing_plan_id":"cebpf4jnsgd1na2vs0mg"},{"bike_id":"209a0192-0fdc-4e02-9c79-b42f732cc1f7","system_id":"levelo_inurba_marseille","lat":43.23963,"lon":5.36644,"is_reserved":false,"is_disabled":false,"rental_uris":{"android":"levelo://app?vid=209a0192-0fdc-4e02-9c79-b42f732cc1f7","ios":"levelo://app?vid=209a0192-0fdc-4e02-9c79-b42f732cc1f7"},"vehicle_type_id":"4","last_reported":1744687889,"current_range_meters":12800,"station_id":"ce4bhi12rcd13ifvqfp0","pricing_plan_id":"cebpf4jnsgd1na2vs0mg"},{"bike_id":"038f24e5-d8e3-47c1-a2bf-21ad4ab92bed","system_id":"levelo_inurba_marseille","lat":43.310685,"lon":5.383505,"is_reserved":false,"is_disabled":false,"rental_uris":{"android":"levelo://app?vid=038f24e5-d8e3-47c1-a2bf-21ad4ab92bed","ios":"levelo://app?vid=038f24e5-d8e3-47c1-a2bf-21ad4ab92bed"},"vehicle_type_id":"4","last_reported":1744687889,"current_range_meters":12800,"station_id":"ce4bgv92rcd13ifvqcr0","pricing_plan_id":"cebpf4jnsgd1na2vs0mg"},{"bike_id":"02dc5853-d17c-47ac-a646-82ded7ba5800","system_id":"levelo_inurba_marseille","lat":43.30194,"lon":5.39963,"is_reserved":false,"is_disabled":true,"rental_uris":{"android":"levelo://app?vid=02dc5853-d17c-47ac-a646-82ded7ba5800","ios":"levelo://app?vid=02dc5853-d17c-47ac-a646-82ded7ba5800"},"vehicle_type_id":"4","last_reported":1744687889,"current_range_meters":13600,"station_id":"ce4bh0h2rcd13ifvqd40","pricing_plan_id":"cebpf4jnsgd1na2vs0mg"},{"bike_id":"b225db6f-f59a-478a-a565-451dda7af67c","system_id":"levelo_inurba_marseille","lat":43.26221,"lon":5.40479,"is_reserved":false,"is_disabled":false,"rental_uris":{"android":"levelo://app?vid=b225db6f-f59a-478a-a565-451dda7af67c","ios":"levelo://app?vid=b225db6f-f59a-478a-a565-451dda7af67c"},"vehicle_type_id":"4","last_reported":1744687889,"current_range_meters":13600,"station_id":"ce4bhmh2rcd13ifvqgmg","pricing_plan_id":"cebpf4jnsgd1na2vs0mg"},{"bike_id":"31fec991-0241-4227-a02e-15ec03e5a057","system_id":"levelo_inurba_marseille","lat":43.27921,"lon":5.39604,"is_reserved":false,"is_disabled":false,"rental_uris":{"android":"levelo://app?vid=31fec991-0241-4227-a02e-15ec03e5a057","ios":"levelo://app?vid=31fec991-0241-4227-a02e-15ec03e5a057"},"vehicle_type_id":"4","last_reported":1744687889,"current_range_meters":14000,"station_id":"ce4bhf92rcd13ifvqf40","pricing_plan_id":"cebpf4jnsgd1na2vs0mg"},{"bike_id":"9d18629a-09fb-499c-8bd0-400337810599","system_id":"levelo_inurba_marseille","lat":43.29903,"lon":5.39726,"is_reserved":false,"is_disabled":false,"rental_uris":{"android":"levelo://app?vid=9d18629a-09fb-499c-8bd0-400337810599","ios":"levelo://app?vid=9d18629a-09fb-499c-8bd0-400337810599"},"vehicle_type_id":"4","last_reported":1744687889,"current_range_meters":14000,"station_id":"ce4bh0h2rcd13ifvqd50","pricing_plan_id":"cebpf4jnsgd1na2vs0mg"},{"bike_id":"0ba9f0ef-27e9-42c8-a2f6-855e52294283","system_id":"levelo_inurba_marseille","lat":43.303071,"lon":5.369047,"is_reserved":false,"is_disabled":false,"rental_uris":{"android":"levelo://app?vid=0ba9f0ef-27e9-42c8-a2f6-855e52294283","ios":"levelo://app?vid=0ba9f0ef-27e9-42c8-a2f6-855e52294283"},"vehicle_type_id":"4","last_reported":1744687889,"current_range_meters":14000,"station_id":"ce4bgqh2rcd13ifvqc5g","pricing_plan_id":"cebpf4jnsgd1na2vs0mg"},{"bike_id":"37342bdf-d586-43ba-a25b-da22b3393da6","system_id":"levelo_inurba_marseille","lat":43.29174,"lon":5.37538,"is_reserved":false,"is_disabled":false,"rental_uris":{"android":"levelo://app?vid=37342bdf-d586-43ba-a25b-da22b3393da6","ios":"levelo://app?vid=37342bdf-d586-43ba-a25b-da22b3393da6"},"vehicle_type_id":"4","last_reported":1744687889,"current_range_meters":14000,"station_id":"","pricing_plan_id":"cebpf4jnsgd1na2vs0mg"},{"bike_id":"86507adb-43c1-4a89-acc7-c74cd80a099f","system_id":"levelo_inurba_marseille","lat":43.23145,"lon":5.3666,"is_reserved":false,"is_disabled":false,"rental_uris":{"android":"levelo://app?vid=86507adb-43c1-4a89-acc7-c74cd80a099f","ios":"levelo://app?vid=86507adb-43c1-4a89-acc7-c74cd80a099f"},"vehicle_type_id":"4","last_reported":1744687889,"current_range_meters":14400,"station_id":"","pricing_plan_id":"cebpf4jnsgd1na2vs0mg"},{"bike_id":"cfd779ea-5650-4320-b104-475f5fd1d5e0","system_id":"levelo_inurba_marseille","lat":43.2417,"lon":5.39724,"is_reserved":false,"is_disabled":false,"rental_uris":{"android":"levelo://app?vid=cfd779ea-5650-4320-b104-475f5fd1d5e0","ios":"levelo://app?vid=cfd779ea-5650-4320-b104-475f5fd1d5e0"},"vehicle_type_id":"4","last_reported":1744687889,"current_range_meters":14000,"station_id":"ce4bhn12rcd13ifvqgpg","pricing_plan_id":"cebpf4jnsgd1na2vs0mg"},{"bike_id":"925d9f60-adb9-4406-b446-d9ac73846ce0","system_id":"levelo_inurba_marseille","lat":43.31355,"lon":5.38499,"is_reserved":false,"is_disabled":false,"rental_uris":{"android":"levelo://app?vid=925d9f60-adb9-4406-b446-d9ac73846ce0","ios":"levelo://app?vid=925d9f60-adb9-4406-b446-d9ac73846ce0"},"vehicle_type_id":"4","last_reported":1744687889,"current_range_meters":14400,"station_id":"ce4bgt92rcd13ifvqcf0","pricing_plan_id":"cebpf4jnsgd1na2vs0mg"},{"bike_id":"b3f3917b-babe-4e57-b21e-9f79ef1e3bdd","system_id":"levelo_inurba_marseille","lat":43.29509,"lon":5.3941,"is_reserved":false,"is_disabled":false,"rental_uris":{"android":"levelo://app?vid=b3f3917b-babe-4e57-b21e-9f79ef1e3bdd","ios":"levelo://app?vid=b3f3917b-babe-4e57-b21e-9f79ef1e3bdd"},"vehicle_type_id":"4","last_reported":1744687889,"current_range_meters":14400,"station_id":"ce4bh292rcd13ifvqdf0","pricing_plan_id":"cebpf4jnsgd1na2vs0mg"},{"bike_id":"8300a52c-971f-43fc-b5ec-33d22e852aa6","system_id":"levelo_inurba_marseille","lat":43.31264,"lon":5.40161,"is_reserved":false,"is_disabled":false,"rental_uris":{"android":"levelo://app?vid=8300a52c-971f-43fc-b5ec-33d22e852aa6","ios":"levelo://app?vid=8300a52c-971f-43fc-b5ec-33d22e852aa6"},"vehicle_type_id":"4","last_reported":1744687889,"current_range_meters":14800,"station_id":"ce4bh092rcd13ifvqd30","pricing_plan_id":"cebpf4jnsgd1na2vs0mg"},{"bike_id":"fedb9457-c408-43a0-8b5e-ccdff25947f5","system_id":"levelo_inurba_marseille","lat":43.262156,"lon":5.404449,"is_reserved":false,"is_disabled":true,"rental_uris":{"android":"levelo://app?vid=fedb9457-c408-43a0-8b5e-ccdff25947f5","ios":"levelo://app?vid=fedb9457-c408-43a0-8b5e-ccdff25947f5"},"vehicle_type_id":"4","last_reported":1744687889,"current_range_meters":14800,"station_id":"ce4bhlh2rcd13ifvqgig","pricing_plan_id":"cebpf4jnsgd1na2vs0mg"},{"bike_id":"7ef3f0fc-ca21-49eb-8462-8100de47b477","system_id":"levelo_inurba_marseille","lat":43.29886,"lon":5.3974,"is_reserved":false,"is_disabled":false,"rental_uris":{"android":"levelo://app?vid=7ef3f0fc-ca21-49eb-8462-8100de47b477","ios":"levelo://app?vid=7ef3f0fc-ca21-49eb-8462-8100de47b477"},"vehicle_type_id":"4","last_reported":1744687889,"current_range_meters":14800,"station_id":"ce4bh0h2rcd13ifvqd50","pricing_plan_id":"cebpf4jnsgd1na2vs0mg"},{"bike_id":"382a1a40-cce5-4bcf-8677-ad51fb5a2457","system_id":"levelo_inurba_marseille","lat":43.28841,"lon":5.39352,"is_reserved":false,"is_disabled":true,"rental_uris":{"android":"levelo://app?vid=382a1a40-cce5-4bcf-8677-ad51fb5a2457","ios":"levelo://app?vid=382a1a40-cce5-4bcf-8677-ad51fb5a2457"},"vehicle_type_id":"4","last_reported":1744687889,"current_range_meters":14800,"station_id":"ce4bh2p2rcd13ifvqdi0","pricing_plan_id":"cebpf4jnsgd1na2vs0mg"},{"bike_id":"5c0cc5dd-7c03-4f8b-838c-65a8bfb31b5b","system_id":"levelo_inurba_marseille","lat":43.24671,"lon":5.38153,"is_reserved":false,"is_disabled":false,"rental_uris":{"android":"levelo://app?vid=5c0cc5dd-7c03-4f8b-838c-65a8bfb31b5b","ios":"levelo://app?vid=5c0cc5dd-7c03-4f8b-838c-65a8bfb31b5b"},"vehicle_type_id":"4","last_reported":1744687889,"current_range_meters":15200,"station_id":"ce4bhih2rcd13ifvqfr0","pricing_plan_id":"cebpf4jnsgd1na2vs0mg"},{"bike_id":"a6df17eb-3570-436e-862c-fc5ce65d2e7e","system_id":"levelo_inurba_marseille","lat":43.28616,"lon":5.35126,"is_reserved":false,"is_disabled":false,"rental_uris":{"android":"levelo://app?vid=a6df17eb-3570-436e-862c-fc5ce65d2e7e","ios":"levelo://app?vid=a6df17eb-3570-436e-862c-fc5ce65d2e7e"},"vehicle_type_id":"4","last_reported":1744687889,"current_range_meters":15200,"station_id":"ce4bhch2rcd13ifvqeug","pricing_plan_id":"cebpf4jnsgd1na2vs0mg"},{"bike_id":"150c92f3-516d-41fe-89f9-fa7bb41a1f80","system_id":"levelo_inurba_marseille","lat":43.30324,"lon":5.4045,"is_reserved":false,"is_disabled":false,"rental_uris":{"android":"levelo://app?vid=150c92f3-516d-41fe-89f9-fa7bb41a1f80","ios":"levelo://app?vid=150c92f3-516d-41fe-89f9-fa7bb41a1f80"},"vehicle_type_id":"4","last_reported":1744687889,"current_range_meters":15200,"station_id":"ce4bh012rcd13ifvqd10","pricing_plan_id":"cebpf4jnsgd1na2vs0mg"},{"bike_id":"b9fc8cc3-945a-4db5-b7aa-66d235d9bf40","system_id":"levelo_inurba_marseille","lat":43.30877,"lon":5.37196,"is_reserved":false,"is_disabled":false,"rental_uris":{"android":"levelo://app?vid=b9fc8cc3-945a-4db5-b7aa-66d235d9bf40","ios":"levelo://app?vid=b9fc8cc3-945a-4db5-b7aa-66d235d9bf40"},"vehicle_type_id":"4","last_reported":1744687889,"current_range_meters":15200,"station_id":"ce4bguh2rcd13ifvqckg","pricing_plan_id":"cebpf4jnsgd1na2vs0mg"},{"bike_id":"47a85634-40b2-4bd1-8409-1d1cf2f06bdc","system_id":"levelo_inurba_marseille","lat":43.24068,"lon":5.37806,"is_reserved":false,"is_disabled":false,"rental_uris":{"android":"levelo://app?vid=47a85634-40b2-4bd1-8409-1d1cf2f06bdc","ios":"levelo://app?vid=47a85634-40b2-4bd1-8409-1d1cf2f06bdc"},"vehicle_type_id":"4","last_reported":1744687889,"current_range_meters":16000,"station_id":"ce4bhnp2rcd13ifvqgvg","pricing_plan_id":"cebpf4jnsgd1na2vs0mg"},{"bike_id":"7f11a33b-a5ed-4486-9c46-07dd9ef6e1f4","system_id":"levelo_inurba_marseille","lat":43.29618,"lon":5.40593,"is_reserved":false,"is_disabled":false,"rental_uris":{"android":"levelo://app?vid=7f11a33b-a5ed-4486-9c46-07dd9ef6e1f4","ios":"levelo://app?vid=7f11a33b-a5ed-4486-9c46-07dd9ef6e1f4"},"vehicle_type_id":"4","last_reported":1744687889,"current_range_meters":16000,"station_id":"ce4bh0h2rcd13ifvqd60","pricing_plan_id":"cebpf4jnsgd1na2vs0mg"},{"bike_id":"eee1ae19-0a4d-4fb6-8b87-1e6d20ca2059","system_id":"levelo_inurba_marseille","lat":43.268057,"lon":5.402594,"is_reserved":false,"is_disabled":false,"rental_uris":{"android":"levelo://app?vid=eee1ae19-0a4d-4fb6-8b87-1e6d20ca2059","ios":"levelo://app?vid=eee1ae19-0a4d-4fb6-8b87-1e6d20ca2059"},"vehicle_type_id":"4","last_reported":1744687889,"current_range_meters":16000,"station_id":"ce501612rcd8frsf0b60","pricing_plan_id":"cebpf4jnsgd1na2vs0mg"},{"bike_id":"216c0a2c-fab0-4352-94a0-14b77c387959","system_id":"levelo_inurba_marseille","lat":43.24664,"lon":5.38166,"is_reserved":false,"is_disabled":false,"rental_uris":{"android":"levelo://app?vid=216c0a2c-fab0-4352-94a0-14b77c387959","ios":"levelo://app?vid=216c0a2c-fab0-4352-94a0-14b77c387959"},"vehicle_type_id":"4","last_reported":1744687889,"current_range_meters":16000,"station_id":"ce4bhih2rcd13ifvqfr0","pricing_plan_id":"cebpf4jnsgd1na2vs0mg"},{"bike_id":"d2d37f01-fa46-4fbc-a721-7789f4003663","system_id":"levelo_inurba_marseille","lat":43.24968,"lon":5.38958,"is_reserved":false,"is_disabled":false,"rental_uris":{"android":"levelo://app?vid=d2d37f01-fa46-4fbc-a721-7789f4003663","ios":"levelo://app?vid=d2d37f01-fa46-4fbc-a721-7789f4003663"},"vehicle_type_id":"4","last_reported":1744687889,"current_range_meters":16000,"station_id":"","pricing_plan_id":"cebpf4jnsgd1na2vs0mg"},{"bike_id":"8a1fc1b6-9ba8-4eaa-8806-e8628dd9fd73","system_id":"levelo_inurba_marseille","lat":43.27317,"lon":5.41289,"is_reserved":false,"is_disabled":false,"rental_uris":{"android":"levelo://app?vid=8a1fc1b6-9ba8-4eaa-8806-e8628dd9fd73","ios":"levelo://app?vid=8a1fc1b6-9ba8-4eaa-8806-e8628dd9fd73"},"vehicle_type_id":"4","last_reported":1744687889,"current_range_meters":16000,"station_id":"","pricing_plan_id":"cebpf4jnsgd1na2vs0mg"},{"bike_id":"44071794-3eef-46de-a44a-01c839d4ab80","system_id":"levelo_inurba_marseille","lat":43.279133,"lon":5.395812,"is_reserved":false,"is_disabled":false,"rental_uris":{"android":"levelo://app?vid=44071794-3eef-46de-a44a-01c839d4ab80","ios":"levelo://app?vid=44071794-3eef-46de-a44a-01c839d4ab80"},"vehicle_type_id":"4","last_reported":1744687889,"current_range_meters":16000,"station_id":"ce4bhf92rcd13ifvqf40","pricing_plan_id":"cebpf4jnsgd1na2vs0mg"},{"bike_id":"205a676e-388e-4b5d-b5d4-92bca6b76c07","system_id":"levelo_inurba_marseille","lat":43.31155,"lon":5.38016,"is_reserved":false,"is_disabled":true,"rental_uris":{"android":"levelo://app?vid=205a676e-388e-4b5d-b5d4-92bca6b76c07","ios":"levelo://app?vid=205a676e-388e-4b5d-b5d4-92bca6b76c07"},"vehicle_type_id":"4","last_reported":1744687889,"current_range_meters":16000,"station_id":"","pricing_plan_id":"cebpf4jnsgd1na2vs0mg"},{"bike_id":"3ab9c95d-7500-4a1b-8add-6e9d58866300","system_id":"levelo_inurba_marseille","lat":43.24664,"lon":5.38171,"is_reserved":false,"is_disabled":false,"rental_uris":{"android":"levelo://app?vid=3ab9c95d-7500-4a1b-8add-6e9d58866300","ios":"levelo://app?vid=3ab9c95d-7500-4a1b-8add-6e9d58866300"},"vehicle_type_id":"4","last_reported":1744687889,"current_range_meters":16400,"station_id":"ce4bhih2rcd13ifvqfr0","pricing_plan_id":"cebpf4jnsgd1na2vs0mg"},{"bike_id":"d1f397d9-e163-4a91-8b6b-a9eae5e1478e","system_id":"levelo_inurba_marseille","lat":43.2852,"lon":5.35964,"is_reserved":false,"is_disabled":false,"rental_uris":{"android":"levelo://app?vid=d1f397d9-e163-4a91-8b6b-a9eae5e1478e","ios":"levelo://app?vid=d1f397d9-e163-4a91-8b6b-a9eae5e1478e"},"vehicle_type_id":"4","last_reported":1744687889,"current_range_meters":16400,"station_id":"","pricing_plan_id":"cebpf4jnsgd1na2vs0mg"},{"bike_id":"690344b0-9f80-484a-9c0a-0cb50bc24e58","system_id":"levelo_inurba_marseille","lat":43.31489,"lon":5.37295,"is_reserved":false,"is_disabled":false,"rental_uris":{"android":"levelo://app?vid=690344b0-9f80-484a-9c0a-0cb50bc24e58","ios":"levelo://app?vid=690344b0-9f80-484a-9c0a-0cb50bc24e58"},"vehicle_type_id":"4","last_reported":1744687889,"current_range_meters":16400,"station_id":"ce4bgt12rcd13ifvqcd0","pricing_plan_id":"cebpf4jnsgd1na2vs0mg"},{"bike_id":"e298fb17-60fe-4ee1-bc94-645f9b8b1bb4","system_id":"levelo_inurba_marseille","lat":43.289985,"lon":5.376092,"is_reserved":false,"is_disabled":false,"rental_uris":{"android":"levelo://app?vid=e298fb17-60fe-4ee1-bc94-645f9b8b1bb4","ios":"levelo://app?vid=e298fb17-60fe-4ee1-bc94-645f9b8b1bb4"},"vehicle_type_id":"4","last_reported":1744687889,"current_range_meters":16400,"station_id":"ce4bh692rcd13ifvqe90","pricing_plan_id":"cebpf4jnsgd1na2vs0mg"},{"bike_id":"17b543ad-6f08-496d-bdd2-6337f67f5fc8","system_id":"levelo_inurba_marseille","lat":43.28415,"lon":5.37537,"is_reserved":false,"is_disabled":false,"rental_uris":{"android":"levelo://app?vid=17b543ad-6f08-496d-bdd2-6337f67f5fc8","ios":"levelo://app?vid=17b543ad-6f08-496d-bdd2-6337f67f5fc8"},"vehicle_type_id":"4","last_reported":1744687889,"current_range_meters":16800,"station_id":"ce4bh412rcd13ifvqds0","pricing_plan_id":"cebpf4jnsgd1na2vs0mg"},{"bike_id":"c417c17e-b147-4f7d-a26a-1f902d139095","system_id":"levelo_inurba_marseille","lat":43.28165,"lon":5.42672,"is_reserved":false,"is_disabled":false,"rental_uris":{"android":"levelo://app?vid=c417c17e-b147-4f7d-a26a-1f902d139095","ios":"levelo://app?vid=c417c17e-b147-4f7d-a26a-1f902d139095"},"vehicle_type_id":"4","last_reported":1744687889,"current_range_meters":16800,"station_id":"ce4bhnh2rcd13ifvqgug","pricing_plan_id":"cebpf4jnsgd1na2vs0mg"},{"bike_id":"51155735-ca19-42c6-ab16-67979194f6eb","system_id":"levelo_inurba_marseille","lat":43.31328,"lon":5.39742,"is_reserved":false,"is_disabled":false,"rental_uris":{"android":"levelo://app?vid=51155735-ca19-42c6-ab16-67979194f6eb","ios":"levelo://app?vid=51155735-ca19-42c6-ab16-67979194f6eb"},"vehicle_type_id":"4","last_reported":1744687889,"current_range_meters":16800,"station_id":"ce4bgvp2rcd13ifvqcu0","pricing_plan_id":"cebpf4jnsgd1na2vs0mg"},{"bike_id":"32ef499e-ccb6-4e90-bac0-d4a1b914c43c","system_id":"levelo_inurba_marseille","lat":43.287273,"lon":5.360891,"is_reserved":false,"is_disabled":false,"rental_uris":{"android":"levelo://app?vid=32ef499e-ccb6-4e90-bac0-d4a1b914c43c","ios":"levelo://app?vid=32ef499e-ccb6-4e90-bac0-d4a1b914c43c"},"vehicle_type_id":"4","last_reported":1744687889,"current_range_meters":16800,"station_id":"cki0cbj6b192h4jlfktg","pricing_plan_id":"cebpf4jnsgd1na2vs0mg"},{"bike_id":"7282ea70-0923-45fc-a703-28d7b3244700","system_id":"levelo_inurba_marseille","lat":43.298075,"lon":5.404037,"is_reserved":false,"is_disabled":false,"rental_uris":{"android":"levelo://app?vid=7282ea70-0923-45fc-a703-28d7b3244700","ios":"levelo://app?vid=7282ea70-0923-45fc-a703-28d7b3244700"},"vehicle_type_id":"4","last_reported":1744687889,"current_range_meters":16800,"station_id":"ce4bh112rcd13ifvqd90","pricing_plan_id":"cebpf4jnsgd1na2vs0mg"},{"bike_id":"08ca8e63-35b8-4bc6-809a-f02ef51474bb","system_id":"levelo_inurba_marseille","lat":43.28692,"lon":5.37419,"is_reserved":false,"is_disabled":false,"rental_uris":{"android":"levelo://app?vid=08ca8e63-35b8-4bc6-809a-f02ef51474bb","ios":"levelo://app?vid=08ca8e63-35b8-4bc6-809a-f02ef51474bb"},"vehicle_type_id":"4","last_reported":1744687889,"current_range_meters":17200,"station_id":"ce4bh3p2rcd13ifvqdq0","pricing_plan_id":"cebpf4jnsgd1na2vs0mg"},{"bike_id":"795050b8-16c0-4966-8647-df1dbd8db37a","system_id":"levelo_inurba_marseille","lat":43.28413,"lon":5.37519,"is_reserved":false,"is_disabled":false,"rental_uris":{"android":"levelo://app?vid=795050b8-16c0-4966-8647-df1dbd8db37a","ios":"levelo://app?vid=795050b8-16c0-4966-8647-df1dbd8db37a"},"vehicle_type_id":"4","last_reported":1744687889,"current_range_meters":17200,"station_id":"ce4bh412rcd13ifvqds0","pricing_plan_id":"cebpf4jnsgd1na2vs0mg"},{"bike_id":"c1c136a9-3fe6-408a-a2d9-f5423d116933","system_id":"levelo_inurba_marseille","lat":43.280796,"lon":5.396411,"is_reserved":false,"is_disabled":false,"rental_uris":{"android":"levelo://app?vid=c1c136a9-3fe6-408a-a2d9-f5423d116933","ios":"levelo://app?vid=c1c136a9-3fe6-408a-a2d9-f5423d116933"},"vehicle_type_id":"4","last_reported":1744687889,"current_range_meters":17200,"station_id":"ce4bho12rcd13ifvqh2g","pricing_plan_id":"cebpf4jnsgd1na2vs0mg"},{"bike_id":"7eacb872-0584-4b06-8fad-feb612d3799a","system_id":"levelo_inurba_marseille","lat":43.29694,"lon":5.38168,"is_reserved":false,"is_disabled":false,"rental_uris":{"android":"levelo://app?vid=7eacb872-0584-4b06-8fad-feb612d3799a","ios":"levelo://app?vid=7eacb872-0584-4b06-8fad-feb612d3799a"},"vehicle_type_id":"4","last_reported":1744687889,"current_range_meters":17200,"station_id":"","pricing_plan_id":"cebpf4jnsgd1na2vs0mg"},{"bike_id":"686d071e-6131-4f0b-bcc4-ab3418cac800","system_id":"levelo_inurba_marseille","lat":43.28104,"lon":5.37829,"is_reserved":false,"is_disabled":false,"rental_uris":{"android":"levelo://app?vid=686d071e-6131-4f0b-bcc4-ab3418cac800","ios":"levelo://app?vid=686d071e-6131-4f0b-bcc4-ab3418cac800"},"vehicle_type_id":"4","last_reported":1744687889,"current_range_meters":17200,"station_id":"ce4bha12rcd13ifvqee0","pricing_plan_id":"cebpf4jnsgd1na2vs0mg"},{"bike_id":"e789c081-55ce-45f3-afe7-648e153d0191","system_id":"levelo_inurba_marseille","lat":43.31325,"lon":5.39694,"is_reserved":false,"is_disabled":false,"rental_uris":{"android":"levelo://app?vid=e789c081-55ce-45f3-afe7-648e153d0191","ios":"levelo://app?vid=e789c081-55ce-45f3-afe7-648e153d0191"},"vehicle_type_id":"4","last_reported":1744687889,"current_range_meters":17200,"station_id":"ce4bgvp2rcd13ifvqcu0","pricing_plan_id":"cebpf4jnsgd1na2vs0mg"},{"bike_id":"19d2c51d-2611-4656-94d9-2577c8052f6b","system_id":"levelo_inurba_marseille","lat":43.24649,"lon":5.38892,"is_reserved":false,"is_disabled":false,"rental_uris":{"android":"levelo://app?vid=19d2c51d-2611-4656-94d9-2577c8052f6b","ios":"levelo://app?vid=19d2c51d-2611-4656-94d9-2577c8052f6b"},"vehicle_type_id":"4","last_reported":1744687889,"current_range_meters":17200,"station_id":"ce4bhg12rcd13ifvqf60","pricing_plan_id":"cebpf4jnsgd1na2vs0mg"},{"bike_id":"5447dc62-fd60-4585-9283-08e72056710b","system_id":"levelo_inurba_marseille","lat":43.24825,"lon":5.37485,"is_reserved":false,"is_disabled":false,"rental_uris":{"android":"levelo://app?vid=5447dc62-fd60-4585-9283-08e72056710b","ios":"levelo://app?vid=5447dc62-fd60-4585-9283-08e72056710b"},"vehicle_type_id":"4","last_reported":1744687889,"current_range_meters":17200,"station_id":"","pricing_plan_id":"cebpf4jnsgd1na2vs0mg"},{"bike_id":"90ade505-5308-452c-ace7-cee618f45386","system_id":"levelo_inurba_marseille","lat":43.25281,"lon":5.399311,"is_reserved":false,"is_disabled":false,"rental_uris":{"android":"levelo://app?vid=90ade505-5308-452c-ace7-cee618f45386","ios":"levelo://app?vid=90ade505-5308-452c-ace7-cee618f45386"},"vehicle_type_id":"4","last_reported":1744687889,"current_range_meters":17200,"station_id":"","pricing_plan_id":"cebpf4jnsgd1na2vs0mg"},{"bike_id":"4aef0fa6-a0da-4fa2-9099-9fa1ba81c16a","system_id":"levelo_inurba_marseille","lat":43.28166,"lon":5.4044,"is_reserved":false,"is_disabled":false,"rental_uris":{"android":"levelo://app?vid=4aef0fa6-a0da-4fa2-9099-9fa1ba81c16a","ios":"levelo://app?vid=4aef0fa6-a0da-4fa2-9099-9fa1ba81c16a"},"vehicle_type_id":"4","last_reported":1744687889,"current_range_meters":17600,"station_id":"","pricing_plan_id":"cebpf4jnsgd1na2vs0mg"},{"bike_id":"10b67fc8-d7f4-4ca4-8342-e9ded53bf972","system_id":"levelo_inurba_marseille","lat":43.30105,"lon":5.39098,"is_reserved":false,"is_disabled":false,"rental_uris":{"android":"levelo://app?vid=10b67fc8-d7f4-4ca4-8342-e9ded53bf972","ios":"levelo://app?vid=10b67fc8-d7f4-4ca4-8342-e9ded53bf972"},"vehicle_type_id":"4","last_reported":1744687889,"current_range_meters":17600,"station_id":"ce4bh192rcd13ifvqdb0","pricing_plan_id":"cebpf4jnsgd1na2vs0mg"},{"bike_id":"013a924c-1ee5-4674-a305-ba7bd5a1d58b","system_id":"levelo_inurba_marseille","lat":43.23066,"lon":5.35525,"is_reserved":false,"is_disabled":false,"rental_uris":{"android":"levelo://app?vid=013a924c-1ee5-4674-a305-ba7bd5a1d58b","ios":"levelo://app?vid=013a924c-1ee5-4674-a305-ba7bd5a1d58b"},"vehicle_type_id":"4","last_reported":1744687889,"current_range_meters":17600,"station_id":"cpo3342slgdg3j2ifvpg","pricing_plan_id":"cebpf4jnsgd1na2vs0mg"},{"bike_id":"c8d24df4-b09f-432c-8af3-427efe4ed90b","system_id":"levelo_inurba_marseille","lat":43.3046,"lon":5.367056,"is_reserved":false,"is_disabled":false,"rental_uris":{"android":"levelo://app?vid=c8d24df4-b09f-432c-8af3-427efe4ed90b","ios":"levelo://app?vid=c8d24df4-b09f-432c-8af3-427efe4ed90b"},"vehicle_type_id":"4","last_reported":1744687889,"current_range_meters":17600,"station_id":"","pricing_plan_id":"cebpf4jnsgd1na2vs0mg"},{"bike_id":"9f815d1f-0f68-4c8f-b1b5-8479483fda1c","system_id":"levelo_inurba_marseille","lat":43.284056,"lon":5.375294,"is_reserved":false,"is_disabled":false,"rental_uris":{"android":"levelo://app?vid=9f815d1f-0f68-4c8f-b1b5-8479483fda1c","ios":"levelo://app?vid=9f815d1f-0f68-4c8f-b1b5-8479483fda1c"},"vehicle_type_id":"4","last_reported":1744687889,"current_range_meters":17600,"station_id":"ce4bh412rcd13ifvqds0","pricing_plan_id":"cebpf4jnsgd1na2vs0mg"},{"bike_id":"2caebf1c-7dd1-4d93-97aa-8cb87eccf6d4","system_id":"levelo_inurba_marseille","lat":43.31087,"lon":5.42468,"is_reserved":false,"is_disabled":false,"rental_uris":{"android":"levelo://app?vid=2caebf1c-7dd1-4d93-97aa-8cb87eccf6d4","ios":"levelo://app?vid=2caebf1c-7dd1-4d93-97aa-8cb87eccf6d4"},"vehicle_type_id":"4","last_reported":1744687889,"current_range_meters":17600,"station_id":"ce4bhp92rcd13ifvqhag","pricing_plan_id":"cebpf4jnsgd1na2vs0mg"},{"bike_id":"4a93a747-f5b1-4c0f-8ca3-b5460770f27d","system_id":"levelo_inurba_marseille","lat":43.23192,"lon":5.35556,"is_reserved":false,"is_disabled":false,"rental_uris":{"android":"levelo://app?vid=4a93a747-f5b1-4c0f-8ca3-b5460770f27d","ios":"levelo://app?vid=4a93a747-f5b1-4c0f-8ca3-b5460770f27d"},"vehicle_type_id":"4","last_reported":1744687889,"current_range_meters":17600,"station_id":"ce4bhu92rcd13ifvqi70","pricing_plan_id":"cebpf4jnsgd1na2vs0mg"},{"bike_id":"447b0138-f51d-4e74-8d74-14be01eaa9ba","system_id":"levelo_inurba_marseille","lat":43.297938,"lon":5.393456,"is_reserved":false,"is_disabled":false,"rental_uris":{"android":"levelo://app?vid=447b0138-f51d-4e74-8d74-14be01eaa9ba","ios":"levelo://app?vid=447b0138-f51d-4e74-8d74-14be01eaa9ba"},"vehicle_type_id":"4","last_reported":1744687889,"current_range_meters":17600,"station_id":"chh1huq6cuj3fo74tm60","pricing_plan_id":"cebpf4jnsgd1na2vs0mg"},{"bike_id":"53837df3-73ec-4e40-89dc-fba795da7d2e","system_id":"levelo_inurba_marseille","lat":43.28355,"lon":5.38126,"is_reserved":false,"is_disabled":false,"rental_uris":{"android":"levelo://app?vid=53837df3-73ec-4e40-89dc-fba795da7d2e","ios":"levelo://app?vid=53837df3-73ec-4e40-89dc-fba795da7d2e"},"vehicle_type_id":"4","last_reported":1744687889,"current_range_meters":17600,"station_id":"ce4bh412rcd13ifvqdr0","pricing_plan_id":"cebpf4jnsgd1na2vs0mg"},{"bike_id":"affbca8d-78d3-46b7-bfff-742df77116b5","system_id":"levelo_inurba_marseille","lat":43.28688,"lon":5.37368,"is_reserved":false,"is_disabled":false,"rental_uris":{"android":"levelo://app?vid=affbca8d-78d3-46b7-bfff-742df77116b5","ios":"levelo://app?vid=affbca8d-78d3-46b7-bfff-742df77116b5"},"vehicle_type_id":"4","last_reported":1744687889,"current_range_meters":18000,"station_id":"ce4bh3p2rcd13ifvqdq0","pricing_plan_id":"cebpf4jnsgd1na2vs0mg"},{"bike_id":"80dcdbb4-df1d-42b0-9b04-d3646089ba95","system_id":"levelo_inurba_marseille","lat":43.279286,"lon":5.395845,"is_reserved":false,"is_disabled":false,"rental_uris":{"android":"levelo://app?vid=80dcdbb4-df1d-42b0-9b04-d3646089ba95","ios":"levelo://app?vid=80dcdbb4-df1d-42b0-9b04-d3646089ba95"},"vehicle_type_id":"4","last_reported":1744687889,"current_range_meters":18000,"station_id":"ce4bhf92rcd13ifvqf40","pricing_plan_id":"cebpf4jnsgd1na2vs0mg"},{"bike_id":"f7878edf-3ed4-4a3d-b98f-7ed55c542240","system_id":"levelo_inurba_marseille","lat":43.2928,"lon":5.4012,"is_reserved":false,"is_disabled":false,"rental_uris":{"android":"levelo://app?vid=f7878edf-3ed4-4a3d-b98f-7ed55c542240","ios":"levelo://app?vid=f7878edf-3ed4-4a3d-b98f-7ed55c542240"},"vehicle_type_id":"4","last_reported":1744687889,"current_range_meters":18000,"station_id":"ce4bh312rcd13ifvqdk0","pricing_plan_id":"cebpf4jnsgd1na2vs0mg"},{"bike_id":"dae75ed9-5269-4b58-adc5-ffcf573b6ae1","system_id":"levelo_inurba_marseille","lat":43.30872,"lon":5.37213,"is_reserved":false,"is_disabled":true,"rental_uris":{"android":"levelo://app?vid=dae75ed9-5269-4b58-adc5-ffcf573b6ae1","ios":"levelo://app?vid=dae75ed9-5269-4b58-adc5-ffcf573b6ae1"},"vehicle_type_id":"4","last_reported":1744687889,"current_range_meters":18000,"station_id":"ce4bguh2rcd13ifvqckg","pricing_plan_id":"cebpf4jnsgd1na2vs0mg"},{"bike_id":"bfd7d593-9547-4a2e-b8f7-834a141e4476","system_id":"levelo_inurba_marseille","lat":43.24666,"lon":5.38138,"is_reserved":false,"is_disabled":false,"rental_uris":{"android":"levelo://app?vid=bfd7d593-9547-4a2e-b8f7-834a141e4476","ios":"levelo://app?vid=bfd7d593-9547-4a2e-b8f7-834a141e4476"},"vehicle_type_id":"4","last_reported":1744687889,"current_range_meters":18800,"station_id":"ce4bhih2rcd13ifvqfr0","pricing_plan_id":"cebpf4jnsgd1na2vs0mg"},{"bike_id":"504cf016-be85-40ae-bd6e-21fe1e837c30","system_id":"levelo_inurba_marseille","lat":43.324909,"lon":5.365583,"is_reserved":false,"is_disabled":false,"rental_uris":{"android":"levelo://app?vid=504cf016-be85-40ae-bd6e-21fe1e837c30","ios":"levelo://app?vid=504cf016-be85-40ae-bd6e-21fe1e837c30"},"vehicle_type_id":"4","last_reported":1744687889,"current_range_meters":18800,"station_id":"ce4bhs12rcd13ifvqhvg","pricing_plan_id":"cebpf4jnsgd1na2vs0mg"},{"bike_id":"19c15561-15c8-46a6-b989-83b9818249ad","system_id":"levelo_inurba_marseille","lat":43.29564,"lon":5.38107,"is_reserved":false,"is_disabled":false,"rental_uris":{"android":"levelo://app?vid=19c15561-15c8-46a6-b989-83b9818249ad","ios":"levelo://app?vid=19c15561-15c8-46a6-b989-83b9818249ad"},"vehicle_type_id":"4","last_reported":1744687889,"current_range_meters":18800,"station_id":"ce4bgl12rcd13ifvqbo0","pricing_plan_id":"cebpf4jnsgd1na2vs0mg"},{"bike_id":"3cf53dd6-8b21-4e6c-ba52-3a63109baf27","system_id":"levelo_inurba_marseille","lat":43.294515,"lon":5.385035,"is_reserved":false,"is_disabled":false,"rental_uris":{"android":"levelo://app?vid=3cf53dd6-8b21-4e6c-ba52-3a63109baf27","ios":"levelo://app?vid=3cf53dd6-8b21-4e6c-ba52-3a63109baf27"},"vehicle_type_id":"4","last_reported":1744687889,"current_range_meters":18800,"station_id":"","pricing_plan_id":"cebpf4jnsgd1na2vs0mg"},{"bike_id":"c97a8c32-1f93-407c-8e87-642551de8e17","system_id":"levelo_inurba_marseille","lat":43.292745,"lon":5.40113,"is_reserved":false,"is_disabled":false,"rental_uris":{"android":"levelo://app?vid=c97a8c32-1f93-407c-8e87-642551de8e17","ios":"levelo://app?vid=c97a8c32-1f93-407c-8e87-642551de8e17"},"vehicle_type_id":"4","last_reported":1744687889,"current_range_meters":18800,"station_id":"ce4bh312rcd13ifvqdk0","pricing_plan_id":"cebpf4jnsgd1na2vs0mg"},{"bike_id":"f23f9551-a55e-4dd8-8f18-06e789d6ec00","system_id":"levelo_inurba_marseille","lat":43.2842,"lon":5.3499,"is_reserved":false,"is_disabled":false,"rental_uris":{"android":"levelo://app?vid=f23f9551-a55e-4dd8-8f18-06e789d6ec00","ios":"levelo://app?vid=f23f9551-a55e-4dd8-8f18-06e789d6ec00"},"vehicle_type_id":"4","last_reported":1744687889,"current_range_meters":18800,"station_id":"ce4bhbh2rcd13ifvqepg","pricing_plan_id":"cebpf4jnsgd1na2vs0mg"},{"bike_id":"803ac8b3-e9c8-4809-9332-d502fce4e3b8","system_id":"levelo_inurba_marseille","lat":43.268036,"lon":5.402599,"is_reserved":false,"is_disabled":false,"rental_uris":{"android":"levelo://app?vid=803ac8b3-e9c8-4809-9332-d502fce4e3b8","ios":"levelo://app?vid=803ac8b3-e9c8-4809-9332-d502fce4e3b8"},"vehicle_type_id":"4","last_reported":1744687889,"current_range_meters":18800,"station_id":"ce501612rcd8frsf0b60","pricing_plan_id":"cebpf4jnsgd1na2vs0mg"},{"bike_id":"9769e90d-325c-4b4a-a25b-a96792ed5293","system_id":"levelo_inurba_marseille","lat":43.297895,"lon":5.39353,"is_reserved":false,"is_disabled":false,"rental_uris":{"android":"levelo://app?vid=9769e90d-325c-4b4a-a25b-a96792ed5293","ios":"levelo://app?vid=9769e90d-325c-4b4a-a25b-a96792ed5293"},"vehicle_type_id":"4","last_reported":1744687889,"current_range_meters":18800,"station_id":"chh1huq6cuj3fo74tm60","pricing_plan_id":"cebpf4jnsgd1na2vs0mg"},{"bike_id":"079b03f9-db21-40c1-9899-ccf83eb158be","system_id":"levelo_inurba_marseille","lat":43.308854,"lon":5.396408,"is_reserved":false,"is_disabled":false,"rental_uris":{"android":"levelo://app?vid=079b03f9-db21-40c1-9899-ccf83eb158be","ios":"levelo://app?vid=079b03f9-db21-40c1-9899-ccf83eb158be"},"vehicle_type_id":"4","last_reported":1744687889,"current_range_meters":18800,"station_id":"ce4bh012rcd13ifvqcv0","pricing_plan_id":"cebpf4jnsgd1na2vs0mg"},{"bike_id":"05664e36-336b-404a-b8de-2ca42d4238f0","system_id":"levelo_inurba_marseille","lat":43.25006,"lon":5.38183,"is_reserved":false,"is_disabled":false,"rental_uris":{"android":"levelo://app?vid=05664e36-336b-404a-b8de-2ca42d4238f0","ios":"levelo://app?vid=05664e36-336b-404a-b8de-2ca42d4238f0"},"vehicle_type_id":"4","last_reported":1744687889,"current_range_meters":18800,"station_id":"","pricing_plan_id":"cebpf4jnsgd1na2vs0mg"},{"bike_id":"f8a2aca9-a595-41b4-9746-786cf0fc2e07","system_id":"levelo_inurba_marseille","lat":43.295809,"lon":5.375043,"is_reserved":false,"is_disabled":true,"rental_uris":{"android":"levelo://app?vid=f8a2aca9-a595-41b4-9746-786cf0fc2e07","ios":"levelo://app?vid=f8a2aca9-a595-41b4-9746-786cf0fc2e07"},"vehicle_type_id":"4","last_reported":1744687889,"current_range_meters":19200,"station_id":"ce4bgh92rcd13ifvqb50","pricing_plan_id":"cebpf4jnsgd1na2vs0mg"},{"bike_id":"3863bcee-08b3-4b0a-9ee2-61a64262d924","system_id":"levelo_inurba_marseille","lat":43.29907,"lon":5.38128,"is_reserved":false,"is_disabled":false,"rental_uris":{"android":"levelo://app?vid=3863bcee-08b3-4b0a-9ee2-61a64262d924","ios":"levelo://app?vid=3863bcee-08b3-4b0a-9ee2-61a64262d924"},"vehicle_type_id":"4","last_reported":1744687889,"current_range_meters":19200,"station_id":"ce4bgj12rcd13ifvqbc0","pricing_plan_id":"cebpf4jnsgd1na2vs0mg"},{"bike_id":"5d58df85-a7c5-4c87-9736-3b1b20f3a4f9","system_id":"levelo_inurba_marseille","lat":43.28911,"lon":5.36419,"is_reserved":false,"is_disabled":true,"rental_uris":{"android":"levelo://app?vid=5d58df85-a7c5-4c87-9736-3b1b20f3a4f9","ios":"levelo://app?vid=5d58df85-a7c5-4c87-9736-3b1b20f3a4f9"},"vehicle_type_id":"4","last_reported":1744687889,"current_range_meters":19200,"station_id":"","pricing_plan_id":"cebpf4jnsgd1na2vs0mg"},{"bike_id":"e2183b1e-b3f1-404b-b3d3-510ec3ef77c0","system_id":"levelo_inurba_marseille","lat":43.281015,"lon":5.378328,"is_reserved":false,"is_disabled":false,"rental_uris":{"android":"levelo://app?vid=e2183b1e-b3f1-404b-b3d3-510ec3ef77c0","ios":"levelo://app?vid=e2183b1e-b3f1-404b-b3d3-510ec3ef77c0"},"vehicle_type_id":"4","last_reported":1744687889,"current_range_meters":19600,"station_id":"ce4bha12rcd13ifvqee0","pricing_plan_id":"cebpf4jnsgd1na2vs0mg"},{"bike_id":"f35ed168-71df-43cb-93de-9241fdfe2ff2","system_id":"levelo_inurba_marseille","lat":43.31761,"lon":5.39019,"is_reserved":false,"is_disabled":false,"rental_uris":{"android":"levelo://app?vid=f35ed168-71df-43cb-93de-9241fdfe2ff2","ios":"levelo://app?vid=f35ed168-71df-43cb-93de-9241fdfe2ff2"},"vehicle_type_id":"4","last_reported":1744687889,"current_range_meters":19600,"station_id":"ce4bhqp2rcd13ifvqhng","pricing_plan_id":"cebpf4jnsgd1na2vs0mg"},{"bike_id":"d2ff1eb5-8421-4af4-8b3e-ac1863520cda","system_id":"levelo_inurba_marseille","lat":43.279197,"lon":5.395844,"is_reserved":false,"is_disabled":false,"rental_uris":{"android":"levelo://app?vid=d2ff1eb5-8421-4af4-8b3e-ac1863520cda","ios":"levelo://app?vid=d2ff1eb5-8421-4af4-8b3e-ac1863520cda"},"vehicle_type_id":"4","last_reported":1744687889,"current_range_meters":19600,"station_id":"ce4bhf92rcd13ifvqf40","pricing_plan_id":"cebpf4jnsgd1na2vs0mg"},{"bike_id":"4d00c84e-12f0-4761-9b2f-094b53995bea","system_id":"levelo_inurba_marseille","lat":43.2834,"lon":5.38107,"is_reserved":false,"is_disabled":false,"rental_uris":{"android":"levelo://app?vid=4d00c84e-12f0-4761-9b2f-094b53995bea","ios":"levelo://app?vid=4d00c84e-12f0-4761-9b2f-094b53995bea"},"vehicle_type_id":"4","last_reported":1744687889,"current_range_meters":20000,"station_id":"ce4bh412rcd13ifvqdr0","pricing_plan_id":"cebpf4jnsgd1na2vs0mg"},{"bike_id":"b10fef5e-1b50-4f15-a670-c48c3ff830cb","system_id":"levelo_inurba_marseille","lat":43.32029,"lon":5.38113,"is_reserved":false,"is_disabled":false,"rental_uris":{"android":"levelo://app?vid=b10fef5e-1b50-4f15-a670-c48c3ff830cb","ios":"levelo://app?vid=b10fef5e-1b50-4f15-a670-c48c3ff830cb"},"vehicle_type_id":"4","last_reported":1744687889,"current_range_meters":20000,"station_id":"","pricing_plan_id":"cebpf4jnsgd1na2vs0mg"},{"bike_id":"396f2784-9564-438d-bf9a-316480e41a3e","system_id":"levelo_inurba_marseille","lat":43.25116,"lon":5.40339,"is_reserved":false,"is_disabled":false,"rental_uris":{"android":"levelo://app?vid=396f2784-9564-438d-bf9a-316480e41a3e","ios":"levelo://app?vid=396f2784-9564-438d-bf9a-316480e41a3e"},"vehicle_type_id":"4","last_reported":1744687889,"current_range_meters":20000,"station_id":"ce4bhlh2rcd13ifvqgig","pricing_plan_id":"cebpf4jnsgd1na2vs0mg"},{"bike_id":"37d43380-dd33-43e2-945d-54a4d347faee","system_id":"levelo_inurba_marseille","lat":43.2618,"lon":5.40624,"is_reserved":false,"is_disabled":false,"rental_uris":{"android":"levelo://app?vid=37d43380-dd33-43e2-945d-54a4d347faee","ios":"levelo://app?vid=37d43380-dd33-43e2-945d-54a4d347faee"},"vehicle_type_id":"4","last_reported":1744687889,"current_range_meters":20000,"station_id":"ce4bhmh2rcd13ifvqgmg","pricing_plan_id":"cebpf4jnsgd1na2vs0mg"},{"bike_id":"e61eb72d-2152-4e42-a8db-1ea20dfcb944","system_id":"levelo_inurba_marseille","lat":43.25081,"lon":5.39542,"is_reserved":false,"is_disabled":true,"rental_uris":{"android":"levelo://app?vid=e61eb72d-2152-4e42-a8db-1ea20dfcb944","ios":"levelo://app?vid=e61eb72d-2152-4e42-a8db-1ea20dfcb944"},"vehicle_type_id":"4","last_reported":1744687889,"current_range_meters":20000,"station_id":"ce4bhm12rcd13ifvqgkg","pricing_plan_id":"cebpf4jnsgd1na2vs0mg"},{"bike_id":"562fe525-e8ca-49df-b643-134667906845","system_id":"levelo_inurba_marseille","lat":43.24372,"lon":5.37065,"is_reserved":false,"is_disabled":false,"rental_uris":{"android":"levelo://app?vid=562fe525-e8ca-49df-b643-134667906845","ios":"levelo://app?vid=562fe525-e8ca-49df-b643-134667906845"},"vehicle_type_id":"4","last_reported":1744687889,"current_range_meters":20400,"station_id":"ce4bhhh2rcd13ifvqfk0","pricing_plan_id":"cebpf4jnsgd1na2vs0mg"},{"bike_id":"e574b3d2-7d50-422d-a320-1dbd226a92e3","system_id":"levelo_inurba_marseille","lat":43.24673,"lon":5.3816,"is_reserved":false,"is_disabled":false,"rental_uris":{"android":"levelo://app?vid=e574b3d2-7d50-422d-a320-1dbd226a92e3","ios":"levelo://app?vid=e574b3d2-7d50-422d-a320-1dbd226a92e3"},"vehicle_type_id":"4","last_reported":1744687889,"current_range_meters":20400,"station_id":"ce4bhih2rcd13ifvqfr0","pricing_plan_id":"cebpf4jnsgd1na2vs0mg"},{"bike_id":"fa4c2909-d365-4f55-8101-c90d1a93de8e","system_id":"levelo_inurba_marseille","lat":43.229256,"lon":5.353793,"is_reserved":false,"is_disabled":true,"rental_uris":{"android":"levelo://app?vid=fa4c2909-d365-4f55-8101-c90d1a93de8e","ios":"levelo://app?vid=fa4c2909-d365-4f55-8101-c90d1a93de8e"},"vehicle_type_id":"4","last_reported":1744687889,"current_range_meters":20400,"station_id":"cpo3532slgdg3j2ikp40","pricing_plan_id":"cebpf4jnsgd1na2vs0mg"},{"bike_id":"58865f51-d34a-49ac-8f37-d14aa3ef6ace","system_id":"levelo_inurba_marseille","lat":43.32418,"lon":5.39106,"is_reserved":false,"is_disabled":true,"rental_uris":{"android":"levelo://app?vid=58865f51-d34a-49ac-8f37-d14aa3ef6ace","ios":"levelo://app?vid=58865f51-d34a-49ac-8f37-d14aa3ef6ace"},"vehicle_type_id":"4","last_reported":1744687889,"current_range_meters":20400,"station_id":"","pricing_plan_id":"cebpf4jnsgd1na2vs0mg"},{"bike_id":"488ca2ad-29ab-4fd5-8ece-7e4ac0dd5749","system_id":"levelo_inurba_marseille","lat":43.28686,"lon":5.386704,"is_reserved":false,"is_disabled":false,"rental_uris":{"android":"levelo://app?vid=488ca2ad-29ab-4fd5-8ece-7e4ac0dd5749","ios":"levelo://app?vid=488ca2ad-29ab-4fd5-8ece-7e4ac0dd5749"},"vehicle_type_id":"4","last_reported":1744687889,"current_range_meters":20400,"station_id":"ce4bh492rcd13ifvqdug","pricing_plan_id":"cebpf4jnsgd1na2vs0mg"},{"bike_id":"db06721d-1ee1-431c-a317-214c373163e8","system_id":"levelo_inurba_marseille","lat":43.31084,"lon":5.4244,"is_reserved":false,"is_disabled":false,"rental_uris":{"android":"levelo://app?vid=db06721d-1ee1-431c-a317-214c373163e8","ios":"levelo://app?vid=db06721d-1ee1-431c-a317-214c373163e8"},"vehicle_type_id":"4","last_reported":1744687889,"current_range_meters":20400,"station_id":"ce4bhp92rcd13ifvqhag","pricing_plan_id":"cebpf4jnsgd1na2vs0mg"},{"bike_id":"34db5085-d418-4dbd-8526-5f1f824d59fe","system_id":"levelo_inurba_marseille","lat":43.29783,"lon":5.3938,"is_reserved":false,"is_disabled":false,"rental_uris":{"android":"levelo://app?vid=34db5085-d418-4dbd-8526-5f1f824d59fe","ios":"levelo://app?vid=34db5085-d418-4dbd-8526-5f1f824d59fe"},"vehicle_type_id":"4","last_reported":1744687889,"current_range_meters":20400,"station_id":"chh1huq6cuj3fo74tm60","pricing_plan_id":"cebpf4jnsgd1na2vs0mg"},{"bike_id":"f28ab945-c9df-4b0b-be4c-c2ea61470e17","system_id":"levelo_inurba_marseille","lat":43.324803,"lon":5.365665,"is_reserved":false,"is_disabled":false,"rental_uris":{"android":"levelo://app?vid=f28ab945-c9df-4b0b-be4c-c2ea61470e17","ios":"levelo://app?vid=f28ab945-c9df-4b0b-be4c-c2ea61470e17"},"vehicle_type_id":"4","last_reported":1744687889,"current_range_meters":20400,"station_id":"ce4bhs12rcd13ifvqhvg","pricing_plan_id":"cebpf4jnsgd1na2vs0mg"},{"bike_id":"4d4d0d48-2b72-44fe-b3a8-f9dca5bf8536","system_id":"levelo_inurba_marseille","lat":43.26558,"lon":5.372835,"is_reserved":false,"is_disabled":false,"rental_uris":{"android":"levelo://app?vid=4d4d0d48-2b72-44fe-b3a8-f9dca5bf8536","ios":"levelo://app?vid=4d4d0d48-2b72-44fe-b3a8-f9dca5bf8536"},"vehicle_type_id":"4","last_reported":1744687889,"current_range_meters":20800,"station_id":"ce4bhg12rcd13ifvqf70","pricing_plan_id":"cebpf4jnsgd1na2vs0mg"},{"bike_id":"a8ed8bfe-e018-4ae7-b755-72caf268e29f","system_id":"levelo_inurba_marseille","lat":43.30177,"lon":5.38091,"is_reserved":false,"is_disabled":true,"rental_uris":{"android":"levelo://app?vid=a8ed8bfe-e018-4ae7-b755-72caf268e29f","ios":"levelo://app?vid=a8ed8bfe-e018-4ae7-b755-72caf268e29f"},"vehicle_type_id":"4","last_reported":1744687889,"current_range_meters":20800,"station_id":"ce4bgjp2rcd13ifvqbh0","pricing_plan_id":"cebpf4jnsgd1na2vs0mg"},{"bike_id":"ee33e4a3-9ed1-445d-9974-26da2f858986","system_id":"levelo_inurba_marseille","lat":43.32421,"lon":5.39094,"is_reserved":false,"is_disabled":true,"rental_uris":{"android":"levelo://app?vid=ee33e4a3-9ed1-445d-9974-26da2f858986","ios":"levelo://app?vid=ee33e4a3-9ed1-445d-9974-26da2f858986"},"vehicle_type_id":"4","last_reported":1744687889,"current_range_meters":20800,"station_id":"","pricing_plan_id":"cebpf4jnsgd1na2vs0mg"},{"bike_id":"61e2dec8-2126-4a72-8370-3556050ebc47","system_id":"levelo_inurba_marseille","lat":43.30424,"lon":5.41274,"is_reserved":false,"is_disabled":false,"rental_uris":{"android":"levelo://app?vid=61e2dec8-2126-4a72-8370-3556050ebc47","ios":"levelo://app?vid=61e2dec8-2126-4a72-8370-3556050ebc47"},"vehicle_type_id":"4","last_reported":1744687889,"current_range_meters":21600,"station_id":"ce4bhop2rcd13ifvqh8g","pricing_plan_id":"cebpf4jnsgd1na2vs0mg"},{"bike_id":"68fa0d46-7071-4f65-8360-b33f91ad677c","system_id":"levelo_inurba_marseille","lat":43.29548,"lon":5.42288,"is_reserved":false,"is_disabled":false,"rental_uris":{"android":"levelo://app?vid=68fa0d46-7071-4f65-8360-b33f91ad677c","ios":"levelo://app?vid=68fa0d46-7071-4f65-8360-b33f91ad677c"},"vehicle_type_id":"4","last_reported":1744687889,"current_range_meters":21600,"station_id":"ce4bhph2rcd13ifvqhdg","pricing_plan_id":"cebpf4jnsgd1na2vs0mg"},{"bike_id":"c091204c-5446-44c1-bba7-68296743c23e","system_id":"levelo_inurba_marseille","lat":43.27035,"lon":5.40294,"is_reserved":false,"is_disabled":false,"rental_uris":{"android":"levelo://app?vid=c091204c-5446-44c1-bba7-68296743c23e","ios":"levelo://app?vid=c091204c-5446-44c1-bba7-68296743c23e"},"vehicle_type_id":"4","last_reported":1744687889,"current_range_meters":21600,"station_id":"ce4bhk92rcd13ifvqgc0","pricing_plan_id":"cebpf4jnsgd1na2vs0mg"},{"bike_id":"d63afb62-4f7a-4bbb-83e2-290006116b33","system_id":"levelo_inurba_marseille","lat":43.28411,"lon":5.3752,"is_reserved":false,"is_disabled":false,"rental_uris":{"android":"levelo://app?vid=d63afb62-4f7a-4bbb-83e2-290006116b33","ios":"levelo://app?vid=d63afb62-4f7a-4bbb-83e2-290006116b33"},"vehicle_type_id":"4","last_reported":1744687889,"current_range_meters":21600,"station_id":"ce4bh412rcd13ifvqds0","pricing_plan_id":"cebpf4jnsgd1na2vs0mg"},{"bike_id":"d48ca38b-c380-453a-95d0-89a1f1332df3","system_id":"levelo_inurba_marseille","lat":43.28862,"lon":5.35862,"is_reserved":false,"is_disabled":false,"rental_uris":{"android":"levelo://app?vid=d48ca38b-c380-453a-95d0-89a1f1332df3","ios":"levelo://app?vid=d48ca38b-c380-453a-95d0-89a1f1332df3"},"vehicle_type_id":"4","last_reported":1744687889,"current_range_meters":21600,"station_id":"ce4bhb12rcd13ifvqem0","pricing_plan_id":"cebpf4jnsgd1na2vs0mg"},{"bike_id":"df48cf7d-f898-49eb-87ea-51f5181e82f8","system_id":"levelo_inurba_marseille","lat":43.29254,"lon":5.37651,"is_reserved":false,"is_disabled":false,"rental_uris":{"android":"levelo://app?vid=df48cf7d-f898-49eb-87ea-51f5181e82f8","ios":"levelo://app?vid=df48cf7d-f898-49eb-87ea-51f5181e82f8"},"vehicle_type_id":"4","last_reported":1744687889,"current_range_meters":21600,"station_id":"ce4bgi12rcd13ifvqb80","pricing_plan_id":"cebpf4jnsgd1na2vs0mg"},{"bike_id":"c96f8076-74c1-4118-9f4e-192049c4ecb4","system_id":"levelo_inurba_marseille","lat":43.25815,"lon":5.39488,"is_reserved":false,"is_disabled":false,"rental_uris":{"android":"levelo://app?vid=c96f8076-74c1-4118-9f4e-192049c4ecb4","ios":"levelo://app?vid=c96f8076-74c1-4118-9f4e-192049c4ecb4"},"vehicle_type_id":"4","last_reported":1744687889,"current_range_meters":21600,"station_id":"ce4bhip2rcd13ifvqft0","pricing_plan_id":"cebpf4jnsgd1na2vs0mg"},{"bike_id":"fa8b5d88-c56b-4501-99c1-1b5a6dfd1f66","system_id":"levelo_inurba_marseille","lat":43.21171,"lon":5.35083,"is_reserved":false,"is_disabled":false,"rental_uris":{"android":"levelo://app?vid=fa8b5d88-c56b-4501-99c1-1b5a6dfd1f66","ios":"levelo://app?vid=fa8b5d88-c56b-4501-99c1-1b5a6dfd1f66"},"vehicle_type_id":"4","last_reported":1744687889,"current_range_meters":21600,"station_id":"st_cvj6sg6p6f1abm77japg","pricing_plan_id":"cebpf4jnsgd1na2vs0mg"},{"bike_id":"b6698060-0f55-4ea2-a965-703f68491dd0","system_id":"levelo_inurba_marseille","lat":43.24966,"lon":5.38941,"is_reserved":false,"is_disabled":false,"rental_uris":{"android":"levelo://app?vid=b6698060-0f55-4ea2-a965-703f68491dd0","ios":"levelo://app?vid=b6698060-0f55-4ea2-a965-703f68491dd0"},"vehicle_type_id":"4","last_reported":1744687889,"current_range_meters":22000,"station_id":"ce4bhgp2rcd13ifvqfd0","pricing_plan_id":"cebpf4jnsgd1na2vs0mg"},{"bike_id":"d7fc5277-51d3-410d-8282-0199be07a6f3","system_id":"levelo_inurba_marseille","lat":43.262219,"lon":5.4046,"is_reserved":false,"is_disabled":false,"rental_uris":{"android":"levelo://app?vid=d7fc5277-51d3-410d-8282-0199be07a6f3","ios":"levelo://app?vid=d7fc5277-51d3-410d-8282-0199be07a6f3"},"vehicle_type_id":"4","last_reported":1744687889,"current_range_meters":22000,"station_id":"ce4bhmh2rcd13ifvqgmg","pricing_plan_id":"cebpf4jnsgd1na2vs0mg"},{"bike_id":"7df30823-509e-46f1-8612-8c707669a797","system_id":"levelo_inurba_marseille","lat":43.30322,"lon":5.40473,"is_reserved":false,"is_disabled":false,"rental_uris":{"android":"levelo://app?vid=7df30823-509e-46f1-8612-8c707669a797","ios":"levelo://app?vid=7df30823-509e-46f1-8612-8c707669a797"},"vehicle_type_id":"4","last_reported":1744687889,"current_range_meters":22000,"station_id":"ce4bh012rcd13ifvqd10","pricing_plan_id":"cebpf4jnsgd1na2vs0mg"},{"bike_id":"1175d9e6-e3ac-4aa2-a551-bea3d9efc2c5","system_id":"levelo_inurba_marseille","lat":43.27975,"lon":5.41694,"is_reserved":false,"is_disabled":false,"rental_uris":{"android":"levelo://app?vid=1175d9e6-e3ac-4aa2-a551-bea3d9efc2c5","ios":"levelo://app?vid=1175d9e6-e3ac-4aa2-a551-bea3d9efc2c5"},"vehicle_type_id":"4","last_reported":1744687889,"current_range_meters":22400,"station_id":"ce4bho12rcd13ifvqh1g","pricing_plan_id":"cebpf4jnsgd1na2vs0mg"},{"bike_id":"6bf5a380-400e-4cd6-bc1e-356afac9ee45","system_id":"levelo_inurba_marseille","lat":43.24167,"lon":5.36406,"is_reserved":false,"is_disabled":false,"rental_uris":{"android":"levelo://app?vid=6bf5a380-400e-4cd6-bc1e-356afac9ee45","ios":"levelo://app?vid=6bf5a380-400e-4cd6-bc1e-356afac9ee45"},"vehicle_type_id":"4","last_reported":1744687889,"current_range_meters":22800,"station_id":"cpo36qri1sfpv3e86is0","pricing_plan_id":"cebpf4jnsgd1na2vs0mg"},{"bike_id":"f679fd29-cbc0-4c84-adeb-cc493c0ff6fb","system_id":"levelo_inurba_marseille","lat":43.28926,"lon":5.36628,"is_reserved":false,"is_disabled":false,"rental_uris":{"android":"levelo://app?vid=f679fd29-cbc0-4c84-adeb-cc493c0ff6fb","ios":"levelo://app?vid=f679fd29-cbc0-4c84-adeb-cc493c0ff6fb"},"vehicle_type_id":"4","last_reported":1744687889,"current_range_meters":22400,"station_id":"ce4bhap2rcd13ifvqek0","pricing_plan_id":"cebpf4jnsgd1na2vs0mg"},{"bike_id":"7ad0bf0f-5294-442b-8825-791f1416a999","system_id":"levelo_inurba_marseille","lat":43.241754,"lon":5.397314,"is_reserved":false,"is_disabled":false,"rental_uris":{"android":"levelo://app?vid=7ad0bf0f-5294-442b-8825-791f1416a999","ios":"levelo://app?vid=7ad0bf0f-5294-442b-8825-791f1416a999"},"vehicle_type_id":"4","last_reported":1744687889,"current_range_meters":22400,"station_id":"ce4bhn12rcd13ifvqgpg","pricing_plan_id":"cebpf4jnsgd1na2vs0mg"},{"bike_id":"ed884e62-a0a3-4003-9f0d-76d33ff3858a","system_id":"levelo_inurba_marseille","lat":43.284119,"lon":5.375281,"is_reserved":false,"is_disabled":false,"rental_uris":{"android":"levelo://app?vid=ed884e62-a0a3-4003-9f0d-76d33ff3858a","ios":"levelo://app?vid=ed884e62-a0a3-4003-9f0d-76d33ff3858a"},"vehicle_type_id":"4","last_reported":1744687889,"current_range_meters":22800,"station_id":"ce4bh412rcd13ifvqds0","pricing_plan_id":"cebpf4jnsgd1na2vs0mg"},{"bike_id":"cb954038-5440-4077-813c-1c30865f131a","system_id":"levelo_inurba_marseille","lat":43.31158,"lon":5.38718,"is_reserved":false,"is_disabled":false,"rental_uris":{"android":"levelo://app?vid=cb954038-5440-4077-813c-1c30865f131a","ios":"levelo://app?vid=cb954038-5440-4077-813c-1c30865f131a"},"vehicle_type_id":"4","last_reported":1744687889,"current_range_meters":22800,"station_id":"ce4bgv12rcd13ifvqcp0","pricing_plan_id":"cebpf4jnsgd1na2vs0mg"},{"bike_id":"473966a4-8134-4f96-a952-1f7a3ce10896","system_id":"levelo_inurba_marseille","lat":43.28412,"lon":5.37524,"is_reserved":false,"is_disabled":false,"rental_uris":{"android":"levelo://app?vid=473966a4-8134-4f96-a952-1f7a3ce10896","ios":"levelo://app?vid=473966a4-8134-4f96-a952-1f7a3ce10896"},"vehicle_type_id":"4","last_reported":1744687889,"current_range_meters":22800,"station_id":"ce4bh412rcd13ifvqds0","pricing_plan_id":"cebpf4jnsgd1na2vs0mg"},{"bike_id":"4c0ede51-6b22-44f8-8575-b86906a20779","system_id":"levelo_inurba_marseille","lat":43.21746,"lon":5.346126,"is_reserved":false,"is_disabled":false,"rental_uris":{"android":"levelo://app?vid=4c0ede51-6b22-44f8-8575-b86906a20779","ios":"levelo://app?vid=4c0ede51-6b22-44f8-8575-b86906a20779"},"vehicle_type_id":"4","last_reported":1744687889,"current_range_meters":22800,"station_id":"st_cvj6r9ubvosntc0bgbag","pricing_plan_id":"cebpf4jnsgd1na2vs0mg"},{"bike_id":"27135a2b-b9ea-427a-9ce5-5fc78073b3da","system_id":"levelo_inurba_marseille","lat":43.29902,"lon":5.38142,"is_reserved":false,"is_disabled":false,"rental_uris":{"android":"levelo://app?vid=27135a2b-b9ea-427a-9ce5-5fc78073b3da","ios":"levelo://app?vid=27135a2b-b9ea-427a-9ce5-5fc78073b3da"},"vehicle_type_id":"4","last_reported":1744687889,"current_range_meters":22800,"station_id":"ce4bgj12rcd13ifvqbc0","pricing_plan_id":"cebpf4jnsgd1na2vs0mg"},{"bike_id":"75aeda06-bbc2-4b16-85f7-54753a374ed6","system_id":"levelo_inurba_marseille","lat":43.23592,"lon":5.40346,"is_reserved":false,"is_disabled":false,"rental_uris":{"android":"levelo://app?vid=75aeda06-bbc2-4b16-85f7-54753a374ed6","ios":"levelo://app?vid=75aeda06-bbc2-4b16-85f7-54753a374ed6"},"vehicle_type_id":"4","last_reported":1744687889,"current_range_meters":22800,"station_id":"","pricing_plan_id":"cebpf4jnsgd1na2vs0mg"},{"bike_id":"4329c54f-aeab-4b0d-915a-2665705bf200","system_id":"levelo_inurba_marseille","lat":43.231498,"lon":5.437249,"is_reserved":false,"is_disabled":false,"rental_uris":{"android":"levelo://app?vid=4329c54f-aeab-4b0d-915a-2665705bf200","ios":"levelo://app?vid=4329c54f-aeab-4b0d-915a-2665705bf200"},"vehicle_type_id":"4","last_reported":1744687889,"current_range_meters":22400,"station_id":"ce4bhnh2rcd13ifvqgtg","pricing_plan_id":"cebpf4jnsgd1na2vs0mg"},{"bike_id":"4b35b685-5fed-4de4-838c-4970d7589d89","system_id":"levelo_inurba_marseille","lat":43.28714,"lon":5.40001,"is_reserved":false,"is_disabled":true,"rental_uris":{"android":"levelo://app?vid=4b35b685-5fed-4de4-838c-4970d7589d89","ios":"levelo://app?vid=4b35b685-5fed-4de4-838c-4970d7589d89"},"vehicle_type_id":"4","last_reported":1744687889,"current_range_meters":22800,"station_id":"ce4bho92rcd13ifvqh3g","pricing_plan_id":"cebpf4jnsgd1na2vs0mg"},{"bike_id":"960caa4c-48e7-4e00-bca7-aeefd828a0a0","system_id":"levelo_inurba_marseille","lat":43.27996,"lon":5.40975,"is_reserved":false,"is_disabled":false,"rental_uris":{"android":"levelo://app?vid=960caa4c-48e7-4e00-bca7-aeefd828a0a0","ios":"levelo://app?vid=960caa4c-48e7-4e00-bca7-aeefd828a0a0"},"vehicle_type_id":"4","last_reported":1744687889,"current_range_meters":23200,"station_id":"","pricing_plan_id":"cebpf4jnsgd1na2vs0mg"},{"bike_id":"174447d2-5dca-4955-b695-aa0dad7d99a5","system_id":"levelo_inurba_marseille","lat":43.28404,"lon":5.37536,"is_reserved":false,"is_disabled":false,"rental_uris":{"android":"levelo://app?vid=174447d2-5dca-4955-b695-aa0dad7d99a5","ios":"levelo://app?vid=174447d2-5dca-4955-b695-aa0dad7d99a5"},"vehicle_type_id":"4","last_reported":1744687889,"current_range_meters":23200,"station_id":"ce4bh412rcd13ifvqds0","pricing_plan_id":"cebpf4jnsgd1na2vs0mg"},{"bike_id":"cc081437-40fb-493f-a74f-e6f72a75a51c","system_id":"levelo_inurba_marseille","lat":43.279919,"lon":5.416628,"is_reserved":false,"is_disabled":false,"rental_uris":{"android":"levelo://app?vid=cc081437-40fb-493f-a74f-e6f72a75a51c","ios":"levelo://app?vid=cc081437-40fb-493f-a74f-e6f72a75a51c"},"vehicle_type_id":"4","last_reported":1744687889,"current_range_meters":23200,"station_id":"ce4bho12rcd13ifvqh1g","pricing_plan_id":"cebpf4jnsgd1na2vs0mg"},{"bike_id":"6c103f9f-c959-46ad-a2e8-e44f9660c68e","system_id":"levelo_inurba_marseille","lat":43.211915,"lon":5.35074,"is_reserved":false,"is_disabled":false,"rental_uris":{"android":"levelo://app?vid=6c103f9f-c959-46ad-a2e8-e44f9660c68e","ios":"levelo://app?vid=6c103f9f-c959-46ad-a2e8-e44f9660c68e"},"vehicle_type_id":"4","last_reported":1744687889,"current_range_meters":23200,"station_id":"st_cvj6sg6p6f1abm77japg","pricing_plan_id":"cebpf4jnsgd1na2vs0mg"},{"bike_id":"174c2c9b-2f0a-47fb-998b-9f7260f2f135","system_id":"levelo_inurba_marseille","lat":43.30735,"lon":5.42443,"is_reserved":false,"is_disabled":false,"rental_uris":{"android":"levelo://app?vid=174c2c9b-2f0a-47fb-998b-9f7260f2f135","ios":"levelo://app?vid=174c2c9b-2f0a-47fb-998b-9f7260f2f135"},"vehicle_type_id":"4","last_reported":1744687889,"current_range_meters":23200,"station_id":"st_cvj6ca6bvosntc0bfgr0","pricing_plan_id":"cebpf4jnsgd1na2vs0mg"},{"bike_id":"54ed31a1-8300-4a0a-abe1-cade456d6177","system_id":"levelo_inurba_marseille","lat":43.2655,"lon":5.3733,"is_reserved":false,"is_disabled":false,"rental_uris":{"android":"levelo://app?vid=54ed31a1-8300-4a0a-abe1-cade456d6177","ios":"levelo://app?vid=54ed31a1-8300-4a0a-abe1-cade456d6177"},"vehicle_type_id":"4","last_reported":1744687889,"current_range_meters":23200,"station_id":"ce4bhg12rcd13ifvqf70","pricing_plan_id":"cebpf4jnsgd1na2vs0mg"},{"bike_id":"98800d5c-390e-4bd7-9cf2-5968216e69f7","system_id":"levelo_inurba_marseille","lat":43.30932,"lon":5.4015,"is_reserved":false,"is_disabled":false,"rental_uris":{"android":"levelo://app?vid=98800d5c-390e-4bd7-9cf2-5968216e69f7","ios":"levelo://app?vid=98800d5c-390e-4bd7-9cf2-5968216e69f7"},"vehicle_type_id":"4","last_reported":1744687889,"current_range_meters":23200,"station_id":"ce4bgvp2rcd13ifvqct0","pricing_plan_id":"cebpf4jnsgd1na2vs0mg"},{"bike_id":"58496f5a-6999-4f0d-965f-fdea2711a3aa","system_id":"levelo_inurba_marseille","lat":43.28732,"lon":5.36071,"is_reserved":false,"is_disabled":false,"rental_uris":{"android":"levelo://app?vid=58496f5a-6999-4f0d-965f-fdea2711a3aa","ios":"levelo://app?vid=58496f5a-6999-4f0d-965f-fdea2711a3aa"},"vehicle_type_id":"4","last_reported":1744687889,"current_range_meters":23200,"station_id":"cki0cbj6b192h4jlfktg","pricing_plan_id":"cebpf4jnsgd1na2vs0mg"},{"bike_id":"bb3b0a26-cba0-4bb6-9bfb-1eb8a4924a73","system_id":"levelo_inurba_marseille","lat":43.25119,"lon":5.40338,"is_reserved":false,"is_disabled":false,"rental_uris":{"android":"levelo://app?vid=bb3b0a26-cba0-4bb6-9bfb-1eb8a4924a73","ios":"levelo://app?vid=bb3b0a26-cba0-4bb6-9bfb-1eb8a4924a73"},"vehicle_type_id":"4","last_reported":1744687889,"current_range_meters":23200,"station_id":"ce4bhlh2rcd13ifvqgig","pricing_plan_id":"cebpf4jnsgd1na2vs0mg"},{"bike_id":"b1fd3001-1e98-451c-bc84-1909f81ef141","system_id":"levelo_inurba_marseille","lat":43.30957,"lon":5.40172,"is_reserved":false,"is_disabled":false,"rental_uris":{"android":"levelo://app?vid=b1fd3001-1e98-451c-bc84-1909f81ef141","ios":"levelo://app?vid=b1fd3001-1e98-451c-bc84-1909f81ef141"},"vehicle_type_id":"4","last_reported":1744687889,"current_range_meters":23200,"station_id":"ce4bgvp2rcd13ifvqct0","pricing_plan_id":"cebpf4jnsgd1na2vs0mg"},{"bike_id":"3a99e86d-b0d8-453c-a01d-07c639df7246","system_id":"levelo_inurba_marseille","lat":43.28932,"lon":5.36407,"is_reserved":false,"is_disabled":false,"rental_uris":{"android":"levelo://app?vid=3a99e86d-b0d8-453c-a01d-07c639df7246","ios":"levelo://app?vid=3a99e86d-b0d8-453c-a01d-07c639df7246"},"vehicle_type_id":"4","last_reported":1744687889,"current_range_meters":23200,"station_id":"ce4bhc92rcd13ifvqetg","pricing_plan_id":"cebpf4jnsgd1na2vs0mg"},{"bike_id":"f303230e-6566-4476-86b5-02259f66ff53","system_id":"levelo_inurba_marseille","lat":43.30306,"lon":5.36927,"is_reserved":false,"is_disabled":false,"rental_uris":{"android":"levelo://app?vid=f303230e-6566-4476-86b5-02259f66ff53","ios":"levelo://app?vid=f303230e-6566-4476-86b5-02259f66ff53"},"vehicle_type_id":"4","last_reported":1744687889,"current_range_meters":23200,"station_id":"ce4bgqh2rcd13ifvqc5g","pricing_plan_id":"cebpf4jnsgd1na2vs0mg"},{"bike_id":"d6fee597-3293-47ae-914e-c48760e9f772","system_id":"levelo_inurba_marseille","lat":43.24062,"lon":5.37767,"is_reserved":false,"is_disabled":false,"rental_uris":{"android":"levelo://app?vid=d6fee597-3293-47ae-914e-c48760e9f772","ios":"levelo://app?vid=d6fee597-3293-47ae-914e-c48760e9f772"},"vehicle_type_id":"4","last_reported":1744687889,"current_range_meters":23200,"station_id":"ce4bhnp2rcd13ifvqgvg","pricing_plan_id":"cebpf4jnsgd1na2vs0mg"},{"bike_id":"a0af95fc-17ee-48c4-a528-672ae8d61f1c","system_id":"levelo_inurba_marseille","lat":43.29903,"lon":5.43704,"is_reserved":false,"is_disabled":false,"rental_uris":{"android":"levelo://app?vid=a0af95fc-17ee-48c4-a528-672ae8d61f1c","ios":"levelo://app?vid=a0af95fc-17ee-48c4-a528-672ae8d61f1c"},"vehicle_type_id":"4","last_reported":1744687889,"current_range_meters":24000,"station_id":"","pricing_plan_id":"cebpf4jnsgd1na2vs0mg"},{"bike_id":"2d52fd6d-9991-4375-b654-4d69715d69d6","system_id":"levelo_inurba_marseille","lat":43.28706,"lon":5.37424,"is_reserved":false,"is_disabled":false,"rental_uris":{"android":"levelo://app?vid=2d52fd6d-9991-4375-b654-4d69715d69d6","ios":"levelo://app?vid=2d52fd6d-9991-4375-b654-4d69715d69d6"},"vehicle_type_id":"4","last_reported":1744687889,"current_range_meters":24000,"station_id":"ce4bh3p2rcd13ifvqdq0","pricing_plan_id":"cebpf4jnsgd1na2vs0mg"},{"bike_id":"c7f73e13-ce32-4228-9caa-cab90da998f5","system_id":"levelo_inurba_marseille","lat":43.29532,"lon":5.39073,"is_reserved":false,"is_disabled":true,"rental_uris":{"android":"levelo://app?vid=c7f73e13-ce32-4228-9caa-cab90da998f5","ios":"levelo://app?vid=c7f73e13-ce32-4228-9caa-cab90da998f5"},"vehicle_type_id":"4","last_reported":1744687889,"current_range_meters":24000,"station_id":"ce4bh3p2rcd13ifvqdp0","pricing_plan_id":"cebpf4jnsgd1na2vs0mg"},{"bike_id":"b7bf3f04-046b-4e36-a002-af53047681ce","system_id":"levelo_inurba_marseille","lat":43.24681,"lon":5.38149,"is_reserved":false,"is_disabled":false,"rental_uris":{"android":"levelo://app?vid=b7bf3f04-046b-4e36-a002-af53047681ce","ios":"levelo://app?vid=b7bf3f04-046b-4e36-a002-af53047681ce"},"vehicle_type_id":"4","last_reported":1744687889,"current_range_meters":24000,"station_id":"ce4bhih2rcd13ifvqfr0","pricing_plan_id":"cebpf4jnsgd1na2vs0mg"},{"bike_id":"497ce4e7-3b4f-456f-84da-71b5a2735a1d","system_id":"levelo_inurba_marseille","lat":43.289256,"lon":5.384005,"is_reserved":false,"is_disabled":false,"rental_uris":{"android":"levelo://app?vid=497ce4e7-3b4f-456f-84da-71b5a2735a1d","ios":"levelo://app?vid=497ce4e7-3b4f-456f-84da-71b5a2735a1d"},"vehicle_type_id":"4","last_reported":1744687889,"current_range_meters":24000,"station_id":"ce4bh612rcd13ifvqe6g","pricing_plan_id":"cebpf4jnsgd1na2vs0mg"},{"bike_id":"8df07517-2b52-4ade-9f99-8e7da2882485","system_id":"levelo_inurba_marseille","lat":43.31342,"lon":5.3974,"is_reserved":false,"is_disabled":false,"rental_uris":{"android":"levelo://app?vid=8df07517-2b52-4ade-9f99-8e7da2882485","ios":"levelo://app?vid=8df07517-2b52-4ade-9f99-8e7da2882485"},"vehicle_type_id":"4","last_reported":1744687889,"current_range_meters":24000,"station_id":"ce4bgvp2rcd13ifvqcu0","pricing_plan_id":"cebpf4jnsgd1na2vs0mg"},{"bike_id":"372551f9-178a-4f79-8ea0-011ff75d1046","system_id":"levelo_inurba_marseille","lat":43.303,"lon":5.39201,"is_reserved":false,"is_disabled":false,"rental_uris":{"android":"levelo://app?vid=372551f9-178a-4f79-8ea0-011ff75d1046","ios":"levelo://app?vid=372551f9-178a-4f79-8ea0-011ff75d1046"},