{"last_updated":1728551411,"ttl":60,"version":"2.2","data":{"bikes":[{"bike_id":"ddb9679b-c37e-4bea-beb9-d80ba93eccb3","system_id":"levelo_inurba_marseille","lat":43.30185,"lon":5.3662,"is_reserved":false,"is_disabled":false,"rental_uris":{"android":"levelo://app?vid=ddb9679b-c37e-4bea-beb9-d80ba93eccb3","ios":"levelo://app?vid=ddb9679b-c37e-4bea-beb9-d80ba93eccb3"},"vehicle_type_id":"4","last_reported":1728551411,"current_range_meters":10000,"station_id":"ce4bgrh2rcd13ifvqc8g","pricing_plan_id":"cebpf4jnsgd1na2vs0mg"},{"bike_id":"a844b13d-b510-4a63-99eb-1b32722974a6","system_id":"levelo_inurba_marseille","lat":43.28617,"lon":5.35096,"is_reserved":false,"is_disabled":false,"rental_uris":{"android":"levelo://app?vid=a844b13d-b510-4a63-99eb-1b32722974a6","ios":"levelo://app?vid=a844b13d-b510-4a63-99eb-1b32722974a6"},"vehicle_type_id":"4","last_reported":1728551411,"current_range_meters":38800,"station_id":"ce4bhch2rcd13ifvqeug","pricing_plan_id":"cebpf4jnsgd1na2vs0mg"},{"bike_id":"a98fea86-7b76-4a27-a087-50acf14b5688","system_id":"levelo_inurba_marseille","lat":43.25002,"lon":5.38925,"is_reserved":false,"is_disabled":false,"rental_uris":{"android":"levelo://app?vid=a98fea86-7b76-4a27-a087-50acf14b5688","ios":"levelo://app?vid=a98fea86-7b76-4a27-a087-50acf14b5688"},"vehicle_type_id":"4","last_reported":1728551411,"current_range_meters":36400,"station_id":"ce4bhgp2rcd13ifvqfd0","pricing_plan_id":"cebpf4jnsgd1na2vs0mg"},{"bike_id":"e71333af-3d95-40b1-befa-1ad7c590b6c3","system_id":"levelo_inurba_marseille","lat":43.31216,"lon":5.36862,"is_reserved":false,"is_disabled":false,"rental_uris":{"android":"levelo://app?vid=e71333af-3d95-40b1-befa-1ad7c590b6c3","ios":"levelo://app?vid=e71333af-3d95-40b1-befa-1ad7c590b6c3"},"vehicle_type_id":"4","last_reported":1728551411,"current_range_meters":18800,"station_id":"ce4bgl92rcd13ifvqbq0","pricing_plan_id":"cebpf4jnsgd1na2vs0mg"},{"bike_id":"69e77010-a535-4398-8159-24f48f4c7d15","system_id":"levelo_inurba_marseille","lat":43.23062,"lon":5.35501,"is_reserved":false,"is_disabled":false,"rental_uris":{"android":"levelo://app?vid=69e77010-a535-4398-8159-24f48f4c7d15","ios":"levelo://app?vid=69e77010-a535-4398-8159-24f48f4c7d15"},"vehicle_type_id":"4","last_reported":1728551411,"current_range_meters":4000,"station_id":"cpo3342slgdg3j2ifvpg","pricing_plan_id":"cebpf4jnsgd1na2vs0mg"},{"bike_id":"bcffacb3-09e9-4950-8ca6-dd7a0d610430","system_id":"levelo_inurba_marseille","lat":43.30599,"lon":5.39356,"is_reserved":false,"is_disabled":false,"rental_uris":{"android":"levelo://app?vid=bcffacb3-09e9-4950-8ca6-dd7a0d610430","ios":"levelo://app?vid=bcffacb3-09e9-4950-8ca6-dd7a0d610430"},"vehicle_type_id":"4","last_reported":1728551411,"current_range_meters":30000,"station_id":"ce4bh0p2rcd13ifvqd80","pricing_plan_id":"cebpf4jnsgd1na2vs0mg"},{"bike_id":"be2526ad-2142-4c6e-a006-66ddcec85d70","system_id":"levelo_inurba_marseille","lat":43.33607,"lon":5.41041,"is_reserved":false,"is_disabled":false,"rental_uris":{"android":"levelo://app?vid=be2526ad-2142-4c6e-a006-66ddcec85d70","ios":"levelo://app?vid=be2526ad-2142-4c6e-a006-66ddcec85d70"},"vehicle_type_id":"4","last_reported":1728551411,"current_range_meters":16800,"station_id":"ce4bhqh2rcd13ifvqhmg","pricing_plan_id":"cebpf4jnsgd1na2vs0mg"},{"bike_id":"dafedb81-1239-4118-8887-fcfc30e06410","system_id":"levelo_inurba_marseille","lat":43.30459,"lon":5.37902,"is_reserved":false,"is_disabled":false,"rental_uris":{"android":"levelo://app?vid=dafedb81-1239-4118-8887-fcfc30e06410","ios":"levelo://app?vid=dafedb81-1239-4118-8887-fcfc30e06410"},"vehicle_type_id":"4","last_reported":1728551411,"current_range_meters":22000,"station_id":"ce4bgup2rcd13ifvqcn0","pricing_plan_id":"cebpf4jnsgd1na2vs0mg"},{"bike_id":"fef204cd-3f7b-4866-b6e5-697771a3d001","system_id":"levelo_inurba_marseille","lat":43.30909,"lon":5.36857,"is_reserved":false,"is_disabled":false,"rental_uris":{"android":"levelo://app?vid=fef204cd-3f7b-4866-b6e5-697771a3d001","ios":"levelo://app?vid=fef204cd-3f7b-4866-b6e5-697771a3d001"},"vehicle_type_id":"4","last_reported":1728551411,"current_range_meters":39200,"station_id":"ce4bgn92rcd13ifvqbvg","pricing_plan_id":"cebpf4jnsgd1na2vs0mg"},{"bike_id":"c450f177-f1a9-4222-a407-0cd6acaa3389","system_id":"levelo_inurba_marseille","lat":43.2621,"lon":5.37447,"is_reserved":false,"is_disabled":false,"rental_uris":{"android":"levelo://app?vid=c450f177-f1a9-4222-a407-0cd6acaa3389","ios":"levelo://app?vid=c450f177-f1a9-4222-a407-0cd6acaa3389"},"vehicle_type_id":"4","last_reported":1728551411,"current_range_meters":19600,"station_id":"ce4bhgp2rcd13ifvqfc0","pricing_plan_id":"cebpf4jnsgd1na2vs0mg"},{"bike_id":"231b1950-e540-4e73-8e5d-507ebfc49339","system_id":"levelo_inurba_marseille","lat":43.29925,"lon":5.37454,"is_reserved":false,"is_disabled":false,"rental_uris":{"android":"levelo://app?vid=231b1950-e540-4e73-8e5d-507ebfc49339","ios":"levelo://app?vid=231b1950-e540-4e73-8e5d-507ebfc49339"},"vehicle_type_id":"4","last_reported":1728551411,"current_range_meters":26000,"station_id":"ce4bgjh2rcd13ifvqbg0","pricing_plan_id":"cebpf4jnsgd1na2vs0mg"},{"bike_id":"34b7163e-2eaf-469a-ac40-2e426f929a97","system_id":"levelo_inurba_marseille","lat":43.29299,"lon":5.37464,"is_reserved":false,"is_disabled":false,"rental_uris":{"android":"levelo://app?vid=34b7163e-2eaf-469a-ac40-2e426f929a97","ios":"levelo://app?vid=34b7163e-2eaf-469a-ac40-2e426f929a97"},"vehicle_type_id":"4","last_reported":1728551411,"current_range_meters":24400,"station_id":"ce4bgi12rcd13ifvqb70","pricing_plan_id":"cebpf4jnsgd1na2vs0mg"},{"bike_id":"cc48e78b-0de2-48fc-bd8c-835ef145dac9","system_id":"levelo_inurba_marseille","lat":43.28154,"lon":5.42652,"is_reserved":false,"is_disabled":false,"rental_uris":{"android":"levelo://app?vid=cc48e78b-0de2-48fc-bd8c-835ef145dac9","ios":"levelo://app?vid=cc48e78b-0de2-48fc-bd8c-835ef145dac9"},"vehicle_type_id":"4","last_reported":1728551411,"current_range_meters":26800,"station_id":"ce4bhnh2rcd13ifvqgug","pricing_plan_id":"cebpf4jnsgd1na2vs0mg"},{"bike_id":"b6238d41-ee15-425a-90f4-5765634a5d7f","system_id":"levelo_inurba_marseille","lat":43.23151,"lon":5.43711,"is_reserved":false,"is_disabled":false,"rental_uris":{"android":"levelo://app?vid=b6238d41-ee15-425a-90f4-5765634a5d7f","ios":"levelo://app?vid=b6238d41-ee15-425a-90f4-5765634a5d7f"},"vehicle_type_id":"4","last_reported":1728551411,"current_range_meters":38400,"station_id":"ce4bhmp2rcd13ifvqgog","pricing_plan_id":"cebpf4jnsgd1na2vs0mg"},{"bike_id":"296d1880-4a03-4d23-a9cc-51df04a4af16","system_id":"levelo_inurba_marseille","lat":43.337444,"lon":5.374475,"is_reserved":false,"is_disabled":false,"rental_uris":{"android":"levelo://app?vid=296d1880-4a03-4d23-a9cc-51df04a4af16","ios":"levelo://app?vid=296d1880-4a03-4d23-a9cc-51df04a4af16"},"vehicle_type_id":"4","last_reported":1728551411,"current_range_meters":36800,"station_id":"","pricing_plan_id":"cebpf4jnsgd1na2vs0mg"},{"bike_id":"729d92a6-b5d4-421f-82bd-c3e31fbc602e","system_id":"levelo_inurba_marseille","lat":43.23154,"lon":5.43717,"is_reserved":false,"is_disabled":false,"rental_uris":{"android":"levelo://app?vid=729d92a6-b5d4-421f-82bd-c3e31fbc602e","ios":"levelo://app?vid=729d92a6-b5d4-421f-82bd-c3e31fbc602e"},"vehicle_type_id":"4","last_reported":1728551411,"current_range_meters":38800,"station_id":"ce4bhmp2rcd13ifvqgog","pricing_plan_id":"cebpf4jnsgd1na2vs0mg"},{"bike_id":"6cb2fd54-0aca-4f7d-aadb-bc057dc4fb59","system_id":"levelo_inurba_marseille","lat":43.23055,"lon":5.35495,"is_reserved":false,"is_disabled":false,"rental_uris":{"android":"levelo://app?vid=6cb2fd54-0aca-4f7d-aadb-bc057dc4fb59","ios":"levelo://app?vid=6cb2fd54-0aca-4f7d-aadb-bc057dc4fb59"},"vehicle_type_id":"4","last_reported":1728551411,"current_range_meters":34000,"station_id":"cpo3342slgdg3j2ifvpg","pricing_plan_id":"cebpf4jnsgd1na2vs0mg"},{"bike_id":"bb6b01ef-1662-4269-88f4-43afb67e5d01","system_id":"levelo_inurba_marseille","lat":43.30367,"lon":5.40622,"is_reserved":false,"is_disabled":false,"rental_uris":{"android":"levelo://app?vid=bb6b01ef-1662-4269-88f4-43afb67e5d01","ios":"levelo://app?vid=bb6b01ef-1662-4269-88f4-43afb67e5d01"},"vehicle_type_id":"4","last_reported":1728551411,"current_range_meters":31200,"station_id":"","pricing_plan_id":"cebpf4jnsgd1na2vs0mg"},{"bike_id":"886aa239-0ce6-4cc7-a1be-709bc947b872","system_id":"levelo_inurba_marseille","lat":43.28151,"lon":5.42652,"is_reserved":false,"is_disabled":false,"rental_uris":{"android":"levelo://app?vid=886aa239-0ce6-4cc7-a1be-709bc947b872","ios":"levelo://app?vid=886aa239-0ce6-4cc7-a1be-709bc947b872"},"vehicle_type_id":"4","last_reported":1728551411,"current_range_meters":7200,"station_id":"ce4bhnh2rcd13ifvqgug","pricing_plan_id":"cebpf4jnsgd1na2vs0mg"},{"bike_id":"6ac01319-5f01-43b5-b52d-79391e18b456","system_id":"levelo_inurba_marseille","lat":43.24184,"lon":5.39718,"is_reserved":false,"is_disabled":false,"rental_uris":{"android":"levelo://app?vid=6ac01319-5f01-43b5-b52d-79391e18b456","ios":"levelo://app?vid=6ac01319-5f01-43b5-b52d-79391e18b456"},"vehicle_type_id":"4","last_reported":1728551411,"current_range_meters":36800,"station_id":"ce4bhn12rcd13ifvqgpg","pricing_plan_id":"cebpf4jnsgd1na2vs0mg"},{"bike_id":"4268886b-13b1-49ed-9a8a-92003adc0de3","system_id":"levelo_inurba_marseille","lat":43.3015,"lon":5.38092,"is_reserved":false,"is_disabled":false,"rental_uris":{"android":"levelo://app?vid=4268886b-13b1-49ed-9a8a-92003adc0de3","ios":"levelo://app?vid=4268886b-13b1-49ed-9a8a-92003adc0de3"},"vehicle_type_id":"4","last_reported":1728551411,"current_range_meters":27600,"station_id":"ce4bgjp2rcd13ifvqbh0","pricing_plan_id":"cebpf4jnsgd1na2vs0mg"},{"bike_id":"39d4f329-5b71-4253-bb84-effb88455907","system_id":"levelo_inurba_marseille","lat":43.31755,"lon":5.39029,"is_reserved":false,"is_disabled":false,"rental_uris":{"android":"levelo://app?vid=39d4f329-5b71-4253-bb84-effb88455907","ios":"levelo://app?vid=39d4f329-5b71-4253-bb84-effb88455907"},"vehicle_type_id":"4","last_reported":1728551411,"current_range_meters":33600,"station_id":"ce4bhqp2rcd13ifvqhng","pricing_plan_id":"cebpf4jnsgd1na2vs0mg"},{"bike_id":"b1cbf5cb-b13d-4c96-b713-c3c3911b1d3a","system_id":"levelo_inurba_marseille","lat":43.30531,"lon":5.367,"is_reserved":false,"is_disabled":false,"rental_uris":{"android":"levelo://app?vid=b1cbf5cb-b13d-4c96-b713-c3c3911b1d3a","ios":"levelo://app?vid=b1cbf5cb-b13d-4c96-b713-c3c3911b1d3a"},"vehicle_type_id":"4","last_reported":1728551411,"current_range_meters":38800,"station_id":"ce4bgrp2rcd13ifvqc9g","pricing_plan_id":"cebpf4jnsgd1na2vs0mg"},{"bike_id":"96cb08de-30b2-404b-a5df-2565e238372c","system_id":"levelo_inurba_marseille","lat":43.24082,"lon":5.37749,"is_reserved":false,"is_disabled":false,"rental_uris":{"android":"levelo://app?vid=96cb08de-30b2-404b-a5df-2565e238372c","ios":"levelo://app?vid=96cb08de-30b2-404b-a5df-2565e238372c"},"vehicle_type_id":"4","last_reported":1728551411,"current_range_meters":28400,"station_id":"ce4bhnp2rcd13ifvqgvg","pricing_plan_id":"cebpf4jnsgd1na2vs0mg"},{"bike_id":"aced1d41-b218-4a90-9936-8ea7e6b72e24","system_id":"levelo_inurba_marseille","lat":43.31348,"lon":5.3671,"is_reserved":false,"is_disabled":false,"rental_uris":{"android":"levelo://app?vid=aced1d41-b218-4a90-9936-8ea7e6b72e24","ios":"levelo://app?vid=aced1d41-b218-4a90-9936-8ea7e6b72e24"},"vehicle_type_id":"4","last_reported":1728551411,"current_range_meters":28000,"station_id":"ce4bgr92rcd13ifvqc6g","pricing_plan_id":"cebpf4jnsgd1na2vs0mg"},{"bike_id":"a4cfb676-c3d4-47c3-81cb-4244f3fedb71","system_id":"levelo_inurba_marseille","lat":43.30279,"lon":5.37704,"is_reserved":false,"is_disabled":false,"rental_uris":{"android":"levelo://app?vid=a4cfb676-c3d4-47c3-81cb-4244f3fedb71","ios":"levelo://app?vid=a4cfb676-c3d4-47c3-81cb-4244f3fedb71"},"vehicle_type_id":"4","last_reported":1728551411,"current_range_meters":30400,"station_id":"ce4bguh2rcd13ifvqcj0","pricing_plan_id":"cebpf4jnsgd1na2vs0mg"},{"bike_id":"f6bf5e78-e02a-49cf-ae5b-dea2523589f8","system_id":"levelo_inurba_marseille","lat":43.29227,"lon":5.36065,"is_reserved":false,"is_disabled":false,"rental_uris":{"android":"levelo://app?vid=f6bf5e78-e02a-49cf-ae5b-dea2523589f8","ios":"levelo://app?vid=f6bf5e78-e02a-49cf-ae5b-dea2523589f8"},"vehicle_type_id":"4","last_reported":1728551411,"current_range_meters":4400,"station_id":"ce4bhbh2rcd13ifvqeqg","pricing_plan_id":"cebpf4jnsgd1na2vs0mg"},{"bike_id":"6cdc9c20-4f47-4f7e-b704-ec3b35d2e12e","system_id":"levelo_inurba_marseille","lat":43.24081,"lon":5.37755,"is_reserved":false,"is_disabled":false,"rental_uris":{"android":"levelo://app?vid=6cdc9c20-4f47-4f7e-b704-ec3b35d2e12e","ios":"levelo://app?vid=6cdc9c20-4f47-4f7e-b704-ec3b35d2e12e"},"vehicle_type_id":"4","last_reported":1728551411,"current_range_meters":32400,"station_id":"ce4bhnp2rcd13ifvqgvg","pricing_plan_id":"cebpf4jnsgd1na2vs0mg"},{"bike_id":"617e07b5-0a07-462a-a863-f9730d665751","system_id":"levelo_inurba_marseille","lat":43.30646,"lon":5.40104,"is_reserved":false,"is_disabled":false,"rental_uris":{"android":"levelo://app?vid=617e07b5-0a07-462a-a863-f9730d665751","ios":"levelo://app?vid=617e07b5-0a07-462a-a863-f9730d665751"},"vehicle_type_id":"4","last_reported":1728551411,"current_range_meters":29600,"station_id":"ce4bh112rcd13ifvqda0","pricing_plan_id":"cebpf4jnsgd1na2vs0mg"},{"bike_id":"0383e821-f7aa-4bba-a5f5-642d7a1d6b38","system_id":"levelo_inurba_marseille","lat":43.2749,"lon":5.4247,"is_reserved":false,"is_disabled":false,"rental_uris":{"android":"levelo://app?vid=0383e821-f7aa-4bba-a5f5-642d7a1d6b38","ios":"levelo://app?vid=0383e821-f7aa-4bba-a5f5-642d7a1d6b38"},"vehicle_type_id":"4","last_reported":1728551411,"current_range_meters":29600,"station_id":"ce4bhn92rcd13ifvqgrg","pricing_plan_id":"cebpf4jnsgd1na2vs0mg"},{"bike_id":"e872fc30-3c57-4a83-b46e-c9748d4c279a","system_id":"levelo_inurba_marseille","lat":43.33722,"lon":5.39199,"is_reserved":false,"is_disabled":false,"rental_uris":{"android":"levelo://app?vid=e872fc30-3c57-4a83-b46e-c9748d4c279a","ios":"levelo://app?vid=e872fc30-3c57-4a83-b46e-c9748d4c279a"},"vehicle_type_id":"4","last_reported":1728551411,"current_range_meters":26800,"station_id":"ce4bhr92rcd13ifvqhsg","pricing_plan_id":"cebpf4jnsgd1na2vs0mg"},{"bike_id":"b8f48256-1e92-46c4-b43e-9b7c46245edd","system_id":"levelo_inurba_marseille","lat":43.26208,"lon":5.37447,"is_reserved":false,"is_disabled":false,"rental_uris":{"android":"levelo://app?vid=b8f48256-1e92-46c4-b43e-9b7c46245edd","ios":"levelo://app?vid=b8f48256-1e92-46c4-b43e-9b7c46245edd"},"vehicle_type_id":"4","last_reported":1728551411,"current_range_meters":26000,"station_id":"ce4bhgp2rcd13ifvqfc0","pricing_plan_id":"cebpf4jnsgd1na2vs0mg"},{"bike_id":"af28d066-a466-4ed7-bf62-08efa15ec1ce","system_id":"levelo_inurba_marseille","lat":43.24175,"lon":5.39714,"is_reserved":false,"is_disabled":false,"rental_uris":{"android":"levelo://app?vid=af28d066-a466-4ed7-bf62-08efa15ec1ce","ios":"levelo://app?vid=af28d066-a466-4ed7-bf62-08efa15ec1ce"},"vehicle_type_id":"4","last_reported":1728551411,"current_range_meters":36800,"station_id":"ce4bhn12rcd13ifvqgpg","pricing_plan_id":"cebpf4jnsgd1na2vs0mg"},{"bike_id":"de84acda-6809-47d1-a7b3-9a48fd0b44e7","system_id":"levelo_inurba_marseille","lat":43.25936,"lon":5.40898,"is_reserved":false,"is_disabled":false,"rental_uris":{"android":"levelo://app?vid=de84acda-6809-47d1-a7b3-9a48fd0b44e7","ios":"levelo://app?vid=de84acda-6809-47d1-a7b3-9a48fd0b44e7"},"vehicle_type_id":"4","last_reported":1728551411,"current_range_meters":20800,"station_id":"ce4bhm92rcd13ifvqglg","pricing_plan_id":"cebpf4jnsgd1na2vs0mg"},{"bike_id":"608cac91-46ad-44b9-b9d0-f2c3d0b6ae87","system_id":"levelo_inurba_marseille","lat":43.2606,"lon":5.3939,"is_reserved":false,"is_disabled":false,"rental_uris":{"android":"levelo://app?vid=608cac91-46ad-44b9-b9d0-f2c3d0b6ae87","ios":"levelo://app?vid=608cac91-46ad-44b9-b9d0-f2c3d0b6ae87"},"vehicle_type_id":"4","last_reported":1728551411,"current_range_meters":34800,"station_id":"","pricing_plan_id":"cebpf4jnsgd1na2vs0mg"},{"bike_id":"01e18afa-b082-4c22-a5a1-8ce0312a2230","system_id":"levelo_inurba_marseille","lat":43.25821,"lon":5.39433,"is_reserved":false,"is_disabled":false,"rental_uris":{"android":"levelo://app?vid=01e18afa-b082-4c22-a5a1-8ce0312a2230","ios":"levelo://app?vid=01e18afa-b082-4c22-a5a1-8ce0312a2230"},"vehicle_type_id":"4","last_reported":1728551411,"current_range_meters":30800,"station_id":"ce4bhip2rcd13ifvqft0","pricing_plan_id":"cebpf4jnsgd1na2vs0mg"},{"bike_id":"7c830a7a-88a3-47c3-beae-d7986b2e3594","system_id":"levelo_inurba_marseille","lat":43.337576,"lon":5.374671,"is_reserved":false,"is_disabled":false,"rental_uris":{"android":"levelo://app?vid=7c830a7a-88a3-47c3-beae-d7986b2e3594","ios":"levelo://app?vid=7c830a7a-88a3-47c3-beae-d7986b2e3594"},"vehicle_type_id":"4","last_reported":1728551411,"current_range_meters":9600,"station_id":"ce4rr2p2rcd13i802rgg","pricing_plan_id":"cebpf4jnsgd1na2vs0mg"},{"bike_id":"1724a986-206e-44c4-acc6-99c3f365633c","system_id":"levelo_inurba_marseille","lat":43.23197,"lon":5.35562,"is_reserved":false,"is_disabled":false,"rental_uris":{"android":"levelo://app?vid=1724a986-206e-44c4-acc6-99c3f365633c","ios":"levelo://app?vid=1724a986-206e-44c4-acc6-99c3f365633c"},"vehicle_type_id":"4","last_reported":1728551411,"current_range_meters":19200,"station_id":"ce4bhu92rcd13ifvqi70","pricing_plan_id":"cebpf4jnsgd1na2vs0mg"},{"bike_id":"c9f14e7e-cd41-4306-8cc0-0536ea78d422","system_id":"levelo_inurba_marseille","lat":43.33744,"lon":5.37451,"is_reserved":false,"is_disabled":false,"rental_uris":{"android":"levelo://app?vid=c9f14e7e-cd41-4306-8cc0-0536ea78d422","ios":"levelo://app?vid=c9f14e7e-cd41-4306-8cc0-0536ea78d422"},"vehicle_type_id":"4","last_reported":1728551411,"current_range_meters":36400,"station_id":"","pricing_plan_id":"cebpf4jnsgd1na2vs0mg"},{"bike_id":"9fb561af-1165-43b4-ba74-81f5923c4f1c","system_id":"levelo_inurba_marseille","lat":43.3361,"lon":5.41039,"is_reserved":false,"is_disabled":false,"rental_uris":{"android":"levelo://app?vid=9fb561af-1165-43b4-ba74-81f5923c4f1c","ios":"levelo://app?vid=9fb561af-1165-43b4-ba74-81f5923c4f1c"},"vehicle_type_id":"4","last_reported":1728551411,"current_range_meters":38800,"station_id":"ce4bhqh2rcd13ifvqhmg","pricing_plan_id":"cebpf4jnsgd1na2vs0mg"},{"bike_id":"2901e185-86be-4533-8c67-bc9c3fe67c09","system_id":"levelo_inurba_marseille","lat":43.32531,"lon":5.41464,"is_reserved":false,"is_disabled":false,"rental_uris":{"android":"levelo://app?vid=2901e185-86be-4533-8c67-bc9c3fe67c09","ios":"levelo://app?vid=2901e185-86be-4533-8c67-bc9c3fe67c09"},"vehicle_type_id":"4","last_reported":1728551411,"current_range_meters":35200,"station_id":"ce4bhq12rcd13ifvqhhg","pricing_plan_id":"cebpf4jnsgd1na2vs0mg"},{"bike_id":"309cd5f0-85c2-4190-b558-4c794d0cd308","system_id":"levelo_inurba_marseille","lat":43.2902,"lon":5.38644,"is_reserved":false,"is_disabled":false,"rental_uris":{"android":"levelo://app?vid=309cd5f0-85c2-4190-b558-4c794d0cd308","ios":"levelo://app?vid=309cd5f0-85c2-4190-b558-4c794d0cd308"},"vehicle_type_id":"4","last_reported":1728551411,"current_range_meters":37600,"station_id":"ce4bh4p2rcd13ifvqe0g","pricing_plan_id":"cebpf4jnsgd1na2vs0mg"},{"bike_id":"e29c53bb-67dd-42ab-a381-9fddad52da22","system_id":"levelo_inurba_marseille","lat":43.30942,"lon":5.39015,"is_reserved":false,"is_disabled":false,"rental_uris":{"android":"levelo://app?vid=e29c53bb-67dd-42ab-a381-9fddad52da22","ios":"levelo://app?vid=e29c53bb-67dd-42ab-a381-9fddad52da22"},"vehicle_type_id":"4","last_reported":1728551411,"current_range_meters":8400,"station_id":"ce4bgup2rcd13ifvqco0","pricing_plan_id":"cebpf4jnsgd1na2vs0mg"},{"bike_id":"188f185e-249c-4dfe-b40a-c9b565496c46","system_id":"levelo_inurba_marseille","lat":43.30162,"lon":5.36635,"is_reserved":false,"is_disabled":false,"rental_uris":{"android":"levelo://app?vid=188f185e-249c-4dfe-b40a-c9b565496c46","ios":"levelo://app?vid=188f185e-249c-4dfe-b40a-c9b565496c46"},"vehicle_type_id":"4","last_reported":1728551411,"current_range_meters":37600,"station_id":"ce4bgrh2rcd13ifvqc8g","pricing_plan_id":"cebpf4jnsgd1na2vs0mg"},{"bike_id":"eca17225-e598-413b-a2cc-a98541b71498","system_id":"levelo_inurba_marseille","lat":43.31217,"lon":5.36867,"is_reserved":false,"is_disabled":false,"rental_uris":{"android":"levelo://app?vid=eca17225-e598-413b-a2cc-a98541b71498","ios":"levelo://app?vid=eca17225-e598-413b-a2cc-a98541b71498"},"vehicle_type_id":"4","last_reported":1728551411,"current_range_meters":6000,"station_id":"ce4bgl92rcd13ifvqbq0","pricing_plan_id":"cebpf4jnsgd1na2vs0mg"},{"bike_id":"a283cbf4-3a4c-46de-ac3d-4d7c731b36e3","system_id":"levelo_inurba_marseille","lat":43.33607,"lon":5.41031,"is_reserved":false,"is_disabled":false,"rental_uris":{"android":"levelo://app?vid=a283cbf4-3a4c-46de-ac3d-4d7c731b36e3","ios":"levelo://app?vid=a283cbf4-3a4c-46de-ac3d-4d7c731b36e3"},"vehicle_type_id":"4","last_reported":1728551411,"current_range_meters":39200,"station_id":"ce4bhqh2rcd13ifvqhmg","pricing_plan_id":"cebpf4jnsgd1na2vs0mg"},{"bike_id":"47599fab-79da-461f-89fd-43d1d10b8a6d","system_id":"levelo_inurba_marseille","lat":43.23156,"lon":5.4371,"is_reserved":false,"is_disabled":false,"rental_uris":{"android":"levelo://app?vid=47599fab-79da-461f-89fd-43d1d10b8a6d","ios":"levelo://app?vid=47599fab-79da-461f-89fd-43d1d10b8a6d"},"vehicle_type_id":"4","last_reported":1728551411,"current_range_meters":38800,"station_id":"ce4bhmp2rcd13ifvqgog","pricing_plan_id":"cebpf4jnsgd1na2vs0mg"},{"bike_id":"cffce793-1dbe-4d0b-8799-7d818b935ff1","system_id":"levelo_inurba_marseille","lat":43.29583,"lon":5.36737,"is_reserved":false,"is_disabled":false,"rental_uris":{"android":"levelo://app?vid=cffce793-1dbe-4d0b-8799-7d818b935ff1","ios":"levelo://app?vid=cffce793-1dbe-4d0b-8799-7d818b935ff1"},"vehicle_type_id":"4","last_reported":1728551411,"current_range_meters":27200,"station_id":"ce4bgph2rcd13ifvqc2g","pricing_plan_id":"cebpf4jnsgd1na2vs0mg"},{"bike_id":"c2709d8c-182c-4c66-9678-32143d413767","system_id":"levelo_inurba_marseille","lat":43.22936,"lon":5.35378,"is_reserved":false,"is_disabled":false,"rental_uris":{"android":"levelo://app?vid=c2709d8c-182c-4c66-9678-32143d413767","ios":"levelo://app?vid=c2709d8c-182c-4c66-9678-32143d413767"},"vehicle_type_id":"4","last_reported":1728551411,"current_range_meters":36800,"station_id":"cpo3532slgdg3j2ikp40","pricing_plan_id":"cebpf4jnsgd1na2vs0mg"},{"bike_id":"f1d5316c-e42c-4780-8547-4c618ddf721c","system_id":"levelo_inurba_marseille","lat":43.24804,"lon":5.37457,"is_reserved":false,"is_disabled":false,"rental_uris":{"android":"levelo://app?vid=f1d5316c-e42c-4780-8547-4c618ddf721c","ios":"levelo://app?vid=f1d5316c-e42c-4780-8547-4c618ddf721c"},"vehicle_type_id":"4","last_reported":1728551411,"current_range_meters":36800,"station_id":"ce4bhgh2rcd13ifvqfb0","pricing_plan_id":"cebpf4jnsgd1na2vs0mg"},{"bike_id":"c909d09a-ba9d-494d-99ae-367ad5ef8d1c","system_id":"levelo_inurba_marseille","lat":43.30549,"lon":5.36721,"is_reserved":false,"is_disabled":false,"rental_uris":{"android":"levelo://app?vid=c909d09a-ba9d-494d-99ae-367ad5ef8d1c","ios":"levelo://app?vid=c909d09a-ba9d-494d-99ae-367ad5ef8d1c"},"vehicle_type_id":"4","last_reported":1728551411,"current_range_meters":30000,"station_id":"ce4bgrp2rcd13ifvqc9g","pricing_plan_id":"cebpf4jnsgd1na2vs0mg"},{"bike_id":"58ac73f1-5f8c-4d04-912b-99ec51dd1adb","system_id":"levelo_inurba_marseille","lat":43.24664,"lon":5.38158,"is_reserved":false,"is_disabled":false,"rental_uris":{"android":"levelo://app?vid=58ac73f1-5f8c-4d04-912b-99ec51dd1adb","ios":"levelo://app?vid=58ac73f1-5f8c-4d04-912b-99ec51dd1adb"},"vehicle_type_id":"4","last_reported":1728551411,"current_range_meters":27600,"station_id":"ce4bhih2rcd13ifvqfr0","pricing_plan_id":"cebpf4jnsgd1na2vs0mg"},{"bike_id":"1dcaef22-2c4c-46cd-a47b-712f6c26cc51","system_id":"levelo_inurba_marseille","lat":43.27491,"lon":5.42468,"is_reserved":false,"is_disabled":false,"rental_uris":{"android":"levelo://app?vid=1dcaef22-2c4c-46cd-a47b-712f6c26cc51","ios":"levelo://app?vid=1dcaef22-2c4c-46cd-a47b-712f6c26cc51"},"vehicle_type_id":"4","last_reported":1728551411,"current_range_meters":38000,"station_id":"ce4bhn92rcd13ifvqgrg","pricing_plan_id":"cebpf4jnsgd1na2vs0mg"},{"bike_id":"c023555c-38e9-4d37-9dd1-1907b99d156a","system_id":"levelo_inurba_marseille","lat":43.28664,"lon":5.38661,"is_reserved":false,"is_disabled":false,"rental_uris":{"android":"levelo://app?vid=c023555c-38e9-4d37-9dd1-1907b99d156a","ios":"levelo://app?vid=c023555c-38e9-4d37-9dd1-1907b99d156a"},"vehicle_type_id":"4","last_reported":1728551411,"current_range_meters":10000,"station_id":"ce4bh492rcd13ifvqdug","pricing_plan_id":"cebpf4jnsgd1na2vs0mg"},{"bike_id":"55c1e6d5-bf74-4d5a-aada-c3a3daf3d139","system_id":"levelo_inurba_marseille","lat":43.26682,"lon":5.3827,"is_reserved":false,"is_disabled":false,"rental_uris":{"android":"levelo://app?vid=55c1e6d5-bf74-4d5a-aada-c3a3daf3d139","ios":"levelo://app?vid=55c1e6d5-bf74-4d5a-aada-c3a3daf3d139"},"vehicle_type_id":"4","last_reported":1728551411,"current_range_meters":10000,"station_id":"ce4bhg92rcd13ifvqf90","pricing_plan_id":"cebpf4jnsgd1na2vs0mg"},{"bike_id":"469eda9c-277c-40dc-ae18-2c95f36d8deb","system_id":"levelo_inurba_marseille","lat":43.27054,"lon":5.4025,"is_reserved":false,"is_disabled":false,"rental_uris":{"android":"levelo://app?vid=469eda9c-277c-40dc-ae18-2c95f36d8deb","ios":"levelo://app?vid=469eda9c-277c-40dc-ae18-2c95f36d8deb"},"vehicle_type_id":"4","last_reported":1728551411,"current_range_meters":29600,"station_id":"ce4bhk92rcd13ifvqgc0","pricing_plan_id":"cebpf4jnsgd1na2vs0mg"},{"bike_id":"c9ad9f7b-ca22-414b-8aca-5d2a9d0f07f0","system_id":"levelo_inurba_marseille","lat":43.25577,"lon":5.3824,"is_reserved":false,"is_disabled":false,"rental_uris":{"android":"levelo://app?vid=c9ad9f7b-ca22-414b-8aca-5d2a9d0f07f0","ios":"levelo://app?vid=c9ad9f7b-ca22-414b-8aca-5d2a9d0f07f0"},"vehicle_type_id":"4","last_reported":1728551411,"current_range_meters":20800,"station_id":"ce4bhih2rcd13ifvqfs0","pricing_plan_id":"cebpf4jnsgd1na2vs0mg"},{"bike_id":"f4d16d74-9f5d-4324-bee1-48b07e6d7978","system_id":"levelo_inurba_marseille","lat":43.32659,"lon":5.40995,"is_reserved":false,"is_disabled":false,"rental_uris":{"android":"levelo://app?vid=f4d16d74-9f5d-4324-bee1-48b07e6d7978","ios":"levelo://app?vid=f4d16d74-9f5d-4324-bee1-48b07e6d7978"},"vehicle_type_id":"4","last_reported":1728551411,"current_range_meters":37600,"station_id":"ce4bhpp2rcd13ifvqhgg","pricing_plan_id":"cebpf4jnsgd1na2vs0mg"},{"bike_id":"4918291f-19ab-4f46-a135-d61fa7a26c4f","system_id":"levelo_inurba_marseille","lat":43.32482,"lon":5.36563,"is_reserved":false,"is_disabled":false,"rental_uris":{"android":"levelo://app?vid=4918291f-19ab-4f46-a135-d61fa7a26c4f","ios":"levelo://app?vid=4918291f-19ab-4f46-a135-d61fa7a26c4f"},"vehicle_type_id":"4","last_reported":1728551411,"current_range_meters":28800,"station_id":"ce4bhs12rcd13ifvqhvg","pricing_plan_id":"cebpf4jnsgd1na2vs0mg"},{"bike_id":"191f894c-5ec4-4bb3-adfc-c821a49bd142","system_id":"levelo_inurba_marseille","lat":43.3248,"lon":5.36562,"is_reserved":false,"is_disabled":false,"rental_uris":{"android":"levelo://app?vid=191f894c-5ec4-4bb3-adfc-c821a49bd142","ios":"levelo://app?vid=191f894c-5ec4-4bb3-adfc-c821a49bd142"},"vehicle_type_id":"4","last_reported":1728551411,"current_range_meters":30800,"station_id":"ce4bhs12rcd13ifvqhvg","pricing_plan_id":"cebpf4jnsgd1na2vs0mg"},{"bike_id":"f92a9fb8-9f73-4cf9-bc9b-2bdf5b520248","system_id":"levelo_inurba_marseille","lat":43.32528,"lon":5.41453,"is_reserved":false,"is_disabled":false,"rental_uris":{"android":"levelo://app?vid=f92a9fb8-9f73-4cf9-bc9b-2bdf5b520248","ios":"levelo://app?vid=f92a9fb8-9f73-4cf9-bc9b-2bdf5b520248"},"vehicle_type_id":"4","last_reported":1728551411,"current_range_meters":39200,"station_id":"ce4bhq12rcd13ifvqhhg","pricing_plan_id":"cebpf4jnsgd1na2vs0mg"},{"bike_id":"55ff88f9-a4d5-4d03-95d2-08dc7ddeab25","system_id":"levelo_inurba_marseille","lat":43.32661,"lon":5.40992,"is_reserved":false,"is_disabled":false,"rental_uris":{"android":"levelo://app?vid=55ff88f9-a4d5-4d03-95d2-08dc7ddeab25","ios":"levelo://app?vid=55ff88f9-a4d5-4d03-95d2-08dc7ddeab25"},"vehicle_type_id":"4","last_reported":1728551411,"current_range_meters":6000,"station_id":"ce4bhpp2rcd13ifvqhgg","pricing_plan_id":"cebpf4jnsgd1na2vs0mg"},{"bike_id":"252fdafd-d8bd-4445-933f-8c7cfafc9fac","system_id":"levelo_inurba_marseille","lat":43.24806,"lon":5.37456,"is_reserved":false,"is_disabled":false,"rental_uris":{"android":"levelo://app?vid=252fdafd-d8bd-4445-933f-8c7cfafc9fac","ios":"levelo://app?vid=252fdafd-d8bd-4445-933f-8c7cfafc9fac"},"vehicle_type_id":"4","last_reported":1728551411,"current_range_meters":38000,"station_id":"ce4bhgh2rcd13ifvqfb0","pricing_plan_id":"cebpf4jnsgd1na2vs0mg"},{"bike_id":"3513c86b-45a7-4bb5-9186-580c65fbb534","system_id":"levelo_inurba_marseille","lat":43.24077,"lon":5.37753,"is_reserved":false,"is_disabled":false,"rental_uris":{"android":"levelo://app?vid=3513c86b-45a7-4bb5-9186-580c65fbb534","ios":"levelo://app?vid=3513c86b-45a7-4bb5-9186-580c65fbb534"},"vehicle_type_id":"4","last_reported":1728551411,"current_range_meters":38000,"station_id":"ce4bhnp2rcd13ifvqgvg","pricing_plan_id":"cebpf4jnsgd1na2vs0mg"},{"bike_id":"fc7c8d91-b1a0-4ad9-a4df-f62029c13000","system_id":"levelo_inurba_marseille","lat":43.31214,"lon":5.3686,"is_reserved":false,"is_disabled":false,"rental_uris":{"android":"levelo://app?vid=fc7c8d91-b1a0-4ad9-a4df-f62029c13000","ios":"levelo://app?vid=fc7c8d91-b1a0-4ad9-a4df-f62029c13000"},"vehicle_type_id":"4","last_reported":1728551411,"current_range_meters":38400,"station_id":"ce4bgl92rcd13ifvqbq0","pricing_plan_id":"cebpf4jnsgd1na2vs0mg"},{"bike_id":"1041b9a4-24b6-4e96-8c12-5b22e14ad25e","system_id":"levelo_inurba_marseille","lat":43.29028,"lon":5.37552,"is_reserved":false,"is_disabled":false,"rental_uris":{"android":"levelo://app?vid=1041b9a4-24b6-4e96-8c12-5b22e14ad25e","ios":"levelo://app?vid=1041b9a4-24b6-4e96-8c12-5b22e14ad25e"},"vehicle_type_id":"4","last_reported":1728551411,"current_range_meters":25200,"station_id":"ce4bh692rcd13ifvqe90","pricing_plan_id":"cebpf4jnsgd1na2vs0mg"},{"bike_id":"e24b806e-8c42-4fed-ad44-5c32f30596ca","system_id":"levelo_inurba_marseille","lat":43.337444,"lon":5.374475,"is_reserved":false,"is_disabled":false,"rental_uris":{"android":"levelo://app?vid=e24b806e-8c42-4fed-ad44-5c32f30596ca","ios":"levelo://app?vid=e24b806e-8c42-4fed-ad44-5c32f30596ca"},"vehicle_type_id":"4","last_reported":1728551411,"current_range_meters":31200,"station_id":"","pricing_plan_id":"cebpf4jnsgd1na2vs0mg"},{"bike_id":"7c24fe02-f2b8-4e4c-9d99-9b350762dca2","system_id":"levelo_inurba_marseille","lat":43.24074,"lon":5.37745,"is_reserved":false,"is_disabled":false,"rental_uris":{"android":"levelo://app?vid=7c24fe02-f2b8-4e4c-9d99-9b350762dca2","ios":"levelo://app?vid=7c24fe02-f2b8-4e4c-9d99-9b350762dca2"},"vehicle_type_id":"4","last_reported":1728551411,"current_range_meters":24400,"station_id":"ce4bhnp2rcd13ifvqgvg","pricing_plan_id":"cebpf4jnsgd1na2vs0mg"},{"bike_id":"50aa4af7-94b4-48c9-959d-eeec3eaec001","system_id":"levelo_inurba_marseille","lat":43.23196,"lon":5.35545,"is_reserved":false,"is_disabled":false,"rental_uris":{"android":"levelo://app?vid=50aa4af7-94b4-48c9-959d-eeec3eaec001","ios":"levelo://app?vid=50aa4af7-94b4-48c9-959d-eeec3eaec001"},"vehicle_type_id":"4","last_reported":1728551411,"current_range_meters":8400,"station_id":"ce4bhu92rcd13ifvqi70","pricing_plan_id":"cebpf4jnsgd1na2vs0mg"},{"bike_id":"7b084089-b050-4e0e-8a7e-a730735b4310","system_id":"levelo_inurba_marseille","lat":43.25094,"lon":5.39517,"is_reserved":false,"is_disabled":false,"rental_uris":{"android":"levelo://app?vid=7b084089-b050-4e0e-8a7e-a730735b4310","ios":"levelo://app?vid=7b084089-b050-4e0e-8a7e-a730735b4310"},"vehicle_type_id":"4","last_reported":1728551411,"current_range_meters":16800,"station_id":"ce4bhm12rcd13ifvqgkg","pricing_plan_id":"cebpf4jnsgd1na2vs0mg"},{"bike_id":"a89f5bab-19bb-41f0-8dc8-2346b619d99e","system_id":"levelo_inurba_marseille","lat":43.337444,"lon":5.374475,"is_reserved":false,"is_disabled":false,"rental_uris":{"android":"levelo://app?vid=a89f5bab-19bb-41f0-8dc8-2346b619d99e","ios":"levelo://app?vid=a89f5bab-19bb-41f0-8dc8-2346b619d99e"},"vehicle_type_id":"4","last_reported":1728551411,"current_range_meters":33200,"station_id":"","pricing_plan_id":"cebpf4jnsgd1na2vs0mg"},{"bike_id":"c3e4fafd-aea7-4740-bafb-133dcf44a4d1","system_id":"levelo_inurba_marseille","lat":43.27958,"lon":5.3874,"is_reserved":false,"is_disabled":false,"rental_uris":{"android":"levelo://app?vid=c3e4fafd-aea7-4740-bafb-133dcf44a4d1","ios":"levelo://app?vid=c3e4fafd-aea7-4740-bafb-133dcf44a4d1"},"vehicle_type_id":"4","last_reported":1728551411,"current_range_meters":6800,"station_id":"ce4bhg12rcd13ifvqf80","pricing_plan_id":"cebpf4jnsgd1na2vs0mg"},{"bike_id":"cc9bb8cf-5436-4169-b759-97f5960c927d","system_id":"levelo_inurba_marseille","lat":43.24083,"lon":5.37751,"is_reserved":false,"is_disabled":false,"rental_uris":{"android":"levelo://app?vid=cc9bb8cf-5436-4169-b759-97f5960c927d","ios":"levelo://app?vid=cc9bb8cf-5436-4169-b759-97f5960c927d"},"vehicle_type_id":"4","last_reported":1728551411,"current_range_meters":2000,"station_id":"ce4bhnp2rcd13ifvqgvg","pricing_plan_id":"cebpf4jnsgd1na2vs0mg"},{"bike_id":"48eacddf-68c2-479d-95fb-5ac38df97c75","system_id":"levelo_inurba_marseille","lat":43.29586,"lon":5.36739,"is_reserved":false,"is_disabled":false,"rental_uris":{"android":"levelo://app?vid=48eacddf-68c2-479d-95fb-5ac38df97c75","ios":"levelo://app?vid=48eacddf-68c2-479d-95fb-5ac38df97c75"},"vehicle_type_id":"4","last_reported":1728551411,"current_range_meters":38800,"station_id":"ce4bgph2rcd13ifvqc2g","pricing_plan_id":"cebpf4jnsgd1na2vs0mg"},{"bike_id":"5fcb97b9-d425-4a7f-9ed0-6de30a7d55a1","system_id":"levelo_inurba_marseille","lat":43.24804,"lon":5.37461,"is_reserved":false,"is_disabled":false,"rental_uris":{"android":"levelo://app?vid=5fcb97b9-d425-4a7f-9ed0-6de30a7d55a1","ios":"levelo://app?vid=5fcb97b9-d425-4a7f-9ed0-6de30a7d55a1"},"vehicle_type_id":"4","last_reported":1728551411,"current_range_meters":38800,"station_id":"ce4bhgh2rcd13ifvqfb0","pricing_plan_id":"cebpf4jnsgd1na2vs0mg"},{"bike_id":"4da11a22-e02f-426a-84b5-a1be443e76f5","system_id":"levelo_inurba_marseille","lat":43.24074,"lon":5.37758,"is_reserved":false,"is_disabled":false,"rental_uris":{"android":"levelo://app?vid=4da11a22-e02f-426a-84b5-a1be443e76f5","ios":"levelo://app?vid=4da11a22-e02f-426a-84b5-a1be443e76f5"},"vehicle_type_id":"4","last_reported":1728551411,"current_range_meters":30000,"station_id":"ce4bhnp2rcd13ifvqgvg","pricing_plan_id":"cebpf4jnsgd1na2vs0mg"},{"bike_id":"4c8689a3-0f6d-47db-9e36-1ce806231262","system_id":"levelo_inurba_marseille","lat":43.315511,"lon":5.403732,"is_reserved":false,"is_disabled":false,"rental_uris":{"android":"levelo://app?vid=4c8689a3-0f6d-47db-9e36-1ce806231262","ios":"levelo://app?vid=4c8689a3-0f6d-47db-9e36-1ce806231262"},"vehicle_type_id":"4","last_reported":1728551411,"current_range_meters":23200,"station_id":"","pricing_plan_id":"cebpf4jnsgd1na2vs0mg"},{"bike_id":"b10b093b-7ee6-4d29-8c3c-c541489a488b","system_id":"levelo_inurba_marseille","lat":43.30137,"lon":5.37407,"is_reserved":false,"is_disabled":false,"rental_uris":{"android":"levelo://app?vid=b10b093b-7ee6-4d29-8c3c-c541489a488b","ios":"levelo://app?vid=b10b093b-7ee6-4d29-8c3c-c541489a488b"},"vehicle_type_id":"4","last_reported":1728551411,"current_range_meters":34800,"station_id":"ce4bgs92rcd13ifvqcc0","pricing_plan_id":"cebpf4jnsgd1na2vs0mg"},{"bike_id":"59b80e1c-ee01-4d86-911c-c2215c6be7a9","system_id":"levelo_inurba_marseille","lat":43.32527,"lon":5.41453,"is_reserved":false,"is_disabled":false,"rental_uris":{"android":"levelo://app?vid=59b80e1c-ee01-4d86-911c-c2215c6be7a9","ios":"levelo://app?vid=59b80e1c-ee01-4d86-911c-c2215c6be7a9"},"vehicle_type_id":"4","last_reported":1728551411,"current_range_meters":7200,"station_id":"ce4bhq12rcd13ifvqhhg","pricing_plan_id":"cebpf4jnsgd1na2vs0mg"},{"bike_id":"0b1140d6-a172-4a8a-803f-15d303370b5c","system_id":"levelo_inurba_marseille","lat":43.2815,"lon":5.42648,"is_reserved":false,"is_disabled":false,"rental_uris":{"android":"levelo://app?vid=0b1140d6-a172-4a8a-803f-15d303370b5c","ios":"levelo://app?vid=0b1140d6-a172-4a8a-803f-15d303370b5c"},"vehicle_type_id":"4","last_reported":1728551411,"current_range_meters":24800,"station_id":"ce4bhnh2rcd13ifvqgug","pricing_plan_id":"cebpf4jnsgd1na2vs0mg"},{"bike_id":"a28f74b6-69e6-4481-b8b6-1f331c091d75","system_id":"levelo_inurba_marseille","lat":43.29519,"lon":5.37507,"is_reserved":false,"is_disabled":false,"rental_uris":{"android":"levelo://app?vid=a28f74b6-69e6-4481-b8b6-1f331c091d75","ios":"levelo://app?vid=a28f74b6-69e6-4481-b8b6-1f331c091d75"},"vehicle_type_id":"4","last_reported":1728551411,"current_range_meters":35600,"station_id":"ce4bgkp2rcd13ifvqbmg","pricing_plan_id":"cebpf4jnsgd1na2vs0mg"},{"bike_id":"883d2f55-a426-4983-8ce1-a8d75e56bbfa","system_id":"levelo_inurba_marseille","lat":43.30181,"lon":5.36623,"is_reserved":false,"is_disabled":false,"rental_uris":{"android":"levelo://app?vid=883d2f55-a426-4983-8ce1-a8d75e56bbfa","ios":"levelo://app?vid=883d2f55-a426-4983-8ce1-a8d75e56bbfa"},"vehicle_type_id":"4","last_reported":1728551411,"current_range_meters":36800,"station_id":"ce4bgrh2rcd13ifvqc8g","pricing_plan_id":"cebpf4jnsgd1na2vs0mg"},{"bike_id":"81587ada-cc61-4386-b0c2-234cfb97acad","system_id":"levelo_inurba_marseille","lat":43.29544,"lon":5.42282,"is_reserved":false,"is_disabled":false,"rental_uris":{"android":"levelo://app?vid=81587ada-cc61-4386-b0c2-234cfb97acad","ios":"levelo://app?vid=81587ada-cc61-4386-b0c2-234cfb97acad"},"vehicle_type_id":"4","last_reported":1728551411,"current_range_meters":39200,"station_id":"ce4bhph2rcd13ifvqhdg","pricing_plan_id":"cebpf4jnsgd1na2vs0mg"},{"bike_id":"8cebe8a6-94f2-4ebc-ae47-968989fe8404","system_id":"levelo_inurba_marseille","lat":43.26783,"lon":5.39418,"is_reserved":false,"is_disabled":false,"rental_uris":{"android":"levelo://app?vid=8cebe8a6-94f2-4ebc-ae47-968989fe8404","ios":"levelo://app?vid=8cebe8a6-94f2-4ebc-ae47-968989fe8404"},"vehicle_type_id":"4","last_reported":1728551411,"current_range_meters":38800,"station_id":"ce4bhh12rcd13ifvqfg0","pricing_plan_id":"cebpf4jnsgd1na2vs0mg"},{"bike_id":"1bd983a0-6e10-4d0d-a3a5-43203a8fb7c8","system_id":"levelo_inurba_marseille","lat":43.23192,"lon":5.39982,"is_reserved":false,"is_disabled":false,"rental_uris":{"android":"levelo://app?vid=1bd983a0-6e10-4d0d-a3a5-43203a8fb7c8","ios":"levelo://app?vid=1bd983a0-6e10-4d0d-a3a5-43203a8fb7c8"},"vehicle_type_id":"4","last_reported":1728551411,"current_range_meters":25600,"station_id":"ce4bhn12rcd13ifvqgqg","pricing_plan_id":"cebpf4jnsgd1na2vs0mg"},{"bike_id":"ff68b789-7173-415f-860f-fb58c1b9d01d","system_id":"levelo_inurba_marseille","lat":43.22928,"lon":5.35376,"is_reserved":false,"is_disabled":false,"rental_uris":{"android":"levelo://app?vid=ff68b789-7173-415f-860f-fb58c1b9d01d","ios":"levelo://app?vid=ff68b789-7173-415f-860f-fb58c1b9d01d"},"vehicle_type_id":"4","last_reported":1728551411,"current_range_meters":36800,"station_id":"cpo3532slgdg3j2ikp40","pricing_plan_id":"cebpf4jnsgd1na2vs0mg"},{"bike_id":"868e7007-7735-4806-90d1-d4e15f31d917","system_id":"levelo_inurba_marseille","lat":43.26775,"lon":5.39412,"is_reserved":false,"is_disabled":false,"rental_uris":{"android":"levelo://app?vid=868e7007-7735-4806-90d1-d4e15f31d917","ios":"levelo://app?vid=868e7007-7735-4806-90d1-d4e15f31d917"},"vehicle_type_id":"4","last_reported":1728551411,"current_range_meters":16400,"station_id":"ce4bhh12rcd13ifvqfg0","pricing_plan_id":"cebpf4jnsgd1na2vs0mg"},{"bike_id":"7b755db8-d632-47b2-af2b-0913a00e7124","system_id":"levelo_inurba_marseille","lat":43.29585,"lon":5.36735,"is_reserved":false,"is_disabled":false,"rental_uris":{"android":"levelo://app?vid=7b755db8-d632-47b2-af2b-0913a00e7124","ios":"levelo://app?vid=7b755db8-d632-47b2-af2b-0913a00e7124"},"vehicle_type_id":"4","last_reported":1728551411,"current_range_meters":35200,"station_id":"ce4bgph2rcd13ifvqc2g","pricing_plan_id":"cebpf4jnsgd1na2vs0mg"},{"bike_id":"567ea70e-4e3e-4de3-8c98-ac409dc6caa0","system_id":"levelo_inurba_marseille","lat":43.2705,"lon":5.40264,"is_reserved":false,"is_disabled":false,"rental_uris":{"android":"levelo://app?vid=567ea70e-4e3e-4de3-8c98-ac409dc6caa0","ios":"levelo://app?vid=567ea70e-4e3e-4de3-8c98-ac409dc6caa0"},"vehicle_type_id":"4","last_reported":1728551411,"current_range_meters":23200,"station_id":"ce4bhk92rcd13ifvqgc0","pricing_plan_id":"cebpf4jnsgd1na2vs0mg"},{"bike_id":"2820e57a-f769-4059-b572-399c1000f6f1","system_id":"levelo_inurba_marseille","lat":43.313538,"lon":5.384897,"is_reserved":false,"is_disabled":false,"rental_uris":{"android":"levelo://app?vid=2820e57a-f769-4059-b572-399c1000f6f1","ios":"levelo://app?vid=2820e57a-f769-4059-b572-399c1000f6f1"},"vehicle_type_id":"4","last_reported":1728551411,"current_range_meters":36800,"station_id":"ce4bgt92rcd13ifvqcf0","pricing_plan_id":"cebpf4jnsgd1na2vs0mg"},{"bike_id":"d1168ded-240f-4a6f-a773-b1c5e8f3aaf8","system_id":"levelo_inurba_marseille","lat":43.23192,"lon":5.35555,"is_reserved":false,"is_disabled":false,"rental_uris":{"android":"levelo://app?vid=d1168ded-240f-4a6f-a773-b1c5e8f3aaf8","ios":"levelo://app?vid=d1168ded-240f-4a6f-a773-b1c5e8f3aaf8"},"vehicle_type_id":"4","last_reported":1728551411,"current_range_meters":9600,"station_id":"ce4bhu92rcd13ifvqi70","pricing_plan_id":"cebpf4jnsgd1na2vs0mg"},{"bike_id":"fe1e03c7-131e-4a5d-b0b3-2ee1f8f38b15","system_id":"levelo_inurba_marseille","lat":43.25938,"lon":5.40909,"is_reserved":false,"is_disabled":false,"rental_uris":{"android":"levelo://app?vid=fe1e03c7-131e-4a5d-b0b3-2ee1f8f38b15","ios":"levelo://app?vid=fe1e03c7-131e-4a5d-b0b3-2ee1f8f38b15"},"vehicle_type_id":"4","last_reported":1728551411,"current_range_meters":28800,"station_id":"ce4bhm92rcd13ifvqglg","pricing_plan_id":"cebpf4jnsgd1na2vs0mg"},{"bike_id":"fbf37396-123c-4d70-b6d1-fee2510c8ad7","system_id":"levelo_inurba_marseille","lat":43.23153,"lon":5.43716,"is_reserved":false,"is_disabled":false,"rental_uris":{"android":"levelo://app?vid=fbf37396-123c-4d70-b6d1-fee2510c8ad7","ios":"levelo://app?vid=fbf37396-123c-4d70-b6d1-fee2510c8ad7"},"vehicle_type_id":"4","last_reported":1728551411,"current_range_meters":11600,"station_id":"ce4bhmp2rcd13ifvqgog","pricing_plan_id":"cebpf4jnsgd1na2vs0mg"},{"bike_id":"fc34a4c2-5dda-43dc-8c76-0302a62a6427","system_id":"levelo_inurba_marseille","lat":43.23193,"lon":5.3557,"is_reserved":false,"is_disabled":false,"rental_uris":{"android":"levelo://app?vid=fc34a4c2-5dda-43dc-8c76-0302a62a6427","ios":"levelo://app?vid=fc34a4c2-5dda-43dc-8c76-0302a62a6427"},"vehicle_type_id":"4","last_reported":1728551411,"current_range_meters":36800,"station_id":"ce4bhu92rcd13ifvqi70","pricing_plan_id":"cebpf4jnsgd1na2vs0mg"},{"bike_id":"e69e17e0-0ca8-4a95-b8f4-81597f014eb7","system_id":"levelo_inurba_marseille","lat":43.30152,"lon":5.38082,"is_reserved":false,"is_disabled":false,"rental_uris":{"android":"levelo://app?vid=e69e17e0-0ca8-4a95-b8f4-81597f014eb7","ios":"levelo://app?vid=e69e17e0-0ca8-4a95-b8f4-81597f014eb7"},"vehicle_type_id":"4","last_reported":1728551411,"current_range_meters":30800,"station_id":"ce4bgjp2rcd13ifvqbh0","pricing_plan_id":"cebpf4jnsgd1na2vs0mg"},{"bike_id":"ba39ef12-965e-42ab-a8fe-b097329b787e","system_id":"levelo_inurba_marseille","lat":43.29591,"lon":5.36737,"is_reserved":false,"is_disabled":false,"rental_uris":{"android":"levelo://app?vid=ba39ef12-965e-42ab-a8fe-b097329b787e","ios":"levelo://app?vid=ba39ef12-965e-42ab-a8fe-b097329b787e"},"vehicle_type_id":"4","last_reported":1728551411,"current_range_meters":36800,"station_id":"ce4bgph2rcd13ifvqc2g","pricing_plan_id":"cebpf4jnsgd1na2vs0mg"},{"bike_id":"a8f909bc-c24b-463c-b25a-25dd9372a0ca","system_id":"levelo_inurba_marseille","lat":43.27999,"lon":5.41663,"is_reserved":false,"is_disabled":false,"rental_uris":{"android":"levelo://app?vid=a8f909bc-c24b-463c-b25a-25dd9372a0ca","ios":"levelo://app?vid=a8f909bc-c24b-463c-b25a-25dd9372a0ca"},"vehicle_type_id":"4","last_reported":1728551411,"current_range_meters":22000,"station_id":"ce4bho12rcd13ifvqh1g","pricing_plan_id":"cebpf4jnsgd1na2vs0mg"},{"bike_id":"58037c12-ebe8-47d9-934c-3e692bf7960b","system_id":"levelo_inurba_marseille","lat":43.2749,"lon":5.42455,"is_reserved":false,"is_disabled":false,"rental_uris":{"android":"levelo://app?vid=58037c12-ebe8-47d9-934c-3e692bf7960b","ios":"levelo://app?vid=58037c12-ebe8-47d9-934c-3e692bf7960b"},"vehicle_type_id":"4","last_reported":1728551411,"current_range_meters":29600,"station_id":"ce4bhn92rcd13ifvqgrg","pricing_plan_id":"cebpf4jnsgd1na2vs0mg"},{"bike_id":"0889e52c-078d-4495-a9da-24633087fbd3","system_id":"levelo_inurba_marseille","lat":43.30304,"lon":5.39215,"is_reserved":false,"is_disabled":false,"rental_uris":{"android":"levelo://app?vid=0889e52c-078d-4495-a9da-24633087fbd3","ios":"levelo://app?vid=0889e52c-078d-4495-a9da-24633087fbd3"},"vehicle_type_id":"4","last_reported":1728551411,"current_range_meters":19600,"station_id":"ce4bgkh2rcd13ifvqbk0","pricing_plan_id":"cebpf4jnsgd1na2vs0mg"},{"bike_id":"2d8e5214-7919-4f12-9cdd-a5b6b451b738","system_id":"levelo_inurba_marseille","lat":43.26676,"lon":5.38266,"is_reserved":false,"is_disabled":false,"rental_uris":{"android":"levelo://app?vid=2d8e5214-7919-4f12-9cdd-a5b6b451b738","ios":"levelo://app?vid=2d8e5214-7919-4f12-9cdd-a5b6b451b738"},"vehicle_type_id":"4","last_reported":1728551411,"current_range_meters":8000,"station_id":"ce4bhg92rcd13ifvqf90","pricing_plan_id":"cebpf4jnsgd1na2vs0mg"},{"bike_id":"5b871ea3-f812-4fd2-b86c-33dcb301f033","system_id":"levelo_inurba_marseille","lat":43.31351,"lon":5.36711,"is_reserved":false,"is_disabled":false,"rental_uris":{"android":"levelo://app?vid=5b871ea3-f812-4fd2-b86c-33dcb301f033","ios":"levelo://app?vid=5b871ea3-f812-4fd2-b86c-33dcb301f033"},"vehicle_type_id":"4","last_reported":1728551411,"current_range_meters":17600,"station_id":"ce4bgr92rcd13ifvqc6g","pricing_plan_id":"cebpf4jnsgd1na2vs0mg"},{"bike_id":"4e4e7083-89bd-4f48-a4f6-01f4a7d2fcc0","system_id":"levelo_inurba_marseille","lat":43.34141,"lon":5.40913,"is_reserved":false,"is_disabled":false,"rental_uris":{"android":"levelo://app?vid=4e4e7083-89bd-4f48-a4f6-01f4a7d2fcc0","ios":"levelo://app?vid=4e4e7083-89bd-4f48-a4f6-01f4a7d2fcc0"},"vehicle_type_id":"4","last_reported":1728551411,"current_range_meters":37600,"station_id":"ce4bhqh2rcd13ifvqhlg","pricing_plan_id":"cebpf4jnsgd1na2vs0mg"},{"bike_id":"996c1395-196b-4849-b46f-3e90f75aae77","system_id":"levelo_inurba_marseille","lat":43.29713,"lon":5.37696,"is_reserved":false,"is_disabled":false,"rental_uris":{"android":"levelo://app?vid=996c1395-196b-4849-b46f-3e90f75aae77","ios":"levelo://app?vid=996c1395-196b-4849-b46f-3e90f75aae77"},"vehicle_type_id":"4","last_reported":1728551411,"current_range_meters":36000,"station_id":"ce4bgkh2rcd13ifvqbl0","pricing_plan_id":"cebpf4jnsgd1na2vs0mg"},{"bike_id":"e86d01e2-2710-427d-82b6-ffb883d95617","system_id":"levelo_inurba_marseille","lat":43.24069,"lon":5.3776,"is_reserved":false,"is_disabled":false,"rental_uris":{"android":"levelo://app?vid=e86d01e2-2710-427d-82b6-ffb883d95617","ios":"levelo://app?vid=e86d01e2-2710-427d-82b6-ffb883d95617"},"vehicle_type_id":"4","last_reported":1728551411,"current_range_meters":24800,"station_id":"ce4bhnp2rcd13ifvqgvg","pricing_plan_id":"cebpf4jnsgd1na2vs0mg"},{"bike_id":"4ed7c4f9-4646-432b-8918-e57a22cb6c6b","system_id":"levelo_inurba_marseille","lat":43.27489,"lon":5.42459,"is_reserved":false,"is_disabled":false,"rental_uris":{"android":"levelo://app?vid=4ed7c4f9-4646-432b-8918-e57a22cb6c6b","ios":"levelo://app?vid=4ed7c4f9-4646-432b-8918-e57a22cb6c6b"},"vehicle_type_id":"4","last_reported":1728551411,"current_range_meters":8000,"station_id":"ce4bhn92rcd13ifvqgrg","pricing_plan_id":"cebpf4jnsgd1na2vs0mg"},{"bike_id":"cc313bdf-1ff5-491c-be28-4d2ded3a0783","system_id":"levelo_inurba_marseille","lat":43.30137,"lon":5.37413,"is_reserved":false,"is_disabled":false,"rental_uris":{"android":"levelo://app?vid=cc313bdf-1ff5-491c-be28-4d2ded3a0783","ios":"levelo://app?vid=cc313bdf-1ff5-491c-be28-4d2ded3a0783"},"vehicle_type_id":"4","last_reported":1728551411,"current_range_meters":25600,"station_id":"ce4bgs92rcd13ifvqcc0","pricing_plan_id":"cebpf4jnsgd1na2vs0mg"},{"bike_id":"46f3565b-c947-41b1-ac9c-41f46878b5bc","system_id":"levelo_inurba_marseille","lat":43.29846,"lon":5.36294,"is_reserved":false,"is_disabled":false,"rental_uris":{"android":"levelo://app?vid=46f3565b-c947-41b1-ac9c-41f46878b5bc","ios":"levelo://app?vid=46f3565b-c947-41b1-ac9c-41f46878b5bc"},"vehicle_type_id":"4","last_reported":1728551411,"current_range_meters":30400,"station_id":"ce4bgpp2rcd13ifvqc3g","pricing_plan_id":"cebpf4jnsgd1na2vs0mg"},{"bike_id":"02893b5b-0a93-438a-9734-9eff91df5c62","system_id":"levelo_inurba_marseille","lat":43.24391,"lon":5.37062,"is_reserved":false,"is_disabled":false,"rental_uris":{"android":"levelo://app?vid=02893b5b-0a93-438a-9734-9eff91df5c62","ios":"levelo://app?vid=02893b5b-0a93-438a-9734-9eff91df5c62"},"vehicle_type_id":"4","last_reported":1728551411,"current_range_meters":28800,"station_id":"ce4bhhh2rcd13ifvqfk0","pricing_plan_id":"cebpf4jnsgd1na2vs0mg"},{"bike_id":"f90ca49f-87e5-4ffa-83bf-89fbe4726d17","system_id":"levelo_inurba_marseille","lat":43.232,"lon":5.35551,"is_reserved":false,"is_disabled":false,"rental_uris":{"android":"levelo://app?vid=f90ca49f-87e5-4ffa-83bf-89fbe4726d17","ios":"levelo://app?vid=f90ca49f-87e5-4ffa-83bf-89fbe4726d17"},"vehicle_type_id":"4","last_reported":1728551411,"current_range_meters":36400,"station_id":"ce4bhu92rcd13ifvqi70","pricing_plan_id":"cebpf4jnsgd1na2vs0mg"},{"bike_id":"3b1fa369-d0fc-402a-9458-9b4eb4954fef","system_id":"levelo_inurba_marseille","lat":43.32535,"lon":5.41458,"is_reserved":false,"is_disabled":false,"rental_uris":{"android":"levelo://app?vid=3b1fa369-d0fc-402a-9458-9b4eb4954fef","ios":"levelo://app?vid=3b1fa369-d0fc-402a-9458-9b4eb4954fef"},"vehicle_type_id":"4","last_reported":1728551411,"current_range_meters":35200,"station_id":"ce4bhq12rcd13ifvqhhg","pricing_plan_id":"cebpf4jnsgd1na2vs0mg"},{"bike_id":"7980552a-8eee-4325-8b1a-a5e2acdf441a","system_id":"levelo_inurba_marseille","lat":43.32657,"lon":5.40993,"is_reserved":false,"is_disabled":false,"rental_uris":{"android":"levelo://app?vid=7980552a-8eee-4325-8b1a-a5e2acdf441a","ios":"levelo://app?vid=7980552a-8eee-4325-8b1a-a5e2acdf441a"},"vehicle_type_id":"4","last_reported":1728551411,"current_range_meters":24800,"station_id":"ce4bhpp2rcd13ifvqhgg","pricing_plan_id":"cebpf4jnsgd1na2vs0mg"},{"bike_id":"7bd8c207-e388-408b-af1b-34f40009cf9b","system_id":"levelo_inurba_marseille","lat":43.337444,"lon":5.374475,"is_reserved":false,"is_disabled":false,"rental_uris":{"android":"levelo://app?vid=7bd8c207-e388-408b-af1b-34f40009cf9b","ios":"levelo://app?vid=7bd8c207-e388-408b-af1b-34f40009cf9b"},"vehicle_type_id":"4","last_reported":1728551411,"current_range_meters":19200,"station_id":"ce4rr2p2rcd13i802rgg","pricing_plan_id":"cebpf4jnsgd1na2vs0mg"},{"bike_id":"eac4d1f3-69e7-42fa-8e90-fa30310580cc","system_id":"levelo_inurba_marseille","lat":43.27494,"lon":5.4246,"is_reserved":false,"is_disabled":false,"rental_uris":{"android":"levelo://app?vid=eac4d1f3-69e7-42fa-8e90-fa30310580cc","ios":"levelo://app?vid=eac4d1f3-69e7-42fa-8e90-fa30310580cc"},"vehicle_type_id":"4","last_reported":1728551411,"current_range_meters":32800,"station_id":"ce4bhn92rcd13ifvqgrg","pricing_plan_id":"cebpf4jnsgd1na2vs0mg"},{"bike_id":"18aaddff-7a2c-44d9-b951-2654092acdd6","system_id":"levelo_inurba_marseille","lat":43.274954,"lon":5.424499,"is_reserved":false,"is_disabled":false,"rental_uris":{"android":"levelo://app?vid=18aaddff-7a2c-44d9-b951-2654092acdd6","ios":"levelo://app?vid=18aaddff-7a2c-44d9-b951-2654092acdd6"},"vehicle_type_id":"4","last_reported":1728551411,"current_range_meters":27200,"station_id":"ce4bhn92rcd13ifvqgrg","pricing_plan_id":"cebpf4jnsgd1na2vs0mg"},{"bike_id":"0dc9717d-de9f-4504-ae8d-5bfc6e2743fd","system_id":"levelo_inurba_marseille","lat":43.24993,"lon":5.38947,"is_reserved":false,"is_disabled":false,"rental_uris":{"android":"levelo://app?vid=0dc9717d-de9f-4504-ae8d-5bfc6e2743fd","ios":"levelo://app?vid=0dc9717d-de9f-4504-ae8d-5bfc6e2743fd"},"vehicle_type_id":"4","last_reported":1728551411,"current_range_meters":3200,"station_id":"ce4bhgp2rcd13ifvqfd0","pricing_plan_id":"cebpf4jnsgd1na2vs0mg"},{"bike_id":"364d6193-644d-4122-81c1-77f7aaba4fc8","system_id":"levelo_inurba_marseille","lat":43.27362,"lon":5.36247,"is_reserved":false,"is_disabled":false,"rental_uris":{"android":"levelo://app?vid=364d6193-644d-4122-81c1-77f7aaba4fc8","ios":"levelo://app?vid=364d6193-644d-4122-81c1-77f7aaba4fc8"},"vehicle_type_id":"4","last_reported":1728551411,"current_range_meters":38800,"station_id":"ce4bhbh2rcd13ifvqeo0","pricing_plan_id":"cebpf4jnsgd1na2vs0mg"},{"bike_id":"ff56bc15-27c6-4e6c-ac75-a24ac50e15df","system_id":"levelo_inurba_marseille","lat":43.27492,"lon":5.4245,"is_reserved":false,"is_disabled":false,"rental_uris":{"android":"levelo://app?vid=ff56bc15-27c6-4e6c-ac75-a24ac50e15df","ios":"levelo://app?vid=ff56bc15-27c6-4e6c-ac75-a24ac50e15df"},"vehicle_type_id":"4","last_reported":1728551411,"current_range_meters":38800,"station_id":"ce4bhn92rcd13ifvqgrg","pricing_plan_id":"cebpf4jnsgd1na2vs0mg"},{"bike_id":"ef965a0f-519b-4a10-af60-98ffac3c1fcb","system_id":"levelo_inurba_marseille","lat":43.23979,"lon":5.43878,"is_reserved":false,"is_disabled":false,"rental_uris":{"android":"levelo://app?vid=ef965a0f-519b-4a10-af60-98ffac3c1fcb","ios":"levelo://app?vid=ef965a0f-519b-4a10-af60-98ffac3c1fcb"},"vehicle_type_id":"4","last_reported":1728551411,"current_range_meters":19600,"station_id":"","pricing_plan_id":"cebpf4jnsgd1na2vs0mg"},{"bike_id":"4873325e-8733-4cdf-89ae-7b2737f92ae4","system_id":"levelo_inurba_marseille","lat":43.25001,"lon":5.38925,"is_reserved":false,"is_disabled":false,"rental_uris":{"android":"levelo://app?vid=4873325e-8733-4cdf-89ae-7b2737f92ae4","ios":"levelo://app?vid=4873325e-8733-4cdf-89ae-7b2737f92ae4"},"vehicle_type_id":"4","last_reported":1728551411,"current_range_meters":28000,"station_id":"ce4bhgp2rcd13ifvqfd0","pricing_plan_id":"cebpf4jnsgd1na2vs0mg"},{"bike_id":"fd788659-0e78-402b-91a4-458257ccd222","system_id":"levelo_inurba_marseille","lat":43.26948,"lon":5.38643,"is_reserved":false,"is_disabled":false,"rental_uris":{"android":"levelo://app?vid=fd788659-0e78-402b-91a4-458257ccd222","ios":"levelo://app?vid=fd788659-0e78-402b-91a4-458257ccd222"},"vehicle_type_id":"4","last_reported":1728551411,"current_range_meters":28400,"station_id":"ce4bhh92rcd13ifvqfh0","pricing_plan_id":"cebpf4jnsgd1na2vs0mg"},{"bike_id":"2747d40b-eec5-4c47-8089-71f068908b10","system_id":"levelo_inurba_marseille","lat":43.3094,"lon":5.39046,"is_reserved":false,"is_disabled":false,"rental_uris":{"android":"levelo://app?vid=2747d40b-eec5-4c47-8089-71f068908b10","ios":"levelo://app?vid=2747d40b-eec5-4c47-8089-71f068908b10"},"vehicle_type_id":"4","last_reported":1728551411,"current_range_meters":4400,"station_id":"ce4bgup2rcd13ifvqco0","pricing_plan_id":"cebpf4jnsgd1na2vs0mg"},{"bike_id":"1a50cbf5-1a9b-4621-9b1e-5f7db3da8dd1","system_id":"levelo_inurba_marseille","lat":43.31211,"lon":5.3687,"is_reserved":false,"is_disabled":false,"rental_uris":{"android":"levelo://app?vid=1a50cbf5-1a9b-4621-9b1e-5f7db3da8dd1","ios":"levelo://app?vid=1a50cbf5-1a9b-4621-9b1e-5f7db3da8dd1"},"vehicle_type_id":"4","last_reported":1728551411,"current_range_meters":36800,"station_id":"ce4bgl92rcd13ifvqbq0","pricing_plan_id":"cebpf4jnsgd1na2vs0mg"},{"bike_id":"25dedc5a-499a-410f-9d0e-7d7be389050e","system_id":"levelo_inurba_marseille","lat":43.30358,"lon":5.41874,"is_reserved":false,"is_disabled":false,"rental_uris":{"android":"levelo://app?vid=25dedc5a-499a-410f-9d0e-7d7be389050e","ios":"levelo://app?vid=25dedc5a-499a-410f-9d0e-7d7be389050e"},"vehicle_type_id":"4","last_reported":1728551411,"current_range_meters":36800,"station_id":"ce4bhop2rcd13ifvqh7g","pricing_plan_id":"cebpf4jnsgd1na2vs0mg"},{"bike_id":"6c177a40-4704-434a-9cda-37a59fc669e7","system_id":"levelo_inurba_marseille","lat":43.23157,"lon":5.43708,"is_reserved":false,"is_disabled":false,"rental_uris":{"android":"levelo://app?vid=6c177a40-4704-434a-9cda-37a59fc669e7","ios":"levelo://app?vid=6c177a40-4704-434a-9cda-37a59fc669e7"},"vehicle_type_id":"4","last_reported":1728551411,"current_range_meters":33200,"station_id":"ce4bhmp2rcd13ifvqgog","pricing_plan_id":"cebpf4jnsgd1na2vs0mg"},{"bike_id":"88edf47e-12f3-42c1-a5c3-906c27176de3","system_id":"levelo_inurba_marseille","lat":43.33602,"lon":5.41036,"is_reserved":false,"is_disabled":false,"rental_uris":{"android":"levelo://app?vid=88edf47e-12f3-42c1-a5c3-906c27176de3","ios":"levelo://app?vid=88edf47e-12f3-42c1-a5c3-906c27176de3"},"vehicle_type_id":"4","last_reported":1728551411,"current_range_meters":38800,"station_id":"ce4bhqh2rcd13ifvqhmg","pricing_plan_id":"cebpf4jnsgd1na2vs0mg"},{"bike_id":"e8e4dc44-a9d9-4976-a097-f7f5e14c241c","system_id":"levelo_inurba_marseille","lat":43.29252,"lon":5.38433,"is_reserved":false,"is_disabled":false,"rental_uris":{"android":"levelo://app?vid=e8e4dc44-a9d9-4976-a097-f7f5e14c241c","ios":"levelo://app?vid=e8e4dc44-a9d9-4976-a097-f7f5e14c241c"},"vehicle_type_id":"4","last_reported":1728551411,"current_range_meters":11200,"station_id":"ce4bh692rcd13ifvqea0","pricing_plan_id":"cebpf4jnsgd1na2vs0mg"},{"bike_id":"1d219b72-f5b7-4ec5-93e0-d20414f1655d","system_id":"levelo_inurba_marseille","lat":43.32518,"lon":5.41464,"is_reserved":false,"is_disabled":false,"rental_uris":{"android":"levelo://app?vid=1d219b72-f5b7-4ec5-93e0-d20414f1655d","ios":"levelo://app?vid=1d219b72-f5b7-4ec5-93e0-d20414f1655d"},"vehicle_type_id":"4","last_reported":1728551411,"current_range_meters":33600,"station_id":"ce4bhq12rcd13ifvqhhg","pricing_plan_id":"cebpf4jnsgd1na2vs0mg"},{"bike_id":"6621e1af-9ca0-463c-a3ad-f651030b0dd3","system_id":"levelo_inurba_marseille","lat":43.23193,"lon":5.35549,"is_reserved":false,"is_disabled":false,"rental_uris":{"android":"levelo://app?vid=6621e1af-9ca0-463c-a3ad-f651030b0dd3","ios":"levelo://app?vid=6621e1af-9ca0-463c-a3ad-f651030b0dd3"},"vehicle_type_id":"4","last_reported":1728551411,"current_range_meters":36800,"station_id":"ce4bhu92rcd13ifvqi70","pricing_plan_id":"cebpf4jnsgd1na2vs0mg"},{"bike_id":"dbbb62cb-4f9e-48bd-80c2-e05a0143e2e7","system_id":"levelo_inurba_marseille","lat":43.32522,"lon":5.41455,"is_reserved":false,"is_disabled":false,"rental_uris":{"android":"levelo://app?vid=dbbb62cb-4f9e-48bd-80c2-e05a0143e2e7","ios":"levelo://app?vid=dbbb62cb-4f9e-48bd-80c2-e05a0143e2e7"},"vehicle_type_id":"4","last_reported":1728551411,"current_range_meters":24000,"station_id":"ce4bhq12rcd13ifvqhhg","pricing_plan_id":"cebpf4jnsgd1na2vs0mg"},{"bike_id":"3bcf753f-ef37-43e7-bef5-609f75dea2d7","system_id":"levelo_inurba_marseille","lat":43.32536,"lon":5.414527,"is_reserved":false,"is_disabled":false,"rental_uris":{"android":"levelo://app?vid=3bcf753f-ef37-43e7-bef5-609f75dea2d7","ios":"levelo://app?vid=3bcf753f-ef37-43e7-bef5-609f75dea2d7"},"vehicle_type_id":"4","last_reported":1728551411,"current_range_meters":9200,"station_id":"ce4bhq12rcd13ifvqhhg","pricing_plan_id":"cebpf4jnsgd1na2vs0mg"},{"bike_id":"369d26a6-9c7c-483f-ba16-377c911853f2","system_id":"levelo_inurba_marseille","lat":43.2979,"lon":5.37122,"is_reserved":false,"is_disabled":false,"rental_uris":{"android":"levelo://app?vid=369d26a6-9c7c-483f-ba16-377c911853f2","ios":"levelo://app?vid=369d26a6-9c7c-483f-ba16-377c911853f2"},"vehicle_type_id":"4","last_reported":1728551411,"current_range_meters":6800,"station_id":"ce4bgop2rcd13ifvqc1g","pricing_plan_id":"cebpf4jnsgd1na2vs0mg"},{"bike_id":"e5e6ef75-ea42-447b-ad4d-89959cbb3aa0","system_id":"levelo_inurba_marseille","lat":43.29622,"lon":5.37171,"is_reserved":false,"is_disabled":false,"rental_uris":{"android":"levelo://app?vid=e5e6ef75-ea42-447b-ad4d-89959cbb3aa0","ios":"levelo://app?vid=e5e6ef75-ea42-447b-ad4d-89959cbb3aa0"},"vehicle_type_id":"4","last_reported":1728551411,"current_range_meters":22000,"station_id":"ce4bgnh2rcd13ifvqc0g","pricing_plan_id":"cebpf4jnsgd1na2vs0mg"},{"bike_id":"9119f974-ea12-4975-b484-8868e7a8c451","system_id":"levelo_inurba_marseille","lat":43.325481,"lon":5.414359,"is_reserved":false,"is_disabled":false,"rental_uris":{"android":"levelo://app?vid=9119f974-ea12-4975-b484-8868e7a8c451","ios":"levelo://app?vid=9119f974-ea12-4975-b484-8868e7a8c451"},"vehicle_type_id":"4","last_reported":1728551411,"current_range_meters":8400,"station_id":"ce4bhq12rcd13ifvqhhg","pricing_plan_id":"cebpf4jnsgd1na2vs0mg"},{"bike_id":"37aed8a1-3fa7-4b24-ad4f-1103f233069c","system_id":"levelo_inurba_marseille","lat":43.32514,"lon":5.41454,"is_reserved":false,"is_disabled":false,"rental_uris":{"android":"levelo://app?vid=37aed8a1-3fa7-4b24-ad4f-1103f233069c","ios":"levelo://app?vid=37aed8a1-3fa7-4b24-ad4f-1103f233069c"},"vehicle_type_id":"4","last_reported":1728551411,"current_range_meters":32000,"station_id":"ce4bhq12rcd13ifvqhhg","pricing_plan_id":"cebpf4jnsgd1na2vs0mg"},{"bike_id":"c7345d11-567b-4b84-ba71-1052989c0ad2","system_id":"levelo_inurba_marseille","lat":43.24993,"lon":5.38937,"is_reserved":false,"is_disabled":false,"rental_uris":{"android":"levelo://app?vid=c7345d11-567b-4b84-ba71-1052989c0ad2","ios":"levelo://app?vid=c7345d11-567b-4b84-ba71-1052989c0ad2"},"vehicle_type_id":"4","last_reported":1728551411,"current_range_meters":30800,"station_id":"ce4bhgp2rcd13ifvqfd0","pricing_plan_id":"cebpf4jnsgd1na2vs0mg"},{"bike_id":"eac3bf75-faff-452e-9d38-51a106f0cdcd","system_id":"levelo_inurba_marseille","lat":43.31357,"lon":5.36715,"is_reserved":false,"is_disabled":false,"rental_uris":{"android":"levelo://app?vid=eac3bf75-faff-452e-9d38-51a106f0cdcd","ios":"levelo://app?vid=eac3bf75-faff-452e-9d38-51a106f0cdcd"},"vehicle_type_id":"4","last_reported":1728551411,"current_range_meters":38800,"station_id":"ce4bgr92rcd13ifvqc6g","pricing_plan_id":"cebpf4jnsgd1na2vs0mg"},{"bike_id":"821d9068-d0ff-46a6-a9ce-f2d27c98432a","system_id":"levelo_inurba_marseille","lat":43.27053,"lon":5.40255,"is_reserved":false,"is_disabled":false,"rental_uris":{"android":"levelo://app?vid=821d9068-d0ff-46a6-a9ce-f2d27c98432a","ios":"levelo://app?vid=821d9068-d0ff-46a6-a9ce-f2d27c98432a"},"vehicle_type_id":"4","last_reported":1728551411,"current_range_meters":33600,"station_id":"ce4bhk92rcd13ifvqgc0","pricing_plan_id":"cebpf4jnsgd1na2vs0mg"},{"bike_id":"910334d2-d108-4fc2-83c4-e16f3f792eec","system_id":"levelo_inurba_marseille","lat":43.30539,"lon":5.36545,"is_reserved":false,"is_disabled":false,"rental_uris":{"android":"levelo://app?vid=910334d2-d108-4fc2-83c4-e16f3f792eec","ios":"levelo://app?vid=910334d2-d108-4fc2-83c4-e16f3f792eec"},"vehicle_type_id":"4","last_reported":1728551411,"current_range_meters":34000,"station_id":"ce4bgs12rcd13ifvqcag","pricing_plan_id":"cebpf4jnsgd1na2vs0mg"},{"bike_id":"8e4120ad-cabb-401c-a8e0-6667135c9994","system_id":"levelo_inurba_marseille","lat":43.2972,"lon":5.37685,"is_reserved":false,"is_disabled":false,"rental_uris":{"android":"levelo://app?vid=8e4120ad-cabb-401c-a8e0-6667135c9994","ios":"levelo://app?vid=8e4120ad-cabb-401c-a8e0-6667135c9994"},"vehicle_type_id":"4","last_reported":1728551411,"current_range_meters":36800,"station_id":"ce4bgkh2rcd13ifvqbl0","pricing_plan_id":"cebpf4jnsgd1na2vs0mg"},{"bike_id":"6cd7d39b-2087-4d21-86bb-e2284a62aeb5","system_id":"levelo_inurba_marseille","lat":43.23189,"lon":5.35555,"is_reserved":false,"is_disabled":false,"rental_uris":{"android":"levelo://app?vid=6cd7d39b-2087-4d21-86bb-e2284a62aeb5","ios":"levelo://app?vid=6cd7d39b-2087-4d21-86bb-e2284a62aeb5"},"vehicle_type_id":"4","last_reported":1728551411,"current_range_meters":3200,"station_id":"ce4bhu92rcd13ifvqi70","pricing_plan_id":"cebpf4jnsgd1na2vs0mg"},{"bike_id":"8a1e694c-979c-4187-add5-7b891cc3e6f0","system_id":"levelo_inurba_marseille","lat":43.32533,"lon":5.41456,"is_reserved":false,"is_disabled":false,"rental_uris":{"android":"levelo://app?vid=8a1e694c-979c-4187-add5-7b891cc3e6f0","ios":"levelo://app?vid=8a1e694c-979c-4187-add5-7b891cc3e6f0"},"vehicle_type_id":"4","last_reported":1728551411,"current_range_meters":4000,"station_id":"ce4bhq12rcd13ifvqhhg","pricing_plan_id":"cebpf4jnsgd1na2vs0mg"},{"bike_id":"60098230-9c6b-4727-adac-60752fa30bf1","system_id":"levelo_inurba_marseille","lat":43.30916,"lon":5.36851,"is_reserved":false,"is_disabled":false,"rental_uris":{"android":"levelo://app?vid=60098230-9c6b-4727-adac-60752fa30bf1","ios":"levelo://app?vid=60098230-9c6b-4727-adac-60752fa30bf1"},"vehicle_type_id":"4","last_reported":1728551411,"current_range_meters":24000,"station_id":"ce4bgn92rcd13ifvqbvg","pricing_plan_id":"cebpf4jnsgd1na2vs0mg"},{"bike_id":"0a914b9b-1fcc-4758-a91b-1f2a11f6cf7a","system_id":"levelo_inurba_marseille","lat":43.27183,"lon":5.40995,"is_reserved":false,"is_disabled":false,"rental_uris":{"android":"levelo://app?vid=0a914b9b-1fcc-4758-a91b-1f2a11f6cf7a","ios":"levelo://app?vid=0a914b9b-1fcc-4758-a91b-1f2a11f6cf7a"},"vehicle_type_id":"4","last_reported":1728551411,"current_range_meters":17600,"station_id":"ce4bhl12rcd13ifvqgf0","pricing_plan_id":"cebpf4jnsgd1na2vs0mg"},{"bike_id":"8bd0be7b-a610-4b60-8bfa-ef0336d31606","system_id":"levelo_inurba_marseille","lat":43.29803,"lon":5.38108,"is_reserved":false,"is_disabled":false,"rental_uris":{"android":"levelo://app?vid=8bd0be7b-a610-4b60-8bfa-ef0336d31606","ios":"levelo://app?vid=8bd0be7b-a610-4b60-8bfa-ef0336d31606"},"vehicle_type_id":"4","last_reported":1728551411,"current_range_meters":8800,"station_id":"ce4bgip2rcd13ifvqbb0","pricing_plan_id":"cebpf4jnsgd1na2vs0mg"},{"bike_id":"81802e4b-521b-45fe-8ab0-7886b75793b8","system_id":"levelo_inurba_marseille","lat":43.29004,"lon":5.35616,"is_reserved":false,"is_disabled":false,"rental_uris":{"android":"levelo://app?vid=81802e4b-521b-45fe-8ab0-7886b75793b8","ios":"levelo://app?vid=81802e4b-521b-45fe-8ab0-7886b75793b8"},"vehicle_type_id":"4","last_reported":1728551411,"current_range_meters":38800,"station_id":"ce4bhb92rcd13ifvqen0","pricing_plan_id":"cebpf4jnsgd1na2vs0mg"},{"bike_id":"d65db0a0-2fe8-42de-a50f-73a9d36e8924","system_id":"levelo_inurba_marseille","lat":43.33608,"lon":5.410313,"is_reserved":false,"is_disabled":false,"rental_uris":{"android":"levelo://app?vid=d65db0a0-2fe8-42de-a50f-73a9d36e8924","ios":"levelo://app?vid=d65db0a0-2fe8-42de-a50f-73a9d36e8924"},"vehicle_type_id":"4","last_reported":1728551411,"current_range_meters":40000,"station_id":"ce4bhqh2rcd13ifvqhmg","pricing_plan_id":"cebpf4jnsgd1na2vs0mg"},{"bike_id":"5b9fe21e-ac55-4ff4-95f8-3f6705a4d2d4","system_id":"levelo_inurba_marseille","lat":43.27495,"lon":5.42453,"is_reserved":false,"is_disabled":false,"rental_uris":{"android":"levelo://app?vid=5b9fe21e-ac55-4ff4-95f8-3f6705a4d2d4","ios":"levelo://app?vid=5b9fe21e-ac55-4ff4-95f8-3f6705a4d2d4"},"vehicle_type_id":"4","last_reported":1728551411,"current_range_meters":12800,"station_id":"ce4bhn92rcd13ifvqgrg","pricing_plan_id":"cebpf4jnsgd1na2vs0mg"},{"bike_id":"1eac309f-c1ea-4f24-9bf1-742a5787b598","system_id":"levelo_inurba_marseille","lat":43.26559,"lon":5.39028,"is_reserved":false,"is_disabled":false,"rental_uris":{"android":"levelo://app?vid=1eac309f-c1ea-4f24-9bf1-742a5787b598","ios":"levelo://app?vid=1eac309f-c1ea-4f24-9bf1-742a5787b598"},"vehicle_type_id":"4","last_reported":1728551411,"current_range_meters":37600,"station_id":"ce4bhe12rcd13ifvqf30","pricing_plan_id":"cebpf4jnsgd1na2vs0mg"},{"bike_id":"9aba201e-5e38-49d5-8084-118549d2fe53","system_id":"levelo_inurba_marseille","lat":43.24804,"lon":5.3746,"is_reserved":false,"is_disabled":false,"rental_uris":{"android":"levelo://app?vid=9aba201e-5e38-49d5-8084-118549d2fe53","ios":"levelo://app?vid=9aba201e-5e38-49d5-8084-118549d2fe53"},"vehicle_type_id":"4","last_reported":1728551411,"current_range_meters":26800,"station_id":"ce4bhgh2rcd13ifvqfb0","pricing_plan_id":"cebpf4jnsgd1na2vs0mg"},{"bike_id":"e2dedf1c-7e55-45e6-8fb6-1039ae9ab85a","system_id":"levelo_inurba_marseille","lat":43.24387,"lon":5.37065,"is_reserved":false,"is_disabled":false,"rental_uris":{"android":"levelo://app?vid=e2dedf1c-7e55-45e6-8fb6-1039ae9ab85a","ios":"levelo://app?vid=e2dedf1c-7e55-45e6-8fb6-1039ae9ab85a"},"vehicle_type_id":"4","last_reported":1728551411,"current_range_meters":14800,"station_id":"ce4bhhh2rcd13ifvqfk0","pricing_plan_id":"cebpf4jnsgd1na2vs0mg"},{"bike_id":"b678530a-7ec0-44f1-96d0-1a9f7e47fbdc","system_id":"levelo_inurba_marseille","lat":43.2678,"lon":5.39425,"is_reserved":false,"is_disabled":false,"rental_uris":{"android":"levelo://app?vid=b678530a-7ec0-44f1-96d0-1a9f7e47fbdc","ios":"levelo://app?vid=b678530a-7ec0-44f1-96d0-1a9f7e47fbdc"},"vehicle_type_id":"4","last_reported":1728551411,"current_range_meters":22000,"station_id":"ce4bhh12rcd13ifvqfg0","pricing_plan_id":"cebpf4jnsgd1na2vs0mg"},{"bike_id":"c111393d-9cd9-41aa-904d-9a71386ece93","system_id":"levelo_inurba_marseille","lat":43.32529,"lon":5.41442,"is_reserved":false,"is_disabled":false,"rental_uris":{"android":"levelo://app?vid=c111393d-9cd9-41aa-904d-9a71386ece93","ios":"levelo://app?vid=c111393d-9cd9-41aa-904d-9a71386ece93"},"vehicle_type_id":"4","last_reported":1728551411,"current_range_meters":30400,"station_id":"ce4bhq12rcd13ifvqhhg","pricing_plan_id":"cebpf4jnsgd1na2vs0mg"},{"bike_id":"5ae58f45-e849-4b3f-852a-7e18dbc65c56","system_id":"levelo_inurba_marseille","lat":43.32527,"lon":5.41445,"is_reserved":false,"is_disabled":false,"rental_uris":{"android":"levelo://app?vid=5ae58f45-e849-4b3f-852a-7e18dbc65c56","ios":"levelo://app?vid=5ae58f45-e849-4b3f-852a-7e18dbc65c56"},"vehicle_type_id":"4","last_reported":1728551411,"current_range_meters":27600,"station_id":"ce4bhq12rcd13ifvqhhg","pricing_plan_id":"cebpf4jnsgd1na2vs0mg"},{"bike_id":"a3785cd9-7425-4db7-b814-70fb29111b7a","system_id":"levelo_inurba_marseille","lat":43.29965,"lon":5.41319,"is_reserved":false,"is_disabled":false,"rental_uris":{"android":"levelo://app?vid=a3785cd9-7425-4db7-b814-70fb29111b7a","ios":"levelo://app?vid=a3785cd9-7425-4db7-b814-70fb29111b7a"},"vehicle_type_id":"4","last_reported":1728551411,"current_range_meters":37600,"station_id":"ce4bhp12rcd13ifvqh9g","pricing_plan_id":"cebpf4jnsgd1na2vs0mg"},{"bike_id":"9bac0547-caca-4eef-b3cb-aa22e13232b1","system_id":"levelo_inurba_marseille","lat":43.25935,"lon":5.40902,"is_reserved":false,"is_disabled":false,"rental_uris":{"android":"levelo://app?vid=9bac0547-caca-4eef-b3cb-aa22e13232b1","ios":"levelo://app?vid=9bac0547-caca-4eef-b3cb-aa22e13232b1"},"vehicle_type_id":"4","last_reported":1728551411,"current_range_meters":26000,"station_id":"ce4bhm92rcd13ifvqglg","pricing_plan_id":"cebpf4jnsgd1na2vs0mg"},{"bike_id":"cb66e998-67b2-45d7-b3cb-88f03d964bc0","system_id":"levelo_inurba_marseille","lat":43.30283,"lon":5.3771,"is_reserved":false,"is_disabled":false,"rental_uris":{"android":"levelo://app?vid=cb66e998-67b2-45d7-b3cb-88f03d964bc0","ios":"levelo://app?vid=cb66e998-67b2-45d7-b3cb-88f03d964bc0"},"vehicle_type_id":"4","last_reported":1728551411,"current_range_meters":8400,"station_id":"ce4bguh2rcd13ifvqcj0","pricing_plan_id":"cebpf4jnsgd1na2vs0mg"},{"bike_id":"683b8926-f1f0-4d9a-b663-ec2cda50b86d","system_id":"levelo_inurba_marseille","lat":43.31365,"lon":5.38494,"is_reserved":false,"is_disabled":false,"rental_uris":{"android":"levelo://app?vid=683b8926-f1f0-4d9a-b663-ec2cda50b86d","ios":"levelo://app?vid=683b8926-f1f0-4d9a-b663-ec2cda50b86d"},"vehicle_type_id":"4","last_reported":1728551411,"current_range_meters":30400,"station_id":"ce4bgt92rcd13ifvqcf0","pricing_plan_id":"cebpf4jnsgd1na2vs0mg"},{"bike_id":"c2e51e73-0bcd-44cc-8f9a-f57b10eab5f2","system_id":"levelo_inurba_marseille","lat":43.24084,"lon":5.37738,"is_reserved":false,"is_disabled":false,"rental_uris":{"android":"levelo://app?vid=c2e51e73-0bcd-44cc-8f9a-f57b10eab5f2","ios":"levelo://app?vid=c2e51e73-0bcd-44cc-8f9a-f57b10eab5f2"},"vehicle_type_id":"4","last_reported":1728551411,"current_range_meters":18800,"station_id":"ce4bhnp2rcd13ifvqgvg","pricing_plan_id":"cebpf4jnsgd1na2vs0mg"},{"bike_id":"62ccfddd-1382-446c-9bf2-416c2cb7471b","system_id":"levelo_inurba_marseille","lat":43.30556,"lon":5.36548,"is_reserved":false,"is_disabled":false,"rental_uris":{"android":"levelo://app?vid=62ccfddd-1382-446c-9bf2-416c2cb7471b","ios":"levelo://app?vid=62ccfddd-1382-446c-9bf2-416c2cb7471b"},"vehicle_type_id":"4","last_reported":1728551411,"current_range_meters":35200,"station_id":"ce4bgs12rcd13ifvqcag","pricing_plan_id":"cebpf4jnsgd1na2vs0mg"},{"bike_id":"fc3f0547-89f3-45ed-b216-20a87ce42cb7","system_id":"levelo_inurba_marseille","lat":43.2315,"lon":5.43725,"is_reserved":false,"is_disabled":false,"rental_uris":{"android":"levelo://app?vid=fc3f0547-89f3-45ed-b216-20a87ce42cb7","ios":"levelo://app?vid=fc3f0547-89f3-45ed-b216-20a87ce42cb7"},"vehicle_type_id":"4","last_reported":1728551411,"current_range_meters":24800,"station_id":"ce4bhmp2rcd13ifvqgog","pricing_plan_id":"cebpf4jnsgd1na2vs0mg"},{"bike_id":"b19b2b39-42f3-4c0a-8520-5692f95d0740","system_id":"levelo_inurba_marseille","lat":43.291951,"lon":5.357936,"is_reserved":false,"is_disabled":false,"rental_uris":{"android":"levelo://app?vid=b19b2b39-42f3-4c0a-8520-5692f95d0740","ios":"levelo://app?vid=b19b2b39-42f3-4c0a-8520-5692f95d0740"},"vehicle_type_id":"4","last_reported":1728551411,"current_range_meters":38800,"station_id":"ce4bhb12rcd13ifvqel0","pricing_plan_id":"cebpf4jnsgd1na2vs0mg"},{"bike_id":"771e73b5-822c-442c-a5d4-b201a5fbfe1e","system_id":"levelo_inurba_marseille","lat":43.30917,"lon":5.36857,"is_reserved":false,"is_disabled":false,"rental_uris":{"android":"levelo://app?vid=771e73b5-822c-442c-a5d4-b201a5fbfe1e","ios":"levelo://app?vid=771e73b5-822c-442c-a5d4-b201a5fbfe1e"},"vehicle_type_id":"4","last_reported":1728551411,"current_range_meters":39200,"station_id":"ce4bgn92rcd13ifvqbvg","pricing_plan_id":"cebpf4jnsgd1na2vs0mg"},{"bike_id":"5b2002b1-99d3-437e-94a4-6eac9b7fb9e2","system_id":"levelo_inurba_marseille","lat":43.29577,"lon":5.375,"is_reserved":false,"is_disabled":false,"rental_uris":{"android":"levelo://app?vid=5b2002b1-99d3-437e-94a4-6eac9b7fb9e2","ios":"levelo://app?vid=5b2002b1-99d3-437e-94a4-6eac9b7fb9e2"},"vehicle_type_id":"4","last_reported":1728551411,"current_range_meters":27600,"station_id":"ce4bgh92rcd13ifvqb50","pricing_plan_id":"cebpf4jnsgd1na2vs0mg"},{"bike_id":"ee05151c-ee6d-4834-826a-859a87166f27","system_id":"levelo_inurba_marseille","lat":43.33196,"lon":5.403091,"is_reserved":false,"is_disabled":false,"rental_uris":{"android":"levelo://app?vid=ee05151c-ee6d-4834-826a-859a87166f27","ios":"levelo://app?vid=ee05151c-ee6d-4834-826a-859a87166f27"},"vehicle_type_id":"4","last_reported":1728551411,"current_range_meters":6000,"station_id":"ce4bhq12rcd13ifvqhhg","pricing_plan_id":"cebpf4jnsgd1na2vs0mg"},{"bike_id":"aa75c41c-1391-4d5a-b0ad-fb29c317877d","system_id":"levelo_inurba_marseille","lat":43.2307,"lon":5.35492,"is_reserved":false,"is_disabled":false,"rental_uris":{"android":"levelo://app?vid=aa75c41c-1391-4d5a-b0ad-fb29c317877d","ios":"levelo://app?vid=aa75c41c-1391-4d5a-b0ad-fb29c317877d"},"vehicle_type_id":"4","last_reported":1728551411,"current_range_meters":12400,"station_id":"cpo3342slgdg3j2ifvpg","pricing_plan_id":"cebpf4jnsgd1na2vs0mg"},{"bike_id":"f6963f46-5e73-42df-9f9e-8258ce538093","system_id":"levelo_inurba_marseille","lat":43.25492,"lon":5.37647,"is_reserved":false,"is_disabled":false,"rental_uris":{"android":"levelo://app?vid=f6963f46-5e73-42df-9f9e-8258ce538093","ios":"levelo://app?vid=f6963f46-5e73-42df-9f9e-8258ce538093"},"vehicle_type_id":"4","last_reported":1728551411,"current_range_meters":32800,"station_id":"ce4bhh12rcd13ifvqff0","pricing_plan_id":"cebpf4jnsgd1na2vs0mg"},{"bike_id":"3815e933-e20e-4440-bbdd-11c9132eb606","system_id":"levelo_inurba_marseille","lat":43.33601,"lon":5.41025,"is_reserved":false,"is_disabled":false,"rental_uris":{"android":"levelo://app?vid=3815e933-e20e-4440-bbdd-11c9132eb606","ios":"levelo://app?vid=3815e933-e20e-4440-bbdd-11c9132eb606"},"vehicle_type_id":"4","last_reported":1728551411,"current_range_meters":39200,"station_id":"ce4bhqh2rcd13ifvqhmg","pricing_plan_id":"cebpf4jnsgd1na2vs0mg"},{"bike_id":"c16cf7f6-f1d1-4c55-99ff-06b0ddaf0455","system_id":"levelo_inurba_marseille","lat":43.24082,"lon":5.3774,"is_reserved":false,"is_disabled":false,"rental_uris":{"android":"levelo://app?vid=c16cf7f6-f1d1-4c55-99ff-06b0ddaf0455","ios":"levelo://app?vid=c16cf7f6-f1d1-4c55-99ff-06b0ddaf0455"},"vehicle_type_id":"4","last_reported":1728551411,"current_range_meters":28400,"station_id":"ce4bhnp2rcd13ifvqgvg","pricing_plan_id":"cebpf4jnsgd1na2vs0mg"},{"bike_id":"b7507c69-0bc0-4e9e-9023-7bda0a81f93b","system_id":"levelo_inurba_marseille","lat":43.30555,"lon":5.36548,"is_reserved":false,"is_disabled":false,"rental_uris":{"android":"levelo://app?vid=b7507c69-0bc0-4e9e-9023-7bda0a81f93b","ios":"levelo://app?vid=b7507c69-0bc0-4e9e-9023-7bda0a81f93b"},"vehicle_type_id":"4","last_reported":1728551411,"current_range_meters":39200,"station_id":"ce4bgs12rcd13ifvqcag","pricing_plan_id":"cebpf4jnsgd1na2vs0mg"},{"bike_id":"cffa0fb1-252e-49d0-9a3c-70e95ff36166","system_id":"levelo_inurba_marseille","lat":43.2695,"lon":5.38643,"is_reserved":false,"is_disabled":false,"rental_uris":{"android":"levelo://app?vid=cffa0fb1-252e-49d0-9a3c-70e95ff36166","ios":"levelo://app?vid=cffa0fb1-252e-49d0-9a3c-70e95ff36166"},"vehicle_type_id":"4","last_reported":1728551411,"current_range_meters":34800,"station_id":"ce4bhh92rcd13ifvqfh0","pricing_plan_id":"cebpf4jnsgd1na2vs0mg"},{"bike_id":"7c1ed7ee-586f-4a15-be4b-81c4a3823409","system_id":"levelo_inurba_marseille","lat":43.337444,"lon":5.374475,"is_reserved":false,"is_disabled":false,"rental_uris":{"android":"levelo://app?vid=7c1ed7ee-586f-4a15-be4b-81c4a3823409","ios":"levelo://app?vid=7c1ed7ee-586f-4a15-be4b-81c4a3823409"},"vehicle_type_id":"4","last_reported":1728551411,"current_range_meters":19200,"station_id":"","pricing_plan_id":"cebpf4jnsgd1na2vs0mg"},{"bike_id":"8d20e8a7-ba89-47cf-851e-c99aa2314043","system_id":"levelo_inurba_marseille","lat":43.3169,"lon":5.40474,"is_reserved":false,"is_disabled":false,"rental_uris":{"android":"levelo://app?vid=8d20e8a7-ba89-47cf-851e-c99aa2314043","ios":"levelo://app?vid=8d20e8a7-ba89-47cf-851e-c99aa2314043"},"vehicle_type_id":"4","last_reported":1728551411,"current_range_meters":18000,"station_id":"ce4bh012rcd13ifvqd00","pricing_plan_id":"cebpf4jnsgd1na2vs0mg"},{"bike_id":"0a4f2b49-eddd-4836-9adc-1e06f096e7ce","system_id":"levelo_inurba_marseille","lat":43.29557,"lon":5.42293,"is_reserved":false,"is_disabled":false,"rental_uris":{"android":"levelo://app?vid=0a4f2b49-eddd-4836-9adc-1e06f096e7ce","ios":"levelo://app?vid=0a4f2b49-eddd-4836-9adc-1e06f096e7ce"},"vehicle_type_id":"4","last_reported":1728551411,"current_range_meters":17600,"station_id":"ce4bhph2rcd13ifvqhdg","pricing_plan_id":"cebpf4jnsgd1na2vs0mg"},{"bike_id":"1bb4a8a6-9a90-43cd-b7b1-a1e3190ef8b1","system_id":"levelo_inurba_marseille","lat":43.27206,"lon":5.39182,"is_reserved":false,"is_disabled":false,"rental_uris":{"android":"levelo://app?vid=1bb4a8a6-9a90-43cd-b7b1-a1e3190ef8b1","ios":"levelo://app?vid=1bb4a8a6-9a90-43cd-b7b1-a1e3190ef8b1"},"vehicle_type_id":"4","last_reported":1728551411,"current_range_meters":38000,"station_id":"ce4bhhp2rcd13ifvqfm0","pricing_plan_id":"cebpf4jnsgd1na2vs0mg"},{"bike_id":"101d89f9-c6c1-46de-b9db-b649498f27b4","system_id":"levelo_inurba_marseille","lat":43.32532,"lon":5.41452,"is_reserved":false,"is_disabled":false,"rental_uris":{"android":"levelo://app?vid=101d89f9-c6c1-46de-b9db-b649498f27b4","ios":"levelo://app?vid=101d89f9-c6c1-46de-b9db-b649498f27b4"},"vehicle_type_id":"4","last_reported":1728551411,"current_range_meters":8400,"station_id":"ce4bhq12rcd13ifvqhhg","pricing_plan_id":"cebpf4jnsgd1na2vs0mg"},{"bike_id":"2d0cff65-c3d6-4e57-8155-8e335a28ac1d","system_id":"levelo_inurba_marseille","lat":43.29631,"lon":5.40596,"is_reserved":false,"is_disabled":false,"rental_uris":{"android":"levelo://app?vid=2d0cff65-c3d6-4e57-8155-8e335a28ac1d","ios":"levelo://app?vid=2d0cff65-c3d6-4e57-8155-8e335a28ac1d"},"vehicle_type_id":"4","last_reported":1728551411,"current_range_meters":25200,"station_id":"ce4bh0h2rcd13ifvqd60","pricing_plan_id":"cebpf4jnsgd1na2vs0mg"},{"bike_id":"0f22c838-53a3-414e-ac6f-7a7f708d16ab","system_id":"levelo_inurba_marseille","lat":43.24072,"lon":5.3776,"is_reserved":false,"is_disabled":false,"rental_uris":{"android":"levelo://app?vid=0f22c838-53a3-414e-ac6f-7a7f708d16ab","ios":"levelo://app?vid=0f22c838-53a3-414e-ac6f-7a7f708d16ab"},"vehicle_type_id":"4","last_reported":1728551411,"current_range_meters":38800,"station_id":"ce4bhnp2rcd13ifvqgvg","pricing_plan_id":"cebpf4jnsgd1na2vs0mg"},{"bike_id":"a7191991-b1dc-4438-b124-46329d055039","system_id":"levelo_inurba_marseille","lat":43.27494,"lon":5.42452,"is_reserved":false,"is_disabled":false,"rental_uris":{"android":"levelo://app?vid=a7191991-b1dc-4438-b124-46329d055039","ios":"levelo://app?vid=a7191991-b1dc-4438-b124-46329d055039"},"vehicle_type_id":"4","last_reported":1728551411,"current_range_meters":23200,"station_id":"ce4bhn92rcd13ifvqgrg","pricing_plan_id":"cebpf4jnsgd1na2vs0mg"},{"bike_id":"b23acee4-5720-4575-91af-11c4e23edb2d","system_id":"levelo_inurba_marseille","lat":43.337444,"lon":5.374475,"is_reserved":false,"is_disabled":false,"rental_uris":{"android":"levelo://app?vid=b23acee4-5720-4575-91af-11c4e23edb2d","ios":"levelo://app?vid=b23acee4-5720-4575-91af-11c4e23edb2d"},"vehicle_type_id":"4","last_reported":1728551411,"current_range_meters":38000,"station_id":"ce4bhbh2rcd13ifvqepg","pricing_plan_id":"cebpf4jnsgd1na2vs0mg"},{"bike_id":"09660993-55da-4221-bfc3-99ae9eebefed","system_id":"levelo_inurba_marseille","lat":43.26787,"lon":5.3942,"is_reserved":false,"is_disabled":false,"rental_uris":{"android":"levelo://app?vid=09660993-55da-4221-bfc3-99ae9eebefed","ios":"levelo://app?vid=09660993-55da-4221-bfc3-99ae9eebefed"},"vehicle_type_id":"4","last_reported":1728551411,"current_range_meters":20000,"station_id":"ce4bhh12rcd13ifvqfg0","pricing_plan_id":"cebpf4jnsgd1na2vs0mg"},{"bike_id":"62f352ec-e233-4d7f-8753-6a5615214777","system_id":"levelo_inurba_marseille","lat":43.32286,"lon":5.38288,"is_reserved":false,"is_disabled":false,"rental_uris":{"android":"levelo://app?vid=62f352ec-e233-4d7f-8753-6a5615214777","ios":"levelo://app?vid=62f352ec-e233-4d7f-8753-6a5615214777"},"vehicle_type_id":"4","last_reported":1728551411,"current_range_meters":38800,"station_id":"ce4bhr12rcd13ifvqhqg","pricing_plan_id":"cebpf4jnsgd1na2vs0mg"},{"bike_id":"9f0b3c45-77b4-410d-9198-8d5b64a2df07","system_id":"levelo_inurba_marseille","lat":43.24806,"lon":5.37456,"is_reserved":false,"is_disabled":false,"rental_uris":{"android":"levelo://app?vid=9f0b3c45-77b4-410d-9198-8d5b64a2df07","ios":"levelo://app?vid=9f0b3c45-77b4-410d-9198-8d5b64a2df07"},"vehicle_type_id":"4","last_reported":1728551411,"current_range_meters":23200,"station_id":"ce4bhgh2rcd13ifvqfb0","pricing_plan_id":"cebpf4jnsgd1na2vs0mg"},{"bike_id":"33b3bc64-4d11-4b4c-9ea9-f42d8b0bfa58","system_id":"levelo_inurba_marseille","lat":43.31219,"lon":5.36867,"is_reserved":false,"is_disabled":false,"rental_uris":{"android":"levelo://app?vid=33b3bc64-4d11-4b4c-9ea9-f42d8b0bfa58","ios":"levelo://app?vid=33b3bc64-4d11-4b4c-9ea9-f42d8b0bfa58"},"vehicle_type_id":"4","last_reported":1728551411,"current_range_meters":38800,"station_id":"ce4bgl92rcd13ifvqbq0","pricing_plan_id":"cebpf4jnsgd1na2vs0mg"},{"bike_id":"84d9530d-0955-41fa-9650-6420af27a76b","system_id":"levelo_inurba_marseille","lat":43.30059,"lon":5.36591,"is_reserved":false,"is_disabled":false,"rental_uris":{"android":"levelo://app?vid=84d9530d-0955-41fa-9650-6420af27a76b","ios":"levelo://app?vid=84d9530d-0955-41fa-9650-6420af27a76b"},"vehicle_type_id":"4","last_reported":1728551411,"current_range_meters":36800,"station_id":"","pricing_plan_id":"cebpf4jnsgd1na2vs0mg"},{"bike_id":"d04835cf-1083-46e3-aa5a-85b4902b74ab","system_id":"levelo_inurba_marseille","lat":43.29681,"lon":5.37293,"is_reserved":false,"is_disabled":false,"rental_uris":{"android":"levelo://app?vid=d04835cf-1083-46e3-aa5a-85b4902b74ab","ios":"levelo://app?vid=d04835cf-1083-46e3-aa5a-85b4902b74ab"},"vehicle_type_id":"4","last_reported":1728551411,"current_range_meters":12000,"station_id":"ce4bgk12rcd13ifvqbj0","pricing_plan_id":"cebpf4jnsgd1na2vs0mg"},{"bike_id":"033e3983-eccc-4920-a19e-04422bbd4a75","system_id":"levelo_inurba_marseille","lat":43.3028,"lon":5.37699,"is_reserved":false,"is_disabled":false,"rental_uris":{"android":"levelo://app?vid=033e3983-eccc-4920-a19e-04422bbd4a75","ios":"levelo://app?vid=033e3983-eccc-4920-a19e-04422bbd4a75"},"vehicle_type_id":"4","last_reported":1728551411,"current_range_meters":34000,"station_id":"ce4bguh2rcd13ifvqcj0","pricing_plan_id":"cebpf4jnsgd1na2vs0mg"},{"bike_id":"4ccb046f-2614-4044-8238-6e23561f19a6","system_id":"levelo_inurba_marseille","lat":43.30006,"lon":5.36661,"is_reserved":false,"is_disabled":false,"rental_uris":{"android":"levelo://app?vid=4ccb046f-2614-4044-8238-6e23561f19a6","ios":"levelo://app?vid=4ccb046f-2614-4044-8238-6e23561f19a6"},"vehicle_type_id":"4","last_reported":1728551411,"current_range_meters":20800,"station_id":"ce4bgrh2rcd13ifvqc8g","pricing_plan_id":"cebpf4jnsgd1na2vs0mg"},{"bike_id":"c4500bb5-8905-4b53-bafc-a0882ba39d10","system_id":"levelo_inurba_marseille","lat":43.2594,"lon":5.40911,"is_reserved":false,"is_disabled":false,"rental_uris":{"android":"levelo://app?vid=c4500bb5-8905-4b53-bafc-a0882ba39d10","ios":"levelo://app?vid=c4500bb5-8905-4b53-bafc-a0882ba39d10"},"vehicle_type_id":"4","last_reported":1728551411,"current_range_meters":32400,"station_id":"ce4bhm92rcd13ifvqglg","pricing_plan_id":"cebpf4jnsgd1na2vs0mg"},{"bike_id":"6136aa7a-2430-4200-94f8-941976677a52","system_id":"levelo_inurba_marseille","lat":43.28936,"lon":5.36632,"is_reserved":false,"is_disabled":false,"rental_uris":{"android":"levelo://app?vid=6136aa7a-2430-4200-94f8-941976677a52","ios":"levelo://app?vid=6136aa7a-2430-4200-94f8-941976677a52"},"vehicle_type_id":"4","last_reported":1728551411,"current_range_meters":39200,"station_id":"ce4bhap2rcd13ifvqek0","pricing_plan_id":"cebpf4jnsgd1na2vs0mg"},{"bike_id":"eb0e05a1-bf38-4016-9a80-8ab66311f4fb","system_id":"levelo_inurba_marseille","lat":43.30469,"lon":5.37897,"is_reserved":false,"is_disabled":false,"rental_uris":{"android":"levelo://app?vid=eb0e05a1-bf38-4016-9a80-8ab66311f4fb","ios":"levelo://app?vid=eb0e05a1-bf38-4016-9a80-8ab66311f4fb"},"vehicle_type_id":"4","last_reported":1728551411,"current_range_meters":38400,"station_id":"ce4bgup2rcd13ifvqcn0","pricing_plan_id":"cebpf4jnsgd1na2vs0mg"},{"bike_id":"9ec2e3a7-901e-4bba-b293-ac8ab8c8b7be","system_id":"levelo_inurba_marseille","lat":43.24074,"lon":5.37759,"is_reserved":false,"is_disabled":false,"rental_uris":{"android":"levelo://app?vid=9ec2e3a7-901e-4bba-b293-ac8ab8c8b7be","ios":"levelo://app?vid=9ec2e3a7-901e-4bba-b293-ac8ab8c8b7be"},"vehicle_type_id":"4","last_reported":1728551411,"current_range_meters":14400,"station_id":"ce4bhnp2rcd13ifvqgvg","pricing_plan_id":"cebpf4jnsgd1na2vs0mg"},{"bike_id":"2dc1d4f2-bffe-419c-b07d-2f2347a2e109","system_id":"levelo_inurba_marseille","lat":43.23157,"lon":5.43704,"is_reserved":false,"is_disabled":false,"rental_uris":{"android":"levelo://app?vid=2dc1d4f2-bffe-419c-b07d-2f2347a2e109","ios":"levelo://app?vid=2dc1d4f2-bffe-419c-b07d-2f2347a2e109"},"vehicle_type_id":"4","last_reported":1728551411,"current_range_meters":19200,"station_id":"ce4bhmp2rcd13ifvqgog","pricing_plan_id":"cebpf4jnsgd1na2vs0mg"},{"bike_id":"28f14564-5a47-4bc5-a509-d99bcaace2f7","system_id":"levelo_inurba_marseille","lat":43.23157,"lon":5.43704,"is_reserved":false,"is_disabled":false,"rental_uris":{"android":"levelo://app?vid=28f14564-5a47-4bc5-a509-d99bcaace2f7","ios":"levelo://app?vid=28f14564-5a47-4bc5-a509-d99bcaace2f7"},"vehicle_type_id":"4","last_reported":1728551411,"current_range_meters":11600,"station_id":"ce4bhmp2rcd13ifvqgog","pricing_plan_id":"cebpf4jnsgd1na2vs0mg"},{"bike_id":"9cd12cd6-afd4-485d-b201-00445804fed0","system_id":"levelo_inurba_marseille","lat":43.24664,"lon":5.38164,"is_reserved":false,"is_disabled":false,"rental_uris":{"android":"levelo://app?vid=9cd12cd6-afd4-485d-b201-00445804fed0","ios":"levelo://app?vid=9cd12cd6-afd4-485d-b201-00445804fed0"},"vehicle_type_id":"4","last_reported":1728551411,"current_range_meters":30400,"station_id":"ce4bhih2rcd13ifvqfr0","pricing_plan_id":"cebpf4jnsgd1na2vs0mg"},{"bike_id":"2959adcb-eb5c-489c-b1d4-e001dbc3e8c4","system_id":"levelo_inurba_marseille","lat":43.24391,"lon":5.37057,"is_reserved":false,"is_disabled":false,"rental_uris":{"android":"levelo://app?vid=2959adcb-eb5c-489c-b1d4-e001dbc3e8c4","ios":"levelo://app?vid=2959adcb-eb5c-489c-b1d4-e001dbc3e8c4"},"vehicle_type_id":"4","last_reported":1728551411,"current_range_meters":39200,"station_id":"ce4bhhh2rcd13ifvqfk0","pricing_plan_id":"cebpf4jnsgd1na2vs0mg"},{"bike_id":"651eb07f-27a8-44af-962d-d8fd68bde4bd","system_id":"levelo_inurba_marseille","lat":43.29584,"lon":5.36742,"is_reserved":false,"is_disabled":false,"rental_uris":{"android":"levelo://app?vid=651eb07f-27a8-44af-962d-d8fd68bde4bd","ios":"levelo://app?vid=651eb07f-27a8-44af-962d-d8fd68bde4bd"},"vehicle_type_id":"4","last_reported":1728551411,"current_range_meters":36400,"station_id":"ce4bgph2rcd13ifvqc2g","pricing_plan_id":"cebpf4jnsgd1na2vs0mg"},{"bike_id":"025d202c-ef88-4351-9311-b863aad4c7c3","system_id":"levelo_inurba_marseille","lat":43.301575,"lon":5.374786,"is_reserved":false,"is_disabled":false,"rental_uris":{"android":"levelo://app?vid=025d202c-ef88-4351-9311-b863aad4c7c3","ios":"levelo://app?vid=025d202c-ef88-4351-9311-b863aad4c7c3"},"vehicle_type_id":"4","last_reported":1728551411,"current_range_meters":27200,"station_id":"ce4bgs92rcd13ifvqcc0","pricing_plan_id":"cebpf4jnsgd1na2vs0mg"},{"bike_id":"63d601a6-cfca-49c0-99d6-a0f5b0501f90","system_id":"levelo_inurba_marseille","lat":43.28616,"lon":5.35104,"is_reserved":false,"is_disabled":false,"rental_uris":{"android":"levelo://app?vid=63d601a6-cfca-49c0-99d6-a0f5b0501f90","ios":"levelo://app?vid=63d601a6-cfca-49c0-99d6-a0f5b0501f90"},"vehicle_type_id":"4","last_reported":1728551411,"current_range_meters":29600,"station_id":"ce4bhch2rcd13ifvqeug","pricing_plan_id":"cebpf4jnsgd1na2vs0mg"},{"bike_id":"f9140b0e-1885-4add-b6d4-9f8709588af9","system_id":"levelo_inurba_marseille","lat":43.30188,"lon":5.36627,"is_reserved":false,"is_disabled":false,"rental_uris":{"android":"levelo://app?vid=f9140b0e-1885-4add-b6d4-9f8709588af9","ios":"levelo://app?vid=f9140b0e-1885-4add-b6d4-9f8709588af9"},"vehicle_type_id":"4","last_reported":1728551411,"current_range_meters":26000,"station_id":"ce4bgrh2rcd13ifvqc8g","pricing_plan_id":"cebpf4jnsgd1na2vs0mg"},{"bike_id":"8ae8bbf4-7502-4e26-9a9b-508af29fc57f","system_id":"levelo_inurba_marseille","lat":43.30151,"lon":5.38085,"is_reserved":false,"is_disabled":false,"rental_uris":{"android":"levelo://app?vid=8ae8bbf4-7502-4e26-9a9b-508af29fc57f","ios":"levelo://app?vid=8ae8bbf4-7502-4e26-9a9b-508af29fc57f"},"vehicle_type_id":"4","last_reported":1728551411,"current_range_meters":28800,"station_id":"ce4bgjp2rcd13ifvqbh0","pricing_plan_id":"cebpf4jnsgd1na2vs0mg"},{"bike_id":"755ee634-2cfc-4374-8c56-334bf40334c3","system_id":"levelo_inurba_marseille","lat":43.30547,"lon":5.36557,"is_reserved":false,"is_disabled":false,"rental_uris":{"android":"levelo://app?vid=755ee634-2cfc-4374-8c56-334bf40334c3","ios":"levelo://app?vid=755ee634-2cfc-4374-8c56-334bf40334c3"},"vehicle_type_id":"4","last_reported":1728551411,"current_range_meters":22800,"station_id":"ce4bgs12rcd13ifvqcag","pricing_plan_id":"cebpf4jnsgd1na2vs0mg"},{"bike_id":"a4d9193f-992e-4cd0-8a97-afb4e0659ba3","system_id":"levelo_inurba_marseille","lat":43.32656,"lon":5.40989,"is_reserved":false,"is_disabled":false,"rental_uris":{"android":"levelo://app?vid=a4d9193f-992e-4cd0-8a97-afb4e0659ba3","ios":"levelo://app?vid=a4d9193f-992e-4cd0-8a97-afb4e0659ba3"},"vehicle_type_id":"4","last_reported":1728551411,"current_range_meters":39200,"station_id":"ce4bhpp2rcd13ifvqhgg","pricing_plan_id":"cebpf4jnsgd1na2vs0mg"},{"bike_id":"ed1572ba-6b07-4be6-bf65-a07a2cf31738","system_id":"levelo_inurba_marseille","lat":43.24806,"lon":5.37457,"is_reserved":false,"is_disabled":false,"rental_uris":{"android":"levelo://app?vid=ed1572ba-6b07-4be6-bf65-a07a2cf31738","ios":"levelo://app?vid=ed1572ba-6b07-4be6-bf65-a07a2cf31738"},"vehicle_type_id":"4","last_reported":1728551411,"current_range_meters":38800,"station_id":"ce4bhgh2rcd13ifvqfb0","pricing_plan_id":"cebpf4jnsgd1na2vs0mg"},{"bike_id":"dc569d61-91e8-4004-b3f3-c501f498504a","system_id":"levelo_inurba_marseille","lat":43.23154,"lon":5.43716,"is_reserved":false,"is_disabled":false,"rental_uris":{"android":"levelo://app?vid=dc569d61-91e8-4004-b3f3-c501f498504a","ios":"levelo://app?vid=dc569d61-91e8-4004-b3f3-c501f498504a"},"vehicle_type_id":"4","last_reported":1728551411,"current_range_meters":20000,"station_id":"ce4bhmp2rcd13ifvqgog","pricing_plan_id":"cebpf4jnsgd1na2vs0mg"},{"bike_id":"977d9e0e-fa68-4eae-9557-565a02e21571","system_id":"levelo_inurba_marseille","lat":43.30543,"lon":5.3655,"is_reserved":false,"is_disabled":false,"rental_uris":{"android":"levelo://app?vid=977d9e0e-fa68-4eae-9557-565a02e21571","ios":"levelo://app?vid=977d9e0e-fa68-4eae-9557-565a02e21571"},"vehicle_type_id":"4","last_reported":1728551411,"current_range_meters":25200,"station_id":"ce4bgs12rcd13ifvqcag","pricing_plan_id":"cebpf4jnsgd1na2vs0mg"},{"bike_id":"99d66301-10cb-48d7-8f69-dbf04f54b39e","system_id":"levelo_inurba_marseille","lat":43.23065,"lon":5.35493,"is_reserved":false,"is_disabled":false,"rental_uris":{"android":"levelo://app?vid=99d66301-10cb-48d7-8f69-dbf04f54b39e","ios":"levelo://app?vid=99d66301-10cb-48d7-8f69-dbf04f54b39e"},"vehicle_type_id":"4","last_reported":1728551411,"current_range_meters":25600,"station_id":"cpo3342slgdg3j2ifvpg","pricing_plan_id":"cebpf4jnsgd1na2vs0mg"},{"bike_id":"625f172c-9389-49cb-ba12-3231563527bc","system_id":"levelo_inurba_marseille","lat":43.337444,"lon":5.374475,"is_reserved":false,"is_disabled":false,"rental_uris":{"android":"levelo://app?vid=625f172c-9389-49cb-ba12-3231563527bc","ios":"levelo://app?vid=625f172c-9389-49cb-ba12-3231563527bc"},"vehicle_type_id":"4","last_reported":1728551411,"current_range_meters":24800,"station_id":"ce4rr2p2rcd13i802rgg","pricing_plan_id":"cebpf4jnsgd1na2vs0mg"},{"bike_id":"69019cd8-e500-4221-a983-0fbacaa37828","system_id":"levelo_inurba_marseille","lat":43.27495,"lon":5.42449,"is_reserved":false,"is_disabled":false,"rental_uris":{"android":"levelo://app?vid=69019cd8-e500-4221-a983-0fbacaa37828","ios":"levelo://app?vid=69019cd8-e500-4221-a983-0fbacaa37828"},"vehicle_type_id":"4","last_reported":1728551411,"current_range_meters":38800,"station_id":"ce4bhn92rcd13ifvqgrg","pricing_plan_id":"cebpf4jnsgd1na2vs0mg"},{"bike_id":"66f49b7b-9c9e-44d7-bf46-af58424a6566","system_id":"levelo_inurba_marseille","lat":43.32538,"lon":5.4144,"is_reserved":false,"is_disabled":false,"rental_uris":{"android":"levelo://app?vid=66f49b7b-9c9e-44d7-bf46-af58424a6566","ios":"levelo://app?vid=66f49b7b-9c9e-44d7-bf46-af58424a6566"},"vehicle_type_id":"4","last_reported":1728551411,"current_range_meters":27600,"station_id":"ce4bhq12rcd13ifvqhhg","pricing_plan_id":"cebpf4jnsgd1na2vs0mg"},{"bike_id":"2aadf3e3-6b26-4f4b-9fa4-da62a879bb2d","system_id":"levelo_inurba_marseille","lat":43.30144,"lon":5.37407,"is_reserved":false,"is_disabled":false,"rental_uris":{"android":"levelo://app?vid=2aadf3e3-6b26-4f4b-9fa4-da62a879bb2d","ios":"levelo://app?vid=2aadf3e3-6b26-4f4b-9fa4-da62a879bb2d"},"vehicle_type_id":"4","last_reported":1728551411,"current_range_meters":19600,"station_id":"ce4bgs92rcd13ifvqcc0","pricing_plan_id":"cebpf4jnsgd1na2vs0mg"},{"bike_id":"a9791209-a902-4c51-a677-a20ef860c053","system_id":"levelo_inurba_marseille","lat":43.25577,"lon":5.38241,"is_reserved":false,"is_disabled":false,"rental_uris":{"android":"levelo://app?vid=a9791209-a902-4c51-a677-a20ef860c053","ios":"levelo://app?vid=a9791209-a902-4c51-a677-a20ef860c053"},"vehicle_type_id":"4","last_reported":1728551411,"current_range_meters":4800,"station_id":"ce4bhih2rcd13ifvqfs0","pricing_plan_id":"cebpf4jnsgd1na2vs0mg"},{"bike_id":"33ab7486-5600-4200-a0fc-29b967fcfc79","system_id":"levelo_inurba_marseille","lat":43.3248,"lon":5.3655,"is_reserved":false,"is_disabled":false,"rental_uris":{"android":"levelo://app?vid=33ab7486-5600-4200-a0fc-29b967fcfc79","ios":"levelo://app?vid=33ab7486-5600-4200-a0fc-29b967fcfc79"},"vehicle_type_id":"4","last_reported":1728551411,"current_range_meters":8000,"station_id":"ce4bhs12rcd13ifvqhvg","pricing_plan_id":"cebpf4jnsgd1na2vs0mg"},{"bike_id":"0ffbdbd8-5971-4b7e-9c40-3f2a96416cf9","system_id":"levelo_inurba_marseille","lat":43.31215,"lon":5.36854,"is_reserved":false,"is_disabled":false,"rental_uris":{"android":"levelo://app?vid=0ffbdbd8-5971-4b7e-9c40-3f2a96416cf9","ios":"levelo://app?vid=0ffbdbd8-5971-4b7e-9c40-3f2a96416cf9"},"vehicle_type_id":"4","last_reported":1728551411,"current_range_meters":38800,"station_id":"ce4bgl92rcd13ifvqbq0","pricing_plan_id":"cebpf4jnsgd1na2vs0mg"},{"bike_id":"4b2f4fea-06b2-477f-9883-12a546ad6d80","system_id":"levelo_inurba_marseille","lat":43.33605,"lon":5.41035,"is_reserved":false,"is_disabled":false,"rental_uris":{"android":"levelo://app?vid=4b2f4fea-06b2-477f-9883-12a546ad6d80","ios":"levelo://app?vid=4b2f4fea-06b2-477f-9883-12a546ad6d80"},"vehicle_type_id":"4","last_reported":1728551411,"current_range_meters":30000,"station_id":"ce4bhqh2rcd13ifvqhmg","pricing_plan_id":"cebpf4jnsgd1na2vs0mg"},{"bike_id":"0d616978-f5e6-49ce-94a5-19c6c56a53ac","system_id":"levelo_inurba_marseille","lat":43.34146,"lon":5.40904,"is_reserved":false,"is_disabled":false,"rental_uris":{"android":"levelo://app?vid=0d616978-f5e6-49ce-94a5-19c6c56a53ac","ios":"levelo://app?vid=0d616978-f5e6-49ce-94a5-19c6c56a53ac"},"vehicle_type_id":"4","last_reported":1728551411,"current_range_meters":8400,"station_id":"ce4bhqh2rcd13ifvqhlg","pricing_plan_id":"cebpf4jnsgd1na2vs0mg"},{"bike_id":"bbe7c3f3-8bdb-4245-bc44-5bc37178c282","system_id":"levelo_inurba_marseille","lat":43.31228,"lon":5.36872,"is_reserved":false,"is_disabled":false,"rental_uris":{"android":"levelo://app?vid=bbe7c3f3-8bdb-4245-bc44-5bc37178c282","ios":"levelo://app?vid=bbe7c3f3-8bdb-4245-bc44-5bc37178c282"},"vehicle_type_id":"4","last_reported":1728551411,"current_range_meters":24800,"station_id":"ce4bgl92rcd13ifvqbq0","pricing_plan_id":"cebpf4jnsgd1na2vs0mg"},{"bike_id":"23ab5d7c-07dc-442b-abef-7a406b5191ca","system_id":"levelo_inurba_marseille","lat":43.29101,"lon":5.38148,"is_reserved":false,"is_disabled":false,"rental_uris":{"android":"levelo://app?vid=23ab5d7c-07dc-442b-abef-7a406b5191ca","ios":"levelo://app?vid=23ab5d7c-07dc-442b-abef-7a406b5191ca"},"vehicle_type_id":"4","last_reported":1728551411,"current_range_meters":10800,"station_id":"ce4bh512rcd13ifvqe2g","pricing_plan_id":"cebpf4jnsgd1na2vs0mg"},{"bike_id":"7851dbc0-fe97-4d6c-8383-46784bdbec44","system_id":"levelo_inurba_marseille","lat":43.25001,"lon":5.38933,"is_reserved":false,"is_disabled":false,"rental_uris":{"android":"levelo://app?vid=7851dbc0-fe97-4d6c-8383-46784bdbec44","ios":"levelo://app?vid=7851dbc0-fe97-4d6c-8383-46784bdbec44"},"vehicle_type_id":"4","last_reported":1728551411,"current_range_meters":20400,"station_id":"ce4bhgp2rcd13ifvqfd0","pricing_plan_id":"cebpf4jnsgd1na2vs0mg"},{"bike_id":"ea1fcf41-e930-45fb-b7b7-36d0347329c6","system_id":"levelo_inurba_marseille","lat":43.32041,"lon":5.41559,"is_reserved":false,"is_disabled":false,"rental_uris":{"android":"levelo://app?vid=ea1fcf41-e930-45fb-b7b7-36d0347329c6","ios":"levelo://app?vid=ea1fcf41-e930-45fb-b7b7-36d0347329c6"},"vehicle_type_id":"4","last_reported":1728551411,"current_range_meters":16400,"station_id":"ce4bhq92rcd13ifvqhkg","pricing_plan_id":"cebpf4jnsgd1na2vs0mg"},