{"last_updated":1759054145,"ttl":60,"version":"2.2","data":{"bikes":[{"bike_id":"93802cb0-b1a8-4466-9011-eb1e127ce312","system_id":"levelo_inurba_marseille","lat":43.29309,"lon":5.37169,"is_reserved":false,"is_disabled":false,"rental_uris":{"android":"levelo://app?vid=93802cb0-b1a8-4466-9011-eb1e127ce312","ios":"levelo://app?vid=93802cb0-b1a8-4466-9011-eb1e127ce312"},"vehicle_type_id":"4","last_reported":1759054145,"current_range_meters":2800,"station_id":"ce4bgh92rcd13ifvqb40","pricing_plan_id":"cebpf4jnsgd1na2vs0mg"},{"bike_id":"2cef4327-a1c3-4525-ab91-7ffedd269e3c","system_id":"levelo_inurba_marseille","lat":43.29853,"lon":5.36265,"is_reserved":false,"is_disabled":false,"rental_uris":{"android":"levelo://app?vid=2cef4327-a1c3-4525-ab91-7ffedd269e3c","ios":"levelo://app?vid=2cef4327-a1c3-4525-ab91-7ffedd269e3c"},"vehicle_type_id":"4","last_reported":1759054145,"current_range_meters":2800,"station_id":"ce4bgpp2rcd13ifvqc3g","pricing_plan_id":"cebpf4jnsgd1na2vs0mg"},{"bike_id":"174dfb4f-f618-4c2f-be1c-ae0d6b405e94","system_id":"levelo_inurba_marseille","lat":43.29712,"lon":5.38239,"is_reserved":false,"is_disabled":false,"rental_uris":{"android":"levelo://app?vid=174dfb4f-f618-4c2f-be1c-ae0d6b405e94","ios":"levelo://app?vid=174dfb4f-f618-4c2f-be1c-ae0d6b405e94"},"vehicle_type_id":"4","last_reported":1759054145,"current_range_meters":3200,"station_id":"","pricing_plan_id":"cebpf4jnsgd1na2vs0mg"},{"bike_id":"b498739b-f24a-4e47-944f-52f3b565e2e9","system_id":"levelo_inurba_marseille","lat":43.2862,"lon":5.35103,"is_reserved":false,"is_disabled":false,"rental_uris":{"android":"levelo://app?vid=b498739b-f24a-4e47-944f-52f3b565e2e9","ios":"levelo://app?vid=b498739b-f24a-4e47-944f-52f3b565e2e9"},"vehicle_type_id":"4","last_reported":1759054145,"current_range_meters":3200,"station_id":"ce4bhch2rcd13ifvqeug","pricing_plan_id":"cebpf4jnsgd1na2vs0mg"},{"bike_id":"4ea066be-d5c0-4685-b39a-612a810bdfbb","system_id":"levelo_inurba_marseille","lat":43.33792,"lon":5.37473,"is_reserved":false,"is_disabled":true,"rental_uris":{"android":"levelo://app?vid=4ea066be-d5c0-4685-b39a-612a810bdfbb","ios":"levelo://app?vid=4ea066be-d5c0-4685-b39a-612a810bdfbb"},"vehicle_type_id":"4","last_reported":1759054145,"current_range_meters":3200,"station_id":"","pricing_plan_id":"cebpf4jnsgd1na2vs0mg"},{"bike_id":"89174f10-5ca8-417d-a77f-1ee805d1e5c2","system_id":"levelo_inurba_marseille","lat":43.27376,"lon":5.36251,"is_reserved":false,"is_disabled":false,"rental_uris":{"android":"levelo://app?vid=89174f10-5ca8-417d-a77f-1ee805d1e5c2","ios":"levelo://app?vid=89174f10-5ca8-417d-a77f-1ee805d1e5c2"},"vehicle_type_id":"4","last_reported":1759054145,"current_range_meters":3200,"station_id":"ce4bhbh2rcd13ifvqeo0","pricing_plan_id":"cebpf4jnsgd1na2vs0mg"},{"bike_id":"588bb5c6-d90f-4edd-b1de-2d2164a39c00","system_id":"levelo_inurba_marseille","lat":43.33136,"lon":5.3892,"is_reserved":false,"is_disabled":false,"rental_uris":{"android":"levelo://app?vid=588bb5c6-d90f-4edd-b1de-2d2164a39c00","ios":"levelo://app?vid=588bb5c6-d90f-4edd-b1de-2d2164a39c00"},"vehicle_type_id":"4","last_reported":1759054145,"current_range_meters":3600,"station_id":"","pricing_plan_id":"cebpf4jnsgd1na2vs0mg"},{"bike_id":"0c1e8a20-ef9c-4768-95cf-ad60d7533d28","system_id":"levelo_inurba_marseille","lat":43.31481,"lon":5.37294,"is_reserved":false,"is_disabled":false,"rental_uris":{"android":"levelo://app?vid=0c1e8a20-ef9c-4768-95cf-ad60d7533d28","ios":"levelo://app?vid=0c1e8a20-ef9c-4768-95cf-ad60d7533d28"},"vehicle_type_id":"4","last_reported":1759054145,"current_range_meters":3600,"station_id":"ce4bgt12rcd13ifvqcd0","pricing_plan_id":"cebpf4jnsgd1na2vs0mg"},{"bike_id":"af5b7fdf-6b71-4411-b11f-406ea44ecb80","system_id":"levelo_inurba_marseille","lat":43.24168,"lon":5.36397,"is_reserved":false,"is_disabled":true,"rental_uris":{"android":"levelo://app?vid=af5b7fdf-6b71-4411-b11f-406ea44ecb80","ios":"levelo://app?vid=af5b7fdf-6b71-4411-b11f-406ea44ecb80"},"vehicle_type_id":"4","last_reported":1759054145,"current_range_meters":3600,"station_id":"cpo36qri1sfpv3e86is0","pricing_plan_id":"cebpf4jnsgd1na2vs0mg"},{"bike_id":"061ee329-4429-4724-a69e-c859cd4d9492","system_id":"levelo_inurba_marseille","lat":43.28083,"lon":5.39318,"is_reserved":false,"is_disabled":false,"rental_uris":{"android":"levelo://app?vid=061ee329-4429-4724-a69e-c859cd4d9492","ios":"levelo://app?vid=061ee329-4429-4724-a69e-c859cd4d9492"},"vehicle_type_id":"4","last_reported":1759054145,"current_range_meters":3600,"station_id":"","pricing_plan_id":"cebpf4jnsgd1na2vs0mg"},{"bike_id":"9a819dc8-447d-4df7-8b5f-0b18332a26a7","system_id":"levelo_inurba_marseille","lat":43.32938,"lon":5.37648,"is_reserved":false,"is_disabled":false,"rental_uris":{"android":"levelo://app?vid=9a819dc8-447d-4df7-8b5f-0b18332a26a7","ios":"levelo://app?vid=9a819dc8-447d-4df7-8b5f-0b18332a26a7"},"vehicle_type_id":"4","last_reported":1759054145,"current_range_meters":3600,"station_id":"","pricing_plan_id":"cebpf4jnsgd1na2vs0mg"},{"bike_id":"72ad5c46-3555-49b9-9e53-08a311428041","system_id":"levelo_inurba_marseille","lat":43.26217,"lon":5.37455,"is_reserved":false,"is_disabled":false,"rental_uris":{"android":"levelo://app?vid=72ad5c46-3555-49b9-9e53-08a311428041","ios":"levelo://app?vid=72ad5c46-3555-49b9-9e53-08a311428041"},"vehicle_type_id":"4","last_reported":1759054145,"current_range_meters":4000,"station_id":"ce4bhgp2rcd13ifvqfc0","pricing_plan_id":"cebpf4jnsgd1na2vs0mg"},{"bike_id":"7f2c2ca5-7e15-4efc-9f93-7017588f8f36","system_id":"levelo_inurba_marseille","lat":43.28712,"lon":5.37928,"is_reserved":false,"is_disabled":false,"rental_uris":{"android":"levelo://app?vid=7f2c2ca5-7e15-4efc-9f93-7017588f8f36","ios":"levelo://app?vid=7f2c2ca5-7e15-4efc-9f93-7017588f8f36"},"vehicle_type_id":"4","last_reported":1759054145,"current_range_meters":4000,"station_id":"ce4bh9p2rcd13ifvqec0","pricing_plan_id":"cebpf4jnsgd1na2vs0mg"},{"bike_id":"8b6e6b80-b07e-4fcd-8d9a-6b32ab23ca9b","system_id":"levelo_inurba_marseille","lat":43.26557,"lon":5.37282,"is_reserved":false,"is_disabled":false,"rental_uris":{"android":"levelo://app?vid=8b6e6b80-b07e-4fcd-8d9a-6b32ab23ca9b","ios":"levelo://app?vid=8b6e6b80-b07e-4fcd-8d9a-6b32ab23ca9b"},"vehicle_type_id":"4","last_reported":1759054145,"current_range_meters":4000,"station_id":"ce4bhg12rcd13ifvqf70","pricing_plan_id":"cebpf4jnsgd1na2vs0mg"},{"bike_id":"55158eb0-a97c-4b6e-85d6-87b83043038b","system_id":"levelo_inurba_marseille","lat":43.2119,"lon":5.35071,"is_reserved":false,"is_disabled":false,"rental_uris":{"android":"levelo://app?vid=55158eb0-a97c-4b6e-85d6-87b83043038b","ios":"levelo://app?vid=55158eb0-a97c-4b6e-85d6-87b83043038b"},"vehicle_type_id":"4","last_reported":1759054145,"current_range_meters":4800,"station_id":"st_cvj6sg6p6f1abm77japg","pricing_plan_id":"cebpf4jnsgd1na2vs0mg"},{"bike_id":"a639c491-c436-478a-8d5d-bd2c30b918ff","system_id":"levelo_inurba_marseille","lat":43.29752,"lon":5.37202,"is_reserved":false,"is_disabled":false,"rental_uris":{"android":"levelo://app?vid=a639c491-c436-478a-8d5d-bd2c30b918ff","ios":"levelo://app?vid=a639c491-c436-478a-8d5d-bd2c30b918ff"},"vehicle_type_id":"4","last_reported":1759054145,"current_range_meters":4800,"station_id":"","pricing_plan_id":"cebpf4jnsgd1na2vs0mg"},{"bike_id":"a609d160-7256-4c43-a951-9374f9a10817","system_id":"levelo_inurba_marseille","lat":43.29901,"lon":5.43659,"is_reserved":false,"is_disabled":false,"rental_uris":{"android":"levelo://app?vid=a609d160-7256-4c43-a951-9374f9a10817","ios":"levelo://app?vid=a609d160-7256-4c43-a951-9374f9a10817"},"vehicle_type_id":"4","last_reported":1759054145,"current_range_meters":4800,"station_id":"ce4bhpp2rcd13ifvqhfg","pricing_plan_id":"cebpf4jnsgd1na2vs0mg"},{"bike_id":"2336a081-3301-4818-b498-4e2b16a6631f","system_id":"levelo_inurba_marseille","lat":43.323399,"lon":5.440287,"is_reserved":false,"is_disabled":false,"rental_uris":{"android":"levelo://app?vid=2336a081-3301-4818-b498-4e2b16a6631f","ios":"levelo://app?vid=2336a081-3301-4818-b498-4e2b16a6631f"},"vehicle_type_id":"4","last_reported":1759054145,"current_range_meters":5600,"station_id":"","pricing_plan_id":"cebpf4jnsgd1na2vs0mg"},{"bike_id":"08fe2b08-b3fa-43f8-ae73-04061f76318d","system_id":"levelo_inurba_marseille","lat":43.305552,"lon":5.365395,"is_reserved":false,"is_disabled":false,"rental_uris":{"android":"levelo://app?vid=08fe2b08-b3fa-43f8-ae73-04061f76318d","ios":"levelo://app?vid=08fe2b08-b3fa-43f8-ae73-04061f76318d"},"vehicle_type_id":"4","last_reported":1759054145,"current_range_meters":5600,"station_id":"","pricing_plan_id":"cebpf4jnsgd1na2vs0mg"},{"bike_id":"13b4fb7f-aa9a-4c07-9099-cb9b833d4525","system_id":"levelo_inurba_marseille","lat":43.2757,"lon":5.38412,"is_reserved":false,"is_disabled":false,"rental_uris":{"android":"levelo://app?vid=13b4fb7f-aa9a-4c07-9099-cb9b833d4525","ios":"levelo://app?vid=13b4fb7f-aa9a-4c07-9099-cb9b833d4525"},"vehicle_type_id":"4","last_reported":1759054145,"current_range_meters":5600,"station_id":"ce4bhh92rcd13ifvqfi0","pricing_plan_id":"cebpf4jnsgd1na2vs0mg"},{"bike_id":"8e385f69-4a89-4bf0-86a4-c68fbcf7e1cb","system_id":"levelo_inurba_marseille","lat":43.225324,"lon":5.348325,"is_reserved":false,"is_disabled":false,"rental_uris":{"android":"levelo://app?vid=8e385f69-4a89-4bf0-86a4-c68fbcf7e1cb","ios":"levelo://app?vid=8e385f69-4a89-4bf0-86a4-c68fbcf7e1cb"},"vehicle_type_id":"4","last_reported":1759054145,"current_range_meters":6000,"station_id":"","pricing_plan_id":"cebpf4jnsgd1na2vs0mg"},{"bike_id":"fee74e98-eb52-4f66-a612-109c75f34aa6","system_id":"levelo_inurba_marseille","lat":43.29614,"lon":5.37952,"is_reserved":false,"is_disabled":false,"rental_uris":{"android":"levelo://app?vid=fee74e98-eb52-4f66-a612-109c75f34aa6","ios":"levelo://app?vid=fee74e98-eb52-4f66-a612-109c75f34aa6"},"vehicle_type_id":"4","last_reported":1759054145,"current_range_meters":6000,"station_id":"","pricing_plan_id":"cebpf4jnsgd1na2vs0mg"},{"bike_id":"e9e310f7-3e3e-4b7b-8761-c2222f6c913d","system_id":"levelo_inurba_marseille","lat":43.26557,"lon":5.37283,"is_reserved":false,"is_disabled":false,"rental_uris":{"android":"levelo://app?vid=e9e310f7-3e3e-4b7b-8761-c2222f6c913d","ios":"levelo://app?vid=e9e310f7-3e3e-4b7b-8761-c2222f6c913d"},"vehicle_type_id":"4","last_reported":1759054145,"current_range_meters":6000,"station_id":"ce4bhg12rcd13ifvqf70","pricing_plan_id":"cebpf4jnsgd1na2vs0mg"},{"bike_id":"ea38d37d-8390-425c-a63d-4636fa7a1566","system_id":"levelo_inurba_marseille","lat":43.2495,"lon":5.40501,"is_reserved":false,"is_disabled":false,"rental_uris":{"android":"levelo://app?vid=ea38d37d-8390-425c-a63d-4636fa7a1566","ios":"levelo://app?vid=ea38d37d-8390-425c-a63d-4636fa7a1566"},"vehicle_type_id":"4","last_reported":1759054145,"current_range_meters":6400,"station_id":"st_d2ngiaodas8pm72gd1h0","pricing_plan_id":"cebpf4jnsgd1na2vs0mg"},{"bike_id":"cc10a393-c8ce-43fb-8334-7d6d68691d22","system_id":"levelo_inurba_marseille","lat":43.26919,"lon":5.36657,"is_reserved":false,"is_disabled":false,"rental_uris":{"android":"levelo://app?vid=cc10a393-c8ce-43fb-8334-7d6d68691d22","ios":"levelo://app?vid=cc10a393-c8ce-43fb-8334-7d6d68691d22"},"vehicle_type_id":"4","last_reported":1759054145,"current_range_meters":6800,"station_id":"","pricing_plan_id":"cebpf4jnsgd1na2vs0mg"},{"bike_id":"fe8b40da-839a-4488-a6de-30b862de57d9","system_id":"levelo_inurba_marseille","lat":43.33024,"lon":5.39038,"is_reserved":false,"is_disabled":false,"rental_uris":{"android":"levelo://app?vid=fe8b40da-839a-4488-a6de-30b862de57d9","ios":"levelo://app?vid=fe8b40da-839a-4488-a6de-30b862de57d9"},"vehicle_type_id":"4","last_reported":1759054145,"current_range_meters":6800,"station_id":"ce4bhr92rcd13ifvqhrg","pricing_plan_id":"cebpf4jnsgd1na2vs0mg"},{"bike_id":"c7f724d1-2591-4c6f-8c38-225ea9f17671","system_id":"levelo_inurba_marseille","lat":43.28981,"lon":5.3781,"is_reserved":false,"is_disabled":false,"rental_uris":{"android":"levelo://app?vid=c7f724d1-2591-4c6f-8c38-225ea9f17671","ios":"levelo://app?vid=c7f724d1-2591-4c6f-8c38-225ea9f17671"},"vehicle_type_id":"4","last_reported":1759054145,"current_range_meters":6400,"station_id":"ce4bh9p2rcd13ifvqed0","pricing_plan_id":"cebpf4jnsgd1na2vs0mg"},{"bike_id":"56d65f58-4dbb-4668-81b8-a79dbca394a6","system_id":"levelo_inurba_marseille","lat":43.29581,"lon":5.36741,"is_reserved":false,"is_disabled":false,"rental_uris":{"android":"levelo://app?vid=56d65f58-4dbb-4668-81b8-a79dbca394a6","ios":"levelo://app?vid=56d65f58-4dbb-4668-81b8-a79dbca394a6"},"vehicle_type_id":"4","last_reported":1759054145,"current_range_meters":6800,"station_id":"ce4bgph2rcd13ifvqc2g","pricing_plan_id":"cebpf4jnsgd1na2vs0mg"},{"bike_id":"2f36bd00-fa86-4a78-8dfd-d1a03e8a88f2","system_id":"levelo_inurba_marseille","lat":43.263885,"lon":5.3694,"is_reserved":false,"is_disabled":false,"rental_uris":{"android":"levelo://app?vid=2f36bd00-fa86-4a78-8dfd-d1a03e8a88f2","ios":"levelo://app?vid=2f36bd00-fa86-4a78-8dfd-d1a03e8a88f2"},"vehicle_type_id":"4","last_reported":1759054145,"current_range_meters":6800,"station_id":"","pricing_plan_id":"cebpf4jnsgd1na2vs0mg"},{"bike_id":"4898bc36-536c-43b3-a037-f1bf8ea024b3","system_id":"levelo_inurba_marseille","lat":43.30593,"lon":5.39346,"is_reserved":false,"is_disabled":false,"rental_uris":{"android":"levelo://app?vid=4898bc36-536c-43b3-a037-f1bf8ea024b3","ios":"levelo://app?vid=4898bc36-536c-43b3-a037-f1bf8ea024b3"},"vehicle_type_id":"4","last_reported":1759054145,"current_range_meters":6800,"station_id":"ce4bh0p2rcd13ifvqd80","pricing_plan_id":"cebpf4jnsgd1na2vs0mg"},{"bike_id":"29d5c7f6-4bed-4f5e-9e00-e06ba7a06612","system_id":"levelo_inurba_marseille","lat":43.29899,"lon":5.43665,"is_reserved":false,"is_disabled":false,"rental_uris":{"android":"levelo://app?vid=29d5c7f6-4bed-4f5e-9e00-e06ba7a06612","ios":"levelo://app?vid=29d5c7f6-4bed-4f5e-9e00-e06ba7a06612"},"vehicle_type_id":"4","last_reported":1759054145,"current_range_meters":7200,"station_id":"ce4bhpp2rcd13ifvqhfg","pricing_plan_id":"cebpf4jnsgd1na2vs0mg"},{"bike_id":"55758677-f57d-41fd-a715-f24f591f6f7e","system_id":"levelo_inurba_marseille","lat":43.28268,"lon":5.35058,"is_reserved":false,"is_disabled":false,"rental_uris":{"android":"levelo://app?vid=55758677-f57d-41fd-a715-f24f591f6f7e","ios":"levelo://app?vid=55758677-f57d-41fd-a715-f24f591f6f7e"},"vehicle_type_id":"4","last_reported":1759054145,"current_range_meters":7200,"station_id":"ce4bhbp2rcd13ifvqerg","pricing_plan_id":"cebpf4jnsgd1na2vs0mg"},{"bike_id":"9bb4db31-0bf9-4171-bca1-76cb045f53a3","system_id":"levelo_inurba_marseille","lat":43.26924,"lon":5.389081,"is_reserved":false,"is_disabled":true,"rental_uris":{"android":"levelo://app?vid=9bb4db31-0bf9-4171-bca1-76cb045f53a3","ios":"levelo://app?vid=9bb4db31-0bf9-4171-bca1-76cb045f53a3"},"vehicle_type_id":"4","last_reported":1759054145,"current_range_meters":7200,"station_id":"ce4bhhh2rcd13ifvqfl0","pricing_plan_id":"cebpf4jnsgd1na2vs0mg"},{"bike_id":"9de1ee1c-6b3e-40c8-b6c2-73130c5ae845","system_id":"levelo_inurba_marseille","lat":43.26972,"lon":5.366178,"is_reserved":false,"is_disabled":false,"rental_uris":{"android":"levelo://app?vid=9de1ee1c-6b3e-40c8-b6c2-73130c5ae845","ios":"levelo://app?vid=9de1ee1c-6b3e-40c8-b6c2-73130c5ae845"},"vehicle_type_id":"4","last_reported":1759054145,"current_range_meters":7200,"station_id":"","pricing_plan_id":"cebpf4jnsgd1na2vs0mg"},{"bike_id":"712dddc4-ae95-4aaf-b4c6-16c01a2ce26f","system_id":"levelo_inurba_marseille","lat":43.300324,"lon":5.380717,"is_reserved":false,"is_disabled":false,"rental_uris":{"android":"levelo://app?vid=712dddc4-ae95-4aaf-b4c6-16c01a2ce26f","ios":"levelo://app?vid=712dddc4-ae95-4aaf-b4c6-16c01a2ce26f"},"vehicle_type_id":"4","last_reported":1759054145,"current_range_meters":7200,"station_id":"","pricing_plan_id":"cebpf4jnsgd1na2vs0mg"},{"bike_id":"5365e873-98ea-45e2-9689-7e119051f22e","system_id":"levelo_inurba_marseille","lat":43.32884,"lon":5.36769,"is_reserved":false,"is_disabled":true,"rental_uris":{"android":"levelo://app?vid=5365e873-98ea-45e2-9689-7e119051f22e","ios":"levelo://app?vid=5365e873-98ea-45e2-9689-7e119051f22e"},"vehicle_type_id":"4","last_reported":1759054145,"current_range_meters":8000,"station_id":"","pricing_plan_id":"cebpf4jnsgd1na2vs0mg"},{"bike_id":"a96d5206-00ef-4664-9317-59f21b7dbf54","system_id":"levelo_inurba_marseille","lat":43.24184,"lon":5.39737,"is_reserved":false,"is_disabled":false,"rental_uris":{"android":"levelo://app?vid=a96d5206-00ef-4664-9317-59f21b7dbf54","ios":"levelo://app?vid=a96d5206-00ef-4664-9317-59f21b7dbf54"},"vehicle_type_id":"4","last_reported":1759054145,"current_range_meters":8000,"station_id":"ce4bhn12rcd13ifvqgpg","pricing_plan_id":"cebpf4jnsgd1na2vs0mg"},{"bike_id":"b5e3d95c-d6ab-47a1-a565-d021b45ce728","system_id":"levelo_inurba_marseille","lat":43.217451,"lon":5.346135,"is_reserved":false,"is_disabled":true,"rental_uris":{"android":"levelo://app?vid=b5e3d95c-d6ab-47a1-a565-d021b45ce728","ios":"levelo://app?vid=b5e3d95c-d6ab-47a1-a565-d021b45ce728"},"vehicle_type_id":"4","last_reported":1759054145,"current_range_meters":8000,"station_id":"st_cvj6r9ubvosntc0bgbag","pricing_plan_id":"cebpf4jnsgd1na2vs0mg"},{"bike_id":"fbef676b-8f42-450e-b448-da45ad596c28","system_id":"levelo_inurba_marseille","lat":43.28377,"lon":5.36312,"is_reserved":false,"is_disabled":false,"rental_uris":{"android":"levelo://app?vid=fbef676b-8f42-450e-b448-da45ad596c28","ios":"levelo://app?vid=fbef676b-8f42-450e-b448-da45ad596c28"},"vehicle_type_id":"4","last_reported":1759054145,"current_range_meters":8000,"station_id":"","pricing_plan_id":"cebpf4jnsgd1na2vs0mg"},{"bike_id":"3f51e03c-3abb-4dde-8cdd-da596aa3252f","system_id":"levelo_inurba_marseille","lat":43.277222,"lon":5.388536,"is_reserved":false,"is_disabled":true,"rental_uris":{"android":"levelo://app?vid=3f51e03c-3abb-4dde-8cdd-da596aa3252f","ios":"levelo://app?vid=3f51e03c-3abb-4dde-8cdd-da596aa3252f"},"vehicle_type_id":"4","last_reported":1759054145,"current_range_meters":8000,"station_id":"","pricing_plan_id":"cebpf4jnsgd1na2vs0mg"},{"bike_id":"ab58cc8d-5f0a-45f8-a7d5-27adb7e11b1f","system_id":"levelo_inurba_marseille","lat":43.21191,"lon":5.3507,"is_reserved":false,"is_disabled":false,"rental_uris":{"android":"levelo://app?vid=ab58cc8d-5f0a-45f8-a7d5-27adb7e11b1f","ios":"levelo://app?vid=ab58cc8d-5f0a-45f8-a7d5-27adb7e11b1f"},"vehicle_type_id":"4","last_reported":1759054145,"current_range_meters":8000,"station_id":"st_cvj6sg6p6f1abm77japg","pricing_plan_id":"cebpf4jnsgd1na2vs0mg"},{"bike_id":"01bf55f2-4ac6-46f6-8504-3267bf31e1a6","system_id":"levelo_inurba_marseille","lat":43.2973,"lon":5.381787,"is_reserved":false,"is_disabled":false,"rental_uris":{"android":"levelo://app?vid=01bf55f2-4ac6-46f6-8504-3267bf31e1a6","ios":"levelo://app?vid=01bf55f2-4ac6-46f6-8504-3267bf31e1a6"},"vehicle_type_id":"4","last_reported":1759054145,"current_range_meters":8000,"station_id":"","pricing_plan_id":"cebpf4jnsgd1na2vs0mg"},{"bike_id":"ee96a502-9b76-492e-840a-498b02aefe72","system_id":"levelo_inurba_marseille","lat":43.32357,"lon":5.39212,"is_reserved":false,"is_disabled":false,"rental_uris":{"android":"levelo://app?vid=ee96a502-9b76-492e-840a-498b02aefe72","ios":"levelo://app?vid=ee96a502-9b76-492e-840a-498b02aefe72"},"vehicle_type_id":"4","last_reported":1759054145,"current_range_meters":8000,"station_id":"","pricing_plan_id":"cebpf4jnsgd1na2vs0mg"},{"bike_id":"a78302dc-aa43-437f-9030-51e4e7e137f4","system_id":"levelo_inurba_marseille","lat":43.211937,"lon":5.35084,"is_reserved":false,"is_disabled":false,"rental_uris":{"android":"levelo://app?vid=a78302dc-aa43-437f-9030-51e4e7e137f4","ios":"levelo://app?vid=a78302dc-aa43-437f-9030-51e4e7e137f4"},"vehicle_type_id":"4","last_reported":1759054145,"current_range_meters":8400,"station_id":"st_cvj6sg6p6f1abm77japg","pricing_plan_id":"cebpf4jnsgd1na2vs0mg"},{"bike_id":"6a2892c8-d28e-4970-bd99-4745d48a3a74","system_id":"levelo_inurba_marseille","lat":43.3237,"lon":5.36752,"is_reserved":false,"is_disabled":false,"rental_uris":{"android":"levelo://app?vid=6a2892c8-d28e-4970-bd99-4745d48a3a74","ios":"levelo://app?vid=6a2892c8-d28e-4970-bd99-4745d48a3a74"},"vehicle_type_id":"4","last_reported":1759054145,"current_range_meters":8400,"station_id":"ce4bhsh2rcd13ifvqi2g","pricing_plan_id":"cebpf4jnsgd1na2vs0mg"},{"bike_id":"3046f3e7-c20e-4138-980c-8022658319d1","system_id":"levelo_inurba_marseille","lat":43.2721,"lon":5.39173,"is_reserved":false,"is_disabled":false,"rental_uris":{"android":"levelo://app?vid=3046f3e7-c20e-4138-980c-8022658319d1","ios":"levelo://app?vid=3046f3e7-c20e-4138-980c-8022658319d1"},"vehicle_type_id":"4","last_reported":1759054145,"current_range_meters":8000,"station_id":"ce4bhhp2rcd13ifvqfm0","pricing_plan_id":"cebpf4jnsgd1na2vs0mg"},{"bike_id":"16f2160e-b6d4-4e03-bef8-e4ad64f8eaf6","system_id":"levelo_inurba_marseille","lat":43.28425,"lon":5.34989,"is_reserved":false,"is_disabled":false,"rental_uris":{"android":"levelo://app?vid=16f2160e-b6d4-4e03-bef8-e4ad64f8eaf6","ios":"levelo://app?vid=16f2160e-b6d4-4e03-bef8-e4ad64f8eaf6"},"vehicle_type_id":"4","last_reported":1759054145,"current_range_meters":8400,"station_id":"ce4bhbh2rcd13ifvqepg","pricing_plan_id":"cebpf4jnsgd1na2vs0mg"},{"bike_id":"934ea1ec-b7f6-49a1-9efa-287317d4eb22","system_id":"levelo_inurba_marseille","lat":43.29048,"lon":5.35914,"is_reserved":false,"is_disabled":false,"rental_uris":{"android":"levelo://app?vid=934ea1ec-b7f6-49a1-9efa-287317d4eb22","ios":"levelo://app?vid=934ea1ec-b7f6-49a1-9efa-287317d4eb22"},"vehicle_type_id":"4","last_reported":1759054145,"current_range_meters":8800,"station_id":"","pricing_plan_id":"cebpf4jnsgd1na2vs0mg"},{"bike_id":"8360fe96-8a6b-4a67-9ba4-0ef948b002e1","system_id":"levelo_inurba_marseille","lat":43.25013,"lon":5.38914,"is_reserved":false,"is_disabled":true,"rental_uris":{"android":"levelo://app?vid=8360fe96-8a6b-4a67-9ba4-0ef948b002e1","ios":"levelo://app?vid=8360fe96-8a6b-4a67-9ba4-0ef948b002e1"},"vehicle_type_id":"4","last_reported":1759054145,"current_range_meters":8800,"station_id":"ce4bhgp2rcd13ifvqfd0","pricing_plan_id":"cebpf4jnsgd1na2vs0mg"},{"bike_id":"e114a3ae-0a89-4dac-83a7-a52236826763","system_id":"levelo_inurba_marseille","lat":43.211932,"lon":5.350727,"is_reserved":false,"is_disabled":false,"rental_uris":{"android":"levelo://app?vid=e114a3ae-0a89-4dac-83a7-a52236826763","ios":"levelo://app?vid=e114a3ae-0a89-4dac-83a7-a52236826763"},"vehicle_type_id":"4","last_reported":1759054145,"current_range_meters":8800,"station_id":"st_cvj6sg6p6f1abm77japg","pricing_plan_id":"cebpf4jnsgd1na2vs0mg"},{"bike_id":"020aa52e-bf8d-4b62-a19b-38ca9bd91c45","system_id":"levelo_inurba_marseille","lat":43.30404,"lon":5.41306,"is_reserved":false,"is_disabled":false,"rental_uris":{"android":"levelo://app?vid=020aa52e-bf8d-4b62-a19b-38ca9bd91c45","ios":"levelo://app?vid=020aa52e-bf8d-4b62-a19b-38ca9bd91c45"},"vehicle_type_id":"4","last_reported":1759054145,"current_range_meters":8800,"station_id":"ce4bhop2rcd13ifvqh8g","pricing_plan_id":"cebpf4jnsgd1na2vs0mg"},{"bike_id":"b6bc6aec-7108-47a1-bc72-38bf9fd29dee","system_id":"levelo_inurba_marseille","lat":43.29433,"lon":5.39763,"is_reserved":false,"is_disabled":false,"rental_uris":{"android":"levelo://app?vid=b6bc6aec-7108-47a1-bc72-38bf9fd29dee","ios":"levelo://app?vid=b6bc6aec-7108-47a1-bc72-38bf9fd29dee"},"vehicle_type_id":"4","last_reported":1759054145,"current_range_meters":8800,"station_id":"ce4bh3h2rcd13ifvqdo0","pricing_plan_id":"cebpf4jnsgd1na2vs0mg"},{"bike_id":"ebd8ef92-1313-40e4-b5f4-2c6016501b20","system_id":"levelo_inurba_marseille","lat":43.29044,"lon":5.37557,"is_reserved":false,"is_disabled":false,"rental_uris":{"android":"levelo://app?vid=ebd8ef92-1313-40e4-b5f4-2c6016501b20","ios":"levelo://app?vid=ebd8ef92-1313-40e4-b5f4-2c6016501b20"},"vehicle_type_id":"4","last_reported":1759054145,"current_range_meters":8800,"station_id":"ce4bh692rcd13ifvqe90","pricing_plan_id":"cebpf4jnsgd1na2vs0mg"},{"bike_id":"0c4f7eaf-1ef5-4f6d-94b0-36bdde20e64c","system_id":"levelo_inurba_marseille","lat":43.2581,"lon":5.39412,"is_reserved":false,"is_disabled":false,"rental_uris":{"android":"levelo://app?vid=0c4f7eaf-1ef5-4f6d-94b0-36bdde20e64c","ios":"levelo://app?vid=0c4f7eaf-1ef5-4f6d-94b0-36bdde20e64c"},"vehicle_type_id":"4","last_reported":1759054145,"current_range_meters":9200,"station_id":"ce4bhip2rcd13ifvqft0","pricing_plan_id":"cebpf4jnsgd1na2vs0mg"},{"bike_id":"72f29b73-bc46-48ab-bb44-875a253fa97b","system_id":"levelo_inurba_marseille","lat":43.29734,"lon":5.38039,"is_reserved":false,"is_disabled":false,"rental_uris":{"android":"levelo://app?vid=72f29b73-bc46-48ab-bb44-875a253fa97b","ios":"levelo://app?vid=72f29b73-bc46-48ab-bb44-875a253fa97b"},"vehicle_type_id":"4","last_reported":1759054145,"current_range_meters":9200,"station_id":"","pricing_plan_id":"cebpf4jnsgd1na2vs0mg"},{"bike_id":"3460147b-5a55-4869-89f4-f4066efe534c","system_id":"levelo_inurba_marseille","lat":43.3009,"lon":5.3908,"is_reserved":false,"is_disabled":false,"rental_uris":{"android":"levelo://app?vid=3460147b-5a55-4869-89f4-f4066efe534c","ios":"levelo://app?vid=3460147b-5a55-4869-89f4-f4066efe534c"},"vehicle_type_id":"4","last_reported":1759054145,"current_range_meters":9200,"station_id":"ce4bh192rcd13ifvqdb0","pricing_plan_id":"cebpf4jnsgd1na2vs0mg"},{"bike_id":"49d38a2c-fb89-42a8-a163-b3a1a998db9a","system_id":"levelo_inurba_marseille","lat":43.32362,"lon":5.36738,"is_reserved":false,"is_disabled":false,"rental_uris":{"android":"levelo://app?vid=49d38a2c-fb89-42a8-a163-b3a1a998db9a","ios":"levelo://app?vid=49d38a2c-fb89-42a8-a163-b3a1a998db9a"},"vehicle_type_id":"4","last_reported":1759054145,"current_range_meters":9200,"station_id":"ce4bhsh2rcd13ifvqi2g","pricing_plan_id":"cebpf4jnsgd1na2vs0mg"},{"bike_id":"f2fd2284-837d-45c8-8a92-163c2aa30979","system_id":"levelo_inurba_marseille","lat":43.269297,"lon":5.389217,"is_reserved":false,"is_disabled":true,"rental_uris":{"android":"levelo://app?vid=f2fd2284-837d-45c8-8a92-163c2aa30979","ios":"levelo://app?vid=f2fd2284-837d-45c8-8a92-163c2aa30979"},"vehicle_type_id":"4","last_reported":1759054145,"current_range_meters":9200,"station_id":"ce4bhhh2rcd13ifvqfl0","pricing_plan_id":"cebpf4jnsgd1na2vs0mg"},{"bike_id":"46ac5fb6-ac2e-43e8-84c9-c4e46889ea29","system_id":"levelo_inurba_marseille","lat":43.21179,"lon":5.35078,"is_reserved":false,"is_disabled":false,"rental_uris":{"android":"levelo://app?vid=46ac5fb6-ac2e-43e8-84c9-c4e46889ea29","ios":"levelo://app?vid=46ac5fb6-ac2e-43e8-84c9-c4e46889ea29"},"vehicle_type_id":"4","last_reported":1759054145,"current_range_meters":9200,"station_id":"st_cvj6sg6p6f1abm77japg","pricing_plan_id":"cebpf4jnsgd1na2vs0mg"},{"bike_id":"3fd7c937-a838-4d6f-932e-9e3bccbc6d3b","system_id":"levelo_inurba_marseille","lat":43.29965,"lon":5.38216,"is_reserved":false,"is_disabled":false,"rental_uris":{"android":"levelo://app?vid=3fd7c937-a838-4d6f-932e-9e3bccbc6d3b","ios":"levelo://app?vid=3fd7c937-a838-4d6f-932e-9e3bccbc6d3b"},"vehicle_type_id":"4","last_reported":1759054145,"current_range_meters":9200,"station_id":"","pricing_plan_id":"cebpf4jnsgd1na2vs0mg"},{"bike_id":"7ee12965-0fed-415c-8f08-8f986985cec6","system_id":"levelo_inurba_marseille","lat":43.217643,"lon":5.346155,"is_reserved":false,"is_disabled":true,"rental_uris":{"android":"levelo://app?vid=7ee12965-0fed-415c-8f08-8f986985cec6","ios":"levelo://app?vid=7ee12965-0fed-415c-8f08-8f986985cec6"},"vehicle_type_id":"4","last_reported":1759054145,"current_range_meters":9200,"station_id":"st_cvj6r9ubvosntc0bgbag","pricing_plan_id":"cebpf4jnsgd1na2vs0mg"},{"bike_id":"544562f6-c6c8-463d-9fa5-2451328e96ea","system_id":"levelo_inurba_marseille","lat":43.27988,"lon":5.4166,"is_reserved":false,"is_disabled":false,"rental_uris":{"android":"levelo://app?vid=544562f6-c6c8-463d-9fa5-2451328e96ea","ios":"levelo://app?vid=544562f6-c6c8-463d-9fa5-2451328e96ea"},"vehicle_type_id":"4","last_reported":1759054145,"current_range_meters":9600,"station_id":"ce4bho12rcd13ifvqh1g","pricing_plan_id":"cebpf4jnsgd1na2vs0mg"},{"bike_id":"e35a0bdf-bd77-424b-84d2-f0ff692f3f86","system_id":"levelo_inurba_marseille","lat":43.28834,"lon":5.35854,"is_reserved":false,"is_disabled":true,"rental_uris":{"android":"levelo://app?vid=e35a0bdf-bd77-424b-84d2-f0ff692f3f86","ios":"levelo://app?vid=e35a0bdf-bd77-424b-84d2-f0ff692f3f86"},"vehicle_type_id":"4","last_reported":1759054145,"current_range_meters":9600,"station_id":"ce4bhb12rcd13ifvqem0","pricing_plan_id":"cebpf4jnsgd1na2vs0mg"},{"bike_id":"720623f7-9148-4a0e-ade4-a205c6fa44f0","system_id":"levelo_inurba_marseille","lat":43.2898,"lon":5.42906,"is_reserved":false,"is_disabled":false,"rental_uris":{"android":"levelo://app?vid=720623f7-9148-4a0e-ade4-a205c6fa44f0","ios":"levelo://app?vid=720623f7-9148-4a0e-ade4-a205c6fa44f0"},"vehicle_type_id":"4","last_reported":1759054145,"current_range_meters":9600,"station_id":"","pricing_plan_id":"cebpf4jnsgd1na2vs0mg"},{"bike_id":"3dde4975-4952-49d7-adc8-8f7b340749a2","system_id":"levelo_inurba_marseille","lat":43.2318,"lon":5.3999,"is_reserved":false,"is_disabled":false,"rental_uris":{"android":"levelo://app?vid=3dde4975-4952-49d7-adc8-8f7b340749a2","ios":"levelo://app?vid=3dde4975-4952-49d7-adc8-8f7b340749a2"},"vehicle_type_id":"4","last_reported":1759054145,"current_range_meters":9600,"station_id":"ce4bhn12rcd13ifvqgqg","pricing_plan_id":"cebpf4jnsgd1na2vs0mg"},{"bike_id":"e67d30c9-865a-4ee7-893d-2aad1e475f2b","system_id":"levelo_inurba_marseille","lat":43.262119,"lon":5.415489,"is_reserved":false,"is_disabled":false,"rental_uris":{"android":"levelo://app?vid=e67d30c9-865a-4ee7-893d-2aad1e475f2b","ios":"levelo://app?vid=e67d30c9-865a-4ee7-893d-2aad1e475f2b"},"vehicle_type_id":"4","last_reported":1759054145,"current_range_meters":9600,"station_id":"","pricing_plan_id":"cebpf4jnsgd1na2vs0mg"},{"bike_id":"695662ab-65fe-4c59-81b6-3dceb9f5066d","system_id":"levelo_inurba_marseille","lat":43.255703,"lon":5.382329,"is_reserved":false,"is_disabled":true,"rental_uris":{"android":"levelo://app?vid=695662ab-65fe-4c59-81b6-3dceb9f5066d","ios":"levelo://app?vid=695662ab-65fe-4c59-81b6-3dceb9f5066d"},"vehicle_type_id":"4","last_reported":1759054145,"current_range_meters":9600,"station_id":"ce4bhih2rcd13ifvqfs0","pricing_plan_id":"cebpf4jnsgd1na2vs0mg"},{"bike_id":"03350417-1098-4d6c-b8fe-9e64358744bf","system_id":"levelo_inurba_marseille","lat":43.310498,"lon":5.376326,"is_reserved":false,"is_disabled":false,"rental_uris":{"android":"levelo://app?vid=03350417-1098-4d6c-b8fe-9e64358744bf","ios":"levelo://app?vid=03350417-1098-4d6c-b8fe-9e64358744bf"},"vehicle_type_id":"4","last_reported":1759054145,"current_range_meters":9600,"station_id":"","pricing_plan_id":"cebpf4jnsgd1na2vs0mg"},{"bike_id":"cab6cdd4-5023-4ff8-9e35-859cc242ca25","system_id":"levelo_inurba_marseille","lat":43.24165,"lon":5.3639,"is_reserved":false,"is_disabled":false,"rental_uris":{"android":"levelo://app?vid=cab6cdd4-5023-4ff8-9e35-859cc242ca25","ios":"levelo://app?vid=cab6cdd4-5023-4ff8-9e35-859cc242ca25"},"vehicle_type_id":"4","last_reported":1759054145,"current_range_meters":10000,"station_id":"cpo36qri1sfpv3e86is0","pricing_plan_id":"cebpf4jnsgd1na2vs0mg"},{"bike_id":"9cff5bfc-5851-43b3-b2bc-6cdac415cc30","system_id":"levelo_inurba_marseille","lat":43.28598,"lon":5.35087,"is_reserved":false,"is_disabled":false,"rental_uris":{"android":"levelo://app?vid=9cff5bfc-5851-43b3-b2bc-6cdac415cc30","ios":"levelo://app?vid=9cff5bfc-5851-43b3-b2bc-6cdac415cc30"},"vehicle_type_id":"4","last_reported":1759054145,"current_range_meters":10000,"station_id":"ce4bhch2rcd13ifvqeug","pricing_plan_id":"cebpf4jnsgd1na2vs0mg"},{"bike_id":"8389b046-31a8-499a-b4ac-42d7c26c48bc","system_id":"levelo_inurba_marseille","lat":43.32355,"lon":5.3676,"is_reserved":false,"is_disabled":false,"rental_uris":{"android":"levelo://app?vid=8389b046-31a8-499a-b4ac-42d7c26c48bc","ios":"levelo://app?vid=8389b046-31a8-499a-b4ac-42d7c26c48bc"},"vehicle_type_id":"4","last_reported":1759054145,"current_range_meters":10000,"station_id":"ce4bhsh2rcd13ifvqi2g","pricing_plan_id":"cebpf4jnsgd1na2vs0mg"},{"bike_id":"0b10856b-3dad-4052-bc3a-2c17e6f16e23","system_id":"levelo_inurba_marseille","lat":43.27564,"lon":5.38405,"is_reserved":false,"is_disabled":true,"rental_uris":{"android":"levelo://app?vid=0b10856b-3dad-4052-bc3a-2c17e6f16e23","ios":"levelo://app?vid=0b10856b-3dad-4052-bc3a-2c17e6f16e23"},"vehicle_type_id":"4","last_reported":1759054145,"current_range_meters":10000,"station_id":"ce4bhh92rcd13ifvqfi0","pricing_plan_id":"cebpf4jnsgd1na2vs0mg"},{"bike_id":"349977c5-2efd-48ed-8dd8-9cfd0d464679","system_id":"levelo_inurba_marseille","lat":43.211924,"lon":5.350819,"is_reserved":false,"is_disabled":false,"rental_uris":{"android":"levelo://app?vid=349977c5-2efd-48ed-8dd8-9cfd0d464679","ios":"levelo://app?vid=349977c5-2efd-48ed-8dd8-9cfd0d464679"},"vehicle_type_id":"4","last_reported":1759054145,"current_range_meters":10000,"station_id":"st_cvj6sg6p6f1abm77japg","pricing_plan_id":"cebpf4jnsgd1na2vs0mg"},{"bike_id":"3a855a87-b3b0-4f02-9129-d51155cd2be3","system_id":"levelo_inurba_marseille","lat":43.30537,"lon":5.36706,"is_reserved":false,"is_disabled":false,"rental_uris":{"android":"levelo://app?vid=3a855a87-b3b0-4f02-9129-d51155cd2be3","ios":"levelo://app?vid=3a855a87-b3b0-4f02-9129-d51155cd2be3"},"vehicle_type_id":"4","last_reported":1759054145,"current_range_meters":10000,"station_id":"ce4bgrp2rcd13ifvqc9g","pricing_plan_id":"cebpf4jnsgd1na2vs0mg"},{"bike_id":"a141ba13-19f1-4f9e-9fa5-b678aae29a88","system_id":"levelo_inurba_marseille","lat":43.311184,"lon":5.377579,"is_reserved":false,"is_disabled":false,"rental_uris":{"android":"levelo://app?vid=a141ba13-19f1-4f9e-9fa5-b678aae29a88","ios":"levelo://app?vid=a141ba13-19f1-4f9e-9fa5-b678aae29a88"},"vehicle_type_id":"4","last_reported":1759054145,"current_range_meters":10800,"station_id":"ce4bgt92rcd13ifvqcg0","pricing_plan_id":"cebpf4jnsgd1na2vs0mg"},{"bike_id":"dc4883ea-8f06-44d1-8b3d-6660e39a87ec","system_id":"levelo_inurba_marseille","lat":43.22935,"lon":5.35367,"is_reserved":false,"is_disabled":true,"rental_uris":{"android":"levelo://app?vid=dc4883ea-8f06-44d1-8b3d-6660e39a87ec","ios":"levelo://app?vid=dc4883ea-8f06-44d1-8b3d-6660e39a87ec"},"vehicle_type_id":"4","last_reported":1759054145,"current_range_meters":10800,"station_id":"cpo3532slgdg3j2ikp40","pricing_plan_id":"cebpf4jnsgd1na2vs0mg"},{"bike_id":"f7d9c480-cc90-4ee4-ab24-add9efbe72a0","system_id":"levelo_inurba_marseille","lat":43.29724,"lon":5.36607,"is_reserved":false,"is_disabled":false,"rental_uris":{"android":"levelo://app?vid=f7d9c480-cc90-4ee4-ab24-add9efbe72a0","ios":"levelo://app?vid=f7d9c480-cc90-4ee4-ab24-add9efbe72a0"},"vehicle_type_id":"4","last_reported":1759054145,"current_range_meters":10800,"station_id":"ce4bgn12rcd13ifvqbt0","pricing_plan_id":"cebpf4jnsgd1na2vs0mg"},{"bike_id":"7de95cbb-f630-4315-b370-567f0daac3c8","system_id":"levelo_inurba_marseille","lat":43.290321,"lon":5.376542,"is_reserved":false,"is_disabled":false,"rental_uris":{"android":"levelo://app?vid=7de95cbb-f630-4315-b370-567f0daac3c8","ios":"levelo://app?vid=7de95cbb-f630-4315-b370-567f0daac3c8"},"vehicle_type_id":"4","last_reported":1759054145,"current_range_meters":10800,"station_id":"","pricing_plan_id":"cebpf4jnsgd1na2vs0mg"},{"bike_id":"c86bd51a-2b32-400d-a2f5-583999c037d4","system_id":"levelo_inurba_marseille","lat":43.3009,"lon":5.39111,"is_reserved":false,"is_disabled":false,"rental_uris":{"android":"levelo://app?vid=c86bd51a-2b32-400d-a2f5-583999c037d4","ios":"levelo://app?vid=c86bd51a-2b32-400d-a2f5-583999c037d4"},"vehicle_type_id":"4","last_reported":1759054145,"current_range_meters":10000,"station_id":"ce4bh192rcd13ifvqdb0","pricing_plan_id":"cebpf4jnsgd1na2vs0mg"},{"bike_id":"ba78395e-9fd7-4ef0-969b-f2a30cdf982d","system_id":"levelo_inurba_marseille","lat":43.30304,"lon":5.402418,"is_reserved":false,"is_disabled":false,"rental_uris":{"android":"levelo://app?vid=ba78395e-9fd7-4ef0-969b-f2a30cdf982d","ios":"levelo://app?vid=ba78395e-9fd7-4ef0-969b-f2a30cdf982d"},"vehicle_type_id":"4","last_reported":1759054145,"current_range_meters":10800,"station_id":"ce4bh012rcd13ifvqd10","pricing_plan_id":"cebpf4jnsgd1na2vs0mg"},{"bike_id":"3a592317-6360-4b48-bc16-d7ecdfaa321f","system_id":"levelo_inurba_marseille","lat":43.295258,"lon":5.394047,"is_reserved":false,"is_disabled":false,"rental_uris":{"android":"levelo://app?vid=3a592317-6360-4b48-bc16-d7ecdfaa321f","ios":"levelo://app?vid=3a592317-6360-4b48-bc16-d7ecdfaa321f"},"vehicle_type_id":"4","last_reported":1759054145,"current_range_meters":11200,"station_id":"ce4bh292rcd13ifvqdf0","pricing_plan_id":"cebpf4jnsgd1na2vs0mg"},{"bike_id":"3ded1cc0-b302-4bfd-96b2-92ae6cb0d1b5","system_id":"levelo_inurba_marseille","lat":43.27374,"lon":5.36263,"is_reserved":false,"is_disabled":false,"rental_uris":{"android":"levelo://app?vid=3ded1cc0-b302-4bfd-96b2-92ae6cb0d1b5","ios":"levelo://app?vid=3ded1cc0-b302-4bfd-96b2-92ae6cb0d1b5"},"vehicle_type_id":"4","last_reported":1759054145,"current_range_meters":11200,"station_id":"ce4bhbh2rcd13ifvqeo0","pricing_plan_id":"cebpf4jnsgd1na2vs0mg"},{"bike_id":"096c311a-e31f-4e60-ab8c-de0b76354103","system_id":"levelo_inurba_marseille","lat":43.27186,"lon":5.41012,"is_reserved":false,"is_disabled":true,"rental_uris":{"android":"levelo://app?vid=096c311a-e31f-4e60-ab8c-de0b76354103","ios":"levelo://app?vid=096c311a-e31f-4e60-ab8c-de0b76354103"},"vehicle_type_id":"4","last_reported":1759054145,"current_range_meters":11200,"station_id":"ce4bhl12rcd13ifvqgf0","pricing_plan_id":"cebpf4jnsgd1na2vs0mg"},{"bike_id":"d613f736-8c07-455c-9124-13cb9d2c81c6","system_id":"levelo_inurba_marseille","lat":43.30801,"lon":5.38153,"is_reserved":false,"is_disabled":true,"rental_uris":{"android":"levelo://app?vid=d613f736-8c07-455c-9124-13cb9d2c81c6","ios":"levelo://app?vid=d613f736-8c07-455c-9124-13cb9d2c81c6"},"vehicle_type_id":"4","last_reported":1759054145,"current_range_meters":11200,"station_id":"ce4bgt12rcd13ifvqce0","pricing_plan_id":"cebpf4jnsgd1na2vs0mg"},{"bike_id":"31ad08df-2e9b-49d8-ae7e-84ffa71954ee","system_id":"levelo_inurba_marseille","lat":43.28629,"lon":5.35098,"is_reserved":false,"is_disabled":false,"rental_uris":{"android":"levelo://app?vid=31ad08df-2e9b-49d8-ae7e-84ffa71954ee","ios":"levelo://app?vid=31ad08df-2e9b-49d8-ae7e-84ffa71954ee"},"vehicle_type_id":"4","last_reported":1759054145,"current_range_meters":11200,"station_id":"ce4bhch2rcd13ifvqeug","pricing_plan_id":"cebpf4jnsgd1na2vs0mg"},{"bike_id":"eedfbf61-711e-444c-88e3-b720ea74f76a","system_id":"levelo_inurba_marseille","lat":43.211794,"lon":5.350907,"is_reserved":false,"is_disabled":false,"rental_uris":{"android":"levelo://app?vid=eedfbf61-711e-444c-88e3-b720ea74f76a","ios":"levelo://app?vid=eedfbf61-711e-444c-88e3-b720ea74f76a"},"vehicle_type_id":"4","last_reported":1759054145,"current_range_meters":11200,"station_id":"st_cvj6sg6p6f1abm77japg","pricing_plan_id":"cebpf4jnsgd1na2vs0mg"},{"bike_id":"3a4a25cb-5f4d-47dc-804d-0677217fe8c9","system_id":"levelo_inurba_marseille","lat":43.28078,"lon":5.39661,"is_reserved":false,"is_disabled":false,"rental_uris":{"android":"levelo://app?vid=3a4a25cb-5f4d-47dc-804d-0677217fe8c9","ios":"levelo://app?vid=3a4a25cb-5f4d-47dc-804d-0677217fe8c9"},"vehicle_type_id":"4","last_reported":1759054145,"current_range_meters":10800,"station_id":"ce4bho12rcd13ifvqh2g","pricing_plan_id":"cebpf4jnsgd1na2vs0mg"},{"bike_id":"b12490fe-0dcd-47f9-b077-882bf0ed49d7","system_id":"levelo_inurba_marseille","lat":43.31274,"lon":5.38649,"is_reserved":false,"is_disabled":false,"rental_uris":{"android":"levelo://app?vid=b12490fe-0dcd-47f9-b077-882bf0ed49d7","ios":"levelo://app?vid=b12490fe-0dcd-47f9-b077-882bf0ed49d7"},"vehicle_type_id":"4","last_reported":1759054145,"current_range_meters":11200,"station_id":"","pricing_plan_id":"cebpf4jnsgd1na2vs0mg"},{"bike_id":"9ea6d5e0-a462-4229-8485-254e0551bf57","system_id":"levelo_inurba_marseille","lat":43.27988,"lon":5.41658,"is_reserved":false,"is_disabled":false,"rental_uris":{"android":"levelo://app?vid=9ea6d5e0-a462-4229-8485-254e0551bf57","ios":"levelo://app?vid=9ea6d5e0-a462-4229-8485-254e0551bf57"},"vehicle_type_id":"4","last_reported":1759054145,"current_range_meters":11200,"station_id":"ce4bho12rcd13ifvqh1g","pricing_plan_id":"cebpf4jnsgd1na2vs0mg"},{"bike_id":"ed6eb01a-4d0f-4212-ac18-c68e3d1b2a5c","system_id":"levelo_inurba_marseille","lat":43.26195,"lon":5.37447,"is_reserved":false,"is_disabled":false,"rental_uris":{"android":"levelo://app?vid=ed6eb01a-4d0f-4212-ac18-c68e3d1b2a5c","ios":"levelo://app?vid=ed6eb01a-4d0f-4212-ac18-c68e3d1b2a5c"},"vehicle_type_id":"4","last_reported":1759054145,"current_range_meters":11200,"station_id":"ce4bhgp2rcd13ifvqfc0","pricing_plan_id":"cebpf4jnsgd1na2vs0mg"},{"bike_id":"ae17ab70-4248-4bb7-8c1b-d78473914a68","system_id":"levelo_inurba_marseille","lat":43.24996,"lon":5.38934,"is_reserved":false,"is_disabled":false,"rental_uris":{"android":"levelo://app?vid=ae17ab70-4248-4bb7-8c1b-d78473914a68","ios":"levelo://app?vid=ae17ab70-4248-4bb7-8c1b-d78473914a68"},"vehicle_type_id":"4","last_reported":1759054145,"current_range_meters":11600,"station_id":"ce4bhgp2rcd13ifvqfd0","pricing_plan_id":"cebpf4jnsgd1na2vs0mg"},{"bike_id":"360c0746-c854-4629-884f-7c911de53d9d","system_id":"levelo_inurba_marseille","lat":43.31095,"lon":5.37704,"is_reserved":false,"is_disabled":false,"rental_uris":{"android":"levelo://app?vid=360c0746-c854-4629-884f-7c911de53d9d","ios":"levelo://app?vid=360c0746-c854-4629-884f-7c911de53d9d"},"vehicle_type_id":"4","last_reported":1759054145,"current_range_meters":11600,"station_id":"","pricing_plan_id":"cebpf4jnsgd1na2vs0mg"},{"bike_id":"6d98ab21-1faa-4b15-97b2-a1dd6f53a5a7","system_id":"levelo_inurba_marseille","lat":43.27406,"lon":5.39378,"is_reserved":false,"is_disabled":true,"rental_uris":{"android":"levelo://app?vid=6d98ab21-1faa-4b15-97b2-a1dd6f53a5a7","ios":"levelo://app?vid=6d98ab21-1faa-4b15-97b2-a1dd6f53a5a7"},"vehicle_type_id":"4","last_reported":1759054145,"current_range_meters":11600,"station_id":"ce4bhdp2rcd13ifvqf20","pricing_plan_id":"cebpf4jnsgd1na2vs0mg"},{"bike_id":"179205bc-39f5-4d7d-9b80-a8304bb1e409","system_id":"levelo_inurba_marseille","lat":43.21198,"lon":5.3508,"is_reserved":false,"is_disabled":false,"rental_uris":{"android":"levelo://app?vid=179205bc-39f5-4d7d-9b80-a8304bb1e409","ios":"levelo://app?vid=179205bc-39f5-4d7d-9b80-a8304bb1e409"},"vehicle_type_id":"4","last_reported":1759054145,"current_range_meters":11600,"station_id":"st_cvj6sg6p6f1abm77japg","pricing_plan_id":"cebpf4jnsgd1na2vs0mg"},{"bike_id":"e6af5a49-b19a-43d3-bac7-fd55b3c3037d","system_id":"levelo_inurba_marseille","lat":43.26229,"lon":5.37424,"is_reserved":false,"is_disabled":false,"rental_uris":{"android":"levelo://app?vid=e6af5a49-b19a-43d3-bac7-fd55b3c3037d","ios":"levelo://app?vid=e6af5a49-b19a-43d3-bac7-fd55b3c3037d"},"vehicle_type_id":"4","last_reported":1759054145,"current_range_meters":12000,"station_id":"ce4bhgp2rcd13ifvqfc0","pricing_plan_id":"cebpf4jnsgd1na2vs0mg"},{"bike_id":"4062f7e5-21b5-4791-8574-8ad3f23ad449","system_id":"levelo_inurba_marseille","lat":43.21184,"lon":5.35086,"is_reserved":false,"is_disabled":false,"rental_uris":{"android":"levelo://app?vid=4062f7e5-21b5-4791-8574-8ad3f23ad449","ios":"levelo://app?vid=4062f7e5-21b5-4791-8574-8ad3f23ad449"},"vehicle_type_id":"4","last_reported":1759054145,"current_range_meters":12000,"station_id":"st_cvj6sg6p6f1abm77japg","pricing_plan_id":"cebpf4jnsgd1na2vs0mg"},{"bike_id":"33ac03ed-dfbb-4aa1-aee0-f01e22e067d9","system_id":"levelo_inurba_marseille","lat":43.24643,"lon":5.43137,"is_reserved":false,"is_disabled":false,"rental_uris":{"android":"levelo://app?vid=33ac03ed-dfbb-4aa1-aee0-f01e22e067d9","ios":"levelo://app?vid=33ac03ed-dfbb-4aa1-aee0-f01e22e067d9"},"vehicle_type_id":"4","last_reported":1759054145,"current_range_meters":12000,"station_id":"st_d2m6c4gdas8pm72e190g","pricing_plan_id":"cebpf4jnsgd1na2vs0mg"},{"bike_id":"4c02c545-ad59-45b1-9b9c-d3678a5922c7","system_id":"levelo_inurba_marseille","lat":43.337444,"lon":5.374475,"is_reserved":false,"is_disabled":false,"rental_uris":{"android":"levelo://app?vid=4c02c545-ad59-45b1-9b9c-d3678a5922c7","ios":"levelo://app?vid=4c02c545-ad59-45b1-9b9c-d3678a5922c7"},"vehicle_type_id":"4","last_reported":1759054145,"current_range_meters":12000,"station_id":"","pricing_plan_id":"cebpf4jnsgd1na2vs0mg"},{"bike_id":"c097f066-7651-435e-913f-a8a7838aba88","system_id":"levelo_inurba_marseille","lat":43.33722,"lon":5.37459,"is_reserved":false,"is_disabled":false,"rental_uris":{"android":"levelo://app?vid=c097f066-7651-435e-913f-a8a7838aba88","ios":"levelo://app?vid=c097f066-7651-435e-913f-a8a7838aba88"},"vehicle_type_id":"4","last_reported":1759054145,"current_range_meters":12000,"station_id":"","pricing_plan_id":"cebpf4jnsgd1na2vs0mg"},{"bike_id":"d66cd03b-dbeb-4aa4-961e-bd97aeefe4a4","system_id":"levelo_inurba_marseille","lat":43.25961,"lon":5.41374,"is_reserved":false,"is_disabled":false,"rental_uris":{"android":"levelo://app?vid=d66cd03b-dbeb-4aa4-961e-bd97aeefe4a4","ios":"levelo://app?vid=d66cd03b-dbeb-4aa4-961e-bd97aeefe4a4"},"vehicle_type_id":"4","last_reported":1759054145,"current_range_meters":12000,"station_id":"","pricing_plan_id":"cebpf4jnsgd1na2vs0mg"},{"bike_id":"c884ec33-edbc-4e73-a77c-c93f4dde92ef","system_id":"levelo_inurba_marseille","lat":43.27373,"lon":5.36263,"is_reserved":false,"is_disabled":false,"rental_uris":{"android":"levelo://app?vid=c884ec33-edbc-4e73-a77c-c93f4dde92ef","ios":"levelo://app?vid=c884ec33-edbc-4e73-a77c-c93f4dde92ef"},"vehicle_type_id":"4","last_reported":1759054145,"current_range_meters":12000,"station_id":"ce4bhbh2rcd13ifvqeo0","pricing_plan_id":"cebpf4jnsgd1na2vs0mg"},{"bike_id":"bed09a6e-cd3c-4a53-9fa3-f71618a22422","system_id":"levelo_inurba_marseille","lat":43.27984,"lon":5.41669,"is_reserved":false,"is_disabled":false,"rental_uris":{"android":"levelo://app?vid=bed09a6e-cd3c-4a53-9fa3-f71618a22422","ios":"levelo://app?vid=bed09a6e-cd3c-4a53-9fa3-f71618a22422"},"vehicle_type_id":"4","last_reported":1759054145,"current_range_meters":12000,"station_id":"ce4bho12rcd13ifvqh1g","pricing_plan_id":"cebpf4jnsgd1na2vs0mg"},{"bike_id":"2ec3a6d6-ee34-4467-9229-490d40bcd0cf","system_id":"levelo_inurba_marseille","lat":43.279862,"lon":5.4166,"is_reserved":false,"is_disabled":false,"rental_uris":{"android":"levelo://app?vid=2ec3a6d6-ee34-4467-9229-490d40bcd0cf","ios":"levelo://app?vid=2ec3a6d6-ee34-4467-9229-490d40bcd0cf"},"vehicle_type_id":"4","last_reported":1759054145,"current_range_meters":12400,"station_id":"ce4bho12rcd13ifvqh1g","pricing_plan_id":"cebpf4jnsgd1na2vs0mg"},{"bike_id":"a2e3055a-d15a-40b8-9971-054a3631545d","system_id":"levelo_inurba_marseille","lat":43.30138,"lon":5.38781,"is_reserved":false,"is_disabled":false,"rental_uris":{"android":"levelo://app?vid=a2e3055a-d15a-40b8-9971-054a3631545d","ios":"levelo://app?vid=a2e3055a-d15a-40b8-9971-054a3631545d"},"vehicle_type_id":"4","last_reported":1759054145,"current_range_meters":12400,"station_id":"ce4bghh2rcd13ifvqb60","pricing_plan_id":"cebpf4jnsgd1na2vs0mg"},{"bike_id":"e54b8c9f-4f66-4c52-b603-24745fa68456","system_id":"levelo_inurba_marseille","lat":43.25725,"lon":5.41107,"is_reserved":false,"is_disabled":false,"rental_uris":{"android":"levelo://app?vid=e54b8c9f-4f66-4c52-b603-24745fa68456","ios":"levelo://app?vid=e54b8c9f-4f66-4c52-b603-24745fa68456"},"vehicle_type_id":"4","last_reported":1759054145,"current_range_meters":12400,"station_id":"ce4bhkp2rcd13ifvqgd0","pricing_plan_id":"cebpf4jnsgd1na2vs0mg"},{"bike_id":"2243febf-ebaf-474b-8e3e-799410e4c867","system_id":"levelo_inurba_marseille","lat":43.32563,"lon":5.36349,"is_reserved":false,"is_disabled":false,"rental_uris":{"android":"levelo://app?vid=2243febf-ebaf-474b-8e3e-799410e4c867","ios":"levelo://app?vid=2243febf-ebaf-474b-8e3e-799410e4c867"},"vehicle_type_id":"4","last_reported":1759054145,"current_range_meters":12400,"station_id":"","pricing_plan_id":"cebpf4jnsgd1na2vs0mg"},{"bike_id":"72c47d07-f4a8-4f58-b6bc-b8c6013ac540","system_id":"levelo_inurba_marseille","lat":43.31399,"lon":5.39124,"is_reserved":false,"is_disabled":false,"rental_uris":{"android":"levelo://app?vid=72c47d07-f4a8-4f58-b6bc-b8c6013ac540","ios":"levelo://app?vid=72c47d07-f4a8-4f58-b6bc-b8c6013ac540"},"vehicle_type_id":"4","last_reported":1759054145,"current_range_meters":12400,"station_id":"","pricing_plan_id":"cebpf4jnsgd1na2vs0mg"},{"bike_id":"1466822f-1fc3-4e0d-b3b6-915dad2d241c","system_id":"levelo_inurba_marseille","lat":43.29896,"lon":5.436555,"is_reserved":false,"is_disabled":false,"rental_uris":{"android":"levelo://app?vid=1466822f-1fc3-4e0d-b3b6-915dad2d241c","ios":"levelo://app?vid=1466822f-1fc3-4e0d-b3b6-915dad2d241c"},"vehicle_type_id":"4","last_reported":1759054145,"current_range_meters":12400,"station_id":"ce4bhpp2rcd13ifvqhfg","pricing_plan_id":"cebpf4jnsgd1na2vs0mg"},{"bike_id":"d8c6ca05-41a2-4dee-a98c-fa658501b60f","system_id":"levelo_inurba_marseille","lat":43.211938,"lon":5.350713,"is_reserved":false,"is_disabled":false,"rental_uris":{"android":"levelo://app?vid=d8c6ca05-41a2-4dee-a98c-fa658501b60f","ios":"levelo://app?vid=d8c6ca05-41a2-4dee-a98c-fa658501b60f"},"vehicle_type_id":"4","last_reported":1759054145,"current_range_meters":12400,"station_id":"st_cvj6sg6p6f1abm77japg","pricing_plan_id":"cebpf4jnsgd1na2vs0mg"},{"bike_id":"f62fe733-90ac-444a-a20a-73d227678ff7","system_id":"levelo_inurba_marseille","lat":43.29603,"lon":5.37713,"is_reserved":false,"is_disabled":true,"rental_uris":{"android":"levelo://app?vid=f62fe733-90ac-444a-a20a-73d227678ff7","ios":"levelo://app?vid=f62fe733-90ac-444a-a20a-73d227678ff7"},"vehicle_type_id":"4","last_reported":1759054145,"current_range_meters":12800,"station_id":"ce4bgi92rcd13ifvqb90","pricing_plan_id":"cebpf4jnsgd1na2vs0mg"},{"bike_id":"0fd0c927-4233-40f0-86de-fca65390471c","system_id":"levelo_inurba_marseille","lat":43.23955,"lon":5.36654,"is_reserved":false,"is_disabled":false,"rental_uris":{"android":"levelo://app?vid=0fd0c927-4233-40f0-86de-fca65390471c","ios":"levelo://app?vid=0fd0c927-4233-40f0-86de-fca65390471c"},"vehicle_type_id":"4","last_reported":1759054145,"current_range_meters":12800,"station_id":"ce4bhi12rcd13ifvqfp0","pricing_plan_id":"cebpf4jnsgd1na2vs0mg"},{"bike_id":"258ab053-1083-4ca9-a32a-1e85f085fc22","system_id":"levelo_inurba_marseille","lat":43.337444,"lon":5.374475,"is_reserved":false,"is_disabled":false,"rental_uris":{"android":"levelo://app?vid=258ab053-1083-4ca9-a32a-1e85f085fc22","ios":"levelo://app?vid=258ab053-1083-4ca9-a32a-1e85f085fc22"},"vehicle_type_id":"4","last_reported":1759054145,"current_range_meters":12800,"station_id":"","pricing_plan_id":"cebpf4jnsgd1na2vs0mg"},{"bike_id":"64f10ab9-d4dd-4008-86d0-2383fe7fb65f","system_id":"levelo_inurba_marseille","lat":43.27426,"lon":5.39412,"is_reserved":false,"is_disabled":false,"rental_uris":{"android":"levelo://app?vid=64f10ab9-d4dd-4008-86d0-2383fe7fb65f","ios":"levelo://app?vid=64f10ab9-d4dd-4008-86d0-2383fe7fb65f"},"vehicle_type_id":"4","last_reported":1759054145,"current_range_meters":12800,"station_id":"ce4bhdp2rcd13ifvqf20","pricing_plan_id":"cebpf4jnsgd1na2vs0mg"},{"bike_id":"13c6a1d3-316b-4ed6-a48e-617cbc612eac","system_id":"levelo_inurba_marseille","lat":43.28615,"lon":5.35109,"is_reserved":false,"is_disabled":false,"rental_uris":{"android":"levelo://app?vid=13c6a1d3-316b-4ed6-a48e-617cbc612eac","ios":"levelo://app?vid=13c6a1d3-316b-4ed6-a48e-617cbc612eac"},"vehicle_type_id":"4","last_reported":1759054145,"current_range_meters":13600,"station_id":"ce4bhch2rcd13ifvqeug","pricing_plan_id":"cebpf4jnsgd1na2vs0mg"},{"bike_id":"95bafeb0-6c7b-407a-a73b-a6569ff5cb66","system_id":"levelo_inurba_marseille","lat":43.33771,"lon":5.37464,"is_reserved":false,"is_disabled":false,"rental_uris":{"android":"levelo://app?vid=95bafeb0-6c7b-407a-a73b-a6569ff5cb66","ios":"levelo://app?vid=95bafeb0-6c7b-407a-a73b-a6569ff5cb66"},"vehicle_type_id":"4","last_reported":1759054145,"current_range_meters":13600,"station_id":"","pricing_plan_id":"cebpf4jnsgd1na2vs0mg"},{"bike_id":"4a6cc317-661a-4475-9638-170339054e97","system_id":"levelo_inurba_marseille","lat":43.28419,"lon":5.37511,"is_reserved":false,"is_disabled":false,"rental_uris":{"android":"levelo://app?vid=4a6cc317-661a-4475-9638-170339054e97","ios":"levelo://app?vid=4a6cc317-661a-4475-9638-170339054e97"},"vehicle_type_id":"4","last_reported":1759054145,"current_range_meters":13600,"station_id":"ce4bh412rcd13ifvqds0","pricing_plan_id":"cebpf4jnsgd1na2vs0mg"},{"bike_id":"c9916796-5f07-4d22-aceb-87882fb08ac5","system_id":"levelo_inurba_marseille","lat":43.3059,"lon":5.36571,"is_reserved":false,"is_disabled":false,"rental_uris":{"android":"levelo://app?vid=c9916796-5f07-4d22-aceb-87882fb08ac5","ios":"levelo://app?vid=c9916796-5f07-4d22-aceb-87882fb08ac5"},"vehicle_type_id":"4","last_reported":1759054145,"current_range_meters":13600,"station_id":"ce4bgs12rcd13ifvqcag","pricing_plan_id":"cebpf4jnsgd1na2vs0mg"},{"bike_id":"f4c53ff4-73a4-4134-bb3f-bbf464878afb","system_id":"levelo_inurba_marseille","lat":43.2417,"lon":5.364,"is_reserved":false,"is_disabled":true,"rental_uris":{"android":"levelo://app?vid=f4c53ff4-73a4-4134-bb3f-bbf464878afb","ios":"levelo://app?vid=f4c53ff4-73a4-4134-bb3f-bbf464878afb"},"vehicle_type_id":"4","last_reported":1759054145,"current_range_meters":13600,"station_id":"cpo36qri1sfpv3e86is0","pricing_plan_id":"cebpf4jnsgd1na2vs0mg"},{"bike_id":"aadde8b1-e01a-4134-9499-bb5c637e0e2c","system_id":"levelo_inurba_marseille","lat":43.276123,"lon":5.361045,"is_reserved":false,"is_disabled":false,"rental_uris":{"android":"levelo://app?vid=aadde8b1-e01a-4134-9499-bb5c637e0e2c","ios":"levelo://app?vid=aadde8b1-e01a-4134-9499-bb5c637e0e2c"},"vehicle_type_id":"4","last_reported":1759054145,"current_range_meters":13600,"station_id":"ce4bgj92rcd13ifvqbe0","pricing_plan_id":"cebpf4jnsgd1na2vs0mg"},{"bike_id":"99f8e706-cfb0-4eb6-929e-527298f2a0db","system_id":"levelo_inurba_marseille","lat":43.28346,"lon":5.376585,"is_reserved":false,"is_disabled":false,"rental_uris":{"android":"levelo://app?vid=99f8e706-cfb0-4eb6-929e-527298f2a0db","ios":"levelo://app?vid=99f8e706-cfb0-4eb6-929e-527298f2a0db"},"vehicle_type_id":"4","last_reported":1759054145,"current_range_meters":13600,"station_id":"","pricing_plan_id":"cebpf4jnsgd1na2vs0mg"},{"bike_id":"7ac81eae-aed2-4f3f-a100-b35f399befc9","system_id":"levelo_inurba_marseille","lat":43.25134,"lon":5.40333,"is_reserved":false,"is_disabled":false,"rental_uris":{"android":"levelo://app?vid=7ac81eae-aed2-4f3f-a100-b35f399befc9","ios":"levelo://app?vid=7ac81eae-aed2-4f3f-a100-b35f399befc9"},"vehicle_type_id":"4","last_reported":1759054145,"current_range_meters":13600,"station_id":"ce4bhlh2rcd13ifvqgig","pricing_plan_id":"cebpf4jnsgd1na2vs0mg"},{"bike_id":"8ba5e33b-48f1-42b5-a531-76085f7229c8","system_id":"levelo_inurba_marseille","lat":43.24631,"lon":5.431531,"is_reserved":false,"is_disabled":false,"rental_uris":{"android":"levelo://app?vid=8ba5e33b-48f1-42b5-a531-76085f7229c8","ios":"levelo://app?vid=8ba5e33b-48f1-42b5-a531-76085f7229c8"},"vehicle_type_id":"4","last_reported":1759054145,"current_range_meters":13600,"station_id":"st_d2m6c4gdas8pm72e190g","pricing_plan_id":"cebpf4jnsgd1na2vs0mg"},{"bike_id":"6c3c1d7f-1f19-40b3-9c55-c47e689537fd","system_id":"levelo_inurba_marseille","lat":43.28909,"lon":5.37886,"is_reserved":false,"is_disabled":false,"rental_uris":{"android":"levelo://app?vid=6c3c1d7f-1f19-40b3-9c55-c47e689537fd","ios":"levelo://app?vid=6c3c1d7f-1f19-40b3-9c55-c47e689537fd"},"vehicle_type_id":"4","last_reported":1759054145,"current_range_meters":13600,"station_id":"","pricing_plan_id":"cebpf4jnsgd1na2vs0mg"},{"bike_id":"4d9be2f0-9130-4c1e-8b59-88bb558cb4de","system_id":"levelo_inurba_marseille","lat":43.282593,"lon":5.35066,"is_reserved":false,"is_disabled":false,"rental_uris":{"android":"levelo://app?vid=4d9be2f0-9130-4c1e-8b59-88bb558cb4de","ios":"levelo://app?vid=4d9be2f0-9130-4c1e-8b59-88bb558cb4de"},"vehicle_type_id":"4","last_reported":1759054145,"current_range_meters":14000,"station_id":"ce4bhbh2rcd13ifvqepg","pricing_plan_id":"cebpf4jnsgd1na2vs0mg"},{"bike_id":"1c8e6598-c4af-41ca-ae7e-9b5fb4ea12b7","system_id":"levelo_inurba_marseille","lat":43.25866,"lon":5.39897,"is_reserved":false,"is_disabled":false,"rental_uris":{"android":"levelo://app?vid=1c8e6598-c4af-41ca-ae7e-9b5fb4ea12b7","ios":"levelo://app?vid=1c8e6598-c4af-41ca-ae7e-9b5fb4ea12b7"},"vehicle_type_id":"4","last_reported":1759054145,"current_range_meters":13600,"station_id":"ce4bhl92rcd13ifvqghg","pricing_plan_id":"cebpf4jnsgd1na2vs0mg"},{"bike_id":"2c6518be-b3f0-42d2-93c9-c1de9e54885f","system_id":"levelo_inurba_marseille","lat":43.29227,"lon":5.38219,"is_reserved":false,"is_disabled":false,"rental_uris":{"android":"levelo://app?vid=2c6518be-b3f0-42d2-93c9-c1de9e54885f","ios":"levelo://app?vid=2c6518be-b3f0-42d2-93c9-c1de9e54885f"},"vehicle_type_id":"4","last_reported":1759054145,"current_range_meters":14000,"station_id":"","pricing_plan_id":"cebpf4jnsgd1na2vs0mg"},{"bike_id":"cf5bd213-ba60-4faa-94f2-8e954176abd4","system_id":"levelo_inurba_marseille","lat":43.23958,"lon":5.3664,"is_reserved":false,"is_disabled":false,"rental_uris":{"android":"levelo://app?vid=cf5bd213-ba60-4faa-94f2-8e954176abd4","ios":"levelo://app?vid=cf5bd213-ba60-4faa-94f2-8e954176abd4"},"vehicle_type_id":"4","last_reported":1759054145,"current_range_meters":14000,"station_id":"ce4bhi12rcd13ifvqfp0","pricing_plan_id":"cebpf4jnsgd1na2vs0mg"},{"bike_id":"a2a842f6-fc46-40d7-b7a6-d9d5a8c99dfa","system_id":"levelo_inurba_marseille","lat":43.319946,"lon":5.381564,"is_reserved":false,"is_disabled":true,"rental_uris":{"android":"levelo://app?vid=a2a842f6-fc46-40d7-b7a6-d9d5a8c99dfa","ios":"levelo://app?vid=a2a842f6-fc46-40d7-b7a6-d9d5a8c99dfa"},"vehicle_type_id":"4","last_reported":1759054145,"current_range_meters":14000,"station_id":"ce4bhr12rcd13ifvqhpg","pricing_plan_id":"cebpf4jnsgd1na2vs0mg"},{"bike_id":"ad08563b-9fa2-4201-ac5b-831247ae1890","system_id":"levelo_inurba_marseille","lat":43.21194,"lon":5.35073,"is_reserved":false,"is_disabled":false,"rental_uris":{"android":"levelo://app?vid=ad08563b-9fa2-4201-ac5b-831247ae1890","ios":"levelo://app?vid=ad08563b-9fa2-4201-ac5b-831247ae1890"},"vehicle_type_id":"4","last_reported":1759054145,"current_range_meters":14000,"station_id":"st_cvj6sg6p6f1abm77japg","pricing_plan_id":"cebpf4jnsgd1na2vs0mg"},{"bike_id":"afb3a0b1-c807-4eff-8fb4-4964910f49c8","system_id":"levelo_inurba_marseille","lat":43.21749,"lon":5.34598,"is_reserved":false,"is_disabled":true,"rental_uris":{"android":"levelo://app?vid=afb3a0b1-c807-4eff-8fb4-4964910f49c8","ios":"levelo://app?vid=afb3a0b1-c807-4eff-8fb4-4964910f49c8"},"vehicle_type_id":"4","last_reported":1759054145,"current_range_meters":14000,"station_id":"","pricing_plan_id":"cebpf4jnsgd1na2vs0mg"},{"bike_id":"eb16fb2e-7d8e-4569-969a-1638aea90686","system_id":"levelo_inurba_marseille","lat":43.28633,"lon":5.3509,"is_reserved":false,"is_disabled":false,"rental_uris":{"android":"levelo://app?vid=eb16fb2e-7d8e-4569-969a-1638aea90686","ios":"levelo://app?vid=eb16fb2e-7d8e-4569-969a-1638aea90686"},"vehicle_type_id":"4","last_reported":1759054145,"current_range_meters":14000,"station_id":"ce4bhch2rcd13ifvqeug","pricing_plan_id":"cebpf4jnsgd1na2vs0mg"},{"bike_id":"1dad2113-89e2-44fc-a0b6-ddd6a09baff1","system_id":"levelo_inurba_marseille","lat":43.337444,"lon":5.374475,"is_reserved":false,"is_disabled":false,"rental_uris":{"android":"levelo://app?vid=1dad2113-89e2-44fc-a0b6-ddd6a09baff1","ios":"levelo://app?vid=1dad2113-89e2-44fc-a0b6-ddd6a09baff1"},"vehicle_type_id":"4","last_reported":1759054145,"current_range_meters":14000,"station_id":"","pricing_plan_id":"cebpf4jnsgd1na2vs0mg"},{"bike_id":"a1e2b7f3-f53e-4b6a-b8f1-27b0fbf9634d","system_id":"levelo_inurba_marseille","lat":43.315898,"lon":5.375817,"is_reserved":false,"is_disabled":false,"rental_uris":{"android":"levelo://app?vid=a1e2b7f3-f53e-4b6a-b8f1-27b0fbf9634d","ios":"levelo://app?vid=a1e2b7f3-f53e-4b6a-b8f1-27b0fbf9634d"},"vehicle_type_id":"4","last_reported":1759054145,"current_range_meters":14400,"station_id":"","pricing_plan_id":"cebpf4jnsgd1na2vs0mg"},{"bike_id":"3cb1dae7-6bcd-41e5-b1b7-c1d25c751a99","system_id":"levelo_inurba_marseille","lat":43.337635,"lon":5.374385,"is_reserved":false,"is_disabled":false,"rental_uris":{"android":"levelo://app?vid=3cb1dae7-6bcd-41e5-b1b7-c1d25c751a99","ios":"levelo://app?vid=3cb1dae7-6bcd-41e5-b1b7-c1d25c751a99"},"vehicle_type_id":"4","last_reported":1759054145,"current_range_meters":14400,"station_id":"","pricing_plan_id":"cebpf4jnsgd1na2vs0mg"},{"bike_id":"5fe7f407-3191-4d84-bcf8-5bce6d58e56d","system_id":"levelo_inurba_marseille","lat":43.22936,"lon":5.35373,"is_reserved":false,"is_disabled":false,"rental_uris":{"android":"levelo://app?vid=5fe7f407-3191-4d84-bcf8-5bce6d58e56d","ios":"levelo://app?vid=5fe7f407-3191-4d84-bcf8-5bce6d58e56d"},"vehicle_type_id":"4","last_reported":1759054145,"current_range_meters":14400,"station_id":"cpo3532slgdg3j2ikp40","pricing_plan_id":"cebpf4jnsgd1na2vs0mg"},{"bike_id":"92c26263-e28a-45bc-8239-6baded26e702","system_id":"levelo_inurba_marseille","lat":43.31491,"lon":5.37307,"is_reserved":false,"is_disabled":false,"rental_uris":{"android":"levelo://app?vid=92c26263-e28a-45bc-8239-6baded26e702","ios":"levelo://app?vid=92c26263-e28a-45bc-8239-6baded26e702"},"vehicle_type_id":"4","last_reported":1759054145,"current_range_meters":14400,"station_id":"ce4bgt12rcd13ifvqcd0","pricing_plan_id":"cebpf4jnsgd1na2vs0mg"},{"bike_id":"6f0c1749-517c-4897-91c9-50c589e202de","system_id":"levelo_inurba_marseille","lat":43.341556,"lon":5.409207,"is_reserved":false,"is_disabled":true,"rental_uris":{"android":"levelo://app?vid=6f0c1749-517c-4897-91c9-50c589e202de","ios":"levelo://app?vid=6f0c1749-517c-4897-91c9-50c589e202de"},"vehicle_type_id":"4","last_reported":1759054145,"current_range_meters":14800,"station_id":"ce4bhqh2rcd13ifvqhlg","pricing_plan_id":"cebpf4jnsgd1na2vs0mg"},{"bike_id":"151d75a0-434c-41d6-a3a8-42bc6a9a604c","system_id":"levelo_inurba_marseille","lat":43.31757,"lon":5.39017,"is_reserved":false,"is_disabled":false,"rental_uris":{"android":"levelo://app?vid=151d75a0-434c-41d6-a3a8-42bc6a9a604c","ios":"levelo://app?vid=151d75a0-434c-41d6-a3a8-42bc6a9a604c"},"vehicle_type_id":"4","last_reported":1759054145,"current_range_meters":14800,"station_id":"ce4bgt92rcd13ifvqcf0","pricing_plan_id":"cebpf4jnsgd1na2vs0mg"},{"bike_id":"b97468b4-681e-4abf-bd99-6bd33a5b1d37","system_id":"levelo_inurba_marseille","lat":43.29222,"lon":5.3606,"is_reserved":false,"is_disabled":false,"rental_uris":{"android":"levelo://app?vid=b97468b4-681e-4abf-bd99-6bd33a5b1d37","ios":"levelo://app?vid=b97468b4-681e-4abf-bd99-6bd33a5b1d37"},"vehicle_type_id":"4","last_reported":1759054145,"current_range_meters":14800,"station_id":"ce4bhbh2rcd13ifvqeqg","pricing_plan_id":"cebpf4jnsgd1na2vs0mg"},{"bike_id":"e3fe1c25-77d6-4c99-a172-35c670f24da9","system_id":"levelo_inurba_marseille","lat":43.290022,"lon":5.356077,"is_reserved":false,"is_disabled":true,"rental_uris":{"android":"levelo://app?vid=e3fe1c25-77d6-4c99-a172-35c670f24da9","ios":"levelo://app?vid=e3fe1c25-77d6-4c99-a172-35c670f24da9"},"vehicle_type_id":"4","last_reported":1759054145,"current_range_meters":14800,"station_id":"ce4bhb92rcd13ifvqen0","pricing_plan_id":"cebpf4jnsgd1na2vs0mg"},{"bike_id":"258b2e09-7c4c-42f6-94e1-22674b9d8e2f","system_id":"levelo_inurba_marseille","lat":43.319995,"lon":5.381477,"is_reserved":false,"is_disabled":false,"rental_uris":{"android":"levelo://app?vid=258b2e09-7c4c-42f6-94e1-22674b9d8e2f","ios":"levelo://app?vid=258b2e09-7c4c-42f6-94e1-22674b9d8e2f"},"vehicle_type_id":"4","last_reported":1759054145,"current_range_meters":15200,"station_id":"ce4bhr12rcd13ifvqhpg","pricing_plan_id":"cebpf4jnsgd1na2vs0mg"},{"bike_id":"d58ddcbe-70d7-4259-abad-73cc43b8b8b9","system_id":"levelo_inurba_marseille","lat":43.230407,"lon":5.355189,"is_reserved":false,"is_disabled":true,"rental_uris":{"android":"levelo://app?vid=d58ddcbe-70d7-4259-abad-73cc43b8b8b9","ios":"levelo://app?vid=d58ddcbe-70d7-4259-abad-73cc43b8b8b9"},"vehicle_type_id":"4","last_reported":1759054145,"current_range_meters":15200,"station_id":"cpo3342slgdg3j2ifvpg","pricing_plan_id":"cebpf4jnsgd1na2vs0mg"},{"bike_id":"ccf1fdad-22d0-4e2e-9ef9-9131d6838735","system_id":"levelo_inurba_marseille","lat":43.25336,"lon":5.42174,"is_reserved":false,"is_disabled":false,"rental_uris":{"android":"levelo://app?vid=ccf1fdad-22d0-4e2e-9ef9-9131d6838735","ios":"levelo://app?vid=ccf1fdad-22d0-4e2e-9ef9-9131d6838735"},"vehicle_type_id":"4","last_reported":1759054145,"current_range_meters":15200,"station_id":"st_d2m65c5bi1j21697t3ng","pricing_plan_id":"cebpf4jnsgd1na2vs0mg"},{"bike_id":"d7d09523-34bb-44d2-9695-02f0abea9b47","system_id":"levelo_inurba_marseille","lat":43.29736,"lon":5.37935,"is_reserved":false,"is_disabled":false,"rental_uris":{"android":"levelo://app?vid=d7d09523-34bb-44d2-9695-02f0abea9b47","ios":"levelo://app?vid=d7d09523-34bb-44d2-9695-02f0abea9b47"},"vehicle_type_id":"4","last_reported":1759054145,"current_range_meters":15200,"station_id":"","pricing_plan_id":"cebpf4jnsgd1na2vs0mg"},{"bike_id":"35e8f722-b82a-4247-beb8-7e2827829ce6","system_id":"levelo_inurba_marseille","lat":43.32405,"lon":5.3911,"is_reserved":false,"is_disabled":false,"rental_uris":{"android":"levelo://app?vid=35e8f722-b82a-4247-beb8-7e2827829ce6","ios":"levelo://app?vid=35e8f722-b82a-4247-beb8-7e2827829ce6"},"vehicle_type_id":"4","last_reported":1759054145,"current_range_meters":15200,"station_id":"","pricing_plan_id":"cebpf4jnsgd1na2vs0mg"},{"bike_id":"25286978-e4d4-4e7d-bb59-00d0cc9ef8ab","system_id":"levelo_inurba_marseille","lat":43.27662,"lon":5.38897,"is_reserved":false,"is_disabled":false,"rental_uris":{"android":"levelo://app?vid=25286978-e4d4-4e7d-bb59-00d0cc9ef8ab","ios":"levelo://app?vid=25286978-e4d4-4e7d-bb59-00d0cc9ef8ab"},"vehicle_type_id":"4","last_reported":1759054145,"current_range_meters":14800,"station_id":"ce4bhi12rcd13ifvqfo0","pricing_plan_id":"cebpf4jnsgd1na2vs0mg"},{"bike_id":"342aa4a8-2613-4079-ad39-b792bb12bc57","system_id":"levelo_inurba_marseille","lat":43.32131,"lon":5.36787,"is_reserved":false,"is_disabled":false,"rental_uris":{"android":"levelo://app?vid=342aa4a8-2613-4079-ad39-b792bb12bc57","ios":"levelo://app?vid=342aa4a8-2613-4079-ad39-b792bb12bc57"},"vehicle_type_id":"4","last_reported":1759054145,"current_range_meters":15200,"station_id":"ce4bhrh2rcd13ifvqhug","pricing_plan_id":"cebpf4jnsgd1na2vs0mg"},{"bike_id":"6053146a-7d78-4dc8-82db-2bd4d96c5db7","system_id":"levelo_inurba_marseille","lat":43.2846,"lon":5.35887,"is_reserved":false,"is_disabled":false,"rental_uris":{"android":"levelo://app?vid=6053146a-7d78-4dc8-82db-2bd4d96c5db7","ios":"levelo://app?vid=6053146a-7d78-4dc8-82db-2bd4d96c5db7"},"vehicle_type_id":"4","last_reported":1759054145,"current_range_meters":14800,"station_id":"ce4bhah2rcd13ifvqei0","pricing_plan_id":"cebpf4jnsgd1na2vs0mg"},{"bike_id":"2dcb1c6e-8dce-4419-aef4-ee69528add1e","system_id":"levelo_inurba_marseille","lat":43.24386,"lon":5.37052,"is_reserved":false,"is_disabled":false,"rental_uris":{"android":"levelo://app?vid=2dcb1c6e-8dce-4419-aef4-ee69528add1e","ios":"levelo://app?vid=2dcb1c6e-8dce-4419-aef4-ee69528add1e"},"vehicle_type_id":"4","last_reported":1759054145,"current_range_meters":15200,"station_id":"ce4bhhh2rcd13ifvqfk0","pricing_plan_id":"cebpf4jnsgd1na2vs0mg"},{"bike_id":"e5378695-fba9-432a-9cfb-3b5b05e40fec","system_id":"levelo_inurba_marseille","lat":43.337986,"lon":5.374304,"is_reserved":false,"is_disabled":false,"rental_uris":{"android":"levelo://app?vid=e5378695-fba9-432a-9cfb-3b5b05e40fec","ios":"levelo://app?vid=e5378695-fba9-432a-9cfb-3b5b05e40fec"},"vehicle_type_id":"4","last_reported":1759054145,"current_range_meters":15200,"station_id":"","pricing_plan_id":"cebpf4jnsgd1na2vs0mg"},{"bike_id":"01e260f5-828c-4df2-9bc4-ca80e799f979","system_id":"levelo_inurba_marseille","lat":43.2417,"lon":5.36397,"is_reserved":false,"is_disabled":true,"rental_uris":{"android":"levelo://app?vid=01e260f5-828c-4df2-9bc4-ca80e799f979","ios":"levelo://app?vid=01e260f5-828c-4df2-9bc4-ca80e799f979"},"vehicle_type_id":"4","last_reported":1759054145,"current_range_meters":16000,"station_id":"cpo36qri1sfpv3e86is0","pricing_plan_id":"cebpf4jnsgd1na2vs0mg"},{"bike_id":"9c50c5b0-f1cb-416f-96aa-49a6e1e08635","system_id":"levelo_inurba_marseille","lat":43.30174,"lon":5.3663,"is_reserved":false,"is_disabled":false,"rental_uris":{"android":"levelo://app?vid=9c50c5b0-f1cb-416f-96aa-49a6e1e08635","ios":"levelo://app?vid=9c50c5b0-f1cb-416f-96aa-49a6e1e08635"},"vehicle_type_id":"4","last_reported":1759054145,"current_range_meters":16000,"station_id":"ce4bgrh2rcd13ifvqc8g","pricing_plan_id":"cebpf4jnsgd1na2vs0mg"},{"bike_id":"d8202551-11d6-47e5-83fc-d7c15a5fcc5b","system_id":"levelo_inurba_marseille","lat":43.32453,"lon":5.3665,"is_reserved":false,"is_disabled":false,"rental_uris":{"android":"levelo://app?vid=d8202551-11d6-47e5-83fc-d7c15a5fcc5b","ios":"levelo://app?vid=d8202551-11d6-47e5-83fc-d7c15a5fcc5b"},"vehicle_type_id":"4","last_reported":1759054145,"current_range_meters":16000,"station_id":"","pricing_plan_id":"cebpf4jnsgd1na2vs0mg"},{"bike_id":"4fb58689-967e-4abe-a0e6-912a768ddaef","system_id":"levelo_inurba_marseille","lat":43.29904,"lon":5.43635,"is_reserved":false,"is_disabled":false,"rental_uris":{"android":"levelo://app?vid=4fb58689-967e-4abe-a0e6-912a768ddaef","ios":"levelo://app?vid=4fb58689-967e-4abe-a0e6-912a768ddaef"},"vehicle_type_id":"4","last_reported":1759054145,"current_range_meters":16000,"station_id":"ce4bhpp2rcd13ifvqhfg","pricing_plan_id":"cebpf4jnsgd1na2vs0mg"},{"bike_id":"4822dd99-56ec-44f6-a9b9-ee0ae5dcc1bf","system_id":"levelo_inurba_marseille","lat":43.30009,"lon":5.39994,"is_reserved":false,"is_disabled":false,"rental_uris":{"android":"levelo://app?vid=4822dd99-56ec-44f6-a9b9-ee0ae5dcc1bf","ios":"levelo://app?vid=4822dd99-56ec-44f6-a9b9-ee0ae5dcc1bf"},"vehicle_type_id":"4","last_reported":1759054145,"current_range_meters":16000,"station_id":"ce4bh0h2rcd13ifvqd40","pricing_plan_id":"cebpf4jnsgd1na2vs0mg"},{"bike_id":"473be798-955e-44ad-a92b-7b9cc5bbebba","system_id":"levelo_inurba_marseille","lat":43.239606,"lon":5.366415,"is_reserved":false,"is_disabled":false,"rental_uris":{"android":"levelo://app?vid=473be798-955e-44ad-a92b-7b9cc5bbebba","ios":"levelo://app?vid=473be798-955e-44ad-a92b-7b9cc5bbebba"},"vehicle_type_id":"4","last_reported":1759054145,"current_range_meters":16400,"station_id":"ce4bhi12rcd13ifvqfp0","pricing_plan_id":"cebpf4jnsgd1na2vs0mg"},{"bike_id":"327c041e-5c9e-4b0d-a97c-a2dbaab036ae","system_id":"levelo_inurba_marseille","lat":43.32813,"lon":5.4113,"is_reserved":false,"is_disabled":false,"rental_uris":{"android":"levelo://app?vid=327c041e-5c9e-4b0d-a97c-a2dbaab036ae","ios":"levelo://app?vid=327c041e-5c9e-4b0d-a97c-a2dbaab036ae"},"vehicle_type_id":"4","last_reported":1759054145,"current_range_meters":16400,"station_id":"","pricing_plan_id":"cebpf4jnsgd1na2vs0mg"},{"bike_id":"bb6faf77-1af9-4924-b0a3-22d5841a3234","system_id":"levelo_inurba_marseille","lat":43.29839,"lon":5.36261,"is_reserved":false,"is_disabled":false,"rental_uris":{"android":"levelo://app?vid=bb6faf77-1af9-4924-b0a3-22d5841a3234","ios":"levelo://app?vid=bb6faf77-1af9-4924-b0a3-22d5841a3234"},"vehicle_type_id":"4","last_reported":1759054145,"current_range_meters":16400,"station_id":"ce4bgpp2rcd13ifvqc3g","pricing_plan_id":"cebpf4jnsgd1na2vs0mg"},{"bike_id":"4207859b-810a-4ee3-b34a-847e39d14ebc","system_id":"levelo_inurba_marseille","lat":43.23948,"lon":5.3664,"is_reserved":false,"is_disabled":false,"rental_uris":{"android":"levelo://app?vid=4207859b-810a-4ee3-b34a-847e39d14ebc","ios":"levelo://app?vid=4207859b-810a-4ee3-b34a-847e39d14ebc"},"vehicle_type_id":"4","last_reported":1759054145,"current_range_meters":16400,"station_id":"ce4bhi12rcd13ifvqfp0","pricing_plan_id":"cebpf4jnsgd1na2vs0mg"},{"bike_id":"7ed03729-1b9b-4a6a-9529-68e4006c8cf5","system_id":"levelo_inurba_marseille","lat":43.22951,"lon":5.35371,"is_reserved":false,"is_disabled":false,"rental_uris":{"android":"levelo://app?vid=7ed03729-1b9b-4a6a-9529-68e4006c8cf5","ios":"levelo://app?vid=7ed03729-1b9b-4a6a-9529-68e4006c8cf5"},"vehicle_type_id":"4","last_reported":1759054145,"current_range_meters":16400,"station_id":"cpo3532slgdg3j2ikp40","pricing_plan_id":"cebpf4jnsgd1na2vs0mg"},{"bike_id":"9353e269-fbc0-4680-ac92-7179d3cf36ce","system_id":"levelo_inurba_marseille","lat":43.313318,"lon":5.396914,"is_reserved":false,"is_disabled":false,"rental_uris":{"android":"levelo://app?vid=9353e269-fbc0-4680-ac92-7179d3cf36ce","ios":"levelo://app?vid=9353e269-fbc0-4680-ac92-7179d3cf36ce"},"vehicle_type_id":"4","last_reported":1759054145,"current_range_meters":16400,"station_id":"ce4bgvp2rcd13ifvqcu0","pricing_plan_id":"cebpf4jnsgd1na2vs0mg"},{"bike_id":"f1aed6d1-98cc-458f-93c4-54430d20c1ac","system_id":"levelo_inurba_marseille","lat":43.21191,"lon":5.35094,"is_reserved":false,"is_disabled":false,"rental_uris":{"android":"levelo://app?vid=f1aed6d1-98cc-458f-93c4-54430d20c1ac","ios":"levelo://app?vid=f1aed6d1-98cc-458f-93c4-54430d20c1ac"},"vehicle_type_id":"4","last_reported":1759054145,"current_range_meters":16400,"station_id":"st_cvj6sg6p6f1abm77japg","pricing_plan_id":"cebpf4jnsgd1na2vs0mg"},{"bike_id":"e5cca1d3-7b83-4815-adc1-45ead40eb28d","system_id":"levelo_inurba_marseille","lat":43.3209,"lon":5.36754,"is_reserved":false,"is_disabled":false,"rental_uris":{"android":"levelo://app?vid=e5cca1d3-7b83-4815-adc1-45ead40eb28d","ios":"levelo://app?vid=e5cca1d3-7b83-4815-adc1-45ead40eb28d"},"vehicle_type_id":"4","last_reported":1759054145,"current_range_meters":16400,"station_id":"ce4bhrh2rcd13ifvqhug","pricing_plan_id":"cebpf4jnsgd1na2vs0mg"},{"bike_id":"0656741e-4baa-4804-921b-3ed5233045aa","system_id":"levelo_inurba_marseille","lat":43.24639,"lon":5.43148,"is_reserved":false,"is_disabled":false,"rental_uris":{"android":"levelo://app?vid=0656741e-4baa-4804-921b-3ed5233045aa","ios":"levelo://app?vid=0656741e-4baa-4804-921b-3ed5233045aa"},"vehicle_type_id":"4","last_reported":1759054145,"current_range_meters":16400,"station_id":"st_d2m6c4gdas8pm72e190g","pricing_plan_id":"cebpf4jnsgd1na2vs0mg"},{"bike_id":"85aed421-a3d0-4d88-bb01-a5b4c08595f9","system_id":"levelo_inurba_marseille","lat":43.2863,"lon":5.35113,"is_reserved":false,"is_disabled":false,"rental_uris":{"android":"levelo://app?vid=85aed421-a3d0-4d88-bb01-a5b4c08595f9","ios":"levelo://app?vid=85aed421-a3d0-4d88-bb01-a5b4c08595f9"},"vehicle_type_id":"4","last_reported":1759054145,"current_range_meters":16400,"station_id":"ce4bhch2rcd13ifvqeug","pricing_plan_id":"cebpf4jnsgd1na2vs0mg"},{"bike_id":"3ecab9fb-ebd1-48b2-bfce-30928b04fa5e","system_id":"levelo_inurba_marseille","lat":43.26285,"lon":5.39906,"is_reserved":false,"is_disabled":false,"rental_uris":{"android":"levelo://app?vid=3ecab9fb-ebd1-48b2-bfce-30928b04fa5e","ios":"levelo://app?vid=3ecab9fb-ebd1-48b2-bfce-30928b04fa5e"},"vehicle_type_id":"4","last_reported":1759054145,"current_range_meters":16400,"station_id":"","pricing_plan_id":"cebpf4jnsgd1na2vs0mg"},{"bike_id":"2b951fb5-1943-4c36-99d7-9d7c7f99387d","system_id":"levelo_inurba_marseille","lat":43.26211,"lon":5.37441,"is_reserved":false,"is_disabled":false,"rental_uris":{"android":"levelo://app?vid=2b951fb5-1943-4c36-99d7-9d7c7f99387d","ios":"levelo://app?vid=2b951fb5-1943-4c36-99d7-9d7c7f99387d"},"vehicle_type_id":"4","last_reported":1759054145,"current_range_meters":16400,"station_id":"ce4bhgp2rcd13ifvqfc0","pricing_plan_id":"cebpf4jnsgd1na2vs0mg"},{"bike_id":"28926cb8-b4a6-4cfc-8124-d42e89e267cb","system_id":"levelo_inurba_marseille","lat":43.319905,"lon":5.381431,"is_reserved":false,"is_disabled":false,"rental_uris":{"android":"levelo://app?vid=28926cb8-b4a6-4cfc-8124-d42e89e267cb","ios":"levelo://app?vid=28926cb8-b4a6-4cfc-8124-d42e89e267cb"},"vehicle_type_id":"4","last_reported":1759054145,"current_range_meters":16800,"station_id":"ce4bhr12rcd13ifvqhpg","pricing_plan_id":"cebpf4jnsgd1na2vs0mg"},{"bike_id":"aef170f6-3306-46fe-9dab-25f26114ab13","system_id":"levelo_inurba_marseille","lat":43.3236,"lon":5.36754,"is_reserved":false,"is_disabled":false,"rental_uris":{"android":"levelo://app?vid=aef170f6-3306-46fe-9dab-25f26114ab13","ios":"levelo://app?vid=aef170f6-3306-46fe-9dab-25f26114ab13"},"vehicle_type_id":"4","last_reported":1759054145,"current_range_meters":16800,"station_id":"ce4bhsh2rcd13ifvqi2g","pricing_plan_id":"cebpf4jnsgd1na2vs0mg"},{"bike_id":"e0e9194b-710d-4981-ad65-ba5929d7512b","system_id":"levelo_inurba_marseille","lat":43.306022,"lon":5.384559,"is_reserved":false,"is_disabled":false,"rental_uris":{"android":"levelo://app?vid=e0e9194b-710d-4981-ad65-ba5929d7512b","ios":"levelo://app?vid=e0e9194b-710d-4981-ad65-ba5929d7512b"},"vehicle_type_id":"4","last_reported":1759054145,"current_range_meters":16800,"station_id":"","pricing_plan_id":"cebpf4jnsgd1na2vs0mg"},{"bike_id":"73bbd8a8-62e4-4a7e-9641-f59dbff0423a","system_id":"levelo_inurba_marseille","lat":43.30208,"lon":5.39464,"is_reserved":false,"is_disabled":true,"rental_uris":{"android":"levelo://app?vid=73bbd8a8-62e4-4a7e-9641-f59dbff0423a","ios":"levelo://app?vid=73bbd8a8-62e4-4a7e-9641-f59dbff0423a"},"vehicle_type_id":"4","last_reported":1759054145,"current_range_meters":16800,"station_id":"ce4bh0p2rcd13ifvqd70","pricing_plan_id":"cebpf4jnsgd1na2vs0mg"},{"bike_id":"c8eb7660-6046-4e9c-8c85-8306cbdbfdf8","system_id":"levelo_inurba_marseille","lat":43.24624,"lon":5.43146,"is_reserved":false,"is_disabled":false,"rental_uris":{"android":"levelo://app?vid=c8eb7660-6046-4e9c-8c85-8306cbdbfdf8","ios":"levelo://app?vid=c8eb7660-6046-4e9c-8c85-8306cbdbfdf8"},"vehicle_type_id":"4","last_reported":1759054145,"current_range_meters":16800,"station_id":"st_d2m6c4gdas8pm72e190g","pricing_plan_id":"cebpf4jnsgd1na2vs0mg"},{"bike_id":"cce0ada7-4d08-443d-8d6b-d099a0c84dfa","system_id":"levelo_inurba_marseille","lat":43.24179,"lon":5.39738,"is_reserved":false,"is_disabled":false,"rental_uris":{"android":"levelo://app?vid=cce0ada7-4d08-443d-8d6b-d099a0c84dfa","ios":"levelo://app?vid=cce0ada7-4d08-443d-8d6b-d099a0c84dfa"},"vehicle_type_id":"4","last_reported":1759054145,"current_range_meters":16800,"station_id":"ce4bhn12rcd13ifvqgpg","pricing_plan_id":"cebpf4jnsgd1na2vs0mg"},{"bike_id":"80b98ce0-3233-47ce-84db-722943723d1e","system_id":"levelo_inurba_marseille","lat":43.269329,"lon":5.38928,"is_reserved":false,"is_disabled":false,"rental_uris":{"android":"levelo://app?vid=80b98ce0-3233-47ce-84db-722943723d1e","ios":"levelo://app?vid=80b98ce0-3233-47ce-84db-722943723d1e"},"vehicle_type_id":"4","last_reported":1759054145,"current_range_meters":16800,"station_id":"","pricing_plan_id":"cebpf4jnsgd1na2vs0mg"},{"bike_id":"5eabf052-2876-4a06-bcab-22f4020f8aee","system_id":"levelo_inurba_marseille","lat":43.22936,"lon":5.35374,"is_reserved":false,"is_disabled":false,"rental_uris":{"android":"levelo://app?vid=5eabf052-2876-4a06-bcab-22f4020f8aee","ios":"levelo://app?vid=5eabf052-2876-4a06-bcab-22f4020f8aee"},"vehicle_type_id":"4","last_reported":1759054145,"current_range_meters":16800,"station_id":"cpo3532slgdg3j2ikp40","pricing_plan_id":"cebpf4jnsgd1na2vs0mg"},{"bike_id":"f060d515-f268-4371-95a2-f04eea0ad05f","system_id":"levelo_inurba_marseille","lat":43.24633,"lon":5.43148,"is_reserved":false,"is_disabled":false,"rental_uris":{"android":"levelo://app?vid=f060d515-f268-4371-95a2-f04eea0ad05f","ios":"levelo://app?vid=f060d515-f268-4371-95a2-f04eea0ad05f"},"vehicle_type_id":"4","last_reported":1759054145,"current_range_meters":16800,"station_id":"st_d2m6c4gdas8pm72e190g","pricing_plan_id":"cebpf4jnsgd1na2vs0mg"},{"bike_id":"db54ae1e-766a-4881-94b4-a4cf26d411ba","system_id":"levelo_inurba_marseille","lat":43.29263,"lon":5.38435,"is_reserved":false,"is_disabled":true,"rental_uris":{"android":"levelo://app?vid=db54ae1e-766a-4881-94b4-a4cf26d411ba","ios":"levelo://app?vid=db54ae1e-766a-4881-94b4-a4cf26d411ba"},"vehicle_type_id":"4","last_reported":1759054145,"current_range_meters":17200,"station_id":"ce4bh692rcd13ifvqea0","pricing_plan_id":"cebpf4jnsgd1na2vs0mg"},{"bike_id":"f2713ec4-8dc7-41a6-967d-0297d4f660c8","system_id":"levelo_inurba_marseille","lat":43.28401,"lon":5.37517,"is_reserved":false,"is_disabled":true,"rental_uris":{"android":"levelo://app?vid=f2713ec4-8dc7-41a6-967d-0297d4f660c8","ios":"levelo://app?vid=f2713ec4-8dc7-41a6-967d-0297d4f660c8"},"vehicle_type_id":"4","last_reported":1759054145,"current_range_meters":17200,"station_id":"ce4bh412rcd13ifvqds0","pricing_plan_id":"cebpf4jnsgd1na2vs0mg"},{"bike_id":"74dab905-f0a5-4a35-8e06-8ce13422dbf0","system_id":"levelo_inurba_marseille","lat":43.295401,"lon":5.387065,"is_reserved":false,"is_disabled":false,"rental_uris":{"android":"levelo://app?vid=74dab905-f0a5-4a35-8e06-8ce13422dbf0","ios":"levelo://app?vid=74dab905-f0a5-4a35-8e06-8ce13422dbf0"},"vehicle_type_id":"4","last_reported":1759054145,"current_range_meters":17200,"station_id":"","pricing_plan_id":"cebpf4jnsgd1na2vs0mg"},{"bike_id":"3d40f7de-0417-4713-b9b1-cd54819704d5","system_id":"levelo_inurba_marseille","lat":43.24826,"lon":5.37467,"is_reserved":false,"is_disabled":false,"rental_uris":{"android":"levelo://app?vid=3d40f7de-0417-4713-b9b1-cd54819704d5","ios":"levelo://app?vid=3d40f7de-0417-4713-b9b1-cd54819704d5"},"vehicle_type_id":"4","last_reported":1759054145,"current_range_meters":17200,"station_id":"ce4bhgh2rcd13ifvqfb0","pricing_plan_id":"cebpf4jnsgd1na2vs0mg"},{"bike_id":"8ffac578-131d-4171-941b-d073a175c44c","system_id":"levelo_inurba_marseille","lat":43.26209,"lon":5.37442,"is_reserved":false,"is_disabled":true,"rental_uris":{"android":"levelo://app?vid=8ffac578-131d-4171-941b-d073a175c44c","ios":"levelo://app?vid=8ffac578-131d-4171-941b-d073a175c44c"},"vehicle_type_id":"4","last_reported":1759054145,"current_range_meters":17200,"station_id":"ce4bhgp2rcd13ifvqfc0","pricing_plan_id":"cebpf4jnsgd1na2vs0mg"},{"bike_id":"9c4235da-d3d0-4056-aa6b-c6aa6e8e7367","system_id":"levelo_inurba_marseille","lat":43.30692,"lon":5.37528,"is_reserved":false,"is_disabled":false,"rental_uris":{"android":"levelo://app?vid=9c4235da-d3d0-4056-aa6b-c6aa6e8e7367","ios":"levelo://app?vid=9c4235da-d3d0-4056-aa6b-c6aa6e8e7367"},"vehicle_type_id":"4","last_reported":1759054145,"current_range_meters":17200,"station_id":"","pricing_plan_id":"cebpf4jnsgd1na2vs0mg"},{"bike_id":"db1acf7b-6385-4054-8c1a-8e9cfe14874d","system_id":"levelo_inurba_marseille","lat":43.211894,"lon":5.350706,"is_reserved":false,"is_disabled":false,"rental_uris":{"android":"levelo://app?vid=db1acf7b-6385-4054-8c1a-8e9cfe14874d","ios":"levelo://app?vid=db1acf7b-6385-4054-8c1a-8e9cfe14874d"},"vehicle_type_id":"4","last_reported":1759054145,"current_range_meters":17200,"station_id":"st_cvj6sg6p6f1abm77japg","pricing_plan_id":"cebpf4jnsgd1na2vs0mg"},{"bike_id":"31b129bc-fda0-4e29-817e-a219e2fdc059","system_id":"levelo_inurba_marseille","lat":43.25891,"lon":5.39918,"is_reserved":false,"is_disabled":false,"rental_uris":{"android":"levelo://app?vid=31b129bc-fda0-4e29-817e-a219e2fdc059","ios":"levelo://app?vid=31b129bc-fda0-4e29-817e-a219e2fdc059"},"vehicle_type_id":"4","last_reported":1759054145,"current_range_meters":17600,"station_id":"ce4bhl92rcd13ifvqghg","pricing_plan_id":"cebpf4jnsgd1na2vs0mg"},{"bike_id":"96cb19cd-9dc1-4487-afa5-8b97d6432b6e","system_id":"levelo_inurba_marseille","lat":43.282675,"lon":5.350565,"is_reserved":false,"is_disabled":false,"rental_uris":{"android":"levelo://app?vid=96cb19cd-9dc1-4487-afa5-8b97d6432b6e","ios":"levelo://app?vid=96cb19cd-9dc1-4487-afa5-8b97d6432b6e"},"vehicle_type_id":"4","last_reported":1759054145,"current_range_meters":17600,"station_id":"ce4bhbp2rcd13ifvqerg","pricing_plan_id":"cebpf4jnsgd1na2vs0mg"},{"bike_id":"e63d9ecf-df7d-4adf-822d-dc1421446dea","system_id":"levelo_inurba_marseille","lat":43.292703,"lon":5.368385,"is_reserved":false,"is_disabled":false,"rental_uris":{"android":"levelo://app?vid=e63d9ecf-df7d-4adf-822d-dc1421446dea","ios":"levelo://app?vid=e63d9ecf-df7d-4adf-822d-dc1421446dea"},"vehicle_type_id":"4","last_reported":1759054145,"current_range_meters":17600,"station_id":"ce4bhbp2rcd13ifvqesg","pricing_plan_id":"cebpf4jnsgd1na2vs0mg"},{"bike_id":"747783f3-e741-4550-b8c9-7590f9ade344","system_id":"levelo_inurba_marseille","lat":43.26557,"lon":5.37279,"is_reserved":false,"is_disabled":false,"rental_uris":{"android":"levelo://app?vid=747783f3-e741-4550-b8c9-7590f9ade344","ios":"levelo://app?vid=747783f3-e741-4550-b8c9-7590f9ade344"},"vehicle_type_id":"4","last_reported":1759054145,"current_range_meters":17600,"station_id":"ce4bhg12rcd13ifvqf70","pricing_plan_id":"cebpf4jnsgd1na2vs0mg"},{"bike_id":"e7f30816-4be3-4a4d-8c88-9aa039c43386","system_id":"levelo_inurba_marseille","lat":43.30525,"lon":5.36637,"is_reserved":false,"is_disabled":false,"rental_uris":{"android":"levelo://app?vid=e7f30816-4be3-4a4d-8c88-9aa039c43386","ios":"levelo://app?vid=e7f30816-4be3-4a4d-8c88-9aa039c43386"},"vehicle_type_id":"4","last_reported":1759054145,"current_range_meters":17600,"station_id":"","pricing_plan_id":"cebpf4jnsgd1na2vs0mg"},{"bike_id":"ccf1a960-00f8-44d3-b3a7-c32ae6637e38","system_id":"levelo_inurba_marseille","lat":43.253424,"lon":5.421606,"is_reserved":false,"is_disabled":false,"rental_uris":{"android":"levelo://app?vid=ccf1a960-00f8-44d3-b3a7-c32ae6637e38","ios":"levelo://app?vid=ccf1a960-00f8-44d3-b3a7-c32ae6637e38"},"vehicle_type_id":"4","last_reported":1759054145,"current_range_meters":17600,"station_id":"st_d2m65c5bi1j21697t3ng","pricing_plan_id":"cebpf4jnsgd1na2vs0mg"},{"bike_id":"0683580a-c4b8-4b6b-a1d7-d8659bb87ed8","system_id":"levelo_inurba_marseille","lat":43.296087,"lon":5.371556,"is_reserved":false,"is_disabled":false,"rental_uris":{"android":"levelo://app?vid=0683580a-c4b8-4b6b-a1d7-d8659bb87ed8","ios":"levelo://app?vid=0683580a-c4b8-4b6b-a1d7-d8659bb87ed8"},"vehicle_type_id":"4","last_reported":1759054145,"current_range_meters":17600,"station_id":"ce4bgnh2rcd13ifvqc0g","pricing_plan_id":"cebpf4jnsgd1na2vs0mg"},{"bike_id":"89fe513c-a434-4cf8-a56c-ee0844b2f3be","system_id":"levelo_inurba_marseille","lat":43.299722,"lon":5.384959,"is_reserved":false,"is_disabled":true,"rental_uris":{"android":"levelo://app?vid=89fe513c-a434-4cf8-a56c-ee0844b2f3be","ios":"levelo://app?vid=89fe513c-a434-4cf8-a56c-ee0844b2f3be"},"vehicle_type_id":"4","last_reported":1759054145,"current_range_meters":17600,"station_id":"ce4bgj92rcd13ifvqbd0","pricing_plan_id":"cebpf4jnsgd1na2vs0mg"},{"bike_id":"e5d130c7-37f6-40bf-951d-833312fd7da4","system_id":"levelo_inurba_marseille","lat":43.26566,"lon":5.39033,"is_reserved":false,"is_disabled":false,"rental_uris":{"android":"levelo://app?vid=e5d130c7-37f6-40bf-951d-833312fd7da4","ios":"levelo://app?vid=e5d130c7-37f6-40bf-951d-833312fd7da4"},"vehicle_type_id":"4","last_reported":1759054145,"current_range_meters":17600,"station_id":"ce4bhe12rcd13ifvqf30","pricing_plan_id":"cebpf4jnsgd1na2vs0mg"},{"bike_id":"52c84e1b-4d26-4791-bbdd-dcd38cf1f46e","system_id":"levelo_inurba_marseille","lat":43.2417,"lon":5.36389,"is_reserved":false,"is_disabled":false,"rental_uris":{"android":"levelo://app?vid=52c84e1b-4d26-4791-bbdd-dcd38cf1f46e","ios":"levelo://app?vid=52c84e1b-4d26-4791-bbdd-dcd38cf1f46e"},"vehicle_type_id":"4","last_reported":1759054145,"current_range_meters":17600,"station_id":"cpo36qri1sfpv3e86is0","pricing_plan_id":"cebpf4jnsgd1na2vs0mg"},{"bike_id":"5ad6f947-9542-4f4a-97dc-1ac43af48548","system_id":"levelo_inurba_marseille","lat":43.30434,"lon":5.39746,"is_reserved":false,"is_disabled":false,"rental_uris":{"android":"levelo://app?vid=5ad6f947-9542-4f4a-97dc-1ac43af48548","ios":"levelo://app?vid=5ad6f947-9542-4f4a-97dc-1ac43af48548"},"vehicle_type_id":"4","last_reported":1759054145,"current_range_meters":17600,"station_id":"ce4bh092rcd13ifvqd20","pricing_plan_id":"cebpf4jnsgd1na2vs0mg"},{"bike_id":"2c04c161-571d-4284-8076-4429e8d13901","system_id":"levelo_inurba_marseille","lat":43.27997,"lon":5.40012,"is_reserved":false,"is_disabled":false,"rental_uris":{"android":"levelo://app?vid=2c04c161-571d-4284-8076-4429e8d13901","ios":"levelo://app?vid=2c04c161-571d-4284-8076-4429e8d13901"},"vehicle_type_id":"4","last_reported":1759054145,"current_range_meters":18000,"station_id":"ce4bho92rcd13ifvqh4g","pricing_plan_id":"cebpf4jnsgd1na2vs0mg"},{"bike_id":"2b9a1204-f9be-44cc-aff3-2ee87828e950","system_id":"levelo_inurba_marseille","lat":43.27947,"lon":5.41041,"is_reserved":false,"is_disabled":false,"rental_uris":{"android":"levelo://app?vid=2b9a1204-f9be-44cc-aff3-2ee87828e950","ios":"levelo://app?vid=2b9a1204-f9be-44cc-aff3-2ee87828e950"},"vehicle_type_id":"4","last_reported":1759054145,"current_range_meters":18000,"station_id":"ce4bhnp2rcd13ifvqh0g","pricing_plan_id":"cebpf4jnsgd1na2vs0mg"},{"bike_id":"27639a38-d715-4834-a88a-1024cb735e8b","system_id":"levelo_inurba_marseille","lat":43.32334,"lon":5.38889,"is_reserved":false,"is_disabled":false,"rental_uris":{"android":"levelo://app?vid=27639a38-d715-4834-a88a-1024cb735e8b","ios":"levelo://app?vid=27639a38-d715-4834-a88a-1024cb735e8b"},"vehicle_type_id":"4","last_reported":1759054145,"current_range_meters":18000,"station_id":"ce4bhqp2rcd13ifvqhog","pricing_plan_id":"cebpf4jnsgd1na2vs0mg"},{"bike_id":"1dcbb656-a0aa-497b-8caa-a109e56488a3","system_id":"levelo_inurba_marseille","lat":43.30532,"lon":5.36715,"is_reserved":false,"is_disabled":false,"rental_uris":{"android":"levelo://app?vid=1dcbb656-a0aa-497b-8caa-a109e56488a3","ios":"levelo://app?vid=1dcbb656-a0aa-497b-8caa-a109e56488a3"},"vehicle_type_id":"4","last_reported":1759054145,"current_range_meters":17600,"station_id":"ce4bgrp2rcd13ifvqc9g","pricing_plan_id":"cebpf4jnsgd1na2vs0mg"},{"bike_id":"ef7f8bb9-d57e-4b70-b74d-b2571ef4e0cb","system_id":"levelo_inurba_marseille","lat":43.29009,"lon":5.35605,"is_reserved":false,"is_disabled":false,"rental_uris":{"android":"levelo://app?vid=ef7f8bb9-d57e-4b70-b74d-b2571ef4e0cb","ios":"levelo://app?vid=ef7f8bb9-d57e-4b70-b74d-b2571ef4e0cb"},"vehicle_type_id":"4","last_reported":1759054145,"current_range_meters":17600,"station_id":"ce4bhb92rcd13ifvqen0","pricing_plan_id":"cebpf4jnsgd1na2vs0mg"},{"bike_id":"1e031a7a-ec2a-41b7-87c9-de2857ab7620","system_id":"levelo_inurba_marseille","lat":43.212,"lon":5.35074,"is_reserved":false,"is_disabled":false,"rental_uris":{"android":"levelo://app?vid=1e031a7a-ec2a-41b7-87c9-de2857ab7620","ios":"levelo://app?vid=1e031a7a-ec2a-41b7-87c9-de2857ab7620"},"vehicle_type_id":"4","last_reported":1759054145,"current_range_meters":18000,"station_id":"st_cvj6sg6p6f1abm77japg","pricing_plan_id":"cebpf4jnsgd1na2vs0mg"},{"bike_id":"681968c5-7705-44e8-b3e1-9dd752d91a86","system_id":"levelo_inurba_marseille","lat":43.33185,"lon":5.40651,"is_reserved":false,"is_disabled":false,"rental_uris":{"android":"levelo://app?vid=681968c5-7705-44e8-b3e1-9dd752d91a86","ios":"levelo://app?vid=681968c5-7705-44e8-b3e1-9dd752d91a86"},"vehicle_type_id":"4","last_reported":1759054145,"current_range_meters":18000,"station_id":"","pricing_plan_id":"cebpf4jnsgd1na2vs0mg"},{"bike_id":"a07a513e-e5a9-4481-8592-d991379bc662","system_id":"levelo_inurba_marseille","lat":43.33735,"lon":5.37481,"is_reserved":false,"is_disabled":false,"rental_uris":{"android":"levelo://app?vid=a07a513e-e5a9-4481-8592-d991379bc662","ios":"levelo://app?vid=a07a513e-e5a9-4481-8592-d991379bc662"},"vehicle_type_id":"4","last_reported":1759054145,"current_range_meters":18000,"station_id":"","pricing_plan_id":"cebpf4jnsgd1na2vs0mg"},{"bike_id":"f549676b-c73c-4205-9141-f1c1a99ebafc","system_id":"levelo_inurba_marseille","lat":43.27993,"lon":5.41671,"is_reserved":false,"is_disabled":false,"rental_uris":{"android":"levelo://app?vid=f549676b-c73c-4205-9141-f1c1a99ebafc","ios":"levelo://app?vid=f549676b-c73c-4205-9141-f1c1a99ebafc"},"vehicle_type_id":"4","last_reported":1759054145,"current_range_meters":18000,"station_id":"ce4bho12rcd13ifvqh1g","pricing_plan_id":"cebpf4jnsgd1na2vs0mg"},{"bike_id":"71b2b05c-9ff1-4d57-a8f6-d481051c9a72","system_id":"levelo_inurba_marseille","lat":43.2954,"lon":5.385485,"is_reserved":false,"is_disabled":true,"rental_uris":{"android":"levelo://app?vid=71b2b05c-9ff1-4d57-a8f6-d481051c9a72","ios":"levelo://app?vid=71b2b05c-9ff1-4d57-a8f6-d481051c9a72"},"vehicle_type_id":"4","last_reported":1759054145,"current_range_meters":18800,"station_id":"ce4bgih2rcd13ifvqba0","pricing_plan_id":"cebpf4jnsgd1na2vs0mg"},{"bike_id":"5184bf5b-3cc8-4111-8b99-b9c4fcc9d2b3","system_id":"levelo_inurba_marseille","lat":43.24184,"lon":5.39727,"is_reserved":false,"is_disabled":false,"rental_uris":{"android":"levelo://app?vid=5184bf5b-3cc8-4111-8b99-b9c4fcc9d2b3","ios":"levelo://app?vid=5184bf5b-3cc8-4111-8b99-b9c4fcc9d2b3"},"vehicle_type_id":"4","last_reported":1759054145,"current_range_meters":18800,"station_id":"ce4bhn12rcd13ifvqgpg","pricing_plan_id":"cebpf4jnsgd1na2vs0mg"},{"bike_id":"a051e00d-9b6b-4589-bda9-52caeb78fd47","system_id":"levelo_inurba_marseille","lat":43.30465,"lon":5.37898,"is_reserved":false,"is_disabled":false,"rental_uris":{"android":"levelo://app?vid=a051e00d-9b6b-4589-bda9-52caeb78fd47","ios":"levelo://app?vid=a051e00d-9b6b-4589-bda9-52caeb78fd47"},"vehicle_type_id":"4","last_reported":1759054145,"current_range_meters":18800,"station_id":"ce4bgup2rcd13ifvqcn0","pricing_plan_id":"cebpf4jnsgd1na2vs0mg"},{"bike_id":"7dc10ae7-7366-4aef-afb3-946c513f88ef","system_id":"levelo_inurba_marseille","lat":43.280008,"lon":5.363922,"is_reserved":false,"is_disabled":false,"rental_uris":{"android":"levelo://app?vid=7dc10ae7-7366-4aef-afb3-946c513f88ef","ios":"levelo://app?vid=7dc10ae7-7366-4aef-afb3-946c513f88ef"},"vehicle_type_id":"4","last_reported":1759054145,"current_range_meters":18800,"station_id":"ce4bha12rcd13ifvqef0","pricing_plan_id":"cebpf4jnsgd1na2vs0mg"},{"bike_id":"24a53173-c907-4942-9120-b92b2f18cc0a","system_id":"levelo_inurba_marseille","lat":43.24812,"lon":5.37458,"is_reserved":false,"is_disabled":false,"rental_uris":{"android":"levelo://app?vid=24a53173-c907-4942-9120-b92b2f18cc0a","ios":"levelo://app?vid=24a53173-c907-4942-9120-b92b2f18cc0a"},"vehicle_type_id":"4","last_reported":1759054145,"current_range_meters":18800,"station_id":"ce4bhgh2rcd13ifvqfb0","pricing_plan_id":"cebpf4jnsgd1na2vs0mg"},{"bike_id":"a5cabee7-eb80-4d02-bbaf-e6415d9b3ed4","system_id":"levelo_inurba_marseille","lat":43.32005,"lon":5.38137,"is_reserved":false,"is_disabled":false,"rental_uris":{"android":"levelo://app?vid=a5cabee7-eb80-4d02-bbaf-e6415d9b3ed4","ios":"levelo://app?vid=a5cabee7-eb80-4d02-bbaf-e6415d9b3ed4"},"vehicle_type_id":"4","last_reported":1759054145,"current_range_meters":18800,"station_id":"ce4bhr12rcd13ifvqhpg","pricing_plan_id":"cebpf4jnsgd1na2vs0mg"},{"bike_id":"88bab79e-f428-48c7-9fe8-35fa768316c1","system_id":"levelo_inurba_marseille","lat":43.323796,"lon":5.382176,"is_reserved":false,"is_disabled":false,"rental_uris":{"android":"levelo://app?vid=88bab79e-f428-48c7-9fe8-35fa768316c1","ios":"levelo://app?vid=88bab79e-f428-48c7-9fe8-35fa768316c1"},"vehicle_type_id":"4","last_reported":1759054145,"current_range_meters":18800,"station_id":"","pricing_plan_id":"cebpf4jnsgd1na2vs0mg"},{"bike_id":"a632479f-10f0-4c83-97eb-f7bc38dc3f01","system_id":"levelo_inurba_marseille","lat":43.2955,"lon":5.42283,"is_reserved":false,"is_disabled":false,"rental_uris":{"android":"levelo://app?vid=a632479f-10f0-4c83-97eb-f7bc38dc3f01","ios":"levelo://app?vid=a632479f-10f0-4c83-97eb-f7bc38dc3f01"},"vehicle_type_id":"4","last_reported":1759054145,"current_range_meters":18800,"station_id":"ce4bhph2rcd13ifvqhdg","pricing_plan_id":"cebpf4jnsgd1na2vs0mg"},{"bike_id":"c627b34a-8e81-4438-af3b-4fd0aab1c160","system_id":"levelo_inurba_marseille","lat":43.29692,"lon":5.36015,"is_reserved":false,"is_disabled":false,"rental_uris":{"android":"levelo://app?vid=c627b34a-8e81-4438-af3b-4fd0aab1c160","ios":"levelo://app?vid=c627b34a-8e81-4438-af3b-4fd0aab1c160"},"vehicle_type_id":"4","last_reported":1759054145,"current_range_meters":18800,"station_id":"","pricing_plan_id":"cebpf4jnsgd1na2vs0mg"},{"bike_id":"a63906d9-70e3-4694-a19f-f783d775e9bb","system_id":"levelo_inurba_marseille","lat":43.31277,"lon":5.37378,"is_reserved":false,"is_disabled":false,"rental_uris":{"android":"levelo://app?vid=a63906d9-70e3-4694-a19f-f783d775e9bb","ios":"levelo://app?vid=a63906d9-70e3-4694-a19f-f783d775e9bb"},"vehicle_type_id":"4","last_reported":1759054145,"current_range_meters":18800,"station_id":"","pricing_plan_id":"cebpf4jnsgd1na2vs0mg"},{"bike_id":"c8d7f4fe-be5b-447b-ba1b-2244460fc221","system_id":"levelo_inurba_marseille","lat":43.21191,"lon":5.35075,"is_reserved":false,"is_disabled":false,"rental_uris":{"android":"levelo://app?vid=c8d7f4fe-be5b-447b-ba1b-2244460fc221","ios":"levelo://app?vid=c8d7f4fe-be5b-447b-ba1b-2244460fc221"},"vehicle_type_id":"4","last_reported":1759054145,"current_range_meters":18800,"station_id":"st_cvj6sg6p6f1abm77japg","pricing_plan_id":"cebpf4jnsgd1na2vs0mg"},{"bike_id":"b64de2ff-6cc4-4ca6-b560-c0added512d7","system_id":"levelo_inurba_marseille","lat":43.29575,"lon":5.37515,"is_reserved":false,"is_disabled":false,"rental_uris":{"android":"levelo://app?vid=b64de2ff-6cc4-4ca6-b560-c0added512d7","ios":"levelo://app?vid=b64de2ff-6cc4-4ca6-b560-c0added512d7"},"vehicle_type_id":"4","last_reported":1759054145,"current_range_meters":19200,"station_id":"ce4bgh92rcd13ifvqb50","pricing_plan_id":"cebpf4jnsgd1na2vs0mg"},{"bike_id":"8b353c9e-13c5-42ee-a76f-ccbd6269a3dc","system_id":"levelo_inurba_marseille","lat":43.29899,"lon":5.37492,"is_reserved":false,"is_disabled":false,"rental_uris":{"android":"levelo://app?vid=8b353c9e-13c5-42ee-a76f-ccbd6269a3dc","ios":"levelo://app?vid=8b353c9e-13c5-42ee-a76f-ccbd6269a3dc"},"vehicle_type_id":"4","last_reported":1759054145,"current_range_meters":19200,"station_id":"","pricing_plan_id":"cebpf4jnsgd1na2vs0mg"},{"bike_id":"affe1be6-e92a-43ba-9872-f036c3199a87","system_id":"levelo_inurba_marseille","lat":43.319937,"lon":5.381574,"is_reserved":false,"is_disabled":false,"rental_uris":{"android":"levelo://app?vid=affe1be6-e92a-43ba-9872-f036c3199a87","ios":"levelo://app?vid=affe1be6-e92a-43ba-9872-f036c3199a87"},"vehicle_type_id":"4","last_reported":1759054145,"current_range_meters":19200,"station_id":"ce4bhr12rcd13ifvqhpg","pricing_plan_id":"cebpf4jnsgd1na2vs0mg"},{"bike_id":"d0cde996-d8fd-4985-97ed-e8d61198abb1","system_id":"levelo_inurba_marseille","lat":43.31991,"lon":5.381445,"is_reserved":false,"is_disabled":true,"rental_uris":{"android":"levelo://app?vid=d0cde996-d8fd-4985-97ed-e8d61198abb1","ios":"levelo://app?vid=d0cde996-d8fd-4985-97ed-e8d61198abb1"},"vehicle_type_id":"4","last_reported":1759054145,"current_range_meters":19200,"station_id":"ce4bhr12rcd13ifvqhpg","pricing_plan_id":"cebpf4jnsgd1na2vs0mg"},{"bike_id":"508c11e5-e865-4e12-a719-2986de0e8aec","system_id":"levelo_inurba_marseille","lat":43.2721,"lon":5.39175,"is_reserved":false,"is_disabled":false,"rental_uris":{"android":"levelo://app?vid=508c11e5-e865-4e12-a719-2986de0e8aec","ios":"levelo://app?vid=508c11e5-e865-4e12-a719-2986de0e8aec"},"vehicle_type_id":"4","last_reported":1759054145,"current_range_meters":19200,"station_id":"ce4bhhp2rcd13ifvqfm0","pricing_plan_id":"cebpf4jnsgd1na2vs0mg"},{"bike_id":"17acd36b-922d-41f1-92bd-e7371f34ed7b","system_id":"levelo_inurba_marseille","lat":43.280016,"lon":5.416414,"is_reserved":false,"is_disabled":false,"rental_uris":{"android":"levelo://app?vid=17acd36b-922d-41f1-92bd-e7371f34ed7b","ios":"levelo://app?vid=17acd36b-922d-41f1-92bd-e7371f34ed7b"},"vehicle_type_id":"4","last_reported":1759054145,"current_range_meters":19600,"station_id":"ce4bho12rcd13ifvqh1g","pricing_plan_id":"cebpf4jnsgd1na2vs0mg"},{"bike_id":"385fa573-6758-43e7-a2f4-f27be30ea572","system_id":"levelo_inurba_marseille","lat":43.321114,"lon":5.367937,"is_reserved":false,"is_disabled":false,"rental_uris":{"android":"levelo://app?vid=385fa573-6758-43e7-a2f4-f27be30ea572","ios":"levelo://app?vid=385fa573-6758-43e7-a2f4-f27be30ea572"},"vehicle_type_id":"4","last_reported":1759054145,"current_range_meters":19600,"station_id":"ce4bhrh2rcd13ifvqhug","pricing_plan_id":"cebpf4jnsgd1na2vs0mg"},