{"last_updated":1738681793,"ttl":60,"version":"2.2","data":{"bikes":[{"bike_id":"a6accd57-54cf-4d44-87f9-766d1013e2f7","system_id":"levelo_inurba_marseille","lat":43.2604,"lon":5.37523,"is_reserved":false,"is_disabled":false,"rental_uris":{"android":"levelo://app?vid=a6accd57-54cf-4d44-87f9-766d1013e2f7","ios":"levelo://app?vid=a6accd57-54cf-4d44-87f9-766d1013e2f7"},"vehicle_type_id":"4","last_reported":1738681793,"current_range_meters":36400,"station_id":"ce4bhgh2rcd13ifvqfa0","pricing_plan_id":"cebpf4jnsgd1na2vs0mg"},{"bike_id":"62ade0ac-25cf-49a6-bef6-d9d07479448d","system_id":"levelo_inurba_marseille","lat":43.29848,"lon":5.36271,"is_reserved":false,"is_disabled":false,"rental_uris":{"android":"levelo://app?vid=62ade0ac-25cf-49a6-bef6-d9d07479448d","ios":"levelo://app?vid=62ade0ac-25cf-49a6-bef6-d9d07479448d"},"vehicle_type_id":"4","last_reported":1738681793,"current_range_meters":30800,"station_id":"ce4bgpp2rcd13ifvqc3g","pricing_plan_id":"cebpf4jnsgd1na2vs0mg"},{"bike_id":"4166f30a-72db-41d5-b2ba-dfec6ab056dc","system_id":"levelo_inurba_marseille","lat":43.27951,"lon":5.41017,"is_reserved":false,"is_disabled":false,"rental_uris":{"android":"levelo://app?vid=4166f30a-72db-41d5-b2ba-dfec6ab056dc","ios":"levelo://app?vid=4166f30a-72db-41d5-b2ba-dfec6ab056dc"},"vehicle_type_id":"4","last_reported":1738681793,"current_range_meters":38800,"station_id":"ce4bhnp2rcd13ifvqh0g","pricing_plan_id":"cebpf4jnsgd1na2vs0mg"},{"bike_id":"1ae6562d-660e-4805-b9fa-ffde6ca908d4","system_id":"levelo_inurba_marseille","lat":43.28696,"lon":5.37414,"is_reserved":false,"is_disabled":false,"rental_uris":{"android":"levelo://app?vid=1ae6562d-660e-4805-b9fa-ffde6ca908d4","ios":"levelo://app?vid=1ae6562d-660e-4805-b9fa-ffde6ca908d4"},"vehicle_type_id":"4","last_reported":1738681793,"current_range_meters":34000,"station_id":"ce4bh3p2rcd13ifvqdq0","pricing_plan_id":"cebpf4jnsgd1na2vs0mg"},{"bike_id":"5de6f6e1-3eb6-4936-9461-f12693c42397","system_id":"levelo_inurba_marseille","lat":43.27385,"lon":5.36271,"is_reserved":false,"is_disabled":false,"rental_uris":{"android":"levelo://app?vid=5de6f6e1-3eb6-4936-9461-f12693c42397","ios":"levelo://app?vid=5de6f6e1-3eb6-4936-9461-f12693c42397"},"vehicle_type_id":"4","last_reported":1738681793,"current_range_meters":18000,"station_id":"ce4bhbh2rcd13ifvqeo0","pricing_plan_id":"cebpf4jnsgd1na2vs0mg"},{"bike_id":"d21053c8-6d6a-4f61-96f6-46da5d104c87","system_id":"levelo_inurba_marseille","lat":43.29037,"lon":5.39963,"is_reserved":false,"is_disabled":false,"rental_uris":{"android":"levelo://app?vid=d21053c8-6d6a-4f61-96f6-46da5d104c87","ios":"levelo://app?vid=d21053c8-6d6a-4f61-96f6-46da5d104c87"},"vehicle_type_id":"4","last_reported":1738681793,"current_range_meters":12400,"station_id":"ce4bh392rcd13ifvqdm0","pricing_plan_id":"cebpf4jnsgd1na2vs0mg"},{"bike_id":"53a9d8da-5f7e-48a8-b489-8866ab88b092","system_id":"levelo_inurba_marseille","lat":43.28253,"lon":5.35041,"is_reserved":false,"is_disabled":false,"rental_uris":{"android":"levelo://app?vid=53a9d8da-5f7e-48a8-b489-8866ab88b092","ios":"levelo://app?vid=53a9d8da-5f7e-48a8-b489-8866ab88b092"},"vehicle_type_id":"4","last_reported":1738681793,"current_range_meters":39200,"station_id":"ce4bhbp2rcd13ifvqerg","pricing_plan_id":"cebpf4jnsgd1na2vs0mg"},{"bike_id":"27a9b4df-b659-41ae-bc37-cfb29e251d05","system_id":"levelo_inurba_marseille","lat":43.29608,"lon":5.37725,"is_reserved":false,"is_disabled":false,"rental_uris":{"android":"levelo://app?vid=27a9b4df-b659-41ae-bc37-cfb29e251d05","ios":"levelo://app?vid=27a9b4df-b659-41ae-bc37-cfb29e251d05"},"vehicle_type_id":"4","last_reported":1738681793,"current_range_meters":39200,"station_id":"ce4bgi92rcd13ifvqb90","pricing_plan_id":"cebpf4jnsgd1na2vs0mg"},{"bike_id":"c3d081d5-4d92-46ae-b635-182bf30c7a9e","system_id":"levelo_inurba_marseille","lat":43.30527,"lon":5.36548,"is_reserved":false,"is_disabled":false,"rental_uris":{"android":"levelo://app?vid=c3d081d5-4d92-46ae-b635-182bf30c7a9e","ios":"levelo://app?vid=c3d081d5-4d92-46ae-b635-182bf30c7a9e"},"vehicle_type_id":"4","last_reported":1738681793,"current_range_meters":27200,"station_id":"ce4bgs12rcd13ifvqcag","pricing_plan_id":"cebpf4jnsgd1na2vs0mg"},{"bike_id":"4036b069-edc0-42e9-b0d2-dbeb71929a3b","system_id":"levelo_inurba_marseille","lat":43.30292,"lon":5.37698,"is_reserved":false,"is_disabled":false,"rental_uris":{"android":"levelo://app?vid=4036b069-edc0-42e9-b0d2-dbeb71929a3b","ios":"levelo://app?vid=4036b069-edc0-42e9-b0d2-dbeb71929a3b"},"vehicle_type_id":"4","last_reported":1738681793,"current_range_meters":32000,"station_id":"ce4bguh2rcd13ifvqcj0","pricing_plan_id":"cebpf4jnsgd1na2vs0mg"},{"bike_id":"58151ec7-e20c-4a1b-8d6e-c593d4cf06cb","system_id":"levelo_inurba_marseille","lat":43.29935,"lon":5.3648,"is_reserved":false,"is_disabled":false,"rental_uris":{"android":"levelo://app?vid=58151ec7-e20c-4a1b-8d6e-c593d4cf06cb","ios":"levelo://app?vid=58151ec7-e20c-4a1b-8d6e-c593d4cf06cb"},"vehicle_type_id":"4","last_reported":1738681793,"current_range_meters":26800,"station_id":"","pricing_plan_id":"cebpf4jnsgd1na2vs0mg"},{"bike_id":"583c3fe7-92be-46dc-8c89-368fd147bd7e","system_id":"levelo_inurba_marseille","lat":43.30618,"lon":5.36788,"is_reserved":false,"is_disabled":false,"rental_uris":{"android":"levelo://app?vid=583c3fe7-92be-46dc-8c89-368fd147bd7e","ios":"levelo://app?vid=583c3fe7-92be-46dc-8c89-368fd147bd7e"},"vehicle_type_id":"4","last_reported":1738681793,"current_range_meters":37600,"station_id":"","pricing_plan_id":"cebpf4jnsgd1na2vs0mg"},{"bike_id":"4adc5aab-b210-4641-aba5-160a4e23aeb0","system_id":"levelo_inurba_marseille","lat":43.29629,"lon":5.37138,"is_reserved":false,"is_disabled":false,"rental_uris":{"android":"levelo://app?vid=4adc5aab-b210-4641-aba5-160a4e23aeb0","ios":"levelo://app?vid=4adc5aab-b210-4641-aba5-160a4e23aeb0"},"vehicle_type_id":"4","last_reported":1738681793,"current_range_meters":37600,"station_id":"ce4bgnh2rcd13ifvqc0g","pricing_plan_id":"cebpf4jnsgd1na2vs0mg"},{"bike_id":"4dce6ec9-b7ac-47d3-8253-1629e2b16fe6","system_id":"levelo_inurba_marseille","lat":43.23175,"lon":5.40012,"is_reserved":false,"is_disabled":false,"rental_uris":{"android":"levelo://app?vid=4dce6ec9-b7ac-47d3-8253-1629e2b16fe6","ios":"levelo://app?vid=4dce6ec9-b7ac-47d3-8253-1629e2b16fe6"},"vehicle_type_id":"4","last_reported":1738681793,"current_range_meters":28400,"station_id":"ce4bhn12rcd13ifvqgqg","pricing_plan_id":"cebpf4jnsgd1na2vs0mg"},{"bike_id":"c1ffc527-705a-4ed4-8bb2-c31a80bc4192","system_id":"levelo_inurba_marseille","lat":43.29047,"lon":5.37586,"is_reserved":false,"is_disabled":false,"rental_uris":{"android":"levelo://app?vid=c1ffc527-705a-4ed4-8bb2-c31a80bc4192","ios":"levelo://app?vid=c1ffc527-705a-4ed4-8bb2-c31a80bc4192"},"vehicle_type_id":"4","last_reported":1738681793,"current_range_meters":38800,"station_id":"ce4bh692rcd13ifvqe90","pricing_plan_id":"cebpf4jnsgd1na2vs0mg"},{"bike_id":"ab0b6329-8448-4e17-8b0d-f17e0a460b82","system_id":"levelo_inurba_marseille","lat":43.29301,"lon":5.36828,"is_reserved":false,"is_disabled":false,"rental_uris":{"android":"levelo://app?vid=ab0b6329-8448-4e17-8b0d-f17e0a460b82","ios":"levelo://app?vid=ab0b6329-8448-4e17-8b0d-f17e0a460b82"},"vehicle_type_id":"4","last_reported":1738681793,"current_range_meters":36800,"station_id":"ce4bhbp2rcd13ifvqesg","pricing_plan_id":"cebpf4jnsgd1na2vs0mg"},{"bike_id":"c835a4f7-cc05-45bd-a5f6-1bed625cc89d","system_id":"levelo_inurba_marseille","lat":43.24076,"lon":5.37754,"is_reserved":false,"is_disabled":false,"rental_uris":{"android":"levelo://app?vid=c835a4f7-cc05-45bd-a5f6-1bed625cc89d","ios":"levelo://app?vid=c835a4f7-cc05-45bd-a5f6-1bed625cc89d"},"vehicle_type_id":"4","last_reported":1738681793,"current_range_meters":38800,"station_id":"ce4bhnp2rcd13ifvqgvg","pricing_plan_id":"cebpf4jnsgd1na2vs0mg"},{"bike_id":"dafd10ed-96a4-4fae-a2bc-6ff46c93b8d6","system_id":"levelo_inurba_marseille","lat":43.26215,"lon":5.3744,"is_reserved":false,"is_disabled":false,"rental_uris":{"android":"levelo://app?vid=dafd10ed-96a4-4fae-a2bc-6ff46c93b8d6","ios":"levelo://app?vid=dafd10ed-96a4-4fae-a2bc-6ff46c93b8d6"},"vehicle_type_id":"4","last_reported":1738681793,"current_range_meters":2800,"station_id":"ce4bhgp2rcd13ifvqfc0","pricing_plan_id":"cebpf4jnsgd1na2vs0mg"},{"bike_id":"f88e9836-7d29-4bff-b116-30872ae8c64b","system_id":"levelo_inurba_marseille","lat":43.27989,"lon":5.4166,"is_reserved":false,"is_disabled":false,"rental_uris":{"android":"levelo://app?vid=f88e9836-7d29-4bff-b116-30872ae8c64b","ios":"levelo://app?vid=f88e9836-7d29-4bff-b116-30872ae8c64b"},"vehicle_type_id":"4","last_reported":1738681793,"current_range_meters":38800,"station_id":"ce4bho12rcd13ifvqh1g","pricing_plan_id":"cebpf4jnsgd1na2vs0mg"},{"bike_id":"585548c3-dfea-4775-b261-9cda396a75ed","system_id":"levelo_inurba_marseille","lat":43.30919,"lon":5.40153,"is_reserved":false,"is_disabled":true,"rental_uris":{"android":"levelo://app?vid=585548c3-dfea-4775-b261-9cda396a75ed","ios":"levelo://app?vid=585548c3-dfea-4775-b261-9cda396a75ed"},"vehicle_type_id":"4","last_reported":1738681793,"current_range_meters":38800,"station_id":"ce4bgvp2rcd13ifvqct0","pricing_plan_id":"cebpf4jnsgd1na2vs0mg"},{"bike_id":"c5bc887f-937a-4827-8fcd-0e5d0dcc3dcb","system_id":"levelo_inurba_marseille","lat":43.30561,"lon":5.36526,"is_reserved":false,"is_disabled":false,"rental_uris":{"android":"levelo://app?vid=c5bc887f-937a-4827-8fcd-0e5d0dcc3dcb","ios":"levelo://app?vid=c5bc887f-937a-4827-8fcd-0e5d0dcc3dcb"},"vehicle_type_id":"4","last_reported":1738681793,"current_range_meters":33600,"station_id":"ce4bgs12rcd13ifvqcag","pricing_plan_id":"cebpf4jnsgd1na2vs0mg"},{"bike_id":"67c05317-f96b-455e-b667-2df88196c1c2","system_id":"levelo_inurba_marseille","lat":43.2955,"lon":5.37522,"is_reserved":false,"is_disabled":false,"rental_uris":{"android":"levelo://app?vid=67c05317-f96b-455e-b667-2df88196c1c2","ios":"levelo://app?vid=67c05317-f96b-455e-b667-2df88196c1c2"},"vehicle_type_id":"4","last_reported":1738681793,"current_range_meters":32400,"station_id":"ce4bgh92rcd13ifvqb50","pricing_plan_id":"cebpf4jnsgd1na2vs0mg"},{"bike_id":"2636b6d8-2169-4f7a-80f1-f6f8d432b01f","system_id":"levelo_inurba_marseille","lat":43.28484,"lon":5.38572,"is_reserved":false,"is_disabled":false,"rental_uris":{"android":"levelo://app?vid=2636b6d8-2169-4f7a-80f1-f6f8d432b01f","ios":"levelo://app?vid=2636b6d8-2169-4f7a-80f1-f6f8d432b01f"},"vehicle_type_id":"4","last_reported":1738681793,"current_range_meters":38800,"station_id":"ce4bh8p2rcd13ifvqeb0","pricing_plan_id":"cebpf4jnsgd1na2vs0mg"},{"bike_id":"28c04bd2-52b8-487d-94d1-79ceb6b7a224","system_id":"levelo_inurba_marseille","lat":43.24811,"lon":5.37454,"is_reserved":false,"is_disabled":false,"rental_uris":{"android":"levelo://app?vid=28c04bd2-52b8-487d-94d1-79ceb6b7a224","ios":"levelo://app?vid=28c04bd2-52b8-487d-94d1-79ceb6b7a224"},"vehicle_type_id":"4","last_reported":1738681793,"current_range_meters":36000,"station_id":"ce4bhgh2rcd13ifvqfb0","pricing_plan_id":"cebpf4jnsgd1na2vs0mg"},{"bike_id":"820e8ef9-125b-498e-aafa-fafccb5e57f1","system_id":"levelo_inurba_marseille","lat":43.30559,"lon":5.36712,"is_reserved":false,"is_disabled":false,"rental_uris":{"android":"levelo://app?vid=820e8ef9-125b-498e-aafa-fafccb5e57f1","ios":"levelo://app?vid=820e8ef9-125b-498e-aafa-fafccb5e57f1"},"vehicle_type_id":"4","last_reported":1738681793,"current_range_meters":24000,"station_id":"ce4bgrp2rcd13ifvqc9g","pricing_plan_id":"cebpf4jnsgd1na2vs0mg"},{"bike_id":"5aa80a2e-79fd-4b38-85ea-60532eeb08e9","system_id":"levelo_inurba_marseille","lat":43.27815,"lon":5.4071,"is_reserved":false,"is_disabled":false,"rental_uris":{"android":"levelo://app?vid=5aa80a2e-79fd-4b38-85ea-60532eeb08e9","ios":"levelo://app?vid=5aa80a2e-79fd-4b38-85ea-60532eeb08e9"},"vehicle_type_id":"4","last_reported":1738681793,"current_range_meters":12000,"station_id":"ce4bhnh2rcd13ifvqgtg","pricing_plan_id":"cebpf4jnsgd1na2vs0mg"},{"bike_id":"75069a50-5192-4281-b196-e250931917ed","system_id":"levelo_inurba_marseille","lat":43.28478,"lon":5.38579,"is_reserved":false,"is_disabled":false,"rental_uris":{"android":"levelo://app?vid=75069a50-5192-4281-b196-e250931917ed","ios":"levelo://app?vid=75069a50-5192-4281-b196-e250931917ed"},"vehicle_type_id":"4","last_reported":1738681793,"current_range_meters":38400,"station_id":"ce4bh8p2rcd13ifvqeb0","pricing_plan_id":"cebpf4jnsgd1na2vs0mg"},{"bike_id":"c92d27b3-011a-4b9b-85d3-c7a68cdf0054","system_id":"levelo_inurba_marseille","lat":43.324777,"lon":5.365669,"is_reserved":false,"is_disabled":true,"rental_uris":{"android":"levelo://app?vid=c92d27b3-011a-4b9b-85d3-c7a68cdf0054","ios":"levelo://app?vid=c92d27b3-011a-4b9b-85d3-c7a68cdf0054"},"vehicle_type_id":"4","last_reported":1738681793,"current_range_meters":16800,"station_id":"","pricing_plan_id":"cebpf4jnsgd1na2vs0mg"},{"bike_id":"767e2c7e-cc8a-4bf2-91d5-52dfa01d4600","system_id":"levelo_inurba_marseille","lat":43.29223,"lon":5.36071,"is_reserved":false,"is_disabled":false,"rental_uris":{"android":"levelo://app?vid=767e2c7e-cc8a-4bf2-91d5-52dfa01d4600","ios":"levelo://app?vid=767e2c7e-cc8a-4bf2-91d5-52dfa01d4600"},"vehicle_type_id":"4","last_reported":1738681793,"current_range_meters":38800,"station_id":"ce4bhbh2rcd13ifvqeqg","pricing_plan_id":"cebpf4jnsgd1na2vs0mg"},{"bike_id":"46f85741-547f-4c61-ad56-e23bee10013f","system_id":"levelo_inurba_marseille","lat":43.28501,"lon":5.38589,"is_reserved":false,"is_disabled":false,"rental_uris":{"android":"levelo://app?vid=46f85741-547f-4c61-ad56-e23bee10013f","ios":"levelo://app?vid=46f85741-547f-4c61-ad56-e23bee10013f"},"vehicle_type_id":"4","last_reported":1738681793,"current_range_meters":38400,"station_id":"ce4bh8p2rcd13ifvqeb0","pricing_plan_id":"cebpf4jnsgd1na2vs0mg"},{"bike_id":"a1a7079b-68b5-45ca-9af8-b6bc9f7cd559","system_id":"levelo_inurba_marseille","lat":43.22931,"lon":5.35381,"is_reserved":false,"is_disabled":false,"rental_uris":{"android":"levelo://app?vid=a1a7079b-68b5-45ca-9af8-b6bc9f7cd559","ios":"levelo://app?vid=a1a7079b-68b5-45ca-9af8-b6bc9f7cd559"},"vehicle_type_id":"4","last_reported":1738681793,"current_range_meters":38800,"station_id":"cpo3532slgdg3j2ikp40","pricing_plan_id":"cebpf4jnsgd1na2vs0mg"},{"bike_id":"391156ab-23e6-4087-9fff-4d00554806c8","system_id":"levelo_inurba_marseille","lat":43.27556,"lon":5.38429,"is_reserved":false,"is_disabled":false,"rental_uris":{"android":"levelo://app?vid=391156ab-23e6-4087-9fff-4d00554806c8","ios":"levelo://app?vid=391156ab-23e6-4087-9fff-4d00554806c8"},"vehicle_type_id":"4","last_reported":1738681793,"current_range_meters":32800,"station_id":"ce4bhh92rcd13ifvqfi0","pricing_plan_id":"cebpf4jnsgd1na2vs0mg"},{"bike_id":"c5d244f0-0f80-49dd-80ea-357f59117f57","system_id":"levelo_inurba_marseille","lat":43.29853,"lon":5.36289,"is_reserved":false,"is_disabled":false,"rental_uris":{"android":"levelo://app?vid=c5d244f0-0f80-49dd-80ea-357f59117f57","ios":"levelo://app?vid=c5d244f0-0f80-49dd-80ea-357f59117f57"},"vehicle_type_id":"4","last_reported":1738681793,"current_range_meters":12000,"station_id":"ce4bgpp2rcd13ifvqc3g","pricing_plan_id":"cebpf4jnsgd1na2vs0mg"},{"bike_id":"fe6fc88a-19e3-4399-878d-6f308b24c436","system_id":"levelo_inurba_marseille","lat":43.312242,"lon":5.368833,"is_reserved":false,"is_disabled":false,"rental_uris":{"android":"levelo://app?vid=fe6fc88a-19e3-4399-878d-6f308b24c436","ios":"levelo://app?vid=fe6fc88a-19e3-4399-878d-6f308b24c436"},"vehicle_type_id":"4","last_reported":1738681793,"current_range_meters":38800,"station_id":"ce4bgl92rcd13ifvqbq0","pricing_plan_id":"cebpf4jnsgd1na2vs0mg"},{"bike_id":"bb937359-4367-49ac-8816-668e3d66866d","system_id":"levelo_inurba_marseille","lat":43.2466,"lon":5.38162,"is_reserved":false,"is_disabled":false,"rental_uris":{"android":"levelo://app?vid=bb937359-4367-49ac-8816-668e3d66866d","ios":"levelo://app?vid=bb937359-4367-49ac-8816-668e3d66866d"},"vehicle_type_id":"4","last_reported":1738681793,"current_range_meters":36800,"station_id":"ce4bhih2rcd13ifvqfr0","pricing_plan_id":"cebpf4jnsgd1na2vs0mg"},{"bike_id":"dbf7072a-7876-4e1d-a586-d51c7ff2c81e","system_id":"levelo_inurba_marseille","lat":43.31325,"lon":5.39707,"is_reserved":false,"is_disabled":false,"rental_uris":{"android":"levelo://app?vid=dbf7072a-7876-4e1d-a586-d51c7ff2c81e","ios":"levelo://app?vid=dbf7072a-7876-4e1d-a586-d51c7ff2c81e"},"vehicle_type_id":"4","last_reported":1738681793,"current_range_meters":28800,"station_id":"ce4bgvp2rcd13ifvqcu0","pricing_plan_id":"cebpf4jnsgd1na2vs0mg"},{"bike_id":"fff747a3-bd82-458d-baaa-d1987fbbf2c0","system_id":"levelo_inurba_marseille","lat":43.24564,"lon":5.39492,"is_reserved":false,"is_disabled":true,"rental_uris":{"android":"levelo://app?vid=fff747a3-bd82-458d-baaa-d1987fbbf2c0","ios":"levelo://app?vid=fff747a3-bd82-458d-baaa-d1987fbbf2c0"},"vehicle_type_id":"4","last_reported":1738681793,"current_range_meters":1600,"station_id":"ce4bhlp2rcd13ifvqgjg","pricing_plan_id":"cebpf4jnsgd1na2vs0mg"},{"bike_id":"38d9c123-c80e-4d99-abd9-1554da4e609f","system_id":"levelo_inurba_marseille","lat":43.24651,"lon":5.38896,"is_reserved":false,"is_disabled":false,"rental_uris":{"android":"levelo://app?vid=38d9c123-c80e-4d99-abd9-1554da4e609f","ios":"levelo://app?vid=38d9c123-c80e-4d99-abd9-1554da4e609f"},"vehicle_type_id":"4","last_reported":1738681793,"current_range_meters":29600,"station_id":"ce4bhg12rcd13ifvqf60","pricing_plan_id":"cebpf4jnsgd1na2vs0mg"},{"bike_id":"67006b1c-74ac-4422-8c90-39bc1ad647dc","system_id":"levelo_inurba_marseille","lat":43.27685,"lon":5.36174,"is_reserved":false,"is_disabled":false,"rental_uris":{"android":"levelo://app?vid=67006b1c-74ac-4422-8c90-39bc1ad647dc","ios":"levelo://app?vid=67006b1c-74ac-4422-8c90-39bc1ad647dc"},"vehicle_type_id":"4","last_reported":1738681793,"current_range_meters":27600,"station_id":"ce4bgj92rcd13ifvqbe0","pricing_plan_id":"cebpf4jnsgd1na2vs0mg"},{"bike_id":"ceb82e7c-0330-43b3-bf40-a63bb09d01e0","system_id":"levelo_inurba_marseille","lat":43.305219,"lon":5.365416,"is_reserved":false,"is_disabled":false,"rental_uris":{"android":"levelo://app?vid=ceb82e7c-0330-43b3-bf40-a63bb09d01e0","ios":"levelo://app?vid=ceb82e7c-0330-43b3-bf40-a63bb09d01e0"},"vehicle_type_id":"4","last_reported":1738681793,"current_range_meters":11600,"station_id":"ce4bgs12rcd13ifvqcag","pricing_plan_id":"cebpf4jnsgd1na2vs0mg"},{"bike_id":"5a557e05-5ef2-4c8d-b914-325634617e59","system_id":"levelo_inurba_marseille","lat":43.3013,"lon":5.40151,"is_reserved":false,"is_disabled":false,"rental_uris":{"android":"levelo://app?vid=5a557e05-5ef2-4c8d-b914-325634617e59","ios":"levelo://app?vid=5a557e05-5ef2-4c8d-b914-325634617e59"},"vehicle_type_id":"4","last_reported":1738681793,"current_range_meters":6800,"station_id":"","pricing_plan_id":"cebpf4jnsgd1na2vs0mg"},{"bike_id":"c5cd2f6c-22f1-415b-9448-8b0f8e7870b1","system_id":"levelo_inurba_marseille","lat":43.28617,"lon":5.35104,"is_reserved":false,"is_disabled":false,"rental_uris":{"android":"levelo://app?vid=c5cd2f6c-22f1-415b-9448-8b0f8e7870b1","ios":"levelo://app?vid=c5cd2f6c-22f1-415b-9448-8b0f8e7870b1"},"vehicle_type_id":"4","last_reported":1738681793,"current_range_meters":20000,"station_id":"ce4bhch2rcd13ifvqeug","pricing_plan_id":"cebpf4jnsgd1na2vs0mg"},{"bike_id":"fbd03836-b992-44c3-8296-6fa63ca7f4e8","system_id":"levelo_inurba_marseille","lat":43.32479,"lon":5.3656,"is_reserved":false,"is_disabled":false,"rental_uris":{"android":"levelo://app?vid=fbd03836-b992-44c3-8296-6fa63ca7f4e8","ios":"levelo://app?vid=fbd03836-b992-44c3-8296-6fa63ca7f4e8"},"vehicle_type_id":"4","last_reported":1738681793,"current_range_meters":31200,"station_id":"ce4bhs12rcd13ifvqhvg","pricing_plan_id":"cebpf4jnsgd1na2vs0mg"},{"bike_id":"f49399e3-6204-4840-b71d-d4fdec09f64b","system_id":"levelo_inurba_marseille","lat":43.2594,"lon":5.40901,"is_reserved":false,"is_disabled":false,"rental_uris":{"android":"levelo://app?vid=f49399e3-6204-4840-b71d-d4fdec09f64b","ios":"levelo://app?vid=f49399e3-6204-4840-b71d-d4fdec09f64b"},"vehicle_type_id":"4","last_reported":1738681793,"current_range_meters":28000,"station_id":"ce4bhm92rcd13ifvqglg","pricing_plan_id":"cebpf4jnsgd1na2vs0mg"},{"bike_id":"f21116ca-67bc-4609-9094-fdf20274272a","system_id":"levelo_inurba_marseille","lat":43.29915,"lon":5.37474,"is_reserved":false,"is_disabled":false,"rental_uris":{"android":"levelo://app?vid=f21116ca-67bc-4609-9094-fdf20274272a","ios":"levelo://app?vid=f21116ca-67bc-4609-9094-fdf20274272a"},"vehicle_type_id":"4","last_reported":1738681793,"current_range_meters":35600,"station_id":"ce4bgjh2rcd13ifvqbg0","pricing_plan_id":"cebpf4jnsgd1na2vs0mg"},{"bike_id":"4f589d9e-de8c-4658-bd15-c387deb47d3b","system_id":"levelo_inurba_marseille","lat":43.31158,"lon":5.38732,"is_reserved":false,"is_disabled":false,"rental_uris":{"android":"levelo://app?vid=4f589d9e-de8c-4658-bd15-c387deb47d3b","ios":"levelo://app?vid=4f589d9e-de8c-4658-bd15-c387deb47d3b"},"vehicle_type_id":"4","last_reported":1738681793,"current_range_meters":37600,"station_id":"ce4bgv12rcd13ifvqcp0","pricing_plan_id":"cebpf4jnsgd1na2vs0mg"},{"bike_id":"f0f34420-9e98-4d05-ba9a-db65a1b18dd6","system_id":"levelo_inurba_marseille","lat":43.31365,"lon":5.38482,"is_reserved":false,"is_disabled":false,"rental_uris":{"android":"levelo://app?vid=f0f34420-9e98-4d05-ba9a-db65a1b18dd6","ios":"levelo://app?vid=f0f34420-9e98-4d05-ba9a-db65a1b18dd6"},"vehicle_type_id":"4","last_reported":1738681793,"current_range_meters":12400,"station_id":"ce4bgt92rcd13ifvqcf0","pricing_plan_id":"cebpf4jnsgd1na2vs0mg"},{"bike_id":"3c8e5445-cf86-469e-9c11-4a5caaef9b7e","system_id":"levelo_inurba_marseille","lat":43.24656,"lon":5.38887,"is_reserved":false,"is_disabled":false,"rental_uris":{"android":"levelo://app?vid=3c8e5445-cf86-469e-9c11-4a5caaef9b7e","ios":"levelo://app?vid=3c8e5445-cf86-469e-9c11-4a5caaef9b7e"},"vehicle_type_id":"4","last_reported":1738681793,"current_range_meters":38000,"station_id":"ce4bhg12rcd13ifvqf60","pricing_plan_id":"cebpf4jnsgd1na2vs0mg"},{"bike_id":"679f1e9d-89cf-4dfe-9053-f5a67044ef39","system_id":"levelo_inurba_marseille","lat":43.29611,"lon":5.37703,"is_reserved":false,"is_disabled":false,"rental_uris":{"android":"levelo://app?vid=679f1e9d-89cf-4dfe-9053-f5a67044ef39","ios":"levelo://app?vid=679f1e9d-89cf-4dfe-9053-f5a67044ef39"},"vehicle_type_id":"4","last_reported":1738681793,"current_range_meters":30000,"station_id":"ce4bgi92rcd13ifvqb90","pricing_plan_id":"cebpf4jnsgd1na2vs0mg"},{"bike_id":"5b391971-6e3e-4e71-b03f-97b54394930e","system_id":"levelo_inurba_marseille","lat":43.2848,"lon":5.38554,"is_reserved":false,"is_disabled":false,"rental_uris":{"android":"levelo://app?vid=5b391971-6e3e-4e71-b03f-97b54394930e","ios":"levelo://app?vid=5b391971-6e3e-4e71-b03f-97b54394930e"},"vehicle_type_id":"4","last_reported":1738681793,"current_range_meters":38800,"station_id":"ce4bh8p2rcd13ifvqeb0","pricing_plan_id":"cebpf4jnsgd1na2vs0mg"},{"bike_id":"ab4f17a9-4d00-4c6b-841c-0c0db586f2c8","system_id":"levelo_inurba_marseille","lat":43.32017,"lon":5.38149,"is_reserved":false,"is_disabled":false,"rental_uris":{"android":"levelo://app?vid=ab4f17a9-4d00-4c6b-841c-0c0db586f2c8","ios":"levelo://app?vid=ab4f17a9-4d00-4c6b-841c-0c0db586f2c8"},"vehicle_type_id":"4","last_reported":1738681793,"current_range_meters":38000,"station_id":"ce4bhr12rcd13ifvqhpg","pricing_plan_id":"cebpf4jnsgd1na2vs0mg"},{"bike_id":"089df069-8adf-4126-a035-63f98c49a5f7","system_id":"levelo_inurba_marseille","lat":43.33024,"lon":5.39041,"is_reserved":false,"is_disabled":false,"rental_uris":{"android":"levelo://app?vid=089df069-8adf-4126-a035-63f98c49a5f7","ios":"levelo://app?vid=089df069-8adf-4126-a035-63f98c49a5f7"},"vehicle_type_id":"4","last_reported":1738681793,"current_range_meters":20800,"station_id":"ce4bhr92rcd13ifvqhrg","pricing_plan_id":"cebpf4jnsgd1na2vs0mg"},{"bike_id":"ebe48840-bdc9-4a95-915d-99f8e5d3f151","system_id":"levelo_inurba_marseille","lat":43.29611,"lon":5.37735,"is_reserved":false,"is_disabled":false,"rental_uris":{"android":"levelo://app?vid=ebe48840-bdc9-4a95-915d-99f8e5d3f151","ios":"levelo://app?vid=ebe48840-bdc9-4a95-915d-99f8e5d3f151"},"vehicle_type_id":"4","last_reported":1738681793,"current_range_meters":20400,"station_id":"ce4bgi92rcd13ifvqb90","pricing_plan_id":"cebpf4jnsgd1na2vs0mg"},{"bike_id":"30d68ac6-7ba6-4749-8154-bf914e372a6a","system_id":"levelo_inurba_marseille","lat":43.32366,"lon":5.38881,"is_reserved":false,"is_disabled":false,"rental_uris":{"android":"levelo://app?vid=30d68ac6-7ba6-4749-8154-bf914e372a6a","ios":"levelo://app?vid=30d68ac6-7ba6-4749-8154-bf914e372a6a"},"vehicle_type_id":"4","last_reported":1738681793,"current_range_meters":37600,"station_id":"ce4bhqp2rcd13ifvqhog","pricing_plan_id":"cebpf4jnsgd1na2vs0mg"},{"bike_id":"70db77fa-5101-4cc3-b5ef-7ecd27e20697","system_id":"levelo_inurba_marseille","lat":43.23092,"lon":5.35461,"is_reserved":false,"is_disabled":false,"rental_uris":{"android":"levelo://app?vid=70db77fa-5101-4cc3-b5ef-7ecd27e20697","ios":"levelo://app?vid=70db77fa-5101-4cc3-b5ef-7ecd27e20697"},"vehicle_type_id":"4","last_reported":1738681793,"current_range_meters":24000,"station_id":"cpo3342slgdg3j2ifvpg","pricing_plan_id":"cebpf4jnsgd1na2vs0mg"},{"bike_id":"47835302-4051-4ddc-bf72-ddbdf3a013d2","system_id":"levelo_inurba_marseille","lat":43.29713,"lon":5.36596,"is_reserved":false,"is_disabled":false,"rental_uris":{"android":"levelo://app?vid=47835302-4051-4ddc-bf72-ddbdf3a013d2","ios":"levelo://app?vid=47835302-4051-4ddc-bf72-ddbdf3a013d2"},"vehicle_type_id":"4","last_reported":1738681793,"current_range_meters":22800,"station_id":"ce4bgn12rcd13ifvqbt0","pricing_plan_id":"cebpf4jnsgd1na2vs0mg"},{"bike_id":"e33c097b-83d0-40ec-9fbf-364e5b0a9ef8","system_id":"levelo_inurba_marseille","lat":43.23195,"lon":5.35549,"is_reserved":false,"is_disabled":false,"rental_uris":{"android":"levelo://app?vid=e33c097b-83d0-40ec-9fbf-364e5b0a9ef8","ios":"levelo://app?vid=e33c097b-83d0-40ec-9fbf-364e5b0a9ef8"},"vehicle_type_id":"4","last_reported":1738681793,"current_range_meters":38800,"station_id":"ce4bhu92rcd13ifvqi70","pricing_plan_id":"cebpf4jnsgd1na2vs0mg"},{"bike_id":"ee341683-1a77-4804-b12a-d2775c1030ab","system_id":"levelo_inurba_marseille","lat":43.30806,"lon":5.38139,"is_reserved":false,"is_disabled":false,"rental_uris":{"android":"levelo://app?vid=ee341683-1a77-4804-b12a-d2775c1030ab","ios":"levelo://app?vid=ee341683-1a77-4804-b12a-d2775c1030ab"},"vehicle_type_id":"4","last_reported":1738681793,"current_range_meters":38800,"station_id":"ce4bgt12rcd13ifvqce0","pricing_plan_id":"cebpf4jnsgd1na2vs0mg"},{"bike_id":"358c0e05-9459-4617-a416-39228a0067d3","system_id":"levelo_inurba_marseille","lat":43.29967,"lon":5.37163,"is_reserved":false,"is_disabled":false,"rental_uris":{"android":"levelo://app?vid=358c0e05-9459-4617-a416-39228a0067d3","ios":"levelo://app?vid=358c0e05-9459-4617-a416-39228a0067d3"},"vehicle_type_id":"4","last_reported":1738681793,"current_range_meters":12400,"station_id":"ce4bgr92rcd13ifvqc7g","pricing_plan_id":"cebpf4jnsgd1na2vs0mg"},{"bike_id":"0e775c38-7145-4e54-8c6f-1ded1dd2ad0f","system_id":"levelo_inurba_marseille","lat":43.245504,"lon":5.395267,"is_reserved":false,"is_disabled":false,"rental_uris":{"android":"levelo://app?vid=0e775c38-7145-4e54-8c6f-1ded1dd2ad0f","ios":"levelo://app?vid=0e775c38-7145-4e54-8c6f-1ded1dd2ad0f"},"vehicle_type_id":"4","last_reported":1738681793,"current_range_meters":38800,"station_id":"ce4bhlp2rcd13ifvqgjg","pricing_plan_id":"cebpf4jnsgd1na2vs0mg"},{"bike_id":"087030d9-e5e2-496a-a083-b7c401a9076d","system_id":"levelo_inurba_marseille","lat":43.26213,"lon":5.3744,"is_reserved":false,"is_disabled":false,"rental_uris":{"android":"levelo://app?vid=087030d9-e5e2-496a-a083-b7c401a9076d","ios":"levelo://app?vid=087030d9-e5e2-496a-a083-b7c401a9076d"},"vehicle_type_id":"4","last_reported":1738681793,"current_range_meters":38400,"station_id":"ce4bhgp2rcd13ifvqfc0","pricing_plan_id":"cebpf4jnsgd1na2vs0mg"},{"bike_id":"89e0fb27-5f26-4cfe-9f61-e8651117733f","system_id":"levelo_inurba_marseille","lat":43.22923,"lon":5.3538,"is_reserved":false,"is_disabled":false,"rental_uris":{"android":"levelo://app?vid=89e0fb27-5f26-4cfe-9f61-e8651117733f","ios":"levelo://app?vid=89e0fb27-5f26-4cfe-9f61-e8651117733f"},"vehicle_type_id":"4","last_reported":1738681793,"current_range_meters":37600,"station_id":"cpo3532slgdg3j2ikp40","pricing_plan_id":"cebpf4jnsgd1na2vs0mg"},{"bike_id":"23c2312a-5007-4c8a-a123-f9a5a9881062","system_id":"levelo_inurba_marseille","lat":43.30136,"lon":5.37423,"is_reserved":false,"is_disabled":false,"rental_uris":{"android":"levelo://app?vid=23c2312a-5007-4c8a-a123-f9a5a9881062","ios":"levelo://app?vid=23c2312a-5007-4c8a-a123-f9a5a9881062"},"vehicle_type_id":"4","last_reported":1738681793,"current_range_meters":31200,"station_id":"ce4bgs92rcd13ifvqcc0","pricing_plan_id":"cebpf4jnsgd1na2vs0mg"},{"bike_id":"0e0e09f3-3368-4d43-8d28-fd4ca9389196","system_id":"levelo_inurba_marseille","lat":43.25015,"lon":5.38941,"is_reserved":false,"is_disabled":false,"rental_uris":{"android":"levelo://app?vid=0e0e09f3-3368-4d43-8d28-fd4ca9389196","ios":"levelo://app?vid=0e0e09f3-3368-4d43-8d28-fd4ca9389196"},"vehicle_type_id":"4","last_reported":1738681793,"current_range_meters":38800,"station_id":"ce4bhgp2rcd13ifvqfd0","pricing_plan_id":"cebpf4jnsgd1na2vs0mg"},{"bike_id":"cf35fcd1-1247-4717-973b-71c5eca0afbd","system_id":"levelo_inurba_marseille","lat":43.24393,"lon":5.37059,"is_reserved":false,"is_disabled":false,"rental_uris":{"android":"levelo://app?vid=cf35fcd1-1247-4717-973b-71c5eca0afbd","ios":"levelo://app?vid=cf35fcd1-1247-4717-973b-71c5eca0afbd"},"vehicle_type_id":"4","last_reported":1738681793,"current_range_meters":23200,"station_id":"ce4bhhh2rcd13ifvqfk0","pricing_plan_id":"cebpf4jnsgd1na2vs0mg"},{"bike_id":"d66f66f4-d296-4c99-9fd4-3aa0faa733eb","system_id":"levelo_inurba_marseille","lat":43.28282,"lon":5.3509,"is_reserved":false,"is_disabled":false,"rental_uris":{"android":"levelo://app?vid=d66f66f4-d296-4c99-9fd4-3aa0faa733eb","ios":"levelo://app?vid=d66f66f4-d296-4c99-9fd4-3aa0faa733eb"},"vehicle_type_id":"4","last_reported":1738681793,"current_range_meters":23200,"station_id":"ce4bhbp2rcd13ifvqerg","pricing_plan_id":"cebpf4jnsgd1na2vs0mg"},{"bike_id":"f469f869-7059-4d2b-b3d4-8bcd20ad4980","system_id":"levelo_inurba_marseille","lat":43.29217,"lon":5.3608,"is_reserved":false,"is_disabled":false,"rental_uris":{"android":"levelo://app?vid=f469f869-7059-4d2b-b3d4-8bcd20ad4980","ios":"levelo://app?vid=f469f869-7059-4d2b-b3d4-8bcd20ad4980"},"vehicle_type_id":"4","last_reported":1738681793,"current_range_meters":38400,"station_id":"ce4bhbh2rcd13ifvqeqg","pricing_plan_id":"cebpf4jnsgd1na2vs0mg"},{"bike_id":"73ce5867-64af-413e-8de7-68ce3423aed3","system_id":"levelo_inurba_marseille","lat":43.24077,"lon":5.37746,"is_reserved":false,"is_disabled":false,"rental_uris":{"android":"levelo://app?vid=73ce5867-64af-413e-8de7-68ce3423aed3","ios":"levelo://app?vid=73ce5867-64af-413e-8de7-68ce3423aed3"},"vehicle_type_id":"4","last_reported":1738681793,"current_range_meters":24800,"station_id":"ce4bhnp2rcd13ifvqgvg","pricing_plan_id":"cebpf4jnsgd1na2vs0mg"},{"bike_id":"287a43b2-b570-419a-9dc4-5087f25ec001","system_id":"levelo_inurba_marseille","lat":43.23149,"lon":5.43719,"is_reserved":false,"is_disabled":false,"rental_uris":{"android":"levelo://app?vid=287a43b2-b570-419a-9dc4-5087f25ec001","ios":"levelo://app?vid=287a43b2-b570-419a-9dc4-5087f25ec001"},"vehicle_type_id":"4","last_reported":1738681793,"current_range_meters":14000,"station_id":"ce4bhmp2rcd13ifvqgog","pricing_plan_id":"cebpf4jnsgd1na2vs0mg"},{"bike_id":"c7380d7a-fa74-4308-9e3b-97e9fc5c4fa2","system_id":"levelo_inurba_marseille","lat":43.29978,"lon":5.37174,"is_reserved":false,"is_disabled":false,"rental_uris":{"android":"levelo://app?vid=c7380d7a-fa74-4308-9e3b-97e9fc5c4fa2","ios":"levelo://app?vid=c7380d7a-fa74-4308-9e3b-97e9fc5c4fa2"},"vehicle_type_id":"4","last_reported":1738681793,"current_range_meters":6000,"station_id":"ce4bgr92rcd13ifvqc7g","pricing_plan_id":"cebpf4jnsgd1na2vs0mg"},{"bike_id":"20bed491-cc82-4c28-9828-d43fe6cb2a93","system_id":"levelo_inurba_marseille","lat":43.312119,"lon":5.368511,"is_reserved":false,"is_disabled":false,"rental_uris":{"android":"levelo://app?vid=20bed491-cc82-4c28-9828-d43fe6cb2a93","ios":"levelo://app?vid=20bed491-cc82-4c28-9828-d43fe6cb2a93"},"vehicle_type_id":"4","last_reported":1738681793,"current_range_meters":32400,"station_id":"ce4bgl92rcd13ifvqbq0","pricing_plan_id":"cebpf4jnsgd1na2vs0mg"},{"bike_id":"32e6d52c-451d-44c8-bc83-05971874b121","system_id":"levelo_inurba_marseille","lat":43.28425,"lon":5.3497,"is_reserved":false,"is_disabled":false,"rental_uris":{"android":"levelo://app?vid=32e6d52c-451d-44c8-bc83-05971874b121","ios":"levelo://app?vid=32e6d52c-451d-44c8-bc83-05971874b121"},"vehicle_type_id":"4","last_reported":1738681793,"current_range_meters":3600,"station_id":"ce4bhbh2rcd13ifvqepg","pricing_plan_id":"cebpf4jnsgd1na2vs0mg"},{"bike_id":"9a246337-8b93-40ac-8041-a37c41945aaf","system_id":"levelo_inurba_marseille","lat":43.26939,"lon":5.40241,"is_reserved":false,"is_disabled":false,"rental_uris":{"android":"levelo://app?vid=9a246337-8b93-40ac-8041-a37c41945aaf","ios":"levelo://app?vid=9a246337-8b93-40ac-8041-a37c41945aaf"},"vehicle_type_id":"4","last_reported":1738681793,"current_range_meters":35600,"station_id":"cjm6bp8fraef2m0cb0m0","pricing_plan_id":"cebpf4jnsgd1na2vs0mg"},{"bike_id":"278902b4-7b50-4f46-8ac1-6d0f29cc8638","system_id":"levelo_inurba_marseille","lat":43.24408,"lon":5.37032,"is_reserved":false,"is_disabled":false,"rental_uris":{"android":"levelo://app?vid=278902b4-7b50-4f46-8ac1-6d0f29cc8638","ios":"levelo://app?vid=278902b4-7b50-4f46-8ac1-6d0f29cc8638"},"vehicle_type_id":"4","last_reported":1738681793,"current_range_meters":38000,"station_id":"ce4bhhh2rcd13ifvqfk0","pricing_plan_id":"cebpf4jnsgd1na2vs0mg"},{"bike_id":"892d3765-5c4a-4b7c-80bb-37a8d91fb9fc","system_id":"levelo_inurba_marseille","lat":43.27316,"lon":5.39103,"is_reserved":false,"is_disabled":false,"rental_uris":{"android":"levelo://app?vid=892d3765-5c4a-4b7c-80bb-37a8d91fb9fc","ios":"levelo://app?vid=892d3765-5c4a-4b7c-80bb-37a8d91fb9fc"},"vehicle_type_id":"4","last_reported":1738681793,"current_range_meters":8400,"station_id":"ce4bhgp2rcd13ifvqfe0","pricing_plan_id":"cebpf4jnsgd1na2vs0mg"},{"bike_id":"319c07b1-1113-4b80-85ab-349457551ef4","system_id":"levelo_inurba_marseille","lat":43.31758,"lon":5.39012,"is_reserved":false,"is_disabled":false,"rental_uris":{"android":"levelo://app?vid=319c07b1-1113-4b80-85ab-349457551ef4","ios":"levelo://app?vid=319c07b1-1113-4b80-85ab-349457551ef4"},"vehicle_type_id":"4","last_reported":1738681793,"current_range_meters":3200,"station_id":"ce4bhqp2rcd13ifvqhng","pricing_plan_id":"cebpf4jnsgd1na2vs0mg"},{"bike_id":"3ab0ceb6-cd89-477f-8038-1be761eb4bda","system_id":"levelo_inurba_marseille","lat":43.29681,"lon":5.37748,"is_reserved":false,"is_disabled":true,"rental_uris":{"android":"levelo://app?vid=3ab0ceb6-cd89-477f-8038-1be761eb4bda","ios":"levelo://app?vid=3ab0ceb6-cd89-477f-8038-1be761eb4bda"},"vehicle_type_id":"4","last_reported":1738681793,"current_range_meters":0,"station_id":"","pricing_plan_id":"cebpf4jnsgd1na2vs0mg"},{"bike_id":"f876c5f4-d351-4f17-9695-ad6fce8ba38c","system_id":"levelo_inurba_marseille","lat":43.24082,"lon":5.37757,"is_reserved":false,"is_disabled":false,"rental_uris":{"android":"levelo://app?vid=f876c5f4-d351-4f17-9695-ad6fce8ba38c","ios":"levelo://app?vid=f876c5f4-d351-4f17-9695-ad6fce8ba38c"},"vehicle_type_id":"4","last_reported":1738681793,"current_range_meters":24800,"station_id":"ce4bhnp2rcd13ifvqgvg","pricing_plan_id":"cebpf4jnsgd1na2vs0mg"},{"bike_id":"e40f9edb-09d6-4f03-aa3e-db6a097a5060","system_id":"levelo_inurba_marseille","lat":43.23056,"lon":5.35495,"is_reserved":false,"is_disabled":false,"rental_uris":{"android":"levelo://app?vid=e40f9edb-09d6-4f03-aa3e-db6a097a5060","ios":"levelo://app?vid=e40f9edb-09d6-4f03-aa3e-db6a097a5060"},"vehicle_type_id":"4","last_reported":1738681793,"current_range_meters":26000,"station_id":"cpo3342slgdg3j2ifvpg","pricing_plan_id":"cebpf4jnsgd1na2vs0mg"},{"bike_id":"3756bd28-c99b-413c-854e-aa0ddfc617c2","system_id":"levelo_inurba_marseille","lat":43.29689,"lon":5.36602,"is_reserved":false,"is_disabled":false,"rental_uris":{"android":"levelo://app?vid=3756bd28-c99b-413c-854e-aa0ddfc617c2","ios":"levelo://app?vid=3756bd28-c99b-413c-854e-aa0ddfc617c2"},"vehicle_type_id":"4","last_reported":1738681793,"current_range_meters":39200,"station_id":"ce4bgn12rcd13ifvqbt0","pricing_plan_id":"cebpf4jnsgd1na2vs0mg"},{"bike_id":"caacd4d7-cbe5-4528-bd6a-271ae30bc4c2","system_id":"levelo_inurba_marseille","lat":43.28614,"lon":5.35102,"is_reserved":false,"is_disabled":false,"rental_uris":{"android":"levelo://app?vid=caacd4d7-cbe5-4528-bd6a-271ae30bc4c2","ios":"levelo://app?vid=caacd4d7-cbe5-4528-bd6a-271ae30bc4c2"},"vehicle_type_id":"4","last_reported":1738681793,"current_range_meters":30000,"station_id":"ce4bhch2rcd13ifvqeug","pricing_plan_id":"cebpf4jnsgd1na2vs0mg"},{"bike_id":"4ba0208b-a237-4fb4-9d2e-1d8063b17b57","system_id":"levelo_inurba_marseille","lat":43.25938,"lon":5.40894,"is_reserved":false,"is_disabled":false,"rental_uris":{"android":"levelo://app?vid=4ba0208b-a237-4fb4-9d2e-1d8063b17b57","ios":"levelo://app?vid=4ba0208b-a237-4fb4-9d2e-1d8063b17b57"},"vehicle_type_id":"4","last_reported":1738681793,"current_range_meters":22400,"station_id":"ce4bhm92rcd13ifvqglg","pricing_plan_id":"cebpf4jnsgd1na2vs0mg"},{"bike_id":"cdd1832e-01d3-4741-9972-b785aee99c52","system_id":"levelo_inurba_marseille","lat":43.28265,"lon":5.35066,"is_reserved":false,"is_disabled":false,"rental_uris":{"android":"levelo://app?vid=cdd1832e-01d3-4741-9972-b785aee99c52","ios":"levelo://app?vid=cdd1832e-01d3-4741-9972-b785aee99c52"},"vehicle_type_id":"4","last_reported":1738681793,"current_range_meters":8000,"station_id":"ce4bhbp2rcd13ifvqerg","pricing_plan_id":"cebpf4jnsgd1na2vs0mg"},{"bike_id":"35818ab5-59ab-4a91-89b2-779c524896a7","system_id":"levelo_inurba_marseille","lat":43.32041,"lon":5.41579,"is_reserved":false,"is_disabled":false,"rental_uris":{"android":"levelo://app?vid=35818ab5-59ab-4a91-89b2-779c524896a7","ios":"levelo://app?vid=35818ab5-59ab-4a91-89b2-779c524896a7"},"vehicle_type_id":"4","last_reported":1738681793,"current_range_meters":38400,"station_id":"ce4bhq92rcd13ifvqhkg","pricing_plan_id":"cebpf4jnsgd1na2vs0mg"},{"bike_id":"90b22afa-2e52-4721-833e-28adefea9bd8","system_id":"levelo_inurba_marseille","lat":43.27673,"lon":5.38877,"is_reserved":false,"is_disabled":false,"rental_uris":{"android":"levelo://app?vid=90b22afa-2e52-4721-833e-28adefea9bd8","ios":"levelo://app?vid=90b22afa-2e52-4721-833e-28adefea9bd8"},"vehicle_type_id":"4","last_reported":1738681793,"current_range_meters":38000,"station_id":"ce4bhi12rcd13ifvqfo0","pricing_plan_id":"cebpf4jnsgd1na2vs0mg"},{"bike_id":"5105e794-8f56-4998-b5ce-9b5937c2a99c","system_id":"levelo_inurba_marseille","lat":43.32653,"lon":5.40981,"is_reserved":false,"is_disabled":false,"rental_uris":{"android":"levelo://app?vid=5105e794-8f56-4998-b5ce-9b5937c2a99c","ios":"levelo://app?vid=5105e794-8f56-4998-b5ce-9b5937c2a99c"},"vehicle_type_id":"4","last_reported":1738681793,"current_range_meters":37600,"station_id":"ce4bhpp2rcd13ifvqhgg","pricing_plan_id":"cebpf4jnsgd1na2vs0mg"},{"bike_id":"abfef716-ff8e-455a-bfdf-1757c8e08e3b","system_id":"levelo_inurba_marseille","lat":43.30571,"lon":5.37212,"is_reserved":false,"is_disabled":false,"rental_uris":{"android":"levelo://app?vid=abfef716-ff8e-455a-bfdf-1757c8e08e3b","ios":"levelo://app?vid=abfef716-ff8e-455a-bfdf-1757c8e08e3b"},"vehicle_type_id":"4","last_reported":1738681793,"current_range_meters":38800,"station_id":"ce4bgqh2rcd13ifvqc4g","pricing_plan_id":"cebpf4jnsgd1na2vs0mg"},{"bike_id":"8c0f28f0-c587-4374-8c95-376d0641de2d","system_id":"levelo_inurba_marseille","lat":43.29926,"lon":5.37469,"is_reserved":false,"is_disabled":false,"rental_uris":{"android":"levelo://app?vid=8c0f28f0-c587-4374-8c95-376d0641de2d","ios":"levelo://app?vid=8c0f28f0-c587-4374-8c95-376d0641de2d"},"vehicle_type_id":"4","last_reported":1738681793,"current_range_meters":25200,"station_id":"ce4bgjh2rcd13ifvqbg0","pricing_plan_id":"cebpf4jnsgd1na2vs0mg"},{"bike_id":"a1877b68-a0fc-46e1-bf1e-3e602e2ab4b8","system_id":"levelo_inurba_marseille","lat":43.28155,"lon":5.42641,"is_reserved":false,"is_disabled":false,"rental_uris":{"android":"levelo://app?vid=a1877b68-a0fc-46e1-bf1e-3e602e2ab4b8","ios":"levelo://app?vid=a1877b68-a0fc-46e1-bf1e-3e602e2ab4b8"},"vehicle_type_id":"4","last_reported":1738681793,"current_range_meters":29600,"station_id":"ce4bhnh2rcd13ifvqgug","pricing_plan_id":"cebpf4jnsgd1na2vs0mg"},{"bike_id":"3356b867-8857-44a4-9882-de148bdf9b77","system_id":"levelo_inurba_marseille","lat":43.29921,"lon":5.37473,"is_reserved":false,"is_disabled":false,"rental_uris":{"android":"levelo://app?vid=3356b867-8857-44a4-9882-de148bdf9b77","ios":"levelo://app?vid=3356b867-8857-44a4-9882-de148bdf9b77"},"vehicle_type_id":"4","last_reported":1738681793,"current_range_meters":17600,"station_id":"ce4bgjh2rcd13ifvqbg0","pricing_plan_id":"cebpf4jnsgd1na2vs0mg"},{"bike_id":"e03edca6-4218-46bc-9ea0-3ea480d64f36","system_id":"levelo_inurba_marseille","lat":43.29626,"lon":5.37701,"is_reserved":false,"is_disabled":false,"rental_uris":{"android":"levelo://app?vid=e03edca6-4218-46bc-9ea0-3ea480d64f36","ios":"levelo://app?vid=e03edca6-4218-46bc-9ea0-3ea480d64f36"},"vehicle_type_id":"4","last_reported":1738681793,"current_range_meters":37600,"station_id":"ce4bgi92rcd13ifvqb90","pricing_plan_id":"cebpf4jnsgd1na2vs0mg"},{"bike_id":"f74b4b88-f10b-40e1-a6e5-13216996c734","system_id":"levelo_inurba_marseille","lat":43.27941,"lon":5.41034,"is_reserved":false,"is_disabled":false,"rental_uris":{"android":"levelo://app?vid=f74b4b88-f10b-40e1-a6e5-13216996c734","ios":"levelo://app?vid=f74b4b88-f10b-40e1-a6e5-13216996c734"},"vehicle_type_id":"4","last_reported":1738681793,"current_range_meters":33200,"station_id":"ce4bhnp2rcd13ifvqh0g","pricing_plan_id":"cebpf4jnsgd1na2vs0mg"},{"bike_id":"28bb841b-94b3-4842-8d56-4fd8bc4ce1ed","system_id":"levelo_inurba_marseille","lat":43.24543,"lon":5.39526,"is_reserved":false,"is_disabled":false,"rental_uris":{"android":"levelo://app?vid=28bb841b-94b3-4842-8d56-4fd8bc4ce1ed","ios":"levelo://app?vid=28bb841b-94b3-4842-8d56-4fd8bc4ce1ed"},"vehicle_type_id":"4","last_reported":1738681793,"current_range_meters":11200,"station_id":"ce4bhlp2rcd13ifvqgjg","pricing_plan_id":"cebpf4jnsgd1na2vs0mg"},{"bike_id":"19c7a087-c6ce-48e8-b53a-d3b89213b68d","system_id":"levelo_inurba_marseille","lat":43.2732,"lon":5.39106,"is_reserved":false,"is_disabled":false,"rental_uris":{"android":"levelo://app?vid=19c7a087-c6ce-48e8-b53a-d3b89213b68d","ios":"levelo://app?vid=19c7a087-c6ce-48e8-b53a-d3b89213b68d"},"vehicle_type_id":"4","last_reported":1738681793,"current_range_meters":15200,"station_id":"ce4bhgp2rcd13ifvqfe0","pricing_plan_id":"cebpf4jnsgd1na2vs0mg"},{"bike_id":"1247e56b-ab9c-48cc-8c8f-a48a5e66a3bb","system_id":"levelo_inurba_marseille","lat":43.28277,"lon":5.35078,"is_reserved":false,"is_disabled":false,"rental_uris":{"android":"levelo://app?vid=1247e56b-ab9c-48cc-8c8f-a48a5e66a3bb","ios":"levelo://app?vid=1247e56b-ab9c-48cc-8c8f-a48a5e66a3bb"},"vehicle_type_id":"4","last_reported":1738681793,"current_range_meters":27600,"station_id":"ce4bhbp2rcd13ifvqerg","pricing_plan_id":"cebpf4jnsgd1na2vs0mg"},{"bike_id":"e270e9c9-c637-4eec-85ca-20047cef130b","system_id":"levelo_inurba_marseille","lat":43.231474,"lon":5.437166,"is_reserved":false,"is_disabled":false,"rental_uris":{"android":"levelo://app?vid=e270e9c9-c637-4eec-85ca-20047cef130b","ios":"levelo://app?vid=e270e9c9-c637-4eec-85ca-20047cef130b"},"vehicle_type_id":"4","last_reported":1738681793,"current_range_meters":38000,"station_id":"ce4bhmp2rcd13ifvqgog","pricing_plan_id":"cebpf4jnsgd1na2vs0mg"},{"bike_id":"dfe4a7c7-0508-43ad-a0c0-ea841f1a5151","system_id":"levelo_inurba_marseille","lat":43.31265,"lon":5.36848,"is_reserved":false,"is_disabled":false,"rental_uris":{"android":"levelo://app?vid=dfe4a7c7-0508-43ad-a0c0-ea841f1a5151","ios":"levelo://app?vid=dfe4a7c7-0508-43ad-a0c0-ea841f1a5151"},"vehicle_type_id":"4","last_reported":1738681793,"current_range_meters":34000,"station_id":"ce4bgl92rcd13ifvqbq0","pricing_plan_id":"cebpf4jnsgd1na2vs0mg"},{"bike_id":"b0631a77-c31d-46ce-accb-8444eb631e60","system_id":"levelo_inurba_marseille","lat":43.298973,"lon":5.402863,"is_reserved":false,"is_disabled":false,"rental_uris":{"android":"levelo://app?vid=b0631a77-c31d-46ce-accb-8444eb631e60","ios":"levelo://app?vid=b0631a77-c31d-46ce-accb-8444eb631e60"},"vehicle_type_id":"4","last_reported":1738681793,"current_range_meters":27600,"station_id":"ce4bh012rcd13ifvqd10","pricing_plan_id":"cebpf4jnsgd1na2vs0mg"},{"bike_id":"2596d18e-5a51-415d-81d9-dda15ef753ca","system_id":"levelo_inurba_marseille","lat":43.296308,"lon":5.371681,"is_reserved":false,"is_disabled":false,"rental_uris":{"android":"levelo://app?vid=2596d18e-5a51-415d-81d9-dda15ef753ca","ios":"levelo://app?vid=2596d18e-5a51-415d-81d9-dda15ef753ca"},"vehicle_type_id":"4","last_reported":1738681793,"current_range_meters":37600,"station_id":"ce4bgnh2rcd13ifvqc0g","pricing_plan_id":"cebpf4jnsgd1na2vs0mg"},{"bike_id":"dd84c44f-1817-446a-9cc6-07d153d83453","system_id":"levelo_inurba_marseille","lat":43.29567,"lon":5.3752,"is_reserved":false,"is_disabled":false,"rental_uris":{"android":"levelo://app?vid=dd84c44f-1817-446a-9cc6-07d153d83453","ios":"levelo://app?vid=dd84c44f-1817-446a-9cc6-07d153d83453"},"vehicle_type_id":"4","last_reported":1738681793,"current_range_meters":38800,"station_id":"ce4bgh92rcd13ifvqb50","pricing_plan_id":"cebpf4jnsgd1na2vs0mg"},{"bike_id":"8bd3ef89-4d48-42b3-8d94-f04f70b798d2","system_id":"levelo_inurba_marseille","lat":43.28717,"lon":5.37935,"is_reserved":false,"is_disabled":false,"rental_uris":{"android":"levelo://app?vid=8bd3ef89-4d48-42b3-8d94-f04f70b798d2","ios":"levelo://app?vid=8bd3ef89-4d48-42b3-8d94-f04f70b798d2"},"vehicle_type_id":"4","last_reported":1738681793,"current_range_meters":34000,"station_id":"ce4bh9p2rcd13ifvqec0","pricing_plan_id":"cebpf4jnsgd1na2vs0mg"},{"bike_id":"aacbfc6b-bd24-4951-a999-16b074dc2bb4","system_id":"levelo_inurba_marseille","lat":43.28456,"lon":5.39208,"is_reserved":false,"is_disabled":false,"rental_uris":{"android":"levelo://app?vid=aacbfc6b-bd24-4951-a999-16b074dc2bb4","ios":"levelo://app?vid=aacbfc6b-bd24-4951-a999-16b074dc2bb4"},"vehicle_type_id":"4","last_reported":1738681793,"current_range_meters":28800,"station_id":"ce4bhoh2rcd13ifvqh5g","pricing_plan_id":"cebpf4jnsgd1na2vs0mg"},{"bike_id":"24836288-9c03-4f9d-8887-a4d9ebe7a2cd","system_id":"levelo_inurba_marseille","lat":43.240847,"lon":5.377393,"is_reserved":false,"is_disabled":false,"rental_uris":{"android":"levelo://app?vid=24836288-9c03-4f9d-8887-a4d9ebe7a2cd","ios":"levelo://app?vid=24836288-9c03-4f9d-8887-a4d9ebe7a2cd"},"vehicle_type_id":"4","last_reported":1738681793,"current_range_meters":30800,"station_id":"ce4bhnp2rcd13ifvqgvg","pricing_plan_id":"cebpf4jnsgd1na2vs0mg"},{"bike_id":"49043dcc-dc87-4f32-9b9e-584978211017","system_id":"levelo_inurba_marseille","lat":43.30148,"lon":5.37411,"is_reserved":false,"is_disabled":false,"rental_uris":{"android":"levelo://app?vid=49043dcc-dc87-4f32-9b9e-584978211017","ios":"levelo://app?vid=49043dcc-dc87-4f32-9b9e-584978211017"},"vehicle_type_id":"4","last_reported":1738681793,"current_range_meters":38400,"station_id":"ce4bgs92rcd13ifvqcc0","pricing_plan_id":"cebpf4jnsgd1na2vs0mg"},{"bike_id":"88f6ec14-1047-428a-bfc8-ed7564b679d3","system_id":"levelo_inurba_marseille","lat":43.24391,"lon":5.37044,"is_reserved":false,"is_disabled":false,"rental_uris":{"android":"levelo://app?vid=88f6ec14-1047-428a-bfc8-ed7564b679d3","ios":"levelo://app?vid=88f6ec14-1047-428a-bfc8-ed7564b679d3"},"vehicle_type_id":"4","last_reported":1738681793,"current_range_meters":38800,"station_id":"ce4bhhh2rcd13ifvqfk0","pricing_plan_id":"cebpf4jnsgd1na2vs0mg"},{"bike_id":"941a420b-bcd5-4f63-a1ba-5c15116a6c1e","system_id":"levelo_inurba_marseille","lat":43.29228,"lon":5.36385,"is_reserved":false,"is_disabled":false,"rental_uris":{"android":"levelo://app?vid=941a420b-bcd5-4f63-a1ba-5c15116a6c1e","ios":"levelo://app?vid=941a420b-bcd5-4f63-a1ba-5c15116a6c1e"},"vehicle_type_id":"4","last_reported":1738681793,"current_range_meters":38000,"station_id":"","pricing_plan_id":"cebpf4jnsgd1na2vs0mg"},{"bike_id":"02122fd3-bddb-4d93-9870-235e9e1f92b9","system_id":"levelo_inurba_marseille","lat":43.26804,"lon":5.4027,"is_reserved":false,"is_disabled":false,"rental_uris":{"android":"levelo://app?vid=02122fd3-bddb-4d93-9870-235e9e1f92b9","ios":"levelo://app?vid=02122fd3-bddb-4d93-9870-235e9e1f92b9"},"vehicle_type_id":"4","last_reported":1738681793,"current_range_meters":24000,"station_id":"ce501612rcd8frsf0b60","pricing_plan_id":"cebpf4jnsgd1na2vs0mg"},{"bike_id":"ac10ecdc-782c-467c-8065-29ce4e1b1aab","system_id":"levelo_inurba_marseille","lat":43.32654,"lon":5.40988,"is_reserved":false,"is_disabled":false,"rental_uris":{"android":"levelo://app?vid=ac10ecdc-782c-467c-8065-29ce4e1b1aab","ios":"levelo://app?vid=ac10ecdc-782c-467c-8065-29ce4e1b1aab"},"vehicle_type_id":"4","last_reported":1738681793,"current_range_meters":2800,"station_id":"ce4bhpp2rcd13ifvqhgg","pricing_plan_id":"cebpf4jnsgd1na2vs0mg"},{"bike_id":"352d595e-1fe6-4582-beb8-01e7d677d0ed","system_id":"levelo_inurba_marseille","lat":43.239619,"lon":5.366216,"is_reserved":false,"is_disabled":false,"rental_uris":{"android":"levelo://app?vid=352d595e-1fe6-4582-beb8-01e7d677d0ed","ios":"levelo://app?vid=352d595e-1fe6-4582-beb8-01e7d677d0ed"},"vehicle_type_id":"4","last_reported":1738681793,"current_range_meters":2800,"station_id":"ce4bhi12rcd13ifvqfp0","pricing_plan_id":"cebpf4jnsgd1na2vs0mg"},{"bike_id":"c19b3c74-f079-41ca-a5e6-f86d20b3a1ed","system_id":"levelo_inurba_marseille","lat":43.28426,"lon":5.34994,"is_reserved":false,"is_disabled":false,"rental_uris":{"android":"levelo://app?vid=c19b3c74-f079-41ca-a5e6-f86d20b3a1ed","ios":"levelo://app?vid=c19b3c74-f079-41ca-a5e6-f86d20b3a1ed"},"vehicle_type_id":"4","last_reported":1738681793,"current_range_meters":20000,"station_id":"ce4bhbh2rcd13ifvqepg","pricing_plan_id":"cebpf4jnsgd1na2vs0mg"},{"bike_id":"3894dca2-273b-40ed-8be2-d6f8dae96388","system_id":"levelo_inurba_marseille","lat":43.286163,"lon":5.35104,"is_reserved":false,"is_disabled":false,"rental_uris":{"android":"levelo://app?vid=3894dca2-273b-40ed-8be2-d6f8dae96388","ios":"levelo://app?vid=3894dca2-273b-40ed-8be2-d6f8dae96388"},"vehicle_type_id":"4","last_reported":1738681793,"current_range_meters":0,"station_id":"ce4bhch2rcd13ifvqeug","pricing_plan_id":"cebpf4jnsgd1na2vs0mg"},{"bike_id":"03215b30-aa65-4b10-b451-ed50967ec88e","system_id":"levelo_inurba_marseille","lat":43.34444,"lon":5.35959,"is_reserved":false,"is_disabled":true,"rental_uris":{"android":"levelo://app?vid=03215b30-aa65-4b10-b451-ed50967ec88e","ios":"levelo://app?vid=03215b30-aa65-4b10-b451-ed50967ec88e"},"vehicle_type_id":"4","last_reported":1738681793,"current_range_meters":0,"station_id":"","pricing_plan_id":"cebpf4jnsgd1na2vs0mg"},{"bike_id":"0fb02cec-7836-4b36-93b8-2b6e57059f6d","system_id":"levelo_inurba_marseille","lat":43.29917,"lon":5.37463,"is_reserved":false,"is_disabled":false,"rental_uris":{"android":"levelo://app?vid=0fb02cec-7836-4b36-93b8-2b6e57059f6d","ios":"levelo://app?vid=0fb02cec-7836-4b36-93b8-2b6e57059f6d"},"vehicle_type_id":"4","last_reported":1738681793,"current_range_meters":22000,"station_id":"ce4bgjh2rcd13ifvqbg0","pricing_plan_id":"cebpf4jnsgd1na2vs0mg"},{"bike_id":"582b1f0f-8f32-4b27-9fbc-8d737445e163","system_id":"levelo_inurba_marseille","lat":43.29257,"lon":5.36023,"is_reserved":false,"is_disabled":false,"rental_uris":{"android":"levelo://app?vid=582b1f0f-8f32-4b27-9fbc-8d737445e163","ios":"levelo://app?vid=582b1f0f-8f32-4b27-9fbc-8d737445e163"},"vehicle_type_id":"4","last_reported":1738681793,"current_range_meters":38400,"station_id":"ce4bhbh2rcd13ifvqeqg","pricing_plan_id":"cebpf4jnsgd1na2vs0mg"},{"bike_id":"9a10e89d-1ac3-495e-95d2-1bd65aa24f7e","system_id":"levelo_inurba_marseille","lat":43.30644,"lon":5.37322,"is_reserved":false,"is_disabled":false,"rental_uris":{"android":"levelo://app?vid=9a10e89d-1ac3-495e-95d2-1bd65aa24f7e","ios":"levelo://app?vid=9a10e89d-1ac3-495e-95d2-1bd65aa24f7e"},"vehicle_type_id":"4","last_reported":1738681793,"current_range_meters":25600,"station_id":"","pricing_plan_id":"cebpf4jnsgd1na2vs0mg"},{"bike_id":"d1d51ec2-e1ab-4b92-9a4b-f935b04ef436","system_id":"levelo_inurba_marseille","lat":43.25006,"lon":5.38918,"is_reserved":false,"is_disabled":false,"rental_uris":{"android":"levelo://app?vid=d1d51ec2-e1ab-4b92-9a4b-f935b04ef436","ios":"levelo://app?vid=d1d51ec2-e1ab-4b92-9a4b-f935b04ef436"},"vehicle_type_id":"4","last_reported":1738681793,"current_range_meters":24400,"station_id":"ce4bhgp2rcd13ifvqfd0","pricing_plan_id":"cebpf4jnsgd1na2vs0mg"},{"bike_id":"102b9f2d-4c9c-4720-8aef-3f4ab487e1a0","system_id":"levelo_inurba_marseille","lat":43.324,"lon":5.38893,"is_reserved":false,"is_disabled":false,"rental_uris":{"android":"levelo://app?vid=102b9f2d-4c9c-4720-8aef-3f4ab487e1a0","ios":"levelo://app?vid=102b9f2d-4c9c-4720-8aef-3f4ab487e1a0"},"vehicle_type_id":"4","last_reported":1738681793,"current_range_meters":11200,"station_id":"ce4bhqp2rcd13ifvqhog","pricing_plan_id":"cebpf4jnsgd1na2vs0mg"},{"bike_id":"7a2080c9-d44a-471c-9acd-526428e8e5dc","system_id":"levelo_inurba_marseille","lat":43.229358,"lon":5.353835,"is_reserved":false,"is_disabled":false,"rental_uris":{"android":"levelo://app?vid=7a2080c9-d44a-471c-9acd-526428e8e5dc","ios":"levelo://app?vid=7a2080c9-d44a-471c-9acd-526428e8e5dc"},"vehicle_type_id":"4","last_reported":1738681793,"current_range_meters":38800,"station_id":"cpo3532slgdg3j2ikp40","pricing_plan_id":"cebpf4jnsgd1na2vs0mg"},{"bike_id":"beba0784-da86-47f3-9823-93fa03ba2a87","system_id":"levelo_inurba_marseille","lat":43.27313,"lon":5.39095,"is_reserved":false,"is_disabled":false,"rental_uris":{"android":"levelo://app?vid=beba0784-da86-47f3-9823-93fa03ba2a87","ios":"levelo://app?vid=beba0784-da86-47f3-9823-93fa03ba2a87"},"vehicle_type_id":"4","last_reported":1738681793,"current_range_meters":38800,"station_id":"ce4bhgp2rcd13ifvqfe0","pricing_plan_id":"cebpf4jnsgd1na2vs0mg"},{"bike_id":"63048f82-d2f8-4892-b5b3-d703ed24ef1c","system_id":"levelo_inurba_marseille","lat":43.29011,"lon":5.35605,"is_reserved":false,"is_disabled":false,"rental_uris":{"android":"levelo://app?vid=63048f82-d2f8-4892-b5b3-d703ed24ef1c","ios":"levelo://app?vid=63048f82-d2f8-4892-b5b3-d703ed24ef1c"},"vehicle_type_id":"4","last_reported":1738681793,"current_range_meters":39200,"station_id":"ce4bhb92rcd13ifvqen0","pricing_plan_id":"cebpf4jnsgd1na2vs0mg"},{"bike_id":"59b7ae52-a959-4291-84c5-627a48b26b6c","system_id":"levelo_inurba_marseille","lat":43.29844,"lon":5.36292,"is_reserved":false,"is_disabled":false,"rental_uris":{"android":"levelo://app?vid=59b7ae52-a959-4291-84c5-627a48b26b6c","ios":"levelo://app?vid=59b7ae52-a959-4291-84c5-627a48b26b6c"},"vehicle_type_id":"4","last_reported":1738681793,"current_range_meters":37600,"station_id":"ce4bgpp2rcd13ifvqc3g","pricing_plan_id":"cebpf4jnsgd1na2vs0mg"},{"bike_id":"1bdf073d-c097-4150-87c6-187750a9dea9","system_id":"levelo_inurba_marseille","lat":43.26214,"lon":5.37441,"is_reserved":false,"is_disabled":false,"rental_uris":{"android":"levelo://app?vid=1bdf073d-c097-4150-87c6-187750a9dea9","ios":"levelo://app?vid=1bdf073d-c097-4150-87c6-187750a9dea9"},"vehicle_type_id":"4","last_reported":1738681793,"current_range_meters":38400,"station_id":"ce4bhgp2rcd13ifvqfc0","pricing_plan_id":"cebpf4jnsgd1na2vs0mg"},{"bike_id":"112b4357-f1cc-4cc7-a1e9-e63a7320f1ef","system_id":"levelo_inurba_marseille","lat":43.26569,"lon":5.39005,"is_reserved":false,"is_disabled":false,"rental_uris":{"android":"levelo://app?vid=112b4357-f1cc-4cc7-a1e9-e63a7320f1ef","ios":"levelo://app?vid=112b4357-f1cc-4cc7-a1e9-e63a7320f1ef"},"vehicle_type_id":"4","last_reported":1738681793,"current_range_meters":11200,"station_id":"ce4bhe12rcd13ifvqf30","pricing_plan_id":"cebpf4jnsgd1na2vs0mg"},{"bike_id":"aef60d43-a0e2-4827-ba61-76af64d7e088","system_id":"levelo_inurba_marseille","lat":43.2993,"lon":5.36536,"is_reserved":false,"is_disabled":false,"rental_uris":{"android":"levelo://app?vid=aef60d43-a0e2-4827-ba61-76af64d7e088","ios":"levelo://app?vid=aef60d43-a0e2-4827-ba61-76af64d7e088"},"vehicle_type_id":"4","last_reported":1738681793,"current_range_meters":38400,"station_id":"ce4bgm92rcd13ifvqbr0","pricing_plan_id":"cebpf4jnsgd1na2vs0mg"},{"bike_id":"43d88c9c-d0eb-4b4f-b95e-e1d05d1ad7b8","system_id":"levelo_inurba_marseille","lat":43.29621,"lon":5.37166,"is_reserved":false,"is_disabled":false,"rental_uris":{"android":"levelo://app?vid=43d88c9c-d0eb-4b4f-b95e-e1d05d1ad7b8","ios":"levelo://app?vid=43d88c9c-d0eb-4b4f-b95e-e1d05d1ad7b8"},"vehicle_type_id":"4","last_reported":1738681793,"current_range_meters":27600,"station_id":"ce4bgnh2rcd13ifvqc0g","pricing_plan_id":"cebpf4jnsgd1na2vs0mg"},{"bike_id":"7fbea1ed-9953-4891-b9fe-ad84cdd12b3a","system_id":"levelo_inurba_marseille","lat":43.28938,"lon":5.38405,"is_reserved":false,"is_disabled":false,"rental_uris":{"android":"levelo://app?vid=7fbea1ed-9953-4891-b9fe-ad84cdd12b3a","ios":"levelo://app?vid=7fbea1ed-9953-4891-b9fe-ad84cdd12b3a"},"vehicle_type_id":"4","last_reported":1738681793,"current_range_meters":38800,"station_id":"ce4bh612rcd13ifvqe6g","pricing_plan_id":"cebpf4jnsgd1na2vs0mg"},{"bike_id":"6dfe34ee-89dc-4687-a40b-bb003e3c18c6","system_id":"levelo_inurba_marseille","lat":43.28104,"lon":5.37841,"is_reserved":false,"is_disabled":true,"rental_uris":{"android":"levelo://app?vid=6dfe34ee-89dc-4687-a40b-bb003e3c18c6","ios":"levelo://app?vid=6dfe34ee-89dc-4687-a40b-bb003e3c18c6"},"vehicle_type_id":"4","last_reported":1738681793,"current_range_meters":38800,"station_id":"ce4bha12rcd13ifvqee0","pricing_plan_id":"cebpf4jnsgd1na2vs0mg"},{"bike_id":"0bb638d0-2838-47fa-8a2d-f175e9aec41a","system_id":"levelo_inurba_marseille","lat":43.2396,"lon":5.36632,"is_reserved":false,"is_disabled":false,"rental_uris":{"android":"levelo://app?vid=0bb638d0-2838-47fa-8a2d-f175e9aec41a","ios":"levelo://app?vid=0bb638d0-2838-47fa-8a2d-f175e9aec41a"},"vehicle_type_id":"4","last_reported":1738681793,"current_range_meters":14400,"station_id":"ce4bhi12rcd13ifvqfp0","pricing_plan_id":"cebpf4jnsgd1na2vs0mg"},{"bike_id":"3ede0ee5-4c01-4fca-9b5e-5a4b004fd4b5","system_id":"levelo_inurba_marseille","lat":43.2971,"lon":5.36625,"is_reserved":false,"is_disabled":false,"rental_uris":{"android":"levelo://app?vid=3ede0ee5-4c01-4fca-9b5e-5a4b004fd4b5","ios":"levelo://app?vid=3ede0ee5-4c01-4fca-9b5e-5a4b004fd4b5"},"vehicle_type_id":"4","last_reported":1738681793,"current_range_meters":18000,"station_id":"ce4bgn12rcd13ifvqbt0","pricing_plan_id":"cebpf4jnsgd1na2vs0mg"},{"bike_id":"2fed9ba3-3909-423b-8e60-69abd9978d73","system_id":"levelo_inurba_marseille","lat":43.2681,"lon":5.40264,"is_reserved":false,"is_disabled":false,"rental_uris":{"android":"levelo://app?vid=2fed9ba3-3909-423b-8e60-69abd9978d73","ios":"levelo://app?vid=2fed9ba3-3909-423b-8e60-69abd9978d73"},"vehicle_type_id":"4","last_reported":1738681793,"current_range_meters":38800,"station_id":"ce501612rcd8frsf0b60","pricing_plan_id":"cebpf4jnsgd1na2vs0mg"},{"bike_id":"7ffed35d-8441-4694-a2e0-f87613e83ab4","system_id":"levelo_inurba_marseille","lat":43.28283,"lon":5.35081,"is_reserved":false,"is_disabled":false,"rental_uris":{"android":"levelo://app?vid=7ffed35d-8441-4694-a2e0-f87613e83ab4","ios":"levelo://app?vid=7ffed35d-8441-4694-a2e0-f87613e83ab4"},"vehicle_type_id":"4","last_reported":1738681793,"current_range_meters":19600,"station_id":"ce4bhbp2rcd13ifvqerg","pricing_plan_id":"cebpf4jnsgd1na2vs0mg"},{"bike_id":"d83008f8-7777-4dc5-a56b-8434cb6a396f","system_id":"levelo_inurba_marseille","lat":43.28465,"lon":5.38588,"is_reserved":false,"is_disabled":false,"rental_uris":{"android":"levelo://app?vid=d83008f8-7777-4dc5-a56b-8434cb6a396f","ios":"levelo://app?vid=d83008f8-7777-4dc5-a56b-8434cb6a396f"},"vehicle_type_id":"4","last_reported":1738681793,"current_range_meters":27200,"station_id":"ce4bh8p2rcd13ifvqeb0","pricing_plan_id":"cebpf4jnsgd1na2vs0mg"},{"bike_id":"6ab0e05e-acd1-4543-bcb4-f77283a9315c","system_id":"levelo_inurba_marseille","lat":43.29006,"lon":5.35615,"is_reserved":false,"is_disabled":false,"rental_uris":{"android":"levelo://app?vid=6ab0e05e-acd1-4543-bcb4-f77283a9315c","ios":"levelo://app?vid=6ab0e05e-acd1-4543-bcb4-f77283a9315c"},"vehicle_type_id":"4","last_reported":1738681793,"current_range_meters":37600,"station_id":"ce4bhb92rcd13ifvqen0","pricing_plan_id":"cebpf4jnsgd1na2vs0mg"},{"bike_id":"6e7c1ac2-e791-43c7-8c36-9db37854d07d","system_id":"levelo_inurba_marseille","lat":43.28618,"lon":5.35091,"is_reserved":false,"is_disabled":true,"rental_uris":{"android":"levelo://app?vid=6e7c1ac2-e791-43c7-8c36-9db37854d07d","ios":"levelo://app?vid=6e7c1ac2-e791-43c7-8c36-9db37854d07d"},"vehicle_type_id":"4","last_reported":1738681793,"current_range_meters":25600,"station_id":"ce4bhch2rcd13ifvqeug","pricing_plan_id":"cebpf4jnsgd1na2vs0mg"},{"bike_id":"dc7046c0-2c32-461f-9598-e9cad1a0e646","system_id":"levelo_inurba_marseille","lat":43.27055,"lon":5.40263,"is_reserved":false,"is_disabled":false,"rental_uris":{"android":"levelo://app?vid=dc7046c0-2c32-461f-9598-e9cad1a0e646","ios":"levelo://app?vid=dc7046c0-2c32-461f-9598-e9cad1a0e646"},"vehicle_type_id":"4","last_reported":1738681793,"current_range_meters":10000,"station_id":"ce4bhk92rcd13ifvqgc0","pricing_plan_id":"cebpf4jnsgd1na2vs0mg"},{"bike_id":"f3ecf09e-1100-4fb7-8665-2e98d84633ae","system_id":"levelo_inurba_marseille","lat":43.27372,"lon":5.36252,"is_reserved":false,"is_disabled":true,"rental_uris":{"android":"levelo://app?vid=f3ecf09e-1100-4fb7-8665-2e98d84633ae","ios":"levelo://app?vid=f3ecf09e-1100-4fb7-8665-2e98d84633ae"},"vehicle_type_id":"4","last_reported":1738681793,"current_range_meters":0,"station_id":"ce4bhbh2rcd13ifvqeo0","pricing_plan_id":"cebpf4jnsgd1na2vs0mg"},{"bike_id":"1418b524-1535-4478-a5d6-289886b7efa0","system_id":"levelo_inurba_marseille","lat":43.28162,"lon":5.42632,"is_reserved":false,"is_disabled":false,"rental_uris":{"android":"levelo://app?vid=1418b524-1535-4478-a5d6-289886b7efa0","ios":"levelo://app?vid=1418b524-1535-4478-a5d6-289886b7efa0"},"vehicle_type_id":"4","last_reported":1738681793,"current_range_meters":36400,"station_id":"ce4bhnh2rcd13ifvqgug","pricing_plan_id":"cebpf4jnsgd1na2vs0mg"},{"bike_id":"a2ccf754-a592-4f73-a022-7d84e605ee28","system_id":"levelo_inurba_marseille","lat":43.3043,"lon":5.39755,"is_reserved":false,"is_disabled":false,"rental_uris":{"android":"levelo://app?vid=a2ccf754-a592-4f73-a022-7d84e605ee28","ios":"levelo://app?vid=a2ccf754-a592-4f73-a022-7d84e605ee28"},"vehicle_type_id":"4","last_reported":1738681793,"current_range_meters":15200,"station_id":"ce4bh092rcd13ifvqd20","pricing_plan_id":"cebpf4jnsgd1na2vs0mg"},{"bike_id":"13a62a9a-4007-4d8e-91f6-eeded60d3cac","system_id":"levelo_inurba_marseille","lat":43.29923,"lon":5.36541,"is_reserved":false,"is_disabled":false,"rental_uris":{"android":"levelo://app?vid=13a62a9a-4007-4d8e-91f6-eeded60d3cac","ios":"levelo://app?vid=13a62a9a-4007-4d8e-91f6-eeded60d3cac"},"vehicle_type_id":"4","last_reported":1738681793,"current_range_meters":24800,"station_id":"ce4bgm92rcd13ifvqbr0","pricing_plan_id":"cebpf4jnsgd1na2vs0mg"},{"bike_id":"e300a7ef-aeec-44cc-9e84-6205338a2cf8","system_id":"levelo_inurba_marseille","lat":43.30284,"lon":5.37689,"is_reserved":false,"is_disabled":false,"rental_uris":{"android":"levelo://app?vid=e300a7ef-aeec-44cc-9e84-6205338a2cf8","ios":"levelo://app?vid=e300a7ef-aeec-44cc-9e84-6205338a2cf8"},"vehicle_type_id":"4","last_reported":1738681793,"current_range_meters":37600,"station_id":"ce4bguh2rcd13ifvqcj0","pricing_plan_id":"cebpf4jnsgd1na2vs0mg"},{"bike_id":"f8a64017-c9fd-4970-b9ef-56d8f996ff24","system_id":"levelo_inurba_marseille","lat":43.29591,"lon":5.37698,"is_reserved":false,"is_disabled":false,"rental_uris":{"android":"levelo://app?vid=f8a64017-c9fd-4970-b9ef-56d8f996ff24","ios":"levelo://app?vid=f8a64017-c9fd-4970-b9ef-56d8f996ff24"},"vehicle_type_id":"4","last_reported":1738681793,"current_range_meters":38400,"station_id":"ce4bgi92rcd13ifvqb90","pricing_plan_id":"cebpf4jnsgd1na2vs0mg"},{"bike_id":"b865dc42-6caf-409a-ae8a-03708b612fe9","system_id":"levelo_inurba_marseille","lat":43.31755,"lon":5.39019,"is_reserved":false,"is_disabled":false,"rental_uris":{"android":"levelo://app?vid=b865dc42-6caf-409a-ae8a-03708b612fe9","ios":"levelo://app?vid=b865dc42-6caf-409a-ae8a-03708b612fe9"},"vehicle_type_id":"4","last_reported":1738681793,"current_range_meters":14400,"station_id":"ce4bhqp2rcd13ifvqhng","pricing_plan_id":"cebpf4jnsgd1na2vs0mg"},{"bike_id":"34349709-e347-47f8-89a5-81ced6488603","system_id":"levelo_inurba_marseille","lat":43.26488,"lon":5.39539,"is_reserved":false,"is_disabled":false,"rental_uris":{"android":"levelo://app?vid=34349709-e347-47f8-89a5-81ced6488603","ios":"levelo://app?vid=34349709-e347-47f8-89a5-81ced6488603"},"vehicle_type_id":"4","last_reported":1738681793,"current_range_meters":37600,"station_id":"ce4bhi12rcd13ifvqfq0","pricing_plan_id":"cebpf4jnsgd1na2vs0mg"},{"bike_id":"91d68664-789f-4fee-a0ce-6243151d200f","system_id":"levelo_inurba_marseille","lat":43.29007,"lon":5.35618,"is_reserved":false,"is_disabled":false,"rental_uris":{"android":"levelo://app?vid=91d68664-789f-4fee-a0ce-6243151d200f","ios":"levelo://app?vid=91d68664-789f-4fee-a0ce-6243151d200f"},"vehicle_type_id":"4","last_reported":1738681793,"current_range_meters":16000,"station_id":"ce4bhb92rcd13ifvqen0","pricing_plan_id":"cebpf4jnsgd1na2vs0mg"},{"bike_id":"84930d9e-231a-463e-92dd-1c4e62ad1ccb","system_id":"levelo_inurba_marseille","lat":43.2994,"lon":5.39577,"is_reserved":false,"is_disabled":false,"rental_uris":{"android":"levelo://app?vid=84930d9e-231a-463e-92dd-1c4e62ad1ccb","ios":"levelo://app?vid=84930d9e-231a-463e-92dd-1c4e62ad1ccb"},"vehicle_type_id":"4","last_reported":1738681793,"current_range_meters":32400,"station_id":"ce4bh312rcd13ifvqdk0","pricing_plan_id":"cebpf4jnsgd1na2vs0mg"},{"bike_id":"c4f2303f-f4be-479d-9c18-55e5c41c740f","system_id":"levelo_inurba_marseille","lat":43.265509,"lon":5.372814,"is_reserved":false,"is_disabled":true,"rental_uris":{"android":"levelo://app?vid=c4f2303f-f4be-479d-9c18-55e5c41c740f","ios":"levelo://app?vid=c4f2303f-f4be-479d-9c18-55e5c41c740f"},"vehicle_type_id":"4","last_reported":1738681793,"current_range_meters":1600,"station_id":"ce4bhg12rcd13ifvqf70","pricing_plan_id":"cebpf4jnsgd1na2vs0mg"},{"bike_id":"98ec0ace-08d0-4a51-b64d-beabb73d3091","system_id":"levelo_inurba_marseille","lat":43.29638,"lon":5.37138,"is_reserved":false,"is_disabled":false,"rental_uris":{"android":"levelo://app?vid=98ec0ace-08d0-4a51-b64d-beabb73d3091","ios":"levelo://app?vid=98ec0ace-08d0-4a51-b64d-beabb73d3091"},"vehicle_type_id":"4","last_reported":1738681793,"current_range_meters":27200,"station_id":"ce4bgnh2rcd13ifvqc0g","pricing_plan_id":"cebpf4jnsgd1na2vs0mg"},{"bike_id":"9cc616a3-5aed-41c3-9d36-b49d97fa716f","system_id":"levelo_inurba_marseille","lat":43.27216,"lon":5.39173,"is_reserved":false,"is_disabled":false,"rental_uris":{"android":"levelo://app?vid=9cc616a3-5aed-41c3-9d36-b49d97fa716f","ios":"levelo://app?vid=9cc616a3-5aed-41c3-9d36-b49d97fa716f"},"vehicle_type_id":"4","last_reported":1738681793,"current_range_meters":20400,"station_id":"ce4bhhp2rcd13ifvqfm0","pricing_plan_id":"cebpf4jnsgd1na2vs0mg"},{"bike_id":"b1ec94f9-d00d-4cc4-b285-5cd3debf5407","system_id":"levelo_inurba_marseille","lat":43.26784,"lon":5.39427,"is_reserved":false,"is_disabled":false,"rental_uris":{"android":"levelo://app?vid=b1ec94f9-d00d-4cc4-b285-5cd3debf5407","ios":"levelo://app?vid=b1ec94f9-d00d-4cc4-b285-5cd3debf5407"},"vehicle_type_id":"4","last_reported":1738681793,"current_range_meters":18800,"station_id":"ce4bhh12rcd13ifvqfg0","pricing_plan_id":"cebpf4jnsgd1na2vs0mg"},{"bike_id":"d017a21b-7b58-4514-bf06-3b19fe96541c","system_id":"levelo_inurba_marseille","lat":43.28275,"lon":5.3508,"is_reserved":false,"is_disabled":false,"rental_uris":{"android":"levelo://app?vid=d017a21b-7b58-4514-bf06-3b19fe96541c","ios":"levelo://app?vid=d017a21b-7b58-4514-bf06-3b19fe96541c"},"vehicle_type_id":"4","last_reported":1738681793,"current_range_meters":38400,"station_id":"ce4bhbp2rcd13ifvqerg","pricing_plan_id":"cebpf4jnsgd1na2vs0mg"},{"bike_id":"48457462-e2e5-4b0c-9657-da77fe2191e8","system_id":"levelo_inurba_marseille","lat":43.30563,"lon":5.36536,"is_reserved":false,"is_disabled":false,"rental_uris":{"android":"levelo://app?vid=48457462-e2e5-4b0c-9657-da77fe2191e8","ios":"levelo://app?vid=48457462-e2e5-4b0c-9657-da77fe2191e8"},"vehicle_type_id":"4","last_reported":1738681793,"current_range_meters":24400,"station_id":"ce4bgs12rcd13ifvqcag","pricing_plan_id":"cebpf4jnsgd1na2vs0mg"},{"bike_id":"a9ee38d0-21e8-4d99-8e3f-cc643e32473e","system_id":"levelo_inurba_marseille","lat":43.27809,"lon":5.40715,"is_reserved":false,"is_disabled":false,"rental_uris":{"android":"levelo://app?vid=a9ee38d0-21e8-4d99-8e3f-cc643e32473e","ios":"levelo://app?vid=a9ee38d0-21e8-4d99-8e3f-cc643e32473e"},"vehicle_type_id":"4","last_reported":1738681793,"current_range_meters":38800,"station_id":"ce4bhnh2rcd13ifvqgtg","pricing_plan_id":"cebpf4jnsgd1na2vs0mg"},{"bike_id":"630dd466-e4dd-4ada-8a39-01e92abf0818","system_id":"levelo_inurba_marseille","lat":43.26212,"lon":5.37442,"is_reserved":false,"is_disabled":false,"rental_uris":{"android":"levelo://app?vid=630dd466-e4dd-4ada-8a39-01e92abf0818","ios":"levelo://app?vid=630dd466-e4dd-4ada-8a39-01e92abf0818"},"vehicle_type_id":"4","last_reported":1738681793,"current_range_meters":33600,"station_id":"ce4bhgp2rcd13ifvqfc0","pricing_plan_id":"cebpf4jnsgd1na2vs0mg"},{"bike_id":"c41e68c9-f952-4b43-accc-6c5b7fd80ff8","system_id":"levelo_inurba_marseille","lat":43.29526,"lon":5.39015,"is_reserved":false,"is_disabled":false,"rental_uris":{"android":"levelo://app?vid=c41e68c9-f952-4b43-accc-6c5b7fd80ff8","ios":"levelo://app?vid=c41e68c9-f952-4b43-accc-6c5b7fd80ff8"},"vehicle_type_id":"4","last_reported":1738681793,"current_range_meters":35600,"station_id":"ce4bh3p2rcd13ifvqdp0","pricing_plan_id":"cebpf4jnsgd1na2vs0mg"},{"bike_id":"ff10675e-deed-46ee-970b-81ce71aa022b","system_id":"levelo_inurba_marseille","lat":43.290773,"lon":5.371663,"is_reserved":false,"is_disabled":false,"rental_uris":{"android":"levelo://app?vid=ff10675e-deed-46ee-970b-81ce71aa022b","ios":"levelo://app?vid=ff10675e-deed-46ee-970b-81ce71aa022b"},"vehicle_type_id":"4","last_reported":1738681793,"current_range_meters":32400,"station_id":"ce4bh5p2rcd13ifvqe4g","pricing_plan_id":"cebpf4jnsgd1na2vs0mg"},{"bike_id":"3034d64e-f78e-468c-b4d6-2520a053438f","system_id":"levelo_inurba_marseille","lat":43.23187,"lon":5.39999,"is_reserved":false,"is_disabled":false,"rental_uris":{"android":"levelo://app?vid=3034d64e-f78e-468c-b4d6-2520a053438f","ios":"levelo://app?vid=3034d64e-f78e-468c-b4d6-2520a053438f"},"vehicle_type_id":"4","last_reported":1738681793,"current_range_meters":38800,"station_id":"ce4bhn12rcd13ifvqgqg","pricing_plan_id":"cebpf4jnsgd1na2vs0mg"},{"bike_id":"146f24d8-73c8-471d-85b2-d3baa3971eeb","system_id":"levelo_inurba_marseille","lat":43.29958,"lon":5.36555,"is_reserved":false,"is_disabled":false,"rental_uris":{"android":"levelo://app?vid=146f24d8-73c8-471d-85b2-d3baa3971eeb","ios":"levelo://app?vid=146f24d8-73c8-471d-85b2-d3baa3971eeb"},"vehicle_type_id":"4","last_reported":1738681793,"current_range_meters":35600,"station_id":"ce4bgm92rcd13ifvqbr0","pricing_plan_id":"cebpf4jnsgd1na2vs0mg"},{"bike_id":"21c41673-7155-4500-b98b-3c2126c4fe9a","system_id":"levelo_inurba_marseille","lat":43.29727,"lon":5.3769,"is_reserved":false,"is_disabled":false,"rental_uris":{"android":"levelo://app?vid=21c41673-7155-4500-b98b-3c2126c4fe9a","ios":"levelo://app?vid=21c41673-7155-4500-b98b-3c2126c4fe9a"},"vehicle_type_id":"4","last_reported":1738681793,"current_range_meters":37600,"station_id":"ce4bgkh2rcd13ifvqbl0","pricing_plan_id":"cebpf4jnsgd1na2vs0mg"},{"bike_id":"343ee9fa-65bc-44d7-b41c-f81f2cce2b1a","system_id":"levelo_inurba_marseille","lat":43.231508,"lon":5.437115,"is_reserved":false,"is_disabled":false,"rental_uris":{"android":"levelo://app?vid=343ee9fa-65bc-44d7-b41c-f81f2cce2b1a","ios":"levelo://app?vid=343ee9fa-65bc-44d7-b41c-f81f2cce2b1a"},"vehicle_type_id":"4","last_reported":1738681793,"current_range_meters":24000,"station_id":"ce4bhmp2rcd13ifvqgog","pricing_plan_id":"cebpf4jnsgd1na2vs0mg"},{"bike_id":"9a1840a0-4047-480d-9cb3-1cc84618d4ad","system_id":"levelo_inurba_marseille","lat":43.29035,"lon":5.39953,"is_reserved":false,"is_disabled":false,"rental_uris":{"android":"levelo://app?vid=9a1840a0-4047-480d-9cb3-1cc84618d4ad","ios":"levelo://app?vid=9a1840a0-4047-480d-9cb3-1cc84618d4ad"},"vehicle_type_id":"4","last_reported":1738681793,"current_range_meters":8000,"station_id":"ce4bh392rcd13ifvqdm0","pricing_plan_id":"cebpf4jnsgd1na2vs0mg"},{"bike_id":"7f87d5fc-9445-41df-bd3e-5287cb6adb70","system_id":"levelo_inurba_marseille","lat":43.2681,"lon":5.40252,"is_reserved":false,"is_disabled":false,"rental_uris":{"android":"levelo://app?vid=7f87d5fc-9445-41df-bd3e-5287cb6adb70","ios":"levelo://app?vid=7f87d5fc-9445-41df-bd3e-5287cb6adb70"},"vehicle_type_id":"4","last_reported":1738681793,"current_range_meters":9600,"station_id":"ce501612rcd8frsf0b60","pricing_plan_id":"cebpf4jnsgd1na2vs0mg"},{"bike_id":"736662b5-df9e-486c-8b58-968876c3a26c","system_id":"levelo_inurba_marseille","lat":43.27998,"lon":5.40006,"is_reserved":false,"is_disabled":false,"rental_uris":{"android":"levelo://app?vid=736662b5-df9e-486c-8b58-968876c3a26c","ios":"levelo://app?vid=736662b5-df9e-486c-8b58-968876c3a26c"},"vehicle_type_id":"4","last_reported":1738681793,"current_range_meters":20000,"station_id":"ce4bho92rcd13ifvqh4g","pricing_plan_id":"cebpf4jnsgd1na2vs0mg"},{"bike_id":"e214cb68-bd90-4283-80e9-951f93a1751c","system_id":"levelo_inurba_marseille","lat":43.32393,"lon":5.40581,"is_reserved":false,"is_disabled":false,"rental_uris":{"android":"levelo://app?vid=e214cb68-bd90-4283-80e9-951f93a1751c","ios":"levelo://app?vid=e214cb68-bd90-4283-80e9-951f93a1751c"},"vehicle_type_id":"4","last_reported":1738681793,"current_range_meters":38800,"station_id":"ce4bhq92rcd13ifvqhjg","pricing_plan_id":"cebpf4jnsgd1na2vs0mg"},{"bike_id":"649599e3-9252-4d00-ad77-a8ea70e06ee9","system_id":"levelo_inurba_marseille","lat":43.29259,"lon":5.3603,"is_reserved":false,"is_disabled":false,"rental_uris":{"android":"levelo://app?vid=649599e3-9252-4d00-ad77-a8ea70e06ee9","ios":"levelo://app?vid=649599e3-9252-4d00-ad77-a8ea70e06ee9"},"vehicle_type_id":"4","last_reported":1738681793,"current_range_meters":36800,"station_id":"ce4bhbh2rcd13ifvqeqg","pricing_plan_id":"cebpf4jnsgd1na2vs0mg"},{"bike_id":"a7dc0848-081a-4438-bce6-7e161a91f066","system_id":"levelo_inurba_marseille","lat":43.28144,"lon":5.42637,"is_reserved":false,"is_disabled":false,"rental_uris":{"android":"levelo://app?vid=a7dc0848-081a-4438-bce6-7e161a91f066","ios":"levelo://app?vid=a7dc0848-081a-4438-bce6-7e161a91f066"},"vehicle_type_id":"4","last_reported":1738681793,"current_range_meters":34000,"station_id":"ce4bhnh2rcd13ifvqgug","pricing_plan_id":"cebpf4jnsgd1na2vs0mg"},{"bike_id":"00d579fe-98ba-418f-8151-64cd908f4803","system_id":"levelo_inurba_marseille","lat":43.287197,"lon":5.373796,"is_reserved":false,"is_disabled":false,"rental_uris":{"android":"levelo://app?vid=00d579fe-98ba-418f-8151-64cd908f4803","ios":"levelo://app?vid=00d579fe-98ba-418f-8151-64cd908f4803"},"vehicle_type_id":"4","last_reported":1738681793,"current_range_meters":32400,"station_id":"ce4bh3p2rcd13ifvqdq0","pricing_plan_id":"cebpf4jnsgd1na2vs0mg"},{"bike_id":"efb4e0c5-012a-40d5-b751-7a0e28f587ae","system_id":"levelo_inurba_marseille","lat":43.28271,"lon":5.35075,"is_reserved":false,"is_disabled":false,"rental_uris":{"android":"levelo://app?vid=efb4e0c5-012a-40d5-b751-7a0e28f587ae","ios":"levelo://app?vid=efb4e0c5-012a-40d5-b751-7a0e28f587ae"},"vehicle_type_id":"4","last_reported":1738681793,"current_range_meters":7200,"station_id":"ce4bhbp2rcd13ifvqerg","pricing_plan_id":"cebpf4jnsgd1na2vs0mg"},{"bike_id":"2055a81d-8e5e-4bf5-b5e1-2fc40f396b7c","system_id":"levelo_inurba_marseille","lat":43.3054,"lon":5.38436,"is_reserved":false,"is_disabled":true,"rental_uris":{"android":"levelo://app?vid=2055a81d-8e5e-4bf5-b5e1-2fc40f396b7c","ios":"levelo://app?vid=2055a81d-8e5e-4bf5-b5e1-2fc40f396b7c"},"vehicle_type_id":"4","last_reported":1738681793,"current_range_meters":32400,"station_id":"ce4bgg92rcd13ifvqb30","pricing_plan_id":"cebpf4jnsgd1na2vs0mg"},{"bike_id":"4e115706-dda5-4286-b487-8f0777838c31","system_id":"levelo_inurba_marseille","lat":43.250791,"lon":5.395208,"is_reserved":false,"is_disabled":false,"rental_uris":{"android":"levelo://app?vid=4e115706-dda5-4286-b487-8f0777838c31","ios":"levelo://app?vid=4e115706-dda5-4286-b487-8f0777838c31"},"vehicle_type_id":"4","last_reported":1738681793,"current_range_meters":38000,"station_id":"ce4bhm12rcd13ifvqgkg","pricing_plan_id":"cebpf4jnsgd1na2vs0mg"},{"bike_id":"c8bd1d84-2291-473f-ab82-361f165fe1db","system_id":"levelo_inurba_marseille","lat":43.24165,"lon":5.36405,"is_reserved":false,"is_disabled":false,"rental_uris":{"android":"levelo://app?vid=c8bd1d84-2291-473f-ab82-361f165fe1db","ios":"levelo://app?vid=c8bd1d84-2291-473f-ab82-361f165fe1db"},"vehicle_type_id":"4","last_reported":1738681793,"current_range_meters":38000,"station_id":"cpo36qri1sfpv3e86is0","pricing_plan_id":"cebpf4jnsgd1na2vs0mg"},{"bike_id":"da05f112-ffb2-4f41-a3cb-99544f3f7f0e","system_id":"levelo_inurba_marseille","lat":43.3053,"lon":5.36718,"is_reserved":false,"is_disabled":false,"rental_uris":{"android":"levelo://app?vid=da05f112-ffb2-4f41-a3cb-99544f3f7f0e","ios":"levelo://app?vid=da05f112-ffb2-4f41-a3cb-99544f3f7f0e"},"vehicle_type_id":"4","last_reported":1738681793,"current_range_meters":33200,"station_id":"ce4bgrp2rcd13ifvqc9g","pricing_plan_id":"cebpf4jnsgd1na2vs0mg"},{"bike_id":"bb846df9-2969-480a-aed6-edbcf9c326fb","system_id":"levelo_inurba_marseille","lat":43.24812,"lon":5.37448,"is_reserved":false,"is_disabled":false,"rental_uris":{"android":"levelo://app?vid=bb846df9-2969-480a-aed6-edbcf9c326fb","ios":"levelo://app?vid=bb846df9-2969-480a-aed6-edbcf9c326fb"},"vehicle_type_id":"4","last_reported":1738681793,"current_range_meters":24800,"station_id":"ce4bhgh2rcd13ifvqfb0","pricing_plan_id":"cebpf4jnsgd1na2vs0mg"},{"bike_id":"f7b06ef1-8fe2-49dc-97bf-948e009e701e","system_id":"levelo_inurba_marseille","lat":43.29249,"lon":5.38438,"is_reserved":false,"is_disabled":true,"rental_uris":{"android":"levelo://app?vid=f7b06ef1-8fe2-49dc-97bf-948e009e701e","ios":"levelo://app?vid=f7b06ef1-8fe2-49dc-97bf-948e009e701e"},"vehicle_type_id":"4","last_reported":1738681793,"current_range_meters":12000,"station_id":"ce4bh692rcd13ifvqea0","pricing_plan_id":"cebpf4jnsgd1na2vs0mg"},{"bike_id":"cd07e062-2af1-406e-bcb9-5f1ec4730937","system_id":"levelo_inurba_marseille","lat":43.23063,"lon":5.35489,"is_reserved":false,"is_disabled":false,"rental_uris":{"android":"levelo://app?vid=cd07e062-2af1-406e-bcb9-5f1ec4730937","ios":"levelo://app?vid=cd07e062-2af1-406e-bcb9-5f1ec4730937"},"vehicle_type_id":"4","last_reported":1738681793,"current_range_meters":8800,"station_id":"cpo3342slgdg3j2ifvpg","pricing_plan_id":"cebpf4jnsgd1na2vs0mg"},{"bike_id":"c3644d12-8427-4602-9945-9ef42c46feca","system_id":"levelo_inurba_marseille","lat":43.24172,"lon":5.36398,"is_reserved":false,"is_disabled":false,"rental_uris":{"android":"levelo://app?vid=c3644d12-8427-4602-9945-9ef42c46feca","ios":"levelo://app?vid=c3644d12-8427-4602-9945-9ef42c46feca"},"vehicle_type_id":"4","last_reported":1738681793,"current_range_meters":14400,"station_id":"cpo36qri1sfpv3e86is0","pricing_plan_id":"cebpf4jnsgd1na2vs0mg"},{"bike_id":"f4e365eb-282c-48b7-b9e0-bf1ac06a8aab","system_id":"levelo_inurba_marseille","lat":43.29419,"lon":5.3862,"is_reserved":false,"is_disabled":false,"rental_uris":{"android":"levelo://app?vid=f4e365eb-282c-48b7-b9e0-bf1ac06a8aab","ios":"levelo://app?vid=f4e365eb-282c-48b7-b9e0-bf1ac06a8aab"},"vehicle_type_id":"4","last_reported":1738681793,"current_range_meters":24800,"station_id":"ce4bh2h2rcd13ifvqdh0","pricing_plan_id":"cebpf4jnsgd1na2vs0mg"},{"bike_id":"67e482eb-009a-42c3-ae12-d2c2c97085b3","system_id":"levelo_inurba_marseille","lat":43.29009,"lon":5.3561,"is_reserved":false,"is_disabled":false,"rental_uris":{"android":"levelo://app?vid=67e482eb-009a-42c3-ae12-d2c2c97085b3","ios":"levelo://app?vid=67e482eb-009a-42c3-ae12-d2c2c97085b3"},"vehicle_type_id":"4","last_reported":1738681793,"current_range_meters":12400,"station_id":"ce4bhb92rcd13ifvqen0","pricing_plan_id":"cebpf4jnsgd1na2vs0mg"},{"bike_id":"516f2549-79cf-4297-a0ad-3d3f06a71f80","system_id":"levelo_inurba_marseille","lat":43.31717,"lon":5.42403,"is_reserved":false,"is_disabled":true,"rental_uris":{"android":"levelo://app?vid=516f2549-79cf-4297-a0ad-3d3f06a71f80","ios":"levelo://app?vid=516f2549-79cf-4297-a0ad-3d3f06a71f80"},"vehicle_type_id":"4","last_reported":1738681793,"current_range_meters":2000,"station_id":"ce4bhp92rcd13ifvqhbg","pricing_plan_id":"cebpf4jnsgd1na2vs0mg"},{"bike_id":"751fac2e-ef11-4a23-92a3-eb0ddf16dfcd","system_id":"levelo_inurba_marseille","lat":43.28156,"lon":5.42655,"is_reserved":false,"is_disabled":false,"rental_uris":{"android":"levelo://app?vid=751fac2e-ef11-4a23-92a3-eb0ddf16dfcd","ios":"levelo://app?vid=751fac2e-ef11-4a23-92a3-eb0ddf16dfcd"},"vehicle_type_id":"4","last_reported":1738681793,"current_range_meters":13600,"station_id":"ce4bhnh2rcd13ifvqgug","pricing_plan_id":"cebpf4jnsgd1na2vs0mg"},{"bike_id":"a65871cf-c8fe-4442-9871-fe3d25897899","system_id":"levelo_inurba_marseille","lat":43.29617,"lon":5.37729,"is_reserved":false,"is_disabled":false,"rental_uris":{"android":"levelo://app?vid=a65871cf-c8fe-4442-9871-fe3d25897899","ios":"levelo://app?vid=a65871cf-c8fe-4442-9871-fe3d25897899"},"vehicle_type_id":"4","last_reported":1738681793,"current_range_meters":36000,"station_id":"ce4bgi92rcd13ifvqb90","pricing_plan_id":"cebpf4jnsgd1na2vs0mg"},{"bike_id":"0d40b9e8-eb55-47c3-9d5a-af935eccdbec","system_id":"levelo_inurba_marseille","lat":43.29833,"lon":5.36267,"is_reserved":false,"is_disabled":false,"rental_uris":{"android":"levelo://app?vid=0d40b9e8-eb55-47c3-9d5a-af935eccdbec","ios":"levelo://app?vid=0d40b9e8-eb55-47c3-9d5a-af935eccdbec"},"vehicle_type_id":"4","last_reported":1738681793,"current_range_meters":38800,"station_id":"ce4bgpp2rcd13ifvqc3g","pricing_plan_id":"cebpf4jnsgd1na2vs0mg"},{"bike_id":"45a7daa2-2a2e-4454-90c3-1009aaecc5bd","system_id":"levelo_inurba_marseille","lat":43.231942,"lon":5.355477,"is_reserved":false,"is_disabled":false,"rental_uris":{"android":"levelo://app?vid=45a7daa2-2a2e-4454-90c3-1009aaecc5bd","ios":"levelo://app?vid=45a7daa2-2a2e-4454-90c3-1009aaecc5bd"},"vehicle_type_id":"4","last_reported":1738681793,"current_range_meters":8400,"station_id":"ce4bhu92rcd13ifvqi70","pricing_plan_id":"cebpf4jnsgd1na2vs0mg"},{"bike_id":"3022d964-2ce8-480e-a7b4-4db2285b929c","system_id":"levelo_inurba_marseille","lat":43.27993,"lon":5.4166,"is_reserved":false,"is_disabled":false,"rental_uris":{"android":"levelo://app?vid=3022d964-2ce8-480e-a7b4-4db2285b929c","ios":"levelo://app?vid=3022d964-2ce8-480e-a7b4-4db2285b929c"},"vehicle_type_id":"4","last_reported":1738681793,"current_range_meters":20800,"station_id":"ce4bho12rcd13ifvqh1g","pricing_plan_id":"cebpf4jnsgd1na2vs0mg"},{"bike_id":"6639382a-5af0-4d4b-8a6d-5a947983b0fa","system_id":"levelo_inurba_marseille","lat":43.30649,"lon":5.40099,"is_reserved":false,"is_disabled":false,"rental_uris":{"android":"levelo://app?vid=6639382a-5af0-4d4b-8a6d-5a947983b0fa","ios":"levelo://app?vid=6639382a-5af0-4d4b-8a6d-5a947983b0fa"},"vehicle_type_id":"4","last_reported":1738681793,"current_range_meters":38800,"station_id":"ce4bh112rcd13ifvqda0","pricing_plan_id":"cebpf4jnsgd1na2vs0mg"},{"bike_id":"fe4aa449-fe0a-464a-bd5b-c918902084d3","system_id":"levelo_inurba_marseille","lat":43.29418,"lon":5.38627,"is_reserved":false,"is_disabled":false,"rental_uris":{"android":"levelo://app?vid=fe4aa449-fe0a-464a-bd5b-c918902084d3","ios":"levelo://app?vid=fe4aa449-fe0a-464a-bd5b-c918902084d3"},"vehicle_type_id":"4","last_reported":1738681793,"current_range_meters":38000,"station_id":"ce4bh2h2rcd13ifvqdh0","pricing_plan_id":"cebpf4jnsgd1na2vs0mg"},{"bike_id":"e0ca4678-7709-425b-b822-ff3f2ef8e6b4","system_id":"levelo_inurba_marseille","lat":43.30552,"lon":5.36538,"is_reserved":false,"is_disabled":false,"rental_uris":{"android":"levelo://app?vid=e0ca4678-7709-425b-b822-ff3f2ef8e6b4","ios":"levelo://app?vid=e0ca4678-7709-425b-b822-ff3f2ef8e6b4"},"vehicle_type_id":"4","last_reported":1738681793,"current_range_meters":17200,"station_id":"ce4bgs12rcd13ifvqcag","pricing_plan_id":"cebpf4jnsgd1na2vs0mg"},{"bike_id":"35798297-b936-47d1-8a98-bfdb50e14c75","system_id":"levelo_inurba_marseille","lat":43.32057,"lon":5.4332,"is_reserved":false,"is_disabled":true,"rental_uris":{"android":"levelo://app?vid=35798297-b936-47d1-8a98-bfdb50e14c75","ios":"levelo://app?vid=35798297-b936-47d1-8a98-bfdb50e14c75"},"vehicle_type_id":"4","last_reported":1738681793,"current_range_meters":37600,"station_id":"","pricing_plan_id":"cebpf4jnsgd1na2vs0mg"},{"bike_id":"ea5d774f-7eab-4828-a560-1535ca043c02","system_id":"levelo_inurba_marseille","lat":43.28423,"lon":5.34984,"is_reserved":false,"is_disabled":true,"rental_uris":{"android":"levelo://app?vid=ea5d774f-7eab-4828-a560-1535ca043c02","ios":"levelo://app?vid=ea5d774f-7eab-4828-a560-1535ca043c02"},"vehicle_type_id":"4","last_reported":1738681793,"current_range_meters":2000,"station_id":"ce4bhbh2rcd13ifvqepg","pricing_plan_id":"cebpf4jnsgd1na2vs0mg"},{"bike_id":"e6dc612f-7f56-4634-8aac-2cfefb7b3910","system_id":"levelo_inurba_marseille","lat":43.28288,"lon":5.35083,"is_reserved":false,"is_disabled":true,"rental_uris":{"android":"levelo://app?vid=e6dc612f-7f56-4634-8aac-2cfefb7b3910","ios":"levelo://app?vid=e6dc612f-7f56-4634-8aac-2cfefb7b3910"},"vehicle_type_id":"4","last_reported":1738681793,"current_range_meters":31200,"station_id":"ce4bhbp2rcd13ifvqerg","pricing_plan_id":"cebpf4jnsgd1na2vs0mg"},{"bike_id":"28f8a7f5-18be-410d-ba36-c7b54e69eef0","system_id":"levelo_inurba_marseille","lat":43.30564,"lon":5.36542,"is_reserved":false,"is_disabled":false,"rental_uris":{"android":"levelo://app?vid=28f8a7f5-18be-410d-ba36-c7b54e69eef0","ios":"levelo://app?vid=28f8a7f5-18be-410d-ba36-c7b54e69eef0"},"vehicle_type_id":"4","last_reported":1738681793,"current_range_meters":11200,"station_id":"ce4bgs12rcd13ifvqcag","pricing_plan_id":"cebpf4jnsgd1na2vs0mg"},{"bike_id":"ee13c032-0e42-4f91-a465-49bdd34c58f2","system_id":"levelo_inurba_marseille","lat":43.27931,"lon":5.38716,"is_reserved":false,"is_disabled":true,"rental_uris":{"android":"levelo://app?vid=ee13c032-0e42-4f91-a465-49bdd34c58f2","ios":"levelo://app?vid=ee13c032-0e42-4f91-a465-49bdd34c58f2"},"vehicle_type_id":"4","last_reported":1738681793,"current_range_meters":1200,"station_id":"","pricing_plan_id":"cebpf4jnsgd1na2vs0mg"},{"bike_id":"637c3436-3246-4528-a804-501c70d08596","system_id":"levelo_inurba_marseille","lat":43.29526,"lon":5.3905,"is_reserved":false,"is_disabled":false,"rental_uris":{"android":"levelo://app?vid=637c3436-3246-4528-a804-501c70d08596","ios":"levelo://app?vid=637c3436-3246-4528-a804-501c70d08596"},"vehicle_type_id":"4","last_reported":1738681793,"current_range_meters":17600,"station_id":"ce4bh3p2rcd13ifvqdp0","pricing_plan_id":"cebpf4jnsgd1na2vs0mg"},{"bike_id":"ae14429a-f4ea-4b32-930e-11b78348d0f8","system_id":"levelo_inurba_marseille","lat":43.27823,"lon":5.39209,"is_reserved":false,"is_disabled":false,"rental_uris":{"android":"levelo://app?vid=ae14429a-f4ea-4b32-930e-11b78348d0f8","ios":"levelo://app?vid=ae14429a-f4ea-4b32-930e-11b78348d0f8"},"vehicle_type_id":"4","last_reported":1738681793,"current_range_meters":26800,"station_id":"ce4bhjp2rcd13ifvqga0","pricing_plan_id":"cebpf4jnsgd1na2vs0mg"},{"bike_id":"6bb18b6b-35db-4080-8375-2a2e83c6fc4b","system_id":"levelo_inurba_marseille","lat":43.23167,"lon":5.43691,"is_reserved":false,"is_disabled":true,"rental_uris":{"android":"levelo://app?vid=6bb18b6b-35db-4080-8375-2a2e83c6fc4b","ios":"levelo://app?vid=6bb18b6b-35db-4080-8375-2a2e83c6fc4b"},"vehicle_type_id":"4","last_reported":1738681793,"current_range_meters":39200,"station_id":"ce4bhmp2rcd13ifvqgog","pricing_plan_id":"cebpf4jnsgd1na2vs0mg"},{"bike_id":"787b7837-f258-4886-bbf5-841ee39c0166","system_id":"levelo_inurba_marseille","lat":43.28272,"lon":5.35068,"is_reserved":false,"is_disabled":true,"rental_uris":{"android":"levelo://app?vid=787b7837-f258-4886-bbf5-841ee39c0166","ios":"levelo://app?vid=787b7837-f258-4886-bbf5-841ee39c0166"},"vehicle_type_id":"4","last_reported":1738681793,"current_range_meters":36800,"station_id":"ce4bhbp2rcd13ifvqerg","pricing_plan_id":"cebpf4jnsgd1na2vs0mg"},{"bike_id":"35e9be92-813b-4a24-804a-34341a2b466d","system_id":"levelo_inurba_marseille","lat":43.26486,"lon":5.3954,"is_reserved":false,"is_disabled":false,"rental_uris":{"android":"levelo://app?vid=35e9be92-813b-4a24-804a-34341a2b466d","ios":"levelo://app?vid=35e9be92-813b-4a24-804a-34341a2b466d"},"vehicle_type_id":"4","last_reported":1738681793,"current_range_meters":38800,"station_id":"ce4bhi12rcd13ifvqfq0","pricing_plan_id":"cebpf4jnsgd1na2vs0mg"},{"bike_id":"5190ba6f-2749-4613-a2cd-19528d0dd8b5","system_id":"levelo_inurba_marseille","lat":43.29749,"lon":5.37697,"is_reserved":false,"is_disabled":false,"rental_uris":{"android":"levelo://app?vid=5190ba6f-2749-4613-a2cd-19528d0dd8b5","ios":"levelo://app?vid=5190ba6f-2749-4613-a2cd-19528d0dd8b5"},"vehicle_type_id":"4","last_reported":1738681793,"current_range_meters":30400,"station_id":"ce4bgkh2rcd13ifvqbl0","pricing_plan_id":"cebpf4jnsgd1na2vs0mg"},{"bike_id":"da4f313c-dbb6-44a9-a1a3-335db032513c","system_id":"levelo_inurba_marseille","lat":43.27548,"lon":5.38424,"is_reserved":false,"is_disabled":false,"rental_uris":{"android":"levelo://app?vid=da4f313c-dbb6-44a9-a1a3-335db032513c","ios":"levelo://app?vid=da4f313c-dbb6-44a9-a1a3-335db032513c"},"vehicle_type_id":"4","last_reported":1738681793,"current_range_meters":36000,"station_id":"ce4bhh92rcd13ifvqfi0","pricing_plan_id":"cebpf4jnsgd1na2vs0mg"},{"bike_id":"6f5a1112-5cfe-4ef0-a162-b9d7e241b871","system_id":"levelo_inurba_marseille","lat":43.30532,"lon":5.36696,"is_reserved":false,"is_disabled":false,"rental_uris":{"android":"levelo://app?vid=6f5a1112-5cfe-4ef0-a162-b9d7e241b871","ios":"levelo://app?vid=6f5a1112-5cfe-4ef0-a162-b9d7e241b871"},"vehicle_type_id":"4","last_reported":1738681793,"current_range_meters":37600,"station_id":"ce4bgrp2rcd13ifvqc9g","pricing_plan_id":"cebpf4jnsgd1na2vs0mg"},{"bike_id":"7abb2d48-2f13-4d6d-991f-410034d4efbb","system_id":"levelo_inurba_marseille","lat":43.30305,"lon":5.37694,"is_reserved":false,"is_disabled":false,"rental_uris":{"android":"levelo://app?vid=7abb2d48-2f13-4d6d-991f-410034d4efbb","ios":"levelo://app?vid=7abb2d48-2f13-4d6d-991f-410034d4efbb"},"vehicle_type_id":"4","last_reported":1738681793,"current_range_meters":33200,"station_id":"ce4bguh2rcd13ifvqcj0","pricing_plan_id":"cebpf4jnsgd1na2vs0mg"},{"bike_id":"e4b1da19-8963-4568-8dbd-39a0afdc3c21","system_id":"levelo_inurba_marseille","lat":43.29282,"lon":5.36847,"is_reserved":false,"is_disabled":false,"rental_uris":{"android":"levelo://app?vid=e4b1da19-8963-4568-8dbd-39a0afdc3c21","ios":"levelo://app?vid=e4b1da19-8963-4568-8dbd-39a0afdc3c21"},"vehicle_type_id":"4","last_reported":1738681793,"current_range_meters":3600,"station_id":"ce4bhbp2rcd13ifvqesg","pricing_plan_id":"cebpf4jnsgd1na2vs0mg"},{"bike_id":"eac8e106-76e0-4f1b-81af-4eaefecd2501","system_id":"levelo_inurba_marseille","lat":43.2504,"lon":5.38896,"is_reserved":false,"is_disabled":false,"rental_uris":{"android":"levelo://app?vid=eac8e106-76e0-4f1b-81af-4eaefecd2501","ios":"levelo://app?vid=eac8e106-76e0-4f1b-81af-4eaefecd2501"},"vehicle_type_id":"4","last_reported":1738681793,"current_range_meters":16000,"station_id":"ce4bhgp2rcd13ifvqfd0","pricing_plan_id":"cebpf4jnsgd1na2vs0mg"},{"bike_id":"48b30166-81fc-48db-b0ae-6c8f23022d16","system_id":"levelo_inurba_marseille","lat":43.28926,"lon":5.38407,"is_reserved":false,"is_disabled":false,"rental_uris":{"android":"levelo://app?vid=48b30166-81fc-48db-b0ae-6c8f23022d16","ios":"levelo://app?vid=48b30166-81fc-48db-b0ae-6c8f23022d16"},"vehicle_type_id":"4","last_reported":1738681793,"current_range_meters":28800,"station_id":"ce4bh612rcd13ifvqe6g","pricing_plan_id":"cebpf4jnsgd1na2vs0mg"},{"bike_id":"8d91fde0-b83c-4d6e-9962-b1ee2bede1ad","system_id":"levelo_inurba_marseille","lat":43.28837,"lon":5.35863,"is_reserved":false,"is_disabled":false,"rental_uris":{"android":"levelo://app?vid=8d91fde0-b83c-4d6e-9962-b1ee2bede1ad","ios":"levelo://app?vid=8d91fde0-b83c-4d6e-9962-b1ee2bede1ad"},"vehicle_type_id":"4","last_reported":1738681793,"current_range_meters":37600,"station_id":"ce4bhb12rcd13ifvqem0","pricing_plan_id":"cebpf4jnsgd1na2vs0mg"},{"bike_id":"61ceb31b-03f6-4213-9b34-0374ee45b479","system_id":"levelo_inurba_marseille","lat":43.32117,"lon":5.36764,"is_reserved":false,"is_disabled":false,"rental_uris":{"android":"levelo://app?vid=61ceb31b-03f6-4213-9b34-0374ee45b479","ios":"levelo://app?vid=61ceb31b-03f6-4213-9b34-0374ee45b479"},"vehicle_type_id":"4","last_reported":1738681793,"current_range_meters":24800,"station_id":"ce4bhrh2rcd13ifvqhug","pricing_plan_id":"cebpf4jnsgd1na2vs0mg"},{"bike_id":"5bc6287f-5ed6-4b7e-a064-4a574b583e66","system_id":"levelo_inurba_marseille","lat":43.30172,"lon":5.37396,"is_reserved":false,"is_disabled":false,"rental_uris":{"android":"levelo://app?vid=5bc6287f-5ed6-4b7e-a064-4a574b583e66","ios":"levelo://app?vid=5bc6287f-5ed6-4b7e-a064-4a574b583e66"},"vehicle_type_id":"4","last_reported":1738681793,"current_range_meters":26800,"station_id":"ce4bgs92rcd13ifvqcc0","pricing_plan_id":"cebpf4jnsgd1na2vs0mg"},{"bike_id":"267048d3-41a9-47e1-a8db-3d84f8cb2f7c","system_id":"levelo_inurba_marseille","lat":43.29529,"lon":5.39026,"is_reserved":false,"is_disabled":false,"rental_uris":{"android":"levelo://app?vid=267048d3-41a9-47e1-a8db-3d84f8cb2f7c","ios":"levelo://app?vid=267048d3-41a9-47e1-a8db-3d84f8cb2f7c"},"vehicle_type_id":"4","last_reported":1738681793,"current_range_meters":38800,"station_id":"ce4bh3p2rcd13ifvqdp0","pricing_plan_id":"cebpf4jnsgd1na2vs0mg"},{"bike_id":"c322498b-971c-4774-a775-9df1558e42d2","system_id":"levelo_inurba_marseille","lat":43.2936,"lon":5.37823,"is_reserved":false,"is_disabled":true,"rental_uris":{"android":"levelo://app?vid=c322498b-971c-4774-a775-9df1558e42d2","ios":"levelo://app?vid=c322498b-971c-4774-a775-9df1558e42d2"},"vehicle_type_id":"4","last_reported":1738681793,"current_range_meters":30000,"station_id":"ce4bgjh2rcd13ifvqbf0","pricing_plan_id":"cebpf4jnsgd1na2vs0mg"},{"bike_id":"89a5a146-4a67-49f1-bd86-c4be538f3e49","system_id":"levelo_inurba_marseille","lat":43.28985,"lon":5.37833,"is_reserved":false,"is_disabled":false,"rental_uris":{"android":"levelo://app?vid=89a5a146-4a67-49f1-bd86-c4be538f3e49","ios":"levelo://app?vid=89a5a146-4a67-49f1-bd86-c4be538f3e49"},"vehicle_type_id":"4","last_reported":1738681793,"current_range_meters":32400,"station_id":"ce4bh9p2rcd13ifvqed0","pricing_plan_id":"cebpf4jnsgd1na2vs0mg"},{"bike_id":"ed2d2dcb-0774-46b0-b487-6650ca621cd9","system_id":"levelo_inurba_marseille","lat":43.29519,"lon":5.39041,"is_reserved":false,"is_disabled":false,"rental_uris":{"android":"levelo://app?vid=ed2d2dcb-0774-46b0-b487-6650ca621cd9","ios":"levelo://app?vid=ed2d2dcb-0774-46b0-b487-6650ca621cd9"},"vehicle_type_id":"4","last_reported":1738681793,"current_range_meters":22800,"station_id":"ce4bh3p2rcd13ifvqdp0","pricing_plan_id":"cebpf4jnsgd1na2vs0mg"},{"bike_id":"e5f34f7c-c503-40c2-aeb7-a92c676b8443","system_id":"levelo_inurba_marseille","lat":43.28745,"lon":5.39986,"is_reserved":false,"is_disabled":true,"rental_uris":{"android":"levelo://app?vid=e5f34f7c-c503-40c2-aeb7-a92c676b8443","ios":"levelo://app?vid=e5f34f7c-c503-40c2-aeb7-a92c676b8443"},"vehicle_type_id":"4","last_reported":1738681793,"current_range_meters":0,"station_id":"ce4bho92rcd13ifvqh3g","pricing_plan_id":"cebpf4jnsgd1na2vs0mg"},{"bike_id":"06b948e0-80a8-479d-b506-6c0e8883522c","system_id":"levelo_inurba_marseille","lat":43.30538,"lon":5.36694,"is_reserved":false,"is_disabled":false,"rental_uris":{"android":"levelo://app?vid=06b948e0-80a8-479d-b506-6c0e8883522c","ios":"levelo://app?vid=06b948e0-80a8-479d-b506-6c0e8883522c"},"vehicle_type_id":"4","last_reported":1738681793,"current_range_meters":36800,"station_id":"ce4bgrp2rcd13ifvqc9g","pricing_plan_id":"cebpf4jnsgd1na2vs0mg"},{"bike_id":"982759eb-b654-4e86-8e5f-84ccdf0fd4f4","system_id":"levelo_inurba_marseille","lat":43.30779,"lon":5.37666,"is_reserved":false,"is_disabled":false,"rental_uris":{"android":"levelo://app?vid=982759eb-b654-4e86-8e5f-84ccdf0fd4f4","ios":"levelo://app?vid=982759eb-b654-4e86-8e5f-84ccdf0fd4f4"},"vehicle_type_id":"4","last_reported":1738681793,"current_range_meters":39200,"station_id":"ce4bgv92rcd13ifvqcq0","pricing_plan_id":"cebpf4jnsgd1na2vs0mg"},{"bike_id":"359be8c9-1bc4-48b0-81b3-8bd128c01117","system_id":"levelo_inurba_marseille","lat":43.29864,"lon":5.39736,"is_reserved":false,"is_disabled":false,"rental_uris":{"android":"levelo://app?vid=359be8c9-1bc4-48b0-81b3-8bd128c01117","ios":"levelo://app?vid=359be8c9-1bc4-48b0-81b3-8bd128c01117"},"vehicle_type_id":"4","last_reported":1738681793,"current_range_meters":38000,"station_id":"ce4bh0h2rcd13ifvqd50","pricing_plan_id":"cebpf4jnsgd1na2vs0mg"},{"bike_id":"41fc22b2-e4a5-4bf7-8b06-f43e582920bd","system_id":"levelo_inurba_marseille","lat":43.29606,"lon":5.37698,"is_reserved":false,"is_disabled":false,"rental_uris":{"android":"levelo://app?vid=41fc22b2-e4a5-4bf7-8b06-f43e582920bd","ios":"levelo://app?vid=41fc22b2-e4a5-4bf7-8b06-f43e582920bd"},"vehicle_type_id":"4","last_reported":1738681793,"current_range_meters":37600,"station_id":"ce4bgi92rcd13ifvqb90","pricing_plan_id":"cebpf4jnsgd1na2vs0mg"},{"bike_id":"f22ab9c4-4472-465c-9846-9bcae534d3af","system_id":"levelo_inurba_marseille","lat":43.3236,"lon":5.36752,"is_reserved":false,"is_disabled":false,"rental_uris":{"android":"levelo://app?vid=f22ab9c4-4472-465c-9846-9bcae534d3af","ios":"levelo://app?vid=f22ab9c4-4472-465c-9846-9bcae534d3af"},"vehicle_type_id":"4","last_reported":1738681793,"current_range_meters":30000,"station_id":"ce4bhsh2rcd13ifvqi2g","pricing_plan_id":"cebpf4jnsgd1na2vs0mg"},{"bike_id":"c51d39ba-4b67-43e5-88d6-3fc25608739e","system_id":"levelo_inurba_marseille","lat":43.28426,"lon":5.34996,"is_reserved":false,"is_disabled":false,"rental_uris":{"android":"levelo://app?vid=c51d39ba-4b67-43e5-88d6-3fc25608739e","ios":"levelo://app?vid=c51d39ba-4b67-43e5-88d6-3fc25608739e"},"vehicle_type_id":"4","last_reported":1738681793,"current_range_meters":23200,"station_id":"ce4bhbh2rcd13ifvqepg","pricing_plan_id":"cebpf4jnsgd1na2vs0mg"},{"bike_id":"16c55fb0-59fe-4635-a5cf-e71bfd525756","system_id":"levelo_inurba_marseille","lat":43.26784,"lon":5.39423,"is_reserved":false,"is_disabled":false,"rental_uris":{"android":"levelo://app?vid=16c55fb0-59fe-4635-a5cf-e71bfd525756","ios":"levelo://app?vid=16c55fb0-59fe-4635-a5cf-e71bfd525756"},"vehicle_type_id":"4","last_reported":1738681793,"current_range_meters":35600,"station_id":"ce4bhh12rcd13ifvqfg0","pricing_plan_id":"cebpf4jnsgd1na2vs0mg"},{"bike_id":"55c658bb-25de-483a-9ab1-ab3fc2a2cbe0","system_id":"levelo_inurba_marseille","lat":43.308,"lon":5.38152,"is_reserved":false,"is_disabled":false,"rental_uris":{"android":"levelo://app?vid=55c658bb-25de-483a-9ab1-ab3fc2a2cbe0","ios":"levelo://app?vid=55c658bb-25de-483a-9ab1-ab3fc2a2cbe0"},"vehicle_type_id":"4","last_reported":1738681793,"current_range_meters":29600,"station_id":"ce4bgt12rcd13ifvqce0","pricing_plan_id":"cebpf4jnsgd1na2vs0mg"},