{"last_updated":1703254007,"ttl":30,"version":"2.2","data":{"bikes":[{"bike_id":"f4bd5d7a-35d7-457f-8f5c-3611d483a900","system_id":"levelo_inurba_marseille","lat":43.313391,"lon":5.36706,"is_reserved":false,"is_disabled":false,"rental_uris":{"android":"levelo://app?vid=f4bd5d7a-35d7-457f-8f5c-3611d483a900","ios":"levelo://app?vid=f4bd5d7a-35d7-457f-8f5c-3611d483a900"},"vehicle_type_id":"4","last_reported":1703254007,"current_range_meters":29600,"station_id":"ce4bgr92rcd13ifvqc6g","pricing_plan_id":"free"},{"bike_id":"e616f935-240b-4d67-829c-24e3de67d7e8","system_id":"levelo_inurba_marseille","lat":43.313391,"lon":5.36706,"is_reserved":false,"is_disabled":false,"rental_uris":{"android":"levelo://app?vid=e616f935-240b-4d67-829c-24e3de67d7e8","ios":"levelo://app?vid=e616f935-240b-4d67-829c-24e3de67d7e8"},"vehicle_type_id":"4","last_reported":1703254007,"current_range_meters":30400,"station_id":"ce4bgr92rcd13ifvqc6g","pricing_plan_id":"free"},{"bike_id":"61ea5a5d-9237-4652-afe7-eef3dd69c4f1","system_id":"levelo_inurba_marseille","lat":43.31341,"lon":5.367098,"is_reserved":false,"is_disabled":false,"rental_uris":{"android":"levelo://app?vid=61ea5a5d-9237-4652-afe7-eef3dd69c4f1","ios":"levelo://app?vid=61ea5a5d-9237-4652-afe7-eef3dd69c4f1"},"vehicle_type_id":"4","last_reported":1703254007,"current_range_meters":28400,"station_id":"ce4bgr92rcd13ifvqc6g","pricing_plan_id":"free"},{"bike_id":"fa5948ab-141d-43da-8a7b-070662ff9bc3","system_id":"levelo_inurba_marseille","lat":43.312239,"lon":5.368562,"is_reserved":false,"is_disabled":false,"rental_uris":{"android":"levelo://app?vid=fa5948ab-141d-43da-8a7b-070662ff9bc3","ios":"levelo://app?vid=fa5948ab-141d-43da-8a7b-070662ff9bc3"},"vehicle_type_id":"4","last_reported":1703254007,"current_range_meters":31200,"station_id":"ce4bgl92rcd13ifvqbq0","pricing_plan_id":"free"},{"bike_id":"6447fa0d-2549-47f2-ba57-bbb19a47e1c8","system_id":"levelo_inurba_marseille","lat":43.312239,"lon":5.368562,"is_reserved":false,"is_disabled":false,"rental_uris":{"android":"levelo://app?vid=6447fa0d-2549-47f2-ba57-bbb19a47e1c8","ios":"levelo://app?vid=6447fa0d-2549-47f2-ba57-bbb19a47e1c8"},"vehicle_type_id":"4","last_reported":1703254007,"current_range_meters":28800,"station_id":"ce4bgl92rcd13ifvqbq0","pricing_plan_id":"free"},{"bike_id":"d58c98f7-7299-4cfb-8464-c1ec724f8fd2","system_id":"levelo_inurba_marseille","lat":43.309076,"lon":5.368465,"is_reserved":false,"is_disabled":false,"rental_uris":{"android":"levelo://app?vid=d58c98f7-7299-4cfb-8464-c1ec724f8fd2","ios":"levelo://app?vid=d58c98f7-7299-4cfb-8464-c1ec724f8fd2"},"vehicle_type_id":"4","last_reported":1703254007,"current_range_meters":0,"station_id":"ce4bgn92rcd13ifvqbvg","pricing_plan_id":"free"},{"bike_id":"3f4a08e3-f8ba-45a4-ae1b-c73fe5b8a49f","system_id":"levelo_inurba_marseille","lat":43.314811,"lon":5.373103,"is_reserved":false,"is_disabled":false,"rental_uris":{"android":"levelo://app?vid=3f4a08e3-f8ba-45a4-ae1b-c73fe5b8a49f","ios":"levelo://app?vid=3f4a08e3-f8ba-45a4-ae1b-c73fe5b8a49f"},"vehicle_type_id":"4","last_reported":1703254007,"current_range_meters":29600,"station_id":"ce4bgt12rcd13ifvqcd0","pricing_plan_id":"free"},{"bike_id":"f3e9fdcd-c3b2-4599-a069-0d14d9f59e32","system_id":"levelo_inurba_marseille","lat":43.314811,"lon":5.373103,"is_reserved":false,"is_disabled":false,"rental_uris":{"android":"levelo://app?vid=f3e9fdcd-c3b2-4599-a069-0d14d9f59e32","ios":"levelo://app?vid=f3e9fdcd-c3b2-4599-a069-0d14d9f59e32"},"vehicle_type_id":"4","last_reported":1703254007,"current_range_meters":31200,"station_id":"ce4bgt12rcd13ifvqcd0","pricing_plan_id":"free"},{"bike_id":"72a5c650-3d0e-46f6-a84b-f4a4a12882c4","system_id":"levelo_inurba_marseille","lat":43.309039,"lon":5.371797,"is_reserved":false,"is_disabled":false,"rental_uris":{"android":"levelo://app?vid=72a5c650-3d0e-46f6-a84b-f4a4a12882c4","ios":"levelo://app?vid=72a5c650-3d0e-46f6-a84b-f4a4a12882c4"},"vehicle_type_id":"4","last_reported":1703254007,"current_range_meters":20000,"station_id":"ce4bguh2rcd13ifvqckg","pricing_plan_id":"free"},{"bike_id":"25531028-1f45-4370-8d4d-8054c0f779b3","system_id":"levelo_inurba_marseille","lat":43.305712,"lon":5.365641,"is_reserved":false,"is_disabled":false,"rental_uris":{"android":"levelo://app?vid=25531028-1f45-4370-8d4d-8054c0f779b3","ios":"levelo://app?vid=25531028-1f45-4370-8d4d-8054c0f779b3"},"vehicle_type_id":"4","last_reported":1703254007,"current_range_meters":28000,"station_id":"ce4bgs12rcd13ifvqcag","pricing_plan_id":"free"},{"bike_id":"ec910eeb-fc03-4a03-9fd1-55d811603d77","system_id":"levelo_inurba_marseille","lat":43.3054,"lon":5.36542,"is_reserved":false,"is_disabled":false,"rental_uris":{"android":"levelo://app?vid=ec910eeb-fc03-4a03-9fd1-55d811603d77","ios":"levelo://app?vid=ec910eeb-fc03-4a03-9fd1-55d811603d77"},"vehicle_type_id":"4","last_reported":1703254007,"current_range_meters":16800,"station_id":"ce4bgs12rcd13ifvqcag","pricing_plan_id":"free"},{"bike_id":"51b33281-59b1-434c-aa6d-1d5e1dde6dc9","system_id":"levelo_inurba_marseille","lat":43.30534,"lon":5.36552,"is_reserved":false,"is_disabled":false,"rental_uris":{"android":"levelo://app?vid=51b33281-59b1-434c-aa6d-1d5e1dde6dc9","ios":"levelo://app?vid=51b33281-59b1-434c-aa6d-1d5e1dde6dc9"},"vehicle_type_id":"4","last_reported":1703254007,"current_range_meters":28000,"station_id":"ce4bgs12rcd13ifvqcag","pricing_plan_id":"free"},{"bike_id":"63047ba0-b21e-439e-b671-4c4a2f0f6642","system_id":"levelo_inurba_marseille","lat":43.305706,"lon":5.365654,"is_reserved":false,"is_disabled":false,"rental_uris":{"android":"levelo://app?vid=63047ba0-b21e-439e-b671-4c4a2f0f6642","ios":"levelo://app?vid=63047ba0-b21e-439e-b671-4c4a2f0f6642"},"vehicle_type_id":"4","last_reported":1703254007,"current_range_meters":29200,"station_id":"ce4bgs12rcd13ifvqcag","pricing_plan_id":"free"},{"bike_id":"38fa1c62-7329-48dc-9ad4-8f9fcda99100","system_id":"levelo_inurba_marseille","lat":43.305706,"lon":5.365654,"is_reserved":false,"is_disabled":false,"rental_uris":{"android":"levelo://app?vid=38fa1c62-7329-48dc-9ad4-8f9fcda99100","ios":"levelo://app?vid=38fa1c62-7329-48dc-9ad4-8f9fcda99100"},"vehicle_type_id":"4","last_reported":1703254007,"current_range_meters":26000,"station_id":"ce4bgs12rcd13ifvqcag","pricing_plan_id":"free"},{"bike_id":"bdf56d72-595a-4109-9819-ae5445485123","system_id":"levelo_inurba_marseille","lat":43.30525,"lon":5.36544,"is_reserved":false,"is_disabled":false,"rental_uris":{"android":"levelo://app?vid=bdf56d72-595a-4109-9819-ae5445485123","ios":"levelo://app?vid=bdf56d72-595a-4109-9819-ae5445485123"},"vehicle_type_id":"4","last_reported":1703254007,"current_range_meters":31200,"station_id":"ce4bgs12rcd13ifvqcag","pricing_plan_id":"free"},{"bike_id":"9e6f9c08-467f-48f5-a4f8-fd8f4ce87a0c","system_id":"levelo_inurba_marseille","lat":43.305989,"lon":5.37225,"is_reserved":false,"is_disabled":false,"rental_uris":{"android":"levelo://app?vid=9e6f9c08-467f-48f5-a4f8-fd8f4ce87a0c","ios":"levelo://app?vid=9e6f9c08-467f-48f5-a4f8-fd8f4ce87a0c"},"vehicle_type_id":"4","last_reported":1703254007,"current_range_meters":3200,"station_id":"ce4bgqh2rcd13ifvqc4g","pricing_plan_id":"free"},{"bike_id":"2210f8e1-c8f3-4fb4-a710-702e9eb4fb49","system_id":"levelo_inurba_marseille","lat":43.305989,"lon":5.37225,"is_reserved":false,"is_disabled":false,"rental_uris":{"android":"levelo://app?vid=2210f8e1-c8f3-4fb4-a710-702e9eb4fb49","ios":"levelo://app?vid=2210f8e1-c8f3-4fb4-a710-702e9eb4fb49"},"vehicle_type_id":"4","last_reported":1703254007,"current_range_meters":20400,"station_id":"ce4bgqh2rcd13ifvqc4g","pricing_plan_id":"free"},{"bike_id":"57f37f7e-ae24-4f02-94b2-65a1a5e1a2aa","system_id":"levelo_inurba_marseille","lat":43.305989,"lon":5.37225,"is_reserved":false,"is_disabled":false,"rental_uris":{"android":"levelo://app?vid=57f37f7e-ae24-4f02-94b2-65a1a5e1a2aa","ios":"levelo://app?vid=57f37f7e-ae24-4f02-94b2-65a1a5e1a2aa"},"vehicle_type_id":"4","last_reported":1703254007,"current_range_meters":24800,"station_id":"ce4bgqh2rcd13ifvqc4g","pricing_plan_id":"free"},{"bike_id":"85d4bf50-988b-4290-8f52-dd06a1a034d2","system_id":"levelo_inurba_marseille","lat":43.305989,"lon":5.37225,"is_reserved":false,"is_disabled":false,"rental_uris":{"android":"levelo://app?vid=85d4bf50-988b-4290-8f52-dd06a1a034d2","ios":"levelo://app?vid=85d4bf50-988b-4290-8f52-dd06a1a034d2"},"vehicle_type_id":"4","last_reported":1703254007,"current_range_meters":31200,"station_id":"ce4bgqh2rcd13ifvqc4g","pricing_plan_id":"free"},{"bike_id":"97f38280-f980-46f4-988c-939902d49aac","system_id":"levelo_inurba_marseille","lat":43.311125,"lon":5.377624,"is_reserved":false,"is_disabled":false,"rental_uris":{"android":"levelo://app?vid=97f38280-f980-46f4-988c-939902d49aac","ios":"levelo://app?vid=97f38280-f980-46f4-988c-939902d49aac"},"vehicle_type_id":"4","last_reported":1703254007,"current_range_meters":28800,"station_id":"ce4bgt92rcd13ifvqcg0","pricing_plan_id":"free"},{"bike_id":"ae4042db-4b46-48af-8b70-2524d39f8a6b","system_id":"levelo_inurba_marseille","lat":43.305989,"lon":5.37225,"is_reserved":false,"is_disabled":false,"rental_uris":{"android":"levelo://app?vid=ae4042db-4b46-48af-8b70-2524d39f8a6b","ios":"levelo://app?vid=ae4042db-4b46-48af-8b70-2524d39f8a6b"},"vehicle_type_id":"4","last_reported":1703254007,"current_range_meters":27200,"station_id":"ce4bgqh2rcd13ifvqc4g","pricing_plan_id":"free"},{"bike_id":"0872d599-3ba6-4c90-8eae-b5b5e21d382b","system_id":"levelo_inurba_marseille","lat":43.311125,"lon":5.377624,"is_reserved":false,"is_disabled":false,"rental_uris":{"android":"levelo://app?vid=0872d599-3ba6-4c90-8eae-b5b5e21d382b","ios":"levelo://app?vid=0872d599-3ba6-4c90-8eae-b5b5e21d382b"},"vehicle_type_id":"4","last_reported":1703254007,"current_range_meters":25600,"station_id":"ce4bgt92rcd13ifvqcg0","pricing_plan_id":"free"},{"bike_id":"e621f788-e0b8-4fda-933f-4b10808ea0de","system_id":"levelo_inurba_marseille","lat":43.307945,"lon":5.376487,"is_reserved":false,"is_disabled":false,"rental_uris":{"android":"levelo://app?vid=e621f788-e0b8-4fda-933f-4b10808ea0de","ios":"levelo://app?vid=e621f788-e0b8-4fda-933f-4b10808ea0de"},"vehicle_type_id":"4","last_reported":1703254007,"current_range_meters":30800,"station_id":"ce4bgv92rcd13ifvqcq0","pricing_plan_id":"free"},{"bike_id":"e3d412e6-d75e-499f-9b12-871b89eb61ea","system_id":"levelo_inurba_marseille","lat":43.307945,"lon":5.376487,"is_reserved":false,"is_disabled":false,"rental_uris":{"android":"levelo://app?vid=e3d412e6-d75e-499f-9b12-871b89eb61ea","ios":"levelo://app?vid=e3d412e6-d75e-499f-9b12-871b89eb61ea"},"vehicle_type_id":"4","last_reported":1703254007,"current_range_meters":25600,"station_id":"ce4bgv92rcd13ifvqcq0","pricing_plan_id":"free"},{"bike_id":"56ac732e-3ba7-4965-93d2-ed42e2687b02","system_id":"levelo_inurba_marseille","lat":43.30304,"lon":5.368987,"is_reserved":false,"is_disabled":false,"rental_uris":{"android":"levelo://app?vid=56ac732e-3ba7-4965-93d2-ed42e2687b02","ios":"levelo://app?vid=56ac732e-3ba7-4965-93d2-ed42e2687b02"},"vehicle_type_id":"4","last_reported":1703254007,"current_range_meters":12400,"station_id":"ce4bgqh2rcd13ifvqc5g","pricing_plan_id":"free"},{"bike_id":"e446cab9-225e-41b5-8e2f-2794f16def46","system_id":"levelo_inurba_marseille","lat":43.30304,"lon":5.368987,"is_reserved":false,"is_disabled":false,"rental_uris":{"android":"levelo://app?vid=e446cab9-225e-41b5-8e2f-2794f16def46","ios":"levelo://app?vid=e446cab9-225e-41b5-8e2f-2794f16def46"},"vehicle_type_id":"4","last_reported":1703254007,"current_range_meters":26000,"station_id":"ce4bgqh2rcd13ifvqc5g","pricing_plan_id":"free"},{"bike_id":"74825c2b-6989-45ba-a705-62a08781283e","system_id":"levelo_inurba_marseille","lat":43.303046,"lon":5.368981,"is_reserved":false,"is_disabled":false,"rental_uris":{"android":"levelo://app?vid=74825c2b-6989-45ba-a705-62a08781283e","ios":"levelo://app?vid=74825c2b-6989-45ba-a705-62a08781283e"},"vehicle_type_id":"4","last_reported":1703254007,"current_range_meters":4000,"station_id":"ce4bgqh2rcd13ifvqc5g","pricing_plan_id":"free"},{"bike_id":"cf23fcc8-d18b-4284-a77c-6b92ec7b59dd","system_id":"levelo_inurba_marseille","lat":43.303046,"lon":5.368981,"is_reserved":false,"is_disabled":false,"rental_uris":{"android":"levelo://app?vid=cf23fcc8-d18b-4284-a77c-6b92ec7b59dd","ios":"levelo://app?vid=cf23fcc8-d18b-4284-a77c-6b92ec7b59dd"},"vehicle_type_id":"4","last_reported":1703254007,"current_range_meters":27600,"station_id":"ce4bgqh2rcd13ifvqc5g","pricing_plan_id":"free"},{"bike_id":"740b3da7-95ee-4369-bab7-9249a58240f5","system_id":"levelo_inurba_marseille","lat":43.30304,"lon":5.368987,"is_reserved":false,"is_disabled":false,"rental_uris":{"android":"levelo://app?vid=740b3da7-95ee-4369-bab7-9249a58240f5","ios":"levelo://app?vid=740b3da7-95ee-4369-bab7-9249a58240f5"},"vehicle_type_id":"4","last_reported":1703254007,"current_range_meters":21600,"station_id":"ce4bgqh2rcd13ifvqc5g","pricing_plan_id":"free"},{"bike_id":"fef78d3e-69d2-4fb3-9a28-267858745954","system_id":"levelo_inurba_marseille","lat":43.301939,"lon":5.366286,"is_reserved":false,"is_disabled":false,"rental_uris":{"android":"levelo://app?vid=fef78d3e-69d2-4fb3-9a28-267858745954","ios":"levelo://app?vid=fef78d3e-69d2-4fb3-9a28-267858745954"},"vehicle_type_id":"4","last_reported":1703254007,"current_range_meters":17200,"station_id":"ce4bgrh2rcd13ifvqc8g","pricing_plan_id":"free"},{"bike_id":"15973805-0110-4b9c-8030-e89b6783aed8","system_id":"levelo_inurba_marseille","lat":43.308012,"lon":5.381511,"is_reserved":false,"is_disabled":false,"rental_uris":{"android":"levelo://app?vid=15973805-0110-4b9c-8030-e89b6783aed8","ios":"levelo://app?vid=15973805-0110-4b9c-8030-e89b6783aed8"},"vehicle_type_id":"4","last_reported":1703254007,"current_range_meters":11200,"station_id":"ce4bgt12rcd13ifvqce0","pricing_plan_id":"free"},{"bike_id":"015da911-5c3d-4528-b12e-b1fca154be68","system_id":"levelo_inurba_marseille","lat":43.308012,"lon":5.381511,"is_reserved":false,"is_disabled":false,"rental_uris":{"android":"levelo://app?vid=015da911-5c3d-4528-b12e-b1fca154be68","ios":"levelo://app?vid=015da911-5c3d-4528-b12e-b1fca154be68"},"vehicle_type_id":"4","last_reported":1703254007,"current_range_meters":13200,"station_id":"ce4bgt12rcd13ifvqce0","pricing_plan_id":"free"},{"bike_id":"ee7d8eed-2ac9-4dd9-9ca1-82e19ce92f6d","system_id":"levelo_inurba_marseille","lat":43.304719,"lon":5.379001,"is_reserved":false,"is_disabled":false,"rental_uris":{"android":"levelo://app?vid=ee7d8eed-2ac9-4dd9-9ca1-82e19ce92f6d","ios":"levelo://app?vid=ee7d8eed-2ac9-4dd9-9ca1-82e19ce92f6d"},"vehicle_type_id":"4","last_reported":1703254007,"current_range_meters":28800,"station_id":"ce4bgup2rcd13ifvqcn0","pricing_plan_id":"free"},{"bike_id":"df5d611f-573d-428a-bec2-9c9dec3c801f","system_id":"levelo_inurba_marseille","lat":43.30466,"lon":5.379022,"is_reserved":false,"is_disabled":false,"rental_uris":{"android":"levelo://app?vid=df5d611f-573d-428a-bec2-9c9dec3c801f","ios":"levelo://app?vid=df5d611f-573d-428a-bec2-9c9dec3c801f"},"vehicle_type_id":"4","last_reported":1703254007,"current_range_meters":25200,"station_id":"ce4bgup2rcd13ifvqcn0","pricing_plan_id":"free"},{"bike_id":"782a58b1-efdf-40a2-8c3f-886e40ea8277","system_id":"levelo_inurba_marseille","lat":43.304641,"lon":5.379019,"is_reserved":false,"is_disabled":false,"rental_uris":{"android":"levelo://app?vid=782a58b1-efdf-40a2-8c3f-886e40ea8277","ios":"levelo://app?vid=782a58b1-efdf-40a2-8c3f-886e40ea8277"},"vehicle_type_id":"4","last_reported":1703254007,"current_range_meters":25200,"station_id":"ce4bgup2rcd13ifvqcn0","pricing_plan_id":"free"},{"bike_id":"90e3c935-be0a-4180-b890-cc33d2c55fe8","system_id":"levelo_inurba_marseille","lat":43.304642,"lon":5.379028,"is_reserved":false,"is_disabled":false,"rental_uris":{"android":"levelo://app?vid=90e3c935-be0a-4180-b890-cc33d2c55fe8","ios":"levelo://app?vid=90e3c935-be0a-4180-b890-cc33d2c55fe8"},"vehicle_type_id":"4","last_reported":1703254007,"current_range_meters":20400,"station_id":"ce4bgup2rcd13ifvqcn0","pricing_plan_id":"free"},{"bike_id":"aeba8502-7118-4c0b-b963-7244f8287878","system_id":"levelo_inurba_marseille","lat":43.30464,"lon":5.379029,"is_reserved":false,"is_disabled":false,"rental_uris":{"android":"levelo://app?vid=aeba8502-7118-4c0b-b963-7244f8287878","ios":"levelo://app?vid=aeba8502-7118-4c0b-b963-7244f8287878"},"vehicle_type_id":"4","last_reported":1703254007,"current_range_meters":25200,"station_id":"ce4bgup2rcd13ifvqcn0","pricing_plan_id":"free"},{"bike_id":"759ce6db-5d8c-4219-acb1-10eb3569e9a7","system_id":"levelo_inurba_marseille","lat":43.30462,"lon":5.37905,"is_reserved":false,"is_disabled":false,"rental_uris":{"android":"levelo://app?vid=759ce6db-5d8c-4219-acb1-10eb3569e9a7","ios":"levelo://app?vid=759ce6db-5d8c-4219-acb1-10eb3569e9a7"},"vehicle_type_id":"4","last_reported":1703254007,"current_range_meters":24800,"station_id":"ce4bgup2rcd13ifvqcn0","pricing_plan_id":"free"},{"bike_id":"45108666-1893-4027-a50a-63a147d5a7b4","system_id":"levelo_inurba_marseille","lat":43.30464,"lon":5.379089,"is_reserved":false,"is_disabled":false,"rental_uris":{"android":"levelo://app?vid=45108666-1893-4027-a50a-63a147d5a7b4","ios":"levelo://app?vid=45108666-1893-4027-a50a-63a147d5a7b4"},"vehicle_type_id":"4","last_reported":1703254007,"current_range_meters":23200,"station_id":"ce4bgup2rcd13ifvqcn0","pricing_plan_id":"free"},{"bike_id":"c947961a-683c-49ad-8961-18b76278915b","system_id":"levelo_inurba_marseille","lat":43.30465,"lon":5.37911,"is_reserved":false,"is_disabled":false,"rental_uris":{"android":"levelo://app?vid=c947961a-683c-49ad-8961-18b76278915b","ios":"levelo://app?vid=c947961a-683c-49ad-8961-18b76278915b"},"vehicle_type_id":"4","last_reported":1703254007,"current_range_meters":23200,"station_id":"ce4bgup2rcd13ifvqcn0","pricing_plan_id":"free"},{"bike_id":"ad7a1a00-1823-415d-99b1-48af7bd597cb","system_id":"levelo_inurba_marseille","lat":43.30455,"lon":5.37899,"is_reserved":false,"is_disabled":false,"rental_uris":{"android":"levelo://app?vid=ad7a1a00-1823-415d-99b1-48af7bd597cb","ios":"levelo://app?vid=ad7a1a00-1823-415d-99b1-48af7bd597cb"},"vehicle_type_id":"4","last_reported":1703254007,"current_range_meters":23600,"station_id":"ce4bgup2rcd13ifvqcn0","pricing_plan_id":"free"},{"bike_id":"9166d30a-2cef-4592-839b-7ddf309f0158","system_id":"levelo_inurba_marseille","lat":43.304606,"lon":5.379092,"is_reserved":false,"is_disabled":false,"rental_uris":{"android":"levelo://app?vid=9166d30a-2cef-4592-839b-7ddf309f0158","ios":"levelo://app?vid=9166d30a-2cef-4592-839b-7ddf309f0158"},"vehicle_type_id":"4","last_reported":1703254007,"current_range_meters":24800,"station_id":"ce4bgup2rcd13ifvqcn0","pricing_plan_id":"free"},{"bike_id":"1c44d916-af9f-40c5-b524-c08837f4b9e5","system_id":"levelo_inurba_marseille","lat":43.30143,"lon":5.37413,"is_reserved":false,"is_disabled":false,"rental_uris":{"android":"levelo://app?vid=1c44d916-af9f-40c5-b524-c08837f4b9e5","ios":"levelo://app?vid=1c44d916-af9f-40c5-b524-c08837f4b9e5"},"vehicle_type_id":"4","last_reported":1703254007,"current_range_meters":7200,"station_id":"ce4bgs92rcd13ifvqcc0","pricing_plan_id":"free"},{"bike_id":"69d7f715-3906-4364-b0e4-80cfebe31b10","system_id":"levelo_inurba_marseille","lat":43.30143,"lon":5.37413,"is_reserved":false,"is_disabled":false,"rental_uris":{"android":"levelo://app?vid=69d7f715-3906-4364-b0e4-80cfebe31b10","ios":"levelo://app?vid=69d7f715-3906-4364-b0e4-80cfebe31b10"},"vehicle_type_id":"4","last_reported":1703254007,"current_range_meters":20400,"station_id":"ce4bgs92rcd13ifvqcc0","pricing_plan_id":"free"},{"bike_id":"8d3cad0e-763d-406d-b69b-7f3f3f4950d0","system_id":"levelo_inurba_marseille","lat":43.302784,"lon":5.377158,"is_reserved":false,"is_disabled":false,"rental_uris":{"android":"levelo://app?vid=8d3cad0e-763d-406d-b69b-7f3f3f4950d0","ios":"levelo://app?vid=8d3cad0e-763d-406d-b69b-7f3f3f4950d0"},"vehicle_type_id":"4","last_reported":1703254007,"current_range_meters":27200,"station_id":"ce4bguh2rcd13ifvqcj0","pricing_plan_id":"free"},{"bike_id":"a023c0e5-d40d-4cfb-a615-eaf9d8dcc367","system_id":"levelo_inurba_marseille","lat":43.302784,"lon":5.377158,"is_reserved":false,"is_disabled":false,"rental_uris":{"android":"levelo://app?vid=a023c0e5-d40d-4cfb-a615-eaf9d8dcc367","ios":"levelo://app?vid=a023c0e5-d40d-4cfb-a615-eaf9d8dcc367"},"vehicle_type_id":"4","last_reported":1703254007,"current_range_meters":1200,"station_id":"ce4bguh2rcd13ifvqcj0","pricing_plan_id":"free"},{"bike_id":"0effb7f6-23e5-4f02-a1eb-80bdf14a191a","system_id":"levelo_inurba_marseille","lat":43.31991,"lon":5.38146,"is_reserved":false,"is_disabled":false,"rental_uris":{"android":"levelo://app?vid=0effb7f6-23e5-4f02-a1eb-80bdf14a191a","ios":"levelo://app?vid=0effb7f6-23e5-4f02-a1eb-80bdf14a191a"},"vehicle_type_id":"4","last_reported":1703254007,"current_range_meters":28800,"station_id":"ce4bhr12rcd13ifvqhpg","pricing_plan_id":"free"},{"bike_id":"dc0f6af5-c02c-4610-baea-e5c6ca16f530","system_id":"levelo_inurba_marseille","lat":43.3199,"lon":5.38149,"is_reserved":false,"is_disabled":false,"rental_uris":{"android":"levelo://app?vid=dc0f6af5-c02c-4610-baea-e5c6ca16f530","ios":"levelo://app?vid=dc0f6af5-c02c-4610-baea-e5c6ca16f530"},"vehicle_type_id":"4","last_reported":1703254007,"current_range_meters":29200,"station_id":"ce4bhr12rcd13ifvqhpg","pricing_plan_id":"free"},{"bike_id":"40d41979-6f7b-4b11-8da0-2b38a1c9353a","system_id":"levelo_inurba_marseille","lat":43.313571,"lon":5.384829,"is_reserved":false,"is_disabled":false,"rental_uris":{"android":"levelo://app?vid=40d41979-6f7b-4b11-8da0-2b38a1c9353a","ios":"levelo://app?vid=40d41979-6f7b-4b11-8da0-2b38a1c9353a"},"vehicle_type_id":"4","last_reported":1703254007,"current_range_meters":18800,"station_id":"ce4bgt92rcd13ifvqcf0","pricing_plan_id":"free"},{"bike_id":"76d07592-c5de-44bc-82ce-20bb1cf64d0c","system_id":"levelo_inurba_marseille","lat":43.313571,"lon":5.384829,"is_reserved":false,"is_disabled":false,"rental_uris":{"android":"levelo://app?vid=76d07592-c5de-44bc-82ce-20bb1cf64d0c","ios":"levelo://app?vid=76d07592-c5de-44bc-82ce-20bb1cf64d0c"},"vehicle_type_id":"4","last_reported":1703254007,"current_range_meters":13600,"station_id":"ce4bgt92rcd13ifvqcf0","pricing_plan_id":"free"},{"bike_id":"189244ad-54ca-46a7-9832-92829f32d6c6","system_id":"levelo_inurba_marseille","lat":43.29977,"lon":5.37191,"is_reserved":false,"is_disabled":false,"rental_uris":{"android":"levelo://app?vid=189244ad-54ca-46a7-9832-92829f32d6c6","ios":"levelo://app?vid=189244ad-54ca-46a7-9832-92829f32d6c6"},"vehicle_type_id":"4","last_reported":1703254007,"current_range_meters":24800,"station_id":"ce4bgr92rcd13ifvqc7g","pricing_plan_id":"free"},{"bike_id":"07ac9375-19d0-4626-a7c6-d62791dc1075","system_id":"levelo_inurba_marseille","lat":43.299222,"lon":5.365554,"is_reserved":false,"is_disabled":false,"rental_uris":{"android":"levelo://app?vid=07ac9375-19d0-4626-a7c6-d62791dc1075","ios":"levelo://app?vid=07ac9375-19d0-4626-a7c6-d62791dc1075"},"vehicle_type_id":"4","last_reported":1703254007,"current_range_meters":8000,"station_id":"ce4bgm92rcd13ifvqbr0","pricing_plan_id":"free"},{"bike_id":"7a3bbe3a-998e-44ae-87c6-dd227d3231d8","system_id":"levelo_inurba_marseille","lat":43.298433,"lon":5.362774,"is_reserved":false,"is_disabled":false,"rental_uris":{"android":"levelo://app?vid=7a3bbe3a-998e-44ae-87c6-dd227d3231d8","ios":"levelo://app?vid=7a3bbe3a-998e-44ae-87c6-dd227d3231d8"},"vehicle_type_id":"4","last_reported":1703254007,"current_range_meters":27600,"station_id":"ce4bgpp2rcd13ifvqc3g","pricing_plan_id":"free"},{"bike_id":"6f00089d-c7f3-4cfb-ab36-e7831ccce3db","system_id":"levelo_inurba_marseille","lat":43.292311,"lon":5.360731,"is_reserved":false,"is_disabled":false,"rental_uris":{"android":"levelo://app?vid=6f00089d-c7f3-4cfb-ab36-e7831ccce3db","ios":"levelo://app?vid=6f00089d-c7f3-4cfb-ab36-e7831ccce3db"},"vehicle_type_id":"4","last_reported":1703254007,"current_range_meters":8400,"station_id":"ce4bhbh2rcd13ifvqeqg","pricing_plan_id":"free"},{"bike_id":"3f3da2cf-46cb-4e5f-993d-d59a30137d76","system_id":"levelo_inurba_marseille","lat":43.298433,"lon":5.362774,"is_reserved":false,"is_disabled":false,"rental_uris":{"android":"levelo://app?vid=3f3da2cf-46cb-4e5f-993d-d59a30137d76","ios":"levelo://app?vid=3f3da2cf-46cb-4e5f-993d-d59a30137d76"},"vehicle_type_id":"4","last_reported":1703254007,"current_range_meters":20400,"station_id":"ce4bgpp2rcd13ifvqc3g","pricing_plan_id":"free"},{"bike_id":"97561c64-1771-466e-a7b1-d7914393bc53","system_id":"levelo_inurba_marseille","lat":43.299101,"lon":5.374707,"is_reserved":false,"is_disabled":false,"rental_uris":{"android":"levelo://app?vid=97561c64-1771-466e-a7b1-d7914393bc53","ios":"levelo://app?vid=97561c64-1771-466e-a7b1-d7914393bc53"},"vehicle_type_id":"4","last_reported":1703254007,"current_range_meters":30000,"station_id":"ce4bgjh2rcd13ifvqbg0","pricing_plan_id":"free"},{"bike_id":"adfe497b-4107-4e01-b46d-112006483d4a","system_id":"levelo_inurba_marseille","lat":43.297774,"lon":5.370875,"is_reserved":false,"is_disabled":false,"rental_uris":{"android":"levelo://app?vid=adfe497b-4107-4e01-b46d-112006483d4a","ios":"levelo://app?vid=adfe497b-4107-4e01-b46d-112006483d4a"},"vehicle_type_id":"4","last_reported":1703254007,"current_range_meters":0,"station_id":"ce4bgop2rcd13ifvqc1g","pricing_plan_id":"free"},{"bike_id":"c2a8e2b4-3191-4f0b-be14-d6bf2f8fd2da","system_id":"levelo_inurba_marseille","lat":43.322872,"lon":5.382756,"is_reserved":false,"is_disabled":false,"rental_uris":{"android":"levelo://app?vid=c2a8e2b4-3191-4f0b-be14-d6bf2f8fd2da","ios":"levelo://app?vid=c2a8e2b4-3191-4f0b-be14-d6bf2f8fd2da"},"vehicle_type_id":"4","last_reported":1703254007,"current_range_meters":13200,"station_id":"ce4bhr12rcd13ifvqhqg","pricing_plan_id":"free"},{"bike_id":"525f6ec1-c089-48ad-8216-d8e073aa768d","system_id":"levelo_inurba_marseille","lat":43.32829,"lon":5.36675,"is_reserved":false,"is_disabled":false,"rental_uris":{"android":"levelo://app?vid=525f6ec1-c089-48ad-8216-d8e073aa768d","ios":"levelo://app?vid=525f6ec1-c089-48ad-8216-d8e073aa768d"},"vehicle_type_id":"4","last_reported":1703254007,"current_range_meters":7600,"station_id":"ce4bhs92rcd13ifvqi0g","pricing_plan_id":"free"},{"bike_id":"b93b01f5-604a-4a62-8b31-422a7e058281","system_id":"levelo_inurba_marseille","lat":43.3283,"lon":5.36678,"is_reserved":false,"is_disabled":false,"rental_uris":{"android":"levelo://app?vid=b93b01f5-604a-4a62-8b31-422a7e058281","ios":"levelo://app?vid=b93b01f5-604a-4a62-8b31-422a7e058281"},"vehicle_type_id":"4","last_reported":1703254007,"current_range_meters":5600,"station_id":"ce4bhs92rcd13ifvqi0g","pricing_plan_id":"free"},{"bike_id":"11914dde-91de-4fdf-ab24-de472b689ba3","system_id":"levelo_inurba_marseille","lat":43.32835,"lon":5.36677,"is_reserved":false,"is_disabled":false,"rental_uris":{"android":"levelo://app?vid=11914dde-91de-4fdf-ab24-de472b689ba3","ios":"levelo://app?vid=11914dde-91de-4fdf-ab24-de472b689ba3"},"vehicle_type_id":"4","last_reported":1703254007,"current_range_meters":0,"station_id":"ce4bhs92rcd13ifvqi0g","pricing_plan_id":"free"},{"bike_id":"7416a77a-8a3f-436e-9f95-08cb9bbbd166","system_id":"levelo_inurba_marseille","lat":43.297163,"lon":5.365866,"is_reserved":false,"is_disabled":false,"rental_uris":{"android":"levelo://app?vid=7416a77a-8a3f-436e-9f95-08cb9bbbd166","ios":"levelo://app?vid=7416a77a-8a3f-436e-9f95-08cb9bbbd166"},"vehicle_type_id":"4","last_reported":1703254007,"current_range_meters":24000,"station_id":"ce4bgn12rcd13ifvqbt0","pricing_plan_id":"free"},{"bike_id":"f7cdbe96-c7dd-4941-942e-e93187eac87f","system_id":"levelo_inurba_marseille","lat":43.2968,"lon":5.37291,"is_reserved":false,"is_disabled":false,"rental_uris":{"android":"levelo://app?vid=f7cdbe96-c7dd-4941-942e-e93187eac87f","ios":"levelo://app?vid=f7cdbe96-c7dd-4941-942e-e93187eac87f"},"vehicle_type_id":"4","last_reported":1703254007,"current_range_meters":27600,"station_id":"ce4bgk12rcd13ifvqbj0","pricing_plan_id":"free"},{"bike_id":"8555d4f3-511e-4730-8316-959584124791","system_id":"levelo_inurba_marseille","lat":43.296131,"lon":5.370791,"is_reserved":false,"is_disabled":false,"rental_uris":{"android":"levelo://app?vid=8555d4f3-511e-4730-8316-959584124791","ios":"levelo://app?vid=8555d4f3-511e-4730-8316-959584124791"},"vehicle_type_id":"4","last_reported":1703254007,"current_range_meters":17200,"station_id":"ce4bgnh2rcd13ifvqc0g","pricing_plan_id":"free"},{"bike_id":"712716c6-3f6d-4179-9549-b2df05048f5f","system_id":"levelo_inurba_marseille","lat":43.29617,"lon":5.37152,"is_reserved":false,"is_disabled":false,"rental_uris":{"android":"levelo://app?vid=712716c6-3f6d-4179-9549-b2df05048f5f","ios":"levelo://app?vid=712716c6-3f6d-4179-9549-b2df05048f5f"},"vehicle_type_id":"4","last_reported":1703254007,"current_range_meters":31200,"station_id":"ce4bgk12rcd13ifvqbj0","pricing_plan_id":"free"},{"bike_id":"f2729ff0-3cc6-4ca1-b901-d7f7c712e9d9","system_id":"levelo_inurba_marseille","lat":43.29581,"lon":5.36733,"is_reserved":false,"is_disabled":false,"rental_uris":{"android":"levelo://app?vid=f2729ff0-3cc6-4ca1-b901-d7f7c712e9d9","ios":"levelo://app?vid=f2729ff0-3cc6-4ca1-b901-d7f7c712e9d9"},"vehicle_type_id":"4","last_reported":1703254007,"current_range_meters":28800,"station_id":"ce4bgph2rcd13ifvqc2g","pricing_plan_id":"free"},{"bike_id":"88aa6873-5526-44de-90fd-2fc5f04237f3","system_id":"levelo_inurba_marseille","lat":43.299028,"lon":5.381509,"is_reserved":false,"is_disabled":false,"rental_uris":{"android":"levelo://app?vid=88aa6873-5526-44de-90fd-2fc5f04237f3","ios":"levelo://app?vid=88aa6873-5526-44de-90fd-2fc5f04237f3"},"vehicle_type_id":"4","last_reported":1703254007,"current_range_meters":18000,"station_id":"ce4bgj12rcd13ifvqbc0","pricing_plan_id":"free"},{"bike_id":"18048315-edf0-4bf0-805c-069e37abc949","system_id":"levelo_inurba_marseille","lat":43.309589,"lon":5.390258,"is_reserved":false,"is_disabled":false,"rental_uris":{"android":"levelo://app?vid=18048315-edf0-4bf0-805c-069e37abc949","ios":"levelo://app?vid=18048315-edf0-4bf0-805c-069e37abc949"},"vehicle_type_id":"4","last_reported":1703254007,"current_range_meters":29200,"station_id":"ce4bgup2rcd13ifvqco0","pricing_plan_id":"free"},{"bike_id":"a1289ec0-a92b-4bb2-9022-ca4ce8e253c2","system_id":"levelo_inurba_marseille","lat":43.309589,"lon":5.390258,"is_reserved":false,"is_disabled":false,"rental_uris":{"android":"levelo://app?vid=a1289ec0-a92b-4bb2-9022-ca4ce8e253c2","ios":"levelo://app?vid=a1289ec0-a92b-4bb2-9022-ca4ce8e253c2"},"vehicle_type_id":"4","last_reported":1703254007,"current_range_meters":27600,"station_id":"ce4bgup2rcd13ifvqco0","pricing_plan_id":"free"},{"bike_id":"53d02047-2fc2-4d30-88b2-583fd58923ab","system_id":"levelo_inurba_marseille","lat":43.31751,"lon":5.390177,"is_reserved":false,"is_disabled":false,"rental_uris":{"android":"levelo://app?vid=53d02047-2fc2-4d30-88b2-583fd58923ab","ios":"levelo://app?vid=53d02047-2fc2-4d30-88b2-583fd58923ab"},"vehicle_type_id":"4","last_reported":1703254007,"current_range_meters":31200,"station_id":"ce4bhqp2rcd13ifvqhng","pricing_plan_id":"free"},{"bike_id":"67075f34-c0eb-440c-98fa-4d8d0758ff1c","system_id":"levelo_inurba_marseille","lat":43.317508,"lon":5.390245,"is_reserved":false,"is_disabled":false,"rental_uris":{"android":"levelo://app?vid=67075f34-c0eb-440c-98fa-4d8d0758ff1c","ios":"levelo://app?vid=67075f34-c0eb-440c-98fa-4d8d0758ff1c"},"vehicle_type_id":"4","last_reported":1703254007,"current_range_meters":7200,"station_id":"ce4bhqp2rcd13ifvqhng","pricing_plan_id":"free"},{"bike_id":"9003bae7-1949-4f51-aa6a-2c60990b2dc5","system_id":"levelo_inurba_marseille","lat":43.298037,"lon":5.381066,"is_reserved":false,"is_disabled":false,"rental_uris":{"android":"levelo://app?vid=9003bae7-1949-4f51-aa6a-2c60990b2dc5","ios":"levelo://app?vid=9003bae7-1949-4f51-aa6a-2c60990b2dc5"},"vehicle_type_id":"4","last_reported":1703254007,"current_range_meters":0,"station_id":"ce4bgip2rcd13ifvqbb0","pricing_plan_id":"free"},{"bike_id":"e77300b3-609a-4d26-8ce3-9b44f84514e9","system_id":"levelo_inurba_marseille","lat":43.298037,"lon":5.381066,"is_reserved":false,"is_disabled":false,"rental_uris":{"android":"levelo://app?vid=e77300b3-609a-4d26-8ce3-9b44f84514e9","ios":"levelo://app?vid=e77300b3-609a-4d26-8ce3-9b44f84514e9"},"vehicle_type_id":"4","last_reported":1703254007,"current_range_meters":9600,"station_id":"ce4bgip2rcd13ifvqbb0","pricing_plan_id":"free"},{"bike_id":"436a1e09-bbce-475e-ba79-a706b737b869","system_id":"levelo_inurba_marseille","lat":43.298037,"lon":5.381066,"is_reserved":false,"is_disabled":false,"rental_uris":{"android":"levelo://app?vid=436a1e09-bbce-475e-ba79-a706b737b869","ios":"levelo://app?vid=436a1e09-bbce-475e-ba79-a706b737b869"},"vehicle_type_id":"4","last_reported":1703254007,"current_range_meters":26000,"station_id":"ce4bgip2rcd13ifvqbb0","pricing_plan_id":"free"},{"bike_id":"34c44b41-ca37-4809-9ede-1aad46ebc149","system_id":"levelo_inurba_marseille","lat":43.298037,"lon":5.381066,"is_reserved":false,"is_disabled":false,"rental_uris":{"android":"levelo://app?vid=34c44b41-ca37-4809-9ede-1aad46ebc149","ios":"levelo://app?vid=34c44b41-ca37-4809-9ede-1aad46ebc149"},"vehicle_type_id":"4","last_reported":1703254007,"current_range_meters":22000,"station_id":"ce4bgip2rcd13ifvqbb0","pricing_plan_id":"free"},{"bike_id":"be589ea1-cc40-43cf-9429-23aebc63e7a1","system_id":"levelo_inurba_marseille","lat":43.298037,"lon":5.381066,"is_reserved":false,"is_disabled":false,"rental_uris":{"android":"levelo://app?vid=be589ea1-cc40-43cf-9429-23aebc63e7a1","ios":"levelo://app?vid=be589ea1-cc40-43cf-9429-23aebc63e7a1"},"vehicle_type_id":"4","last_reported":1703254007,"current_range_meters":22400,"station_id":"ce4bgip2rcd13ifvqbb0","pricing_plan_id":"free"},{"bike_id":"df6ccfa8-218f-43c5-9db0-09aead58ee0d","system_id":"levelo_inurba_marseille","lat":43.304278,"lon":5.388868,"is_reserved":false,"is_disabled":false,"rental_uris":{"android":"levelo://app?vid=df6ccfa8-218f-43c5-9db0-09aead58ee0d","ios":"levelo://app?vid=df6ccfa8-218f-43c5-9db0-09aead58ee0d"},"vehicle_type_id":"4","last_reported":1703254007,"current_range_meters":8800,"station_id":"ce4bgk12rcd13ifvqbi0","pricing_plan_id":"free"},{"bike_id":"1378810b-812d-44e5-847a-1b7aeb90e4c4","system_id":"levelo_inurba_marseille","lat":43.299,"lon":5.38357,"is_reserved":false,"is_disabled":false,"rental_uris":{"android":"levelo://app?vid=1378810b-812d-44e5-847a-1b7aeb90e4c4","ios":"levelo://app?vid=1378810b-812d-44e5-847a-1b7aeb90e4c4"},"vehicle_type_id":"4","last_reported":1703254007,"current_range_meters":4000,"station_id":"","pricing_plan_id":"free"},{"bike_id":"8b581fed-2316-41e3-8aaf-57d157a8a78b","system_id":"levelo_inurba_marseille","lat":43.299724,"lon":5.384848,"is_reserved":false,"is_disabled":false,"rental_uris":{"android":"levelo://app?vid=8b581fed-2316-41e3-8aaf-57d157a8a78b","ios":"levelo://app?vid=8b581fed-2316-41e3-8aaf-57d157a8a78b"},"vehicle_type_id":"4","last_reported":1703254007,"current_range_meters":0,"station_id":"ce4bgj92rcd13ifvqbd0","pricing_plan_id":"free"},{"bike_id":"7919eadd-c520-4cda-9196-5dc5695e55f6","system_id":"levelo_inurba_marseille","lat":43.29821,"lon":5.38272,"is_reserved":false,"is_disabled":false,"rental_uris":{"android":"levelo://app?vid=7919eadd-c520-4cda-9196-5dc5695e55f6","ios":"levelo://app?vid=7919eadd-c520-4cda-9196-5dc5695e55f6"},"vehicle_type_id":"4","last_reported":1703254007,"current_range_meters":5600,"station_id":"","pricing_plan_id":"free"},{"bike_id":"6b777683-6399-4aa4-9228-fbded2e302dd","system_id":"levelo_inurba_marseille","lat":43.299717,"lon":5.384845,"is_reserved":false,"is_disabled":false,"rental_uris":{"android":"levelo://app?vid=6b777683-6399-4aa4-9228-fbded2e302dd","ios":"levelo://app?vid=6b777683-6399-4aa4-9228-fbded2e302dd"},"vehicle_type_id":"4","last_reported":1703254007,"current_range_meters":18400,"station_id":"ce4bgj92rcd13ifvqbd0","pricing_plan_id":"free"},{"bike_id":"d74ea429-ae47-4d66-b951-4817428ea4e2","system_id":"levelo_inurba_marseille","lat":43.29481,"lon":5.37459,"is_reserved":false,"is_disabled":false,"rental_uris":{"android":"levelo://app?vid=d74ea429-ae47-4d66-b951-4817428ea4e2","ios":"levelo://app?vid=d74ea429-ae47-4d66-b951-4817428ea4e2"},"vehicle_type_id":"4","last_reported":1703254007,"current_range_meters":20000,"station_id":"","pricing_plan_id":"free"},{"bike_id":"3567a1cd-a38d-4dff-a69c-cb1691ac80d7","system_id":"levelo_inurba_marseille","lat":43.32367,"lon":5.388836,"is_reserved":false,"is_disabled":false,"rental_uris":{"android":"levelo://app?vid=3567a1cd-a38d-4dff-a69c-cb1691ac80d7","ios":"levelo://app?vid=3567a1cd-a38d-4dff-a69c-cb1691ac80d7"},"vehicle_type_id":"4","last_reported":1703254007,"current_range_meters":23600,"station_id":"ce4bhqp2rcd13ifvqhog","pricing_plan_id":"free"},{"bike_id":"7b8c0bab-aa36-4ca7-b91b-8fdfbcf0792a","system_id":"levelo_inurba_marseille","lat":43.32367,"lon":5.388836,"is_reserved":false,"is_disabled":false,"rental_uris":{"android":"levelo://app?vid=7b8c0bab-aa36-4ca7-b91b-8fdfbcf0792a","ios":"levelo://app?vid=7b8c0bab-aa36-4ca7-b91b-8fdfbcf0792a"},"vehicle_type_id":"4","last_reported":1703254007,"current_range_meters":11200,"station_id":"ce4bhqp2rcd13ifvqhog","pricing_plan_id":"free"},{"bike_id":"7eada8fb-8c59-41ea-ae15-1164bd9fc1af","system_id":"levelo_inurba_marseille","lat":43.316395,"lon":5.393051,"is_reserved":false,"is_disabled":false,"rental_uris":{"android":"levelo://app?vid=7eada8fb-8c59-41ea-ae15-1164bd9fc1af","ios":"levelo://app?vid=7eada8fb-8c59-41ea-ae15-1164bd9fc1af"},"vehicle_type_id":"4","last_reported":1703254007,"current_range_meters":30800,"station_id":"","pricing_plan_id":"free"},{"bike_id":"e10562c5-3302-4e3b-8e87-7b9aad724931","system_id":"levelo_inurba_marseille","lat":43.29602,"lon":5.381084,"is_reserved":false,"is_disabled":false,"rental_uris":{"android":"levelo://app?vid=e10562c5-3302-4e3b-8e87-7b9aad724931","ios":"levelo://app?vid=e10562c5-3302-4e3b-8e87-7b9aad724931"},"vehicle_type_id":"4","last_reported":1703254007,"current_range_meters":29600,"station_id":"ce4bgl12rcd13ifvqbo0","pricing_plan_id":"free"},{"bike_id":"80a1888d-98b2-43e7-b11f-02ae0ed0f696","system_id":"levelo_inurba_marseille","lat":43.29601,"lon":5.381084,"is_reserved":false,"is_disabled":false,"rental_uris":{"android":"levelo://app?vid=80a1888d-98b2-43e7-b11f-02ae0ed0f696","ios":"levelo://app?vid=80a1888d-98b2-43e7-b11f-02ae0ed0f696"},"vehicle_type_id":"4","last_reported":1703254007,"current_range_meters":26400,"station_id":"ce4bgl12rcd13ifvqbo0","pricing_plan_id":"free"},{"bike_id":"8ecbcd81-09df-4260-9d01-ac96317d7e7b","system_id":"levelo_inurba_marseille","lat":43.30599,"lon":5.39343,"is_reserved":false,"is_disabled":false,"rental_uris":{"android":"levelo://app?vid=8ecbcd81-09df-4260-9d01-ac96317d7e7b","ios":"levelo://app?vid=8ecbcd81-09df-4260-9d01-ac96317d7e7b"},"vehicle_type_id":"4","last_reported":1703254007,"current_range_meters":5200,"station_id":"ce4bh0p2rcd13ifvqd80","pricing_plan_id":"free"},{"bike_id":"8048998a-f18b-433a-a4c6-3cdc3fdd1266","system_id":"levelo_inurba_marseille","lat":43.293009,"lon":5.374584,"is_reserved":false,"is_disabled":false,"rental_uris":{"android":"levelo://app?vid=8048998a-f18b-433a-a4c6-3cdc3fdd1266","ios":"levelo://app?vid=8048998a-f18b-433a-a4c6-3cdc3fdd1266"},"vehicle_type_id":"4","last_reported":1703254007,"current_range_meters":2400,"station_id":"ce4bgi12rcd13ifvqb70","pricing_plan_id":"free"},{"bike_id":"0c068311-d457-44b2-9737-e228aba0a29f","system_id":"levelo_inurba_marseille","lat":43.2936,"lon":5.37835,"is_reserved":false,"is_disabled":false,"rental_uris":{"android":"levelo://app?vid=0c068311-d457-44b2-9737-e228aba0a29f","ios":"levelo://app?vid=0c068311-d457-44b2-9737-e228aba0a29f"},"vehicle_type_id":"4","last_reported":1703254007,"current_range_meters":14000,"station_id":"ce4bgjh2rcd13ifvqbf0","pricing_plan_id":"free"},{"bike_id":"d408cc7d-4357-4160-b359-275d626bcaa1","system_id":"levelo_inurba_marseille","lat":43.30306,"lon":5.39212,"is_reserved":false,"is_disabled":false,"rental_uris":{"android":"levelo://app?vid=d408cc7d-4357-4160-b359-275d626bcaa1","ios":"levelo://app?vid=d408cc7d-4357-4160-b359-275d626bcaa1"},"vehicle_type_id":"4","last_reported":1703254007,"current_range_meters":0,"station_id":"ce4bgkh2rcd13ifvqbk0","pricing_plan_id":"free"},{"bike_id":"2369d257-7b85-4c09-bf68-3dcb7d2124a1","system_id":"levelo_inurba_marseille","lat":43.2936,"lon":5.37835,"is_reserved":false,"is_disabled":false,"rental_uris":{"android":"levelo://app?vid=2369d257-7b85-4c09-bf68-3dcb7d2124a1","ios":"levelo://app?vid=2369d257-7b85-4c09-bf68-3dcb7d2124a1"},"vehicle_type_id":"4","last_reported":1703254007,"current_range_meters":30800,"station_id":"ce4bgjh2rcd13ifvqbf0","pricing_plan_id":"free"},{"bike_id":"6b693e27-fab5-4940-b0fb-5abd62636702","system_id":"levelo_inurba_marseille","lat":43.279087,"lon":5.380114,"is_reserved":false,"is_disabled":false,"rental_uris":{"android":"levelo://app?vid=6b693e27-fab5-4940-b0fb-5abd62636702","ios":"levelo://app?vid=6b693e27-fab5-4940-b0fb-5abd62636702"},"vehicle_type_id":"4","last_reported":1703254007,"current_range_meters":11200,"station_id":"ce4bhf92rcd13ifvqf50","pricing_plan_id":"free"},{"bike_id":"d0f78990-d9a9-474e-9369-70d3a6637172","system_id":"levelo_inurba_marseille","lat":43.300843,"lon":5.39059,"is_reserved":false,"is_disabled":false,"rental_uris":{"android":"levelo://app?vid=d0f78990-d9a9-474e-9369-70d3a6637172","ios":"levelo://app?vid=d0f78990-d9a9-474e-9369-70d3a6637172"},"vehicle_type_id":"4","last_reported":1703254007,"current_range_meters":25200,"station_id":"ce4bh192rcd13ifvqdb0","pricing_plan_id":"free"},{"bike_id":"6bc5855a-ee21-4858-9bf8-5feca7bf3e21","system_id":"levelo_inurba_marseille","lat":43.30085,"lon":5.390856,"is_reserved":false,"is_disabled":false,"rental_uris":{"android":"levelo://app?vid=6bc5855a-ee21-4858-9bf8-5feca7bf3e21","ios":"levelo://app?vid=6bc5855a-ee21-4858-9bf8-5feca7bf3e21"},"vehicle_type_id":"4","last_reported":1703254007,"current_range_meters":15600,"station_id":"ce4bh192rcd13ifvqdb0","pricing_plan_id":"free"},{"bike_id":"a88983e0-4730-4fa9-b9c4-4d11216054ae","system_id":"levelo_inurba_marseille","lat":43.29882,"lon":5.38898,"is_reserved":false,"is_disabled":false,"rental_uris":{"android":"levelo://app?vid=a88983e0-4730-4fa9-b9c4-4d11216054ae","ios":"levelo://app?vid=a88983e0-4730-4fa9-b9c4-4d11216054ae"},"vehicle_type_id":"4","last_reported":1703254007,"current_range_meters":13600,"station_id":"","pricing_plan_id":"free"},{"bike_id":"2402cb48-051b-4573-a827-f3a835b6f8f2","system_id":"levelo_inurba_marseille","lat":43.313291,"lon":5.396838,"is_reserved":false,"is_disabled":false,"rental_uris":{"android":"levelo://app?vid=2402cb48-051b-4573-a827-f3a835b6f8f2","ios":"levelo://app?vid=2402cb48-051b-4573-a827-f3a835b6f8f2"},"vehicle_type_id":"4","last_reported":1703254007,"current_range_meters":24800,"station_id":"ce4bgvp2rcd13ifvqcu0","pricing_plan_id":"free"},{"bike_id":"d5695502-655c-489f-a11e-e194bcae505d","system_id":"levelo_inurba_marseille","lat":43.313291,"lon":5.396838,"is_reserved":false,"is_disabled":false,"rental_uris":{"android":"levelo://app?vid=d5695502-655c-489f-a11e-e194bcae505d","ios":"levelo://app?vid=d5695502-655c-489f-a11e-e194bcae505d"},"vehicle_type_id":"4","last_reported":1703254007,"current_range_meters":23600,"station_id":"ce4bgvp2rcd13ifvqcu0","pricing_plan_id":"free"},{"bike_id":"7b857d41-e736-4614-9ac3-9e3dcd7b0ee4","system_id":"levelo_inurba_marseille","lat":43.313291,"lon":5.396838,"is_reserved":false,"is_disabled":false,"rental_uris":{"android":"levelo://app?vid=7b857d41-e736-4614-9ac3-9e3dcd7b0ee4","ios":"levelo://app?vid=7b857d41-e736-4614-9ac3-9e3dcd7b0ee4"},"vehicle_type_id":"4","last_reported":1703254007,"current_range_meters":0,"station_id":"ce4bgvp2rcd13ifvqcu0","pricing_plan_id":"free"},{"bike_id":"02e2bda3-cff2-4e2e-a09c-2414381e418b","system_id":"levelo_inurba_marseille","lat":43.313291,"lon":5.396838,"is_reserved":false,"is_disabled":false,"rental_uris":{"android":"levelo://app?vid=02e2bda3-cff2-4e2e-a09c-2414381e418b","ios":"levelo://app?vid=02e2bda3-cff2-4e2e-a09c-2414381e418b"},"vehicle_type_id":"4","last_reported":1703254007,"current_range_meters":20000,"station_id":"ce4bgvp2rcd13ifvqcu0","pricing_plan_id":"free"},{"bike_id":"47cd86d7-c3bc-469e-8f59-bfdef043b844","system_id":"levelo_inurba_marseille","lat":43.291994,"lon":5.357886,"is_reserved":false,"is_disabled":false,"rental_uris":{"android":"levelo://app?vid=47cd86d7-c3bc-469e-8f59-bfdef043b844","ios":"levelo://app?vid=47cd86d7-c3bc-469e-8f59-bfdef043b844"},"vehicle_type_id":"4","last_reported":1703254007,"current_range_meters":16400,"station_id":"ce4bhb12rcd13ifvqel0","pricing_plan_id":"free"},{"bike_id":"73fa7f42-8e3e-49a0-b6f9-c711161ecae7","system_id":"levelo_inurba_marseille","lat":43.31316,"lon":5.39699,"is_reserved":false,"is_disabled":false,"rental_uris":{"android":"levelo://app?vid=73fa7f42-8e3e-49a0-b6f9-c711161ecae7","ios":"levelo://app?vid=73fa7f42-8e3e-49a0-b6f9-c711161ecae7"},"vehicle_type_id":"4","last_reported":1703254007,"current_range_meters":23200,"station_id":"ce4bgvp2rcd13ifvqcu0","pricing_plan_id":"free"},{"bike_id":"ec144f61-b20f-4c1e-b20d-6719f292ae4a","system_id":"levelo_inurba_marseille","lat":43.29529,"lon":5.385581,"is_reserved":false,"is_disabled":false,"rental_uris":{"android":"levelo://app?vid=ec144f61-b20f-4c1e-b20d-6719f292ae4a","ios":"levelo://app?vid=ec144f61-b20f-4c1e-b20d-6719f292ae4a"},"vehicle_type_id":"4","last_reported":1703254007,"current_range_meters":28400,"station_id":"ce4bgih2rcd13ifvqba0","pricing_plan_id":"free"},{"bike_id":"a7ce0167-c394-4764-b9f0-6da36d3975d6","system_id":"levelo_inurba_marseille","lat":43.29529,"lon":5.385581,"is_reserved":false,"is_disabled":false,"rental_uris":{"android":"levelo://app?vid=a7ce0167-c394-4764-b9f0-6da36d3975d6","ios":"levelo://app?vid=a7ce0167-c394-4764-b9f0-6da36d3975d6"},"vehicle_type_id":"4","last_reported":1703254007,"current_range_meters":22000,"station_id":"ce4bgih2rcd13ifvqba0","pricing_plan_id":"free"},{"bike_id":"79567e16-a743-4569-942c-0e66c5e940d9","system_id":"levelo_inurba_marseille","lat":43.29529,"lon":5.385581,"is_reserved":false,"is_disabled":false,"rental_uris":{"android":"levelo://app?vid=79567e16-a743-4569-942c-0e66c5e940d9","ios":"levelo://app?vid=79567e16-a743-4569-942c-0e66c5e940d9"},"vehicle_type_id":"4","last_reported":1703254007,"current_range_meters":24000,"station_id":"ce4bgih2rcd13ifvqba0","pricing_plan_id":"free"},{"bike_id":"d7bf4ae1-57db-4151-be0d-1515061920c6","system_id":"levelo_inurba_marseille","lat":43.295293,"lon":5.385473,"is_reserved":false,"is_disabled":false,"rental_uris":{"android":"levelo://app?vid=d7bf4ae1-57db-4151-be0d-1515061920c6","ios":"levelo://app?vid=d7bf4ae1-57db-4151-be0d-1515061920c6"},"vehicle_type_id":"4","last_reported":1703254007,"current_range_meters":31200,"station_id":"ce4bgih2rcd13ifvqba0","pricing_plan_id":"free"},{"bike_id":"98646402-17ca-4ea9-940a-c36fce04b23a","system_id":"levelo_inurba_marseille","lat":43.29529,"lon":5.385581,"is_reserved":false,"is_disabled":false,"rental_uris":{"android":"levelo://app?vid=98646402-17ca-4ea9-940a-c36fce04b23a","ios":"levelo://app?vid=98646402-17ca-4ea9-940a-c36fce04b23a"},"vehicle_type_id":"4","last_reported":1703254007,"current_range_meters":800,"station_id":"ce4bgih2rcd13ifvqba0","pricing_plan_id":"free"},{"bike_id":"d06d2045-9f0f-4031-9be3-055c83c54d6b","system_id":"levelo_inurba_marseille","lat":43.30219,"lon":5.39462,"is_reserved":false,"is_disabled":false,"rental_uris":{"android":"levelo://app?vid=d06d2045-9f0f-4031-9be3-055c83c54d6b","ios":"levelo://app?vid=d06d2045-9f0f-4031-9be3-055c83c54d6b"},"vehicle_type_id":"4","last_reported":1703254007,"current_range_meters":31200,"station_id":"ce4bh0p2rcd13ifvqd70","pricing_plan_id":"free"},{"bike_id":"ebc2f3e8-9794-4274-8df0-6592ae5f2e88","system_id":"levelo_inurba_marseille","lat":43.30214,"lon":5.39464,"is_reserved":false,"is_disabled":false,"rental_uris":{"android":"levelo://app?vid=ebc2f3e8-9794-4274-8df0-6592ae5f2e88","ios":"levelo://app?vid=ebc2f3e8-9794-4274-8df0-6592ae5f2e88"},"vehicle_type_id":"4","last_reported":1703254007,"current_range_meters":0,"station_id":"ce4bh0p2rcd13ifvqd70","pricing_plan_id":"free"},{"bike_id":"b29028fa-119d-47fc-827d-0f06df22e924","system_id":"levelo_inurba_marseille","lat":43.30214,"lon":5.39469,"is_reserved":false,"is_disabled":false,"rental_uris":{"android":"levelo://app?vid=b29028fa-119d-47fc-827d-0f06df22e924","ios":"levelo://app?vid=b29028fa-119d-47fc-827d-0f06df22e924"},"vehicle_type_id":"4","last_reported":1703254007,"current_range_meters":15600,"station_id":"ce4bh0p2rcd13ifvqd70","pricing_plan_id":"free"},{"bike_id":"6757c67f-5f0d-4286-b540-2a70a66d0984","system_id":"levelo_inurba_marseille","lat":43.30204,"lon":5.39462,"is_reserved":false,"is_disabled":false,"rental_uris":{"android":"levelo://app?vid=6757c67f-5f0d-4286-b540-2a70a66d0984","ios":"levelo://app?vid=6757c67f-5f0d-4286-b540-2a70a66d0984"},"vehicle_type_id":"4","last_reported":1703254007,"current_range_meters":9200,"station_id":"ce4bh0p2rcd13ifvqd70","pricing_plan_id":"free"},{"bike_id":"10066e4b-dd04-4eb1-862e-3dd98629d501","system_id":"levelo_inurba_marseille","lat":43.290631,"lon":5.359244,"is_reserved":false,"is_disabled":false,"rental_uris":{"android":"levelo://app?vid=10066e4b-dd04-4eb1-862e-3dd98629d501","ios":"levelo://app?vid=10066e4b-dd04-4eb1-862e-3dd98629d501"},"vehicle_type_id":"4","last_reported":1703254007,"current_range_meters":18800,"station_id":"ce4bha92rcd13ifvqeg0","pricing_plan_id":"free"},{"bike_id":"7a54abc9-86d5-4e44-9d6a-71690cb57156","system_id":"levelo_inurba_marseille","lat":43.294153,"lon":5.386305,"is_reserved":false,"is_disabled":false,"rental_uris":{"android":"levelo://app?vid=7a54abc9-86d5-4e44-9d6a-71690cb57156","ios":"levelo://app?vid=7a54abc9-86d5-4e44-9d6a-71690cb57156"},"vehicle_type_id":"4","last_reported":1703254007,"current_range_meters":26400,"station_id":"ce4bh2h2rcd13ifvqdh0","pricing_plan_id":"free"},{"bike_id":"56b2e45b-10c3-44d5-932c-ea16831aa1c5","system_id":"levelo_inurba_marseille","lat":43.294153,"lon":5.386305,"is_reserved":false,"is_disabled":false,"rental_uris":{"android":"levelo://app?vid=56b2e45b-10c3-44d5-932c-ea16831aa1c5","ios":"levelo://app?vid=56b2e45b-10c3-44d5-932c-ea16831aa1c5"},"vehicle_type_id":"4","last_reported":1703254007,"current_range_meters":12800,"station_id":"ce4bh2h2rcd13ifvqdh0","pricing_plan_id":"free"},{"bike_id":"d4bcdfbf-9dbc-4bf0-ab43-2a47752864f7","system_id":"levelo_inurba_marseille","lat":43.290327,"lon":5.375711,"is_reserved":false,"is_disabled":false,"rental_uris":{"android":"levelo://app?vid=d4bcdfbf-9dbc-4bf0-ab43-2a47752864f7","ios":"levelo://app?vid=d4bcdfbf-9dbc-4bf0-ab43-2a47752864f7"},"vehicle_type_id":"4","last_reported":1703254007,"current_range_meters":3600,"station_id":"ce4bh692rcd13ifvqe90","pricing_plan_id":"free"},{"bike_id":"fb76969b-aae9-46c7-bf02-4e3167d081f4","system_id":"levelo_inurba_marseille","lat":43.289184,"lon":5.366408,"is_reserved":false,"is_disabled":false,"rental_uris":{"android":"levelo://app?vid=fb76969b-aae9-46c7-bf02-4e3167d081f4","ios":"levelo://app?vid=fb76969b-aae9-46c7-bf02-4e3167d081f4"},"vehicle_type_id":"4","last_reported":1703254007,"current_range_meters":18800,"station_id":"ce4bhap2rcd13ifvqek0","pricing_plan_id":"free"},{"bike_id":"da78e844-c4d8-4975-b5ea-4eac53367361","system_id":"levelo_inurba_marseille","lat":43.294162,"lon":5.386292,"is_reserved":false,"is_disabled":false,"rental_uris":{"android":"levelo://app?vid=da78e844-c4d8-4975-b5ea-4eac53367361","ios":"levelo://app?vid=da78e844-c4d8-4975-b5ea-4eac53367361"},"vehicle_type_id":"4","last_reported":1703254007,"current_range_meters":16000,"station_id":"ce4bh2h2rcd13ifvqdh0","pricing_plan_id":"free"},{"bike_id":"8283f2fa-4d90-467f-8f99-50c05fa70928","system_id":"levelo_inurba_marseille","lat":43.289468,"lon":5.363719,"is_reserved":false,"is_disabled":false,"rental_uris":{"android":"levelo://app?vid=8283f2fa-4d90-467f-8f99-50c05fa70928","ios":"levelo://app?vid=8283f2fa-4d90-467f-8f99-50c05fa70928"},"vehicle_type_id":"4","last_reported":1703254007,"current_range_meters":14000,"station_id":"ce4bhc92rcd13ifvqetg","pricing_plan_id":"free"},{"bike_id":"a6d29ad0-72e4-4c09-9629-c5e81a5ce307","system_id":"levelo_inurba_marseille","lat":43.304274,"lon":5.397513,"is_reserved":false,"is_disabled":false,"rental_uris":{"android":"levelo://app?vid=a6d29ad0-72e4-4c09-9629-c5e81a5ce307","ios":"levelo://app?vid=a6d29ad0-72e4-4c09-9629-c5e81a5ce307"},"vehicle_type_id":"4","last_reported":1703254007,"current_range_meters":10000,"station_id":"ce4bh092rcd13ifvqd20","pricing_plan_id":"free"},{"bike_id":"2460a6f1-6c6f-435b-b3cb-313e07d711cd","system_id":"levelo_inurba_marseille","lat":43.292644,"lon":5.384257,"is_reserved":false,"is_disabled":false,"rental_uris":{"android":"levelo://app?vid=2460a6f1-6c6f-435b-b3cb-313e07d711cd","ios":"levelo://app?vid=2460a6f1-6c6f-435b-b3cb-313e07d711cd"},"vehicle_type_id":"4","last_reported":1703254007,"current_range_meters":2400,"station_id":"ce4bh692rcd13ifvqea0","pricing_plan_id":"free"},{"bike_id":"eb8744a2-0b3d-4ff0-900f-a811e8d5f83e","system_id":"levelo_inurba_marseille","lat":43.290104,"lon":5.356111,"is_reserved":false,"is_disabled":false,"rental_uris":{"android":"levelo://app?vid=eb8744a2-0b3d-4ff0-900f-a811e8d5f83e","ios":"levelo://app?vid=eb8744a2-0b3d-4ff0-900f-a811e8d5f83e"},"vehicle_type_id":"4","last_reported":1703254007,"current_range_meters":8800,"station_id":"ce4bhb92rcd13ifvqen0","pricing_plan_id":"free"},{"bike_id":"72e87bd1-9136-4150-ba07-5ec69d0c9383","system_id":"levelo_inurba_marseille","lat":43.290995,"lon":5.381361,"is_reserved":false,"is_disabled":false,"rental_uris":{"android":"levelo://app?vid=72e87bd1-9136-4150-ba07-5ec69d0c9383","ios":"levelo://app?vid=72e87bd1-9136-4150-ba07-5ec69d0c9383"},"vehicle_type_id":"4","last_reported":1703254007,"current_range_meters":28400,"station_id":"ce4bh512rcd13ifvqe2g","pricing_plan_id":"free"},{"bike_id":"32246b07-da54-4f28-ae74-48f4434a1fbd","system_id":"levelo_inurba_marseille","lat":43.2978,"lon":5.39334,"is_reserved":false,"is_disabled":false,"rental_uris":{"android":"levelo://app?vid=32246b07-da54-4f28-ae74-48f4434a1fbd","ios":"levelo://app?vid=32246b07-da54-4f28-ae74-48f4434a1fbd"},"vehicle_type_id":"4","last_reported":1703254007,"current_range_meters":3200,"station_id":"chh1huq6cuj3fo74tm60","pricing_plan_id":"free"},{"bike_id":"11b40e71-58b2-427d-a6d0-5fd58ead02e3","system_id":"levelo_inurba_marseille","lat":43.295169,"lon":5.390426,"is_reserved":false,"is_disabled":false,"rental_uris":{"android":"levelo://app?vid=11b40e71-58b2-427d-a6d0-5fd58ead02e3","ios":"levelo://app?vid=11b40e71-58b2-427d-a6d0-5fd58ead02e3"},"vehicle_type_id":"4","last_reported":1703254007,"current_range_meters":25200,"station_id":"ce4bh3p2rcd13ifvqdp0","pricing_plan_id":"free"},{"bike_id":"50bda933-1c61-4a33-b7c5-50d43168b088","system_id":"levelo_inurba_marseille","lat":43.289741,"lon":5.378306,"is_reserved":false,"is_disabled":false,"rental_uris":{"android":"levelo://app?vid=50bda933-1c61-4a33-b7c5-50d43168b088","ios":"levelo://app?vid=50bda933-1c61-4a33-b7c5-50d43168b088"},"vehicle_type_id":"4","last_reported":1703254007,"current_range_meters":26400,"station_id":"ce4bh9p2rcd13ifvqed0","pricing_plan_id":"free"},{"bike_id":"1a38101a-c1a2-48be-a509-21130f0f1143","system_id":"levelo_inurba_marseille","lat":43.295169,"lon":5.390426,"is_reserved":false,"is_disabled":false,"rental_uris":{"android":"levelo://app?vid=1a38101a-c1a2-48be-a509-21130f0f1143","ios":"levelo://app?vid=1a38101a-c1a2-48be-a509-21130f0f1143"},"vehicle_type_id":"4","last_reported":1703254007,"current_range_meters":14400,"station_id":"ce4bh3p2rcd13ifvqdp0","pricing_plan_id":"free"},{"bike_id":"6134126a-0252-45d4-b65c-7704c0b8e12d","system_id":"levelo_inurba_marseille","lat":43.295169,"lon":5.390426,"is_reserved":false,"is_disabled":false,"rental_uris":{"android":"levelo://app?vid=6134126a-0252-45d4-b65c-7704c0b8e12d","ios":"levelo://app?vid=6134126a-0252-45d4-b65c-7704c0b8e12d"},"vehicle_type_id":"4","last_reported":1703254007,"current_range_meters":19200,"station_id":"ce4bh3p2rcd13ifvqdp0","pricing_plan_id":"free"},{"bike_id":"7855877c-1b2d-49d8-b9d2-93483fde5acd","system_id":"levelo_inurba_marseille","lat":43.312609,"lon":5.401662,"is_reserved":false,"is_disabled":false,"rental_uris":{"android":"levelo://app?vid=7855877c-1b2d-49d8-b9d2-93483fde5acd","ios":"levelo://app?vid=7855877c-1b2d-49d8-b9d2-93483fde5acd"},"vehicle_type_id":"4","last_reported":1703254007,"current_range_meters":6000,"station_id":"ce4bh092rcd13ifvqd30","pricing_plan_id":"free"},{"bike_id":"248036c1-af81-4d27-9242-6593b46581d0","system_id":"levelo_inurba_marseille","lat":43.33754,"lon":5.37441,"is_reserved":false,"is_disabled":false,"rental_uris":{"android":"levelo://app?vid=248036c1-af81-4d27-9242-6593b46581d0","ios":"levelo://app?vid=248036c1-af81-4d27-9242-6593b46581d0"},"vehicle_type_id":"4","last_reported":1703254007,"current_range_meters":31200,"station_id":"ce4rr2p2rcd13i802rgg","pricing_plan_id":"free"},{"bike_id":"41c046a6-7cba-49c2-8c7a-f269d8a6e461","system_id":"levelo_inurba_marseille","lat":43.337509,"lon":5.374629,"is_reserved":false,"is_disabled":false,"rental_uris":{"android":"levelo://app?vid=41c046a6-7cba-49c2-8c7a-f269d8a6e461","ios":"levelo://app?vid=41c046a6-7cba-49c2-8c7a-f269d8a6e461"},"vehicle_type_id":"4","last_reported":1703254007,"current_range_meters":12400,"station_id":"ce4rr2p2rcd13i802rgg","pricing_plan_id":"free"},{"bike_id":"e3b05bb2-3bf6-4e93-a935-8d00a3036fa0","system_id":"levelo_inurba_marseille","lat":43.3376,"lon":5.374393,"is_reserved":false,"is_disabled":false,"rental_uris":{"android":"levelo://app?vid=e3b05bb2-3bf6-4e93-a935-8d00a3036fa0","ios":"levelo://app?vid=e3b05bb2-3bf6-4e93-a935-8d00a3036fa0"},"vehicle_type_id":"4","last_reported":1703254007,"current_range_meters":4400,"station_id":"ce4rr2p2rcd13i802rgg","pricing_plan_id":"free"},{"bike_id":"4dfd2fe6-d396-45fe-a9f3-2cf80069454a","system_id":"levelo_inurba_marseille","lat":43.337626,"lon":5.374305,"is_reserved":false,"is_disabled":false,"rental_uris":{"android":"levelo://app?vid=4dfd2fe6-d396-45fe-a9f3-2cf80069454a","ios":"levelo://app?vid=4dfd2fe6-d396-45fe-a9f3-2cf80069454a"},"vehicle_type_id":"4","last_reported":1703254007,"current_range_meters":11200,"station_id":"ce4rr2p2rcd13i802rgg","pricing_plan_id":"free"},{"bike_id":"5f6df711-5c47-41c8-b2e0-ca21db0773eb","system_id":"levelo_inurba_marseille","lat":43.33767,"lon":5.374317,"is_reserved":false,"is_disabled":false,"rental_uris":{"android":"levelo://app?vid=5f6df711-5c47-41c8-b2e0-ca21db0773eb","ios":"levelo://app?vid=5f6df711-5c47-41c8-b2e0-ca21db0773eb"},"vehicle_type_id":"4","last_reported":1703254007,"current_range_meters":10000,"station_id":"","pricing_plan_id":"free"},{"bike_id":"a9ebd4dd-e0ec-4da9-bfae-dffbe33bcbd7","system_id":"levelo_inurba_marseille","lat":43.30642,"lon":5.401031,"is_reserved":false,"is_disabled":false,"rental_uris":{"android":"levelo://app?vid=a9ebd4dd-e0ec-4da9-bfae-dffbe33bcbd7","ios":"levelo://app?vid=a9ebd4dd-e0ec-4da9-bfae-dffbe33bcbd7"},"vehicle_type_id":"4","last_reported":1703254007,"current_range_meters":22800,"station_id":"ce4bh112rcd13ifvqda0","pricing_plan_id":"free"},{"bike_id":"af782aaf-55ff-4275-9a35-1eaf63c3c50f","system_id":"levelo_inurba_marseille","lat":43.33768,"lon":5.37433,"is_reserved":false,"is_disabled":false,"rental_uris":{"android":"levelo://app?vid=af782aaf-55ff-4275-9a35-1eaf63c3c50f","ios":"levelo://app?vid=af782aaf-55ff-4275-9a35-1eaf63c3c50f"},"vehicle_type_id":"4","last_reported":1703254007,"current_range_meters":13600,"station_id":"ce4rr2p2rcd13i802rgg","pricing_plan_id":"free"},{"bike_id":"48361e8a-6fad-43b0-9b77-4696a50c3aea","system_id":"levelo_inurba_marseille","lat":43.33769,"lon":5.37434,"is_reserved":false,"is_disabled":false,"rental_uris":{"android":"levelo://app?vid=48361e8a-6fad-43b0-9b77-4696a50c3aea","ios":"levelo://app?vid=48361e8a-6fad-43b0-9b77-4696a50c3aea"},"vehicle_type_id":"4","last_reported":1703254007,"current_range_meters":5600,"station_id":"ce4rr2p2rcd13i802rgg","pricing_plan_id":"free"},{"bike_id":"8ed93715-ec1e-4703-acb2-7183fed943a4","system_id":"levelo_inurba_marseille","lat":43.3377,"lon":5.37429,"is_reserved":false,"is_disabled":false,"rental_uris":{"android":"levelo://app?vid=8ed93715-ec1e-4703-acb2-7183fed943a4","ios":"levelo://app?vid=8ed93715-ec1e-4703-acb2-7183fed943a4"},"vehicle_type_id":"4","last_reported":1703254007,"current_range_meters":6800,"station_id":"ce4rr2p2rcd13i802rgg","pricing_plan_id":"free"},{"bike_id":"8516412d-ed1b-43c4-bd1e-951e035510a0","system_id":"levelo_inurba_marseille","lat":43.337693,"lon":5.374396,"is_reserved":false,"is_disabled":false,"rental_uris":{"android":"levelo://app?vid=8516412d-ed1b-43c4-bd1e-951e035510a0","ios":"levelo://app?vid=8516412d-ed1b-43c4-bd1e-951e035510a0"},"vehicle_type_id":"4","last_reported":1703254007,"current_range_meters":11600,"station_id":"ce4rr2p2rcd13i802rgg","pricing_plan_id":"free"},{"bike_id":"db5ccab8-7a8a-4751-a062-0c2ba2bfc08b","system_id":"levelo_inurba_marseille","lat":43.33778,"lon":5.37432,"is_reserved":false,"is_disabled":false,"rental_uris":{"android":"levelo://app?vid=db5ccab8-7a8a-4751-a062-0c2ba2bfc08b","ios":"levelo://app?vid=db5ccab8-7a8a-4751-a062-0c2ba2bfc08b"},"vehicle_type_id":"4","last_reported":1703254007,"current_range_meters":12800,"station_id":"","pricing_plan_id":"free"},{"bike_id":"aa2bb981-e08f-448f-a65e-a15a6461a4f7","system_id":"levelo_inurba_marseille","lat":43.337805,"lon":5.374345,"is_reserved":false,"is_disabled":false,"rental_uris":{"android":"levelo://app?vid=aa2bb981-e08f-448f-a65e-a15a6461a4f7","ios":"levelo://app?vid=aa2bb981-e08f-448f-a65e-a15a6461a4f7"},"vehicle_type_id":"4","last_reported":1703254007,"current_range_meters":14000,"station_id":"ce4rr2p2rcd13i802rgg","pricing_plan_id":"free"},{"bike_id":"b9c8fefe-fcf2-4e1c-95c9-c0ffed42221d","system_id":"levelo_inurba_marseille","lat":43.337849,"lon":5.374434,"is_reserved":false,"is_disabled":false,"rental_uris":{"android":"levelo://app?vid=b9c8fefe-fcf2-4e1c-95c9-c0ffed42221d","ios":"levelo://app?vid=b9c8fefe-fcf2-4e1c-95c9-c0ffed42221d"},"vehicle_type_id":"4","last_reported":1703254007,"current_range_meters":0,"station_id":"ce4rr2p2rcd13i802rgg","pricing_plan_id":"free"},{"bike_id":"4991a69a-b5aa-4770-a7af-d92606e5e845","system_id":"levelo_inurba_marseille","lat":43.301117,"lon":5.398795,"is_reserved":false,"is_disabled":false,"rental_uris":{"android":"levelo://app?vid=4991a69a-b5aa-4770-a7af-d92606e5e845","ios":"levelo://app?vid=4991a69a-b5aa-4770-a7af-d92606e5e845"},"vehicle_type_id":"4","last_reported":1703254007,"current_range_meters":25200,"station_id":"ce4bh0h2rcd13ifvqd40","pricing_plan_id":"free"},{"bike_id":"7e87bb74-51fe-4ea9-9748-f14a37b5998b","system_id":"levelo_inurba_marseille","lat":43.28727,"lon":5.36078,"is_reserved":false,"is_disabled":false,"rental_uris":{"android":"levelo://app?vid=7e87bb74-51fe-4ea9-9748-f14a37b5998b","ios":"levelo://app?vid=7e87bb74-51fe-4ea9-9748-f14a37b5998b"},"vehicle_type_id":"4","last_reported":1703254007,"current_range_meters":15600,"station_id":"cki0cbj6b192h4jlfktg","pricing_plan_id":"free"},{"bike_id":"7edb28f9-0dad-45d7-ba41-e10b3bae11db","system_id":"levelo_inurba_marseille","lat":43.286591,"lon":5.363346,"is_reserved":false,"is_disabled":false,"rental_uris":{"android":"levelo://app?vid=7edb28f9-0dad-45d7-ba41-e10b3bae11db","ios":"levelo://app?vid=7edb28f9-0dad-45d7-ba41-e10b3bae11db"},"vehicle_type_id":"4","last_reported":1703254007,"current_range_meters":7600,"station_id":"ce4bhah2rcd13ifvqej0","pricing_plan_id":"free"},{"bike_id":"49743674-f350-4dac-934c-3cecc9796ad8","system_id":"levelo_inurba_marseille","lat":43.286591,"lon":5.363346,"is_reserved":false,"is_disabled":false,"rental_uris":{"android":"levelo://app?vid=49743674-f350-4dac-934c-3cecc9796ad8","ios":"levelo://app?vid=49743674-f350-4dac-934c-3cecc9796ad8"},"vehicle_type_id":"4","last_reported":1703254007,"current_range_meters":16800,"station_id":"ce4bhah2rcd13ifvqej0","pricing_plan_id":"free"},{"bike_id":"5e6c65bf-af01-4104-a11a-f2867e63ccec","system_id":"levelo_inurba_marseille","lat":43.298681,"lon":5.397225,"is_reserved":false,"is_disabled":false,"rental_uris":{"android":"levelo://app?vid=5e6c65bf-af01-4104-a11a-f2867e63ccec","ios":"levelo://app?vid=5e6c65bf-af01-4104-a11a-f2867e63ccec"},"vehicle_type_id":"4","last_reported":1703254007,"current_range_meters":0,"station_id":"ce4bh0h2rcd13ifvqd50","pricing_plan_id":"free"},{"bike_id":"1e0ce1fa-c7cb-4054-b946-973cb3a860ab","system_id":"levelo_inurba_marseille","lat":43.286591,"lon":5.363346,"is_reserved":false,"is_disabled":false,"rental_uris":{"android":"levelo://app?vid=1e0ce1fa-c7cb-4054-b946-973cb3a860ab","ios":"levelo://app?vid=1e0ce1fa-c7cb-4054-b946-973cb3a860ab"},"vehicle_type_id":"4","last_reported":1703254007,"current_range_meters":14000,"station_id":"ce4bhah2rcd13ifvqej0","pricing_plan_id":"free"},{"bike_id":"1980a47c-13ab-4f34-b355-919aa26e5bd5","system_id":"levelo_inurba_marseille","lat":43.286591,"lon":5.363346,"is_reserved":false,"is_disabled":false,"rental_uris":{"android":"levelo://app?vid=1980a47c-13ab-4f34-b355-919aa26e5bd5","ios":"levelo://app?vid=1980a47c-13ab-4f34-b355-919aa26e5bd5"},"vehicle_type_id":"4","last_reported":1703254007,"current_range_meters":23200,"station_id":"ce4bhah2rcd13ifvqej0","pricing_plan_id":"free"},{"bike_id":"72a38012-f268-49d7-ba60-710a0e4d28c3","system_id":"levelo_inurba_marseille","lat":43.286961,"lon":5.373785,"is_reserved":false,"is_disabled":false,"rental_uris":{"android":"levelo://app?vid=72a38012-f268-49d7-ba60-710a0e4d28c3","ios":"levelo://app?vid=72a38012-f268-49d7-ba60-710a0e4d28c3"},"vehicle_type_id":"4","last_reported":1703254007,"current_range_meters":18000,"station_id":"ce4bh3p2rcd13ifvqdq0","pricing_plan_id":"free"},{"bike_id":"da2edeee-6596-4f18-bbd1-9a61c49fd497","system_id":"levelo_inurba_marseille","lat":43.28693,"lon":5.374028,"is_reserved":false,"is_disabled":false,"rental_uris":{"android":"levelo://app?vid=da2edeee-6596-4f18-bbd1-9a61c49fd497","ios":"levelo://app?vid=da2edeee-6596-4f18-bbd1-9a61c49fd497"},"vehicle_type_id":"4","last_reported":1703254007,"current_range_meters":19600,"station_id":"ce4bh3p2rcd13ifvqdq0","pricing_plan_id":"free"},{"bike_id":"05e2eb45-55b2-476e-93df-e5be2b273417","system_id":"levelo_inurba_marseille","lat":43.286961,"lon":5.373785,"is_reserved":false,"is_disabled":false,"rental_uris":{"android":"levelo://app?vid=05e2eb45-55b2-476e-93df-e5be2b273417","ios":"levelo://app?vid=05e2eb45-55b2-476e-93df-e5be2b273417"},"vehicle_type_id":"4","last_reported":1703254007,"current_range_meters":0,"station_id":"ce4bh3p2rcd13ifvqdq0","pricing_plan_id":"free"},{"bike_id":"11490594-9491-4bd0-ba28-f0b33d9c46cc","system_id":"levelo_inurba_marseille","lat":43.302759,"lon":5.400793,"is_reserved":false,"is_disabled":false,"rental_uris":{"android":"levelo://app?vid=11490594-9491-4bd0-ba28-f0b33d9c46cc","ios":"levelo://app?vid=11490594-9491-4bd0-ba28-f0b33d9c46cc"},"vehicle_type_id":"4","last_reported":1703254007,"current_range_meters":24000,"station_id":"ce4bgvh2rcd13ifvqcs0","pricing_plan_id":"free"},{"bike_id":"7f6621ec-31af-4f71-ae87-97a6b5f5e799","system_id":"levelo_inurba_marseille","lat":43.302759,"lon":5.400793,"is_reserved":false,"is_disabled":false,"rental_uris":{"android":"levelo://app?vid=7f6621ec-31af-4f71-ae87-97a6b5f5e799","ios":"levelo://app?vid=7f6621ec-31af-4f71-ae87-97a6b5f5e799"},"vehicle_type_id":"4","last_reported":1703254007,"current_range_meters":13200,"station_id":"ce4bgvh2rcd13ifvqcs0","pricing_plan_id":"free"},{"bike_id":"53e106bc-16d7-4f35-bca7-550f31096dd8","system_id":"levelo_inurba_marseille","lat":43.286039,"lon":5.370679,"is_reserved":false,"is_disabled":false,"rental_uris":{"android":"levelo://app?vid=53e106bc-16d7-4f35-bca7-550f31096dd8","ios":"levelo://app?vid=53e106bc-16d7-4f35-bca7-550f31096dd8"},"vehicle_type_id":"4","last_reported":1703254007,"current_range_meters":17200,"station_id":"ce4bht12rcd13ifvqi60","pricing_plan_id":"free"},{"bike_id":"4ee9276d-8926-4210-b649-6a1eba5f5b13","system_id":"levelo_inurba_marseille","lat":43.286039,"lon":5.370679,"is_reserved":false,"is_disabled":false,"rental_uris":{"android":"levelo://app?vid=4ee9276d-8926-4210-b649-6a1eba5f5b13","ios":"levelo://app?vid=4ee9276d-8926-4210-b649-6a1eba5f5b13"},"vehicle_type_id":"4","last_reported":1703254007,"current_range_meters":29200,"station_id":"ce4bht12rcd13ifvqi60","pricing_plan_id":"free"},{"bike_id":"02cd346a-9a53-47c6-addf-196767b5c736","system_id":"levelo_inurba_marseille","lat":43.291994,"lon":5.392907,"is_reserved":false,"is_disabled":false,"rental_uris":{"android":"levelo://app?vid=02cd346a-9a53-47c6-addf-196767b5c736","ios":"levelo://app?vid=02cd346a-9a53-47c6-addf-196767b5c736"},"vehicle_type_id":"4","last_reported":1703254007,"current_range_meters":21200,"station_id":"ce4bh192rcd13ifvqdd0","pricing_plan_id":"free"},{"bike_id":"c12caa8f-9d44-45d8-bbc8-034cdb6a5593","system_id":"levelo_inurba_marseille","lat":43.291994,"lon":5.392907,"is_reserved":false,"is_disabled":false,"rental_uris":{"android":"levelo://app?vid=c12caa8f-9d44-45d8-bbc8-034cdb6a5593","ios":"levelo://app?vid=c12caa8f-9d44-45d8-bbc8-034cdb6a5593"},"vehicle_type_id":"4","last_reported":1703254007,"current_range_meters":8400,"station_id":"ce4bh192rcd13ifvqdd0","pricing_plan_id":"free"},{"bike_id":"e2adfa7c-882e-48a1-9ee4-b36e6186ebbf","system_id":"levelo_inurba_marseille","lat":43.330912,"lon":5.396935,"is_reserved":false,"is_disabled":false,"rental_uris":{"android":"levelo://app?vid=e2adfa7c-882e-48a1-9ee4-b36e6186ebbf","ios":"levelo://app?vid=e2adfa7c-882e-48a1-9ee4-b36e6186ebbf"},"vehicle_type_id":"4","last_reported":1703254007,"current_range_meters":18400,"station_id":"","pricing_plan_id":"free"},{"bike_id":"7ba8ace5-c6a2-4293-915c-b86619a23a7b","system_id":"levelo_inurba_marseille","lat":43.284538,"lon":5.358657,"is_reserved":false,"is_disabled":false,"rental_uris":{"android":"levelo://app?vid=7ba8ace5-c6a2-4293-915c-b86619a23a7b","ios":"levelo://app?vid=7ba8ace5-c6a2-4293-915c-b86619a23a7b"},"vehicle_type_id":"4","last_reported":1703254007,"current_range_meters":22800,"station_id":"ce4bhah2rcd13ifvqei0","pricing_plan_id":"free"},{"bike_id":"66fb210b-610e-47ac-be8f-a4f7e31fd345","system_id":"levelo_inurba_marseille","lat":43.28459,"lon":5.35902,"is_reserved":false,"is_disabled":false,"rental_uris":{"android":"levelo://app?vid=66fb210b-610e-47ac-be8f-a4f7e31fd345","ios":"levelo://app?vid=66fb210b-610e-47ac-be8f-a4f7e31fd345"},"vehicle_type_id":"4","last_reported":1703254007,"current_range_meters":15600,"station_id":"ce4bhah2rcd13ifvqei0","pricing_plan_id":"free"},{"bike_id":"41856217-8f89-44c4-800f-9e8fc6ae3172","system_id":"levelo_inurba_marseille","lat":43.284534,"lon":5.358662,"is_reserved":false,"is_disabled":false,"rental_uris":{"android":"levelo://app?vid=41856217-8f89-44c4-800f-9e8fc6ae3172","ios":"levelo://app?vid=41856217-8f89-44c4-800f-9e8fc6ae3172"},"vehicle_type_id":"4","last_reported":1703254007,"current_range_meters":31200,"station_id":"ce4bhah2rcd13ifvqei0","pricing_plan_id":"free"},{"bike_id":"6681f091-8cae-40db-82be-2afedc79afec","system_id":"levelo_inurba_marseille","lat":43.297885,"lon":5.401032,"is_reserved":false,"is_disabled":false,"rental_uris":{"android":"levelo://app?vid=6681f091-8cae-40db-82be-2afedc79afec","ios":"levelo://app?vid=6681f091-8cae-40db-82be-2afedc79afec"},"vehicle_type_id":"4","last_reported":1703254007,"current_range_meters":6000,"station_id":"","pricing_plan_id":"free"},{"bike_id":"b5d8175d-d9fe-4c40-99bc-002ccb55dc44","system_id":"levelo_inurba_marseille","lat":43.28741,"lon":5.38902,"is_reserved":false,"is_disabled":false,"rental_uris":{"android":"levelo://app?vid=b5d8175d-d9fe-4c40-99bc-002ccb55dc44","ios":"levelo://app?vid=b5d8175d-d9fe-4c40-99bc-002ccb55dc44"},"vehicle_type_id":"4","last_reported":1703254007,"current_range_meters":1600,"station_id":"","pricing_plan_id":"free"},{"bike_id":"ec931389-3088-4760-a6a8-aced5bea6227","system_id":"levelo_inurba_marseille","lat":43.319179,"lon":5.407725,"is_reserved":false,"is_disabled":false,"rental_uris":{"android":"levelo://app?vid=ec931389-3088-4760-a6a8-aced5bea6227","ios":"levelo://app?vid=ec931389-3088-4760-a6a8-aced5bea6227"},"vehicle_type_id":"4","last_reported":1703254007,"current_range_meters":10000,"station_id":"ce4bhq12rcd13ifvqhig","pricing_plan_id":"free"},{"bike_id":"e4558259-d634-4f02-b1ac-ed5d44525078","system_id":"levelo_inurba_marseille","lat":43.323464,"lon":5.406297,"is_reserved":false,"is_disabled":false,"rental_uris":{"android":"levelo://app?vid=e4558259-d634-4f02-b1ac-ed5d44525078","ios":"levelo://app?vid=e4558259-d634-4f02-b1ac-ed5d44525078"},"vehicle_type_id":"4","last_reported":1703254007,"current_range_meters":28000,"station_id":"ce4bhq92rcd13ifvqhjg","pricing_plan_id":"free"},{"bike_id":"a396a5d3-3428-4c7d-bbce-d046d97fc93c","system_id":"levelo_inurba_marseille","lat":43.337168,"lon":5.391825,"is_reserved":false,"is_disabled":false,"rental_uris":{"android":"levelo://app?vid=a396a5d3-3428-4c7d-bbce-d046d97fc93c","ios":"levelo://app?vid=a396a5d3-3428-4c7d-bbce-d046d97fc93c"},"vehicle_type_id":"4","last_reported":1703254007,"current_range_meters":28800,"station_id":"ce4bhr92rcd13ifvqhsg","pricing_plan_id":"free"},{"bike_id":"18620354-9f44-43cb-8a53-561f50252020","system_id":"levelo_inurba_marseille","lat":43.284793,"lon":5.384113,"is_reserved":false,"is_disabled":false,"rental_uris":{"android":"levelo://app?vid=18620354-9f44-43cb-8a53-561f50252020","ios":"levelo://app?vid=18620354-9f44-43cb-8a53-561f50252020"},"vehicle_type_id":"4","last_reported":1703254007,"current_range_meters":2400,"station_id":"ce4bh512rcd13ifvqe3g","pricing_plan_id":"free"},{"bike_id":"0d10da9c-0de9-4474-aa4f-d88fa0f84830","system_id":"levelo_inurba_marseille","lat":43.284793,"lon":5.384113,"is_reserved":false,"is_disabled":false,"rental_uris":{"android":"levelo://app?vid=0d10da9c-0de9-4474-aa4f-d88fa0f84830","ios":"levelo://app?vid=0d10da9c-0de9-4474-aa4f-d88fa0f84830"},"vehicle_type_id":"4","last_reported":1703254007,"current_range_meters":2800,"station_id":"ce4bh512rcd13ifvqe3g","pricing_plan_id":"free"},{"bike_id":"d156a770-d009-4dc0-b853-0ca530de83ab","system_id":"levelo_inurba_marseille","lat":43.284793,"lon":5.384113,"is_reserved":false,"is_disabled":false,"rental_uris":{"android":"levelo://app?vid=d156a770-d009-4dc0-b853-0ca530de83ab","ios":"levelo://app?vid=d156a770-d009-4dc0-b853-0ca530de83ab"},"vehicle_type_id":"4","last_reported":1703254007,"current_range_meters":3600,"station_id":"ce4bh512rcd13ifvqe3g","pricing_plan_id":"free"},{"bike_id":"981f4281-f84e-4bc8-ad81-9f52a3b7042e","system_id":"levelo_inurba_marseille","lat":43.297946,"lon":5.404063,"is_reserved":false,"is_disabled":false,"rental_uris":{"android":"levelo://app?vid=981f4281-f84e-4bc8-ad81-9f52a3b7042e","ios":"levelo://app?vid=981f4281-f84e-4bc8-ad81-9f52a3b7042e"},"vehicle_type_id":"4","last_reported":1703254007,"current_range_meters":17200,"station_id":"ce4bh112rcd13ifvqd90","pricing_plan_id":"free"},{"bike_id":"58e4ddeb-0495-46a6-ac71-2cba40d1ecb5","system_id":"levelo_inurba_marseille","lat":43.283502,"lon":5.386471,"is_reserved":false,"is_disabled":false,"rental_uris":{"android":"levelo://app?vid=58e4ddeb-0495-46a6-ac71-2cba40d1ecb5","ios":"levelo://app?vid=58e4ddeb-0495-46a6-ac71-2cba40d1ecb5"},"vehicle_type_id":"4","last_reported":1703254007,"current_range_meters":8800,"station_id":"ce4bh492rcd13ifvqdvg","pricing_plan_id":"free"},{"bike_id":"dc16835d-9369-48e2-a35b-a7d90839a864","system_id":"levelo_inurba_marseille","lat":43.28268,"lon":5.35061,"is_reserved":false,"is_disabled":false,"rental_uris":{"android":"levelo://app?vid=dc16835d-9369-48e2-a35b-a7d90839a864","ios":"levelo://app?vid=dc16835d-9369-48e2-a35b-a7d90839a864"},"vehicle_type_id":"4","last_reported":1703254007,"current_range_meters":14400,"station_id":"ce4bhbp2rcd13ifvqerg","pricing_plan_id":"free"},{"bike_id":"c67a7cd2-a8dc-4b8e-85f8-431a58edd5ab","system_id":"levelo_inurba_marseille","lat":43.290412,"lon":5.399633,"is_reserved":false,"is_disabled":false,"rental_uris":{"android":"levelo://app?vid=c67a7cd2-a8dc-4b8e-85f8-431a58edd5ab","ios":"levelo://app?vid=c67a7cd2-a8dc-4b8e-85f8-431a58edd5ab"},"vehicle_type_id":"4","last_reported":1703254007,"current_range_meters":2400,"station_id":"ce4bh392rcd13ifvqdm0","pricing_plan_id":"free"},{"bike_id":"44ef67de-7fc4-46df-8ba8-59cb7e01d3e8","system_id":"levelo_inurba_marseille","lat":43.281044,"lon":5.378308,"is_reserved":false,"is_disabled":false,"rental_uris":{"android":"levelo://app?vid=44ef67de-7fc4-46df-8ba8-59cb7e01d3e8","ios":"levelo://app?vid=44ef67de-7fc4-46df-8ba8-59cb7e01d3e8"},"vehicle_type_id":"4","last_reported":1703254007,"current_range_meters":24400,"station_id":"ce4bha12rcd13ifvqee0","pricing_plan_id":"free"},{"bike_id":"8a537738-90d6-4e78-9122-d516e6a8a538","system_id":"levelo_inurba_marseille","lat":43.281044,"lon":5.378308,"is_reserved":false,"is_disabled":false,"rental_uris":{"android":"levelo://app?vid=8a537738-90d6-4e78-9122-d516e6a8a538","ios":"levelo://app?vid=8a537738-90d6-4e78-9122-d516e6a8a538"},"vehicle_type_id":"4","last_reported":1703254007,"current_range_meters":26000,"station_id":"ce4bha12rcd13ifvqee0","pricing_plan_id":"free"},{"bike_id":"72d62900-3dca-4a80-a863-a95e444c114f","system_id":"levelo_inurba_marseille","lat":43.285742,"lon":5.395004,"is_reserved":false,"is_disabled":false,"rental_uris":{"android":"levelo://app?vid=72d62900-3dca-4a80-a863-a95e444c114f","ios":"levelo://app?vid=72d62900-3dca-4a80-a863-a95e444c114f"},"vehicle_type_id":"4","last_reported":1703254007,"current_range_meters":28800,"station_id":"ce4bh292rcd13ifvqdg0","pricing_plan_id":"free"},{"bike_id":"04e4423e-b925-4011-a1d1-d0ddc990667a","system_id":"levelo_inurba_marseille","lat":43.285742,"lon":5.395004,"is_reserved":false,"is_disabled":false,"rental_uris":{"android":"levelo://app?vid=04e4423e-b925-4011-a1d1-d0ddc990667a","ios":"levelo://app?vid=04e4423e-b925-4011-a1d1-d0ddc990667a"},"vehicle_type_id":"4","last_reported":1703254007,"current_range_meters":27200,"station_id":"ce4bh292rcd13ifvqdg0","pricing_plan_id":"free"},{"bike_id":"37fc9955-d68a-4e13-b295-f1f33f8fe79d","system_id":"levelo_inurba_marseille","lat":43.284462,"lon":5.392121,"is_reserved":false,"is_disabled":false,"rental_uris":{"android":"levelo://app?vid=37fc9955-d68a-4e13-b295-f1f33f8fe79d","ios":"levelo://app?vid=37fc9955-d68a-4e13-b295-f1f33f8fe79d"},"vehicle_type_id":"4","last_reported":1703254007,"current_range_meters":15200,"station_id":"ce4bhoh2rcd13ifvqh5g","pricing_plan_id":"free"},{"bike_id":"1f1e0170-072b-4806-b6b5-ba71d54287ab","system_id":"levelo_inurba_marseille","lat":43.326605,"lon":5.409903,"is_reserved":false,"is_disabled":false,"rental_uris":{"android":"levelo://app?vid=1f1e0170-072b-4806-b6b5-ba71d54287ab","ios":"levelo://app?vid=1f1e0170-072b-4806-b6b5-ba71d54287ab"},"vehicle_type_id":"4","last_reported":1703254007,"current_range_meters":22000,"station_id":"ce4bhpp2rcd13ifvqhgg","pricing_plan_id":"free"},{"bike_id":"2dce41b4-f1e9-4565-979b-d206af37124f","system_id":"levelo_inurba_marseille","lat":43.326605,"lon":5.409903,"is_reserved":false,"is_disabled":false,"rental_uris":{"android":"levelo://app?vid=2dce41b4-f1e9-4565-979b-d206af37124f","ios":"levelo://app?vid=2dce41b4-f1e9-4565-979b-d206af37124f"},"vehicle_type_id":"4","last_reported":1703254007,"current_range_meters":29200,"station_id":"ce4bhpp2rcd13ifvqhgg","pricing_plan_id":"free"},{"bike_id":"6497b430-f814-4e4a-b106-ef5476ba6067","system_id":"levelo_inurba_marseille","lat":43.279087,"lon":5.380114,"is_reserved":false,"is_disabled":false,"rental_uris":{"android":"levelo://app?vid=6497b430-f814-4e4a-b106-ef5476ba6067","ios":"levelo://app?vid=6497b430-f814-4e4a-b106-ef5476ba6067"},"vehicle_type_id":"4","last_reported":1703254007,"current_range_meters":20800,"station_id":"ce4bhf92rcd13ifvqf50","pricing_plan_id":"free"},{"bike_id":"5d855072-3103-44aa-a27a-e5835af364d8","system_id":"levelo_inurba_marseille","lat":43.28705,"lon":5.399887,"is_reserved":false,"is_disabled":false,"rental_uris":{"android":"levelo://app?vid=5d855072-3103-44aa-a27a-e5835af364d8","ios":"levelo://app?vid=5d855072-3103-44aa-a27a-e5835af364d8"},"vehicle_type_id":"4","last_reported":1703254007,"current_range_meters":6800,"station_id":"ce4bho92rcd13ifvqh3g","pricing_plan_id":"free"},{"bike_id":"8378bb1e-da78-4d39-8a43-a6b9291b508b","system_id":"levelo_inurba_marseille","lat":43.287154,"lon":5.399979,"is_reserved":false,"is_disabled":false,"rental_uris":{"android":"levelo://app?vid=8378bb1e-da78-4d39-8a43-a6b9291b508b","ios":"levelo://app?vid=8378bb1e-da78-4d39-8a43-a6b9291b508b"},"vehicle_type_id":"4","last_reported":1703254007,"current_range_meters":30000,"station_id":"ce4bho92rcd13ifvqh3g","pricing_plan_id":"free"},{"bike_id":"21b0ed53-d220-4f1d-ab3d-159a7fd986ec","system_id":"levelo_inurba_marseille","lat":43.28702,"lon":5.39991,"is_reserved":false,"is_disabled":false,"rental_uris":{"android":"levelo://app?vid=21b0ed53-d220-4f1d-ab3d-159a7fd986ec","ios":"levelo://app?vid=21b0ed53-d220-4f1d-ab3d-159a7fd986ec"},"vehicle_type_id":"4","last_reported":1703254007,"current_range_meters":13600,"station_id":"ce4bho92rcd13ifvqh3g","pricing_plan_id":"free"},{"bike_id":"3112f0bb-9cf4-4bf4-b281-76fe5aff3d49","system_id":"levelo_inurba_marseille","lat":43.28695,"lon":5.39981,"is_reserved":false,"is_disabled":false,"rental_uris":{"android":"levelo://app?vid=3112f0bb-9cf4-4bf4-b281-76fe5aff3d49","ios":"levelo://app?vid=3112f0bb-9cf4-4bf4-b281-76fe5aff3d49"},"vehicle_type_id":"4","last_reported":1703254007,"current_range_meters":19200,"station_id":"ce4bho92rcd13ifvqh3g","pricing_plan_id":"free"},{"bike_id":"038175de-3c4e-4dda-8efc-8227fafa1ed5","system_id":"levelo_inurba_marseille","lat":43.28702,"lon":5.39992,"is_reserved":false,"is_disabled":false,"rental_uris":{"android":"levelo://app?vid=038175de-3c4e-4dda-8efc-8227fafa1ed5","ios":"levelo://app?vid=038175de-3c4e-4dda-8efc-8227fafa1ed5"},"vehicle_type_id":"4","last_reported":1703254007,"current_range_meters":0,"station_id":"ce4bho92rcd13ifvqh3g","pricing_plan_id":"free"},{"bike_id":"3c8d6ad3-9938-4b16-a3ff-f7aa80722b51","system_id":"levelo_inurba_marseille","lat":43.287154,"lon":5.399979,"is_reserved":false,"is_disabled":false,"rental_uris":{"android":"levelo://app?vid=3c8d6ad3-9938-4b16-a3ff-f7aa80722b51","ios":"levelo://app?vid=3c8d6ad3-9938-4b16-a3ff-f7aa80722b51"},"vehicle_type_id":"4","last_reported":1703254007,"current_range_meters":29600,"station_id":"ce4bho92rcd13ifvqh3g","pricing_plan_id":"free"},{"bike_id":"436b34ce-c6ae-46cd-9367-88e70b0c6e2e","system_id":"levelo_inurba_marseille","lat":43.320045,"lon":5.415046,"is_reserved":false,"is_disabled":false,"rental_uris":{"android":"levelo://app?vid=436b34ce-c6ae-46cd-9367-88e70b0c6e2e","ios":"levelo://app?vid=436b34ce-c6ae-46cd-9367-88e70b0c6e2e"},"vehicle_type_id":"4","last_reported":1703254007,"current_range_meters":25600,"station_id":"ce4bhq92rcd13ifvqhkg","pricing_plan_id":"free"},{"bike_id":"ff261c17-aca0-4f8a-b3d7-416aac4881bb","system_id":"levelo_inurba_marseille","lat":43.276179,"lon":5.361009,"is_reserved":false,"is_disabled":false,"rental_uris":{"android":"levelo://app?vid=ff261c17-aca0-4f8a-b3d7-416aac4881bb","ios":"levelo://app?vid=ff261c17-aca0-4f8a-b3d7-416aac4881bb"},"vehicle_type_id":"4","last_reported":1703254007,"current_range_meters":24400,"station_id":"ce4bgj92rcd13ifvqbe0","pricing_plan_id":"free"},{"bike_id":"eb26abdb-ac67-4e71-9bbe-40464da5665c","system_id":"levelo_inurba_marseille","lat":43.276179,"lon":5.361009,"is_reserved":false,"is_disabled":false,"rental_uris":{"android":"levelo://app?vid=eb26abdb-ac67-4e71-9bbe-40464da5665c","ios":"levelo://app?vid=eb26abdb-ac67-4e71-9bbe-40464da5665c"},"vehicle_type_id":"4","last_reported":1703254007,"current_range_meters":0,"station_id":"ce4bgj92rcd13ifvqbe0","pricing_plan_id":"free"},{"bike_id":"fce824b6-430f-44dc-8ec8-7acc08d95e78","system_id":"levelo_inurba_marseille","lat":43.276179,"lon":5.361009,"is_reserved":false,"is_disabled":false,"rental_uris":{"android":"levelo://app?vid=fce824b6-430f-44dc-8ec8-7acc08d95e78","ios":"levelo://app?vid=fce824b6-430f-44dc-8ec8-7acc08d95e78"},"vehicle_type_id":"4","last_reported":1703254007,"current_range_meters":30400,"station_id":"ce4bgj92rcd13ifvqbe0","pricing_plan_id":"free"},{"bike_id":"2e44db22-6387-491a-b371-044ac2dc1e42","system_id":"levelo_inurba_marseille","lat":43.280784,"lon":5.396622,"is_reserved":false,"is_disabled":false,"rental_uris":{"android":"levelo://app?vid=2e44db22-6387-491a-b371-044ac2dc1e42","ios":"levelo://app?vid=2e44db22-6387-491a-b371-044ac2dc1e42"},"vehicle_type_id":"4","last_reported":1703254007,"current_range_meters":15200,"station_id":"ce4bho12rcd13ifvqh2g","pricing_plan_id":"free"},{"bike_id":"d21c10fc-1e64-41be-9db5-8616a8cab7c7","system_id":"levelo_inurba_marseille","lat":43.280784,"lon":5.396622,"is_reserved":false,"is_disabled":false,"rental_uris":{"android":"levelo://app?vid=d21c10fc-1e64-41be-9db5-8616a8cab7c7","ios":"levelo://app?vid=d21c10fc-1e64-41be-9db5-8616a8cab7c7"},"vehicle_type_id":"4","last_reported":1703254007,"current_range_meters":28400,"station_id":"ce4bho12rcd13ifvqh2g","pricing_plan_id":"free"},{"bike_id":"a58a07e7-1ea4-4f7d-b573-122cbd42f819","system_id":"levelo_inurba_marseille","lat":43.280784,"lon":5.396622,"is_reserved":false,"is_disabled":false,"rental_uris":{"android":"levelo://app?vid=a58a07e7-1ea4-4f7d-b573-122cbd42f819","ios":"levelo://app?vid=a58a07e7-1ea4-4f7d-b573-122cbd42f819"},"vehicle_type_id":"4","last_reported":1703254007,"current_range_meters":22400,"station_id":"ce4bho12rcd13ifvqh2g","pricing_plan_id":"free"},{"bike_id":"6626fddb-6a11-4855-99e4-38e49a54a391","system_id":"levelo_inurba_marseille","lat":43.280784,"lon":5.396622,"is_reserved":false,"is_disabled":false,"rental_uris":{"android":"levelo://app?vid=6626fddb-6a11-4855-99e4-38e49a54a391","ios":"levelo://app?vid=6626fddb-6a11-4855-99e4-38e49a54a391"},"vehicle_type_id":"4","last_reported":1703254007,"current_range_meters":28800,"station_id":"ce4bho12rcd13ifvqh2g","pricing_plan_id":"free"},{"bike_id":"140413ec-d284-430c-9162-9aa9f63916ac","system_id":"levelo_inurba_marseille","lat":43.336134,"lon":5.410341,"is_reserved":false,"is_disabled":false,"rental_uris":{"android":"levelo://app?vid=140413ec-d284-430c-9162-9aa9f63916ac","ios":"levelo://app?vid=140413ec-d284-430c-9162-9aa9f63916ac"},"vehicle_type_id":"4","last_reported":1703254007,"current_range_meters":20400,"station_id":"ce4bhqh2rcd13ifvqhmg","pricing_plan_id":"free"},{"bike_id":"5c90e979-6637-4efd-9525-aee8bd4a4f81","system_id":"levelo_inurba_marseille","lat":43.275625,"lon":5.384392,"is_reserved":false,"is_disabled":false,"rental_uris":{"android":"levelo://app?vid=5c90e979-6637-4efd-9525-aee8bd4a4f81","ios":"levelo://app?vid=5c90e979-6637-4efd-9525-aee8bd4a4f81"},"vehicle_type_id":"4","last_reported":1703254007,"current_range_meters":16000,"station_id":"ce4bhh92rcd13ifvqfi0","pricing_plan_id":"free"},{"bike_id":"67f6546c-2b89-479b-b956-0ba79cc05b40","system_id":"levelo_inurba_marseille","lat":43.276769,"lon":5.388787,"is_reserved":false,"is_disabled":false,"rental_uris":{"android":"levelo://app?vid=67f6546c-2b89-479b-b956-0ba79cc05b40","ios":"levelo://app?vid=67f6546c-2b89-479b-b956-0ba79cc05b40"},"vehicle_type_id":"4","last_reported":1703254007,"current_range_meters":7200,"station_id":"ce4bhi12rcd13ifvqfo0","pricing_plan_id":"free"},{"bike_id":"67c95ba1-3b1b-4724-b685-672be7a82fce","system_id":"levelo_inurba_marseille","lat":43.317121,"lon":5.423936,"is_reserved":false,"is_disabled":false,"rental_uris":{"android":"levelo://app?vid=67c95ba1-3b1b-4724-b685-672be7a82fce","ios":"levelo://app?vid=67c95ba1-3b1b-4724-b685-672be7a82fce"},"vehicle_type_id":"4","last_reported":1703254007,"current_range_meters":12400,"station_id":"ce4bhp92rcd13ifvqhbg","pricing_plan_id":"free"},{"bike_id":"96939607-2741-4089-ba93-703e03251f9d","system_id":"levelo_inurba_marseille","lat":43.274099,"lon":5.394019,"is_reserved":false,"is_disabled":false,"rental_uris":{"android":"levelo://app?vid=96939607-2741-4089-ba93-703e03251f9d","ios":"levelo://app?vid=96939607-2741-4089-ba93-703e03251f9d"},"vehicle_type_id":"4","last_reported":1703254007,"current_range_meters":25200,"station_id":"ce4bhdp2rcd13ifvqf20","pricing_plan_id":"free"},{"bike_id":"49b2c56f-28db-4239-97ee-3137656c75e8","system_id":"levelo_inurba_marseille","lat":43.274103,"lon":5.394016,"is_reserved":false,"is_disabled":false,"rental_uris":{"android":"levelo://app?vid=49b2c56f-28db-4239-97ee-3137656c75e8","ios":"levelo://app?vid=49b2c56f-28db-4239-97ee-3137656c75e8"},"vehicle_type_id":"4","last_reported":1703254007,"current_range_meters":23600,"station_id":"ce4bhdp2rcd13ifvqf20","pricing_plan_id":"free"},{"bike_id":"f0aa17d3-3759-46de-b875-31baa7545259","system_id":"levelo_inurba_marseille","lat":43.304096,"lon":5.425385,"is_reserved":false,"is_disabled":false,"rental_uris":{"android":"levelo://app?vid=f0aa17d3-3759-46de-b875-31baa7545259","ios":"levelo://app?vid=f0aa17d3-3759-46de-b875-31baa7545259"},"vehicle_type_id":"4","last_reported":1703254007,"current_range_meters":18000,"station_id":"ce4bhoh2rcd13ifvqh6g","pricing_plan_id":"free"},{"bike_id":"37525034-e200-49d8-852a-afe5a75240d6","system_id":"levelo_inurba_marseille","lat":43.304096,"lon":5.425385,"is_reserved":false,"is_disabled":false,"rental_uris":{"android":"levelo://app?vid=37525034-e200-49d8-852a-afe5a75240d6","ios":"levelo://app?vid=37525034-e200-49d8-852a-afe5a75240d6"},"vehicle_type_id":"4","last_reported":1703254007,"current_range_meters":14000,"station_id":"ce4bhoh2rcd13ifvqh6g","pricing_plan_id":"free"},{"bike_id":"a80c78b0-54bd-4c06-a456-7ff9cb5fb92c","system_id":"levelo_inurba_marseille","lat":43.295523,"lon":5.422926,"is_reserved":false,"is_disabled":false,"rental_uris":{"android":"levelo://app?vid=a80c78b0-54bd-4c06-a456-7ff9cb5fb92c","ios":"levelo://app?vid=a80c78b0-54bd-4c06-a456-7ff9cb5fb92c"},"vehicle_type_id":"4","last_reported":1703254007,"current_range_meters":30000,"station_id":"ce4bhph2rcd13ifvqhdg","pricing_plan_id":"free"},{"bike_id":"23d13786-8601-4dce-a424-5d4a35dea444","system_id":"levelo_inurba_marseille","lat":43.295511,"lon":5.422926,"is_reserved":false,"is_disabled":false,"rental_uris":{"android":"levelo://app?vid=23d13786-8601-4dce-a424-5d4a35dea444","ios":"levelo://app?vid=23d13786-8601-4dce-a424-5d4a35dea444"},"vehicle_type_id":"4","last_reported":1703254007,"current_range_meters":14400,"station_id":"ce4bhph2rcd13ifvqhdg","pricing_plan_id":"free"},{"bike_id":"b55db1a0-b820-479b-9929-7610c21584c5","system_id":"levelo_inurba_marseille","lat":43.295511,"lon":5.422926,"is_reserved":false,"is_disabled":false,"rental_uris":{"android":"levelo://app?vid=b55db1a0-b820-479b-9929-7610c21584c5","ios":"levelo://app?vid=b55db1a0-b820-479b-9929-7610c21584c5"},"vehicle_type_id":"4","last_reported":1703254007,"current_range_meters":25200,"station_id":"ce4bhph2rcd13ifvqhdg","pricing_plan_id":"free"},{"bike_id":"cf343e7c-4ee6-4e3e-a7da-2fb4f71dbea2","system_id":"levelo_inurba_marseille","lat":43.272116,"lon":5.391763,"is_reserved":false,"is_disabled":false,"rental_uris":{"android":"levelo://app?vid=cf343e7c-4ee6-4e3e-a7da-2fb4f71dbea2","ios":"levelo://app?vid=cf343e7c-4ee6-4e3e-a7da-2fb4f71dbea2"},"vehicle_type_id":"4","last_reported":1703254007,"current_range_meters":6400,"station_id":"ce4bhhp2rcd13ifvqfm0","pricing_plan_id":"free"},{"bike_id":"2385a3dc-ecc5-4c8e-b554-c8e4b25ef268","system_id":"levelo_inurba_marseille","lat":43.278128,"lon":5.407195,"is_reserved":false,"is_disabled":false,"rental_uris":{"android":"levelo://app?vid=2385a3dc-ecc5-4c8e-b554-c8e4b25ef268","ios":"levelo://app?vid=2385a3dc-ecc5-4c8e-b554-c8e4b25ef268"},"vehicle_type_id":"4","last_reported":1703254007,"current_range_meters":22000,"station_id":"ce4bhnh2rcd13ifvqgtg","pricing_plan_id":"free"},{"bike_id":"b4601efd-44a0-4cb0-b51a-55933c9c824f","system_id":"levelo_inurba_marseille","lat":43.278128,"lon":5.407195,"is_reserved":false,"is_disabled":false,"rental_uris":{"android":"levelo://app?vid=b4601efd-44a0-4cb0-b51a-55933c9c824f","ios":"levelo://app?vid=b4601efd-44a0-4cb0-b51a-55933c9c824f"},"vehicle_type_id":"4","last_reported":1703254007,"current_range_meters":0,"station_id":"ce4bhnh2rcd13ifvqgtg","pricing_plan_id":"free"},{"bike_id":"02120098-d772-4a3d-87ce-4b81545e0bcb","system_id":"levelo_inurba_marseille","lat":43.278128,"lon":5.407195,"is_reserved":false,"is_disabled":false,"rental_uris":{"android":"levelo://app?vid=02120098-d772-4a3d-87ce-4b81545e0bcb","ios":"levelo://app?vid=02120098-d772-4a3d-87ce-4b81545e0bcb"},"vehicle_type_id":"4","last_reported":1703254007,"current_range_meters":19200,"station_id":"ce4bhnh2rcd13ifvqgtg","pricing_plan_id":"free"},{"bike_id":"61550aad-2bdf-4d69-a4fa-2735b97e3ff1","system_id":"levelo_inurba_marseille","lat":43.269467,"lon":5.386439,"is_reserved":false,"is_disabled":false,"rental_uris":{"android":"levelo://app?vid=61550aad-2bdf-4d69-a4fa-2735b97e3ff1","ios":"levelo://app?vid=61550aad-2bdf-4d69-a4fa-2735b97e3ff1"},"vehicle_type_id":"4","last_reported":1703254007,"current_range_meters":31600,"station_id":"ce4bhh92rcd13ifvqfh0","pricing_plan_id":"free"},{"bike_id":"a0c45794-6ad5-4273-8b16-1dd3894aa506","system_id":"levelo_inurba_marseille","lat":43.26952,"lon":5.3863,"is_reserved":false,"is_disabled":false,"rental_uris":{"android":"levelo://app?vid=a0c45794-6ad5-4273-8b16-1dd3894aa506","ios":"levelo://app?vid=a0c45794-6ad5-4273-8b16-1dd3894aa506"},"vehicle_type_id":"4","last_reported":1703254007,"current_range_meters":22000,"station_id":"ce4bhh92rcd13ifvqfh0","pricing_plan_id":"free"},{"bike_id":"41469b11-e5a7-4f87-90ae-fa08c0cf2f59","system_id":"levelo_inurba_marseille","lat":43.269518,"lon":5.386338,"is_reserved":false,"is_disabled":false,"rental_uris":{"android":"levelo://app?vid=41469b11-e5a7-4f87-90ae-fa08c0cf2f59","ios":"levelo://app?vid=41469b11-e5a7-4f87-90ae-fa08c0cf2f59"},"vehicle_type_id":"4","last_reported":1703254007,"current_range_meters":23200,"station_id":"ce4bhh92rcd13ifvqfh0","pricing_plan_id":"free"},{"bike_id":"0f1f280b-791e-48d8-a96a-92b2e86c8c8f","system_id":"levelo_inurba_marseille","lat":43.269467,"lon":5.386439,"is_reserved":false,"is_disabled":false,"rental_uris":{"android":"levelo://app?vid=0f1f280b-791e-48d8-a96a-92b2e86c8c8f","ios":"levelo://app?vid=0f1f280b-791e-48d8-a96a-92b2e86c8c8f"},"vehicle_type_id":"4","last_reported":1703254007,"current_range_meters":18800,"station_id":"ce4bhh92rcd13ifvqfh0","pricing_plan_id":"free"},{"bike_id":"a63e0239-848f-4e2c-b371-73b2e66acaf9","system_id":"levelo_inurba_marseille","lat":43.269467,"lon":5.386439,"is_reserved":false,"is_disabled":false,"rental_uris":{"android":"levelo://app?vid=a63e0239-848f-4e2c-b371-73b2e66acaf9","ios":"levelo://app?vid=a63e0239-848f-4e2c-b371-73b2e66acaf9"},"vehicle_type_id":"4","last_reported":1703254007,"current_range_meters":11600,"station_id":"ce4bhh92rcd13ifvqfh0","pricing_plan_id":"free"},{"bike_id":"fd139b14-01b8-4cae-a96a-2d1b18d235fd","system_id":"levelo_inurba_marseille","lat":43.269319,"lon":5.389397,"is_reserved":false,"is_disabled":false,"rental_uris":{"android":"levelo://app?vid=fd139b14-01b8-4cae-a96a-2d1b18d235fd","ios":"levelo://app?vid=fd139b14-01b8-4cae-a96a-2d1b18d235fd"},"vehicle_type_id":"4","last_reported":1703254007,"current_range_meters":29600,"station_id":"ce4bhhh2rcd13ifvqfl0","pricing_plan_id":"free"},{"bike_id":"db0b85a3-8c38-406c-a04d-8f1811ff3641","system_id":"levelo_inurba_marseille","lat":43.26681,"lon":5.382694,"is_reserved":false,"is_disabled":false,"rental_uris":{"android":"levelo://app?vid=db0b85a3-8c38-406c-a04d-8f1811ff3641","ios":"levelo://app?vid=db0b85a3-8c38-406c-a04d-8f1811ff3641"},"vehicle_type_id":"4","last_reported":1703254007,"current_range_meters":11600,"station_id":"ce4bhg92rcd13ifvqf90","pricing_plan_id":"free"},{"bike_id":"6408950f-338e-4837-bf47-9f4e90786dc1","system_id":"levelo_inurba_marseille","lat":43.26681,"lon":5.382694,"is_reserved":false,"is_disabled":false,"rental_uris":{"android":"levelo://app?vid=6408950f-338e-4837-bf47-9f4e90786dc1","ios":"levelo://app?vid=6408950f-338e-4837-bf47-9f4e90786dc1"},"vehicle_type_id":"4","last_reported":1703254007,"current_range_meters":31200,"station_id":"ce4bhg92rcd13ifvqf90","pricing_plan_id":"free"},{"bike_id":"299ce3ae-2229-4862-bff1-d222fc121847","system_id":"levelo_inurba_marseille","lat":43.265714,"lon":5.372891,"is_reserved":false,"is_disabled":false,"rental_uris":{"android":"levelo://app?vid=299ce3ae-2229-4862-bff1-d222fc121847","ios":"levelo://app?vid=299ce3ae-2229-4862-bff1-d222fc121847"},"vehicle_type_id":"4","last_reported":1703254007,"current_range_meters":26800,"station_id":"ce4bhg12rcd13ifvqf70","pricing_plan_id":"free"},{"bike_id":"b9d9f0e2-6615-4c59-b7b4-9031b88d49df","system_id":"levelo_inurba_marseille","lat":43.265714,"lon":5.372891,"is_reserved":false,"is_disabled":false,"rental_uris":{"android":"levelo://app?vid=b9d9f0e2-6615-4c59-b7b4-9031b88d49df","ios":"levelo://app?vid=b9d9f0e2-6615-4c59-b7b4-9031b88d49df"},"vehicle_type_id":"4","last_reported":1703254007,"current_range_meters":16800,"station_id":"ce4bhg12rcd13ifvqf70","pricing_plan_id":"free"},{"bike_id":"b6abe70c-c21e-43d3-b6e8-83a73556c243","system_id":"levelo_inurba_marseille","lat":43.265714,"lon":5.372891,"is_reserved":false,"is_disabled":false,"rental_uris":{"android":"levelo://app?vid=b6abe70c-c21e-43d3-b6e8-83a73556c243","ios":"levelo://app?vid=b6abe70c-c21e-43d3-b6e8-83a73556c243"},"vehicle_type_id":"4","last_reported":1703254007,"current_range_meters":3200,"station_id":"ce4bhg12rcd13ifvqf70","pricing_plan_id":"free"},{"bike_id":"a4276362-85bd-461d-a3e8-4d98b8fe6a69","system_id":"levelo_inurba_marseille","lat":43.265714,"lon":5.372891,"is_reserved":false,"is_disabled":false,"rental_uris":{"android":"levelo://app?vid=a4276362-85bd-461d-a3e8-4d98b8fe6a69","ios":"levelo://app?vid=a4276362-85bd-461d-a3e8-4d98b8fe6a69"},"vehicle_type_id":"4","last_reported":1703254007,"current_range_meters":6000,"station_id":"ce4bhg12rcd13ifvqf70","pricing_plan_id":"free"},{"bike_id":"43fe3618-0b02-4a67-b6dc-0d687bd7ff18","system_id":"levelo_inurba_marseille","lat":43.269467,"lon":5.386439,"is_reserved":false,"is_disabled":false,"rental_uris":{"android":"levelo://app?vid=43fe3618-0b02-4a67-b6dc-0d687bd7ff18","ios":"levelo://app?vid=43fe3618-0b02-4a67-b6dc-0d687bd7ff18"},"vehicle_type_id":"4","last_reported":1703254007,"current_range_meters":24000,"station_id":"ce4bhh92rcd13ifvqfh0","pricing_plan_id":"free"},{"bike_id":"35305c15-e698-43cb-bb02-8a2f474d2d55","system_id":"levelo_inurba_marseille","lat":43.265571,"lon":5.390032,"is_reserved":false,"is_disabled":false,"rental_uris":{"android":"levelo://app?vid=35305c15-e698-43cb-bb02-8a2f474d2d55","ios":"levelo://app?vid=35305c15-e698-43cb-bb02-8a2f474d2d55"},"vehicle_type_id":"4","last_reported":1703254007,"current_range_meters":25200,"station_id":"ce4bhe12rcd13ifvqf30","pricing_plan_id":"free"},{"bike_id":"a5f106bc-9e54-4295-a52d-24272895805b","system_id":"levelo_inurba_marseille","lat":43.265571,"lon":5.390032,"is_reserved":false,"is_disabled":false,"rental_uris":{"android":"levelo://app?vid=a5f106bc-9e54-4295-a52d-24272895805b","ios":"levelo://app?vid=a5f106bc-9e54-4295-a52d-24272895805b"},"vehicle_type_id":"4","last_reported":1703254007,"current_range_meters":5200,"station_id":"ce4bhe12rcd13ifvqf30","pricing_plan_id":"free"},{"bike_id":"e39d5069-fa26-44ad-a944-10d3c2b0594e","system_id":"levelo_inurba_marseille","lat":43.26949,"lon":5.40262,"is_reserved":false,"is_disabled":false,"rental_uris":{"android":"levelo://app?vid=e39d5069-fa26-44ad-a944-10d3c2b0594e","ios":"levelo://app?vid=e39d5069-fa26-44ad-a944-10d3c2b0594e"},"vehicle_type_id":"4","last_reported":1703254007,"current_range_meters":18800,"station_id":"cjm6bp8fraef2m0cb0m0","pricing_plan_id":"free"},