{"last_updated":1734448220,"ttl":60,"version":"2.2","data":{"bikes":[{"bike_id":"55259469-20b7-4df7-bc06-2aaa3f400ee2","system_id":"levelo_inurba_marseille","lat":43.27057,"lon":5.40263,"is_reserved":false,"is_disabled":false,"rental_uris":{"android":"levelo://app?vid=55259469-20b7-4df7-bc06-2aaa3f400ee2","ios":"levelo://app?vid=55259469-20b7-4df7-bc06-2aaa3f400ee2"},"vehicle_type_id":"4","last_reported":1734448220,"current_range_meters":38800,"station_id":"ce4bhk92rcd13ifvqgc0","pricing_plan_id":"cebpf4jnsgd1na2vs0mg"},{"bike_id":"fd431283-c0d6-4a24-9f3c-f47a99a61535","system_id":"levelo_inurba_marseille","lat":43.26569,"lon":5.38999,"is_reserved":false,"is_disabled":true,"rental_uris":{"android":"levelo://app?vid=fd431283-c0d6-4a24-9f3c-f47a99a61535","ios":"levelo://app?vid=fd431283-c0d6-4a24-9f3c-f47a99a61535"},"vehicle_type_id":"4","last_reported":1734448220,"current_range_meters":0,"station_id":"ce4bhe12rcd13ifvqf30","pricing_plan_id":"cebpf4jnsgd1na2vs0mg"},{"bike_id":"34e0d528-49ba-4281-bb2c-97393ce94b2f","system_id":"levelo_inurba_marseille","lat":43.30133,"lon":5.3741,"is_reserved":false,"is_disabled":false,"rental_uris":{"android":"levelo://app?vid=34e0d528-49ba-4281-bb2c-97393ce94b2f","ios":"levelo://app?vid=34e0d528-49ba-4281-bb2c-97393ce94b2f"},"vehicle_type_id":"4","last_reported":1734448220,"current_range_meters":27200,"station_id":"ce4bgs92rcd13ifvqcc0","pricing_plan_id":"cebpf4jnsgd1na2vs0mg"},{"bike_id":"b88df1a2-3d5f-4d76-a3b8-05af786def4c","system_id":"levelo_inurba_marseille","lat":43.29372,"lon":5.37841,"is_reserved":false,"is_disabled":false,"rental_uris":{"android":"levelo://app?vid=b88df1a2-3d5f-4d76-a3b8-05af786def4c","ios":"levelo://app?vid=b88df1a2-3d5f-4d76-a3b8-05af786def4c"},"vehicle_type_id":"4","last_reported":1734448220,"current_range_meters":19200,"station_id":"ce4bgjh2rcd13ifvqbf0","pricing_plan_id":"cebpf4jnsgd1na2vs0mg"},{"bike_id":"ce0ab1aa-ba60-49db-a468-8463f05c5382","system_id":"levelo_inurba_marseille","lat":43.26572,"lon":5.39008,"is_reserved":false,"is_disabled":false,"rental_uris":{"android":"levelo://app?vid=ce0ab1aa-ba60-49db-a468-8463f05c5382","ios":"levelo://app?vid=ce0ab1aa-ba60-49db-a468-8463f05c5382"},"vehicle_type_id":"4","last_reported":1734448220,"current_range_meters":14000,"station_id":"ce4bhe12rcd13ifvqf30","pricing_plan_id":"cebpf4jnsgd1na2vs0mg"},{"bike_id":"b2fae302-f5eb-4bc2-b462-662e3f43cfa7","system_id":"levelo_inurba_marseille","lat":43.269374,"lon":5.402603,"is_reserved":false,"is_disabled":false,"rental_uris":{"android":"levelo://app?vid=b2fae302-f5eb-4bc2-b462-662e3f43cfa7","ios":"levelo://app?vid=b2fae302-f5eb-4bc2-b462-662e3f43cfa7"},"vehicle_type_id":"4","last_reported":1734448220,"current_range_meters":38800,"station_id":"cjm6bp8fraef2m0cb0m0","pricing_plan_id":"cebpf4jnsgd1na2vs0mg"},{"bike_id":"d0867c34-5d65-45d7-be9a-ceb5f1a5a786","system_id":"levelo_inurba_marseille","lat":43.31377,"lon":5.36695,"is_reserved":false,"is_disabled":false,"rental_uris":{"android":"levelo://app?vid=d0867c34-5d65-45d7-be9a-ceb5f1a5a786","ios":"levelo://app?vid=d0867c34-5d65-45d7-be9a-ceb5f1a5a786"},"vehicle_type_id":"4","last_reported":1734448220,"current_range_meters":36800,"station_id":"ce4bgr92rcd13ifvqc6g","pricing_plan_id":"cebpf4jnsgd1na2vs0mg"},{"bike_id":"a3628e7f-34e6-487b-bf65-3b8010500349","system_id":"levelo_inurba_marseille","lat":43.27049,"lon":5.4027,"is_reserved":false,"is_disabled":false,"rental_uris":{"android":"levelo://app?vid=a3628e7f-34e6-487b-bf65-3b8010500349","ios":"levelo://app?vid=a3628e7f-34e6-487b-bf65-3b8010500349"},"vehicle_type_id":"4","last_reported":1734448220,"current_range_meters":38400,"station_id":"ce4bhk92rcd13ifvqgc0","pricing_plan_id":"cebpf4jnsgd1na2vs0mg"},{"bike_id":"5c9d787a-ed08-4f6d-aae6-50e448cf550d","system_id":"levelo_inurba_marseille","lat":43.2602,"lon":5.37553,"is_reserved":false,"is_disabled":false,"rental_uris":{"android":"levelo://app?vid=5c9d787a-ed08-4f6d-aae6-50e448cf550d","ios":"levelo://app?vid=5c9d787a-ed08-4f6d-aae6-50e448cf550d"},"vehicle_type_id":"4","last_reported":1734448220,"current_range_meters":36400,"station_id":"ce4bhgh2rcd13ifvqfa0","pricing_plan_id":"cebpf4jnsgd1na2vs0mg"},{"bike_id":"20358b83-225d-4ff6-8386-f5d7e4ace024","system_id":"levelo_inurba_marseille","lat":43.30023,"lon":5.37725,"is_reserved":false,"is_disabled":true,"rental_uris":{"android":"levelo://app?vid=20358b83-225d-4ff6-8386-f5d7e4ace024","ios":"levelo://app?vid=20358b83-225d-4ff6-8386-f5d7e4ace024"},"vehicle_type_id":"4","last_reported":1734448220,"current_range_meters":7200,"station_id":"","pricing_plan_id":"cebpf4jnsgd1na2vs0mg"},{"bike_id":"3f68063a-60cb-4014-87a2-17de41ea5792","system_id":"levelo_inurba_marseille","lat":43.2867,"lon":5.38677,"is_reserved":false,"is_disabled":false,"rental_uris":{"android":"levelo://app?vid=3f68063a-60cb-4014-87a2-17de41ea5792","ios":"levelo://app?vid=3f68063a-60cb-4014-87a2-17de41ea5792"},"vehicle_type_id":"4","last_reported":1734448220,"current_range_meters":36800,"station_id":"ce4bh492rcd13ifvqdug","pricing_plan_id":"cebpf4jnsgd1na2vs0mg"},{"bike_id":"722ddcaa-51fe-4c41-8a66-148269ed4009","system_id":"levelo_inurba_marseille","lat":43.29807,"lon":5.38101,"is_reserved":false,"is_disabled":false,"rental_uris":{"android":"levelo://app?vid=722ddcaa-51fe-4c41-8a66-148269ed4009","ios":"levelo://app?vid=722ddcaa-51fe-4c41-8a66-148269ed4009"},"vehicle_type_id":"4","last_reported":1734448220,"current_range_meters":20400,"station_id":"ce4bgip2rcd13ifvqbb0","pricing_plan_id":"cebpf4jnsgd1na2vs0mg"},{"bike_id":"e0c39676-64f8-4b9c-a712-f36e5018cd53","system_id":"levelo_inurba_marseille","lat":43.2737,"lon":5.36235,"is_reserved":false,"is_disabled":false,"rental_uris":{"android":"levelo://app?vid=e0c39676-64f8-4b9c-a712-f36e5018cd53","ios":"levelo://app?vid=e0c39676-64f8-4b9c-a712-f36e5018cd53"},"vehicle_type_id":"4","last_reported":1734448220,"current_range_meters":28400,"station_id":"ce4bhbh2rcd13ifvqeo0","pricing_plan_id":"cebpf4jnsgd1na2vs0mg"},{"bike_id":"4ef58d0d-8e30-4280-aa40-6d3ae5111f3b","system_id":"levelo_inurba_marseille","lat":43.30891,"lon":5.36834,"is_reserved":false,"is_disabled":false,"rental_uris":{"android":"levelo://app?vid=4ef58d0d-8e30-4280-aa40-6d3ae5111f3b","ios":"levelo://app?vid=4ef58d0d-8e30-4280-aa40-6d3ae5111f3b"},"vehicle_type_id":"4","last_reported":1734448220,"current_range_meters":38800,"station_id":"ce4bgn92rcd13ifvqbvg","pricing_plan_id":"cebpf4jnsgd1na2vs0mg"},{"bike_id":"4e0cf562-e8bc-4f53-93c6-11472b76bd2a","system_id":"levelo_inurba_marseille","lat":43.307947,"lon":5.381476,"is_reserved":false,"is_disabled":false,"rental_uris":{"android":"levelo://app?vid=4e0cf562-e8bc-4f53-93c6-11472b76bd2a","ios":"levelo://app?vid=4e0cf562-e8bc-4f53-93c6-11472b76bd2a"},"vehicle_type_id":"4","last_reported":1734448220,"current_range_meters":38800,"station_id":"","pricing_plan_id":"cebpf4jnsgd1na2vs0mg"},{"bike_id":"159d77bf-2fcc-4cc1-b89e-647a79b1ed7f","system_id":"levelo_inurba_marseille","lat":43.29917,"lon":5.38159,"is_reserved":false,"is_disabled":false,"rental_uris":{"android":"levelo://app?vid=159d77bf-2fcc-4cc1-b89e-647a79b1ed7f","ios":"levelo://app?vid=159d77bf-2fcc-4cc1-b89e-647a79b1ed7f"},"vehicle_type_id":"4","last_reported":1734448220,"current_range_meters":19600,"station_id":"ce4bgj12rcd13ifvqbc0","pricing_plan_id":"cebpf4jnsgd1na2vs0mg"},{"bike_id":"5d22f8c6-1256-45ed-a20d-37a4ee5f9d59","system_id":"levelo_inurba_marseille","lat":43.31492,"lon":5.37309,"is_reserved":false,"is_disabled":false,"rental_uris":{"android":"levelo://app?vid=5d22f8c6-1256-45ed-a20d-37a4ee5f9d59","ios":"levelo://app?vid=5d22f8c6-1256-45ed-a20d-37a4ee5f9d59"},"vehicle_type_id":"4","last_reported":1734448220,"current_range_meters":19600,"station_id":"ce4bgt12rcd13ifvqcd0","pricing_plan_id":"cebpf4jnsgd1na2vs0mg"},{"bike_id":"c84f081f-95ac-4349-bb7a-ee90028e4aca","system_id":"levelo_inurba_marseille","lat":43.29895,"lon":5.43668,"is_reserved":false,"is_disabled":false,"rental_uris":{"android":"levelo://app?vid=c84f081f-95ac-4349-bb7a-ee90028e4aca","ios":"levelo://app?vid=c84f081f-95ac-4349-bb7a-ee90028e4aca"},"vehicle_type_id":"4","last_reported":1734448220,"current_range_meters":38800,"station_id":"ce4bhpp2rcd13ifvqhfg","pricing_plan_id":"cebpf4jnsgd1na2vs0mg"},{"bike_id":"1e1281f8-1df4-4013-9b92-4a588e3d1a8f","system_id":"levelo_inurba_marseille","lat":43.32293,"lon":5.38256,"is_reserved":false,"is_disabled":false,"rental_uris":{"android":"levelo://app?vid=1e1281f8-1df4-4013-9b92-4a588e3d1a8f","ios":"levelo://app?vid=1e1281f8-1df4-4013-9b92-4a588e3d1a8f"},"vehicle_type_id":"4","last_reported":1734448220,"current_range_meters":28400,"station_id":"ce4bhr12rcd13ifvqhqg","pricing_plan_id":"cebpf4jnsgd1na2vs0mg"},{"bike_id":"33a6cab6-9865-4172-8f1d-a5789e8467c5","system_id":"levelo_inurba_marseille","lat":43.33021,"lon":5.39036,"is_reserved":false,"is_disabled":false,"rental_uris":{"android":"levelo://app?vid=33a6cab6-9865-4172-8f1d-a5789e8467c5","ios":"levelo://app?vid=33a6cab6-9865-4172-8f1d-a5789e8467c5"},"vehicle_type_id":"4","last_reported":1734448220,"current_range_meters":15200,"station_id":"ce4bhr92rcd13ifvqhrg","pricing_plan_id":"cebpf4jnsgd1na2vs0mg"},{"bike_id":"3581cbf2-1bdf-434e-90fb-5ae87912cf6b","system_id":"levelo_inurba_marseille","lat":43.24992,"lon":5.38935,"is_reserved":false,"is_disabled":false,"rental_uris":{"android":"levelo://app?vid=3581cbf2-1bdf-434e-90fb-5ae87912cf6b","ios":"levelo://app?vid=3581cbf2-1bdf-434e-90fb-5ae87912cf6b"},"vehicle_type_id":"4","last_reported":1734448220,"current_range_meters":16000,"station_id":"ce4bhgp2rcd13ifvqfd0","pricing_plan_id":"cebpf4jnsgd1na2vs0mg"},{"bike_id":"aacc7da2-1446-4d2a-aa32-e804470fc32d","system_id":"levelo_inurba_marseille","lat":43.28625,"lon":5.36169,"is_reserved":false,"is_disabled":true,"rental_uris":{"android":"levelo://app?vid=aacc7da2-1446-4d2a-aa32-e804470fc32d","ios":"levelo://app?vid=aacc7da2-1446-4d2a-aa32-e804470fc32d"},"vehicle_type_id":"4","last_reported":1734448220,"current_range_meters":32000,"station_id":"","pricing_plan_id":"cebpf4jnsgd1na2vs0mg"},{"bike_id":"937c90ec-cf04-465b-97b2-ee54435829e8","system_id":"levelo_inurba_marseille","lat":43.301974,"lon":5.366212,"is_reserved":false,"is_disabled":true,"rental_uris":{"android":"levelo://app?vid=937c90ec-cf04-465b-97b2-ee54435829e8","ios":"levelo://app?vid=937c90ec-cf04-465b-97b2-ee54435829e8"},"vehicle_type_id":"4","last_reported":1734448220,"current_range_meters":31200,"station_id":"","pricing_plan_id":"cebpf4jnsgd1na2vs0mg"},{"bike_id":"ec04383f-cf55-4729-89d1-9faffb2abf30","system_id":"levelo_inurba_marseille","lat":43.29896,"lon":5.38896,"is_reserved":false,"is_disabled":false,"rental_uris":{"android":"levelo://app?vid=ec04383f-cf55-4729-89d1-9faffb2abf30","ios":"levelo://app?vid=ec04383f-cf55-4729-89d1-9faffb2abf30"},"vehicle_type_id":"4","last_reported":1734448220,"current_range_meters":18000,"station_id":"ce4bh392rcd13ifvqdl0","pricing_plan_id":"cebpf4jnsgd1na2vs0mg"},{"bike_id":"c0a890f5-31ec-42e9-8f21-8c14abddbb9f","system_id":"levelo_inurba_marseille","lat":43.29025,"lon":5.38137,"is_reserved":false,"is_disabled":false,"rental_uris":{"android":"levelo://app?vid=c0a890f5-31ec-42e9-8f21-8c14abddbb9f","ios":"levelo://app?vid=c0a890f5-31ec-42e9-8f21-8c14abddbb9f"},"vehicle_type_id":"4","last_reported":1734448220,"current_range_meters":38000,"station_id":"ce4bh4p2rcd13ifvqe1g","pricing_plan_id":"cebpf4jnsgd1na2vs0mg"},{"bike_id":"cca472ce-4624-4fe1-990a-80904ac53e71","system_id":"levelo_inurba_marseille","lat":43.25088,"lon":5.40325,"is_reserved":false,"is_disabled":false,"rental_uris":{"android":"levelo://app?vid=cca472ce-4624-4fe1-990a-80904ac53e71","ios":"levelo://app?vid=cca472ce-4624-4fe1-990a-80904ac53e71"},"vehicle_type_id":"4","last_reported":1734448220,"current_range_meters":31200,"station_id":"ce4bhlh2rcd13ifvqgig","pricing_plan_id":"cebpf4jnsgd1na2vs0mg"},{"bike_id":"b56c4a15-79b4-43a7-be93-f93d9975d6ed","system_id":"levelo_inurba_marseille","lat":43.26941,"lon":5.40256,"is_reserved":false,"is_disabled":false,"rental_uris":{"android":"levelo://app?vid=b56c4a15-79b4-43a7-be93-f93d9975d6ed","ios":"levelo://app?vid=b56c4a15-79b4-43a7-be93-f93d9975d6ed"},"vehicle_type_id":"4","last_reported":1734448220,"current_range_meters":16000,"station_id":"cjm6bp8fraef2m0cb0m0","pricing_plan_id":"cebpf4jnsgd1na2vs0mg"},{"bike_id":"dc0e6df7-295d-4e62-8939-9c7a9d49b036","system_id":"levelo_inurba_marseille","lat":43.29958,"lon":5.41328,"is_reserved":false,"is_disabled":true,"rental_uris":{"android":"levelo://app?vid=dc0e6df7-295d-4e62-8939-9c7a9d49b036","ios":"levelo://app?vid=dc0e6df7-295d-4e62-8939-9c7a9d49b036"},"vehicle_type_id":"4","last_reported":1734448220,"current_range_meters":29600,"station_id":"ce4bhp12rcd13ifvqh9g","pricing_plan_id":"cebpf4jnsgd1na2vs0mg"},{"bike_id":"fb99383b-f000-4a86-ac4c-7a2eaec5118e","system_id":"levelo_inurba_marseille","lat":43.29976,"lon":5.37176,"is_reserved":false,"is_disabled":false,"rental_uris":{"android":"levelo://app?vid=fb99383b-f000-4a86-ac4c-7a2eaec5118e","ios":"levelo://app?vid=fb99383b-f000-4a86-ac4c-7a2eaec5118e"},"vehicle_type_id":"4","last_reported":1734448220,"current_range_meters":24000,"station_id":"ce4bgr92rcd13ifvqc7g","pricing_plan_id":"cebpf4jnsgd1na2vs0mg"},{"bike_id":"0a63bca6-39a0-42cf-bc8f-cd65c34f24df","system_id":"levelo_inurba_marseille","lat":43.24648,"lon":5.38891,"is_reserved":false,"is_disabled":false,"rental_uris":{"android":"levelo://app?vid=0a63bca6-39a0-42cf-bc8f-cd65c34f24df","ios":"levelo://app?vid=0a63bca6-39a0-42cf-bc8f-cd65c34f24df"},"vehicle_type_id":"4","last_reported":1734448220,"current_range_meters":38800,"station_id":"ce4bhg12rcd13ifvqf60","pricing_plan_id":"cebpf4jnsgd1na2vs0mg"},{"bike_id":"162477b8-da33-4d9d-be45-0af1a3229da1","system_id":"levelo_inurba_marseille","lat":43.29693,"lon":5.37293,"is_reserved":false,"is_disabled":false,"rental_uris":{"android":"levelo://app?vid=162477b8-da33-4d9d-be45-0af1a3229da1","ios":"levelo://app?vid=162477b8-da33-4d9d-be45-0af1a3229da1"},"vehicle_type_id":"4","last_reported":1734448220,"current_range_meters":38800,"station_id":"ce4bgk12rcd13ifvqbj0","pricing_plan_id":"cebpf4jnsgd1na2vs0mg"},{"bike_id":"ea1ee0a0-f240-4d25-84d9-e6fb6fc7a18c","system_id":"levelo_inurba_marseille","lat":43.33776,"lon":5.42091,"is_reserved":false,"is_disabled":true,"rental_uris":{"android":"levelo://app?vid=ea1ee0a0-f240-4d25-84d9-e6fb6fc7a18c","ios":"levelo://app?vid=ea1ee0a0-f240-4d25-84d9-e6fb6fc7a18c"},"vehicle_type_id":"4","last_reported":1734448220,"current_range_meters":0,"station_id":"","pricing_plan_id":"cebpf4jnsgd1na2vs0mg"},{"bike_id":"488a4008-c935-4cf1-bf0c-a0adcddbe00f","system_id":"levelo_inurba_marseille","lat":43.29933,"lon":5.36556,"is_reserved":false,"is_disabled":false,"rental_uris":{"android":"levelo://app?vid=488a4008-c935-4cf1-bf0c-a0adcddbe00f","ios":"levelo://app?vid=488a4008-c935-4cf1-bf0c-a0adcddbe00f"},"vehicle_type_id":"4","last_reported":1734448220,"current_range_meters":13600,"station_id":"ce4bgm92rcd13ifvqbr0","pricing_plan_id":"cebpf4jnsgd1na2vs0mg"},{"bike_id":"a2f60cbb-aa02-4530-92a3-7597251e95e4","system_id":"levelo_inurba_marseille","lat":43.26681,"lon":5.3827,"is_reserved":false,"is_disabled":true,"rental_uris":{"android":"levelo://app?vid=a2f60cbb-aa02-4530-92a3-7597251e95e4","ios":"levelo://app?vid=a2f60cbb-aa02-4530-92a3-7597251e95e4"},"vehicle_type_id":"4","last_reported":1734448220,"current_range_meters":34800,"station_id":"ce4bhg92rcd13ifvqf90","pricing_plan_id":"cebpf4jnsgd1na2vs0mg"},{"bike_id":"06d0bda8-8639-4530-a035-14c055506018","system_id":"levelo_inurba_marseille","lat":43.27554,"lon":5.38426,"is_reserved":false,"is_disabled":false,"rental_uris":{"android":"levelo://app?vid=06d0bda8-8639-4530-a035-14c055506018","ios":"levelo://app?vid=06d0bda8-8639-4530-a035-14c055506018"},"vehicle_type_id":"4","last_reported":1734448220,"current_range_meters":31200,"station_id":"ce4bhh92rcd13ifvqfi0","pricing_plan_id":"cebpf4jnsgd1na2vs0mg"},{"bike_id":"00f694cf-3a25-43bc-a129-dfeee772a105","system_id":"levelo_inurba_marseille","lat":43.27052,"lon":5.40261,"is_reserved":false,"is_disabled":false,"rental_uris":{"android":"levelo://app?vid=00f694cf-3a25-43bc-a129-dfeee772a105","ios":"levelo://app?vid=00f694cf-3a25-43bc-a129-dfeee772a105"},"vehicle_type_id":"4","last_reported":1734448220,"current_range_meters":24800,"station_id":"ce4bhk92rcd13ifvqgc0","pricing_plan_id":"cebpf4jnsgd1na2vs0mg"},{"bike_id":"c33c74f5-041a-451d-98ed-352bc1d6c2d5","system_id":"levelo_inurba_marseille","lat":43.3046,"lon":5.37903,"is_reserved":false,"is_disabled":false,"rental_uris":{"android":"levelo://app?vid=c33c74f5-041a-451d-98ed-352bc1d6c2d5","ios":"levelo://app?vid=c33c74f5-041a-451d-98ed-352bc1d6c2d5"},"vehicle_type_id":"4","last_reported":1734448220,"current_range_meters":27600,"station_id":"ce4bgup2rcd13ifvqcn0","pricing_plan_id":"cebpf4jnsgd1na2vs0mg"},{"bike_id":"67cf38f2-d57d-42bb-8359-748cb4dda057","system_id":"levelo_inurba_marseille","lat":43.26213,"lon":5.37439,"is_reserved":false,"is_disabled":false,"rental_uris":{"android":"levelo://app?vid=67cf38f2-d57d-42bb-8359-748cb4dda057","ios":"levelo://app?vid=67cf38f2-d57d-42bb-8359-748cb4dda057"},"vehicle_type_id":"4","last_reported":1734448220,"current_range_meters":6000,"station_id":"ce4bhgp2rcd13ifvqfc0","pricing_plan_id":"cebpf4jnsgd1na2vs0mg"},{"bike_id":"c6a684b6-97ff-4792-9abf-d74df447517e","system_id":"levelo_inurba_marseille","lat":43.25114,"lon":5.40323,"is_reserved":false,"is_disabled":true,"rental_uris":{"android":"levelo://app?vid=c6a684b6-97ff-4792-9abf-d74df447517e","ios":"levelo://app?vid=c6a684b6-97ff-4792-9abf-d74df447517e"},"vehicle_type_id":"4","last_reported":1734448220,"current_range_meters":0,"station_id":"ce4bhlh2rcd13ifvqgig","pricing_plan_id":"cebpf4jnsgd1na2vs0mg"},{"bike_id":"fdae6994-2b52-4fd0-8d8f-e92f1ee91c77","system_id":"levelo_inurba_marseille","lat":43.28456,"lon":5.35892,"is_reserved":false,"is_disabled":false,"rental_uris":{"android":"levelo://app?vid=fdae6994-2b52-4fd0-8d8f-e92f1ee91c77","ios":"levelo://app?vid=fdae6994-2b52-4fd0-8d8f-e92f1ee91c77"},"vehicle_type_id":"4","last_reported":1734448220,"current_range_meters":24400,"station_id":"ce4bhah2rcd13ifvqei0","pricing_plan_id":"cebpf4jnsgd1na2vs0mg"},{"bike_id":"33f85b2c-94af-459b-8409-cc8cf3a6d228","system_id":"levelo_inurba_marseille","lat":43.26694,"lon":5.38269,"is_reserved":false,"is_disabled":false,"rental_uris":{"android":"levelo://app?vid=33f85b2c-94af-459b-8409-cc8cf3a6d228","ios":"levelo://app?vid=33f85b2c-94af-459b-8409-cc8cf3a6d228"},"vehicle_type_id":"4","last_reported":1734448220,"current_range_meters":18000,"station_id":"ce4bhg92rcd13ifvqf90","pricing_plan_id":"cebpf4jnsgd1na2vs0mg"},{"bike_id":"286de70b-5e05-4cc4-98f7-05918615355e","system_id":"levelo_inurba_marseille","lat":43.24809,"lon":5.3746,"is_reserved":false,"is_disabled":false,"rental_uris":{"android":"levelo://app?vid=286de70b-5e05-4cc4-98f7-05918615355e","ios":"levelo://app?vid=286de70b-5e05-4cc4-98f7-05918615355e"},"vehicle_type_id":"4","last_reported":1734448220,"current_range_meters":36000,"station_id":"ce4bhgh2rcd13ifvqfb0","pricing_plan_id":"cebpf4jnsgd1na2vs0mg"},{"bike_id":"8a07c32c-0e32-4bb0-abf8-74d2d32b4da4","system_id":"levelo_inurba_marseille","lat":43.28931,"lon":5.36639,"is_reserved":false,"is_disabled":false,"rental_uris":{"android":"levelo://app?vid=8a07c32c-0e32-4bb0-abf8-74d2d32b4da4","ios":"levelo://app?vid=8a07c32c-0e32-4bb0-abf8-74d2d32b4da4"},"vehicle_type_id":"4","last_reported":1734448220,"current_range_meters":13600,"station_id":"ce4bhap2rcd13ifvqek0","pricing_plan_id":"cebpf4jnsgd1na2vs0mg"},{"bike_id":"2b109fc5-2ad5-44d6-994f-55e37d7d8b89","system_id":"levelo_inurba_marseille","lat":43.32109,"lon":5.36781,"is_reserved":false,"is_disabled":false,"rental_uris":{"android":"levelo://app?vid=2b109fc5-2ad5-44d6-994f-55e37d7d8b89","ios":"levelo://app?vid=2b109fc5-2ad5-44d6-994f-55e37d7d8b89"},"vehicle_type_id":"4","last_reported":1734448220,"current_range_meters":33600,"station_id":"ce4bhrh2rcd13ifvqhug","pricing_plan_id":"cebpf4jnsgd1na2vs0mg"},{"bike_id":"7d8c7f94-38c0-41eb-ae58-cdeedd99dae4","system_id":"levelo_inurba_marseille","lat":43.27914,"lon":5.39601,"is_reserved":false,"is_disabled":false,"rental_uris":{"android":"levelo://app?vid=7d8c7f94-38c0-41eb-ae58-cdeedd99dae4","ios":"levelo://app?vid=7d8c7f94-38c0-41eb-ae58-cdeedd99dae4"},"vehicle_type_id":"4","last_reported":1734448220,"current_range_meters":25200,"station_id":"ce4bhf92rcd13ifvqf40","pricing_plan_id":"cebpf4jnsgd1na2vs0mg"},{"bike_id":"acfc6c79-02ee-4171-9cff-0a06ef386be4","system_id":"levelo_inurba_marseille","lat":43.261112,"lon":5.393761,"is_reserved":false,"is_disabled":false,"rental_uris":{"android":"levelo://app?vid=acfc6c79-02ee-4171-9cff-0a06ef386be4","ios":"levelo://app?vid=acfc6c79-02ee-4171-9cff-0a06ef386be4"},"vehicle_type_id":"4","last_reported":1734448220,"current_range_meters":29600,"station_id":"ce4bhh92rcd13ifvqfj0","pricing_plan_id":"cebpf4jnsgd1na2vs0mg"},{"bike_id":"0dfe7731-088c-4fdb-9852-8f2a6275f6fb","system_id":"levelo_inurba_marseille","lat":43.26032,"lon":5.37547,"is_reserved":false,"is_disabled":false,"rental_uris":{"android":"levelo://app?vid=0dfe7731-088c-4fdb-9852-8f2a6275f6fb","ios":"levelo://app?vid=0dfe7731-088c-4fdb-9852-8f2a6275f6fb"},"vehicle_type_id":"4","last_reported":1734448220,"current_range_meters":36400,"station_id":"ce4bhgh2rcd13ifvqfa0","pricing_plan_id":"cebpf4jnsgd1na2vs0mg"},{"bike_id":"1df61689-92ad-42e2-8ed2-7990b58e9533","system_id":"levelo_inurba_marseille","lat":43.26785,"lon":5.39418,"is_reserved":false,"is_disabled":false,"rental_uris":{"android":"levelo://app?vid=1df61689-92ad-42e2-8ed2-7990b58e9533","ios":"levelo://app?vid=1df61689-92ad-42e2-8ed2-7990b58e9533"},"vehicle_type_id":"4","last_reported":1734448220,"current_range_meters":24800,"station_id":"ce4bhh12rcd13ifvqfg0","pricing_plan_id":"cebpf4jnsgd1na2vs0mg"},{"bike_id":"77b045ec-31af-4db4-b5a1-524f94c3c261","system_id":"levelo_inurba_marseille","lat":43.29295,"lon":5.37453,"is_reserved":false,"is_disabled":true,"rental_uris":{"android":"levelo://app?vid=77b045ec-31af-4db4-b5a1-524f94c3c261","ios":"levelo://app?vid=77b045ec-31af-4db4-b5a1-524f94c3c261"},"vehicle_type_id":"4","last_reported":1734448220,"current_range_meters":36400,"station_id":"ce4bgi12rcd13ifvqb70","pricing_plan_id":"cebpf4jnsgd1na2vs0mg"},{"bike_id":"2efe5cd0-3061-4c4f-877d-3ab1d5f8411e","system_id":"levelo_inurba_marseille","lat":43.30539,"lon":5.3654,"is_reserved":false,"is_disabled":false,"rental_uris":{"android":"levelo://app?vid=2efe5cd0-3061-4c4f-877d-3ab1d5f8411e","ios":"levelo://app?vid=2efe5cd0-3061-4c4f-877d-3ab1d5f8411e"},"vehicle_type_id":"4","last_reported":1734448220,"current_range_meters":38800,"station_id":"ce4bgs12rcd13ifvqcag","pricing_plan_id":"cebpf4jnsgd1na2vs0mg"},{"bike_id":"4f720f2b-c111-4327-aa85-323f2f97bdbe","system_id":"levelo_inurba_marseille","lat":43.2782,"lon":5.40724,"is_reserved":false,"is_disabled":false,"rental_uris":{"android":"levelo://app?vid=4f720f2b-c111-4327-aa85-323f2f97bdbe","ios":"levelo://app?vid=4f720f2b-c111-4327-aa85-323f2f97bdbe"},"vehicle_type_id":"4","last_reported":1734448220,"current_range_meters":37600,"station_id":"ce4bhnh2rcd13ifvqgtg","pricing_plan_id":"cebpf4jnsgd1na2vs0mg"},{"bike_id":"40b87c45-7a27-47f6-9b54-3fe9e3b20b0a","system_id":"levelo_inurba_marseille","lat":43.2601,"lon":5.3755,"is_reserved":false,"is_disabled":true,"rental_uris":{"android":"levelo://app?vid=40b87c45-7a27-47f6-9b54-3fe9e3b20b0a","ios":"levelo://app?vid=40b87c45-7a27-47f6-9b54-3fe9e3b20b0a"},"vehicle_type_id":"4","last_reported":1734448220,"current_range_meters":0,"station_id":"ce4bhgh2rcd13ifvqfa0","pricing_plan_id":"cebpf4jnsgd1na2vs0mg"},{"bike_id":"250b8fdb-f899-4166-b191-fe7d0812bce8","system_id":"levelo_inurba_marseille","lat":43.27183,"lon":5.40997,"is_reserved":false,"is_disabled":false,"rental_uris":{"android":"levelo://app?vid=250b8fdb-f899-4166-b191-fe7d0812bce8","ios":"levelo://app?vid=250b8fdb-f899-4166-b191-fe7d0812bce8"},"vehicle_type_id":"4","last_reported":1734448220,"current_range_meters":10000,"station_id":"ce4bhl12rcd13ifvqgf0","pricing_plan_id":"cebpf4jnsgd1na2vs0mg"},{"bike_id":"8e5383ee-c255-42a9-a4e7-df9ae8f9efdd","system_id":"levelo_inurba_marseille","lat":43.25831,"lon":5.39438,"is_reserved":false,"is_disabled":false,"rental_uris":{"android":"levelo://app?vid=8e5383ee-c255-42a9-a4e7-df9ae8f9efdd","ios":"levelo://app?vid=8e5383ee-c255-42a9-a4e7-df9ae8f9efdd"},"vehicle_type_id":"4","last_reported":1734448220,"current_range_meters":37600,"station_id":"ce4bhip2rcd13ifvqft0","pricing_plan_id":"cebpf4jnsgd1na2vs0mg"},{"bike_id":"a74e2f2e-5305-46cf-a4a9-9eb5976ad548","system_id":"levelo_inurba_marseille","lat":43.27928,"lon":5.39592,"is_reserved":false,"is_disabled":false,"rental_uris":{"android":"levelo://app?vid=a74e2f2e-5305-46cf-a4a9-9eb5976ad548","ios":"levelo://app?vid=a74e2f2e-5305-46cf-a4a9-9eb5976ad548"},"vehicle_type_id":"4","last_reported":1734448220,"current_range_meters":38800,"station_id":"ce4bhf92rcd13ifvqf40","pricing_plan_id":"cebpf4jnsgd1na2vs0mg"},{"bike_id":"22b60ac3-2283-4f65-9420-3d66abc6dec5","system_id":"levelo_inurba_marseille","lat":43.2978,"lon":5.39344,"is_reserved":false,"is_disabled":false,"rental_uris":{"android":"levelo://app?vid=22b60ac3-2283-4f65-9420-3d66abc6dec5","ios":"levelo://app?vid=22b60ac3-2283-4f65-9420-3d66abc6dec5"},"vehicle_type_id":"4","last_reported":1734448220,"current_range_meters":12000,"station_id":"chh1huq6cuj3fo74tm60","pricing_plan_id":"cebpf4jnsgd1na2vs0mg"},{"bike_id":"a02fb1fa-2c8c-4cb7-8ed1-f1f3a1761b0f","system_id":"levelo_inurba_marseille","lat":43.28571,"lon":5.39497,"is_reserved":false,"is_disabled":false,"rental_uris":{"android":"levelo://app?vid=a02fb1fa-2c8c-4cb7-8ed1-f1f3a1761b0f","ios":"levelo://app?vid=a02fb1fa-2c8c-4cb7-8ed1-f1f3a1761b0f"},"vehicle_type_id":"4","last_reported":1734448220,"current_range_meters":25600,"station_id":"ce4bh292rcd13ifvqdg0","pricing_plan_id":"cebpf4jnsgd1na2vs0mg"},{"bike_id":"433c33d1-709b-4cbe-8b4b-7047afccd30a","system_id":"levelo_inurba_marseille","lat":43.26933,"lon":5.40265,"is_reserved":false,"is_disabled":false,"rental_uris":{"android":"levelo://app?vid=433c33d1-709b-4cbe-8b4b-7047afccd30a","ios":"levelo://app?vid=433c33d1-709b-4cbe-8b4b-7047afccd30a"},"vehicle_type_id":"4","last_reported":1734448220,"current_range_meters":27600,"station_id":"cjm6bp8fraef2m0cb0m0","pricing_plan_id":"cebpf4jnsgd1na2vs0mg"},{"bike_id":"939ef11f-362b-4ed3-aded-ebb978be04f1","system_id":"levelo_inurba_marseille","lat":43.27945,"lon":5.41047,"is_reserved":false,"is_disabled":false,"rental_uris":{"android":"levelo://app?vid=939ef11f-362b-4ed3-aded-ebb978be04f1","ios":"levelo://app?vid=939ef11f-362b-4ed3-aded-ebb978be04f1"},"vehicle_type_id":"4","last_reported":1734448220,"current_range_meters":33600,"station_id":"ce4bhnp2rcd13ifvqh0g","pricing_plan_id":"cebpf4jnsgd1na2vs0mg"},{"bike_id":"3661c8b2-61c2-4b97-b6a4-53dd244f7682","system_id":"levelo_inurba_marseille","lat":43.2791,"lon":5.39576,"is_reserved":false,"is_disabled":false,"rental_uris":{"android":"levelo://app?vid=3661c8b2-61c2-4b97-b6a4-53dd244f7682","ios":"levelo://app?vid=3661c8b2-61c2-4b97-b6a4-53dd244f7682"},"vehicle_type_id":"4","last_reported":1734448220,"current_range_meters":11200,"station_id":"ce4bhf92rcd13ifvqf40","pricing_plan_id":"cebpf4jnsgd1na2vs0mg"},{"bike_id":"399886e1-1fd8-45ef-b9a3-f32444b7db24","system_id":"levelo_inurba_marseille","lat":43.27321,"lon":5.39088,"is_reserved":false,"is_disabled":true,"rental_uris":{"android":"levelo://app?vid=399886e1-1fd8-45ef-b9a3-f32444b7db24","ios":"levelo://app?vid=399886e1-1fd8-45ef-b9a3-f32444b7db24"},"vehicle_type_id":"4","last_reported":1734448220,"current_range_meters":35600,"station_id":"ce4bhgp2rcd13ifvqfe0","pricing_plan_id":"cebpf4jnsgd1na2vs0mg"},{"bike_id":"e4792bb6-9e6d-483a-a5ae-2b1904da6da2","system_id":"levelo_inurba_marseille","lat":43.30543,"lon":5.36703,"is_reserved":false,"is_disabled":false,"rental_uris":{"android":"levelo://app?vid=e4792bb6-9e6d-483a-a5ae-2b1904da6da2","ios":"levelo://app?vid=e4792bb6-9e6d-483a-a5ae-2b1904da6da2"},"vehicle_type_id":"4","last_reported":1734448220,"current_range_meters":36000,"station_id":"ce4bgrp2rcd13ifvqc9g","pricing_plan_id":"cebpf4jnsgd1na2vs0mg"},{"bike_id":"cc21ea15-925a-4047-b298-6baf74c13d79","system_id":"levelo_inurba_marseille","lat":43.26488,"lon":5.39545,"is_reserved":false,"is_disabled":false,"rental_uris":{"android":"levelo://app?vid=cc21ea15-925a-4047-b298-6baf74c13d79","ios":"levelo://app?vid=cc21ea15-925a-4047-b298-6baf74c13d79"},"vehicle_type_id":"4","last_reported":1734448220,"current_range_meters":13600,"station_id":"ce4bhi12rcd13ifvqfq0","pricing_plan_id":"cebpf4jnsgd1na2vs0mg"},{"bike_id":"782bcbf2-b7de-4b04-bebc-aaa0329dd90c","system_id":"levelo_inurba_marseille","lat":43.23192,"lon":5.35557,"is_reserved":false,"is_disabled":false,"rental_uris":{"android":"levelo://app?vid=782bcbf2-b7de-4b04-bebc-aaa0329dd90c","ios":"levelo://app?vid=782bcbf2-b7de-4b04-bebc-aaa0329dd90c"},"vehicle_type_id":"4","last_reported":1734448220,"current_range_meters":38800,"station_id":"ce4bhu92rcd13ifvqi70","pricing_plan_id":"cebpf4jnsgd1na2vs0mg"},{"bike_id":"a925316d-9d31-43b0-a430-5cb1bef87372","system_id":"levelo_inurba_marseille","lat":43.2718,"lon":5.40992,"is_reserved":false,"is_disabled":false,"rental_uris":{"android":"levelo://app?vid=a925316d-9d31-43b0-a430-5cb1bef87372","ios":"levelo://app?vid=a925316d-9d31-43b0-a430-5cb1bef87372"},"vehicle_type_id":"4","last_reported":1734448220,"current_range_meters":24800,"station_id":"ce4bhl12rcd13ifvqgf0","pricing_plan_id":"cebpf4jnsgd1na2vs0mg"},{"bike_id":"540c19ab-e8ac-4092-909b-c3e5069b6978","system_id":"levelo_inurba_marseille","lat":43.337444,"lon":5.374475,"is_reserved":false,"is_disabled":true,"rental_uris":{"android":"levelo://app?vid=540c19ab-e8ac-4092-909b-c3e5069b6978","ios":"levelo://app?vid=540c19ab-e8ac-4092-909b-c3e5069b6978"},"vehicle_type_id":"4","last_reported":1734448220,"current_range_meters":0,"station_id":"","pricing_plan_id":"cebpf4jnsgd1na2vs0mg"},{"bike_id":"14703762-2282-4b44-ac94-3c131a197a71","system_id":"levelo_inurba_marseille","lat":43.28159,"lon":5.42645,"is_reserved":false,"is_disabled":false,"rental_uris":{"android":"levelo://app?vid=14703762-2282-4b44-ac94-3c131a197a71","ios":"levelo://app?vid=14703762-2282-4b44-ac94-3c131a197a71"},"vehicle_type_id":"4","last_reported":1734448220,"current_range_meters":9600,"station_id":"ce4bhnh2rcd13ifvqgug","pricing_plan_id":"cebpf4jnsgd1na2vs0mg"},{"bike_id":"f1b80d71-69cf-4cef-8fb8-8025071f3082","system_id":"levelo_inurba_marseille","lat":43.29306,"lon":5.37459,"is_reserved":false,"is_disabled":false,"rental_uris":{"android":"levelo://app?vid=f1b80d71-69cf-4cef-8fb8-8025071f3082","ios":"levelo://app?vid=f1b80d71-69cf-4cef-8fb8-8025071f3082"},"vehicle_type_id":"4","last_reported":1734448220,"current_range_meters":36800,"station_id":"ce4bgi12rcd13ifvqb70","pricing_plan_id":"cebpf4jnsgd1na2vs0mg"},{"bike_id":"43992b1c-b8e9-40b0-a598-40ab5d1672ad","system_id":"levelo_inurba_marseille","lat":43.29975,"lon":5.38487,"is_reserved":false,"is_disabled":true,"rental_uris":{"android":"levelo://app?vid=43992b1c-b8e9-40b0-a598-40ab5d1672ad","ios":"levelo://app?vid=43992b1c-b8e9-40b0-a598-40ab5d1672ad"},"vehicle_type_id":"4","last_reported":1734448220,"current_range_meters":0,"station_id":"ce4bgj92rcd13ifvqbd0","pricing_plan_id":"cebpf4jnsgd1na2vs0mg"},{"bike_id":"09689acb-4ab6-46fa-b4e4-47d26fce52e7","system_id":"levelo_inurba_marseille","lat":43.30542,"lon":5.36543,"is_reserved":false,"is_disabled":false,"rental_uris":{"android":"levelo://app?vid=09689acb-4ab6-46fa-b4e4-47d26fce52e7","ios":"levelo://app?vid=09689acb-4ab6-46fa-b4e4-47d26fce52e7"},"vehicle_type_id":"4","last_reported":1734448220,"current_range_meters":24400,"station_id":"ce4bgs12rcd13ifvqcag","pricing_plan_id":"cebpf4jnsgd1na2vs0mg"},{"bike_id":"5b9dadf4-f3ef-496a-933f-556a1442196c","system_id":"levelo_inurba_marseille","lat":43.27942,"lon":5.41048,"is_reserved":false,"is_disabled":false,"rental_uris":{"android":"levelo://app?vid=5b9dadf4-f3ef-496a-933f-556a1442196c","ios":"levelo://app?vid=5b9dadf4-f3ef-496a-933f-556a1442196c"},"vehicle_type_id":"4","last_reported":1734448220,"current_range_meters":38800,"station_id":"ce4bhnp2rcd13ifvqh0g","pricing_plan_id":"cebpf4jnsgd1na2vs0mg"},{"bike_id":"8adeed2f-135b-4f23-a52b-1a86f28ba8bd","system_id":"levelo_inurba_marseille","lat":43.296,"lon":5.38098,"is_reserved":false,"is_disabled":false,"rental_uris":{"android":"levelo://app?vid=8adeed2f-135b-4f23-a52b-1a86f28ba8bd","ios":"levelo://app?vid=8adeed2f-135b-4f23-a52b-1a86f28ba8bd"},"vehicle_type_id":"4","last_reported":1734448220,"current_range_meters":38800,"station_id":"ce4bgl12rcd13ifvqbo0","pricing_plan_id":"cebpf4jnsgd1na2vs0mg"},{"bike_id":"1fec55f9-b5e4-4bbd-a968-2ed4001a9d15","system_id":"levelo_inurba_marseille","lat":43.29713,"lon":5.37686,"is_reserved":false,"is_disabled":false,"rental_uris":{"android":"levelo://app?vid=1fec55f9-b5e4-4bbd-a968-2ed4001a9d15","ios":"levelo://app?vid=1fec55f9-b5e4-4bbd-a968-2ed4001a9d15"},"vehicle_type_id":"4","last_reported":1734448220,"current_range_meters":31200,"station_id":"ce4bgkh2rcd13ifvqbl0","pricing_plan_id":"cebpf4jnsgd1na2vs0mg"},{"bike_id":"bd49b464-be16-4f50-9ace-5fd46ba0f639","system_id":"levelo_inurba_marseille","lat":43.30142,"lon":5.37418,"is_reserved":false,"is_disabled":false,"rental_uris":{"android":"levelo://app?vid=bd49b464-be16-4f50-9ace-5fd46ba0f639","ios":"levelo://app?vid=bd49b464-be16-4f50-9ace-5fd46ba0f639"},"vehicle_type_id":"4","last_reported":1734448220,"current_range_meters":22000,"station_id":"ce4bgs92rcd13ifvqcc0","pricing_plan_id":"cebpf4jnsgd1na2vs0mg"},{"bike_id":"01c7d8f2-ec20-42ed-80a2-5ea2000f1508","system_id":"levelo_inurba_marseille","lat":43.30155,"lon":5.38094,"is_reserved":false,"is_disabled":false,"rental_uris":{"android":"levelo://app?vid=01c7d8f2-ec20-42ed-80a2-5ea2000f1508","ios":"levelo://app?vid=01c7d8f2-ec20-42ed-80a2-5ea2000f1508"},"vehicle_type_id":"4","last_reported":1734448220,"current_range_meters":27200,"station_id":"ce4bgjp2rcd13ifvqbh0","pricing_plan_id":"cebpf4jnsgd1na2vs0mg"},{"bike_id":"94a37cbe-ff0d-47dd-9ab1-eaa0d3f9ab1d","system_id":"levelo_inurba_marseille","lat":43.29223,"lon":5.36085,"is_reserved":false,"is_disabled":false,"rental_uris":{"android":"levelo://app?vid=94a37cbe-ff0d-47dd-9ab1-eaa0d3f9ab1d","ios":"levelo://app?vid=94a37cbe-ff0d-47dd-9ab1-eaa0d3f9ab1d"},"vehicle_type_id":"4","last_reported":1734448220,"current_range_meters":19600,"station_id":"ce4bhbh2rcd13ifvqeqg","pricing_plan_id":"cebpf4jnsgd1na2vs0mg"},{"bike_id":"e82f4bcc-e8c7-45fb-935b-84f0ae3e27c2","system_id":"levelo_inurba_marseille","lat":43.24549,"lon":5.39529,"is_reserved":false,"is_disabled":false,"rental_uris":{"android":"levelo://app?vid=e82f4bcc-e8c7-45fb-935b-84f0ae3e27c2","ios":"levelo://app?vid=e82f4bcc-e8c7-45fb-935b-84f0ae3e27c2"},"vehicle_type_id":"4","last_reported":1734448220,"current_range_meters":30400,"station_id":"ce4bhlp2rcd13ifvqgjg","pricing_plan_id":"cebpf4jnsgd1na2vs0mg"},{"bike_id":"ddbbfe5d-94ec-4ed2-8677-23a6e78f43c1","system_id":"levelo_inurba_marseille","lat":43.25579,"lon":5.38243,"is_reserved":false,"is_disabled":false,"rental_uris":{"android":"levelo://app?vid=ddbbfe5d-94ec-4ed2-8677-23a6e78f43c1","ios":"levelo://app?vid=ddbbfe5d-94ec-4ed2-8677-23a6e78f43c1"},"vehicle_type_id":"4","last_reported":1734448220,"current_range_meters":30000,"station_id":"ce4bhih2rcd13ifvqfs0","pricing_plan_id":"cebpf4jnsgd1na2vs0mg"},{"bike_id":"6aa79a14-c268-4e09-a080-aae5c773223c","system_id":"levelo_inurba_marseille","lat":43.29031,"lon":5.38652,"is_reserved":false,"is_disabled":false,"rental_uris":{"android":"levelo://app?vid=6aa79a14-c268-4e09-a080-aae5c773223c","ios":"levelo://app?vid=6aa79a14-c268-4e09-a080-aae5c773223c"},"vehicle_type_id":"4","last_reported":1734448220,"current_range_meters":38000,"station_id":"ce4bh4p2rcd13ifvqe0g","pricing_plan_id":"cebpf4jnsgd1na2vs0mg"},{"bike_id":"82f4f435-ee17-4f44-808e-66d5d02d4ca2","system_id":"levelo_inurba_marseille","lat":43.25001,"lon":5.38931,"is_reserved":false,"is_disabled":false,"rental_uris":{"android":"levelo://app?vid=82f4f435-ee17-4f44-808e-66d5d02d4ca2","ios":"levelo://app?vid=82f4f435-ee17-4f44-808e-66d5d02d4ca2"},"vehicle_type_id":"4","last_reported":1734448220,"current_range_meters":38800,"station_id":"ce4bhgp2rcd13ifvqfd0","pricing_plan_id":"cebpf4jnsgd1na2vs0mg"},{"bike_id":"e570e38a-85d6-4b1d-89e9-03facfda4fdf","system_id":"levelo_inurba_marseille","lat":43.30523,"lon":5.36719,"is_reserved":false,"is_disabled":false,"rental_uris":{"android":"levelo://app?vid=e570e38a-85d6-4b1d-89e9-03facfda4fdf","ios":"levelo://app?vid=e570e38a-85d6-4b1d-89e9-03facfda4fdf"},"vehicle_type_id":"4","last_reported":1734448220,"current_range_meters":27600,"station_id":"ce4bgrp2rcd13ifvqc9g","pricing_plan_id":"cebpf4jnsgd1na2vs0mg"},{"bike_id":"75e67299-c844-44cb-89ab-3698baf52b76","system_id":"levelo_inurba_marseille","lat":43.2979,"lon":5.38096,"is_reserved":false,"is_disabled":false,"rental_uris":{"android":"levelo://app?vid=75e67299-c844-44cb-89ab-3698baf52b76","ios":"levelo://app?vid=75e67299-c844-44cb-89ab-3698baf52b76"},"vehicle_type_id":"4","last_reported":1734448220,"current_range_meters":6400,"station_id":"ce4bgip2rcd13ifvqbb0","pricing_plan_id":"cebpf4jnsgd1na2vs0mg"},{"bike_id":"d216b408-d1d5-413f-93dc-9b86f84d2ed2","system_id":"levelo_inurba_marseille","lat":43.30907,"lon":5.36851,"is_reserved":false,"is_disabled":false,"rental_uris":{"android":"levelo://app?vid=d216b408-d1d5-413f-93dc-9b86f84d2ed2","ios":"levelo://app?vid=d216b408-d1d5-413f-93dc-9b86f84d2ed2"},"vehicle_type_id":"4","last_reported":1734448220,"current_range_meters":12800,"station_id":"ce4bgn92rcd13ifvqbvg","pricing_plan_id":"cebpf4jnsgd1na2vs0mg"},{"bike_id":"c30626e0-3f73-497b-a26e-97b05081a38d","system_id":"levelo_inurba_marseille","lat":43.29978,"lon":5.38487,"is_reserved":false,"is_disabled":false,"rental_uris":{"android":"levelo://app?vid=c30626e0-3f73-497b-a26e-97b05081a38d","ios":"levelo://app?vid=c30626e0-3f73-497b-a26e-97b05081a38d"},"vehicle_type_id":"4","last_reported":1734448220,"current_range_meters":27600,"station_id":"ce4bgj92rcd13ifvqbd0","pricing_plan_id":"cebpf4jnsgd1na2vs0mg"},{"bike_id":"7b767a23-32ec-4485-9cca-76cc3147b1d9","system_id":"levelo_inurba_marseille","lat":43.27915,"lon":5.39592,"is_reserved":false,"is_disabled":false,"rental_uris":{"android":"levelo://app?vid=7b767a23-32ec-4485-9cca-76cc3147b1d9","ios":"levelo://app?vid=7b767a23-32ec-4485-9cca-76cc3147b1d9"},"vehicle_type_id":"4","last_reported":1734448220,"current_range_meters":8800,"station_id":"ce4bhf92rcd13ifvqf40","pricing_plan_id":"cebpf4jnsgd1na2vs0mg"},{"bike_id":"02850a23-9033-40eb-8de2-5e0fdeb71e97","system_id":"levelo_inurba_marseille","lat":43.289128,"lon":5.383862,"is_reserved":false,"is_disabled":false,"rental_uris":{"android":"levelo://app?vid=02850a23-9033-40eb-8de2-5e0fdeb71e97","ios":"levelo://app?vid=02850a23-9033-40eb-8de2-5e0fdeb71e97"},"vehicle_type_id":"4","last_reported":1734448220,"current_range_meters":30400,"station_id":"ce4bh612rcd13ifvqe6g","pricing_plan_id":"cebpf4jnsgd1na2vs0mg"},{"bike_id":"140b7c77-450d-4ce4-8982-6cc405fe0924","system_id":"levelo_inurba_marseille","lat":43.27982,"lon":5.41658,"is_reserved":false,"is_disabled":false,"rental_uris":{"android":"levelo://app?vid=140b7c77-450d-4ce4-8982-6cc405fe0924","ios":"levelo://app?vid=140b7c77-450d-4ce4-8982-6cc405fe0924"},"vehicle_type_id":"4","last_reported":1734448220,"current_range_meters":25600,"station_id":"ce4bho12rcd13ifvqh1g","pricing_plan_id":"cebpf4jnsgd1na2vs0mg"},{"bike_id":"0427bfa4-7c9f-485e-9901-c36b0591c06e","system_id":"levelo_inurba_marseille","lat":43.26208,"lon":5.37444,"is_reserved":false,"is_disabled":false,"rental_uris":{"android":"levelo://app?vid=0427bfa4-7c9f-485e-9901-c36b0591c06e","ios":"levelo://app?vid=0427bfa4-7c9f-485e-9901-c36b0591c06e"},"vehicle_type_id":"4","last_reported":1734448220,"current_range_meters":25200,"station_id":"ce4bhgp2rcd13ifvqfc0","pricing_plan_id":"cebpf4jnsgd1na2vs0mg"},{"bike_id":"edc72afe-bd88-4f0b-86d3-b5b0e0901f56","system_id":"levelo_inurba_marseille","lat":43.303103,"lon":5.369007,"is_reserved":false,"is_disabled":false,"rental_uris":{"android":"levelo://app?vid=edc72afe-bd88-4f0b-86d3-b5b0e0901f56","ios":"levelo://app?vid=edc72afe-bd88-4f0b-86d3-b5b0e0901f56"},"vehicle_type_id":"4","last_reported":1734448220,"current_range_meters":39200,"station_id":"ce4bgqh2rcd13ifvqc5g","pricing_plan_id":"cebpf4jnsgd1na2vs0mg"},{"bike_id":"cdb0b79b-c747-49ec-9c4e-a338d34cf2bb","system_id":"levelo_inurba_marseille","lat":43.26198,"lon":5.37934,"is_reserved":false,"is_disabled":false,"rental_uris":{"android":"levelo://app?vid=cdb0b79b-c747-49ec-9c4e-a338d34cf2bb","ios":"levelo://app?vid=cdb0b79b-c747-49ec-9c4e-a338d34cf2bb"},"vehicle_type_id":"4","last_reported":1734448220,"current_range_meters":36000,"station_id":"ce4bhjp2rcd13ifvqg90","pricing_plan_id":"cebpf4jnsgd1na2vs0mg"},{"bike_id":"e7003594-66f3-4f16-8a8f-22796d18fc63","system_id":"levelo_inurba_marseille","lat":43.30536,"lon":5.3655,"is_reserved":false,"is_disabled":false,"rental_uris":{"android":"levelo://app?vid=e7003594-66f3-4f16-8a8f-22796d18fc63","ios":"levelo://app?vid=e7003594-66f3-4f16-8a8f-22796d18fc63"},"vehicle_type_id":"4","last_reported":1734448220,"current_range_meters":38800,"station_id":"ce4bgs12rcd13ifvqcag","pricing_plan_id":"cebpf4jnsgd1na2vs0mg"},{"bike_id":"901a851f-0052-4ecb-b660-1698a0036d19","system_id":"levelo_inurba_marseille","lat":43.31333,"lon":5.39694,"is_reserved":false,"is_disabled":false,"rental_uris":{"android":"levelo://app?vid=901a851f-0052-4ecb-b660-1698a0036d19","ios":"levelo://app?vid=901a851f-0052-4ecb-b660-1698a0036d19"},"vehicle_type_id":"4","last_reported":1734448220,"current_range_meters":38800,"station_id":"ce4bgvp2rcd13ifvqcu0","pricing_plan_id":"cebpf4jnsgd1na2vs0mg"},{"bike_id":"d289a6aa-b903-453d-b1cd-8a6acc0d9554","system_id":"levelo_inurba_marseille","lat":43.299707,"lon":5.384908,"is_reserved":false,"is_disabled":false,"rental_uris":{"android":"levelo://app?vid=d289a6aa-b903-453d-b1cd-8a6acc0d9554","ios":"levelo://app?vid=d289a6aa-b903-453d-b1cd-8a6acc0d9554"},"vehicle_type_id":"4","last_reported":1734448220,"current_range_meters":14400,"station_id":"ce4bgj92rcd13ifvqbd0","pricing_plan_id":"cebpf4jnsgd1na2vs0mg"},{"bike_id":"4b6e1560-ae0a-4c4e-adbf-8263ae29060d","system_id":"levelo_inurba_marseille","lat":43.27072,"lon":5.40237,"is_reserved":false,"is_disabled":false,"rental_uris":{"android":"levelo://app?vid=4b6e1560-ae0a-4c4e-adbf-8263ae29060d","ios":"levelo://app?vid=4b6e1560-ae0a-4c4e-adbf-8263ae29060d"},"vehicle_type_id":"4","last_reported":1734448220,"current_range_meters":12000,"station_id":"ce4bhk92rcd13ifvqgc0","pricing_plan_id":"cebpf4jnsgd1na2vs0mg"},{"bike_id":"68907ca0-038a-4705-886b-af6c122ac485","system_id":"levelo_inurba_marseille","lat":43.23184,"lon":5.39987,"is_reserved":false,"is_disabled":false,"rental_uris":{"android":"levelo://app?vid=68907ca0-038a-4705-886b-af6c122ac485","ios":"levelo://app?vid=68907ca0-038a-4705-886b-af6c122ac485"},"vehicle_type_id":"4","last_reported":1734448220,"current_range_meters":38400,"station_id":"ce4bhn12rcd13ifvqgqg","pricing_plan_id":"cebpf4jnsgd1na2vs0mg"},{"bike_id":"91af1953-7656-4f96-958a-3d2f681b085b","system_id":"levelo_inurba_marseille","lat":43.29174,"lon":5.37171,"is_reserved":false,"is_disabled":false,"rental_uris":{"android":"levelo://app?vid=91af1953-7656-4f96-958a-3d2f681b085b","ios":"levelo://app?vid=91af1953-7656-4f96-958a-3d2f681b085b"},"vehicle_type_id":"4","last_reported":1734448220,"current_range_meters":37600,"station_id":"ce4bha92rcd13ifvqeh0","pricing_plan_id":"cebpf4jnsgd1na2vs0mg"},{"bike_id":"40337daf-7962-4203-8399-6c887b36918b","system_id":"levelo_inurba_marseille","lat":43.24166,"lon":5.36404,"is_reserved":false,"is_disabled":false,"rental_uris":{"android":"levelo://app?vid=40337daf-7962-4203-8399-6c887b36918b","ios":"levelo://app?vid=40337daf-7962-4203-8399-6c887b36918b"},"vehicle_type_id":"4","last_reported":1734448220,"current_range_meters":6400,"station_id":"cpo36qri1sfpv3e86is0","pricing_plan_id":"cebpf4jnsgd1na2vs0mg"},{"bike_id":"a852f14c-1573-40fe-bdb0-30bcf5f773fb","system_id":"levelo_inurba_marseille","lat":43.28611,"lon":5.35101,"is_reserved":false,"is_disabled":true,"rental_uris":{"android":"levelo://app?vid=a852f14c-1573-40fe-bdb0-30bcf5f773fb","ios":"levelo://app?vid=a852f14c-1573-40fe-bdb0-30bcf5f773fb"},"vehicle_type_id":"4","last_reported":1734448220,"current_range_meters":19600,"station_id":"ce4bhch2rcd13ifvqeug","pricing_plan_id":"cebpf4jnsgd1na2vs0mg"},{"bike_id":"a3e50099-7740-4ae2-a347-7536c5dca570","system_id":"levelo_inurba_marseille","lat":43.30873,"lon":5.39631,"is_reserved":false,"is_disabled":false,"rental_uris":{"android":"levelo://app?vid=a3e50099-7740-4ae2-a347-7536c5dca570","ios":"levelo://app?vid=a3e50099-7740-4ae2-a347-7536c5dca570"},"vehicle_type_id":"4","last_reported":1734448220,"current_range_meters":28400,"station_id":"ce4bh012rcd13ifvqcv0","pricing_plan_id":"cebpf4jnsgd1na2vs0mg"},{"bike_id":"15337677-9ae1-4159-afdc-4f163bc8327f","system_id":"levelo_inurba_marseille","lat":43.31326,"lon":5.39693,"is_reserved":false,"is_disabled":false,"rental_uris":{"android":"levelo://app?vid=15337677-9ae1-4159-afdc-4f163bc8327f","ios":"levelo://app?vid=15337677-9ae1-4159-afdc-4f163bc8327f"},"vehicle_type_id":"4","last_reported":1734448220,"current_range_meters":35200,"station_id":"ce4bgvp2rcd13ifvqcu0","pricing_plan_id":"cebpf4jnsgd1na2vs0mg"},{"bike_id":"bb337245-7c41-4671-900b-a4d92ae562c6","system_id":"levelo_inurba_marseille","lat":43.29511,"lon":5.39036,"is_reserved":false,"is_disabled":true,"rental_uris":{"android":"levelo://app?vid=bb337245-7c41-4671-900b-a4d92ae562c6","ios":"levelo://app?vid=bb337245-7c41-4671-900b-a4d92ae562c6"},"vehicle_type_id":"4","last_reported":1734448220,"current_range_meters":6000,"station_id":"ce4bh3p2rcd13ifvqdp0","pricing_plan_id":"cebpf4jnsgd1na2vs0mg"},{"bike_id":"edbb910c-a59a-4aae-b763-7d277b8e518e","system_id":"levelo_inurba_marseille","lat":43.30949,"lon":5.39022,"is_reserved":false,"is_disabled":false,"rental_uris":{"android":"levelo://app?vid=edbb910c-a59a-4aae-b763-7d277b8e518e","ios":"levelo://app?vid=edbb910c-a59a-4aae-b763-7d277b8e518e"},"vehicle_type_id":"4","last_reported":1734448220,"current_range_meters":9600,"station_id":"ce4bgup2rcd13ifvqco0","pricing_plan_id":"cebpf4jnsgd1na2vs0mg"},{"bike_id":"fa3fd9fd-2a18-4b83-85e5-267172f3bc84","system_id":"levelo_inurba_marseille","lat":43.23053,"lon":5.35498,"is_reserved":false,"is_disabled":false,"rental_uris":{"android":"levelo://app?vid=fa3fd9fd-2a18-4b83-85e5-267172f3bc84","ios":"levelo://app?vid=fa3fd9fd-2a18-4b83-85e5-267172f3bc84"},"vehicle_type_id":"4","last_reported":1734448220,"current_range_meters":8400,"station_id":"cpo3342slgdg3j2ifvpg","pricing_plan_id":"cebpf4jnsgd1na2vs0mg"},{"bike_id":"7399fd58-5dfd-44fa-92b1-0692ace70e73","system_id":"levelo_inurba_marseille","lat":43.30333,"lon":5.36568,"is_reserved":false,"is_disabled":false,"rental_uris":{"android":"levelo://app?vid=7399fd58-5dfd-44fa-92b1-0692ace70e73","ios":"levelo://app?vid=7399fd58-5dfd-44fa-92b1-0692ace70e73"},"vehicle_type_id":"4","last_reported":1734448220,"current_range_meters":32000,"station_id":"","pricing_plan_id":"cebpf4jnsgd1na2vs0mg"},{"bike_id":"44ff8e7d-1339-43c2-b508-1f594ee49259","system_id":"levelo_inurba_marseille","lat":43.27914,"lon":5.39566,"is_reserved":false,"is_disabled":false,"rental_uris":{"android":"levelo://app?vid=44ff8e7d-1339-43c2-b508-1f594ee49259","ios":"levelo://app?vid=44ff8e7d-1339-43c2-b508-1f594ee49259"},"vehicle_type_id":"4","last_reported":1734448220,"current_range_meters":38000,"station_id":"ce4bhf92rcd13ifvqf40","pricing_plan_id":"cebpf4jnsgd1na2vs0mg"},{"bike_id":"8ce2fd00-18f3-46c5-b0aa-83e1a8058128","system_id":"levelo_inurba_marseille","lat":43.29972,"lon":5.38482,"is_reserved":false,"is_disabled":true,"rental_uris":{"android":"levelo://app?vid=8ce2fd00-18f3-46c5-b0aa-83e1a8058128","ios":"levelo://app?vid=8ce2fd00-18f3-46c5-b0aa-83e1a8058128"},"vehicle_type_id":"4","last_reported":1734448220,"current_range_meters":32000,"station_id":"ce4bgj92rcd13ifvqbd0","pricing_plan_id":"cebpf4jnsgd1na2vs0mg"},{"bike_id":"ff52c0f9-5bc3-4147-97cc-1c9a6030d599","system_id":"levelo_inurba_marseille","lat":43.27067,"lon":5.4026,"is_reserved":false,"is_disabled":false,"rental_uris":{"android":"levelo://app?vid=ff52c0f9-5bc3-4147-97cc-1c9a6030d599","ios":"levelo://app?vid=ff52c0f9-5bc3-4147-97cc-1c9a6030d599"},"vehicle_type_id":"4","last_reported":1734448220,"current_range_meters":37600,"station_id":"ce4bhk92rcd13ifvqgc0","pricing_plan_id":"cebpf4jnsgd1na2vs0mg"},{"bike_id":"a760800d-332e-434b-a1f3-adfb491027be","system_id":"levelo_inurba_marseille","lat":43.30142,"lon":5.38779,"is_reserved":false,"is_disabled":false,"rental_uris":{"android":"levelo://app?vid=a760800d-332e-434b-a1f3-adfb491027be","ios":"levelo://app?vid=a760800d-332e-434b-a1f3-adfb491027be"},"vehicle_type_id":"4","last_reported":1734448220,"current_range_meters":6400,"station_id":"ce4bghh2rcd13ifvqb60","pricing_plan_id":"cebpf4jnsgd1na2vs0mg"},{"bike_id":"eba901e5-0847-4fc0-b2b6-9eb1834c3e7a","system_id":"levelo_inurba_marseille","lat":43.29509,"lon":5.42336,"is_reserved":false,"is_disabled":true,"rental_uris":{"android":"levelo://app?vid=eba901e5-0847-4fc0-b2b6-9eb1834c3e7a","ios":"levelo://app?vid=eba901e5-0847-4fc0-b2b6-9eb1834c3e7a"},"vehicle_type_id":"4","last_reported":1734448220,"current_range_meters":0,"station_id":"","pricing_plan_id":"cebpf4jnsgd1na2vs0mg"},{"bike_id":"88a8af83-a2f9-4ca9-a43f-d3bcaf90ade8","system_id":"levelo_inurba_marseille","lat":43.2737,"lon":5.36264,"is_reserved":false,"is_disabled":false,"rental_uris":{"android":"levelo://app?vid=88a8af83-a2f9-4ca9-a43f-d3bcaf90ade8","ios":"levelo://app?vid=88a8af83-a2f9-4ca9-a43f-d3bcaf90ade8"},"vehicle_type_id":"4","last_reported":1734448220,"current_range_meters":36400,"station_id":"ce4bhbh2rcd13ifvqeo0","pricing_plan_id":"cebpf4jnsgd1na2vs0mg"},{"bike_id":"05ddff8c-c6fb-42a7-a587-da0bc1ff9184","system_id":"levelo_inurba_marseille","lat":43.25098,"lon":5.4032,"is_reserved":false,"is_disabled":false,"rental_uris":{"android":"levelo://app?vid=05ddff8c-c6fb-42a7-a587-da0bc1ff9184","ios":"levelo://app?vid=05ddff8c-c6fb-42a7-a587-da0bc1ff9184"},"vehicle_type_id":"4","last_reported":1734448220,"current_range_meters":32800,"station_id":"ce4bhlh2rcd13ifvqgig","pricing_plan_id":"cebpf4jnsgd1na2vs0mg"},{"bike_id":"5ccecd9d-658b-4702-adca-37d4e5873568","system_id":"levelo_inurba_marseille","lat":43.29916,"lon":5.38147,"is_reserved":false,"is_disabled":false,"rental_uris":{"android":"levelo://app?vid=5ccecd9d-658b-4702-adca-37d4e5873568","ios":"levelo://app?vid=5ccecd9d-658b-4702-adca-37d4e5873568"},"vehicle_type_id":"4","last_reported":1734448220,"current_range_meters":38800,"station_id":"ce4bgj12rcd13ifvqbc0","pricing_plan_id":"cebpf4jnsgd1na2vs0mg"},{"bike_id":"828c7bbc-b4cc-430e-b41a-9b34cede7a38","system_id":"levelo_inurba_marseille","lat":43.29038,"lon":5.35913,"is_reserved":false,"is_disabled":false,"rental_uris":{"android":"levelo://app?vid=828c7bbc-b4cc-430e-b41a-9b34cede7a38","ios":"levelo://app?vid=828c7bbc-b4cc-430e-b41a-9b34cede7a38"},"vehicle_type_id":"4","last_reported":1734448220,"current_range_meters":38400,"station_id":"ce4bha92rcd13ifvqeg0","pricing_plan_id":"cebpf4jnsgd1na2vs0mg"},{"bike_id":"5a37a828-cff2-4e6d-a76c-d01bbc621389","system_id":"levelo_inurba_marseille","lat":43.2319,"lon":5.35567,"is_reserved":false,"is_disabled":false,"rental_uris":{"android":"levelo://app?vid=5a37a828-cff2-4e6d-a76c-d01bbc621389","ios":"levelo://app?vid=5a37a828-cff2-4e6d-a76c-d01bbc621389"},"vehicle_type_id":"4","last_reported":1734448220,"current_range_meters":26800,"station_id":"ce4bhu92rcd13ifvqi70","pricing_plan_id":"cebpf4jnsgd1na2vs0mg"},{"bike_id":"a1c1fbba-9f8b-4e55-a7e6-e3031108193b","system_id":"levelo_inurba_marseille","lat":43.29842,"lon":5.36273,"is_reserved":false,"is_disabled":false,"rental_uris":{"android":"levelo://app?vid=a1c1fbba-9f8b-4e55-a7e6-e3031108193b","ios":"levelo://app?vid=a1c1fbba-9f8b-4e55-a7e6-e3031108193b"},"vehicle_type_id":"4","last_reported":1734448220,"current_range_meters":38800,"station_id":"ce4bgpp2rcd13ifvqc3g","pricing_plan_id":"cebpf4jnsgd1na2vs0mg"},{"bike_id":"ddb287d4-fada-4e6c-a825-26cc422b66e3","system_id":"levelo_inurba_marseille","lat":43.26808,"lon":5.40269,"is_reserved":false,"is_disabled":false,"rental_uris":{"android":"levelo://app?vid=ddb287d4-fada-4e6c-a825-26cc422b66e3","ios":"levelo://app?vid=ddb287d4-fada-4e6c-a825-26cc422b66e3"},"vehicle_type_id":"4","last_reported":1734448220,"current_range_meters":20400,"station_id":"ce501612rcd8frsf0b60","pricing_plan_id":"cebpf4jnsgd1na2vs0mg"},{"bike_id":"7b09b9f6-57e4-4e64-b193-ae73d90fdfe2","system_id":"levelo_inurba_marseille","lat":43.29924,"lon":5.38136,"is_reserved":false,"is_disabled":false,"rental_uris":{"android":"levelo://app?vid=7b09b9f6-57e4-4e64-b193-ae73d90fdfe2","ios":"levelo://app?vid=7b09b9f6-57e4-4e64-b193-ae73d90fdfe2"},"vehicle_type_id":"4","last_reported":1734448220,"current_range_meters":13600,"station_id":"ce4bgj12rcd13ifvqbc0","pricing_plan_id":"cebpf4jnsgd1na2vs0mg"},{"bike_id":"5ede2711-b903-408f-9afd-28cb6355116d","system_id":"levelo_inurba_marseille","lat":43.24659,"lon":5.3816,"is_reserved":false,"is_disabled":false,"rental_uris":{"android":"levelo://app?vid=5ede2711-b903-408f-9afd-28cb6355116d","ios":"levelo://app?vid=5ede2711-b903-408f-9afd-28cb6355116d"},"vehicle_type_id":"4","last_reported":1734448220,"current_range_meters":24400,"station_id":"ce4bhih2rcd13ifvqfr0","pricing_plan_id":"cebpf4jnsgd1na2vs0mg"},{"bike_id":"270174de-ac89-4ea6-8dda-3d04427f9054","system_id":"levelo_inurba_marseille","lat":43.28619,"lon":5.35106,"is_reserved":false,"is_disabled":false,"rental_uris":{"android":"levelo://app?vid=270174de-ac89-4ea6-8dda-3d04427f9054","ios":"levelo://app?vid=270174de-ac89-4ea6-8dda-3d04427f9054"},"vehicle_type_id":"4","last_reported":1734448220,"current_range_meters":38400,"station_id":"ce4bhch2rcd13ifvqeug","pricing_plan_id":"cebpf4jnsgd1na2vs0mg"},{"bike_id":"3cdbe021-c616-4eb9-80df-bc69378cb3e4","system_id":"levelo_inurba_marseille","lat":43.2942,"lon":5.38622,"is_reserved":false,"is_disabled":false,"rental_uris":{"android":"levelo://app?vid=3cdbe021-c616-4eb9-80df-bc69378cb3e4","ios":"levelo://app?vid=3cdbe021-c616-4eb9-80df-bc69378cb3e4"},"vehicle_type_id":"4","last_reported":1734448220,"current_range_meters":12400,"station_id":"ce4bh2h2rcd13ifvqdh0","pricing_plan_id":"cebpf4jnsgd1na2vs0mg"},{"bike_id":"afcc65c9-388c-4e07-acc3-e31d02ad0bc1","system_id":"levelo_inurba_marseille","lat":43.26492,"lon":5.39546,"is_reserved":false,"is_disabled":true,"rental_uris":{"android":"levelo://app?vid=afcc65c9-388c-4e07-acc3-e31d02ad0bc1","ios":"levelo://app?vid=afcc65c9-388c-4e07-acc3-e31d02ad0bc1"},"vehicle_type_id":"4","last_reported":1734448220,"current_range_meters":1600,"station_id":"ce4bhi12rcd13ifvqfq0","pricing_plan_id":"cebpf4jnsgd1na2vs0mg"},{"bike_id":"5568ed4f-8b92-4865-a7da-1c69da668c0b","system_id":"levelo_inurba_marseille","lat":43.28726,"lon":5.36095,"is_reserved":false,"is_disabled":false,"rental_uris":{"android":"levelo://app?vid=5568ed4f-8b92-4865-a7da-1c69da668c0b","ios":"levelo://app?vid=5568ed4f-8b92-4865-a7da-1c69da668c0b"},"vehicle_type_id":"4","last_reported":1734448220,"current_range_meters":27600,"station_id":"cki0cbj6b192h4jlfktg","pricing_plan_id":"cebpf4jnsgd1na2vs0mg"},{"bike_id":"d283b9e9-469d-4791-9530-ca9134c5a01e","system_id":"levelo_inurba_marseille","lat":43.27062,"lon":5.40278,"is_reserved":false,"is_disabled":false,"rental_uris":{"android":"levelo://app?vid=d283b9e9-469d-4791-9530-ca9134c5a01e","ios":"levelo://app?vid=d283b9e9-469d-4791-9530-ca9134c5a01e"},"vehicle_type_id":"4","last_reported":1734448220,"current_range_meters":26800,"station_id":"ce4bhk92rcd13ifvqgc0","pricing_plan_id":"cebpf4jnsgd1na2vs0mg"},{"bike_id":"2290742f-5615-4660-ac62-495e69bec5cf","system_id":"levelo_inurba_marseille","lat":43.26219,"lon":5.37454,"is_reserved":false,"is_disabled":false,"rental_uris":{"android":"levelo://app?vid=2290742f-5615-4660-ac62-495e69bec5cf","ios":"levelo://app?vid=2290742f-5615-4660-ac62-495e69bec5cf"},"vehicle_type_id":"4","last_reported":1734448220,"current_range_meters":18000,"station_id":"ce4bhgp2rcd13ifvqfc0","pricing_plan_id":"cebpf4jnsgd1na2vs0mg"},{"bike_id":"230bab4f-5de4-4c6a-a0ce-fdf98a5a3033","system_id":"levelo_inurba_marseille","lat":43.23186,"lon":5.39992,"is_reserved":false,"is_disabled":false,"rental_uris":{"android":"levelo://app?vid=230bab4f-5de4-4c6a-a0ce-fdf98a5a3033","ios":"levelo://app?vid=230bab4f-5de4-4c6a-a0ce-fdf98a5a3033"},"vehicle_type_id":"4","last_reported":1734448220,"current_range_meters":38800,"station_id":"ce4bhn12rcd13ifvqgqg","pricing_plan_id":"cebpf4jnsgd1na2vs0mg"},{"bike_id":"8cadfb8a-358a-4856-9147-c3482cc7eb21","system_id":"levelo_inurba_marseille","lat":43.27425,"lon":5.39413,"is_reserved":false,"is_disabled":false,"rental_uris":{"android":"levelo://app?vid=8cadfb8a-358a-4856-9147-c3482cc7eb21","ios":"levelo://app?vid=8cadfb8a-358a-4856-9147-c3482cc7eb21"},"vehicle_type_id":"4","last_reported":1734448220,"current_range_meters":38800,"station_id":"ce4bhdp2rcd13ifvqf20","pricing_plan_id":"cebpf4jnsgd1na2vs0mg"},{"bike_id":"b341511f-7d6d-4e1c-83d0-7b47ba56eab2","system_id":"levelo_inurba_marseille","lat":43.29277,"lon":5.4012,"is_reserved":false,"is_disabled":false,"rental_uris":{"android":"levelo://app?vid=b341511f-7d6d-4e1c-83d0-7b47ba56eab2","ios":"levelo://app?vid=b341511f-7d6d-4e1c-83d0-7b47ba56eab2"},"vehicle_type_id":"4","last_reported":1734448220,"current_range_meters":36800,"station_id":"ce4bh312rcd13ifvqdk0","pricing_plan_id":"cebpf4jnsgd1na2vs0mg"},{"bike_id":"f89a7d14-0382-40fa-82ef-ba55831ac00c","system_id":"levelo_inurba_marseille","lat":43.30873,"lon":5.39636,"is_reserved":false,"is_disabled":false,"rental_uris":{"android":"levelo://app?vid=f89a7d14-0382-40fa-82ef-ba55831ac00c","ios":"levelo://app?vid=f89a7d14-0382-40fa-82ef-ba55831ac00c"},"vehicle_type_id":"4","last_reported":1734448220,"current_range_meters":39200,"station_id":"ce4bh012rcd13ifvqcv0","pricing_plan_id":"cebpf4jnsgd1na2vs0mg"},{"bike_id":"ad7b5e60-6b2e-4ec9-b970-a66882342341","system_id":"levelo_inurba_marseille","lat":43.29574,"lon":5.36746,"is_reserved":false,"is_disabled":false,"rental_uris":{"android":"levelo://app?vid=ad7b5e60-6b2e-4ec9-b970-a66882342341","ios":"levelo://app?vid=ad7b5e60-6b2e-4ec9-b970-a66882342341"},"vehicle_type_id":"4","last_reported":1734448220,"current_range_meters":10800,"station_id":"ce4bgph2rcd13ifvqc2g","pricing_plan_id":"cebpf4jnsgd1na2vs0mg"},{"bike_id":"528235a9-b9e5-474f-b03e-a6d635d5793c","system_id":"levelo_inurba_marseille","lat":43.30178,"lon":5.36611,"is_reserved":false,"is_disabled":false,"rental_uris":{"android":"levelo://app?vid=528235a9-b9e5-474f-b03e-a6d635d5793c","ios":"levelo://app?vid=528235a9-b9e5-474f-b03e-a6d635d5793c"},"vehicle_type_id":"4","last_reported":1734448220,"current_range_meters":33600,"station_id":"ce4bgrh2rcd13ifvqc8g","pricing_plan_id":"cebpf4jnsgd1na2vs0mg"},{"bike_id":"50ab0e68-7c08-4e4e-9b16-ff73bf4501d1","system_id":"levelo_inurba_marseille","lat":43.29873,"lon":5.39736,"is_reserved":false,"is_disabled":false,"rental_uris":{"android":"levelo://app?vid=50ab0e68-7c08-4e4e-9b16-ff73bf4501d1","ios":"levelo://app?vid=50ab0e68-7c08-4e4e-9b16-ff73bf4501d1"},"vehicle_type_id":"4","last_reported":1734448220,"current_range_meters":20400,"station_id":"ce4bh0h2rcd13ifvqd50","pricing_plan_id":"cebpf4jnsgd1na2vs0mg"},{"bike_id":"5b7548e1-f815-4513-9095-c43625969a0e","system_id":"levelo_inurba_marseille","lat":43.29844,"lon":5.36275,"is_reserved":false,"is_disabled":false,"rental_uris":{"android":"levelo://app?vid=5b7548e1-f815-4513-9095-c43625969a0e","ios":"levelo://app?vid=5b7548e1-f815-4513-9095-c43625969a0e"},"vehicle_type_id":"4","last_reported":1734448220,"current_range_meters":37600,"station_id":"ce4bgpp2rcd13ifvqc3g","pricing_plan_id":"cebpf4jnsgd1na2vs0mg"},{"bike_id":"e7d20281-ddb5-433b-85d9-6a7747ab90fb","system_id":"levelo_inurba_marseille","lat":43.29611,"lon":5.37727,"is_reserved":false,"is_disabled":false,"rental_uris":{"android":"levelo://app?vid=e7d20281-ddb5-433b-85d9-6a7747ab90fb","ios":"levelo://app?vid=e7d20281-ddb5-433b-85d9-6a7747ab90fb"},"vehicle_type_id":"4","last_reported":1734448220,"current_range_meters":38800,"station_id":"ce4bgi92rcd13ifvqb90","pricing_plan_id":"cebpf4jnsgd1na2vs0mg"},{"bike_id":"cace6db0-fd0b-4c66-8a2d-16959507665e","system_id":"levelo_inurba_marseille","lat":43.28691,"lon":5.37884,"is_reserved":false,"is_disabled":false,"rental_uris":{"android":"levelo://app?vid=cace6db0-fd0b-4c66-8a2d-16959507665e","ios":"levelo://app?vid=cace6db0-fd0b-4c66-8a2d-16959507665e"},"vehicle_type_id":"4","last_reported":1734448220,"current_range_meters":36800,"station_id":"","pricing_plan_id":"cebpf4jnsgd1na2vs0mg"},{"bike_id":"cab5cb01-b33a-421c-bfaf-c7630f90de8b","system_id":"levelo_inurba_marseille","lat":43.29047,"lon":5.39948,"is_reserved":false,"is_disabled":true,"rental_uris":{"android":"levelo://app?vid=cab5cb01-b33a-421c-bfaf-c7630f90de8b","ios":"levelo://app?vid=cab5cb01-b33a-421c-bfaf-c7630f90de8b"},"vehicle_type_id":"4","last_reported":1734448220,"current_range_meters":3600,"station_id":"ce4bh392rcd13ifvqdm0","pricing_plan_id":"cebpf4jnsgd1na2vs0mg"},{"bike_id":"78f5dcee-b6ca-4cfa-ae6f-ebcf64be1236","system_id":"levelo_inurba_marseille","lat":43.323447,"lon":5.406245,"is_reserved":false,"is_disabled":true,"rental_uris":{"android":"levelo://app?vid=78f5dcee-b6ca-4cfa-ae6f-ebcf64be1236","ios":"levelo://app?vid=78f5dcee-b6ca-4cfa-ae6f-ebcf64be1236"},"vehicle_type_id":"4","last_reported":1734448220,"current_range_meters":0,"station_id":"ce4bhq92rcd13ifvqhjg","pricing_plan_id":"cebpf4jnsgd1na2vs0mg"},{"bike_id":"48ef2ffb-3527-425d-98ff-289e3f9f4e30","system_id":"levelo_inurba_marseille","lat":43.29975,"lon":5.38492,"is_reserved":false,"is_disabled":false,"rental_uris":{"android":"levelo://app?vid=48ef2ffb-3527-425d-98ff-289e3f9f4e30","ios":"levelo://app?vid=48ef2ffb-3527-425d-98ff-289e3f9f4e30"},"vehicle_type_id":"4","last_reported":1734448220,"current_range_meters":12800,"station_id":"ce4bgj92rcd13ifvqbd0","pricing_plan_id":"cebpf4jnsgd1na2vs0mg"},{"bike_id":"d1adb045-11f4-4330-9d2b-f77d89c262d4","system_id":"levelo_inurba_marseille","lat":43.29309,"lon":5.37188,"is_reserved":false,"is_disabled":true,"rental_uris":{"android":"levelo://app?vid=d1adb045-11f4-4330-9d2b-f77d89c262d4","ios":"levelo://app?vid=d1adb045-11f4-4330-9d2b-f77d89c262d4"},"vehicle_type_id":"4","last_reported":1734448220,"current_range_meters":36800,"station_id":"ce4bgh92rcd13ifvqb40","pricing_plan_id":"cebpf4jnsgd1na2vs0mg"},{"bike_id":"71e5f7d6-56dc-4c3d-9edb-73fee72ea488","system_id":"levelo_inurba_marseille","lat":43.30184,"lon":5.36628,"is_reserved":false,"is_disabled":false,"rental_uris":{"android":"levelo://app?vid=71e5f7d6-56dc-4c3d-9edb-73fee72ea488","ios":"levelo://app?vid=71e5f7d6-56dc-4c3d-9edb-73fee72ea488"},"vehicle_type_id":"4","last_reported":1734448220,"current_range_meters":34800,"station_id":"ce4bgrh2rcd13ifvqc8g","pricing_plan_id":"cebpf4jnsgd1na2vs0mg"},{"bike_id":"c0d4e590-d335-4afa-b189-a859cff82f3b","system_id":"levelo_inurba_marseille","lat":43.29703,"lon":5.37701,"is_reserved":false,"is_disabled":false,"rental_uris":{"android":"levelo://app?vid=c0d4e590-d335-4afa-b189-a859cff82f3b","ios":"levelo://app?vid=c0d4e590-d335-4afa-b189-a859cff82f3b"},"vehicle_type_id":"4","last_reported":1734448220,"current_range_meters":38000,"station_id":"ce4bgkh2rcd13ifvqbl0","pricing_plan_id":"cebpf4jnsgd1na2vs0mg"},{"bike_id":"36178add-f0ff-4f50-9681-9a80dcc2f1df","system_id":"levelo_inurba_marseille","lat":43.26501,"lon":5.39536,"is_reserved":false,"is_disabled":false,"rental_uris":{"android":"levelo://app?vid=36178add-f0ff-4f50-9681-9a80dcc2f1df","ios":"levelo://app?vid=36178add-f0ff-4f50-9681-9a80dcc2f1df"},"vehicle_type_id":"4","last_reported":1734448220,"current_range_meters":24400,"station_id":"ce4bhi12rcd13ifvqfq0","pricing_plan_id":"cebpf4jnsgd1na2vs0mg"},{"bike_id":"6abcda96-d777-46bc-889a-889954729442","system_id":"levelo_inurba_marseille","lat":43.27423,"lon":5.39417,"is_reserved":false,"is_disabled":false,"rental_uris":{"android":"levelo://app?vid=6abcda96-d777-46bc-889a-889954729442","ios":"levelo://app?vid=6abcda96-d777-46bc-889a-889954729442"},"vehicle_type_id":"4","last_reported":1734448220,"current_range_meters":36800,"station_id":"ce4bhdp2rcd13ifvqf20","pricing_plan_id":"cebpf4jnsgd1na2vs0mg"},{"bike_id":"30a91ca6-8bc0-480a-9814-acdc912a5d10","system_id":"levelo_inurba_marseille","lat":43.30556,"lon":5.36572,"is_reserved":false,"is_disabled":false,"rental_uris":{"android":"levelo://app?vid=30a91ca6-8bc0-480a-9814-acdc912a5d10","ios":"levelo://app?vid=30a91ca6-8bc0-480a-9814-acdc912a5d10"},"vehicle_type_id":"4","last_reported":1734448220,"current_range_meters":30400,"station_id":"ce4bgs12rcd13ifvqcag","pricing_plan_id":"cebpf4jnsgd1na2vs0mg"},{"bike_id":"0bd5d813-d89e-42f3-8ce9-c06fb9ffedaa","system_id":"levelo_inurba_marseille","lat":43.28949,"lon":5.39643,"is_reserved":false,"is_disabled":true,"rental_uris":{"android":"levelo://app?vid=0bd5d813-d89e-42f3-8ce9-c06fb9ffedaa","ios":"levelo://app?vid=0bd5d813-d89e-42f3-8ce9-c06fb9ffedaa"},"vehicle_type_id":"4","last_reported":1734448220,"current_range_meters":38000,"station_id":"ce4bh3h2rcd13ifvqdn0","pricing_plan_id":"cebpf4jnsgd1na2vs0mg"},{"bike_id":"a5d7cce4-4feb-49b5-b12c-a1c45cbd9d4d","system_id":"levelo_inurba_marseille","lat":43.30145,"lon":5.39874,"is_reserved":false,"is_disabled":false,"rental_uris":{"android":"levelo://app?vid=a5d7cce4-4feb-49b5-b12c-a1c45cbd9d4d","ios":"levelo://app?vid=a5d7cce4-4feb-49b5-b12c-a1c45cbd9d4d"},"vehicle_type_id":"4","last_reported":1734448220,"current_range_meters":38000,"station_id":"ce4bh0h2rcd13ifvqd40","pricing_plan_id":"cebpf4jnsgd1na2vs0mg"},{"bike_id":"baa0f040-6c84-409c-832d-2313932ccef8","system_id":"levelo_inurba_marseille","lat":43.29597,"lon":5.38099,"is_reserved":false,"is_disabled":false,"rental_uris":{"android":"levelo://app?vid=baa0f040-6c84-409c-832d-2313932ccef8","ios":"levelo://app?vid=baa0f040-6c84-409c-832d-2313932ccef8"},"vehicle_type_id":"4","last_reported":1734448220,"current_range_meters":36800,"station_id":"ce4bgl12rcd13ifvqbo0","pricing_plan_id":"cebpf4jnsgd1na2vs0mg"},{"bike_id":"d9540215-37a1-4b1c-ba6b-2198fac180b6","system_id":"levelo_inurba_marseille","lat":43.2961,"lon":5.38106,"is_reserved":false,"is_disabled":false,"rental_uris":{"android":"levelo://app?vid=d9540215-37a1-4b1c-ba6b-2198fac180b6","ios":"levelo://app?vid=d9540215-37a1-4b1c-ba6b-2198fac180b6"},"vehicle_type_id":"4","last_reported":1734448220,"current_range_meters":19200,"station_id":"ce4bgl12rcd13ifvqbo0","pricing_plan_id":"cebpf4jnsgd1na2vs0mg"},{"bike_id":"9a9ca54f-8f83-4db0-b780-a7eb0fa7f88d","system_id":"levelo_inurba_marseille","lat":43.26033,"lon":5.3755,"is_reserved":false,"is_disabled":false,"rental_uris":{"android":"levelo://app?vid=9a9ca54f-8f83-4db0-b780-a7eb0fa7f88d","ios":"levelo://app?vid=9a9ca54f-8f83-4db0-b780-a7eb0fa7f88d"},"vehicle_type_id":"4","last_reported":1734448220,"current_range_meters":37600,"station_id":"ce4bhgh2rcd13ifvqfa0","pricing_plan_id":"cebpf4jnsgd1na2vs0mg"},{"bike_id":"4cacfb0d-6982-4321-ba62-4921a371f783","system_id":"levelo_inurba_marseille","lat":43.24399,"lon":5.37053,"is_reserved":false,"is_disabled":false,"rental_uris":{"android":"levelo://app?vid=4cacfb0d-6982-4321-ba62-4921a371f783","ios":"levelo://app?vid=4cacfb0d-6982-4321-ba62-4921a371f783"},"vehicle_type_id":"4","last_reported":1734448220,"current_range_meters":38800,"station_id":"ce4bhhh2rcd13ifvqfk0","pricing_plan_id":"cebpf4jnsgd1na2vs0mg"},{"bike_id":"2fb89adf-305b-43ac-b40a-b2c625a19cf4","system_id":"levelo_inurba_marseille","lat":43.24657,"lon":5.389,"is_reserved":false,"is_disabled":false,"rental_uris":{"android":"levelo://app?vid=2fb89adf-305b-43ac-b40a-b2c625a19cf4","ios":"levelo://app?vid=2fb89adf-305b-43ac-b40a-b2c625a19cf4"},"vehicle_type_id":"4","last_reported":1734448220,"current_range_meters":38800,"station_id":"ce4bhg12rcd13ifvqf60","pricing_plan_id":"cebpf4jnsgd1na2vs0mg"},{"bike_id":"95c69429-156c-453e-b2c0-5f65d6fe9b40","system_id":"levelo_inurba_marseille","lat":43.23197,"lon":5.39976,"is_reserved":false,"is_disabled":false,"rental_uris":{"android":"levelo://app?vid=95c69429-156c-453e-b2c0-5f65d6fe9b40","ios":"levelo://app?vid=95c69429-156c-453e-b2c0-5f65d6fe9b40"},"vehicle_type_id":"4","last_reported":1734448220,"current_range_meters":16800,"station_id":"ce4bhn12rcd13ifvqgqg","pricing_plan_id":"cebpf4jnsgd1na2vs0mg"},{"bike_id":"d82673be-458c-44a5-8453-0b309754fd7b","system_id":"levelo_inurba_marseille","lat":43.29804,"lon":5.38093,"is_reserved":false,"is_disabled":false,"rental_uris":{"android":"levelo://app?vid=d82673be-458c-44a5-8453-0b309754fd7b","ios":"levelo://app?vid=d82673be-458c-44a5-8453-0b309754fd7b"},"vehicle_type_id":"4","last_reported":1734448220,"current_range_meters":24800,"station_id":"ce4bgip2rcd13ifvqbb0","pricing_plan_id":"cebpf4jnsgd1na2vs0mg"},{"bike_id":"0db766e1-d757-41fc-8ab5-ab2fee86210f","system_id":"levelo_inurba_marseille","lat":43.28159,"lon":5.42638,"is_reserved":false,"is_disabled":false,"rental_uris":{"android":"levelo://app?vid=0db766e1-d757-41fc-8ab5-ab2fee86210f","ios":"levelo://app?vid=0db766e1-d757-41fc-8ab5-ab2fee86210f"},"vehicle_type_id":"4","last_reported":1734448220,"current_range_meters":8400,"station_id":"ce4bhnh2rcd13ifvqgug","pricing_plan_id":"cebpf4jnsgd1na2vs0mg"},{"bike_id":"bdf3034e-62b9-4ee0-8cec-ae18930d0c4b","system_id":"levelo_inurba_marseille","lat":43.26681,"lon":5.38274,"is_reserved":false,"is_disabled":false,"rental_uris":{"android":"levelo://app?vid=bdf3034e-62b9-4ee0-8cec-ae18930d0c4b","ios":"levelo://app?vid=bdf3034e-62b9-4ee0-8cec-ae18930d0c4b"},"vehicle_type_id":"4","last_reported":1734448220,"current_range_meters":32400,"station_id":"ce4bhg92rcd13ifvqf90","pricing_plan_id":"cebpf4jnsgd1na2vs0mg"},{"bike_id":"ce865767-a0da-4410-aac3-1bd7af5b2437","system_id":"levelo_inurba_marseille","lat":43.33732,"lon":5.39187,"is_reserved":false,"is_disabled":false,"rental_uris":{"android":"levelo://app?vid=ce865767-a0da-4410-aac3-1bd7af5b2437","ios":"levelo://app?vid=ce865767-a0da-4410-aac3-1bd7af5b2437"},"vehicle_type_id":"4","last_reported":1734448220,"current_range_meters":30400,"station_id":"ce4bhr92rcd13ifvqhsg","pricing_plan_id":"cebpf4jnsgd1na2vs0mg"},{"bike_id":"c6709197-751e-4222-88a2-b1837abe276a","system_id":"levelo_inurba_marseille","lat":43.24655,"lon":5.38165,"is_reserved":false,"is_disabled":false,"rental_uris":{"android":"levelo://app?vid=c6709197-751e-4222-88a2-b1837abe276a","ios":"levelo://app?vid=c6709197-751e-4222-88a2-b1837abe276a"},"vehicle_type_id":"4","last_reported":1734448220,"current_range_meters":24400,"station_id":"ce4bhih2rcd13ifvqfr0","pricing_plan_id":"cebpf4jnsgd1na2vs0mg"},{"bike_id":"0d0da633-9ce8-4910-abca-d6a18ad21253","system_id":"levelo_inurba_marseille","lat":43.30537,"lon":5.36686,"is_reserved":false,"is_disabled":false,"rental_uris":{"android":"levelo://app?vid=0d0da633-9ce8-4910-abca-d6a18ad21253","ios":"levelo://app?vid=0d0da633-9ce8-4910-abca-d6a18ad21253"},"vehicle_type_id":"4","last_reported":1734448220,"current_range_meters":39200,"station_id":"ce4bgrp2rcd13ifvqc9g","pricing_plan_id":"cebpf4jnsgd1na2vs0mg"},{"bike_id":"7b710ba7-658c-4bb7-b374-e3dfb0af84d6","system_id":"levelo_inurba_marseille","lat":43.24174,"lon":5.39729,"is_reserved":false,"is_disabled":false,"rental_uris":{"android":"levelo://app?vid=7b710ba7-658c-4bb7-b374-e3dfb0af84d6","ios":"levelo://app?vid=7b710ba7-658c-4bb7-b374-e3dfb0af84d6"},"vehicle_type_id":"4","last_reported":1734448220,"current_range_meters":36800,"station_id":"ce4bhn12rcd13ifvqgpg","pricing_plan_id":"cebpf4jnsgd1na2vs0mg"},{"bike_id":"1c06df37-cafa-447f-bba3-6451f09547fe","system_id":"levelo_inurba_marseille","lat":43.30538,"lon":5.3654,"is_reserved":false,"is_disabled":false,"rental_uris":{"android":"levelo://app?vid=1c06df37-cafa-447f-bba3-6451f09547fe","ios":"levelo://app?vid=1c06df37-cafa-447f-bba3-6451f09547fe"},"vehicle_type_id":"4","last_reported":1734448220,"current_range_meters":38800,"station_id":"ce4bgs12rcd13ifvqcag","pricing_plan_id":"cebpf4jnsgd1na2vs0mg"},{"bike_id":"2b87d84c-09c5-402d-b95e-5668f6b4ae20","system_id":"levelo_inurba_marseille","lat":43.30141,"lon":5.37406,"is_reserved":false,"is_disabled":false,"rental_uris":{"android":"levelo://app?vid=2b87d84c-09c5-402d-b95e-5668f6b4ae20","ios":"levelo://app?vid=2b87d84c-09c5-402d-b95e-5668f6b4ae20"},"vehicle_type_id":"4","last_reported":1734448220,"current_range_meters":38800,"station_id":"ce4bgs92rcd13ifvqcc0","pricing_plan_id":"cebpf4jnsgd1na2vs0mg"},{"bike_id":"c8399855-72d4-4f25-aa5a-52a18924a7b8","system_id":"levelo_inurba_marseille","lat":43.2417,"lon":5.36389,"is_reserved":false,"is_disabled":false,"rental_uris":{"android":"levelo://app?vid=c8399855-72d4-4f25-aa5a-52a18924a7b8","ios":"levelo://app?vid=c8399855-72d4-4f25-aa5a-52a18924a7b8"},"vehicle_type_id":"4","last_reported":1734448220,"current_range_meters":10800,"station_id":"cpo36qri1sfpv3e86is0","pricing_plan_id":"cebpf4jnsgd1na2vs0mg"},{"bike_id":"0a3278e4-97c1-4b8d-8106-baa4e13d65e6","system_id":"levelo_inurba_marseille","lat":43.29884,"lon":5.39756,"is_reserved":false,"is_disabled":false,"rental_uris":{"android":"levelo://app?vid=0a3278e4-97c1-4b8d-8106-baa4e13d65e6","ios":"levelo://app?vid=0a3278e4-97c1-4b8d-8106-baa4e13d65e6"},"vehicle_type_id":"4","last_reported":1734448220,"current_range_meters":19600,"station_id":"ce4bh0h2rcd13ifvqd50","pricing_plan_id":"cebpf4jnsgd1na2vs0mg"},{"bike_id":"b508baca-248e-42aa-aac7-948777c5e384","system_id":"levelo_inurba_marseille","lat":43.24665,"lon":5.38156,"is_reserved":false,"is_disabled":true,"rental_uris":{"android":"levelo://app?vid=b508baca-248e-42aa-aac7-948777c5e384","ios":"levelo://app?vid=b508baca-248e-42aa-aac7-948777c5e384"},"vehicle_type_id":"4","last_reported":1734448220,"current_range_meters":0,"station_id":"ce4bhih2rcd13ifvqfr0","pricing_plan_id":"cebpf4jnsgd1na2vs0mg"},{"bike_id":"6a45aebc-7c02-44b4-a7bb-ba62d4c08678","system_id":"levelo_inurba_marseille","lat":43.30349,"lon":5.41874,"is_reserved":false,"is_disabled":false,"rental_uris":{"android":"levelo://app?vid=6a45aebc-7c02-44b4-a7bb-ba62d4c08678","ios":"levelo://app?vid=6a45aebc-7c02-44b4-a7bb-ba62d4c08678"},"vehicle_type_id":"4","last_reported":1734448220,"current_range_meters":39200,"station_id":"ce4bhop2rcd13ifvqh7g","pricing_plan_id":"cebpf4jnsgd1na2vs0mg"},{"bike_id":"f4c3e2df-21f9-4b94-b06b-917856d2e9e5","system_id":"levelo_inurba_marseille","lat":43.23153,"lon":5.4372,"is_reserved":false,"is_disabled":false,"rental_uris":{"android":"levelo://app?vid=f4c3e2df-21f9-4b94-b06b-917856d2e9e5","ios":"levelo://app?vid=f4c3e2df-21f9-4b94-b06b-917856d2e9e5"},"vehicle_type_id":"4","last_reported":1734448220,"current_range_meters":38800,"station_id":"ce4bhmp2rcd13ifvqgog","pricing_plan_id":"cebpf4jnsgd1na2vs0mg"},{"bike_id":"5ecd70b0-ee86-4864-922e-7922f350dfa1","system_id":"levelo_inurba_marseille","lat":43.29611,"lon":5.37709,"is_reserved":false,"is_disabled":false,"rental_uris":{"android":"levelo://app?vid=5ecd70b0-ee86-4864-922e-7922f350dfa1","ios":"levelo://app?vid=5ecd70b0-ee86-4864-922e-7922f350dfa1"},"vehicle_type_id":"4","last_reported":1734448220,"current_range_meters":37600,"station_id":"ce4bgi92rcd13ifvqb90","pricing_plan_id":"cebpf4jnsgd1na2vs0mg"},{"bike_id":"0f1f386e-1097-4e52-932d-07080170ed4a","system_id":"levelo_inurba_marseille","lat":43.30136,"lon":5.3878,"is_reserved":false,"is_disabled":false,"rental_uris":{"android":"levelo://app?vid=0f1f386e-1097-4e52-932d-07080170ed4a","ios":"levelo://app?vid=0f1f386e-1097-4e52-932d-07080170ed4a"},"vehicle_type_id":"4","last_reported":1734448220,"current_range_meters":4800,"station_id":"ce4bhoh2rcd13ifvqh6g","pricing_plan_id":"cebpf4jnsgd1na2vs0mg"},{"bike_id":"17ffd64c-e130-4d12-88a8-19106c986955","system_id":"levelo_inurba_marseille","lat":43.3133,"lon":5.39721,"is_reserved":false,"is_disabled":false,"rental_uris":{"android":"levelo://app?vid=17ffd64c-e130-4d12-88a8-19106c986955","ios":"levelo://app?vid=17ffd64c-e130-4d12-88a8-19106c986955"},"vehicle_type_id":"4","last_reported":1734448220,"current_range_meters":27600,"station_id":"ce4bgvp2rcd13ifvqcu0","pricing_plan_id":"cebpf4jnsgd1na2vs0mg"},{"bike_id":"e6f842f5-fda4-4b2f-8839-a07d323cbb63","system_id":"levelo_inurba_marseille","lat":43.297915,"lon":5.38097,"is_reserved":false,"is_disabled":false,"rental_uris":{"android":"levelo://app?vid=e6f842f5-fda4-4b2f-8839-a07d323cbb63","ios":"levelo://app?vid=e6f842f5-fda4-4b2f-8839-a07d323cbb63"},"vehicle_type_id":"4","last_reported":1734448220,"current_range_meters":39200,"station_id":"ce4bgip2rcd13ifvqbb0","pricing_plan_id":"cebpf4jnsgd1na2vs0mg"},{"bike_id":"50399a28-cb9f-4ae0-9293-fc203e60e872","system_id":"levelo_inurba_marseille","lat":43.25819,"lon":5.39437,"is_reserved":false,"is_disabled":false,"rental_uris":{"android":"levelo://app?vid=50399a28-cb9f-4ae0-9293-fc203e60e872","ios":"levelo://app?vid=50399a28-cb9f-4ae0-9293-fc203e60e872"},"vehicle_type_id":"4","last_reported":1734448220,"current_range_meters":24400,"station_id":"ce4bhip2rcd13ifvqft0","pricing_plan_id":"cebpf4jnsgd1na2vs0mg"},{"bike_id":"1353be8e-2789-40e7-a5d8-bdcc5892af71","system_id":"levelo_inurba_marseille","lat":43.29417,"lon":5.38619,"is_reserved":false,"is_disabled":false,"rental_uris":{"android":"levelo://app?vid=1353be8e-2789-40e7-a5d8-bdcc5892af71","ios":"levelo://app?vid=1353be8e-2789-40e7-a5d8-bdcc5892af71"},"vehicle_type_id":"4","last_reported":1734448220,"current_range_meters":8400,"station_id":"ce4bh2h2rcd13ifvqdh0","pricing_plan_id":"cebpf4jnsgd1na2vs0mg"},{"bike_id":"446241b8-cded-4d13-b37f-e71ec99030aa","system_id":"levelo_inurba_marseille","lat":43.30534,"lon":5.36543,"is_reserved":false,"is_disabled":false,"rental_uris":{"android":"levelo://app?vid=446241b8-cded-4d13-b37f-e71ec99030aa","ios":"levelo://app?vid=446241b8-cded-4d13-b37f-e71ec99030aa"},"vehicle_type_id":"4","last_reported":1734448220,"current_range_meters":39200,"station_id":"ce4bgs12rcd13ifvqcag","pricing_plan_id":"cebpf4jnsgd1na2vs0mg"},{"bike_id":"bdf518c3-8e1c-4e3a-bfa1-e7e3d9079018","system_id":"levelo_inurba_marseille","lat":43.33021,"lon":5.39035,"is_reserved":false,"is_disabled":true,"rental_uris":{"android":"levelo://app?vid=bdf518c3-8e1c-4e3a-bfa1-e7e3d9079018","ios":"levelo://app?vid=bdf518c3-8e1c-4e3a-bfa1-e7e3d9079018"},"vehicle_type_id":"4","last_reported":1734448220,"current_range_meters":0,"station_id":"ce4bhr92rcd13ifvqhrg","pricing_plan_id":"cebpf4jnsgd1na2vs0mg"},{"bike_id":"b2d380e8-08ed-495f-a052-5d7dfa068f5b","system_id":"levelo_inurba_marseille","lat":43.26949,"lon":5.3863,"is_reserved":false,"is_disabled":true,"rental_uris":{"android":"levelo://app?vid=b2d380e8-08ed-495f-a052-5d7dfa068f5b","ios":"levelo://app?vid=b2d380e8-08ed-495f-a052-5d7dfa068f5b"},"vehicle_type_id":"4","last_reported":1734448220,"current_range_meters":0,"station_id":"ce4bhh92rcd13ifvqfh0","pricing_plan_id":"cebpf4jnsgd1na2vs0mg"},{"bike_id":"262db747-5df7-439b-b4e7-c313a4a57308","system_id":"levelo_inurba_marseille","lat":43.27811,"lon":5.40721,"is_reserved":false,"is_disabled":false,"rental_uris":{"android":"levelo://app?vid=262db747-5df7-439b-b4e7-c313a4a57308","ios":"levelo://app?vid=262db747-5df7-439b-b4e7-c313a4a57308"},"vehicle_type_id":"4","last_reported":1734448220,"current_range_meters":19200,"station_id":"ce4bhnh2rcd13ifvqgtg","pricing_plan_id":"cebpf4jnsgd1na2vs0mg"},{"bike_id":"19fc6bf2-d5a1-43c9-b912-c79a7692f6ac","system_id":"levelo_inurba_marseille","lat":43.266748,"lon":5.382661,"is_reserved":false,"is_disabled":false,"rental_uris":{"android":"levelo://app?vid=19fc6bf2-d5a1-43c9-b912-c79a7692f6ac","ios":"levelo://app?vid=19fc6bf2-d5a1-43c9-b912-c79a7692f6ac"},"vehicle_type_id":"4","last_reported":1734448220,"current_range_meters":38800,"station_id":"ce4bhg92rcd13ifvqf90","pricing_plan_id":"cebpf4jnsgd1na2vs0mg"},{"bike_id":"46915cc7-356e-46c1-b896-cedc47d9fbe7","system_id":"levelo_inurba_marseille","lat":43.29791,"lon":5.38107,"is_reserved":false,"is_disabled":false,"rental_uris":{"android":"levelo://app?vid=46915cc7-356e-46c1-b896-cedc47d9fbe7","ios":"levelo://app?vid=46915cc7-356e-46c1-b896-cedc47d9fbe7"},"vehicle_type_id":"4","last_reported":1734448220,"current_range_meters":6800,"station_id":"ce4bgip2rcd13ifvqbb0","pricing_plan_id":"cebpf4jnsgd1na2vs0mg"},{"bike_id":"82f7f145-591c-4ce0-8f76-660882a2845e","system_id":"levelo_inurba_marseille","lat":43.33623,"lon":5.41026,"is_reserved":false,"is_disabled":true,"rental_uris":{"android":"levelo://app?vid=82f7f145-591c-4ce0-8f76-660882a2845e","ios":"levelo://app?vid=82f7f145-591c-4ce0-8f76-660882a2845e"},"vehicle_type_id":"4","last_reported":1734448220,"current_range_meters":34800,"station_id":"ce4bhqh2rcd13ifvqhmg","pricing_plan_id":"cebpf4jnsgd1na2vs0mg"},{"bike_id":"840ed963-9f8e-4d70-a8a0-f39a4af27f7a","system_id":"levelo_inurba_marseille","lat":43.27805,"lon":5.40673,"is_reserved":false,"is_disabled":false,"rental_uris":{"android":"levelo://app?vid=840ed963-9f8e-4d70-a8a0-f39a4af27f7a","ios":"levelo://app?vid=840ed963-9f8e-4d70-a8a0-f39a4af27f7a"},"vehicle_type_id":"4","last_reported":1734448220,"current_range_meters":28800,"station_id":"ce4bhnh2rcd13ifvqgtg","pricing_plan_id":"cebpf4jnsgd1na2vs0mg"},{"bike_id":"b06667d5-d025-456a-b0a8-adcb63ad9a3f","system_id":"levelo_inurba_marseille","lat":43.3055,"lon":5.36546,"is_reserved":false,"is_disabled":false,"rental_uris":{"android":"levelo://app?vid=b06667d5-d025-456a-b0a8-adcb63ad9a3f","ios":"levelo://app?vid=b06667d5-d025-456a-b0a8-adcb63ad9a3f"},"vehicle_type_id":"4","last_reported":1734448220,"current_range_meters":33600,"station_id":"ce4bgs12rcd13ifvqcag","pricing_plan_id":"cebpf4jnsgd1na2vs0mg"},{"bike_id":"ac7c5f56-daad-496c-965f-9103737000e8","system_id":"levelo_inurba_marseille","lat":43.23965,"lon":5.36633,"is_reserved":false,"is_disabled":false,"rental_uris":{"android":"levelo://app?vid=ac7c5f56-daad-496c-965f-9103737000e8","ios":"levelo://app?vid=ac7c5f56-daad-496c-965f-9103737000e8"},"vehicle_type_id":"4","last_reported":1734448220,"current_range_meters":38800,"station_id":"ce4bhi12rcd13ifvqfp0","pricing_plan_id":"cebpf4jnsgd1na2vs0mg"},{"bike_id":"30943ecb-ecb0-4ac9-9219-dc3c35f2f4ec","system_id":"levelo_inurba_marseille","lat":43.2799,"lon":5.41659,"is_reserved":false,"is_disabled":false,"rental_uris":{"android":"levelo://app?vid=30943ecb-ecb0-4ac9-9219-dc3c35f2f4ec","ios":"levelo://app?vid=30943ecb-ecb0-4ac9-9219-dc3c35f2f4ec"},"vehicle_type_id":"4","last_reported":1734448220,"current_range_meters":25200,"station_id":"ce4bho12rcd13ifvqh1g","pricing_plan_id":"cebpf4jnsgd1na2vs0mg"},{"bike_id":"677f2f20-67b1-43ae-ab0d-c86c94aad358","system_id":"levelo_inurba_marseille","lat":43.33025,"lon":5.39045,"is_reserved":false,"is_disabled":false,"rental_uris":{"android":"levelo://app?vid=677f2f20-67b1-43ae-ab0d-c86c94aad358","ios":"levelo://app?vid=677f2f20-67b1-43ae-ab0d-c86c94aad358"},"vehicle_type_id":"4","last_reported":1734448220,"current_range_meters":24000,"station_id":"ce4bhr92rcd13ifvqhrg","pricing_plan_id":"cebpf4jnsgd1na2vs0mg"},{"bike_id":"929ebb33-b15c-4938-abe0-4f91bf2f7496","system_id":"levelo_inurba_marseille","lat":43.30153,"lon":5.38086,"is_reserved":false,"is_disabled":false,"rental_uris":{"android":"levelo://app?vid=929ebb33-b15c-4938-abe0-4f91bf2f7496","ios":"levelo://app?vid=929ebb33-b15c-4938-abe0-4f91bf2f7496"},"vehicle_type_id":"4","last_reported":1734448220,"current_range_meters":38800,"station_id":"ce4bgjp2rcd13ifvqbh0","pricing_plan_id":"cebpf4jnsgd1na2vs0mg"},{"bike_id":"c36bdd7d-50b7-411d-93ce-da825cc15c4e","system_id":"levelo_inurba_marseille","lat":43.2791,"lon":5.39596,"is_reserved":false,"is_disabled":false,"rental_uris":{"android":"levelo://app?vid=c36bdd7d-50b7-411d-93ce-da825cc15c4e","ios":"levelo://app?vid=c36bdd7d-50b7-411d-93ce-da825cc15c4e"},"vehicle_type_id":"4","last_reported":1734448220,"current_range_meters":13600,"station_id":"ce4bhf92rcd13ifvqf40","pricing_plan_id":"cebpf4jnsgd1na2vs0mg"},{"bike_id":"2d65caff-50e5-4444-bd5f-a9868c7b1cdd","system_id":"levelo_inurba_marseille","lat":43.29517,"lon":5.39404,"is_reserved":false,"is_disabled":false,"rental_uris":{"android":"levelo://app?vid=2d65caff-50e5-4444-bd5f-a9868c7b1cdd","ios":"levelo://app?vid=2d65caff-50e5-4444-bd5f-a9868c7b1cdd"},"vehicle_type_id":"4","last_reported":1734448220,"current_range_meters":36400,"station_id":"ce4bh292rcd13ifvqdf0","pricing_plan_id":"cebpf4jnsgd1na2vs0mg"},{"bike_id":"d2e077a2-c7c5-4010-b82c-02bbab503458","system_id":"levelo_inurba_marseille","lat":43.32368,"lon":5.38888,"is_reserved":false,"is_disabled":false,"rental_uris":{"android":"levelo://app?vid=d2e077a2-c7c5-4010-b82c-02bbab503458","ios":"levelo://app?vid=d2e077a2-c7c5-4010-b82c-02bbab503458"},"vehicle_type_id":"4","last_reported":1734448220,"current_range_meters":26800,"station_id":"ce4bhqp2rcd13ifvqhog","pricing_plan_id":"cebpf4jnsgd1na2vs0mg"},{"bike_id":"a9400ed1-3a24-4ecc-82f2-c241a2db1602","system_id":"levelo_inurba_marseille","lat":43.2841,"lon":5.37516,"is_reserved":false,"is_disabled":false,"rental_uris":{"android":"levelo://app?vid=a9400ed1-3a24-4ecc-82f2-c241a2db1602","ios":"levelo://app?vid=a9400ed1-3a24-4ecc-82f2-c241a2db1602"},"vehicle_type_id":"4","last_reported":1734448220,"current_range_meters":28000,"station_id":"ce4bh412rcd13ifvqds0","pricing_plan_id":"cebpf4jnsgd1na2vs0mg"},{"bike_id":"c78265b6-ab05-4614-a90a-a535b501f222","system_id":"levelo_inurba_marseille","lat":43.28971,"lon":5.37824,"is_reserved":false,"is_disabled":false,"rental_uris":{"android":"levelo://app?vid=c78265b6-ab05-4614-a90a-a535b501f222","ios":"levelo://app?vid=c78265b6-ab05-4614-a90a-a535b501f222"},"vehicle_type_id":"4","last_reported":1734448220,"current_range_meters":38800,"station_id":"ce4bh9p2rcd13ifvqed0","pricing_plan_id":"cebpf4jnsgd1na2vs0mg"},{"bike_id":"9baba8e5-182e-46b6-a710-73ee9b0f3024","system_id":"levelo_inurba_marseille","lat":43.25006,"lon":5.38927,"is_reserved":false,"is_disabled":false,"rental_uris":{"android":"levelo://app?vid=9baba8e5-182e-46b6-a710-73ee9b0f3024","ios":"levelo://app?vid=9baba8e5-182e-46b6-a710-73ee9b0f3024"},"vehicle_type_id":"4","last_reported":1734448220,"current_range_meters":38800,"station_id":"ce4bhgp2rcd13ifvqfd0","pricing_plan_id":"cebpf4jnsgd1na2vs0mg"},{"bike_id":"b59c647e-051a-4eb5-a082-deb3a3d33fa7","system_id":"levelo_inurba_marseille","lat":43.29274,"lon":5.40121,"is_reserved":false,"is_disabled":true,"rental_uris":{"android":"levelo://app?vid=b59c647e-051a-4eb5-a082-deb3a3d33fa7","ios":"levelo://app?vid=b59c647e-051a-4eb5-a082-deb3a3d33fa7"},"vehicle_type_id":"4","last_reported":1734448220,"current_range_meters":20400,"station_id":"ce4bh312rcd13ifvqdk0","pricing_plan_id":"cebpf4jnsgd1na2vs0mg"},{"bike_id":"a05b841c-cbd3-4219-aa4f-920594972101","system_id":"levelo_inurba_marseille","lat":43.30522,"lon":5.3654,"is_reserved":false,"is_disabled":false,"rental_uris":{"android":"levelo://app?vid=a05b841c-cbd3-4219-aa4f-920594972101","ios":"levelo://app?vid=a05b841c-cbd3-4219-aa4f-920594972101"},"vehicle_type_id":"4","last_reported":1734448220,"current_range_meters":38800,"station_id":"ce4bgs12rcd13ifvqcag","pricing_plan_id":"cebpf4jnsgd1na2vs0mg"},{"bike_id":"35e839b2-e9df-4891-b36f-ca5025f84fb2","system_id":"levelo_inurba_marseille","lat":43.3033,"lon":5.40431,"is_reserved":false,"is_disabled":false,"rental_uris":{"android":"levelo://app?vid=35e839b2-e9df-4891-b36f-ca5025f84fb2","ios":"levelo://app?vid=35e839b2-e9df-4891-b36f-ca5025f84fb2"},"vehicle_type_id":"4","last_reported":1734448220,"current_range_meters":10000,"station_id":"ce4bh012rcd13ifvqd10","pricing_plan_id":"cebpf4jnsgd1na2vs0mg"},{"bike_id":"bc4d59a9-4b8a-4f03-83ce-762e8d4a060b","system_id":"levelo_inurba_marseille","lat":43.2931,"lon":5.37461,"is_reserved":false,"is_disabled":false,"rental_uris":{"android":"levelo://app?vid=bc4d59a9-4b8a-4f03-83ce-762e8d4a060b","ios":"levelo://app?vid=bc4d59a9-4b8a-4f03-83ce-762e8d4a060b"},"vehicle_type_id":"4","last_reported":1734448220,"current_range_meters":35200,"station_id":"ce4bgi12rcd13ifvqb70","pricing_plan_id":"cebpf4jnsgd1na2vs0mg"},{"bike_id":"f72760c4-10c1-49da-a4bb-313303aa307a","system_id":"levelo_inurba_marseille","lat":43.29622,"lon":5.37726,"is_reserved":false,"is_disabled":false,"rental_uris":{"android":"levelo://app?vid=f72760c4-10c1-49da-a4bb-313303aa307a","ios":"levelo://app?vid=f72760c4-10c1-49da-a4bb-313303aa307a"},"vehicle_type_id":"4","last_reported":1734448220,"current_range_meters":14000,"station_id":"ce4bgi92rcd13ifvqb90","pricing_plan_id":"cebpf4jnsgd1na2vs0mg"},{"bike_id":"b3a108c8-12f3-49d8-a89a-f5dfcdedbb6e","system_id":"levelo_inurba_marseille","lat":43.27058,"lon":5.40268,"is_reserved":false,"is_disabled":false,"rental_uris":{"android":"levelo://app?vid=b3a108c8-12f3-49d8-a89a-f5dfcdedbb6e","ios":"levelo://app?vid=b3a108c8-12f3-49d8-a89a-f5dfcdedbb6e"},"vehicle_type_id":"4","last_reported":1734448220,"current_range_meters":34000,"station_id":"ce4bhk92rcd13ifvqgc0","pricing_plan_id":"cebpf4jnsgd1na2vs0mg"},{"bike_id":"d376c43f-82d9-4e2c-8cfd-b7d1ec42c78a","system_id":"levelo_inurba_marseille","lat":43.30175,"lon":5.36621,"is_reserved":false,"is_disabled":false,"rental_uris":{"android":"levelo://app?vid=d376c43f-82d9-4e2c-8cfd-b7d1ec42c78a","ios":"levelo://app?vid=d376c43f-82d9-4e2c-8cfd-b7d1ec42c78a"},"vehicle_type_id":"4","last_reported":1734448220,"current_range_meters":34000,"station_id":"ce4bgrh2rcd13ifvqc8g","pricing_plan_id":"cebpf4jnsgd1na2vs0mg"},{"bike_id":"6c326c30-fba7-48de-8861-c59ee249ecb6","system_id":"levelo_inurba_marseille","lat":43.26787,"lon":5.39409,"is_reserved":false,"is_disabled":false,"rental_uris":{"android":"levelo://app?vid=6c326c30-fba7-48de-8861-c59ee249ecb6","ios":"levelo://app?vid=6c326c30-fba7-48de-8861-c59ee249ecb6"},"vehicle_type_id":"4","last_reported":1734448220,"current_range_meters":32400,"station_id":"ce4bhh12rcd13ifvqfg0","pricing_plan_id":"cebpf4jnsgd1na2vs0mg"},{"bike_id":"b2317ee3-5803-4af9-b9b3-4aa01cd8f4ee","system_id":"levelo_inurba_marseille","lat":43.30145,"lon":5.37414,"is_reserved":false,"is_disabled":false,"rental_uris":{"android":"levelo://app?vid=b2317ee3-5803-4af9-b9b3-4aa01cd8f4ee","ios":"levelo://app?vid=b2317ee3-5803-4af9-b9b3-4aa01cd8f4ee"},"vehicle_type_id":"4","last_reported":1734448220,"current_range_meters":10800,"station_id":"ce4bgs92rcd13ifvqcc0","pricing_plan_id":"cebpf4jnsgd1na2vs0mg"},{"bike_id":"8be087d3-9d6f-4250-a998-20bf5d178678","system_id":"levelo_inurba_marseille","lat":43.29304,"lon":5.37457,"is_reserved":false,"is_disabled":true,"rental_uris":{"android":"levelo://app?vid=8be087d3-9d6f-4250-a998-20bf5d178678","ios":"levelo://app?vid=8be087d3-9d6f-4250-a998-20bf5d178678"},"vehicle_type_id":"4","last_reported":1734448220,"current_range_meters":0,"station_id":"ce4bgi12rcd13ifvqb70","pricing_plan_id":"cebpf4jnsgd1na2vs0mg"},{"bike_id":"ba9b0b54-c2ff-4ef6-a97c-8b499b96ea6e","system_id":"levelo_inurba_marseille","lat":43.2656,"lon":5.39011,"is_reserved":false,"is_disabled":false,"rental_uris":{"android":"levelo://app?vid=ba9b0b54-c2ff-4ef6-a97c-8b499b96ea6e","ios":"levelo://app?vid=ba9b0b54-c2ff-4ef6-a97c-8b499b96ea6e"},"vehicle_type_id":"4","last_reported":1734448220,"current_range_meters":11600,"station_id":"ce4bhe12rcd13ifvqf30","pricing_plan_id":"cebpf4jnsgd1na2vs0mg"},{"bike_id":"b600e401-dd09-4bc4-9356-0e85b47e9cf8","system_id":"levelo_inurba_marseille","lat":43.26566,"lon":5.39008,"is_reserved":false,"is_disabled":true,"rental_uris":{"android":"levelo://app?vid=b600e401-dd09-4bc4-9356-0e85b47e9cf8","ios":"levelo://app?vid=b600e401-dd09-4bc4-9356-0e85b47e9cf8"},"vehicle_type_id":"4","last_reported":1734448220,"current_range_meters":0,"station_id":"ce4bhe12rcd13ifvqf30","pricing_plan_id":"cebpf4jnsgd1na2vs0mg"},{"bike_id":"25681b5b-2e2c-4ff3-b6f2-f203c917a2a0","system_id":"levelo_inurba_marseille","lat":43.29025,"lon":5.38143,"is_reserved":false,"is_disabled":false,"rental_uris":{"android":"levelo://app?vid=25681b5b-2e2c-4ff3-b6f2-f203c917a2a0","ios":"levelo://app?vid=25681b5b-2e2c-4ff3-b6f2-f203c917a2a0"},"vehicle_type_id":"4","last_reported":1734448220,"current_range_meters":37600,"station_id":"ce4bh4p2rcd13ifvqe1g","pricing_plan_id":"cebpf4jnsgd1na2vs0mg"},{"bike_id":"62fa7f89-6de2-4bc8-8eb6-09e44ff16e37","system_id":"levelo_inurba_marseille","lat":43.231923,"lon":5.35542,"is_reserved":false,"is_disabled":false,"rental_uris":{"android":"levelo://app?vid=62fa7f89-6de2-4bc8-8eb6-09e44ff16e37","ios":"levelo://app?vid=62fa7f89-6de2-4bc8-8eb6-09e44ff16e37"},"vehicle_type_id":"4","last_reported":1734448220,"current_range_meters":38800,"station_id":"ce4bhu92rcd13ifvqi70","pricing_plan_id":"cebpf4jnsgd1na2vs0mg"},{"bike_id":"8401173e-4d8f-4da1-a63d-6c4d30c99e68","system_id":"levelo_inurba_marseille","lat":43.2656,"lon":5.39021,"is_reserved":false,"is_disabled":false,"rental_uris":{"android":"levelo://app?vid=8401173e-4d8f-4da1-a63d-6c4d30c99e68","ios":"levelo://app?vid=8401173e-4d8f-4da1-a63d-6c4d30c99e68"},"vehicle_type_id":"4","last_reported":1734448220,"current_range_meters":22800,"station_id":"ce4bhe12rcd13ifvqf30","pricing_plan_id":"cebpf4jnsgd1na2vs0mg"},{"bike_id":"23da0ee4-1a36-4d78-a3d3-5d2df28e75a6","system_id":"levelo_inurba_marseille","lat":43.28421,"lon":5.34973,"is_reserved":false,"is_disabled":false,"rental_uris":{"android":"levelo://app?vid=23da0ee4-1a36-4d78-a3d3-5d2df28e75a6","ios":"levelo://app?vid=23da0ee4-1a36-4d78-a3d3-5d2df28e75a6"},"vehicle_type_id":"4","last_reported":1734448220,"current_range_meters":29600,"station_id":"ce4bhbh2rcd13ifvqepg","pricing_plan_id":"cebpf4jnsgd1na2vs0mg"},{"bike_id":"1543f4bb-ffd5-451d-837b-75cce4148c96","system_id":"levelo_inurba_marseille","lat":43.337444,"lon":5.374475,"is_reserved":false,"is_disabled":true,"rental_uris":{"android":"levelo://app?vid=1543f4bb-ffd5-451d-837b-75cce4148c96","ios":"levelo://app?vid=1543f4bb-ffd5-451d-837b-75cce4148c96"},"vehicle_type_id":"4","last_reported":1734448220,"current_range_meters":0,"station_id":"","pricing_plan_id":"cebpf4jnsgd1na2vs0mg"},{"bike_id":"aa800db3-6716-4d71-8239-32430f1ca461","system_id":"levelo_inurba_marseille","lat":43.30329,"lon":5.40428,"is_reserved":false,"is_disabled":false,"rental_uris":{"android":"levelo://app?vid=aa800db3-6716-4d71-8239-32430f1ca461","ios":"levelo://app?vid=aa800db3-6716-4d71-8239-32430f1ca461"},"vehicle_type_id":"4","last_reported":1734448220,"current_range_meters":7200,"station_id":"ce4bh012rcd13ifvqd10","pricing_plan_id":"cebpf4jnsgd1na2vs0mg"},{"bike_id":"43eea6e7-5e00-437c-9d17-bb20bb6d39e6","system_id":"levelo_inurba_marseille","lat":43.32106,"lon":5.36769,"is_reserved":false,"is_disabled":false,"rental_uris":{"android":"levelo://app?vid=43eea6e7-5e00-437c-9d17-bb20bb6d39e6","ios":"levelo://app?vid=43eea6e7-5e00-437c-9d17-bb20bb6d39e6"},"vehicle_type_id":"4","last_reported":1734448220,"current_range_meters":9200,"station_id":"ce4bhrh2rcd13ifvqhug","pricing_plan_id":"cebpf4jnsgd1na2vs0mg"},{"bike_id":"e6136c20-6aba-4487-aa4e-0db5db0ac7d1","system_id":"levelo_inurba_marseille","lat":43.29033,"lon":5.35954,"is_reserved":false,"is_disabled":false,"rental_uris":{"android":"levelo://app?vid=e6136c20-6aba-4487-aa4e-0db5db0ac7d1","ios":"levelo://app?vid=e6136c20-6aba-4487-aa4e-0db5db0ac7d1"},"vehicle_type_id":"4","last_reported":1734448220,"current_range_meters":14000,"station_id":"ce4bha92rcd13ifvqeg0","pricing_plan_id":"cebpf4jnsgd1na2vs0mg"},{"bike_id":"15b06ab3-5941-43b5-a9a5-ceb90aabbb54","system_id":"levelo_inurba_marseille","lat":43.22924,"lon":5.35404,"is_reserved":false,"is_disabled":false,"rental_uris":{"android":"levelo://app?vid=15b06ab3-5941-43b5-a9a5-ceb90aabbb54","ios":"levelo://app?vid=15b06ab3-5941-43b5-a9a5-ceb90aabbb54"},"vehicle_type_id":"4","last_reported":1734448220,"current_range_meters":38800,"station_id":"cpo3532slgdg3j2ikp40","pricing_plan_id":"cebpf4jnsgd1na2vs0mg"},{"bike_id":"99577291-51de-4f83-9ae3-b06abad7ede6","system_id":"levelo_inurba_marseille","lat":43.3053,"lon":5.36701,"is_reserved":false,"is_disabled":false,"rental_uris":{"android":"levelo://app?vid=99577291-51de-4f83-9ae3-b06abad7ede6","ios":"levelo://app?vid=99577291-51de-4f83-9ae3-b06abad7ede6"},"vehicle_type_id":"4","last_reported":1734448220,"current_range_meters":12400,"station_id":"ce4bgrp2rcd13ifvqc9g","pricing_plan_id":"cebpf4jnsgd1na2vs0mg"},{"bike_id":"10e41bb7-9a61-4753-bcbd-6280b08c0d4a","system_id":"levelo_inurba_marseille","lat":43.23204,"lon":5.35555,"is_reserved":false,"is_disabled":false,"rental_uris":{"android":"levelo://app?vid=10e41bb7-9a61-4753-bcbd-6280b08c0d4a","ios":"levelo://app?vid=10e41bb7-9a61-4753-bcbd-6280b08c0d4a"},"vehicle_type_id":"4","last_reported":1734448220,"current_range_meters":36800,"station_id":"ce4bhu92rcd13ifvqi70","pricing_plan_id":"cebpf4jnsgd1na2vs0mg"},{"bike_id":"dc5f422a-49fa-488f-a2c7-db1079a63039","system_id":"levelo_inurba_marseille","lat":43.28711,"lon":5.37954,"is_reserved":false,"is_disabled":false,"rental_uris":{"android":"levelo://app?vid=dc5f422a-49fa-488f-a2c7-db1079a63039","ios":"levelo://app?vid=dc5f422a-49fa-488f-a2c7-db1079a63039"},"vehicle_type_id":"4","last_reported":1734448220,"current_range_meters":25600,"station_id":"ce4bh9p2rcd13ifvqec0","pricing_plan_id":"cebpf4jnsgd1na2vs0mg"},{"bike_id":"cba6e56d-3f8c-429c-9450-64efa0fa8ef2","system_id":"levelo_inurba_marseille","lat":43.25718,"lon":5.41115,"is_reserved":false,"is_disabled":false,"rental_uris":{"android":"levelo://app?vid=cba6e56d-3f8c-429c-9450-64efa0fa8ef2","ios":"levelo://app?vid=cba6e56d-3f8c-429c-9450-64efa0fa8ef2"},"vehicle_type_id":"4","last_reported":1734448220,"current_range_meters":38800,"station_id":"ce4bhkp2rcd13ifvqgd0","pricing_plan_id":"cebpf4jnsgd1na2vs0mg"},{"bike_id":"05ec1b21-4af1-462c-883d-43de95500577","system_id":"levelo_inurba_marseille","lat":43.30307,"lon":5.36921,"is_reserved":false,"is_disabled":false,"rental_uris":{"android":"levelo://app?vid=05ec1b21-4af1-462c-883d-43de95500577","ios":"levelo://app?vid=05ec1b21-4af1-462c-883d-43de95500577"},"vehicle_type_id":"4","last_reported":1734448220,"current_range_meters":38800,"station_id":"ce4bgqh2rcd13ifvqc5g","pricing_plan_id":"cebpf4jnsgd1na2vs0mg"},{"bike_id":"ae093831-36d9-4ee9-8172-d70c3fbfee66","system_id":"levelo_inurba_marseille","lat":43.30128,"lon":5.3988,"is_reserved":false,"is_disabled":false,"rental_uris":{"android":"levelo://app?vid=ae093831-36d9-4ee9-8172-d70c3fbfee66","ios":"levelo://app?vid=ae093831-36d9-4ee9-8172-d70c3fbfee66"},"vehicle_type_id":"4","last_reported":1734448220,"current_range_meters":32800,"station_id":"ce4bh0h2rcd13ifvqd40","pricing_plan_id":"cebpf4jnsgd1na2vs0mg"},{"bike_id":"093321bb-223a-417d-b851-1ac6e37a8725","system_id":"levelo_inurba_marseille","lat":43.29905,"lon":5.38146,"is_reserved":false,"is_disabled":false,"rental_uris":{"android":"levelo://app?vid=093321bb-223a-417d-b851-1ac6e37a8725","ios":"levelo://app?vid=093321bb-223a-417d-b851-1ac6e37a8725"},"vehicle_type_id":"4","last_reported":1734448220,"current_range_meters":38800,"station_id":"ce4bgj12rcd13ifvqbc0","pricing_plan_id":"cebpf4jnsgd1na2vs0mg"},{"bike_id":"3028d671-f7f4-4727-a303-93bb21b2b475","system_id":"levelo_inurba_marseille","lat":43.24992,"lon":5.38934,"is_reserved":false,"is_disabled":false,"rental_uris":{"android":"levelo://app?vid=3028d671-f7f4-4727-a303-93bb21b2b475","ios":"levelo://app?vid=3028d671-f7f4-4727-a303-93bb21b2b475"},"vehicle_type_id":"4","last_reported":1734448220,"current_range_meters":20000,"station_id":"ce4bhgp2rcd13ifvqfd0","pricing_plan_id":"cebpf4jnsgd1na2vs0mg"},