{"last_updated":1727529215,"ttl":60,"version":"2.2","data":{"bikes":[{"bike_id":"eb0394a6-3570-4c93-8774-05c449866c9e","system_id":"levelo_inurba_marseille","lat":43.29422,"lon":5.38622,"is_reserved":false,"is_disabled":false,"rental_uris":{"android":"levelo://app?vid=eb0394a6-3570-4c93-8774-05c449866c9e","ios":"levelo://app?vid=eb0394a6-3570-4c93-8774-05c449866c9e"},"vehicle_type_id":"4","last_reported":1727529215,"current_range_meters":31200,"station_id":"ce4bh2h2rcd13ifvqdh0","pricing_plan_id":"cebpf4jnsgd1na2vs0mg"},{"bike_id":"64e5956d-f0d0-4531-b00a-b92dfdbbf450","system_id":"levelo_inurba_marseille","lat":43.23198,"lon":5.35554,"is_reserved":false,"is_disabled":false,"rental_uris":{"android":"levelo://app?vid=64e5956d-f0d0-4531-b00a-b92dfdbbf450","ios":"levelo://app?vid=64e5956d-f0d0-4531-b00a-b92dfdbbf450"},"vehicle_type_id":"4","last_reported":1727529215,"current_range_meters":6000,"station_id":"ce4bhu92rcd13ifvqi70","pricing_plan_id":"cebpf4jnsgd1na2vs0mg"},{"bike_id":"73aa0c7e-726a-4296-bac2-f2d872d1e286","system_id":"levelo_inurba_marseille","lat":43.28001,"lon":5.40017,"is_reserved":false,"is_disabled":false,"rental_uris":{"android":"levelo://app?vid=73aa0c7e-726a-4296-bac2-f2d872d1e286","ios":"levelo://app?vid=73aa0c7e-726a-4296-bac2-f2d872d1e286"},"vehicle_type_id":"4","last_reported":1727529215,"current_range_meters":16000,"station_id":"ce4bho92rcd13ifvqh4g","pricing_plan_id":"cebpf4jnsgd1na2vs0mg"},{"bike_id":"e40286a4-b0f2-4998-8349-955b27ffac82","system_id":"levelo_inurba_marseille","lat":43.33736,"lon":5.37445,"is_reserved":false,"is_disabled":false,"rental_uris":{"android":"levelo://app?vid=e40286a4-b0f2-4998-8349-955b27ffac82","ios":"levelo://app?vid=e40286a4-b0f2-4998-8349-955b27ffac82"},"vehicle_type_id":"4","last_reported":1727529215,"current_range_meters":18000,"station_id":"","pricing_plan_id":"cebpf4jnsgd1na2vs0mg"},{"bike_id":"d1987baa-9748-4e86-bb4a-0f97a6b3d414","system_id":"levelo_inurba_marseille","lat":43.25725,"lon":5.41111,"is_reserved":false,"is_disabled":false,"rental_uris":{"android":"levelo://app?vid=d1987baa-9748-4e86-bb4a-0f97a6b3d414","ios":"levelo://app?vid=d1987baa-9748-4e86-bb4a-0f97a6b3d414"},"vehicle_type_id":"4","last_reported":1727529215,"current_range_meters":27600,"station_id":"ce4bhkp2rcd13ifvqgd0","pricing_plan_id":"cebpf4jnsgd1na2vs0mg"},{"bike_id":"5a807a33-bfcb-4c61-9ec1-45bcb22ed244","system_id":"levelo_inurba_marseille","lat":43.337444,"lon":5.374475,"is_reserved":false,"is_disabled":false,"rental_uris":{"android":"levelo://app?vid=5a807a33-bfcb-4c61-9ec1-45bcb22ed244","ios":"levelo://app?vid=5a807a33-bfcb-4c61-9ec1-45bcb22ed244"},"vehicle_type_id":"4","last_reported":1727529215,"current_range_meters":38000,"station_id":"","pricing_plan_id":"cebpf4jnsgd1na2vs0mg"},{"bike_id":"f7675304-0c0c-48b3-8d71-eee243619318","system_id":"levelo_inurba_marseille","lat":43.3171,"lon":5.37776,"is_reserved":false,"is_disabled":false,"rental_uris":{"android":"levelo://app?vid=f7675304-0c0c-48b3-8d71-eee243619318","ios":"levelo://app?vid=f7675304-0c0c-48b3-8d71-eee243619318"},"vehicle_type_id":"4","last_reported":1727529215,"current_range_meters":2000,"station_id":"ce4bgth2rcd13ifvqch0","pricing_plan_id":"cebpf4jnsgd1na2vs0mg"},{"bike_id":"81bfd64e-b8f8-4620-8ea7-36cb7a45d3b6","system_id":"levelo_inurba_marseille","lat":43.27496,"lon":5.42449,"is_reserved":false,"is_disabled":false,"rental_uris":{"android":"levelo://app?vid=81bfd64e-b8f8-4620-8ea7-36cb7a45d3b6","ios":"levelo://app?vid=81bfd64e-b8f8-4620-8ea7-36cb7a45d3b6"},"vehicle_type_id":"4","last_reported":1727529215,"current_range_meters":37600,"station_id":"ce4bhn92rcd13ifvqgrg","pricing_plan_id":"cebpf4jnsgd1na2vs0mg"},{"bike_id":"86f6a00d-b67b-4b37-926f-0a8c3be46741","system_id":"levelo_inurba_marseille","lat":43.28414,"lon":5.3498,"is_reserved":false,"is_disabled":false,"rental_uris":{"android":"levelo://app?vid=86f6a00d-b67b-4b37-926f-0a8c3be46741","ios":"levelo://app?vid=86f6a00d-b67b-4b37-926f-0a8c3be46741"},"vehicle_type_id":"4","last_reported":1727529215,"current_range_meters":30000,"station_id":"ce4bhbh2rcd13ifvqepg","pricing_plan_id":"cebpf4jnsgd1na2vs0mg"},{"bike_id":"45ad9125-3867-476b-b399-04e45ec3817b","system_id":"levelo_inurba_marseille","lat":43.29551,"lon":5.37541,"is_reserved":false,"is_disabled":false,"rental_uris":{"android":"levelo://app?vid=45ad9125-3867-476b-b399-04e45ec3817b","ios":"levelo://app?vid=45ad9125-3867-476b-b399-04e45ec3817b"},"vehicle_type_id":"4","last_reported":1727529215,"current_range_meters":24400,"station_id":"ce4bgh92rcd13ifvqb50","pricing_plan_id":"cebpf4jnsgd1na2vs0mg"},{"bike_id":"22cedd5a-56b7-4da4-922e-ad3da806bffc","system_id":"levelo_inurba_marseille","lat":43.23968,"lon":5.36632,"is_reserved":false,"is_disabled":false,"rental_uris":{"android":"levelo://app?vid=22cedd5a-56b7-4da4-922e-ad3da806bffc","ios":"levelo://app?vid=22cedd5a-56b7-4da4-922e-ad3da806bffc"},"vehicle_type_id":"4","last_reported":1727529215,"current_range_meters":30800,"station_id":"ce4bhi12rcd13ifvqfp0","pricing_plan_id":"cebpf4jnsgd1na2vs0mg"},{"bike_id":"7d54d53e-9465-4eb7-988f-3be552d17282","system_id":"levelo_inurba_marseille","lat":43.24994,"lon":5.38939,"is_reserved":false,"is_disabled":false,"rental_uris":{"android":"levelo://app?vid=7d54d53e-9465-4eb7-988f-3be552d17282","ios":"levelo://app?vid=7d54d53e-9465-4eb7-988f-3be552d17282"},"vehicle_type_id":"4","last_reported":1727529215,"current_range_meters":17200,"station_id":"ce4bhgp2rcd13ifvqfd0","pricing_plan_id":"cebpf4jnsgd1na2vs0mg"},{"bike_id":"6911ac56-950d-4f7c-af3e-8ee51a5753df","system_id":"levelo_inurba_marseille","lat":43.32812,"lon":5.40556,"is_reserved":false,"is_disabled":false,"rental_uris":{"android":"levelo://app?vid=6911ac56-950d-4f7c-af3e-8ee51a5753df","ios":"levelo://app?vid=6911ac56-950d-4f7c-af3e-8ee51a5753df"},"vehicle_type_id":"4","last_reported":1727529215,"current_range_meters":2000,"station_id":"","pricing_plan_id":"cebpf4jnsgd1na2vs0mg"},{"bike_id":"ff4338b1-cffb-46e6-93cf-d2b49f3be5e0","system_id":"levelo_inurba_marseille","lat":43.30094,"lon":5.3908,"is_reserved":false,"is_disabled":false,"rental_uris":{"android":"levelo://app?vid=ff4338b1-cffb-46e6-93cf-d2b49f3be5e0","ios":"levelo://app?vid=ff4338b1-cffb-46e6-93cf-d2b49f3be5e0"},"vehicle_type_id":"4","last_reported":1727529215,"current_range_meters":39200,"station_id":"ce4bh192rcd13ifvqdb0","pricing_plan_id":"cebpf4jnsgd1na2vs0mg"},{"bike_id":"fd95b7d0-9465-4ced-a887-157866b5f796","system_id":"levelo_inurba_marseille","lat":43.28068,"lon":5.39638,"is_reserved":false,"is_disabled":false,"rental_uris":{"android":"levelo://app?vid=fd95b7d0-9465-4ced-a887-157866b5f796","ios":"levelo://app?vid=fd95b7d0-9465-4ced-a887-157866b5f796"},"vehicle_type_id":"4","last_reported":1727529215,"current_range_meters":40000,"station_id":"ce4bho12rcd13ifvqh2g","pricing_plan_id":"cebpf4jnsgd1na2vs0mg"},{"bike_id":"7b25ec32-2292-486a-acb1-6d81d758d4ba","system_id":"levelo_inurba_marseille","lat":43.23975,"lon":5.36627,"is_reserved":false,"is_disabled":false,"rental_uris":{"android":"levelo://app?vid=7b25ec32-2292-486a-acb1-6d81d758d4ba","ios":"levelo://app?vid=7b25ec32-2292-486a-acb1-6d81d758d4ba"},"vehicle_type_id":"4","last_reported":1727529215,"current_range_meters":25200,"station_id":"ce4bhi12rcd13ifvqfp0","pricing_plan_id":"cebpf4jnsgd1na2vs0mg"},{"bike_id":"c1f3d17c-c3c1-4002-8866-d243d97f97b3","system_id":"levelo_inurba_marseille","lat":43.296,"lon":5.37741,"is_reserved":false,"is_disabled":false,"rental_uris":{"android":"levelo://app?vid=c1f3d17c-c3c1-4002-8866-d243d97f97b3","ios":"levelo://app?vid=c1f3d17c-c3c1-4002-8866-d243d97f97b3"},"vehicle_type_id":"4","last_reported":1727529215,"current_range_meters":38800,"station_id":"ce4bgi92rcd13ifvqb90","pricing_plan_id":"cebpf4jnsgd1na2vs0mg"},{"bike_id":"a1b887f5-376a-41f1-8c93-b46f2711b2bd","system_id":"levelo_inurba_marseille","lat":43.29924,"lon":5.37479,"is_reserved":false,"is_disabled":false,"rental_uris":{"android":"levelo://app?vid=a1b887f5-376a-41f1-8c93-b46f2711b2bd","ios":"levelo://app?vid=a1b887f5-376a-41f1-8c93-b46f2711b2bd"},"vehicle_type_id":"4","last_reported":1727529215,"current_range_meters":35200,"station_id":"ce4bgjh2rcd13ifvqbg0","pricing_plan_id":"cebpf4jnsgd1na2vs0mg"},{"bike_id":"83ab67e9-9683-40ac-9b80-c07390469159","system_id":"levelo_inurba_marseille","lat":43.22928,"lon":5.35373,"is_reserved":false,"is_disabled":false,"rental_uris":{"android":"levelo://app?vid=83ab67e9-9683-40ac-9b80-c07390469159","ios":"levelo://app?vid=83ab67e9-9683-40ac-9b80-c07390469159"},"vehicle_type_id":"4","last_reported":1727529215,"current_range_meters":37600,"station_id":"cpo3532slgdg3j2ikp40","pricing_plan_id":"cebpf4jnsgd1na2vs0mg"},{"bike_id":"e568a222-96be-47d5-a6af-26d851998ace","system_id":"levelo_inurba_marseille","lat":43.30217,"lon":5.39467,"is_reserved":false,"is_disabled":false,"rental_uris":{"android":"levelo://app?vid=e568a222-96be-47d5-a6af-26d851998ace","ios":"levelo://app?vid=e568a222-96be-47d5-a6af-26d851998ace"},"vehicle_type_id":"4","last_reported":1727529215,"current_range_meters":38800,"station_id":"ce4bh0p2rcd13ifvqd70","pricing_plan_id":"cebpf4jnsgd1na2vs0mg"},{"bike_id":"cef70216-ee07-43e6-81d4-cef76c7a2663","system_id":"levelo_inurba_marseille","lat":43.28919,"lon":5.38394,"is_reserved":false,"is_disabled":false,"rental_uris":{"android":"levelo://app?vid=cef70216-ee07-43e6-81d4-cef76c7a2663","ios":"levelo://app?vid=cef70216-ee07-43e6-81d4-cef76c7a2663"},"vehicle_type_id":"4","last_reported":1727529215,"current_range_meters":38000,"station_id":"ce4bh612rcd13ifvqe6g","pricing_plan_id":"cebpf4jnsgd1na2vs0mg"},{"bike_id":"e2012e84-b7d6-4270-b930-e6b05d29a6fd","system_id":"levelo_inurba_marseille","lat":43.27673,"lon":5.38884,"is_reserved":false,"is_disabled":false,"rental_uris":{"android":"levelo://app?vid=e2012e84-b7d6-4270-b930-e6b05d29a6fd","ios":"levelo://app?vid=e2012e84-b7d6-4270-b930-e6b05d29a6fd"},"vehicle_type_id":"4","last_reported":1727529215,"current_range_meters":13600,"station_id":"ce4bhi12rcd13ifvqfo0","pricing_plan_id":"cebpf4jnsgd1na2vs0mg"},{"bike_id":"73d4b1b9-8fa7-45c3-b819-17c2aa182b44","system_id":"levelo_inurba_marseille","lat":43.2956,"lon":5.42284,"is_reserved":false,"is_disabled":false,"rental_uris":{"android":"levelo://app?vid=73d4b1b9-8fa7-45c3-b819-17c2aa182b44","ios":"levelo://app?vid=73d4b1b9-8fa7-45c3-b819-17c2aa182b44"},"vehicle_type_id":"4","last_reported":1727529215,"current_range_meters":10000,"station_id":"ce4bhph2rcd13ifvqhdg","pricing_plan_id":"cebpf4jnsgd1na2vs0mg"},{"bike_id":"8524a85f-8427-4a60-91b5-869fad39ff42","system_id":"levelo_inurba_marseille","lat":43.25003,"lon":5.38935,"is_reserved":false,"is_disabled":false,"rental_uris":{"android":"levelo://app?vid=8524a85f-8427-4a60-91b5-869fad39ff42","ios":"levelo://app?vid=8524a85f-8427-4a60-91b5-869fad39ff42"},"vehicle_type_id":"4","last_reported":1727529215,"current_range_meters":38000,"station_id":"ce4bhgp2rcd13ifvqfd0","pricing_plan_id":"cebpf4jnsgd1na2vs0mg"},{"bike_id":"3dcb4d19-9f2a-4c72-b340-cfe0fcbad6e1","system_id":"levelo_inurba_marseille","lat":43.25829,"lon":5.3943,"is_reserved":false,"is_disabled":false,"rental_uris":{"android":"levelo://app?vid=3dcb4d19-9f2a-4c72-b340-cfe0fcbad6e1","ios":"levelo://app?vid=3dcb4d19-9f2a-4c72-b340-cfe0fcbad6e1"},"vehicle_type_id":"4","last_reported":1727529215,"current_range_meters":37600,"station_id":"ce4bhip2rcd13ifvqft0","pricing_plan_id":"cebpf4jnsgd1na2vs0mg"},{"bike_id":"777ba5db-6bc5-4b5b-a2e5-702a8ad98b0f","system_id":"levelo_inurba_marseille","lat":43.32365,"lon":5.38882,"is_reserved":false,"is_disabled":false,"rental_uris":{"android":"levelo://app?vid=777ba5db-6bc5-4b5b-a2e5-702a8ad98b0f","ios":"levelo://app?vid=777ba5db-6bc5-4b5b-a2e5-702a8ad98b0f"},"vehicle_type_id":"4","last_reported":1727529215,"current_range_meters":36800,"station_id":"ce4bhqp2rcd13ifvqhog","pricing_plan_id":"cebpf4jnsgd1na2vs0mg"},{"bike_id":"b32a68e6-6e92-4e41-848f-711ec5e261e6","system_id":"levelo_inurba_marseille","lat":43.2657,"lon":5.39003,"is_reserved":false,"is_disabled":false,"rental_uris":{"android":"levelo://app?vid=b32a68e6-6e92-4e41-848f-711ec5e261e6","ios":"levelo://app?vid=b32a68e6-6e92-4e41-848f-711ec5e261e6"},"vehicle_type_id":"4","last_reported":1727529215,"current_range_meters":28000,"station_id":"ce4bhe12rcd13ifvqf30","pricing_plan_id":"cebpf4jnsgd1na2vs0mg"},{"bike_id":"1ce7c25b-6bd2-4b64-b4ae-543ea784fc5d","system_id":"levelo_inurba_marseille","lat":43.337444,"lon":5.374475,"is_reserved":false,"is_disabled":false,"rental_uris":{"android":"levelo://app?vid=1ce7c25b-6bd2-4b64-b4ae-543ea784fc5d","ios":"levelo://app?vid=1ce7c25b-6bd2-4b64-b4ae-543ea784fc5d"},"vehicle_type_id":"4","last_reported":1727529215,"current_range_meters":36800,"station_id":"","pricing_plan_id":"cebpf4jnsgd1na2vs0mg"},{"bike_id":"ccb0399a-af8d-4a08-a739-b071793d1a1b","system_id":"levelo_inurba_marseille","lat":43.31712,"lon":5.43704,"is_reserved":false,"is_disabled":false,"rental_uris":{"android":"levelo://app?vid=ccb0399a-af8d-4a08-a739-b071793d1a1b","ios":"levelo://app?vid=ccb0399a-af8d-4a08-a739-b071793d1a1b"},"vehicle_type_id":"4","last_reported":1727529215,"current_range_meters":20400,"station_id":"ce4bhp92rcd13ifvqhcg","pricing_plan_id":"cebpf4jnsgd1na2vs0mg"},{"bike_id":"6a7b753b-2146-4fe5-bc17-ea7b6c7a53b0","system_id":"levelo_inurba_marseille","lat":43.24951,"lon":5.38745,"is_reserved":false,"is_disabled":false,"rental_uris":{"android":"levelo://app?vid=6a7b753b-2146-4fe5-bc17-ea7b6c7a53b0","ios":"levelo://app?vid=6a7b753b-2146-4fe5-bc17-ea7b6c7a53b0"},"vehicle_type_id":"4","last_reported":1727529215,"current_range_meters":38800,"station_id":"ce4bhgp2rcd13ifvqfd0","pricing_plan_id":"cebpf4jnsgd1na2vs0mg"},{"bike_id":"ead9cb97-6e0b-4d61-8c09-2278784e2f11","system_id":"levelo_inurba_marseille","lat":43.29986,"lon":5.38499,"is_reserved":false,"is_disabled":false,"rental_uris":{"android":"levelo://app?vid=ead9cb97-6e0b-4d61-8c09-2278784e2f11","ios":"levelo://app?vid=ead9cb97-6e0b-4d61-8c09-2278784e2f11"},"vehicle_type_id":"4","last_reported":1727529215,"current_range_meters":37600,"station_id":"ce4bgj92rcd13ifvqbd0","pricing_plan_id":"cebpf4jnsgd1na2vs0mg"},{"bike_id":"afe403ee-b91f-4656-8eb8-4e0fafb30f72","system_id":"levelo_inurba_marseille","lat":43.303525,"lon":5.418815,"is_reserved":false,"is_disabled":false,"rental_uris":{"android":"levelo://app?vid=afe403ee-b91f-4656-8eb8-4e0fafb30f72","ios":"levelo://app?vid=afe403ee-b91f-4656-8eb8-4e0fafb30f72"},"vehicle_type_id":"4","last_reported":1727529215,"current_range_meters":24000,"station_id":"ce4bhop2rcd13ifvqh7g","pricing_plan_id":"cebpf4jnsgd1na2vs0mg"},{"bike_id":"95d4521a-146f-47be-8974-0b2c9365d001","system_id":"levelo_inurba_marseille","lat":43.30611,"lon":5.37222,"is_reserved":false,"is_disabled":false,"rental_uris":{"android":"levelo://app?vid=95d4521a-146f-47be-8974-0b2c9365d001","ios":"levelo://app?vid=95d4521a-146f-47be-8974-0b2c9365d001"},"vehicle_type_id":"4","last_reported":1727529215,"current_range_meters":24400,"station_id":"ce4bgqh2rcd13ifvqc4g","pricing_plan_id":"cebpf4jnsgd1na2vs0mg"},{"bike_id":"0c6a3edd-0259-43fd-a8d1-3d4bb6023605","system_id":"levelo_inurba_marseille","lat":43.24386,"lon":5.3705,"is_reserved":false,"is_disabled":false,"rental_uris":{"android":"levelo://app?vid=0c6a3edd-0259-43fd-a8d1-3d4bb6023605","ios":"levelo://app?vid=0c6a3edd-0259-43fd-a8d1-3d4bb6023605"},"vehicle_type_id":"4","last_reported":1727529215,"current_range_meters":40000,"station_id":"ce4bhhh2rcd13ifvqfk0","pricing_plan_id":"cebpf4jnsgd1na2vs0mg"},{"bike_id":"65d35f4d-4285-46bc-ac40-473d9d6ba147","system_id":"levelo_inurba_marseille","lat":43.30787,"lon":5.40019,"is_reserved":false,"is_disabled":false,"rental_uris":{"android":"levelo://app?vid=65d35f4d-4285-46bc-ac40-473d9d6ba147","ios":"levelo://app?vid=65d35f4d-4285-46bc-ac40-473d9d6ba147"},"vehicle_type_id":"4","last_reported":1727529215,"current_range_meters":38800,"station_id":"ce4bh0h2rcd13ifvqd50","pricing_plan_id":"cebpf4jnsgd1na2vs0mg"},{"bike_id":"a4bb0d33-8ee5-4206-9584-62e8a4f44420","system_id":"levelo_inurba_marseille","lat":43.30531,"lon":5.36537,"is_reserved":false,"is_disabled":false,"rental_uris":{"android":"levelo://app?vid=a4bb0d33-8ee5-4206-9584-62e8a4f44420","ios":"levelo://app?vid=a4bb0d33-8ee5-4206-9584-62e8a4f44420"},"vehicle_type_id":"4","last_reported":1727529215,"current_range_meters":30400,"station_id":"ce4bgs12rcd13ifvqcag","pricing_plan_id":"cebpf4jnsgd1na2vs0mg"},{"bike_id":"dee4a9f7-5360-47b6-839d-f17c135f5ab9","system_id":"levelo_inurba_marseille","lat":43.27372,"lon":5.36262,"is_reserved":false,"is_disabled":false,"rental_uris":{"android":"levelo://app?vid=dee4a9f7-5360-47b6-839d-f17c135f5ab9","ios":"levelo://app?vid=dee4a9f7-5360-47b6-839d-f17c135f5ab9"},"vehicle_type_id":"4","last_reported":1727529215,"current_range_meters":12000,"station_id":"ce4bhbh2rcd13ifvqeo0","pricing_plan_id":"cebpf4jnsgd1na2vs0mg"},{"bike_id":"c579a613-f509-47a8-af78-415ec0a05381","system_id":"levelo_inurba_marseille","lat":43.26945,"lon":5.40249,"is_reserved":false,"is_disabled":false,"rental_uris":{"android":"levelo://app?vid=c579a613-f509-47a8-af78-415ec0a05381","ios":"levelo://app?vid=c579a613-f509-47a8-af78-415ec0a05381"},"vehicle_type_id":"4","last_reported":1727529215,"current_range_meters":10800,"station_id":"cjm6bp8fraef2m0cb0m0","pricing_plan_id":"cebpf4jnsgd1na2vs0mg"},{"bike_id":"8fe46ecc-1e67-4f19-8b8d-10a6acd8bd0b","system_id":"levelo_inurba_marseille","lat":43.25994,"lon":5.3868,"is_reserved":false,"is_disabled":false,"rental_uris":{"android":"levelo://app?vid=8fe46ecc-1e67-4f19-8b8d-10a6acd8bd0b","ios":"levelo://app?vid=8fe46ecc-1e67-4f19-8b8d-10a6acd8bd0b"},"vehicle_type_id":"4","last_reported":1727529215,"current_range_meters":8400,"station_id":"","pricing_plan_id":"cebpf4jnsgd1na2vs0mg"},{"bike_id":"8f902400-6549-421f-9432-98a0b2be08ee","system_id":"levelo_inurba_marseille","lat":43.29935,"lon":5.36527,"is_reserved":false,"is_disabled":false,"rental_uris":{"android":"levelo://app?vid=8f902400-6549-421f-9432-98a0b2be08ee","ios":"levelo://app?vid=8f902400-6549-421f-9432-98a0b2be08ee"},"vehicle_type_id":"4","last_reported":1727529215,"current_range_meters":32400,"station_id":"ce4bgm92rcd13ifvqbr0","pricing_plan_id":"cebpf4jnsgd1na2vs0mg"},{"bike_id":"570502ff-8c62-4c8d-b9a6-ef197f820028","system_id":"levelo_inurba_marseille","lat":43.27205,"lon":5.39182,"is_reserved":false,"is_disabled":false,"rental_uris":{"android":"levelo://app?vid=570502ff-8c62-4c8d-b9a6-ef197f820028","ios":"levelo://app?vid=570502ff-8c62-4c8d-b9a6-ef197f820028"},"vehicle_type_id":"4","last_reported":1727529215,"current_range_meters":2000,"station_id":"ce4bhhp2rcd13ifvqfm0","pricing_plan_id":"cebpf4jnsgd1na2vs0mg"},{"bike_id":"71a1364e-b194-4650-88ed-923eca55bb08","system_id":"levelo_inurba_marseille","lat":43.30098,"lon":5.39088,"is_reserved":false,"is_disabled":false,"rental_uris":{"android":"levelo://app?vid=71a1364e-b194-4650-88ed-923eca55bb08","ios":"levelo://app?vid=71a1364e-b194-4650-88ed-923eca55bb08"},"vehicle_type_id":"4","last_reported":1727529215,"current_range_meters":17600,"station_id":"ce4bh192rcd13ifvqdb0","pricing_plan_id":"cebpf4jnsgd1na2vs0mg"},{"bike_id":"70f95908-a707-4443-89f0-05100b6f71f9","system_id":"levelo_inurba_marseille","lat":43.23184,"lon":5.39982,"is_reserved":false,"is_disabled":false,"rental_uris":{"android":"levelo://app?vid=70f95908-a707-4443-89f0-05100b6f71f9","ios":"levelo://app?vid=70f95908-a707-4443-89f0-05100b6f71f9"},"vehicle_type_id":"4","last_reported":1727529215,"current_range_meters":40000,"station_id":"ce4bhn12rcd13ifvqgqg","pricing_plan_id":"cebpf4jnsgd1na2vs0mg"},{"bike_id":"afe5fcf5-fe1a-4d30-bfcd-4452c0d39cee","system_id":"levelo_inurba_marseille","lat":43.30149,"lon":5.38095,"is_reserved":false,"is_disabled":false,"rental_uris":{"android":"levelo://app?vid=afe5fcf5-fe1a-4d30-bfcd-4452c0d39cee","ios":"levelo://app?vid=afe5fcf5-fe1a-4d30-bfcd-4452c0d39cee"},"vehicle_type_id":"4","last_reported":1727529215,"current_range_meters":33200,"station_id":"ce4bgjp2rcd13ifvqbh0","pricing_plan_id":"cebpf4jnsgd1na2vs0mg"},{"bike_id":"f82c88a6-5ccb-4168-bec1-7cbb14a89599","system_id":"levelo_inurba_marseille","lat":43.24168,"lon":5.36393,"is_reserved":false,"is_disabled":false,"rental_uris":{"android":"levelo://app?vid=f82c88a6-5ccb-4168-bec1-7cbb14a89599","ios":"levelo://app?vid=f82c88a6-5ccb-4168-bec1-7cbb14a89599"},"vehicle_type_id":"4","last_reported":1727529215,"current_range_meters":4400,"station_id":"cpo36qri1sfpv3e86is0","pricing_plan_id":"cebpf4jnsgd1na2vs0mg"},{"bike_id":"7b7972df-38f6-4844-a1ac-7273e8026644","system_id":"levelo_inurba_marseille","lat":43.25587,"lon":5.38232,"is_reserved":false,"is_disabled":false,"rental_uris":{"android":"levelo://app?vid=7b7972df-38f6-4844-a1ac-7273e8026644","ios":"levelo://app?vid=7b7972df-38f6-4844-a1ac-7273e8026644"},"vehicle_type_id":"4","last_reported":1727529215,"current_range_meters":20400,"station_id":"ce4bhih2rcd13ifvqfs0","pricing_plan_id":"cebpf4jnsgd1na2vs0mg"},{"bike_id":"1251dff1-0720-4c06-bb56-6986b6d366a2","system_id":"levelo_inurba_marseille","lat":43.2991,"lon":5.37471,"is_reserved":false,"is_disabled":false,"rental_uris":{"android":"levelo://app?vid=1251dff1-0720-4c06-bb56-6986b6d366a2","ios":"levelo://app?vid=1251dff1-0720-4c06-bb56-6986b6d366a2"},"vehicle_type_id":"4","last_reported":1727529215,"current_range_meters":34800,"station_id":"ce4bgjh2rcd13ifvqbg0","pricing_plan_id":"cebpf4jnsgd1na2vs0mg"},{"bike_id":"f056a4c2-1a4c-47a6-8710-f3f44401fbcb","system_id":"levelo_inurba_marseille","lat":43.29915,"lon":5.38144,"is_reserved":false,"is_disabled":false,"rental_uris":{"android":"levelo://app?vid=f056a4c2-1a4c-47a6-8710-f3f44401fbcb","ios":"levelo://app?vid=f056a4c2-1a4c-47a6-8710-f3f44401fbcb"},"vehicle_type_id":"4","last_reported":1727529215,"current_range_meters":38400,"station_id":"ce4bgj12rcd13ifvqbc0","pricing_plan_id":"cebpf4jnsgd1na2vs0mg"},{"bike_id":"470689a5-d872-4f2a-8a9c-37bca5272370","system_id":"levelo_inurba_marseille","lat":43.2455,"lon":5.39519,"is_reserved":false,"is_disabled":false,"rental_uris":{"android":"levelo://app?vid=470689a5-d872-4f2a-8a9c-37bca5272370","ios":"levelo://app?vid=470689a5-d872-4f2a-8a9c-37bca5272370"},"vehicle_type_id":"4","last_reported":1727529215,"current_range_meters":39200,"station_id":"ce4bhlp2rcd13ifvqgjg","pricing_plan_id":"cebpf4jnsgd1na2vs0mg"},{"bike_id":"fcf7874b-cfb2-47ef-a9c5-89a95a1b831f","system_id":"levelo_inurba_marseille","lat":43.23186,"lon":5.39984,"is_reserved":false,"is_disabled":false,"rental_uris":{"android":"levelo://app?vid=fcf7874b-cfb2-47ef-a9c5-89a95a1b831f","ios":"levelo://app?vid=fcf7874b-cfb2-47ef-a9c5-89a95a1b831f"},"vehicle_type_id":"4","last_reported":1727529215,"current_range_meters":20000,"station_id":"ce4bhn12rcd13ifvqgqg","pricing_plan_id":"cebpf4jnsgd1na2vs0mg"},{"bike_id":"3371e9e2-12bd-492f-9ad0-79333cd40a8a","system_id":"levelo_inurba_marseille","lat":43.3054,"lon":5.39329,"is_reserved":false,"is_disabled":false,"rental_uris":{"android":"levelo://app?vid=3371e9e2-12bd-492f-9ad0-79333cd40a8a","ios":"levelo://app?vid=3371e9e2-12bd-492f-9ad0-79333cd40a8a"},"vehicle_type_id":"4","last_reported":1727529215,"current_range_meters":31200,"station_id":"","pricing_plan_id":"cebpf4jnsgd1na2vs0mg"},{"bike_id":"869403bb-4fcc-4f66-8ec3-05c3e0e700b7","system_id":"levelo_inurba_marseille","lat":43.27425,"lon":5.39407,"is_reserved":false,"is_disabled":false,"rental_uris":{"android":"levelo://app?vid=869403bb-4fcc-4f66-8ec3-05c3e0e700b7","ios":"levelo://app?vid=869403bb-4fcc-4f66-8ec3-05c3e0e700b7"},"vehicle_type_id":"4","last_reported":1727529215,"current_range_meters":39200,"station_id":"ce4bhdp2rcd13ifvqf20","pricing_plan_id":"cebpf4jnsgd1na2vs0mg"},{"bike_id":"d11a141c-e7c8-456d-bb17-614ed5f53a69","system_id":"levelo_inurba_marseille","lat":43.28612,"lon":5.37063,"is_reserved":false,"is_disabled":false,"rental_uris":{"android":"levelo://app?vid=d11a141c-e7c8-456d-bb17-614ed5f53a69","ios":"levelo://app?vid=d11a141c-e7c8-456d-bb17-614ed5f53a69"},"vehicle_type_id":"4","last_reported":1727529215,"current_range_meters":24800,"station_id":"ce4bht12rcd13ifvqi60","pricing_plan_id":"cebpf4jnsgd1na2vs0mg"},{"bike_id":"42c29691-2fc8-42c6-8cf2-6e1e331d9372","system_id":"levelo_inurba_marseille","lat":43.28152,"lon":5.42644,"is_reserved":false,"is_disabled":false,"rental_uris":{"android":"levelo://app?vid=42c29691-2fc8-42c6-8cf2-6e1e331d9372","ios":"levelo://app?vid=42c29691-2fc8-42c6-8cf2-6e1e331d9372"},"vehicle_type_id":"4","last_reported":1727529215,"current_range_meters":34000,"station_id":"ce4bhnh2rcd13ifvqgug","pricing_plan_id":"cebpf4jnsgd1na2vs0mg"},{"bike_id":"7dcbdc84-e629-47d4-b5ff-2ac878b14e18","system_id":"levelo_inurba_marseille","lat":43.25122,"lon":5.4031,"is_reserved":false,"is_disabled":false,"rental_uris":{"android":"levelo://app?vid=7dcbdc84-e629-47d4-b5ff-2ac878b14e18","ios":"levelo://app?vid=7dcbdc84-e629-47d4-b5ff-2ac878b14e18"},"vehicle_type_id":"4","last_reported":1727529215,"current_range_meters":31200,"station_id":"ce4bhlh2rcd13ifvqgig","pricing_plan_id":"cebpf4jnsgd1na2vs0mg"},{"bike_id":"cf2a99f0-171d-46e2-b5f9-b8e518581e33","system_id":"levelo_inurba_marseille","lat":43.23968,"lon":5.36619,"is_reserved":false,"is_disabled":false,"rental_uris":{"android":"levelo://app?vid=cf2a99f0-171d-46e2-b5f9-b8e518581e33","ios":"levelo://app?vid=cf2a99f0-171d-46e2-b5f9-b8e518581e33"},"vehicle_type_id":"4","last_reported":1727529215,"current_range_meters":37600,"station_id":"ce4bhi12rcd13ifvqfp0","pricing_plan_id":"cebpf4jnsgd1na2vs0mg"},{"bike_id":"1b1b12e9-f9a2-4c74-8380-36908fa1f549","system_id":"levelo_inurba_marseille","lat":43.23964,"lon":5.36635,"is_reserved":false,"is_disabled":false,"rental_uris":{"android":"levelo://app?vid=1b1b12e9-f9a2-4c74-8380-36908fa1f549","ios":"levelo://app?vid=1b1b12e9-f9a2-4c74-8380-36908fa1f549"},"vehicle_type_id":"4","last_reported":1727529215,"current_range_meters":18800,"station_id":"ce4bhi12rcd13ifvqfp0","pricing_plan_id":"cebpf4jnsgd1na2vs0mg"},{"bike_id":"9813bfbe-daed-4c00-ace9-0d66d2e83d16","system_id":"levelo_inurba_marseille","lat":43.23147,"lon":5.43709,"is_reserved":false,"is_disabled":false,"rental_uris":{"android":"levelo://app?vid=9813bfbe-daed-4c00-ace9-0d66d2e83d16","ios":"levelo://app?vid=9813bfbe-daed-4c00-ace9-0d66d2e83d16"},"vehicle_type_id":"4","last_reported":1727529215,"current_range_meters":28000,"station_id":"ce4bhmp2rcd13ifvqgog","pricing_plan_id":"cebpf4jnsgd1na2vs0mg"},{"bike_id":"6d6ac127-b6ef-4b08-a64b-a2ac662407de","system_id":"levelo_inurba_marseille","lat":43.2418,"lon":5.39722,"is_reserved":false,"is_disabled":false,"rental_uris":{"android":"levelo://app?vid=6d6ac127-b6ef-4b08-a64b-a2ac662407de","ios":"levelo://app?vid=6d6ac127-b6ef-4b08-a64b-a2ac662407de"},"vehicle_type_id":"4","last_reported":1727529215,"current_range_meters":8000,"station_id":"ce4bhn12rcd13ifvqgpg","pricing_plan_id":"cebpf4jnsgd1na2vs0mg"},{"bike_id":"af27e55c-9092-4f57-a5c6-7251428e651f","system_id":"levelo_inurba_marseille","lat":43.23199,"lon":5.35547,"is_reserved":false,"is_disabled":false,"rental_uris":{"android":"levelo://app?vid=af27e55c-9092-4f57-a5c6-7251428e651f","ios":"levelo://app?vid=af27e55c-9092-4f57-a5c6-7251428e651f"},"vehicle_type_id":"4","last_reported":1727529215,"current_range_meters":16400,"station_id":"ce4bhu92rcd13ifvqi70","pricing_plan_id":"cebpf4jnsgd1na2vs0mg"},{"bike_id":"3ae7512d-8a6c-4ca1-92ae-d1a3beaf8b92","system_id":"levelo_inurba_marseille","lat":43.23967,"lon":5.36619,"is_reserved":false,"is_disabled":false,"rental_uris":{"android":"levelo://app?vid=3ae7512d-8a6c-4ca1-92ae-d1a3beaf8b92","ios":"levelo://app?vid=3ae7512d-8a6c-4ca1-92ae-d1a3beaf8b92"},"vehicle_type_id":"4","last_reported":1727529215,"current_range_meters":3200,"station_id":"ce4bhi12rcd13ifvqfp0","pricing_plan_id":"cebpf4jnsgd1na2vs0mg"},{"bike_id":"52f17877-110a-422d-89ae-fdeda162e6f3","system_id":"levelo_inurba_marseille","lat":43.23962,"lon":5.36618,"is_reserved":false,"is_disabled":false,"rental_uris":{"android":"levelo://app?vid=52f17877-110a-422d-89ae-fdeda162e6f3","ios":"levelo://app?vid=52f17877-110a-422d-89ae-fdeda162e6f3"},"vehicle_type_id":"4","last_reported":1727529215,"current_range_meters":11600,"station_id":"ce4bhi12rcd13ifvqfp0","pricing_plan_id":"cebpf4jnsgd1na2vs0mg"},{"bike_id":"b1e915b4-0260-4cd0-a9f2-6c9625acc5d6","system_id":"levelo_inurba_marseille","lat":43.23955,"lon":5.36624,"is_reserved":false,"is_disabled":false,"rental_uris":{"android":"levelo://app?vid=b1e915b4-0260-4cd0-a9f2-6c9625acc5d6","ios":"levelo://app?vid=b1e915b4-0260-4cd0-a9f2-6c9625acc5d6"},"vehicle_type_id":"4","last_reported":1727529215,"current_range_meters":26000,"station_id":"ce4bhi12rcd13ifvqfp0","pricing_plan_id":"cebpf4jnsgd1na2vs0mg"},{"bike_id":"66090a2d-c8e8-444b-97ee-580cb870764a","system_id":"levelo_inurba_marseille","lat":43.27329,"lon":5.39088,"is_reserved":false,"is_disabled":false,"rental_uris":{"android":"levelo://app?vid=66090a2d-c8e8-444b-97ee-580cb870764a","ios":"levelo://app?vid=66090a2d-c8e8-444b-97ee-580cb870764a"},"vehicle_type_id":"4","last_reported":1727529215,"current_range_meters":7200,"station_id":"ce4bhgp2rcd13ifvqfe0","pricing_plan_id":"cebpf4jnsgd1na2vs0mg"},{"bike_id":"f0653d70-13f1-450e-ba26-ef26baae9f16","system_id":"levelo_inurba_marseille","lat":43.23069,"lon":5.35488,"is_reserved":false,"is_disabled":false,"rental_uris":{"android":"levelo://app?vid=f0653d70-13f1-450e-ba26-ef26baae9f16","ios":"levelo://app?vid=f0653d70-13f1-450e-ba26-ef26baae9f16"},"vehicle_type_id":"4","last_reported":1727529215,"current_range_meters":19600,"station_id":"cpo3342slgdg3j2ifvpg","pricing_plan_id":"cebpf4jnsgd1na2vs0mg"},{"bike_id":"519c17fe-7769-4a3a-8d8b-5c88f7ebd34d","system_id":"levelo_inurba_marseille","lat":43.30189,"lon":5.36615,"is_reserved":false,"is_disabled":false,"rental_uris":{"android":"levelo://app?vid=519c17fe-7769-4a3a-8d8b-5c88f7ebd34d","ios":"levelo://app?vid=519c17fe-7769-4a3a-8d8b-5c88f7ebd34d"},"vehicle_type_id":"4","last_reported":1727529215,"current_range_meters":19200,"station_id":"ce4bgrh2rcd13ifvqc8g","pricing_plan_id":"cebpf4jnsgd1na2vs0mg"},{"bike_id":"8706dbad-74a1-4401-bd4a-b4ae01455ac4","system_id":"levelo_inurba_marseille","lat":43.27613,"lon":5.36108,"is_reserved":false,"is_disabled":false,"rental_uris":{"android":"levelo://app?vid=8706dbad-74a1-4401-bd4a-b4ae01455ac4","ios":"levelo://app?vid=8706dbad-74a1-4401-bd4a-b4ae01455ac4"},"vehicle_type_id":"4","last_reported":1727529215,"current_range_meters":9600,"station_id":"ce4bgj92rcd13ifvqbe0","pricing_plan_id":"cebpf4jnsgd1na2vs0mg"},{"bike_id":"cef7b0e4-df87-48ab-b380-59c7db40cc58","system_id":"levelo_inurba_marseille","lat":43.29848,"lon":5.36273,"is_reserved":false,"is_disabled":false,"rental_uris":{"android":"levelo://app?vid=cef7b0e4-df87-48ab-b380-59c7db40cc58","ios":"levelo://app?vid=cef7b0e4-df87-48ab-b380-59c7db40cc58"},"vehicle_type_id":"4","last_reported":1727529215,"current_range_meters":31200,"station_id":"ce4bgpp2rcd13ifvqc3g","pricing_plan_id":"cebpf4jnsgd1na2vs0mg"},{"bike_id":"9e0e602a-711e-4e75-a4b3-f0d70db8f823","system_id":"levelo_inurba_marseille","lat":43.23969,"lon":5.36619,"is_reserved":false,"is_disabled":false,"rental_uris":{"android":"levelo://app?vid=9e0e602a-711e-4e75-a4b3-f0d70db8f823","ios":"levelo://app?vid=9e0e602a-711e-4e75-a4b3-f0d70db8f823"},"vehicle_type_id":"4","last_reported":1727529215,"current_range_meters":20000,"station_id":"ce4bhi12rcd13ifvqfp0","pricing_plan_id":"cebpf4jnsgd1na2vs0mg"},{"bike_id":"a1663e52-4884-4761-8651-845682d6aa9d","system_id":"levelo_inurba_marseille","lat":43.22928,"lon":5.35374,"is_reserved":false,"is_disabled":false,"rental_uris":{"android":"levelo://app?vid=a1663e52-4884-4761-8651-845682d6aa9d","ios":"levelo://app?vid=a1663e52-4884-4761-8651-845682d6aa9d"},"vehicle_type_id":"4","last_reported":1727529215,"current_range_meters":32000,"station_id":"cpo3532slgdg3j2ikp40","pricing_plan_id":"cebpf4jnsgd1na2vs0mg"},{"bike_id":"c9b59e34-32cb-419e-8d3b-985a41a64694","system_id":"levelo_inurba_marseille","lat":43.27993,"lon":5.41656,"is_reserved":false,"is_disabled":false,"rental_uris":{"android":"levelo://app?vid=c9b59e34-32cb-419e-8d3b-985a41a64694","ios":"levelo://app?vid=c9b59e34-32cb-419e-8d3b-985a41a64694"},"vehicle_type_id":"4","last_reported":1727529215,"current_range_meters":38000,"station_id":"ce4bho12rcd13ifvqh1g","pricing_plan_id":"cebpf4jnsgd1na2vs0mg"},{"bike_id":"ffb9683d-7fbf-473f-ba53-e00b15f258af","system_id":"levelo_inurba_marseille","lat":43.26944,"lon":5.4025,"is_reserved":false,"is_disabled":false,"rental_uris":{"android":"levelo://app?vid=ffb9683d-7fbf-473f-ba53-e00b15f258af","ios":"levelo://app?vid=ffb9683d-7fbf-473f-ba53-e00b15f258af"},"vehicle_type_id":"4","last_reported":1727529215,"current_range_meters":21600,"station_id":"cjm6bp8fraef2m0cb0m0","pricing_plan_id":"cebpf4jnsgd1na2vs0mg"},{"bike_id":"31d3c74d-f20a-4edf-9c40-1231eb4e8f43","system_id":"levelo_inurba_marseille","lat":43.29709,"lon":5.37689,"is_reserved":false,"is_disabled":false,"rental_uris":{"android":"levelo://app?vid=31d3c74d-f20a-4edf-9c40-1231eb4e8f43","ios":"levelo://app?vid=31d3c74d-f20a-4edf-9c40-1231eb4e8f43"},"vehicle_type_id":"4","last_reported":1727529215,"current_range_meters":38800,"station_id":"ce4bgkh2rcd13ifvqbl0","pricing_plan_id":"cebpf4jnsgd1na2vs0mg"},{"bike_id":"ef670da1-2122-4fae-876a-6773e8b2be74","system_id":"levelo_inurba_marseille","lat":43.29591,"lon":5.38105,"is_reserved":false,"is_disabled":false,"rental_uris":{"android":"levelo://app?vid=ef670da1-2122-4fae-876a-6773e8b2be74","ios":"levelo://app?vid=ef670da1-2122-4fae-876a-6773e8b2be74"},"vehicle_type_id":"4","last_reported":1727529215,"current_range_meters":12000,"station_id":"ce4bgl12rcd13ifvqbo0","pricing_plan_id":"cebpf4jnsgd1na2vs0mg"},{"bike_id":"ba56f34d-9dd5-4c03-b73d-6025354ded1d","system_id":"levelo_inurba_marseille","lat":43.29283,"lon":5.40119,"is_reserved":false,"is_disabled":false,"rental_uris":{"android":"levelo://app?vid=ba56f34d-9dd5-4c03-b73d-6025354ded1d","ios":"levelo://app?vid=ba56f34d-9dd5-4c03-b73d-6025354ded1d"},"vehicle_type_id":"4","last_reported":1727529215,"current_range_meters":27200,"station_id":"ce4bh312rcd13ifvqdk0","pricing_plan_id":"cebpf4jnsgd1na2vs0mg"},{"bike_id":"1fc6a072-aca2-456e-bc26-bc221cfb9d36","system_id":"levelo_inurba_marseille","lat":43.29172,"lon":5.37169,"is_reserved":false,"is_disabled":false,"rental_uris":{"android":"levelo://app?vid=1fc6a072-aca2-456e-bc26-bc221cfb9d36","ios":"levelo://app?vid=1fc6a072-aca2-456e-bc26-bc221cfb9d36"},"vehicle_type_id":"4","last_reported":1727529215,"current_range_meters":32000,"station_id":"ce4bha92rcd13ifvqeh0","pricing_plan_id":"cebpf4jnsgd1na2vs0mg"},{"bike_id":"67f10b04-27c2-4902-8b8e-506c4ac38649","system_id":"levelo_inurba_marseille","lat":43.29914,"lon":5.37464,"is_reserved":false,"is_disabled":false,"rental_uris":{"android":"levelo://app?vid=67f10b04-27c2-4902-8b8e-506c4ac38649","ios":"levelo://app?vid=67f10b04-27c2-4902-8b8e-506c4ac38649"},"vehicle_type_id":"4","last_reported":1727529215,"current_range_meters":31200,"station_id":"ce4bgjh2rcd13ifvqbg0","pricing_plan_id":"cebpf4jnsgd1na2vs0mg"},{"bike_id":"7b424102-f058-418a-a642-b68cc1830f1f","system_id":"levelo_inurba_marseille","lat":43.28415,"lon":5.34987,"is_reserved":false,"is_disabled":false,"rental_uris":{"android":"levelo://app?vid=7b424102-f058-418a-a642-b68cc1830f1f","ios":"levelo://app?vid=7b424102-f058-418a-a642-b68cc1830f1f"},"vehicle_type_id":"4","last_reported":1727529215,"current_range_meters":29600,"station_id":"ce4bhbh2rcd13ifvqepg","pricing_plan_id":"cebpf4jnsgd1na2vs0mg"},{"bike_id":"78d5a258-2b1f-45f2-9253-05903f545a0a","system_id":"levelo_inurba_marseille","lat":43.29717,"lon":5.37681,"is_reserved":false,"is_disabled":false,"rental_uris":{"android":"levelo://app?vid=78d5a258-2b1f-45f2-9253-05903f545a0a","ios":"levelo://app?vid=78d5a258-2b1f-45f2-9253-05903f545a0a"},"vehicle_type_id":"4","last_reported":1727529215,"current_range_meters":22000,"station_id":"ce4bgkh2rcd13ifvqbl0","pricing_plan_id":"cebpf4jnsgd1na2vs0mg"},{"bike_id":"9e17d114-7478-4418-884c-538bf814dbb2","system_id":"levelo_inurba_marseille","lat":43.337444,"lon":5.374475,"is_reserved":false,"is_disabled":false,"rental_uris":{"android":"levelo://app?vid=9e17d114-7478-4418-884c-538bf814dbb2","ios":"levelo://app?vid=9e17d114-7478-4418-884c-538bf814dbb2"},"vehicle_type_id":"4","last_reported":1727529215,"current_range_meters":38800,"station_id":"","pricing_plan_id":"cebpf4jnsgd1na2vs0mg"},{"bike_id":"b7d8fe89-7ef0-4cd5-874b-ff4ceb98b616","system_id":"levelo_inurba_marseille","lat":43.31229,"lon":5.3684,"is_reserved":false,"is_disabled":false,"rental_uris":{"android":"levelo://app?vid=b7d8fe89-7ef0-4cd5-874b-ff4ceb98b616","ios":"levelo://app?vid=b7d8fe89-7ef0-4cd5-874b-ff4ceb98b616"},"vehicle_type_id":"4","last_reported":1727529215,"current_range_meters":20800,"station_id":"ce4bgl92rcd13ifvqbq0","pricing_plan_id":"cebpf4jnsgd1na2vs0mg"},{"bike_id":"3673a674-837d-4a28-b5bf-c42325f4fa6d","system_id":"levelo_inurba_marseille","lat":43.27681,"lon":5.38868,"is_reserved":false,"is_disabled":false,"rental_uris":{"android":"levelo://app?vid=3673a674-837d-4a28-b5bf-c42325f4fa6d","ios":"levelo://app?vid=3673a674-837d-4a28-b5bf-c42325f4fa6d"},"vehicle_type_id":"4","last_reported":1727529215,"current_range_meters":37600,"station_id":"ce4bhi12rcd13ifvqfo0","pricing_plan_id":"cebpf4jnsgd1na2vs0mg"},{"bike_id":"64ad17b7-9683-4bfa-b0b4-c7ab26e56542","system_id":"levelo_inurba_marseille","lat":43.28521,"lon":5.38834,"is_reserved":false,"is_disabled":false,"rental_uris":{"android":"levelo://app?vid=64ad17b7-9683-4bfa-b0b4-c7ab26e56542","ios":"levelo://app?vid=64ad17b7-9683-4bfa-b0b4-c7ab26e56542"},"vehicle_type_id":"4","last_reported":1727529215,"current_range_meters":27600,"station_id":"ce4bhoh2rcd13ifvqh5g","pricing_plan_id":"cebpf4jnsgd1na2vs0mg"},{"bike_id":"b678c8a6-a5f1-451b-8e4a-2a121c44354b","system_id":"levelo_inurba_marseille","lat":43.33772,"lon":5.37433,"is_reserved":false,"is_disabled":false,"rental_uris":{"android":"levelo://app?vid=b678c8a6-a5f1-451b-8e4a-2a121c44354b","ios":"levelo://app?vid=b678c8a6-a5f1-451b-8e4a-2a121c44354b"},"vehicle_type_id":"4","last_reported":1727529215,"current_range_meters":39200,"station_id":"","pricing_plan_id":"cebpf4jnsgd1na2vs0mg"},{"bike_id":"f36d0697-5320-48d9-ae5d-3ed66829a47b","system_id":"levelo_inurba_marseille","lat":43.29883,"lon":5.39738,"is_reserved":false,"is_disabled":false,"rental_uris":{"android":"levelo://app?vid=f36d0697-5320-48d9-ae5d-3ed66829a47b","ios":"levelo://app?vid=f36d0697-5320-48d9-ae5d-3ed66829a47b"},"vehicle_type_id":"4","last_reported":1727529215,"current_range_meters":38400,"station_id":"ce4bh0h2rcd13ifvqd50","pricing_plan_id":"cebpf4jnsgd1na2vs0mg"},{"bike_id":"06371e90-c238-4f0a-adf4-f2b0618ed709","system_id":"levelo_inurba_marseille","lat":43.23196,"lon":5.35554,"is_reserved":false,"is_disabled":false,"rental_uris":{"android":"levelo://app?vid=06371e90-c238-4f0a-adf4-f2b0618ed709","ios":"levelo://app?vid=06371e90-c238-4f0a-adf4-f2b0618ed709"},"vehicle_type_id":"4","last_reported":1727529215,"current_range_meters":12400,"station_id":"ce4bhu92rcd13ifvqi70","pricing_plan_id":"cebpf4jnsgd1na2vs0mg"},{"bike_id":"823fe18e-c6fd-4c68-b458-e33ca2e04abd","system_id":"levelo_inurba_marseille","lat":43.33023,"lon":5.39034,"is_reserved":false,"is_disabled":false,"rental_uris":{"android":"levelo://app?vid=823fe18e-c6fd-4c68-b458-e33ca2e04abd","ios":"levelo://app?vid=823fe18e-c6fd-4c68-b458-e33ca2e04abd"},"vehicle_type_id":"4","last_reported":1727529215,"current_range_meters":18000,"station_id":"ce4bhr92rcd13ifvqhrg","pricing_plan_id":"cebpf4jnsgd1na2vs0mg"},{"bike_id":"bf15cf37-3a4c-4635-b28c-358f55c15bae","system_id":"levelo_inurba_marseille","lat":43.337573,"lon":5.374563,"is_reserved":false,"is_disabled":false,"rental_uris":{"android":"levelo://app?vid=bf15cf37-3a4c-4635-b28c-358f55c15bae","ios":"levelo://app?vid=bf15cf37-3a4c-4635-b28c-358f55c15bae"},"vehicle_type_id":"4","last_reported":1727529215,"current_range_meters":38800,"station_id":"","pricing_plan_id":"cebpf4jnsgd1na2vs0mg"},{"bike_id":"0af71bb0-4544-497b-a5b3-20a378c801c4","system_id":"levelo_inurba_marseille","lat":43.28712,"lon":5.37924,"is_reserved":false,"is_disabled":false,"rental_uris":{"android":"levelo://app?vid=0af71bb0-4544-497b-a5b3-20a378c801c4","ios":"levelo://app?vid=0af71bb0-4544-497b-a5b3-20a378c801c4"},"vehicle_type_id":"4","last_reported":1727529215,"current_range_meters":35600,"station_id":"ce4bh9p2rcd13ifvqec0","pricing_plan_id":"cebpf4jnsgd1na2vs0mg"},{"bike_id":"cd2327c7-af60-4af9-9eff-465722c02c8b","system_id":"levelo_inurba_marseille","lat":43.33614,"lon":5.41019,"is_reserved":false,"is_disabled":false,"rental_uris":{"android":"levelo://app?vid=cd2327c7-af60-4af9-9eff-465722c02c8b","ios":"levelo://app?vid=cd2327c7-af60-4af9-9eff-465722c02c8b"},"vehicle_type_id":"4","last_reported":1727529215,"current_range_meters":8800,"station_id":"ce4bhqh2rcd13ifvqhmg","pricing_plan_id":"cebpf4jnsgd1na2vs0mg"},{"bike_id":"d3242727-2f40-41af-84af-5fdd57de2329","system_id":"levelo_inurba_marseille","lat":43.28619,"lon":5.35099,"is_reserved":false,"is_disabled":false,"rental_uris":{"android":"levelo://app?vid=d3242727-2f40-41af-84af-5fdd57de2329","ios":"levelo://app?vid=d3242727-2f40-41af-84af-5fdd57de2329"},"vehicle_type_id":"4","last_reported":1727529215,"current_range_meters":24000,"station_id":"ce4bhch2rcd13ifvqeug","pricing_plan_id":"cebpf4jnsgd1na2vs0mg"},{"bike_id":"6aa95821-8b44-42f3-9d07-8b4a4001e2b1","system_id":"levelo_inurba_marseille","lat":43.2396,"lon":5.36625,"is_reserved":false,"is_disabled":false,"rental_uris":{"android":"levelo://app?vid=6aa95821-8b44-42f3-9d07-8b4a4001e2b1","ios":"levelo://app?vid=6aa95821-8b44-42f3-9d07-8b4a4001e2b1"},"vehicle_type_id":"4","last_reported":1727529215,"current_range_meters":33200,"station_id":"ce4bhi12rcd13ifvqfp0","pricing_plan_id":"cebpf4jnsgd1na2vs0mg"},{"bike_id":"091c8ba1-288e-4f8b-a66f-628927bbe83c","system_id":"levelo_inurba_marseille","lat":43.23964,"lon":5.36629,"is_reserved":false,"is_disabled":false,"rental_uris":{"android":"levelo://app?vid=091c8ba1-288e-4f8b-a66f-628927bbe83c","ios":"levelo://app?vid=091c8ba1-288e-4f8b-a66f-628927bbe83c"},"vehicle_type_id":"4","last_reported":1727529215,"current_range_meters":3200,"station_id":"ce4bhi12rcd13ifvqfp0","pricing_plan_id":"cebpf4jnsgd1na2vs0mg"},{"bike_id":"a63d4449-4f5a-4f1c-9a3c-27c8d74bd2a3","system_id":"levelo_inurba_marseille","lat":43.2439,"lon":5.37066,"is_reserved":false,"is_disabled":false,"rental_uris":{"android":"levelo://app?vid=a63d4449-4f5a-4f1c-9a3c-27c8d74bd2a3","ios":"levelo://app?vid=a63d4449-4f5a-4f1c-9a3c-27c8d74bd2a3"},"vehicle_type_id":"4","last_reported":1727529215,"current_range_meters":16400,"station_id":"ce4bhhh2rcd13ifvqfk0","pricing_plan_id":"cebpf4jnsgd1na2vs0mg"},{"bike_id":"6b525450-4099-4e0b-bd11-2a201e3d7d9e","system_id":"levelo_inurba_marseille","lat":43.29175,"lon":5.37141,"is_reserved":false,"is_disabled":false,"rental_uris":{"android":"levelo://app?vid=6b525450-4099-4e0b-bd11-2a201e3d7d9e","ios":"levelo://app?vid=6b525450-4099-4e0b-bd11-2a201e3d7d9e"},"vehicle_type_id":"4","last_reported":1727529215,"current_range_meters":3200,"station_id":"ce4bha92rcd13ifvqeh0","pricing_plan_id":"cebpf4jnsgd1na2vs0mg"},{"bike_id":"d39018ec-3caf-4f4e-b0fd-b4a6b92271c9","system_id":"levelo_inurba_marseille","lat":43.30776,"lon":5.37653,"is_reserved":false,"is_disabled":false,"rental_uris":{"android":"levelo://app?vid=d39018ec-3caf-4f4e-b0fd-b4a6b92271c9","ios":"levelo://app?vid=d39018ec-3caf-4f4e-b0fd-b4a6b92271c9"},"vehicle_type_id":"4","last_reported":1727529215,"current_range_meters":22800,"station_id":"ce4bgv92rcd13ifvqcq0","pricing_plan_id":"cebpf4jnsgd1na2vs0mg"},{"bike_id":"b084c65e-1af5-4fa6-a89a-e4c8c49755d8","system_id":"levelo_inurba_marseille","lat":43.27427,"lon":5.39406,"is_reserved":false,"is_disabled":false,"rental_uris":{"android":"levelo://app?vid=b084c65e-1af5-4fa6-a89a-e4c8c49755d8","ios":"levelo://app?vid=b084c65e-1af5-4fa6-a89a-e4c8c49755d8"},"vehicle_type_id":"4","last_reported":1727529215,"current_range_meters":28400,"station_id":"ce4bhdp2rcd13ifvqf20","pricing_plan_id":"cebpf4jnsgd1na2vs0mg"},{"bike_id":"a9390e0f-e712-4c9a-b715-4a5e08c0946a","system_id":"levelo_inurba_marseille","lat":43.28939,"lon":5.36401,"is_reserved":false,"is_disabled":false,"rental_uris":{"android":"levelo://app?vid=a9390e0f-e712-4c9a-b715-4a5e08c0946a","ios":"levelo://app?vid=a9390e0f-e712-4c9a-b715-4a5e08c0946a"},"vehicle_type_id":"4","last_reported":1727529215,"current_range_meters":23200,"station_id":"ce4bhc92rcd13ifvqetg","pricing_plan_id":"cebpf4jnsgd1na2vs0mg"},{"bike_id":"bc7dc6a9-589f-4649-9e06-6ce7434d3293","system_id":"levelo_inurba_marseille","lat":43.2866,"lon":5.36351,"is_reserved":false,"is_disabled":false,"rental_uris":{"android":"levelo://app?vid=bc7dc6a9-589f-4649-9e06-6ce7434d3293","ios":"levelo://app?vid=bc7dc6a9-589f-4649-9e06-6ce7434d3293"},"vehicle_type_id":"4","last_reported":1727529215,"current_range_meters":25200,"station_id":"ce4bhah2rcd13ifvqej0","pricing_plan_id":"cebpf4jnsgd1na2vs0mg"},{"bike_id":"b6201ac8-09c5-4ec5-be64-a004431fc69b","system_id":"levelo_inurba_marseille","lat":43.231947,"lon":5.355559,"is_reserved":false,"is_disabled":false,"rental_uris":{"android":"levelo://app?vid=b6201ac8-09c5-4ec5-be64-a004431fc69b","ios":"levelo://app?vid=b6201ac8-09c5-4ec5-be64-a004431fc69b"},"vehicle_type_id":"4","last_reported":1727529215,"current_range_meters":16000,"station_id":"ce4bhu92rcd13ifvqi70","pricing_plan_id":"cebpf4jnsgd1na2vs0mg"},{"bike_id":"1daf26b8-2909-42b1-9af7-bcfdfff8297e","system_id":"levelo_inurba_marseille","lat":43.23191,"lon":5.39969,"is_reserved":false,"is_disabled":false,"rental_uris":{"android":"levelo://app?vid=1daf26b8-2909-42b1-9af7-bcfdfff8297e","ios":"levelo://app?vid=1daf26b8-2909-42b1-9af7-bcfdfff8297e"},"vehicle_type_id":"4","last_reported":1727529215,"current_range_meters":38800,"station_id":"ce4bhn12rcd13ifvqgqg","pricing_plan_id":"cebpf4jnsgd1na2vs0mg"},{"bike_id":"bd1b70fa-a6e2-4db0-84a7-3df96ccc609d","system_id":"levelo_inurba_marseille","lat":43.27429,"lon":5.39406,"is_reserved":false,"is_disabled":false,"rental_uris":{"android":"levelo://app?vid=bd1b70fa-a6e2-4db0-84a7-3df96ccc609d","ios":"levelo://app?vid=bd1b70fa-a6e2-4db0-84a7-3df96ccc609d"},"vehicle_type_id":"4","last_reported":1727529215,"current_range_meters":33600,"station_id":"ce4bhdp2rcd13ifvqf20","pricing_plan_id":"cebpf4jnsgd1na2vs0mg"},{"bike_id":"8a228f78-61f7-4381-9d75-70ccef72225a","system_id":"levelo_inurba_marseille","lat":43.32552,"lon":5.41443,"is_reserved":false,"is_disabled":false,"rental_uris":{"android":"levelo://app?vid=8a228f78-61f7-4381-9d75-70ccef72225a","ios":"levelo://app?vid=8a228f78-61f7-4381-9d75-70ccef72225a"},"vehicle_type_id":"4","last_reported":1727529215,"current_range_meters":21600,"station_id":"ce4bhq12rcd13ifvqhhg","pricing_plan_id":"cebpf4jnsgd1na2vs0mg"},{"bike_id":"3450e4f0-40d6-4bf2-94e4-869d42c20f30","system_id":"levelo_inurba_marseille","lat":43.24388,"lon":5.37053,"is_reserved":false,"is_disabled":false,"rental_uris":{"android":"levelo://app?vid=3450e4f0-40d6-4bf2-94e4-869d42c20f30","ios":"levelo://app?vid=3450e4f0-40d6-4bf2-94e4-869d42c20f30"},"vehicle_type_id":"4","last_reported":1727529215,"current_range_meters":8000,"station_id":"ce4bhhh2rcd13ifvqfk0","pricing_plan_id":"cebpf4jnsgd1na2vs0mg"},{"bike_id":"ed8c0c2a-49b2-4987-a9ba-4dd1ce890fe6","system_id":"levelo_inurba_marseille","lat":43.2971,"lon":5.37688,"is_reserved":false,"is_disabled":false,"rental_uris":{"android":"levelo://app?vid=ed8c0c2a-49b2-4987-a9ba-4dd1ce890fe6","ios":"levelo://app?vid=ed8c0c2a-49b2-4987-a9ba-4dd1ce890fe6"},"vehicle_type_id":"4","last_reported":1727529215,"current_range_meters":38800,"station_id":"ce4bgkh2rcd13ifvqbl0","pricing_plan_id":"cebpf4jnsgd1na2vs0mg"},{"bike_id":"9a5d193c-7565-4d77-b174-f67dc108ff4a","system_id":"levelo_inurba_marseille","lat":43.2481,"lon":5.37455,"is_reserved":false,"is_disabled":false,"rental_uris":{"android":"levelo://app?vid=9a5d193c-7565-4d77-b174-f67dc108ff4a","ios":"levelo://app?vid=9a5d193c-7565-4d77-b174-f67dc108ff4a"},"vehicle_type_id":"4","last_reported":1727529215,"current_range_meters":32400,"station_id":"ce4bhgh2rcd13ifvqfb0","pricing_plan_id":"cebpf4jnsgd1na2vs0mg"},{"bike_id":"99bb6fa2-89c2-4568-9c0a-689af12c3ce7","system_id":"levelo_inurba_marseille","lat":43.27321,"lon":5.39084,"is_reserved":false,"is_disabled":false,"rental_uris":{"android":"levelo://app?vid=99bb6fa2-89c2-4568-9c0a-689af12c3ce7","ios":"levelo://app?vid=99bb6fa2-89c2-4568-9c0a-689af12c3ce7"},"vehicle_type_id":"4","last_reported":1727529215,"current_range_meters":38000,"station_id":"ce4bhgp2rcd13ifvqfe0","pricing_plan_id":"cebpf4jnsgd1na2vs0mg"},{"bike_id":"cd3c1cbc-a54e-4b37-b2b2-65225ae29bd6","system_id":"levelo_inurba_marseille","lat":43.30152,"lon":5.38076,"is_reserved":false,"is_disabled":false,"rental_uris":{"android":"levelo://app?vid=cd3c1cbc-a54e-4b37-b2b2-65225ae29bd6","ios":"levelo://app?vid=cd3c1cbc-a54e-4b37-b2b2-65225ae29bd6"},"vehicle_type_id":"4","last_reported":1727529215,"current_range_meters":32800,"station_id":"ce4bgjp2rcd13ifvqbh0","pricing_plan_id":"cebpf4jnsgd1na2vs0mg"},{"bike_id":"6bbe7017-d8c4-4797-9de4-8c9de6239e13","system_id":"levelo_inurba_marseille","lat":43.25004,"lon":5.38924,"is_reserved":false,"is_disabled":false,"rental_uris":{"android":"levelo://app?vid=6bbe7017-d8c4-4797-9de4-8c9de6239e13","ios":"levelo://app?vid=6bbe7017-d8c4-4797-9de4-8c9de6239e13"},"vehicle_type_id":"4","last_reported":1727529215,"current_range_meters":35600,"station_id":"ce4bhgp2rcd13ifvqfd0","pricing_plan_id":"cebpf4jnsgd1na2vs0mg"},{"bike_id":"fec4f7d1-eedb-46ff-86ff-e7ee27d768ef","system_id":"levelo_inurba_marseille","lat":43.29915,"lon":5.37465,"is_reserved":false,"is_disabled":false,"rental_uris":{"android":"levelo://app?vid=fec4f7d1-eedb-46ff-86ff-e7ee27d768ef","ios":"levelo://app?vid=fec4f7d1-eedb-46ff-86ff-e7ee27d768ef"},"vehicle_type_id":"4","last_reported":1727529215,"current_range_meters":37600,"station_id":"ce4bgjh2rcd13ifvqbg0","pricing_plan_id":"cebpf4jnsgd1na2vs0mg"},{"bike_id":"213798cd-868b-4645-9f63-ee4ea158b5ae","system_id":"levelo_inurba_marseille","lat":43.2988,"lon":5.39728,"is_reserved":false,"is_disabled":false,"rental_uris":{"android":"levelo://app?vid=213798cd-868b-4645-9f63-ee4ea158b5ae","ios":"levelo://app?vid=213798cd-868b-4645-9f63-ee4ea158b5ae"},"vehicle_type_id":"4","last_reported":1727529215,"current_range_meters":16800,"station_id":"ce4bh0h2rcd13ifvqd50","pricing_plan_id":"cebpf4jnsgd1na2vs0mg"},{"bike_id":"3b170ecf-4bbb-421f-886d-94818fba1de8","system_id":"levelo_inurba_marseille","lat":43.28479,"lon":5.39995,"is_reserved":false,"is_disabled":false,"rental_uris":{"android":"levelo://app?vid=3b170ecf-4bbb-421f-886d-94818fba1de8","ios":"levelo://app?vid=3b170ecf-4bbb-421f-886d-94818fba1de8"},"vehicle_type_id":"4","last_reported":1727529215,"current_range_meters":37600,"station_id":"ce4bh2h2rcd13ifvqdh0","pricing_plan_id":"cebpf4jnsgd1na2vs0mg"},{"bike_id":"a352d782-a71e-4afa-b7a0-5a11c32e90eb","system_id":"levelo_inurba_marseille","lat":43.23969,"lon":5.36633,"is_reserved":false,"is_disabled":false,"rental_uris":{"android":"levelo://app?vid=a352d782-a71e-4afa-b7a0-5a11c32e90eb","ios":"levelo://app?vid=a352d782-a71e-4afa-b7a0-5a11c32e90eb"},"vehicle_type_id":"4","last_reported":1727529215,"current_range_meters":21600,"station_id":"ce4bhi12rcd13ifvqfp0","pricing_plan_id":"cebpf4jnsgd1na2vs0mg"},{"bike_id":"e0301365-85c0-4569-803d-cc80bc9071a6","system_id":"levelo_inurba_marseille","lat":43.33745,"lon":5.37448,"is_reserved":false,"is_disabled":false,"rental_uris":{"android":"levelo://app?vid=e0301365-85c0-4569-803d-cc80bc9071a6","ios":"levelo://app?vid=e0301365-85c0-4569-803d-cc80bc9071a6"},"vehicle_type_id":"4","last_reported":1727529215,"current_range_meters":38800,"station_id":"","pricing_plan_id":"cebpf4jnsgd1na2vs0mg"},{"bike_id":"16c8cd94-3673-47b3-ba21-cc467bc79683","system_id":"levelo_inurba_marseille","lat":43.3135,"lon":5.36704,"is_reserved":false,"is_disabled":false,"rental_uris":{"android":"levelo://app?vid=16c8cd94-3673-47b3-ba21-cc467bc79683","ios":"levelo://app?vid=16c8cd94-3673-47b3-ba21-cc467bc79683"},"vehicle_type_id":"4","last_reported":1727529215,"current_range_meters":38800,"station_id":"ce4bgr92rcd13ifvqc6g","pricing_plan_id":"cebpf4jnsgd1na2vs0mg"},{"bike_id":"1b5c59f8-89a9-4e46-93f7-af2461aa251a","system_id":"levelo_inurba_marseille","lat":43.23969,"lon":5.36616,"is_reserved":false,"is_disabled":false,"rental_uris":{"android":"levelo://app?vid=1b5c59f8-89a9-4e46-93f7-af2461aa251a","ios":"levelo://app?vid=1b5c59f8-89a9-4e46-93f7-af2461aa251a"},"vehicle_type_id":"4","last_reported":1727529215,"current_range_meters":10000,"station_id":"ce4bhi12rcd13ifvqfp0","pricing_plan_id":"cebpf4jnsgd1na2vs0mg"},{"bike_id":"796daf8e-b2fd-4f6e-9b76-2eafaa2a4160","system_id":"levelo_inurba_marseille","lat":43.30541,"lon":5.36697,"is_reserved":false,"is_disabled":false,"rental_uris":{"android":"levelo://app?vid=796daf8e-b2fd-4f6e-9b76-2eafaa2a4160","ios":"levelo://app?vid=796daf8e-b2fd-4f6e-9b76-2eafaa2a4160"},"vehicle_type_id":"4","last_reported":1727529215,"current_range_meters":6000,"station_id":"ce4bgrp2rcd13ifvqc9g","pricing_plan_id":"cebpf4jnsgd1na2vs0mg"},{"bike_id":"de712dca-eef3-49c0-8217-c5753198615c","system_id":"levelo_inurba_marseille","lat":43.28615,"lon":5.35103,"is_reserved":false,"is_disabled":false,"rental_uris":{"android":"levelo://app?vid=de712dca-eef3-49c0-8217-c5753198615c","ios":"levelo://app?vid=de712dca-eef3-49c0-8217-c5753198615c"},"vehicle_type_id":"4","last_reported":1727529215,"current_range_meters":8000,"station_id":"ce4bhch2rcd13ifvqeug","pricing_plan_id":"cebpf4jnsgd1na2vs0mg"},{"bike_id":"22047e69-a0e0-4954-9999-3783b8a6c14c","system_id":"levelo_inurba_marseille","lat":43.27914,"lon":5.38014,"is_reserved":false,"is_disabled":false,"rental_uris":{"android":"levelo://app?vid=22047e69-a0e0-4954-9999-3783b8a6c14c","ios":"levelo://app?vid=22047e69-a0e0-4954-9999-3783b8a6c14c"},"vehicle_type_id":"4","last_reported":1727529215,"current_range_meters":25200,"station_id":"ce4bhf92rcd13ifvqf50","pricing_plan_id":"cebpf4jnsgd1na2vs0mg"},{"bike_id":"28fd6afa-8ab7-494a-b25a-1a23b319519f","system_id":"levelo_inurba_marseille","lat":43.3171,"lon":5.43708,"is_reserved":false,"is_disabled":false,"rental_uris":{"android":"levelo://app?vid=28fd6afa-8ab7-494a-b25a-1a23b319519f","ios":"levelo://app?vid=28fd6afa-8ab7-494a-b25a-1a23b319519f"},"vehicle_type_id":"4","last_reported":1727529215,"current_range_meters":37600,"station_id":"ce4bhp92rcd13ifvqhcg","pricing_plan_id":"cebpf4jnsgd1na2vs0mg"},{"bike_id":"eb9354d6-b83c-4537-aa53-f96ed212763e","system_id":"levelo_inurba_marseille","lat":43.30001,"lon":5.38486,"is_reserved":false,"is_disabled":false,"rental_uris":{"android":"levelo://app?vid=eb9354d6-b83c-4537-aa53-f96ed212763e","ios":"levelo://app?vid=eb9354d6-b83c-4537-aa53-f96ed212763e"},"vehicle_type_id":"4","last_reported":1727529215,"current_range_meters":40000,"station_id":"ce4bgj92rcd13ifvqbd0","pricing_plan_id":"cebpf4jnsgd1na2vs0mg"},{"bike_id":"cf728546-b453-4bbe-a199-05de8a38e92b","system_id":"levelo_inurba_marseille","lat":43.29853,"lon":5.36275,"is_reserved":false,"is_disabled":false,"rental_uris":{"android":"levelo://app?vid=cf728546-b453-4bbe-a199-05de8a38e92b","ios":"levelo://app?vid=cf728546-b453-4bbe-a199-05de8a38e92b"},"vehicle_type_id":"4","last_reported":1727529215,"current_range_meters":11200,"station_id":"ce4bgpp2rcd13ifvqc3g","pricing_plan_id":"cebpf4jnsgd1na2vs0mg"},{"bike_id":"ae687e9a-7d30-4286-920b-e40b1122da1a","system_id":"levelo_inurba_marseille","lat":43.29843,"lon":5.36268,"is_reserved":false,"is_disabled":false,"rental_uris":{"android":"levelo://app?vid=ae687e9a-7d30-4286-920b-e40b1122da1a","ios":"levelo://app?vid=ae687e9a-7d30-4286-920b-e40b1122da1a"},"vehicle_type_id":"4","last_reported":1727529215,"current_range_meters":26000,"station_id":"ce4bgpp2rcd13ifvqc3g","pricing_plan_id":"cebpf4jnsgd1na2vs0mg"},{"bike_id":"10b41199-52cd-4253-8da3-21148a1b6740","system_id":"levelo_inurba_marseille","lat":43.30093,"lon":5.39084,"is_reserved":false,"is_disabled":false,"rental_uris":{"android":"levelo://app?vid=10b41199-52cd-4253-8da3-21148a1b6740","ios":"levelo://app?vid=10b41199-52cd-4253-8da3-21148a1b6740"},"vehicle_type_id":"4","last_reported":1727529215,"current_range_meters":32000,"station_id":"ce4bh192rcd13ifvqdb0","pricing_plan_id":"cebpf4jnsgd1na2vs0mg"},{"bike_id":"e78c4ff7-33d7-492b-ac2e-d92e494617c0","system_id":"levelo_inurba_marseille","lat":43.33752,"lon":5.37445,"is_reserved":false,"is_disabled":false,"rental_uris":{"android":"levelo://app?vid=e78c4ff7-33d7-492b-ac2e-d92e494617c0","ios":"levelo://app?vid=e78c4ff7-33d7-492b-ac2e-d92e494617c0"},"vehicle_type_id":"4","last_reported":1727529215,"current_range_meters":38800,"station_id":"","pricing_plan_id":"cebpf4jnsgd1na2vs0mg"},{"bike_id":"ca59ebc0-554d-4ad2-b332-4888acb3e74c","system_id":"levelo_inurba_marseille","lat":43.2315,"lon":5.43705,"is_reserved":false,"is_disabled":false,"rental_uris":{"android":"levelo://app?vid=ca59ebc0-554d-4ad2-b332-4888acb3e74c","ios":"levelo://app?vid=ca59ebc0-554d-4ad2-b332-4888acb3e74c"},"vehicle_type_id":"4","last_reported":1727529215,"current_range_meters":24400,"station_id":"ce4bhmp2rcd13ifvqgog","pricing_plan_id":"cebpf4jnsgd1na2vs0mg"},{"bike_id":"b7edec61-05a9-4448-8725-131f3fa0925d","system_id":"levelo_inurba_marseille","lat":43.30135,"lon":5.37425,"is_reserved":false,"is_disabled":false,"rental_uris":{"android":"levelo://app?vid=b7edec61-05a9-4448-8725-131f3fa0925d","ios":"levelo://app?vid=b7edec61-05a9-4448-8725-131f3fa0925d"},"vehicle_type_id":"4","last_reported":1727529215,"current_range_meters":39200,"station_id":"ce4bgs92rcd13ifvqcc0","pricing_plan_id":"cebpf4jnsgd1na2vs0mg"},{"bike_id":"1e4921a9-c805-4bc6-951c-ae242a9ef866","system_id":"levelo_inurba_marseille","lat":43.33604,"lon":5.41025,"is_reserved":false,"is_disabled":false,"rental_uris":{"android":"levelo://app?vid=1e4921a9-c805-4bc6-951c-ae242a9ef866","ios":"levelo://app?vid=1e4921a9-c805-4bc6-951c-ae242a9ef866"},"vehicle_type_id":"4","last_reported":1727529215,"current_range_meters":33600,"station_id":"ce4bhqh2rcd13ifvqhmg","pricing_plan_id":"cebpf4jnsgd1na2vs0mg"},{"bike_id":"a77af53a-0b46-4955-9bf5-8ef12f01c62e","system_id":"levelo_inurba_marseille","lat":43.25586,"lon":5.3823,"is_reserved":false,"is_disabled":false,"rental_uris":{"android":"levelo://app?vid=a77af53a-0b46-4955-9bf5-8ef12f01c62e","ios":"levelo://app?vid=a77af53a-0b46-4955-9bf5-8ef12f01c62e"},"vehicle_type_id":"4","last_reported":1727529215,"current_range_meters":26800,"station_id":"ce4bhih2rcd13ifvqfs0","pricing_plan_id":"cebpf4jnsgd1na2vs0mg"},{"bike_id":"ceda1303-8e1d-4d6f-8792-80ce6a3025d5","system_id":"levelo_inurba_marseille","lat":43.31709,"lon":5.43698,"is_reserved":false,"is_disabled":false,"rental_uris":{"android":"levelo://app?vid=ceda1303-8e1d-4d6f-8792-80ce6a3025d5","ios":"levelo://app?vid=ceda1303-8e1d-4d6f-8792-80ce6a3025d5"},"vehicle_type_id":"4","last_reported":1727529215,"current_range_meters":6400,"station_id":"ce4bhp92rcd13ifvqhcg","pricing_plan_id":"cebpf4jnsgd1na2vs0mg"},{"bike_id":"61e10d90-1bb9-4c62-abe7-5b2652018e77","system_id":"levelo_inurba_marseille","lat":43.30329,"lon":5.36907,"is_reserved":false,"is_disabled":false,"rental_uris":{"android":"levelo://app?vid=61e10d90-1bb9-4c62-abe7-5b2652018e77","ios":"levelo://app?vid=61e10d90-1bb9-4c62-abe7-5b2652018e77"},"vehicle_type_id":"4","last_reported":1727529215,"current_range_meters":36800,"station_id":"ce4bgqh2rcd13ifvqc5g","pricing_plan_id":"cebpf4jnsgd1na2vs0mg"},{"bike_id":"f1899dba-7fd8-4443-bc89-91fae46e0af2","system_id":"levelo_inurba_marseille","lat":43.30424,"lon":5.38883,"is_reserved":false,"is_disabled":false,"rental_uris":{"android":"levelo://app?vid=f1899dba-7fd8-4443-bc89-91fae46e0af2","ios":"levelo://app?vid=f1899dba-7fd8-4443-bc89-91fae46e0af2"},"vehicle_type_id":"4","last_reported":1727529215,"current_range_meters":19600,"station_id":"ce4bgk12rcd13ifvqbi0","pricing_plan_id":"cebpf4jnsgd1na2vs0mg"},{"bike_id":"8fdf9502-b4ec-4acd-9fca-fe33cf1aea14","system_id":"levelo_inurba_marseille","lat":43.31487,"lon":5.37296,"is_reserved":false,"is_disabled":false,"rental_uris":{"android":"levelo://app?vid=8fdf9502-b4ec-4acd-9fca-fe33cf1aea14","ios":"levelo://app?vid=8fdf9502-b4ec-4acd-9fca-fe33cf1aea14"},"vehicle_type_id":"4","last_reported":1727529215,"current_range_meters":24000,"station_id":"ce4bgt12rcd13ifvqcd0","pricing_plan_id":"cebpf4jnsgd1na2vs0mg"},{"bike_id":"c049a602-ba08-44c1-a4f9-1cbd185f086f","system_id":"levelo_inurba_marseille","lat":43.22946,"lon":5.35366,"is_reserved":false,"is_disabled":false,"rental_uris":{"android":"levelo://app?vid=c049a602-ba08-44c1-a4f9-1cbd185f086f","ios":"levelo://app?vid=c049a602-ba08-44c1-a4f9-1cbd185f086f"},"vehicle_type_id":"4","last_reported":1727529215,"current_range_meters":4800,"station_id":"cpo3532slgdg3j2ikp40","pricing_plan_id":"cebpf4jnsgd1na2vs0mg"},{"bike_id":"2617c06e-e17f-43d0-bd86-b5a25b7cd217","system_id":"levelo_inurba_marseille","lat":43.27426,"lon":5.39408,"is_reserved":false,"is_disabled":false,"rental_uris":{"android":"levelo://app?vid=2617c06e-e17f-43d0-bd86-b5a25b7cd217","ios":"levelo://app?vid=2617c06e-e17f-43d0-bd86-b5a25b7cd217"},"vehicle_type_id":"4","last_reported":1727529215,"current_range_meters":8400,"station_id":"ce4bhdp2rcd13ifvqf20","pricing_plan_id":"cebpf4jnsgd1na2vs0mg"},{"bike_id":"04b6177d-c575-4b6e-8490-63c3c4fcb2fb","system_id":"levelo_inurba_marseille","lat":43.29851,"lon":5.36287,"is_reserved":false,"is_disabled":false,"rental_uris":{"android":"levelo://app?vid=04b6177d-c575-4b6e-8490-63c3c4fcb2fb","ios":"levelo://app?vid=04b6177d-c575-4b6e-8490-63c3c4fcb2fb"},"vehicle_type_id":"4","last_reported":1727529215,"current_range_meters":26000,"station_id":"ce4bgpp2rcd13ifvqc3g","pricing_plan_id":"cebpf4jnsgd1na2vs0mg"},{"bike_id":"9f47e62f-f1e8-4701-9434-af72f53505bc","system_id":"levelo_inurba_marseille","lat":43.26193,"lon":5.37446,"is_reserved":false,"is_disabled":false,"rental_uris":{"android":"levelo://app?vid=9f47e62f-f1e8-4701-9434-af72f53505bc","ios":"levelo://app?vid=9f47e62f-f1e8-4701-9434-af72f53505bc"},"vehicle_type_id":"4","last_reported":1727529215,"current_range_meters":23200,"station_id":"ce4bhgp2rcd13ifvqfc0","pricing_plan_id":"cebpf4jnsgd1na2vs0mg"},{"bike_id":"063bbd6f-5d09-4418-8bbc-24cbd88cc1c7","system_id":"levelo_inurba_marseille","lat":43.299,"lon":5.43661,"is_reserved":false,"is_disabled":false,"rental_uris":{"android":"levelo://app?vid=063bbd6f-5d09-4418-8bbc-24cbd88cc1c7","ios":"levelo://app?vid=063bbd6f-5d09-4418-8bbc-24cbd88cc1c7"},"vehicle_type_id":"4","last_reported":1727529215,"current_range_meters":22400,"station_id":"ce4bhpp2rcd13ifvqhfg","pricing_plan_id":"cebpf4jnsgd1na2vs0mg"},{"bike_id":"48e17e1b-d55c-4e61-bac2-73297c1324ef","system_id":"levelo_inurba_marseille","lat":43.28422,"lon":5.34993,"is_reserved":false,"is_disabled":false,"rental_uris":{"android":"levelo://app?vid=48e17e1b-d55c-4e61-bac2-73297c1324ef","ios":"levelo://app?vid=48e17e1b-d55c-4e61-bac2-73297c1324ef"},"vehicle_type_id":"4","last_reported":1727529215,"current_range_meters":13600,"station_id":"ce4bhbh2rcd13ifvqepg","pricing_plan_id":"cebpf4jnsgd1na2vs0mg"},{"bike_id":"237be906-f998-4448-9588-92ef953a4d82","system_id":"levelo_inurba_marseille","lat":43.24168,"lon":5.36383,"is_reserved":false,"is_disabled":false,"rental_uris":{"android":"levelo://app?vid=237be906-f998-4448-9588-92ef953a4d82","ios":"levelo://app?vid=237be906-f998-4448-9588-92ef953a4d82"},"vehicle_type_id":"4","last_reported":1727529215,"current_range_meters":31200,"station_id":"cpo36qri1sfpv3e86is0","pricing_plan_id":"cebpf4jnsgd1na2vs0mg"},{"bike_id":"8ce4806c-bb9d-4fca-8f7a-c7ad41f52108","system_id":"levelo_inurba_marseille","lat":43.30154,"lon":5.38076,"is_reserved":false,"is_disabled":false,"rental_uris":{"android":"levelo://app?vid=8ce4806c-bb9d-4fca-8f7a-c7ad41f52108","ios":"levelo://app?vid=8ce4806c-bb9d-4fca-8f7a-c7ad41f52108"},"vehicle_type_id":"4","last_reported":1727529215,"current_range_meters":18000,"station_id":"ce4bgjp2rcd13ifvqbh0","pricing_plan_id":"cebpf4jnsgd1na2vs0mg"},{"bike_id":"9efdf05c-571e-4c3a-a0bf-af0e0fbc032d","system_id":"levelo_inurba_marseille","lat":43.2509,"lon":5.39532,"is_reserved":false,"is_disabled":false,"rental_uris":{"android":"levelo://app?vid=9efdf05c-571e-4c3a-a0bf-af0e0fbc032d","ios":"levelo://app?vid=9efdf05c-571e-4c3a-a0bf-af0e0fbc032d"},"vehicle_type_id":"4","last_reported":1727529215,"current_range_meters":24800,"station_id":"ce4bhm12rcd13ifvqgkg","pricing_plan_id":"cebpf4jnsgd1na2vs0mg"},{"bike_id":"d31f8daa-636d-44cc-87f9-977814eb38d0","system_id":"levelo_inurba_marseille","lat":43.3055,"lon":5.36706,"is_reserved":false,"is_disabled":false,"rental_uris":{"android":"levelo://app?vid=d31f8daa-636d-44cc-87f9-977814eb38d0","ios":"levelo://app?vid=d31f8daa-636d-44cc-87f9-977814eb38d0"},"vehicle_type_id":"4","last_reported":1727529215,"current_range_meters":25600,"station_id":"ce4bgrp2rcd13ifvqc9g","pricing_plan_id":"cebpf4jnsgd1na2vs0mg"},{"bike_id":"9610d031-6ab6-41d0-9007-a7cafd878ca5","system_id":"levelo_inurba_marseille","lat":43.30882,"lon":5.3964,"is_reserved":false,"is_disabled":false,"rental_uris":{"android":"levelo://app?vid=9610d031-6ab6-41d0-9007-a7cafd878ca5","ios":"levelo://app?vid=9610d031-6ab6-41d0-9007-a7cafd878ca5"},"vehicle_type_id":"4","last_reported":1727529215,"current_range_meters":38000,"station_id":"ce4bh012rcd13ifvqcv0","pricing_plan_id":"cebpf4jnsgd1na2vs0mg"},{"bike_id":"dead5596-4944-4785-b8f7-33b9d143839f","system_id":"levelo_inurba_marseille","lat":43.29907,"lon":5.37466,"is_reserved":false,"is_disabled":false,"rental_uris":{"android":"levelo://app?vid=dead5596-4944-4785-b8f7-33b9d143839f","ios":"levelo://app?vid=dead5596-4944-4785-b8f7-33b9d143839f"},"vehicle_type_id":"4","last_reported":1727529215,"current_range_meters":4800,"station_id":"ce4bgjh2rcd13ifvqbg0","pricing_plan_id":"cebpf4jnsgd1na2vs0mg"},{"bike_id":"01d4abc2-903e-40cc-b81c-2126e2ac9cd6","system_id":"levelo_inurba_marseille","lat":43.29991,"lon":5.38486,"is_reserved":false,"is_disabled":false,"rental_uris":{"android":"levelo://app?vid=01d4abc2-903e-40cc-b81c-2126e2ac9cd6","ios":"levelo://app?vid=01d4abc2-903e-40cc-b81c-2126e2ac9cd6"},"vehicle_type_id":"4","last_reported":1727529215,"current_range_meters":38000,"station_id":"ce4bgj92rcd13ifvqbd0","pricing_plan_id":"cebpf4jnsgd1na2vs0mg"},{"bike_id":"e9776310-b20e-4114-a6b6-30f9f0cfe653","system_id":"levelo_inurba_marseille","lat":43.2603,"lon":5.37545,"is_reserved":false,"is_disabled":false,"rental_uris":{"android":"levelo://app?vid=e9776310-b20e-4114-a6b6-30f9f0cfe653","ios":"levelo://app?vid=e9776310-b20e-4114-a6b6-30f9f0cfe653"},"vehicle_type_id":"4","last_reported":1727529215,"current_range_meters":37600,"station_id":"ce4bhgh2rcd13ifvqfa0","pricing_plan_id":"cebpf4jnsgd1na2vs0mg"},{"bike_id":"a0cf0711-157c-449c-94cf-0a1a9cd05cb8","system_id":"levelo_inurba_marseille","lat":43.29619,"lon":5.37735,"is_reserved":false,"is_disabled":false,"rental_uris":{"android":"levelo://app?vid=a0cf0711-157c-449c-94cf-0a1a9cd05cb8","ios":"levelo://app?vid=a0cf0711-157c-449c-94cf-0a1a9cd05cb8"},"vehicle_type_id":"4","last_reported":1727529215,"current_range_meters":22800,"station_id":"ce4bgi92rcd13ifvqb90","pricing_plan_id":"cebpf4jnsgd1na2vs0mg"},{"bike_id":"0701cf2a-674c-4c9d-af1e-6650acbaaf74","system_id":"levelo_inurba_marseille","lat":43.28388,"lon":5.37295,"is_reserved":false,"is_disabled":false,"rental_uris":{"android":"levelo://app?vid=0701cf2a-674c-4c9d-af1e-6650acbaaf74","ios":"levelo://app?vid=0701cf2a-674c-4c9d-af1e-6650acbaaf74"},"vehicle_type_id":"4","last_reported":1727529215,"current_range_meters":16400,"station_id":"","pricing_plan_id":"cebpf4jnsgd1na2vs0mg"},{"bike_id":"50a2aa03-c971-4b07-8ea1-bda0410fcda4","system_id":"levelo_inurba_marseille","lat":43.27891,"lon":5.37996,"is_reserved":false,"is_disabled":false,"rental_uris":{"android":"levelo://app?vid=50a2aa03-c971-4b07-8ea1-bda0410fcda4","ios":"levelo://app?vid=50a2aa03-c971-4b07-8ea1-bda0410fcda4"},"vehicle_type_id":"4","last_reported":1727529215,"current_range_meters":38800,"station_id":"ce4bhf92rcd13ifvqf50","pricing_plan_id":"cebpf4jnsgd1na2vs0mg"},{"bike_id":"48dd8be6-53cb-4e56-80e9-0a26cb8e43ce","system_id":"levelo_inurba_marseille","lat":43.28153,"lon":5.42648,"is_reserved":false,"is_disabled":false,"rental_uris":{"android":"levelo://app?vid=48dd8be6-53cb-4e56-80e9-0a26cb8e43ce","ios":"levelo://app?vid=48dd8be6-53cb-4e56-80e9-0a26cb8e43ce"},"vehicle_type_id":"4","last_reported":1727529215,"current_range_meters":33600,"station_id":"ce4bhnh2rcd13ifvqgug","pricing_plan_id":"cebpf4jnsgd1na2vs0mg"},{"bike_id":"944abcbc-9d49-4c5a-943a-82a9da71179a","system_id":"levelo_inurba_marseille","lat":43.29875,"lon":5.39715,"is_reserved":false,"is_disabled":false,"rental_uris":{"android":"levelo://app?vid=944abcbc-9d49-4c5a-943a-82a9da71179a","ios":"levelo://app?vid=944abcbc-9d49-4c5a-943a-82a9da71179a"},"vehicle_type_id":"4","last_reported":1727529215,"current_range_meters":38400,"station_id":"ce4bh0h2rcd13ifvqd50","pricing_plan_id":"cebpf4jnsgd1na2vs0mg"},{"bike_id":"67e26a28-a608-484a-bbbd-32103290f861","system_id":"levelo_inurba_marseille","lat":43.27369,"lon":5.36247,"is_reserved":false,"is_disabled":false,"rental_uris":{"android":"levelo://app?vid=67e26a28-a608-484a-bbbd-32103290f861","ios":"levelo://app?vid=67e26a28-a608-484a-bbbd-32103290f861"},"vehicle_type_id":"4","last_reported":1727529215,"current_range_meters":29600,"station_id":"ce4bhbh2rcd13ifvqeo0","pricing_plan_id":"cebpf4jnsgd1na2vs0mg"},{"bike_id":"12f9708b-78a7-44bf-89fc-9bc5a8dcadce","system_id":"levelo_inurba_marseille","lat":43.28112,"lon":5.37835,"is_reserved":false,"is_disabled":false,"rental_uris":{"android":"levelo://app?vid=12f9708b-78a7-44bf-89fc-9bc5a8dcadce","ios":"levelo://app?vid=12f9708b-78a7-44bf-89fc-9bc5a8dcadce"},"vehicle_type_id":"4","last_reported":1727529215,"current_range_meters":27200,"station_id":"ce4bha12rcd13ifvqee0","pricing_plan_id":"cebpf4jnsgd1na2vs0mg"},{"bike_id":"95364ece-b50d-4d17-85b4-b8a5ecc6db15","system_id":"levelo_inurba_marseille","lat":43.29557,"lon":5.42293,"is_reserved":false,"is_disabled":false,"rental_uris":{"android":"levelo://app?vid=95364ece-b50d-4d17-85b4-b8a5ecc6db15","ios":"levelo://app?vid=95364ece-b50d-4d17-85b4-b8a5ecc6db15"},"vehicle_type_id":"4","last_reported":1727529215,"current_range_meters":35200,"station_id":"ce4bhph2rcd13ifvqhdg","pricing_plan_id":"cebpf4jnsgd1na2vs0mg"},{"bike_id":"001dcef2-87f7-4b07-bfe4-c5e01ebeebf7","system_id":"levelo_inurba_marseille","lat":43.23965,"lon":5.36618,"is_reserved":false,"is_disabled":false,"rental_uris":{"android":"levelo://app?vid=001dcef2-87f7-4b07-bfe4-c5e01ebeebf7","ios":"levelo://app?vid=001dcef2-87f7-4b07-bfe4-c5e01ebeebf7"},"vehicle_type_id":"4","last_reported":1727529215,"current_range_meters":22400,"station_id":"ce4bhi12rcd13ifvqfp0","pricing_plan_id":"cebpf4jnsgd1na2vs0mg"},{"bike_id":"847f1262-bb33-46f8-9dff-0ff3abb68d40","system_id":"levelo_inurba_marseille","lat":43.27196,"lon":5.39192,"is_reserved":false,"is_disabled":false,"rental_uris":{"android":"levelo://app?vid=847f1262-bb33-46f8-9dff-0ff3abb68d40","ios":"levelo://app?vid=847f1262-bb33-46f8-9dff-0ff3abb68d40"},"vehicle_type_id":"4","last_reported":1727529215,"current_range_meters":15200,"station_id":"ce4bhhp2rcd13ifvqfm0","pricing_plan_id":"cebpf4jnsgd1na2vs0mg"},{"bike_id":"6cdca13d-24d1-4302-912a-54d18c748242","system_id":"levelo_inurba_marseille","lat":43.31083,"lon":5.40132,"is_reserved":false,"is_disabled":false,"rental_uris":{"android":"levelo://app?vid=6cdca13d-24d1-4302-912a-54d18c748242","ios":"levelo://app?vid=6cdca13d-24d1-4302-912a-54d18c748242"},"vehicle_type_id":"4","last_reported":1727529215,"current_range_meters":9200,"station_id":"","pricing_plan_id":"cebpf4jnsgd1na2vs0mg"},{"bike_id":"cf3a4ee4-c9d3-4ea3-ae0b-b5b4c90d13af","system_id":"levelo_inurba_marseille","lat":43.2985,"lon":5.36286,"is_reserved":false,"is_disabled":false,"rental_uris":{"android":"levelo://app?vid=cf3a4ee4-c9d3-4ea3-ae0b-b5b4c90d13af","ios":"levelo://app?vid=cf3a4ee4-c9d3-4ea3-ae0b-b5b4c90d13af"},"vehicle_type_id":"4","last_reported":1727529215,"current_range_meters":16000,"station_id":"ce4bgpp2rcd13ifvqc3g","pricing_plan_id":"cebpf4jnsgd1na2vs0mg"},{"bike_id":"1ec7b420-cf07-48bd-9791-3045d4aa7e5d","system_id":"levelo_inurba_marseille","lat":43.29298,"lon":5.37464,"is_reserved":false,"is_disabled":false,"rental_uris":{"android":"levelo://app?vid=1ec7b420-cf07-48bd-9791-3045d4aa7e5d","ios":"levelo://app?vid=1ec7b420-cf07-48bd-9791-3045d4aa7e5d"},"vehicle_type_id":"4","last_reported":1727529215,"current_range_meters":38000,"station_id":"ce4bgi12rcd13ifvqb70","pricing_plan_id":"cebpf4jnsgd1na2vs0mg"},{"bike_id":"35b0a98b-b8a0-468a-9dc2-2db06ca6ca0a","system_id":"levelo_inurba_marseille","lat":43.33743,"lon":5.37449,"is_reserved":false,"is_disabled":false,"rental_uris":{"android":"levelo://app?vid=35b0a98b-b8a0-468a-9dc2-2db06ca6ca0a","ios":"levelo://app?vid=35b0a98b-b8a0-468a-9dc2-2db06ca6ca0a"},"vehicle_type_id":"4","last_reported":1727529215,"current_range_meters":38800,"station_id":"","pricing_plan_id":"cebpf4jnsgd1na2vs0mg"},{"bike_id":"80772028-8c3e-4d06-b5a5-47d20bb2da13","system_id":"levelo_inurba_marseille","lat":43.30544,"lon":5.36689,"is_reserved":false,"is_disabled":false,"rental_uris":{"android":"levelo://app?vid=80772028-8c3e-4d06-b5a5-47d20bb2da13","ios":"levelo://app?vid=80772028-8c3e-4d06-b5a5-47d20bb2da13"},"vehicle_type_id":"4","last_reported":1727529215,"current_range_meters":39200,"station_id":"ce4bgrp2rcd13ifvqc9g","pricing_plan_id":"cebpf4jnsgd1na2vs0mg"},{"bike_id":"449c7942-5c04-417b-b87c-c0cf734e42d7","system_id":"levelo_inurba_marseille","lat":43.27943,"lon":5.4104,"is_reserved":false,"is_disabled":false,"rental_uris":{"android":"levelo://app?vid=449c7942-5c04-417b-b87c-c0cf734e42d7","ios":"levelo://app?vid=449c7942-5c04-417b-b87c-c0cf734e42d7"},"vehicle_type_id":"4","last_reported":1727529215,"current_range_meters":32400,"station_id":"ce4bhnp2rcd13ifvqh0g","pricing_plan_id":"cebpf4jnsgd1na2vs0mg"},{"bike_id":"da2e7afb-45a7-4193-9960-716c0aa1657b","system_id":"levelo_inurba_marseille","lat":43.322885,"lon":5.38259,"is_reserved":false,"is_disabled":false,"rental_uris":{"android":"levelo://app?vid=da2e7afb-45a7-4193-9960-716c0aa1657b","ios":"levelo://app?vid=da2e7afb-45a7-4193-9960-716c0aa1657b"},"vehicle_type_id":"4","last_reported":1727529215,"current_range_meters":38800,"station_id":"ce4bhr12rcd13ifvqhqg","pricing_plan_id":"cebpf4jnsgd1na2vs0mg"},{"bike_id":"384c14c9-0f2e-4c1f-9c3e-f397b7018d01","system_id":"levelo_inurba_marseille","lat":43.27317,"lon":5.39067,"is_reserved":false,"is_disabled":false,"rental_uris":{"android":"levelo://app?vid=384c14c9-0f2e-4c1f-9c3e-f397b7018d01","ios":"levelo://app?vid=384c14c9-0f2e-4c1f-9c3e-f397b7018d01"},"vehicle_type_id":"4","last_reported":1727529215,"current_range_meters":36800,"station_id":"ce4bhgp2rcd13ifvqfe0","pricing_plan_id":"cebpf4jnsgd1na2vs0mg"},{"bike_id":"014f7155-adb5-402d-89b1-c1e440893e72","system_id":"levelo_inurba_marseille","lat":43.30943,"lon":5.40139,"is_reserved":false,"is_disabled":false,"rental_uris":{"android":"levelo://app?vid=014f7155-adb5-402d-89b1-c1e440893e72","ios":"levelo://app?vid=014f7155-adb5-402d-89b1-c1e440893e72"},"vehicle_type_id":"4","last_reported":1727529215,"current_range_meters":38800,"station_id":"ce4bgvp2rcd13ifvqct0","pricing_plan_id":"cebpf4jnsgd1na2vs0mg"},{"bike_id":"20478dbf-cd74-47ee-8ce9-9975fcfd7a70","system_id":"levelo_inurba_marseille","lat":43.23067,"lon":5.35488,"is_reserved":false,"is_disabled":false,"rental_uris":{"android":"levelo://app?vid=20478dbf-cd74-47ee-8ce9-9975fcfd7a70","ios":"levelo://app?vid=20478dbf-cd74-47ee-8ce9-9975fcfd7a70"},"vehicle_type_id":"4","last_reported":1727529215,"current_range_meters":6000,"station_id":"cpo3342slgdg3j2ifvpg","pricing_plan_id":"cebpf4jnsgd1na2vs0mg"},{"bike_id":"dbab5e16-0de9-4389-932d-06a62d667144","system_id":"levelo_inurba_marseille","lat":43.25826,"lon":5.39416,"is_reserved":false,"is_disabled":false,"rental_uris":{"android":"levelo://app?vid=dbab5e16-0de9-4389-932d-06a62d667144","ios":"levelo://app?vid=dbab5e16-0de9-4389-932d-06a62d667144"},"vehicle_type_id":"4","last_reported":1727529215,"current_range_meters":36800,"station_id":"ce4bhip2rcd13ifvqft0","pricing_plan_id":"cebpf4jnsgd1na2vs0mg"},{"bike_id":"3be694ed-43c6-496f-bf19-86269bbf51e6","system_id":"levelo_inurba_marseille","lat":43.30186,"lon":5.36609,"is_reserved":false,"is_disabled":false,"rental_uris":{"android":"levelo://app?vid=3be694ed-43c6-496f-bf19-86269bbf51e6","ios":"levelo://app?vid=3be694ed-43c6-496f-bf19-86269bbf51e6"},"vehicle_type_id":"4","last_reported":1727529215,"current_range_meters":37600,"station_id":"ce4bgrh2rcd13ifvqc8g","pricing_plan_id":"cebpf4jnsgd1na2vs0mg"},{"bike_id":"3407da71-e9f5-4375-9956-506983640a2f","system_id":"levelo_inurba_marseille","lat":43.28985,"lon":5.37584,"is_reserved":false,"is_disabled":false,"rental_uris":{"android":"levelo://app?vid=3407da71-e9f5-4375-9956-506983640a2f","ios":"levelo://app?vid=3407da71-e9f5-4375-9956-506983640a2f"},"vehicle_type_id":"4","last_reported":1727529215,"current_range_meters":28400,"station_id":"","pricing_plan_id":"cebpf4jnsgd1na2vs0mg"},{"bike_id":"d8ca1020-403a-4b46-8389-834c7df644ff","system_id":"levelo_inurba_marseille","lat":43.2961,"lon":5.37727,"is_reserved":false,"is_disabled":false,"rental_uris":{"android":"levelo://app?vid=d8ca1020-403a-4b46-8389-834c7df644ff","ios":"levelo://app?vid=d8ca1020-403a-4b46-8389-834c7df644ff"},"vehicle_type_id":"4","last_reported":1727529215,"current_range_meters":38400,"station_id":"ce4bgi92rcd13ifvqb90","pricing_plan_id":"cebpf4jnsgd1na2vs0mg"},{"bike_id":"1a8d3655-cb12-4df1-9d84-5cc02d9b67d1","system_id":"levelo_inurba_marseille","lat":43.31225,"lon":5.3685,"is_reserved":false,"is_disabled":false,"rental_uris":{"android":"levelo://app?vid=1a8d3655-cb12-4df1-9d84-5cc02d9b67d1","ios":"levelo://app?vid=1a8d3655-cb12-4df1-9d84-5cc02d9b67d1"},"vehicle_type_id":"4","last_reported":1727529215,"current_range_meters":4800,"station_id":"ce4bgl92rcd13ifvqbq0","pricing_plan_id":"cebpf4jnsgd1na2vs0mg"},{"bike_id":"eefb89b4-7a7e-4740-a7d1-fe0ccd86da98","system_id":"levelo_inurba_marseille","lat":43.29721,"lon":5.36606,"is_reserved":false,"is_disabled":false,"rental_uris":{"android":"levelo://app?vid=eefb89b4-7a7e-4740-a7d1-fe0ccd86da98","ios":"levelo://app?vid=eefb89b4-7a7e-4740-a7d1-fe0ccd86da98"},"vehicle_type_id":"4","last_reported":1727529215,"current_range_meters":6000,"station_id":"ce4bgn12rcd13ifvqbt0","pricing_plan_id":"cebpf4jnsgd1na2vs0mg"},{"bike_id":"2fe487ef-353e-4bce-9915-eb8738ef0565","system_id":"levelo_inurba_marseille","lat":43.24803,"lon":5.37451,"is_reserved":false,"is_disabled":false,"rental_uris":{"android":"levelo://app?vid=2fe487ef-353e-4bce-9915-eb8738ef0565","ios":"levelo://app?vid=2fe487ef-353e-4bce-9915-eb8738ef0565"},"vehicle_type_id":"4","last_reported":1727529215,"current_range_meters":9200,"station_id":"ce4bhgh2rcd13ifvqfb0","pricing_plan_id":"cebpf4jnsgd1na2vs0mg"},{"bike_id":"65768cd7-63c4-42bd-95bb-2f7bc170252f","system_id":"levelo_inurba_marseille","lat":43.29845,"lon":5.36275,"is_reserved":false,"is_disabled":false,"rental_uris":{"android":"levelo://app?vid=65768cd7-63c4-42bd-95bb-2f7bc170252f","ios":"levelo://app?vid=65768cd7-63c4-42bd-95bb-2f7bc170252f"},"vehicle_type_id":"4","last_reported":1727529215,"current_range_meters":40000,"station_id":"ce4bgpp2rcd13ifvqc3g","pricing_plan_id":"cebpf4jnsgd1na2vs0mg"},{"bike_id":"524a2999-0372-4c6d-a795-f1462f3e65ba","system_id":"levelo_inurba_marseille","lat":43.28413,"lon":5.37493,"is_reserved":false,"is_disabled":false,"rental_uris":{"android":"levelo://app?vid=524a2999-0372-4c6d-a795-f1462f3e65ba","ios":"levelo://app?vid=524a2999-0372-4c6d-a795-f1462f3e65ba"},"vehicle_type_id":"4","last_reported":1727529215,"current_range_meters":24400,"station_id":"ce4bh412rcd13ifvqds0","pricing_plan_id":"cebpf4jnsgd1na2vs0mg"},{"bike_id":"d703b53a-39bf-4264-9a6c-1cec8b9f3da4","system_id":"levelo_inurba_marseille","lat":43.28614,"lon":5.35102,"is_reserved":false,"is_disabled":false,"rental_uris":{"android":"levelo://app?vid=d703b53a-39bf-4264-9a6c-1cec8b9f3da4","ios":"levelo://app?vid=d703b53a-39bf-4264-9a6c-1cec8b9f3da4"},"vehicle_type_id":"4","last_reported":1727529215,"current_range_meters":26000,"station_id":"ce4bhch2rcd13ifvqeug","pricing_plan_id":"cebpf4jnsgd1na2vs0mg"},{"bike_id":"b25975a2-4789-471d-bf7d-ec59dfff3ec3","system_id":"levelo_inurba_marseille","lat":43.2953,"lon":5.3749,"is_reserved":false,"is_disabled":false,"rental_uris":{"android":"levelo://app?vid=b25975a2-4789-471d-bf7d-ec59dfff3ec3","ios":"levelo://app?vid=b25975a2-4789-471d-bf7d-ec59dfff3ec3"},"vehicle_type_id":"4","last_reported":1727529215,"current_range_meters":18000,"station_id":"ce4bgkp2rcd13ifvqbmg","pricing_plan_id":"cebpf4jnsgd1na2vs0mg"},{"bike_id":"ef42f093-dbf6-4ce3-90f3-7ab2cac908c6","system_id":"levelo_inurba_marseille","lat":43.29785,"lon":5.39348,"is_reserved":false,"is_disabled":false,"rental_uris":{"android":"levelo://app?vid=ef42f093-dbf6-4ce3-90f3-7ab2cac908c6","ios":"levelo://app?vid=ef42f093-dbf6-4ce3-90f3-7ab2cac908c6"},"vehicle_type_id":"4","last_reported":1727529215,"current_range_meters":28800,"station_id":"chh1huq6cuj3fo74tm60","pricing_plan_id":"cebpf4jnsgd1na2vs0mg"},{"bike_id":"4a0983e1-9260-496a-a98e-0acca0997b67","system_id":"levelo_inurba_marseille","lat":43.30896,"lon":5.39644,"is_reserved":false,"is_disabled":false,"rental_uris":{"android":"levelo://app?vid=4a0983e1-9260-496a-a98e-0acca0997b67","ios":"levelo://app?vid=4a0983e1-9260-496a-a98e-0acca0997b67"},"vehicle_type_id":"4","last_reported":1727529215,"current_range_meters":30400,"station_id":"ce4bh012rcd13ifvqcv0","pricing_plan_id":"cebpf4jnsgd1na2vs0mg"},{"bike_id":"d55dfdfb-5b1a-4e6d-b45a-3ed418b91a5f","system_id":"levelo_inurba_marseille","lat":43.30015,"lon":5.37585,"is_reserved":false,"is_disabled":false,"rental_uris":{"android":"levelo://app?vid=d55dfdfb-5b1a-4e6d-b45a-3ed418b91a5f","ios":"levelo://app?vid=d55dfdfb-5b1a-4e6d-b45a-3ed418b91a5f"},"vehicle_type_id":"4","last_reported":1727529215,"current_range_meters":18000,"station_id":"ce4bh092rcd13ifvqd30","pricing_plan_id":"cebpf4jnsgd1na2vs0mg"},{"bike_id":"275b0a25-1a9f-498c-9202-be550b06c3de","system_id":"levelo_inurba_marseille","lat":43.33765,"lon":5.3744,"is_reserved":false,"is_disabled":false,"rental_uris":{"android":"levelo://app?vid=275b0a25-1a9f-498c-9202-be550b06c3de","ios":"levelo://app?vid=275b0a25-1a9f-498c-9202-be550b06c3de"},"vehicle_type_id":"4","last_reported":1727529215,"current_range_meters":24800,"station_id":"","pricing_plan_id":"cebpf4jnsgd1na2vs0mg"},{"bike_id":"da3d8f0d-0f47-455d-bf44-fb306bfeadf4","system_id":"levelo_inurba_marseille","lat":43.29854,"lon":5.38109,"is_reserved":false,"is_disabled":false,"rental_uris":{"android":"levelo://app?vid=da3d8f0d-0f47-455d-bf44-fb306bfeadf4","ios":"levelo://app?vid=da3d8f0d-0f47-455d-bf44-fb306bfeadf4"},"vehicle_type_id":"4","last_reported":1727529215,"current_range_meters":26000,"station_id":"","pricing_plan_id":"cebpf4jnsgd1na2vs0mg"},{"bike_id":"a840744e-f5ba-493b-a121-a825bd5d67de","system_id":"levelo_inurba_marseille","lat":43.27365,"lon":5.36245,"is_reserved":false,"is_disabled":false,"rental_uris":{"android":"levelo://app?vid=a840744e-f5ba-493b-a121-a825bd5d67de","ios":"levelo://app?vid=a840744e-f5ba-493b-a121-a825bd5d67de"},"vehicle_type_id":"4","last_reported":1727529215,"current_range_meters":24000,"station_id":"ce4bhbh2rcd13ifvqeo0","pricing_plan_id":"cebpf4jnsgd1na2vs0mg"},{"bike_id":"67ad384a-3a16-4e29-9113-32c6258c1182","system_id":"levelo_inurba_marseille","lat":43.30542,"lon":5.3669,"is_reserved":false,"is_disabled":false,"rental_uris":{"android":"levelo://app?vid=67ad384a-3a16-4e29-9113-32c6258c1182","ios":"levelo://app?vid=67ad384a-3a16-4e29-9113-32c6258c1182"},"vehicle_type_id":"4","last_reported":1727529215,"current_range_meters":38800,"station_id":"ce4bgrp2rcd13ifvqc9g","pricing_plan_id":"cebpf4jnsgd1na2vs0mg"},{"bike_id":"04088064-1fc7-475b-b74c-5a33c67da9a0","system_id":"levelo_inurba_marseille","lat":43.29536,"lon":5.38548,"is_reserved":false,"is_disabled":false,"rental_uris":{"android":"levelo://app?vid=04088064-1fc7-475b-b74c-5a33c67da9a0","ios":"levelo://app?vid=04088064-1fc7-475b-b74c-5a33c67da9a0"},"vehicle_type_id":"4","last_reported":1727529215,"current_range_meters":38000,"station_id":"ce4bgih2rcd13ifvqba0","pricing_plan_id":"cebpf4jnsgd1na2vs0mg"},{"bike_id":"cff55d91-0529-4ce0-b54e-98d78d3e1aee","system_id":"levelo_inurba_marseille","lat":43.29004,"lon":5.356,"is_reserved":false,"is_disabled":false,"rental_uris":{"android":"levelo://app?vid=cff55d91-0529-4ce0-b54e-98d78d3e1aee","ios":"levelo://app?vid=cff55d91-0529-4ce0-b54e-98d78d3e1aee"},"vehicle_type_id":"4","last_reported":1727529215,"current_range_meters":16800,"station_id":"ce4bhb92rcd13ifvqen0","pricing_plan_id":"cebpf4jnsgd1na2vs0mg"},{"bike_id":"0c3f0369-7cdf-4cba-a0db-09435ab8c8da","system_id":"levelo_inurba_marseille","lat":43.23191,"lon":5.39991,"is_reserved":false,"is_disabled":false,"rental_uris":{"android":"levelo://app?vid=0c3f0369-7cdf-4cba-a0db-09435ab8c8da","ios":"levelo://app?vid=0c3f0369-7cdf-4cba-a0db-09435ab8c8da"},"vehicle_type_id":"4","last_reported":1727529215,"current_range_meters":30800,"station_id":"ce4bhn12rcd13ifvqgqg","pricing_plan_id":"cebpf4jnsgd1na2vs0mg"},{"bike_id":"deb7980f-58a8-4033-8835-655c6a4e78f7","system_id":"levelo_inurba_marseille","lat":43.2758,"lon":5.38418,"is_reserved":false,"is_disabled":false,"rental_uris":{"android":"levelo://app?vid=deb7980f-58a8-4033-8835-655c6a4e78f7","ios":"levelo://app?vid=deb7980f-58a8-4033-8835-655c6a4e78f7"},"vehicle_type_id":"4","last_reported":1727529215,"current_range_meters":39200,"station_id":"ce4bhh92rcd13ifvqfi0","pricing_plan_id":"cebpf4jnsgd1na2vs0mg"},{"bike_id":"9ef80c8e-5ce5-4b39-8720-9968a49186b6","system_id":"levelo_inurba_marseille","lat":43.27567,"lon":5.38422,"is_reserved":false,"is_disabled":false,"rental_uris":{"android":"levelo://app?vid=9ef80c8e-5ce5-4b39-8720-9968a49186b6","ios":"levelo://app?vid=9ef80c8e-5ce5-4b39-8720-9968a49186b6"},"vehicle_type_id":"4","last_reported":1727529215,"current_range_meters":4800,"station_id":"ce4bhh92rcd13ifvqfi0","pricing_plan_id":"cebpf4jnsgd1na2vs0mg"},{"bike_id":"06981e52-06f2-48c7-8865-e14ca565f9df","system_id":"levelo_inurba_marseille","lat":43.29727,"lon":5.37687,"is_reserved":false,"is_disabled":false,"rental_uris":{"android":"levelo://app?vid=06981e52-06f2-48c7-8865-e14ca565f9df","ios":"levelo://app?vid=06981e52-06f2-48c7-8865-e14ca565f9df"},"vehicle_type_id":"4","last_reported":1727529215,"current_range_meters":38800,"station_id":"ce4bgkh2rcd13ifvqbl0","pricing_plan_id":"cebpf4jnsgd1na2vs0mg"},{"bike_id":"bc20af5c-be7b-4c51-b09b-2e170ca1b5b9","system_id":"levelo_inurba_marseille","lat":43.25489,"lon":5.37643,"is_reserved":false,"is_disabled":false,"rental_uris":{"android":"levelo://app?vid=bc20af5c-be7b-4c51-b09b-2e170ca1b5b9","ios":"levelo://app?vid=bc20af5c-be7b-4c51-b09b-2e170ca1b5b9"},"vehicle_type_id":"4","last_reported":1727529215,"current_range_meters":37600,"station_id":"ce4bhh12rcd13ifvqff0","pricing_plan_id":"cebpf4jnsgd1na2vs0mg"},{"bike_id":"fa68c8a0-5f10-4869-bd4f-8350e75f4f57","system_id":"levelo_inurba_marseille","lat":43.2834,"lon":5.38112,"is_reserved":false,"is_disabled":false,"rental_uris":{"android":"levelo://app?vid=fa68c8a0-5f10-4869-bd4f-8350e75f4f57","ios":"levelo://app?vid=fa68c8a0-5f10-4869-bd4f-8350e75f4f57"},"vehicle_type_id":"4","last_reported":1727529215,"current_range_meters":38800,"station_id":"ce4bh412rcd13ifvqdr0","pricing_plan_id":"cebpf4jnsgd1na2vs0mg"},{"bike_id":"1cdd532a-306b-47d0-8a3b-e164107a50fd","system_id":"levelo_inurba_marseille","lat":43.25003,"lon":5.38926,"is_reserved":false,"is_disabled":false,"rental_uris":{"android":"levelo://app?vid=1cdd532a-306b-47d0-8a3b-e164107a50fd","ios":"levelo://app?vid=1cdd532a-306b-47d0-8a3b-e164107a50fd"},"vehicle_type_id":"4","last_reported":1727529215,"current_range_meters":21600,"station_id":"ce4bhgp2rcd13ifvqfd0","pricing_plan_id":"cebpf4jnsgd1na2vs0mg"},{"bike_id":"d8e32f1c-4c32-4777-922d-4d90b15b71c7","system_id":"levelo_inurba_marseille","lat":43.30863,"lon":5.3685,"is_reserved":false,"is_disabled":false,"rental_uris":{"android":"levelo://app?vid=d8e32f1c-4c32-4777-922d-4d90b15b71c7","ios":"levelo://app?vid=d8e32f1c-4c32-4777-922d-4d90b15b71c7"},"vehicle_type_id":"4","last_reported":1727529215,"current_range_meters":9600,"station_id":"ce4bgn92rcd13ifvqbvg","pricing_plan_id":"cebpf4jnsgd1na2vs0mg"},{"bike_id":"d134f771-1ee1-4374-be26-f608b8a314a0","system_id":"levelo_inurba_marseille","lat":43.30298,"lon":5.3922,"is_reserved":false,"is_disabled":false,"rental_uris":{"android":"levelo://app?vid=d134f771-1ee1-4374-be26-f608b8a314a0","ios":"levelo://app?vid=d134f771-1ee1-4374-be26-f608b8a314a0"},"vehicle_type_id":"4","last_reported":1727529215,"current_range_meters":26000,"station_id":"ce4bgkh2rcd13ifvqbk0","pricing_plan_id":"cebpf4jnsgd1na2vs0mg"},{"bike_id":"b470945e-f45c-4291-ac95-d7061c9aab44","system_id":"levelo_inurba_marseille","lat":43.2738,"lon":5.41213,"is_reserved":false,"is_disabled":false,"rental_uris":{"android":"levelo://app?vid=b470945e-f45c-4291-ac95-d7061c9aab44","ios":"levelo://app?vid=b470945e-f45c-4291-ac95-d7061c9aab44"},"vehicle_type_id":"4","last_reported":1727529215,"current_range_meters":28000,"station_id":"","pricing_plan_id":"cebpf4jnsgd1na2vs0mg"},{"bike_id":"baa06c7d-efad-4a9a-bc59-5e1715d1039c","system_id":"levelo_inurba_marseille","lat":43.22931,"lon":5.35374,"is_reserved":false,"is_disabled":false,"rental_uris":{"android":"levelo://app?vid=baa06c7d-efad-4a9a-bc59-5e1715d1039c","ios":"levelo://app?vid=baa06c7d-efad-4a9a-bc59-5e1715d1039c"},"vehicle_type_id":"4","last_reported":1727529215,"current_range_meters":23200,"station_id":"cpo3532slgdg3j2ikp40","pricing_plan_id":"cebpf4jnsgd1na2vs0mg"},{"bike_id":"f8915e68-c9f1-46fd-8756-d1d85c225c67","system_id":"levelo_inurba_marseille","lat":43.27209,"lon":5.39171,"is_reserved":false,"is_disabled":false,"rental_uris":{"android":"levelo://app?vid=f8915e68-c9f1-46fd-8756-d1d85c225c67","ios":"levelo://app?vid=f8915e68-c9f1-46fd-8756-d1d85c225c67"},"vehicle_type_id":"4","last_reported":1727529215,"current_range_meters":7200,"station_id":"ce4bhhp2rcd13ifvqfm0","pricing_plan_id":"cebpf4jnsgd1na2vs0mg"},{"bike_id":"55281bba-a156-4893-97ca-8f24cdb19b4a","system_id":"levelo_inurba_marseille","lat":43.29258,"lon":5.38437,"is_reserved":false,"is_disabled":false,"rental_uris":{"android":"levelo://app?vid=55281bba-a156-4893-97ca-8f24cdb19b4a","ios":"levelo://app?vid=55281bba-a156-4893-97ca-8f24cdb19b4a"},"vehicle_type_id":"4","last_reported":1727529215,"current_range_meters":8000,"station_id":"ce4bh692rcd13ifvqea0","pricing_plan_id":"cebpf4jnsgd1na2vs0mg"},{"bike_id":"0526a56a-ac78-4e70-8eb6-efd57a427828","system_id":"levelo_inurba_marseille","lat":43.28613,"lon":5.35099,"is_reserved":false,"is_disabled":false,"rental_uris":{"android":"levelo://app?vid=0526a56a-ac78-4e70-8eb6-efd57a427828","ios":"levelo://app?vid=0526a56a-ac78-4e70-8eb6-efd57a427828"},"vehicle_type_id":"4","last_reported":1727529215,"current_range_meters":16000,"station_id":"ce4bhch2rcd13ifvqeug","pricing_plan_id":"cebpf4jnsgd1na2vs0mg"},{"bike_id":"df8b12f6-bc9f-45ae-87e4-01d114f4aef8","system_id":"levelo_inurba_marseille","lat":43.30424,"lon":5.38883,"is_reserved":false,"is_disabled":false,"rental_uris":{"android":"levelo://app?vid=df8b12f6-bc9f-45ae-87e4-01d114f4aef8","ios":"levelo://app?vid=df8b12f6-bc9f-45ae-87e4-01d114f4aef8"},"vehicle_type_id":"4","last_reported":1727529215,"current_range_meters":27200,"station_id":"ce4bgk12rcd13ifvqbi0","pricing_plan_id":"cebpf4jnsgd1na2vs0mg"},{"bike_id":"13c15dc8-0f23-4ed7-b3a9-02fd2aa7b770","system_id":"levelo_inurba_marseille","lat":43.29226,"lon":5.36071,"is_reserved":false,"is_disabled":false,"rental_uris":{"android":"levelo://app?vid=13c15dc8-0f23-4ed7-b3a9-02fd2aa7b770","ios":"levelo://app?vid=13c15dc8-0f23-4ed7-b3a9-02fd2aa7b770"},"vehicle_type_id":"4","last_reported":1727529215,"current_range_meters":38800,"station_id":"ce4bhbh2rcd13ifvqeqg","pricing_plan_id":"cebpf4jnsgd1na2vs0mg"},{"bike_id":"e4361fa2-90d9-45ff-9d8a-e7b112f4e011","system_id":"levelo_inurba_marseille","lat":43.28509,"lon":5.39112,"is_reserved":false,"is_disabled":false,"rental_uris":{"android":"levelo://app?vid=e4361fa2-90d9-45ff-9d8a-e7b112f4e011","ios":"levelo://app?vid=e4361fa2-90d9-45ff-9d8a-e7b112f4e011"},"vehicle_type_id":"4","last_reported":1727529215,"current_range_meters":32800,"station_id":"ce4bh3p2rcd13ifvqdp0","pricing_plan_id":"cebpf4jnsgd1na2vs0mg"},{"bike_id":"e94a162a-548e-4d1c-91dd-66c54bb1672e","system_id":"levelo_inurba_marseille","lat":43.27206,"lon":5.3917,"is_reserved":false,"is_disabled":false,"rental_uris":{"android":"levelo://app?vid=e94a162a-548e-4d1c-91dd-66c54bb1672e","ios":"levelo://app?vid=e94a162a-548e-4d1c-91dd-66c54bb1672e"},"vehicle_type_id":"4","last_reported":1727529215,"current_range_meters":32000,"station_id":"ce4bhhp2rcd13ifvqfm0","pricing_plan_id":"cebpf4jnsgd1na2vs0mg"},{"bike_id":"65f828c7-d12b-47c9-87f8-27b2e7121317","system_id":"levelo_inurba_marseille","lat":43.249986,"lon":5.389271,"is_reserved":false,"is_disabled":false,"rental_uris":{"android":"levelo://app?vid=65f828c7-d12b-47c9-87f8-27b2e7121317","ios":"levelo://app?vid=65f828c7-d12b-47c9-87f8-27b2e7121317"},"vehicle_type_id":"4","last_reported":1727529215,"current_range_meters":14000,"station_id":"ce4bhgp2rcd13ifvqfd0","pricing_plan_id":"cebpf4jnsgd1na2vs0mg"},{"bike_id":"119b1756-239e-4ffb-be16-70a9d802ff66","system_id":"levelo_inurba_marseille","lat":43.29844,"lon":5.36266,"is_reserved":false,"is_disabled":false,"rental_uris":{"android":"levelo://app?vid=119b1756-239e-4ffb-be16-70a9d802ff66","ios":"levelo://app?vid=119b1756-239e-4ffb-be16-70a9d802ff66"},"vehicle_type_id":"4","last_reported":1727529215,"current_range_meters":31200,"station_id":"ce4bgpp2rcd13ifvqc3g","pricing_plan_id":"cebpf4jnsgd1na2vs0mg"},{"bike_id":"cab45fd0-efbe-42f4-815f-9d32eba24a97","system_id":"levelo_inurba_marseille","lat":43.279,"lon":5.41209,"is_reserved":false,"is_disabled":false,"rental_uris":{"android":"levelo://app?vid=cab45fd0-efbe-42f4-815f-9d32eba24a97","ios":"levelo://app?vid=cab45fd0-efbe-42f4-815f-9d32eba24a97"},"vehicle_type_id":"4","last_reported":1727529215,"current_range_meters":19200,"station_id":"","pricing_plan_id":"cebpf4jnsgd1na2vs0mg"},{"bike_id":"6eff8d2d-61fa-4715-9388-b30a052d3e98","system_id":"levelo_inurba_marseille","lat":43.337444,"lon":5.374475,"is_reserved":false,"is_disabled":false,"rental_uris":{"android":"levelo://app?vid=6eff8d2d-61fa-4715-9388-b30a052d3e98","ios":"levelo://app?vid=6eff8d2d-61fa-4715-9388-b30a052d3e98"},"vehicle_type_id":"4","last_reported":1727529215,"current_range_meters":32800,"station_id":"","pricing_plan_id":"cebpf4jnsgd1na2vs0mg"},{"bike_id":"637ea54b-676e-4687-a372-f778f0655b85","system_id":"levelo_inurba_marseille","lat":43.27224,"lon":5.40081,"is_reserved":false,"is_disabled":false,"rental_uris":{"android":"levelo://app?vid=637ea54b-676e-4687-a372-f778f0655b85","ios":"levelo://app?vid=637ea54b-676e-4687-a372-f778f0655b85"},"vehicle_type_id":"4","last_reported":1727529215,"current_range_meters":25200,"station_id":"","pricing_plan_id":"cebpf4jnsgd1na2vs0mg"},{"bike_id":"5713dff0-1013-46be-92f0-d0b40edcd66b","system_id":"levelo_inurba_marseille","lat":43.30415,"lon":5.39753,"is_reserved":false,"is_disabled":false,"rental_uris":{"android":"levelo://app?vid=5713dff0-1013-46be-92f0-d0b40edcd66b","ios":"levelo://app?vid=5713dff0-1013-46be-92f0-d0b40edcd66b"},"vehicle_type_id":"4","last_reported":1727529215,"current_range_meters":8400,"station_id":"ce4bh092rcd13ifvqd20","pricing_plan_id":"cebpf4jnsgd1na2vs0mg"},{"bike_id":"626efa4c-0b1e-402d-b3e8-e2eec0eba740","system_id":"levelo_inurba_marseille","lat":43.26057,"lon":5.39397,"is_reserved":false,"is_disabled":false,"rental_uris":{"android":"levelo://app?vid=626efa4c-0b1e-402d-b3e8-e2eec0eba740","ios":"levelo://app?vid=626efa4c-0b1e-402d-b3e8-e2eec0eba740"},"vehicle_type_id":"4","last_reported":1727529215,"current_range_meters":36800,"station_id":"ce4bhh92rcd13ifvqfj0","pricing_plan_id":"cebpf4jnsgd1na2vs0mg"},{"bike_id":"e10d7d9b-88ad-4d2c-bf42-128fcac5e21d","system_id":"levelo_inurba_marseille","lat":43.27819,"lon":5.40714,"is_reserved":false,"is_disabled":false,"rental_uris":{"android":"levelo://app?vid=e10d7d9b-88ad-4d2c-bf42-128fcac5e21d","ios":"levelo://app?vid=e10d7d9b-88ad-4d2c-bf42-128fcac5e21d"},"vehicle_type_id":"4","last_reported":1727529215,"current_range_meters":13600,"station_id":"ce4bhnh2rcd13ifvqgtg","pricing_plan_id":"cebpf4jnsgd1na2vs0mg"},{"bike_id":"29635721-6c36-4eb2-ac9b-7a3b4a852436","system_id":"levelo_inurba_marseille","lat":43.30542,"lon":5.36549,"is_reserved":false,"is_disabled":false,"rental_uris":{"android":"levelo://app?vid=29635721-6c36-4eb2-ac9b-7a3b4a852436","ios":"levelo://app?vid=29635721-6c36-4eb2-ac9b-7a3b4a852436"},"vehicle_type_id":"4","last_reported":1727529215,"current_range_meters":26800,"station_id":"ce4bgs12rcd13ifvqcag","pricing_plan_id":"cebpf4jnsgd1na2vs0mg"},{"bike_id":"6797ad46-abf2-4d5f-bb78-f18867b9fe83","system_id":"levelo_inurba_marseille","lat":43.28004,"lon":5.40003,"is_reserved":false,"is_disabled":false,"rental_uris":{"android":"levelo://app?vid=6797ad46-abf2-4d5f-bb78-f18867b9fe83","ios":"levelo://app?vid=6797ad46-abf2-4d5f-bb78-f18867b9fe83"},"vehicle_type_id":"4","last_reported":1727529215,"current_range_meters":6800,"station_id":"ce4bho92rcd13ifvqh4g","pricing_plan_id":"cebpf4jnsgd1na2vs0mg"},{"bike_id":"49103c36-092f-43a6-a665-96ac4218adb8","system_id":"levelo_inurba_marseille","lat":43.32297,"lon":5.38265,"is_reserved":false,"is_disabled":false,"rental_uris":{"android":"levelo://app?vid=49103c36-092f-43a6-a665-96ac4218adb8","ios":"levelo://app?vid=49103c36-092f-43a6-a665-96ac4218adb8"},"vehicle_type_id":"4","last_reported":1727529215,"current_range_meters":38800,"station_id":"ce4bhr12rcd13ifvqhqg","pricing_plan_id":"cebpf4jnsgd1na2vs0mg"},{"bike_id":"48c92bfd-8d9d-4ac3-b238-46848606469a","system_id":"levelo_inurba_marseille","lat":43.27314,"lon":5.39078,"is_reserved":false,"is_disabled":false,"rental_uris":{"android":"levelo://app?vid=48c92bfd-8d9d-4ac3-b238-46848606469a","ios":"levelo://app?vid=48c92bfd-8d9d-4ac3-b238-46848606469a"},"vehicle_type_id":"4","last_reported":1727529215,"current_range_meters":6800,"station_id":"ce4bhgp2rcd13ifvqfe0","pricing_plan_id":"cebpf4jnsgd1na2vs0mg"},{"bike_id":"27357ece-0acd-4448-89e9-3e8658a588ba","system_id":"levelo_inurba_marseille","lat":43.29915,"lon":5.38142,"is_reserved":false,"is_disabled":false,"rental_uris":{"android":"levelo://app?vid=27357ece-0acd-4448-89e9-3e8658a588ba","ios":"levelo://app?vid=27357ece-0acd-4448-89e9-3e8658a588ba"},"vehicle_type_id":"4","last_reported":1727529215,"current_range_meters":38800,"station_id":"ce4bgj12rcd13ifvqbc0","pricing_plan_id":"cebpf4jnsgd1na2vs0mg"},{"bike_id":"474bfd37-4115-4bc9-898f-de50f26a6016","system_id":"levelo_inurba_marseille","lat":43.28726,"lon":5.3793,"is_reserved":false,"is_disabled":false,"rental_uris":{"android":"levelo://app?vid=474bfd37-4115-4bc9-898f-de50f26a6016","ios":"levelo://app?vid=474bfd37-4115-4bc9-898f-de50f26a6016"},"vehicle_type_id":"4","last_reported":1727529215,"current_range_meters":38800,"station_id":"ce4bh9p2rcd13ifvqec0","pricing_plan_id":"cebpf4jnsgd1na2vs0mg"},{"bike_id":"e1cf55fb-6d5d-4739-81b9-f4a6186e4bd4","system_id":"levelo_inurba_marseille","lat":43.28726,"lon":5.37931,"is_reserved":false,"is_disabled":false,"rental_uris":{"android":"levelo://app?vid=e1cf55fb-6d5d-4739-81b9-f4a6186e4bd4","ios":"levelo://app?vid=e1cf55fb-6d5d-4739-81b9-f4a6186e4bd4"},