{"last_updated":1730315291,"ttl":60,"version":"2.2","data":{"bikes":[{"bike_id":"9dd27551-f509-4082-8af9-ccad0947f708","system_id":"levelo_inurba_marseille","lat":43.27675,"lon":5.38891,"is_reserved":false,"is_disabled":false,"rental_uris":{"android":"levelo://app?vid=9dd27551-f509-4082-8af9-ccad0947f708","ios":"levelo://app?vid=9dd27551-f509-4082-8af9-ccad0947f708"},"vehicle_type_id":"4","last_reported":1730315291,"current_range_meters":8800,"station_id":"ce4bhgp2rcd13ifvqfe0","pricing_plan_id":"cebpf4jnsgd1na2vs0mg"},{"bike_id":"a104ad06-bb07-461d-9ecb-1e4260eb4fb6","system_id":"levelo_inurba_marseille","lat":43.25827,"lon":5.39433,"is_reserved":false,"is_disabled":false,"rental_uris":{"android":"levelo://app?vid=a104ad06-bb07-461d-9ecb-1e4260eb4fb6","ios":"levelo://app?vid=a104ad06-bb07-461d-9ecb-1e4260eb4fb6"},"vehicle_type_id":"4","last_reported":1730315291,"current_range_meters":16400,"station_id":"ce4bhip2rcd13ifvqft0","pricing_plan_id":"cebpf4jnsgd1na2vs0mg"},{"bike_id":"8ccb2f42-903b-476e-b787-55730f7d8af5","system_id":"levelo_inurba_marseille","lat":43.255856,"lon":5.382361,"is_reserved":false,"is_disabled":false,"rental_uris":{"android":"levelo://app?vid=8ccb2f42-903b-476e-b787-55730f7d8af5","ios":"levelo://app?vid=8ccb2f42-903b-476e-b787-55730f7d8af5"},"vehicle_type_id":"4","last_reported":1730315291,"current_range_meters":30000,"station_id":"ce4bhih2rcd13ifvqfs0","pricing_plan_id":"cebpf4jnsgd1na2vs0mg"},{"bike_id":"d49cb13a-b88f-4da1-83ed-b5404788eb72","system_id":"levelo_inurba_marseille","lat":43.29792,"lon":5.40397,"is_reserved":false,"is_disabled":false,"rental_uris":{"android":"levelo://app?vid=d49cb13a-b88f-4da1-83ed-b5404788eb72","ios":"levelo://app?vid=d49cb13a-b88f-4da1-83ed-b5404788eb72"},"vehicle_type_id":"4","last_reported":1730315291,"current_range_meters":3200,"station_id":"ce4bh112rcd13ifvqd90","pricing_plan_id":"cebpf4jnsgd1na2vs0mg"},{"bike_id":"0de6ca80-f2d2-47d7-817f-04e1396a1291","system_id":"levelo_inurba_marseille","lat":43.29419,"lon":5.3862,"is_reserved":false,"is_disabled":false,"rental_uris":{"android":"levelo://app?vid=0de6ca80-f2d2-47d7-817f-04e1396a1291","ios":"levelo://app?vid=0de6ca80-f2d2-47d7-817f-04e1396a1291"},"vehicle_type_id":"4","last_reported":1730315291,"current_range_meters":17600,"station_id":"ce4bh2h2rcd13ifvqdh0","pricing_plan_id":"cebpf4jnsgd1na2vs0mg"},{"bike_id":"f64c1e7d-3ae9-4dfc-8ec2-0a90d036364f","system_id":"levelo_inurba_marseille","lat":43.32113,"lon":5.36776,"is_reserved":false,"is_disabled":false,"rental_uris":{"android":"levelo://app?vid=f64c1e7d-3ae9-4dfc-8ec2-0a90d036364f","ios":"levelo://app?vid=f64c1e7d-3ae9-4dfc-8ec2-0a90d036364f"},"vehicle_type_id":"4","last_reported":1730315291,"current_range_meters":24400,"station_id":"ce4bhrh2rcd13ifvqhug","pricing_plan_id":"cebpf4jnsgd1na2vs0mg"},{"bike_id":"58f050a8-c1e4-45e2-80d5-e7728b19eb62","system_id":"levelo_inurba_marseille","lat":43.279771,"lon":5.387454,"is_reserved":false,"is_disabled":false,"rental_uris":{"android":"levelo://app?vid=58f050a8-c1e4-45e2-80d5-e7728b19eb62","ios":"levelo://app?vid=58f050a8-c1e4-45e2-80d5-e7728b19eb62"},"vehicle_type_id":"4","last_reported":1730315291,"current_range_meters":34800,"station_id":"ce4bhg12rcd13ifvqf80","pricing_plan_id":"cebpf4jnsgd1na2vs0mg"},{"bike_id":"73d25c27-d738-480e-a6c6-c05a03ece27a","system_id":"levelo_inurba_marseille","lat":43.24181,"lon":5.39726,"is_reserved":false,"is_disabled":false,"rental_uris":{"android":"levelo://app?vid=73d25c27-d738-480e-a6c6-c05a03ece27a","ios":"levelo://app?vid=73d25c27-d738-480e-a6c6-c05a03ece27a"},"vehicle_type_id":"4","last_reported":1730315291,"current_range_meters":32000,"station_id":"ce4bhn12rcd13ifvqgpg","pricing_plan_id":"cebpf4jnsgd1na2vs0mg"},{"bike_id":"ee7bc71e-7c1e-4081-b726-0776bcecef94","system_id":"levelo_inurba_marseille","lat":43.29025,"lon":5.38128,"is_reserved":false,"is_disabled":false,"rental_uris":{"android":"levelo://app?vid=ee7bc71e-7c1e-4081-b726-0776bcecef94","ios":"levelo://app?vid=ee7bc71e-7c1e-4081-b726-0776bcecef94"},"vehicle_type_id":"4","last_reported":1730315291,"current_range_meters":38800,"station_id":"ce4bh4p2rcd13ifvqe1g","pricing_plan_id":"cebpf4jnsgd1na2vs0mg"},{"bike_id":"ddf9b3ae-2d28-4b9a-aa4e-ff6ba36b5432","system_id":"levelo_inurba_marseille","lat":43.30648,"lon":5.40085,"is_reserved":false,"is_disabled":false,"rental_uris":{"android":"levelo://app?vid=ddf9b3ae-2d28-4b9a-aa4e-ff6ba36b5432","ios":"levelo://app?vid=ddf9b3ae-2d28-4b9a-aa4e-ff6ba36b5432"},"vehicle_type_id":"4","last_reported":1730315291,"current_range_meters":38800,"station_id":"ce4bh112rcd13ifvqda0","pricing_plan_id":"cebpf4jnsgd1na2vs0mg"},{"bike_id":"d95e1778-c026-4417-abab-07f94db85611","system_id":"levelo_inurba_marseille","lat":43.29298,"lon":5.3745,"is_reserved":false,"is_disabled":false,"rental_uris":{"android":"levelo://app?vid=d95e1778-c026-4417-abab-07f94db85611","ios":"levelo://app?vid=d95e1778-c026-4417-abab-07f94db85611"},"vehicle_type_id":"4","last_reported":1730315291,"current_range_meters":27200,"station_id":"ce4bgi12rcd13ifvqb70","pricing_plan_id":"cebpf4jnsgd1na2vs0mg"},{"bike_id":"bda27811-cb43-47e2-8f3a-37d2364f7e30","system_id":"levelo_inurba_marseille","lat":43.29912,"lon":5.37482,"is_reserved":false,"is_disabled":false,"rental_uris":{"android":"levelo://app?vid=bda27811-cb43-47e2-8f3a-37d2364f7e30","ios":"levelo://app?vid=bda27811-cb43-47e2-8f3a-37d2364f7e30"},"vehicle_type_id":"4","last_reported":1730315291,"current_range_meters":10800,"station_id":"ce4bgjh2rcd13ifvqbg0","pricing_plan_id":"cebpf4jnsgd1na2vs0mg"},{"bike_id":"8612faec-6b80-4bd0-a4cb-d855c080df13","system_id":"levelo_inurba_marseille","lat":43.30332,"lon":5.40437,"is_reserved":false,"is_disabled":false,"rental_uris":{"android":"levelo://app?vid=8612faec-6b80-4bd0-a4cb-d855c080df13","ios":"levelo://app?vid=8612faec-6b80-4bd0-a4cb-d855c080df13"},"vehicle_type_id":"4","last_reported":1730315291,"current_range_meters":12800,"station_id":"ce4bh012rcd13ifvqd10","pricing_plan_id":"cebpf4jnsgd1na2vs0mg"},{"bike_id":"bbf8f708-5e9b-41bf-bc19-afef39d244c3","system_id":"levelo_inurba_marseille","lat":43.27499,"lon":5.42448,"is_reserved":false,"is_disabled":false,"rental_uris":{"android":"levelo://app?vid=bbf8f708-5e9b-41bf-bc19-afef39d244c3","ios":"levelo://app?vid=bbf8f708-5e9b-41bf-bc19-afef39d244c3"},"vehicle_type_id":"4","last_reported":1730315291,"current_range_meters":21600,"station_id":"ce4bhn92rcd13ifvqgrg","pricing_plan_id":"cebpf4jnsgd1na2vs0mg"},{"bike_id":"32fa9473-207f-445d-af23-a2acafe02a58","system_id":"levelo_inurba_marseille","lat":43.29029,"lon":5.37559,"is_reserved":false,"is_disabled":false,"rental_uris":{"android":"levelo://app?vid=32fa9473-207f-445d-af23-a2acafe02a58","ios":"levelo://app?vid=32fa9473-207f-445d-af23-a2acafe02a58"},"vehicle_type_id":"4","last_reported":1730315291,"current_range_meters":3200,"station_id":"ce4bh692rcd13ifvqe90","pricing_plan_id":"cebpf4jnsgd1na2vs0mg"},{"bike_id":"f6e1c6f8-5731-4f7f-860b-61ef69fca3a8","system_id":"levelo_inurba_marseille","lat":43.29263,"lon":5.36848,"is_reserved":false,"is_disabled":false,"rental_uris":{"android":"levelo://app?vid=f6e1c6f8-5731-4f7f-860b-61ef69fca3a8","ios":"levelo://app?vid=f6e1c6f8-5731-4f7f-860b-61ef69fca3a8"},"vehicle_type_id":"4","last_reported":1730315291,"current_range_meters":38800,"station_id":"ce4bhbp2rcd13ifvqesg","pricing_plan_id":"cebpf4jnsgd1na2vs0mg"},{"bike_id":"91f75106-8073-486e-8037-1d5f2fa10c75","system_id":"levelo_inurba_marseille","lat":43.32,"lon":5.38156,"is_reserved":false,"is_disabled":false,"rental_uris":{"android":"levelo://app?vid=91f75106-8073-486e-8037-1d5f2fa10c75","ios":"levelo://app?vid=91f75106-8073-486e-8037-1d5f2fa10c75"},"vehicle_type_id":"4","last_reported":1730315291,"current_range_meters":6400,"station_id":"ce4bhr12rcd13ifvqhpg","pricing_plan_id":"cebpf4jnsgd1na2vs0mg"},{"bike_id":"4075e605-7e2d-4335-883e-4292dc011012","system_id":"levelo_inurba_marseille","lat":43.23962,"lon":5.36629,"is_reserved":false,"is_disabled":false,"rental_uris":{"android":"levelo://app?vid=4075e605-7e2d-4335-883e-4292dc011012","ios":"levelo://app?vid=4075e605-7e2d-4335-883e-4292dc011012"},"vehicle_type_id":"4","last_reported":1730315291,"current_range_meters":8400,"station_id":"ce4bhi12rcd13ifvqfp0","pricing_plan_id":"cebpf4jnsgd1na2vs0mg"},{"bike_id":"f36e9cd2-95c8-4430-8440-3ecb98bca9c3","system_id":"levelo_inurba_marseille","lat":43.28166,"lon":5.4264,"is_reserved":false,"is_disabled":false,"rental_uris":{"android":"levelo://app?vid=f36e9cd2-95c8-4430-8440-3ecb98bca9c3","ios":"levelo://app?vid=f36e9cd2-95c8-4430-8440-3ecb98bca9c3"},"vehicle_type_id":"4","last_reported":1730315291,"current_range_meters":30000,"station_id":"ce4bhnh2rcd13ifvqgug","pricing_plan_id":"cebpf4jnsgd1na2vs0mg"},{"bike_id":"7b1c467d-0fbd-43a7-afe4-609821722131","system_id":"levelo_inurba_marseille","lat":43.28986,"lon":5.39074,"is_reserved":false,"is_disabled":false,"rental_uris":{"android":"levelo://app?vid=7b1c467d-0fbd-43a7-afe4-609821722131","ios":"levelo://app?vid=7b1c467d-0fbd-43a7-afe4-609821722131"},"vehicle_type_id":"4","last_reported":1730315291,"current_range_meters":35200,"station_id":"","pricing_plan_id":"cebpf4jnsgd1na2vs0mg"},{"bike_id":"cc260073-8fe4-4401-aedb-76e77dfaea99","system_id":"levelo_inurba_marseille","lat":43.31367,"lon":5.38396,"is_reserved":false,"is_disabled":false,"rental_uris":{"android":"levelo://app?vid=cc260073-8fe4-4401-aedb-76e77dfaea99","ios":"levelo://app?vid=cc260073-8fe4-4401-aedb-76e77dfaea99"},"vehicle_type_id":"4","last_reported":1730315291,"current_range_meters":33600,"station_id":"ce4bgn92rcd13ifvqbvg","pricing_plan_id":"cebpf4jnsgd1na2vs0mg"},{"bike_id":"03c9f92c-2677-44d4-833e-2e226eb7dcbb","system_id":"levelo_inurba_marseille","lat":43.29282,"lon":5.36846,"is_reserved":false,"is_disabled":false,"rental_uris":{"android":"levelo://app?vid=03c9f92c-2677-44d4-833e-2e226eb7dcbb","ios":"levelo://app?vid=03c9f92c-2677-44d4-833e-2e226eb7dcbb"},"vehicle_type_id":"4","last_reported":1730315291,"current_range_meters":21600,"station_id":"ce4bhbp2rcd13ifvqesg","pricing_plan_id":"cebpf4jnsgd1na2vs0mg"},{"bike_id":"bb8e3792-fc0e-4a0b-b2fd-805ad2194bdb","system_id":"levelo_inurba_marseille","lat":43.30431,"lon":5.38892,"is_reserved":false,"is_disabled":false,"rental_uris":{"android":"levelo://app?vid=bb8e3792-fc0e-4a0b-b2fd-805ad2194bdb","ios":"levelo://app?vid=bb8e3792-fc0e-4a0b-b2fd-805ad2194bdb"},"vehicle_type_id":"4","last_reported":1730315291,"current_range_meters":28800,"station_id":"ce4bgk12rcd13ifvqbi0","pricing_plan_id":"cebpf4jnsgd1na2vs0mg"},{"bike_id":"0a52d1c1-8f6f-4b50-aac6-8604eb20db08","system_id":"levelo_inurba_marseille","lat":43.29203,"lon":5.39313,"is_reserved":false,"is_disabled":false,"rental_uris":{"android":"levelo://app?vid=0a52d1c1-8f6f-4b50-aac6-8604eb20db08","ios":"levelo://app?vid=0a52d1c1-8f6f-4b50-aac6-8604eb20db08"},"vehicle_type_id":"4","last_reported":1730315291,"current_range_meters":38400,"station_id":"ce4bh192rcd13ifvqdd0","pricing_plan_id":"cebpf4jnsgd1na2vs0mg"},{"bike_id":"2d65310e-a7ab-47d2-aed2-2ce5aa88e32d","system_id":"levelo_inurba_marseille","lat":43.2509,"lon":5.39523,"is_reserved":false,"is_disabled":false,"rental_uris":{"android":"levelo://app?vid=2d65310e-a7ab-47d2-aed2-2ce5aa88e32d","ios":"levelo://app?vid=2d65310e-a7ab-47d2-aed2-2ce5aa88e32d"},"vehicle_type_id":"4","last_reported":1730315291,"current_range_meters":10000,"station_id":"ce4bhm12rcd13ifvqgkg","pricing_plan_id":"cebpf4jnsgd1na2vs0mg"},{"bike_id":"acd4be18-09d6-480d-b11b-520844b93da4","system_id":"levelo_inurba_marseille","lat":43.28454,"lon":5.35888,"is_reserved":false,"is_disabled":false,"rental_uris":{"android":"levelo://app?vid=acd4be18-09d6-480d-b11b-520844b93da4","ios":"levelo://app?vid=acd4be18-09d6-480d-b11b-520844b93da4"},"vehicle_type_id":"4","last_reported":1730315291,"current_range_meters":8000,"station_id":"ce4bhah2rcd13ifvqei0","pricing_plan_id":"cebpf4jnsgd1na2vs0mg"},{"bike_id":"7453b1a8-93f1-4692-8261-659392084231","system_id":"levelo_inurba_marseille","lat":43.2707,"lon":5.42277,"is_reserved":false,"is_disabled":false,"rental_uris":{"android":"levelo://app?vid=7453b1a8-93f1-4692-8261-659392084231","ios":"levelo://app?vid=7453b1a8-93f1-4692-8261-659392084231"},"vehicle_type_id":"4","last_reported":1730315291,"current_range_meters":16000,"station_id":"ce4bhk92rcd13ifvqgb0","pricing_plan_id":"cebpf4jnsgd1na2vs0mg"},{"bike_id":"d9f11a78-2b0f-440d-92f4-0226293d9115","system_id":"levelo_inurba_marseille","lat":43.29304,"lon":5.37177,"is_reserved":false,"is_disabled":false,"rental_uris":{"android":"levelo://app?vid=d9f11a78-2b0f-440d-92f4-0226293d9115","ios":"levelo://app?vid=d9f11a78-2b0f-440d-92f4-0226293d9115"},"vehicle_type_id":"4","last_reported":1730315291,"current_range_meters":36800,"station_id":"ce4bgh92rcd13ifvqb40","pricing_plan_id":"cebpf4jnsgd1na2vs0mg"},{"bike_id":"a8ba3306-3080-4b05-b7a6-fb2337ca2d02","system_id":"levelo_inurba_marseille","lat":43.27069,"lon":5.4228,"is_reserved":false,"is_disabled":false,"rental_uris":{"android":"levelo://app?vid=a8ba3306-3080-4b05-b7a6-fb2337ca2d02","ios":"levelo://app?vid=a8ba3306-3080-4b05-b7a6-fb2337ca2d02"},"vehicle_type_id":"4","last_reported":1730315291,"current_range_meters":8400,"station_id":"ce4bhk92rcd13ifvqgb0","pricing_plan_id":"cebpf4jnsgd1na2vs0mg"},{"bike_id":"f8c7c667-e00c-4930-a90e-0361cdef6f63","system_id":"levelo_inurba_marseille","lat":43.29262,"lon":5.38439,"is_reserved":false,"is_disabled":false,"rental_uris":{"android":"levelo://app?vid=f8c7c667-e00c-4930-a90e-0361cdef6f63","ios":"levelo://app?vid=f8c7c667-e00c-4930-a90e-0361cdef6f63"},"vehicle_type_id":"4","last_reported":1730315291,"current_range_meters":36000,"station_id":"ce4bh692rcd13ifvqea0","pricing_plan_id":"cebpf4jnsgd1na2vs0mg"},{"bike_id":"42e61598-64ce-4f84-97eb-90c09ebd9abe","system_id":"levelo_inurba_marseille","lat":43.23191,"lon":5.39995,"is_reserved":false,"is_disabled":false,"rental_uris":{"android":"levelo://app?vid=42e61598-64ce-4f84-97eb-90c09ebd9abe","ios":"levelo://app?vid=42e61598-64ce-4f84-97eb-90c09ebd9abe"},"vehicle_type_id":"4","last_reported":1730315291,"current_range_meters":20800,"station_id":"ce4bhn12rcd13ifvqgqg","pricing_plan_id":"cebpf4jnsgd1na2vs0mg"},{"bike_id":"23edcc01-ea0d-4da5-b14b-aec7926ff6a9","system_id":"levelo_inurba_marseille","lat":43.27436,"lon":5.39407,"is_reserved":false,"is_disabled":false,"rental_uris":{"android":"levelo://app?vid=23edcc01-ea0d-4da5-b14b-aec7926ff6a9","ios":"levelo://app?vid=23edcc01-ea0d-4da5-b14b-aec7926ff6a9"},"vehicle_type_id":"4","last_reported":1730315291,"current_range_meters":38400,"station_id":"ce4bhdp2rcd13ifvqf20","pricing_plan_id":"cebpf4jnsgd1na2vs0mg"},{"bike_id":"80ff3c78-ea66-490e-b5c0-af29e1140784","system_id":"levelo_inurba_marseille","lat":43.29916,"lon":5.37476,"is_reserved":false,"is_disabled":false,"rental_uris":{"android":"levelo://app?vid=80ff3c78-ea66-490e-b5c0-af29e1140784","ios":"levelo://app?vid=80ff3c78-ea66-490e-b5c0-af29e1140784"},"vehicle_type_id":"4","last_reported":1730315291,"current_range_meters":19600,"station_id":"ce4bgjh2rcd13ifvqbg0","pricing_plan_id":"cebpf4jnsgd1na2vs0mg"},{"bike_id":"a9d7e6e9-c401-45bf-95b8-6d2f12471466","system_id":"levelo_inurba_marseille","lat":43.29532,"lon":5.3854,"is_reserved":false,"is_disabled":false,"rental_uris":{"android":"levelo://app?vid=a9d7e6e9-c401-45bf-95b8-6d2f12471466","ios":"levelo://app?vid=a9d7e6e9-c401-45bf-95b8-6d2f12471466"},"vehicle_type_id":"4","last_reported":1730315291,"current_range_meters":6000,"station_id":"ce4bgih2rcd13ifvqba0","pricing_plan_id":"cebpf4jnsgd1na2vs0mg"},{"bike_id":"c573c73f-75e4-475a-bcd6-666ce297695e","system_id":"levelo_inurba_marseille","lat":43.23188,"lon":5.3998,"is_reserved":false,"is_disabled":false,"rental_uris":{"android":"levelo://app?vid=c573c73f-75e4-475a-bcd6-666ce297695e","ios":"levelo://app?vid=c573c73f-75e4-475a-bcd6-666ce297695e"},"vehicle_type_id":"4","last_reported":1730315291,"current_range_meters":28800,"station_id":"ce4bhn12rcd13ifvqgqg","pricing_plan_id":"cebpf4jnsgd1na2vs0mg"},{"bike_id":"8649ff68-345d-4b6d-b144-f5c07dbd8e5f","system_id":"levelo_inurba_marseille","lat":43.30539,"lon":5.36695,"is_reserved":false,"is_disabled":false,"rental_uris":{"android":"levelo://app?vid=8649ff68-345d-4b6d-b144-f5c07dbd8e5f","ios":"levelo://app?vid=8649ff68-345d-4b6d-b144-f5c07dbd8e5f"},"vehicle_type_id":"4","last_reported":1730315291,"current_range_meters":38000,"station_id":"ce4bgrp2rcd13ifvqc9g","pricing_plan_id":"cebpf4jnsgd1na2vs0mg"},{"bike_id":"a65b7600-bc14-4cb1-bd98-91e0257743b9","system_id":"levelo_inurba_marseille","lat":43.24071,"lon":5.37754,"is_reserved":false,"is_disabled":false,"rental_uris":{"android":"levelo://app?vid=a65b7600-bc14-4cb1-bd98-91e0257743b9","ios":"levelo://app?vid=a65b7600-bc14-4cb1-bd98-91e0257743b9"},"vehicle_type_id":"4","last_reported":1730315291,"current_range_meters":8800,"station_id":"ce4bhnp2rcd13ifvqgvg","pricing_plan_id":"cebpf4jnsgd1na2vs0mg"},{"bike_id":"70bb78fe-4bef-4d56-a833-affc0bdfc9f3","system_id":"levelo_inurba_marseille","lat":43.23196,"lon":5.35555,"is_reserved":false,"is_disabled":false,"rental_uris":{"android":"levelo://app?vid=70bb78fe-4bef-4d56-a833-affc0bdfc9f3","ios":"levelo://app?vid=70bb78fe-4bef-4d56-a833-affc0bdfc9f3"},"vehicle_type_id":"4","last_reported":1730315291,"current_range_meters":38800,"station_id":"ce4bhu92rcd13ifvqi70","pricing_plan_id":"cebpf4jnsgd1na2vs0mg"},{"bike_id":"5d625bc2-68ce-4557-aa47-6454b48c46f9","system_id":"levelo_inurba_marseille","lat":43.292,"lon":5.39314,"is_reserved":false,"is_disabled":false,"rental_uris":{"android":"levelo://app?vid=5d625bc2-68ce-4557-aa47-6454b48c46f9","ios":"levelo://app?vid=5d625bc2-68ce-4557-aa47-6454b48c46f9"},"vehicle_type_id":"4","last_reported":1730315291,"current_range_meters":38400,"station_id":"ce4bh192rcd13ifvqdd0","pricing_plan_id":"cebpf4jnsgd1na2vs0mg"},{"bike_id":"9edf49ca-d9ec-47aa-832b-e31d7148c579","system_id":"levelo_inurba_marseille","lat":43.29574,"lon":5.37494,"is_reserved":false,"is_disabled":false,"rental_uris":{"android":"levelo://app?vid=9edf49ca-d9ec-47aa-832b-e31d7148c579","ios":"levelo://app?vid=9edf49ca-d9ec-47aa-832b-e31d7148c579"},"vehicle_type_id":"4","last_reported":1730315291,"current_range_meters":6800,"station_id":"ce4bgh92rcd13ifvqb50","pricing_plan_id":"cebpf4jnsgd1na2vs0mg"},{"bike_id":"c24b1b71-8503-4383-b487-f7f9a744b14c","system_id":"levelo_inurba_marseille","lat":43.29035,"lon":5.38644,"is_reserved":false,"is_disabled":false,"rental_uris":{"android":"levelo://app?vid=c24b1b71-8503-4383-b487-f7f9a744b14c","ios":"levelo://app?vid=c24b1b71-8503-4383-b487-f7f9a744b14c"},"vehicle_type_id":"4","last_reported":1730315291,"current_range_meters":35600,"station_id":"ce4bh4p2rcd13ifvqe0g","pricing_plan_id":"cebpf4jnsgd1na2vs0mg"},{"bike_id":"3c868789-73cc-418e-a715-7a914441694c","system_id":"levelo_inurba_marseille","lat":43.28844,"lon":5.39304,"is_reserved":false,"is_disabled":false,"rental_uris":{"android":"levelo://app?vid=3c868789-73cc-418e-a715-7a914441694c","ios":"levelo://app?vid=3c868789-73cc-418e-a715-7a914441694c"},"vehicle_type_id":"4","last_reported":1730315291,"current_range_meters":6400,"station_id":"ce4bgih2rcd13ifvqba0","pricing_plan_id":"cebpf4jnsgd1na2vs0mg"},{"bike_id":"dacc2c28-0d92-455a-bc27-97f14e35045e","system_id":"levelo_inurba_marseille","lat":43.29539,"lon":5.38537,"is_reserved":false,"is_disabled":false,"rental_uris":{"android":"levelo://app?vid=dacc2c28-0d92-455a-bc27-97f14e35045e","ios":"levelo://app?vid=dacc2c28-0d92-455a-bc27-97f14e35045e"},"vehicle_type_id":"4","last_reported":1730315291,"current_range_meters":34800,"station_id":"ce4bgih2rcd13ifvqba0","pricing_plan_id":"cebpf4jnsgd1na2vs0mg"},{"bike_id":"5c244c3d-8fd7-4c95-b825-2f7fe2f15994","system_id":"levelo_inurba_marseille","lat":43.23195,"lon":5.35553,"is_reserved":false,"is_disabled":false,"rental_uris":{"android":"levelo://app?vid=5c244c3d-8fd7-4c95-b825-2f7fe2f15994","ios":"levelo://app?vid=5c244c3d-8fd7-4c95-b825-2f7fe2f15994"},"vehicle_type_id":"4","last_reported":1730315291,"current_range_meters":38800,"station_id":"ce4bhu92rcd13ifvqi70","pricing_plan_id":"cebpf4jnsgd1na2vs0mg"},{"bike_id":"7d1fe817-f784-45b3-a7f6-2e79abcfa29c","system_id":"levelo_inurba_marseille","lat":43.337444,"lon":5.374475,"is_reserved":false,"is_disabled":false,"rental_uris":{"android":"levelo://app?vid=7d1fe817-f784-45b3-a7f6-2e79abcfa29c","ios":"levelo://app?vid=7d1fe817-f784-45b3-a7f6-2e79abcfa29c"},"vehicle_type_id":"4","last_reported":1730315291,"current_range_meters":38000,"station_id":"","pricing_plan_id":"cebpf4jnsgd1na2vs0mg"},{"bike_id":"62b0b1ce-b2d7-4247-9e22-fba332ee5238","system_id":"levelo_inurba_marseille","lat":43.29301,"lon":5.37157,"is_reserved":false,"is_disabled":false,"rental_uris":{"android":"levelo://app?vid=62b0b1ce-b2d7-4247-9e22-fba332ee5238","ios":"levelo://app?vid=62b0b1ce-b2d7-4247-9e22-fba332ee5238"},"vehicle_type_id":"4","last_reported":1730315291,"current_range_meters":8000,"station_id":"ce4bgh92rcd13ifvqb40","pricing_plan_id":"cebpf4jnsgd1na2vs0mg"},{"bike_id":"70f34d83-7145-4643-8b6c-c97c5e5a8e52","system_id":"levelo_inurba_marseille","lat":43.28937,"lon":5.36409,"is_reserved":false,"is_disabled":false,"rental_uris":{"android":"levelo://app?vid=70f34d83-7145-4643-8b6c-c97c5e5a8e52","ios":"levelo://app?vid=70f34d83-7145-4643-8b6c-c97c5e5a8e52"},"vehicle_type_id":"4","last_reported":1730315291,"current_range_meters":28800,"station_id":"ce4bhc92rcd13ifvqetg","pricing_plan_id":"cebpf4jnsgd1na2vs0mg"},{"bike_id":"dab930f7-1fcf-4f21-84d3-71d7d569610a","system_id":"levelo_inurba_marseille","lat":43.29357,"lon":5.37847,"is_reserved":false,"is_disabled":false,"rental_uris":{"android":"levelo://app?vid=dab930f7-1fcf-4f21-84d3-71d7d569610a","ios":"levelo://app?vid=dab930f7-1fcf-4f21-84d3-71d7d569610a"},"vehicle_type_id":"4","last_reported":1730315291,"current_range_meters":4400,"station_id":"ce4bgjh2rcd13ifvqbf0","pricing_plan_id":"cebpf4jnsgd1na2vs0mg"},{"bike_id":"24056ab2-12ea-42d4-b540-66bc8c285c60","system_id":"levelo_inurba_marseille","lat":43.290751,"lon":5.371544,"is_reserved":false,"is_disabled":false,"rental_uris":{"android":"levelo://app?vid=24056ab2-12ea-42d4-b540-66bc8c285c60","ios":"levelo://app?vid=24056ab2-12ea-42d4-b540-66bc8c285c60"},"vehicle_type_id":"4","last_reported":1730315291,"current_range_meters":37600,"station_id":"ce4bh5p2rcd13ifvqe4g","pricing_plan_id":"cebpf4jnsgd1na2vs0mg"},{"bike_id":"92adf987-4779-4b78-ad9c-8e29ab9175f3","system_id":"levelo_inurba_marseille","lat":43.23195,"lon":5.35542,"is_reserved":false,"is_disabled":false,"rental_uris":{"android":"levelo://app?vid=92adf987-4779-4b78-ad9c-8e29ab9175f3","ios":"levelo://app?vid=92adf987-4779-4b78-ad9c-8e29ab9175f3"},"vehicle_type_id":"4","last_reported":1730315291,"current_range_meters":10800,"station_id":"ce4bhu92rcd13ifvqi70","pricing_plan_id":"cebpf4jnsgd1na2vs0mg"},{"bike_id":"0d9e2dc0-7e48-44a4-9d02-16fb20798af5","system_id":"levelo_inurba_marseille","lat":43.23187,"lon":5.3998,"is_reserved":false,"is_disabled":false,"rental_uris":{"android":"levelo://app?vid=0d9e2dc0-7e48-44a4-9d02-16fb20798af5","ios":"levelo://app?vid=0d9e2dc0-7e48-44a4-9d02-16fb20798af5"},"vehicle_type_id":"4","last_reported":1730315291,"current_range_meters":19200,"station_id":"ce4bhn12rcd13ifvqgqg","pricing_plan_id":"cebpf4jnsgd1na2vs0mg"},{"bike_id":"ce2310f1-0848-4180-8bb1-c79c12d253ca","system_id":"levelo_inurba_marseille","lat":43.3375,"lon":5.37442,"is_reserved":false,"is_disabled":false,"rental_uris":{"android":"levelo://app?vid=ce2310f1-0848-4180-8bb1-c79c12d253ca","ios":"levelo://app?vid=ce2310f1-0848-4180-8bb1-c79c12d253ca"},"vehicle_type_id":"4","last_reported":1730315291,"current_range_meters":34800,"station_id":"","pricing_plan_id":"cebpf4jnsgd1na2vs0mg"},{"bike_id":"86c49bb9-af99-4efc-9262-521418555f42","system_id":"levelo_inurba_marseille","lat":43.29622,"lon":5.37156,"is_reserved":false,"is_disabled":false,"rental_uris":{"android":"levelo://app?vid=86c49bb9-af99-4efc-9262-521418555f42","ios":"levelo://app?vid=86c49bb9-af99-4efc-9262-521418555f42"},"vehicle_type_id":"4","last_reported":1730315291,"current_range_meters":38000,"station_id":"ce4bgnh2rcd13ifvqc0g","pricing_plan_id":"cebpf4jnsgd1na2vs0mg"},{"bike_id":"002dc367-d8ea-46cb-b916-10403bf80fbe","system_id":"levelo_inurba_marseille","lat":43.24846,"lon":5.3817,"is_reserved":false,"is_disabled":false,"rental_uris":{"android":"levelo://app?vid=002dc367-d8ea-46cb-b916-10403bf80fbe","ios":"levelo://app?vid=002dc367-d8ea-46cb-b916-10403bf80fbe"},"vehicle_type_id":"4","last_reported":1730315291,"current_range_meters":2800,"station_id":"","pricing_plan_id":"cebpf4jnsgd1na2vs0mg"},{"bike_id":"23022d2f-0e40-4eff-9608-2ce8f17a88ca","system_id":"levelo_inurba_marseille","lat":43.29417,"lon":5.38631,"is_reserved":false,"is_disabled":false,"rental_uris":{"android":"levelo://app?vid=23022d2f-0e40-4eff-9608-2ce8f17a88ca","ios":"levelo://app?vid=23022d2f-0e40-4eff-9608-2ce8f17a88ca"},"vehicle_type_id":"4","last_reported":1730315291,"current_range_meters":32400,"station_id":"ce4bh2h2rcd13ifvqdh0","pricing_plan_id":"cebpf4jnsgd1na2vs0mg"},{"bike_id":"732b37a6-efdd-47ef-8967-40ea3129b214","system_id":"levelo_inurba_marseille","lat":43.26496,"lon":5.39543,"is_reserved":false,"is_disabled":false,"rental_uris":{"android":"levelo://app?vid=732b37a6-efdd-47ef-8967-40ea3129b214","ios":"levelo://app?vid=732b37a6-efdd-47ef-8967-40ea3129b214"},"vehicle_type_id":"4","last_reported":1730315291,"current_range_meters":8400,"station_id":"ce4bhi12rcd13ifvqfq0","pricing_plan_id":"cebpf4jnsgd1na2vs0mg"},{"bike_id":"1a30f102-4690-4d49-933e-cc7cef8baad7","system_id":"levelo_inurba_marseille","lat":43.28153,"lon":5.42642,"is_reserved":false,"is_disabled":false,"rental_uris":{"android":"levelo://app?vid=1a30f102-4690-4d49-933e-cc7cef8baad7","ios":"levelo://app?vid=1a30f102-4690-4d49-933e-cc7cef8baad7"},"vehicle_type_id":"4","last_reported":1730315291,"current_range_meters":33600,"station_id":"ce4bhnh2rcd13ifvqgug","pricing_plan_id":"cebpf4jnsgd1na2vs0mg"},{"bike_id":"7dfaf496-2e50-463a-a103-b8570a0c6a9a","system_id":"levelo_inurba_marseille","lat":43.24391,"lon":5.37057,"is_reserved":false,"is_disabled":false,"rental_uris":{"android":"levelo://app?vid=7dfaf496-2e50-463a-a103-b8570a0c6a9a","ios":"levelo://app?vid=7dfaf496-2e50-463a-a103-b8570a0c6a9a"},"vehicle_type_id":"4","last_reported":1730315291,"current_range_meters":24800,"station_id":"ce4bhhh2rcd13ifvqfk0","pricing_plan_id":"cebpf4jnsgd1na2vs0mg"},{"bike_id":"ec6bf2c6-81ba-4965-828b-92e734ee6e46","system_id":"levelo_inurba_marseille","lat":43.23196,"lon":5.35545,"is_reserved":false,"is_disabled":false,"rental_uris":{"android":"levelo://app?vid=ec6bf2c6-81ba-4965-828b-92e734ee6e46","ios":"levelo://app?vid=ec6bf2c6-81ba-4965-828b-92e734ee6e46"},"vehicle_type_id":"4","last_reported":1730315291,"current_range_meters":28000,"station_id":"ce4bhu92rcd13ifvqi70","pricing_plan_id":"cebpf4jnsgd1na2vs0mg"},{"bike_id":"d08cc35b-811c-4de2-a4d2-4ee21a205e04","system_id":"levelo_inurba_marseille","lat":43.28939,"lon":5.36634,"is_reserved":false,"is_disabled":false,"rental_uris":{"android":"levelo://app?vid=d08cc35b-811c-4de2-a4d2-4ee21a205e04","ios":"levelo://app?vid=d08cc35b-811c-4de2-a4d2-4ee21a205e04"},"vehicle_type_id":"4","last_reported":1730315291,"current_range_meters":10000,"station_id":"ce4bhap2rcd13ifvqek0","pricing_plan_id":"cebpf4jnsgd1na2vs0mg"},{"bike_id":"dfc15097-286b-4a19-888e-24b66d859567","system_id":"levelo_inurba_marseille","lat":43.26821,"lon":5.41104,"is_reserved":false,"is_disabled":false,"rental_uris":{"android":"levelo://app?vid=dfc15097-286b-4a19-888e-24b66d859567","ios":"levelo://app?vid=dfc15097-286b-4a19-888e-24b66d859567"},"vehicle_type_id":"4","last_reported":1730315291,"current_range_meters":14000,"station_id":"","pricing_plan_id":"cebpf4jnsgd1na2vs0mg"},{"bike_id":"d491b133-8b8a-4429-862c-f3651ad64e53","system_id":"levelo_inurba_marseille","lat":43.25582,"lon":5.38241,"is_reserved":false,"is_disabled":false,"rental_uris":{"android":"levelo://app?vid=d491b133-8b8a-4429-862c-f3651ad64e53","ios":"levelo://app?vid=d491b133-8b8a-4429-862c-f3651ad64e53"},"vehicle_type_id":"4","last_reported":1730315291,"current_range_meters":38800,"station_id":"ce4bhih2rcd13ifvqfs0","pricing_plan_id":"cebpf4jnsgd1na2vs0mg"},{"bike_id":"62874f0c-2696-4712-9a95-c582d9bfbbaa","system_id":"levelo_inurba_marseille","lat":43.27836,"lon":5.41234,"is_reserved":false,"is_disabled":false,"rental_uris":{"android":"levelo://app?vid=62874f0c-2696-4712-9a95-c582d9bfbbaa","ios":"levelo://app?vid=62874f0c-2696-4712-9a95-c582d9bfbbaa"},"vehicle_type_id":"4","last_reported":1730315291,"current_range_meters":16800,"station_id":"","pricing_plan_id":"cebpf4jnsgd1na2vs0mg"},{"bike_id":"c2a2a11c-2302-4ec4-8b2f-54df518c0674","system_id":"levelo_inurba_marseille","lat":43.2903,"lon":5.38656,"is_reserved":false,"is_disabled":false,"rental_uris":{"android":"levelo://app?vid=c2a2a11c-2302-4ec4-8b2f-54df518c0674","ios":"levelo://app?vid=c2a2a11c-2302-4ec4-8b2f-54df518c0674"},"vehicle_type_id":"4","last_reported":1730315291,"current_range_meters":28000,"station_id":"ce4bh4p2rcd13ifvqe0g","pricing_plan_id":"cebpf4jnsgd1na2vs0mg"},{"bike_id":"6ad783cb-41da-4545-85fe-6fd00e6a9ab3","system_id":"levelo_inurba_marseille","lat":43.29025,"lon":5.38629,"is_reserved":false,"is_disabled":false,"rental_uris":{"android":"levelo://app?vid=6ad783cb-41da-4545-85fe-6fd00e6a9ab3","ios":"levelo://app?vid=6ad783cb-41da-4545-85fe-6fd00e6a9ab3"},"vehicle_type_id":"4","last_reported":1730315291,"current_range_meters":38400,"station_id":"ce4bh4p2rcd13ifvqe0g","pricing_plan_id":"cebpf4jnsgd1na2vs0mg"},{"bike_id":"030c80e0-aac5-4c81-9c1b-b4cd24c05688","system_id":"levelo_inurba_marseille","lat":43.27943,"lon":5.41055,"is_reserved":false,"is_disabled":false,"rental_uris":{"android":"levelo://app?vid=030c80e0-aac5-4c81-9c1b-b4cd24c05688","ios":"levelo://app?vid=030c80e0-aac5-4c81-9c1b-b4cd24c05688"},"vehicle_type_id":"4","last_reported":1730315291,"current_range_meters":29600,"station_id":"ce4bhnp2rcd13ifvqh0g","pricing_plan_id":"cebpf4jnsgd1na2vs0mg"},{"bike_id":"2133e852-2aa1-425d-80d1-01378e9e5be7","system_id":"levelo_inurba_marseille","lat":43.30193,"lon":5.39495,"is_reserved":false,"is_disabled":false,"rental_uris":{"android":"levelo://app?vid=2133e852-2aa1-425d-80d1-01378e9e5be7","ios":"levelo://app?vid=2133e852-2aa1-425d-80d1-01378e9e5be7"},"vehicle_type_id":"4","last_reported":1730315291,"current_range_meters":36400,"station_id":"ce4bh0p2rcd13ifvqd70","pricing_plan_id":"cebpf4jnsgd1na2vs0mg"},{"bike_id":"436a6a69-d3b4-4bdf-8c98-78260ced3e10","system_id":"levelo_inurba_marseille","lat":43.28707,"lon":5.37383,"is_reserved":false,"is_disabled":false,"rental_uris":{"android":"levelo://app?vid=436a6a69-d3b4-4bdf-8c98-78260ced3e10","ios":"levelo://app?vid=436a6a69-d3b4-4bdf-8c98-78260ced3e10"},"vehicle_type_id":"4","last_reported":1730315291,"current_range_meters":8800,"station_id":"ce4bh3p2rcd13ifvqdq0","pricing_plan_id":"cebpf4jnsgd1na2vs0mg"},{"bike_id":"d7c91e27-01ff-4e63-931a-06879363336d","system_id":"levelo_inurba_marseille","lat":43.3013,"lon":5.38773,"is_reserved":false,"is_disabled":false,"rental_uris":{"android":"levelo://app?vid=d7c91e27-01ff-4e63-931a-06879363336d","ios":"levelo://app?vid=d7c91e27-01ff-4e63-931a-06879363336d"},"vehicle_type_id":"4","last_reported":1730315291,"current_range_meters":8800,"station_id":"ce4bghh2rcd13ifvqb60","pricing_plan_id":"cebpf4jnsgd1na2vs0mg"},{"bike_id":"fe5a4f25-ed16-41fe-8b56-64c8fd315a7b","system_id":"levelo_inurba_marseille","lat":43.308,"lon":5.43533,"is_reserved":false,"is_disabled":false,"rental_uris":{"android":"levelo://app?vid=fe5a4f25-ed16-41fe-8b56-64c8fd315a7b","ios":"levelo://app?vid=fe5a4f25-ed16-41fe-8b56-64c8fd315a7b"},"vehicle_type_id":"4","last_reported":1730315291,"current_range_meters":38800,"station_id":"ce4bhph2rcd13ifvqheg","pricing_plan_id":"cebpf4jnsgd1na2vs0mg"},{"bike_id":"2370a04e-d358-4a29-b67a-890bf50b34fd","system_id":"levelo_inurba_marseille","lat":43.24171,"lon":5.36403,"is_reserved":false,"is_disabled":false,"rental_uris":{"android":"levelo://app?vid=2370a04e-d358-4a29-b67a-890bf50b34fd","ios":"levelo://app?vid=2370a04e-d358-4a29-b67a-890bf50b34fd"},"vehicle_type_id":"4","last_reported":1730315291,"current_range_meters":5600,"station_id":"cpo36qri1sfpv3e86is0","pricing_plan_id":"cebpf4jnsgd1na2vs0mg"},{"bike_id":"2d09b255-c383-4598-b26d-af21dea65632","system_id":"levelo_inurba_marseille","lat":43.28416,"lon":5.37505,"is_reserved":false,"is_disabled":false,"rental_uris":{"android":"levelo://app?vid=2d09b255-c383-4598-b26d-af21dea65632","ios":"levelo://app?vid=2d09b255-c383-4598-b26d-af21dea65632"},"vehicle_type_id":"4","last_reported":1730315291,"current_range_meters":34000,"station_id":"ce4bh412rcd13ifvqds0","pricing_plan_id":"cebpf4jnsgd1na2vs0mg"},{"bike_id":"03cd28ee-c1f6-4d3f-970a-7eeddccbae18","system_id":"levelo_inurba_marseille","lat":43.28667,"lon":5.38662,"is_reserved":false,"is_disabled":false,"rental_uris":{"android":"levelo://app?vid=03cd28ee-c1f6-4d3f-970a-7eeddccbae18","ios":"levelo://app?vid=03cd28ee-c1f6-4d3f-970a-7eeddccbae18"},"vehicle_type_id":"4","last_reported":1730315291,"current_range_meters":38800,"station_id":"ce4bh492rcd13ifvqdug","pricing_plan_id":"cebpf4jnsgd1na2vs0mg"},{"bike_id":"335d4dc5-ed27-4ea9-92a7-0c3cc738682d","system_id":"levelo_inurba_marseille","lat":43.29531,"lon":5.38551,"is_reserved":false,"is_disabled":false,"rental_uris":{"android":"levelo://app?vid=335d4dc5-ed27-4ea9-92a7-0c3cc738682d","ios":"levelo://app?vid=335d4dc5-ed27-4ea9-92a7-0c3cc738682d"},"vehicle_type_id":"4","last_reported":1730315291,"current_range_meters":5600,"station_id":"ce4bgih2rcd13ifvqba0","pricing_plan_id":"cebpf4jnsgd1na2vs0mg"},{"bike_id":"9b7c85ba-0f09-4bfd-acac-7fa4b78edd96","system_id":"levelo_inurba_marseille","lat":43.28348,"lon":5.38097,"is_reserved":false,"is_disabled":false,"rental_uris":{"android":"levelo://app?vid=9b7c85ba-0f09-4bfd-acac-7fa4b78edd96","ios":"levelo://app?vid=9b7c85ba-0f09-4bfd-acac-7fa4b78edd96"},"vehicle_type_id":"4","last_reported":1730315291,"current_range_meters":19600,"station_id":"ce4bh412rcd13ifvqdr0","pricing_plan_id":"cebpf4jnsgd1na2vs0mg"},{"bike_id":"006b755d-6edf-4085-af12-70dec48b6267","system_id":"levelo_inurba_marseille","lat":43.2481,"lon":5.37457,"is_reserved":false,"is_disabled":false,"rental_uris":{"android":"levelo://app?vid=006b755d-6edf-4085-af12-70dec48b6267","ios":"levelo://app?vid=006b755d-6edf-4085-af12-70dec48b6267"},"vehicle_type_id":"4","last_reported":1730315291,"current_range_meters":38800,"station_id":"ce4bhgh2rcd13ifvqfb0","pricing_plan_id":"cebpf4jnsgd1na2vs0mg"},{"bike_id":"03e26363-1adc-494c-8098-91070571fba5","system_id":"levelo_inurba_marseille","lat":43.232,"lon":5.35556,"is_reserved":false,"is_disabled":false,"rental_uris":{"android":"levelo://app?vid=03e26363-1adc-494c-8098-91070571fba5","ios":"levelo://app?vid=03e26363-1adc-494c-8098-91070571fba5"},"vehicle_type_id":"4","last_reported":1730315291,"current_range_meters":28800,"station_id":"ce4bhu92rcd13ifvqi70","pricing_plan_id":"cebpf4jnsgd1na2vs0mg"},{"bike_id":"9ef39e10-3ba3-4156-ac4a-7970df6873af","system_id":"levelo_inurba_marseille","lat":43.26992,"lon":5.39869,"is_reserved":false,"is_disabled":false,"rental_uris":{"android":"levelo://app?vid=9ef39e10-3ba3-4156-ac4a-7970df6873af","ios":"levelo://app?vid=9ef39e10-3ba3-4156-ac4a-7970df6873af"},"vehicle_type_id":"4","last_reported":1730315291,"current_range_meters":16000,"station_id":"","pricing_plan_id":"cebpf4jnsgd1na2vs0mg"},{"bike_id":"dc190658-8553-4551-b8cb-354443b662cd","system_id":"levelo_inurba_marseille","lat":43.23194,"lon":5.35557,"is_reserved":false,"is_disabled":false,"rental_uris":{"android":"levelo://app?vid=dc190658-8553-4551-b8cb-354443b662cd","ios":"levelo://app?vid=dc190658-8553-4551-b8cb-354443b662cd"},"vehicle_type_id":"4","last_reported":1730315291,"current_range_meters":10000,"station_id":"ce4bhu92rcd13ifvqi70","pricing_plan_id":"cebpf4jnsgd1na2vs0mg"},{"bike_id":"b7e64176-1c8b-4246-a826-381e1b8d7249","system_id":"levelo_inurba_marseille","lat":43.26684,"lon":5.38274,"is_reserved":false,"is_disabled":false,"rental_uris":{"android":"levelo://app?vid=b7e64176-1c8b-4246-a826-381e1b8d7249","ios":"levelo://app?vid=b7e64176-1c8b-4246-a826-381e1b8d7249"},"vehicle_type_id":"4","last_reported":1730315291,"current_range_meters":36800,"station_id":"ce4bhg92rcd13ifvqf90","pricing_plan_id":"cebpf4jnsgd1na2vs0mg"},{"bike_id":"c628fee8-65ae-47f5-971a-44c6dd08c503","system_id":"levelo_inurba_marseille","lat":43.313311,"lon":5.396842,"is_reserved":false,"is_disabled":false,"rental_uris":{"android":"levelo://app?vid=c628fee8-65ae-47f5-971a-44c6dd08c503","ios":"levelo://app?vid=c628fee8-65ae-47f5-971a-44c6dd08c503"},"vehicle_type_id":"4","last_reported":1730315291,"current_range_meters":30000,"station_id":"ce4bgvp2rcd13ifvqcu0","pricing_plan_id":"cebpf4jnsgd1na2vs0mg"},{"bike_id":"6b60e277-7b3b-43aa-9c89-a6073b35712b","system_id":"levelo_inurba_marseille","lat":43.29093,"lon":5.38153,"is_reserved":false,"is_disabled":false,"rental_uris":{"android":"levelo://app?vid=6b60e277-7b3b-43aa-9c89-a6073b35712b","ios":"levelo://app?vid=6b60e277-7b3b-43aa-9c89-a6073b35712b"},"vehicle_type_id":"4","last_reported":1730315291,"current_range_meters":28400,"station_id":"ce4bh512rcd13ifvqe2g","pricing_plan_id":"cebpf4jnsgd1na2vs0mg"},{"bike_id":"f4b5ea5d-dfcf-4a8e-94c9-4d9fff4506e7","system_id":"levelo_inurba_marseille","lat":43.30215,"lon":5.39464,"is_reserved":false,"is_disabled":false,"rental_uris":{"android":"levelo://app?vid=f4b5ea5d-dfcf-4a8e-94c9-4d9fff4506e7","ios":"levelo://app?vid=f4b5ea5d-dfcf-4a8e-94c9-4d9fff4506e7"},"vehicle_type_id":"4","last_reported":1730315291,"current_range_meters":33600,"station_id":"ce4bh0p2rcd13ifvqd70","pricing_plan_id":"cebpf4jnsgd1na2vs0mg"},{"bike_id":"c1d146ef-21bc-4457-bb81-7725baf82054","system_id":"levelo_inurba_marseille","lat":43.27673,"lon":5.38861,"is_reserved":false,"is_disabled":false,"rental_uris":{"android":"levelo://app?vid=c1d146ef-21bc-4457-bb81-7725baf82054","ios":"levelo://app?vid=c1d146ef-21bc-4457-bb81-7725baf82054"},"vehicle_type_id":"4","last_reported":1730315291,"current_range_meters":28000,"station_id":"ce4bhi12rcd13ifvqfo0","pricing_plan_id":"cebpf4jnsgd1na2vs0mg"},{"bike_id":"b6602ed0-c65d-4098-a6e9-9041ff3c3680","system_id":"levelo_inurba_marseille","lat":43.27321,"lon":5.390525,"is_reserved":false,"is_disabled":false,"rental_uris":{"android":"levelo://app?vid=b6602ed0-c65d-4098-a6e9-9041ff3c3680","ios":"levelo://app?vid=b6602ed0-c65d-4098-a6e9-9041ff3c3680"},"vehicle_type_id":"4","last_reported":1730315291,"current_range_meters":33600,"station_id":"ce4bgi92rcd13ifvqb90","pricing_plan_id":"cebpf4jnsgd1na2vs0mg"},{"bike_id":"e0fcecf6-b11c-4f32-bd02-4391ab868e4c","system_id":"levelo_inurba_marseille","lat":43.29253,"lon":5.38439,"is_reserved":false,"is_disabled":false,"rental_uris":{"android":"levelo://app?vid=e0fcecf6-b11c-4f32-bd02-4391ab868e4c","ios":"levelo://app?vid=e0fcecf6-b11c-4f32-bd02-4391ab868e4c"},"vehicle_type_id":"4","last_reported":1730315291,"current_range_meters":10800,"station_id":"ce4bh692rcd13ifvqea0","pricing_plan_id":"cebpf4jnsgd1na2vs0mg"},{"bike_id":"5266335c-fb51-4166-a0ab-8099a4c09e4b","system_id":"levelo_inurba_marseille","lat":43.32287,"lon":5.38279,"is_reserved":false,"is_disabled":false,"rental_uris":{"android":"levelo://app?vid=5266335c-fb51-4166-a0ab-8099a4c09e4b","ios":"levelo://app?vid=5266335c-fb51-4166-a0ab-8099a4c09e4b"},"vehicle_type_id":"4","last_reported":1730315291,"current_range_meters":2800,"station_id":"ce4bhr12rcd13ifvqhqg","pricing_plan_id":"cebpf4jnsgd1na2vs0mg"},{"bike_id":"8492bd51-4172-4940-bd0e-24f88e4032f5","system_id":"levelo_inurba_marseille","lat":43.32469,"lon":5.36566,"is_reserved":false,"is_disabled":false,"rental_uris":{"android":"levelo://app?vid=8492bd51-4172-4940-bd0e-24f88e4032f5","ios":"levelo://app?vid=8492bd51-4172-4940-bd0e-24f88e4032f5"},"vehicle_type_id":"4","last_reported":1730315291,"current_range_meters":14000,"station_id":"ce4bhs12rcd13ifvqhvg","pricing_plan_id":"cebpf4jnsgd1na2vs0mg"},{"bike_id":"203cdc68-feff-483d-ac1a-996e1a200a5a","system_id":"levelo_inurba_marseille","lat":43.27918,"lon":5.39583,"is_reserved":false,"is_disabled":false,"rental_uris":{"android":"levelo://app?vid=203cdc68-feff-483d-ac1a-996e1a200a5a","ios":"levelo://app?vid=203cdc68-feff-483d-ac1a-996e1a200a5a"},"vehicle_type_id":"4","last_reported":1730315291,"current_range_meters":30800,"station_id":"ce4bhf92rcd13ifvqf40","pricing_plan_id":"cebpf4jnsgd1na2vs0mg"},{"bike_id":"5fc53b48-84e5-4203-ade3-11d4ba389688","system_id":"levelo_inurba_marseille","lat":43.298012,"lon":5.382429,"is_reserved":false,"is_disabled":false,"rental_uris":{"android":"levelo://app?vid=5fc53b48-84e5-4203-ade3-11d4ba389688","ios":"levelo://app?vid=5fc53b48-84e5-4203-ade3-11d4ba389688"},"vehicle_type_id":"4","last_reported":1730315291,"current_range_meters":23200,"station_id":"ce4bgkh2rcd13ifvqbk0","pricing_plan_id":"cebpf4jnsgd1na2vs0mg"},{"bike_id":"333f05e4-dbe7-48b4-81fd-e1b93473986c","system_id":"levelo_inurba_marseille","lat":43.2958,"lon":5.36738,"is_reserved":false,"is_disabled":false,"rental_uris":{"android":"levelo://app?vid=333f05e4-dbe7-48b4-81fd-e1b93473986c","ios":"levelo://app?vid=333f05e4-dbe7-48b4-81fd-e1b93473986c"},"vehicle_type_id":"4","last_reported":1730315291,"current_range_meters":8400,"station_id":"ce4bgph2rcd13ifvqc2g","pricing_plan_id":"cebpf4jnsgd1na2vs0mg"},{"bike_id":"9af52820-6fdb-4b39-a043-81ccd1b87e96","system_id":"levelo_inurba_marseille","lat":43.29558,"lon":5.42292,"is_reserved":false,"is_disabled":false,"rental_uris":{"android":"levelo://app?vid=9af52820-6fdb-4b39-a043-81ccd1b87e96","ios":"levelo://app?vid=9af52820-6fdb-4b39-a043-81ccd1b87e96"},"vehicle_type_id":"4","last_reported":1730315291,"current_range_meters":38800,"station_id":"ce4bhph2rcd13ifvqhdg","pricing_plan_id":"cebpf4jnsgd1na2vs0mg"},{"bike_id":"fbb11bf0-6f49-45c1-810c-8f2d67e3de9e","system_id":"levelo_inurba_marseille","lat":43.29421,"lon":5.38628,"is_reserved":false,"is_disabled":false,"rental_uris":{"android":"levelo://app?vid=fbb11bf0-6f49-45c1-810c-8f2d67e3de9e","ios":"levelo://app?vid=fbb11bf0-6f49-45c1-810c-8f2d67e3de9e"},"vehicle_type_id":"4","last_reported":1730315291,"current_range_meters":39200,"station_id":"ce4bh2h2rcd13ifvqdh0","pricing_plan_id":"cebpf4jnsgd1na2vs0mg"},{"bike_id":"d1705d24-2cd8-43ab-b249-23729f2f538d","system_id":"levelo_inurba_marseille","lat":43.29023,"lon":5.38121,"is_reserved":false,"is_disabled":false,"rental_uris":{"android":"levelo://app?vid=d1705d24-2cd8-43ab-b249-23729f2f538d","ios":"levelo://app?vid=d1705d24-2cd8-43ab-b249-23729f2f538d"},"vehicle_type_id":"4","last_reported":1730315291,"current_range_meters":10800,"station_id":"ce4bh4p2rcd13ifvqe1g","pricing_plan_id":"cebpf4jnsgd1na2vs0mg"},{"bike_id":"7ad1c9ff-f920-4f37-a20f-c6324d37747c","system_id":"levelo_inurba_marseille","lat":43.29019,"lon":5.38649,"is_reserved":false,"is_disabled":false,"rental_uris":{"android":"levelo://app?vid=7ad1c9ff-f920-4f37-a20f-c6324d37747c","ios":"levelo://app?vid=7ad1c9ff-f920-4f37-a20f-c6324d37747c"},"vehicle_type_id":"4","last_reported":1730315291,"current_range_meters":36800,"station_id":"ce4bh4p2rcd13ifvqe0g","pricing_plan_id":"cebpf4jnsgd1na2vs0mg"},{"bike_id":"65d6c941-3cdd-4463-b1fb-ea6213375507","system_id":"levelo_inurba_marseille","lat":43.24811,"lon":5.37458,"is_reserved":false,"is_disabled":false,"rental_uris":{"android":"levelo://app?vid=65d6c941-3cdd-4463-b1fb-ea6213375507","ios":"levelo://app?vid=65d6c941-3cdd-4463-b1fb-ea6213375507"},"vehicle_type_id":"4","last_reported":1730315291,"current_range_meters":12000,"station_id":"ce4bhgh2rcd13ifvqfb0","pricing_plan_id":"cebpf4jnsgd1na2vs0mg"},{"bike_id":"e826a637-15f1-4eaf-9a52-aa5a7923d99a","system_id":"levelo_inurba_marseille","lat":43.29422,"lon":5.38631,"is_reserved":false,"is_disabled":false,"rental_uris":{"android":"levelo://app?vid=e826a637-15f1-4eaf-9a52-aa5a7923d99a","ios":"levelo://app?vid=e826a637-15f1-4eaf-9a52-aa5a7923d99a"},"vehicle_type_id":"4","last_reported":1730315291,"current_range_meters":2800,"station_id":"ce4bh2h2rcd13ifvqdh0","pricing_plan_id":"cebpf4jnsgd1na2vs0mg"},{"bike_id":"7f86908b-c61f-47ee-b718-e7d59115a45d","system_id":"levelo_inurba_marseille","lat":43.28945,"lon":5.36641,"is_reserved":false,"is_disabled":false,"rental_uris":{"android":"levelo://app?vid=7f86908b-c61f-47ee-b718-e7d59115a45d","ios":"levelo://app?vid=7f86908b-c61f-47ee-b718-e7d59115a45d"},"vehicle_type_id":"4","last_reported":1730315291,"current_range_meters":35200,"station_id":"ce4bhap2rcd13ifvqek0","pricing_plan_id":"cebpf4jnsgd1na2vs0mg"},{"bike_id":"f9a5b530-49e1-470e-bdb4-b833f92f8eef","system_id":"levelo_inurba_marseille","lat":43.29267,"lon":5.38442,"is_reserved":false,"is_disabled":false,"rental_uris":{"android":"levelo://app?vid=f9a5b530-49e1-470e-bdb4-b833f92f8eef","ios":"levelo://app?vid=f9a5b530-49e1-470e-bdb4-b833f92f8eef"},"vehicle_type_id":"4","last_reported":1730315291,"current_range_meters":2000,"station_id":"ce4bh692rcd13ifvqea0","pricing_plan_id":"cebpf4jnsgd1na2vs0mg"},{"bike_id":"f578ea20-7d70-40c2-9823-8b02351023e2","system_id":"levelo_inurba_marseille","lat":43.304318,"lon":5.388815,"is_reserved":false,"is_disabled":false,"rental_uris":{"android":"levelo://app?vid=f578ea20-7d70-40c2-9823-8b02351023e2","ios":"levelo://app?vid=f578ea20-7d70-40c2-9823-8b02351023e2"},"vehicle_type_id":"4","last_reported":1730315291,"current_range_meters":25600,"station_id":"ce4bgk12rcd13ifvqbi0","pricing_plan_id":"cebpf4jnsgd1na2vs0mg"},{"bike_id":"9133542d-fc9b-4b3c-b11d-00bf63954fb8","system_id":"levelo_inurba_marseille","lat":43.29419,"lon":5.38629,"is_reserved":false,"is_disabled":false,"rental_uris":{"android":"levelo://app?vid=9133542d-fc9b-4b3c-b11d-00bf63954fb8","ios":"levelo://app?vid=9133542d-fc9b-4b3c-b11d-00bf63954fb8"},"vehicle_type_id":"4","last_reported":1730315291,"current_range_meters":28400,"station_id":"ce4bh2h2rcd13ifvqdh0","pricing_plan_id":"cebpf4jnsgd1na2vs0mg"},{"bike_id":"69560268-5c61-46b2-b91a-9b14ee9cc861","system_id":"levelo_inurba_marseille","lat":43.27685,"lon":5.38877,"is_reserved":false,"is_disabled":false,"rental_uris":{"android":"levelo://app?vid=69560268-5c61-46b2-b91a-9b14ee9cc861","ios":"levelo://app?vid=69560268-5c61-46b2-b91a-9b14ee9cc861"},"vehicle_type_id":"4","last_reported":1730315291,"current_range_meters":22800,"station_id":"ce4bhi12rcd13ifvqfo0","pricing_plan_id":"cebpf4jnsgd1na2vs0mg"},{"bike_id":"b6b8ecb0-81ed-4397-b9a4-530bc9e9e03a","system_id":"levelo_inurba_marseille","lat":43.29273,"lon":5.36853,"is_reserved":false,"is_disabled":false,"rental_uris":{"android":"levelo://app?vid=b6b8ecb0-81ed-4397-b9a4-530bc9e9e03a","ios":"levelo://app?vid=b6b8ecb0-81ed-4397-b9a4-530bc9e9e03a"},"vehicle_type_id":"4","last_reported":1730315291,"current_range_meters":38800,"station_id":"ce4bhbp2rcd13ifvqesg","pricing_plan_id":"cebpf4jnsgd1na2vs0mg"},{"bike_id":"b3ff5ef7-d394-4f6c-841d-56820421bed1","system_id":"levelo_inurba_marseille","lat":43.27812,"lon":5.40718,"is_reserved":false,"is_disabled":false,"rental_uris":{"android":"levelo://app?vid=b3ff5ef7-d394-4f6c-841d-56820421bed1","ios":"levelo://app?vid=b3ff5ef7-d394-4f6c-841d-56820421bed1"},"vehicle_type_id":"4","last_reported":1730315291,"current_range_meters":6400,"station_id":"ce4bhnh2rcd13ifvqgtg","pricing_plan_id":"cebpf4jnsgd1na2vs0mg"},{"bike_id":"5ff74640-5d39-40f8-808a-e5695df59fd4","system_id":"levelo_inurba_marseille","lat":43.27194,"lon":5.41025,"is_reserved":false,"is_disabled":false,"rental_uris":{"android":"levelo://app?vid=5ff74640-5d39-40f8-808a-e5695df59fd4","ios":"levelo://app?vid=5ff74640-5d39-40f8-808a-e5695df59fd4"},"vehicle_type_id":"4","last_reported":1730315291,"current_range_meters":12000,"station_id":"ce4bhl12rcd13ifvqgf0","pricing_plan_id":"cebpf4jnsgd1na2vs0mg"},{"bike_id":"43f96fe9-2966-43bc-81a8-568837fb3199","system_id":"levelo_inurba_marseille","lat":43.29514,"lon":5.39398,"is_reserved":false,"is_disabled":false,"rental_uris":{"android":"levelo://app?vid=43f96fe9-2966-43bc-81a8-568837fb3199","ios":"levelo://app?vid=43f96fe9-2966-43bc-81a8-568837fb3199"},"vehicle_type_id":"4","last_reported":1730315291,"current_range_meters":24800,"station_id":"ce4bh292rcd13ifvqdf0","pricing_plan_id":"cebpf4jnsgd1na2vs0mg"},{"bike_id":"3c1c29e2-3184-4593-99af-3455f230ba6f","system_id":"levelo_inurba_marseille","lat":43.24184,"lon":5.39729,"is_reserved":false,"is_disabled":false,"rental_uris":{"android":"levelo://app?vid=3c1c29e2-3184-4593-99af-3455f230ba6f","ios":"levelo://app?vid=3c1c29e2-3184-4593-99af-3455f230ba6f"},"vehicle_type_id":"4","last_reported":1730315291,"current_range_meters":28800,"station_id":"ce4bhn12rcd13ifvqgpg","pricing_plan_id":"cebpf4jnsgd1na2vs0mg"},{"bike_id":"df5a1add-d7b9-4c62-b5b6-929562a3474b","system_id":"levelo_inurba_marseille","lat":43.28941,"lon":5.36635,"is_reserved":false,"is_disabled":false,"rental_uris":{"android":"levelo://app?vid=df5a1add-d7b9-4c62-b5b6-929562a3474b","ios":"levelo://app?vid=df5a1add-d7b9-4c62-b5b6-929562a3474b"},"vehicle_type_id":"4","last_reported":1730315291,"current_range_meters":8000,"station_id":"ce4bhap2rcd13ifvqek0","pricing_plan_id":"cebpf4jnsgd1na2vs0mg"},{"bike_id":"7819e40e-54c1-4309-b392-01f83f91e381","system_id":"levelo_inurba_marseille","lat":43.28942,"lon":5.3664,"is_reserved":false,"is_disabled":false,"rental_uris":{"android":"levelo://app?vid=7819e40e-54c1-4309-b392-01f83f91e381","ios":"levelo://app?vid=7819e40e-54c1-4309-b392-01f83f91e381"},"vehicle_type_id":"4","last_reported":1730315291,"current_range_meters":4400,"station_id":"ce4bhap2rcd13ifvqek0","pricing_plan_id":"cebpf4jnsgd1na2vs0mg"},{"bike_id":"3f9e7582-8fb2-437b-8c87-fbaabe4c3a0c","system_id":"levelo_inurba_marseille","lat":43.31692,"lon":5.40464,"is_reserved":false,"is_disabled":false,"rental_uris":{"android":"levelo://app?vid=3f9e7582-8fb2-437b-8c87-fbaabe4c3a0c","ios":"levelo://app?vid=3f9e7582-8fb2-437b-8c87-fbaabe4c3a0c"},"vehicle_type_id":"4","last_reported":1730315291,"current_range_meters":4400,"station_id":"ce4bh012rcd13ifvqd00","pricing_plan_id":"cebpf4jnsgd1na2vs0mg"},{"bike_id":"27242427-0a7e-4085-9664-eaf7137523aa","system_id":"levelo_inurba_marseille","lat":43.27967,"lon":5.38746,"is_reserved":false,"is_disabled":false,"rental_uris":{"android":"levelo://app?vid=27242427-0a7e-4085-9664-eaf7137523aa","ios":"levelo://app?vid=27242427-0a7e-4085-9664-eaf7137523aa"},"vehicle_type_id":"4","last_reported":1730315291,"current_range_meters":25600,"station_id":"ce4bhg12rcd13ifvqf80","pricing_plan_id":"cebpf4jnsgd1na2vs0mg"},{"bike_id":"62e9561e-ad05-4f0e-b75e-5d2e36048b40","system_id":"levelo_inurba_marseille","lat":43.31714,"lon":5.43709,"is_reserved":false,"is_disabled":false,"rental_uris":{"android":"levelo://app?vid=62e9561e-ad05-4f0e-b75e-5d2e36048b40","ios":"levelo://app?vid=62e9561e-ad05-4f0e-b75e-5d2e36048b40"},"vehicle_type_id":"4","last_reported":1730315291,"current_range_meters":39200,"station_id":"ce4bhp92rcd13ifvqhcg","pricing_plan_id":"cebpf4jnsgd1na2vs0mg"},{"bike_id":"a89c13b3-7367-4140-bb29-c6016f983bab","system_id":"levelo_inurba_marseille","lat":43.299662,"lon":5.371735,"is_reserved":false,"is_disabled":false,"rental_uris":{"android":"levelo://app?vid=a89c13b3-7367-4140-bb29-c6016f983bab","ios":"levelo://app?vid=a89c13b3-7367-4140-bb29-c6016f983bab"},"vehicle_type_id":"4","last_reported":1730315291,"current_range_meters":8000,"station_id":"ce4bhg12rcd13ifvqf60","pricing_plan_id":"cebpf4jnsgd1na2vs0mg"},{"bike_id":"1d62463f-6312-4b72-a0ce-2ebbdeb8eea6","system_id":"levelo_inurba_marseille","lat":43.29424,"lon":5.38633,"is_reserved":false,"is_disabled":false,"rental_uris":{"android":"levelo://app?vid=1d62463f-6312-4b72-a0ce-2ebbdeb8eea6","ios":"levelo://app?vid=1d62463f-6312-4b72-a0ce-2ebbdeb8eea6"},"vehicle_type_id":"4","last_reported":1730315291,"current_range_meters":37600,"station_id":"ce4bh2h2rcd13ifvqdh0","pricing_plan_id":"cebpf4jnsgd1na2vs0mg"},{"bike_id":"c25c2169-3dc8-41aa-aaad-528d911ae769","system_id":"levelo_inurba_marseille","lat":43.28708,"lon":5.37371,"is_reserved":false,"is_disabled":false,"rental_uris":{"android":"levelo://app?vid=c25c2169-3dc8-41aa-aaad-528d911ae769","ios":"levelo://app?vid=c25c2169-3dc8-41aa-aaad-528d911ae769"},"vehicle_type_id":"4","last_reported":1730315291,"current_range_meters":27600,"station_id":"ce4bh3p2rcd13ifvqdq0","pricing_plan_id":"cebpf4jnsgd1na2vs0mg"},{"bike_id":"5e3e5e15-a26a-4370-a4d7-22b0461d60e4","system_id":"levelo_inurba_marseille","lat":43.31996,"lon":5.38146,"is_reserved":false,"is_disabled":false,"rental_uris":{"android":"levelo://app?vid=5e3e5e15-a26a-4370-a4d7-22b0461d60e4","ios":"levelo://app?vid=5e3e5e15-a26a-4370-a4d7-22b0461d60e4"},"vehicle_type_id":"4","last_reported":1730315291,"current_range_meters":19600,"station_id":"ce4bhr12rcd13ifvqhpg","pricing_plan_id":"cebpf4jnsgd1na2vs0mg"},{"bike_id":"17befa96-6822-4457-87a9-e37ca5d8f1b4","system_id":"levelo_inurba_marseille","lat":43.25583,"lon":5.38237,"is_reserved":false,"is_disabled":false,"rental_uris":{"android":"levelo://app?vid=17befa96-6822-4457-87a9-e37ca5d8f1b4","ios":"levelo://app?vid=17befa96-6822-4457-87a9-e37ca5d8f1b4"},"vehicle_type_id":"4","last_reported":1730315291,"current_range_meters":28400,"station_id":"ce4bhih2rcd13ifvqfs0","pricing_plan_id":"cebpf4jnsgd1na2vs0mg"},{"bike_id":"3271d7f6-0f65-475f-8b65-c5efde785335","system_id":"levelo_inurba_marseille","lat":43.23196,"lon":5.35558,"is_reserved":false,"is_disabled":false,"rental_uris":{"android":"levelo://app?vid=3271d7f6-0f65-475f-8b65-c5efde785335","ios":"levelo://app?vid=3271d7f6-0f65-475f-8b65-c5efde785335"},"vehicle_type_id":"4","last_reported":1730315291,"current_range_meters":38000,"station_id":"ce4bhu92rcd13ifvqi70","pricing_plan_id":"cebpf4jnsgd1na2vs0mg"},{"bike_id":"323ec29c-5bad-4b4f-a0f4-ef3d1605f74a","system_id":"levelo_inurba_marseille","lat":43.29617,"lon":5.37721,"is_reserved":false,"is_disabled":false,"rental_uris":{"android":"levelo://app?vid=323ec29c-5bad-4b4f-a0f4-ef3d1605f74a","ios":"levelo://app?vid=323ec29c-5bad-4b4f-a0f4-ef3d1605f74a"},"vehicle_type_id":"4","last_reported":1730315291,"current_range_meters":37600,"station_id":"ce4bgi92rcd13ifvqb90","pricing_plan_id":"cebpf4jnsgd1na2vs0mg"},{"bike_id":"30d66aab-b689-4478-ade1-4427e0132721","system_id":"levelo_inurba_marseille","lat":43.30437,"lon":5.389,"is_reserved":false,"is_disabled":false,"rental_uris":{"android":"levelo://app?vid=30d66aab-b689-4478-ade1-4427e0132721","ios":"levelo://app?vid=30d66aab-b689-4478-ade1-4427e0132721"},"vehicle_type_id":"4","last_reported":1730315291,"current_range_meters":11200,"station_id":"ce4bgk12rcd13ifvqbi0","pricing_plan_id":"cebpf4jnsgd1na2vs0mg"},{"bike_id":"f99547b6-e0b7-4a86-b4bb-f600f8ca5cb2","system_id":"levelo_inurba_marseille","lat":43.24171,"lon":5.36399,"is_reserved":false,"is_disabled":false,"rental_uris":{"android":"levelo://app?vid=f99547b6-e0b7-4a86-b4bb-f600f8ca5cb2","ios":"levelo://app?vid=f99547b6-e0b7-4a86-b4bb-f600f8ca5cb2"},"vehicle_type_id":"4","last_reported":1730315291,"current_range_meters":21600,"station_id":"cpo36qri1sfpv3e86is0","pricing_plan_id":"cebpf4jnsgd1na2vs0mg"},{"bike_id":"299d8e9d-f50a-4a0f-8cc7-0fd6f3963e03","system_id":"levelo_inurba_marseille","lat":43.25939,"lon":5.40907,"is_reserved":false,"is_disabled":false,"rental_uris":{"android":"levelo://app?vid=299d8e9d-f50a-4a0f-8cc7-0fd6f3963e03","ios":"levelo://app?vid=299d8e9d-f50a-4a0f-8cc7-0fd6f3963e03"},"vehicle_type_id":"4","last_reported":1730315291,"current_range_meters":36000,"station_id":"ce4bhm92rcd13ifvqglg","pricing_plan_id":"cebpf4jnsgd1na2vs0mg"},{"bike_id":"34f42d50-21a3-4bf9-b0d5-8f30889a8727","system_id":"levelo_inurba_marseille","lat":43.24182,"lon":5.39734,"is_reserved":false,"is_disabled":false,"rental_uris":{"android":"levelo://app?vid=34f42d50-21a3-4bf9-b0d5-8f30889a8727","ios":"levelo://app?vid=34f42d50-21a3-4bf9-b0d5-8f30889a8727"},"vehicle_type_id":"4","last_reported":1730315291,"current_range_meters":25600,"station_id":"ce4bhn12rcd13ifvqgpg","pricing_plan_id":"cebpf4jnsgd1na2vs0mg"},{"bike_id":"afc8a59e-718c-432c-b226-d6be0903e5fb","system_id":"levelo_inurba_marseille","lat":43.24394,"lon":5.37067,"is_reserved":false,"is_disabled":false,"rental_uris":{"android":"levelo://app?vid=afc8a59e-718c-432c-b226-d6be0903e5fb","ios":"levelo://app?vid=afc8a59e-718c-432c-b226-d6be0903e5fb"},"vehicle_type_id":"4","last_reported":1730315291,"current_range_meters":31200,"station_id":"ce4bhhh2rcd13ifvqfk0","pricing_plan_id":"cebpf4jnsgd1na2vs0mg"},{"bike_id":"683b3191-d52a-40a8-ac3f-02051849c9cf","system_id":"levelo_inurba_marseille","lat":43.29099,"lon":5.3813,"is_reserved":false,"is_disabled":false,"rental_uris":{"android":"levelo://app?vid=683b3191-d52a-40a8-ac3f-02051849c9cf","ios":"levelo://app?vid=683b3191-d52a-40a8-ac3f-02051849c9cf"},"vehicle_type_id":"4","last_reported":1730315291,"current_range_meters":31200,"station_id":"ce4bh512rcd13ifvqe2g","pricing_plan_id":"cebpf4jnsgd1na2vs0mg"},{"bike_id":"72e37474-1bc8-4568-aec8-ce5464e6b828","system_id":"levelo_inurba_marseille","lat":43.23194,"lon":5.35552,"is_reserved":false,"is_disabled":false,"rental_uris":{"android":"levelo://app?vid=72e37474-1bc8-4568-aec8-ce5464e6b828","ios":"levelo://app?vid=72e37474-1bc8-4568-aec8-ce5464e6b828"},"vehicle_type_id":"4","last_reported":1730315291,"current_range_meters":28000,"station_id":"ce4bhu92rcd13ifvqi70","pricing_plan_id":"cebpf4jnsgd1na2vs0mg"},{"bike_id":"a76b5c42-a2f5-498f-8f83-f467810dd56d","system_id":"levelo_inurba_marseille","lat":43.30652,"lon":5.40098,"is_reserved":false,"is_disabled":false,"rental_uris":{"android":"levelo://app?vid=a76b5c42-a2f5-498f-8f83-f467810dd56d","ios":"levelo://app?vid=a76b5c42-a2f5-498f-8f83-f467810dd56d"},"vehicle_type_id":"4","last_reported":1730315291,"current_range_meters":18800,"station_id":"ce4bh112rcd13ifvqda0","pricing_plan_id":"cebpf4jnsgd1na2vs0mg"},{"bike_id":"d9c8c548-3e91-4d9e-80ef-eaa18dbe75bd","system_id":"levelo_inurba_marseille","lat":43.27922,"lon":5.39581,"is_reserved":false,"is_disabled":false,"rental_uris":{"android":"levelo://app?vid=d9c8c548-3e91-4d9e-80ef-eaa18dbe75bd","ios":"levelo://app?vid=d9c8c548-3e91-4d9e-80ef-eaa18dbe75bd"},"vehicle_type_id":"4","last_reported":1730315291,"current_range_meters":2000,"station_id":"ce4bhf92rcd13ifvqf40","pricing_plan_id":"cebpf4jnsgd1na2vs0mg"},{"bike_id":"b91cd24d-829b-446c-a913-61bc5de8f4dc","system_id":"levelo_inurba_marseille","lat":43.2439,"lon":5.37061,"is_reserved":false,"is_disabled":false,"rental_uris":{"android":"levelo://app?vid=b91cd24d-829b-446c-a913-61bc5de8f4dc","ios":"levelo://app?vid=b91cd24d-829b-446c-a913-61bc5de8f4dc"},"vehicle_type_id":"4","last_reported":1730315291,"current_range_meters":11200,"station_id":"ce4bhhh2rcd13ifvqfk0","pricing_plan_id":"cebpf4jnsgd1na2vs0mg"},{"bike_id":"eb2c0dc1-663f-4340-8327-0bcb8f051533","system_id":"levelo_inurba_marseille","lat":43.277982,"lon":5.406911,"is_reserved":false,"is_disabled":false,"rental_uris":{"android":"levelo://app?vid=eb2c0dc1-663f-4340-8327-0bcb8f051533","ios":"levelo://app?vid=eb2c0dc1-663f-4340-8327-0bcb8f051533"},"vehicle_type_id":"4","last_reported":1730315291,"current_range_meters":30000,"station_id":"ce4bhnh2rcd13ifvqgtg","pricing_plan_id":"cebpf4jnsgd1na2vs0mg"},{"bike_id":"b9a42de5-e92c-4a68-a4e2-5f21cbf671b3","system_id":"levelo_inurba_marseille","lat":43.29531,"lon":5.3854,"is_reserved":false,"is_disabled":false,"rental_uris":{"android":"levelo://app?vid=b9a42de5-e92c-4a68-a4e2-5f21cbf671b3","ios":"levelo://app?vid=b9a42de5-e92c-4a68-a4e2-5f21cbf671b3"},"vehicle_type_id":"4","last_reported":1730315291,"current_range_meters":7200,"station_id":"ce4bgih2rcd13ifvqba0","pricing_plan_id":"cebpf4jnsgd1na2vs0mg"},{"bike_id":"bde005bd-331c-4264-8e9a-eca876b999ec","system_id":"levelo_inurba_marseille","lat":43.29513,"lon":5.39042,"is_reserved":false,"is_disabled":false,"rental_uris":{"android":"levelo://app?vid=bde005bd-331c-4264-8e9a-eca876b999ec","ios":"levelo://app?vid=bde005bd-331c-4264-8e9a-eca876b999ec"},"vehicle_type_id":"4","last_reported":1730315291,"current_range_meters":15200,"station_id":"ce4bh3p2rcd13ifvqdp0","pricing_plan_id":"cebpf4jnsgd1na2vs0mg"},{"bike_id":"88dc58c8-a632-450d-98e1-c0f672ee9cc5","system_id":"levelo_inurba_marseille","lat":43.24387,"lon":5.37053,"is_reserved":false,"is_disabled":false,"rental_uris":{"android":"levelo://app?vid=88dc58c8-a632-450d-98e1-c0f672ee9cc5","ios":"levelo://app?vid=88dc58c8-a632-450d-98e1-c0f672ee9cc5"},"vehicle_type_id":"4","last_reported":1730315291,"current_range_meters":31200,"station_id":"ce4bhhh2rcd13ifvqfk0","pricing_plan_id":"cebpf4jnsgd1na2vs0mg"},{"bike_id":"54d2e7c1-0997-4e85-b497-01eca9eb4f00","system_id":"levelo_inurba_marseille","lat":43.23186,"lon":5.35556,"is_reserved":false,"is_disabled":false,"rental_uris":{"android":"levelo://app?vid=54d2e7c1-0997-4e85-b497-01eca9eb4f00","ios":"levelo://app?vid=54d2e7c1-0997-4e85-b497-01eca9eb4f00"},"vehicle_type_id":"4","last_reported":1730315291,"current_range_meters":14000,"station_id":"ce4bhu92rcd13ifvqi70","pricing_plan_id":"cebpf4jnsgd1na2vs0mg"},{"bike_id":"cd5907a5-33fd-4b50-8f0d-0a4217d89673","system_id":"levelo_inurba_marseille","lat":43.29917,"lon":5.37497,"is_reserved":false,"is_disabled":false,"rental_uris":{"android":"levelo://app?vid=cd5907a5-33fd-4b50-8f0d-0a4217d89673","ios":"levelo://app?vid=cd5907a5-33fd-4b50-8f0d-0a4217d89673"},"vehicle_type_id":"4","last_reported":1730315291,"current_range_meters":16800,"station_id":"ce4bgjh2rcd13ifvqbg0","pricing_plan_id":"cebpf4jnsgd1na2vs0mg"},{"bike_id":"5a93f91c-f767-4fb4-bed4-861622bee50c","system_id":"levelo_inurba_marseille","lat":43.28154,"lon":5.42649,"is_reserved":false,"is_disabled":false,"rental_uris":{"android":"levelo://app?vid=5a93f91c-f767-4fb4-bed4-861622bee50c","ios":"levelo://app?vid=5a93f91c-f767-4fb4-bed4-861622bee50c"},"vehicle_type_id":"4","last_reported":1730315291,"current_range_meters":26800,"station_id":"ce4bhnh2rcd13ifvqgug","pricing_plan_id":"cebpf4jnsgd1na2vs0mg"},{"bike_id":"e7796527-3310-4152-8da1-d72e0df4c9ca","system_id":"levelo_inurba_marseille","lat":43.28164,"lon":5.42649,"is_reserved":false,"is_disabled":false,"rental_uris":{"android":"levelo://app?vid=e7796527-3310-4152-8da1-d72e0df4c9ca","ios":"levelo://app?vid=e7796527-3310-4152-8da1-d72e0df4c9ca"},"vehicle_type_id":"4","last_reported":1730315291,"current_range_meters":39200,"station_id":"ce4bhnh2rcd13ifvqgug","pricing_plan_id":"cebpf4jnsgd1na2vs0mg"},{"bike_id":"1c7f9b11-ce8d-40c4-8f1a-97ff4d60f12f","system_id":"levelo_inurba_marseille","lat":43.290344,"lon":5.399738,"is_reserved":false,"is_disabled":false,"rental_uris":{"android":"levelo://app?vid=1c7f9b11-ce8d-40c4-8f1a-97ff4d60f12f","ios":"levelo://app?vid=1c7f9b11-ce8d-40c4-8f1a-97ff4d60f12f"},"vehicle_type_id":"4","last_reported":1730315291,"current_range_meters":12000,"station_id":"ce4bhgp2rcd13ifvqfe0","pricing_plan_id":"cebpf4jnsgd1na2vs0mg"},{"bike_id":"65bc2bb4-154e-464e-a42c-34d4569d26d6","system_id":"levelo_inurba_marseille","lat":43.28158,"lon":5.42641,"is_reserved":false,"is_disabled":false,"rental_uris":{"android":"levelo://app?vid=65bc2bb4-154e-464e-a42c-34d4569d26d6","ios":"levelo://app?vid=65bc2bb4-154e-464e-a42c-34d4569d26d6"},"vehicle_type_id":"4","last_reported":1730315291,"current_range_meters":38800,"station_id":"ce4bhnh2rcd13ifvqgug","pricing_plan_id":"cebpf4jnsgd1na2vs0mg"},{"bike_id":"601595a4-ad71-4c8f-914e-899a9b0fbe96","system_id":"levelo_inurba_marseille","lat":43.28426,"lon":5.34989,"is_reserved":false,"is_disabled":false,"rental_uris":{"android":"levelo://app?vid=601595a4-ad71-4c8f-914e-899a9b0fbe96","ios":"levelo://app?vid=601595a4-ad71-4c8f-914e-899a9b0fbe96"},"vehicle_type_id":"4","last_reported":1730315291,"current_range_meters":22400,"station_id":"ce4bhbh2rcd13ifvqepg","pricing_plan_id":"cebpf4jnsgd1na2vs0mg"},{"bike_id":"29c6e73c-b2e6-4550-b08a-1dd3fc1e551c","system_id":"levelo_inurba_marseille","lat":43.30079,"lon":5.3909,"is_reserved":false,"is_disabled":false,"rental_uris":{"android":"levelo://app?vid=29c6e73c-b2e6-4550-b08a-1dd3fc1e551c","ios":"levelo://app?vid=29c6e73c-b2e6-4550-b08a-1dd3fc1e551c"},"vehicle_type_id":"4","last_reported":1730315291,"current_range_meters":38800,"station_id":"ce4bh192rcd13ifvqdb0","pricing_plan_id":"cebpf4jnsgd1na2vs0mg"},{"bike_id":"91d4c9bf-7994-4014-96be-9505459a8d15","system_id":"levelo_inurba_marseille","lat":43.27989,"lon":5.39982,"is_reserved":false,"is_disabled":false,"rental_uris":{"android":"levelo://app?vid=91d4c9bf-7994-4014-96be-9505459a8d15","ios":"levelo://app?vid=91d4c9bf-7994-4014-96be-9505459a8d15"},"vehicle_type_id":"4","last_reported":1730315291,"current_range_meters":37600,"station_id":"ce4bho92rcd13ifvqh4g","pricing_plan_id":"cebpf4jnsgd1na2vs0mg"},{"bike_id":"4383f0fb-f67d-4b86-b5dd-8ff7443f7389","system_id":"levelo_inurba_marseille","lat":43.2931,"lon":5.37172,"is_reserved":false,"is_disabled":false,"rental_uris":{"android":"levelo://app?vid=4383f0fb-f67d-4b86-b5dd-8ff7443f7389","ios":"levelo://app?vid=4383f0fb-f67d-4b86-b5dd-8ff7443f7389"},"vehicle_type_id":"4","last_reported":1730315291,"current_range_meters":4400,"station_id":"ce4bgh92rcd13ifvqb40","pricing_plan_id":"cebpf4jnsgd1na2vs0mg"},{"bike_id":"cbd6e71b-da90-49a9-852e-9e6ceb2a79ce","system_id":"levelo_inurba_marseille","lat":43.23187,"lon":5.39984,"is_reserved":false,"is_disabled":false,"rental_uris":{"android":"levelo://app?vid=cbd6e71b-da90-49a9-852e-9e6ceb2a79ce","ios":"levelo://app?vid=cbd6e71b-da90-49a9-852e-9e6ceb2a79ce"},"vehicle_type_id":"4","last_reported":1730315291,"current_range_meters":35200,"station_id":"ce4bhn12rcd13ifvqgqg","pricing_plan_id":"cebpf4jnsgd1na2vs0mg"},{"bike_id":"9ec77140-2846-4e58-a1b8-dfda5b93d692","system_id":"levelo_inurba_marseille","lat":43.2953,"lon":5.38539,"is_reserved":false,"is_disabled":false,"rental_uris":{"android":"levelo://app?vid=9ec77140-2846-4e58-a1b8-dfda5b93d692","ios":"levelo://app?vid=9ec77140-2846-4e58-a1b8-dfda5b93d692"},"vehicle_type_id":"4","last_reported":1730315291,"current_range_meters":38800,"station_id":"ce4bgih2rcd13ifvqba0","pricing_plan_id":"cebpf4jnsgd1na2vs0mg"},{"bike_id":"9b223c07-a9a6-4ce6-9dc4-d2b747da8969","system_id":"levelo_inurba_marseille","lat":43.30643,"lon":5.40092,"is_reserved":false,"is_disabled":false,"rental_uris":{"android":"levelo://app?vid=9b223c07-a9a6-4ce6-9dc4-d2b747da8969","ios":"levelo://app?vid=9b223c07-a9a6-4ce6-9dc4-d2b747da8969"},"vehicle_type_id":"4","last_reported":1730315291,"current_range_meters":3200,"station_id":"ce4bh112rcd13ifvqda0","pricing_plan_id":"cebpf4jnsgd1na2vs0mg"},{"bike_id":"3d051072-ff65-42b3-84b0-6077236b5193","system_id":"levelo_inurba_marseille","lat":43.30221,"lon":5.39473,"is_reserved":false,"is_disabled":false,"rental_uris":{"android":"levelo://app?vid=3d051072-ff65-42b3-84b0-6077236b5193","ios":"levelo://app?vid=3d051072-ff65-42b3-84b0-6077236b5193"},"vehicle_type_id":"4","last_reported":1730315291,"current_range_meters":36000,"station_id":"ce4bh0p2rcd13ifvqd70","pricing_plan_id":"cebpf4jnsgd1na2vs0mg"},{"bike_id":"1995d42f-9bb2-423e-a419-1706f5fab24e","system_id":"levelo_inurba_marseille","lat":43.27075,"lon":5.42278,"is_reserved":false,"is_disabled":false,"rental_uris":{"android":"levelo://app?vid=1995d42f-9bb2-423e-a419-1706f5fab24e","ios":"levelo://app?vid=1995d42f-9bb2-423e-a419-1706f5fab24e"},"vehicle_type_id":"4","last_reported":1730315291,"current_range_meters":32400,"station_id":"ce4bhk92rcd13ifvqgb0","pricing_plan_id":"cebpf4jnsgd1na2vs0mg"},{"bike_id":"ee41291c-2f98-49ef-a876-62ec3993247c","system_id":"levelo_inurba_marseille","lat":43.26191,"lon":5.37453,"is_reserved":false,"is_disabled":false,"rental_uris":{"android":"levelo://app?vid=ee41291c-2f98-49ef-a876-62ec3993247c","ios":"levelo://app?vid=ee41291c-2f98-49ef-a876-62ec3993247c"},"vehicle_type_id":"4","last_reported":1730315291,"current_range_meters":39200,"station_id":"ce4bhgp2rcd13ifvqfc0","pricing_plan_id":"cebpf4jnsgd1na2vs0mg"},{"bike_id":"be4cec61-2fbe-4c41-bc8f-6cef6f495468","system_id":"levelo_inurba_marseille","lat":43.31331,"lon":5.39698,"is_reserved":false,"is_disabled":false,"rental_uris":{"android":"levelo://app?vid=be4cec61-2fbe-4c41-bc8f-6cef6f495468","ios":"levelo://app?vid=be4cec61-2fbe-4c41-bc8f-6cef6f495468"},"vehicle_type_id":"4","last_reported":1730315291,"current_range_meters":38800,"station_id":"ce4bgvp2rcd13ifvqcu0","pricing_plan_id":"cebpf4jnsgd1na2vs0mg"},{"bike_id":"8162e4a8-23c1-4020-bbef-be4a2e70aefe","system_id":"levelo_inurba_marseille","lat":43.23195,"lon":5.35552,"is_reserved":false,"is_disabled":false,"rental_uris":{"android":"levelo://app?vid=8162e4a8-23c1-4020-bbef-be4a2e70aefe","ios":"levelo://app?vid=8162e4a8-23c1-4020-bbef-be4a2e70aefe"},"vehicle_type_id":"4","last_reported":1730315291,"current_range_meters":8400,"station_id":"ce4bhu92rcd13ifvqi70","pricing_plan_id":"cebpf4jnsgd1na2vs0mg"},{"bike_id":"dfa9dc80-ee9b-42c6-990d-18fdda8d344f","system_id":"levelo_inurba_marseille","lat":43.26556,"lon":5.37286,"is_reserved":false,"is_disabled":false,"rental_uris":{"android":"levelo://app?vid=dfa9dc80-ee9b-42c6-990d-18fdda8d344f","ios":"levelo://app?vid=dfa9dc80-ee9b-42c6-990d-18fdda8d344f"},"vehicle_type_id":"4","last_reported":1730315291,"current_range_meters":22400,"station_id":"ce4bhg12rcd13ifvqf70","pricing_plan_id":"cebpf4jnsgd1na2vs0mg"},{"bike_id":"4c9d1e06-f3f0-41b4-9b77-1e0a54f146d2","system_id":"levelo_inurba_marseille","lat":43.33604,"lon":5.41032,"is_reserved":false,"is_disabled":false,"rental_uris":{"android":"levelo://app?vid=4c9d1e06-f3f0-41b4-9b77-1e0a54f146d2","ios":"levelo://app?vid=4c9d1e06-f3f0-41b4-9b77-1e0a54f146d2"},"vehicle_type_id":"4","last_reported":1730315291,"current_range_meters":9600,"station_id":"ce4bhq12rcd13ifvqhig","pricing_plan_id":"cebpf4jnsgd1na2vs0mg"},{"bike_id":"ddf0c506-2aca-4891-9bc8-83350175b5da","system_id":"levelo_inurba_marseille","lat":43.290375,"lon":5.375621,"is_reserved":false,"is_disabled":false,"rental_uris":{"android":"levelo://app?vid=ddf0c506-2aca-4891-9bc8-83350175b5da","ios":"levelo://app?vid=ddf0c506-2aca-4891-9bc8-83350175b5da"},"vehicle_type_id":"4","last_reported":1730315291,"current_range_meters":24800,"station_id":"ce4bh692rcd13ifvqe90","pricing_plan_id":"cebpf4jnsgd1na2vs0mg"},{"bike_id":"dede9cb1-9f36-49ac-88f6-956d5d0a7a6f","system_id":"levelo_inurba_marseille","lat":43.30238,"lon":5.4007,"is_reserved":false,"is_disabled":false,"rental_uris":{"android":"levelo://app?vid=dede9cb1-9f36-49ac-88f6-956d5d0a7a6f","ios":"levelo://app?vid=dede9cb1-9f36-49ac-88f6-956d5d0a7a6f"},"vehicle_type_id":"4","last_reported":1730315291,"current_range_meters":38800,"station_id":"ce4bgvh2rcd13ifvqcs0","pricing_plan_id":"cebpf4jnsgd1na2vs0mg"},{"bike_id":"77d358d8-5277-475c-88d0-3479d8dc899c","system_id":"levelo_inurba_marseille","lat":43.28703,"lon":5.39985,"is_reserved":false,"is_disabled":false,"rental_uris":{"android":"levelo://app?vid=77d358d8-5277-475c-88d0-3479d8dc899c","ios":"levelo://app?vid=77d358d8-5277-475c-88d0-3479d8dc899c"},"vehicle_type_id":"4","last_reported":1730315291,"current_range_meters":12800,"station_id":"ce4bhah2rcd13ifvqei0","pricing_plan_id":"cebpf4jnsgd1na2vs0mg"},{"bike_id":"01873621-66c2-43af-8810-09f11e46034b","system_id":"levelo_inurba_marseille","lat":43.2842,"lon":5.37521,"is_reserved":false,"is_disabled":false,"rental_uris":{"android":"levelo://app?vid=01873621-66c2-43af-8810-09f11e46034b","ios":"levelo://app?vid=01873621-66c2-43af-8810-09f11e46034b"},"vehicle_type_id":"4","last_reported":1730315291,"current_range_meters":10000,"station_id":"ce4bh412rcd13ifvqds0","pricing_plan_id":"cebpf4jnsgd1na2vs0mg"},{"bike_id":"4e56aed2-21a5-45c8-af95-efc825fda15f","system_id":"levelo_inurba_marseille","lat":43.29531,"lon":5.38543,"is_reserved":false,"is_disabled":false,"rental_uris":{"android":"levelo://app?vid=4e56aed2-21a5-45c8-af95-efc825fda15f","ios":"levelo://app?vid=4e56aed2-21a5-45c8-af95-efc825fda15f"},"vehicle_type_id":"4","last_reported":1730315291,"current_range_meters":12000,"station_id":"ce4bgih2rcd13ifvqba0","pricing_plan_id":"cebpf4jnsgd1na2vs0mg"},{"bike_id":"dcc693d1-05ee-4259-9e4a-31f95ea327cb","system_id":"levelo_inurba_marseille","lat":43.298828,"lon":5.389096,"is_reserved":false,"is_disabled":false,"rental_uris":{"android":"levelo://app?vid=dcc693d1-05ee-4259-9e4a-31f95ea327cb","ios":"levelo://app?vid=dcc693d1-05ee-4259-9e4a-31f95ea327cb"},"vehicle_type_id":"4","last_reported":1730315291,"current_range_meters":24000,"station_id":"ce4bgn12rcd13ifvqbt0","pricing_plan_id":"cebpf4jnsgd1na2vs0mg"},{"bike_id":"0d1d919a-0ac6-4b40-add0-6ce675499ae9","system_id":"levelo_inurba_marseille","lat":43.2407,"lon":5.37767,"is_reserved":false,"is_disabled":false,"rental_uris":{"android":"levelo://app?vid=0d1d919a-0ac6-4b40-add0-6ce675499ae9","ios":"levelo://app?vid=0d1d919a-0ac6-4b40-add0-6ce675499ae9"},"vehicle_type_id":"4","last_reported":1730315291,"current_range_meters":14400,"station_id":"ce4bhnp2rcd13ifvqgvg","pricing_plan_id":"cebpf4jnsgd1na2vs0mg"},{"bike_id":"8785c527-ebc9-4d4b-a104-dc84f78b82df","system_id":"levelo_inurba_marseille","lat":43.24086,"lon":5.37745,"is_reserved":false,"is_disabled":false,"rental_uris":{"android":"levelo://app?vid=8785c527-ebc9-4d4b-a104-dc84f78b82df","ios":"levelo://app?vid=8785c527-ebc9-4d4b-a104-dc84f78b82df"},"vehicle_type_id":"4","last_reported":1730315291,"current_range_meters":6800,"station_id":"ce4bhnp2rcd13ifvqgvg","pricing_plan_id":"cebpf4jnsgd1na2vs0mg"},{"bike_id":"11f1ca17-d826-4d90-87b9-e46191edf607","system_id":"levelo_inurba_marseille","lat":43.28938,"lon":5.36399,"is_reserved":false,"is_disabled":false,"rental_uris":{"android":"levelo://app?vid=11f1ca17-d826-4d90-87b9-e46191edf607","ios":"levelo://app?vid=11f1ca17-d826-4d90-87b9-e46191edf607"},"vehicle_type_id":"4","last_reported":1730315291,"current_range_meters":10800,"station_id":"ce4bhc92rcd13ifvqetg","pricing_plan_id":"cebpf4jnsgd1na2vs0mg"},{"bike_id":"37918373-f394-4d75-a598-4775c8a680f9","system_id":"levelo_inurba_marseille","lat":43.28444,"lon":5.39204,"is_reserved":false,"is_disabled":false,"rental_uris":{"android":"levelo://app?vid=37918373-f394-4d75-a598-4775c8a680f9","ios":"levelo://app?vid=37918373-f394-4d75-a598-4775c8a680f9"},"vehicle_type_id":"4","last_reported":1730315291,"current_range_meters":7200,"station_id":"ce4bhoh2rcd13ifvqh5g","pricing_plan_id":"cebpf4jnsgd1na2vs0mg"},{"bike_id":"379d974e-51a1-4b04-b633-c4150016c54e","system_id":"levelo_inurba_marseille","lat":43.28414,"lon":5.37522,"is_reserved":false,"is_disabled":false,"rental_uris":{"android":"levelo://app?vid=379d974e-51a1-4b04-b633-c4150016c54e","ios":"levelo://app?vid=379d974e-51a1-4b04-b633-c4150016c54e"},"vehicle_type_id":"4","last_reported":1730315291,"current_range_meters":35200,"station_id":"ce4bh412rcd13ifvqds0","pricing_plan_id":"cebpf4jnsgd1na2vs0mg"},{"bike_id":"73b91a5c-462b-445d-ac2c-3b2ae6e44141","system_id":"levelo_inurba_marseille","lat":43.28653,"lon":5.36345,"is_reserved":false,"is_disabled":false,"rental_uris":{"android":"levelo://app?vid=73b91a5c-462b-445d-ac2c-3b2ae6e44141","ios":"levelo://app?vid=73b91a5c-462b-445d-ac2c-3b2ae6e44141"},"vehicle_type_id":"4","last_reported":1730315291,"current_range_meters":35200,"station_id":"ce4bhah2rcd13ifvqej0","pricing_plan_id":"cebpf4jnsgd1na2vs0mg"},{"bike_id":"b7f0da21-31e9-4fae-b245-4c07530a2978","system_id":"levelo_inurba_marseille","lat":43.301305,"lon":5.387806,"is_reserved":false,"is_disabled":false,"rental_uris":{"android":"levelo://app?vid=b7f0da21-31e9-4fae-b245-4c07530a2978","ios":"levelo://app?vid=b7f0da21-31e9-4fae-b245-4c07530a2978"},"vehicle_type_id":"4","last_reported":1730315291,"current_range_meters":24000,"station_id":"ce4bghh2rcd13ifvqb60","pricing_plan_id":"cebpf4jnsgd1na2vs0mg"},{"bike_id":"68c21e97-2af1-47d0-9677-8b14c36e24b9","system_id":"levelo_inurba_marseille","lat":43.31729,"lon":5.42403,"is_reserved":false,"is_disabled":false,"rental_uris":{"android":"levelo://app?vid=68c21e97-2af1-47d0-9677-8b14c36e24b9","ios":"levelo://app?vid=68c21e97-2af1-47d0-9677-8b14c36e24b9"},"vehicle_type_id":"4","last_reported":1730315291,"current_range_meters":38800,"station_id":"ce4bhp92rcd13ifvqhbg","pricing_plan_id":"cebpf4jnsgd1na2vs0mg"},{"bike_id":"d87fc35a-28e7-4d7e-be06-f8e11a317775","system_id":"levelo_inurba_marseille","lat":43.31708,"lon":5.37739,"is_reserved":false,"is_disabled":false,"rental_uris":{"android":"levelo://app?vid=d87fc35a-28e7-4d7e-be06-f8e11a317775","ios":"levelo://app?vid=d87fc35a-28e7-4d7e-be06-f8e11a317775"},"vehicle_type_id":"4","last_reported":1730315291,"current_range_meters":30400,"station_id":"ce4bgth2rcd13ifvqch0","pricing_plan_id":"cebpf4jnsgd1na2vs0mg"},{"bike_id":"c30c20a3-a003-4e47-981b-d4a01d18b8ed","system_id":"levelo_inurba_marseille","lat":43.241723,"lon":5.364,"is_reserved":false,"is_disabled":false,"rental_uris":{"android":"levelo://app?vid=c30c20a3-a003-4e47-981b-d4a01d18b8ed","ios":"levelo://app?vid=c30c20a3-a003-4e47-981b-d4a01d18b8ed"},"vehicle_type_id":"4","last_reported":1730315291,"current_range_meters":38400,"station_id":"cpo36qri1sfpv3e86is0","pricing_plan_id":"cebpf4jnsgd1na2vs0mg"},{"bike_id":"0cf0ecd4-b0e5-4d65-8024-ff451dffd66a","system_id":"levelo_inurba_marseille","lat":43.25493,"lon":5.37649,"is_reserved":false,"is_disabled":false,"rental_uris":{"android":"levelo://app?vid=0cf0ecd4-b0e5-4d65-8024-ff451dffd66a","ios":"levelo://app?vid=0cf0ecd4-b0e5-4d65-8024-ff451dffd66a"},"vehicle_type_id":"4","last_reported":1730315291,"current_range_meters":38800,"station_id":"ce4bhh12rcd13ifvqff0","pricing_plan_id":"cebpf4jnsgd1na2vs0mg"},{"bike_id":"d732b747-2c86-481d-ab33-70c4242313d4","system_id":"levelo_inurba_marseille","lat":43.29967,"lon":5.37187,"is_reserved":false,"is_disabled":false,"rental_uris":{"android":"levelo://app?vid=d732b747-2c86-481d-ab33-70c4242313d4","ios":"levelo://app?vid=d732b747-2c86-481d-ab33-70c4242313d4"},"vehicle_type_id":"4","last_reported":1730315291,"current_range_meters":26800,"station_id":"ce4bgr92rcd13ifvqc7g","pricing_plan_id":"cebpf4jnsgd1na2vs0mg"},{"bike_id":"06be41f9-8626-41f4-bc00-6dec28012c26","system_id":"levelo_inurba_marseille","lat":43.29593,"lon":5.38104,"is_reserved":false,"is_disabled":false,"rental_uris":{"android":"levelo://app?vid=06be41f9-8626-41f4-bc00-6dec28012c26","ios":"levelo://app?vid=06be41f9-8626-41f4-bc00-6dec28012c26"},"vehicle_type_id":"4","last_reported":1730315291,"current_range_meters":38800,"station_id":"ce4bgl12rcd13ifvqbo0","pricing_plan_id":"cebpf4jnsgd1na2vs0mg"},{"bike_id":"a1472826-8b76-4823-b3c4-8a7da9f7ed75","system_id":"levelo_inurba_marseille","lat":43.27002,"lon":5.39949,"is_reserved":false,"is_disabled":false,"rental_uris":{"android":"levelo://app?vid=a1472826-8b76-4823-b3c4-8a7da9f7ed75","ios":"levelo://app?vid=a1472826-8b76-4823-b3c4-8a7da9f7ed75"},"vehicle_type_id":"4","last_reported":1730315291,"current_range_meters":23200,"station_id":"","pricing_plan_id":"cebpf4jnsgd1na2vs0mg"},{"bike_id":"a276a5cf-6c27-44d4-b0c7-a3c414a65cae","system_id":"levelo_inurba_marseille","lat":43.22934,"lon":5.35381,"is_reserved":false,"is_disabled":false,"rental_uris":{"android":"levelo://app?vid=a276a5cf-6c27-44d4-b0c7-a3c414a65cae","ios":"levelo://app?vid=a276a5cf-6c27-44d4-b0c7-a3c414a65cae"},"vehicle_type_id":"4","last_reported":1730315291,"current_range_meters":38800,"station_id":"cpo3532slgdg3j2ikp40","pricing_plan_id":"cebpf4jnsgd1na2vs0mg"},{"bike_id":"58e40eb8-71b3-4bfe-9852-2e56467aa978","system_id":"levelo_inurba_marseille","lat":43.29071,"lon":5.37155,"is_reserved":false,"is_disabled":false,"rental_uris":{"android":"levelo://app?vid=58e40eb8-71b3-4bfe-9852-2e56467aa978","ios":"levelo://app?vid=58e40eb8-71b3-4bfe-9852-2e56467aa978"},"vehicle_type_id":"4","last_reported":1730315291,"current_range_meters":38800,"station_id":"ce4bh5p2rcd13ifvqe4g","pricing_plan_id":"cebpf4jnsgd1na2vs0mg"},{"bike_id":"fea23d88-9bbb-4ffa-af08-7b03ca37348f","system_id":"levelo_inurba_marseille","lat":43.23189,"lon":5.3999,"is_reserved":false,"is_disabled":false,"rental_uris":{"android":"levelo://app?vid=fea23d88-9bbb-4ffa-af08-7b03ca37348f","ios":"levelo://app?vid=fea23d88-9bbb-4ffa-af08-7b03ca37348f"},"vehicle_type_id":"4","last_reported":1730315291,"current_range_meters":28800,"station_id":"ce4bhn12rcd13ifvqgqg","pricing_plan_id":"cebpf4jnsgd1na2vs0mg"},{"bike_id":"5ed3287f-e35d-43a6-9e20-f1aa79965186","system_id":"levelo_inurba_marseille","lat":43.2952,"lon":5.39047,"is_reserved":false,"is_disabled":false,"rental_uris":{"android":"levelo://app?vid=5ed3287f-e35d-43a6-9e20-f1aa79965186","ios":"levelo://app?vid=5ed3287f-e35d-43a6-9e20-f1aa79965186"},"vehicle_type_id":"4","last_reported":1730315291,"current_range_meters":26800,"station_id":"ce4bh3p2rcd13ifvqdp0","pricing_plan_id":"cebpf4jnsgd1na2vs0mg"},{"bike_id":"160c3125-d109-49e3-a687-ede78b99dea2","system_id":"levelo_inurba_marseille","lat":43.23195,"lon":5.35543,"is_reserved":false,"is_disabled":false,"rental_uris":{"android":"levelo://app?vid=160c3125-d109-49e3-a687-ede78b99dea2","ios":"levelo://app?vid=160c3125-d109-49e3-a687-ede78b99dea2"},"vehicle_type_id":"4","last_reported":1730315291,"current_range_meters":38000,"station_id":"ce4bhu92rcd13ifvqi70","pricing_plan_id":"cebpf4jnsgd1na2vs0mg"},{"bike_id":"c1bf4a91-a646-4162-907b-90b1796a78e8","system_id":"levelo_inurba_marseille","lat":43.299,"lon":5.43662,"is_reserved":false,"is_disabled":false,"rental_uris":{"android":"levelo://app?vid=c1bf4a91-a646-4162-907b-90b1796a78e8","ios":"levelo://app?vid=c1bf4a91-a646-4162-907b-90b1796a78e8"},"vehicle_type_id":"4","last_reported":1730315291,"current_range_meters":38400,"station_id":"ce4bhpp2rcd13ifvqhfg","pricing_plan_id":"cebpf4jnsgd1na2vs0mg"},{"bike_id":"7eb31cb5-824d-4530-a724-655bf9400806","system_id":"levelo_inurba_marseille","lat":43.28844,"lon":5.35875,"is_reserved":false,"is_disabled":false,"rental_uris":{"android":"levelo://app?vid=7eb31cb5-824d-4530-a724-655bf9400806","ios":"levelo://app?vid=7eb31cb5-824d-4530-a724-655bf9400806"},"vehicle_type_id":"4","last_reported":1730315291,"current_range_meters":28000,"station_id":"ce4bhb12rcd13ifvqem0","pricing_plan_id":"cebpf4jnsgd1na2vs0mg"},{"bike_id":"a5531b79-303f-4b62-af9b-20f9b33630e4","system_id":"levelo_inurba_marseille","lat":43.29421,"lon":5.38624,"is_reserved":false,"is_disabled":false,"rental_uris":{"android":"levelo://app?vid=a5531b79-303f-4b62-af9b-20f9b33630e4","ios":"levelo://app?vid=a5531b79-303f-4b62-af9b-20f9b33630e4"},"vehicle_type_id":"4","last_reported":1730315291,"current_range_meters":8800,"station_id":"ce4bh2h2rcd13ifvqdh0","pricing_plan_id":"cebpf4jnsgd1na2vs0mg"},{"bike_id":"d08dcb05-94fa-46fa-a9b5-b62e0c8f0fa5","system_id":"levelo_inurba_marseille","lat":43.30327,"lon":5.40434,"is_reserved":false,"is_disabled":false,"rental_uris":{"android":"levelo://app?vid=d08dcb05-94fa-46fa-a9b5-b62e0c8f0fa5","ios":"levelo://app?vid=d08dcb05-94fa-46fa-a9b5-b62e0c8f0fa5"},"vehicle_type_id":"4","last_reported":1730315291,"current_range_meters":11200,"station_id":"ce4bh012rcd13ifvqd10","pricing_plan_id":"cebpf4jnsgd1na2vs0mg"},{"bike_id":"e8f98e51-420f-4d6e-bf27-0ce53aa84bd0","system_id":"levelo_inurba_marseille","lat":43.33067,"lon":5.41212,"is_reserved":false,"is_disabled":false,"rental_uris":{"android":"levelo://app?vid=e8f98e51-420f-4d6e-bf27-0ce53aa84bd0","ios":"levelo://app?vid=e8f98e51-420f-4d6e-bf27-0ce53aa84bd0"},"vehicle_type_id":"4","last_reported":1730315291,"current_range_meters":15200,"station_id":"ce4bhqh2rcd13ifvqhlg","pricing_plan_id":"cebpf4jnsgd1na2vs0mg"},{"bike_id":"3127cf4a-ffae-4fb2-8bf0-a64dafac008e","system_id":"levelo_inurba_marseille","lat":43.29532,"lon":5.38539,"is_reserved":false,"is_disabled":false,"rental_uris":{"android":"levelo://app?vid=3127cf4a-ffae-4fb2-8bf0-a64dafac008e","ios":"levelo://app?vid=3127cf4a-ffae-4fb2-8bf0-a64dafac008e"},"vehicle_type_id":"4","last_reported":1730315291,"current_range_meters":21600,"station_id":"ce4bgih2rcd13ifvqba0","pricing_plan_id":"cebpf4jnsgd1na2vs0mg"},{"bike_id":"c4a47581-2099-4e6e-b3ec-751ed472bddb","system_id":"levelo_inurba_marseille","lat":43.29259,"lon":5.38438,"is_reserved":false,"is_disabled":false,"rental_uris":{"android":"levelo://app?vid=c4a47581-2099-4e6e-b3ec-751ed472bddb","ios":"levelo://app?vid=c4a47581-2099-4e6e-b3ec-751ed472bddb"},"vehicle_type_id":"4","last_reported":1730315291,"current_range_meters":30400,"station_id":"ce4bh692rcd13ifvqea0","pricing_plan_id":"cebpf4jnsgd1na2vs0mg"},{"bike_id":"b03043be-c2bf-45b0-81ee-30056d55b8d5","system_id":"levelo_inurba_marseille","lat":43.28929,"lon":5.36413,"is_reserved":false,"is_disabled":false,"rental_uris":{"android":"levelo://app?vid=b03043be-c2bf-45b0-81ee-30056d55b8d5","ios":"levelo://app?vid=b03043be-c2bf-45b0-81ee-30056d55b8d5"},"vehicle_type_id":"4","last_reported":1730315291,"current_range_meters":10800,"station_id":"ce4bhc92rcd13ifvqetg","pricing_plan_id":"cebpf4jnsgd1na2vs0mg"},{"bike_id":"07ade4e1-5357-41fa-9282-9fdb3d51a0af","system_id":"levelo_inurba_marseille","lat":43.28411,"lon":5.37517,"is_reserved":false,"is_disabled":false,"rental_uris":{"android":"levelo://app?vid=07ade4e1-5357-41fa-9282-9fdb3d51a0af","ios":"levelo://app?vid=07ade4e1-5357-41fa-9282-9fdb3d51a0af"},"vehicle_type_id":"4","last_reported":1730315291,"current_range_meters":33600,"station_id":"ce4bh412rcd13ifvqds0","pricing_plan_id":"cebpf4jnsgd1na2vs0mg"},{"bike_id":"2e4cf23d-1b89-400e-8293-990c4db78c6b","system_id":"levelo_inurba_marseille","lat":43.29267,"lon":5.3844,"is_reserved":false,"is_disabled":false,"rental_uris":{"android":"levelo://app?vid=2e4cf23d-1b89-400e-8293-990c4db78c6b","ios":"levelo://app?vid=2e4cf23d-1b89-400e-8293-990c4db78c6b"},"vehicle_type_id":"4","last_reported":1730315291,"current_range_meters":33200,"station_id":"ce4bh692rcd13ifvqea0","pricing_plan_id":"cebpf4jnsgd1na2vs0mg"},{"bike_id":"bfb1a2f2-5dd7-404a-90bb-be56759f829f","system_id":"levelo_inurba_marseille","lat":43.28005,"lon":5.41666,"is_reserved":false,"is_disabled":false,"rental_uris":{"android":"levelo://app?vid=bfb1a2f2-5dd7-404a-90bb-be56759f829f","ios":"levelo://app?vid=bfb1a2f2-5dd7-404a-90bb-be56759f829f"},"vehicle_type_id":"4","last_reported":1730315291,"current_range_meters":35600,"station_id":"ce4bho12rcd13ifvqh1g","pricing_plan_id":"cebpf4jnsgd1na2vs0mg"},{"bike_id":"24c4febb-5402-414b-9c98-ee7c2d8b91d1","system_id":"levelo_inurba_marseille","lat":43.27938,"lon":5.41049,"is_reserved":false,"is_disabled":false,"rental_uris":{"android":"levelo://app?vid=24c4febb-5402-414b-9c98-ee7c2d8b91d1","ios":"levelo://app?vid=24c4febb-5402-414b-9c98-ee7c2d8b91d1"},"vehicle_type_id":"4","last_reported":1730315291,"current_range_meters":2000,"station_id":"ce4bhnp2rcd13ifvqh0g","pricing_plan_id":"cebpf4jnsgd1na2vs0mg"},{"bike_id":"9e56088f-5314-44d6-bcaa-aad9355a0a35","system_id":"levelo_inurba_marseille","lat":43.29005,"lon":5.35627,"is_reserved":false,"is_disabled":false,"rental_uris":{"android":"levelo://app?vid=9e56088f-5314-44d6-bcaa-aad9355a0a35","ios":"levelo://app?vid=9e56088f-5314-44d6-bcaa-aad9355a0a35"},"vehicle_type_id":"4","last_reported":1730315291,"current_range_meters":35200,"station_id":"ce4bhb92rcd13ifvqen0","pricing_plan_id":"cebpf4jnsgd1na2vs0mg"},{"bike_id":"e8293b4e-059a-4396-9bed-846c599622d5","system_id":"levelo_inurba_marseille","lat":43.27174,"lon":5.40993,"is_reserved":false,"is_disabled":false,"rental_uris":{"android":"levelo://app?vid=e8293b4e-059a-4396-9bed-846c599622d5","ios":"levelo://app?vid=e8293b4e-059a-4396-9bed-846c599622d5"},"vehicle_type_id":"4","last_reported":1730315291,"current_range_meters":10000,"station_id":"ce4bhl12rcd13ifvqgf0","pricing_plan_id":"cebpf4jnsgd1na2vs0mg"},{"bike_id":"fd9c4c84-6c34-47bc-b568-c8c450072619","system_id":"levelo_inurba_marseille","lat":43.26565,"lon":5.37285,"is_reserved":false,"is_disabled":false,"rental_uris":{"android":"levelo://app?vid=fd9c4c84-6c34-47bc-b568-c8c450072619","ios":"levelo://app?vid=fd9c4c84-6c34-47bc-b568-c8c450072619"},"vehicle_type_id":"4","last_reported":1730315291,"current_range_meters":36400,"station_id":"ce4bhg12rcd13ifvqf70","pricing_plan_id":"cebpf4jnsgd1na2vs0mg"},{"bike_id":"101d2672-3d1e-4388-b8cc-5e283428ad36","system_id":"levelo_inurba_marseille","lat":43.32657,"lon":5.40996,"is_reserved":false,"is_disabled":false,"rental_uris":{"android":"levelo://app?vid=101d2672-3d1e-4388-b8cc-5e283428ad36","ios":"levelo://app?vid=101d2672-3d1e-4388-b8cc-5e283428ad36"},"vehicle_type_id":"4","last_reported":1730315291,"current_range_meters":13600,"station_id":"ce4bhpp2rcd13ifvqhgg","pricing_plan_id":"cebpf4jnsgd1na2vs0mg"},{"bike_id":"da5f84d0-f584-478e-b4b0-e232c1b2261f","system_id":"levelo_inurba_marseille","lat":43.29518,"lon":5.390437,"is_reserved":false,"is_disabled":false,"rental_uris":{"android":"levelo://app?vid=da5f84d0-f584-478e-b4b0-e232c1b2261f","ios":"levelo://app?vid=da5f84d0-f584-478e-b4b0-e232c1b2261f"},"vehicle_type_id":"4","last_reported":1730315291,"current_range_meters":37600,"station_id":"ce4bh3p2rcd13ifvqdp0","pricing_plan_id":"cebpf4jnsgd1na2vs0mg"},{"bike_id":"06d2168c-a1af-4009-b8fd-9a6b7dd7757b","system_id":"levelo_inurba_marseille","lat":43.29265,"lon":5.38444,"is_reserved":false,"is_disabled":false,"rental_uris":{"android":"levelo://app?vid=06d2168c-a1af-4009-b8fd-9a6b7dd7757b","ios":"levelo://app?vid=06d2168c-a1af-4009-b8fd-9a6b7dd7757b"},"vehicle_type_id":"4","last_reported":1730315291,"current_range_meters":31200,"station_id":"ce4bh692rcd13ifvqea0","pricing_plan_id":"cebpf4jnsgd1na2vs0mg"},{"bike_id":"00570a9a-70dc-4fd9-a21d-b33665529146","system_id":"levelo_inurba_marseille","lat":43.23969,"lon":5.36634,"is_reserved":false,"is_disabled":false,"rental_uris":{"android":"levelo://app?vid=00570a9a-70dc-4fd9-a21d-b33665529146","ios":"levelo://app?vid=00570a9a-70dc-4fd9-a21d-b33665529146"},"vehicle_type_id":"4","last_reported":1730315291,"current_range_meters":39200,"station_id":"ce4bhi12rcd13ifvqfp0","pricing_plan_id":"cebpf4jnsgd1na2vs0mg"},{"bike_id":"8fabddea-7ded-46c7-9110-0917a3237990","system_id":"levelo_inurba_marseille","lat":43.27324,"lon":5.39084,"is_reserved":false,"is_disabled":false,"rental_uris":{"android":"levelo://app?vid=8fabddea-7ded-46c7-9110-0917a3237990","ios":"levelo://app?vid=8fabddea-7ded-46c7-9110-0917a3237990"},"vehicle_type_id":"4","last_reported":1730315291,"current_range_meters":38800,"station_id":"ce4bhgp2rcd13ifvqfe0","pricing_plan_id":"cebpf4jnsgd1na2vs0mg"},{"bike_id":"9592eb1a-4a46-4535-b3fe-0af141dace43","system_id":"levelo_inurba_marseille","lat":43.23967,"lon":5.36629,"is_reserved":false,"is_disabled":false,"rental_uris":{"android":"levelo://app?vid=9592eb1a-4a46-4535-b3fe-0af141dace43","ios":"levelo://app?vid=9592eb1a-4a46-4535-b3fe-0af141dace43"},"vehicle_type_id":"4","last_reported":1730315291,"current_range_meters":30400,"station_id":"ce4bhi12rcd13ifvqfp0","pricing_plan_id":"cebpf4jnsgd1na2vs0mg"},{"bike_id":"829ffb5c-c7ab-46f7-8cba-d1b997358bf9","system_id":"levelo_inurba_marseille","lat":43.28855,"lon":5.39313,"is_reserved":false,"is_disabled":false,"rental_uris":{"android":"levelo://app?vid=829ffb5c-c7ab-46f7-8cba-d1b997358bf9","ios":"levelo://app?vid=829ffb5c-c7ab-46f7-8cba-d1b997358bf9"},"vehicle_type_id":"4","last_reported":1730315291,"current_range_meters":38800,"station_id":"ce4bh2p2rcd13ifvqdi0","pricing_plan_id":"cebpf4jnsgd1na2vs0mg"},{"bike_id":"648717b2-fb29-4c39-8ef4-947345253620","system_id":"levelo_inurba_marseille","lat":43.23968,"lon":5.36633,"is_reserved":false,"is_disabled":false,"rental_uris":{"android":"levelo://app?vid=648717b2-fb29-4c39-8ef4-947345253620","ios":"levelo://app?vid=648717b2-fb29-4c39-8ef4-947345253620"},"vehicle_type_id":"4","last_reported":1730315291,"current_range_meters":26000,"station_id":"ce4bhi12rcd13ifvqfp0","pricing_plan_id":"cebpf4jnsgd1na2vs0mg"},{"bike_id":"ec128bdd-3d34-4ad1-afda-9b702b14bbaf","system_id":"levelo_inurba_marseille","lat":43.29518,"lon":5.3904,"is_reserved":false,"is_disabled":false,"rental_uris":{"android":"levelo://app?vid=ec128bdd-3d34-4ad1-afda-9b702b14bbaf","ios":"levelo://app?vid=ec128bdd-3d34-4ad1-afda-9b702b14bbaf"},"vehicle_type_id":"4","last_reported":1730315291,"current_range_meters":39200,"station_id":"ce4bh3p2rcd13ifvqdp0","pricing_plan_id":"cebpf4jnsgd1na2vs0mg"},{"bike_id":"58549439-f440-475c-bf2a-e7452510a3fd","system_id":"levelo_inurba_marseille","lat":43.300397,"lon":5.412923,"is_reserved":false,"is_disabled":false,"rental_uris":{"android":"levelo://app?vid=58549439-f440-475c-bf2a-e7452510a3fd","ios":"levelo://app?vid=58549439-f440-475c-bf2a-e7452510a3fd"},"vehicle_type_id":"4","last_reported":1730315291,"current_range_meters":38800,"station_id":"ce4bhp12rcd13ifvqh9g","pricing_plan_id":"cebpf4jnsgd1na2vs0mg"},{"bike_id":"5a45402f-231f-4baf-999c-50e0c24ed1c9","system_id":"levelo_inurba_marseille","lat":43.29029,"lon":5.38641,"is_reserved":false,"is_disabled":false,"rental_uris":{"android":"levelo://app?vid=5a45402f-231f-4baf-999c-50e0c24ed1c9","ios":"levelo://app?vid=5a45402f-231f-4baf-999c-50e0c24ed1c9"},"vehicle_type_id":"4","last_reported":1730315291,"current_range_meters":35200,"station_id":"ce4bh4p2rcd13ifvqe0g","pricing_plan_id":"cebpf4jnsgd1na2vs0mg"},{"bike_id":"46c767aa-696a-4b1e-b1a1-66ce2342672b","system_id":"levelo_inurba_marseille","lat":43.30248,"lon":5.40057,"is_reserved":false,"is_disabled":false,"rental_uris":{"android":"levelo://app?vid=46c767aa-696a-4b1e-b1a1-66ce2342672b","ios":"levelo://app?vid=46c767aa-696a-4b1e-b1a1-66ce2342672b"},"vehicle_type_id":"4","last_reported":1730315291,"current_range_meters":18000,"station_id":"ce4bgvh2rcd13ifvqcs0","pricing_plan_id":"cebpf4jnsgd1na2vs0mg"},{"bike_id":"0f4bb216-ae62-44ef-bfbc-0690d837d681","system_id":"levelo_inurba_marseille","lat":43.29255,"lon":5.38448,"is_reserved":false,"is_disabled":false,"rental_uris":{"android":"levelo://app?vid=0f4bb216-ae62-44ef-bfbc-0690d837d681","ios":"levelo://app?vid=0f4bb216-ae62-44ef-bfbc-0690d837d681"},"vehicle_type_id":"4","last_reported":1730315291,"current_range_meters":26000,"station_id":"ce4bh692rcd13ifvqea0","pricing_plan_id":"cebpf4jnsgd1na2vs0mg"},{"bike_id":"b322ae5d-6605-4ff1-8268-dadf6836776c","system_id":"levelo_inurba_marseille","lat":43.29599,"lon":5.381092,"is_reserved":false,"is_disabled":false,"rental_uris":{"android":"levelo://app?vid=b322ae5d-6605-4ff1-8268-dadf6836776c","ios":"levelo://app?vid=b322ae5d-6605-4ff1-8268-dadf6836776c"},"vehicle_type_id":"4","last_reported":1730315291,"current_range_meters":24400,"station_id":"ce4bgt92rcd13ifvqcf0","pricing_plan_id":"cebpf4jnsgd1na2vs0mg"},{"bike_id":"2645e5bc-854b-4dba-b0eb-ed56d9c178b4","system_id":"levelo_inurba_marseille","lat":43.2511,"lon":5.40329,"is_reserved":false,"is_disabled":false,"rental_uris":{"android":"levelo://app?vid=2645e5bc-854b-4dba-b0eb-ed56d9c178b4","ios":"levelo://app?vid=2645e5bc-854b-4dba-b0eb-ed56d9c178b4"},"vehicle_type_id":"4","last_reported":1730315291,"current_range_meters":8400,"station_id":"ce4bhlh2rcd13ifvqgig","pricing_plan_id":"cebpf4jnsgd1na2vs0mg"},{"bike_id":"a9b85c33-8ccd-43b6-b912-77e43f64a8c3","system_id":"levelo_inurba_marseille","lat":43.284058,"lon":5.375192,"is_reserved":false,"is_disabled":false,"rental_uris":{"android":"levelo://app?vid=a9b85c33-8ccd-43b6-b912-77e43f64a8c3","ios":"levelo://app?vid=a9b85c33-8ccd-43b6-b912-77e43f64a8c3"},"vehicle_type_id":"4","last_reported":1730315291,"current_range_meters":16000,"station_id":"ce4bh412rcd13ifvqds0","pricing_plan_id":"cebpf4jnsgd1na2vs0mg"},{"bike_id":"4ad1a6a0-d939-49b5-b869-57801235a14f","system_id":"levelo_inurba_marseille","lat":43.23194,"lon":5.35561,"is_reserved":false,"is_disabled":false,"rental_uris":{"android":"levelo://app?vid=4ad1a6a0-d939-49b5-b869-57801235a14f","ios":"levelo://app?vid=4ad1a6a0-d939-49b5-b869-57801235a14f"},"vehicle_type_id":"4","last_reported":1730315291,"current_range_meters":37600,"station_id":"ce4bhu92rcd13ifvqi70","pricing_plan_id":"cebpf4jnsgd1na2vs0mg"},{"bike_id":"b55c79c6-cb86-4a49-b99f-dae8963d0dc6","system_id":"levelo_inurba_marseille","lat":43.27993,"lon":5.41656,"is_reserved":false,"is_disabled":false,"rental_uris":{"android":"levelo://app?vid=b55c79c6-cb86-4a49-b99f-dae8963d0dc6","ios":"levelo://app?vid=b55c79c6-cb86-4a49-b99f-dae8963d0dc6"},"vehicle_type_id":"4","last_reported":1730315291,"current_range_meters":36400,"station_id":"ce4bho12rcd13ifvqh1g","pricing_plan_id":"cebpf4jnsgd1na2vs0mg"},{"bike_id":"c482f931-4f52-4a2b-bc66-5a45ec5364ff","system_id":"levelo_inurba_marseille","lat":43.298798,"lon":5.389134,"is_reserved":false,"is_disabled":false,"rental_uris":{"android":"levelo://app?vid=c482f931-4f52-4a2b-bc66-5a45ec5364ff","ios":"levelo://app?vid=c482f931-4f52-4a2b-bc66-5a45ec5364ff"},"vehicle_type_id":"4","last_reported":1730315291,"current_range_meters":37600,"station_id":"ce4bh392rcd13ifvqdl0","pricing_plan_id":"cebpf4jnsgd1na2vs0mg"},{"bike_id":"758b95a5-88be-434c-a465-430012287e07","system_id":"levelo_inurba_marseille","lat":43.29787,"lon":5.39335,"is_reserved":false,"is_disabled":false,"rental_uris":{"android":"levelo://app?vid=758b95a5-88be-434c-a465-430012287e07","ios":"levelo://app?vid=758b95a5-88be-434c-a465-430012287e07"},"vehicle_type_id":"4","last_reported":1730315291,"current_range_meters":32400,"station_id":"chh1huq6cuj3fo74tm60","pricing_plan_id":"cebpf4jnsgd1na2vs0mg"},{"bike_id":"e77c0bf2-84f7-4cae-b093-0796779804d3","system_id":"levelo_inurba_marseille","lat":43.28441,"lon":5.39184,"is_reserved":false,"is_disabled":false,"rental_uris":{"android":"levelo://app?vid=e77c0bf2-84f7-4cae-b093-0796779804d3","ios":"levelo://app?vid=e77c0bf2-84f7-4cae-b093-0796779804d3"},"vehicle_type_id":"4","last_reported":1730315291,"current_range_meters":4400,"station_id":"ce4bhoh2rcd13ifvqh5g","pricing_plan_id":"cebpf4jnsgd1na2vs0mg"},{"bike_id":"0d4e0479-d8a2-45f2-91e0-dd87823320fe","system_id":"levelo_inurba_marseille","lat":43.33777,"lon":5.37469,"is_reserved":false,"is_disabled":false,"rental_uris":{"android":"levelo://app?vid=0d4e0479-d8a2-45f2-91e0-dd87823320fe","ios":"levelo://app?vid=0d4e0479-d8a2-45f2-91e0-dd87823320fe"},"vehicle_type_id":"4","last_reported":1730315291,"current_range_meters":33600,"station_id":"","pricing_plan_id":"cebpf4jnsgd1na2vs0mg"},{"bike_id":"782f0e45-ecfc-45d0-bff5-85c98eea90e3","system_id":"levelo_inurba_marseille","lat":43.28707,"lon":5.39979,"is_reserved":false,"is_disabled":false,"rental_uris":{"android":"levelo://app?vid=782f0e45-ecfc-45d0-bff5-85c98eea90e3","ios":"levelo://app?vid=782f0e45-ecfc-45d0-bff5-85c98eea90e3"},"vehicle_type_id":"4","last_reported":1730315291,"current_range_meters":38800,"station_id":"ce4bho92rcd13ifvqh3g","pricing_plan_id":"cebpf4jnsgd1na2vs0mg"},{"bike_id":"149f5025-1f47-4bb1-9662-2699477b6d0c","system_id":"levelo_inurba_marseille","lat":43.32111,"lon":5.36769,"is_reserved":false,"is_disabled":false,"rental_uris":{"android":"levelo://app?vid=149f5025-1f47-4bb1-9662-2699477b6d0c","ios":"levelo://app?vid=149f5025-1f47-4bb1-9662-2699477b6d0c"},"vehicle_type_id":"4","last_reported":1730315291,"current_range_meters":34000,"station_id":"ce4bhrh2rcd13ifvqhug","pricing_plan_id":"cebpf4jnsgd1na2vs0mg"},{"bike_id":"494f7b1c-2a73-4e31-bb1e-04687e208c3a","system_id":"levelo_inurba_marseille","lat":43.32336,"lon":5.40627,"is_reserved":false,"is_disabled":false,"rental_uris":{"android":"levelo://app?vid=494f7b1c-2a73-4e31-bb1e-04687e208c3a","ios":"levelo://app?vid=494f7b1c-2a73-4e31-bb1e-04687e208c3a"},"vehicle_type_id":"4","last_reported":1730315291,"current_range_meters":24000,"station_id":"ce4bhq92rcd13ifvqhjg","pricing_plan_id":"cebpf4jnsgd1na2vs0mg"},{"bike_id":"66c77e7d-2c21-4e3d-8ab5-e20a61e50c5f","system_id":"levelo_inurba_marseille","lat":43.32971,"lon":5.38892,"is_reserved":false,"is_disabled":false,"rental_uris":{"android":"levelo://app?vid=66c77e7d-2c21-4e3d-8ab5-e20a61e50c5f","ios":"levelo://app?vid=66c77e7d-2c21-4e3d-8ab5-e20a61e50c5f"},"vehicle_type_id":"4","last_reported":1730315291,"current_range_meters":22000,"station_id":"ce4bhr92rcd13ifvqhrg","pricing_plan_id":"cebpf4jnsgd1na2vs0mg"},