{"last_updated":1758046508,"ttl":60,"version":"2.2","data":{"bikes":[{"bike_id":"885e3457-dc1d-4511-880e-ea5cef3dea5d","system_id":"levelo_inurba_marseille","lat":43.29797,"lon":5.38104,"is_reserved":false,"is_disabled":false,"rental_uris":{"android":"levelo://app?vid=885e3457-dc1d-4511-880e-ea5cef3dea5d","ios":"levelo://app?vid=885e3457-dc1d-4511-880e-ea5cef3dea5d"},"vehicle_type_id":"4","last_reported":1758046508,"current_range_meters":2800,"station_id":"ce4bgip2rcd13ifvqbb0","pricing_plan_id":"cebpf4jnsgd1na2vs0mg"},{"bike_id":"63c2bec2-56ae-42d4-a965-91defc1f04e9","system_id":"levelo_inurba_marseille","lat":43.29697,"lon":5.38016,"is_reserved":false,"is_disabled":false,"rental_uris":{"android":"levelo://app?vid=63c2bec2-56ae-42d4-a965-91defc1f04e9","ios":"levelo://app?vid=63c2bec2-56ae-42d4-a965-91defc1f04e9"},"vehicle_type_id":"4","last_reported":1758046508,"current_range_meters":2800,"station_id":"","pricing_plan_id":"cebpf4jnsgd1na2vs0mg"},{"bike_id":"71b6a6d7-551f-43e8-8ecd-d67e92e8e264","system_id":"levelo_inurba_marseille","lat":43.28707,"lon":5.37953,"is_reserved":false,"is_disabled":false,"rental_uris":{"android":"levelo://app?vid=71b6a6d7-551f-43e8-8ecd-d67e92e8e264","ios":"levelo://app?vid=71b6a6d7-551f-43e8-8ecd-d67e92e8e264"},"vehicle_type_id":"4","last_reported":1758046508,"current_range_meters":2800,"station_id":"ce4bh9p2rcd13ifvqec0","pricing_plan_id":"cebpf4jnsgd1na2vs0mg"},{"bike_id":"8ed5a08d-6eab-4e40-ad04-2d45f5f7be90","system_id":"levelo_inurba_marseille","lat":43.313292,"lon":5.396915,"is_reserved":false,"is_disabled":false,"rental_uris":{"android":"levelo://app?vid=8ed5a08d-6eab-4e40-ad04-2d45f5f7be90","ios":"levelo://app?vid=8ed5a08d-6eab-4e40-ad04-2d45f5f7be90"},"vehicle_type_id":"4","last_reported":1758046508,"current_range_meters":2800,"station_id":"ce4bgvp2rcd13ifvqcu0","pricing_plan_id":"cebpf4jnsgd1na2vs0mg"},{"bike_id":"c9a4cf39-7193-4b6d-92dd-99efb31ad0d3","system_id":"levelo_inurba_marseille","lat":43.32363,"lon":5.38889,"is_reserved":false,"is_disabled":false,"rental_uris":{"android":"levelo://app?vid=c9a4cf39-7193-4b6d-92dd-99efb31ad0d3","ios":"levelo://app?vid=c9a4cf39-7193-4b6d-92dd-99efb31ad0d3"},"vehicle_type_id":"4","last_reported":1758046508,"current_range_meters":2800,"station_id":"ce4bhqp2rcd13ifvqhog","pricing_plan_id":"cebpf4jnsgd1na2vs0mg"},{"bike_id":"c37933c6-f301-4e72-ae28-b86236887c46","system_id":"levelo_inurba_marseille","lat":43.225329,"lon":5.348362,"is_reserved":false,"is_disabled":false,"rental_uris":{"android":"levelo://app?vid=c37933c6-f301-4e72-ae28-b86236887c46","ios":"levelo://app?vid=c37933c6-f301-4e72-ae28-b86236887c46"},"vehicle_type_id":"4","last_reported":1758046508,"current_range_meters":2800,"station_id":"","pricing_plan_id":"cebpf4jnsgd1na2vs0mg"},{"bike_id":"6b5b3c8e-1efc-443e-8d65-f1b5bb18a3da","system_id":"levelo_inurba_marseille","lat":43.26851,"lon":5.39594,"is_reserved":false,"is_disabled":false,"rental_uris":{"android":"levelo://app?vid=6b5b3c8e-1efc-443e-8d65-f1b5bb18a3da","ios":"levelo://app?vid=6b5b3c8e-1efc-443e-8d65-f1b5bb18a3da"},"vehicle_type_id":"4","last_reported":1758046508,"current_range_meters":2800,"station_id":"","pricing_plan_id":"cebpf4jnsgd1na2vs0mg"},{"bike_id":"d2c2f1d0-8b01-4e08-9dff-706d88363fef","system_id":"levelo_inurba_marseille","lat":43.290487,"lon":5.376027,"is_reserved":false,"is_disabled":false,"rental_uris":{"android":"levelo://app?vid=d2c2f1d0-8b01-4e08-9dff-706d88363fef","ios":"levelo://app?vid=d2c2f1d0-8b01-4e08-9dff-706d88363fef"},"vehicle_type_id":"4","last_reported":1758046508,"current_range_meters":2800,"station_id":"ce4bh692rcd13ifvqe90","pricing_plan_id":"cebpf4jnsgd1na2vs0mg"},{"bike_id":"0a6f5fa1-49a4-406e-8cfb-af613f643b1e","system_id":"levelo_inurba_marseille","lat":43.29277,"lon":5.36851,"is_reserved":false,"is_disabled":false,"rental_uris":{"android":"levelo://app?vid=0a6f5fa1-49a4-406e-8cfb-af613f643b1e","ios":"levelo://app?vid=0a6f5fa1-49a4-406e-8cfb-af613f643b1e"},"vehicle_type_id":"4","last_reported":1758046508,"current_range_meters":2800,"station_id":"ce4bhbp2rcd13ifvqesg","pricing_plan_id":"cebpf4jnsgd1na2vs0mg"},{"bike_id":"03809294-3a3e-4efa-afda-0ac11dcf72fc","system_id":"levelo_inurba_marseille","lat":43.337398,"lon":5.374666,"is_reserved":false,"is_disabled":false,"rental_uris":{"android":"levelo://app?vid=03809294-3a3e-4efa-afda-0ac11dcf72fc","ios":"levelo://app?vid=03809294-3a3e-4efa-afda-0ac11dcf72fc"},"vehicle_type_id":"4","last_reported":1758046508,"current_range_meters":2800,"station_id":"","pricing_plan_id":"cebpf4jnsgd1na2vs0mg"},{"bike_id":"2b45bc90-eecb-437c-a8dc-64058e2285da","system_id":"levelo_inurba_marseille","lat":43.29249,"lon":5.38446,"is_reserved":false,"is_disabled":false,"rental_uris":{"android":"levelo://app?vid=2b45bc90-eecb-437c-a8dc-64058e2285da","ios":"levelo://app?vid=2b45bc90-eecb-437c-a8dc-64058e2285da"},"vehicle_type_id":"4","last_reported":1758046508,"current_range_meters":3200,"station_id":"ce4bh692rcd13ifvqea0","pricing_plan_id":"cebpf4jnsgd1na2vs0mg"},{"bike_id":"d765e876-dc94-417e-ad8c-0ac49bf5261a","system_id":"levelo_inurba_marseille","lat":43.33564,"lon":5.36342,"is_reserved":false,"is_disabled":false,"rental_uris":{"android":"levelo://app?vid=d765e876-dc94-417e-ad8c-0ac49bf5261a","ios":"levelo://app?vid=d765e876-dc94-417e-ad8c-0ac49bf5261a"},"vehicle_type_id":"4","last_reported":1758046508,"current_range_meters":3200,"station_id":"","pricing_plan_id":"cebpf4jnsgd1na2vs0mg"},{"bike_id":"58209f8c-d5cd-435a-9fa8-9a278b198f1c","system_id":"levelo_inurba_marseille","lat":43.30131,"lon":5.39891,"is_reserved":false,"is_disabled":false,"rental_uris":{"android":"levelo://app?vid=58209f8c-d5cd-435a-9fa8-9a278b198f1c","ios":"levelo://app?vid=58209f8c-d5cd-435a-9fa8-9a278b198f1c"},"vehicle_type_id":"4","last_reported":1758046508,"current_range_meters":3200,"station_id":"ce4bh0h2rcd13ifvqd40","pricing_plan_id":"cebpf4jnsgd1na2vs0mg"},{"bike_id":"77faf194-b589-44cf-adc6-ac20b750a1bc","system_id":"levelo_inurba_marseille","lat":43.295288,"lon":5.385316,"is_reserved":false,"is_disabled":false,"rental_uris":{"android":"levelo://app?vid=77faf194-b589-44cf-adc6-ac20b750a1bc","ios":"levelo://app?vid=77faf194-b589-44cf-adc6-ac20b750a1bc"},"vehicle_type_id":"4","last_reported":1758046508,"current_range_meters":3600,"station_id":"ce4bgih2rcd13ifvqba0","pricing_plan_id":"cebpf4jnsgd1na2vs0mg"},{"bike_id":"2828e058-9171-4ab9-9e16-ce6b889ec301","system_id":"levelo_inurba_marseille","lat":43.21194,"lon":5.35081,"is_reserved":false,"is_disabled":false,"rental_uris":{"android":"levelo://app?vid=2828e058-9171-4ab9-9e16-ce6b889ec301","ios":"levelo://app?vid=2828e058-9171-4ab9-9e16-ce6b889ec301"},"vehicle_type_id":"4","last_reported":1758046508,"current_range_meters":3600,"station_id":"st_cvj6sg6p6f1abm77japg","pricing_plan_id":"cebpf4jnsgd1na2vs0mg"},{"bike_id":"d9e1c6ba-3a77-4834-93d5-c8a04683b5fc","system_id":"levelo_inurba_marseille","lat":43.30805,"lon":5.38152,"is_reserved":false,"is_disabled":false,"rental_uris":{"android":"levelo://app?vid=d9e1c6ba-3a77-4834-93d5-c8a04683b5fc","ios":"levelo://app?vid=d9e1c6ba-3a77-4834-93d5-c8a04683b5fc"},"vehicle_type_id":"4","last_reported":1758046508,"current_range_meters":4000,"station_id":"ce4bgt12rcd13ifvqce0","pricing_plan_id":"cebpf4jnsgd1na2vs0mg"},{"bike_id":"d604f615-7d63-4ce9-89fa-c55e4639520d","system_id":"levelo_inurba_marseille","lat":43.2997,"lon":5.3848,"is_reserved":false,"is_disabled":false,"rental_uris":{"android":"levelo://app?vid=d604f615-7d63-4ce9-89fa-c55e4639520d","ios":"levelo://app?vid=d604f615-7d63-4ce9-89fa-c55e4639520d"},"vehicle_type_id":"4","last_reported":1758046508,"current_range_meters":3600,"station_id":"ce4bgj92rcd13ifvqbd0","pricing_plan_id":"cebpf4jnsgd1na2vs0mg"},{"bike_id":"f7ac85a9-20be-4d2a-881e-cf6f9829206c","system_id":"levelo_inurba_marseille","lat":43.28964,"lon":5.35692,"is_reserved":false,"is_disabled":false,"rental_uris":{"android":"levelo://app?vid=f7ac85a9-20be-4d2a-881e-cf6f9829206c","ios":"levelo://app?vid=f7ac85a9-20be-4d2a-881e-cf6f9829206c"},"vehicle_type_id":"4","last_reported":1758046508,"current_range_meters":3600,"station_id":"","pricing_plan_id":"cebpf4jnsgd1na2vs0mg"},{"bike_id":"009ac0a5-0eea-4a4b-8c17-60e875bc8c04","system_id":"levelo_inurba_marseille","lat":43.28613,"lon":5.35103,"is_reserved":false,"is_disabled":false,"rental_uris":{"android":"levelo://app?vid=009ac0a5-0eea-4a4b-8c17-60e875bc8c04","ios":"levelo://app?vid=009ac0a5-0eea-4a4b-8c17-60e875bc8c04"},"vehicle_type_id":"4","last_reported":1758046508,"current_range_meters":3600,"station_id":"ce4bhch2rcd13ifvqeug","pricing_plan_id":"cebpf4jnsgd1na2vs0mg"},{"bike_id":"436677e8-71dc-4e37-99a8-7297ab8fbf78","system_id":"levelo_inurba_marseille","lat":43.286735,"lon":5.386801,"is_reserved":false,"is_disabled":false,"rental_uris":{"android":"levelo://app?vid=436677e8-71dc-4e37-99a8-7297ab8fbf78","ios":"levelo://app?vid=436677e8-71dc-4e37-99a8-7297ab8fbf78"},"vehicle_type_id":"4","last_reported":1758046508,"current_range_meters":3600,"station_id":"","pricing_plan_id":"cebpf4jnsgd1na2vs0mg"},{"bike_id":"33bb1785-d459-4f3b-9518-672a188c6a87","system_id":"levelo_inurba_marseille","lat":43.337444,"lon":5.374475,"is_reserved":false,"is_disabled":false,"rental_uris":{"android":"levelo://app?vid=33bb1785-d459-4f3b-9518-672a188c6a87","ios":"levelo://app?vid=33bb1785-d459-4f3b-9518-672a188c6a87"},"vehicle_type_id":"4","last_reported":1758046508,"current_range_meters":3600,"station_id":"","pricing_plan_id":"cebpf4jnsgd1na2vs0mg"},{"bike_id":"e8fd5cd5-c9f1-42ae-a40a-c3e25d4366d2","system_id":"levelo_inurba_marseille","lat":43.28855,"lon":5.35844,"is_reserved":false,"is_disabled":true,"rental_uris":{"android":"levelo://app?vid=e8fd5cd5-c9f1-42ae-a40a-c3e25d4366d2","ios":"levelo://app?vid=e8fd5cd5-c9f1-42ae-a40a-c3e25d4366d2"},"vehicle_type_id":"4","last_reported":1758046508,"current_range_meters":3600,"station_id":"ce4bhb12rcd13ifvqem0","pricing_plan_id":"cebpf4jnsgd1na2vs0mg"},{"bike_id":"3e78ef90-7d03-4d01-b054-79354f7c8863","system_id":"levelo_inurba_marseille","lat":43.29955,"lon":5.41331,"is_reserved":false,"is_disabled":false,"rental_uris":{"android":"levelo://app?vid=3e78ef90-7d03-4d01-b054-79354f7c8863","ios":"levelo://app?vid=3e78ef90-7d03-4d01-b054-79354f7c8863"},"vehicle_type_id":"4","last_reported":1758046508,"current_range_meters":0,"station_id":"ce4bhp12rcd13ifvqh9g","pricing_plan_id":"cebpf4jnsgd1na2vs0mg"},{"bike_id":"81fa433e-4a14-4fd8-8ed1-0bbd36af7b33","system_id":"levelo_inurba_marseille","lat":43.29273,"lon":5.36851,"is_reserved":false,"is_disabled":false,"rental_uris":{"android":"levelo://app?vid=81fa433e-4a14-4fd8-8ed1-0bbd36af7b33","ios":"levelo://app?vid=81fa433e-4a14-4fd8-8ed1-0bbd36af7b33"},"vehicle_type_id":"4","last_reported":1758046508,"current_range_meters":3600,"station_id":"ce4bhbp2rcd13ifvqesg","pricing_plan_id":"cebpf4jnsgd1na2vs0mg"},{"bike_id":"a234c8d6-1e23-409a-95bc-672a869cb12e","system_id":"levelo_inurba_marseille","lat":43.32623,"lon":5.4038,"is_reserved":false,"is_disabled":false,"rental_uris":{"android":"levelo://app?vid=a234c8d6-1e23-409a-95bc-672a869cb12e","ios":"levelo://app?vid=a234c8d6-1e23-409a-95bc-672a869cb12e"},"vehicle_type_id":"4","last_reported":1758046508,"current_range_meters":3600,"station_id":"","pricing_plan_id":"cebpf4jnsgd1na2vs0mg"},{"bike_id":"5fa6271e-baa9-43b4-a384-0c174226da68","system_id":"levelo_inurba_marseille","lat":43.29539,"lon":5.37502,"is_reserved":false,"is_disabled":false,"rental_uris":{"android":"levelo://app?vid=5fa6271e-baa9-43b4-a384-0c174226da68","ios":"levelo://app?vid=5fa6271e-baa9-43b4-a384-0c174226da68"},"vehicle_type_id":"4","last_reported":1758046508,"current_range_meters":4000,"station_id":"ce4bgkp2rcd13ifvqbmg","pricing_plan_id":"cebpf4jnsgd1na2vs0mg"},{"bike_id":"5b324a3e-b864-4d09-b0e8-7a9c24a774e1","system_id":"levelo_inurba_marseille","lat":43.272097,"lon":5.391817,"is_reserved":false,"is_disabled":false,"rental_uris":{"android":"levelo://app?vid=5b324a3e-b864-4d09-b0e8-7a9c24a774e1","ios":"levelo://app?vid=5b324a3e-b864-4d09-b0e8-7a9c24a774e1"},"vehicle_type_id":"4","last_reported":1758046508,"current_range_meters":2000,"station_id":"ce4bhhp2rcd13ifvqfm0","pricing_plan_id":"cebpf4jnsgd1na2vs0mg"},{"bike_id":"79eadfbb-f4ac-41e8-8d4c-7a4b5c79fe10","system_id":"levelo_inurba_marseille","lat":43.28555,"lon":5.39518,"is_reserved":false,"is_disabled":false,"rental_uris":{"android":"levelo://app?vid=79eadfbb-f4ac-41e8-8d4c-7a4b5c79fe10","ios":"levelo://app?vid=79eadfbb-f4ac-41e8-8d4c-7a4b5c79fe10"},"vehicle_type_id":"4","last_reported":1758046508,"current_range_meters":4000,"station_id":"ce4bh292rcd13ifvqdg0","pricing_plan_id":"cebpf4jnsgd1na2vs0mg"},{"bike_id":"df21a0d7-45f7-45b6-a422-9d3af9d10d2f","system_id":"levelo_inurba_marseille","lat":43.251249,"lon":5.403045,"is_reserved":false,"is_disabled":true,"rental_uris":{"android":"levelo://app?vid=df21a0d7-45f7-45b6-a422-9d3af9d10d2f","ios":"levelo://app?vid=df21a0d7-45f7-45b6-a422-9d3af9d10d2f"},"vehicle_type_id":"4","last_reported":1758046508,"current_range_meters":4000,"station_id":"","pricing_plan_id":"cebpf4jnsgd1na2vs0mg"},{"bike_id":"63578882-e077-4c33-9448-b005b2afb6a8","system_id":"levelo_inurba_marseille","lat":43.28482,"lon":5.38424,"is_reserved":false,"is_disabled":false,"rental_uris":{"android":"levelo://app?vid=63578882-e077-4c33-9448-b005b2afb6a8","ios":"levelo://app?vid=63578882-e077-4c33-9448-b005b2afb6a8"},"vehicle_type_id":"4","last_reported":1758046508,"current_range_meters":4000,"station_id":"ce4bh512rcd13ifvqe3g","pricing_plan_id":"cebpf4jnsgd1na2vs0mg"},{"bike_id":"dd32f779-e928-424d-999f-b730cf475fa7","system_id":"levelo_inurba_marseille","lat":43.22399,"lon":5.34657,"is_reserved":false,"is_disabled":false,"rental_uris":{"android":"levelo://app?vid=dd32f779-e928-424d-999f-b730cf475fa7","ios":"levelo://app?vid=dd32f779-e928-424d-999f-b730cf475fa7"},"vehicle_type_id":"4","last_reported":1758046508,"current_range_meters":4400,"station_id":"","pricing_plan_id":"cebpf4jnsgd1na2vs0mg"},{"bike_id":"3081a8c2-567d-429a-b6e3-b165f3dd426c","system_id":"levelo_inurba_marseille","lat":43.29531,"lon":5.38549,"is_reserved":false,"is_disabled":false,"rental_uris":{"android":"levelo://app?vid=3081a8c2-567d-429a-b6e3-b165f3dd426c","ios":"levelo://app?vid=3081a8c2-567d-429a-b6e3-b165f3dd426c"},"vehicle_type_id":"4","last_reported":1758046508,"current_range_meters":4400,"station_id":"ce4bgih2rcd13ifvqba0","pricing_plan_id":"cebpf4jnsgd1na2vs0mg"},{"bike_id":"f4cd94d1-cc56-4b53-94d7-c78391ecbc9b","system_id":"levelo_inurba_marseille","lat":43.28936,"lon":5.36646,"is_reserved":false,"is_disabled":false,"rental_uris":{"android":"levelo://app?vid=f4cd94d1-cc56-4b53-94d7-c78391ecbc9b","ios":"levelo://app?vid=f4cd94d1-cc56-4b53-94d7-c78391ecbc9b"},"vehicle_type_id":"4","last_reported":1758046508,"current_range_meters":4400,"station_id":"ce4bhap2rcd13ifvqek0","pricing_plan_id":"cebpf4jnsgd1na2vs0mg"},{"bike_id":"e68c17f8-0de1-4195-8947-1a1cdd46996d","system_id":"levelo_inurba_marseille","lat":43.28026,"lon":5.36942,"is_reserved":false,"is_disabled":false,"rental_uris":{"android":"levelo://app?vid=e68c17f8-0de1-4195-8947-1a1cdd46996d","ios":"levelo://app?vid=e68c17f8-0de1-4195-8947-1a1cdd46996d"},"vehicle_type_id":"4","last_reported":1758046508,"current_range_meters":4400,"station_id":"ce4bha12rcd13ifvqef0","pricing_plan_id":"cebpf4jnsgd1na2vs0mg"},{"bike_id":"51408778-8464-4029-9945-aa9f31708c8a","system_id":"levelo_inurba_marseille","lat":43.29189,"lon":5.36025,"is_reserved":false,"is_disabled":false,"rental_uris":{"android":"levelo://app?vid=51408778-8464-4029-9945-aa9f31708c8a","ios":"levelo://app?vid=51408778-8464-4029-9945-aa9f31708c8a"},"vehicle_type_id":"4","last_reported":1758046508,"current_range_meters":4400,"station_id":"","pricing_plan_id":"cebpf4jnsgd1na2vs0mg"},{"bike_id":"e21423ee-d84d-452c-adc7-70e854670817","system_id":"levelo_inurba_marseille","lat":43.261765,"lon":5.378933,"is_reserved":false,"is_disabled":false,"rental_uris":{"android":"levelo://app?vid=e21423ee-d84d-452c-adc7-70e854670817","ios":"levelo://app?vid=e21423ee-d84d-452c-adc7-70e854670817"},"vehicle_type_id":"4","last_reported":1758046508,"current_range_meters":4400,"station_id":"ce4bghh2rcd13ifvqb60","pricing_plan_id":"cebpf4jnsgd1na2vs0mg"},{"bike_id":"5c50d084-413c-4658-a9f7-f2efb9fda08b","system_id":"levelo_inurba_marseille","lat":43.24799,"lon":5.37462,"is_reserved":false,"is_disabled":false,"rental_uris":{"android":"levelo://app?vid=5c50d084-413c-4658-a9f7-f2efb9fda08b","ios":"levelo://app?vid=5c50d084-413c-4658-a9f7-f2efb9fda08b"},"vehicle_type_id":"4","last_reported":1758046508,"current_range_meters":4800,"station_id":"ce4bhgh2rcd13ifvqfb0","pricing_plan_id":"cebpf4jnsgd1na2vs0mg"},{"bike_id":"9e51c077-3586-4dae-b0c5-b41edd58547e","system_id":"levelo_inurba_marseille","lat":43.30085,"lon":5.39076,"is_reserved":false,"is_disabled":false,"rental_uris":{"android":"levelo://app?vid=9e51c077-3586-4dae-b0c5-b41edd58547e","ios":"levelo://app?vid=9e51c077-3586-4dae-b0c5-b41edd58547e"},"vehicle_type_id":"4","last_reported":1758046508,"current_range_meters":4800,"station_id":"ce4bh192rcd13ifvqdb0","pricing_plan_id":"cebpf4jnsgd1na2vs0mg"},{"bike_id":"10216015-d307-4bed-88ee-0b7117394fa1","system_id":"levelo_inurba_marseille","lat":43.273203,"lon":5.390717,"is_reserved":false,"is_disabled":false,"rental_uris":{"android":"levelo://app?vid=10216015-d307-4bed-88ee-0b7117394fa1","ios":"levelo://app?vid=10216015-d307-4bed-88ee-0b7117394fa1"},"vehicle_type_id":"4","last_reported":1758046508,"current_range_meters":4800,"station_id":"ce4bhgp2rcd13ifvqfe0","pricing_plan_id":"cebpf4jnsgd1na2vs0mg"},{"bike_id":"a31b260c-d40e-433c-b6af-26ea6acc9c09","system_id":"levelo_inurba_marseille","lat":43.29279,"lon":5.36852,"is_reserved":false,"is_disabled":false,"rental_uris":{"android":"levelo://app?vid=a31b260c-d40e-433c-b6af-26ea6acc9c09","ios":"levelo://app?vid=a31b260c-d40e-433c-b6af-26ea6acc9c09"},"vehicle_type_id":"4","last_reported":1758046508,"current_range_meters":4800,"station_id":"ce4bhbp2rcd13ifvqesg","pricing_plan_id":"cebpf4jnsgd1na2vs0mg"},{"bike_id":"a5c0baee-1478-4fde-aa17-da766afbb7af","system_id":"levelo_inurba_marseille","lat":43.32365,"lon":5.38888,"is_reserved":false,"is_disabled":false,"rental_uris":{"android":"levelo://app?vid=a5c0baee-1478-4fde-aa17-da766afbb7af","ios":"levelo://app?vid=a5c0baee-1478-4fde-aa17-da766afbb7af"},"vehicle_type_id":"4","last_reported":1758046508,"current_range_meters":4800,"station_id":"ce4bhqp2rcd13ifvqhog","pricing_plan_id":"cebpf4jnsgd1na2vs0mg"},{"bike_id":"1cc94727-5b80-430f-aad6-1e5ec4ba0206","system_id":"levelo_inurba_marseille","lat":43.3013,"lon":5.39852,"is_reserved":false,"is_disabled":false,"rental_uris":{"android":"levelo://app?vid=1cc94727-5b80-430f-aad6-1e5ec4ba0206","ios":"levelo://app?vid=1cc94727-5b80-430f-aad6-1e5ec4ba0206"},"vehicle_type_id":"4","last_reported":1758046508,"current_range_meters":4800,"station_id":"ce4bh0h2rcd13ifvqd40","pricing_plan_id":"cebpf4jnsgd1na2vs0mg"},{"bike_id":"661752dc-e618-4683-81fb-8430ee8fda8f","system_id":"levelo_inurba_marseille","lat":43.252675,"lon":5.420804,"is_reserved":false,"is_disabled":false,"rental_uris":{"android":"levelo://app?vid=661752dc-e618-4683-81fb-8430ee8fda8f","ios":"levelo://app?vid=661752dc-e618-4683-81fb-8430ee8fda8f"},"vehicle_type_id":"4","last_reported":1758046508,"current_range_meters":5600,"station_id":"","pricing_plan_id":"cebpf4jnsgd1na2vs0mg"},{"bike_id":"1142c08a-9723-486f-819a-3aaa16736cb7","system_id":"levelo_inurba_marseille","lat":43.28236,"lon":5.43941,"is_reserved":false,"is_disabled":false,"rental_uris":{"android":"levelo://app?vid=1142c08a-9723-486f-819a-3aaa16736cb7","ios":"levelo://app?vid=1142c08a-9723-486f-819a-3aaa16736cb7"},"vehicle_type_id":"4","last_reported":1758046508,"current_range_meters":5600,"station_id":"","pricing_plan_id":"cebpf4jnsgd1na2vs0mg"},{"bike_id":"4297e465-b65d-4eac-891b-83212161eb40","system_id":"levelo_inurba_marseille","lat":43.29793,"lon":5.38093,"is_reserved":false,"is_disabled":false,"rental_uris":{"android":"levelo://app?vid=4297e465-b65d-4eac-891b-83212161eb40","ios":"levelo://app?vid=4297e465-b65d-4eac-891b-83212161eb40"},"vehicle_type_id":"4","last_reported":1758046508,"current_range_meters":2800,"station_id":"ce4bgip2rcd13ifvqbb0","pricing_plan_id":"cebpf4jnsgd1na2vs0mg"},{"bike_id":"8c32f4b7-77fe-4371-b162-18ad021eb8b2","system_id":"levelo_inurba_marseille","lat":43.217466,"lon":5.346042,"is_reserved":false,"is_disabled":false,"rental_uris":{"android":"levelo://app?vid=8c32f4b7-77fe-4371-b162-18ad021eb8b2","ios":"levelo://app?vid=8c32f4b7-77fe-4371-b162-18ad021eb8b2"},"vehicle_type_id":"4","last_reported":1758046508,"current_range_meters":5600,"station_id":"st_cvj6r9ubvosntc0bgbag","pricing_plan_id":"cebpf4jnsgd1na2vs0mg"},{"bike_id":"27bc6b0c-c22e-494b-ab92-4e390584592b","system_id":"levelo_inurba_marseille","lat":43.33743,"lon":5.37466,"is_reserved":false,"is_disabled":false,"rental_uris":{"android":"levelo://app?vid=27bc6b0c-c22e-494b-ab92-4e390584592b","ios":"levelo://app?vid=27bc6b0c-c22e-494b-ab92-4e390584592b"},"vehicle_type_id":"4","last_reported":1758046508,"current_range_meters":5600,"station_id":"","pricing_plan_id":"cebpf4jnsgd1na2vs0mg"},{"bike_id":"0242b814-990e-4a5e-9cdc-1359633b8d7d","system_id":"levelo_inurba_marseille","lat":43.29196,"lon":5.39319,"is_reserved":false,"is_disabled":false,"rental_uris":{"android":"levelo://app?vid=0242b814-990e-4a5e-9cdc-1359633b8d7d","ios":"levelo://app?vid=0242b814-990e-4a5e-9cdc-1359633b8d7d"},"vehicle_type_id":"4","last_reported":1758046508,"current_range_meters":6000,"station_id":"ce4bh192rcd13ifvqdd0","pricing_plan_id":"cebpf4jnsgd1na2vs0mg"},{"bike_id":"f43ab4d4-8a36-4b97-8221-0c5f42c36023","system_id":"levelo_inurba_marseille","lat":43.240779,"lon":5.377473,"is_reserved":false,"is_disabled":true,"rental_uris":{"android":"levelo://app?vid=f43ab4d4-8a36-4b97-8221-0c5f42c36023","ios":"levelo://app?vid=f43ab4d4-8a36-4b97-8221-0c5f42c36023"},"vehicle_type_id":"4","last_reported":1758046508,"current_range_meters":6000,"station_id":"","pricing_plan_id":"cebpf4jnsgd1na2vs0mg"},{"bike_id":"e81b758a-10fc-4b73-8d3d-78cfa438af67","system_id":"levelo_inurba_marseille","lat":43.27808,"lon":5.40715,"is_reserved":false,"is_disabled":false,"rental_uris":{"android":"levelo://app?vid=e81b758a-10fc-4b73-8d3d-78cfa438af67","ios":"levelo://app?vid=e81b758a-10fc-4b73-8d3d-78cfa438af67"},"vehicle_type_id":"4","last_reported":1758046508,"current_range_meters":6000,"station_id":"ce4bhnh2rcd13ifvqgtg","pricing_plan_id":"cebpf4jnsgd1na2vs0mg"},{"bike_id":"57127154-7e15-4346-89ed-ab9d76ef9c2c","system_id":"levelo_inurba_marseille","lat":43.28838,"lon":5.36326,"is_reserved":false,"is_disabled":false,"rental_uris":{"android":"levelo://app?vid=57127154-7e15-4346-89ed-ab9d76ef9c2c","ios":"levelo://app?vid=57127154-7e15-4346-89ed-ab9d76ef9c2c"},"vehicle_type_id":"4","last_reported":1758046508,"current_range_meters":6000,"station_id":"","pricing_plan_id":"cebpf4jnsgd1na2vs0mg"},{"bike_id":"c2f29fbc-79f0-429d-8349-a08db42d0db5","system_id":"levelo_inurba_marseille","lat":43.29273,"lon":5.36841,"is_reserved":false,"is_disabled":false,"rental_uris":{"android":"levelo://app?vid=c2f29fbc-79f0-429d-8349-a08db42d0db5","ios":"levelo://app?vid=c2f29fbc-79f0-429d-8349-a08db42d0db5"},"vehicle_type_id":"4","last_reported":1758046508,"current_range_meters":6400,"station_id":"ce4bhbp2rcd13ifvqesg","pricing_plan_id":"cebpf4jnsgd1na2vs0mg"},{"bike_id":"fc2dc28e-1b3e-4739-9da5-85589dcbe11b","system_id":"levelo_inurba_marseille","lat":43.302133,"lon":5.394656,"is_reserved":false,"is_disabled":false,"rental_uris":{"android":"levelo://app?vid=fc2dc28e-1b3e-4739-9da5-85589dcbe11b","ios":"levelo://app?vid=fc2dc28e-1b3e-4739-9da5-85589dcbe11b"},"vehicle_type_id":"4","last_reported":1758046508,"current_range_meters":8800,"station_id":"ce4bh0p2rcd13ifvqd70","pricing_plan_id":"cebpf4jnsgd1na2vs0mg"},{"bike_id":"56971a1e-86b1-45e3-97a4-50834ec5f2d8","system_id":"levelo_inurba_marseille","lat":43.28362,"lon":5.38632,"is_reserved":false,"is_disabled":false,"rental_uris":{"android":"levelo://app?vid=56971a1e-86b1-45e3-97a4-50834ec5f2d8","ios":"levelo://app?vid=56971a1e-86b1-45e3-97a4-50834ec5f2d8"},"vehicle_type_id":"4","last_reported":1758046508,"current_range_meters":6400,"station_id":"ce4bh492rcd13ifvqdvg","pricing_plan_id":"cebpf4jnsgd1na2vs0mg"},{"bike_id":"f8e2a70e-a493-4a87-a7e0-9a1efab9c834","system_id":"levelo_inurba_marseille","lat":43.25075,"lon":5.39533,"is_reserved":false,"is_disabled":false,"rental_uris":{"android":"levelo://app?vid=f8e2a70e-a493-4a87-a7e0-9a1efab9c834","ios":"levelo://app?vid=f8e2a70e-a493-4a87-a7e0-9a1efab9c834"},"vehicle_type_id":"4","last_reported":1758046508,"current_range_meters":6400,"station_id":"ce4bhm12rcd13ifvqgkg","pricing_plan_id":"cebpf4jnsgd1na2vs0mg"},{"bike_id":"2350c69b-e48b-42aa-ac85-d0e17af5e517","system_id":"levelo_inurba_marseille","lat":43.30878,"lon":5.37198,"is_reserved":false,"is_disabled":false,"rental_uris":{"android":"levelo://app?vid=2350c69b-e48b-42aa-ac85-d0e17af5e517","ios":"levelo://app?vid=2350c69b-e48b-42aa-ac85-d0e17af5e517"},"vehicle_type_id":"4","last_reported":1758046508,"current_range_meters":2800,"station_id":"ce4bguh2rcd13ifvqckg","pricing_plan_id":"cebpf4jnsgd1na2vs0mg"},{"bike_id":"e7a329bd-ed66-4ac7-aaba-63f2810ddd86","system_id":"levelo_inurba_marseille","lat":43.31859,"lon":5.37206,"is_reserved":false,"is_disabled":false,"rental_uris":{"android":"levelo://app?vid=e7a329bd-ed66-4ac7-aaba-63f2810ddd86","ios":"levelo://app?vid=e7a329bd-ed66-4ac7-aaba-63f2810ddd86"},"vehicle_type_id":"4","last_reported":1758046508,"current_range_meters":6400,"station_id":"","pricing_plan_id":"cebpf4jnsgd1na2vs0mg"},{"bike_id":"6a1665e1-806c-429c-a084-950fd9b4265a","system_id":"levelo_inurba_marseille","lat":43.29526,"lon":5.38536,"is_reserved":false,"is_disabled":false,"rental_uris":{"android":"levelo://app?vid=6a1665e1-806c-429c-a084-950fd9b4265a","ios":"levelo://app?vid=6a1665e1-806c-429c-a084-950fd9b4265a"},"vehicle_type_id":"4","last_reported":1758046508,"current_range_meters":6400,"station_id":"ce4bgih2rcd13ifvqba0","pricing_plan_id":"cebpf4jnsgd1na2vs0mg"},{"bike_id":"35a06957-b6a9-4764-b07a-71973807c136","system_id":"levelo_inurba_marseille","lat":43.2842,"lon":5.37531,"is_reserved":false,"is_disabled":false,"rental_uris":{"android":"levelo://app?vid=35a06957-b6a9-4764-b07a-71973807c136","ios":"levelo://app?vid=35a06957-b6a9-4764-b07a-71973807c136"},"vehicle_type_id":"4","last_reported":1758046508,"current_range_meters":6400,"station_id":"ce4bh412rcd13ifvqds0","pricing_plan_id":"cebpf4jnsgd1na2vs0mg"},{"bike_id":"a53016a1-528f-49a5-ab23-30927da549a0","system_id":"levelo_inurba_marseille","lat":43.25108,"lon":5.40331,"is_reserved":false,"is_disabled":true,"rental_uris":{"android":"levelo://app?vid=a53016a1-528f-49a5-ab23-30927da549a0","ios":"levelo://app?vid=a53016a1-528f-49a5-ab23-30927da549a0"},"vehicle_type_id":"4","last_reported":1758046508,"current_range_meters":6800,"station_id":"ce4bhlh2rcd13ifvqgig","pricing_plan_id":"cebpf4jnsgd1na2vs0mg"},{"bike_id":"5014881f-56b2-4dbc-965e-3bd258011b45","system_id":"levelo_inurba_marseille","lat":43.21752,"lon":5.346,"is_reserved":false,"is_disabled":true,"rental_uris":{"android":"levelo://app?vid=5014881f-56b2-4dbc-965e-3bd258011b45","ios":"levelo://app?vid=5014881f-56b2-4dbc-965e-3bd258011b45"},"vehicle_type_id":"4","last_reported":1758046508,"current_range_meters":6800,"station_id":"st_cvj6r9ubvosntc0bgbag","pricing_plan_id":"cebpf4jnsgd1na2vs0mg"},{"bike_id":"1dc419f5-b690-4fab-a9fe-1b5f712cd9bc","system_id":"levelo_inurba_marseille","lat":43.282654,"lon":5.350635,"is_reserved":false,"is_disabled":false,"rental_uris":{"android":"levelo://app?vid=1dc419f5-b690-4fab-a9fe-1b5f712cd9bc","ios":"levelo://app?vid=1dc419f5-b690-4fab-a9fe-1b5f712cd9bc"},"vehicle_type_id":"4","last_reported":1758046508,"current_range_meters":6800,"station_id":"ce4bhbp2rcd13ifvqerg","pricing_plan_id":"cebpf4jnsgd1na2vs0mg"},{"bike_id":"f7825ce6-de89-45bf-831f-3599d0d91c3c","system_id":"levelo_inurba_marseille","lat":43.31288,"lon":5.36982,"is_reserved":false,"is_disabled":false,"rental_uris":{"android":"levelo://app?vid=f7825ce6-de89-45bf-831f-3599d0d91c3c","ios":"levelo://app?vid=f7825ce6-de89-45bf-831f-3599d0d91c3c"},"vehicle_type_id":"4","last_reported":1758046508,"current_range_meters":6800,"station_id":"","pricing_plan_id":"cebpf4jnsgd1na2vs0mg"},{"bike_id":"13d32666-d94f-41f6-83eb-f3a1e138579e","system_id":"levelo_inurba_marseille","lat":43.28133,"lon":5.35038,"is_reserved":false,"is_disabled":false,"rental_uris":{"android":"levelo://app?vid=13d32666-d94f-41f6-83eb-f3a1e138579e","ios":"levelo://app?vid=13d32666-d94f-41f6-83eb-f3a1e138579e"},"vehicle_type_id":"4","last_reported":1758046508,"current_range_meters":6800,"station_id":"","pricing_plan_id":"cebpf4jnsgd1na2vs0mg"},{"bike_id":"f37d822f-c7d1-4c85-bf18-efe5a4b605c5","system_id":"levelo_inurba_marseille","lat":43.29591,"lon":5.39948,"is_reserved":false,"is_disabled":false,"rental_uris":{"android":"levelo://app?vid=f37d822f-c7d1-4c85-bf18-efe5a4b605c5","ios":"levelo://app?vid=f37d822f-c7d1-4c85-bf18-efe5a4b605c5"},"vehicle_type_id":"4","last_reported":1758046508,"current_range_meters":6800,"station_id":"ce4bh312rcd13ifvqdj0","pricing_plan_id":"cebpf4jnsgd1na2vs0mg"},{"bike_id":"e9d42c5b-2eeb-4956-bf69-1565cbf09cc0","system_id":"levelo_inurba_marseille","lat":43.28686,"lon":5.37415,"is_reserved":false,"is_disabled":true,"rental_uris":{"android":"levelo://app?vid=e9d42c5b-2eeb-4956-bf69-1565cbf09cc0","ios":"levelo://app?vid=e9d42c5b-2eeb-4956-bf69-1565cbf09cc0"},"vehicle_type_id":"4","last_reported":1758046508,"current_range_meters":6800,"station_id":"ce4bh3p2rcd13ifvqdq0","pricing_plan_id":"cebpf4jnsgd1na2vs0mg"},{"bike_id":"abdb25b3-3d97-46a8-8a51-63788e944e60","system_id":"levelo_inurba_marseille","lat":43.28681,"lon":5.38649,"is_reserved":false,"is_disabled":false,"rental_uris":{"android":"levelo://app?vid=abdb25b3-3d97-46a8-8a51-63788e944e60","ios":"levelo://app?vid=abdb25b3-3d97-46a8-8a51-63788e944e60"},"vehicle_type_id":"4","last_reported":1758046508,"current_range_meters":6800,"station_id":"ce4bh492rcd13ifvqdug","pricing_plan_id":"cebpf4jnsgd1na2vs0mg"},{"bike_id":"f1e87ced-81c8-47f4-9a06-98d5e0eb68c8","system_id":"levelo_inurba_marseille","lat":43.31324,"lon":5.39695,"is_reserved":false,"is_disabled":false,"rental_uris":{"android":"levelo://app?vid=f1e87ced-81c8-47f4-9a06-98d5e0eb68c8","ios":"levelo://app?vid=f1e87ced-81c8-47f4-9a06-98d5e0eb68c8"},"vehicle_type_id":"4","last_reported":1758046508,"current_range_meters":7200,"station_id":"ce4bgvp2rcd13ifvqcu0","pricing_plan_id":"cebpf4jnsgd1na2vs0mg"},{"bike_id":"40344a7c-3353-41d0-8493-2bab328aab55","system_id":"levelo_inurba_marseille","lat":43.30141,"lon":5.41734,"is_reserved":false,"is_disabled":false,"rental_uris":{"android":"levelo://app?vid=40344a7c-3353-41d0-8493-2bab328aab55","ios":"levelo://app?vid=40344a7c-3353-41d0-8493-2bab328aab55"},"vehicle_type_id":"4","last_reported":1758046508,"current_range_meters":7200,"station_id":"","pricing_plan_id":"cebpf4jnsgd1na2vs0mg"},{"bike_id":"5da27f60-48a8-4fb6-9f37-25e05bb674c2","system_id":"levelo_inurba_marseille","lat":43.306643,"lon":5.400722,"is_reserved":false,"is_disabled":false,"rental_uris":{"android":"levelo://app?vid=5da27f60-48a8-4fb6-9f37-25e05bb674c2","ios":"levelo://app?vid=5da27f60-48a8-4fb6-9f37-25e05bb674c2"},"vehicle_type_id":"4","last_reported":1758046508,"current_range_meters":7200,"station_id":"ce4bh112rcd13ifvqda0","pricing_plan_id":"cebpf4jnsgd1na2vs0mg"},{"bike_id":"d84be8d5-c20b-4df8-abdf-eab940019584","system_id":"levelo_inurba_marseille","lat":43.26465,"lon":5.39566,"is_reserved":false,"is_disabled":false,"rental_uris":{"android":"levelo://app?vid=d84be8d5-c20b-4df8-abdf-eab940019584","ios":"levelo://app?vid=d84be8d5-c20b-4df8-abdf-eab940019584"},"vehicle_type_id":"4","last_reported":1758046508,"current_range_meters":7200,"station_id":"ce4bhi12rcd13ifvqfq0","pricing_plan_id":"cebpf4jnsgd1na2vs0mg"},{"bike_id":"bcfe46aa-4e21-4847-81f2-9354bd26ec3d","system_id":"levelo_inurba_marseille","lat":43.30135,"lon":5.39881,"is_reserved":false,"is_disabled":false,"rental_uris":{"android":"levelo://app?vid=bcfe46aa-4e21-4847-81f2-9354bd26ec3d","ios":"levelo://app?vid=bcfe46aa-4e21-4847-81f2-9354bd26ec3d"},"vehicle_type_id":"4","last_reported":1758046508,"current_range_meters":7200,"station_id":"ce4bh0h2rcd13ifvqd40","pricing_plan_id":"cebpf4jnsgd1na2vs0mg"},{"bike_id":"564bd3f4-c816-4684-83f7-602fc9b0420b","system_id":"levelo_inurba_marseille","lat":43.29258,"lon":5.38438,"is_reserved":false,"is_disabled":false,"rental_uris":{"android":"levelo://app?vid=564bd3f4-c816-4684-83f7-602fc9b0420b","ios":"levelo://app?vid=564bd3f4-c816-4684-83f7-602fc9b0420b"},"vehicle_type_id":"4","last_reported":1758046508,"current_range_meters":7200,"station_id":"ce4bh692rcd13ifvqea0","pricing_plan_id":"cebpf4jnsgd1na2vs0mg"},{"bike_id":"33b4377c-ac5e-4639-ba16-94c98af1ac1f","system_id":"levelo_inurba_marseille","lat":43.28801,"lon":5.37769,"is_reserved":false,"is_disabled":false,"rental_uris":{"android":"levelo://app?vid=33b4377c-ac5e-4639-ba16-94c98af1ac1f","ios":"levelo://app?vid=33b4377c-ac5e-4639-ba16-94c98af1ac1f"},"vehicle_type_id":"4","last_reported":1758046508,"current_range_meters":8000,"station_id":"ce4bh9p2rcd13ifvqec0","pricing_plan_id":"cebpf4jnsgd1na2vs0mg"},{"bike_id":"a1e44cfe-9f9d-4a8d-800b-e63fbbe0fe45","system_id":"levelo_inurba_marseille","lat":43.28347,"lon":5.38101,"is_reserved":false,"is_disabled":false,"rental_uris":{"android":"levelo://app?vid=a1e44cfe-9f9d-4a8d-800b-e63fbbe0fe45","ios":"levelo://app?vid=a1e44cfe-9f9d-4a8d-800b-e63fbbe0fe45"},"vehicle_type_id":"4","last_reported":1758046508,"current_range_meters":8000,"station_id":"ce4bh412rcd13ifvqdr0","pricing_plan_id":"cebpf4jnsgd1na2vs0mg"},{"bike_id":"e555596f-e7fc-45ed-acdf-35305b8e3761","system_id":"levelo_inurba_marseille","lat":43.29058,"lon":5.37141,"is_reserved":false,"is_disabled":false,"rental_uris":{"android":"levelo://app?vid=e555596f-e7fc-45ed-acdf-35305b8e3761","ios":"levelo://app?vid=e555596f-e7fc-45ed-acdf-35305b8e3761"},"vehicle_type_id":"4","last_reported":1758046508,"current_range_meters":8000,"station_id":"ce4bh5p2rcd13ifvqe4g","pricing_plan_id":"cebpf4jnsgd1na2vs0mg"},{"bike_id":"322c1f5a-85db-4ef6-bcd4-1b5c417c8ee0","system_id":"levelo_inurba_marseille","lat":43.3377,"lon":5.37488,"is_reserved":false,"is_disabled":false,"rental_uris":{"android":"levelo://app?vid=322c1f5a-85db-4ef6-bcd4-1b5c417c8ee0","ios":"levelo://app?vid=322c1f5a-85db-4ef6-bcd4-1b5c417c8ee0"},"vehicle_type_id":"4","last_reported":1758046508,"current_range_meters":8000,"station_id":"","pricing_plan_id":"cebpf4jnsgd1na2vs0mg"},{"bike_id":"5a8aebd3-a566-4948-82c8-58dfe18fea75","system_id":"levelo_inurba_marseille","lat":43.29537,"lon":5.38545,"is_reserved":false,"is_disabled":false,"rental_uris":{"android":"levelo://app?vid=5a8aebd3-a566-4948-82c8-58dfe18fea75","ios":"levelo://app?vid=5a8aebd3-a566-4948-82c8-58dfe18fea75"},"vehicle_type_id":"4","last_reported":1758046508,"current_range_meters":8000,"station_id":"ce4bgih2rcd13ifvqba0","pricing_plan_id":"cebpf4jnsgd1na2vs0mg"},{"bike_id":"593124f5-35da-421b-a6cd-c6139fab7200","system_id":"levelo_inurba_marseille","lat":43.311051,"lon":5.377473,"is_reserved":false,"is_disabled":false,"rental_uris":{"android":"levelo://app?vid=593124f5-35da-421b-a6cd-c6139fab7200","ios":"levelo://app?vid=593124f5-35da-421b-a6cd-c6139fab7200"},"vehicle_type_id":"4","last_reported":1758046508,"current_range_meters":8000,"station_id":"ce4bgt92rcd13ifvqcg0","pricing_plan_id":"cebpf4jnsgd1na2vs0mg"},{"bike_id":"9a75894a-1d26-4ea0-a5b0-9b1939e742a1","system_id":"levelo_inurba_marseille","lat":43.217438,"lon":5.346003,"is_reserved":false,"is_disabled":false,"rental_uris":{"android":"levelo://app?vid=9a75894a-1d26-4ea0-a5b0-9b1939e742a1","ios":"levelo://app?vid=9a75894a-1d26-4ea0-a5b0-9b1939e742a1"},"vehicle_type_id":"4","last_reported":1758046508,"current_range_meters":8000,"station_id":"st_cvj6r9ubvosntc0bgbag","pricing_plan_id":"cebpf4jnsgd1na2vs0mg"},{"bike_id":"03cc77e8-f143-4b3d-a06b-ede87d4b6610","system_id":"levelo_inurba_marseille","lat":43.2963,"lon":5.40593,"is_reserved":false,"is_disabled":false,"rental_uris":{"android":"levelo://app?vid=03cc77e8-f143-4b3d-a06b-ede87d4b6610","ios":"levelo://app?vid=03cc77e8-f143-4b3d-a06b-ede87d4b6610"},"vehicle_type_id":"4","last_reported":1758046508,"current_range_meters":8000,"station_id":"ce4bh0h2rcd13ifvqd60","pricing_plan_id":"cebpf4jnsgd1na2vs0mg"},{"bike_id":"7844d3e4-c40e-4170-916b-55382c1b0d63","system_id":"levelo_inurba_marseille","lat":43.296232,"lon":5.377297,"is_reserved":false,"is_disabled":false,"rental_uris":{"android":"levelo://app?vid=7844d3e4-c40e-4170-916b-55382c1b0d63","ios":"levelo://app?vid=7844d3e4-c40e-4170-916b-55382c1b0d63"},"vehicle_type_id":"4","last_reported":1758046508,"current_range_meters":8000,"station_id":"ce4bgi92rcd13ifvqb90","pricing_plan_id":"cebpf4jnsgd1na2vs0mg"},{"bike_id":"a37129a7-0435-4bc6-8046-8cd5156a89c1","system_id":"levelo_inurba_marseille","lat":43.27999,"lon":5.40007,"is_reserved":false,"is_disabled":false,"rental_uris":{"android":"levelo://app?vid=a37129a7-0435-4bc6-8046-8cd5156a89c1","ios":"levelo://app?vid=a37129a7-0435-4bc6-8046-8cd5156a89c1"},"vehicle_type_id":"4","last_reported":1758046508,"current_range_meters":8000,"station_id":"ce4bho92rcd13ifvqh4g","pricing_plan_id":"cebpf4jnsgd1na2vs0mg"},{"bike_id":"8f7f34b7-afa3-48ad-be7b-e3a07b96ef56","system_id":"levelo_inurba_marseille","lat":43.295253,"lon":5.394061,"is_reserved":false,"is_disabled":false,"rental_uris":{"android":"levelo://app?vid=8f7f34b7-afa3-48ad-be7b-e3a07b96ef56","ios":"levelo://app?vid=8f7f34b7-afa3-48ad-be7b-e3a07b96ef56"},"vehicle_type_id":"4","last_reported":1758046508,"current_range_meters":8400,"station_id":"ce4bh292rcd13ifvqdf0","pricing_plan_id":"cebpf4jnsgd1na2vs0mg"},{"bike_id":"34539d66-9bce-4d1c-8b94-78e2e11c6e1a","system_id":"levelo_inurba_marseille","lat":43.28863,"lon":5.42513,"is_reserved":false,"is_disabled":false,"rental_uris":{"android":"levelo://app?vid=34539d66-9bce-4d1c-8b94-78e2e11c6e1a","ios":"levelo://app?vid=34539d66-9bce-4d1c-8b94-78e2e11c6e1a"},"vehicle_type_id":"4","last_reported":1758046508,"current_range_meters":8400,"station_id":"","pricing_plan_id":"cebpf4jnsgd1na2vs0mg"},{"bike_id":"afb1e61b-6819-4c8d-9b95-49ea96a33ac6","system_id":"levelo_inurba_marseille","lat":43.289992,"lon":5.356276,"is_reserved":false,"is_disabled":false,"rental_uris":{"android":"levelo://app?vid=afb1e61b-6819-4c8d-9b95-49ea96a33ac6","ios":"levelo://app?vid=afb1e61b-6819-4c8d-9b95-49ea96a33ac6"},"vehicle_type_id":"4","last_reported":1758046508,"current_range_meters":7200,"station_id":"ce4bhb92rcd13ifvqen0","pricing_plan_id":"cebpf4jnsgd1na2vs0mg"},{"bike_id":"82a6672f-c163-484c-a368-2f6ae437d79d","system_id":"levelo_inurba_marseille","lat":43.29191,"lon":5.39306,"is_reserved":false,"is_disabled":false,"rental_uris":{"android":"levelo://app?vid=82a6672f-c163-484c-a368-2f6ae437d79d","ios":"levelo://app?vid=82a6672f-c163-484c-a368-2f6ae437d79d"},"vehicle_type_id":"4","last_reported":1758046508,"current_range_meters":8400,"station_id":"ce4bh192rcd13ifvqdd0","pricing_plan_id":"cebpf4jnsgd1na2vs0mg"},{"bike_id":"aa41cfb0-1c62-4ef0-9c3c-e112cd63097b","system_id":"levelo_inurba_marseille","lat":43.30308,"lon":5.3921,"is_reserved":false,"is_disabled":false,"rental_uris":{"android":"levelo://app?vid=aa41cfb0-1c62-4ef0-9c3c-e112cd63097b","ios":"levelo://app?vid=aa41cfb0-1c62-4ef0-9c3c-e112cd63097b"},"vehicle_type_id":"4","last_reported":1758046508,"current_range_meters":6400,"station_id":"ce4bgkh2rcd13ifvqbk0","pricing_plan_id":"cebpf4jnsgd1na2vs0mg"},{"bike_id":"86b7d4d1-30f6-4ab5-94be-3cbf34e64651","system_id":"levelo_inurba_marseille","lat":43.29193,"lon":5.393243,"is_reserved":false,"is_disabled":false,"rental_uris":{"android":"levelo://app?vid=86b7d4d1-30f6-4ab5-94be-3cbf34e64651","ios":"levelo://app?vid=86b7d4d1-30f6-4ab5-94be-3cbf34e64651"},"vehicle_type_id":"4","last_reported":1758046508,"current_range_meters":8400,"station_id":"ce4bh192rcd13ifvqdd0","pricing_plan_id":"cebpf4jnsgd1na2vs0mg"},{"bike_id":"86729533-93f3-4c7e-8df1-2b3bb20a6999","system_id":"levelo_inurba_marseille","lat":43.282683,"lon":5.350634,"is_reserved":false,"is_disabled":true,"rental_uris":{"android":"levelo://app?vid=86729533-93f3-4c7e-8df1-2b3bb20a6999","ios":"levelo://app?vid=86729533-93f3-4c7e-8df1-2b3bb20a6999"},"vehicle_type_id":"4","last_reported":1758046508,"current_range_meters":8400,"station_id":"ce4bhbp2rcd13ifvqerg","pricing_plan_id":"cebpf4jnsgd1na2vs0mg"},{"bike_id":"d818ffce-d6c4-4f39-ae87-10e02446a46c","system_id":"levelo_inurba_marseille","lat":43.240823,"lon":5.3775,"is_reserved":false,"is_disabled":true,"rental_uris":{"android":"levelo://app?vid=d818ffce-d6c4-4f39-ae87-10e02446a46c","ios":"levelo://app?vid=d818ffce-d6c4-4f39-ae87-10e02446a46c"},"vehicle_type_id":"4","last_reported":1758046508,"current_range_meters":8400,"station_id":"ce4bhnp2rcd13ifvqgvg","pricing_plan_id":"cebpf4jnsgd1na2vs0mg"},{"bike_id":"2fc6780e-7c53-4103-901f-d3fe693009c1","system_id":"levelo_inurba_marseille","lat":43.28567,"lon":5.39502,"is_reserved":false,"is_disabled":false,"rental_uris":{"android":"levelo://app?vid=2fc6780e-7c53-4103-901f-d3fe693009c1","ios":"levelo://app?vid=2fc6780e-7c53-4103-901f-d3fe693009c1"},"vehicle_type_id":"4","last_reported":1758046508,"current_range_meters":8800,"station_id":"ce4bh292rcd13ifvqdg0","pricing_plan_id":"cebpf4jnsgd1na2vs0mg"},{"bike_id":"ac4223a6-10e8-406f-a618-f510cf79b04b","system_id":"levelo_inurba_marseille","lat":43.29282,"lon":5.3687,"is_reserved":false,"is_disabled":false,"rental_uris":{"android":"levelo://app?vid=ac4223a6-10e8-406f-a618-f510cf79b04b","ios":"levelo://app?vid=ac4223a6-10e8-406f-a618-f510cf79b04b"},"vehicle_type_id":"4","last_reported":1758046508,"current_range_meters":8800,"station_id":"ce4bhbp2rcd13ifvqesg","pricing_plan_id":"cebpf4jnsgd1na2vs0mg"},{"bike_id":"8a5fcd26-5814-4c9c-a378-8c91e99cdab0","system_id":"levelo_inurba_marseille","lat":43.29262,"lon":5.38441,"is_reserved":false,"is_disabled":false,"rental_uris":{"android":"levelo://app?vid=8a5fcd26-5814-4c9c-a378-8c91e99cdab0","ios":"levelo://app?vid=8a5fcd26-5814-4c9c-a378-8c91e99cdab0"},"vehicle_type_id":"4","last_reported":1758046508,"current_range_meters":8800,"station_id":"ce4bh692rcd13ifvqea0","pricing_plan_id":"cebpf4jnsgd1na2vs0mg"},{"bike_id":"a155e67d-bec0-4326-ae57-c035ef5e1c81","system_id":"levelo_inurba_marseille","lat":43.29889,"lon":5.43664,"is_reserved":false,"is_disabled":false,"rental_uris":{"android":"levelo://app?vid=a155e67d-bec0-4326-ae57-c035ef5e1c81","ios":"levelo://app?vid=a155e67d-bec0-4326-ae57-c035ef5e1c81"},"vehicle_type_id":"4","last_reported":1758046508,"current_range_meters":8800,"station_id":"ce4bhpp2rcd13ifvqhfg","pricing_plan_id":"cebpf4jnsgd1na2vs0mg"},{"bike_id":"d088c9f3-e710-4bcc-a82b-8dc8b71238b0","system_id":"levelo_inurba_marseille","lat":43.28399,"lon":5.37527,"is_reserved":false,"is_disabled":false,"rental_uris":{"android":"levelo://app?vid=d088c9f3-e710-4bcc-a82b-8dc8b71238b0","ios":"levelo://app?vid=d088c9f3-e710-4bcc-a82b-8dc8b71238b0"},"vehicle_type_id":"4","last_reported":1758046508,"current_range_meters":8800,"station_id":"ce4bh412rcd13ifvqds0","pricing_plan_id":"cebpf4jnsgd1na2vs0mg"},{"bike_id":"24134c4f-7420-49cc-a4b9-fce39e8b3a82","system_id":"levelo_inurba_marseille","lat":43.27052,"lon":5.4027,"is_reserved":false,"is_disabled":true,"rental_uris":{"android":"levelo://app?vid=24134c4f-7420-49cc-a4b9-fce39e8b3a82","ios":"levelo://app?vid=24134c4f-7420-49cc-a4b9-fce39e8b3a82"},"vehicle_type_id":"4","last_reported":1758046508,"current_range_meters":8800,"station_id":"ce4bhk92rcd13ifvqgc0","pricing_plan_id":"cebpf4jnsgd1na2vs0mg"},{"bike_id":"7adbcf9f-4f24-44e4-8f3f-8324269f0204","system_id":"levelo_inurba_marseille","lat":43.298926,"lon":5.385003,"is_reserved":false,"is_disabled":false,"rental_uris":{"android":"levelo://app?vid=7adbcf9f-4f24-44e4-8f3f-8324269f0204","ios":"levelo://app?vid=7adbcf9f-4f24-44e4-8f3f-8324269f0204"},"vehicle_type_id":"4","last_reported":1758046508,"current_range_meters":8800,"station_id":"ce4bgj92rcd13ifvqbd0","pricing_plan_id":"cebpf4jnsgd1na2vs0mg"},{"bike_id":"c07e7a2d-d8a6-4efd-8723-e965be4d1a74","system_id":"levelo_inurba_marseille","lat":43.22533,"lon":5.348367,"is_reserved":false,"is_disabled":false,"rental_uris":{"android":"levelo://app?vid=c07e7a2d-d8a6-4efd-8723-e965be4d1a74","ios":"levelo://app?vid=c07e7a2d-d8a6-4efd-8723-e965be4d1a74"},"vehicle_type_id":"4","last_reported":1758046508,"current_range_meters":8800,"station_id":"","pricing_plan_id":"cebpf4jnsgd1na2vs0mg"},{"bike_id":"e56ff5b8-846c-43a3-baf7-3ecd39916254","system_id":"levelo_inurba_marseille","lat":43.28078,"lon":5.39666,"is_reserved":false,"is_disabled":false,"rental_uris":{"android":"levelo://app?vid=e56ff5b8-846c-43a3-baf7-3ecd39916254","ios":"levelo://app?vid=e56ff5b8-846c-43a3-baf7-3ecd39916254"},"vehicle_type_id":"4","last_reported":1758046508,"current_range_meters":8400,"station_id":"ce4bho12rcd13ifvqh2g","pricing_plan_id":"cebpf4jnsgd1na2vs0mg"},{"bike_id":"4f5bb362-3b6d-4aac-b3a8-2351c7cf5fb1","system_id":"levelo_inurba_marseille","lat":43.29225,"lon":5.3608,"is_reserved":false,"is_disabled":false,"rental_uris":{"android":"levelo://app?vid=4f5bb362-3b6d-4aac-b3a8-2351c7cf5fb1","ios":"levelo://app?vid=4f5bb362-3b6d-4aac-b3a8-2351c7cf5fb1"},"vehicle_type_id":"4","last_reported":1758046508,"current_range_meters":9200,"station_id":"ce4bhbh2rcd13ifvqeqg","pricing_plan_id":"cebpf4jnsgd1na2vs0mg"},{"bike_id":"7d1189a5-4d24-4ada-ac4c-b4baa9806321","system_id":"levelo_inurba_marseille","lat":43.29538,"lon":5.38529,"is_reserved":false,"is_disabled":false,"rental_uris":{"android":"levelo://app?vid=7d1189a5-4d24-4ada-ac4c-b4baa9806321","ios":"levelo://app?vid=7d1189a5-4d24-4ada-ac4c-b4baa9806321"},"vehicle_type_id":"4","last_reported":1758046508,"current_range_meters":9200,"station_id":"ce4bgih2rcd13ifvqba0","pricing_plan_id":"cebpf4jnsgd1na2vs0mg"},{"bike_id":"8e8089f6-a97e-46c3-b7c0-3b7c4482a2cb","system_id":"levelo_inurba_marseille","lat":43.29784,"lon":5.3937,"is_reserved":false,"is_disabled":true,"rental_uris":{"android":"levelo://app?vid=8e8089f6-a97e-46c3-b7c0-3b7c4482a2cb","ios":"levelo://app?vid=8e8089f6-a97e-46c3-b7c0-3b7c4482a2cb"},"vehicle_type_id":"4","last_reported":1758046508,"current_range_meters":9200,"station_id":"chh1huq6cuj3fo74tm60","pricing_plan_id":"cebpf4jnsgd1na2vs0mg"},{"bike_id":"3f31a35f-aac4-41ef-9e0e-acd3c3fdd234","system_id":"levelo_inurba_marseille","lat":43.28697,"lon":5.3881,"is_reserved":false,"is_disabled":false,"rental_uris":{"android":"levelo://app?vid=3f31a35f-aac4-41ef-9e0e-acd3c3fdd234","ios":"levelo://app?vid=3f31a35f-aac4-41ef-9e0e-acd3c3fdd234"},"vehicle_type_id":"4","last_reported":1758046508,"current_range_meters":9200,"station_id":"","pricing_plan_id":"cebpf4jnsgd1na2vs0mg"},{"bike_id":"32b86c3c-80e2-4293-887d-eb8a88145d90","system_id":"levelo_inurba_marseille","lat":43.22929,"lon":5.35381,"is_reserved":false,"is_disabled":false,"rental_uris":{"android":"levelo://app?vid=32b86c3c-80e2-4293-887d-eb8a88145d90","ios":"levelo://app?vid=32b86c3c-80e2-4293-887d-eb8a88145d90"},"vehicle_type_id":"4","last_reported":1758046508,"current_range_meters":9200,"station_id":"cpo3532slgdg3j2ikp40","pricing_plan_id":"cebpf4jnsgd1na2vs0mg"},{"bike_id":"59a9db21-ff4d-44d7-b4bc-03824d059a36","system_id":"levelo_inurba_marseille","lat":43.292533,"lon":5.409147,"is_reserved":false,"is_disabled":false,"rental_uris":{"android":"levelo://app?vid=59a9db21-ff4d-44d7-b4bc-03824d059a36","ios":"levelo://app?vid=59a9db21-ff4d-44d7-b4bc-03824d059a36"},"vehicle_type_id":"4","last_reported":1758046508,"current_range_meters":9200,"station_id":"ce4bh192rcd13ifvqdc0","pricing_plan_id":"cebpf4jnsgd1na2vs0mg"},{"bike_id":"cd02c080-8936-4e2b-af4d-301cbe8eb8f1","system_id":"levelo_inurba_marseille","lat":43.300651,"lon":5.403472,"is_reserved":false,"is_disabled":false,"rental_uris":{"android":"levelo://app?vid=cd02c080-8936-4e2b-af4d-301cbe8eb8f1","ios":"levelo://app?vid=cd02c080-8936-4e2b-af4d-301cbe8eb8f1"},"vehicle_type_id":"4","last_reported":1758046508,"current_range_meters":9200,"station_id":"","pricing_plan_id":"cebpf4jnsgd1na2vs0mg"},{"bike_id":"4b978d1e-3341-4b14-8205-7b996b49454a","system_id":"levelo_inurba_marseille","lat":43.28338,"lon":5.38598,"is_reserved":false,"is_disabled":false,"rental_uris":{"android":"levelo://app?vid=4b978d1e-3341-4b14-8205-7b996b49454a","ios":"levelo://app?vid=4b978d1e-3341-4b14-8205-7b996b49454a"},"vehicle_type_id":"4","last_reported":1758046508,"current_range_meters":8800,"station_id":"ce4bh492rcd13ifvqdvg","pricing_plan_id":"cebpf4jnsgd1na2vs0mg"},{"bike_id":"166d0740-551f-4b41-ba2a-cb7a6a98d02c","system_id":"levelo_inurba_marseille","lat":43.24667,"lon":5.40289,"is_reserved":false,"is_disabled":false,"rental_uris":{"android":"levelo://app?vid=166d0740-551f-4b41-ba2a-cb7a6a98d02c","ios":"levelo://app?vid=166d0740-551f-4b41-ba2a-cb7a6a98d02c"},"vehicle_type_id":"4","last_reported":1758046508,"current_range_meters":9200,"station_id":"","pricing_plan_id":"cebpf4jnsgd1na2vs0mg"},{"bike_id":"a9f13996-cedb-42ef-8189-8cba3aa4b434","system_id":"levelo_inurba_marseille","lat":43.21196,"lon":5.35072,"is_reserved":false,"is_disabled":false,"rental_uris":{"android":"levelo://app?vid=a9f13996-cedb-42ef-8189-8cba3aa4b434","ios":"levelo://app?vid=a9f13996-cedb-42ef-8189-8cba3aa4b434"},"vehicle_type_id":"4","last_reported":1758046508,"current_range_meters":9200,"station_id":"st_cvj6sg6p6f1abm77japg","pricing_plan_id":"cebpf4jnsgd1na2vs0mg"},{"bike_id":"ca65b341-e9e4-4cbe-bbde-ad1744ba6f24","system_id":"levelo_inurba_marseille","lat":43.26929,"lon":5.38924,"is_reserved":false,"is_disabled":false,"rental_uris":{"android":"levelo://app?vid=ca65b341-e9e4-4cbe-bbde-ad1744ba6f24","ios":"levelo://app?vid=ca65b341-e9e4-4cbe-bbde-ad1744ba6f24"},"vehicle_type_id":"4","last_reported":1758046508,"current_range_meters":9600,"station_id":"ce4bhhh2rcd13ifvqfl0","pricing_plan_id":"cebpf4jnsgd1na2vs0mg"},{"bike_id":"64d7fc7b-a9ea-4b9a-90c0-c64211f8bc24","system_id":"levelo_inurba_marseille","lat":43.29939,"lon":5.37444,"is_reserved":false,"is_disabled":false,"rental_uris":{"android":"levelo://app?vid=64d7fc7b-a9ea-4b9a-90c0-c64211f8bc24","ios":"levelo://app?vid=64d7fc7b-a9ea-4b9a-90c0-c64211f8bc24"},"vehicle_type_id":"4","last_reported":1758046508,"current_range_meters":9200,"station_id":"ce4bgjh2rcd13ifvqbg0","pricing_plan_id":"cebpf4jnsgd1na2vs0mg"},{"bike_id":"0b3a5324-fb17-4535-a227-593ef88cac13","system_id":"levelo_inurba_marseille","lat":43.31891,"lon":5.40739,"is_reserved":false,"is_disabled":false,"rental_uris":{"android":"levelo://app?vid=0b3a5324-fb17-4535-a227-593ef88cac13","ios":"levelo://app?vid=0b3a5324-fb17-4535-a227-593ef88cac13"},"vehicle_type_id":"4","last_reported":1758046508,"current_range_meters":9200,"station_id":"ce4bhq12rcd13ifvqhig","pricing_plan_id":"cebpf4jnsgd1na2vs0mg"},{"bike_id":"e32534e2-2d70-4904-b678-855c7320e6c0","system_id":"levelo_inurba_marseille","lat":43.28872,"lon":5.4252,"is_reserved":false,"is_disabled":false,"rental_uris":{"android":"levelo://app?vid=e32534e2-2d70-4904-b678-855c7320e6c0","ios":"levelo://app?vid=e32534e2-2d70-4904-b678-855c7320e6c0"},"vehicle_type_id":"4","last_reported":1758046508,"current_range_meters":9600,"station_id":"","pricing_plan_id":"cebpf4jnsgd1na2vs0mg"},{"bike_id":"5075e600-15e6-4e51-bcee-302de2dcad93","system_id":"levelo_inurba_marseille","lat":43.31999,"lon":5.38164,"is_reserved":false,"is_disabled":false,"rental_uris":{"android":"levelo://app?vid=5075e600-15e6-4e51-bcee-302de2dcad93","ios":"levelo://app?vid=5075e600-15e6-4e51-bcee-302de2dcad93"},"vehicle_type_id":"4","last_reported":1758046508,"current_range_meters":9600,"station_id":"ce4bhr12rcd13ifvqhpg","pricing_plan_id":"cebpf4jnsgd1na2vs0mg"},{"bike_id":"603c3cc4-a717-4d3d-9ae8-88ec4a924ef8","system_id":"levelo_inurba_marseille","lat":43.2796,"lon":5.41017,"is_reserved":false,"is_disabled":false,"rental_uris":{"android":"levelo://app?vid=603c3cc4-a717-4d3d-9ae8-88ec4a924ef8","ios":"levelo://app?vid=603c3cc4-a717-4d3d-9ae8-88ec4a924ef8"},"vehicle_type_id":"4","last_reported":1758046508,"current_range_meters":9600,"station_id":"ce4bhnp2rcd13ifvqh0g","pricing_plan_id":"cebpf4jnsgd1na2vs0mg"},{"bike_id":"e633abad-34b5-466b-ba47-17770d52c995","system_id":"levelo_inurba_marseille","lat":43.26953,"lon":5.38647,"is_reserved":false,"is_disabled":false,"rental_uris":{"android":"levelo://app?vid=e633abad-34b5-466b-ba47-17770d52c995","ios":"levelo://app?vid=e633abad-34b5-466b-ba47-17770d52c995"},"vehicle_type_id":"4","last_reported":1758046508,"current_range_meters":9600,"station_id":"ce4bhh92rcd13ifvqfh0","pricing_plan_id":"cebpf4jnsgd1na2vs0mg"},{"bike_id":"50eb7069-3607-4b20-98c8-5985e915995e","system_id":"levelo_inurba_marseille","lat":43.24177,"lon":5.39735,"is_reserved":false,"is_disabled":false,"rental_uris":{"android":"levelo://app?vid=50eb7069-3607-4b20-98c8-5985e915995e","ios":"levelo://app?vid=50eb7069-3607-4b20-98c8-5985e915995e"},"vehicle_type_id":"4","last_reported":1758046508,"current_range_meters":9600,"station_id":"ce4bhn12rcd13ifvqgpg","pricing_plan_id":"cebpf4jnsgd1na2vs0mg"},{"bike_id":"77246e06-46b3-406d-9b69-b9b3e2cbdee1","system_id":"levelo_inurba_marseille","lat":43.28044,"lon":5.38646,"is_reserved":false,"is_disabled":false,"rental_uris":{"android":"levelo://app?vid=77246e06-46b3-406d-9b69-b9b3e2cbdee1","ios":"levelo://app?vid=77246e06-46b3-406d-9b69-b9b3e2cbdee1"},"vehicle_type_id":"4","last_reported":1758046508,"current_range_meters":9600,"station_id":"","pricing_plan_id":"cebpf4jnsgd1na2vs0mg"},{"bike_id":"e5c0f9fa-aa79-401b-ac6b-a846850c5345","system_id":"levelo_inurba_marseille","lat":43.27826,"lon":5.38515,"is_reserved":false,"is_disabled":false,"rental_uris":{"android":"levelo://app?vid=e5c0f9fa-aa79-401b-ac6b-a846850c5345","ios":"levelo://app?vid=e5c0f9fa-aa79-401b-ac6b-a846850c5345"},"vehicle_type_id":"4","last_reported":1758046508,"current_range_meters":9600,"station_id":"","pricing_plan_id":"cebpf4jnsgd1na2vs0mg"},{"bike_id":"e824d254-16a6-4ae4-983a-05af083f4c81","system_id":"levelo_inurba_marseille","lat":43.21753,"lon":5.34607,"is_reserved":false,"is_disabled":false,"rental_uris":{"android":"levelo://app?vid=e824d254-16a6-4ae4-983a-05af083f4c81","ios":"levelo://app?vid=e824d254-16a6-4ae4-983a-05af083f4c81"},"vehicle_type_id":"4","last_reported":1758046508,"current_range_meters":10000,"station_id":"","pricing_plan_id":"cebpf4jnsgd1na2vs0mg"},{"bike_id":"9b400362-c9c4-4d63-b2e9-cc0b790451d2","system_id":"levelo_inurba_marseille","lat":43.2949,"lon":5.39411,"is_reserved":false,"is_disabled":false,"rental_uris":{"android":"levelo://app?vid=9b400362-c9c4-4d63-b2e9-cc0b790451d2","ios":"levelo://app?vid=9b400362-c9c4-4d63-b2e9-cc0b790451d2"},"vehicle_type_id":"4","last_reported":1758046508,"current_range_meters":10000,"station_id":"ce4bh292rcd13ifvqdf0","pricing_plan_id":"cebpf4jnsgd1na2vs0mg"},{"bike_id":"d7b053ab-2912-4f16-abf7-c47be8c4e15a","system_id":"levelo_inurba_marseille","lat":43.26551,"lon":5.37292,"is_reserved":false,"is_disabled":true,"rental_uris":{"android":"levelo://app?vid=d7b053ab-2912-4f16-abf7-c47be8c4e15a","ios":"levelo://app?vid=d7b053ab-2912-4f16-abf7-c47be8c4e15a"},"vehicle_type_id":"4","last_reported":1758046508,"current_range_meters":10000,"station_id":"ce4bhg12rcd13ifvqf70","pricing_plan_id":"cebpf4jnsgd1na2vs0mg"},{"bike_id":"8ef8bf7d-8a91-4724-8c2e-ddeef723e28a","system_id":"levelo_inurba_marseille","lat":43.27047,"lon":5.37975,"is_reserved":false,"is_disabled":false,"rental_uris":{"android":"levelo://app?vid=8ef8bf7d-8a91-4724-8c2e-ddeef723e28a","ios":"levelo://app?vid=8ef8bf7d-8a91-4724-8c2e-ddeef723e28a"},"vehicle_type_id":"4","last_reported":1758046508,"current_range_meters":10000,"station_id":"","pricing_plan_id":"cebpf4jnsgd1na2vs0mg"},{"bike_id":"336c74d9-d9c9-46d7-a94b-134b36ad023a","system_id":"levelo_inurba_marseille","lat":43.29884,"lon":5.37827,"is_reserved":false,"is_disabled":false,"rental_uris":{"android":"levelo://app?vid=336c74d9-d9c9-46d7-a94b-134b36ad023a","ios":"levelo://app?vid=336c74d9-d9c9-46d7-a94b-134b36ad023a"},"vehicle_type_id":"4","last_reported":1758046508,"current_range_meters":10000,"station_id":"","pricing_plan_id":"cebpf4jnsgd1na2vs0mg"},{"bike_id":"52547c74-c0e9-4d6f-b224-92201979afe3","system_id":"levelo_inurba_marseille","lat":43.32101,"lon":5.36817,"is_reserved":false,"is_disabled":false,"rental_uris":{"android":"levelo://app?vid=52547c74-c0e9-4d6f-b224-92201979afe3","ios":"levelo://app?vid=52547c74-c0e9-4d6f-b224-92201979afe3"},"vehicle_type_id":"4","last_reported":1758046508,"current_range_meters":10000,"station_id":"ce4bhrh2rcd13ifvqhug","pricing_plan_id":"cebpf4jnsgd1na2vs0mg"},{"bike_id":"1b0b7d1e-e664-40b5-9a4c-ce7363061447","system_id":"levelo_inurba_marseille","lat":43.29531,"lon":5.38549,"is_reserved":false,"is_disabled":false,"rental_uris":{"android":"levelo://app?vid=1b0b7d1e-e664-40b5-9a4c-ce7363061447","ios":"levelo://app?vid=1b0b7d1e-e664-40b5-9a4c-ce7363061447"},"vehicle_type_id":"4","last_reported":1758046508,"current_range_meters":10000,"station_id":"ce4bgih2rcd13ifvqba0","pricing_plan_id":"cebpf4jnsgd1na2vs0mg"},{"bike_id":"a05fdb49-e038-4a84-8ea1-52f3eaaf07b1","system_id":"levelo_inurba_marseille","lat":43.22552,"lon":5.41638,"is_reserved":false,"is_disabled":false,"rental_uris":{"android":"levelo://app?vid=a05fdb49-e038-4a84-8ea1-52f3eaaf07b1","ios":"levelo://app?vid=a05fdb49-e038-4a84-8ea1-52f3eaaf07b1"},"vehicle_type_id":"4","last_reported":1758046508,"current_range_meters":10800,"station_id":"st_d2o4gvlbi1j2169b742g","pricing_plan_id":"cebpf4jnsgd1na2vs0mg"},{"bike_id":"d4a392f9-42cc-4fa6-81c6-126ec34d2b24","system_id":"levelo_inurba_marseille","lat":43.26503,"lon":5.39536,"is_reserved":false,"is_disabled":false,"rental_uris":{"android":"levelo://app?vid=d4a392f9-42cc-4fa6-81c6-126ec34d2b24","ios":"levelo://app?vid=d4a392f9-42cc-4fa6-81c6-126ec34d2b24"},"vehicle_type_id":"4","last_reported":1758046508,"current_range_meters":14800,"station_id":"ce4bhi12rcd13ifvqfq0","pricing_plan_id":"cebpf4jnsgd1na2vs0mg"},{"bike_id":"b9a9175b-f646-4351-8fdc-8aabc33a7ecf","system_id":"levelo_inurba_marseille","lat":43.29235,"lon":5.40903,"is_reserved":false,"is_disabled":false,"rental_uris":{"android":"levelo://app?vid=b9a9175b-f646-4351-8fdc-8aabc33a7ecf","ios":"levelo://app?vid=b9a9175b-f646-4351-8fdc-8aabc33a7ecf"},"vehicle_type_id":"4","last_reported":1758046508,"current_range_meters":10800,"station_id":"ce4bh192rcd13ifvqdc0","pricing_plan_id":"cebpf4jnsgd1na2vs0mg"},{"bike_id":"d874f75e-ff98-4cc8-8c10-45f46b3f1817","system_id":"levelo_inurba_marseille","lat":43.30325,"lon":5.437343,"is_reserved":false,"is_disabled":false,"rental_uris":{"android":"levelo://app?vid=d874f75e-ff98-4cc8-8c10-45f46b3f1817","ios":"levelo://app?vid=d874f75e-ff98-4cc8-8c10-45f46b3f1817"},"vehicle_type_id":"4","last_reported":1758046508,"current_range_meters":10800,"station_id":"","pricing_plan_id":"cebpf4jnsgd1na2vs0mg"},{"bike_id":"ae05623e-a6bd-4e92-b3e3-32c79dbce1f3","system_id":"levelo_inurba_marseille","lat":43.32467,"lon":5.36563,"is_reserved":false,"is_disabled":false,"rental_uris":{"android":"levelo://app?vid=ae05623e-a6bd-4e92-b3e3-32c79dbce1f3","ios":"levelo://app?vid=ae05623e-a6bd-4e92-b3e3-32c79dbce1f3"},"vehicle_type_id":"4","last_reported":1758046508,"current_range_meters":11600,"station_id":"ce4bhs12rcd13ifvqhvg","pricing_plan_id":"cebpf4jnsgd1na2vs0mg"},{"bike_id":"d562036e-0333-4b26-a8dd-003a78166f01","system_id":"levelo_inurba_marseille","lat":43.29563,"lon":5.39986,"is_reserved":false,"is_disabled":false,"rental_uris":{"android":"levelo://app?vid=d562036e-0333-4b26-a8dd-003a78166f01","ios":"levelo://app?vid=d562036e-0333-4b26-a8dd-003a78166f01"},"vehicle_type_id":"4","last_reported":1758046508,"current_range_meters":11200,"station_id":"ce4bh312rcd13ifvqdj0","pricing_plan_id":"cebpf4jnsgd1na2vs0mg"},{"bike_id":"90dc302f-73e8-4480-a3ef-8847f7096f76","system_id":"levelo_inurba_marseille","lat":43.2925,"lon":5.38446,"is_reserved":false,"is_disabled":false,"rental_uris":{"android":"levelo://app?vid=90dc302f-73e8-4480-a3ef-8847f7096f76","ios":"levelo://app?vid=90dc302f-73e8-4480-a3ef-8847f7096f76"},"vehicle_type_id":"4","last_reported":1758046508,"current_range_meters":11200,"station_id":"ce4bh692rcd13ifvqea0","pricing_plan_id":"cebpf4jnsgd1na2vs0mg"},{"bike_id":"3ec81b56-b2cb-42d5-9c77-0ff97fadd386","system_id":"levelo_inurba_marseille","lat":43.29513,"lon":5.39411,"is_reserved":false,"is_disabled":false,"rental_uris":{"android":"levelo://app?vid=3ec81b56-b2cb-42d5-9c77-0ff97fadd386","ios":"levelo://app?vid=3ec81b56-b2cb-42d5-9c77-0ff97fadd386"},"vehicle_type_id":"4","last_reported":1758046508,"current_range_meters":11200,"station_id":"ce4bh292rcd13ifvqdf0","pricing_plan_id":"cebpf4jnsgd1na2vs0mg"},{"bike_id":"2bed0138-9ac3-4164-90ee-5bfaf418733f","system_id":"levelo_inurba_marseille","lat":43.28919,"lon":5.38391,"is_reserved":false,"is_disabled":true,"rental_uris":{"android":"levelo://app?vid=2bed0138-9ac3-4164-90ee-5bfaf418733f","ios":"levelo://app?vid=2bed0138-9ac3-4164-90ee-5bfaf418733f"},"vehicle_type_id":"4","last_reported":1758046508,"current_range_meters":11200,"station_id":"ce4bh612rcd13ifvqe6g","pricing_plan_id":"cebpf4jnsgd1na2vs0mg"},{"bike_id":"5161c147-9a77-48ce-ab1f-7473ab4d7b0d","system_id":"levelo_inurba_marseille","lat":43.295297,"lon":5.385476,"is_reserved":false,"is_disabled":false,"rental_uris":{"android":"levelo://app?vid=5161c147-9a77-48ce-ab1f-7473ab4d7b0d","ios":"levelo://app?vid=5161c147-9a77-48ce-ab1f-7473ab4d7b0d"},"vehicle_type_id":"4","last_reported":1758046508,"current_range_meters":11200,"station_id":"ce4bgih2rcd13ifvqba0","pricing_plan_id":"cebpf4jnsgd1na2vs0mg"},{"bike_id":"2c27ec1d-492a-4a4d-9210-65484231bb55","system_id":"levelo_inurba_marseille","lat":43.30932,"lon":5.40157,"is_reserved":false,"is_disabled":false,"rental_uris":{"android":"levelo://app?vid=2c27ec1d-492a-4a4d-9210-65484231bb55","ios":"levelo://app?vid=2c27ec1d-492a-4a4d-9210-65484231bb55"},"vehicle_type_id":"4","last_reported":1758046508,"current_range_meters":11600,"station_id":"ce4bgvp2rcd13ifvqct0","pricing_plan_id":"cebpf4jnsgd1na2vs0mg"},{"bike_id":"1b6a995d-34ac-45d5-9528-44d2f8bbd183","system_id":"levelo_inurba_marseille","lat":43.28518,"lon":5.35914,"is_reserved":false,"is_disabled":false,"rental_uris":{"android":"levelo://app?vid=1b6a995d-34ac-45d5-9528-44d2f8bbd183","ios":"levelo://app?vid=1b6a995d-34ac-45d5-9528-44d2f8bbd183"},"vehicle_type_id":"4","last_reported":1758046508,"current_range_meters":11600,"station_id":"","pricing_plan_id":"cebpf4jnsgd1na2vs0mg"},{"bike_id":"e8b957ce-3362-4f95-a7ab-90b81463df65","system_id":"levelo_inurba_marseille","lat":43.28569,"lon":5.39505,"is_reserved":false,"is_disabled":false,"rental_uris":{"android":"levelo://app?vid=e8b957ce-3362-4f95-a7ab-90b81463df65","ios":"levelo://app?vid=e8b957ce-3362-4f95-a7ab-90b81463df65"},"vehicle_type_id":"4","last_reported":1758046508,"current_range_meters":11600,"station_id":"ce4bh292rcd13ifvqdg0","pricing_plan_id":"cebpf4jnsgd1na2vs0mg"},{"bike_id":"f1d3d43e-dfda-48e9-98c6-25977e2f5bb1","system_id":"levelo_inurba_marseille","lat":43.296229,"lon":5.376965,"is_reserved":false,"is_disabled":false,"rental_uris":{"android":"levelo://app?vid=f1d3d43e-dfda-48e9-98c6-25977e2f5bb1","ios":"levelo://app?vid=f1d3d43e-dfda-48e9-98c6-25977e2f5bb1"},"vehicle_type_id":"4","last_reported":1758046508,"current_range_meters":11600,"station_id":"ce4bgi92rcd13ifvqb90","pricing_plan_id":"cebpf4jnsgd1na2vs0mg"},{"bike_id":"b67873d6-c916-4891-ba70-867de063b6ae","system_id":"levelo_inurba_marseille","lat":43.25849,"lon":5.39936,"is_reserved":false,"is_disabled":false,"rental_uris":{"android":"levelo://app?vid=b67873d6-c916-4891-ba70-867de063b6ae","ios":"levelo://app?vid=b67873d6-c916-4891-ba70-867de063b6ae"},"vehicle_type_id":"4","last_reported":1758046508,"current_range_meters":11600,"station_id":"ce4bhl92rcd13ifvqghg","pricing_plan_id":"cebpf4jnsgd1na2vs0mg"},{"bike_id":"be347fd0-f4fb-409f-90dd-59ac4f44e3ae","system_id":"levelo_inurba_marseille","lat":43.25723,"lon":5.41112,"is_reserved":false,"is_disabled":false,"rental_uris":{"android":"levelo://app?vid=be347fd0-f4fb-409f-90dd-59ac4f44e3ae","ios":"levelo://app?vid=be347fd0-f4fb-409f-90dd-59ac4f44e3ae"},"vehicle_type_id":"4","last_reported":1758046508,"current_range_meters":11600,"station_id":"ce4bhkp2rcd13ifvqgd0","pricing_plan_id":"cebpf4jnsgd1na2vs0mg"},{"bike_id":"01dc0fe7-2aa6-4bdc-8ade-24dc39350be6","system_id":"levelo_inurba_marseille","lat":43.29568,"lon":5.39981,"is_reserved":false,"is_disabled":false,"rental_uris":{"android":"levelo://app?vid=01dc0fe7-2aa6-4bdc-8ade-24dc39350be6","ios":"levelo://app?vid=01dc0fe7-2aa6-4bdc-8ade-24dc39350be6"},"vehicle_type_id":"4","last_reported":1758046508,"current_range_meters":11600,"station_id":"ce4bh312rcd13ifvqdj0","pricing_plan_id":"cebpf4jnsgd1na2vs0mg"},{"bike_id":"3cacb3b3-fc36-4105-b500-bac393cc978b","system_id":"levelo_inurba_marseille","lat":43.29215,"lon":5.3606,"is_reserved":false,"is_disabled":false,"rental_uris":{"android":"levelo://app?vid=3cacb3b3-fc36-4105-b500-bac393cc978b","ios":"levelo://app?vid=3cacb3b3-fc36-4105-b500-bac393cc978b"},"vehicle_type_id":"4","last_reported":1758046508,"current_range_meters":11600,"station_id":"ce4bhbh2rcd13ifvqeqg","pricing_plan_id":"cebpf4jnsgd1na2vs0mg"},{"bike_id":"4c70b6ba-1376-4775-8247-c41b9ccd75f0","system_id":"levelo_inurba_marseille","lat":43.29255,"lon":5.40901,"is_reserved":false,"is_disabled":true,"rental_uris":{"android":"levelo://app?vid=4c70b6ba-1376-4775-8247-c41b9ccd75f0","ios":"levelo://app?vid=4c70b6ba-1376-4775-8247-c41b9ccd75f0"},"vehicle_type_id":"4","last_reported":1758046508,"current_range_meters":12000,"station_id":"ce4bh192rcd13ifvqdc0","pricing_plan_id":"cebpf4jnsgd1na2vs0mg"},{"bike_id":"0e0e2f9f-ba66-4e3f-bdb2-9daa5391efbe","system_id":"levelo_inurba_marseille","lat":43.28937,"lon":5.3664,"is_reserved":false,"is_disabled":false,"rental_uris":{"android":"levelo://app?vid=0e0e2f9f-ba66-4e3f-bdb2-9daa5391efbe","ios":"levelo://app?vid=0e0e2f9f-ba66-4e3f-bdb2-9daa5391efbe"},"vehicle_type_id":"4","last_reported":1758046508,"current_range_meters":12000,"station_id":"ce4bhap2rcd13ifvqek0","pricing_plan_id":"cebpf4jnsgd1na2vs0mg"},{"bike_id":"e25f24dc-0a62-4e73-81f7-beb1431bc493","system_id":"levelo_inurba_marseille","lat":43.28074,"lon":5.39659,"is_reserved":false,"is_disabled":false,"rental_uris":{"android":"levelo://app?vid=e25f24dc-0a62-4e73-81f7-beb1431bc493","ios":"levelo://app?vid=e25f24dc-0a62-4e73-81f7-beb1431bc493"},"vehicle_type_id":"4","last_reported":1758046508,"current_range_meters":12000,"station_id":"ce4bho12rcd13ifvqh2g","pricing_plan_id":"cebpf4jnsgd1na2vs0mg"},{"bike_id":"5404a574-c18c-466b-bf42-8f3238c0c146","system_id":"levelo_inurba_marseille","lat":43.29545,"lon":5.38536,"is_reserved":false,"is_disabled":false,"rental_uris":{"android":"levelo://app?vid=5404a574-c18c-466b-bf42-8f3238c0c146","ios":"levelo://app?vid=5404a574-c18c-466b-bf42-8f3238c0c146"},"vehicle_type_id":"4","last_reported":1758046508,"current_range_meters":12000,"station_id":"ce4bgih2rcd13ifvqba0","pricing_plan_id":"cebpf4jnsgd1na2vs0mg"},{"bike_id":"c4ad9b1c-67e0-470c-9662-d5b3cf07580a","system_id":"levelo_inurba_marseille","lat":43.29532,"lon":5.38535,"is_reserved":false,"is_disabled":false,"rental_uris":{"android":"levelo://app?vid=c4ad9b1c-67e0-470c-9662-d5b3cf07580a","ios":"levelo://app?vid=c4ad9b1c-67e0-470c-9662-d5b3cf07580a"},"vehicle_type_id":"4","last_reported":1758046508,"current_range_meters":12000,"station_id":"ce4bgih2rcd13ifvqba0","pricing_plan_id":"cebpf4jnsgd1na2vs0mg"},{"bike_id":"3b26aa0d-3679-4b4c-9b55-1096f6d08a9d","system_id":"levelo_inurba_marseille","lat":43.31297,"lon":5.3938,"is_reserved":false,"is_disabled":false,"rental_uris":{"android":"levelo://app?vid=3b26aa0d-3679-4b4c-9b55-1096f6d08a9d","ios":"levelo://app?vid=3b26aa0d-3679-4b4c-9b55-1096f6d08a9d"},"vehicle_type_id":"4","last_reported":1758046508,"current_range_meters":12000,"station_id":"","pricing_plan_id":"cebpf4jnsgd1na2vs0mg"},{"bike_id":"0b530ca0-5abe-456a-80f2-061626fcc9b1","system_id":"levelo_inurba_marseille","lat":43.29979,"lon":5.38215,"is_reserved":false,"is_disabled":false,"rental_uris":{"android":"levelo://app?vid=0b530ca0-5abe-456a-80f2-061626fcc9b1","ios":"levelo://app?vid=0b530ca0-5abe-456a-80f2-061626fcc9b1"},"vehicle_type_id":"4","last_reported":1758046508,"current_range_meters":12000,"station_id":"","pricing_plan_id":"cebpf4jnsgd1na2vs0mg"},{"bike_id":"218a3b01-2802-4a90-9359-7a3da360539c","system_id":"levelo_inurba_marseille","lat":43.28566,"lon":5.39504,"is_reserved":false,"is_disabled":false,"rental_uris":{"android":"levelo://app?vid=218a3b01-2802-4a90-9359-7a3da360539c","ios":"levelo://app?vid=218a3b01-2802-4a90-9359-7a3da360539c"},"vehicle_type_id":"4","last_reported":1758046508,"current_range_meters":12000,"station_id":"ce4bh292rcd13ifvqdg0","pricing_plan_id":"cebpf4jnsgd1na2vs0mg"},{"bike_id":"c0ce51c4-62d4-4daa-b33c-78a6d1ed0b94","system_id":"levelo_inurba_marseille","lat":43.26501,"lon":5.39537,"is_reserved":false,"is_disabled":false,"rental_uris":{"android":"levelo://app?vid=c0ce51c4-62d4-4daa-b33c-78a6d1ed0b94","ios":"levelo://app?vid=c0ce51c4-62d4-4daa-b33c-78a6d1ed0b94"},"vehicle_type_id":"4","last_reported":1758046508,"current_range_meters":12000,"station_id":"ce4bhi12rcd13ifvqfq0","pricing_plan_id":"cebpf4jnsgd1na2vs0mg"},{"bike_id":"2ba6d751-735d-4f3f-b471-7e3f5bc5e1b1","system_id":"levelo_inurba_marseille","lat":43.32093,"lon":5.36835,"is_reserved":false,"is_disabled":false,"rental_uris":{"android":"levelo://app?vid=2ba6d751-735d-4f3f-b471-7e3f5bc5e1b1","ios":"levelo://app?vid=2ba6d751-735d-4f3f-b471-7e3f5bc5e1b1"},"vehicle_type_id":"4","last_reported":1758046508,"current_range_meters":12000,"station_id":"ce4bhrh2rcd13ifvqhug","pricing_plan_id":"cebpf4jnsgd1na2vs0mg"},{"bike_id":"f69adb4a-cd26-4091-8277-a5bce4f77ee6","system_id":"levelo_inurba_marseille","lat":43.25105,"lon":5.40325,"is_reserved":false,"is_disabled":false,"rental_uris":{"android":"levelo://app?vid=f69adb4a-cd26-4091-8277-a5bce4f77ee6","ios":"levelo://app?vid=f69adb4a-cd26-4091-8277-a5bce4f77ee6"},"vehicle_type_id":"4","last_reported":1758046508,"current_range_meters":12000,"station_id":"ce4bhlh2rcd13ifvqgig","pricing_plan_id":"cebpf4jnsgd1na2vs0mg"},{"bike_id":"faa939ed-96cd-46c2-8675-7bc8391be872","system_id":"levelo_inurba_marseille","lat":43.30109,"lon":5.373928,"is_reserved":false,"is_disabled":false,"rental_uris":{"android":"levelo://app?vid=faa939ed-96cd-46c2-8675-7bc8391be872","ios":"levelo://app?vid=faa939ed-96cd-46c2-8675-7bc8391be872"},"vehicle_type_id":"4","last_reported":1758046508,"current_range_meters":12000,"station_id":"ce4bgs92rcd13ifvqcc0","pricing_plan_id":"cebpf4jnsgd1na2vs0mg"},{"bike_id":"d62440eb-a625-4538-83c6-8c5b04dc58f0","system_id":"levelo_inurba_marseille","lat":43.24632,"lon":5.43151,"is_reserved":false,"is_disabled":false,"rental_uris":{"android":"levelo://app?vid=d62440eb-a625-4538-83c6-8c5b04dc58f0","ios":"levelo://app?vid=d62440eb-a625-4538-83c6-8c5b04dc58f0"},"vehicle_type_id":"4","last_reported":1758046508,"current_range_meters":12400,"station_id":"st_d2m6c4gdas8pm72e190g","pricing_plan_id":"cebpf4jnsgd1na2vs0mg"},{"bike_id":"e031047f-df31-458e-ae81-c74827c4bfdb","system_id":"levelo_inurba_marseille","lat":43.29543,"lon":5.42291,"is_reserved":false,"is_disabled":false,"rental_uris":{"android":"levelo://app?vid=e031047f-df31-458e-ae81-c74827c4bfdb","ios":"levelo://app?vid=e031047f-df31-458e-ae81-c74827c4bfdb"},"vehicle_type_id":"4","last_reported":1758046508,"current_range_meters":12400,"station_id":"ce4bhph2rcd13ifvqhdg","pricing_plan_id":"cebpf4jnsgd1na2vs0mg"},{"bike_id":"39857794-36d8-4b26-8835-185e2aac854e","system_id":"levelo_inurba_marseille","lat":43.24808,"lon":5.37455,"is_reserved":false,"is_disabled":false,"rental_uris":{"android":"levelo://app?vid=39857794-36d8-4b26-8835-185e2aac854e","ios":"levelo://app?vid=39857794-36d8-4b26-8835-185e2aac854e"},"vehicle_type_id":"4","last_reported":1758046508,"current_range_meters":12400,"station_id":"ce4bhgh2rcd13ifvqfb0","pricing_plan_id":"cebpf4jnsgd1na2vs0mg"},{"bike_id":"15b8d044-a645-4a36-b550-e88fa82cc662","system_id":"levelo_inurba_marseille","lat":43.28351,"lon":5.38125,"is_reserved":false,"is_disabled":false,"rental_uris":{"android":"levelo://app?vid=15b8d044-a645-4a36-b550-e88fa82cc662","ios":"levelo://app?vid=15b8d044-a645-4a36-b550-e88fa82cc662"},"vehicle_type_id":"4","last_reported":1758046508,"current_range_meters":12400,"station_id":"ce4bh412rcd13ifvqdr0","pricing_plan_id":"cebpf4jnsgd1na2vs0mg"},{"bike_id":"7203b3b1-b3b4-4f88-8515-e1f40e950399","system_id":"levelo_inurba_marseille","lat":43.29792,"lon":5.39335,"is_reserved":false,"is_disabled":false,"rental_uris":{"android":"levelo://app?vid=7203b3b1-b3b4-4f88-8515-e1f40e950399","ios":"levelo://app?vid=7203b3b1-b3b4-4f88-8515-e1f40e950399"},"vehicle_type_id":"4","last_reported":1758046508,"current_range_meters":12400,"station_id":"chh1huq6cuj3fo74tm60","pricing_plan_id":"cebpf4jnsgd1na2vs0mg"},{"bike_id":"acbe8da6-1c98-401b-9b1a-c85436d5aaec","system_id":"levelo_inurba_marseille","lat":43.2997,"lon":5.38509,"is_reserved":false,"is_disabled":false,"rental_uris":{"android":"levelo://app?vid=acbe8da6-1c98-401b-9b1a-c85436d5aaec","ios":"levelo://app?vid=acbe8da6-1c98-401b-9b1a-c85436d5aaec"},"vehicle_type_id":"4","last_reported":1758046508,"current_range_meters":12400,"station_id":"ce4bgj92rcd13ifvqbd0","pricing_plan_id":"cebpf4jnsgd1na2vs0mg"},{"bike_id":"8e2c65ca-ddc6-4bd8-b682-4e426c262045","system_id":"levelo_inurba_marseille","lat":43.24543,"lon":5.39529,"is_reserved":false,"is_disabled":false,"rental_uris":{"android":"levelo://app?vid=8e2c65ca-ddc6-4bd8-b682-4e426c262045","ios":"levelo://app?vid=8e2c65ca-ddc6-4bd8-b682-4e426c262045"},"vehicle_type_id":"4","last_reported":1758046508,"current_range_meters":12400,"station_id":"ce4bhlp2rcd13ifvqgjg","pricing_plan_id":"cebpf4jnsgd1na2vs0mg"},{"bike_id":"8576145e-999b-4055-afb1-a431e13718e1","system_id":"levelo_inurba_marseille","lat":43.27808,"lon":5.40716,"is_reserved":false,"is_disabled":false,"rental_uris":{"android":"levelo://app?vid=8576145e-999b-4055-afb1-a431e13718e1","ios":"levelo://app?vid=8576145e-999b-4055-afb1-a431e13718e1"},"vehicle_type_id":"4","last_reported":1758046508,"current_range_meters":12400,"station_id":"ce4bhnh2rcd13ifvqgtg","pricing_plan_id":"cebpf4jnsgd1na2vs0mg"},{"bike_id":"8f0931da-95a7-452a-a026-583a589e1c74","system_id":"levelo_inurba_marseille","lat":43.29309,"lon":5.37127,"is_reserved":false,"is_disabled":false,"rental_uris":{"android":"levelo://app?vid=8f0931da-95a7-452a-a026-583a589e1c74","ios":"levelo://app?vid=8f0931da-95a7-452a-a026-583a589e1c74"},"vehicle_type_id":"4","last_reported":1758046508,"current_range_meters":12400,"station_id":"ce4bgh92rcd13ifvqb40","pricing_plan_id":"cebpf4jnsgd1na2vs0mg"},{"bike_id":"46e42f02-6b1a-4866-a440-e0c62d7a2434","system_id":"levelo_inurba_marseille","lat":43.29527,"lon":5.38543,"is_reserved":false,"is_disabled":false,"rental_uris":{"android":"levelo://app?vid=46e42f02-6b1a-4866-a440-e0c62d7a2434","ios":"levelo://app?vid=46e42f02-6b1a-4866-a440-e0c62d7a2434"},"vehicle_type_id":"4","last_reported":1758046508,"current_range_meters":12400,"station_id":"ce4bgih2rcd13ifvqba0","pricing_plan_id":"cebpf4jnsgd1na2vs0mg"},{"bike_id":"06dd7ab1-207e-44a0-9391-33e8f22d1681","system_id":"levelo_inurba_marseille","lat":43.26796,"lon":5.40269,"is_reserved":false,"is_disabled":false,"rental_uris":{"android":"levelo://app?vid=06dd7ab1-207e-44a0-9391-33e8f22d1681","ios":"levelo://app?vid=06dd7ab1-207e-44a0-9391-33e8f22d1681"},"vehicle_type_id":"4","last_reported":1758046508,"current_range_meters":12800,"station_id":"ce501612rcd8frsf0b60","pricing_plan_id":"cebpf4jnsgd1na2vs0mg"},{"bike_id":"5223345e-858e-4163-aca8-b2c9df1a1da4","system_id":"levelo_inurba_marseille","lat":43.296,"lon":5.38112,"is_reserved":false,"is_disabled":false,"rental_uris":{"android":"levelo://app?vid=5223345e-858e-4163-aca8-b2c9df1a1da4","ios":"levelo://app?vid=5223345e-858e-4163-aca8-b2c9df1a1da4"},"vehicle_type_id":"4","last_reported":1758046508,"current_range_meters":12400,"station_id":"ce4bgl12rcd13ifvqbo0","pricing_plan_id":"cebpf4jnsgd1na2vs0mg"},{"bike_id":"534237fb-bda3-423c-b5c7-3f475adba333","system_id":"levelo_inurba_marseille","lat":43.28925,"lon":5.38407,"is_reserved":false,"is_disabled":false,"rental_uris":{"android":"levelo://app?vid=534237fb-bda3-423c-b5c7-3f475adba333","ios":"levelo://app?vid=534237fb-bda3-423c-b5c7-3f475adba333"},"vehicle_type_id":"4","last_reported":1758046508,"current_range_meters":12400,"station_id":"ce4bh612rcd13ifvqe6g","pricing_plan_id":"cebpf4jnsgd1na2vs0mg"},{"bike_id":"6a009037-7862-44d1-a82e-1a198a57406f","system_id":"levelo_inurba_marseille","lat":43.28148,"lon":5.42656,"is_reserved":false,"is_disabled":false,"rental_uris":{"android":"levelo://app?vid=6a009037-7862-44d1-a82e-1a198a57406f","ios":"levelo://app?vid=6a009037-7862-44d1-a82e-1a198a57406f"},"vehicle_type_id":"4","last_reported":1758046508,"current_range_meters":12800,"station_id":"ce4bhnh2rcd13ifvqgug","pricing_plan_id":"cebpf4jnsgd1na2vs0mg"},{"bike_id":"0ede21be-37d9-4495-b672-80274a6292be","system_id":"levelo_inurba_marseille","lat":43.35041,"lon":5.34086,"is_reserved":false,"is_disabled":false,"rental_uris":{"android":"levelo://app?vid=0ede21be-37d9-4495-b672-80274a6292be","ios":"levelo://app?vid=0ede21be-37d9-4495-b672-80274a6292be"},"vehicle_type_id":"4","last_reported":1758046508,"current_range_meters":12800,"station_id":"","pricing_plan_id":"cebpf4jnsgd1na2vs0mg"},{"bike_id":"ece07351-e21d-4c48-bd8e-d6076d0d6379","system_id":"levelo_inurba_marseille","lat":43.28487,"lon":5.37501,"is_reserved":false,"is_disabled":false,"rental_uris":{"android":"levelo://app?vid=ece07351-e21d-4c48-bd8e-d6076d0d6379","ios":"levelo://app?vid=ece07351-e21d-4c48-bd8e-d6076d0d6379"},"vehicle_type_id":"4","last_reported":1758046508,"current_range_meters":13600,"station_id":"","pricing_plan_id":"cebpf4jnsgd1na2vs0mg"},{"bike_id":"3780f8a4-d5f2-441c-af36-d971584876a5","system_id":"levelo_inurba_marseille","lat":43.29534,"lon":5.38531,"is_reserved":false,"is_disabled":false,"rental_uris":{"android":"levelo://app?vid=3780f8a4-d5f2-441c-af36-d971584876a5","ios":"levelo://app?vid=3780f8a4-d5f2-441c-af36-d971584876a5"},"vehicle_type_id":"4","last_reported":1758046508,"current_range_meters":13600,"station_id":"ce4bgih2rcd13ifvqba0","pricing_plan_id":"cebpf4jnsgd1na2vs0mg"},{"bike_id":"1085b2d5-1c71-4ac2-9394-b27934f2cc0e","system_id":"levelo_inurba_marseille","lat":43.28362,"lon":5.38628,"is_reserved":false,"is_disabled":false,"rental_uris":{"android":"levelo://app?vid=1085b2d5-1c71-4ac2-9394-b27934f2cc0e","ios":"levelo://app?vid=1085b2d5-1c71-4ac2-9394-b27934f2cc0e"},"vehicle_type_id":"4","last_reported":1758046508,"current_range_meters":13600,"station_id":"ce4bh492rcd13ifvqdvg","pricing_plan_id":"cebpf4jnsgd1na2vs0mg"},{"bike_id":"23e1572e-7ccb-4eea-8020-599035749c9e","system_id":"levelo_inurba_marseille","lat":43.238389,"lon":5.365481,"is_reserved":false,"is_disabled":false,"rental_uris":{"android":"levelo://app?vid=23e1572e-7ccb-4eea-8020-599035749c9e","ios":"levelo://app?vid=23e1572e-7ccb-4eea-8020-599035749c9e"},"vehicle_type_id":"4","last_reported":1758046508,"current_range_meters":13600,"station_id":"","pricing_plan_id":"cebpf4jnsgd1na2vs0mg"},{"bike_id":"034ffc90-630a-49f2-982c-234e27cedb9e","system_id":"levelo_inurba_marseille","lat":43.29532,"lon":5.38547,"is_reserved":false,"is_disabled":false,"rental_uris":{"android":"levelo://app?vid=034ffc90-630a-49f2-982c-234e27cedb9e","ios":"levelo://app?vid=034ffc90-630a-49f2-982c-234e27cedb9e"},"vehicle_type_id":"4","last_reported":1758046508,"current_range_meters":13600,"station_id":"ce4bgih2rcd13ifvqba0","pricing_plan_id":"cebpf4jnsgd1na2vs0mg"},{"bike_id":"a677a305-b439-4871-98c9-d30ace339d4a","system_id":"levelo_inurba_marseille","lat":43.29255,"lon":5.38438,"is_reserved":false,"is_disabled":false,"rental_uris":{"android":"levelo://app?vid=a677a305-b439-4871-98c9-d30ace339d4a","ios":"levelo://app?vid=a677a305-b439-4871-98c9-d30ace339d4a"},"vehicle_type_id":"4","last_reported":1758046508,"current_range_meters":13600,"station_id":"ce4bh692rcd13ifvqea0","pricing_plan_id":"cebpf4jnsgd1na2vs0mg"},{"bike_id":"a03761e6-e972-4780-905d-b8d3c1958f50","system_id":"levelo_inurba_marseille","lat":43.29045,"lon":5.35908,"is_reserved":false,"is_disabled":false,"rental_uris":{"android":"levelo://app?vid=a03761e6-e972-4780-905d-b8d3c1958f50","ios":"levelo://app?vid=a03761e6-e972-4780-905d-b8d3c1958f50"},"vehicle_type_id":"4","last_reported":1758046508,"current_range_meters":13600,"station_id":"ce4bha92rcd13ifvqeg0","pricing_plan_id":"cebpf4jnsgd1na2vs0mg"},{"bike_id":"d6a5313e-33a8-4007-97f0-463b4ed01fb5","system_id":"levelo_inurba_marseille","lat":43.28692,"lon":5.39989,"is_reserved":false,"is_disabled":false,"rental_uris":{"android":"levelo://app?vid=d6a5313e-33a8-4007-97f0-463b4ed01fb5","ios":"levelo://app?vid=d6a5313e-33a8-4007-97f0-463b4ed01fb5"},"vehicle_type_id":"4","last_reported":1758046508,"current_range_meters":14400,"station_id":"ce4bho92rcd13ifvqh3g","pricing_plan_id":"cebpf4jnsgd1na2vs0mg"},{"bike_id":"d1becc6c-e10d-4876-a8e7-9f0b031df4b2","system_id":"levelo_inurba_marseille","lat":43.27991,"lon":5.41666,"is_reserved":false,"is_disabled":false,"rental_uris":{"android":"levelo://app?vid=d1becc6c-e10d-4876-a8e7-9f0b031df4b2","ios":"levelo://app?vid=d1becc6c-e10d-4876-a8e7-9f0b031df4b2"},"vehicle_type_id":"4","last_reported":1758046508,"current_range_meters":13600,"station_id":"ce4bho12rcd13ifvqh1g","pricing_plan_id":"cebpf4jnsgd1na2vs0mg"},{"bike_id":"33402864-f5e0-47e4-8687-c925adfc3d24","system_id":"levelo_inurba_marseille","lat":43.24164,"lon":5.36407,"is_reserved":false,"is_disabled":false,"rental_uris":{"android":"levelo://app?vid=33402864-f5e0-47e4-8687-c925adfc3d24","ios":"levelo://app?vid=33402864-f5e0-47e4-8687-c925adfc3d24"},"vehicle_type_id":"4","last_reported":1758046508,"current_range_meters":13600,"station_id":"cpo36qri1sfpv3e86is0","pricing_plan_id":"cebpf4jnsgd1na2vs0mg"},{"bike_id":"cea0a1e2-df7e-4cb1-be5d-ab30e9212317","system_id":"levelo_inurba_marseille","lat":43.217517,"lon":5.345985,"is_reserved":false,"is_disabled":false,"rental_uris":{"android":"levelo://app?vid=cea0a1e2-df7e-4cb1-be5d-ab30e9212317","ios":"levelo://app?vid=cea0a1e2-df7e-4cb1-be5d-ab30e9212317"},"vehicle_type_id":"4","last_reported":1758046508,"current_range_meters":14000,"station_id":"","pricing_plan_id":"cebpf4jnsgd1na2vs0mg"},{"bike_id":"99b1f494-78e2-48ab-b861-45d187280170","system_id":"levelo_inurba_marseille","lat":43.23191,"lon":5.39968,"is_reserved":false,"is_disabled":false,"rental_uris":{"android":"levelo://app?vid=99b1f494-78e2-48ab-b861-45d187280170","ios":"levelo://app?vid=99b1f494-78e2-48ab-b861-45d187280170"},"vehicle_type_id":"4","last_reported":1758046508,"current_range_meters":14000,"station_id":"ce4bhn12rcd13ifvqgqg","pricing_plan_id":"cebpf4jnsgd1na2vs0mg"},{"bike_id":"87e521cc-c40e-4041-af0d-afcdd3608b3c","system_id":"levelo_inurba_marseille","lat":43.30564,"lon":5.38404,"is_reserved":false,"is_disabled":false,"rental_uris":{"android":"levelo://app?vid=87e521cc-c40e-4041-af0d-afcdd3608b3c","ios":"levelo://app?vid=87e521cc-c40e-4041-af0d-afcdd3608b3c"},"vehicle_type_id":"4","last_reported":1758046508,"current_range_meters":14000,"station_id":"ce4bgg92rcd13ifvqb30","pricing_plan_id":"cebpf4jnsgd1na2vs0mg"},{"bike_id":"b84b6f2a-f749-435c-81cf-b02f509ed529","system_id":"levelo_inurba_marseille","lat":43.273118,"lon":5.391101,"is_reserved":false,"is_disabled":false,"rental_uris":{"android":"levelo://app?vid=b84b6f2a-f749-435c-81cf-b02f509ed529","ios":"levelo://app?vid=b84b6f2a-f749-435c-81cf-b02f509ed529"},"vehicle_type_id":"4","last_reported":1758046508,"current_range_meters":14000,"station_id":"","pricing_plan_id":"cebpf4jnsgd1na2vs0mg"},{"bike_id":"fa21e73d-c8aa-4f36-8ba1-a3558c27b218","system_id":"levelo_inurba_marseille","lat":43.28387,"lon":5.37541,"is_reserved":false,"is_disabled":false,"rental_uris":{"android":"levelo://app?vid=fa21e73d-c8aa-4f36-8ba1-a3558c27b218","ios":"levelo://app?vid=fa21e73d-c8aa-4f36-8ba1-a3558c27b218"},"vehicle_type_id":"4","last_reported":1758046508,"current_range_meters":14000,"station_id":"ce4bh412rcd13ifvqds0","pricing_plan_id":"cebpf4jnsgd1na2vs0mg"},{"bike_id":"8fdeb6db-8d78-4769-979f-043be05d7b29","system_id":"levelo_inurba_marseille","lat":43.2955,"lon":5.42284,"is_reserved":false,"is_disabled":false,"rental_uris":{"android":"levelo://app?vid=8fdeb6db-8d78-4769-979f-043be05d7b29","ios":"levelo://app?vid=8fdeb6db-8d78-4769-979f-043be05d7b29"},"vehicle_type_id":"4","last_reported":1758046508,"current_range_meters":10000,"station_id":"ce4bhph2rcd13ifvqhdg","pricing_plan_id":"cebpf4jnsgd1na2vs0mg"},{"bike_id":"738e9474-7fa1-477d-95be-2b35ede9d3f0","system_id":"levelo_inurba_marseille","lat":43.2256,"lon":5.41645,"is_reserved":false,"is_disabled":false,"rental_uris":{"android":"levelo://app?vid=738e9474-7fa1-477d-95be-2b35ede9d3f0","ios":"levelo://app?vid=738e9474-7fa1-477d-95be-2b35ede9d3f0"},"vehicle_type_id":"4","last_reported":1758046508,"current_range_meters":14000,"station_id":"st_d2o4gvlbi1j2169b742g","pricing_plan_id":"cebpf4jnsgd1na2vs0mg"},{"bike_id":"ed71588b-322f-4150-9f94-bf6a11f183b3","system_id":"levelo_inurba_marseille","lat":43.30131,"lon":5.38792,"is_reserved":false,"is_disabled":false,"rental_uris":{"android":"levelo://app?vid=ed71588b-322f-4150-9f94-bf6a11f183b3","ios":"levelo://app?vid=ed71588b-322f-4150-9f94-bf6a11f183b3"},"vehicle_type_id":"4","last_reported":1758046508,"current_range_meters":14000,"station_id":"ce4bghh2rcd13ifvqb60","pricing_plan_id":"cebpf4jnsgd1na2vs0mg"},{"bike_id":"a20305c3-1291-4951-91c0-102694e33104","system_id":"levelo_inurba_marseille","lat":43.25815,"lon":5.39437,"is_reserved":false,"is_disabled":false,"rental_uris":{"android":"levelo://app?vid=a20305c3-1291-4951-91c0-102694e33104","ios":"levelo://app?vid=a20305c3-1291-4951-91c0-102694e33104"},"vehicle_type_id":"4","last_reported":1758046508,"current_range_meters":14000,"station_id":"ce4bhip2rcd13ifvqft0","pricing_plan_id":"cebpf4jnsgd1na2vs0mg"},{"bike_id":"bf80da75-1c46-4446-9a26-80003b6f2aae","system_id":"levelo_inurba_marseille","lat":43.29963,"lon":5.38505,"is_reserved":false,"is_disabled":false,"rental_uris":{"android":"levelo://app?vid=bf80da75-1c46-4446-9a26-80003b6f2aae","ios":"levelo://app?vid=bf80da75-1c46-4446-9a26-80003b6f2aae"},"vehicle_type_id":"4","last_reported":1758046508,"current_range_meters":14000,"station_id":"ce4bgj92rcd13ifvqbd0","pricing_plan_id":"cebpf4jnsgd1na2vs0mg"},{"bike_id":"e4d91310-6a6d-4f08-aefc-005cbc5b9509","system_id":"levelo_inurba_marseille","lat":43.29566,"lon":5.39988,"is_reserved":false,"is_disabled":false,"rental_uris":{"android":"levelo://app?vid=e4d91310-6a6d-4f08-aefc-005cbc5b9509","ios":"levelo://app?vid=e4d91310-6a6d-4f08-aefc-005cbc5b9509"},"vehicle_type_id":"4","last_reported":1758046508,"current_range_meters":14000,"station_id":"ce4bh312rcd13ifvqdj0","pricing_plan_id":"cebpf4jnsgd1na2vs0mg"},{"bike_id":"11555ead-152a-4e2f-ac3e-7aaa852c50e5","system_id":"levelo_inurba_marseille","lat":43.225326,"lon":5.348358,"is_reserved":false,"is_disabled":false,"rental_uris":{"android":"levelo://app?vid=11555ead-152a-4e2f-ac3e-7aaa852c50e5","ios":"levelo://app?vid=11555ead-152a-4e2f-ac3e-7aaa852c50e5"},"vehicle_type_id":"4","last_reported":1758046508,"current_range_meters":14400,"station_id":"","pricing_plan_id":"cebpf4jnsgd1na2vs0mg"},{"bike_id":"14debadb-7e1e-4275-a3de-829f1bd2403f","system_id":"levelo_inurba_marseille","lat":43.31043,"lon":5.38342,"is_reserved":false,"is_disabled":true,"rental_uris":{"android":"levelo://app?vid=14debadb-7e1e-4275-a3de-829f1bd2403f","ios":"levelo://app?vid=14debadb-7e1e-4275-a3de-829f1bd2403f"},"vehicle_type_id":"4","last_reported":1758046508,"current_range_meters":14400,"station_id":"ce4bgv92rcd13ifvqcr0","pricing_plan_id":"cebpf4jnsgd1na2vs0mg"},{"bike_id":"fcd438bd-05ea-4b7a-b2cc-4f0f78087e78","system_id":"levelo_inurba_marseille","lat":43.29536,"lon":5.38539,"is_reserved":false,"is_disabled":false,"rental_uris":{"android":"levelo://app?vid=fcd438bd-05ea-4b7a-b2cc-4f0f78087e78","ios":"levelo://app?vid=fcd438bd-05ea-4b7a-b2cc-4f0f78087e78"},"vehicle_type_id":"4","last_reported":1758046508,"current_range_meters":14400,"station_id":"ce4bgih2rcd13ifvqba0","pricing_plan_id":"cebpf4jnsgd1na2vs0mg"},{"bike_id":"1b8daad9-3829-40f8-98e4-16772fa3fc49","system_id":"levelo_inurba_marseille","lat":43.29535,"lon":5.38555,"is_reserved":false,"is_disabled":false,"rental_uris":{"android":"levelo://app?vid=1b8daad9-3829-40f8-98e4-16772fa3fc49","ios":"levelo://app?vid=1b8daad9-3829-40f8-98e4-16772fa3fc49"},"vehicle_type_id":"4","last_reported":1758046508,"current_range_meters":14400,"station_id":"ce4bgih2rcd13ifvqba0","pricing_plan_id":"cebpf4jnsgd1na2vs0mg"},{"bike_id":"aa9d0b7b-aa87-449e-9636-e2a36a818190","system_id":"levelo_inurba_marseille","lat":43.231877,"lon":5.399822,"is_reserved":false,"is_disabled":false,"rental_uris":{"android":"levelo://app?vid=aa9d0b7b-aa87-449e-9636-e2a36a818190","ios":"levelo://app?vid=aa9d0b7b-aa87-449e-9636-e2a36a818190"},"vehicle_type_id":"4","last_reported":1758046508,"current_range_meters":14400,"station_id":"ce4bhn12rcd13ifvqgqg","pricing_plan_id":"cebpf4jnsgd1na2vs0mg"},{"bike_id":"76e349fa-bc9b-47a4-9c39-43f8ccd1efae","system_id":"levelo_inurba_marseille","lat":43.28025,"lon":5.36955,"is_reserved":false,"is_disabled":true,"rental_uris":{"android":"levelo://app?vid=76e349fa-bc9b-47a4-9c39-43f8ccd1efae","ios":"levelo://app?vid=76e349fa-bc9b-47a4-9c39-43f8ccd1efae"},"vehicle_type_id":"4","last_reported":1758046508,"current_range_meters":14400,"station_id":"ce4bha12rcd13ifvqef0","pricing_plan_id":"cebpf4jnsgd1na2vs0mg"},{"bike_id":"31f511c7-5088-4534-9bd5-9cce0442d874","system_id":"levelo_inurba_marseille","lat":43.253331,"lon":5.421679,"is_reserved":false,"is_disabled":false,"rental_uris":{"android":"levelo://app?vid=31f511c7-5088-4534-9bd5-9cce0442d874","ios":"levelo://app?vid=31f511c7-5088-4534-9bd5-9cce0442d874"},"vehicle_type_id":"4","last_reported":1758046508,"current_range_meters":14400,"station_id":"st_d2m65c5bi1j21697t3ng","pricing_plan_id":"cebpf4jnsgd1na2vs0mg"},{"bike_id":"5c0b2341-c41a-4f62-9e5f-92e6a593fad9","system_id":"levelo_inurba_marseille","lat":43.33774,"lon":5.37471,"is_reserved":false,"is_disabled":false,"rental_uris":{"android":"levelo://app?vid=5c0b2341-c41a-4f62-9e5f-92e6a593fad9","ios":"levelo://app?vid=5c0b2341-c41a-4f62-9e5f-92e6a593fad9"},"vehicle_type_id":"4","last_reported":1758046508,"current_range_meters":14800,"station_id":"","pricing_plan_id":"cebpf4jnsgd1na2vs0mg"},{"bike_id":"88afaa1b-722c-4e66-b0b1-2089195415c6","system_id":"levelo_inurba_marseille","lat":43.32364,"lon":5.38868,"is_reserved":false,"is_disabled":false,"rental_uris":{"android":"levelo://app?vid=88afaa1b-722c-4e66-b0b1-2089195415c6","ios":"levelo://app?vid=88afaa1b-722c-4e66-b0b1-2089195415c6"},"vehicle_type_id":"4","last_reported":1758046508,"current_range_meters":14800,"station_id":"ce4bhqp2rcd13ifvqhog","pricing_plan_id":"cebpf4jnsgd1na2vs0mg"},{"bike_id":"1ca66cbd-1d67-4c9c-9fd1-173564442327","system_id":"levelo_inurba_marseille","lat":43.298387,"lon":5.382691,"is_reserved":false,"is_disabled":false,"rental_uris":{"android":"levelo://app?vid=1ca66cbd-1d67-4c9c-9fd1-173564442327","ios":"levelo://app?vid=1ca66cbd-1d67-4c9c-9fd1-173564442327"},"vehicle_type_id":"4","last_reported":1758046508,"current_range_meters":17200,"station_id":"ce4bgj92rcd13ifvqbd0","pricing_plan_id":"cebpf4jnsgd1na2vs0mg"},{"bike_id":"88a8a850-d513-47ec-8870-e7210ef51b52","system_id":"levelo_inurba_marseille","lat":43.29929,"lon":5.38523,"is_reserved":false,"is_disabled":false,"rental_uris":{"android":"levelo://app?vid=88a8a850-d513-47ec-8870-e7210ef51b52","ios":"levelo://app?vid=88a8a850-d513-47ec-8870-e7210ef51b52"},"vehicle_type_id":"4","last_reported":1758046508,"current_range_meters":14800,"station_id":"","pricing_plan_id":"cebpf4jnsgd1na2vs0mg"},{"bike_id":"3fd9f9ad-de4e-47a4-bf0e-3325a2696489","system_id":"levelo_inurba_marseille","lat":43.30784,"lon":5.37643,"is_reserved":false,"is_disabled":false,"rental_uris":{"android":"levelo://app?vid=3fd9f9ad-de4e-47a4-bf0e-3325a2696489","ios":"levelo://app?vid=3fd9f9ad-de4e-47a4-bf0e-3325a2696489"},"vehicle_type_id":"4","last_reported":1758046508,"current_range_meters":14800,"station_id":"ce4bgv92rcd13ifvqcq0","pricing_plan_id":"cebpf4jnsgd1na2vs0mg"},{"bike_id":"82e0bfcc-bba2-4c2c-9484-d3ca3b13a18b","system_id":"levelo_inurba_marseille","lat":43.29451,"lon":5.37537,"is_reserved":false,"is_disabled":false,"rental_uris":{"android":"levelo://app?vid=82e0bfcc-bba2-4c2c-9484-d3ca3b13a18b","ios":"levelo://app?vid=82e0bfcc-bba2-4c2c-9484-d3ca3b13a18b"},"vehicle_type_id":"4","last_reported":1758046508,"current_range_meters":14800,"station_id":"","pricing_plan_id":"cebpf4jnsgd1na2vs0mg"},{"bike_id":"fd3b4146-0073-4a79-82a9-bfaee63ff612","system_id":"levelo_inurba_marseille","lat":43.2944,"lon":5.38577,"is_reserved":false,"is_disabled":false,"rental_uris":{"android":"levelo://app?vid=fd3b4146-0073-4a79-82a9-bfaee63ff612","ios":"levelo://app?vid=fd3b4146-0073-4a79-82a9-bfaee63ff612"},"vehicle_type_id":"4","last_reported":1758046508,"current_range_meters":14800,"station_id":"","pricing_plan_id":"cebpf4jnsgd1na2vs0mg"},{"bike_id":"40495e59-b743-486e-987c-cb0c3ab2f191","system_id":"levelo_inurba_marseille","lat":43.331977,"lon":5.413374,"is_reserved":false,"is_disabled":false,"rental_uris":{"android":"levelo://app?vid=40495e59-b743-486e-987c-cb0c3ab2f191","ios":"levelo://app?vid=40495e59-b743-486e-987c-cb0c3ab2f191"},"vehicle_type_id":"4","last_reported":1758046508,"current_range_meters":14800,"station_id":"","pricing_plan_id":"cebpf4jnsgd1na2vs0mg"},{"bike_id":"ea54fe9b-16ba-49f0-a87a-8b72b3a0b661","system_id":"levelo_inurba_marseille","lat":43.2846,"lon":5.35891,"is_reserved":false,"is_disabled":false,"rental_uris":{"android":"levelo://app?vid=ea54fe9b-16ba-49f0-a87a-8b72b3a0b661","ios":"levelo://app?vid=ea54fe9b-16ba-49f0-a87a-8b72b3a0b661"},"vehicle_type_id":"4","last_reported":1758046508,"current_range_meters":14800,"station_id":"ce4bhah2rcd13ifvqei0","pricing_plan_id":"cebpf4jnsgd1na2vs0mg"},{"bike_id":"c8298fe6-8a38-4cbe-8fc1-5b4bd0e2bb06","system_id":"levelo_inurba_marseille","lat":43.22931,"lon":5.35381,"is_reserved":false,"is_disabled":false,"rental_uris":{"android":"levelo://app?vid=c8298fe6-8a38-4cbe-8fc1-5b4bd0e2bb06","ios":"levelo://app?vid=c8298fe6-8a38-4cbe-8fc1-5b4bd0e2bb06"},"vehicle_type_id":"4","last_reported":1758046508,"current_range_meters":14800,"station_id":"cpo3532slgdg3j2ikp40","pricing_plan_id":"cebpf4jnsgd1na2vs0mg"},{"bike_id":"d94aaf98-8dc2-4a4d-89ac-d00c33e02c2e","system_id":"levelo_inurba_marseille","lat":43.27991,"lon":5.40032,"is_reserved":false,"is_disabled":false,"rental_uris":{"android":"levelo://app?vid=d94aaf98-8dc2-4a4d-89ac-d00c33e02c2e","ios":"levelo://app?vid=d94aaf98-8dc2-4a4d-89ac-d00c33e02c2e"},"vehicle_type_id":"4","last_reported":1758046508,"current_range_meters":14800,"station_id":"ce4bho92rcd13ifvqh4g","pricing_plan_id":"cebpf4jnsgd1na2vs0mg"},{"bike_id":"003515e8-8117-44bb-979d-5f47e8d50fda","system_id":"levelo_inurba_marseille","lat":43.30655,"lon":5.37553,"is_reserved":false,"is_disabled":false,"rental_uris":{"android":"levelo://app?vid=003515e8-8117-44bb-979d-5f47e8d50fda","ios":"levelo://app?vid=003515e8-8117-44bb-979d-5f47e8d50fda"},"vehicle_type_id":"4","last_reported":1758046508,"current_range_meters":15200,"station_id":"","pricing_plan_id":"cebpf4jnsgd1na2vs0mg"},{"bike_id":"3e6dcf0e-e809-4660-b021-f53fdf32ec6d","system_id":"levelo_inurba_marseille","lat":43.2808,"lon":5.3967,"is_reserved":false,"is_disabled":false,"rental_uris":{"android":"levelo://app?vid=3e6dcf0e-e809-4660-b021-f53fdf32ec6d","ios":"levelo://app?vid=3e6dcf0e-e809-4660-b021-f53fdf32ec6d"},"vehicle_type_id":"4","last_reported":1758046508,"current_range_meters":15200,"station_id":"ce4bho12rcd13ifvqh2g","pricing_plan_id":"cebpf4jnsgd1na2vs0mg"},{"bike_id":"0009dde9-09ac-458e-ba13-96b5300bb6f8","system_id":"levelo_inurba_marseille","lat":43.2953,"lon":5.38546,"is_reserved":false,"is_disabled":false,"rental_uris":{"android":"levelo://app?vid=0009dde9-09ac-458e-ba13-96b5300bb6f8","ios":"levelo://app?vid=0009dde9-09ac-458e-ba13-96b5300bb6f8"},"vehicle_type_id":"4","last_reported":1758046508,"current_range_meters":15200,"station_id":"ce4bgih2rcd13ifvqba0","pricing_plan_id":"cebpf4jnsgd1na2vs0mg"},{"bike_id":"fa0101a6-81bb-41ae-a00d-687838a548e6","system_id":"levelo_inurba_marseille","lat":43.30326,"lon":5.40435,"is_reserved":false,"is_disabled":false,"rental_uris":{"android":"levelo://app?vid=fa0101a6-81bb-41ae-a00d-687838a548e6","ios":"levelo://app?vid=fa0101a6-81bb-41ae-a00d-687838a548e6"},"vehicle_type_id":"4","last_reported":1758046508,"current_range_meters":15200,"station_id":"ce4bh012rcd13ifvqd10","pricing_plan_id":"cebpf4jnsgd1na2vs0mg"},{"bike_id":"64b1deee-ef02-45e9-a66a-3e5e20b8d612","system_id":"levelo_inurba_marseille","lat":43.299284,"lon":5.385203,"is_reserved":false,"is_disabled":false,"rental_uris":{"android":"levelo://app?vid=64b1deee-ef02-45e9-a66a-3e5e20b8d612","ios":"levelo://app?vid=64b1deee-ef02-45e9-a66a-3e5e20b8d612"},"vehicle_type_id":"4","last_reported":1758046508,"current_range_meters":15200,"station_id":"ce4bgop2rcd13ifvqc1g","pricing_plan_id":"cebpf4jnsgd1na2vs0mg"},{"bike_id":"96644ae3-2807-4f95-a981-fef4ac2b0e69","system_id":"levelo_inurba_marseille","lat":43.225329,"lon":5.34835,"is_reserved":false,"is_disabled":false,"rental_uris":{"android":"levelo://app?vid=96644ae3-2807-4f95-a981-fef4ac2b0e69","ios":"levelo://app?vid=96644ae3-2807-4f95-a981-fef4ac2b0e69"},"vehicle_type_id":"4","last_reported":1758046508,"current_range_meters":15200,"station_id":"","pricing_plan_id":"cebpf4jnsgd1na2vs0mg"},{"bike_id":"87e554fc-093f-4e8b-b809-5e85eb5ec243","system_id":"levelo_inurba_marseille","lat":43.32543,"lon":5.41439,"is_reserved":false,"is_disabled":false,"rental_uris":{"android":"levelo://app?vid=87e554fc-093f-4e8b-b809-5e85eb5ec243","ios":"levelo://app?vid=87e554fc-093f-4e8b-b809-5e85eb5ec243"},"vehicle_type_id":"4","last_reported":1758046508,"current_range_meters":14800,"station_id":"ce4bhq12rcd13ifvqhhg","pricing_plan_id":"cebpf4jnsgd1na2vs0mg"},{"bike_id":"fc46d99b-b869-4584-ba76-47221d73ac25","system_id":"levelo_inurba_marseille","lat":43.29517,"lon":5.390396,"is_reserved":false,"is_disabled":false,"rental_uris":{"android":"levelo://app?vid=fc46d99b-b869-4584-ba76-47221d73ac25","ios":"levelo://app?vid=fc46d99b-b869-4584-ba76-47221d73ac25"},"vehicle_type_id":"4","last_reported":1758046508,"current_range_meters":15200,"station_id":"ce4bh3p2rcd13ifvqdp0","pricing_plan_id":"cebpf4jnsgd1na2vs0mg"},{"bike_id":"35d9a039-4a5e-4708-afff-12e5b8c669aa","system_id":"levelo_inurba_marseille","lat":43.29513,"lon":5.39041,"is_reserved":false,"is_disabled":false,"rental_uris":{"android":"levelo://app?vid=35d9a039-4a5e-4708-afff-12e5b8c669aa","ios":"levelo://app?vid=35d9a039-4a5e-4708-afff-12e5b8c669aa"},"vehicle_type_id":"4","last_reported":1758046508,"current_range_meters":15200,"station_id":"ce4bh3p2rcd13ifvqdp0","pricing_plan_id":"cebpf4jnsgd1na2vs0mg"},{"bike_id":"c949b529-b2bf-49ad-be90-c483afd3bde0","system_id":"levelo_inurba_marseille","lat":43.29554,"lon":5.42296,"is_reserved":false,"is_disabled":false,"rental_uris":{"android":"levelo://app?vid=c949b529-b2bf-49ad-be90-c483afd3bde0","ios":"levelo://app?vid=c949b529-b2bf-49ad-be90-c483afd3bde0"},