{"last_updated":1743337019,"ttl":60,"version":"2.2","data":{"bikes":[{"bike_id":"0f9fc322-7a0f-4e30-9d4f-f42e9d546b3b","system_id":"levelo_inurba_marseille","lat":43.30545,"lon":5.3845,"is_reserved":false,"is_disabled":true,"rental_uris":{"android":"levelo://app?vid=0f9fc322-7a0f-4e30-9d4f-f42e9d546b3b","ios":"levelo://app?vid=0f9fc322-7a0f-4e30-9d4f-f42e9d546b3b"},"vehicle_type_id":"4","last_reported":1743337020,"current_range_meters":2800,"station_id":"ce4bgg92rcd13ifvqb30","pricing_plan_id":"cebpf4jnsgd1na2vs0mg"},{"bike_id":"9fbb75a2-3815-4f16-a74e-6ce2ded95fb7","system_id":"levelo_inurba_marseille","lat":43.29541,"lon":5.390312,"is_reserved":false,"is_disabled":false,"rental_uris":{"android":"levelo://app?vid=9fbb75a2-3815-4f16-a74e-6ce2ded95fb7","ios":"levelo://app?vid=9fbb75a2-3815-4f16-a74e-6ce2ded95fb7"},"vehicle_type_id":"4","last_reported":1743337020,"current_range_meters":2000,"station_id":"ce4bh3p2rcd13ifvqdp0","pricing_plan_id":"cebpf4jnsgd1na2vs0mg"},{"bike_id":"0029366a-1e92-4383-84ab-7f14f468be60","system_id":"levelo_inurba_marseille","lat":43.301476,"lon":5.380772,"is_reserved":false,"is_disabled":false,"rental_uris":{"android":"levelo://app?vid=0029366a-1e92-4383-84ab-7f14f468be60","ios":"levelo://app?vid=0029366a-1e92-4383-84ab-7f14f468be60"},"vehicle_type_id":"4","last_reported":1743337020,"current_range_meters":2800,"station_id":"ce4bgip2rcd13ifvqbb0","pricing_plan_id":"cebpf4jnsgd1na2vs0mg"},{"bike_id":"6dd02f85-6cf6-46d2-9894-d0d58ed0d569","system_id":"levelo_inurba_marseille","lat":43.30743,"lon":5.42441,"is_reserved":false,"is_disabled":false,"rental_uris":{"android":"levelo://app?vid=6dd02f85-6cf6-46d2-9894-d0d58ed0d569","ios":"levelo://app?vid=6dd02f85-6cf6-46d2-9894-d0d58ed0d569"},"vehicle_type_id":"4","last_reported":1743337020,"current_range_meters":3200,"station_id":"st_cvj6ca6bvosntc0bfgr0","pricing_plan_id":"cebpf4jnsgd1na2vs0mg"},{"bike_id":"6df043e1-a42e-4580-9ca0-8f52f737a714","system_id":"levelo_inurba_marseille","lat":43.29534,"lon":5.42307,"is_reserved":false,"is_disabled":false,"rental_uris":{"android":"levelo://app?vid=6df043e1-a42e-4580-9ca0-8f52f737a714","ios":"levelo://app?vid=6df043e1-a42e-4580-9ca0-8f52f737a714"},"vehicle_type_id":"4","last_reported":1743337020,"current_range_meters":3200,"station_id":"ce4bhph2rcd13ifvqhdg","pricing_plan_id":"cebpf4jnsgd1na2vs0mg"},{"bike_id":"4777850e-a840-44f2-a6a5-fd44a1ac41d3","system_id":"levelo_inurba_marseille","lat":43.28726,"lon":5.39991,"is_reserved":false,"is_disabled":true,"rental_uris":{"android":"levelo://app?vid=4777850e-a840-44f2-a6a5-fd44a1ac41d3","ios":"levelo://app?vid=4777850e-a840-44f2-a6a5-fd44a1ac41d3"},"vehicle_type_id":"4","last_reported":1743337020,"current_range_meters":3600,"station_id":"ce4bho92rcd13ifvqh3g","pricing_plan_id":"cebpf4jnsgd1na2vs0mg"},{"bike_id":"694ecf0d-940b-44d2-b2a6-9328c262d993","system_id":"levelo_inurba_marseille","lat":43.29876,"lon":5.39726,"is_reserved":false,"is_disabled":false,"rental_uris":{"android":"levelo://app?vid=694ecf0d-940b-44d2-b2a6-9328c262d993","ios":"levelo://app?vid=694ecf0d-940b-44d2-b2a6-9328c262d993"},"vehicle_type_id":"4","last_reported":1743337020,"current_range_meters":3200,"station_id":"ce4bh0h2rcd13ifvqd50","pricing_plan_id":"cebpf4jnsgd1na2vs0mg"},{"bike_id":"5f785215-579c-4491-b39e-482dd6fe9c93","system_id":"levelo_inurba_marseille","lat":43.28257,"lon":5.35072,"is_reserved":false,"is_disabled":false,"rental_uris":{"android":"levelo://app?vid=5f785215-579c-4491-b39e-482dd6fe9c93","ios":"levelo://app?vid=5f785215-579c-4491-b39e-482dd6fe9c93"},"vehicle_type_id":"4","last_reported":1743337020,"current_range_meters":3600,"station_id":"ce4bhbp2rcd13ifvqerg","pricing_plan_id":"cebpf4jnsgd1na2vs0mg"},{"bike_id":"6d496d32-d32a-4ba2-abaf-7b20bc675b06","system_id":"levelo_inurba_marseille","lat":43.28247,"lon":5.35096,"is_reserved":false,"is_disabled":false,"rental_uris":{"android":"levelo://app?vid=6d496d32-d32a-4ba2-abaf-7b20bc675b06","ios":"levelo://app?vid=6d496d32-d32a-4ba2-abaf-7b20bc675b06"},"vehicle_type_id":"4","last_reported":1743337020,"current_range_meters":3600,"station_id":"ce4bgl92rcd13ifvqbq0","pricing_plan_id":"cebpf4jnsgd1na2vs0mg"},{"bike_id":"7ebab981-1ab2-4b80-8d52-de2bbd6b9bca","system_id":"levelo_inurba_marseille","lat":43.274275,"lon":5.394043,"is_reserved":false,"is_disabled":false,"rental_uris":{"android":"levelo://app?vid=7ebab981-1ab2-4b80-8d52-de2bbd6b9bca","ios":"levelo://app?vid=7ebab981-1ab2-4b80-8d52-de2bbd6b9bca"},"vehicle_type_id":"4","last_reported":1743337020,"current_range_meters":3600,"station_id":"ce4bhdp2rcd13ifvqf20","pricing_plan_id":"cebpf4jnsgd1na2vs0mg"},{"bike_id":"4b4bc013-45fe-458e-bfd7-70a8c40ae593","system_id":"levelo_inurba_marseille","lat":43.25587,"lon":5.38226,"is_reserved":false,"is_disabled":false,"rental_uris":{"android":"levelo://app?vid=4b4bc013-45fe-458e-bfd7-70a8c40ae593","ios":"levelo://app?vid=4b4bc013-45fe-458e-bfd7-70a8c40ae593"},"vehicle_type_id":"4","last_reported":1743337020,"current_range_meters":4000,"station_id":"ce4bhih2rcd13ifvqfs0","pricing_plan_id":"cebpf4jnsgd1na2vs0mg"},{"bike_id":"1d012e38-6b6a-4dae-95ee-49d69d031d60","system_id":"levelo_inurba_marseille","lat":43.28341,"lon":5.38115,"is_reserved":false,"is_disabled":false,"rental_uris":{"android":"levelo://app?vid=1d012e38-6b6a-4dae-95ee-49d69d031d60","ios":"levelo://app?vid=1d012e38-6b6a-4dae-95ee-49d69d031d60"},"vehicle_type_id":"4","last_reported":1743337020,"current_range_meters":4400,"station_id":"ce4bh412rcd13ifvqdr0","pricing_plan_id":"cebpf4jnsgd1na2vs0mg"},{"bike_id":"053a1751-6e8f-4df5-a016-bc76b6596f09","system_id":"levelo_inurba_marseille","lat":43.29002,"lon":5.3561,"is_reserved":false,"is_disabled":false,"rental_uris":{"android":"levelo://app?vid=053a1751-6e8f-4df5-a016-bc76b6596f09","ios":"levelo://app?vid=053a1751-6e8f-4df5-a016-bc76b6596f09"},"vehicle_type_id":"4","last_reported":1743337020,"current_range_meters":4400,"station_id":"ce4bhb92rcd13ifvqen0","pricing_plan_id":"cebpf4jnsgd1na2vs0mg"},{"bike_id":"192b19a4-e7da-44ed-a74a-1f1df68ac5b0","system_id":"levelo_inurba_marseille","lat":43.240784,"lon":5.377525,"is_reserved":false,"is_disabled":false,"rental_uris":{"android":"levelo://app?vid=192b19a4-e7da-44ed-a74a-1f1df68ac5b0","ios":"levelo://app?vid=192b19a4-e7da-44ed-a74a-1f1df68ac5b0"},"vehicle_type_id":"4","last_reported":1743337020,"current_range_meters":4400,"station_id":"ce4bhnp2rcd13ifvqgvg","pricing_plan_id":"cebpf4jnsgd1na2vs0mg"},{"bike_id":"f027ede6-588d-494f-bd15-5e67a86872b8","system_id":"levelo_inurba_marseille","lat":43.29577,"lon":5.37528,"is_reserved":false,"is_disabled":false,"rental_uris":{"android":"levelo://app?vid=f027ede6-588d-494f-bd15-5e67a86872b8","ios":"levelo://app?vid=f027ede6-588d-494f-bd15-5e67a86872b8"},"vehicle_type_id":"4","last_reported":1743337020,"current_range_meters":4400,"station_id":"ce4bgh92rcd13ifvqb50","pricing_plan_id":"cebpf4jnsgd1na2vs0mg"},{"bike_id":"8d6abdef-27aa-4d1b-9448-656a6296f19d","system_id":"levelo_inurba_marseille","lat":43.24182,"lon":5.39724,"is_reserved":false,"is_disabled":false,"rental_uris":{"android":"levelo://app?vid=8d6abdef-27aa-4d1b-9448-656a6296f19d","ios":"levelo://app?vid=8d6abdef-27aa-4d1b-9448-656a6296f19d"},"vehicle_type_id":"4","last_reported":1743337020,"current_range_meters":4800,"station_id":"ce4bhn12rcd13ifvqgpg","pricing_plan_id":"cebpf4jnsgd1na2vs0mg"},{"bike_id":"301b8a6c-9abc-42e4-bb4c-a8290fc7fec1","system_id":"levelo_inurba_marseille","lat":43.2737,"lon":5.36259,"is_reserved":false,"is_disabled":false,"rental_uris":{"android":"levelo://app?vid=301b8a6c-9abc-42e4-bb4c-a8290fc7fec1","ios":"levelo://app?vid=301b8a6c-9abc-42e4-bb4c-a8290fc7fec1"},"vehicle_type_id":"4","last_reported":1743337020,"current_range_meters":4800,"station_id":"ce4bhbh2rcd13ifvqeo0","pricing_plan_id":"cebpf4jnsgd1na2vs0mg"},{"bike_id":"eab2ea87-9cfc-48c2-807e-76a137933d7f","system_id":"levelo_inurba_marseille","lat":43.2827,"lon":5.35056,"is_reserved":false,"is_disabled":false,"rental_uris":{"android":"levelo://app?vid=eab2ea87-9cfc-48c2-807e-76a137933d7f","ios":"levelo://app?vid=eab2ea87-9cfc-48c2-807e-76a137933d7f"},"vehicle_type_id":"4","last_reported":1743337020,"current_range_meters":4800,"station_id":"ce4bhbp2rcd13ifvqerg","pricing_plan_id":"cebpf4jnsgd1na2vs0mg"},{"bike_id":"5fa76be9-4f44-42b2-9369-ca86f6bbce5c","system_id":"levelo_inurba_marseille","lat":43.26553,"lon":5.37285,"is_reserved":false,"is_disabled":true,"rental_uris":{"android":"levelo://app?vid=5fa76be9-4f44-42b2-9369-ca86f6bbce5c","ios":"levelo://app?vid=5fa76be9-4f44-42b2-9369-ca86f6bbce5c"},"vehicle_type_id":"4","last_reported":1743337020,"current_range_meters":5600,"station_id":"ce4bhg12rcd13ifvqf70","pricing_plan_id":"cebpf4jnsgd1na2vs0mg"},{"bike_id":"4af09068-d328-4feb-b28c-c0b8d78ef79a","system_id":"levelo_inurba_marseille","lat":43.28263,"lon":5.35075,"is_reserved":false,"is_disabled":false,"rental_uris":{"android":"levelo://app?vid=4af09068-d328-4feb-b28c-c0b8d78ef79a","ios":"levelo://app?vid=4af09068-d328-4feb-b28c-c0b8d78ef79a"},"vehicle_type_id":"4","last_reported":1743337020,"current_range_meters":5600,"station_id":"ce4bhbp2rcd13ifvqerg","pricing_plan_id":"cebpf4jnsgd1na2vs0mg"},{"bike_id":"ec563b3b-811e-4fe7-aa39-c6cacc505945","system_id":"levelo_inurba_marseille","lat":43.26216,"lon":5.37441,"is_reserved":false,"is_disabled":false,"rental_uris":{"android":"levelo://app?vid=ec563b3b-811e-4fe7-aa39-c6cacc505945","ios":"levelo://app?vid=ec563b3b-811e-4fe7-aa39-c6cacc505945"},"vehicle_type_id":"4","last_reported":1743337020,"current_range_meters":5600,"station_id":"ce4bhgp2rcd13ifvqfc0","pricing_plan_id":"cebpf4jnsgd1na2vs0mg"},{"bike_id":"ade84194-2ff9-4711-9b9d-57f1f78db6f5","system_id":"levelo_inurba_marseille","lat":43.27624,"lon":5.36109,"is_reserved":false,"is_disabled":false,"rental_uris":{"android":"levelo://app?vid=ade84194-2ff9-4711-9b9d-57f1f78db6f5","ios":"levelo://app?vid=ade84194-2ff9-4711-9b9d-57f1f78db6f5"},"vehicle_type_id":"4","last_reported":1743337020,"current_range_meters":5600,"station_id":"ce4bgj92rcd13ifvqbe0","pricing_plan_id":"cebpf4jnsgd1na2vs0mg"},{"bike_id":"65fb0971-3302-4454-8081-ffaf2c48cf97","system_id":"levelo_inurba_marseille","lat":43.2885,"lon":5.39326,"is_reserved":false,"is_disabled":false,"rental_uris":{"android":"levelo://app?vid=65fb0971-3302-4454-8081-ffaf2c48cf97","ios":"levelo://app?vid=65fb0971-3302-4454-8081-ffaf2c48cf97"},"vehicle_type_id":"4","last_reported":1743337020,"current_range_meters":5600,"station_id":"ce4bh2p2rcd13ifvqdi0","pricing_plan_id":"cebpf4jnsgd1na2vs0mg"},{"bike_id":"b5ace6c6-32e3-486d-9744-efb1ce0dfa9d","system_id":"levelo_inurba_marseille","lat":43.28916,"lon":5.3714,"is_reserved":false,"is_disabled":true,"rental_uris":{"android":"levelo://app?vid=b5ace6c6-32e3-486d-9744-efb1ce0dfa9d","ios":"levelo://app?vid=b5ace6c6-32e3-486d-9744-efb1ce0dfa9d"},"vehicle_type_id":"4","last_reported":1743337020,"current_range_meters":5600,"station_id":"","pricing_plan_id":"cebpf4jnsgd1na2vs0mg"},{"bike_id":"f5659934-0cfa-4c63-ba38-a54e32a4a737","system_id":"levelo_inurba_marseille","lat":43.29574,"lon":5.3998,"is_reserved":false,"is_disabled":false,"rental_uris":{"android":"levelo://app?vid=f5659934-0cfa-4c63-ba38-a54e32a4a737","ios":"levelo://app?vid=f5659934-0cfa-4c63-ba38-a54e32a4a737"},"vehicle_type_id":"4","last_reported":1743337020,"current_range_meters":5600,"station_id":"ce4bh312rcd13ifvqdj0","pricing_plan_id":"cebpf4jnsgd1na2vs0mg"},{"bike_id":"de9ba040-94fc-4f6d-862d-a6e1e7cf463e","system_id":"levelo_inurba_marseille","lat":43.26191,"lon":5.37439,"is_reserved":false,"is_disabled":false,"rental_uris":{"android":"levelo://app?vid=de9ba040-94fc-4f6d-862d-a6e1e7cf463e","ios":"levelo://app?vid=de9ba040-94fc-4f6d-862d-a6e1e7cf463e"},"vehicle_type_id":"4","last_reported":1743337020,"current_range_meters":5600,"station_id":"ce4bhgp2rcd13ifvqfc0","pricing_plan_id":"cebpf4jnsgd1na2vs0mg"},{"bike_id":"56990b79-c669-4e46-8097-3003a39a8ebd","system_id":"levelo_inurba_marseille","lat":43.23067,"lon":5.35482,"is_reserved":false,"is_disabled":false,"rental_uris":{"android":"levelo://app?vid=56990b79-c669-4e46-8097-3003a39a8ebd","ios":"levelo://app?vid=56990b79-c669-4e46-8097-3003a39a8ebd"},"vehicle_type_id":"4","last_reported":1743337020,"current_range_meters":6000,"station_id":"cpo3342slgdg3j2ifvpg","pricing_plan_id":"cebpf4jnsgd1na2vs0mg"},{"bike_id":"970d0fb3-ec32-4d9d-8099-816bed18a534","system_id":"levelo_inurba_marseille","lat":43.2396,"lon":5.36631,"is_reserved":false,"is_disabled":false,"rental_uris":{"android":"levelo://app?vid=970d0fb3-ec32-4d9d-8099-816bed18a534","ios":"levelo://app?vid=970d0fb3-ec32-4d9d-8099-816bed18a534"},"vehicle_type_id":"4","last_reported":1743337020,"current_range_meters":6400,"station_id":"ce4bhi12rcd13ifvqfp0","pricing_plan_id":"cebpf4jnsgd1na2vs0mg"},{"bike_id":"b97fab6e-2e78-4719-8eec-4f978ca3d9e4","system_id":"levelo_inurba_marseille","lat":43.23185,"lon":5.35555,"is_reserved":false,"is_disabled":false,"rental_uris":{"android":"levelo://app?vid=b97fab6e-2e78-4719-8eec-4f978ca3d9e4","ios":"levelo://app?vid=b97fab6e-2e78-4719-8eec-4f978ca3d9e4"},"vehicle_type_id":"4","last_reported":1743337020,"current_range_meters":6400,"station_id":"ce4bhu92rcd13ifvqi70","pricing_plan_id":"cebpf4jnsgd1na2vs0mg"},{"bike_id":"a8f12cba-7d09-4019-a5cf-d3c1d90cb616","system_id":"levelo_inurba_marseille","lat":43.28259,"lon":5.35068,"is_reserved":false,"is_disabled":false,"rental_uris":{"android":"levelo://app?vid=a8f12cba-7d09-4019-a5cf-d3c1d90cb616","ios":"levelo://app?vid=a8f12cba-7d09-4019-a5cf-d3c1d90cb616"},"vehicle_type_id":"4","last_reported":1743337020,"current_range_meters":6400,"station_id":"ce4bhbp2rcd13ifvqerg","pricing_plan_id":"cebpf4jnsgd1na2vs0mg"},{"bike_id":"80507833-57fc-4199-a0f8-32eca269665b","system_id":"levelo_inurba_marseille","lat":43.2418,"lon":5.36382,"is_reserved":false,"is_disabled":false,"rental_uris":{"android":"levelo://app?vid=80507833-57fc-4199-a0f8-32eca269665b","ios":"levelo://app?vid=80507833-57fc-4199-a0f8-32eca269665b"},"vehicle_type_id":"4","last_reported":1743337020,"current_range_meters":6400,"station_id":"cpo36qri1sfpv3e86is0","pricing_plan_id":"cebpf4jnsgd1na2vs0mg"},{"bike_id":"4b2323ae-94b8-41f7-9062-4d9bd4bd549e","system_id":"levelo_inurba_marseille","lat":43.24175,"lon":5.36398,"is_reserved":false,"is_disabled":false,"rental_uris":{"android":"levelo://app?vid=4b2323ae-94b8-41f7-9062-4d9bd4bd549e","ios":"levelo://app?vid=4b2323ae-94b8-41f7-9062-4d9bd4bd549e"},"vehicle_type_id":"4","last_reported":1743337020,"current_range_meters":6400,"station_id":"cpo36qri1sfpv3e86is0","pricing_plan_id":"cebpf4jnsgd1na2vs0mg"},{"bike_id":"a36a9ec1-537e-4091-9d7a-dd0444d14e10","system_id":"levelo_inurba_marseille","lat":43.24829,"lon":5.37466,"is_reserved":false,"is_disabled":false,"rental_uris":{"android":"levelo://app?vid=a36a9ec1-537e-4091-9d7a-dd0444d14e10","ios":"levelo://app?vid=a36a9ec1-537e-4091-9d7a-dd0444d14e10"},"vehicle_type_id":"4","last_reported":1743337020,"current_range_meters":6400,"station_id":"ce4bhgh2rcd13ifvqfb0","pricing_plan_id":"cebpf4jnsgd1na2vs0mg"},{"bike_id":"e6c775cf-9b9d-4b0b-8c23-2f7713ffcf70","system_id":"levelo_inurba_marseille","lat":43.22933,"lon":5.35369,"is_reserved":false,"is_disabled":false,"rental_uris":{"android":"levelo://app?vid=e6c775cf-9b9d-4b0b-8c23-2f7713ffcf70","ios":"levelo://app?vid=e6c775cf-9b9d-4b0b-8c23-2f7713ffcf70"},"vehicle_type_id":"4","last_reported":1743337020,"current_range_meters":6400,"station_id":"cpo3532slgdg3j2ikp40","pricing_plan_id":"cebpf4jnsgd1na2vs0mg"},{"bike_id":"f8ed3009-6d31-4d12-af28-58d547d38689","system_id":"levelo_inurba_marseille","lat":43.23967,"lon":5.36621,"is_reserved":false,"is_disabled":false,"rental_uris":{"android":"levelo://app?vid=f8ed3009-6d31-4d12-af28-58d547d38689","ios":"levelo://app?vid=f8ed3009-6d31-4d12-af28-58d547d38689"},"vehicle_type_id":"4","last_reported":1743337020,"current_range_meters":6400,"station_id":"ce4bhi12rcd13ifvqfp0","pricing_plan_id":"cebpf4jnsgd1na2vs0mg"},{"bike_id":"4586e23a-2d77-446c-8e8c-a15b6ae5de02","system_id":"levelo_inurba_marseille","lat":43.285916,"lon":5.381264,"is_reserved":false,"is_disabled":false,"rental_uris":{"android":"levelo://app?vid=4586e23a-2d77-446c-8e8c-a15b6ae5de02","ios":"levelo://app?vid=4586e23a-2d77-446c-8e8c-a15b6ae5de02"},"vehicle_type_id":"4","last_reported":1743337020,"current_range_meters":6400,"station_id":"","pricing_plan_id":"cebpf4jnsgd1na2vs0mg"},{"bike_id":"1a8ec8fe-cd0f-44f4-9a76-dfc354a60ccc","system_id":"levelo_inurba_marseille","lat":43.23964,"lon":5.36625,"is_reserved":false,"is_disabled":false,"rental_uris":{"android":"levelo://app?vid=1a8ec8fe-cd0f-44f4-9a76-dfc354a60ccc","ios":"levelo://app?vid=1a8ec8fe-cd0f-44f4-9a76-dfc354a60ccc"},"vehicle_type_id":"4","last_reported":1743337020,"current_range_meters":6400,"station_id":"ce4bhi12rcd13ifvqfp0","pricing_plan_id":"cebpf4jnsgd1na2vs0mg"},{"bike_id":"0ed0e3be-c7c9-4491-9ef7-0de29b7f0de1","system_id":"levelo_inurba_marseille","lat":43.28419,"lon":5.34993,"is_reserved":false,"is_disabled":false,"rental_uris":{"android":"levelo://app?vid=0ed0e3be-c7c9-4491-9ef7-0de29b7f0de1","ios":"levelo://app?vid=0ed0e3be-c7c9-4491-9ef7-0de29b7f0de1"},"vehicle_type_id":"4","last_reported":1743337020,"current_range_meters":6400,"station_id":"ce4bhbh2rcd13ifvqepg","pricing_plan_id":"cebpf4jnsgd1na2vs0mg"},{"bike_id":"dd1b8e21-8e3c-4d6b-beb7-1f22d10826f3","system_id":"levelo_inurba_marseille","lat":43.23058,"lon":5.35488,"is_reserved":false,"is_disabled":false,"rental_uris":{"android":"levelo://app?vid=dd1b8e21-8e3c-4d6b-beb7-1f22d10826f3","ios":"levelo://app?vid=dd1b8e21-8e3c-4d6b-beb7-1f22d10826f3"},"vehicle_type_id":"4","last_reported":1743337020,"current_range_meters":6400,"station_id":"cpo3342slgdg3j2ifvpg","pricing_plan_id":"cebpf4jnsgd1na2vs0mg"},{"bike_id":"96fa1290-e699-40b9-9109-379d3b77c6fb","system_id":"levelo_inurba_marseille","lat":43.33729,"lon":5.39183,"is_reserved":false,"is_disabled":false,"rental_uris":{"android":"levelo://app?vid=96fa1290-e699-40b9-9109-379d3b77c6fb","ios":"levelo://app?vid=96fa1290-e699-40b9-9109-379d3b77c6fb"},"vehicle_type_id":"4","last_reported":1743337020,"current_range_meters":6800,"station_id":"ce4bhr92rcd13ifvqhsg","pricing_plan_id":"cebpf4jnsgd1na2vs0mg"},{"bike_id":"c5931118-f264-4e39-b95f-4204a0a55c50","system_id":"levelo_inurba_marseille","lat":43.31234,"lon":5.36859,"is_reserved":false,"is_disabled":false,"rental_uris":{"android":"levelo://app?vid=c5931118-f264-4e39-b95f-4204a0a55c50","ios":"levelo://app?vid=c5931118-f264-4e39-b95f-4204a0a55c50"},"vehicle_type_id":"4","last_reported":1743337020,"current_range_meters":6800,"station_id":"ce4bgl92rcd13ifvqbq0","pricing_plan_id":"cebpf4jnsgd1na2vs0mg"},{"bike_id":"fb981524-1182-435b-8980-1d228a17f796","system_id":"levelo_inurba_marseille","lat":43.284498,"lon":5.358546,"is_reserved":false,"is_disabled":false,"rental_uris":{"android":"levelo://app?vid=fb981524-1182-435b-8980-1d228a17f796","ios":"levelo://app?vid=fb981524-1182-435b-8980-1d228a17f796"},"vehicle_type_id":"4","last_reported":1743337020,"current_range_meters":6800,"station_id":"ce4bh5p2rcd13ifvqe4g","pricing_plan_id":"cebpf4jnsgd1na2vs0mg"},{"bike_id":"c1a8b4cf-3555-4d61-9246-5d1573893c0f","system_id":"levelo_inurba_marseille","lat":43.24393,"lon":5.3706,"is_reserved":false,"is_disabled":false,"rental_uris":{"android":"levelo://app?vid=c1a8b4cf-3555-4d61-9246-5d1573893c0f","ios":"levelo://app?vid=c1a8b4cf-3555-4d61-9246-5d1573893c0f"},"vehicle_type_id":"4","last_reported":1743337020,"current_range_meters":6800,"station_id":"ce4bhhh2rcd13ifvqfk0","pricing_plan_id":"cebpf4jnsgd1na2vs0mg"},{"bike_id":"73ea5bca-5825-49bb-86da-5230b79310e1","system_id":"levelo_inurba_marseille","lat":43.23064,"lon":5.35492,"is_reserved":false,"is_disabled":false,"rental_uris":{"android":"levelo://app?vid=73ea5bca-5825-49bb-86da-5230b79310e1","ios":"levelo://app?vid=73ea5bca-5825-49bb-86da-5230b79310e1"},"vehicle_type_id":"4","last_reported":1743337020,"current_range_meters":6800,"station_id":"cpo3342slgdg3j2ifvpg","pricing_plan_id":"cebpf4jnsgd1na2vs0mg"},{"bike_id":"60e9a1aa-cb58-4cb7-a0ea-789a28edc9ac","system_id":"levelo_inurba_marseille","lat":43.23186,"lon":5.399897,"is_reserved":false,"is_disabled":false,"rental_uris":{"android":"levelo://app?vid=60e9a1aa-cb58-4cb7-a0ea-789a28edc9ac","ios":"levelo://app?vid=60e9a1aa-cb58-4cb7-a0ea-789a28edc9ac"},"vehicle_type_id":"4","last_reported":1743337020,"current_range_meters":7200,"station_id":"ce4bhn12rcd13ifvqgqg","pricing_plan_id":"cebpf4jnsgd1na2vs0mg"},{"bike_id":"7171f9be-2ef3-4384-bfe9-6e9f928037df","system_id":"levelo_inurba_marseille","lat":43.25818,"lon":5.39433,"is_reserved":false,"is_disabled":false,"rental_uris":{"android":"levelo://app?vid=7171f9be-2ef3-4384-bfe9-6e9f928037df","ios":"levelo://app?vid=7171f9be-2ef3-4384-bfe9-6e9f928037df"},"vehicle_type_id":"4","last_reported":1743337020,"current_range_meters":7200,"station_id":"ce4bhip2rcd13ifvqft0","pricing_plan_id":"cebpf4jnsgd1na2vs0mg"},{"bike_id":"b8020094-2a89-4b2b-8089-3dd9c32b14bb","system_id":"levelo_inurba_marseille","lat":43.289354,"lon":5.383936,"is_reserved":false,"is_disabled":false,"rental_uris":{"android":"levelo://app?vid=b8020094-2a89-4b2b-8089-3dd9c32b14bb","ios":"levelo://app?vid=b8020094-2a89-4b2b-8089-3dd9c32b14bb"},"vehicle_type_id":"4","last_reported":1743337020,"current_range_meters":7200,"station_id":"ce4bh612rcd13ifvqe6g","pricing_plan_id":"cebpf4jnsgd1na2vs0mg"},{"bike_id":"9904e6e0-f7fa-453a-a9b5-ffdc0c28c0dd","system_id":"levelo_inurba_marseille","lat":43.28413,"lon":5.34983,"is_reserved":false,"is_disabled":false,"rental_uris":{"android":"levelo://app?vid=9904e6e0-f7fa-453a-a9b5-ffdc0c28c0dd","ios":"levelo://app?vid=9904e6e0-f7fa-453a-a9b5-ffdc0c28c0dd"},"vehicle_type_id":"4","last_reported":1743337020,"current_range_meters":7200,"station_id":"ce4bhbh2rcd13ifvqepg","pricing_plan_id":"cebpf4jnsgd1na2vs0mg"},{"bike_id":"a2891cc1-74ac-4bb3-ac89-3d4a61a76871","system_id":"levelo_inurba_marseille","lat":43.23973,"lon":5.36612,"is_reserved":false,"is_disabled":false,"rental_uris":{"android":"levelo://app?vid=a2891cc1-74ac-4bb3-ac89-3d4a61a76871","ios":"levelo://app?vid=a2891cc1-74ac-4bb3-ac89-3d4a61a76871"},"vehicle_type_id":"4","last_reported":1743337020,"current_range_meters":7200,"station_id":"ce4bhi12rcd13ifvqfp0","pricing_plan_id":"cebpf4jnsgd1na2vs0mg"},{"bike_id":"7cec2169-18e5-43fb-9d87-af464085062d","system_id":"levelo_inurba_marseille","lat":43.29897,"lon":5.43654,"is_reserved":false,"is_disabled":false,"rental_uris":{"android":"levelo://app?vid=7cec2169-18e5-43fb-9d87-af464085062d","ios":"levelo://app?vid=7cec2169-18e5-43fb-9d87-af464085062d"},"vehicle_type_id":"4","last_reported":1743337020,"current_range_meters":7200,"station_id":"ce4bhpp2rcd13ifvqhfg","pricing_plan_id":"cebpf4jnsgd1na2vs0mg"},{"bike_id":"98516b52-0c86-4ec8-ab10-f5d356e72850","system_id":"levelo_inurba_marseille","lat":43.26215,"lon":5.3744,"is_reserved":false,"is_disabled":false,"rental_uris":{"android":"levelo://app?vid=98516b52-0c86-4ec8-ab10-f5d356e72850","ios":"levelo://app?vid=98516b52-0c86-4ec8-ab10-f5d356e72850"},"vehicle_type_id":"4","last_reported":1743337020,"current_range_meters":7200,"station_id":"ce4bhgp2rcd13ifvqfc0","pricing_plan_id":"cebpf4jnsgd1na2vs0mg"},{"bike_id":"2bfdbabe-dcfc-4df8-b12b-1e50e0eba604","system_id":"levelo_inurba_marseille","lat":43.34153,"lon":5.40909,"is_reserved":false,"is_disabled":false,"rental_uris":{"android":"levelo://app?vid=2bfdbabe-dcfc-4df8-b12b-1e50e0eba604","ios":"levelo://app?vid=2bfdbabe-dcfc-4df8-b12b-1e50e0eba604"},"vehicle_type_id":"4","last_reported":1743337020,"current_range_meters":7200,"station_id":"ce4bhqh2rcd13ifvqhlg","pricing_plan_id":"cebpf4jnsgd1na2vs0mg"},{"bike_id":"6e878062-015d-486b-9367-1abedb6f3f03","system_id":"levelo_inurba_marseille","lat":43.26203,"lon":5.37916,"is_reserved":false,"is_disabled":false,"rental_uris":{"android":"levelo://app?vid=6e878062-015d-486b-9367-1abedb6f3f03","ios":"levelo://app?vid=6e878062-015d-486b-9367-1abedb6f3f03"},"vehicle_type_id":"4","last_reported":1743337020,"current_range_meters":7200,"station_id":"ce4bgjh2rcd13ifvqbf0","pricing_plan_id":"cebpf4jnsgd1na2vs0mg"},{"bike_id":"78e2aab6-2ac8-482c-8828-555f8a5eab76","system_id":"levelo_inurba_marseille","lat":43.29856,"lon":5.36286,"is_reserved":false,"is_disabled":true,"rental_uris":{"android":"levelo://app?vid=78e2aab6-2ac8-482c-8828-555f8a5eab76","ios":"levelo://app?vid=78e2aab6-2ac8-482c-8828-555f8a5eab76"},"vehicle_type_id":"4","last_reported":1743337020,"current_range_meters":7200,"station_id":"ce4bgpp2rcd13ifvqc3g","pricing_plan_id":"cebpf4jnsgd1na2vs0mg"},{"bike_id":"5a3307a6-54ca-44bc-a5fd-ab80751e6464","system_id":"levelo_inurba_marseille","lat":43.231919,"lon":5.399976,"is_reserved":false,"is_disabled":true,"rental_uris":{"android":"levelo://app?vid=5a3307a6-54ca-44bc-a5fd-ab80751e6464","ios":"levelo://app?vid=5a3307a6-54ca-44bc-a5fd-ab80751e6464"},"vehicle_type_id":"4","last_reported":1743337020,"current_range_meters":7200,"station_id":"ce4bhn12rcd13ifvqgqg","pricing_plan_id":"cebpf4jnsgd1na2vs0mg"},{"bike_id":"3b9e2dbb-dda4-4ed5-8aef-7e67e6437f0d","system_id":"levelo_inurba_marseille","lat":43.33367,"lon":5.4011,"is_reserved":false,"is_disabled":false,"rental_uris":{"android":"levelo://app?vid=3b9e2dbb-dda4-4ed5-8aef-7e67e6437f0d","ios":"levelo://app?vid=3b9e2dbb-dda4-4ed5-8aef-7e67e6437f0d"},"vehicle_type_id":"4","last_reported":1743337020,"current_range_meters":7200,"station_id":"","pricing_plan_id":"cebpf4jnsgd1na2vs0mg"},{"bike_id":"02d90919-559d-4630-a432-1f6893f6e8aa","system_id":"levelo_inurba_marseille","lat":43.31119,"lon":5.37774,"is_reserved":false,"is_disabled":false,"rental_uris":{"android":"levelo://app?vid=02d90919-559d-4630-a432-1f6893f6e8aa","ios":"levelo://app?vid=02d90919-559d-4630-a432-1f6893f6e8aa"},"vehicle_type_id":"4","last_reported":1743337020,"current_range_meters":8000,"station_id":"ce4bgt92rcd13ifvqcg0","pricing_plan_id":"cebpf4jnsgd1na2vs0mg"},{"bike_id":"b2e6e5f9-815c-46ac-bebd-de4e22a8e049","system_id":"levelo_inurba_marseille","lat":43.33216,"lon":5.39548,"is_reserved":false,"is_disabled":false,"rental_uris":{"android":"levelo://app?vid=b2e6e5f9-815c-46ac-bebd-de4e22a8e049","ios":"levelo://app?vid=b2e6e5f9-815c-46ac-bebd-de4e22a8e049"},"vehicle_type_id":"4","last_reported":1743337020,"current_range_meters":8000,"station_id":"","pricing_plan_id":"cebpf4jnsgd1na2vs0mg"},{"bike_id":"b98594d7-8128-4bc2-a9d4-f4c330986c65","system_id":"levelo_inurba_marseille","lat":43.23973,"lon":5.36624,"is_reserved":false,"is_disabled":false,"rental_uris":{"android":"levelo://app?vid=b98594d7-8128-4bc2-a9d4-f4c330986c65","ios":"levelo://app?vid=b98594d7-8128-4bc2-a9d4-f4c330986c65"},"vehicle_type_id":"4","last_reported":1743337020,"current_range_meters":8000,"station_id":"ce4bhi12rcd13ifvqfp0","pricing_plan_id":"cebpf4jnsgd1na2vs0mg"},{"bike_id":"d8829cec-b9f6-4a9e-b125-f4d613388dcf","system_id":"levelo_inurba_marseille","lat":43.28268,"lon":5.35065,"is_reserved":false,"is_disabled":false,"rental_uris":{"android":"levelo://app?vid=d8829cec-b9f6-4a9e-b125-f4d613388dcf","ios":"levelo://app?vid=d8829cec-b9f6-4a9e-b125-f4d613388dcf"},"vehicle_type_id":"4","last_reported":1743337020,"current_range_meters":8000,"station_id":"ce4bhbp2rcd13ifvqerg","pricing_plan_id":"cebpf4jnsgd1na2vs0mg"},{"bike_id":"678afc02-7887-4189-83e7-46e425f91ae8","system_id":"levelo_inurba_marseille","lat":43.232,"lon":5.35548,"is_reserved":false,"is_disabled":false,"rental_uris":{"android":"levelo://app?vid=678afc02-7887-4189-83e7-46e425f91ae8","ios":"levelo://app?vid=678afc02-7887-4189-83e7-46e425f91ae8"},"vehicle_type_id":"4","last_reported":1743337020,"current_range_meters":8000,"station_id":"ce4bhu92rcd13ifvqi70","pricing_plan_id":"cebpf4jnsgd1na2vs0mg"},{"bike_id":"284a1f4d-bf0a-45fc-b4a6-34676ba11dbe","system_id":"levelo_inurba_marseille","lat":43.24174,"lon":5.36395,"is_reserved":false,"is_disabled":false,"rental_uris":{"android":"levelo://app?vid=284a1f4d-bf0a-45fc-b4a6-34676ba11dbe","ios":"levelo://app?vid=284a1f4d-bf0a-45fc-b4a6-34676ba11dbe"},"vehicle_type_id":"4","last_reported":1743337020,"current_range_meters":8000,"station_id":"cpo36qri1sfpv3e86is0","pricing_plan_id":"cebpf4jnsgd1na2vs0mg"},{"bike_id":"8e69e7f9-76b5-4d0a-8b34-45d50fc637f3","system_id":"levelo_inurba_marseille","lat":43.24229,"lon":5.38454,"is_reserved":false,"is_disabled":false,"rental_uris":{"android":"levelo://app?vid=8e69e7f9-76b5-4d0a-8b34-45d50fc637f3","ios":"levelo://app?vid=8e69e7f9-76b5-4d0a-8b34-45d50fc637f3"},"vehicle_type_id":"4","last_reported":1743337020,"current_range_meters":8000,"station_id":"","pricing_plan_id":"cebpf4jnsgd1na2vs0mg"},{"bike_id":"a1b5a514-f0ef-42eb-b1a4-22dd30a86324","system_id":"levelo_inurba_marseille","lat":43.31772,"lon":5.38985,"is_reserved":false,"is_disabled":false,"rental_uris":{"android":"levelo://app?vid=a1b5a514-f0ef-42eb-b1a4-22dd30a86324","ios":"levelo://app?vid=a1b5a514-f0ef-42eb-b1a4-22dd30a86324"},"vehicle_type_id":"4","last_reported":1743337020,"current_range_meters":8000,"station_id":"ce4bhqp2rcd13ifvqhng","pricing_plan_id":"cebpf4jnsgd1na2vs0mg"},{"bike_id":"d0ed36b4-3c5a-4da6-8fb4-955c321dd03a","system_id":"levelo_inurba_marseille","lat":43.27508,"lon":5.4101,"is_reserved":false,"is_disabled":false,"rental_uris":{"android":"levelo://app?vid=d0ed36b4-3c5a-4da6-8fb4-955c321dd03a","ios":"levelo://app?vid=d0ed36b4-3c5a-4da6-8fb4-955c321dd03a"},"vehicle_type_id":"4","last_reported":1743337020,"current_range_meters":8400,"station_id":"","pricing_plan_id":"cebpf4jnsgd1na2vs0mg"},{"bike_id":"1f81a7c0-44a3-4685-aa09-7b02c29fd276","system_id":"levelo_inurba_marseille","lat":43.30534,"lon":5.36716,"is_reserved":false,"is_disabled":false,"rental_uris":{"android":"levelo://app?vid=1f81a7c0-44a3-4685-aa09-7b02c29fd276","ios":"levelo://app?vid=1f81a7c0-44a3-4685-aa09-7b02c29fd276"},"vehicle_type_id":"4","last_reported":1743337020,"current_range_meters":8000,"station_id":"ce4bgrp2rcd13ifvqc9g","pricing_plan_id":"cebpf4jnsgd1na2vs0mg"},{"bike_id":"004ed55f-f985-4268-b523-9ed16ba4ea3b","system_id":"levelo_inurba_marseille","lat":43.29285,"lon":5.36846,"is_reserved":false,"is_disabled":true,"rental_uris":{"android":"levelo://app?vid=004ed55f-f985-4268-b523-9ed16ba4ea3b","ios":"levelo://app?vid=004ed55f-f985-4268-b523-9ed16ba4ea3b"},"vehicle_type_id":"4","last_reported":1743337020,"current_range_meters":8400,"station_id":"ce4bhbp2rcd13ifvqesg","pricing_plan_id":"cebpf4jnsgd1na2vs0mg"},{"bike_id":"92bfecbf-789d-4c73-ae76-0e5a1e2a6e8a","system_id":"levelo_inurba_marseille","lat":43.25661,"lon":5.38263,"is_reserved":false,"is_disabled":false,"rental_uris":{"android":"levelo://app?vid=92bfecbf-789d-4c73-ae76-0e5a1e2a6e8a","ios":"levelo://app?vid=92bfecbf-789d-4c73-ae76-0e5a1e2a6e8a"},"vehicle_type_id":"4","last_reported":1743337020,"current_range_meters":8400,"station_id":"","pricing_plan_id":"cebpf4jnsgd1na2vs0mg"},{"bike_id":"96ac20e8-5840-4579-b371-184ec6253952","system_id":"levelo_inurba_marseille","lat":43.27508,"lon":5.41146,"is_reserved":false,"is_disabled":false,"rental_uris":{"android":"levelo://app?vid=96ac20e8-5840-4579-b371-184ec6253952","ios":"levelo://app?vid=96ac20e8-5840-4579-b371-184ec6253952"},"vehicle_type_id":"4","last_reported":1743337020,"current_range_meters":8400,"station_id":"","pricing_plan_id":"cebpf4jnsgd1na2vs0mg"},{"bike_id":"66562d74-981f-4fea-946f-99846e1a6b22","system_id":"levelo_inurba_marseille","lat":43.23059,"lon":5.35495,"is_reserved":false,"is_disabled":false,"rental_uris":{"android":"levelo://app?vid=66562d74-981f-4fea-946f-99846e1a6b22","ios":"levelo://app?vid=66562d74-981f-4fea-946f-99846e1a6b22"},"vehicle_type_id":"4","last_reported":1743337020,"current_range_meters":8400,"station_id":"cpo3342slgdg3j2ifvpg","pricing_plan_id":"cebpf4jnsgd1na2vs0mg"},{"bike_id":"fd5a39dd-96b5-442c-99c4-5577adc0b24b","system_id":"levelo_inurba_marseille","lat":43.231876,"lon":5.399854,"is_reserved":false,"is_disabled":false,"rental_uris":{"android":"levelo://app?vid=fd5a39dd-96b5-442c-99c4-5577adc0b24b","ios":"levelo://app?vid=fd5a39dd-96b5-442c-99c4-5577adc0b24b"},"vehicle_type_id":"4","last_reported":1743337020,"current_range_meters":8400,"station_id":"ce4bhn12rcd13ifvqgqg","pricing_plan_id":"cebpf4jnsgd1na2vs0mg"},{"bike_id":"747d2bc2-6706-42d9-8381-8fcc8fac62bd","system_id":"levelo_inurba_marseille","lat":43.28679,"lon":5.36993,"is_reserved":false,"is_disabled":true,"rental_uris":{"android":"levelo://app?vid=747d2bc2-6706-42d9-8381-8fcc8fac62bd","ios":"levelo://app?vid=747d2bc2-6706-42d9-8381-8fcc8fac62bd"},"vehicle_type_id":"4","last_reported":1743337020,"current_range_meters":8400,"station_id":"","pricing_plan_id":"cebpf4jnsgd1na2vs0mg"},{"bike_id":"3fe8f393-7a01-4749-b56d-ced663f246a5","system_id":"levelo_inurba_marseille","lat":43.23958,"lon":5.36634,"is_reserved":false,"is_disabled":false,"rental_uris":{"android":"levelo://app?vid=3fe8f393-7a01-4749-b56d-ced663f246a5","ios":"levelo://app?vid=3fe8f393-7a01-4749-b56d-ced663f246a5"},"vehicle_type_id":"4","last_reported":1743337020,"current_range_meters":8400,"station_id":"ce4bhi12rcd13ifvqfp0","pricing_plan_id":"cebpf4jnsgd1na2vs0mg"},{"bike_id":"ead84735-1991-4501-b506-2229ced7058a","system_id":"levelo_inurba_marseille","lat":43.23057,"lon":5.35493,"is_reserved":false,"is_disabled":false,"rental_uris":{"android":"levelo://app?vid=ead84735-1991-4501-b506-2229ced7058a","ios":"levelo://app?vid=ead84735-1991-4501-b506-2229ced7058a"},"vehicle_type_id":"4","last_reported":1743337020,"current_range_meters":8400,"station_id":"cpo3342slgdg3j2ifvpg","pricing_plan_id":"cebpf4jnsgd1na2vs0mg"},{"bike_id":"37f41d5f-3983-4db2-8781-c345307ed7b9","system_id":"levelo_inurba_marseille","lat":43.27494,"lon":5.42458,"is_reserved":false,"is_disabled":false,"rental_uris":{"android":"levelo://app?vid=37f41d5f-3983-4db2-8781-c345307ed7b9","ios":"levelo://app?vid=37f41d5f-3983-4db2-8781-c345307ed7b9"},"vehicle_type_id":"4","last_reported":1743337020,"current_range_meters":8400,"station_id":"ce4bhn92rcd13ifvqgrg","pricing_plan_id":"cebpf4jnsgd1na2vs0mg"},{"bike_id":"2014ec2d-3dbd-40d7-818b-e9e4b74a24e2","system_id":"levelo_inurba_marseille","lat":43.31328,"lon":5.39708,"is_reserved":false,"is_disabled":false,"rental_uris":{"android":"levelo://app?vid=2014ec2d-3dbd-40d7-818b-e9e4b74a24e2","ios":"levelo://app?vid=2014ec2d-3dbd-40d7-818b-e9e4b74a24e2"},"vehicle_type_id":"4","last_reported":1743337020,"current_range_meters":8400,"station_id":"ce4bgvp2rcd13ifvqcu0","pricing_plan_id":"cebpf4jnsgd1na2vs0mg"},{"bike_id":"f797fc2f-dcd1-4bf2-9940-c6bb81eef752","system_id":"levelo_inurba_marseille","lat":43.22931,"lon":5.35374,"is_reserved":false,"is_disabled":false,"rental_uris":{"android":"levelo://app?vid=f797fc2f-dcd1-4bf2-9940-c6bb81eef752","ios":"levelo://app?vid=f797fc2f-dcd1-4bf2-9940-c6bb81eef752"},"vehicle_type_id":"4","last_reported":1743337020,"current_range_meters":8400,"station_id":"cpo3532slgdg3j2ikp40","pricing_plan_id":"cebpf4jnsgd1na2vs0mg"},{"bike_id":"25bb5fbc-8229-4010-b703-31f5ee6ac141","system_id":"levelo_inurba_marseille","lat":43.30641,"lon":5.36575,"is_reserved":false,"is_disabled":false,"rental_uris":{"android":"levelo://app?vid=25bb5fbc-8229-4010-b703-31f5ee6ac141","ios":"levelo://app?vid=25bb5fbc-8229-4010-b703-31f5ee6ac141"},"vehicle_type_id":"4","last_reported":1743337020,"current_range_meters":8800,"station_id":"","pricing_plan_id":"cebpf4jnsgd1na2vs0mg"},{"bike_id":"1f51a83a-c1ff-4486-982b-9600b9fd6fdb","system_id":"levelo_inurba_marseille","lat":43.2294,"lon":5.35422,"is_reserved":false,"is_disabled":false,"rental_uris":{"android":"levelo://app?vid=1f51a83a-c1ff-4486-982b-9600b9fd6fdb","ios":"levelo://app?vid=1f51a83a-c1ff-4486-982b-9600b9fd6fdb"},"vehicle_type_id":"4","last_reported":1743337020,"current_range_meters":8800,"station_id":"cpo3532slgdg3j2ikp40","pricing_plan_id":"cebpf4jnsgd1na2vs0mg"},{"bike_id":"42bc7b23-0e2f-4d72-b583-40bcdabb28c7","system_id":"levelo_inurba_marseille","lat":43.29543,"lon":5.3738,"is_reserved":false,"is_disabled":false,"rental_uris":{"android":"levelo://app?vid=42bc7b23-0e2f-4d72-b583-40bcdabb28c7","ios":"levelo://app?vid=42bc7b23-0e2f-4d72-b583-40bcdabb28c7"},"vehicle_type_id":"4","last_reported":1743337020,"current_range_meters":8800,"station_id":"","pricing_plan_id":"cebpf4jnsgd1na2vs0mg"},{"bike_id":"f798ed4d-8faa-473b-b107-26b7837b72fd","system_id":"levelo_inurba_marseille","lat":43.27321,"lon":5.39102,"is_reserved":false,"is_disabled":false,"rental_uris":{"android":"levelo://app?vid=f798ed4d-8faa-473b-b107-26b7837b72fd","ios":"levelo://app?vid=f798ed4d-8faa-473b-b107-26b7837b72fd"},"vehicle_type_id":"4","last_reported":1743337020,"current_range_meters":8800,"station_id":"ce4bhgp2rcd13ifvqfe0","pricing_plan_id":"cebpf4jnsgd1na2vs0mg"},{"bike_id":"1adfec18-edad-4215-845d-68da8da924b9","system_id":"levelo_inurba_marseille","lat":43.23199,"lon":5.35547,"is_reserved":false,"is_disabled":false,"rental_uris":{"android":"levelo://app?vid=1adfec18-edad-4215-845d-68da8da924b9","ios":"levelo://app?vid=1adfec18-edad-4215-845d-68da8da924b9"},"vehicle_type_id":"4","last_reported":1743337020,"current_range_meters":8800,"station_id":"ce4bhu92rcd13ifvqi70","pricing_plan_id":"cebpf4jnsgd1na2vs0mg"},{"bike_id":"915f875a-1d86-4319-b636-2c4274059607","system_id":"levelo_inurba_marseille","lat":43.241637,"lon":5.363848,"is_reserved":false,"is_disabled":false,"rental_uris":{"android":"levelo://app?vid=915f875a-1d86-4319-b636-2c4274059607","ios":"levelo://app?vid=915f875a-1d86-4319-b636-2c4274059607"},"vehicle_type_id":"4","last_reported":1743337020,"current_range_meters":8800,"station_id":"cpo36qri1sfpv3e86is0","pricing_plan_id":"cebpf4jnsgd1na2vs0mg"},{"bike_id":"4b88facf-b437-41a8-9691-406758278421","system_id":"levelo_inurba_marseille","lat":43.23061,"lon":5.35497,"is_reserved":false,"is_disabled":false,"rental_uris":{"android":"levelo://app?vid=4b88facf-b437-41a8-9691-406758278421","ios":"levelo://app?vid=4b88facf-b437-41a8-9691-406758278421"},"vehicle_type_id":"4","last_reported":1743337020,"current_range_meters":8800,"station_id":"cpo3342slgdg3j2ifvpg","pricing_plan_id":"cebpf4jnsgd1na2vs0mg"},{"bike_id":"488767ae-a52a-41d7-8f9a-e947164469f3","system_id":"levelo_inurba_marseille","lat":43.31624,"lon":5.41652,"is_reserved":false,"is_disabled":true,"rental_uris":{"android":"levelo://app?vid=488767ae-a52a-41d7-8f9a-e947164469f3","ios":"levelo://app?vid=488767ae-a52a-41d7-8f9a-e947164469f3"},"vehicle_type_id":"4","last_reported":1743337020,"current_range_meters":8800,"station_id":"","pricing_plan_id":"cebpf4jnsgd1na2vs0mg"},{"bike_id":"4e975ee4-68fd-4c83-8a0f-b5e47a060645","system_id":"levelo_inurba_marseille","lat":43.261933,"lon":5.374557,"is_reserved":false,"is_disabled":false,"rental_uris":{"android":"levelo://app?vid=4e975ee4-68fd-4c83-8a0f-b5e47a060645","ios":"levelo://app?vid=4e975ee4-68fd-4c83-8a0f-b5e47a060645"},"vehicle_type_id":"4","last_reported":1743337020,"current_range_meters":8800,"station_id":"ce4bhgp2rcd13ifvqfc0","pricing_plan_id":"cebpf4jnsgd1na2vs0mg"},{"bike_id":"214aee77-66fb-452b-a9bd-cac4b23057f2","system_id":"levelo_inurba_marseille","lat":43.25868,"lon":5.39897,"is_reserved":false,"is_disabled":false,"rental_uris":{"android":"levelo://app?vid=214aee77-66fb-452b-a9bd-cac4b23057f2","ios":"levelo://app?vid=214aee77-66fb-452b-a9bd-cac4b23057f2"},"vehicle_type_id":"4","last_reported":1743337020,"current_range_meters":8800,"station_id":"ce4bhl92rcd13ifvqghg","pricing_plan_id":"cebpf4jnsgd1na2vs0mg"},{"bike_id":"985e04e2-0080-460b-ba49-8db7cf3effda","system_id":"levelo_inurba_marseille","lat":43.241602,"lon":5.364038,"is_reserved":false,"is_disabled":false,"rental_uris":{"android":"levelo://app?vid=985e04e2-0080-460b-ba49-8db7cf3effda","ios":"levelo://app?vid=985e04e2-0080-460b-ba49-8db7cf3effda"},"vehicle_type_id":"4","last_reported":1743337020,"current_range_meters":8800,"station_id":"cpo36qri1sfpv3e86is0","pricing_plan_id":"cebpf4jnsgd1na2vs0mg"},{"bike_id":"5a61ead7-9472-4d81-903b-6bcd5d64da48","system_id":"levelo_inurba_marseille","lat":43.27375,"lon":5.36253,"is_reserved":false,"is_disabled":false,"rental_uris":{"android":"levelo://app?vid=5a61ead7-9472-4d81-903b-6bcd5d64da48","ios":"levelo://app?vid=5a61ead7-9472-4d81-903b-6bcd5d64da48"},"vehicle_type_id":"4","last_reported":1743337020,"current_range_meters":8800,"station_id":"ce4bhbh2rcd13ifvqeo0","pricing_plan_id":"cebpf4jnsgd1na2vs0mg"},{"bike_id":"4576df33-62a6-4a82-9ad2-6633066a7f89","system_id":"levelo_inurba_marseille","lat":43.30805,"lon":5.38136,"is_reserved":false,"is_disabled":false,"rental_uris":{"android":"levelo://app?vid=4576df33-62a6-4a82-9ad2-6633066a7f89","ios":"levelo://app?vid=4576df33-62a6-4a82-9ad2-6633066a7f89"},"vehicle_type_id":"4","last_reported":1743337020,"current_range_meters":8800,"station_id":"ce4bgt12rcd13ifvqce0","pricing_plan_id":"cebpf4jnsgd1na2vs0mg"},{"bike_id":"5d68889e-5f86-414a-84b0-66ecfedd7ec1","system_id":"levelo_inurba_marseille","lat":43.29222,"lon":5.36057,"is_reserved":false,"is_disabled":false,"rental_uris":{"android":"levelo://app?vid=5d68889e-5f86-414a-84b0-66ecfedd7ec1","ios":"levelo://app?vid=5d68889e-5f86-414a-84b0-66ecfedd7ec1"},"vehicle_type_id":"4","last_reported":1743337020,"current_range_meters":9200,"station_id":"ce4bhbh2rcd13ifvqeqg","pricing_plan_id":"cebpf4jnsgd1na2vs0mg"},{"bike_id":"4b3be4cb-68f1-41d0-a2fd-69ac3814c914","system_id":"levelo_inurba_marseille","lat":43.27674,"lon":5.3888,"is_reserved":false,"is_disabled":false,"rental_uris":{"android":"levelo://app?vid=4b3be4cb-68f1-41d0-a2fd-69ac3814c914","ios":"levelo://app?vid=4b3be4cb-68f1-41d0-a2fd-69ac3814c914"},"vehicle_type_id":"4","last_reported":1743337020,"current_range_meters":9200,"station_id":"ce4bhi12rcd13ifvqfo0","pricing_plan_id":"cebpf4jnsgd1na2vs0mg"},{"bike_id":"d74005a9-0b50-4e4f-8439-9c8b5332da24","system_id":"levelo_inurba_marseille","lat":43.22933,"lon":5.35384,"is_reserved":false,"is_disabled":false,"rental_uris":{"android":"levelo://app?vid=d74005a9-0b50-4e4f-8439-9c8b5332da24","ios":"levelo://app?vid=d74005a9-0b50-4e4f-8439-9c8b5332da24"},"vehicle_type_id":"4","last_reported":1743337020,"current_range_meters":9200,"station_id":"cpo3532slgdg3j2ikp40","pricing_plan_id":"cebpf4jnsgd1na2vs0mg"},{"bike_id":"c22c38ac-cdc7-4323-bc60-ffc2c0247aa6","system_id":"levelo_inurba_marseille","lat":43.3133,"lon":5.3972,"is_reserved":false,"is_disabled":false,"rental_uris":{"android":"levelo://app?vid=c22c38ac-cdc7-4323-bc60-ffc2c0247aa6","ios":"levelo://app?vid=c22c38ac-cdc7-4323-bc60-ffc2c0247aa6"},"vehicle_type_id":"4","last_reported":1743337020,"current_range_meters":9200,"station_id":"ce4bgvp2rcd13ifvqcu0","pricing_plan_id":"cebpf4jnsgd1na2vs0mg"},{"bike_id":"99864047-3ac3-45c4-a913-53ee9cea7446","system_id":"levelo_inurba_marseille","lat":43.28701,"lon":5.3741,"is_reserved":false,"is_disabled":true,"rental_uris":{"android":"levelo://app?vid=99864047-3ac3-45c4-a913-53ee9cea7446","ios":"levelo://app?vid=99864047-3ac3-45c4-a913-53ee9cea7446"},"vehicle_type_id":"4","last_reported":1743337020,"current_range_meters":9200,"station_id":"ce4bh3p2rcd13ifvqdq0","pricing_plan_id":"cebpf4jnsgd1na2vs0mg"},{"bike_id":"076ba156-4462-4808-8c1c-e75845d65149","system_id":"levelo_inurba_marseille","lat":43.24189,"lon":5.39729,"is_reserved":false,"is_disabled":false,"rental_uris":{"android":"levelo://app?vid=076ba156-4462-4808-8c1c-e75845d65149","ios":"levelo://app?vid=076ba156-4462-4808-8c1c-e75845d65149"},"vehicle_type_id":"4","last_reported":1743337020,"current_range_meters":9200,"station_id":"ce4bhn12rcd13ifvqgpg","pricing_plan_id":"cebpf4jnsgd1na2vs0mg"},{"bike_id":"82e1f4e2-e052-4ffe-8e17-64d26a428b93","system_id":"levelo_inurba_marseille","lat":43.31323,"lon":5.39693,"is_reserved":false,"is_disabled":false,"rental_uris":{"android":"levelo://app?vid=82e1f4e2-e052-4ffe-8e17-64d26a428b93","ios":"levelo://app?vid=82e1f4e2-e052-4ffe-8e17-64d26a428b93"},"vehicle_type_id":"4","last_reported":1743337020,"current_range_meters":9200,"station_id":"ce4bgvp2rcd13ifvqcu0","pricing_plan_id":"cebpf4jnsgd1na2vs0mg"},{"bike_id":"21b7dfed-4bf3-42a6-9071-9b2b5259da3c","system_id":"levelo_inurba_marseille","lat":43.29636,"lon":5.37154,"is_reserved":false,"is_disabled":true,"rental_uris":{"android":"levelo://app?vid=21b7dfed-4bf3-42a6-9071-9b2b5259da3c","ios":"levelo://app?vid=21b7dfed-4bf3-42a6-9071-9b2b5259da3c"},"vehicle_type_id":"4","last_reported":1743337020,"current_range_meters":9200,"station_id":"ce4bgnh2rcd13ifvqc0g","pricing_plan_id":"cebpf4jnsgd1na2vs0mg"},{"bike_id":"4326a070-3af3-493c-87d2-61ca6001d290","system_id":"levelo_inurba_marseille","lat":43.26222,"lon":5.3744,"is_reserved":false,"is_disabled":false,"rental_uris":{"android":"levelo://app?vid=4326a070-3af3-493c-87d2-61ca6001d290","ios":"levelo://app?vid=4326a070-3af3-493c-87d2-61ca6001d290"},"vehicle_type_id":"4","last_reported":1743337020,"current_range_meters":9200,"station_id":"ce4bhgp2rcd13ifvqfc0","pricing_plan_id":"cebpf4jnsgd1na2vs0mg"},{"bike_id":"99342d76-830d-427e-b986-0d4eba346c17","system_id":"levelo_inurba_marseille","lat":43.254403,"lon":5.375824,"is_reserved":false,"is_disabled":false,"rental_uris":{"android":"levelo://app?vid=99342d76-830d-427e-b986-0d4eba346c17","ios":"levelo://app?vid=99342d76-830d-427e-b986-0d4eba346c17"},"vehicle_type_id":"4","last_reported":1743337020,"current_range_meters":9200,"station_id":"ce4bhhh2rcd13ifvqfk0","pricing_plan_id":"cebpf4jnsgd1na2vs0mg"},{"bike_id":"2b7f02b7-003c-4287-ae44-14722bbfbb38","system_id":"levelo_inurba_marseille","lat":43.29522,"lon":5.39028,"is_reserved":false,"is_disabled":false,"rental_uris":{"android":"levelo://app?vid=2b7f02b7-003c-4287-ae44-14722bbfbb38","ios":"levelo://app?vid=2b7f02b7-003c-4287-ae44-14722bbfbb38"},"vehicle_type_id":"4","last_reported":1743337020,"current_range_meters":9200,"station_id":"ce4bh3p2rcd13ifvqdp0","pricing_plan_id":"cebpf4jnsgd1na2vs0mg"},{"bike_id":"95ae2f73-d331-46bf-b1b1-e69e98400250","system_id":"levelo_inurba_marseille","lat":43.23071,"lon":5.35498,"is_reserved":false,"is_disabled":false,"rental_uris":{"android":"levelo://app?vid=95ae2f73-d331-46bf-b1b1-e69e98400250","ios":"levelo://app?vid=95ae2f73-d331-46bf-b1b1-e69e98400250"},"vehicle_type_id":"4","last_reported":1743337020,"current_range_meters":9600,"station_id":"cpo3342slgdg3j2ifvpg","pricing_plan_id":"cebpf4jnsgd1na2vs0mg"},{"bike_id":"5fdcd850-89a1-440a-b399-2a4ea5fa71fc","system_id":"levelo_inurba_marseille","lat":43.248939,"lon":5.37512,"is_reserved":false,"is_disabled":false,"rental_uris":{"android":"levelo://app?vid=5fdcd850-89a1-440a-b399-2a4ea5fa71fc","ios":"levelo://app?vid=5fdcd850-89a1-440a-b399-2a4ea5fa71fc"},"vehicle_type_id":"4","last_reported":1743337020,"current_range_meters":9600,"station_id":"ce4bhgh2rcd13ifvqfb0","pricing_plan_id":"cebpf4jnsgd1na2vs0mg"},{"bike_id":"76d4ed16-8625-4a14-a5f1-d28ac2574c13","system_id":"levelo_inurba_marseille","lat":43.24553,"lon":5.39523,"is_reserved":false,"is_disabled":false,"rental_uris":{"android":"levelo://app?vid=76d4ed16-8625-4a14-a5f1-d28ac2574c13","ios":"levelo://app?vid=76d4ed16-8625-4a14-a5f1-d28ac2574c13"},"vehicle_type_id":"4","last_reported":1743337020,"current_range_meters":9600,"station_id":"ce4bhlp2rcd13ifvqgjg","pricing_plan_id":"cebpf4jnsgd1na2vs0mg"},{"bike_id":"121e07d5-713f-4137-8710-32303dc0292f","system_id":"levelo_inurba_marseille","lat":43.29933,"lon":5.36551,"is_reserved":false,"is_disabled":false,"rental_uris":{"android":"levelo://app?vid=121e07d5-713f-4137-8710-32303dc0292f","ios":"levelo://app?vid=121e07d5-713f-4137-8710-32303dc0292f"},"vehicle_type_id":"4","last_reported":1743337020,"current_range_meters":9600,"station_id":"ce4bgm92rcd13ifvqbr0","pricing_plan_id":"cebpf4jnsgd1na2vs0mg"},{"bike_id":"8dceeb3b-eceb-4bab-82de-e77bf418f4e8","system_id":"levelo_inurba_marseille","lat":43.23966,"lon":5.36616,"is_reserved":false,"is_disabled":false,"rental_uris":{"android":"levelo://app?vid=8dceeb3b-eceb-4bab-82de-e77bf418f4e8","ios":"levelo://app?vid=8dceeb3b-eceb-4bab-82de-e77bf418f4e8"},"vehicle_type_id":"4","last_reported":1743337020,"current_range_meters":9600,"station_id":"ce4bhi12rcd13ifvqfp0","pricing_plan_id":"cebpf4jnsgd1na2vs0mg"},{"bike_id":"4db2abe8-ddc9-429c-adec-3c515a3e8b3c","system_id":"levelo_inurba_marseille","lat":43.24088,"lon":5.37754,"is_reserved":false,"is_disabled":false,"rental_uris":{"android":"levelo://app?vid=4db2abe8-ddc9-429c-adec-3c515a3e8b3c","ios":"levelo://app?vid=4db2abe8-ddc9-429c-adec-3c515a3e8b3c"},"vehicle_type_id":"4","last_reported":1743337020,"current_range_meters":9600,"station_id":"ce4bhnp2rcd13ifvqgvg","pricing_plan_id":"cebpf4jnsgd1na2vs0mg"},{"bike_id":"fb5a3640-c2bd-4d5a-a532-631ac7449c3d","system_id":"levelo_inurba_marseille","lat":43.28041,"lon":5.40893,"is_reserved":false,"is_disabled":false,"rental_uris":{"android":"levelo://app?vid=fb5a3640-c2bd-4d5a-a532-631ac7449c3d","ios":"levelo://app?vid=fb5a3640-c2bd-4d5a-a532-631ac7449c3d"},"vehicle_type_id":"4","last_reported":1743337020,"current_range_meters":9600,"station_id":"","pricing_plan_id":"cebpf4jnsgd1na2vs0mg"},{"bike_id":"5ef028cc-c915-455e-81c5-85331c93a604","system_id":"levelo_inurba_marseille","lat":43.26203,"lon":5.3744,"is_reserved":false,"is_disabled":false,"rental_uris":{"android":"levelo://app?vid=5ef028cc-c915-455e-81c5-85331c93a604","ios":"levelo://app?vid=5ef028cc-c915-455e-81c5-85331c93a604"},"vehicle_type_id":"4","last_reported":1743337020,"current_range_meters":9600,"station_id":"ce4bhgp2rcd13ifvqfc0","pricing_plan_id":"cebpf4jnsgd1na2vs0mg"},{"bike_id":"653ea6de-a177-4007-9cfa-5f3f77e975f6","system_id":"levelo_inurba_marseille","lat":43.24737,"lon":5.37433,"is_reserved":false,"is_disabled":false,"rental_uris":{"android":"levelo://app?vid=653ea6de-a177-4007-9cfa-5f3f77e975f6","ios":"levelo://app?vid=653ea6de-a177-4007-9cfa-5f3f77e975f6"},"vehicle_type_id":"4","last_reported":1743337020,"current_range_meters":9600,"station_id":"","pricing_plan_id":"cebpf4jnsgd1na2vs0mg"},{"bike_id":"9d8867d5-be51-4075-bfd5-872755e7cc21","system_id":"levelo_inurba_marseille","lat":43.276039,"lon":5.383998,"is_reserved":false,"is_disabled":false,"rental_uris":{"android":"levelo://app?vid=9d8867d5-be51-4075-bfd5-872755e7cc21","ios":"levelo://app?vid=9d8867d5-be51-4075-bfd5-872755e7cc21"},"vehicle_type_id":"4","last_reported":1743337020,"current_range_meters":9600,"station_id":"ce4bhh92rcd13ifvqfi0","pricing_plan_id":"cebpf4jnsgd1na2vs0mg"},{"bike_id":"1d481433-543a-4eb4-b9a0-4bfac20f94b3","system_id":"levelo_inurba_marseille","lat":43.25496,"lon":5.37657,"is_reserved":false,"is_disabled":false,"rental_uris":{"android":"levelo://app?vid=1d481433-543a-4eb4-b9a0-4bfac20f94b3","ios":"levelo://app?vid=1d481433-543a-4eb4-b9a0-4bfac20f94b3"},"vehicle_type_id":"4","last_reported":1743337020,"current_range_meters":9600,"station_id":"ce4bhh12rcd13ifvqff0","pricing_plan_id":"cebpf4jnsgd1na2vs0mg"},{"bike_id":"36d58eea-52d6-4c2e-b865-57bbfc724efb","system_id":"levelo_inurba_marseille","lat":43.23191,"lon":5.35561,"is_reserved":false,"is_disabled":false,"rental_uris":{"android":"levelo://app?vid=36d58eea-52d6-4c2e-b865-57bbfc724efb","ios":"levelo://app?vid=36d58eea-52d6-4c2e-b865-57bbfc724efb"},"vehicle_type_id":"4","last_reported":1743337020,"current_range_meters":9600,"station_id":"ce4bhu92rcd13ifvqi70","pricing_plan_id":"cebpf4jnsgd1na2vs0mg"},{"bike_id":"d3008255-9fc8-4836-9548-398db2aa3987","system_id":"levelo_inurba_marseille","lat":43.2293,"lon":5.35375,"is_reserved":false,"is_disabled":false,"rental_uris":{"android":"levelo://app?vid=d3008255-9fc8-4836-9548-398db2aa3987","ios":"levelo://app?vid=d3008255-9fc8-4836-9548-398db2aa3987"},"vehicle_type_id":"4","last_reported":1743337020,"current_range_meters":10000,"station_id":"cpo3532slgdg3j2ikp40","pricing_plan_id":"cebpf4jnsgd1na2vs0mg"},{"bike_id":"30f3b512-c138-431b-943a-0283bc4d8d83","system_id":"levelo_inurba_marseille","lat":43.22939,"lon":5.35371,"is_reserved":false,"is_disabled":false,"rental_uris":{"android":"levelo://app?vid=30f3b512-c138-431b-943a-0283bc4d8d83","ios":"levelo://app?vid=30f3b512-c138-431b-943a-0283bc4d8d83"},"vehicle_type_id":"4","last_reported":1743337020,"current_range_meters":10000,"station_id":"cpo3532slgdg3j2ikp40","pricing_plan_id":"cebpf4jnsgd1na2vs0mg"},{"bike_id":"d09fcea4-8e7f-4c95-a4cd-507616f3a687","system_id":"levelo_inurba_marseille","lat":43.2735,"lon":5.36255,"is_reserved":false,"is_disabled":false,"rental_uris":{"android":"levelo://app?vid=d09fcea4-8e7f-4c95-a4cd-507616f3a687","ios":"levelo://app?vid=d09fcea4-8e7f-4c95-a4cd-507616f3a687"},"vehicle_type_id":"4","last_reported":1743337020,"current_range_meters":10000,"station_id":"ce4bhbh2rcd13ifvqeo0","pricing_plan_id":"cebpf4jnsgd1na2vs0mg"},{"bike_id":"14c490b6-844b-4566-b5ce-4a1eef9a0745","system_id":"levelo_inurba_marseille","lat":43.27837,"lon":5.40712,"is_reserved":false,"is_disabled":false,"rental_uris":{"android":"levelo://app?vid=14c490b6-844b-4566-b5ce-4a1eef9a0745","ios":"levelo://app?vid=14c490b6-844b-4566-b5ce-4a1eef9a0745"},"vehicle_type_id":"4","last_reported":1743337020,"current_range_meters":10000,"station_id":"ce4bhnh2rcd13ifvqgtg","pricing_plan_id":"cebpf4jnsgd1na2vs0mg"},{"bike_id":"f55695a6-b65f-4a30-99ab-94b2bfa63268","system_id":"levelo_inurba_marseille","lat":43.232,"lon":5.35557,"is_reserved":false,"is_disabled":false,"rental_uris":{"android":"levelo://app?vid=f55695a6-b65f-4a30-99ab-94b2bfa63268","ios":"levelo://app?vid=f55695a6-b65f-4a30-99ab-94b2bfa63268"},"vehicle_type_id":"4","last_reported":1743337020,"current_range_meters":10000,"station_id":"ce4bhu92rcd13ifvqi70","pricing_plan_id":"cebpf4jnsgd1na2vs0mg"},{"bike_id":"ccc68ad3-86f3-4b8b-8c06-099ffa6b3702","system_id":"levelo_inurba_marseille","lat":43.243958,"lon":5.370534,"is_reserved":false,"is_disabled":false,"rental_uris":{"android":"levelo://app?vid=ccc68ad3-86f3-4b8b-8c06-099ffa6b3702","ios":"levelo://app?vid=ccc68ad3-86f3-4b8b-8c06-099ffa6b3702"},"vehicle_type_id":"4","last_reported":1743337020,"current_range_meters":10000,"station_id":"ce4bhhh2rcd13ifvqfk0","pricing_plan_id":"cebpf4jnsgd1na2vs0mg"},{"bike_id":"ddbfb594-94fd-4b03-b776-b612bade417d","system_id":"levelo_inurba_marseille","lat":43.28279,"lon":5.35072,"is_reserved":false,"is_disabled":false,"rental_uris":{"android":"levelo://app?vid=ddbfb594-94fd-4b03-b776-b612bade417d","ios":"levelo://app?vid=ddbfb594-94fd-4b03-b776-b612bade417d"},"vehicle_type_id":"4","last_reported":1743337020,"current_range_meters":10000,"station_id":"ce4bhbp2rcd13ifvqerg","pricing_plan_id":"cebpf4jnsgd1na2vs0mg"},{"bike_id":"1737ee47-dc4f-46d0-9e68-9b89d248bcf8","system_id":"levelo_inurba_marseille","lat":43.24392,"lon":5.37067,"is_reserved":false,"is_disabled":false,"rental_uris":{"android":"levelo://app?vid=1737ee47-dc4f-46d0-9e68-9b89d248bcf8","ios":"levelo://app?vid=1737ee47-dc4f-46d0-9e68-9b89d248bcf8"},"vehicle_type_id":"4","last_reported":1743337020,"current_range_meters":10000,"station_id":"ce4bhhh2rcd13ifvqfk0","pricing_plan_id":"cebpf4jnsgd1na2vs0mg"},{"bike_id":"8bcc045e-f28b-442a-a0af-38457b26197c","system_id":"levelo_inurba_marseille","lat":43.24201,"lon":5.3639,"is_reserved":false,"is_disabled":false,"rental_uris":{"android":"levelo://app?vid=8bcc045e-f28b-442a-a0af-38457b26197c","ios":"levelo://app?vid=8bcc045e-f28b-442a-a0af-38457b26197c"},"vehicle_type_id":"4","last_reported":1743337020,"current_range_meters":10000,"station_id":"cpo36qri1sfpv3e86is0","pricing_plan_id":"cebpf4jnsgd1na2vs0mg"},{"bike_id":"dc0aec34-f477-4d55-b7a0-823d87c87c07","system_id":"levelo_inurba_marseille","lat":43.28264,"lon":5.35087,"is_reserved":false,"is_disabled":false,"rental_uris":{"android":"levelo://app?vid=dc0aec34-f477-4d55-b7a0-823d87c87c07","ios":"levelo://app?vid=dc0aec34-f477-4d55-b7a0-823d87c87c07"},"vehicle_type_id":"4","last_reported":1743337020,"current_range_meters":10000,"station_id":"ce4bhbp2rcd13ifvqerg","pricing_plan_id":"cebpf4jnsgd1na2vs0mg"},{"bike_id":"52cd3cb6-4462-4356-9222-57f0529656b0","system_id":"levelo_inurba_marseille","lat":43.239566,"lon":5.366313,"is_reserved":false,"is_disabled":false,"rental_uris":{"android":"levelo://app?vid=52cd3cb6-4462-4356-9222-57f0529656b0","ios":"levelo://app?vid=52cd3cb6-4462-4356-9222-57f0529656b0"},"vehicle_type_id":"4","last_reported":1743337020,"current_range_meters":10800,"station_id":"ce4bhi12rcd13ifvqfp0","pricing_plan_id":"cebpf4jnsgd1na2vs0mg"},{"bike_id":"71fc87ab-52b5-42a6-8a58-86368cf79076","system_id":"levelo_inurba_marseille","lat":43.27378,"lon":5.36246,"is_reserved":false,"is_disabled":false,"rental_uris":{"android":"levelo://app?vid=71fc87ab-52b5-42a6-8a58-86368cf79076","ios":"levelo://app?vid=71fc87ab-52b5-42a6-8a58-86368cf79076"},"vehicle_type_id":"4","last_reported":1743337020,"current_range_meters":10800,"station_id":"ce4bhbh2rcd13ifvqeo0","pricing_plan_id":"cebpf4jnsgd1na2vs0mg"},{"bike_id":"cb8c9ca5-9083-4e86-9e9f-2bc245af5095","system_id":"levelo_inurba_marseille","lat":43.284075,"lon":5.375201,"is_reserved":false,"is_disabled":true,"rental_uris":{"android":"levelo://app?vid=cb8c9ca5-9083-4e86-9e9f-2bc245af5095","ios":"levelo://app?vid=cb8c9ca5-9083-4e86-9e9f-2bc245af5095"},"vehicle_type_id":"4","last_reported":1743337020,"current_range_meters":10800,"station_id":"ce4bh412rcd13ifvqds0","pricing_plan_id":"cebpf4jnsgd1na2vs0mg"},{"bike_id":"0d207e9d-8d4c-43d3-82f0-5fdbde1c53a5","system_id":"levelo_inurba_marseille","lat":43.31888,"lon":5.40737,"is_reserved":false,"is_disabled":false,"rental_uris":{"android":"levelo://app?vid=0d207e9d-8d4c-43d3-82f0-5fdbde1c53a5","ios":"levelo://app?vid=0d207e9d-8d4c-43d3-82f0-5fdbde1c53a5"},"vehicle_type_id":"4","last_reported":1743337020,"current_range_meters":10800,"station_id":"ce4bhq12rcd13ifvqhig","pricing_plan_id":"cebpf4jnsgd1na2vs0mg"},{"bike_id":"86f139b9-ffd3-4a79-86e8-d22d017328ee","system_id":"levelo_inurba_marseille","lat":43.34742,"lon":5.38149,"is_reserved":false,"is_disabled":false,"rental_uris":{"android":"levelo://app?vid=86f139b9-ffd3-4a79-86e8-d22d017328ee","ios":"levelo://app?vid=86f139b9-ffd3-4a79-86e8-d22d017328ee"},"vehicle_type_id":"4","last_reported":1743337020,"current_range_meters":10800,"station_id":"","pricing_plan_id":"cebpf4jnsgd1na2vs0mg"},{"bike_id":"1476f6d3-c571-49cd-af44-33e85852b079","system_id":"levelo_inurba_marseille","lat":43.2319,"lon":5.39984,"is_reserved":false,"is_disabled":false,"rental_uris":{"android":"levelo://app?vid=1476f6d3-c571-49cd-af44-33e85852b079","ios":"levelo://app?vid=1476f6d3-c571-49cd-af44-33e85852b079"},"vehicle_type_id":"4","last_reported":1743337020,"current_range_meters":10800,"station_id":"ce4bhn12rcd13ifvqgqg","pricing_plan_id":"cebpf4jnsgd1na2vs0mg"},{"bike_id":"a029c1b4-b66d-4535-bdc7-995b24cea034","system_id":"levelo_inurba_marseille","lat":43.3091,"lon":5.36842,"is_reserved":false,"is_disabled":false,"rental_uris":{"android":"levelo://app?vid=a029c1b4-b66d-4535-bdc7-995b24cea034","ios":"levelo://app?vid=a029c1b4-b66d-4535-bdc7-995b24cea034"},"vehicle_type_id":"4","last_reported":1743337020,"current_range_meters":10800,"station_id":"ce4bgn92rcd13ifvqbvg","pricing_plan_id":"cebpf4jnsgd1na2vs0mg"},{"bike_id":"6ef18dd7-1cb9-4ef6-bfdd-052cde57f183","system_id":"levelo_inurba_marseille","lat":43.32103,"lon":5.36784,"is_reserved":false,"is_disabled":false,"rental_uris":{"android":"levelo://app?vid=6ef18dd7-1cb9-4ef6-bfdd-052cde57f183","ios":"levelo://app?vid=6ef18dd7-1cb9-4ef6-bfdd-052cde57f183"},"vehicle_type_id":"4","last_reported":1743337020,"current_range_meters":10800,"station_id":"ce4bhrh2rcd13ifvqhug","pricing_plan_id":"cebpf4jnsgd1na2vs0mg"},{"bike_id":"8af30850-6d0d-49e0-8c3f-009e7a64a288","system_id":"levelo_inurba_marseille","lat":43.27819,"lon":5.407,"is_reserved":false,"is_disabled":false,"rental_uris":{"android":"levelo://app?vid=8af30850-6d0d-49e0-8c3f-009e7a64a288","ios":"levelo://app?vid=8af30850-6d0d-49e0-8c3f-009e7a64a288"},"vehicle_type_id":"4","last_reported":1743337020,"current_range_meters":11200,"station_id":"ce4bhnh2rcd13ifvqgtg","pricing_plan_id":"cebpf4jnsgd1na2vs0mg"},{"bike_id":"5c49fc8b-b573-44cd-9da2-767f8f7a765b","system_id":"levelo_inurba_marseille","lat":43.31756,"lon":5.38995,"is_reserved":false,"is_disabled":false,"rental_uris":{"android":"levelo://app?vid=5c49fc8b-b573-44cd-9da2-767f8f7a765b","ios":"levelo://app?vid=5c49fc8b-b573-44cd-9da2-767f8f7a765b"},"vehicle_type_id":"4","last_reported":1743337020,"current_range_meters":11200,"station_id":"ce4bhqp2rcd13ifvqhng","pricing_plan_id":"cebpf4jnsgd1na2vs0mg"},{"bike_id":"9bfa0035-2901-48ca-88f5-2f56c3943a29","system_id":"levelo_inurba_marseille","lat":43.26568,"lon":5.37271,"is_reserved":false,"is_disabled":false,"rental_uris":{"android":"levelo://app?vid=9bfa0035-2901-48ca-88f5-2f56c3943a29","ios":"levelo://app?vid=9bfa0035-2901-48ca-88f5-2f56c3943a29"},"vehicle_type_id":"4","last_reported":1743337020,"current_range_meters":11200,"station_id":"ce4bhg12rcd13ifvqf70","pricing_plan_id":"cebpf4jnsgd1na2vs0mg"},{"bike_id":"bfcad82b-6acc-493c-b418-93ec0bae17e4","system_id":"levelo_inurba_marseille","lat":43.32118,"lon":5.36782,"is_reserved":false,"is_disabled":false,"rental_uris":{"android":"levelo://app?vid=bfcad82b-6acc-493c-b418-93ec0bae17e4","ios":"levelo://app?vid=bfcad82b-6acc-493c-b418-93ec0bae17e4"},"vehicle_type_id":"4","last_reported":1743337020,"current_range_meters":11200,"station_id":"ce4bhrh2rcd13ifvqhug","pricing_plan_id":"cebpf4jnsgd1na2vs0mg"},{"bike_id":"ba362734-34ca-4bcd-8728-cadb040d6152","system_id":"levelo_inurba_marseille","lat":43.24396,"lon":5.37059,"is_reserved":false,"is_disabled":false,"rental_uris":{"android":"levelo://app?vid=ba362734-34ca-4bcd-8728-cadb040d6152","ios":"levelo://app?vid=ba362734-34ca-4bcd-8728-cadb040d6152"},"vehicle_type_id":"4","last_reported":1743337020,"current_range_meters":11200,"station_id":"ce4bhhh2rcd13ifvqfk0","pricing_plan_id":"cebpf4jnsgd1na2vs0mg"},{"bike_id":"71866f35-f1e3-47d1-8b99-70a75bc4ff19","system_id":"levelo_inurba_marseille","lat":43.28256,"lon":5.35074,"is_reserved":false,"is_disabled":false,"rental_uris":{"android":"levelo://app?vid=71866f35-f1e3-47d1-8b99-70a75bc4ff19","ios":"levelo://app?vid=71866f35-f1e3-47d1-8b99-70a75bc4ff19"},"vehicle_type_id":"4","last_reported":1743337020,"current_range_meters":10800,"station_id":"ce4bhbp2rcd13ifvqerg","pricing_plan_id":"cebpf4jnsgd1na2vs0mg"},{"bike_id":"824284d1-0946-4706-a6ff-4b264ab58896","system_id":"levelo_inurba_marseille","lat":43.28277,"lon":5.35084,"is_reserved":false,"is_disabled":false,"rental_uris":{"android":"levelo://app?vid=824284d1-0946-4706-a6ff-4b264ab58896","ios":"levelo://app?vid=824284d1-0946-4706-a6ff-4b264ab58896"},"vehicle_type_id":"4","last_reported":1743337020,"current_range_meters":11200,"station_id":"ce4bhbp2rcd13ifvqerg","pricing_plan_id":"cebpf4jnsgd1na2vs0mg"},{"bike_id":"871f3035-10bb-4a28-afa0-18619600e1a6","system_id":"levelo_inurba_marseille","lat":43.29953,"lon":5.36586,"is_reserved":false,"is_disabled":true,"rental_uris":{"android":"levelo://app?vid=871f3035-10bb-4a28-afa0-18619600e1a6","ios":"levelo://app?vid=871f3035-10bb-4a28-afa0-18619600e1a6"},"vehicle_type_id":"4","last_reported":1743337020,"current_range_meters":11600,"station_id":"ce4bgm92rcd13ifvqbr0","pricing_plan_id":"cebpf4jnsgd1na2vs0mg"},{"bike_id":"840d80d4-fdf8-42c4-8a5b-d713900d2b4b","system_id":"levelo_inurba_marseille","lat":43.28261,"lon":5.3507,"is_reserved":false,"is_disabled":false,"rental_uris":{"android":"levelo://app?vid=840d80d4-fdf8-42c4-8a5b-d713900d2b4b","ios":"levelo://app?vid=840d80d4-fdf8-42c4-8a5b-d713900d2b4b"},"vehicle_type_id":"4","last_reported":1743337020,"current_range_meters":11600,"station_id":"ce4bhbp2rcd13ifvqerg","pricing_plan_id":"cebpf4jnsgd1na2vs0mg"},{"bike_id":"7e46e322-27d9-4f9d-b1ce-11741eb7c78f","system_id":"levelo_inurba_marseille","lat":43.31764,"lon":5.39024,"is_reserved":false,"is_disabled":false,"rental_uris":{"android":"levelo://app?vid=7e46e322-27d9-4f9d-b1ce-11741eb7c78f","ios":"levelo://app?vid=7e46e322-27d9-4f9d-b1ce-11741eb7c78f"},"vehicle_type_id":"4","last_reported":1743337020,"current_range_meters":11600,"station_id":"ce4bhqp2rcd13ifvqhng","pricing_plan_id":"cebpf4jnsgd1na2vs0mg"},{"bike_id":"e9a2a445-241d-4d76-ae7f-242ac1e603b1","system_id":"levelo_inurba_marseille","lat":43.23191,"lon":5.35531,"is_reserved":false,"is_disabled":false,"rental_uris":{"android":"levelo://app?vid=e9a2a445-241d-4d76-ae7f-242ac1e603b1","ios":"levelo://app?vid=e9a2a445-241d-4d76-ae7f-242ac1e603b1"},"vehicle_type_id":"4","last_reported":1743337020,"current_range_meters":11600,"station_id":"ce4bhu92rcd13ifvqi70","pricing_plan_id":"cebpf4jnsgd1na2vs0mg"},{"bike_id":"5d0712f9-1996-45e5-9e21-790034cdb16e","system_id":"levelo_inurba_marseille","lat":43.22937,"lon":5.35371,"is_reserved":false,"is_disabled":false,"rental_uris":{"android":"levelo://app?vid=5d0712f9-1996-45e5-9e21-790034cdb16e","ios":"levelo://app?vid=5d0712f9-1996-45e5-9e21-790034cdb16e"},"vehicle_type_id":"4","last_reported":1743337020,"current_range_meters":11600,"station_id":"cpo3532slgdg3j2ikp40","pricing_plan_id":"cebpf4jnsgd1na2vs0mg"},{"bike_id":"a1ae50a4-c52b-4677-9880-2ad2cbea90c3","system_id":"levelo_inurba_marseille","lat":43.28265,"lon":5.35065,"is_reserved":false,"is_disabled":false,"rental_uris":{"android":"levelo://app?vid=a1ae50a4-c52b-4677-9880-2ad2cbea90c3","ios":"levelo://app?vid=a1ae50a4-c52b-4677-9880-2ad2cbea90c3"},"vehicle_type_id":"4","last_reported":1743337020,"current_range_meters":11600,"station_id":"ce4bhbp2rcd13ifvqerg","pricing_plan_id":"cebpf4jnsgd1na2vs0mg"},{"bike_id":"039d6195-a4ab-472f-929f-b9ba7e67e0d4","system_id":"levelo_inurba_marseille","lat":43.28623,"lon":5.35122,"is_reserved":false,"is_disabled":false,"rental_uris":{"android":"levelo://app?vid=039d6195-a4ab-472f-929f-b9ba7e67e0d4","ios":"levelo://app?vid=039d6195-a4ab-472f-929f-b9ba7e67e0d4"},"vehicle_type_id":"4","last_reported":1743337020,"current_range_meters":11600,"station_id":"ce4bhch2rcd13ifvqeug","pricing_plan_id":"cebpf4jnsgd1na2vs0mg"},{"bike_id":"2668b2c5-296e-46e2-8764-f61208bfe4ae","system_id":"levelo_inurba_marseille","lat":43.23065,"lon":5.35501,"is_reserved":false,"is_disabled":false,"rental_uris":{"android":"levelo://app?vid=2668b2c5-296e-46e2-8764-f61208bfe4ae","ios":"levelo://app?vid=2668b2c5-296e-46e2-8764-f61208bfe4ae"},"vehicle_type_id":"4","last_reported":1743337020,"current_range_meters":11600,"station_id":"cpo3342slgdg3j2ifvpg","pricing_plan_id":"cebpf4jnsgd1na2vs0mg"},{"bike_id":"5d920e90-ab5e-44f4-8b9b-80dc5135d8b5","system_id":"levelo_inurba_marseille","lat":43.301307,"lon":5.398582,"is_reserved":false,"is_disabled":false,"rental_uris":{"android":"levelo://app?vid=5d920e90-ab5e-44f4-8b9b-80dc5135d8b5","ios":"levelo://app?vid=5d920e90-ab5e-44f4-8b9b-80dc5135d8b5"},"vehicle_type_id":"4","last_reported":1743337020,"current_range_meters":11600,"station_id":"","pricing_plan_id":"cebpf4jnsgd1na2vs0mg"},{"bike_id":"ee110417-5ed9-4b88-a260-0ca1c312c3c9","system_id":"levelo_inurba_marseille","lat":43.24148,"lon":5.39758,"is_reserved":false,"is_disabled":false,"rental_uris":{"android":"levelo://app?vid=ee110417-5ed9-4b88-a260-0ca1c312c3c9","ios":"levelo://app?vid=ee110417-5ed9-4b88-a260-0ca1c312c3c9"},"vehicle_type_id":"4","last_reported":1743337020,"current_range_meters":12000,"station_id":"ce4bhn12rcd13ifvqgpg","pricing_plan_id":"cebpf4jnsgd1na2vs0mg"},{"bike_id":"32471ba9-fd17-40c0-ab4f-200aab707b9b","system_id":"levelo_inurba_marseille","lat":43.23076,"lon":5.35478,"is_reserved":false,"is_disabled":false,"rental_uris":{"android":"levelo://app?vid=32471ba9-fd17-40c0-ab4f-200aab707b9b","ios":"levelo://app?vid=32471ba9-fd17-40c0-ab4f-200aab707b9b"},"vehicle_type_id":"4","last_reported":1743337020,"current_range_meters":12000,"station_id":"cpo3342slgdg3j2ifvpg","pricing_plan_id":"cebpf4jnsgd1na2vs0mg"},{"bike_id":"809a47f2-ac51-47d1-8bf7-2702a6a60091","system_id":"levelo_inurba_marseille","lat":43.28409,"lon":5.34989,"is_reserved":false,"is_disabled":false,"rental_uris":{"android":"levelo://app?vid=809a47f2-ac51-47d1-8bf7-2702a6a60091","ios":"levelo://app?vid=809a47f2-ac51-47d1-8bf7-2702a6a60091"},"vehicle_type_id":"4","last_reported":1743337020,"current_range_meters":12000,"station_id":"ce4bhbh2rcd13ifvqepg","pricing_plan_id":"cebpf4jnsgd1na2vs0mg"},{"bike_id":"82be5020-df29-4bb6-b821-10f31b9ed89a","system_id":"levelo_inurba_marseille","lat":43.28398,"lon":5.3499,"is_reserved":false,"is_disabled":false,"rental_uris":{"android":"levelo://app?vid=82be5020-df29-4bb6-b821-10f31b9ed89a","ios":"levelo://app?vid=82be5020-df29-4bb6-b821-10f31b9ed89a"},"vehicle_type_id":"4","last_reported":1743337020,"current_range_meters":12000,"station_id":"ce4bhbh2rcd13ifvqepg","pricing_plan_id":"cebpf4jnsgd1na2vs0mg"},{"bike_id":"5baef730-2d55-4e2c-89bd-2f1444d1739d","system_id":"levelo_inurba_marseille","lat":43.2953,"lon":5.375,"is_reserved":false,"is_disabled":true,"rental_uris":{"android":"levelo://app?vid=5baef730-2d55-4e2c-89bd-2f1444d1739d","ios":"levelo://app?vid=5baef730-2d55-4e2c-89bd-2f1444d1739d"},"vehicle_type_id":"4","last_reported":1743337020,"current_range_meters":12000,"station_id":"ce4bgkp2rcd13ifvqbmg","pricing_plan_id":"cebpf4jnsgd1na2vs0mg"},{"bike_id":"afdcf971-6066-4583-915d-06b574a6b9db","system_id":"levelo_inurba_marseille","lat":43.29575,"lon":5.37529,"is_reserved":false,"is_disabled":false,"rental_uris":{"android":"levelo://app?vid=afdcf971-6066-4583-915d-06b574a6b9db","ios":"levelo://app?vid=afdcf971-6066-4583-915d-06b574a6b9db"},"vehicle_type_id":"4","last_reported":1743337020,"current_range_meters":12000,"station_id":"ce4bgh92rcd13ifvqb50","pricing_plan_id":"cebpf4jnsgd1na2vs0mg"},{"bike_id":"f0025222-e162-488d-a465-0eb4c7b96ab0","system_id":"levelo_inurba_marseille","lat":43.28417,"lon":5.34986,"is_reserved":false,"is_disabled":false,"rental_uris":{"android":"levelo://app?vid=f0025222-e162-488d-a465-0eb4c7b96ab0","ios":"levelo://app?vid=f0025222-e162-488d-a465-0eb4c7b96ab0"},"vehicle_type_id":"4","last_reported":1743337020,"current_range_meters":12400,"station_id":"ce4bhbh2rcd13ifvqepg","pricing_plan_id":"cebpf4jnsgd1na2vs0mg"},{"bike_id":"fbcd09de-80ca-4b7a-ae3a-40d250ca0dcf","system_id":"levelo_inurba_marseille","lat":43.24802,"lon":5.37451,"is_reserved":false,"is_disabled":false,"rental_uris":{"android":"levelo://app?vid=fbcd09de-80ca-4b7a-ae3a-40d250ca0dcf","ios":"levelo://app?vid=fbcd09de-80ca-4b7a-ae3a-40d250ca0dcf"},"vehicle_type_id":"4","last_reported":1743337020,"current_range_meters":12400,"station_id":"ce4bhgh2rcd13ifvqfb0","pricing_plan_id":"cebpf4jnsgd1na2vs0mg"},{"bike_id":"b1c2411a-9480-40f8-b226-997cc4466589","system_id":"levelo_inurba_marseille","lat":43.31721,"lon":5.42393,"is_reserved":false,"is_disabled":false,"rental_uris":{"android":"levelo://app?vid=b1c2411a-9480-40f8-b226-997cc4466589","ios":"levelo://app?vid=b1c2411a-9480-40f8-b226-997cc4466589"},"vehicle_type_id":"4","last_reported":1743337020,"current_range_meters":12400,"station_id":"ce4bhp92rcd13ifvqhbg","pricing_plan_id":"cebpf4jnsgd1na2vs0mg"},{"bike_id":"24c910f8-a00a-49ca-b3fe-5d967a40972a","system_id":"levelo_inurba_marseille","lat":43.23061,"lon":5.355,"is_reserved":false,"is_disabled":false,"rental_uris":{"android":"levelo://app?vid=24c910f8-a00a-49ca-b3fe-5d967a40972a","ios":"levelo://app?vid=24c910f8-a00a-49ca-b3fe-5d967a40972a"},"vehicle_type_id":"4","last_reported":1743337020,"current_range_meters":12400,"station_id":"cpo3342slgdg3j2ifvpg","pricing_plan_id":"cebpf4jnsgd1na2vs0mg"},{"bike_id":"a056a900-9f91-4736-9d54-d6ebcdef2cf1","system_id":"levelo_inurba_marseille","lat":43.24396,"lon":5.37031,"is_reserved":false,"is_disabled":false,"rental_uris":{"android":"levelo://app?vid=a056a900-9f91-4736-9d54-d6ebcdef2cf1","ios":"levelo://app?vid=a056a900-9f91-4736-9d54-d6ebcdef2cf1"},"vehicle_type_id":"4","last_reported":1743337020,"current_range_meters":12400,"station_id":"ce4bhhh2rcd13ifvqfk0","pricing_plan_id":"cebpf4jnsgd1na2vs0mg"},{"bike_id":"b73281d3-4024-4cc2-9467-a02b03434418","system_id":"levelo_inurba_marseille","lat":43.28616,"lon":5.35104,"is_reserved":false,"is_disabled":false,"rental_uris":{"android":"levelo://app?vid=b73281d3-4024-4cc2-9467-a02b03434418","ios":"levelo://app?vid=b73281d3-4024-4cc2-9467-a02b03434418"},"vehicle_type_id":"4","last_reported":1743337020,"current_range_meters":12400,"station_id":"ce4bhch2rcd13ifvqeug","pricing_plan_id":"cebpf4jnsgd1na2vs0mg"},{"bike_id":"3f7f6c92-fbcc-4115-8a25-fb94f7fc19d2","system_id":"levelo_inurba_marseille","lat":43.26034,"lon":5.37546,"is_reserved":false,"is_disabled":false,"rental_uris":{"android":"levelo://app?vid=3f7f6c92-fbcc-4115-8a25-fb94f7fc19d2","ios":"levelo://app?vid=3f7f6c92-fbcc-4115-8a25-fb94f7fc19d2"},"vehicle_type_id":"4","last_reported":1743337020,"current_range_meters":12400,"station_id":"ce4bhgh2rcd13ifvqfa0","pricing_plan_id":"cebpf4jnsgd1na2vs0mg"},{"bike_id":"87e39e8f-829d-46fd-b172-c311d89738be","system_id":"levelo_inurba_marseille","lat":43.25725,"lon":5.41107,"is_reserved":false,"is_disabled":false,"rental_uris":{"android":"levelo://app?vid=87e39e8f-829d-46fd-b172-c311d89738be","ios":"levelo://app?vid=87e39e8f-829d-46fd-b172-c311d89738be"},"vehicle_type_id":"4","last_reported":1743337020,"current_range_meters":12400,"station_id":"ce4bhkp2rcd13ifvqgd0","pricing_plan_id":"cebpf4jnsgd1na2vs0mg"},{"bike_id":"d51b472c-d18b-4217-b46a-f69a5f2d08c9","system_id":"levelo_inurba_marseille","lat":43.26553,"lon":5.37283,"is_reserved":false,"is_disabled":false,"rental_uris":{"android":"levelo://app?vid=d51b472c-d18b-4217-b46a-f69a5f2d08c9","ios":"levelo://app?vid=d51b472c-d18b-4217-b46a-f69a5f2d08c9"},"vehicle_type_id":"4","last_reported":1743337020,"current_range_meters":12800,"station_id":"ce4bhg12rcd13ifvqf70","pricing_plan_id":"cebpf4jnsgd1na2vs0mg"},{"bike_id":"c0b97afe-dc5a-4781-8b39-071ceafb738b","system_id":"levelo_inurba_marseille","lat":43.28258,"lon":5.3506,"is_reserved":false,"is_disabled":false,"rental_uris":{"android":"levelo://app?vid=c0b97afe-dc5a-4781-8b39-071ceafb738b","ios":"levelo://app?vid=c0b97afe-dc5a-4781-8b39-071ceafb738b"},"vehicle_type_id":"4","last_reported":1743337020,"current_range_meters":12800,"station_id":"ce4bhbp2rcd13ifvqerg","pricing_plan_id":"cebpf4jnsgd1na2vs0mg"},{"bike_id":"76859129-4009-4843-90a4-dc4d2b65271a","system_id":"levelo_inurba_marseille","lat":43.24169,"lon":5.36395,"is_reserved":false,"is_disabled":false,"rental_uris":{"android":"levelo://app?vid=76859129-4009-4843-90a4-dc4d2b65271a","ios":"levelo://app?vid=76859129-4009-4843-90a4-dc4d2b65271a"},"vehicle_type_id":"4","last_reported":1743337020,"current_range_meters":12800,"station_id":"cpo36qri1sfpv3e86is0","pricing_plan_id":"cebpf4jnsgd1na2vs0mg"},{"bike_id":"7ca6f145-aad1-46a9-862f-db9fe95e22ed","system_id":"levelo_inurba_marseille","lat":43.32084,"lon":5.36793,"is_reserved":false,"is_disabled":false,"rental_uris":{"android":"levelo://app?vid=7ca6f145-aad1-46a9-862f-db9fe95e22ed","ios":"levelo://app?vid=7ca6f145-aad1-46a9-862f-db9fe95e22ed"},"vehicle_type_id":"4","last_reported":1743337020,"current_range_meters":12800,"station_id":"ce4bhrh2rcd13ifvqhug","pricing_plan_id":"cebpf4jnsgd1na2vs0mg"},{"bike_id":"29afc0c1-4dc0-46ad-9fb1-ae4afbda23db","system_id":"levelo_inurba_marseille","lat":43.292789,"lon":5.368419,"is_reserved":false,"is_disabled":false,"rental_uris":{"android":"levelo://app?vid=29afc0c1-4dc0-46ad-9fb1-ae4afbda23db","ios":"levelo://app?vid=29afc0c1-4dc0-46ad-9fb1-ae4afbda23db"},"vehicle_type_id":"4","last_reported":1743337020,"current_range_meters":12800,"station_id":"ce4bhbp2rcd13ifvqesg","pricing_plan_id":"cebpf4jnsgd1na2vs0mg"},{"bike_id":"78edf300-7db3-4c93-9631-38797c9b1771","system_id":"levelo_inurba_marseille","lat":43.29092,"lon":5.37174,"is_reserved":false,"is_disabled":true,"rental_uris":{"android":"levelo://app?vid=78edf300-7db3-4c93-9631-38797c9b1771","ios":"levelo://app?vid=78edf300-7db3-4c93-9631-38797c9b1771"},"vehicle_type_id":"4","last_reported":1743337020,"current_range_meters":12800,"station_id":"ce4bh5p2rcd13ifvqe4g","pricing_plan_id":"cebpf4jnsgd1na2vs0mg"},{"bike_id":"7393762e-5bb9-49a9-ae78-6bffc69ea4a3","system_id":"levelo_inurba_marseille","lat":43.23191,"lon":5.35553,"is_reserved":false,"is_disabled":false,"rental_uris":{"android":"levelo://app?vid=7393762e-5bb9-49a9-ae78-6bffc69ea4a3","ios":"levelo://app?vid=7393762e-5bb9-49a9-ae78-6bffc69ea4a3"},"vehicle_type_id":"4","last_reported":1743337020,"current_range_meters":12800,"station_id":"ce4bhu92rcd13ifvqi70","pricing_plan_id":"cebpf4jnsgd1na2vs0mg"},{"bike_id":"33b71a03-af89-4d43-acfc-37fb861e52f4","system_id":"levelo_inurba_marseille","lat":43.296044,"lon":5.368337,"is_reserved":false,"is_disabled":false,"rental_uris":{"android":"levelo://app?vid=33b71a03-af89-4d43-acfc-37fb861e52f4","ios":"levelo://app?vid=33b71a03-af89-4d43-acfc-37fb861e52f4"},"vehicle_type_id":"4","last_reported":1743337020,"current_range_meters":13600,"station_id":"ce4bgph2rcd13ifvqc2g","pricing_plan_id":"cebpf4jnsgd1na2vs0mg"},{"bike_id":"b8f510ae-ce93-4aef-b5c0-df71a7222779","system_id":"levelo_inurba_marseille","lat":43.25582,"lon":5.3823,"is_reserved":false,"is_disabled":false,"rental_uris":{"android":"levelo://app?vid=b8f510ae-ce93-4aef-b5c0-df71a7222779","ios":"levelo://app?vid=b8f510ae-ce93-4aef-b5c0-df71a7222779"},"vehicle_type_id":"4","last_reported":1743337020,"current_range_meters":13600,"station_id":"ce4bhih2rcd13ifvqfs0","pricing_plan_id":"cebpf4jnsgd1na2vs0mg"},{"bike_id":"150ede65-1d96-4620-b7cb-a24583da632e","system_id":"levelo_inurba_marseille","lat":43.273701,"lon":5.362534,"is_reserved":false,"is_disabled":false,"rental_uris":{"android":"levelo://app?vid=150ede65-1d96-4620-b7cb-a24583da632e","ios":"levelo://app?vid=150ede65-1d96-4620-b7cb-a24583da632e"},"vehicle_type_id":"4","last_reported":1743337020,"current_range_meters":13600,"station_id":"ce4bgh92rcd13ifvqb50","pricing_plan_id":"cebpf4jnsgd1na2vs0mg"},{"bike_id":"d5909811-dfd2-4278-9d59-e52a26d32dbf","system_id":"levelo_inurba_marseille","lat":43.30954,"lon":5.39025,"is_reserved":false,"is_disabled":false,"rental_uris":{"android":"levelo://app?vid=d5909811-dfd2-4278-9d59-e52a26d32dbf","ios":"levelo://app?vid=d5909811-dfd2-4278-9d59-e52a26d32dbf"},"vehicle_type_id":"4","last_reported":1743337020,"current_range_meters":13600,"station_id":"ce4bgup2rcd13ifvqco0","pricing_plan_id":"cebpf4jnsgd1na2vs0mg"},{"bike_id":"0e9787c2-9089-4ca0-8e7d-5b24bda06578","system_id":"levelo_inurba_marseille","lat":43.29003,"lon":5.35615,"is_reserved":false,"is_disabled":false,"rental_uris":{"android":"levelo://app?vid=0e9787c2-9089-4ca0-8e7d-5b24bda06578","ios":"levelo://app?vid=0e9787c2-9089-4ca0-8e7d-5b24bda06578"},"vehicle_type_id":"4","last_reported":1743337020,"current_range_meters":13600,"station_id":"ce4bhb92rcd13ifvqen0","pricing_plan_id":"cebpf4jnsgd1na2vs0mg"},{"bike_id":"12cd2614-5759-4501-9c23-d3351a7cc7df","system_id":"levelo_inurba_marseille","lat":43.30539,"lon":5.38432,"is_reserved":false,"is_disabled":true,"rental_uris":{"android":"levelo://app?vid=12cd2614-5759-4501-9c23-d3351a7cc7df","ios":"levelo://app?vid=12cd2614-5759-4501-9c23-d3351a7cc7df"},"vehicle_type_id":"4","last_reported":1743337020,"current_range_meters":13600,"station_id":"ce4bgg92rcd13ifvqb30","pricing_plan_id":"cebpf4jnsgd1na2vs0mg"},{"bike_id":"7bcef57b-2b32-4033-b8b4-6fd7fe51a930","system_id":"levelo_inurba_marseille","lat":43.28619,"lon":5.35106,"is_reserved":false,"is_disabled":false,"rental_uris":{"android":"levelo://app?vid=7bcef57b-2b32-4033-b8b4-6fd7fe51a930","ios":"levelo://app?vid=7bcef57b-2b32-4033-b8b4-6fd7fe51a930"},"vehicle_type_id":"4","last_reported":1743337020,"current_range_meters":13600,"station_id":"ce4bhch2rcd13ifvqeug","pricing_plan_id":"cebpf4jnsgd1na2vs0mg"},{"bike_id":"ba1107aa-9b1f-4710-bb75-05314e757fc6","system_id":"levelo_inurba_marseille","lat":43.31689,"lon":5.37217,"is_reserved":false,"is_disabled":false,"rental_uris":{"android":"levelo://app?vid=ba1107aa-9b1f-4710-bb75-05314e757fc6","ios":"levelo://app?vid=ba1107aa-9b1f-4710-bb75-05314e757fc6"},"vehicle_type_id":"4","last_reported":1743337020,"current_range_meters":13600,"station_id":"","pricing_plan_id":"cebpf4jnsgd1na2vs0mg"},{"bike_id":"9aa86a2e-60f5-473b-acb9-7a23a7b14417","system_id":"levelo_inurba_marseille","lat":43.29588,"lon":5.36754,"is_reserved":false,"is_disabled":true,"rental_uris":{"android":"levelo://app?vid=9aa86a2e-60f5-473b-acb9-7a23a7b14417","ios":"levelo://app?vid=9aa86a2e-60f5-473b-acb9-7a23a7b14417"},"vehicle_type_id":"4","last_reported":1743337020,"current_range_meters":13600,"station_id":"ce4bgph2rcd13ifvqc2g","pricing_plan_id":"cebpf4jnsgd1na2vs0mg"},{"bike_id":"e8668964-cdce-4ef2-9f10-72b4ee83b253","system_id":"levelo_inurba_marseille","lat":43.27393,"lon":5.36271,"is_reserved":false,"is_disabled":false,"rental_uris":{"android":"levelo://app?vid=e8668964-cdce-4ef2-9f10-72b4ee83b253","ios":"levelo://app?vid=e8668964-cdce-4ef2-9f10-72b4ee83b253"},"vehicle_type_id":"4","last_reported":1743337020,"current_range_meters":14000,"station_id":"ce4bhbh2rcd13ifvqeo0","pricing_plan_id":"cebpf4jnsgd1na2vs0mg"},{"bike_id":"0e810ec3-7fcf-4bb3-84cf-cbe6a91864c6","system_id":"levelo_inurba_marseille","lat":43.30538,"lon":5.3656,"is_reserved":false,"is_disabled":false,"rental_uris":{"android":"levelo://app?vid=0e810ec3-7fcf-4bb3-84cf-cbe6a91864c6","ios":"levelo://app?vid=0e810ec3-7fcf-4bb3-84cf-cbe6a91864c6"},"vehicle_type_id":"4","last_reported":1743337020,"current_range_meters":14000,"station_id":"ce4bgs12rcd13ifvqcag","pricing_plan_id":"cebpf4jnsgd1na2vs0mg"},{"bike_id":"fd077727-cac9-4da1-be78-e3859541690a","system_id":"levelo_inurba_marseille","lat":43.30531,"lon":5.38442,"is_reserved":false,"is_disabled":true,"rental_uris":{"android":"levelo://app?vid=fd077727-cac9-4da1-be78-e3859541690a","ios":"levelo://app?vid=fd077727-cac9-4da1-be78-e3859541690a"},"vehicle_type_id":"4","last_reported":1743337020,"current_range_meters":14000,"station_id":"ce4bgg92rcd13ifvqb30","pricing_plan_id":"cebpf4jnsgd1na2vs0mg"},{"bike_id":"64ecf796-40f8-4700-a746-c073caf1f490","system_id":"levelo_inurba_marseille","lat":43.23204,"lon":5.35549,"is_reserved":false,"is_disabled":false,"rental_uris":{"android":"levelo://app?vid=64ecf796-40f8-4700-a746-c073caf1f490","ios":"levelo://app?vid=64ecf796-40f8-4700-a746-c073caf1f490"},"vehicle_type_id":"4","last_reported":1743337020,"current_range_meters":14000,"station_id":"ce4bhu92rcd13ifvqi70","pricing_plan_id":"cebpf4jnsgd1na2vs0mg"},{"bike_id":"8800990b-0588-4701-9f9b-d00ff201f1bf","system_id":"levelo_inurba_marseille","lat":43.31766,"lon":5.38991,"is_reserved":false,"is_disabled":false,"rental_uris":{"android":"levelo://app?vid=8800990b-0588-4701-9f9b-d00ff201f1bf","ios":"levelo://app?vid=8800990b-0588-4701-9f9b-d00ff201f1bf"},"vehicle_type_id":"4","last_reported":1743337020,"current_range_meters":14000,"station_id":"ce4bhqp2rcd13ifvqhng","pricing_plan_id":"cebpf4jnsgd1na2vs0mg"},{"bike_id":"82f762ee-2002-48b3-821e-70c9f79bdd8f","system_id":"levelo_inurba_marseille","lat":43.279142,"lon":5.395774,"is_reserved":false,"is_disabled":false,"rental_uris":{"android":"levelo://app?vid=82f762ee-2002-48b3-821e-70c9f79bdd8f","ios":"levelo://app?vid=82f762ee-2002-48b3-821e-70c9f79bdd8f"},"vehicle_type_id":"4","last_reported":1743337020,"current_range_meters":14000,"station_id":"ce4bhf92rcd13ifvqf40","pricing_plan_id":"cebpf4jnsgd1na2vs0mg"},{"bike_id":"3c977ef6-1efc-43e4-a2f9-ce30e9e06f2c","system_id":"levelo_inurba_marseille","lat":43.229343,"lon":5.353737,"is_reserved":false,"is_disabled":false,"rental_uris":{"android":"levelo://app?vid=3c977ef6-1efc-43e4-a2f9-ce30e9e06f2c","ios":"levelo://app?vid=3c977ef6-1efc-43e4-a2f9-ce30e9e06f2c"},"vehicle_type_id":"4","last_reported":1743337020,"current_range_meters":14000,"station_id":"cpo3532slgdg3j2ikp40","pricing_plan_id":"cebpf4jnsgd1na2vs0mg"},{"bike_id":"fbf33462-8479-4caa-a48d-e0b58553d746","system_id":"levelo_inurba_marseille","lat":43.27069,"lon":5.42277,"is_reserved":false,"is_disabled":false,"rental_uris":{"android":"levelo://app?vid=fbf33462-8479-4caa-a48d-e0b58553d746","ios":"levelo://app?vid=fbf33462-8479-4caa-a48d-e0b58553d746"},"vehicle_type_id":"4","last_reported":1743337020,"current_range_meters":14000,"station_id":"ce4bhk92rcd13ifvqgb0","pricing_plan_id":"cebpf4jnsgd1na2vs0mg"},{"bike_id":"66fb4a10-01b5-4017-94e5-944f1fb86c5f","system_id":"levelo_inurba_marseille","lat":43.286811,"lon":5.383278,"is_reserved":false,"is_disabled":false,"rental_uris":{"android":"levelo://app?vid=66fb4a10-01b5-4017-94e5-944f1fb86c5f","ios":"levelo://app?vid=66fb4a10-01b5-4017-94e5-944f1fb86c5f"},"vehicle_type_id":"4","last_reported":1743337020,"current_range_meters":14000,"station_id":"ce4bh512rcd13ifvqe3g","pricing_plan_id":"cebpf4jnsgd1na2vs0mg"},{"bike_id":"0b60b6cc-65bb-4e73-8958-1b351c6fdd96","system_id":"levelo_inurba_marseille","lat":43.32111,"lon":5.36771,"is_reserved":false,"is_disabled":false,"rental_uris":{"android":"levelo://app?vid=0b60b6cc-65bb-4e73-8958-1b351c6fdd96","ios":"levelo://app?vid=0b60b6cc-65bb-4e73-8958-1b351c6fdd96"},"vehicle_type_id":"4","last_reported":1743337020,"current_range_meters":14000,"station_id":"ce4bhrh2rcd13ifvqhug","pricing_plan_id":"cebpf4jnsgd1na2vs0mg"},{"bike_id":"9483d6d4-95ea-4bab-997b-7838e3ea2f3d","system_id":"levelo_inurba_marseille","lat":43.22928,"lon":5.35375,"is_reserved":false,"is_disabled":false,"rental_uris":{"android":"levelo://app?vid=9483d6d4-95ea-4bab-997b-7838e3ea2f3d","ios":"levelo://app?vid=9483d6d4-95ea-4bab-997b-7838e3ea2f3d"},"vehicle_type_id":"4","last_reported":1743337020,"current_range_meters":14000,"station_id":"cpo3532slgdg3j2ikp40","pricing_plan_id":"cebpf4jnsgd1na2vs0mg"},{"bike_id":"b451f657-4487-4cd0-9567-98971bb70297","system_id":"levelo_inurba_marseille","lat":43.293065,"lon":5.37474,"is_reserved":false,"is_disabled":false,"rental_uris":{"android":"levelo://app?vid=b451f657-4487-4cd0-9567-98971bb70297","ios":"levelo://app?vid=b451f657-4487-4cd0-9567-98971bb70297"},"vehicle_type_id":"4","last_reported":1743337020,"current_range_meters":14000,"station_id":"ce4bgi12rcd13ifvqb70","pricing_plan_id":"cebpf4jnsgd1na2vs0mg"},{"bike_id":"8f96135a-7aff-4aa8-8e93-8414c9387f93","system_id":"levelo_inurba_marseille","lat":43.29693,"lon":5.37308,"is_reserved":false,"is_disabled":false,"rental_uris":{"android":"levelo://app?vid=8f96135a-7aff-4aa8-8e93-8414c9387f93","ios":"levelo://app?vid=8f96135a-7aff-4aa8-8e93-8414c9387f93"},"vehicle_type_id":"4","last_reported":1743337020,"current_range_meters":14000,"station_id":"ce4bgk12rcd13ifvqbj0","pricing_plan_id":"cebpf4jnsgd1na2vs0mg"},{"bike_id":"13b57f5b-2c2f-46da-af3f-90c624062a17","system_id":"levelo_inurba_marseille","lat":43.28455,"lon":5.35895,"is_reserved":false,"is_disabled":true,"rental_uris":{"android":"levelo://app?vid=13b57f5b-2c2f-46da-af3f-90c624062a17","ios":"levelo://app?vid=13b57f5b-2c2f-46da-af3f-90c624062a17"},"vehicle_type_id":"4","last_reported":1743337020,"current_range_meters":14400,"station_id":"ce4bhah2rcd13ifvqei0","pricing_plan_id":"cebpf4jnsgd1na2vs0mg"},{"bike_id":"19c4d38c-721f-4a6d-8de0-ad162aee3dc3","system_id":"levelo_inurba_marseille","lat":43.29872,"lon":5.38899,"is_reserved":false,"is_disabled":true,"rental_uris":{"android":"levelo://app?vid=19c4d38c-721f-4a6d-8de0-ad162aee3dc3","ios":"levelo://app?vid=19c4d38c-721f-4a6d-8de0-ad162aee3dc3"},"vehicle_type_id":"4","last_reported":1743337020,"current_range_meters":14400,"station_id":"ce4bh392rcd13ifvqdl0","pricing_plan_id":"cebpf4jnsgd1na2vs0mg"},{"bike_id":"fb0e2782-64d8-47c2-8a78-bad86b5dcc20","system_id":"levelo_inurba_marseille","lat":43.32112,"lon":5.36763,"is_reserved":false,"is_disabled":false,"rental_uris":{"android":"levelo://app?vid=fb0e2782-64d8-47c2-8a78-bad86b5dcc20","ios":"levelo://app?vid=fb0e2782-64d8-47c2-8a78-bad86b5dcc20"},"vehicle_type_id":"4","last_reported":1743337020,"current_range_meters":14400,"station_id":"ce4bhrh2rcd13ifvqhug","pricing_plan_id":"cebpf4jnsgd1na2vs0mg"},{"bike_id":"a36fd2b0-661b-4685-836e-c88d3954c5e6","system_id":"levelo_inurba_marseille","lat":43.30306,"lon":5.39211,"is_reserved":false,"is_disabled":false,"rental_uris":{"android":"levelo://app?vid=a36fd2b0-661b-4685-836e-c88d3954c5e6","ios":"levelo://app?vid=a36fd2b0-661b-4685-836e-c88d3954c5e6"},"vehicle_type_id":"4","last_reported":1743337020,"current_range_meters":14400,"station_id":"ce4bgkh2rcd13ifvqbk0","pricing_plan_id":"cebpf4jnsgd1na2vs0mg"},{"bike_id":"74a5f6ff-73a7-4ade-ba13-34ff715e864d","system_id":"levelo_inurba_marseille","lat":43.29849,"lon":5.36287,"is_reserved":false,"is_disabled":false,"rental_uris":{"android":"levelo://app?vid=74a5f6ff-73a7-4ade-ba13-34ff715e864d","ios":"levelo://app?vid=74a5f6ff-73a7-4ade-ba13-34ff715e864d"},"vehicle_type_id":"4","last_reported":1743337020,"current_range_meters":14400,"station_id":"ce4bgpp2rcd13ifvqc3g","pricing_plan_id":"cebpf4jnsgd1na2vs0mg"},{"bike_id":"d2bdab8d-508c-4617-a487-d6f2ad6bec6a","system_id":"levelo_inurba_marseille","lat":43.286179,"lon":5.351022,"is_reserved":false,"is_disabled":false,"rental_uris":{"android":"levelo://app?vid=d2bdab8d-508c-4617-a487-d6f2ad6bec6a","ios":"levelo://app?vid=d2bdab8d-508c-4617-a487-d6f2ad6bec6a"},"vehicle_type_id":"4","last_reported":1743337020,"current_range_meters":14800,"station_id":"ce4bhch2rcd13ifvqeug","pricing_plan_id":"cebpf4jnsgd1na2vs0mg"},{"bike_id":"e0568e94-9771-4e58-a512-303b4e9cb4f3","system_id":"levelo_inurba_marseille","lat":43.2738,"lon":5.36256,"is_reserved":false,"is_disabled":false,"rental_uris":{"android":"levelo://app?vid=e0568e94-9771-4e58-a512-303b4e9cb4f3","ios":"levelo://app?vid=e0568e94-9771-4e58-a512-303b4e9cb4f3"},"vehicle_type_id":"4","last_reported":1743337020,"current_range_meters":14800,"station_id":"ce4bhbh2rcd13ifvqeo0","pricing_plan_id":"cebpf4jnsgd1na2vs0mg"},{"bike_id":"268b4f79-5e60-4659-9497-950ce01d109f","system_id":"levelo_inurba_marseille","lat":43.28453,"lon":5.35254,"is_reserved":false,"is_disabled":false,"rental_uris":{"android":"levelo://app?vid=268b4f79-5e60-4659-9497-950ce01d109f","ios":"levelo://app?vid=268b4f79-5e60-4659-9497-950ce01d109f"},"vehicle_type_id":"4","last_reported":1743337020,"current_range_meters":14800,"station_id":"","pricing_plan_id":"cebpf4jnsgd1na2vs0mg"},{"bike_id":"0c83c844-7cf7-4496-9edf-0fe1cb0b7ee5","system_id":"levelo_inurba_marseille","lat":43.28624,"lon":5.35097,"is_reserved":false,"is_disabled":false,"rental_uris":{"android":"levelo://app?vid=0c83c844-7cf7-4496-9edf-0fe1cb0b7ee5","ios":"levelo://app?vid=0c83c844-7cf7-4496-9edf-0fe1cb0b7ee5"},"vehicle_type_id":"4","last_reported":1743337020,"current_range_meters":14800,"station_id":"ce4bhch2rcd13ifvqeug","pricing_plan_id":"cebpf4jnsgd1na2vs0mg"},{"bike_id":"0478fe1d-c2a2-4f7d-9015-8c2bef496fcf","system_id":"levelo_inurba_marseille","lat":43.2841,"lon":5.34994,"is_reserved":false,"is_disabled":false,"rental_uris":{"android":"levelo://app?vid=0478fe1d-c2a2-4f7d-9015-8c2bef496fcf","ios":"levelo://app?vid=0478fe1d-c2a2-4f7d-9015-8c2bef496fcf"},"vehicle_type_id":"4","last_reported":1743337020,"current_range_meters":14800,"station_id":"ce4bhbh2rcd13ifvqepg","pricing_plan_id":"cebpf4jnsgd1na2vs0mg"},{"bike_id":"4b54d8e8-77f2-4e8a-b660-1bc75a973c9a","system_id":"levelo_inurba_marseille","lat":43.25584,"lon":5.38235,"is_reserved":false,"is_disabled":false,"rental_uris":{"android":"levelo://app?vid=4b54d8e8-77f2-4e8a-b660-1bc75a973c9a","ios":"levelo://app?vid=4b54d8e8-77f2-4e8a-b660-1bc75a973c9a"},"vehicle_type_id":"4","last_reported":1743337020,"current_range_meters":14800,"station_id":"ce4bhih2rcd13ifvqfs0","pricing_plan_id":"cebpf4jnsgd1na2vs0mg"},{"bike_id":"e5e87896-fc79-4739-9748-f5cd1d13e44f","system_id":"levelo_inurba_marseille","lat":43.28616,"lon":5.35101,"is_reserved":false,"is_disabled":false,"rental_uris":{"android":"levelo://app?vid=e5e87896-fc79-4739-9748-f5cd1d13e44f","ios":"levelo://app?vid=e5e87896-fc79-4739-9748-f5cd1d13e44f"},"vehicle_type_id":"4","last_reported":1743337020,"current_range_meters":14800,"station_id":"ce4bhch2rcd13ifvqeug","pricing_plan_id":"cebpf4jnsgd1na2vs0mg"},{"bike_id":"42428cfe-3f95-40ff-9232-8a08d4516ac5","system_id":"levelo_inurba_marseille","lat":43.30149,"lon":5.38095,"is_reserved":false,"is_disabled":false,"rental_uris":{"android":"levelo://app?vid=42428cfe-3f95-40ff-9232-8a08d4516ac5","ios":"levelo://app?vid=42428cfe-3f95-40ff-9232-8a08d4516ac5"},"vehicle_type_id":"4","last_reported":1743337020,"current_range_meters":15200,"station_id":"ce4bgjp2rcd13ifvqbh0","pricing_plan_id":"cebpf4jnsgd1na2vs0mg"},{"bike_id":"241e0a1f-6c80-4361-905a-088d68ffcb9c","system_id":"levelo_inurba_marseille","lat":43.23189,"lon":5.35539,"is_reserved":false,"is_disabled":false,"rental_uris":{"android":"levelo://app?vid=241e0a1f-6c80-4361-905a-088d68ffcb9c","ios":"levelo://app?vid=241e0a1f-6c80-4361-905a-088d68ffcb9c"},"vehicle_type_id":"4","last_reported":1743337020,"current_range_meters":15200,"station_id":"ce4bhu92rcd13ifvqi70","pricing_plan_id":"cebpf4jnsgd1na2vs0mg"},{"bike_id":"8ae03cb6-12a0-41e7-9429-f6d58982918e","system_id":"levelo_inurba_marseille","lat":43.273865,"lon":5.362623,"is_reserved":false,"is_disabled":false,"rental_uris":{"android":"levelo://app?vid=8ae03cb6-12a0-41e7-9429-f6d58982918e","ios":"levelo://app?vid=8ae03cb6-12a0-41e7-9429-f6d58982918e"},"vehicle_type_id":"4","last_reported":1743337020,"current_range_meters":15200,"station_id":"ce4bh092rcd13ifvqd20","pricing_plan_id":"cebpf4jnsgd1na2vs0mg"},{"bike_id":"8f4145c4-1bd6-401b-a227-c2c77bf7d7af","system_id":"levelo_inurba_marseille","lat":43.3022,"lon":5.40022,"is_reserved":false,"is_disabled":true,"rental_uris":{"android":"levelo://app?vid=8f4145c4-1bd6-401b-a227-c2c77bf7d7af","ios":"levelo://app?vid=8f4145c4-1bd6-401b-a227-c2c77bf7d7af"},"vehicle_type_id":"4","last_reported":1743337020,"current_range_meters":15200,"station_id":"ce4bgvh2rcd13ifvqcs0","pricing_plan_id":"cebpf4jnsgd1na2vs0mg"},{"bike_id":"bedfee46-fb4a-4dd1-9c3a-cd2c339b1fee","system_id":"levelo_inurba_marseille","lat":43.28267,"lon":5.35083,"is_reserved":false,"is_disabled":false,"rental_uris":{"android":"levelo://app?vid=bedfee46-fb4a-4dd1-9c3a-cd2c339b1fee","ios":"levelo://app?vid=bedfee46-fb4a-4dd1-9c3a-cd2c339b1fee"},"vehicle_type_id":"4","last_reported":1743337020,"current_range_meters":15200,"station_id":"ce4bhbp2rcd13ifvqerg","pricing_plan_id":"cebpf4jnsgd1na2vs0mg"},{"bike_id":"4ec67fa5-e1ff-42cf-be21-3790683c74a0","system_id":"levelo_inurba_marseille","lat":43.30473,"lon":5.3793,"is_reserved":false,"is_disabled":false,"rental_uris":{"android":"levelo://app?vid=4ec67fa5-e1ff-42cf-be21-3790683c74a0","ios":"levelo://app?vid=4ec67fa5-e1ff-42cf-be21-3790683c74a0"},"vehicle_type_id":"4","last_reported":1743337020,"current_range_meters":15200,"station_id":"ce4bgup2rcd13ifvqcn0","pricing_plan_id":"cebpf4jnsgd1na2vs0mg"},{"bike_id":"179c9800-e6c2-4777-9a44-57c593dc44ac","system_id":"levelo_inurba_marseille","lat":43.32367,"lon":5.38877,"is_reserved":false,"is_disabled":false,"rental_uris":{"android":"levelo://app?vid=179c9800-e6c2-4777-9a44-57c593dc44ac","ios":"levelo://app?vid=179c9800-e6c2-4777-9a44-57c593dc44ac"},"vehicle_type_id":"4","last_reported":1743337020,"current_range_meters":16000,"station_id":"ce4bhqp2rcd13ifvqhog","pricing_plan_id":"cebpf4jnsgd1na2vs0mg"},{"bike_id":"b498851d-a8bd-42e6-9ac0-ecf776b06751","system_id":"levelo_inurba_marseille","lat":43.2863,"lon":5.35106,"is_reserved":false,"is_disabled":false,"rental_uris":{"android":"levelo://app?vid=b498851d-a8bd-42e6-9ac0-ecf776b06751","ios":"levelo://app?vid=b498851d-a8bd-42e6-9ac0-ecf776b06751"},"vehicle_type_id":"4","last_reported":1743337020,"current_range_meters":16000,"station_id":"ce4bhch2rcd13ifvqeug","pricing_plan_id":"cebpf4jnsgd1na2vs0mg"},{"bike_id":"7ea68eb7-494c-4142-bc2a-cc3b7ffd2495","system_id":"levelo_inurba_marseille","lat":43.23052,"lon":5.35493,"is_reserved":false,"is_disabled":false,"rental_uris":{"android":"levelo://app?vid=7ea68eb7-494c-4142-bc2a-cc3b7ffd2495","ios":"levelo://app?vid=7ea68eb7-494c-4142-bc2a-cc3b7ffd2495"},"vehicle_type_id":"4","last_reported":1743337020,"current_range_meters":16000,"station_id":"cpo3342slgdg3j2ifvpg","pricing_plan_id":"cebpf4jnsgd1na2vs0mg"},{"bike_id":"4e337cac-2264-441a-834d-6a47482f2735","system_id":"levelo_inurba_marseille","lat":43.30729,"lon":5.39236,"is_reserved":false,"is_disabled":false,"rental_uris":{"android":"levelo://app?vid=4e337cac-2264-441a-834d-6a47482f2735","ios":"levelo://app?vid=4e337cac-2264-441a-834d-6a47482f2735"},"vehicle_type_id":"4","last_reported":1743337020,"current_range_meters":15200,"station_id":"ce4bgup2rcd13ifvqco0","pricing_plan_id":"cebpf4jnsgd1na2vs0mg"},{"bike_id":"acb5093b-2f4e-426c-bad9-b8653e366a27","system_id":"levelo_inurba_marseille","lat":43.29203,"lon":5.36023,"is_reserved":false,"is_disabled":false,"rental_uris":{"android":"levelo://app?vid=acb5093b-2f4e-426c-bad9-b8653e366a27","ios":"levelo://app?vid=acb5093b-2f4e-426c-bad9-b8653e366a27"},"vehicle_type_id":"4","last_reported":1743337020,"current_range_meters":16000,"station_id":"","pricing_plan_id":"cebpf4jnsgd1na2vs0mg"},{"bike_id":"f4aa7984-6e0a-4355-a188-7dfbb140094d","system_id":"levelo_inurba_marseille","lat":43.28179,"lon":5.42651,"is_reserved":false,"is_disabled":false,"rental_uris":{"android":"levelo://app?vid=f4aa7984-6e0a-4355-a188-7dfbb140094d","ios":"levelo://app?vid=f4aa7984-6e0a-4355-a188-7dfbb140094d"},"vehicle_type_id":"4","last_reported":1743337020,"current_range_meters":16000,"station_id":"ce4bhnh2rcd13ifvqgug","pricing_plan_id":"cebpf4jnsgd1na2vs0mg"},{"bike_id":"a9cd4874-e1ab-4062-b328-49eb2a454437","system_id":"levelo_inurba_marseille","lat":43.28403,"lon":5.35011,"is_reserved":false,"is_disabled":false,"rental_uris":{"android":"levelo://app?vid=a9cd4874-e1ab-4062-b328-49eb2a454437","ios":"levelo://app?vid=a9cd4874-e1ab-4062-b328-49eb2a454437"},"vehicle_type_id":"4","last_reported":1743337020,"current_range_meters":16000,"station_id":"ce4bhbh2rcd13ifvqepg","pricing_plan_id":"cebpf4jnsgd1na2vs0mg"},{"bike_id":"ddd87c41-bb83-428a-8d89-aa68329e6b50","system_id":"levelo_inurba_marseille","lat":43.23203,"lon":5.35542,"is_reserved":false,"is_disabled":false,"rental_uris":{"android":"levelo://app?vid=ddd87c41-bb83-428a-8d89-aa68329e6b50","ios":"levelo://app?vid=ddd87c41-bb83-428a-8d89-aa68329e6b50"},"vehicle_type_id":"4","last_reported":1743337020,"current_range_meters":16000,"station_id":"ce4bhu92rcd13ifvqi70","pricing_plan_id":"cebpf4jnsgd1na2vs0mg"},{"bike_id":"37eb080e-460c-404c-848d-74e43141bace","system_id":"levelo_inurba_marseille","lat":43.28924,"lon":5.38391,"is_reserved":false,"is_disabled":false,"rental_uris":{"android":"levelo://app?vid=37eb080e-460c-404c-848d-74e43141bace","ios":"levelo://app?vid=37eb080e-460c-404c-848d-74e43141bace"},"vehicle_type_id":"4","last_reported":1743337020,"current_range_meters":16000,"station_id":"ce4bh612rcd13ifvqe6g","pricing_plan_id":"cebpf4jnsgd1na2vs0mg"},{"bike_id":"8a10f383-19c5-4923-b922-98dfb0c55539","system_id":"levelo_inurba_marseille","lat":43.23195,"lon":5.35548,"is_reserved":false,"is_disabled":false,"rental_uris":{"android":"levelo://app?vid=8a10f383-19c5-4923-b922-98dfb0c55539","ios":"levelo://app?vid=8a10f383-19c5-4923-b922-98dfb0c55539"},"vehicle_type_id":"4","last_reported":1743337020,"current_range_meters":16000,"station_id":"ce4bhu92rcd13ifvqi70","pricing_plan_id":"cebpf4jnsgd1na2vs0mg"},{"bike_id":"f39d06c5-353e-41bb-aafd-f13f8a2153d5","system_id":"levelo_inurba_marseille","lat":43.27372,"lon":5.3625,"is_reserved":false,"is_disabled":false,"rental_uris":{"android":"levelo://app?vid=f39d06c5-353e-41bb-aafd-f13f8a2153d5","ios":"levelo://app?vid=f39d06c5-353e-41bb-aafd-f13f8a2153d5"},"vehicle_type_id":"4","last_reported":1743337020,"current_range_meters":16000,"station_id":"ce4bhbh2rcd13ifvqeo0","pricing_plan_id":"cebpf4jnsgd1na2vs0mg"},{"bike_id":"3550a36d-3c45-4392-b638-e4bfcd519444","system_id":"levelo_inurba_marseille","lat":43.29924,"lon":5.38143,"is_reserved":false,"is_disabled":true,"rental_uris":{"android":"levelo://app?vid=3550a36d-3c45-4392-b638-e4bfcd519444","ios":"levelo://app?vid=3550a36d-3c45-4392-b638-e4bfcd519444"},