{"last_updated":1733328733,"ttl":60,"version":"2.2","data":{"bikes":[{"bike_id":"9c3aeecc-545e-47e2-a458-bee55ada9812","system_id":"levelo_inurba_marseille","lat":43.27655,"lon":5.389,"is_reserved":false,"is_disabled":false,"rental_uris":{"android":"levelo://app?vid=9c3aeecc-545e-47e2-a458-bee55ada9812","ios":"levelo://app?vid=9c3aeecc-545e-47e2-a458-bee55ada9812"},"vehicle_type_id":"4","last_reported":1733328733,"current_range_meters":8000,"station_id":"ce4bhi12rcd13ifvqfo0","pricing_plan_id":"cebpf4jnsgd1na2vs0mg"},{"bike_id":"af6541e2-0563-4b44-9bab-fdf3df615c7d","system_id":"levelo_inurba_marseille","lat":43.2846,"lon":5.35877,"is_reserved":false,"is_disabled":true,"rental_uris":{"android":"levelo://app?vid=af6541e2-0563-4b44-9bab-fdf3df615c7d","ios":"levelo://app?vid=af6541e2-0563-4b44-9bab-fdf3df615c7d"},"vehicle_type_id":"4","last_reported":1733328733,"current_range_meters":0,"station_id":"ce4bhah2rcd13ifvqei0","pricing_plan_id":"cebpf4jnsgd1na2vs0mg"},{"bike_id":"a97ff103-80f4-4af0-ab5e-92bafcd223d0","system_id":"levelo_inurba_marseille","lat":43.27919,"lon":5.39578,"is_reserved":false,"is_disabled":false,"rental_uris":{"android":"levelo://app?vid=a97ff103-80f4-4af0-ab5e-92bafcd223d0","ios":"levelo://app?vid=a97ff103-80f4-4af0-ab5e-92bafcd223d0"},"vehicle_type_id":"4","last_reported":1733328733,"current_range_meters":4000,"station_id":"ce4bhf92rcd13ifvqf40","pricing_plan_id":"cebpf4jnsgd1na2vs0mg"},{"bike_id":"df479c2c-35ac-44ad-b9d6-81c89ed769ce","system_id":"levelo_inurba_marseille","lat":43.29699,"lon":5.37054,"is_reserved":false,"is_disabled":true,"rental_uris":{"android":"levelo://app?vid=df479c2c-35ac-44ad-b9d6-81c89ed769ce","ios":"levelo://app?vid=df479c2c-35ac-44ad-b9d6-81c89ed769ce"},"vehicle_type_id":"4","last_reported":1733328733,"current_range_meters":0,"station_id":"","pricing_plan_id":"cebpf4jnsgd1na2vs0mg"},{"bike_id":"8e029eaf-e104-4c5d-858d-6cd39de73d09","system_id":"levelo_inurba_marseille","lat":43.241646,"lon":5.364069,"is_reserved":false,"is_disabled":false,"rental_uris":{"android":"levelo://app?vid=8e029eaf-e104-4c5d-858d-6cd39de73d09","ios":"levelo://app?vid=8e029eaf-e104-4c5d-858d-6cd39de73d09"},"vehicle_type_id":"4","last_reported":1733328733,"current_range_meters":9200,"station_id":"cpo36qri1sfpv3e86is0","pricing_plan_id":"cebpf4jnsgd1na2vs0mg"},{"bike_id":"ec214fcc-1436-4e45-9e26-036b12657ba2","system_id":"levelo_inurba_marseille","lat":43.27376,"lon":5.36274,"is_reserved":false,"is_disabled":false,"rental_uris":{"android":"levelo://app?vid=ec214fcc-1436-4e45-9e26-036b12657ba2","ios":"levelo://app?vid=ec214fcc-1436-4e45-9e26-036b12657ba2"},"vehicle_type_id":"4","last_reported":1733328733,"current_range_meters":26000,"station_id":"ce4bhbh2rcd13ifvqeo0","pricing_plan_id":"cebpf4jnsgd1na2vs0mg"},{"bike_id":"fd85f247-bc9f-4512-8957-89e7641ccdee","system_id":"levelo_inurba_marseille","lat":43.32476,"lon":5.36575,"is_reserved":false,"is_disabled":false,"rental_uris":{"android":"levelo://app?vid=fd85f247-bc9f-4512-8957-89e7641ccdee","ios":"levelo://app?vid=fd85f247-bc9f-4512-8957-89e7641ccdee"},"vehicle_type_id":"4","last_reported":1733328733,"current_range_meters":33600,"station_id":"ce4bhs12rcd13ifvqhvg","pricing_plan_id":"cebpf4jnsgd1na2vs0mg"},{"bike_id":"5b6923f6-d160-4164-8d19-2a6fc5cfd768","system_id":"levelo_inurba_marseille","lat":43.29536,"lon":5.38544,"is_reserved":false,"is_disabled":false,"rental_uris":{"android":"levelo://app?vid=5b6923f6-d160-4164-8d19-2a6fc5cfd768","ios":"levelo://app?vid=5b6923f6-d160-4164-8d19-2a6fc5cfd768"},"vehicle_type_id":"4","last_reported":1733328733,"current_range_meters":38800,"station_id":"ce4bgih2rcd13ifvqba0","pricing_plan_id":"cebpf4jnsgd1na2vs0mg"},{"bike_id":"c18b11f8-3b2e-413a-9314-79af87291793","system_id":"levelo_inurba_marseille","lat":43.24392,"lon":5.37058,"is_reserved":false,"is_disabled":false,"rental_uris":{"android":"levelo://app?vid=c18b11f8-3b2e-413a-9314-79af87291793","ios":"levelo://app?vid=c18b11f8-3b2e-413a-9314-79af87291793"},"vehicle_type_id":"4","last_reported":1733328733,"current_range_meters":32000,"station_id":"ce4bhhh2rcd13ifvqfk0","pricing_plan_id":"cebpf4jnsgd1na2vs0mg"},{"bike_id":"dd12fbc3-1202-43d6-a305-7efbc7fc7964","system_id":"levelo_inurba_marseille","lat":43.2679,"lon":5.39421,"is_reserved":false,"is_disabled":false,"rental_uris":{"android":"levelo://app?vid=dd12fbc3-1202-43d6-a305-7efbc7fc7964","ios":"levelo://app?vid=dd12fbc3-1202-43d6-a305-7efbc7fc7964"},"vehicle_type_id":"4","last_reported":1733328733,"current_range_meters":26800,"station_id":"ce4bhh12rcd13ifvqfg0","pricing_plan_id":"cebpf4jnsgd1na2vs0mg"},{"bike_id":"8ee12099-d26b-4046-b0c1-628a74017b74","system_id":"levelo_inurba_marseille","lat":43.30804,"lon":5.43524,"is_reserved":false,"is_disabled":false,"rental_uris":{"android":"levelo://app?vid=8ee12099-d26b-4046-b0c1-628a74017b74","ios":"levelo://app?vid=8ee12099-d26b-4046-b0c1-628a74017b74"},"vehicle_type_id":"4","last_reported":1733328733,"current_range_meters":16400,"station_id":"ce4bhph2rcd13ifvqheg","pricing_plan_id":"cebpf4jnsgd1na2vs0mg"},{"bike_id":"be407bbe-d1ce-48de-8db2-09114af9efd7","system_id":"levelo_inurba_marseille","lat":43.32365,"lon":5.36759,"is_reserved":false,"is_disabled":false,"rental_uris":{"android":"levelo://app?vid=be407bbe-d1ce-48de-8db2-09114af9efd7","ios":"levelo://app?vid=be407bbe-d1ce-48de-8db2-09114af9efd7"},"vehicle_type_id":"4","last_reported":1733328733,"current_range_meters":33600,"station_id":"ce4bhsh2rcd13ifvqi2g","pricing_plan_id":"cebpf4jnsgd1na2vs0mg"},{"bike_id":"f88c44d6-ee03-432d-a623-1078c9ac9304","system_id":"levelo_inurba_marseille","lat":43.28708,"lon":5.39988,"is_reserved":false,"is_disabled":false,"rental_uris":{"android":"levelo://app?vid=f88c44d6-ee03-432d-a623-1078c9ac9304","ios":"levelo://app?vid=f88c44d6-ee03-432d-a623-1078c9ac9304"},"vehicle_type_id":"4","last_reported":1733328733,"current_range_meters":34800,"station_id":"ce4bho92rcd13ifvqh3g","pricing_plan_id":"cebpf4jnsgd1na2vs0mg"},{"bike_id":"ad79bbd6-cd17-486a-bee8-d0203535d925","system_id":"levelo_inurba_marseille","lat":43.26807,"lon":5.40267,"is_reserved":false,"is_disabled":false,"rental_uris":{"android":"levelo://app?vid=ad79bbd6-cd17-486a-bee8-d0203535d925","ios":"levelo://app?vid=ad79bbd6-cd17-486a-bee8-d0203535d925"},"vehicle_type_id":"4","last_reported":1733328733,"current_range_meters":28400,"station_id":"ce501612rcd8frsf0b60","pricing_plan_id":"cebpf4jnsgd1na2vs0mg"},{"bike_id":"36c89113-0e03-43ff-92cf-b9ae35a0ce9e","system_id":"levelo_inurba_marseille","lat":43.27378,"lon":5.36259,"is_reserved":false,"is_disabled":false,"rental_uris":{"android":"levelo://app?vid=36c89113-0e03-43ff-92cf-b9ae35a0ce9e","ios":"levelo://app?vid=36c89113-0e03-43ff-92cf-b9ae35a0ce9e"},"vehicle_type_id":"4","last_reported":1733328733,"current_range_meters":36800,"station_id":"ce4bhbh2rcd13ifvqeo0","pricing_plan_id":"cebpf4jnsgd1na2vs0mg"},{"bike_id":"8bd642b2-0279-44c7-9ee2-fc3b57332c83","system_id":"levelo_inurba_marseille","lat":43.27455,"lon":5.40073,"is_reserved":false,"is_disabled":true,"rental_uris":{"android":"levelo://app?vid=8bd642b2-0279-44c7-9ee2-fc3b57332c83","ios":"levelo://app?vid=8bd642b2-0279-44c7-9ee2-fc3b57332c83"},"vehicle_type_id":"4","last_reported":1733328733,"current_range_meters":0,"station_id":"","pricing_plan_id":"cebpf4jnsgd1na2vs0mg"},{"bike_id":"11f5aad4-f634-4bad-a6fd-1befefbb0f85","system_id":"levelo_inurba_marseille","lat":43.27208,"lon":5.39189,"is_reserved":false,"is_disabled":false,"rental_uris":{"android":"levelo://app?vid=11f5aad4-f634-4bad-a6fd-1befefbb0f85","ios":"levelo://app?vid=11f5aad4-f634-4bad-a6fd-1befefbb0f85"},"vehicle_type_id":"4","last_reported":1733328733,"current_range_meters":33600,"station_id":"ce4bhhp2rcd13ifvqfm0","pricing_plan_id":"cebpf4jnsgd1na2vs0mg"},{"bike_id":"b0a6b8cb-b87c-42a1-bb2a-d467fb1e12f5","system_id":"levelo_inurba_marseille","lat":43.28579,"lon":5.39499,"is_reserved":false,"is_disabled":false,"rental_uris":{"android":"levelo://app?vid=b0a6b8cb-b87c-42a1-bb2a-d467fb1e12f5","ios":"levelo://app?vid=b0a6b8cb-b87c-42a1-bb2a-d467fb1e12f5"},"vehicle_type_id":"4","last_reported":1733328733,"current_range_meters":30800,"station_id":"ce4bh292rcd13ifvqdg0","pricing_plan_id":"cebpf4jnsgd1na2vs0mg"},{"bike_id":"4a976244-3890-4114-9226-35029f48949e","system_id":"levelo_inurba_marseille","lat":43.29842,"lon":5.36271,"is_reserved":false,"is_disabled":false,"rental_uris":{"android":"levelo://app?vid=4a976244-3890-4114-9226-35029f48949e","ios":"levelo://app?vid=4a976244-3890-4114-9226-35029f48949e"},"vehicle_type_id":"4","last_reported":1733328733,"current_range_meters":30000,"station_id":"ce4bgpp2rcd13ifvqc3g","pricing_plan_id":"cebpf4jnsgd1na2vs0mg"},{"bike_id":"ff2064d6-9ac2-4720-8918-beef287147ce","system_id":"levelo_inurba_marseille","lat":43.30429,"lon":5.38895,"is_reserved":false,"is_disabled":false,"rental_uris":{"android":"levelo://app?vid=ff2064d6-9ac2-4720-8918-beef287147ce","ios":"levelo://app?vid=ff2064d6-9ac2-4720-8918-beef287147ce"},"vehicle_type_id":"4","last_reported":1733328733,"current_range_meters":19200,"station_id":"ce4bgk12rcd13ifvqbi0","pricing_plan_id":"cebpf4jnsgd1na2vs0mg"},{"bike_id":"ab4ec4be-9f6e-4c60-97d8-25eb522e5410","system_id":"levelo_inurba_marseille","lat":43.25938,"lon":5.40901,"is_reserved":false,"is_disabled":false,"rental_uris":{"android":"levelo://app?vid=ab4ec4be-9f6e-4c60-97d8-25eb522e5410","ios":"levelo://app?vid=ab4ec4be-9f6e-4c60-97d8-25eb522e5410"},"vehicle_type_id":"4","last_reported":1733328733,"current_range_meters":31200,"station_id":"ce4bhm92rcd13ifvqglg","pricing_plan_id":"cebpf4jnsgd1na2vs0mg"},{"bike_id":"8fb4fc01-9c74-4099-a4e7-385400000c12","system_id":"levelo_inurba_marseille","lat":43.26568,"lon":5.39022,"is_reserved":false,"is_disabled":false,"rental_uris":{"android":"levelo://app?vid=8fb4fc01-9c74-4099-a4e7-385400000c12","ios":"levelo://app?vid=8fb4fc01-9c74-4099-a4e7-385400000c12"},"vehicle_type_id":"4","last_reported":1733328733,"current_range_meters":38800,"station_id":"ce4bhe12rcd13ifvqf30","pricing_plan_id":"cebpf4jnsgd1na2vs0mg"},{"bike_id":"b52a5e05-09cc-4a3d-b78d-46c5f550debe","system_id":"levelo_inurba_marseille","lat":43.23188,"lon":5.39992,"is_reserved":false,"is_disabled":false,"rental_uris":{"android":"levelo://app?vid=b52a5e05-09cc-4a3d-b78d-46c5f550debe","ios":"levelo://app?vid=b52a5e05-09cc-4a3d-b78d-46c5f550debe"},"vehicle_type_id":"4","last_reported":1733328733,"current_range_meters":36000,"station_id":"ce4bhn12rcd13ifvqgqg","pricing_plan_id":"cebpf4jnsgd1na2vs0mg"},{"bike_id":"276dc8d0-d07c-4097-ade0-8d3c2e00a69d","system_id":"levelo_inurba_marseille","lat":43.30972,"lon":5.375407,"is_reserved":false,"is_disabled":true,"rental_uris":{"android":"levelo://app?vid=276dc8d0-d07c-4097-ade0-8d3c2e00a69d","ios":"levelo://app?vid=276dc8d0-d07c-4097-ade0-8d3c2e00a69d"},"vehicle_type_id":"4","last_reported":1733328733,"current_range_meters":0,"station_id":"","pricing_plan_id":"cebpf4jnsgd1na2vs0mg"},{"bike_id":"dac5e254-1536-4087-a738-b9cdc35c9c7f","system_id":"levelo_inurba_marseille","lat":43.30551,"lon":5.36535,"is_reserved":false,"is_disabled":false,"rental_uris":{"android":"levelo://app?vid=dac5e254-1536-4087-a738-b9cdc35c9c7f","ios":"levelo://app?vid=dac5e254-1536-4087-a738-b9cdc35c9c7f"},"vehicle_type_id":"4","last_reported":1733328733,"current_range_meters":15200,"station_id":"ce4bgs12rcd13ifvqcag","pricing_plan_id":"cebpf4jnsgd1na2vs0mg"},{"bike_id":"28b52837-d828-49e4-b4be-cfbac010c328","system_id":"levelo_inurba_marseille","lat":43.33735,"lon":5.39188,"is_reserved":false,"is_disabled":false,"rental_uris":{"android":"levelo://app?vid=28b52837-d828-49e4-b4be-cfbac010c328","ios":"levelo://app?vid=28b52837-d828-49e4-b4be-cfbac010c328"},"vehicle_type_id":"4","last_reported":1733328733,"current_range_meters":35600,"station_id":"ce4bhr92rcd13ifvqhsg","pricing_plan_id":"cebpf4jnsgd1na2vs0mg"},{"bike_id":"b3f478ac-3b05-4edf-bdbf-76399090f8e9","system_id":"levelo_inurba_marseille","lat":43.29994,"lon":5.37639,"is_reserved":false,"is_disabled":true,"rental_uris":{"android":"levelo://app?vid=b3f478ac-3b05-4edf-bdbf-76399090f8e9","ios":"levelo://app?vid=b3f478ac-3b05-4edf-bdbf-76399090f8e9"},"vehicle_type_id":"4","last_reported":1733328733,"current_range_meters":0,"station_id":"","pricing_plan_id":"cebpf4jnsgd1na2vs0mg"},{"bike_id":"c3587c28-5435-41c6-a9b7-aa468e6b19aa","system_id":"levelo_inurba_marseille","lat":43.29746,"lon":5.37916,"is_reserved":false,"is_disabled":true,"rental_uris":{"android":"levelo://app?vid=c3587c28-5435-41c6-a9b7-aa468e6b19aa","ios":"levelo://app?vid=c3587c28-5435-41c6-a9b7-aa468e6b19aa"},"vehicle_type_id":"4","last_reported":1733328733,"current_range_meters":0,"station_id":"","pricing_plan_id":"cebpf4jnsgd1na2vs0mg"},{"bike_id":"75c4f34a-89f4-4145-a2e2-7dafbc1cdf90","system_id":"levelo_inurba_marseille","lat":43.2901,"lon":5.37263,"is_reserved":false,"is_disabled":true,"rental_uris":{"android":"levelo://app?vid=75c4f34a-89f4-4145-a2e2-7dafbc1cdf90","ios":"levelo://app?vid=75c4f34a-89f4-4145-a2e2-7dafbc1cdf90"},"vehicle_type_id":"4","last_reported":1733328733,"current_range_meters":0,"station_id":"","pricing_plan_id":"cebpf4jnsgd1na2vs0mg"},{"bike_id":"11a15adf-e1f8-45dd-9bc8-9495376d88e4","system_id":"levelo_inurba_marseille","lat":43.306115,"lon":5.393545,"is_reserved":false,"is_disabled":true,"rental_uris":{"android":"levelo://app?vid=11a15adf-e1f8-45dd-9bc8-9495376d88e4","ios":"levelo://app?vid=11a15adf-e1f8-45dd-9bc8-9495376d88e4"},"vehicle_type_id":"4","last_reported":1733328733,"current_range_meters":2000,"station_id":"ce4bh0p2rcd13ifvqd80","pricing_plan_id":"cebpf4jnsgd1na2vs0mg"},{"bike_id":"e26fe73d-829f-4701-863c-9ea1b6a3d5ea","system_id":"levelo_inurba_marseille","lat":43.28461,"lon":5.35891,"is_reserved":false,"is_disabled":false,"rental_uris":{"android":"levelo://app?vid=e26fe73d-829f-4701-863c-9ea1b6a3d5ea","ios":"levelo://app?vid=e26fe73d-829f-4701-863c-9ea1b6a3d5ea"},"vehicle_type_id":"4","last_reported":1733328733,"current_range_meters":6000,"station_id":"ce4bhah2rcd13ifvqei0","pricing_plan_id":"cebpf4jnsgd1na2vs0mg"},{"bike_id":"e8d9fcd3-6c4c-4c2e-a87e-41c5e4dfa6d0","system_id":"levelo_inurba_marseille","lat":43.25438,"lon":5.38158,"is_reserved":false,"is_disabled":true,"rental_uris":{"android":"levelo://app?vid=e8d9fcd3-6c4c-4c2e-a87e-41c5e4dfa6d0","ios":"levelo://app?vid=e8d9fcd3-6c4c-4c2e-a87e-41c5e4dfa6d0"},"vehicle_type_id":"4","last_reported":1733328733,"current_range_meters":0,"station_id":"","pricing_plan_id":"cebpf4jnsgd1na2vs0mg"},{"bike_id":"e7c2b082-ef91-42b1-9ef0-9e4329cee9cb","system_id":"levelo_inurba_marseille","lat":43.2992,"lon":5.40347,"is_reserved":false,"is_disabled":true,"rental_uris":{"android":"levelo://app?vid=e7c2b082-ef91-42b1-9ef0-9e4329cee9cb","ios":"levelo://app?vid=e7c2b082-ef91-42b1-9ef0-9e4329cee9cb"},"vehicle_type_id":"4","last_reported":1733328733,"current_range_meters":0,"station_id":"","pricing_plan_id":"cebpf4jnsgd1na2vs0mg"},{"bike_id":"98e1f04b-2acd-40f4-8f63-cfa8b18ae075","system_id":"levelo_inurba_marseille","lat":43.31437,"lon":5.374,"is_reserved":false,"is_disabled":false,"rental_uris":{"android":"levelo://app?vid=98e1f04b-2acd-40f4-8f63-cfa8b18ae075","ios":"levelo://app?vid=98e1f04b-2acd-40f4-8f63-cfa8b18ae075"},"vehicle_type_id":"4","last_reported":1733328733,"current_range_meters":16000,"station_id":"","pricing_plan_id":"cebpf4jnsgd1na2vs0mg"},{"bike_id":"bbdc17ac-71e0-4511-8a92-773439433f56","system_id":"levelo_inurba_marseille","lat":43.28469,"lon":5.38424,"is_reserved":false,"is_disabled":false,"rental_uris":{"android":"levelo://app?vid=bbdc17ac-71e0-4511-8a92-773439433f56","ios":"levelo://app?vid=bbdc17ac-71e0-4511-8a92-773439433f56"},"vehicle_type_id":"4","last_reported":1733328733,"current_range_meters":35200,"station_id":"ce4bh512rcd13ifvqe3g","pricing_plan_id":"cebpf4jnsgd1na2vs0mg"},{"bike_id":"c6b083b4-fa7e-462c-8ad0-abeffc85410a","system_id":"levelo_inurba_marseille","lat":43.26208,"lon":5.37935,"is_reserved":false,"is_disabled":false,"rental_uris":{"android":"levelo://app?vid=c6b083b4-fa7e-462c-8ad0-abeffc85410a","ios":"levelo://app?vid=c6b083b4-fa7e-462c-8ad0-abeffc85410a"},"vehicle_type_id":"4","last_reported":1733328733,"current_range_meters":35200,"station_id":"ce4bhjp2rcd13ifvqg90","pricing_plan_id":"cebpf4jnsgd1na2vs0mg"},{"bike_id":"5642148d-d659-4578-a98b-0f168c5862c7","system_id":"levelo_inurba_marseille","lat":43.30132,"lon":5.38776,"is_reserved":false,"is_disabled":false,"rental_uris":{"android":"levelo://app?vid=5642148d-d659-4578-a98b-0f168c5862c7","ios":"levelo://app?vid=5642148d-d659-4578-a98b-0f168c5862c7"},"vehicle_type_id":"4","last_reported":1733328733,"current_range_meters":30400,"station_id":"ce4bghh2rcd13ifvqb60","pricing_plan_id":"cebpf4jnsgd1na2vs0mg"},{"bike_id":"6ccea62f-85fd-4b38-aa64-3aeca7835d66","system_id":"levelo_inurba_marseille","lat":43.25116,"lon":5.40326,"is_reserved":false,"is_disabled":false,"rental_uris":{"android":"levelo://app?vid=6ccea62f-85fd-4b38-aa64-3aeca7835d66","ios":"levelo://app?vid=6ccea62f-85fd-4b38-aa64-3aeca7835d66"},"vehicle_type_id":"4","last_reported":1733328733,"current_range_meters":19600,"station_id":"ce4bhlh2rcd13ifvqgig","pricing_plan_id":"cebpf4jnsgd1na2vs0mg"},{"bike_id":"0f30e837-871f-4a2c-aeff-7fec469dda07","system_id":"levelo_inurba_marseille","lat":43.29905,"lon":5.43665,"is_reserved":false,"is_disabled":false,"rental_uris":{"android":"levelo://app?vid=0f30e837-871f-4a2c-aeff-7fec469dda07","ios":"levelo://app?vid=0f30e837-871f-4a2c-aeff-7fec469dda07"},"vehicle_type_id":"4","last_reported":1733328733,"current_range_meters":20000,"station_id":"ce4bhpp2rcd13ifvqhfg","pricing_plan_id":"cebpf4jnsgd1na2vs0mg"},{"bike_id":"dfdab842-6863-4af8-9afd-054176295b2d","system_id":"levelo_inurba_marseille","lat":43.24668,"lon":5.3817,"is_reserved":false,"is_disabled":true,"rental_uris":{"android":"levelo://app?vid=dfdab842-6863-4af8-9afd-054176295b2d","ios":"levelo://app?vid=dfdab842-6863-4af8-9afd-054176295b2d"},"vehicle_type_id":"4","last_reported":1733328733,"current_range_meters":0,"station_id":"ce4bhih2rcd13ifvqfr0","pricing_plan_id":"cebpf4jnsgd1na2vs0mg"},{"bike_id":"2f3968e7-9336-4ee4-ba78-8e92c0a818cc","system_id":"levelo_inurba_marseille","lat":43.31322,"lon":5.36647,"is_reserved":false,"is_disabled":true,"rental_uris":{"android":"levelo://app?vid=2f3968e7-9336-4ee4-ba78-8e92c0a818cc","ios":"levelo://app?vid=2f3968e7-9336-4ee4-ba78-8e92c0a818cc"},"vehicle_type_id":"4","last_reported":1733328733,"current_range_meters":2000,"station_id":"","pricing_plan_id":"cebpf4jnsgd1na2vs0mg"},{"bike_id":"6886868c-fd2b-4328-909c-dee31cbf1caa","system_id":"levelo_inurba_marseille","lat":43.23185,"lon":5.35551,"is_reserved":false,"is_disabled":false,"rental_uris":{"android":"levelo://app?vid=6886868c-fd2b-4328-909c-dee31cbf1caa","ios":"levelo://app?vid=6886868c-fd2b-4328-909c-dee31cbf1caa"},"vehicle_type_id":"4","last_reported":1733328733,"current_range_meters":35600,"station_id":"ce4bhu92rcd13ifvqi70","pricing_plan_id":"cebpf4jnsgd1na2vs0mg"},{"bike_id":"16bea42d-3248-41fd-8b51-39fb3d7ec2c4","system_id":"levelo_inurba_marseille","lat":43.26471,"lon":5.38525,"is_reserved":false,"is_disabled":true,"rental_uris":{"android":"levelo://app?vid=16bea42d-3248-41fd-8b51-39fb3d7ec2c4","ios":"levelo://app?vid=16bea42d-3248-41fd-8b51-39fb3d7ec2c4"},"vehicle_type_id":"4","last_reported":1733328733,"current_range_meters":0,"station_id":"","pricing_plan_id":"cebpf4jnsgd1na2vs0mg"},{"bike_id":"54660884-8ef8-4b30-aaba-82ac6b4a18bd","system_id":"levelo_inurba_marseille","lat":43.32473,"lon":5.3657,"is_reserved":false,"is_disabled":false,"rental_uris":{"android":"levelo://app?vid=54660884-8ef8-4b30-aaba-82ac6b4a18bd","ios":"levelo://app?vid=54660884-8ef8-4b30-aaba-82ac6b4a18bd"},"vehicle_type_id":"4","last_reported":1733328733,"current_range_meters":38800,"station_id":"ce4bhs12rcd13ifvqhvg","pricing_plan_id":"cebpf4jnsgd1na2vs0mg"},{"bike_id":"fefed06f-f77c-4003-83aa-4b7097b9e66e","system_id":"levelo_inurba_marseille","lat":43.25084,"lon":5.40325,"is_reserved":false,"is_disabled":true,"rental_uris":{"android":"levelo://app?vid=fefed06f-f77c-4003-83aa-4b7097b9e66e","ios":"levelo://app?vid=fefed06f-f77c-4003-83aa-4b7097b9e66e"},"vehicle_type_id":"4","last_reported":1733328733,"current_range_meters":0,"station_id":"ce4bhlh2rcd13ifvqgig","pricing_plan_id":"cebpf4jnsgd1na2vs0mg"},{"bike_id":"b6a1e928-6e9b-4c9a-aeba-cc05715392fe","system_id":"levelo_inurba_marseille","lat":43.30259,"lon":5.40085,"is_reserved":false,"is_disabled":true,"rental_uris":{"android":"levelo://app?vid=b6a1e928-6e9b-4c9a-aeba-cc05715392fe","ios":"levelo://app?vid=b6a1e928-6e9b-4c9a-aeba-cc05715392fe"},"vehicle_type_id":"4","last_reported":1733328733,"current_range_meters":0,"station_id":"ce4bgvh2rcd13ifvqcs0","pricing_plan_id":"cebpf4jnsgd1na2vs0mg"},{"bike_id":"9b0e0543-5212-456a-93f6-3a0d8d7f4aba","system_id":"levelo_inurba_marseille","lat":43.29956,"lon":5.41319,"is_reserved":false,"is_disabled":false,"rental_uris":{"android":"levelo://app?vid=9b0e0543-5212-456a-93f6-3a0d8d7f4aba","ios":"levelo://app?vid=9b0e0543-5212-456a-93f6-3a0d8d7f4aba"},"vehicle_type_id":"4","last_reported":1733328733,"current_range_meters":38800,"station_id":"ce4bhp12rcd13ifvqh9g","pricing_plan_id":"cebpf4jnsgd1na2vs0mg"},{"bike_id":"8ae45567-3d91-4210-a4d4-947d9f822c33","system_id":"levelo_inurba_marseille","lat":43.30803,"lon":5.4353,"is_reserved":false,"is_disabled":false,"rental_uris":{"android":"levelo://app?vid=8ae45567-3d91-4210-a4d4-947d9f822c33","ios":"levelo://app?vid=8ae45567-3d91-4210-a4d4-947d9f822c33"},"vehicle_type_id":"4","last_reported":1733328733,"current_range_meters":18000,"station_id":"ce4bhph2rcd13ifvqheg","pricing_plan_id":"cebpf4jnsgd1na2vs0mg"},{"bike_id":"3dede6e2-e78b-4eb1-9eee-48d0cfda7c62","system_id":"levelo_inurba_marseille","lat":43.30257,"lon":5.40068,"is_reserved":false,"is_disabled":true,"rental_uris":{"android":"levelo://app?vid=3dede6e2-e78b-4eb1-9eee-48d0cfda7c62","ios":"levelo://app?vid=3dede6e2-e78b-4eb1-9eee-48d0cfda7c62"},"vehicle_type_id":"4","last_reported":1733328733,"current_range_meters":0,"station_id":"ce4bgvh2rcd13ifvqcs0","pricing_plan_id":"cebpf4jnsgd1na2vs0mg"},{"bike_id":"1f9c9bbb-5f17-4446-b216-98bbf944dcea","system_id":"levelo_inurba_marseille","lat":43.29706,"lon":5.37704,"is_reserved":false,"is_disabled":false,"rental_uris":{"android":"levelo://app?vid=1f9c9bbb-5f17-4446-b216-98bbf944dcea","ios":"levelo://app?vid=1f9c9bbb-5f17-4446-b216-98bbf944dcea"},"vehicle_type_id":"4","last_reported":1733328733,"current_range_meters":25600,"station_id":"ce4bgkh2rcd13ifvqbl0","pricing_plan_id":"cebpf4jnsgd1na2vs0mg"},{"bike_id":"6f1f4c8f-b22d-4d1d-88ae-6f2707bae092","system_id":"levelo_inurba_marseille","lat":43.26949,"lon":5.40261,"is_reserved":false,"is_disabled":true,"rental_uris":{"android":"levelo://app?vid=6f1f4c8f-b22d-4d1d-88ae-6f2707bae092","ios":"levelo://app?vid=6f1f4c8f-b22d-4d1d-88ae-6f2707bae092"},"vehicle_type_id":"4","last_reported":1733328733,"current_range_meters":400,"station_id":"cjm6bp8fraef2m0cb0m0","pricing_plan_id":"cebpf4jnsgd1na2vs0mg"},{"bike_id":"5a50557a-331c-47f8-82cc-e12807c908db","system_id":"levelo_inurba_marseille","lat":43.33022,"lon":5.39042,"is_reserved":false,"is_disabled":false,"rental_uris":{"android":"levelo://app?vid=5a50557a-331c-47f8-82cc-e12807c908db","ios":"levelo://app?vid=5a50557a-331c-47f8-82cc-e12807c908db"},"vehicle_type_id":"4","last_reported":1733328733,"current_range_meters":23200,"station_id":"ce4bhr92rcd13ifvqhrg","pricing_plan_id":"cebpf4jnsgd1na2vs0mg"},{"bike_id":"47185a4c-7d7b-46e4-a46f-d8e6ec87723e","system_id":"levelo_inurba_marseille","lat":43.25934,"lon":5.40911,"is_reserved":false,"is_disabled":false,"rental_uris":{"android":"levelo://app?vid=47185a4c-7d7b-46e4-a46f-d8e6ec87723e","ios":"levelo://app?vid=47185a4c-7d7b-46e4-a46f-d8e6ec87723e"},"vehicle_type_id":"4","last_reported":1733328733,"current_range_meters":28400,"station_id":"ce4bhm92rcd13ifvqglg","pricing_plan_id":"cebpf4jnsgd1na2vs0mg"},{"bike_id":"4c5e918c-8e1f-4fa1-963b-6149fb1e846b","system_id":"levelo_inurba_marseille","lat":43.28446,"lon":5.39208,"is_reserved":false,"is_disabled":false,"rental_uris":{"android":"levelo://app?vid=4c5e918c-8e1f-4fa1-963b-6149fb1e846b","ios":"levelo://app?vid=4c5e918c-8e1f-4fa1-963b-6149fb1e846b"},"vehicle_type_id":"4","last_reported":1733328733,"current_range_meters":8400,"station_id":"ce4bhoh2rcd13ifvqh5g","pricing_plan_id":"cebpf4jnsgd1na2vs0mg"},{"bike_id":"b3a0de6f-3702-4ba5-819b-e90a63fe1a3a","system_id":"levelo_inurba_marseille","lat":43.31121,"lon":5.37763,"is_reserved":false,"is_disabled":false,"rental_uris":{"android":"levelo://app?vid=b3a0de6f-3702-4ba5-819b-e90a63fe1a3a","ios":"levelo://app?vid=b3a0de6f-3702-4ba5-819b-e90a63fe1a3a"},"vehicle_type_id":"4","last_reported":1733328733,"current_range_meters":24000,"station_id":"ce4bgt92rcd13ifvqcg0","pricing_plan_id":"cebpf4jnsgd1na2vs0mg"},{"bike_id":"ef8dccf7-5c02-4648-910c-2c64ce488a65","system_id":"levelo_inurba_marseille","lat":43.28142,"lon":5.42801,"is_reserved":false,"is_disabled":false,"rental_uris":{"android":"levelo://app?vid=ef8dccf7-5c02-4648-910c-2c64ce488a65","ios":"levelo://app?vid=ef8dccf7-5c02-4648-910c-2c64ce488a65"},"vehicle_type_id":"4","last_reported":1733328733,"current_range_meters":10000,"station_id":"","pricing_plan_id":"cebpf4jnsgd1na2vs0mg"},{"bike_id":"afddb0ff-7658-4984-b285-b427f08dacd1","system_id":"levelo_inurba_marseille","lat":43.251177,"lon":5.403167,"is_reserved":false,"is_disabled":true,"rental_uris":{"android":"levelo://app?vid=afddb0ff-7658-4984-b285-b427f08dacd1","ios":"levelo://app?vid=afddb0ff-7658-4984-b285-b427f08dacd1"},"vehicle_type_id":"4","last_reported":1733328733,"current_range_meters":0,"station_id":"ce4bhlh2rcd13ifvqgig","pricing_plan_id":"cebpf4jnsgd1na2vs0mg"},{"bike_id":"b73386f2-fa04-4fae-98be-ff0e17efea9c","system_id":"levelo_inurba_marseille","lat":43.32367,"lon":5.38887,"is_reserved":false,"is_disabled":false,"rental_uris":{"android":"levelo://app?vid=b73386f2-fa04-4fae-98be-ff0e17efea9c","ios":"levelo://app?vid=b73386f2-fa04-4fae-98be-ff0e17efea9c"},"vehicle_type_id":"4","last_reported":1733328733,"current_range_meters":7200,"station_id":"ce4bhqp2rcd13ifvqhog","pricing_plan_id":"cebpf4jnsgd1na2vs0mg"},{"bike_id":"c09c7973-fc85-418c-bbaa-d5268f9ce30d","system_id":"levelo_inurba_marseille","lat":43.28473,"lon":5.38402,"is_reserved":false,"is_disabled":true,"rental_uris":{"android":"levelo://app?vid=c09c7973-fc85-418c-bbaa-d5268f9ce30d","ios":"levelo://app?vid=c09c7973-fc85-418c-bbaa-d5268f9ce30d"},"vehicle_type_id":"4","last_reported":1733328733,"current_range_meters":1600,"station_id":"ce4bh512rcd13ifvqe3g","pricing_plan_id":"cebpf4jnsgd1na2vs0mg"},{"bike_id":"5cef358c-4d33-4f46-b1a1-56f6f4f255fd","system_id":"levelo_inurba_marseille","lat":43.29573,"lon":5.43925,"is_reserved":false,"is_disabled":true,"rental_uris":{"android":"levelo://app?vid=5cef358c-4d33-4f46-b1a1-56f6f4f255fd","ios":"levelo://app?vid=5cef358c-4d33-4f46-b1a1-56f6f4f255fd"},"vehicle_type_id":"4","last_reported":1733328733,"current_range_meters":0,"station_id":"","pricing_plan_id":"cebpf4jnsgd1na2vs0mg"},{"bike_id":"df6689df-54e6-43ec-9b9b-fba1fc3156cb","system_id":"levelo_inurba_marseille","lat":43.29854,"lon":5.36291,"is_reserved":false,"is_disabled":false,"rental_uris":{"android":"levelo://app?vid=df6689df-54e6-43ec-9b9b-fba1fc3156cb","ios":"levelo://app?vid=df6689df-54e6-43ec-9b9b-fba1fc3156cb"},"vehicle_type_id":"4","last_reported":1733328733,"current_range_meters":38400,"station_id":"ce4bgpp2rcd13ifvqc3g","pricing_plan_id":"cebpf4jnsgd1na2vs0mg"},{"bike_id":"e9f7efca-b2bc-4601-8bc8-c1cef8e61761","system_id":"levelo_inurba_marseille","lat":43.24387,"lon":5.37056,"is_reserved":false,"is_disabled":false,"rental_uris":{"android":"levelo://app?vid=e9f7efca-b2bc-4601-8bc8-c1cef8e61761","ios":"levelo://app?vid=e9f7efca-b2bc-4601-8bc8-c1cef8e61761"},"vehicle_type_id":"4","last_reported":1733328733,"current_range_meters":34800,"station_id":"ce4bhhh2rcd13ifvqfk0","pricing_plan_id":"cebpf4jnsgd1na2vs0mg"},{"bike_id":"0de1cf1d-afca-4ce8-9aaa-eb4d8ffb460a","system_id":"levelo_inurba_marseille","lat":43.26207,"lon":5.37927,"is_reserved":false,"is_disabled":false,"rental_uris":{"android":"levelo://app?vid=0de1cf1d-afca-4ce8-9aaa-eb4d8ffb460a","ios":"levelo://app?vid=0de1cf1d-afca-4ce8-9aaa-eb4d8ffb460a"},"vehicle_type_id":"4","last_reported":1733328733,"current_range_meters":9600,"station_id":"ce4bhjp2rcd13ifvqg90","pricing_plan_id":"cebpf4jnsgd1na2vs0mg"},{"bike_id":"26680de8-bd75-49cd-8934-326e01a1ef3e","system_id":"levelo_inurba_marseille","lat":43.26211,"lon":5.37445,"is_reserved":false,"is_disabled":false,"rental_uris":{"android":"levelo://app?vid=26680de8-bd75-49cd-8934-326e01a1ef3e","ios":"levelo://app?vid=26680de8-bd75-49cd-8934-326e01a1ef3e"},"vehicle_type_id":"4","last_reported":1733328733,"current_range_meters":25200,"station_id":"ce4bhgp2rcd13ifvqfc0","pricing_plan_id":"cebpf4jnsgd1na2vs0mg"},{"bike_id":"8afb2c6b-2ac1-4bd9-bd4b-f614642b0e17","system_id":"levelo_inurba_marseille","lat":43.305462,"lon":5.367128,"is_reserved":false,"is_disabled":false,"rental_uris":{"android":"levelo://app?vid=8afb2c6b-2ac1-4bd9-bd4b-f614642b0e17","ios":"levelo://app?vid=8afb2c6b-2ac1-4bd9-bd4b-f614642b0e17"},"vehicle_type_id":"4","last_reported":1733328733,"current_range_meters":38800,"station_id":"ce4bgrp2rcd13ifvqc9g","pricing_plan_id":"cebpf4jnsgd1na2vs0mg"},{"bike_id":"cdfe6590-4984-4014-86c8-6dd70747c27a","system_id":"levelo_inurba_marseille","lat":43.29737,"lon":5.37434,"is_reserved":false,"is_disabled":true,"rental_uris":{"android":"levelo://app?vid=cdfe6590-4984-4014-86c8-6dd70747c27a","ios":"levelo://app?vid=cdfe6590-4984-4014-86c8-6dd70747c27a"},"vehicle_type_id":"4","last_reported":1733328733,"current_range_meters":0,"station_id":"","pricing_plan_id":"cebpf4jnsgd1na2vs0mg"},{"bike_id":"e3ce015b-8256-4482-8102-dd089f29efd4","system_id":"levelo_inurba_marseille","lat":43.26802,"lon":5.40265,"is_reserved":false,"is_disabled":false,"rental_uris":{"android":"levelo://app?vid=e3ce015b-8256-4482-8102-dd089f29efd4","ios":"levelo://app?vid=e3ce015b-8256-4482-8102-dd089f29efd4"},"vehicle_type_id":"4","last_reported":1733328733,"current_range_meters":36400,"station_id":"ce501612rcd8frsf0b60","pricing_plan_id":"cebpf4jnsgd1na2vs0mg"},{"bike_id":"3ed08871-5982-4071-8706-d9898de5a44f","system_id":"levelo_inurba_marseille","lat":43.27379,"lon":5.36264,"is_reserved":false,"is_disabled":false,"rental_uris":{"android":"levelo://app?vid=3ed08871-5982-4071-8706-d9898de5a44f","ios":"levelo://app?vid=3ed08871-5982-4071-8706-d9898de5a44f"},"vehicle_type_id":"4","last_reported":1733328733,"current_range_meters":36000,"station_id":"ce4bhbh2rcd13ifvqeo0","pricing_plan_id":"cebpf4jnsgd1na2vs0mg"},{"bike_id":"d4109818-53bc-4fed-b50a-7c42a9ee5d37","system_id":"levelo_inurba_marseille","lat":43.24811,"lon":5.37457,"is_reserved":false,"is_disabled":false,"rental_uris":{"android":"levelo://app?vid=d4109818-53bc-4fed-b50a-7c42a9ee5d37","ios":"levelo://app?vid=d4109818-53bc-4fed-b50a-7c42a9ee5d37"},"vehicle_type_id":"4","last_reported":1733328733,"current_range_meters":26800,"station_id":"ce4bhgh2rcd13ifvqfb0","pricing_plan_id":"cebpf4jnsgd1na2vs0mg"},{"bike_id":"987a5ab4-d60c-480c-94b6-7cab38975402","system_id":"levelo_inurba_marseille","lat":43.29748,"lon":5.37971,"is_reserved":false,"is_disabled":true,"rental_uris":{"android":"levelo://app?vid=987a5ab4-d60c-480c-94b6-7cab38975402","ios":"levelo://app?vid=987a5ab4-d60c-480c-94b6-7cab38975402"},"vehicle_type_id":"4","last_reported":1733328733,"current_range_meters":0,"station_id":"","pricing_plan_id":"cebpf4jnsgd1na2vs0mg"},{"bike_id":"2c4596ad-0ad9-4016-b92b-0093349de2b4","system_id":"levelo_inurba_marseille","lat":43.30755,"lon":5.38187,"is_reserved":false,"is_disabled":true,"rental_uris":{"android":"levelo://app?vid=2c4596ad-0ad9-4016-b92b-0093349de2b4","ios":"levelo://app?vid=2c4596ad-0ad9-4016-b92b-0093349de2b4"},"vehicle_type_id":"4","last_reported":1733328733,"current_range_meters":0,"station_id":"","pricing_plan_id":"cebpf4jnsgd1na2vs0mg"},{"bike_id":"4c50cfef-44f5-4acf-845e-6e627fcc246e","system_id":"levelo_inurba_marseille","lat":43.26677,"lon":5.38273,"is_reserved":false,"is_disabled":false,"rental_uris":{"android":"levelo://app?vid=4c50cfef-44f5-4acf-845e-6e627fcc246e","ios":"levelo://app?vid=4c50cfef-44f5-4acf-845e-6e627fcc246e"},"vehicle_type_id":"4","last_reported":1733328733,"current_range_meters":39200,"station_id":"ce4bhg92rcd13ifvqf90","pricing_plan_id":"cebpf4jnsgd1na2vs0mg"},{"bike_id":"bb034903-ff08-4199-b4c9-7e38e022d15d","system_id":"levelo_inurba_marseille","lat":43.26938,"lon":5.40248,"is_reserved":false,"is_disabled":false,"rental_uris":{"android":"levelo://app?vid=bb034903-ff08-4199-b4c9-7e38e022d15d","ios":"levelo://app?vid=bb034903-ff08-4199-b4c9-7e38e022d15d"},"vehicle_type_id":"4","last_reported":1733328733,"current_range_meters":6000,"station_id":"cjm6bp8fraef2m0cb0m0","pricing_plan_id":"cebpf4jnsgd1na2vs0mg"},{"bike_id":"b7ab8c01-033f-4395-8276-23c850ad3d02","system_id":"levelo_inurba_marseille","lat":43.30317,"lon":5.36605,"is_reserved":false,"is_disabled":true,"rental_uris":{"android":"levelo://app?vid=b7ab8c01-033f-4395-8276-23c850ad3d02","ios":"levelo://app?vid=b7ab8c01-033f-4395-8276-23c850ad3d02"},"vehicle_type_id":"4","last_reported":1733328733,"current_range_meters":0,"station_id":"","pricing_plan_id":"cebpf4jnsgd1na2vs0mg"},{"bike_id":"3e5094fe-36c8-4f4a-9a18-d38d46ff20f4","system_id":"levelo_inurba_marseille","lat":43.32368,"lon":5.38887,"is_reserved":false,"is_disabled":false,"rental_uris":{"android":"levelo://app?vid=3e5094fe-36c8-4f4a-9a18-d38d46ff20f4","ios":"levelo://app?vid=3e5094fe-36c8-4f4a-9a18-d38d46ff20f4"},"vehicle_type_id":"4","last_reported":1733328733,"current_range_meters":12400,"station_id":"ce4bhqp2rcd13ifvqhog","pricing_plan_id":"cebpf4jnsgd1na2vs0mg"},{"bike_id":"0ee4b654-c78f-4ec3-a586-a17a48268656","system_id":"levelo_inurba_marseille","lat":43.25119,"lon":5.40322,"is_reserved":false,"is_disabled":true,"rental_uris":{"android":"levelo://app?vid=0ee4b654-c78f-4ec3-a586-a17a48268656","ios":"levelo://app?vid=0ee4b654-c78f-4ec3-a586-a17a48268656"},"vehicle_type_id":"4","last_reported":1733328733,"current_range_meters":800,"station_id":"ce4bhlh2rcd13ifvqgig","pricing_plan_id":"cebpf4jnsgd1na2vs0mg"},{"bike_id":"7c1b73d0-021a-42cb-a98b-ae2e8514ea03","system_id":"levelo_inurba_marseille","lat":43.29581,"lon":5.36743,"is_reserved":false,"is_disabled":false,"rental_uris":{"android":"levelo://app?vid=7c1b73d0-021a-42cb-a98b-ae2e8514ea03","ios":"levelo://app?vid=7c1b73d0-021a-42cb-a98b-ae2e8514ea03"},"vehicle_type_id":"4","last_reported":1733328733,"current_range_meters":22400,"station_id":"ce4bgph2rcd13ifvqc2g","pricing_plan_id":"cebpf4jnsgd1na2vs0mg"},{"bike_id":"62039b2b-e25c-4eb7-a7b5-63675d853e8e","system_id":"levelo_inurba_marseille","lat":43.31713,"lon":5.37663,"is_reserved":false,"is_disabled":false,"rental_uris":{"android":"levelo://app?vid=62039b2b-e25c-4eb7-a7b5-63675d853e8e","ios":"levelo://app?vid=62039b2b-e25c-4eb7-a7b5-63675d853e8e"},"vehicle_type_id":"4","last_reported":1733328733,"current_range_meters":25200,"station_id":"","pricing_plan_id":"cebpf4jnsgd1na2vs0mg"},{"bike_id":"e29e5504-1265-43f1-a654-9a02e64e22bf","system_id":"levelo_inurba_marseille","lat":43.27422,"lon":5.39419,"is_reserved":false,"is_disabled":true,"rental_uris":{"android":"levelo://app?vid=e29e5504-1265-43f1-a654-9a02e64e22bf","ios":"levelo://app?vid=e29e5504-1265-43f1-a654-9a02e64e22bf"},"vehicle_type_id":"4","last_reported":1733328733,"current_range_meters":0,"station_id":"ce4bhdp2rcd13ifvqf20","pricing_plan_id":"cebpf4jnsgd1na2vs0mg"},{"bike_id":"8d86ebea-f62c-468a-9103-c33b30577624","system_id":"levelo_inurba_marseille","lat":43.31713,"lon":5.43709,"is_reserved":false,"is_disabled":false,"rental_uris":{"android":"levelo://app?vid=8d86ebea-f62c-468a-9103-c33b30577624","ios":"levelo://app?vid=8d86ebea-f62c-468a-9103-c33b30577624"},"vehicle_type_id":"4","last_reported":1733328733,"current_range_meters":12800,"station_id":"ce4bhp92rcd13ifvqhcg","pricing_plan_id":"cebpf4jnsgd1na2vs0mg"},{"bike_id":"6cc6805f-c0ca-4585-bdf1-b5a0339762b0","system_id":"levelo_inurba_marseille","lat":43.29024,"lon":5.42804,"is_reserved":false,"is_disabled":true,"rental_uris":{"android":"levelo://app?vid=6cc6805f-c0ca-4585-bdf1-b5a0339762b0","ios":"levelo://app?vid=6cc6805f-c0ca-4585-bdf1-b5a0339762b0"},"vehicle_type_id":"4","last_reported":1733328733,"current_range_meters":0,"station_id":"","pricing_plan_id":"cebpf4jnsgd1na2vs0mg"},{"bike_id":"ae2f0872-7caa-4169-8a47-fe787faeb34e","system_id":"levelo_inurba_marseille","lat":43.32109,"lon":5.36771,"is_reserved":false,"is_disabled":false,"rental_uris":{"android":"levelo://app?vid=ae2f0872-7caa-4169-8a47-fe787faeb34e","ios":"levelo://app?vid=ae2f0872-7caa-4169-8a47-fe787faeb34e"},"vehicle_type_id":"4","last_reported":1733328733,"current_range_meters":27200,"station_id":"ce4bhrh2rcd13ifvqhug","pricing_plan_id":"cebpf4jnsgd1na2vs0mg"},{"bike_id":"8d1c8b92-79bb-4181-b0d2-5e94db1a14d0","system_id":"levelo_inurba_marseille","lat":43.30005,"lon":5.38266,"is_reserved":false,"is_disabled":true,"rental_uris":{"android":"levelo://app?vid=8d1c8b92-79bb-4181-b0d2-5e94db1a14d0","ios":"levelo://app?vid=8d1c8b92-79bb-4181-b0d2-5e94db1a14d0"},"vehicle_type_id":"4","last_reported":1733328733,"current_range_meters":0,"station_id":"","pricing_plan_id":"cebpf4jnsgd1na2vs0mg"},{"bike_id":"9ce77ab6-d985-4c67-b0a5-56a892314fed","system_id":"levelo_inurba_marseille","lat":43.3248,"lon":5.36573,"is_reserved":false,"is_disabled":false,"rental_uris":{"android":"levelo://app?vid=9ce77ab6-d985-4c67-b0a5-56a892314fed","ios":"levelo://app?vid=9ce77ab6-d985-4c67-b0a5-56a892314fed"},"vehicle_type_id":"4","last_reported":1733328733,"current_range_meters":12400,"station_id":"ce4bhs12rcd13ifvqhvg","pricing_plan_id":"cebpf4jnsgd1na2vs0mg"},{"bike_id":"8595ad5f-639f-4d47-8435-d54f19b64d1b","system_id":"levelo_inurba_marseille","lat":43.27379,"lon":5.36255,"is_reserved":false,"is_disabled":false,"rental_uris":{"android":"levelo://app?vid=8595ad5f-639f-4d47-8435-d54f19b64d1b","ios":"levelo://app?vid=8595ad5f-639f-4d47-8435-d54f19b64d1b"},"vehicle_type_id":"4","last_reported":1733328733,"current_range_meters":28400,"station_id":"ce4bhbh2rcd13ifvqeo0","pricing_plan_id":"cebpf4jnsgd1na2vs0mg"},{"bike_id":"69902979-557b-4685-9682-e4995da6a2c0","system_id":"levelo_inurba_marseille","lat":43.27067,"lon":5.40262,"is_reserved":false,"is_disabled":true,"rental_uris":{"android":"levelo://app?vid=69902979-557b-4685-9682-e4995da6a2c0","ios":"levelo://app?vid=69902979-557b-4685-9682-e4995da6a2c0"},"vehicle_type_id":"4","last_reported":1733328733,"current_range_meters":0,"station_id":"ce4bhk92rcd13ifvqgc0","pricing_plan_id":"cebpf4jnsgd1na2vs0mg"},{"bike_id":"af588aa5-d7a1-4ee5-a3de-494b2e5ffe47","system_id":"levelo_inurba_marseille","lat":43.28471,"lon":5.38429,"is_reserved":false,"is_disabled":true,"rental_uris":{"android":"levelo://app?vid=af588aa5-d7a1-4ee5-a3de-494b2e5ffe47","ios":"levelo://app?vid=af588aa5-d7a1-4ee5-a3de-494b2e5ffe47"},"vehicle_type_id":"4","last_reported":1733328733,"current_range_meters":0,"station_id":"ce4bh512rcd13ifvqe3g","pricing_plan_id":"cebpf4jnsgd1na2vs0mg"},{"bike_id":"ec1f17ed-c155-4536-8c98-1427574b4083","system_id":"levelo_inurba_marseille","lat":43.31371,"lon":5.38491,"is_reserved":false,"is_disabled":false,"rental_uris":{"android":"levelo://app?vid=ec1f17ed-c155-4536-8c98-1427574b4083","ios":"levelo://app?vid=ec1f17ed-c155-4536-8c98-1427574b4083"},"vehicle_type_id":"4","last_reported":1733328733,"current_range_meters":30000,"station_id":"ce4bgt92rcd13ifvqcf0","pricing_plan_id":"cebpf4jnsgd1na2vs0mg"},{"bike_id":"fc5487e4-5ea2-4f86-9b4e-be3ec08dba94","system_id":"levelo_inurba_marseille","lat":43.26205,"lon":5.37945,"is_reserved":false,"is_disabled":false,"rental_uris":{"android":"levelo://app?vid=fc5487e4-5ea2-4f86-9b4e-be3ec08dba94","ios":"levelo://app?vid=fc5487e4-5ea2-4f86-9b4e-be3ec08dba94"},"vehicle_type_id":"4","last_reported":1733328733,"current_range_meters":38800,"station_id":"ce4bhjp2rcd13ifvqg90","pricing_plan_id":"cebpf4jnsgd1na2vs0mg"},{"bike_id":"b542f228-9585-4d3a-b1e7-bb29c7f2af30","system_id":"levelo_inurba_marseille","lat":43.29541,"lon":5.3855,"is_reserved":false,"is_disabled":false,"rental_uris":{"android":"levelo://app?vid=b542f228-9585-4d3a-b1e7-bb29c7f2af30","ios":"levelo://app?vid=b542f228-9585-4d3a-b1e7-bb29c7f2af30"},"vehicle_type_id":"4","last_reported":1733328733,"current_range_meters":8000,"station_id":"ce4bgih2rcd13ifvqba0","pricing_plan_id":"cebpf4jnsgd1na2vs0mg"},{"bike_id":"5c2480b2-572f-4a0b-a094-4540618edf5d","system_id":"levelo_inurba_marseille","lat":43.30796,"lon":5.38159,"is_reserved":false,"is_disabled":false,"rental_uris":{"android":"levelo://app?vid=5c2480b2-572f-4a0b-a094-4540618edf5d","ios":"levelo://app?vid=5c2480b2-572f-4a0b-a094-4540618edf5d"},"vehicle_type_id":"4","last_reported":1733328733,"current_range_meters":22400,"station_id":"ce4bgt12rcd13ifvqce0","pricing_plan_id":"cebpf4jnsgd1na2vs0mg"},{"bike_id":"1ca0aca0-4ca4-4bf8-9b1d-054345c3a341","system_id":"levelo_inurba_marseille","lat":43.28884,"lon":5.39997,"is_reserved":false,"is_disabled":false,"rental_uris":{"android":"levelo://app?vid=1ca0aca0-4ca4-4bf8-9b1d-054345c3a341","ios":"levelo://app?vid=1ca0aca0-4ca4-4bf8-9b1d-054345c3a341"},"vehicle_type_id":"4","last_reported":1733328733,"current_range_meters":28000,"station_id":"","pricing_plan_id":"cebpf4jnsgd1na2vs0mg"},{"bike_id":"5b2a3162-41b7-4b7d-960a-eb1e983a1eb8","system_id":"levelo_inurba_marseille","lat":43.30551,"lon":5.36558,"is_reserved":false,"is_disabled":false,"rental_uris":{"android":"levelo://app?vid=5b2a3162-41b7-4b7d-960a-eb1e983a1eb8","ios":"levelo://app?vid=5b2a3162-41b7-4b7d-960a-eb1e983a1eb8"},"vehicle_type_id":"4","last_reported":1733328733,"current_range_meters":12800,"station_id":"ce4bgs12rcd13ifvqcag","pricing_plan_id":"cebpf4jnsgd1na2vs0mg"},{"bike_id":"399d047a-4a74-4987-aa37-436b8d0fd32a","system_id":"levelo_inurba_marseille","lat":43.27173,"lon":5.40997,"is_reserved":false,"is_disabled":false,"rental_uris":{"android":"levelo://app?vid=399d047a-4a74-4987-aa37-436b8d0fd32a","ios":"levelo://app?vid=399d047a-4a74-4987-aa37-436b8d0fd32a"},"vehicle_type_id":"4","last_reported":1733328733,"current_range_meters":12800,"station_id":"","pricing_plan_id":"cebpf4jnsgd1na2vs0mg"},{"bike_id":"afd42e07-e6de-4bb0-a33a-a8d3a3b6a664","system_id":"levelo_inurba_marseille","lat":43.28937,"lon":5.36641,"is_reserved":false,"is_disabled":false,"rental_uris":{"android":"levelo://app?vid=afd42e07-e6de-4bb0-a33a-a8d3a3b6a664","ios":"levelo://app?vid=afd42e07-e6de-4bb0-a33a-a8d3a3b6a664"},"vehicle_type_id":"4","last_reported":1733328733,"current_range_meters":2800,"station_id":"ce4bhap2rcd13ifvqek0","pricing_plan_id":"cebpf4jnsgd1na2vs0mg"},{"bike_id":"ab05039b-da25-4171-883f-dbeac8d952e7","system_id":"levelo_inurba_marseille","lat":43.32364,"lon":5.38885,"is_reserved":false,"is_disabled":false,"rental_uris":{"android":"levelo://app?vid=ab05039b-da25-4171-883f-dbeac8d952e7","ios":"levelo://app?vid=ab05039b-da25-4171-883f-dbeac8d952e7"},"vehicle_type_id":"4","last_reported":1733328733,"current_range_meters":25200,"station_id":"ce4bhqp2rcd13ifvqhog","pricing_plan_id":"cebpf4jnsgd1na2vs0mg"},{"bike_id":"9873bffd-09e7-44b1-adf1-da753747ca07","system_id":"levelo_inurba_marseille","lat":43.27944,"lon":5.41052,"is_reserved":false,"is_disabled":true,"rental_uris":{"android":"levelo://app?vid=9873bffd-09e7-44b1-adf1-da753747ca07","ios":"levelo://app?vid=9873bffd-09e7-44b1-adf1-da753747ca07"},"vehicle_type_id":"4","last_reported":1733328733,"current_range_meters":0,"station_id":"ce4bhnp2rcd13ifvqh0g","pricing_plan_id":"cebpf4jnsgd1na2vs0mg"},{"bike_id":"20031003-045c-480c-96de-f6437d5c67df","system_id":"levelo_inurba_marseille","lat":43.25585,"lon":5.38227,"is_reserved":false,"is_disabled":false,"rental_uris":{"android":"levelo://app?vid=20031003-045c-480c-96de-f6437d5c67df","ios":"levelo://app?vid=20031003-045c-480c-96de-f6437d5c67df"},"vehicle_type_id":"4","last_reported":1733328733,"current_range_meters":38800,"station_id":"ce4bhih2rcd13ifvqfs0","pricing_plan_id":"cebpf4jnsgd1na2vs0mg"},{"bike_id":"9c77a68d-2e99-44e9-b903-950fb6644d35","system_id":"levelo_inurba_marseille","lat":43.25265,"lon":5.39465,"is_reserved":false,"is_disabled":true,"rental_uris":{"android":"levelo://app?vid=9c77a68d-2e99-44e9-b903-950fb6644d35","ios":"levelo://app?vid=9c77a68d-2e99-44e9-b903-950fb6644d35"},"vehicle_type_id":"4","last_reported":1733328733,"current_range_meters":0,"station_id":"","pricing_plan_id":"cebpf4jnsgd1na2vs0mg"},{"bike_id":"dce3be87-90c1-4c6d-92e0-cf09314d921e","system_id":"levelo_inurba_marseille","lat":43.29789,"lon":5.3812,"is_reserved":false,"is_disabled":true,"rental_uris":{"android":"levelo://app?vid=dce3be87-90c1-4c6d-92e0-cf09314d921e","ios":"levelo://app?vid=dce3be87-90c1-4c6d-92e0-cf09314d921e"},"vehicle_type_id":"4","last_reported":1733328733,"current_range_meters":25600,"station_id":"ce4bgip2rcd13ifvqbb0","pricing_plan_id":"cebpf4jnsgd1na2vs0mg"},{"bike_id":"6ed6104a-cb7d-4889-82fa-acac97c6f644","system_id":"levelo_inurba_marseille","lat":43.32341,"lon":5.40628,"is_reserved":false,"is_disabled":true,"rental_uris":{"android":"levelo://app?vid=6ed6104a-cb7d-4889-82fa-acac97c6f644","ios":"levelo://app?vid=6ed6104a-cb7d-4889-82fa-acac97c6f644"},"vehicle_type_id":"4","last_reported":1733328733,"current_range_meters":1200,"station_id":"ce4bhq92rcd13ifvqhjg","pricing_plan_id":"cebpf4jnsgd1na2vs0mg"},{"bike_id":"83985555-c848-4b28-808f-8a7e7cf8519e","system_id":"levelo_inurba_marseille","lat":43.28109,"lon":5.43957,"is_reserved":false,"is_disabled":true,"rental_uris":{"android":"levelo://app?vid=83985555-c848-4b28-808f-8a7e7cf8519e","ios":"levelo://app?vid=83985555-c848-4b28-808f-8a7e7cf8519e"},"vehicle_type_id":"4","last_reported":1733328733,"current_range_meters":0,"station_id":"","pricing_plan_id":"cebpf4jnsgd1na2vs0mg"},{"bike_id":"85f2fe9a-0cb6-427c-98ec-4cac964a95db","system_id":"levelo_inurba_marseille","lat":43.31805,"lon":5.40649,"is_reserved":false,"is_disabled":false,"rental_uris":{"android":"levelo://app?vid=85f2fe9a-0cb6-427c-98ec-4cac964a95db","ios":"levelo://app?vid=85f2fe9a-0cb6-427c-98ec-4cac964a95db"},"vehicle_type_id":"4","last_reported":1733328733,"current_range_meters":6800,"station_id":"ce4bhpp2rcd13ifvqhgg","pricing_plan_id":"cebpf4jnsgd1na2vs0mg"},{"bike_id":"903ec8f1-f4c3-441f-a117-ff7454fcb959","system_id":"levelo_inurba_marseille","lat":43.29474,"lon":5.39412,"is_reserved":false,"is_disabled":true,"rental_uris":{"android":"levelo://app?vid=903ec8f1-f4c3-441f-a117-ff7454fcb959","ios":"levelo://app?vid=903ec8f1-f4c3-441f-a117-ff7454fcb959"},"vehicle_type_id":"4","last_reported":1733328733,"current_range_meters":0,"station_id":"","pricing_plan_id":"cebpf4jnsgd1na2vs0mg"},{"bike_id":"07a60b7f-80b7-470a-9515-22fa33d21dee","system_id":"levelo_inurba_marseille","lat":43.30276,"lon":5.39658,"is_reserved":false,"is_disabled":true,"rental_uris":{"android":"levelo://app?vid=07a60b7f-80b7-470a-9515-22fa33d21dee","ios":"levelo://app?vid=07a60b7f-80b7-470a-9515-22fa33d21dee"},"vehicle_type_id":"4","last_reported":1733328733,"current_range_meters":0,"station_id":"","pricing_plan_id":"cebpf4jnsgd1na2vs0mg"},{"bike_id":"ee5a84e2-d71f-45f6-b7b9-28219dd189ea","system_id":"levelo_inurba_marseille","lat":43.25586,"lon":5.38234,"is_reserved":false,"is_disabled":false,"rental_uris":{"android":"levelo://app?vid=ee5a84e2-d71f-45f6-b7b9-28219dd189ea","ios":"levelo://app?vid=ee5a84e2-d71f-45f6-b7b9-28219dd189ea"},"vehicle_type_id":"4","last_reported":1733328733,"current_range_meters":19600,"station_id":"ce4bhih2rcd13ifvqfs0","pricing_plan_id":"cebpf4jnsgd1na2vs0mg"},{"bike_id":"cb405331-5424-4e39-a835-9a9e9242f34c","system_id":"levelo_inurba_marseille","lat":43.30525,"lon":5.36537,"is_reserved":false,"is_disabled":false,"rental_uris":{"android":"levelo://app?vid=cb405331-5424-4e39-a835-9a9e9242f34c","ios":"levelo://app?vid=cb405331-5424-4e39-a835-9a9e9242f34c"},"vehicle_type_id":"4","last_reported":1733328733,"current_range_meters":25600,"station_id":"ce4bgs12rcd13ifvqcag","pricing_plan_id":"cebpf4jnsgd1na2vs0mg"},{"bike_id":"736804a0-d604-4593-9605-60df46271ddd","system_id":"levelo_inurba_marseille","lat":43.31357,"lon":5.36699,"is_reserved":false,"is_disabled":false,"rental_uris":{"android":"levelo://app?vid=736804a0-d604-4593-9605-60df46271ddd","ios":"levelo://app?vid=736804a0-d604-4593-9605-60df46271ddd"},"vehicle_type_id":"4","last_reported":1733328733,"current_range_meters":13600,"station_id":"ce4bgr92rcd13ifvqc6g","pricing_plan_id":"cebpf4jnsgd1na2vs0mg"},{"bike_id":"5da6c746-dfcf-444c-a8e3-2255080329f5","system_id":"levelo_inurba_marseille","lat":43.27376,"lon":5.36265,"is_reserved":false,"is_disabled":false,"rental_uris":{"android":"levelo://app?vid=5da6c746-dfcf-444c-a8e3-2255080329f5","ios":"levelo://app?vid=5da6c746-dfcf-444c-a8e3-2255080329f5"},"vehicle_type_id":"4","last_reported":1733328733,"current_range_meters":35200,"station_id":"ce4bhbh2rcd13ifvqeo0","pricing_plan_id":"cebpf4jnsgd1na2vs0mg"},{"bike_id":"eb21963f-de7e-4534-aca6-bda405f0be1e","system_id":"levelo_inurba_marseille","lat":43.29879,"lon":5.397773,"is_reserved":false,"is_disabled":false,"rental_uris":{"android":"levelo://app?vid=eb21963f-de7e-4534-aca6-bda405f0be1e","ios":"levelo://app?vid=eb21963f-de7e-4534-aca6-bda405f0be1e"},"vehicle_type_id":"4","last_reported":1733328733,"current_range_meters":36000,"station_id":"ce4bh0h2rcd13ifvqd50","pricing_plan_id":"cebpf4jnsgd1na2vs0mg"},{"bike_id":"b5c57594-a732-4022-8023-005577335d4b","system_id":"levelo_inurba_marseille","lat":43.28703,"lon":5.39994,"is_reserved":false,"is_disabled":false,"rental_uris":{"android":"levelo://app?vid=b5c57594-a732-4022-8023-005577335d4b","ios":"levelo://app?vid=b5c57594-a732-4022-8023-005577335d4b"},"vehicle_type_id":"4","last_reported":1733328733,"current_range_meters":36400,"station_id":"ce4bho92rcd13ifvqh3g","pricing_plan_id":"cebpf4jnsgd1na2vs0mg"},{"bike_id":"b7c63f35-218a-4eea-94a6-ebaaedb53b9d","system_id":"levelo_inurba_marseille","lat":43.26203,"lon":5.379,"is_reserved":false,"is_disabled":false,"rental_uris":{"android":"levelo://app?vid=b7c63f35-218a-4eea-94a6-ebaaedb53b9d","ios":"levelo://app?vid=b7c63f35-218a-4eea-94a6-ebaaedb53b9d"},"vehicle_type_id":"4","last_reported":1733328733,"current_range_meters":31200,"station_id":"ce4bhjp2rcd13ifvqg90","pricing_plan_id":"cebpf4jnsgd1na2vs0mg"},{"bike_id":"e34adaed-35bb-463a-9f0e-d9d1d8edf9b5","system_id":"levelo_inurba_marseille","lat":43.26568,"lon":5.39004,"is_reserved":false,"is_disabled":false,"rental_uris":{"android":"levelo://app?vid=e34adaed-35bb-463a-9f0e-d9d1d8edf9b5","ios":"levelo://app?vid=e34adaed-35bb-463a-9f0e-d9d1d8edf9b5"},"vehicle_type_id":"4","last_reported":1733328733,"current_range_meters":18800,"station_id":"ce4bhe12rcd13ifvqf30","pricing_plan_id":"cebpf4jnsgd1na2vs0mg"},{"bike_id":"d968385f-de2b-44eb-96a8-54efc707caa9","system_id":"levelo_inurba_marseille","lat":43.23196,"lon":5.35549,"is_reserved":false,"is_disabled":false,"rental_uris":{"android":"levelo://app?vid=d968385f-de2b-44eb-96a8-54efc707caa9","ios":"levelo://app?vid=d968385f-de2b-44eb-96a8-54efc707caa9"},"vehicle_type_id":"4","last_reported":1733328733,"current_range_meters":39200,"station_id":"ce4bhu92rcd13ifvqi70","pricing_plan_id":"cebpf4jnsgd1na2vs0mg"},{"bike_id":"f7aceda2-c184-4e33-b7cf-bf447e97bdc0","system_id":"levelo_inurba_marseille","lat":43.26566,"lon":5.37287,"is_reserved":false,"is_disabled":false,"rental_uris":{"android":"levelo://app?vid=f7aceda2-c184-4e33-b7cf-bf447e97bdc0","ios":"levelo://app?vid=f7aceda2-c184-4e33-b7cf-bf447e97bdc0"},"vehicle_type_id":"4","last_reported":1733328733,"current_range_meters":32800,"station_id":"ce4bhg12rcd13ifvqf70","pricing_plan_id":"cebpf4jnsgd1na2vs0mg"},{"bike_id":"dc24279f-f126-4126-97d7-1ef0fe43b4e9","system_id":"levelo_inurba_marseille","lat":43.2737,"lon":5.36267,"is_reserved":false,"is_disabled":false,"rental_uris":{"android":"levelo://app?vid=dc24279f-f126-4126-97d7-1ef0fe43b4e9","ios":"levelo://app?vid=dc24279f-f126-4126-97d7-1ef0fe43b4e9"},"vehicle_type_id":"4","last_reported":1733328733,"current_range_meters":26800,"station_id":"ce4bhbh2rcd13ifvqeo0","pricing_plan_id":"cebpf4jnsgd1na2vs0mg"},{"bike_id":"f6acb780-45e4-4b7d-a06e-1648f4e03965","system_id":"levelo_inurba_marseille","lat":43.26193,"lon":5.3745,"is_reserved":false,"is_disabled":false,"rental_uris":{"android":"levelo://app?vid=f6acb780-45e4-4b7d-a06e-1648f4e03965","ios":"levelo://app?vid=f6acb780-45e4-4b7d-a06e-1648f4e03965"},"vehicle_type_id":"4","last_reported":1733328733,"current_range_meters":36400,"station_id":"ce4bhgp2rcd13ifvqfc0","pricing_plan_id":"cebpf4jnsgd1na2vs0mg"},{"bike_id":"506c09f4-6c9b-4fb3-996c-4c7f86dd75a8","system_id":"levelo_inurba_marseille","lat":43.25492,"lon":5.37652,"is_reserved":false,"is_disabled":true,"rental_uris":{"android":"levelo://app?vid=506c09f4-6c9b-4fb3-996c-4c7f86dd75a8","ios":"levelo://app?vid=506c09f4-6c9b-4fb3-996c-4c7f86dd75a8"},"vehicle_type_id":"4","last_reported":1733328733,"current_range_meters":0,"station_id":"","pricing_plan_id":"cebpf4jnsgd1na2vs0mg"},{"bike_id":"d3450b18-1cfa-4611-85a0-79fd2d755a06","system_id":"levelo_inurba_marseille","lat":43.30354,"lon":5.41878,"is_reserved":false,"is_disabled":false,"rental_uris":{"android":"levelo://app?vid=d3450b18-1cfa-4611-85a0-79fd2d755a06","ios":"levelo://app?vid=d3450b18-1cfa-4611-85a0-79fd2d755a06"},"vehicle_type_id":"4","last_reported":1733328733,"current_range_meters":24400,"station_id":"ce4bhop2rcd13ifvqh7g","pricing_plan_id":"cebpf4jnsgd1na2vs0mg"},{"bike_id":"fd0f5468-0b07-4fb4-a17c-422c3034ac71","system_id":"levelo_inurba_marseille","lat":43.32229,"lon":5.41279,"is_reserved":false,"is_disabled":false,"rental_uris":{"android":"levelo://app?vid=fd0f5468-0b07-4fb4-a17c-422c3034ac71","ios":"levelo://app?vid=fd0f5468-0b07-4fb4-a17c-422c3034ac71"},"vehicle_type_id":"4","last_reported":1733328733,"current_range_meters":38400,"station_id":"","pricing_plan_id":"cebpf4jnsgd1na2vs0mg"},{"bike_id":"9202c63e-372c-4469-a5c1-8e35757d1940","system_id":"levelo_inurba_marseille","lat":43.30053,"lon":5.38832,"is_reserved":false,"is_disabled":true,"rental_uris":{"android":"levelo://app?vid=9202c63e-372c-4469-a5c1-8e35757d1940","ios":"levelo://app?vid=9202c63e-372c-4469-a5c1-8e35757d1940"},"vehicle_type_id":"4","last_reported":1733328733,"current_range_meters":0,"station_id":"","pricing_plan_id":"cebpf4jnsgd1na2vs0mg"},{"bike_id":"01065f2b-1833-4431-aad3-3211e2634cf4","system_id":"levelo_inurba_marseille","lat":43.28571,"lon":5.39494,"is_reserved":false,"is_disabled":false,"rental_uris":{"android":"levelo://app?vid=01065f2b-1833-4431-aad3-3211e2634cf4","ios":"levelo://app?vid=01065f2b-1833-4431-aad3-3211e2634cf4"},"vehicle_type_id":"4","last_reported":1733328733,"current_range_meters":30000,"station_id":"ce4bh292rcd13ifvqdg0","pricing_plan_id":"cebpf4jnsgd1na2vs0mg"},{"bike_id":"c5ea1412-b3cf-4992-92b2-22246e444141","system_id":"levelo_inurba_marseille","lat":43.29853,"lon":5.36292,"is_reserved":false,"is_disabled":false,"rental_uris":{"android":"levelo://app?vid=c5ea1412-b3cf-4992-92b2-22246e444141","ios":"levelo://app?vid=c5ea1412-b3cf-4992-92b2-22246e444141"},"vehicle_type_id":"4","last_reported":1733328733,"current_range_meters":38800,"station_id":"ce4bgpp2rcd13ifvqc3g","pricing_plan_id":"cebpf4jnsgd1na2vs0mg"},{"bike_id":"cf3e6ea0-09ff-406c-b357-28a6a6117f94","system_id":"levelo_inurba_marseille","lat":43.22932,"lon":5.35376,"is_reserved":false,"is_disabled":false,"rental_uris":{"android":"levelo://app?vid=cf3e6ea0-09ff-406c-b357-28a6a6117f94","ios":"levelo://app?vid=cf3e6ea0-09ff-406c-b357-28a6a6117f94"},"vehicle_type_id":"4","last_reported":1733328733,"current_range_meters":39200,"station_id":"cpo3532slgdg3j2ikp40","pricing_plan_id":"cebpf4jnsgd1na2vs0mg"},{"bike_id":"fd7dea6a-aa83-4656-baae-4085b6e7d8d6","system_id":"levelo_inurba_marseille","lat":43.33733,"lon":5.39179,"is_reserved":false,"is_disabled":false,"rental_uris":{"android":"levelo://app?vid=fd7dea6a-aa83-4656-baae-4085b6e7d8d6","ios":"levelo://app?vid=fd7dea6a-aa83-4656-baae-4085b6e7d8d6"},"vehicle_type_id":"4","last_reported":1733328733,"current_range_meters":22400,"station_id":"ce4bhr92rcd13ifvqhsg","pricing_plan_id":"cebpf4jnsgd1na2vs0mg"},{"bike_id":"33b6defc-0259-40c1-8c7c-b5f4200fa144","system_id":"levelo_inurba_marseille","lat":43.23959,"lon":5.36644,"is_reserved":false,"is_disabled":false,"rental_uris":{"android":"levelo://app?vid=33b6defc-0259-40c1-8c7c-b5f4200fa144","ios":"levelo://app?vid=33b6defc-0259-40c1-8c7c-b5f4200fa144"},"vehicle_type_id":"4","last_reported":1733328733,"current_range_meters":12000,"station_id":"ce4bhi12rcd13ifvqfp0","pricing_plan_id":"cebpf4jnsgd1na2vs0mg"},{"bike_id":"fbf29f37-4121-4f6b-93c8-bf13a087c094","system_id":"levelo_inurba_marseille","lat":43.29587,"lon":5.36733,"is_reserved":false,"is_disabled":false,"rental_uris":{"android":"levelo://app?vid=fbf29f37-4121-4f6b-93c8-bf13a087c094","ios":"levelo://app?vid=fbf29f37-4121-4f6b-93c8-bf13a087c094"},"vehicle_type_id":"4","last_reported":1733328733,"current_range_meters":25200,"station_id":"ce4bgph2rcd13ifvqc2g","pricing_plan_id":"cebpf4jnsgd1na2vs0mg"},{"bike_id":"d2f5a075-3526-49cd-aac5-f8d819ed3088","system_id":"levelo_inurba_marseille","lat":43.23965,"lon":5.36632,"is_reserved":false,"is_disabled":false,"rental_uris":{"android":"levelo://app?vid=d2f5a075-3526-49cd-aac5-f8d819ed3088","ios":"levelo://app?vid=d2f5a075-3526-49cd-aac5-f8d819ed3088"},"vehicle_type_id":"4","last_reported":1733328733,"current_range_meters":6000,"station_id":"ce4bhi12rcd13ifvqfp0","pricing_plan_id":"cebpf4jnsgd1na2vs0mg"},{"bike_id":"719e509a-25e4-4b1b-9830-f708d85d7593","system_id":"levelo_inurba_marseille","lat":43.29283,"lon":5.37397,"is_reserved":false,"is_disabled":true,"rental_uris":{"android":"levelo://app?vid=719e509a-25e4-4b1b-9830-f708d85d7593","ios":"levelo://app?vid=719e509a-25e4-4b1b-9830-f708d85d7593"},"vehicle_type_id":"4","last_reported":1733328733,"current_range_meters":0,"station_id":"","pricing_plan_id":"cebpf4jnsgd1na2vs0mg"},{"bike_id":"7d2a398c-1e33-4716-b827-6b54de54a01e","system_id":"levelo_inurba_marseille","lat":43.23153,"lon":5.43715,"is_reserved":false,"is_disabled":false,"rental_uris":{"android":"levelo://app?vid=7d2a398c-1e33-4716-b827-6b54de54a01e","ios":"levelo://app?vid=7d2a398c-1e33-4716-b827-6b54de54a01e"},"vehicle_type_id":"4","last_reported":1733328733,"current_range_meters":23200,"station_id":"ce4bhmp2rcd13ifvqgog","pricing_plan_id":"cebpf4jnsgd1na2vs0mg"},{"bike_id":"2554d402-7e07-4762-bd17-648ab6a76b23","system_id":"levelo_inurba_marseille","lat":43.30607,"lon":5.39346,"is_reserved":false,"is_disabled":false,"rental_uris":{"android":"levelo://app?vid=2554d402-7e07-4762-bd17-648ab6a76b23","ios":"levelo://app?vid=2554d402-7e07-4762-bd17-648ab6a76b23"},"vehicle_type_id":"4","last_reported":1733328733,"current_range_meters":38800,"station_id":"ce4bh0p2rcd13ifvqd80","pricing_plan_id":"cebpf4jnsgd1na2vs0mg"},{"bike_id":"19e84bbb-5883-4852-9607-3e687cb3e7e4","system_id":"levelo_inurba_marseille","lat":43.30466,"lon":5.3791,"is_reserved":false,"is_disabled":false,"rental_uris":{"android":"levelo://app?vid=19e84bbb-5883-4852-9607-3e687cb3e7e4","ios":"levelo://app?vid=19e84bbb-5883-4852-9607-3e687cb3e7e4"},"vehicle_type_id":"4","last_reported":1733328733,"current_range_meters":5600,"station_id":"ce4bgup2rcd13ifvqcn0","pricing_plan_id":"cebpf4jnsgd1na2vs0mg"},{"bike_id":"df87919b-b16c-46bf-a34c-18492d1fc5c8","system_id":"levelo_inurba_marseille","lat":43.26195,"lon":5.37451,"is_reserved":false,"is_disabled":false,"rental_uris":{"android":"levelo://app?vid=df87919b-b16c-46bf-a34c-18492d1fc5c8","ios":"levelo://app?vid=df87919b-b16c-46bf-a34c-18492d1fc5c8"},"vehicle_type_id":"4","last_reported":1733328733,"current_range_meters":38000,"station_id":"ce4bhgp2rcd13ifvqfc0","pricing_plan_id":"cebpf4jnsgd1na2vs0mg"},{"bike_id":"e2313035-0a27-419c-b06b-36a49898f917","system_id":"levelo_inurba_marseille","lat":43.27997,"lon":5.41656,"is_reserved":false,"is_disabled":false,"rental_uris":{"android":"levelo://app?vid=e2313035-0a27-419c-b06b-36a49898f917","ios":"levelo://app?vid=e2313035-0a27-419c-b06b-36a49898f917"},"vehicle_type_id":"4","last_reported":1733328733,"current_range_meters":20400,"station_id":"ce4bho12rcd13ifvqh1g","pricing_plan_id":"cebpf4jnsgd1na2vs0mg"},{"bike_id":"ca4ce873-63e8-4c58-bd77-643fa3df5f90","system_id":"levelo_inurba_marseille","lat":43.29524,"lon":5.394132,"is_reserved":false,"is_disabled":false,"rental_uris":{"android":"levelo://app?vid=ca4ce873-63e8-4c58-bd77-643fa3df5f90","ios":"levelo://app?vid=ca4ce873-63e8-4c58-bd77-643fa3df5f90"},"vehicle_type_id":"4","last_reported":1733328733,"current_range_meters":8000,"station_id":"ce4bh292rcd13ifvqdf0","pricing_plan_id":"cebpf4jnsgd1na2vs0mg"},{"bike_id":"e7dd3dcb-a506-4fbe-af8e-b6e5e52460b8","system_id":"levelo_inurba_marseille","lat":43.30333,"lon":5.3764,"is_reserved":false,"is_disabled":false,"rental_uris":{"android":"levelo://app?vid=e7dd3dcb-a506-4fbe-af8e-b6e5e52460b8","ios":"levelo://app?vid=e7dd3dcb-a506-4fbe-af8e-b6e5e52460b8"},"vehicle_type_id":"4","last_reported":1733328733,"current_range_meters":10800,"station_id":"","pricing_plan_id":"cebpf4jnsgd1na2vs0mg"},{"bike_id":"12942cc4-9c1d-4d93-b335-edfc826d0cbe","system_id":"levelo_inurba_marseille","lat":43.28939,"lon":5.36639,"is_reserved":false,"is_disabled":false,"rental_uris":{"android":"levelo://app?vid=12942cc4-9c1d-4d93-b335-edfc826d0cbe","ios":"levelo://app?vid=12942cc4-9c1d-4d93-b335-edfc826d0cbe"},"vehicle_type_id":"4","last_reported":1733328733,"current_range_meters":38800,"station_id":"ce4bhap2rcd13ifvqek0","pricing_plan_id":"cebpf4jnsgd1na2vs0mg"},{"bike_id":"b01ba929-1580-401b-973d-e4a15d746d4a","system_id":"levelo_inurba_marseille","lat":43.22929,"lon":5.35376,"is_reserved":false,"is_disabled":false,"rental_uris":{"android":"levelo://app?vid=b01ba929-1580-401b-973d-e4a15d746d4a","ios":"levelo://app?vid=b01ba929-1580-401b-973d-e4a15d746d4a"},"vehicle_type_id":"4","last_reported":1733328733,"current_range_meters":22000,"station_id":"cpo3532slgdg3j2ikp40","pricing_plan_id":"cebpf4jnsgd1na2vs0mg"},{"bike_id":"b4cc2dea-58b4-4ce2-b8e7-99f5526d96f4","system_id":"levelo_inurba_marseille","lat":43.28004,"lon":5.40022,"is_reserved":false,"is_disabled":false,"rental_uris":{"android":"levelo://app?vid=b4cc2dea-58b4-4ce2-b8e7-99f5526d96f4","ios":"levelo://app?vid=b4cc2dea-58b4-4ce2-b8e7-99f5526d96f4"},"vehicle_type_id":"4","last_reported":1733328733,"current_range_meters":8000,"station_id":"ce4bho92rcd13ifvqh4g","pricing_plan_id":"cebpf4jnsgd1na2vs0mg"},{"bike_id":"38c9802a-44d4-43b4-a98f-381ac535f302","system_id":"levelo_inurba_marseille","lat":43.32472,"lon":5.36568,"is_reserved":false,"is_disabled":false,"rental_uris":{"android":"levelo://app?vid=38c9802a-44d4-43b4-a98f-381ac535f302","ios":"levelo://app?vid=38c9802a-44d4-43b4-a98f-381ac535f302"},"vehicle_type_id":"4","last_reported":1733328733,"current_range_meters":34000,"station_id":"ce4bhs12rcd13ifvqhvg","pricing_plan_id":"cebpf4jnsgd1na2vs0mg"},{"bike_id":"81112875-f889-4f03-9084-2d9a2652507c","system_id":"levelo_inurba_marseille","lat":43.31365,"lon":5.38499,"is_reserved":false,"is_disabled":false,"rental_uris":{"android":"levelo://app?vid=81112875-f889-4f03-9084-2d9a2652507c","ios":"levelo://app?vid=81112875-f889-4f03-9084-2d9a2652507c"},"vehicle_type_id":"4","last_reported":1733328733,"current_range_meters":35600,"station_id":"ce4bgt92rcd13ifvqcf0","pricing_plan_id":"cebpf4jnsgd1na2vs0mg"},{"bike_id":"04acd6cf-39e7-4978-a379-93c734ba69f3","system_id":"levelo_inurba_marseille","lat":43.31687,"lon":5.38248,"is_reserved":false,"is_disabled":false,"rental_uris":{"android":"levelo://app?vid=04acd6cf-39e7-4978-a379-93c734ba69f3","ios":"levelo://app?vid=04acd6cf-39e7-4978-a379-93c734ba69f3"},"vehicle_type_id":"4","last_reported":1733328733,"current_range_meters":37600,"station_id":"","pricing_plan_id":"cebpf4jnsgd1na2vs0mg"},{"bike_id":"5463da0b-6188-4ee8-9dd4-d7924d1b0f6f","system_id":"levelo_inurba_marseille","lat":43.27985,"lon":5.41853,"is_reserved":false,"is_disabled":false,"rental_uris":{"android":"levelo://app?vid=5463da0b-6188-4ee8-9dd4-d7924d1b0f6f","ios":"levelo://app?vid=5463da0b-6188-4ee8-9dd4-d7924d1b0f6f"},"vehicle_type_id":"4","last_reported":1733328733,"current_range_meters":23200,"station_id":"ce4bhnh2rcd13ifvqgug","pricing_plan_id":"cebpf4jnsgd1na2vs0mg"},{"bike_id":"010f1ddc-a5dd-4595-9905-ebf82317a65f","system_id":"levelo_inurba_marseille","lat":43.33022,"lon":5.39054,"is_reserved":false,"is_disabled":false,"rental_uris":{"android":"levelo://app?vid=010f1ddc-a5dd-4595-9905-ebf82317a65f","ios":"levelo://app?vid=010f1ddc-a5dd-4595-9905-ebf82317a65f"},"vehicle_type_id":"4","last_reported":1733328733,"current_range_meters":38800,"station_id":"ce4bhr92rcd13ifvqhrg","pricing_plan_id":"cebpf4jnsgd1na2vs0mg"},{"bike_id":"e40ca98a-ec30-4812-a5e2-b37b0031fa2b","system_id":"levelo_inurba_marseille","lat":43.29593,"lon":5.38115,"is_reserved":false,"is_disabled":false,"rental_uris":{"android":"levelo://app?vid=e40ca98a-ec30-4812-a5e2-b37b0031fa2b","ios":"levelo://app?vid=e40ca98a-ec30-4812-a5e2-b37b0031fa2b"},"vehicle_type_id":"4","last_reported":1733328733,"current_range_meters":6400,"station_id":"ce4bgl12rcd13ifvqbo0","pricing_plan_id":"cebpf4jnsgd1na2vs0mg"},{"bike_id":"6ad8a432-da4e-4c89-a517-c468065b53fa","system_id":"levelo_inurba_marseille","lat":43.29763,"lon":5.37115,"is_reserved":false,"is_disabled":false,"rental_uris":{"android":"levelo://app?vid=6ad8a432-da4e-4c89-a517-c468065b53fa","ios":"levelo://app?vid=6ad8a432-da4e-4c89-a517-c468065b53fa"},"vehicle_type_id":"4","last_reported":1733328733,"current_range_meters":25600,"station_id":"ce4bgop2rcd13ifvqc1g","pricing_plan_id":"cebpf4jnsgd1na2vs0mg"},{"bike_id":"aaf55e6d-d562-4b12-8a4f-c3b1fb6e8449","system_id":"levelo_inurba_marseille","lat":43.3123,"lon":5.36886,"is_reserved":false,"is_disabled":false,"rental_uris":{"android":"levelo://app?vid=aaf55e6d-d562-4b12-8a4f-c3b1fb6e8449","ios":"levelo://app?vid=aaf55e6d-d562-4b12-8a4f-c3b1fb6e8449"},"vehicle_type_id":"4","last_reported":1733328733,"current_range_meters":37600,"station_id":"ce4bgl92rcd13ifvqbq0","pricing_plan_id":"cebpf4jnsgd1na2vs0mg"},{"bike_id":"49f6453e-d4c4-443c-87a4-c77d2e5ae5ef","system_id":"levelo_inurba_marseille","lat":43.27375,"lon":5.36269,"is_reserved":false,"is_disabled":false,"rental_uris":{"android":"levelo://app?vid=49f6453e-d4c4-443c-87a4-c77d2e5ae5ef","ios":"levelo://app?vid=49f6453e-d4c4-443c-87a4-c77d2e5ae5ef"},"vehicle_type_id":"4","last_reported":1733328733,"current_range_meters":36000,"station_id":"ce4bhbh2rcd13ifvqeo0","pricing_plan_id":"cebpf4jnsgd1na2vs0mg"},{"bike_id":"41776b6e-9d3f-445f-b068-5523c904169f","system_id":"levelo_inurba_marseille","lat":43.26943,"lon":5.40245,"is_reserved":false,"is_disabled":true,"rental_uris":{"android":"levelo://app?vid=41776b6e-9d3f-445f-b068-5523c904169f","ios":"levelo://app?vid=41776b6e-9d3f-445f-b068-5523c904169f"},"vehicle_type_id":"4","last_reported":1733328733,"current_range_meters":0,"station_id":"cjm6bp8fraef2m0cb0m0","pricing_plan_id":"cebpf4jnsgd1na2vs0mg"},{"bike_id":"79c8ea6d-5102-4a1e-b941-afdabc095945","system_id":"levelo_inurba_marseille","lat":43.29068,"lon":5.38347,"is_reserved":false,"is_disabled":true,"rental_uris":{"android":"levelo://app?vid=79c8ea6d-5102-4a1e-b941-afdabc095945","ios":"levelo://app?vid=79c8ea6d-5102-4a1e-b941-afdabc095945"},"vehicle_type_id":"4","last_reported":1733328733,"current_range_meters":19200,"station_id":"","pricing_plan_id":"cebpf4jnsgd1na2vs0mg"},{"bike_id":"84a2915d-c6ef-4af0-8c6d-2fcd615fa6c7","system_id":"levelo_inurba_marseille","lat":43.33342,"lon":5.42029,"is_reserved":false,"is_disabled":true,"rental_uris":{"android":"levelo://app?vid=84a2915d-c6ef-4af0-8c6d-2fcd615fa6c7","ios":"levelo://app?vid=84a2915d-c6ef-4af0-8c6d-2fcd615fa6c7"},"vehicle_type_id":"4","last_reported":1733328733,"current_range_meters":0,"station_id":"","pricing_plan_id":"cebpf4jnsgd1na2vs0mg"},{"bike_id":"5cac81a8-99c7-4614-9d6b-cea18e49961e","system_id":"levelo_inurba_marseille","lat":43.28102,"lon":5.37837,"is_reserved":false,"is_disabled":false,"rental_uris":{"android":"levelo://app?vid=5cac81a8-99c7-4614-9d6b-cea18e49961e","ios":"levelo://app?vid=5cac81a8-99c7-4614-9d6b-cea18e49961e"},"vehicle_type_id":"4","last_reported":1733328733,"current_range_meters":9200,"station_id":"ce4bha12rcd13ifvqee0","pricing_plan_id":"cebpf4jnsgd1na2vs0mg"},{"bike_id":"eb6a790b-e56a-44cb-a91c-f3c0be3b808e","system_id":"levelo_inurba_marseille","lat":43.31419,"lon":5.37414,"is_reserved":false,"is_disabled":false,"rental_uris":{"android":"levelo://app?vid=eb6a790b-e56a-44cb-a91c-f3c0be3b808e","ios":"levelo://app?vid=eb6a790b-e56a-44cb-a91c-f3c0be3b808e"},"vehicle_type_id":"4","last_reported":1733328733,"current_range_meters":27200,"station_id":"","pricing_plan_id":"cebpf4jnsgd1na2vs0mg"},{"bike_id":"f9af7297-60c8-43d7-a968-0426c218f11f","system_id":"levelo_inurba_marseille","lat":43.25493,"lon":5.37647,"is_reserved":false,"is_disabled":true,"rental_uris":{"android":"levelo://app?vid=f9af7297-60c8-43d7-a968-0426c218f11f","ios":"levelo://app?vid=f9af7297-60c8-43d7-a968-0426c218f11f"},"vehicle_type_id":"4","last_reported":1733328733,"current_range_meters":15200,"station_id":"ce4bhh12rcd13ifvqff0","pricing_plan_id":"cebpf4jnsgd1na2vs0mg"},{"bike_id":"c1bd2f3c-72a5-4288-9456-79b212a65b19","system_id":"levelo_inurba_marseille","lat":43.25932,"lon":5.40909,"is_reserved":false,"is_disabled":true,"rental_uris":{"android":"levelo://app?vid=c1bd2f3c-72a5-4288-9456-79b212a65b19","ios":"levelo://app?vid=c1bd2f3c-72a5-4288-9456-79b212a65b19"},"vehicle_type_id":"4","last_reported":1733328733,"current_range_meters":800,"station_id":"ce4bhm92rcd13ifvqglg","pricing_plan_id":"cebpf4jnsgd1na2vs0mg"},{"bike_id":"206296c9-1bf0-4390-a9ab-67b636246281","system_id":"levelo_inurba_marseille","lat":43.28276,"lon":5.35064,"is_reserved":false,"is_disabled":false,"rental_uris":{"android":"levelo://app?vid=206296c9-1bf0-4390-a9ab-67b636246281","ios":"levelo://app?vid=206296c9-1bf0-4390-a9ab-67b636246281"},"vehicle_type_id":"4","last_reported":1733328733,"current_range_meters":16400,"station_id":"ce4bhbp2rcd13ifvqerg","pricing_plan_id":"cebpf4jnsgd1na2vs0mg"},{"bike_id":"704edf0a-9774-4ca2-8fd4-44a2b86045e9","system_id":"levelo_inurba_marseille","lat":43.27376,"lon":5.36255,"is_reserved":false,"is_disabled":false,"rental_uris":{"android":"levelo://app?vid=704edf0a-9774-4ca2-8fd4-44a2b86045e9","ios":"levelo://app?vid=704edf0a-9774-4ca2-8fd4-44a2b86045e9"},"vehicle_type_id":"4","last_reported":1733328733,"current_range_meters":24400,"station_id":"ce4bhbh2rcd13ifvqeo0","pricing_plan_id":"cebpf4jnsgd1na2vs0mg"},{"bike_id":"d08cbdef-fa5f-4eaa-9a1b-d4e2d436791f","system_id":"levelo_inurba_marseille","lat":43.32478,"lon":5.3656,"is_reserved":false,"is_disabled":false,"rental_uris":{"android":"levelo://app?vid=d08cbdef-fa5f-4eaa-9a1b-d4e2d436791f","ios":"levelo://app?vid=d08cbdef-fa5f-4eaa-9a1b-d4e2d436791f"},"vehicle_type_id":"4","last_reported":1733328733,"current_range_meters":38800,"station_id":"ce4bhs12rcd13ifvqhvg","pricing_plan_id":"cebpf4jnsgd1na2vs0mg"},{"bike_id":"2609ba3b-590b-44a8-9a3a-6fe4518a579f","system_id":"levelo_inurba_marseille","lat":43.24548,"lon":5.39526,"is_reserved":false,"is_disabled":true,"rental_uris":{"android":"levelo://app?vid=2609ba3b-590b-44a8-9a3a-6fe4518a579f","ios":"levelo://app?vid=2609ba3b-590b-44a8-9a3a-6fe4518a579f"},"vehicle_type_id":"4","last_reported":1733328733,"current_range_meters":0,"station_id":"ce4bhlp2rcd13ifvqgjg","pricing_plan_id":"cebpf4jnsgd1na2vs0mg"},{"bike_id":"a4b9e425-64b8-4ce2-a5ab-5fcc5d1230a4","system_id":"levelo_inurba_marseille","lat":43.32108,"lon":5.36771,"is_reserved":false,"is_disabled":false,"rental_uris":{"android":"levelo://app?vid=a4b9e425-64b8-4ce2-a5ab-5fcc5d1230a4","ios":"levelo://app?vid=a4b9e425-64b8-4ce2-a5ab-5fcc5d1230a4"},"vehicle_type_id":"4","last_reported":1733328733,"current_range_meters":38800,"station_id":"ce4bhrh2rcd13ifvqhug","pricing_plan_id":"cebpf4jnsgd1na2vs0mg"},{"bike_id":"c2c60ae5-8a06-46dd-8518-74b6fd30f85e","system_id":"levelo_inurba_marseille","lat":43.26579,"lon":5.39023,"is_reserved":false,"is_disabled":false,"rental_uris":{"android":"levelo://app?vid=c2c60ae5-8a06-46dd-8518-74b6fd30f85e","ios":"levelo://app?vid=c2c60ae5-8a06-46dd-8518-74b6fd30f85e"},"vehicle_type_id":"4","last_reported":1733328733,"current_range_meters":32400,"station_id":"ce4bhe12rcd13ifvqf30","pricing_plan_id":"cebpf4jnsgd1na2vs0mg"},{"bike_id":"9a0a2c3a-61ad-4fef-a2b4-f114d8afff6f","system_id":"levelo_inurba_marseille","lat":43.28982,"lon":5.37837,"is_reserved":false,"is_disabled":false,"rental_uris":{"android":"levelo://app?vid=9a0a2c3a-61ad-4fef-a2b4-f114d8afff6f","ios":"levelo://app?vid=9a0a2c3a-61ad-4fef-a2b4-f114d8afff6f"},"vehicle_type_id":"4","last_reported":1733328733,"current_range_meters":37600,"station_id":"ce4bh9p2rcd13ifvqed0","pricing_plan_id":"cebpf4jnsgd1na2vs0mg"},{"bike_id":"e9825e22-a219-4419-9c42-05f082b516ed","system_id":"levelo_inurba_marseille","lat":43.29793,"lon":5.39352,"is_reserved":false,"is_disabled":true,"rental_uris":{"android":"levelo://app?vid=e9825e22-a219-4419-9c42-05f082b516ed","ios":"levelo://app?vid=e9825e22-a219-4419-9c42-05f082b516ed"},"vehicle_type_id":"4","last_reported":1733328733,"current_range_meters":0,"station_id":"chh1huq6cuj3fo74tm60","pricing_plan_id":"cebpf4jnsgd1na2vs0mg"},{"bike_id":"fc02bf7c-fa30-4850-9eb4-c1c04eeef081","system_id":"levelo_inurba_marseille","lat":43.33022,"lon":5.39056,"is_reserved":false,"is_disabled":false,"rental_uris":{"android":"levelo://app?vid=fc02bf7c-fa30-4850-9eb4-c1c04eeef081","ios":"levelo://app?vid=fc02bf7c-fa30-4850-9eb4-c1c04eeef081"},"vehicle_type_id":"4","last_reported":1733328733,"current_range_meters":28400,"station_id":"ce4bhr92rcd13ifvqhrg","pricing_plan_id":"cebpf4jnsgd1na2vs0mg"},{"bike_id":"c2d8a1c2-d166-4a36-b32f-beec95c93bd5","system_id":"levelo_inurba_marseille","lat":43.33756,"lon":5.37459,"is_reserved":false,"is_disabled":false,"rental_uris":{"android":"levelo://app?vid=c2d8a1c2-d166-4a36-b32f-beec95c93bd5","ios":"levelo://app?vid=c2d8a1c2-d166-4a36-b32f-beec95c93bd5"},"vehicle_type_id":"4","last_reported":1733328733,"current_range_meters":12800,"station_id":"","pricing_plan_id":"cebpf4jnsgd1na2vs0mg"},{"bike_id":"8830c08f-c268-499b-b7a5-e0504b24aab5","system_id":"levelo_inurba_marseille","lat":43.32478,"lon":5.36573,"is_reserved":false,"is_disabled":false,"rental_uris":{"android":"levelo://app?vid=8830c08f-c268-499b-b7a5-e0504b24aab5","ios":"levelo://app?vid=8830c08f-c268-499b-b7a5-e0504b24aab5"},"vehicle_type_id":"4","last_reported":1733328733,"current_range_meters":24800,"station_id":"ce4bhs12rcd13ifvqhvg","pricing_plan_id":"cebpf4jnsgd1na2vs0mg"},{"bike_id":"32c9bf29-dba9-460c-9ec6-ce844b7b88af","system_id":"levelo_inurba_marseille","lat":43.27992,"lon":5.40015,"is_reserved":false,"is_disabled":false,"rental_uris":{"android":"levelo://app?vid=32c9bf29-dba9-460c-9ec6-ce844b7b88af","ios":"levelo://app?vid=32c9bf29-dba9-460c-9ec6-ce844b7b88af"},"vehicle_type_id":"4","last_reported":1733328733,"current_range_meters":4800,"station_id":"ce4bho92rcd13ifvqh4g","pricing_plan_id":"cebpf4jnsgd1na2vs0mg"},{"bike_id":"df589a4b-fe9d-41c4-baeb-db4144cd67c5","system_id":"levelo_inurba_marseille","lat":43.29987,"lon":5.37393,"is_reserved":false,"is_disabled":false,"rental_uris":{"android":"levelo://app?vid=df589a4b-fe9d-41c4-baeb-db4144cd67c5","ios":"levelo://app?vid=df589a4b-fe9d-41c4-baeb-db4144cd67c5"},"vehicle_type_id":"4","last_reported":1733328733,"current_range_meters":36400,"station_id":"","pricing_plan_id":"cebpf4jnsgd1na2vs0mg"},{"bike_id":"a16275dd-1e1c-4a80-8655-be361a39e999","system_id":"levelo_inurba_marseille","lat":43.29572,"lon":5.37517,"is_reserved":false,"is_disabled":false,"rental_uris":{"android":"levelo://app?vid=a16275dd-1e1c-4a80-8655-be361a39e999","ios":"levelo://app?vid=a16275dd-1e1c-4a80-8655-be361a39e999"},"vehicle_type_id":"4","last_reported":1733328733,"current_range_meters":36400,"station_id":"ce4bgh92rcd13ifvqb50","pricing_plan_id":"cebpf4jnsgd1na2vs0mg"},{"bike_id":"65fde4a3-1ea7-4eb6-81df-2fe5fe721f0a","system_id":"levelo_inurba_marseille","lat":43.31727,"lon":5.424,"is_reserved":false,"is_disabled":false,"rental_uris":{"android":"levelo://app?vid=65fde4a3-1ea7-4eb6-81df-2fe5fe721f0a","ios":"levelo://app?vid=65fde4a3-1ea7-4eb6-81df-2fe5fe721f0a"},"vehicle_type_id":"4","last_reported":1733328733,"current_range_meters":38000,"station_id":"ce4bhp92rcd13ifvqhbg","pricing_plan_id":"cebpf4jnsgd1na2vs0mg"},{"bike_id":"abe1ddec-de40-4c17-8393-151519bf8daa","system_id":"levelo_inurba_marseille","lat":43.30928,"lon":5.40145,"is_reserved":false,"is_disabled":false,"rental_uris":{"android":"levelo://app?vid=abe1ddec-de40-4c17-8393-151519bf8daa","ios":"levelo://app?vid=abe1ddec-de40-4c17-8393-151519bf8daa"},"vehicle_type_id":"4","last_reported":1733328733,"current_range_meters":35600,"station_id":"ce4bgvp2rcd13ifvqct0","pricing_plan_id":"cebpf4jnsgd1na2vs0mg"},{"bike_id":"8be9c429-6d17-4c04-ba4c-191adf657697","system_id":"levelo_inurba_marseille","lat":43.33019,"lon":5.39033,"is_reserved":false,"is_disabled":false,"rental_uris":{"android":"levelo://app?vid=8be9c429-6d17-4c04-ba4c-191adf657697","ios":"levelo://app?vid=8be9c429-6d17-4c04-ba4c-191adf657697"},"vehicle_type_id":"4","last_reported":1733328733,"current_range_meters":24800,"station_id":"ce4bhr92rcd13ifvqhrg","pricing_plan_id":"cebpf4jnsgd1na2vs0mg"},{"bike_id":"9eb56469-e107-48a5-810b-708bce1252c8","system_id":"levelo_inurba_marseille","lat":43.30135,"lon":5.38785,"is_reserved":false,"is_disabled":false,"rental_uris":{"android":"levelo://app?vid=9eb56469-e107-48a5-810b-708bce1252c8","ios":"levelo://app?vid=9eb56469-e107-48a5-810b-708bce1252c8"},"vehicle_type_id":"4","last_reported":1733328733,"current_range_meters":36800,"station_id":"ce4bghh2rcd13ifvqb60","pricing_plan_id":"cebpf4jnsgd1na2vs0mg"},{"bike_id":"5e160b8e-5c83-4423-b051-bd2cf577003d","system_id":"levelo_inurba_marseille","lat":43.232,"lon":5.35553,"is_reserved":false,"is_disabled":false,"rental_uris":{"android":"levelo://app?vid=5e160b8e-5c83-4423-b051-bd2cf577003d","ios":"levelo://app?vid=5e160b8e-5c83-4423-b051-bd2cf577003d"},"vehicle_type_id":"4","last_reported":1733328733,"current_range_meters":39200,"station_id":"ce4bhu92rcd13ifvqi70","pricing_plan_id":"cebpf4jnsgd1na2vs0mg"},{"bike_id":"3e20ba1a-2fc1-422c-b85f-e64c4724aed9","system_id":"levelo_inurba_marseille","lat":43.2842,"lon":5.37512,"is_reserved":false,"is_disabled":false,"rental_uris":{"android":"levelo://app?vid=3e20ba1a-2fc1-422c-b85f-e64c4724aed9","ios":"levelo://app?vid=3e20ba1a-2fc1-422c-b85f-e64c4724aed9"},"vehicle_type_id":"4","last_reported":1733328733,"current_range_meters":9600,"station_id":"ce4bh412rcd13ifvqds0","pricing_plan_id":"cebpf4jnsgd1na2vs0mg"},{"bike_id":"0b115fbc-2a1c-4284-9549-50ec6c5705b3","system_id":"levelo_inurba_marseille","lat":43.33027,"lon":5.39049,"is_reserved":false,"is_disabled":false,"rental_uris":{"android":"levelo://app?vid=0b115fbc-2a1c-4284-9549-50ec6c5705b3","ios":"levelo://app?vid=0b115fbc-2a1c-4284-9549-50ec6c5705b3"},"vehicle_type_id":"4","last_reported":1733328733,"current_range_meters":38800,"station_id":"ce4bhr92rcd13ifvqhrg","pricing_plan_id":"cebpf4jnsgd1na2vs0mg"},{"bike_id":"57539735-c291-47c1-8025-f1f462c64ab6","system_id":"levelo_inurba_marseille","lat":43.30296,"lon":5.39226,"is_reserved":false,"is_disabled":false,"rental_uris":{"android":"levelo://app?vid=57539735-c291-47c1-8025-f1f462c64ab6","ios":"levelo://app?vid=57539735-c291-47c1-8025-f1f462c64ab6"},"vehicle_type_id":"4","last_reported":1733328733,"current_range_meters":15200,"station_id":"ce4bgkh2rcd13ifvqbk0","pricing_plan_id":"cebpf4jnsgd1na2vs0mg"},{"bike_id":"566d3863-5d3d-46e1-8560-48de365cc9d0","system_id":"levelo_inurba_marseille","lat":43.26552,"lon":5.37289,"is_reserved":false,"is_disabled":false,"rental_uris":{"android":"levelo://app?vid=566d3863-5d3d-46e1-8560-48de365cc9d0","ios":"levelo://app?vid=566d3863-5d3d-46e1-8560-48de365cc9d0"},"vehicle_type_id":"4","last_reported":1733328733,"current_range_meters":11200,"station_id":"ce4bhg12rcd13ifvqf70","pricing_plan_id":"cebpf4jnsgd1na2vs0mg"},{"bike_id":"a13e45b5-3d49-49bc-af49-fbd12d53a877","system_id":"levelo_inurba_marseille","lat":43.30535,"lon":5.36543,"is_reserved":false,"is_disabled":true,"rental_uris":{"android":"levelo://app?vid=a13e45b5-3d49-49bc-af49-fbd12d53a877","ios":"levelo://app?vid=a13e45b5-3d49-49bc-af49-fbd12d53a877"},"vehicle_type_id":"4","last_reported":1733328733,"current_range_meters":17600,"station_id":"ce4bgs12rcd13ifvqcag","pricing_plan_id":"cebpf4jnsgd1na2vs0mg"},{"bike_id":"d2cacea6-dc09-4bb5-9e24-b3f0026fab56","system_id":"levelo_inurba_marseille","lat":43.3054,"lon":5.36707,"is_reserved":false,"is_disabled":false,"rental_uris":{"android":"levelo://app?vid=d2cacea6-dc09-4bb5-9e24-b3f0026fab56","ios":"levelo://app?vid=d2cacea6-dc09-4bb5-9e24-b3f0026fab56"},"vehicle_type_id":"4","last_reported":1733328733,"current_range_meters":29600,"station_id":"ce4bgrp2rcd13ifvqc9g","pricing_plan_id":"cebpf4jnsgd1na2vs0mg"},{"bike_id":"f7051acc-786e-4139-86f0-95153f67ea5a","system_id":"levelo_inurba_marseille","lat":43.26059,"lon":5.39397,"is_reserved":false,"is_disabled":false,"rental_uris":{"android":"levelo://app?vid=f7051acc-786e-4139-86f0-95153f67ea5a","ios":"levelo://app?vid=f7051acc-786e-4139-86f0-95153f67ea5a"},"vehicle_type_id":"4","last_reported":1733328733,"current_range_meters":6000,"station_id":"ce4bhh92rcd13ifvqfj0","pricing_plan_id":"cebpf4jnsgd1na2vs0mg"},{"bike_id":"7e87d4f8-01df-4475-b68f-dae3809122d2","system_id":"levelo_inurba_marseille","lat":43.310057,"lon":5.37526,"is_reserved":false,"is_disabled":false,"rental_uris":{"android":"levelo://app?vid=7e87d4f8-01df-4475-b68f-dae3809122d2","ios":"levelo://app?vid=7e87d4f8-01df-4475-b68f-dae3809122d2"},"vehicle_type_id":"4","last_reported":1733328733,"current_range_meters":18000,"station_id":"","pricing_plan_id":"cebpf4jnsgd1na2vs0mg"},{"bike_id":"3a9149f3-357c-4d0a-859b-18382ef024a5","system_id":"levelo_inurba_marseille","lat":43.3211,"lon":5.36769,"is_reserved":false,"is_disabled":false,"rental_uris":{"android":"levelo://app?vid=3a9149f3-357c-4d0a-859b-18382ef024a5","ios":"levelo://app?vid=3a9149f3-357c-4d0a-859b-18382ef024a5"},"vehicle_type_id":"4","last_reported":1733328733,"current_range_meters":27600,"station_id":"ce4bhrh2rcd13ifvqhug","pricing_plan_id":"cebpf4jnsgd1na2vs0mg"},{"bike_id":"a6f6b0ec-db45-428a-8871-d971833d80ce","system_id":"levelo_inurba_marseille","lat":43.25719,"lon":5.41115,"is_reserved":false,"is_disabled":false,"rental_uris":{"android":"levelo://app?vid=a6f6b0ec-db45-428a-8871-d971833d80ce","ios":"levelo://app?vid=a6f6b0ec-db45-428a-8871-d971833d80ce"},"vehicle_type_id":"4","last_reported":1733328733,"current_range_meters":36000,"station_id":"ce4bhkp2rcd13ifvqgd0","pricing_plan_id":"cebpf4jnsgd1na2vs0mg"},{"bike_id":"d6cdf94f-d897-4652-870d-b7ea13c6676e","system_id":"levelo_inurba_marseille","lat":43.299689,"lon":5.384878,"is_reserved":false,"is_disabled":false,"rental_uris":{"android":"levelo://app?vid=d6cdf94f-d897-4652-870d-b7ea13c6676e","ios":"levelo://app?vid=d6cdf94f-d897-4652-870d-b7ea13c6676e"},"vehicle_type_id":"4","last_reported":1733328733,"current_range_meters":38800,"station_id":"ce4bgj92rcd13ifvqbd0","pricing_plan_id":"cebpf4jnsgd1na2vs0mg"},{"bike_id":"aff1f550-93fa-4925-af11-4b86eeadf72c","system_id":"levelo_inurba_marseille","lat":43.31119,"lon":5.3777,"is_reserved":false,"is_disabled":false,"rental_uris":{"android":"levelo://app?vid=aff1f550-93fa-4925-af11-4b86eeadf72c","ios":"levelo://app?vid=aff1f550-93fa-4925-af11-4b86eeadf72c"},"vehicle_type_id":"4","last_reported":1733328733,"current_range_meters":39200,"station_id":"ce4bgt92rcd13ifvqcg0","pricing_plan_id":"cebpf4jnsgd1na2vs0mg"},{"bike_id":"98102b5a-5f65-421e-b910-4d6a9cfd0b26","system_id":"levelo_inurba_marseille","lat":43.26683,"lon":5.38265,"is_reserved":false,"is_disabled":false,"rental_uris":{"android":"levelo://app?vid=98102b5a-5f65-421e-b910-4d6a9cfd0b26","ios":"levelo://app?vid=98102b5a-5f65-421e-b910-4d6a9cfd0b26"},"vehicle_type_id":"4","last_reported":1733328733,"current_range_meters":25600,"station_id":"ce4bhg92rcd13ifvqf90","pricing_plan_id":"cebpf4jnsgd1na2vs0mg"},{"bike_id":"ca69dea0-3381-4aa3-bcfd-1ef28b960fe9","system_id":"levelo_inurba_marseille","lat":43.29618,"lon":5.37727,"is_reserved":false,"is_disabled":false,"rental_uris":{"android":"levelo://app?vid=ca69dea0-3381-4aa3-bcfd-1ef28b960fe9","ios":"levelo://app?vid=ca69dea0-3381-4aa3-bcfd-1ef28b960fe9"},"vehicle_type_id":"4","last_reported":1733328733,"current_range_meters":28800,"station_id":"ce4bgi92rcd13ifvqb90","pricing_plan_id":"cebpf4jnsgd1na2vs0mg"},{"bike_id":"8ed65e6c-4bd7-425c-b3b6-6b20614b3f1a","system_id":"levelo_inurba_marseille","lat":43.32478,"lon":5.36572,"is_reserved":false,"is_disabled":false,"rental_uris":{"android":"levelo://app?vid=8ed65e6c-4bd7-425c-b3b6-6b20614b3f1a","ios":"levelo://app?vid=8ed65e6c-4bd7-425c-b3b6-6b20614b3f1a"},"vehicle_type_id":"4","last_reported":1733328733,"current_range_meters":36400,"station_id":"ce4bhs12rcd13ifvqhvg","pricing_plan_id":"cebpf4jnsgd1na2vs0mg"},{"bike_id":"55e2ddd2-5319-4cc1-9cf1-3f0c35f5617a","system_id":"levelo_inurba_marseille","lat":43.28685,"lon":5.38426,"is_reserved":false,"is_disabled":true,"rental_uris":{"android":"levelo://app?vid=55e2ddd2-5319-4cc1-9cf1-3f0c35f5617a","ios":"levelo://app?vid=55e2ddd2-5319-4cc1-9cf1-3f0c35f5617a"},"vehicle_type_id":"4","last_reported":1733328733,"current_range_meters":0,"station_id":"","pricing_plan_id":"cebpf4jnsgd1na2vs0mg"},{"bike_id":"da6a7a1d-e653-4950-af8c-8137b06f7d40","system_id":"levelo_inurba_marseille","lat":43.3004,"lon":5.37551,"is_reserved":false,"is_disabled":true,"rental_uris":{"android":"levelo://app?vid=da6a7a1d-e653-4950-af8c-8137b06f7d40","ios":"levelo://app?vid=da6a7a1d-e653-4950-af8c-8137b06f7d40"},"vehicle_type_id":"4","last_reported":1733328733,"current_range_meters":0,"station_id":"","pricing_plan_id":"cebpf4jnsgd1na2vs0mg"},{"bike_id":"3dc3ddb3-3af3-4f7e-b055-9fb7b40c206d","system_id":"levelo_inurba_marseille","lat":43.25115,"lon":5.40314,"is_reserved":false,"is_disabled":false,"rental_uris":{"android":"levelo://app?vid=3dc3ddb3-3af3-4f7e-b055-9fb7b40c206d","ios":"levelo://app?vid=3dc3ddb3-3af3-4f7e-b055-9fb7b40c206d"},"vehicle_type_id":"4","last_reported":1733328733,"current_range_meters":18000,"station_id":"ce4bhlh2rcd13ifvqgig","pricing_plan_id":"cebpf4jnsgd1na2vs0mg"},{"bike_id":"fd105c82-4171-4291-9f54-b4a492c8122c","system_id":"levelo_inurba_marseille","lat":43.25942,"lon":5.40911,"is_reserved":false,"is_disabled":false,"rental_uris":{"android":"levelo://app?vid=fd105c82-4171-4291-9f54-b4a492c8122c","ios":"levelo://app?vid=fd105c82-4171-4291-9f54-b4a492c8122c"},"vehicle_type_id":"4","last_reported":1733328733,"current_range_meters":22800,"station_id":"ce4bhm92rcd13ifvqglg","pricing_plan_id":"cebpf4jnsgd1na2vs0mg"},{"bike_id":"3a67fd73-6e99-4714-bf79-55e5ae241aac","system_id":"levelo_inurba_marseille","lat":43.26557,"lon":5.39001,"is_reserved":false,"is_disabled":false,"rental_uris":{"android":"levelo://app?vid=3a67fd73-6e99-4714-bf79-55e5ae241aac","ios":"levelo://app?vid=3a67fd73-6e99-4714-bf79-55e5ae241aac"},"vehicle_type_id":"4","last_reported":1733328733,"current_range_meters":8000,"station_id":"ce4bhe12rcd13ifvqf30","pricing_plan_id":"cebpf4jnsgd1na2vs0mg"},{"bike_id":"592de6a6-0e10-4ec4-9378-08a1f043ab3e","system_id":"levelo_inurba_marseille","lat":43.32482,"lon":5.36576,"is_reserved":false,"is_disabled":false,"rental_uris":{"android":"levelo://app?vid=592de6a6-0e10-4ec4-9378-08a1f043ab3e","ios":"levelo://app?vid=592de6a6-0e10-4ec4-9378-08a1f043ab3e"},"vehicle_type_id":"4","last_reported":1733328733,"current_range_meters":30000,"station_id":"ce4bhs12rcd13ifvqhvg","pricing_plan_id":"cebpf4jnsgd1na2vs0mg"},{"bike_id":"b314e948-2a77-40d4-be0f-5b067a6c2769","system_id":"levelo_inurba_marseille","lat":43.32481,"lon":5.36579,"is_reserved":false,"is_disabled":false,"rental_uris":{"android":"levelo://app?vid=b314e948-2a77-40d4-be0f-5b067a6c2769","ios":"levelo://app?vid=b314e948-2a77-40d4-be0f-5b067a6c2769"},"vehicle_type_id":"4","last_reported":1733328733,"current_range_meters":38800,"station_id":"ce4bhs12rcd13ifvqhvg","pricing_plan_id":"cebpf4jnsgd1na2vs0mg"},{"bike_id":"ff50bf23-52e8-47bb-a1fe-8ef0acf89fb5","system_id":"levelo_inurba_marseille","lat":43.29097,"lon":5.38141,"is_reserved":false,"is_disabled":false,"rental_uris":{"android":"levelo://app?vid=ff50bf23-52e8-47bb-a1fe-8ef0acf89fb5","ios":"levelo://app?vid=ff50bf23-52e8-47bb-a1fe-8ef0acf89fb5"},"vehicle_type_id":"4","last_reported":1733328733,"current_range_meters":37600,"station_id":"ce4bh512rcd13ifvqe2g","pricing_plan_id":"cebpf4jnsgd1na2vs0mg"},{"bike_id":"5f529a06-3530-4067-be15-173a8a469288","system_id":"levelo_inurba_marseille","lat":43.28463,"lon":5.35896,"is_reserved":false,"is_disabled":false,"rental_uris":{"android":"levelo://app?vid=5f529a06-3530-4067-be15-173a8a469288","ios":"levelo://app?vid=5f529a06-3530-4067-be15-173a8a469288"},"vehicle_type_id":"4","last_reported":1733328733,"current_range_meters":36000,"station_id":"ce4bhah2rcd13ifvqei0","pricing_plan_id":"cebpf4jnsgd1na2vs0mg"},{"bike_id":"6bd3624c-958b-40f2-9d8c-d9fe78850d5c","system_id":"levelo_inurba_marseille","lat":43.28449,"lon":5.39203,"is_reserved":false,"is_disabled":false,"rental_uris":{"android":"levelo://app?vid=6bd3624c-958b-40f2-9d8c-d9fe78850d5c","ios":"levelo://app?vid=6bd3624c-958b-40f2-9d8c-d9fe78850d5c"},"vehicle_type_id":"4","last_reported":1733328733,"current_range_meters":9200,"station_id":"ce4bhoh2rcd13ifvqh5g","pricing_plan_id":"cebpf4jnsgd1na2vs0mg"},{"bike_id":"5ee984fd-ad4a-4905-a134-6c56ecba5028","system_id":"levelo_inurba_marseille","lat":43.3248,"lon":5.36574,"is_reserved":false,"is_disabled":true,"rental_uris":{"android":"levelo://app?vid=5ee984fd-ad4a-4905-a134-6c56ecba5028","ios":"levelo://app?vid=5ee984fd-ad4a-4905-a134-6c56ecba5028"},"vehicle_type_id":"4","last_reported":1733328733,"current_range_meters":26800,"station_id":"ce4bhs12rcd13ifvqhvg","pricing_plan_id":"cebpf4jnsgd1na2vs0mg"},{"bike_id":"fe594fc4-83b4-4bec-8445-9ed4df0cad70","system_id":"levelo_inurba_marseille","lat":43.27175,"lon":5.40999,"is_reserved":false,"is_disabled":false,"rental_uris":{"android":"levelo://app?vid=fe594fc4-83b4-4bec-8445-9ed4df0cad70","ios":"levelo://app?vid=fe594fc4-83b4-4bec-8445-9ed4df0cad70"},"vehicle_type_id":"4","last_reported":1733328733,"current_range_meters":30800,"station_id":"ce4bhl12rcd13ifvqgf0","pricing_plan_id":"cebpf4jnsgd1na2vs0mg"},{"bike_id":"e1bb0f8b-d1ab-4b65-8d9e-97945c943975","system_id":"levelo_inurba_marseille","lat":43.3059,"lon":5.37219,"is_reserved":false,"is_disabled":false,"rental_uris":{"android":"levelo://app?vid=e1bb0f8b-d1ab-4b65-8d9e-97945c943975","ios":"levelo://app?vid=e1bb0f8b-d1ab-4b65-8d9e-97945c943975"},"vehicle_type_id":"4","last_reported":1733328733,"current_range_meters":38800,"station_id":"ce4bgqh2rcd13ifvqc4g","pricing_plan_id":"cebpf4jnsgd1na2vs0mg"},{"bike_id":"e03f6727-22b0-47ab-b0d7-c0b8ede4fe3f","system_id":"levelo_inurba_marseille","lat":43.29789,"lon":5.38117,"is_reserved":false,"is_disabled":true,"rental_uris":{"android":"levelo://app?vid=e03f6727-22b0-47ab-b0d7-c0b8ede4fe3f","ios":"levelo://app?vid=e03f6727-22b0-47ab-b0d7-c0b8ede4fe3f"},"vehicle_type_id":"4","last_reported":1733328733,"current_range_meters":24000,"station_id":"ce4bgip2rcd13ifvqbb0","pricing_plan_id":"cebpf4jnsgd1na2vs0mg"},{"bike_id":"5ecb655f-bf38-4441-8992-c5af126fab4e","system_id":"levelo_inurba_marseille","lat":43.33025,"lon":5.39046,"is_reserved":false,"is_disabled":false,"rental_uris":{"android":"levelo://app?vid=5ecb655f-bf38-4441-8992-c5af126fab4e","ios":"levelo://app?vid=5ecb655f-bf38-4441-8992-c5af126fab4e"},"vehicle_type_id":"4","last_reported":1733328733,"current_range_meters":33200,"station_id":"ce4bhr92rcd13ifvqhrg","pricing_plan_id":"cebpf4jnsgd1na2vs0mg"},{"bike_id":"4e81bff5-6a08-49b8-bc00-fb06ca4a9583","system_id":"levelo_inurba_marseille","lat":43.29153,"lon":5.37179,"is_reserved":false,"is_disabled":false,"rental_uris":{"android":"levelo://app?vid=4e81bff5-6a08-49b8-bc00-fb06ca4a9583","ios":"levelo://app?vid=4e81bff5-6a08-49b8-bc00-fb06ca4a9583"},"vehicle_type_id":"4","last_reported":1733328733,"current_range_meters":36800,"station_id":"ce4bha92rcd13ifvqeh0","pricing_plan_id":"cebpf4jnsgd1na2vs0mg"},{"bike_id":"54ffdb35-9c04-4044-a987-4ab0cb8036aa","system_id":"levelo_inurba_marseille","lat":43.29532,"lon":5.39048,"is_reserved":false,"is_disabled":false,"rental_uris":{"android":"levelo://app?vid=54ffdb35-9c04-4044-a987-4ab0cb8036aa","ios":"levelo://app?vid=54ffdb35-9c04-4044-a987-4ab0cb8036aa"},"vehicle_type_id":"4","last_reported":1733328733,"current_range_meters":28800,"station_id":"ce4bh3p2rcd13ifvqdp0","pricing_plan_id":"cebpf4jnsgd1na2vs0mg"},{"bike_id":"e656a821-a068-4c9c-a35e-eb33300ceaf7","system_id":"levelo_inurba_marseille","lat":43.31115,"lon":5.37771,"is_reserved":false,"is_disabled":false,"rental_uris":{"android":"levelo://app?vid=e656a821-a068-4c9c-a35e-eb33300ceaf7","ios":"levelo://app?vid=e656a821-a068-4c9c-a35e-eb33300ceaf7"},"vehicle_type_id":"4","last_reported":1733328733,"current_range_meters":27600,"station_id":"ce4bgt92rcd13ifvqcg0","pricing_plan_id":"cebpf4jnsgd1na2vs0mg"},{"bike_id":"72cbb382-bc78-4824-a940-ac2e11d1bd38","system_id":"levelo_inurba_marseille","lat":43.28721,"lon":5.36097,"is_reserved":false,"is_disabled":false,"rental_uris":{"android":"levelo://app?vid=72cbb382-bc78-4824-a940-ac2e11d1bd38","ios":"levelo://app?vid=72cbb382-bc78-4824-a940-ac2e11d1bd38"},"vehicle_type_id":"4","last_reported":1733328733,"current_range_meters":36400,"station_id":"cki0cbj6b192h4jlfktg","pricing_plan_id":"cebpf4jnsgd1na2vs0mg"},{"bike_id":"b0a49634-f231-4a68-bfdb-1bfe69c7e87e","system_id":"levelo_inurba_marseille","lat":43.32476,"lon":5.36577,"is_reserved":false,"is_disabled":false,"rental_uris":{"android":"levelo://app?vid=b0a49634-f231-4a68-bfdb-1bfe69c7e87e","ios":"levelo://app?vid=b0a49634-f231-4a68-bfdb-1bfe69c7e87e"},"vehicle_type_id":"4","last_reported":1733328733,"current_range_meters":14800,"station_id":"ce4bhs12rcd13ifvqhvg","pricing_plan_id":"cebpf4jnsgd1na2vs0mg"},{"bike_id":"9b6ff9a5-7084-4136-bb71-cda7ba22e5d5","system_id":"levelo_inurba_marseille","lat":43.26805,"lon":5.40271,"is_reserved":false,"is_disabled":false,"rental_uris":{"android":"levelo://app?vid=9b6ff9a5-7084-4136-bb71-cda7ba22e5d5","ios":"levelo://app?vid=9b6ff9a5-7084-4136-bb71-cda7ba22e5d5"},"vehicle_type_id":"4","last_reported":1733328733,"current_range_meters":39200,"station_id":"ce501612rcd8frsf0b60","pricing_plan_id":"cebpf4jnsgd1na2vs0mg"},{"bike_id":"768b4fde-6c3e-48d9-b273-22e1359f297f","system_id":"levelo_inurba_marseille","lat":43.29032,"lon":5.38657,"is_reserved":false,"is_disabled":false,"rental_uris":{"android":"levelo://app?vid=768b4fde-6c3e-48d9-b273-22e1359f297f","ios":"levelo://app?vid=768b4fde-6c3e-48d9-b273-22e1359f297f"},"vehicle_type_id":"4","last_reported":1733328733,"current_range_meters":19200,"station_id":"ce4bh4p2rcd13ifvqe0g","pricing_plan_id":"cebpf4jnsgd1na2vs0mg"},{"bike_id":"6139b5b6-a823-40b5-97e2-4540030056f1","system_id":"levelo_inurba_marseille","lat":43.28095,"lon":5.37856,"is_reserved":false,"is_disabled":true,"rental_uris":{"android":"levelo://app?vid=6139b5b6-a823-40b5-97e2-4540030056f1","ios":"levelo://app?vid=6139b5b6-a823-40b5-97e2-4540030056f1"},"vehicle_type_id":"4","last_reported":1733328733,"current_range_meters":0,"station_id":"ce4bha12rcd13ifvqee0","pricing_plan_id":"cebpf4jnsgd1na2vs0mg"},{"bike_id":"2a0e200b-dbe6-4f15-aea8-5331d738c0d5","system_id":"levelo_inurba_marseille","lat":43.32656,"lon":5.41002,"is_reserved":false,"is_disabled":false,"rental_uris":{"android":"levelo://app?vid=2a0e200b-dbe6-4f15-aea8-5331d738c0d5","ios":"levelo://app?vid=2a0e200b-dbe6-4f15-aea8-5331d738c0d5"},"vehicle_type_id":"4","last_reported":1733328733,"current_range_meters":6800,"station_id":"ce4bhpp2rcd13ifvqhgg","pricing_plan_id":"cebpf4jnsgd1na2vs0mg"},{"bike_id":"be8cd377-bf58-414c-876c-45495911bc5b","system_id":"levelo_inurba_marseille","lat":43.2869,"lon":5.41084,"is_reserved":false,"is_disabled":true,"rental_uris":{"android":"levelo://app?vid=be8cd377-bf58-414c-876c-45495911bc5b","ios":"levelo://app?vid=be8cd377-bf58-414c-876c-45495911bc5b"},"vehicle_type_id":"4","last_reported":1733328733,"current_range_meters":8800,"station_id":"","pricing_plan_id":"cebpf4jnsgd1na2vs0mg"},{"bike_id":"b4ba6be9-8f9d-4e53-b9bc-5461ab513aa4","system_id":"levelo_inurba_marseille","lat":43.30329,"lon":5.37239,"is_reserved":false,"is_disabled":false,"rental_uris":{"android":"levelo://app?vid=b4ba6be9-8f9d-4e53-b9bc-5461ab513aa4","ios":"levelo://app?vid=b4ba6be9-8f9d-4e53-b9bc-5461ab513aa4"},"vehicle_type_id":"4","last_reported":1733328733,"current_range_meters":22400,"station_id":"","pricing_plan_id":"cebpf4jnsgd1na2vs0mg"},{"bike_id":"0770995c-964d-42cb-80de-55f4fd5ee79a","system_id":"levelo_inurba_marseille","lat":43.337444,"lon":5.374475,"is_reserved":false,"is_disabled":false,"rental_uris":{"android":"levelo://app?vid=0770995c-964d-42cb-80de-55f4fd5ee79a","ios":"levelo://app?vid=0770995c-964d-42cb-80de-55f4fd5ee79a"},"vehicle_type_id":"4","last_reported":1733328733,"current_range_meters":27200,"station_id":"","pricing_plan_id":"cebpf4jnsgd1na2vs0mg"},{"bike_id":"b8ece0b5-0ae0-404f-b5b9-3f0504515357","system_id":"levelo_inurba_marseille","lat":43.29869,"lon":5.39735,"is_reserved":false,"is_disabled":false,"rental_uris":{"android":"levelo://app?vid=b8ece0b5-0ae0-404f-b5b9-3f0504515357","ios":"levelo://app?vid=b8ece0b5-0ae0-404f-b5b9-3f0504515357"},"vehicle_type_id":"4","last_reported":1733328733,"current_range_meters":34000,"station_id":"ce4bh0h2rcd13ifvqd50","pricing_plan_id":"cebpf4jnsgd1na2vs0mg"},{"bike_id":"ab74d258-8d56-4ed9-9cb7-57ae1639ee73","system_id":"levelo_inurba_marseille","lat":43.26312,"lon":5.40146,"is_reserved":false,"is_disabled":true,"rental_uris":{"android":"levelo://app?vid=ab74d258-8d56-4ed9-9cb7-57ae1639ee73","ios":"levelo://app?vid=ab74d258-8d56-4ed9-9cb7-57ae1639ee73"},"vehicle_type_id":"4","last_reported":1733328733,"current_range_meters":0,"station_id":"","pricing_plan_id":"cebpf4jnsgd1na2vs0mg"},{"bike_id":"8bbb9b85-57d3-49b0-b570-a848b3723897","system_id":"levelo_inurba_marseille","lat":43.33725,"lon":5.37467,"is_reserved":false,"is_disabled":true,"rental_uris":{"android":"levelo://app?vid=8bbb9b85-57d3-49b0-b570-a848b3723897","ios":"levelo://app?vid=8bbb9b85-57d3-49b0-b570-a848b3723897"},"vehicle_type_id":"4","last_reported":1733328733,"current_range_meters":11600,"station_id":"","pricing_plan_id":"cebpf4jnsgd1na2vs0mg"},{"bike_id":"b792dd2f-4085-4ed2-8ecd-5f1a49872004","system_id":"levelo_inurba_marseille","lat":43.29424,"lon":5.38622,"is_reserved":false,"is_disabled":true,"rental_uris":{"android":"levelo://app?vid=b792dd2f-4085-4ed2-8ecd-5f1a49872004","ios":"levelo://app?vid=b792dd2f-4085-4ed2-8ecd-5f1a49872004"},"vehicle_type_id":"4","last_reported":1733328733,"current_range_meters":0,"station_id":"ce4bh2h2rcd13ifvqdh0","pricing_plan_id":"cebpf4jnsgd1na2vs0mg"},{"bike_id":"856273c8-d528-453a-8d07-904829f899a4","system_id":"levelo_inurba_marseille","lat":43.32479,"lon":5.36574,"is_reserved":false,"is_disabled":false,"rental_uris":{"android":"levelo://app?vid=856273c8-d528-453a-8d07-904829f899a4","ios":"levelo://app?vid=856273c8-d528-453a-8d07-904829f899a4"},"vehicle_type_id":"4","last_reported":1733328733,"current_range_meters":33600,"station_id":"ce4bhs12rcd13ifvqhvg","pricing_plan_id":"cebpf4jnsgd1na2vs0mg"},