{"last_updated":1729098501,"ttl":60,"version":"2.2","data":{"bikes":[{"bike_id":"d787441b-3ac9-4ad5-ad5d-7c09aff2552e","system_id":"levelo_inurba_marseille","lat":43.25001,"lon":5.38931,"is_reserved":false,"is_disabled":false,"rental_uris":{"android":"levelo://app?vid=d787441b-3ac9-4ad5-ad5d-7c09aff2552e","ios":"levelo://app?vid=d787441b-3ac9-4ad5-ad5d-7c09aff2552e"},"vehicle_type_id":"4","last_reported":1729098501,"current_range_meters":20000,"station_id":"ce4bhgp2rcd13ifvqfd0","pricing_plan_id":"cebpf4jnsgd1na2vs0mg"},{"bike_id":"16cf06c6-ceda-41fc-9840-332ba4946ff0","system_id":"levelo_inurba_marseille","lat":43.31759,"lon":5.39016,"is_reserved":false,"is_disabled":false,"rental_uris":{"android":"levelo://app?vid=16cf06c6-ceda-41fc-9840-332ba4946ff0","ios":"levelo://app?vid=16cf06c6-ceda-41fc-9840-332ba4946ff0"},"vehicle_type_id":"4","last_reported":1729098501,"current_range_meters":38800,"station_id":"ce4bhqp2rcd13ifvqhng","pricing_plan_id":"cebpf4jnsgd1na2vs0mg"},{"bike_id":"f7f367b2-8c9d-4460-87e5-8176f67870aa","system_id":"levelo_inurba_marseille","lat":43.29252,"lon":5.40912,"is_reserved":false,"is_disabled":false,"rental_uris":{"android":"levelo://app?vid=f7f367b2-8c9d-4460-87e5-8176f67870aa","ios":"levelo://app?vid=f7f367b2-8c9d-4460-87e5-8176f67870aa"},"vehicle_type_id":"4","last_reported":1729098501,"current_range_meters":4000,"station_id":"ce4bh192rcd13ifvqdc0","pricing_plan_id":"cebpf4jnsgd1na2vs0mg"},{"bike_id":"676ec6c4-6b42-43e0-81fe-327782965da5","system_id":"levelo_inurba_marseille","lat":43.337444,"lon":5.374475,"is_reserved":false,"is_disabled":false,"rental_uris":{"android":"levelo://app?vid=676ec6c4-6b42-43e0-81fe-327782965da5","ios":"levelo://app?vid=676ec6c4-6b42-43e0-81fe-327782965da5"},"vehicle_type_id":"4","last_reported":1729098501,"current_range_meters":20400,"station_id":"","pricing_plan_id":"cebpf4jnsgd1na2vs0mg"},{"bike_id":"5e8603f4-98b0-4ad4-9bff-801461f01e82","system_id":"levelo_inurba_marseille","lat":43.29532,"lon":5.38542,"is_reserved":false,"is_disabled":false,"rental_uris":{"android":"levelo://app?vid=5e8603f4-98b0-4ad4-9bff-801461f01e82","ios":"levelo://app?vid=5e8603f4-98b0-4ad4-9bff-801461f01e82"},"vehicle_type_id":"4","last_reported":1729098501,"current_range_meters":26800,"station_id":"ce4bgih2rcd13ifvqba0","pricing_plan_id":"cebpf4jnsgd1na2vs0mg"},{"bike_id":"7d940b0f-3db5-4d11-a398-ccd17bf10bff","system_id":"levelo_inurba_marseille","lat":43.294111,"lon":5.386325,"is_reserved":false,"is_disabled":false,"rental_uris":{"android":"levelo://app?vid=7d940b0f-3db5-4d11-a398-ccd17bf10bff","ios":"levelo://app?vid=7d940b0f-3db5-4d11-a398-ccd17bf10bff"},"vehicle_type_id":"4","last_reported":1729098501,"current_range_meters":20400,"station_id":"ce4bh2h2rcd13ifvqdh0","pricing_plan_id":"cebpf4jnsgd1na2vs0mg"},{"bike_id":"5e32a18f-fcb3-48a2-9300-66b894ab765e","system_id":"levelo_inurba_marseille","lat":43.29538,"lon":5.38546,"is_reserved":false,"is_disabled":false,"rental_uris":{"android":"levelo://app?vid=5e32a18f-fcb3-48a2-9300-66b894ab765e","ios":"levelo://app?vid=5e32a18f-fcb3-48a2-9300-66b894ab765e"},"vehicle_type_id":"4","last_reported":1729098501,"current_range_meters":37600,"station_id":"ce4bgih2rcd13ifvqba0","pricing_plan_id":"cebpf4jnsgd1na2vs0mg"},{"bike_id":"cef70e17-15b2-4646-84ce-9584acf0ed92","system_id":"levelo_inurba_marseille","lat":43.30128,"lon":5.39851,"is_reserved":false,"is_disabled":false,"rental_uris":{"android":"levelo://app?vid=cef70e17-15b2-4646-84ce-9584acf0ed92","ios":"levelo://app?vid=cef70e17-15b2-4646-84ce-9584acf0ed92"},"vehicle_type_id":"4","last_reported":1729098501,"current_range_meters":3200,"station_id":"ce4bh0h2rcd13ifvqd40","pricing_plan_id":"cebpf4jnsgd1na2vs0mg"},{"bike_id":"f883cfa2-9c75-4d93-9e83-a804c574fd24","system_id":"levelo_inurba_marseille","lat":43.33023,"lon":5.39047,"is_reserved":false,"is_disabled":false,"rental_uris":{"android":"levelo://app?vid=f883cfa2-9c75-4d93-9e83-a804c574fd24","ios":"levelo://app?vid=f883cfa2-9c75-4d93-9e83-a804c574fd24"},"vehicle_type_id":"4","last_reported":1729098501,"current_range_meters":25200,"station_id":"ce4bhr92rcd13ifvqhrg","pricing_plan_id":"cebpf4jnsgd1na2vs0mg"},{"bike_id":"cfc8ddac-543e-484f-b269-94c86de88ce0","system_id":"levelo_inurba_marseille","lat":43.29434,"lon":5.39752,"is_reserved":false,"is_disabled":false,"rental_uris":{"android":"levelo://app?vid=cfc8ddac-543e-484f-b269-94c86de88ce0","ios":"levelo://app?vid=cfc8ddac-543e-484f-b269-94c86de88ce0"},"vehicle_type_id":"4","last_reported":1729098501,"current_range_meters":29600,"station_id":"ce4bh3h2rcd13ifvqdo0","pricing_plan_id":"cebpf4jnsgd1na2vs0mg"},{"bike_id":"4a0877b4-4a8a-42c0-ab9c-1a23f078dc91","system_id":"levelo_inurba_marseille","lat":43.3172,"lon":5.42392,"is_reserved":false,"is_disabled":false,"rental_uris":{"android":"levelo://app?vid=4a0877b4-4a8a-42c0-ab9c-1a23f078dc91","ios":"levelo://app?vid=4a0877b4-4a8a-42c0-ab9c-1a23f078dc91"},"vehicle_type_id":"4","last_reported":1729098501,"current_range_meters":18800,"station_id":"ce4bhp92rcd13ifvqhbg","pricing_plan_id":"cebpf4jnsgd1na2vs0mg"},{"bike_id":"042e5b40-9e97-45f4-843e-ff54af18e3a3","system_id":"levelo_inurba_marseille","lat":43.337444,"lon":5.374475,"is_reserved":false,"is_disabled":false,"rental_uris":{"android":"levelo://app?vid=042e5b40-9e97-45f4-843e-ff54af18e3a3","ios":"levelo://app?vid=042e5b40-9e97-45f4-843e-ff54af18e3a3"},"vehicle_type_id":"4","last_reported":1729098501,"current_range_meters":35600,"station_id":"","pricing_plan_id":"cebpf4jnsgd1na2vs0mg"},{"bike_id":"d25e3192-c141-44fa-83a9-f7ae7b4adfc7","system_id":"levelo_inurba_marseille","lat":43.23186,"lon":5.39977,"is_reserved":false,"is_disabled":false,"rental_uris":{"android":"levelo://app?vid=d25e3192-c141-44fa-83a9-f7ae7b4adfc7","ios":"levelo://app?vid=d25e3192-c141-44fa-83a9-f7ae7b4adfc7"},"vehicle_type_id":"4","last_reported":1729098501,"current_range_meters":38800,"station_id":"ce4bhn12rcd13ifvqgqg","pricing_plan_id":"cebpf4jnsgd1na2vs0mg"},{"bike_id":"7a08f367-685a-403e-9657-d98042094184","system_id":"levelo_inurba_marseille","lat":43.29536,"lon":5.38551,"is_reserved":false,"is_disabled":false,"rental_uris":{"android":"levelo://app?vid=7a08f367-685a-403e-9657-d98042094184","ios":"levelo://app?vid=7a08f367-685a-403e-9657-d98042094184"},"vehicle_type_id":"4","last_reported":1729098501,"current_range_meters":37600,"station_id":"ce4bgih2rcd13ifvqba0","pricing_plan_id":"cebpf4jnsgd1na2vs0mg"},{"bike_id":"4042bf9c-374f-43ba-9ef3-feba72da5a7a","system_id":"levelo_inurba_marseille","lat":43.29921,"lon":5.37459,"is_reserved":false,"is_disabled":false,"rental_uris":{"android":"levelo://app?vid=4042bf9c-374f-43ba-9ef3-feba72da5a7a","ios":"levelo://app?vid=4042bf9c-374f-43ba-9ef3-feba72da5a7a"},"vehicle_type_id":"4","last_reported":1729098501,"current_range_meters":18000,"station_id":"ce4bgjh2rcd13ifvqbg0","pricing_plan_id":"cebpf4jnsgd1na2vs0mg"},{"bike_id":"f3ace3a4-99bb-4599-a17f-33ee5276733c","system_id":"levelo_inurba_marseille","lat":43.3302,"lon":5.3905,"is_reserved":false,"is_disabled":false,"rental_uris":{"android":"levelo://app?vid=f3ace3a4-99bb-4599-a17f-33ee5276733c","ios":"levelo://app?vid=f3ace3a4-99bb-4599-a17f-33ee5276733c"},"vehicle_type_id":"4","last_reported":1729098501,"current_range_meters":34800,"station_id":"ce4bhr92rcd13ifvqhrg","pricing_plan_id":"cebpf4jnsgd1na2vs0mg"},{"bike_id":"7da880a2-ea1b-4e72-a237-e17350cd0f38","system_id":"levelo_inurba_marseille","lat":43.29534,"lon":5.38541,"is_reserved":false,"is_disabled":false,"rental_uris":{"android":"levelo://app?vid=7da880a2-ea1b-4e72-a237-e17350cd0f38","ios":"levelo://app?vid=7da880a2-ea1b-4e72-a237-e17350cd0f38"},"vehicle_type_id":"4","last_reported":1729098501,"current_range_meters":8000,"station_id":"ce4bgih2rcd13ifvqba0","pricing_plan_id":"cebpf4jnsgd1na2vs0mg"},{"bike_id":"c8fdfee4-d3ac-4742-a5aa-435dec59b7fb","system_id":"levelo_inurba_marseille","lat":43.24515,"lon":5.42841,"is_reserved":false,"is_disabled":false,"rental_uris":{"android":"levelo://app?vid=c8fdfee4-d3ac-4742-a5aa-435dec59b7fb","ios":"levelo://app?vid=c8fdfee4-d3ac-4742-a5aa-435dec59b7fb"},"vehicle_type_id":"4","last_reported":1729098501,"current_range_meters":38800,"station_id":"","pricing_plan_id":"cebpf4jnsgd1na2vs0mg"},{"bike_id":"6286318f-675c-4e07-ae0e-a596f4288e54","system_id":"levelo_inurba_marseille","lat":43.29045,"lon":5.38633,"is_reserved":false,"is_disabled":false,"rental_uris":{"android":"levelo://app?vid=6286318f-675c-4e07-ae0e-a596f4288e54","ios":"levelo://app?vid=6286318f-675c-4e07-ae0e-a596f4288e54"},"vehicle_type_id":"4","last_reported":1729098501,"current_range_meters":29600,"station_id":"ce4bh4p2rcd13ifvqe0g","pricing_plan_id":"cebpf4jnsgd1na2vs0mg"},{"bike_id":"c444c5d1-fd46-4a15-b29d-c198528b2431","system_id":"levelo_inurba_marseille","lat":43.2407,"lon":5.37766,"is_reserved":false,"is_disabled":false,"rental_uris":{"android":"levelo://app?vid=c444c5d1-fd46-4a15-b29d-c198528b2431","ios":"levelo://app?vid=c444c5d1-fd46-4a15-b29d-c198528b2431"},"vehicle_type_id":"4","last_reported":1729098501,"current_range_meters":30000,"station_id":"ce4bhnp2rcd13ifvqgvg","pricing_plan_id":"cebpf4jnsgd1na2vs0mg"},{"bike_id":"dd146551-4b88-48c3-ad2d-2165fd998845","system_id":"levelo_inurba_marseille","lat":43.2962,"lon":5.37711,"is_reserved":false,"is_disabled":false,"rental_uris":{"android":"levelo://app?vid=dd146551-4b88-48c3-ad2d-2165fd998845","ios":"levelo://app?vid=dd146551-4b88-48c3-ad2d-2165fd998845"},"vehicle_type_id":"4","last_reported":1729098501,"current_range_meters":9200,"station_id":"ce4bgi92rcd13ifvqb90","pricing_plan_id":"cebpf4jnsgd1na2vs0mg"},{"bike_id":"7205367f-859d-412d-95bf-c7b4cefed81a","system_id":"levelo_inurba_marseille","lat":43.26803,"lon":5.40266,"is_reserved":false,"is_disabled":false,"rental_uris":{"android":"levelo://app?vid=7205367f-859d-412d-95bf-c7b4cefed81a","ios":"levelo://app?vid=7205367f-859d-412d-95bf-c7b4cefed81a"},"vehicle_type_id":"4","last_reported":1729098501,"current_range_meters":28400,"station_id":"ce501612rcd8frsf0b60","pricing_plan_id":"cebpf4jnsgd1na2vs0mg"},{"bike_id":"45ffc5eb-90ab-406f-a5cf-c6bda0ec636e","system_id":"levelo_inurba_marseille","lat":43.3171,"lon":5.37748,"is_reserved":false,"is_disabled":false,"rental_uris":{"android":"levelo://app?vid=45ffc5eb-90ab-406f-a5cf-c6bda0ec636e","ios":"levelo://app?vid=45ffc5eb-90ab-406f-a5cf-c6bda0ec636e"},"vehicle_type_id":"4","last_reported":1729098501,"current_range_meters":20000,"station_id":"ce4bgth2rcd13ifvqch0","pricing_plan_id":"cebpf4jnsgd1na2vs0mg"},{"bike_id":"9048f4ef-f6df-4468-917f-f9d2476895e1","system_id":"levelo_inurba_marseille","lat":43.29846,"lon":5.36262,"is_reserved":false,"is_disabled":false,"rental_uris":{"android":"levelo://app?vid=9048f4ef-f6df-4468-917f-f9d2476895e1","ios":"levelo://app?vid=9048f4ef-f6df-4468-917f-f9d2476895e1"},"vehicle_type_id":"4","last_reported":1729098501,"current_range_meters":32400,"station_id":"ce4bgpp2rcd13ifvqc3g","pricing_plan_id":"cebpf4jnsgd1na2vs0mg"},{"bike_id":"b0c0bafb-0843-49a8-af5a-cd371ca93017","system_id":"levelo_inurba_marseille","lat":43.30414,"lon":5.39759,"is_reserved":false,"is_disabled":false,"rental_uris":{"android":"levelo://app?vid=b0c0bafb-0843-49a8-af5a-cd371ca93017","ios":"levelo://app?vid=b0c0bafb-0843-49a8-af5a-cd371ca93017"},"vehicle_type_id":"4","last_reported":1729098501,"current_range_meters":38800,"station_id":"ce4bh092rcd13ifvqd20","pricing_plan_id":"cebpf4jnsgd1na2vs0mg"},{"bike_id":"bdb4f070-8bae-407b-bc70-9ee3db878f96","system_id":"levelo_inurba_marseille","lat":43.24661,"lon":5.38166,"is_reserved":false,"is_disabled":false,"rental_uris":{"android":"levelo://app?vid=bdb4f070-8bae-407b-bc70-9ee3db878f96","ios":"levelo://app?vid=bdb4f070-8bae-407b-bc70-9ee3db878f96"},"vehicle_type_id":"4","last_reported":1729098501,"current_range_meters":24000,"station_id":"ce4bhih2rcd13ifvqfr0","pricing_plan_id":"cebpf4jnsgd1na2vs0mg"},{"bike_id":"a6b4578e-3cab-4bcb-ae84-333753b03084","system_id":"levelo_inurba_marseille","lat":43.23184,"lon":5.39978,"is_reserved":false,"is_disabled":false,"rental_uris":{"android":"levelo://app?vid=a6b4578e-3cab-4bcb-ae84-333753b03084","ios":"levelo://app?vid=a6b4578e-3cab-4bcb-ae84-333753b03084"},"vehicle_type_id":"4","last_reported":1729098501,"current_range_meters":38000,"station_id":"ce4bhn12rcd13ifvqgqg","pricing_plan_id":"cebpf4jnsgd1na2vs0mg"},{"bike_id":"8b5d7414-2b08-4e30-b677-b339f42b4115","system_id":"levelo_inurba_marseille","lat":43.2922,"lon":5.36052,"is_reserved":false,"is_disabled":false,"rental_uris":{"android":"levelo://app?vid=8b5d7414-2b08-4e30-b677-b339f42b4115","ios":"levelo://app?vid=8b5d7414-2b08-4e30-b677-b339f42b4115"},"vehicle_type_id":"4","last_reported":1729098501,"current_range_meters":32800,"station_id":"ce4bhbh2rcd13ifvqeqg","pricing_plan_id":"cebpf4jnsgd1na2vs0mg"},{"bike_id":"af8c2568-ee42-4bf9-bae3-8a516fd3db02","system_id":"levelo_inurba_marseille","lat":43.269297,"lon":5.389133,"is_reserved":false,"is_disabled":false,"rental_uris":{"android":"levelo://app?vid=af8c2568-ee42-4bf9-bae3-8a516fd3db02","ios":"levelo://app?vid=af8c2568-ee42-4bf9-bae3-8a516fd3db02"},"vehicle_type_id":"4","last_reported":1729098501,"current_range_meters":4800,"station_id":"ce4bhhp2rcd13ifvqfm0","pricing_plan_id":"cebpf4jnsgd1na2vs0mg"},{"bike_id":"e6180ea2-3178-43a9-bb72-3a174a6243f9","system_id":"levelo_inurba_marseille","lat":43.31167,"lon":5.38721,"is_reserved":false,"is_disabled":false,"rental_uris":{"android":"levelo://app?vid=e6180ea2-3178-43a9-bb72-3a174a6243f9","ios":"levelo://app?vid=e6180ea2-3178-43a9-bb72-3a174a6243f9"},"vehicle_type_id":"4","last_reported":1729098501,"current_range_meters":38400,"station_id":"ce4bgv12rcd13ifvqcp0","pricing_plan_id":"cebpf4jnsgd1na2vs0mg"},{"bike_id":"80ca7a24-3abe-4e02-a73e-5e734c4dd3cd","system_id":"levelo_inurba_marseille","lat":43.250916,"lon":5.395252,"is_reserved":false,"is_disabled":false,"rental_uris":{"android":"levelo://app?vid=80ca7a24-3abe-4e02-a73e-5e734c4dd3cd","ios":"levelo://app?vid=80ca7a24-3abe-4e02-a73e-5e734c4dd3cd"},"vehicle_type_id":"4","last_reported":1729098501,"current_range_meters":24800,"station_id":"ce4bhm12rcd13ifvqgkg","pricing_plan_id":"cebpf4jnsgd1na2vs0mg"},{"bike_id":"f429dead-7e16-4684-8fd9-eb620c9cf8e9","system_id":"levelo_inurba_marseille","lat":43.3107,"lon":5.38358,"is_reserved":false,"is_disabled":false,"rental_uris":{"android":"levelo://app?vid=f429dead-7e16-4684-8fd9-eb620c9cf8e9","ios":"levelo://app?vid=f429dead-7e16-4684-8fd9-eb620c9cf8e9"},"vehicle_type_id":"4","last_reported":1729098501,"current_range_meters":35200,"station_id":"ce4bgv92rcd13ifvqcr0","pricing_plan_id":"cebpf4jnsgd1na2vs0mg"},{"bike_id":"90263e99-d5aa-44b8-a4c8-0353aa3b308c","system_id":"levelo_inurba_marseille","lat":43.23066,"lon":5.35495,"is_reserved":false,"is_disabled":false,"rental_uris":{"android":"levelo://app?vid=90263e99-d5aa-44b8-a4c8-0353aa3b308c","ios":"levelo://app?vid=90263e99-d5aa-44b8-a4c8-0353aa3b308c"},"vehicle_type_id":"4","last_reported":1729098501,"current_range_meters":14000,"station_id":"cpo3342slgdg3j2ifvpg","pricing_plan_id":"cebpf4jnsgd1na2vs0mg"},{"bike_id":"d3457713-0e8e-4bee-ae6b-c4b8b36e8262","system_id":"levelo_inurba_marseille","lat":43.31991,"lon":5.3816,"is_reserved":false,"is_disabled":false,"rental_uris":{"android":"levelo://app?vid=d3457713-0e8e-4bee-ae6b-c4b8b36e8262","ios":"levelo://app?vid=d3457713-0e8e-4bee-ae6b-c4b8b36e8262"},"vehicle_type_id":"4","last_reported":1729098501,"current_range_meters":38800,"station_id":"ce4bhr12rcd13ifvqhpg","pricing_plan_id":"cebpf4jnsgd1na2vs0mg"},{"bike_id":"d83beffb-e57e-49ff-aa92-338d869e025f","system_id":"levelo_inurba_marseille","lat":43.3093,"lon":5.4015,"is_reserved":false,"is_disabled":false,"rental_uris":{"android":"levelo://app?vid=d83beffb-e57e-49ff-aa92-338d869e025f","ios":"levelo://app?vid=d83beffb-e57e-49ff-aa92-338d869e025f"},"vehicle_type_id":"4","last_reported":1729098501,"current_range_meters":2800,"station_id":"ce4bgvp2rcd13ifvqct0","pricing_plan_id":"cebpf4jnsgd1na2vs0mg"},{"bike_id":"6966c41c-c925-4ecb-bf7f-44ee819cf3c4","system_id":"levelo_inurba_marseille","lat":43.23189,"lon":5.39989,"is_reserved":false,"is_disabled":false,"rental_uris":{"android":"levelo://app?vid=6966c41c-c925-4ecb-bf7f-44ee819cf3c4","ios":"levelo://app?vid=6966c41c-c925-4ecb-bf7f-44ee819cf3c4"},"vehicle_type_id":"4","last_reported":1729098501,"current_range_meters":39200,"station_id":"ce4bhn12rcd13ifvqgqg","pricing_plan_id":"cebpf4jnsgd1na2vs0mg"},{"bike_id":"2e5236ee-3ce9-4832-8eef-deb2f75548cc","system_id":"levelo_inurba_marseille","lat":43.24649,"lon":5.38893,"is_reserved":false,"is_disabled":false,"rental_uris":{"android":"levelo://app?vid=2e5236ee-3ce9-4832-8eef-deb2f75548cc","ios":"levelo://app?vid=2e5236ee-3ce9-4832-8eef-deb2f75548cc"},"vehicle_type_id":"4","last_reported":1729098501,"current_range_meters":19200,"station_id":"ce4bhg12rcd13ifvqf60","pricing_plan_id":"cebpf4jnsgd1na2vs0mg"},{"bike_id":"fa7bbdc9-afbe-404d-8676-647037cc76a9","system_id":"levelo_inurba_marseille","lat":43.23192,"lon":5.35552,"is_reserved":false,"is_disabled":false,"rental_uris":{"android":"levelo://app?vid=fa7bbdc9-afbe-404d-8676-647037cc76a9","ios":"levelo://app?vid=fa7bbdc9-afbe-404d-8676-647037cc76a9"},"vehicle_type_id":"4","last_reported":1729098501,"current_range_meters":38000,"station_id":"ce4bhu92rcd13ifvqi70","pricing_plan_id":"cebpf4jnsgd1na2vs0mg"},{"bike_id":"48fb8944-826a-45fd-9010-4861ac3afb66","system_id":"levelo_inurba_marseille","lat":43.31712,"lon":5.37755,"is_reserved":false,"is_disabled":false,"rental_uris":{"android":"levelo://app?vid=48fb8944-826a-45fd-9010-4861ac3afb66","ios":"levelo://app?vid=48fb8944-826a-45fd-9010-4861ac3afb66"},"vehicle_type_id":"4","last_reported":1729098501,"current_range_meters":38000,"station_id":"ce4bgth2rcd13ifvqch0","pricing_plan_id":"cebpf4jnsgd1na2vs0mg"},{"bike_id":"931ad2f4-35ea-42b5-bc1a-1fdec477398a","system_id":"levelo_inurba_marseille","lat":43.337444,"lon":5.374475,"is_reserved":false,"is_disabled":false,"rental_uris":{"android":"levelo://app?vid=931ad2f4-35ea-42b5-bc1a-1fdec477398a","ios":"levelo://app?vid=931ad2f4-35ea-42b5-bc1a-1fdec477398a"},"vehicle_type_id":"4","last_reported":1729098501,"current_range_meters":37600,"station_id":"","pricing_plan_id":"cebpf4jnsgd1na2vs0mg"},{"bike_id":"8a956a9d-e20a-4893-a2fc-044959ae2abe","system_id":"levelo_inurba_marseille","lat":43.29422,"lon":5.3862,"is_reserved":false,"is_disabled":false,"rental_uris":{"android":"levelo://app?vid=8a956a9d-e20a-4893-a2fc-044959ae2abe","ios":"levelo://app?vid=8a956a9d-e20a-4893-a2fc-044959ae2abe"},"vehicle_type_id":"4","last_reported":1729098501,"current_range_meters":35200,"station_id":"ce4bh2h2rcd13ifvqdh0","pricing_plan_id":"cebpf4jnsgd1na2vs0mg"},{"bike_id":"88c0e835-9fc8-4dba-b8e2-9ef7c90c5122","system_id":"levelo_inurba_marseille","lat":43.29964,"lon":5.41328,"is_reserved":false,"is_disabled":false,"rental_uris":{"android":"levelo://app?vid=88c0e835-9fc8-4dba-b8e2-9ef7c90c5122","ios":"levelo://app?vid=88c0e835-9fc8-4dba-b8e2-9ef7c90c5122"},"vehicle_type_id":"4","last_reported":1729098501,"current_range_meters":38800,"station_id":"ce4bhp12rcd13ifvqh9g","pricing_plan_id":"cebpf4jnsgd1na2vs0mg"},{"bike_id":"81e32d4e-df25-4349-90c7-1831752870c9","system_id":"levelo_inurba_marseille","lat":43.27937,"lon":5.41049,"is_reserved":false,"is_disabled":false,"rental_uris":{"android":"levelo://app?vid=81e32d4e-df25-4349-90c7-1831752870c9","ios":"levelo://app?vid=81e32d4e-df25-4349-90c7-1831752870c9"},"vehicle_type_id":"4","last_reported":1729098501,"current_range_meters":33600,"station_id":"ce4bhnp2rcd13ifvqh0g","pricing_plan_id":"cebpf4jnsgd1na2vs0mg"},{"bike_id":"8c1ec6cb-2291-4814-837b-be8625c706f3","system_id":"levelo_inurba_marseille","lat":43.23197,"lon":5.3555,"is_reserved":false,"is_disabled":false,"rental_uris":{"android":"levelo://app?vid=8c1ec6cb-2291-4814-837b-be8625c706f3","ios":"levelo://app?vid=8c1ec6cb-2291-4814-837b-be8625c706f3"},"vehicle_type_id":"4","last_reported":1729098501,"current_range_meters":38800,"station_id":"ce4bhu92rcd13ifvqi70","pricing_plan_id":"cebpf4jnsgd1na2vs0mg"},{"bike_id":"cd7a3c4d-dc88-4266-add2-e863f9ef9600","system_id":"levelo_inurba_marseille","lat":43.26943,"lon":5.40259,"is_reserved":false,"is_disabled":false,"rental_uris":{"android":"levelo://app?vid=cd7a3c4d-dc88-4266-add2-e863f9ef9600","ios":"levelo://app?vid=cd7a3c4d-dc88-4266-add2-e863f9ef9600"},"vehicle_type_id":"4","last_reported":1729098501,"current_range_meters":8800,"station_id":"cjm6bp8fraef2m0cb0m0","pricing_plan_id":"cebpf4jnsgd1na2vs0mg"},{"bike_id":"8cd9a0be-5e98-4d55-a4ec-d164ab97f55f","system_id":"levelo_inurba_marseille","lat":43.32005,"lon":5.38183,"is_reserved":false,"is_disabled":false,"rental_uris":{"android":"levelo://app?vid=8cd9a0be-5e98-4d55-a4ec-d164ab97f55f","ios":"levelo://app?vid=8cd9a0be-5e98-4d55-a4ec-d164ab97f55f"},"vehicle_type_id":"4","last_reported":1729098501,"current_range_meters":16800,"station_id":"ce4bhr12rcd13ifvqhpg","pricing_plan_id":"cebpf4jnsgd1na2vs0mg"},{"bike_id":"7204236b-c558-4dc8-b624-7de20d9f5729","system_id":"levelo_inurba_marseille","lat":43.286652,"lon":5.399833,"is_reserved":false,"is_disabled":false,"rental_uris":{"android":"levelo://app?vid=7204236b-c558-4dc8-b624-7de20d9f5729","ios":"levelo://app?vid=7204236b-c558-4dc8-b624-7de20d9f5729"},"vehicle_type_id":"4","last_reported":1729098501,"current_range_meters":26800,"station_id":"ce4bho92rcd13ifvqh4g","pricing_plan_id":"cebpf4jnsgd1na2vs0mg"},{"bike_id":"db810d77-ca6d-4491-b176-96ce95bcc9bc","system_id":"levelo_inurba_marseille","lat":43.269337,"lon":5.402672,"is_reserved":false,"is_disabled":false,"rental_uris":{"android":"levelo://app?vid=db810d77-ca6d-4491-b176-96ce95bcc9bc","ios":"levelo://app?vid=db810d77-ca6d-4491-b176-96ce95bcc9bc"},"vehicle_type_id":"4","last_reported":1729098501,"current_range_meters":8400,"station_id":"ce4bhkp2rcd13ifvqgd0","pricing_plan_id":"cebpf4jnsgd1na2vs0mg"},{"bike_id":"0644810d-5625-4390-b803-b84f31ffcb66","system_id":"levelo_inurba_marseille","lat":43.29012,"lon":5.37237,"is_reserved":false,"is_disabled":false,"rental_uris":{"android":"levelo://app?vid=0644810d-5625-4390-b803-b84f31ffcb66","ios":"levelo://app?vid=0644810d-5625-4390-b803-b84f31ffcb66"},"vehicle_type_id":"4","last_reported":1729098501,"current_range_meters":39200,"station_id":"ce4bgh92rcd13ifvqb40","pricing_plan_id":"cebpf4jnsgd1na2vs0mg"},{"bike_id":"ae592273-76b6-49d9-a861-17f76bc2330b","system_id":"levelo_inurba_marseille","lat":43.295724,"lon":5.399769,"is_reserved":false,"is_disabled":false,"rental_uris":{"android":"levelo://app?vid=ae592273-76b6-49d9-a861-17f76bc2330b","ios":"levelo://app?vid=ae592273-76b6-49d9-a861-17f76bc2330b"},"vehicle_type_id":"4","last_reported":1729098501,"current_range_meters":10800,"station_id":"ce4bgg92rcd13ifvqb30","pricing_plan_id":"cebpf4jnsgd1na2vs0mg"},{"bike_id":"d1047f26-d6af-4d09-98f6-ea4e6f0bc19c","system_id":"levelo_inurba_marseille","lat":43.30415,"lon":5.41291,"is_reserved":false,"is_disabled":false,"rental_uris":{"android":"levelo://app?vid=d1047f26-d6af-4d09-98f6-ea4e6f0bc19c","ios":"levelo://app?vid=d1047f26-d6af-4d09-98f6-ea4e6f0bc19c"},"vehicle_type_id":"4","last_reported":1729098501,"current_range_meters":2000,"station_id":"ce4bhop2rcd13ifvqh8g","pricing_plan_id":"cebpf4jnsgd1na2vs0mg"},{"bike_id":"27f93fc2-b78b-461f-96a5-45ef5c8dc50f","system_id":"levelo_inurba_marseille","lat":43.30133,"lon":5.37425,"is_reserved":false,"is_disabled":false,"rental_uris":{"android":"levelo://app?vid=27f93fc2-b78b-461f-96a5-45ef5c8dc50f","ios":"levelo://app?vid=27f93fc2-b78b-461f-96a5-45ef5c8dc50f"},"vehicle_type_id":"4","last_reported":1729098501,"current_range_meters":14800,"station_id":"ce4bgs92rcd13ifvqcc0","pricing_plan_id":"cebpf4jnsgd1na2vs0mg"},{"bike_id":"0994d7f0-fa2e-480f-b967-2b1e1b476b78","system_id":"levelo_inurba_marseille","lat":43.23183,"lon":5.35566,"is_reserved":false,"is_disabled":false,"rental_uris":{"android":"levelo://app?vid=0994d7f0-fa2e-480f-b967-2b1e1b476b78","ios":"levelo://app?vid=0994d7f0-fa2e-480f-b967-2b1e1b476b78"},"vehicle_type_id":"4","last_reported":1729098501,"current_range_meters":19600,"station_id":"ce4bhu92rcd13ifvqi70","pricing_plan_id":"cebpf4jnsgd1na2vs0mg"},{"bike_id":"6f5478e1-c60d-430f-ba1c-75eb0c20a69e","system_id":"levelo_inurba_marseille","lat":43.29802,"lon":5.40408,"is_reserved":false,"is_disabled":false,"rental_uris":{"android":"levelo://app?vid=6f5478e1-c60d-430f-ba1c-75eb0c20a69e","ios":"levelo://app?vid=6f5478e1-c60d-430f-ba1c-75eb0c20a69e"},"vehicle_type_id":"4","last_reported":1729098501,"current_range_meters":38800,"station_id":"ce4bh112rcd13ifvqd90","pricing_plan_id":"cebpf4jnsgd1na2vs0mg"},{"bike_id":"f6af6a6e-0c43-43ba-9e4a-2a70b3681fbb","system_id":"levelo_inurba_marseille","lat":43.31418,"lon":5.39377,"is_reserved":false,"is_disabled":false,"rental_uris":{"android":"levelo://app?vid=f6af6a6e-0c43-43ba-9e4a-2a70b3681fbb","ios":"levelo://app?vid=f6af6a6e-0c43-43ba-9e4a-2a70b3681fbb"},"vehicle_type_id":"4","last_reported":1729098501,"current_range_meters":22400,"station_id":"","pricing_plan_id":"cebpf4jnsgd1na2vs0mg"},{"bike_id":"66ccc46d-618e-4760-b09c-27382152bdab","system_id":"levelo_inurba_marseille","lat":43.23197,"lon":5.35556,"is_reserved":false,"is_disabled":false,"rental_uris":{"android":"levelo://app?vid=66ccc46d-618e-4760-b09c-27382152bdab","ios":"levelo://app?vid=66ccc46d-618e-4760-b09c-27382152bdab"},"vehicle_type_id":"4","last_reported":1729098501,"current_range_meters":36800,"station_id":"ce4bhu92rcd13ifvqi70","pricing_plan_id":"cebpf4jnsgd1na2vs0mg"},{"bike_id":"244668fb-a531-4cc8-9c2d-c7bb8bbaa130","system_id":"levelo_inurba_marseille","lat":43.28155,"lon":5.42646,"is_reserved":false,"is_disabled":false,"rental_uris":{"android":"levelo://app?vid=244668fb-a531-4cc8-9c2d-c7bb8bbaa130","ios":"levelo://app?vid=244668fb-a531-4cc8-9c2d-c7bb8bbaa130"},"vehicle_type_id":"4","last_reported":1729098501,"current_range_meters":6000,"station_id":"ce4bhnh2rcd13ifvqgug","pricing_plan_id":"cebpf4jnsgd1na2vs0mg"},{"bike_id":"d2c36c09-8c84-4584-a63e-5cea53680bc4","system_id":"levelo_inurba_marseille","lat":43.28481,"lon":5.38417,"is_reserved":false,"is_disabled":false,"rental_uris":{"android":"levelo://app?vid=d2c36c09-8c84-4584-a63e-5cea53680bc4","ios":"levelo://app?vid=d2c36c09-8c84-4584-a63e-5cea53680bc4"},"vehicle_type_id":"4","last_reported":1729098501,"current_range_meters":16400,"station_id":"ce4bh512rcd13ifvqe3g","pricing_plan_id":"cebpf4jnsgd1na2vs0mg"},{"bike_id":"53d9d2b6-18a4-42ae-ac26-7f967a4765ce","system_id":"levelo_inurba_marseille","lat":43.31269,"lon":5.40174,"is_reserved":false,"is_disabled":false,"rental_uris":{"android":"levelo://app?vid=53d9d2b6-18a4-42ae-ac26-7f967a4765ce","ios":"levelo://app?vid=53d9d2b6-18a4-42ae-ac26-7f967a4765ce"},"vehicle_type_id":"4","last_reported":1729098501,"current_range_meters":8800,"station_id":"ce4bh092rcd13ifvqd30","pricing_plan_id":"cebpf4jnsgd1na2vs0mg"},{"bike_id":"105d57c5-8b33-4380-9d47-2c15b3e0102c","system_id":"levelo_inurba_marseille","lat":43.26937,"lon":5.40254,"is_reserved":false,"is_disabled":false,"rental_uris":{"android":"levelo://app?vid=105d57c5-8b33-4380-9d47-2c15b3e0102c","ios":"levelo://app?vid=105d57c5-8b33-4380-9d47-2c15b3e0102c"},"vehicle_type_id":"4","last_reported":1729098501,"current_range_meters":38400,"station_id":"cjm6bp8fraef2m0cb0m0","pricing_plan_id":"cebpf4jnsgd1na2vs0mg"},{"bike_id":"a1bc5e48-c875-4da0-8d8b-24659c3ee608","system_id":"levelo_inurba_marseille","lat":43.300776,"lon":5.390587,"is_reserved":false,"is_disabled":false,"rental_uris":{"android":"levelo://app?vid=a1bc5e48-c875-4da0-8d8b-24659c3ee608","ios":"levelo://app?vid=a1bc5e48-c875-4da0-8d8b-24659c3ee608"},"vehicle_type_id":"4","last_reported":1729098501,"current_range_meters":22000,"station_id":"ce4bh192rcd13ifvqdb0","pricing_plan_id":"cebpf4jnsgd1na2vs0mg"},{"bike_id":"6300df2c-b9fe-4275-916d-dd75e59140c9","system_id":"levelo_inurba_marseille","lat":43.23197,"lon":5.35548,"is_reserved":false,"is_disabled":false,"rental_uris":{"android":"levelo://app?vid=6300df2c-b9fe-4275-916d-dd75e59140c9","ios":"levelo://app?vid=6300df2c-b9fe-4275-916d-dd75e59140c9"},"vehicle_type_id":"4","last_reported":1729098501,"current_range_meters":38000,"station_id":"ce4bhu92rcd13ifvqi70","pricing_plan_id":"cebpf4jnsgd1na2vs0mg"},{"bike_id":"6d56330f-5e73-42d5-b4b2-2b0523e4e635","system_id":"levelo_inurba_marseille","lat":43.27939,"lon":5.41053,"is_reserved":false,"is_disabled":false,"rental_uris":{"android":"levelo://app?vid=6d56330f-5e73-42d5-b4b2-2b0523e4e635","ios":"levelo://app?vid=6d56330f-5e73-42d5-b4b2-2b0523e4e635"},"vehicle_type_id":"4","last_reported":1729098501,"current_range_meters":22400,"station_id":"ce4bhnp2rcd13ifvqh0g","pricing_plan_id":"cebpf4jnsgd1na2vs0mg"},{"bike_id":"573f8c6b-9c1d-4832-a184-dabaa223eb63","system_id":"levelo_inurba_marseille","lat":43.25085,"lon":5.39519,"is_reserved":false,"is_disabled":false,"rental_uris":{"android":"levelo://app?vid=573f8c6b-9c1d-4832-a184-dabaa223eb63","ios":"levelo://app?vid=573f8c6b-9c1d-4832-a184-dabaa223eb63"},"vehicle_type_id":"4","last_reported":1729098501,"current_range_meters":12400,"station_id":"ce4bhm12rcd13ifvqgkg","pricing_plan_id":"cebpf4jnsgd1na2vs0mg"},{"bike_id":"ed653ac4-66f2-4c42-8e91-1b71fda0c27c","system_id":"levelo_inurba_marseille","lat":43.27748,"lon":5.38886,"is_reserved":false,"is_disabled":false,"rental_uris":{"android":"levelo://app?vid=ed653ac4-66f2-4c42-8e91-1b71fda0c27c","ios":"levelo://app?vid=ed653ac4-66f2-4c42-8e91-1b71fda0c27c"},"vehicle_type_id":"4","last_reported":1729098501,"current_range_meters":17200,"station_id":"ce4bhjp2rcd13ifvqga0","pricing_plan_id":"cebpf4jnsgd1na2vs0mg"},{"bike_id":"009357eb-4031-4d8b-9fe9-5d1d5500f911","system_id":"levelo_inurba_marseille","lat":43.33024,"lon":5.39048,"is_reserved":false,"is_disabled":false,"rental_uris":{"android":"levelo://app?vid=009357eb-4031-4d8b-9fe9-5d1d5500f911","ios":"levelo://app?vid=009357eb-4031-4d8b-9fe9-5d1d5500f911"},"vehicle_type_id":"4","last_reported":1729098501,"current_range_meters":28800,"station_id":"ce4bhr92rcd13ifvqhrg","pricing_plan_id":"cebpf4jnsgd1na2vs0mg"},{"bike_id":"7eef1093-6bcd-4b01-9f55-4899651c145f","system_id":"levelo_inurba_marseille","lat":43.3009,"lon":5.39863,"is_reserved":false,"is_disabled":false,"rental_uris":{"android":"levelo://app?vid=7eef1093-6bcd-4b01-9f55-4899651c145f","ios":"levelo://app?vid=7eef1093-6bcd-4b01-9f55-4899651c145f"},"vehicle_type_id":"4","last_reported":1729098501,"current_range_meters":38800,"station_id":"ce4bh0h2rcd13ifvqd40","pricing_plan_id":"cebpf4jnsgd1na2vs0mg"},{"bike_id":"d94cb74a-c0b6-4494-8968-da5510cbdcf6","system_id":"levelo_inurba_marseille","lat":43.30116,"lon":5.38798,"is_reserved":false,"is_disabled":false,"rental_uris":{"android":"levelo://app?vid=d94cb74a-c0b6-4494-8968-da5510cbdcf6","ios":"levelo://app?vid=d94cb74a-c0b6-4494-8968-da5510cbdcf6"},"vehicle_type_id":"4","last_reported":1729098501,"current_range_meters":38800,"station_id":"ce4bghh2rcd13ifvqb60","pricing_plan_id":"cebpf4jnsgd1na2vs0mg"},{"bike_id":"ce1f2922-e07e-4623-8e36-7bbc435593a2","system_id":"levelo_inurba_marseille","lat":43.286316,"lon":5.395977,"is_reserved":false,"is_disabled":false,"rental_uris":{"android":"levelo://app?vid=ce1f2922-e07e-4623-8e36-7bbc435593a2","ios":"levelo://app?vid=ce1f2922-e07e-4623-8e36-7bbc435593a2"},"vehicle_type_id":"4","last_reported":1729098501,"current_range_meters":25200,"station_id":"ce4bgj92rcd13ifvqbd0","pricing_plan_id":"cebpf4jnsgd1na2vs0mg"},{"bike_id":"c77cb483-5349-4491-826f-bb378f2fdbd3","system_id":"levelo_inurba_marseille","lat":43.27938,"lon":5.41047,"is_reserved":false,"is_disabled":false,"rental_uris":{"android":"levelo://app?vid=c77cb483-5349-4491-826f-bb378f2fdbd3","ios":"levelo://app?vid=c77cb483-5349-4491-826f-bb378f2fdbd3"},"vehicle_type_id":"4","last_reported":1729098501,"current_range_meters":9600,"station_id":"ce4bhnp2rcd13ifvqh0g","pricing_plan_id":"cebpf4jnsgd1na2vs0mg"},{"bike_id":"2140b6a3-5118-4150-823e-9225aeb56201","system_id":"levelo_inurba_marseille","lat":43.23193,"lon":5.35546,"is_reserved":false,"is_disabled":false,"rental_uris":{"android":"levelo://app?vid=2140b6a3-5118-4150-823e-9225aeb56201","ios":"levelo://app?vid=2140b6a3-5118-4150-823e-9225aeb56201"},"vehicle_type_id":"4","last_reported":1729098501,"current_range_meters":39200,"station_id":"ce4bhu92rcd13ifvqi70","pricing_plan_id":"cebpf4jnsgd1na2vs0mg"},{"bike_id":"7fff23d2-a1e6-4310-a513-817a5686b9de","system_id":"levelo_inurba_marseille","lat":43.29418,"lon":5.3863,"is_reserved":false,"is_disabled":false,"rental_uris":{"android":"levelo://app?vid=7fff23d2-a1e6-4310-a513-817a5686b9de","ios":"levelo://app?vid=7fff23d2-a1e6-4310-a513-817a5686b9de"},"vehicle_type_id":"4","last_reported":1729098501,"current_range_meters":38800,"station_id":"ce4bh2h2rcd13ifvqdh0","pricing_plan_id":"cebpf4jnsgd1na2vs0mg"},{"bike_id":"ea5e655f-17be-40c7-9228-17d3eab622b7","system_id":"levelo_inurba_marseille","lat":43.23193,"lon":5.39992,"is_reserved":false,"is_disabled":false,"rental_uris":{"android":"levelo://app?vid=ea5e655f-17be-40c7-9228-17d3eab622b7","ios":"levelo://app?vid=ea5e655f-17be-40c7-9228-17d3eab622b7"},"vehicle_type_id":"4","last_reported":1729098501,"current_range_meters":38800,"station_id":"ce4bhn12rcd13ifvqgqg","pricing_plan_id":"cebpf4jnsgd1na2vs0mg"},{"bike_id":"c9f78737-2ee9-4459-a402-e84123251a4b","system_id":"levelo_inurba_marseille","lat":43.29572,"lon":5.37513,"is_reserved":false,"is_disabled":false,"rental_uris":{"android":"levelo://app?vid=c9f78737-2ee9-4459-a402-e84123251a4b","ios":"levelo://app?vid=c9f78737-2ee9-4459-a402-e84123251a4b"},"vehicle_type_id":"4","last_reported":1729098501,"current_range_meters":39200,"station_id":"ce4bgh92rcd13ifvqb50","pricing_plan_id":"cebpf4jnsgd1na2vs0mg"},{"bike_id":"80841a97-5a7a-481e-9f0f-7c29cd043ffc","system_id":"levelo_inurba_marseille","lat":43.29422,"lon":5.38615,"is_reserved":false,"is_disabled":false,"rental_uris":{"android":"levelo://app?vid=80841a97-5a7a-481e-9f0f-7c29cd043ffc","ios":"levelo://app?vid=80841a97-5a7a-481e-9f0f-7c29cd043ffc"},"vehicle_type_id":"4","last_reported":1729098501,"current_range_meters":33200,"station_id":"ce4bh2h2rcd13ifvqdh0","pricing_plan_id":"cebpf4jnsgd1na2vs0mg"},{"bike_id":"83bcafb6-7740-4133-8b56-4bf302222f17","system_id":"levelo_inurba_marseille","lat":43.23967,"lon":5.36636,"is_reserved":false,"is_disabled":false,"rental_uris":{"android":"levelo://app?vid=83bcafb6-7740-4133-8b56-4bf302222f17","ios":"levelo://app?vid=83bcafb6-7740-4133-8b56-4bf302222f17"},"vehicle_type_id":"4","last_reported":1729098501,"current_range_meters":8400,"station_id":"ce4bhi12rcd13ifvqfp0","pricing_plan_id":"cebpf4jnsgd1na2vs0mg"},{"bike_id":"cbe0e05d-6bbb-4e5a-8647-92275bf1f44f","system_id":"levelo_inurba_marseille","lat":43.28441,"lon":5.39201,"is_reserved":false,"is_disabled":false,"rental_uris":{"android":"levelo://app?vid=cbe0e05d-6bbb-4e5a-8647-92275bf1f44f","ios":"levelo://app?vid=cbe0e05d-6bbb-4e5a-8647-92275bf1f44f"},"vehicle_type_id":"4","last_reported":1729098501,"current_range_meters":28400,"station_id":"ce4bhoh2rcd13ifvqh5g","pricing_plan_id":"cebpf4jnsgd1na2vs0mg"},{"bike_id":"24aefa96-d443-4d73-9fe8-2ec127903c7b","system_id":"levelo_inurba_marseille","lat":43.305418,"lon":5.365565,"is_reserved":false,"is_disabled":false,"rental_uris":{"android":"levelo://app?vid=24aefa96-d443-4d73-9fe8-2ec127903c7b","ios":"levelo://app?vid=24aefa96-d443-4d73-9fe8-2ec127903c7b"},"vehicle_type_id":"4","last_reported":1729098501,"current_range_meters":25200,"station_id":"ce4bgs12rcd13ifvqcag","pricing_plan_id":"cebpf4jnsgd1na2vs0mg"},{"bike_id":"3213665e-989c-4d22-9f5a-31c8522597dd","system_id":"levelo_inurba_marseille","lat":43.296,"lon":5.36142,"is_reserved":false,"is_disabled":false,"rental_uris":{"android":"levelo://app?vid=3213665e-989c-4d22-9f5a-31c8522597dd","ios":"levelo://app?vid=3213665e-989c-4d22-9f5a-31c8522597dd"},"vehicle_type_id":"4","last_reported":1729098501,"current_range_meters":32400,"station_id":"","pricing_plan_id":"cebpf4jnsgd1na2vs0mg"},{"bike_id":"4ccaf6cb-4360-4a51-9d5d-6d73129af3d6","system_id":"levelo_inurba_marseille","lat":43.29417,"lon":5.38631,"is_reserved":false,"is_disabled":false,"rental_uris":{"android":"levelo://app?vid=4ccaf6cb-4360-4a51-9d5d-6d73129af3d6","ios":"levelo://app?vid=4ccaf6cb-4360-4a51-9d5d-6d73129af3d6"},"vehicle_type_id":"4","last_reported":1729098501,"current_range_meters":25600,"station_id":"ce4bh2h2rcd13ifvqdh0","pricing_plan_id":"cebpf4jnsgd1na2vs0mg"},{"bike_id":"e272444c-7cc9-4aa3-a3f7-0156f9766d63","system_id":"levelo_inurba_marseille","lat":43.29025,"lon":5.38126,"is_reserved":false,"is_disabled":false,"rental_uris":{"android":"levelo://app?vid=e272444c-7cc9-4aa3-a3f7-0156f9766d63","ios":"levelo://app?vid=e272444c-7cc9-4aa3-a3f7-0156f9766d63"},"vehicle_type_id":"4","last_reported":1729098501,"current_range_meters":35600,"station_id":"ce4bh4p2rcd13ifvqe1g","pricing_plan_id":"cebpf4jnsgd1na2vs0mg"},{"bike_id":"1641b826-604a-4181-8231-dca386f637a6","system_id":"levelo_inurba_marseille","lat":43.23189,"lon":5.35568,"is_reserved":false,"is_disabled":false,"rental_uris":{"android":"levelo://app?vid=1641b826-604a-4181-8231-dca386f637a6","ios":"levelo://app?vid=1641b826-604a-4181-8231-dca386f637a6"},"vehicle_type_id":"4","last_reported":1729098501,"current_range_meters":37600,"station_id":"ce4bhu92rcd13ifvqi70","pricing_plan_id":"cebpf4jnsgd1na2vs0mg"},{"bike_id":"89211ee2-076f-4df3-92bd-cd8885f2e76d","system_id":"levelo_inurba_marseille","lat":43.23193,"lon":5.35556,"is_reserved":false,"is_disabled":false,"rental_uris":{"android":"levelo://app?vid=89211ee2-076f-4df3-92bd-cd8885f2e76d","ios":"levelo://app?vid=89211ee2-076f-4df3-92bd-cd8885f2e76d"},"vehicle_type_id":"4","last_reported":1729098501,"current_range_meters":36800,"station_id":"ce4bhu92rcd13ifvqi70","pricing_plan_id":"cebpf4jnsgd1na2vs0mg"},{"bike_id":"b636607a-4e2b-40a8-9467-f61655ac77f9","system_id":"levelo_inurba_marseille","lat":43.2781,"lon":5.40715,"is_reserved":false,"is_disabled":false,"rental_uris":{"android":"levelo://app?vid=b636607a-4e2b-40a8-9467-f61655ac77f9","ios":"levelo://app?vid=b636607a-4e2b-40a8-9467-f61655ac77f9"},"vehicle_type_id":"4","last_reported":1729098501,"current_range_meters":8000,"station_id":"ce4bhnh2rcd13ifvqgtg","pricing_plan_id":"cebpf4jnsgd1na2vs0mg"},{"bike_id":"12af158c-bb4e-4e38-9b40-196d1a0c177c","system_id":"levelo_inurba_marseille","lat":43.296112,"lon":5.381183,"is_reserved":false,"is_disabled":false,"rental_uris":{"android":"levelo://app?vid=12af158c-bb4e-4e38-9b40-196d1a0c177c","ios":"levelo://app?vid=12af158c-bb4e-4e38-9b40-196d1a0c177c"},"vehicle_type_id":"4","last_reported":1729098501,"current_range_meters":24800,"station_id":"ce4bgl12rcd13ifvqbo0","pricing_plan_id":"cebpf4jnsgd1na2vs0mg"},{"bike_id":"4d88d718-1bd2-4df0-a9ea-6fd1caa7ebe2","system_id":"levelo_inurba_marseille","lat":43.29048,"lon":5.35913,"is_reserved":false,"is_disabled":false,"rental_uris":{"android":"levelo://app?vid=4d88d718-1bd2-4df0-a9ea-6fd1caa7ebe2","ios":"levelo://app?vid=4d88d718-1bd2-4df0-a9ea-6fd1caa7ebe2"},"vehicle_type_id":"4","last_reported":1729098501,"current_range_meters":4400,"station_id":"ce4bha92rcd13ifvqeg0","pricing_plan_id":"cebpf4jnsgd1na2vs0mg"},{"bike_id":"02af67c6-7c68-4559-a056-7404a067af01","system_id":"levelo_inurba_marseille","lat":43.33026,"lon":5.39054,"is_reserved":false,"is_disabled":false,"rental_uris":{"android":"levelo://app?vid=02af67c6-7c68-4559-a056-7404a067af01","ios":"levelo://app?vid=02af67c6-7c68-4559-a056-7404a067af01"},"vehicle_type_id":"4","last_reported":1729098501,"current_range_meters":40000,"station_id":"ce4bhr92rcd13ifvqhrg","pricing_plan_id":"cebpf4jnsgd1na2vs0mg"},{"bike_id":"981182a8-3f1e-4b54-b777-3c598a56d611","system_id":"levelo_inurba_marseille","lat":43.23184,"lon":5.39988,"is_reserved":false,"is_disabled":false,"rental_uris":{"android":"levelo://app?vid=981182a8-3f1e-4b54-b777-3c598a56d611","ios":"levelo://app?vid=981182a8-3f1e-4b54-b777-3c598a56d611"},"vehicle_type_id":"4","last_reported":1729098501,"current_range_meters":15200,"station_id":"ce4bhn12rcd13ifvqgqg","pricing_plan_id":"cebpf4jnsgd1na2vs0mg"},{"bike_id":"2ebaf7ee-bc90-4738-9ee2-d5061dede17b","system_id":"levelo_inurba_marseille","lat":43.30884,"lon":5.39654,"is_reserved":false,"is_disabled":false,"rental_uris":{"android":"levelo://app?vid=2ebaf7ee-bc90-4738-9ee2-d5061dede17b","ios":"levelo://app?vid=2ebaf7ee-bc90-4738-9ee2-d5061dede17b"},"vehicle_type_id":"4","last_reported":1729098501,"current_range_meters":4800,"station_id":"ce4bh012rcd13ifvqcv0","pricing_plan_id":"cebpf4jnsgd1na2vs0mg"},{"bike_id":"5078d5e1-2f51-440c-996a-a408dbf3d037","system_id":"levelo_inurba_marseille","lat":43.30298,"lon":5.36842,"is_reserved":false,"is_disabled":false,"rental_uris":{"android":"levelo://app?vid=5078d5e1-2f51-440c-996a-a408dbf3d037","ios":"levelo://app?vid=5078d5e1-2f51-440c-996a-a408dbf3d037"},"vehicle_type_id":"4","last_reported":1729098501,"current_range_meters":14000,"station_id":"ce4bgqh2rcd13ifvqc5g","pricing_plan_id":"cebpf4jnsgd1na2vs0mg"},{"bike_id":"b5026461-2ffc-41d5-b4e1-9fa8632fe4da","system_id":"levelo_inurba_marseille","lat":43.26935,"lon":5.40259,"is_reserved":false,"is_disabled":false,"rental_uris":{"android":"levelo://app?vid=b5026461-2ffc-41d5-b4e1-9fa8632fe4da","ios":"levelo://app?vid=b5026461-2ffc-41d5-b4e1-9fa8632fe4da"},"vehicle_type_id":"4","last_reported":1729098501,"current_range_meters":37600,"station_id":"cjm6bp8fraef2m0cb0m0","pricing_plan_id":"cebpf4jnsgd1na2vs0mg"},{"bike_id":"24f85f72-dee6-41bb-bdb8-974ca7c83215","system_id":"levelo_inurba_marseille","lat":43.33021,"lon":5.39042,"is_reserved":false,"is_disabled":false,"rental_uris":{"android":"levelo://app?vid=24f85f72-dee6-41bb-bdb8-974ca7c83215","ios":"levelo://app?vid=24f85f72-dee6-41bb-bdb8-974ca7c83215"},"vehicle_type_id":"4","last_reported":1729098501,"current_range_meters":23200,"station_id":"ce4bhr92rcd13ifvqhrg","pricing_plan_id":"cebpf4jnsgd1na2vs0mg"},{"bike_id":"bf793665-7115-4463-820d-23bb5393fe7d","system_id":"levelo_inurba_marseille","lat":43.29896,"lon":5.43676,"is_reserved":false,"is_disabled":false,"rental_uris":{"android":"levelo://app?vid=bf793665-7115-4463-820d-23bb5393fe7d","ios":"levelo://app?vid=bf793665-7115-4463-820d-23bb5393fe7d"},"vehicle_type_id":"4","last_reported":1729098501,"current_range_meters":30400,"station_id":"ce4bhpp2rcd13ifvqhfg","pricing_plan_id":"cebpf4jnsgd1na2vs0mg"},{"bike_id":"87440bd7-4730-412f-b52f-03b263c3d6ba","system_id":"levelo_inurba_marseille","lat":43.23189,"lon":5.35569,"is_reserved":false,"is_disabled":false,"rental_uris":{"android":"levelo://app?vid=87440bd7-4730-412f-b52f-03b263c3d6ba","ios":"levelo://app?vid=87440bd7-4730-412f-b52f-03b263c3d6ba"},"vehicle_type_id":"4","last_reported":1729098501,"current_range_meters":24000,"station_id":"ce4bhu92rcd13ifvqi70","pricing_plan_id":"cebpf4jnsgd1na2vs0mg"},{"bike_id":"dfc54cd4-5b54-4506-b287-795b90283470","system_id":"levelo_inurba_marseille","lat":43.29422,"lon":5.3863,"is_reserved":false,"is_disabled":false,"rental_uris":{"android":"levelo://app?vid=dfc54cd4-5b54-4506-b287-795b90283470","ios":"levelo://app?vid=dfc54cd4-5b54-4506-b287-795b90283470"},"vehicle_type_id":"4","last_reported":1729098501,"current_range_meters":0,"station_id":"ce4bh2h2rcd13ifvqdh0","pricing_plan_id":"cebpf4jnsgd1na2vs0mg"},{"bike_id":"ff96eee3-1ac8-4888-9ae7-e4b6cc8154af","system_id":"levelo_inurba_marseille","lat":43.33739,"lon":5.3746,"is_reserved":false,"is_disabled":false,"rental_uris":{"android":"levelo://app?vid=ff96eee3-1ac8-4888-9ae7-e4b6cc8154af","ios":"levelo://app?vid=ff96eee3-1ac8-4888-9ae7-e4b6cc8154af"},"vehicle_type_id":"4","last_reported":1729098501,"current_range_meters":28400,"station_id":"","pricing_plan_id":"cebpf4jnsgd1na2vs0mg"},{"bike_id":"d84cbc31-09f9-402d-b3d5-f1cccc2b0821","system_id":"levelo_inurba_marseille","lat":43.2466,"lon":5.38164,"is_reserved":false,"is_disabled":false,"rental_uris":{"android":"levelo://app?vid=d84cbc31-09f9-402d-b3d5-f1cccc2b0821","ios":"levelo://app?vid=d84cbc31-09f9-402d-b3d5-f1cccc2b0821"},"vehicle_type_id":"4","last_reported":1729098501,"current_range_meters":24400,"station_id":"ce4bhih2rcd13ifvqfr0","pricing_plan_id":"cebpf4jnsgd1na2vs0mg"},{"bike_id":"262eb7b4-049c-44b3-b055-6432f3947cb1","system_id":"levelo_inurba_marseille","lat":43.2694,"lon":5.40251,"is_reserved":false,"is_disabled":false,"rental_uris":{"android":"levelo://app?vid=262eb7b4-049c-44b3-b055-6432f3947cb1","ios":"levelo://app?vid=262eb7b4-049c-44b3-b055-6432f3947cb1"},"vehicle_type_id":"4","last_reported":1729098501,"current_range_meters":14000,"station_id":"cjm6bp8fraef2m0cb0m0","pricing_plan_id":"cebpf4jnsgd1na2vs0mg"},{"bike_id":"6247e4ce-3ab7-4c81-92e5-d00be553e76f","system_id":"levelo_inurba_marseille","lat":43.31268,"lon":5.4017,"is_reserved":false,"is_disabled":false,"rental_uris":{"android":"levelo://app?vid=6247e4ce-3ab7-4c81-92e5-d00be553e76f","ios":"levelo://app?vid=6247e4ce-3ab7-4c81-92e5-d00be553e76f"},"vehicle_type_id":"4","last_reported":1729098501,"current_range_meters":37600,"station_id":"ce4bh092rcd13ifvqd30","pricing_plan_id":"cebpf4jnsgd1na2vs0mg"},{"bike_id":"ae7c5182-9aa4-4786-b8c3-5f6770906df4","system_id":"levelo_inurba_marseille","lat":43.24999,"lon":5.38934,"is_reserved":false,"is_disabled":false,"rental_uris":{"android":"levelo://app?vid=ae7c5182-9aa4-4786-b8c3-5f6770906df4","ios":"levelo://app?vid=ae7c5182-9aa4-4786-b8c3-5f6770906df4"},"vehicle_type_id":"4","last_reported":1729098501,"current_range_meters":0,"station_id":"ce4bhgp2rcd13ifvqfd0","pricing_plan_id":"cebpf4jnsgd1na2vs0mg"},{"bike_id":"0f645b5a-31af-4bea-a09b-47c8007918a0","system_id":"levelo_inurba_marseille","lat":43.28401,"lon":5.37519,"is_reserved":false,"is_disabled":false,"rental_uris":{"android":"levelo://app?vid=0f645b5a-31af-4bea-a09b-47c8007918a0","ios":"levelo://app?vid=0f645b5a-31af-4bea-a09b-47c8007918a0"},"vehicle_type_id":"4","last_reported":1729098501,"current_range_meters":17600,"station_id":"ce4bh412rcd13ifvqds0","pricing_plan_id":"cebpf4jnsgd1na2vs0mg"},{"bike_id":"c75fdd13-06a6-4635-adc1-f8972daf3850","system_id":"levelo_inurba_marseille","lat":43.33026,"lon":5.3904,"is_reserved":false,"is_disabled":false,"rental_uris":{"android":"levelo://app?vid=c75fdd13-06a6-4635-adc1-f8972daf3850","ios":"levelo://app?vid=c75fdd13-06a6-4635-adc1-f8972daf3850"},"vehicle_type_id":"4","last_reported":1729098501,"current_range_meters":30000,"station_id":"ce4bhr92rcd13ifvqhrg","pricing_plan_id":"cebpf4jnsgd1na2vs0mg"},{"bike_id":"5076cd79-eca6-4db3-b358-c69c55ea2967","system_id":"levelo_inurba_marseille","lat":43.29502,"lon":5.39412,"is_reserved":false,"is_disabled":false,"rental_uris":{"android":"levelo://app?vid=5076cd79-eca6-4db3-b358-c69c55ea2967","ios":"levelo://app?vid=5076cd79-eca6-4db3-b358-c69c55ea2967"},"vehicle_type_id":"4","last_reported":1729098501,"current_range_meters":2000,"station_id":"ce4bh292rcd13ifvqdf0","pricing_plan_id":"cebpf4jnsgd1na2vs0mg"},{"bike_id":"292b9425-1372-40d4-bf0a-fe57aa779a41","system_id":"levelo_inurba_marseille","lat":43.23059,"lon":5.35504,"is_reserved":false,"is_disabled":false,"rental_uris":{"android":"levelo://app?vid=292b9425-1372-40d4-bf0a-fe57aa779a41","ios":"levelo://app?vid=292b9425-1372-40d4-bf0a-fe57aa779a41"},"vehicle_type_id":"4","last_reported":1729098501,"current_range_meters":28000,"station_id":"cpo3342slgdg3j2ifvpg","pricing_plan_id":"cebpf4jnsgd1na2vs0mg"},{"bike_id":"1158ae0a-4a79-4452-99ac-432734953b29","system_id":"levelo_inurba_marseille","lat":43.296296,"lon":5.377129,"is_reserved":false,"is_disabled":false,"rental_uris":{"android":"levelo://app?vid=1158ae0a-4a79-4452-99ac-432734953b29","ios":"levelo://app?vid=1158ae0a-4a79-4452-99ac-432734953b29"},"vehicle_type_id":"4","last_reported":1729098501,"current_range_meters":6800,"station_id":"ce4bgi92rcd13ifvqb90","pricing_plan_id":"cebpf4jnsgd1na2vs0mg"},{"bike_id":"93eaf54b-72b4-4bdb-a2a5-ecc474333898","system_id":"levelo_inurba_marseille","lat":43.29029,"lon":5.38654,"is_reserved":false,"is_disabled":false,"rental_uris":{"android":"levelo://app?vid=93eaf54b-72b4-4bdb-a2a5-ecc474333898","ios":"levelo://app?vid=93eaf54b-72b4-4bdb-a2a5-ecc474333898"},"vehicle_type_id":"4","last_reported":1729098501,"current_range_meters":4400,"station_id":"ce4bh4p2rcd13ifvqe0g","pricing_plan_id":"cebpf4jnsgd1na2vs0mg"},{"bike_id":"139bb49e-f4d3-4de5-8982-2e43344359e2","system_id":"levelo_inurba_marseille","lat":43.28476,"lon":5.38424,"is_reserved":false,"is_disabled":false,"rental_uris":{"android":"levelo://app?vid=139bb49e-f4d3-4de5-8982-2e43344359e2","ios":"levelo://app?vid=139bb49e-f4d3-4de5-8982-2e43344359e2"},"vehicle_type_id":"4","last_reported":1729098501,"current_range_meters":4000,"station_id":"ce4bhh12rcd13ifvqff0","pricing_plan_id":"cebpf4jnsgd1na2vs0mg"},{"bike_id":"a6b8e268-2d82-4d58-a182-8168812f4a35","system_id":"levelo_inurba_marseille","lat":43.24808,"lon":5.3746,"is_reserved":false,"is_disabled":false,"rental_uris":{"android":"levelo://app?vid=a6b8e268-2d82-4d58-a182-8168812f4a35","ios":"levelo://app?vid=a6b8e268-2d82-4d58-a182-8168812f4a35"},"vehicle_type_id":"4","last_reported":1729098501,"current_range_meters":16000,"station_id":"ce4bhgh2rcd13ifvqfb0","pricing_plan_id":"cebpf4jnsgd1na2vs0mg"},{"bike_id":"65406e49-8594-4cfa-8223-dde29203d51c","system_id":"levelo_inurba_marseille","lat":43.27383,"lon":5.36253,"is_reserved":false,"is_disabled":false,"rental_uris":{"android":"levelo://app?vid=65406e49-8594-4cfa-8223-dde29203d51c","ios":"levelo://app?vid=65406e49-8594-4cfa-8223-dde29203d51c"},"vehicle_type_id":"4","last_reported":1729098501,"current_range_meters":8400,"station_id":"ce4bhbh2rcd13ifvqeo0","pricing_plan_id":"cebpf4jnsgd1na2vs0mg"},{"bike_id":"230b23ca-d718-410b-847c-d0d5ffc51222","system_id":"levelo_inurba_marseille","lat":43.29024,"lon":5.38133,"is_reserved":false,"is_disabled":false,"rental_uris":{"android":"levelo://app?vid=230b23ca-d718-410b-847c-d0d5ffc51222","ios":"levelo://app?vid=230b23ca-d718-410b-847c-d0d5ffc51222"},"vehicle_type_id":"4","last_reported":1729098501,"current_range_meters":8800,"station_id":"ce4bh512rcd13ifvqe2g","pricing_plan_id":"cebpf4jnsgd1na2vs0mg"},{"bike_id":"6959bdf8-0344-4932-9b00-f96fbf63cfcc","system_id":"levelo_inurba_marseille","lat":43.27555,"lon":5.38405,"is_reserved":false,"is_disabled":false,"rental_uris":{"android":"levelo://app?vid=6959bdf8-0344-4932-9b00-f96fbf63cfcc","ios":"levelo://app?vid=6959bdf8-0344-4932-9b00-f96fbf63cfcc"},"vehicle_type_id":"4","last_reported":1729098501,"current_range_meters":35200,"station_id":"ce4bhh92rcd13ifvqfi0","pricing_plan_id":"cebpf4jnsgd1na2vs0mg"},{"bike_id":"3512ad33-8a07-4461-a50e-03e3056a07d5","system_id":"levelo_inurba_marseille","lat":43.29533,"lon":5.38548,"is_reserved":false,"is_disabled":false,"rental_uris":{"android":"levelo://app?vid=3512ad33-8a07-4461-a50e-03e3056a07d5","ios":"levelo://app?vid=3512ad33-8a07-4461-a50e-03e3056a07d5"},"vehicle_type_id":"4","last_reported":1729098501,"current_range_meters":38800,"station_id":"ce4bgih2rcd13ifvqba0","pricing_plan_id":"cebpf4jnsgd1na2vs0mg"},{"bike_id":"7e022d50-fee0-48bd-8f68-64779ba65969","system_id":"levelo_inurba_marseille","lat":43.2572,"lon":5.41117,"is_reserved":false,"is_disabled":false,"rental_uris":{"android":"levelo://app?vid=7e022d50-fee0-48bd-8f68-64779ba65969","ios":"levelo://app?vid=7e022d50-fee0-48bd-8f68-64779ba65969"},"vehicle_type_id":"4","last_reported":1729098501,"current_range_meters":5600,"station_id":"ce4bhkp2rcd13ifvqgd0","pricing_plan_id":"cebpf4jnsgd1na2vs0mg"},{"bike_id":"4b39118f-bb62-406b-9203-0b8ddf9c99cc","system_id":"levelo_inurba_marseille","lat":43.22934,"lon":5.35378,"is_reserved":false,"is_disabled":false,"rental_uris":{"android":"levelo://app?vid=4b39118f-bb62-406b-9203-0b8ddf9c99cc","ios":"levelo://app?vid=4b39118f-bb62-406b-9203-0b8ddf9c99cc"},"vehicle_type_id":"4","last_reported":1729098501,"current_range_meters":17200,"station_id":"cpo3532slgdg3j2ikp40","pricing_plan_id":"cebpf4jnsgd1na2vs0mg"},{"bike_id":"044358a4-9556-4db7-8947-9b9dbe130c14","system_id":"levelo_inurba_marseille","lat":43.33023,"lon":5.3906,"is_reserved":false,"is_disabled":false,"rental_uris":{"android":"levelo://app?vid=044358a4-9556-4db7-8947-9b9dbe130c14","ios":"levelo://app?vid=044358a4-9556-4db7-8947-9b9dbe130c14"},"vehicle_type_id":"4","last_reported":1729098501,"current_range_meters":26000,"station_id":"ce4bhr92rcd13ifvqhrg","pricing_plan_id":"cebpf4jnsgd1na2vs0mg"},{"bike_id":"a9d80141-cb04-4f88-bcc5-9763572e3517","system_id":"levelo_inurba_marseille","lat":43.23194,"lon":5.35548,"is_reserved":false,"is_disabled":false,"rental_uris":{"android":"levelo://app?vid=a9d80141-cb04-4f88-bcc5-9763572e3517","ios":"levelo://app?vid=a9d80141-cb04-4f88-bcc5-9763572e3517"},"vehicle_type_id":"4","last_reported":1729098501,"current_range_meters":37600,"station_id":"ce4bhu92rcd13ifvqi70","pricing_plan_id":"cebpf4jnsgd1na2vs0mg"},{"bike_id":"58fc0300-f080-417b-95f8-1703c9f98f7e","system_id":"levelo_inurba_marseille","lat":43.29831,"lon":5.38096,"is_reserved":false,"is_disabled":false,"rental_uris":{"android":"levelo://app?vid=58fc0300-f080-417b-95f8-1703c9f98f7e","ios":"levelo://app?vid=58fc0300-f080-417b-95f8-1703c9f98f7e"},"vehicle_type_id":"4","last_reported":1729098501,"current_range_meters":18800,"station_id":"ce4bgip2rcd13ifvqbb0","pricing_plan_id":"cebpf4jnsgd1na2vs0mg"},{"bike_id":"4f00c2b5-5278-421c-be9b-8b7ab009d1bf","system_id":"levelo_inurba_marseille","lat":43.287933,"lon":5.378372,"is_reserved":false,"is_disabled":false,"rental_uris":{"android":"levelo://app?vid=4f00c2b5-5278-421c-be9b-8b7ab009d1bf","ios":"levelo://app?vid=4f00c2b5-5278-421c-be9b-8b7ab009d1bf"},"vehicle_type_id":"4","last_reported":1729098501,"current_range_meters":4400,"station_id":"","pricing_plan_id":"cebpf4jnsgd1na2vs0mg"},{"bike_id":"c834d31d-df46-4136-b00f-2788b617c81e","system_id":"levelo_inurba_marseille","lat":43.33723,"lon":5.39185,"is_reserved":false,"is_disabled":false,"rental_uris":{"android":"levelo://app?vid=c834d31d-df46-4136-b00f-2788b617c81e","ios":"levelo://app?vid=c834d31d-df46-4136-b00f-2788b617c81e"},"vehicle_type_id":"4","last_reported":1729098501,"current_range_meters":18800,"station_id":"ce4bhr92rcd13ifvqhsg","pricing_plan_id":"cebpf4jnsgd1na2vs0mg"},{"bike_id":"3abbde99-de9b-445d-8207-eaa91e73b2ca","system_id":"levelo_inurba_marseille","lat":43.30925,"lon":5.40164,"is_reserved":false,"is_disabled":false,"rental_uris":{"android":"levelo://app?vid=3abbde99-de9b-445d-8207-eaa91e73b2ca","ios":"levelo://app?vid=3abbde99-de9b-445d-8207-eaa91e73b2ca"},"vehicle_type_id":"4","last_reported":1729098501,"current_range_meters":2000,"station_id":"ce4bgvp2rcd13ifvqct0","pricing_plan_id":"cebpf4jnsgd1na2vs0mg"},{"bike_id":"5aac506f-9090-4a5a-a06c-11d22288b967","system_id":"levelo_inurba_marseille","lat":43.297832,"lon":5.37099,"is_reserved":false,"is_disabled":false,"rental_uris":{"android":"levelo://app?vid=5aac506f-9090-4a5a-a06c-11d22288b967","ios":"levelo://app?vid=5aac506f-9090-4a5a-a06c-11d22288b967"},"vehicle_type_id":"4","last_reported":1729098501,"current_range_meters":26000,"station_id":"ce4bgop2rcd13ifvqc1g","pricing_plan_id":"cebpf4jnsgd1na2vs0mg"},{"bike_id":"a4c58aad-cb49-47dc-84b7-d6391f7a0cfe","system_id":"levelo_inurba_marseille","lat":43.26944,"lon":5.40245,"is_reserved":false,"is_disabled":false,"rental_uris":{"android":"levelo://app?vid=a4c58aad-cb49-47dc-84b7-d6391f7a0cfe","ios":"levelo://app?vid=a4c58aad-cb49-47dc-84b7-d6391f7a0cfe"},"vehicle_type_id":"4","last_reported":1729098501,"current_range_meters":2000,"station_id":"cjm6bp8fraef2m0cb0m0","pricing_plan_id":"cebpf4jnsgd1na2vs0mg"},{"bike_id":"d41309ab-1a1f-4395-acaa-455483c3f8e1","system_id":"levelo_inurba_marseille","lat":43.23193,"lon":5.3556,"is_reserved":false,"is_disabled":false,"rental_uris":{"android":"levelo://app?vid=d41309ab-1a1f-4395-acaa-455483c3f8e1","ios":"levelo://app?vid=d41309ab-1a1f-4395-acaa-455483c3f8e1"},"vehicle_type_id":"4","last_reported":1729098501,"current_range_meters":38800,"station_id":"ce4bhu92rcd13ifvqi70","pricing_plan_id":"cebpf4jnsgd1na2vs0mg"},{"bike_id":"3aa1b193-731b-4613-abd7-f056a8a2cedf","system_id":"levelo_inurba_marseille","lat":43.29957,"lon":5.37157,"is_reserved":false,"is_disabled":false,"rental_uris":{"android":"levelo://app?vid=3aa1b193-731b-4613-abd7-f056a8a2cedf","ios":"levelo://app?vid=3aa1b193-731b-4613-abd7-f056a8a2cedf"},"vehicle_type_id":"4","last_reported":1729098501,"current_range_meters":19600,"station_id":"ce4bgr92rcd13ifvqc7g","pricing_plan_id":"cebpf4jnsgd1na2vs0mg"},{"bike_id":"94902fb1-a766-4d90-8978-e732725ca583","system_id":"levelo_inurba_marseille","lat":43.23186,"lon":5.39996,"is_reserved":false,"is_disabled":false,"rental_uris":{"android":"levelo://app?vid=94902fb1-a766-4d90-8978-e732725ca583","ios":"levelo://app?vid=94902fb1-a766-4d90-8978-e732725ca583"},"vehicle_type_id":"4","last_reported":1729098501,"current_range_meters":39200,"station_id":"ce4bhn12rcd13ifvqgqg","pricing_plan_id":"cebpf4jnsgd1na2vs0mg"},{"bike_id":"b6ba18ac-f9f7-47ce-97ee-a57309932db4","system_id":"levelo_inurba_marseille","lat":43.2781,"lon":5.40709,"is_reserved":false,"is_disabled":false,"rental_uris":{"android":"levelo://app?vid=b6ba18ac-f9f7-47ce-97ee-a57309932db4","ios":"levelo://app?vid=b6ba18ac-f9f7-47ce-97ee-a57309932db4"},"vehicle_type_id":"4","last_reported":1729098501,"current_range_meters":38400,"station_id":"ce4bhnh2rcd13ifvqgtg","pricing_plan_id":"cebpf4jnsgd1na2vs0mg"},{"bike_id":"48f6c671-b0e7-4c48-9dde-f1cf867e3d47","system_id":"levelo_inurba_marseille","lat":43.29422,"lon":5.38625,"is_reserved":false,"is_disabled":false,"rental_uris":{"android":"levelo://app?vid=48f6c671-b0e7-4c48-9dde-f1cf867e3d47","ios":"levelo://app?vid=48f6c671-b0e7-4c48-9dde-f1cf867e3d47"},"vehicle_type_id":"4","last_reported":1729098501,"current_range_meters":38800,"station_id":"ce4bh2h2rcd13ifvqdh0","pricing_plan_id":"cebpf4jnsgd1na2vs0mg"},{"bike_id":"ee341c40-2330-414c-8ae8-960f244a5a36","system_id":"levelo_inurba_marseille","lat":43.29277,"lon":5.40129,"is_reserved":false,"is_disabled":false,"rental_uris":{"android":"levelo://app?vid=ee341c40-2330-414c-8ae8-960f244a5a36","ios":"levelo://app?vid=ee341c40-2330-414c-8ae8-960f244a5a36"},"vehicle_type_id":"4","last_reported":1729098501,"current_range_meters":4800,"station_id":"ce4bh312rcd13ifvqdk0","pricing_plan_id":"cebpf4jnsgd1na2vs0mg"},{"bike_id":"665c3f8e-8be5-4d80-a8dc-dbb11d59399c","system_id":"levelo_inurba_marseille","lat":43.33024,"lon":5.39041,"is_reserved":false,"is_disabled":false,"rental_uris":{"android":"levelo://app?vid=665c3f8e-8be5-4d80-a8dc-dbb11d59399c","ios":"levelo://app?vid=665c3f8e-8be5-4d80-a8dc-dbb11d59399c"},"vehicle_type_id":"4","last_reported":1729098501,"current_range_meters":40000,"station_id":"ce4bhr92rcd13ifvqhrg","pricing_plan_id":"cebpf4jnsgd1na2vs0mg"},{"bike_id":"033a7f68-f273-426e-84a9-8a3b2c56f6f5","system_id":"levelo_inurba_marseille","lat":43.35096,"lon":5.36807,"is_reserved":false,"is_disabled":false,"rental_uris":{"android":"levelo://app?vid=033a7f68-f273-426e-84a9-8a3b2c56f6f5","ios":"levelo://app?vid=033a7f68-f273-426e-84a9-8a3b2c56f6f5"},"vehicle_type_id":"4","last_reported":1729098501,"current_range_meters":10800,"station_id":"","pricing_plan_id":"cebpf4jnsgd1na2vs0mg"},{"bike_id":"5422c193-72dc-4814-8d19-83204a44e3f3","system_id":"levelo_inurba_marseille","lat":43.31469,"lon":5.37314,"is_reserved":false,"is_disabled":false,"rental_uris":{"android":"levelo://app?vid=5422c193-72dc-4814-8d19-83204a44e3f3","ios":"levelo://app?vid=5422c193-72dc-4814-8d19-83204a44e3f3"},"vehicle_type_id":"4","last_reported":1729098501,"current_range_meters":11600,"station_id":"ce4bgt12rcd13ifvqcd0","pricing_plan_id":"cebpf4jnsgd1na2vs0mg"},{"bike_id":"1af2813b-98a0-4b62-aaf8-89652b30f639","system_id":"levelo_inurba_marseille","lat":43.22932,"lon":5.35384,"is_reserved":false,"is_disabled":false,"rental_uris":{"android":"levelo://app?vid=1af2813b-98a0-4b62-aaf8-89652b30f639","ios":"levelo://app?vid=1af2813b-98a0-4b62-aaf8-89652b30f639"},"vehicle_type_id":"4","last_reported":1729098501,"current_range_meters":24800,"station_id":"cpo3532slgdg3j2ikp40","pricing_plan_id":"cebpf4jnsgd1na2vs0mg"},{"bike_id":"d63112b8-54c5-40e3-84ee-91ba4c964086","system_id":"levelo_inurba_marseille","lat":43.24387,"lon":5.37059,"is_reserved":false,"is_disabled":false,"rental_uris":{"android":"levelo://app?vid=d63112b8-54c5-40e3-84ee-91ba4c964086","ios":"levelo://app?vid=d63112b8-54c5-40e3-84ee-91ba4c964086"},"vehicle_type_id":"4","last_reported":1729098501,"current_range_meters":9600,"station_id":"ce4bhhh2rcd13ifvqfk0","pricing_plan_id":"cebpf4jnsgd1na2vs0mg"},{"bike_id":"f93454e1-a669-4c63-a4ca-b572042c7971","system_id":"levelo_inurba_marseille","lat":43.23192,"lon":5.35563,"is_reserved":false,"is_disabled":false,"rental_uris":{"android":"levelo://app?vid=f93454e1-a669-4c63-a4ca-b572042c7971","ios":"levelo://app?vid=f93454e1-a669-4c63-a4ca-b572042c7971"},"vehicle_type_id":"4","last_reported":1729098501,"current_range_meters":19200,"station_id":"ce4bhu92rcd13ifvqi70","pricing_plan_id":"cebpf4jnsgd1na2vs0mg"},{"bike_id":"5991a3d2-0cb9-494d-b3ed-321a28cd7251","system_id":"levelo_inurba_marseille","lat":43.22933,"lon":5.35383,"is_reserved":false,"is_disabled":false,"rental_uris":{"android":"levelo://app?vid=5991a3d2-0cb9-494d-b3ed-321a28cd7251","ios":"levelo://app?vid=5991a3d2-0cb9-494d-b3ed-321a28cd7251"},"vehicle_type_id":"4","last_reported":1729098501,"current_range_meters":38800,"station_id":"cpo3532slgdg3j2ikp40","pricing_plan_id":"cebpf4jnsgd1na2vs0mg"},{"bike_id":"a12ced6c-ba30-449b-b016-c5d35288fe31","system_id":"levelo_inurba_marseille","lat":43.25003,"lon":5.38932,"is_reserved":false,"is_disabled":false,"rental_uris":{"android":"levelo://app?vid=a12ced6c-ba30-449b-b016-c5d35288fe31","ios":"levelo://app?vid=a12ced6c-ba30-449b-b016-c5d35288fe31"},"vehicle_type_id":"4","last_reported":1729098501,"current_range_meters":0,"station_id":"ce4bhgp2rcd13ifvqfd0","pricing_plan_id":"cebpf4jnsgd1na2vs0mg"},{"bike_id":"72f366ad-2edf-4369-b5bc-26ea24c6e103","system_id":"levelo_inurba_marseille","lat":43.29577,"lon":5.39986,"is_reserved":false,"is_disabled":false,"rental_uris":{"android":"levelo://app?vid=72f366ad-2edf-4369-b5bc-26ea24c6e103","ios":"levelo://app?vid=72f366ad-2edf-4369-b5bc-26ea24c6e103"},"vehicle_type_id":"4","last_reported":1729098501,"current_range_meters":6000,"station_id":"ce4bh312rcd13ifvqdj0","pricing_plan_id":"cebpf4jnsgd1na2vs0mg"},{"bike_id":"2f5ff219-c259-4689-91ac-990967dd0592","system_id":"levelo_inurba_marseille","lat":43.28927,"lon":5.36399,"is_reserved":false,"is_disabled":false,"rental_uris":{"android":"levelo://app?vid=2f5ff219-c259-4689-91ac-990967dd0592","ios":"levelo://app?vid=2f5ff219-c259-4689-91ac-990967dd0592"},"vehicle_type_id":"4","last_reported":1729098501,"current_range_meters":12000,"station_id":"ce4bhc92rcd13ifvqetg","pricing_plan_id":"cebpf4jnsgd1na2vs0mg"},{"bike_id":"9b3acd97-3ae9-40c3-88db-48aed149fe03","system_id":"levelo_inurba_marseille","lat":43.29527,"lon":5.38542,"is_reserved":false,"is_disabled":false,"rental_uris":{"android":"levelo://app?vid=9b3acd97-3ae9-40c3-88db-48aed149fe03","ios":"levelo://app?vid=9b3acd97-3ae9-40c3-88db-48aed149fe03"},"vehicle_type_id":"4","last_reported":1729098501,"current_range_meters":37600,"station_id":"ce4bgih2rcd13ifvqba0","pricing_plan_id":"cebpf4jnsgd1na2vs0mg"},{"bike_id":"3ece4d15-37c4-4363-af1b-a68532930905","system_id":"levelo_inurba_marseille","lat":43.23191,"lon":5.39984,"is_reserved":false,"is_disabled":false,"rental_uris":{"android":"levelo://app?vid=3ece4d15-37c4-4363-af1b-a68532930905","ios":"levelo://app?vid=3ece4d15-37c4-4363-af1b-a68532930905"},"vehicle_type_id":"4","last_reported":1729098501,"current_range_meters":13600,"station_id":"ce4bhn12rcd13ifvqgqg","pricing_plan_id":"cebpf4jnsgd1na2vs0mg"},{"bike_id":"cc85962f-2424-4de7-837e-cc311911c414","system_id":"levelo_inurba_marseille","lat":43.2465,"lon":5.38903,"is_reserved":false,"is_disabled":false,"rental_uris":{"android":"levelo://app?vid=cc85962f-2424-4de7-837e-cc311911c414","ios":"levelo://app?vid=cc85962f-2424-4de7-837e-cc311911c414"},"vehicle_type_id":"4","last_reported":1729098501,"current_range_meters":37600,"station_id":"ce4bhg12rcd13ifvqf60","pricing_plan_id":"cebpf4jnsgd1na2vs0mg"},{"bike_id":"e59b0d9a-aa4d-4ba6-8ae5-921076070700","system_id":"levelo_inurba_marseille","lat":43.22931,"lon":5.35377,"is_reserved":false,"is_disabled":false,"rental_uris":{"android":"levelo://app?vid=e59b0d9a-aa4d-4ba6-8ae5-921076070700","ios":"levelo://app?vid=e59b0d9a-aa4d-4ba6-8ae5-921076070700"},"vehicle_type_id":"4","last_reported":1729098501,"current_range_meters":10800,"station_id":"cpo3532slgdg3j2ikp40","pricing_plan_id":"cebpf4jnsgd1na2vs0mg"},{"bike_id":"8163f5de-382e-4b7e-89a3-8566f1ee0476","system_id":"levelo_inurba_marseille","lat":43.29538,"lon":5.3903,"is_reserved":false,"is_disabled":false,"rental_uris":{"android":"levelo://app?vid=8163f5de-382e-4b7e-89a3-8566f1ee0476","ios":"levelo://app?vid=8163f5de-382e-4b7e-89a3-8566f1ee0476"},"vehicle_type_id":"4","last_reported":1729098501,"current_range_meters":38800,"station_id":"ce4bh3p2rcd13ifvqdp0","pricing_plan_id":"cebpf4jnsgd1na2vs0mg"},{"bike_id":"ceaea5ee-dd41-48e4-814a-8b7b7ef4061a","system_id":"levelo_inurba_marseille","lat":43.32454,"lon":5.3859,"is_reserved":false,"is_disabled":false,"rental_uris":{"android":"levelo://app?vid=ceaea5ee-dd41-48e4-814a-8b7b7ef4061a","ios":"levelo://app?vid=ceaea5ee-dd41-48e4-814a-8b7b7ef4061a"},"vehicle_type_id":"4","last_reported":1729098501,"current_range_meters":17600,"station_id":"","pricing_plan_id":"cebpf4jnsgd1na2vs0mg"},{"bike_id":"d3467a9d-2862-4feb-8b5f-0e193ef55dc7","system_id":"levelo_inurba_marseille","lat":43.27567,"lon":5.38421,"is_reserved":false,"is_disabled":false,"rental_uris":{"android":"levelo://app?vid=d3467a9d-2862-4feb-8b5f-0e193ef55dc7","ios":"levelo://app?vid=d3467a9d-2862-4feb-8b5f-0e193ef55dc7"},"vehicle_type_id":"4","last_reported":1729098501,"current_range_meters":16000,"station_id":"ce4bhh92rcd13ifvqfi0","pricing_plan_id":"cebpf4jnsgd1na2vs0mg"},{"bike_id":"8038d01f-c58f-4a12-bd46-a4eb796ca74c","system_id":"levelo_inurba_marseille","lat":43.29408,"lon":5.38627,"is_reserved":false,"is_disabled":false,"rental_uris":{"android":"levelo://app?vid=8038d01f-c58f-4a12-bd46-a4eb796ca74c","ios":"levelo://app?vid=8038d01f-c58f-4a12-bd46-a4eb796ca74c"},"vehicle_type_id":"4","last_reported":1729098501,"current_range_meters":37600,"station_id":"ce4bh2h2rcd13ifvqdh0","pricing_plan_id":"cebpf4jnsgd1na2vs0mg"},{"bike_id":"f94da947-b1a0-40ed-8143-ed5ebffc5c44","system_id":"levelo_inurba_marseille","lat":43.27954,"lon":5.41061,"is_reserved":false,"is_disabled":false,"rental_uris":{"android":"levelo://app?vid=f94da947-b1a0-40ed-8143-ed5ebffc5c44","ios":"levelo://app?vid=f94da947-b1a0-40ed-8143-ed5ebffc5c44"},"vehicle_type_id":"4","last_reported":1729098501,"current_range_meters":34800,"station_id":"ce4bhnp2rcd13ifvqh0g","pricing_plan_id":"cebpf4jnsgd1na2vs0mg"},{"bike_id":"25cf7895-ad5f-4d57-bd98-746fc95feba5","system_id":"levelo_inurba_marseille","lat":43.29523,"lon":5.38541,"is_reserved":false,"is_disabled":false,"rental_uris":{"android":"levelo://app?vid=25cf7895-ad5f-4d57-bd98-746fc95feba5","ios":"levelo://app?vid=25cf7895-ad5f-4d57-bd98-746fc95feba5"},"vehicle_type_id":"4","last_reported":1729098501,"current_range_meters":6000,"station_id":"ce4bgih2rcd13ifvqba0","pricing_plan_id":"cebpf4jnsgd1na2vs0mg"},{"bike_id":"23bbd8c7-4121-462b-a213-e58b0d766921","system_id":"levelo_inurba_marseille","lat":43.290237,"lon":5.381395,"is_reserved":false,"is_disabled":false,"rental_uris":{"android":"levelo://app?vid=23bbd8c7-4121-462b-a213-e58b0d766921","ios":"levelo://app?vid=23bbd8c7-4121-462b-a213-e58b0d766921"},"vehicle_type_id":"4","last_reported":1729098501,"current_range_meters":38400,"station_id":"ce4bh4p2rcd13ifvqe1g","pricing_plan_id":"cebpf4jnsgd1na2vs0mg"},{"bike_id":"bc9ec40f-3bdb-4f6d-af8f-2299c355d458","system_id":"levelo_inurba_marseille","lat":43.30905,"lon":5.36838,"is_reserved":false,"is_disabled":false,"rental_uris":{"android":"levelo://app?vid=bc9ec40f-3bdb-4f6d-af8f-2299c355d458","ios":"levelo://app?vid=bc9ec40f-3bdb-4f6d-af8f-2299c355d458"},"vehicle_type_id":"4","last_reported":1729098501,"current_range_meters":38800,"station_id":"ce4bgn92rcd13ifvqbvg","pricing_plan_id":"cebpf4jnsgd1na2vs0mg"},{"bike_id":"ecea5373-73aa-47a0-b41d-f69c32da8ec2","system_id":"levelo_inurba_marseille","lat":43.23062,"lon":5.35506,"is_reserved":false,"is_disabled":false,"rental_uris":{"android":"levelo://app?vid=ecea5373-73aa-47a0-b41d-f69c32da8ec2","ios":"levelo://app?vid=ecea5373-73aa-47a0-b41d-f69c32da8ec2"},"vehicle_type_id":"4","last_reported":1729098501,"current_range_meters":10800,"station_id":"cpo3342slgdg3j2ifvpg","pricing_plan_id":"cebpf4jnsgd1na2vs0mg"},{"bike_id":"95cf7d5e-c016-484e-968d-618ef24921cc","system_id":"levelo_inurba_marseille","lat":43.31084,"lon":5.42435,"is_reserved":false,"is_disabled":false,"rental_uris":{"android":"levelo://app?vid=95cf7d5e-c016-484e-968d-618ef24921cc","ios":"levelo://app?vid=95cf7d5e-c016-484e-968d-618ef24921cc"},"vehicle_type_id":"4","last_reported":1729098501,"current_range_meters":27600,"station_id":"ce4bhp92rcd13ifvqhag","pricing_plan_id":"cebpf4jnsgd1na2vs0mg"},{"bike_id":"50eb0b23-8630-445d-aee9-9bf62f363d17","system_id":"levelo_inurba_marseille","lat":43.29045,"lon":5.35933,"is_reserved":false,"is_disabled":false,"rental_uris":{"android":"levelo://app?vid=50eb0b23-8630-445d-aee9-9bf62f363d17","ios":"levelo://app?vid=50eb0b23-8630-445d-aee9-9bf62f363d17"},"vehicle_type_id":"4","last_reported":1729098501,"current_range_meters":38400,"station_id":"ce4bha92rcd13ifvqeg0","pricing_plan_id":"cebpf4jnsgd1na2vs0mg"},{"bike_id":"1afcaa23-ff08-433e-ad50-217c7784aa69","system_id":"levelo_inurba_marseille","lat":43.2668,"lon":5.38272,"is_reserved":false,"is_disabled":false,"rental_uris":{"android":"levelo://app?vid=1afcaa23-ff08-433e-ad50-217c7784aa69","ios":"levelo://app?vid=1afcaa23-ff08-433e-ad50-217c7784aa69"},"vehicle_type_id":"4","last_reported":1729098501,"current_range_meters":28800,"station_id":"ce4bhg92rcd13ifvqf90","pricing_plan_id":"cebpf4jnsgd1na2vs0mg"},{"bike_id":"f269126c-1b0b-4a1a-a1d6-f8c3716f5336","system_id":"levelo_inurba_marseille","lat":43.23193,"lon":5.35557,"is_reserved":false,"is_disabled":false,"rental_uris":{"android":"levelo://app?vid=f269126c-1b0b-4a1a-a1d6-f8c3716f5336","ios":"levelo://app?vid=f269126c-1b0b-4a1a-a1d6-f8c3716f5336"},"vehicle_type_id":"4","last_reported":1729098501,"current_range_meters":27600,"station_id":"ce4bhu92rcd13ifvqi70","pricing_plan_id":"cebpf4jnsgd1na2vs0mg"},{"bike_id":"1fc04269-2124-4827-af8c-d70ad1e00445","system_id":"levelo_inurba_marseille","lat":43.295279,"lon":5.385385,"is_reserved":false,"is_disabled":false,"rental_uris":{"android":"levelo://app?vid=1fc04269-2124-4827-af8c-d70ad1e00445","ios":"levelo://app?vid=1fc04269-2124-4827-af8c-d70ad1e00445"},"vehicle_type_id":"4","last_reported":1729098501,"current_range_meters":15200,"station_id":"ce4bgih2rcd13ifvqba0","pricing_plan_id":"cebpf4jnsgd1na2vs0mg"},{"bike_id":"80ab5c2d-214c-4f96-9b47-2d1cea22fa8b","system_id":"levelo_inurba_marseille","lat":43.31072,"lon":5.38355,"is_reserved":false,"is_disabled":false,"rental_uris":{"android":"levelo://app?vid=80ab5c2d-214c-4f96-9b47-2d1cea22fa8b","ios":"levelo://app?vid=80ab5c2d-214c-4f96-9b47-2d1cea22fa8b"},"vehicle_type_id":"4","last_reported":1729098501,"current_range_meters":18000,"station_id":"ce4bgv92rcd13ifvqcr0","pricing_plan_id":"cebpf4jnsgd1na2vs0mg"},{"bike_id":"72c001dc-f8cb-4e89-8bca-6ebe874aab6b","system_id":"levelo_inurba_marseille","lat":43.31265,"lon":5.40182,"is_reserved":false,"is_disabled":false,"rental_uris":{"android":"levelo://app?vid=72c001dc-f8cb-4e89-8bca-6ebe874aab6b","ios":"levelo://app?vid=72c001dc-f8cb-4e89-8bca-6ebe874aab6b"},"vehicle_type_id":"4","last_reported":1729098501,"current_range_meters":34800,"station_id":"ce4bh092rcd13ifvqd30","pricing_plan_id":"cebpf4jnsgd1na2vs0mg"},{"bike_id":"a878a058-24a3-4977-82a3-8817dfe35868","system_id":"levelo_inurba_marseille","lat":43.27177,"lon":5.40992,"is_reserved":false,"is_disabled":false,"rental_uris":{"android":"levelo://app?vid=a878a058-24a3-4977-82a3-8817dfe35868","ios":"levelo://app?vid=a878a058-24a3-4977-82a3-8817dfe35868"},"vehicle_type_id":"4","last_reported":1729098501,"current_range_meters":28000,"station_id":"ce4bhl12rcd13ifvqgf0","pricing_plan_id":"cebpf4jnsgd1na2vs0mg"},{"bike_id":"94d48054-be54-488d-a425-2deb433f452c","system_id":"levelo_inurba_marseille","lat":43.29809,"lon":5.36444,"is_reserved":false,"is_disabled":false,"rental_uris":{"android":"levelo://app?vid=94d48054-be54-488d-a425-2deb433f452c","ios":"levelo://app?vid=94d48054-be54-488d-a425-2deb433f452c"},"vehicle_type_id":"4","last_reported":1729098501,"current_range_meters":17600,"station_id":"ce4bgnh2rcd13ifvqc0g","pricing_plan_id":"cebpf4jnsgd1na2vs0mg"},{"bike_id":"495595cc-1ab2-4af7-8aa7-1dbc92014841","system_id":"levelo_inurba_marseille","lat":43.29219,"lon":5.36055,"is_reserved":false,"is_disabled":false,"rental_uris":{"android":"levelo://app?vid=495595cc-1ab2-4af7-8aa7-1dbc92014841","ios":"levelo://app?vid=495595cc-1ab2-4af7-8aa7-1dbc92014841"},"vehicle_type_id":"4","last_reported":1729098501,"current_range_meters":36000,"station_id":"ce4bhbh2rcd13ifvqeqg","pricing_plan_id":"cebpf4jnsgd1na2vs0mg"},{"bike_id":"70b096d8-6a93-4281-b2bb-f41f94d979fc","system_id":"levelo_inurba_marseille","lat":43.23189,"lon":5.3998,"is_reserved":false,"is_disabled":false,"rental_uris":{"android":"levelo://app?vid=70b096d8-6a93-4281-b2bb-f41f94d979fc","ios":"levelo://app?vid=70b096d8-6a93-4281-b2bb-f41f94d979fc"},"vehicle_type_id":"4","last_reported":1729098501,"current_range_meters":23200,"station_id":"ce4bhn12rcd13ifvqgqg","pricing_plan_id":"cebpf4jnsgd1na2vs0mg"},{"bike_id":"17b08801-6aa7-44bb-b7eb-a6d3609e4fa3","system_id":"levelo_inurba_marseille","lat":43.26497,"lon":5.39544,"is_reserved":false,"is_disabled":false,"rental_uris":{"android":"levelo://app?vid=17b08801-6aa7-44bb-b7eb-a6d3609e4fa3","ios":"levelo://app?vid=17b08801-6aa7-44bb-b7eb-a6d3609e4fa3"},"vehicle_type_id":"4","last_reported":1729098501,"current_range_meters":9200,"station_id":"ce4bhi12rcd13ifvqfq0","pricing_plan_id":"cebpf4jnsgd1na2vs0mg"},{"bike_id":"fe168f81-921d-4c20-80fc-bf77cbed0da6","system_id":"levelo_inurba_marseille","lat":43.31361,"lon":5.38495,"is_reserved":false,"is_disabled":false,"rental_uris":{"android":"levelo://app?vid=fe168f81-921d-4c20-80fc-bf77cbed0da6","ios":"levelo://app?vid=fe168f81-921d-4c20-80fc-bf77cbed0da6"},"vehicle_type_id":"4","last_reported":1729098501,"current_range_meters":8000,"station_id":"ce4bgt92rcd13ifvqcf0","pricing_plan_id":"cebpf4jnsgd1na2vs0mg"},{"bike_id":"a5efbc90-758b-438f-9075-cc6a7f2e68d5","system_id":"levelo_inurba_marseille","lat":43.31998,"lon":5.38157,"is_reserved":false,"is_disabled":false,"rental_uris":{"android":"levelo://app?vid=a5efbc90-758b-438f-9075-cc6a7f2e68d5","ios":"levelo://app?vid=a5efbc90-758b-438f-9075-cc6a7f2e68d5"},"vehicle_type_id":"4","last_reported":1729098501,"current_range_meters":9200,"station_id":"ce4bhr12rcd13ifvqhpg","pricing_plan_id":"cebpf4jnsgd1na2vs0mg"},{"bike_id":"56505b5b-6d5e-4288-8670-5e0c4766d23a","system_id":"levelo_inurba_marseille","lat":43.24659,"lon":5.38167,"is_reserved":false,"is_disabled":false,"rental_uris":{"android":"levelo://app?vid=56505b5b-6d5e-4288-8670-5e0c4766d23a","ios":"levelo://app?vid=56505b5b-6d5e-4288-8670-5e0c4766d23a"},"vehicle_type_id":"4","last_reported":1729098501,"current_range_meters":21600,"station_id":"ce4bhih2rcd13ifvqfr0","pricing_plan_id":"cebpf4jnsgd1na2vs0mg"},{"bike_id":"fdfc9c2a-1e91-4a53-8899-81e06f52ad31","system_id":"levelo_inurba_marseille","lat":43.25717,"lon":5.41115,"is_reserved":false,"is_disabled":false,"rental_uris":{"android":"levelo://app?vid=fdfc9c2a-1e91-4a53-8899-81e06f52ad31","ios":"levelo://app?vid=fdfc9c2a-1e91-4a53-8899-81e06f52ad31"},"vehicle_type_id":"4","last_reported":1729098501,"current_range_meters":32000,"station_id":"ce4bhkp2rcd13ifvqgd0","pricing_plan_id":"cebpf4jnsgd1na2vs0mg"},{"bike_id":"dce6d149-b5e0-4523-bbf6-d7a5d3370be8","system_id":"levelo_inurba_marseille","lat":43.24643,"lon":5.389,"is_reserved":false,"is_disabled":false,"rental_uris":{"android":"levelo://app?vid=dce6d149-b5e0-4523-bbf6-d7a5d3370be8","ios":"levelo://app?vid=dce6d149-b5e0-4523-bbf6-d7a5d3370be8"},"vehicle_type_id":"4","last_reported":1729098501,"current_range_meters":38800,"station_id":"ce4bhg12rcd13ifvqf60","pricing_plan_id":"cebpf4jnsgd1na2vs0mg"},{"bike_id":"78edfcf8-71ff-40ca-96e0-80eb9529e10b","system_id":"levelo_inurba_marseille","lat":43.26936,"lon":5.40251,"is_reserved":false,"is_disabled":false,"rental_uris":{"android":"levelo://app?vid=78edfcf8-71ff-40ca-96e0-80eb9529e10b","ios":"levelo://app?vid=78edfcf8-71ff-40ca-96e0-80eb9529e10b"},"vehicle_type_id":"4","last_reported":1729098501,"current_range_meters":9200,"station_id":"cjm6bp8fraef2m0cb0m0","pricing_plan_id":"cebpf4jnsgd1na2vs0mg"},{"bike_id":"c731be96-ba3e-4633-a108-81d0a9fb426b","system_id":"levelo_inurba_marseille","lat":43.24084,"lon":5.37751,"is_reserved":false,"is_disabled":false,"rental_uris":{"android":"levelo://app?vid=c731be96-ba3e-4633-a108-81d0a9fb426b","ios":"levelo://app?vid=c731be96-ba3e-4633-a108-81d0a9fb426b"},"vehicle_type_id":"4","last_reported":1729098501,"current_range_meters":20400,"station_id":"ce4bhnp2rcd13ifvqgvg","pricing_plan_id":"cebpf4jnsgd1na2vs0mg"},{"bike_id":"ce7bfecb-ec11-46ee-9696-e7506e8a4b59","system_id":"levelo_inurba_marseille","lat":43.29798,"lon":5.40411,"is_reserved":false,"is_disabled":false,"rental_uris":{"android":"levelo://app?vid=ce7bfecb-ec11-46ee-9696-e7506e8a4b59","ios":"levelo://app?vid=ce7bfecb-ec11-46ee-9696-e7506e8a4b59"},"vehicle_type_id":"4","last_reported":1729098501,"current_range_meters":38800,"station_id":"ce4bh112rcd13ifvqd90","pricing_plan_id":"cebpf4jnsgd1na2vs0mg"},{"bike_id":"41753d3a-bc58-4a0f-a988-44b9c1af3e5f","system_id":"levelo_inurba_marseille","lat":43.30207,"lon":5.37608,"is_reserved":false,"is_disabled":false,"rental_uris":{"android":"levelo://app?vid=41753d3a-bc58-4a0f-a988-44b9c1af3e5f","ios":"levelo://app?vid=41753d3a-bc58-4a0f-a988-44b9c1af3e5f"},"vehicle_type_id":"4","last_reported":1729098501,"current_range_meters":26000,"station_id":"ce4bguh2rcd13ifvqcj0","pricing_plan_id":"cebpf4jnsgd1na2vs0mg"},{"bike_id":"c7d93c11-0ee4-431b-b74d-71765c44b40e","system_id":"levelo_inurba_marseille","lat":43.27815,"lon":5.4071,"is_reserved":false,"is_disabled":false,"rental_uris":{"android":"levelo://app?vid=c7d93c11-0ee4-431b-b74d-71765c44b40e","ios":"levelo://app?vid=c7d93c11-0ee4-431b-b74d-71765c44b40e"},"vehicle_type_id":"4","last_reported":1729098501,"current_range_meters":33600,"station_id":"ce4bhnh2rcd13ifvqgtg","pricing_plan_id":"cebpf4jnsgd1na2vs0mg"},{"bike_id":"204c0939-f36e-43c0-9407-2e33f7e1e488","system_id":"levelo_inurba_marseille","lat":43.24659,"lon":5.38165,"is_reserved":false,"is_disabled":false,"rental_uris":{"android":"levelo://app?vid=204c0939-f36e-43c0-9407-2e33f7e1e488","ios":"levelo://app?vid=204c0939-f36e-43c0-9407-2e33f7e1e488"},"vehicle_type_id":"4","last_reported":1729098501,"current_range_meters":24000,"station_id":"ce4bhih2rcd13ifvqfr0","pricing_plan_id":"cebpf4jnsgd1na2vs0mg"},{"bike_id":"1ca47804-9d0f-4688-89ed-f603ecc5bc06","system_id":"levelo_inurba_marseille","lat":43.30313,"lon":5.40439,"is_reserved":false,"is_disabled":false,"rental_uris":{"android":"levelo://app?vid=1ca47804-9d0f-4688-89ed-f603ecc5bc06","ios":"levelo://app?vid=1ca47804-9d0f-4688-89ed-f603ecc5bc06"},"vehicle_type_id":"4","last_reported":1729098501,"current_range_meters":7200,"station_id":"ce4bh012rcd13ifvqd10","pricing_plan_id":"cebpf4jnsgd1na2vs0mg"},{"bike_id":"ecd27a97-3bb0-4b16-bfd9-d023c951edb8","system_id":"levelo_inurba_marseille","lat":43.30538,"lon":5.3843,"is_reserved":false,"is_disabled":false,"rental_uris":{"android":"levelo://app?vid=ecd27a97-3bb0-4b16-bfd9-d023c951edb8","ios":"levelo://app?vid=ecd27a97-3bb0-4b16-bfd9-d023c951edb8"},"vehicle_type_id":"4","last_reported":1729098501,"current_range_meters":2800,"station_id":"ce4bgg92rcd13ifvqb30","pricing_plan_id":"cebpf4jnsgd1na2vs0mg"},{"bike_id":"1bbfe2cc-747e-4e71-a028-24a597724f1e","system_id":"levelo_inurba_marseille","lat":43.27829,"lon":5.39199,"is_reserved":false,"is_disabled":false,"rental_uris":{"android":"levelo://app?vid=1bbfe2cc-747e-4e71-a028-24a597724f1e","ios":"levelo://app?vid=1bbfe2cc-747e-4e71-a028-24a597724f1e"},"vehicle_type_id":"4","last_reported":1729098501,"current_range_meters":10800,"station_id":"ce4bhjp2rcd13ifvqga0","pricing_plan_id":"cebpf4jnsgd1na2vs0mg"},{"bike_id":"734b272a-9e77-4e08-88a5-dc1d5f8e750d","system_id":"levelo_inurba_marseille","lat":43.29531,"lon":5.38543,"is_reserved":false,"is_disabled":false,"rental_uris":{"android":"levelo://app?vid=734b272a-9e77-4e08-88a5-dc1d5f8e750d","ios":"levelo://app?vid=734b272a-9e77-4e08-88a5-dc1d5f8e750d"},"vehicle_type_id":"4","last_reported":1729098501,"current_range_meters":18800,"station_id":"ce4bgih2rcd13ifvqba0","pricing_plan_id":"cebpf4jnsgd1na2vs0mg"},{"bike_id":"68d4c5b1-9dd7-40b8-95ce-ccda46c890bb","system_id":"levelo_inurba_marseille","lat":43.30796,"lon":5.4353,"is_reserved":false,"is_disabled":false,"rental_uris":{"android":"levelo://app?vid=68d4c5b1-9dd7-40b8-95ce-ccda46c890bb","ios":"levelo://app?vid=68d4c5b1-9dd7-40b8-95ce-ccda46c890bb"},"vehicle_type_id":"4","last_reported":1729098501,"current_range_meters":39200,"station_id":"ce4bhph2rcd13ifvqheg","pricing_plan_id":"cebpf4jnsgd1na2vs0mg"},{"bike_id":"2df39fdb-dc3f-42e1-9bff-2f8bef6bac88","system_id":"levelo_inurba_marseille","lat":43.29034,"lon":5.37556,"is_reserved":false,"is_disabled":false,"rental_uris":{"android":"levelo://app?vid=2df39fdb-dc3f-42e1-9bff-2f8bef6bac88","ios":"levelo://app?vid=2df39fdb-dc3f-42e1-9bff-2f8bef6bac88"},"vehicle_type_id":"4","last_reported":1729098501,"current_range_meters":36000,"station_id":"ce4bh692rcd13ifvqe90","pricing_plan_id":"cebpf4jnsgd1na2vs0mg"},{"bike_id":"c2f7d42c-aa04-4730-a414-1c5788b3dba9","system_id":"levelo_inurba_marseille","lat":43.31752,"lon":5.39021,"is_reserved":false,"is_disabled":false,"rental_uris":{"android":"levelo://app?vid=c2f7d42c-aa04-4730-a414-1c5788b3dba9","ios":"levelo://app?vid=c2f7d42c-aa04-4730-a414-1c5788b3dba9"},"vehicle_type_id":"4","last_reported":1729098501,"current_range_meters":29600,"station_id":"ce4bhqp2rcd13ifvqhng","pricing_plan_id":"cebpf4jnsgd1na2vs0mg"},{"bike_id":"cc8a2cd5-5e7b-4740-82b3-c55a50be8608","system_id":"levelo_inurba_marseille","lat":43.27578,"lon":5.38417,"is_reserved":false,"is_disabled":false,"rental_uris":{"android":"levelo://app?vid=cc8a2cd5-5e7b-4740-82b3-c55a50be8608","ios":"levelo://app?vid=cc8a2cd5-5e7b-4740-82b3-c55a50be8608"},"vehicle_type_id":"4","last_reported":1729098501,"current_range_meters":32800,"station_id":"ce4bhh92rcd13ifvqfi0","pricing_plan_id":"cebpf4jnsgd1na2vs0mg"},{"bike_id":"2b74ceba-3227-4b20-ad4f-4ff9496c872b","system_id":"levelo_inurba_marseille","lat":43.24079,"lon":5.37754,"is_reserved":false,"is_disabled":false,"rental_uris":{"android":"levelo://app?vid=2b74ceba-3227-4b20-ad4f-4ff9496c872b","ios":"levelo://app?vid=2b74ceba-3227-4b20-ad4f-4ff9496c872b"},"vehicle_type_id":"4","last_reported":1729098501,"current_range_meters":32800,"station_id":"ce4bhnp2rcd13ifvqgvg","pricing_plan_id":"cebpf4jnsgd1na2vs0mg"},{"bike_id":"681b2f09-f54c-4e81-bc4d-9685057315ed","system_id":"levelo_inurba_marseille","lat":43.29264,"lon":5.40901,"is_reserved":false,"is_disabled":false,"rental_uris":{"android":"levelo://app?vid=681b2f09-f54c-4e81-bc4d-9685057315ed","ios":"levelo://app?vid=681b2f09-f54c-4e81-bc4d-9685057315ed"},"vehicle_type_id":"4","last_reported":1729098501,"current_range_meters":16800,"station_id":"ce4bh192rcd13ifvqdc0","pricing_plan_id":"cebpf4jnsgd1na2vs0mg"},{"bike_id":"bae25ded-27a9-4fa8-92e1-8e7b6d62c848","system_id":"levelo_inurba_marseille","lat":43.26939,"lon":5.40255,"is_reserved":false,"is_disabled":false,"rental_uris":{"android":"levelo://app?vid=bae25ded-27a9-4fa8-92e1-8e7b6d62c848","ios":"levelo://app?vid=bae25ded-27a9-4fa8-92e1-8e7b6d62c848"},"vehicle_type_id":"4","last_reported":1729098501,"current_range_meters":9600,"station_id":"cjm6bp8fraef2m0cb0m0","pricing_plan_id":"cebpf4jnsgd1na2vs0mg"},{"bike_id":"a1e0278e-920e-4eea-a381-891331e8e403","system_id":"levelo_inurba_marseille","lat":43.23195,"lon":5.35546,"is_reserved":false,"is_disabled":false,"rental_uris":{"android":"levelo://app?vid=a1e0278e-920e-4eea-a381-891331e8e403","ios":"levelo://app?vid=a1e0278e-920e-4eea-a381-891331e8e403"},"vehicle_type_id":"4","last_reported":1729098501,"current_range_meters":36400,"station_id":"ce4bhu92rcd13ifvqi70","pricing_plan_id":"cebpf4jnsgd1na2vs0mg"},{"bike_id":"9f86f185-b5d2-4f9d-bdae-18f461e62973","system_id":"levelo_inurba_marseille","lat":43.276666,"lon":5.388768,"is_reserved":false,"is_disabled":false,"rental_uris":{"android":"levelo://app?vid=9f86f185-b5d2-4f9d-bdae-18f461e62973","ios":"levelo://app?vid=9f86f185-b5d2-4f9d-bdae-18f461e62973"},"vehicle_type_id":"4","last_reported":1729098501,"current_range_meters":6800,"station_id":"ce4bhi12rcd13ifvqfo0","pricing_plan_id":"cebpf4jnsgd1na2vs0mg"},{"bike_id":"6a9ab5e3-5d67-4a68-98cf-ec506f53575f","system_id":"levelo_inurba_marseille","lat":43.31491,"lon":5.37306,"is_reserved":false,"is_disabled":false,"rental_uris":{"android":"levelo://app?vid=6a9ab5e3-5d67-4a68-98cf-ec506f53575f","ios":"levelo://app?vid=6a9ab5e3-5d67-4a68-98cf-ec506f53575f"},"vehicle_type_id":"4","last_reported":1729098501,"current_range_meters":8400,"station_id":"ce4bgt12rcd13ifvqcd0","pricing_plan_id":"cebpf4jnsgd1na2vs0mg"},{"bike_id":"c40ea89d-8c8c-435b-b921-87dde2981d9f","system_id":"levelo_inurba_marseille","lat":43.31715,"lon":5.42396,"is_reserved":false,"is_disabled":false,"rental_uris":{"android":"levelo://app?vid=c40ea89d-8c8c-435b-b921-87dde2981d9f","ios":"levelo://app?vid=c40ea89d-8c8c-435b-b921-87dde2981d9f"},"vehicle_type_id":"4","last_reported":1729098501,"current_range_meters":36000,"station_id":"ce4bhp92rcd13ifvqhbg","pricing_plan_id":"cebpf4jnsgd1na2vs0mg"},{"bike_id":"b029ff2b-63a8-4e0f-97de-b62205fc86b7","system_id":"levelo_inurba_marseille","lat":43.29423,"lon":5.3862,"is_reserved":false,"is_disabled":false,"rental_uris":{"android":"levelo://app?vid=b029ff2b-63a8-4e0f-97de-b62205fc86b7","ios":"levelo://app?vid=b029ff2b-63a8-4e0f-97de-b62205fc86b7"},"vehicle_type_id":"4","last_reported":1729098501,"current_range_meters":38800,"station_id":"ce4bh2h2rcd13ifvqdh0","pricing_plan_id":"cebpf4jnsgd1na2vs0mg"},{"bike_id":"05fcdc75-87a5-4393-8902-e432d817deaf","system_id":"levelo_inurba_marseille","lat":43.32366,"lon":5.38888,"is_reserved":false,"is_disabled":false,"rental_uris":{"android":"levelo://app?vid=05fcdc75-87a5-4393-8902-e432d817deaf","ios":"levelo://app?vid=05fcdc75-87a5-4393-8902-e432d817deaf"},"vehicle_type_id":"4","last_reported":1729098501,"current_range_meters":15200,"station_id":"ce4bhqp2rcd13ifvqhog","pricing_plan_id":"cebpf4jnsgd1na2vs0mg"},{"bike_id":"f823cd19-6d65-4c29-b02d-ff10b3d62326","system_id":"levelo_inurba_marseille","lat":43.24663,"lon":5.38165,"is_reserved":false,"is_disabled":false,"rental_uris":{"android":"levelo://app?vid=f823cd19-6d65-4c29-b02d-ff10b3d62326","ios":"levelo://app?vid=f823cd19-6d65-4c29-b02d-ff10b3d62326"},"vehicle_type_id":"4","last_reported":1729098501,"current_range_meters":12400,"station_id":"ce4bhih2rcd13ifvqfr0","pricing_plan_id":"cebpf4jnsgd1na2vs0mg"},{"bike_id":"c82917bd-7e96-4728-9a11-e074df94bd4f","system_id":"levelo_inurba_marseille","lat":43.28258,"lon":5.35076,"is_reserved":false,"is_disabled":false,"rental_uris":{"android":"levelo://app?vid=c82917bd-7e96-4728-9a11-e074df94bd4f","ios":"levelo://app?vid=c82917bd-7e96-4728-9a11-e074df94bd4f"},"vehicle_type_id":"4","last_reported":1729098501,"current_range_meters":30800,"station_id":"ce4bhbp2rcd13ifvqerg","pricing_plan_id":"cebpf4jnsgd1na2vs0mg"},{"bike_id":"aa93ae9d-e68b-4a05-b7e2-daeabc87ed1e","system_id":"levelo_inurba_marseille","lat":43.23191,"lon":5.35564,"is_reserved":false,"is_disabled":false,"rental_uris":{"android":"levelo://app?vid=aa93ae9d-e68b-4a05-b7e2-daeabc87ed1e","ios":"levelo://app?vid=aa93ae9d-e68b-4a05-b7e2-daeabc87ed1e"},"vehicle_type_id":"4","last_reported":1729098501,"current_range_meters":33200,"station_id":"ce4bhu92rcd13ifvqi70","pricing_plan_id":"cebpf4jnsgd1na2vs0mg"},{"bike_id":"efef93e1-5637-4be5-8bce-1975603485a0","system_id":"levelo_inurba_marseille","lat":43.26926,"lon":5.38921,"is_reserved":false,"is_disabled":false,"rental_uris":{"android":"levelo://app?vid=efef93e1-5637-4be5-8bce-1975603485a0","ios":"levelo://app?vid=efef93e1-5637-4be5-8bce-1975603485a0"},"vehicle_type_id":"4","last_reported":1729098501,"current_range_meters":24000,"station_id":"ce4bhhh2rcd13ifvqfl0","pricing_plan_id":"cebpf4jnsgd1na2vs0mg"},{"bike_id":"45c1f865-5acf-457d-b820-59564426be21","system_id":"levelo_inurba_marseille","lat":43.23066,"lon":5.35494,"is_reserved":false,"is_disabled":false,"rental_uris":{"android":"levelo://app?vid=45c1f865-5acf-457d-b820-59564426be21","ios":"levelo://app?vid=45c1f865-5acf-457d-b820-59564426be21"},"vehicle_type_id":"4","last_reported":1729098501,"current_range_meters":10000,"station_id":"cpo3342slgdg3j2ifvpg","pricing_plan_id":"cebpf4jnsgd1na2vs0mg"},{"bike_id":"0b98ca31-4b21-451a-b65c-8b8a4138bed8","system_id":"levelo_inurba_marseille","lat":43.24662,"lon":5.3816,"is_reserved":false,"is_disabled":false,"rental_uris":{"android":"levelo://app?vid=0b98ca31-4b21-451a-b65c-8b8a4138bed8","ios":"levelo://app?vid=0b98ca31-4b21-451a-b65c-8b8a4138bed8"},"vehicle_type_id":"4","last_reported":1729098501,"current_range_meters":4800,"station_id":"ce4bhih2rcd13ifvqfr0","pricing_plan_id":"cebpf4jnsgd1na2vs0mg"},{"bike_id":"53a28a37-0d78-4521-9e24-74b9ee22fc60","system_id":"levelo_inurba_marseille","lat":43.30808,"lon":5.37648,"is_reserved":false,"is_disabled":false,"rental_uris":{"android":"levelo://app?vid=53a28a37-0d78-4521-9e24-74b9ee22fc60","ios":"levelo://app?vid=53a28a37-0d78-4521-9e24-74b9ee22fc60"},"vehicle_type_id":"4","last_reported":1729098501,"current_range_meters":3600,"station_id":"ce4bgv92rcd13ifvqcq0","pricing_plan_id":"cebpf4jnsgd1na2vs0mg"},{"bike_id":"a5192bee-c7b0-4c65-bea7-0c9558e86194","system_id":"levelo_inurba_marseille","lat":43.30931,"lon":5.4015,"is_reserved":false,"is_disabled":false,"rental_uris":{"android":"levelo://app?vid=a5192bee-c7b0-4c65-bea7-0c9558e86194","ios":"levelo://app?vid=a5192bee-c7b0-4c65-bea7-0c9558e86194"},"vehicle_type_id":"4","last_reported":1729098501,"current_range_meters":3600,"station_id":"ce4bgvp2rcd13ifvqct0","pricing_plan_id":"cebpf4jnsgd1na2vs0mg"},{"bike_id":"3318f217-a483-4bec-b592-3c64e60bdf04","system_id":"levelo_inurba_marseille","lat":43.28974,"lon":5.37838,"is_reserved":false,"is_disabled":false,"rental_uris":{"android":"levelo://app?vid=3318f217-a483-4bec-b592-3c64e60bdf04","ios":"levelo://app?vid=3318f217-a483-4bec-b592-3c64e60bdf04"},"vehicle_type_id":"4","last_reported":1729098501,"current_range_meters":25200,"station_id":"ce4bh9p2rcd13ifvqed0","pricing_plan_id":"cebpf4jnsgd1na2vs0mg"},{"bike_id":"961b1daa-56a5-4117-bceb-f51557fddbef","system_id":"levelo_inurba_marseille","lat":43.23963,"lon":5.3663,"is_reserved":false,"is_disabled":false,"rental_uris":{"android":"levelo://app?vid=961b1daa-56a5-4117-bceb-f51557fddbef","ios":"levelo://app?vid=961b1daa-56a5-4117-bceb-f51557fddbef"},"vehicle_type_id":"4","last_reported":1729098501,"current_range_meters":19600,"station_id":"ce4bhi12rcd13ifvqfp0","pricing_plan_id":"cebpf4jnsgd1na2vs0mg"},{"bike_id":"fb77501e-25a8-4556-9be2-21ebeb2215bf","system_id":"levelo_inurba_marseille","lat":43.33027,"lon":5.3904,"is_reserved":false,"is_disabled":false,"rental_uris":{"android":"levelo://app?vid=fb77501e-25a8-4556-9be2-21ebeb2215bf","ios":"levelo://app?vid=fb77501e-25a8-4556-9be2-21ebeb2215bf"},"vehicle_type_id":"4","last_reported":1729098501,"current_range_meters":24800,"station_id":"ce4bhr92rcd13ifvqhrg","pricing_plan_id":"cebpf4jnsgd1na2vs0mg"},{"bike_id":"a1be10d9-0dd2-4a98-b610-6d99b64d3c1a","system_id":"levelo_inurba_marseille","lat":43.29422,"lon":5.38629,"is_reserved":false,"is_disabled":false,"rental_uris":{"android":"levelo://app?vid=a1be10d9-0dd2-4a98-b610-6d99b64d3c1a","ios":"levelo://app?vid=a1be10d9-0dd2-4a98-b610-6d99b64d3c1a"},"vehicle_type_id":"4","last_reported":1729098501,"current_range_meters":38800,"station_id":"ce4bh2h2rcd13ifvqdh0","pricing_plan_id":"cebpf4jnsgd1na2vs0mg"},{"bike_id":"7acde2c6-ef28-4eb2-8c80-e85fc099eb88","system_id":"levelo_inurba_marseille","lat":43.29419,"lon":5.38626,"is_reserved":false,"is_disabled":false,"rental_uris":{"android":"levelo://app?vid=7acde2c6-ef28-4eb2-8c80-e85fc099eb88","ios":"levelo://app?vid=7acde2c6-ef28-4eb2-8c80-e85fc099eb88"},"vehicle_type_id":"4","last_reported":1729098501,"current_range_meters":6000,"station_id":"ce4bh2h2rcd13ifvqdh0","pricing_plan_id":"cebpf4jnsgd1na2vs0mg"},{"bike_id":"4eefa1ec-0d89-406a-9ba6-ab04341864b0","system_id":"levelo_inurba_marseille","lat":43.23192,"lon":5.3555,"is_reserved":false,"is_disabled":false,"rental_uris":{"android":"levelo://app?vid=4eefa1ec-0d89-406a-9ba6-ab04341864b0","ios":"levelo://app?vid=4eefa1ec-0d89-406a-9ba6-ab04341864b0"},"vehicle_type_id":"4","last_reported":1729098501,"current_range_meters":40000,"station_id":"ce4bhu92rcd13ifvqi70","pricing_plan_id":"cebpf4jnsgd1na2vs0mg"},{"bike_id":"7e67084c-cdbd-46ea-995d-a753fc6741ff","system_id":"levelo_inurba_marseille","lat":43.30648,"lon":5.401,"is_reserved":false,"is_disabled":false,"rental_uris":{"android":"levelo://app?vid=7e67084c-cdbd-46ea-995d-a753fc6741ff","ios":"levelo://app?vid=7e67084c-cdbd-46ea-995d-a753fc6741ff"},"vehicle_type_id":"4","last_reported":1729098501,"current_range_meters":13600,"station_id":"ce4bh112rcd13ifvqda0","pricing_plan_id":"cebpf4jnsgd1na2vs0mg"},{"bike_id":"9277531d-dfd2-44cd-a688-ca3f7088f9d0","system_id":"levelo_inurba_marseille","lat":43.22937,"lon":5.35382,"is_reserved":false,"is_disabled":false,"rental_uris":{"android":"levelo://app?vid=9277531d-dfd2-44cd-a688-ca3f7088f9d0","ios":"levelo://app?vid=9277531d-dfd2-44cd-a688-ca3f7088f9d0"},"vehicle_type_id":"4","last_reported":1729098501,"current_range_meters":38800,"station_id":"cpo3532slgdg3j2ikp40","pricing_plan_id":"cebpf4jnsgd1na2vs0mg"},{"bike_id":"46af72d6-73dd-414c-835b-df98f9cd3ba9","system_id":"levelo_inurba_marseille","lat":43.2509,"lon":5.39518,"is_reserved":false,"is_disabled":false,"rental_uris":{"android":"levelo://app?vid=46af72d6-73dd-414c-835b-df98f9cd3ba9","ios":"levelo://app?vid=46af72d6-73dd-414c-835b-df98f9cd3ba9"},"vehicle_type_id":"4","last_reported":1729098501,"current_range_meters":29600,"station_id":"ce4bhm12rcd13ifvqgkg","pricing_plan_id":"cebpf4jnsgd1na2vs0mg"},{"bike_id":"6979bede-44fd-4aa8-8089-7426961761da","system_id":"levelo_inurba_marseille","lat":43.29295,"lon":5.37437,"is_reserved":false,"is_disabled":false,"rental_uris":{"android":"levelo://app?vid=6979bede-44fd-4aa8-8089-7426961761da","ios":"levelo://app?vid=6979bede-44fd-4aa8-8089-7426961761da"},"vehicle_type_id":"4","last_reported":1729098501,"current_range_meters":22800,"station_id":"ce4bgi12rcd13ifvqb70","pricing_plan_id":"cebpf4jnsgd1na2vs0mg"},{"bike_id":"ebb9b9ae-9674-415e-9d75-2fbbee958fb2","system_id":"levelo_inurba_marseille","lat":43.31219,"lon":5.36862,"is_reserved":false,"is_disabled":false,"rental_uris":{"android":"levelo://app?vid=ebb9b9ae-9674-415e-9d75-2fbbee958fb2","ios":"levelo://app?vid=ebb9b9ae-9674-415e-9d75-2fbbee958fb2"},"vehicle_type_id":"4","last_reported":1729098501,"current_range_meters":14800,"station_id":"ce4bgl92rcd13ifvqbq0","pricing_plan_id":"cebpf4jnsgd1na2vs0mg"},{"bike_id":"d5791696-d8b6-4f74-b0b9-12f8f154dcb1","system_id":"levelo_inurba_marseille","lat":43.32352,"lon":5.38478,"is_reserved":false,"is_disabled":false,"rental_uris":{"android":"levelo://app?vid=d5791696-d8b6-4f74-b0b9-12f8f154dcb1","ios":"levelo://app?vid=d5791696-d8b6-4f74-b0b9-12f8f154dcb1"},"vehicle_type_id":"4","last_reported":1729098501,"current_range_meters":28000,"station_id":"","pricing_plan_id":"cebpf4jnsgd1na2vs0mg"},{"bike_id":"0b2cb814-94fa-49c0-b65f-cfcf3cbe5eca","system_id":"levelo_inurba_marseille","lat":43.23196,"lon":5.35558,"is_reserved":false,"is_disabled":false,"rental_uris":{"android":"levelo://app?vid=0b2cb814-94fa-49c0-b65f-cfcf3cbe5eca","ios":"levelo://app?vid=0b2cb814-94fa-49c0-b65f-cfcf3cbe5eca"},"vehicle_type_id":"4","last_reported":1729098501,"current_range_meters":36800,"station_id":"ce4bhu92rcd13ifvqi70","pricing_plan_id":"cebpf4jnsgd1na2vs0mg"},{"bike_id":"23c85012-a9fb-4cde-904e-7bdd92c9d2bf","system_id":"levelo_inurba_marseille","lat":43.24078,"lon":5.37759,"is_reserved":false,"is_disabled":false,"rental_uris":{"android":"levelo://app?vid=23c85012-a9fb-4cde-904e-7bdd92c9d2bf","ios":"levelo://app?vid=23c85012-a9fb-4cde-904e-7bdd92c9d2bf"},"vehicle_type_id":"4","last_reported":1729098501,"current_range_meters":14800,"station_id":"ce4bhnp2rcd13ifvqgvg","pricing_plan_id":"cebpf4jnsgd1na2vs0mg"},{"bike_id":"5fd6a741-ca16-411a-b8d0-9cb68a2209a5","system_id":"levelo_inurba_marseille","lat":43.29922,"lon":5.3745,"is_reserved":false,"is_disabled":false,"rental_uris":{"android":"levelo://app?vid=5fd6a741-ca16-411a-b8d0-9cb68a2209a5","ios":"levelo://app?vid=5fd6a741-ca16-411a-b8d0-9cb68a2209a5"},"vehicle_type_id":"4","last_reported":1729098501,"current_range_meters":35200,"station_id":"ce4bgjh2rcd13ifvqbg0","pricing_plan_id":"cebpf4jnsgd1na2vs0mg"},{"bike_id":"8fa17eba-7247-4a61-b21d-85ba45125ff4","system_id":"levelo_inurba_marseille","lat":43.32344,"lon":5.40626,"is_reserved":false,"is_disabled":false,"rental_uris":{"android":"levelo://app?vid=8fa17eba-7247-4a61-b21d-85ba45125ff4","ios":"levelo://app?vid=8fa17eba-7247-4a61-b21d-85ba45125ff4"},"vehicle_type_id":"4","last_reported":1729098501,"current_range_meters":18800,"station_id":"ce4bhq92rcd13ifvqhjg","pricing_plan_id":"cebpf4jnsgd1na2vs0mg"},{"bike_id":"25bb7208-168b-4eaa-84a8-8b313fb1e4de","system_id":"levelo_inurba_marseille","lat":43.31109,"lon":5.37777,"is_reserved":false,"is_disabled":false,"rental_uris":{"android":"levelo://app?vid=25bb7208-168b-4eaa-84a8-8b313fb1e4de","ios":"levelo://app?vid=25bb7208-168b-4eaa-84a8-8b313fb1e4de"},"vehicle_type_id":"4","last_reported":1729098501,"current_range_meters":20800,"station_id":"ce4bgt92rcd13ifvqcg0","pricing_plan_id":"cebpf4jnsgd1na2vs0mg"},{"bike_id":"315ddd75-4154-454d-8409-6ddcf5bef8fe","system_id":"levelo_inurba_marseille","lat":43.29421,"lon":5.38619,"is_reserved":false,"is_disabled":false,"rental_uris":{"android":"levelo://app?vid=315ddd75-4154-454d-8409-6ddcf5bef8fe","ios":"levelo://app?vid=315ddd75-4154-454d-8409-6ddcf5bef8fe"},"vehicle_type_id":"4","last_reported":1729098501,"current_range_meters":10800,"station_id":"ce4bh2h2rcd13ifvqdh0","pricing_plan_id":"cebpf4jnsgd1na2vs0mg"},{"bike_id":"d9a80021-b293-4614-9bbe-51c8787bccaf","system_id":"levelo_inurba_marseille","lat":43.2866,"lon":5.36366,"is_reserved":false,"is_disabled":false,"rental_uris":{"android":"levelo://app?vid=d9a80021-b293-4614-9bbe-51c8787bccaf","ios":"levelo://app?vid=d9a80021-b293-4614-9bbe-51c8787bccaf"},"vehicle_type_id":"4","last_reported":1729098501,"current_range_meters":26000,"station_id":"ce4bhah2rcd13ifvqej0","pricing_plan_id":"cebpf4jnsgd1na2vs0mg"},{"bike_id":"00f5828e-6f9f-4c56-a0fc-3f6ee52a5233","system_id":"levelo_inurba_marseille","lat":43.29262,"lon":5.40906,"is_reserved":false,"is_disabled":false,"rental_uris":{"android":"levelo://app?vid=00f5828e-6f9f-4c56-a0fc-3f6ee52a5233","ios":"levelo://app?vid=00f5828e-6f9f-4c56-a0fc-3f6ee52a5233"},"vehicle_type_id":"4","last_reported":1729098501,"current_range_meters":32400,"station_id":"ce4bh192rcd13ifvqdc0","pricing_plan_id":"cebpf4jnsgd1na2vs0mg"},