{"last_updated":1733472783,"ttl":60,"version":"2.2","data":{"bikes":[{"bike_id":"5566b1e4-e72a-4189-8e1b-a6c3faeca7b6","system_id":"levelo_inurba_marseille","lat":43.29222,"lon":5.35785,"is_reserved":false,"is_disabled":true,"rental_uris":{"android":"levelo://app?vid=5566b1e4-e72a-4189-8e1b-a6c3faeca7b6","ios":"levelo://app?vid=5566b1e4-e72a-4189-8e1b-a6c3faeca7b6"},"vehicle_type_id":"4","last_reported":1733472783,"current_range_meters":0,"station_id":"ce4bhb12rcd13ifvqel0","pricing_plan_id":"cebpf4jnsgd1na2vs0mg"},{"bike_id":"78cb0098-31a6-4c81-b5a5-2721e8295af8","system_id":"levelo_inurba_marseille","lat":43.24663,"lon":5.38164,"is_reserved":false,"is_disabled":false,"rental_uris":{"android":"levelo://app?vid=78cb0098-31a6-4c81-b5a5-2721e8295af8","ios":"levelo://app?vid=78cb0098-31a6-4c81-b5a5-2721e8295af8"},"vehicle_type_id":"4","last_reported":1733472783,"current_range_meters":25600,"station_id":"ce4bhih2rcd13ifvqfr0","pricing_plan_id":"cebpf4jnsgd1na2vs0mg"},{"bike_id":"df479c2c-35ac-44ad-b9d6-81c89ed769ce","system_id":"levelo_inurba_marseille","lat":43.29699,"lon":5.37054,"is_reserved":false,"is_disabled":true,"rental_uris":{"android":"levelo://app?vid=df479c2c-35ac-44ad-b9d6-81c89ed769ce","ios":"levelo://app?vid=df479c2c-35ac-44ad-b9d6-81c89ed769ce"},"vehicle_type_id":"4","last_reported":1733472783,"current_range_meters":0,"station_id":"","pricing_plan_id":"cebpf4jnsgd1na2vs0mg"},{"bike_id":"8e029eaf-e104-4c5d-858d-6cd39de73d09","system_id":"levelo_inurba_marseille","lat":43.24169,"lon":5.36397,"is_reserved":false,"is_disabled":false,"rental_uris":{"android":"levelo://app?vid=8e029eaf-e104-4c5d-858d-6cd39de73d09","ios":"levelo://app?vid=8e029eaf-e104-4c5d-858d-6cd39de73d09"},"vehicle_type_id":"4","last_reported":1733472783,"current_range_meters":37600,"station_id":"cpo36qri1sfpv3e86is0","pricing_plan_id":"cebpf4jnsgd1na2vs0mg"},{"bike_id":"bc6d1df1-c307-4d6f-9ccf-49fb0c32794a","system_id":"levelo_inurba_marseille","lat":43.2586,"lon":5.399,"is_reserved":false,"is_disabled":true,"rental_uris":{"android":"levelo://app?vid=bc6d1df1-c307-4d6f-9ccf-49fb0c32794a","ios":"levelo://app?vid=bc6d1df1-c307-4d6f-9ccf-49fb0c32794a"},"vehicle_type_id":"4","last_reported":1733472783,"current_range_meters":36800,"station_id":"ce4bhl92rcd13ifvqghg","pricing_plan_id":"cebpf4jnsgd1na2vs0mg"},{"bike_id":"8a87d3a4-e188-49c9-806d-9c10c51735f8","system_id":"levelo_inurba_marseille","lat":43.26498,"lon":5.3954,"is_reserved":false,"is_disabled":false,"rental_uris":{"android":"levelo://app?vid=8a87d3a4-e188-49c9-806d-9c10c51735f8","ios":"levelo://app?vid=8a87d3a4-e188-49c9-806d-9c10c51735f8"},"vehicle_type_id":"4","last_reported":1733472783,"current_range_meters":37600,"station_id":"ce4bhi12rcd13ifvqfq0","pricing_plan_id":"cebpf4jnsgd1na2vs0mg"},{"bike_id":"64db54aa-6a10-4b49-96d2-9507ba17d6f6","system_id":"levelo_inurba_marseille","lat":43.27488,"lon":5.42505,"is_reserved":false,"is_disabled":false,"rental_uris":{"android":"levelo://app?vid=64db54aa-6a10-4b49-96d2-9507ba17d6f6","ios":"levelo://app?vid=64db54aa-6a10-4b49-96d2-9507ba17d6f6"},"vehicle_type_id":"4","last_reported":1733472783,"current_range_meters":38000,"station_id":"ce4bhn92rcd13ifvqgrg","pricing_plan_id":"cebpf4jnsgd1na2vs0mg"},{"bike_id":"a143aeb6-2e2d-45e4-a048-b795dab2466c","system_id":"levelo_inurba_marseille","lat":43.29422,"lon":5.38615,"is_reserved":false,"is_disabled":false,"rental_uris":{"android":"levelo://app?vid=a143aeb6-2e2d-45e4-a048-b795dab2466c","ios":"levelo://app?vid=a143aeb6-2e2d-45e4-a048-b795dab2466c"},"vehicle_type_id":"4","last_reported":1733472783,"current_range_meters":31200,"station_id":"ce4bh2h2rcd13ifvqdh0","pricing_plan_id":"cebpf4jnsgd1na2vs0mg"},{"bike_id":"be407bbe-d1ce-48de-8db2-09114af9efd7","system_id":"levelo_inurba_marseille","lat":43.323647,"lon":5.367595,"is_reserved":false,"is_disabled":false,"rental_uris":{"android":"levelo://app?vid=be407bbe-d1ce-48de-8db2-09114af9efd7","ios":"levelo://app?vid=be407bbe-d1ce-48de-8db2-09114af9efd7"},"vehicle_type_id":"4","last_reported":1733472783,"current_range_meters":25600,"station_id":"ce4bhsh2rcd13ifvqi2g","pricing_plan_id":"cebpf4jnsgd1na2vs0mg"},{"bike_id":"1746a250-cc4b-4605-8124-3bfb87e81cf5","system_id":"levelo_inurba_marseille","lat":43.27497,"lon":5.42452,"is_reserved":false,"is_disabled":false,"rental_uris":{"android":"levelo://app?vid=1746a250-cc4b-4605-8124-3bfb87e81cf5","ios":"levelo://app?vid=1746a250-cc4b-4605-8124-3bfb87e81cf5"},"vehicle_type_id":"4","last_reported":1733472783,"current_range_meters":31200,"station_id":"ce4bhn92rcd13ifvqgrg","pricing_plan_id":"cebpf4jnsgd1na2vs0mg"},{"bike_id":"da7f571a-e2ec-4ca2-b394-8105c7bbdae3","system_id":"levelo_inurba_marseille","lat":43.27194,"lon":5.40992,"is_reserved":false,"is_disabled":false,"rental_uris":{"android":"levelo://app?vid=da7f571a-e2ec-4ca2-b394-8105c7bbdae3","ios":"levelo://app?vid=da7f571a-e2ec-4ca2-b394-8105c7bbdae3"},"vehicle_type_id":"4","last_reported":1733472783,"current_range_meters":6800,"station_id":"ce4bhl12rcd13ifvqgf0","pricing_plan_id":"cebpf4jnsgd1na2vs0mg"},{"bike_id":"c4165085-fbe6-4a55-b40a-06e6da8bea5b","system_id":"levelo_inurba_marseille","lat":43.32543,"lon":5.41441,"is_reserved":false,"is_disabled":false,"rental_uris":{"android":"levelo://app?vid=c4165085-fbe6-4a55-b40a-06e6da8bea5b","ios":"levelo://app?vid=c4165085-fbe6-4a55-b40a-06e6da8bea5b"},"vehicle_type_id":"4","last_reported":1733472783,"current_range_meters":36000,"station_id":"ce4bhq12rcd13ifvqhhg","pricing_plan_id":"cebpf4jnsgd1na2vs0mg"},{"bike_id":"8bd642b2-0279-44c7-9ee2-fc3b57332c83","system_id":"levelo_inurba_marseille","lat":43.27455,"lon":5.40073,"is_reserved":false,"is_disabled":true,"rental_uris":{"android":"levelo://app?vid=8bd642b2-0279-44c7-9ee2-fc3b57332c83","ios":"levelo://app?vid=8bd642b2-0279-44c7-9ee2-fc3b57332c83"},"vehicle_type_id":"4","last_reported":1733472783,"current_range_meters":0,"station_id":"","pricing_plan_id":"cebpf4jnsgd1na2vs0mg"},{"bike_id":"e840eb42-1f15-4a3c-8b36-a4e913ef7a95","system_id":"levelo_inurba_marseille","lat":43.29278,"lon":5.36847,"is_reserved":false,"is_disabled":false,"rental_uris":{"android":"levelo://app?vid=e840eb42-1f15-4a3c-8b36-a4e913ef7a95","ios":"levelo://app?vid=e840eb42-1f15-4a3c-8b36-a4e913ef7a95"},"vehicle_type_id":"4","last_reported":1733472783,"current_range_meters":25600,"station_id":"ce4bhbp2rcd13ifvqesg","pricing_plan_id":"cebpf4jnsgd1na2vs0mg"},{"bike_id":"5b667cd8-1ed1-4b03-8bee-ef4c0498560e","system_id":"levelo_inurba_marseille","lat":43.25,"lon":5.38927,"is_reserved":false,"is_disabled":false,"rental_uris":{"android":"levelo://app?vid=5b667cd8-1ed1-4b03-8bee-ef4c0498560e","ios":"levelo://app?vid=5b667cd8-1ed1-4b03-8bee-ef4c0498560e"},"vehicle_type_id":"4","last_reported":1733472783,"current_range_meters":38800,"station_id":"ce4bhgp2rcd13ifvqfd0","pricing_plan_id":"cebpf4jnsgd1na2vs0mg"},{"bike_id":"92096e66-982c-42ef-9a85-db8cb36f5689","system_id":"levelo_inurba_marseille","lat":43.27941,"lon":5.41046,"is_reserved":false,"is_disabled":false,"rental_uris":{"android":"levelo://app?vid=92096e66-982c-42ef-9a85-db8cb36f5689","ios":"levelo://app?vid=92096e66-982c-42ef-9a85-db8cb36f5689"},"vehicle_type_id":"4","last_reported":1733472783,"current_range_meters":7200,"station_id":"ce4bhnp2rcd13ifvqh0g","pricing_plan_id":"cebpf4jnsgd1na2vs0mg"},{"bike_id":"8f502bab-02af-47f6-8074-1d31e97339d0","system_id":"levelo_inurba_marseille","lat":43.3054,"lon":5.36698,"is_reserved":false,"is_disabled":false,"rental_uris":{"android":"levelo://app?vid=8f502bab-02af-47f6-8074-1d31e97339d0","ios":"levelo://app?vid=8f502bab-02af-47f6-8074-1d31e97339d0"},"vehicle_type_id":"4","last_reported":1733472783,"current_range_meters":36800,"station_id":"ce4bgrp2rcd13ifvqc9g","pricing_plan_id":"cebpf4jnsgd1na2vs0mg"},{"bike_id":"9558f4c4-f6fa-4f42-ba7b-f8326c0c5209","system_id":"levelo_inurba_marseille","lat":43.24076,"lon":5.37752,"is_reserved":false,"is_disabled":false,"rental_uris":{"android":"levelo://app?vid=9558f4c4-f6fa-4f42-ba7b-f8326c0c5209","ios":"levelo://app?vid=9558f4c4-f6fa-4f42-ba7b-f8326c0c5209"},"vehicle_type_id":"4","last_reported":1733472783,"current_range_meters":38800,"station_id":"ce4bhnp2rcd13ifvqgvg","pricing_plan_id":"cebpf4jnsgd1na2vs0mg"},{"bike_id":"79207284-905c-4504-8a4d-92bd942e36b6","system_id":"levelo_inurba_marseille","lat":43.24075,"lon":5.37696,"is_reserved":false,"is_disabled":false,"rental_uris":{"android":"levelo://app?vid=79207284-905c-4504-8a4d-92bd942e36b6","ios":"levelo://app?vid=79207284-905c-4504-8a4d-92bd942e36b6"},"vehicle_type_id":"4","last_reported":1733472783,"current_range_meters":9600,"station_id":"ce4bhnp2rcd13ifvqgvg","pricing_plan_id":"cebpf4jnsgd1na2vs0mg"},{"bike_id":"f67dfab3-abcc-4688-bfd7-4284bf8c7187","system_id":"levelo_inurba_marseille","lat":43.33029,"lon":5.39048,"is_reserved":false,"is_disabled":false,"rental_uris":{"android":"levelo://app?vid=f67dfab3-abcc-4688-bfd7-4284bf8c7187","ios":"levelo://app?vid=f67dfab3-abcc-4688-bfd7-4284bf8c7187"},"vehicle_type_id":"4","last_reported":1733472783,"current_range_meters":8000,"station_id":"ce4bhr92rcd13ifvqhrg","pricing_plan_id":"cebpf4jnsgd1na2vs0mg"},{"bike_id":"0c7d8135-3f48-4d1f-9d6e-8ceee018e1a4","system_id":"levelo_inurba_marseille","lat":43.26949,"lon":5.38622,"is_reserved":false,"is_disabled":false,"rental_uris":{"android":"levelo://app?vid=0c7d8135-3f48-4d1f-9d6e-8ceee018e1a4","ios":"levelo://app?vid=0c7d8135-3f48-4d1f-9d6e-8ceee018e1a4"},"vehicle_type_id":"4","last_reported":1733472783,"current_range_meters":36000,"station_id":"ce4bhh92rcd13ifvqfh0","pricing_plan_id":"cebpf4jnsgd1na2vs0mg"},{"bike_id":"28b52837-d828-49e4-b4be-cfbac010c328","system_id":"levelo_inurba_marseille","lat":43.33731,"lon":5.39187,"is_reserved":false,"is_disabled":false,"rental_uris":{"android":"levelo://app?vid=28b52837-d828-49e4-b4be-cfbac010c328","ios":"levelo://app?vid=28b52837-d828-49e4-b4be-cfbac010c328"},"vehicle_type_id":"4","last_reported":1733472783,"current_range_meters":25600,"station_id":"ce4bhr92rcd13ifvqhsg","pricing_plan_id":"cebpf4jnsgd1na2vs0mg"},{"bike_id":"b3f478ac-3b05-4edf-bdbf-76399090f8e9","system_id":"levelo_inurba_marseille","lat":43.29994,"lon":5.37639,"is_reserved":false,"is_disabled":true,"rental_uris":{"android":"levelo://app?vid=b3f478ac-3b05-4edf-bdbf-76399090f8e9","ios":"levelo://app?vid=b3f478ac-3b05-4edf-bdbf-76399090f8e9"},"vehicle_type_id":"4","last_reported":1733472783,"current_range_meters":0,"station_id":"","pricing_plan_id":"cebpf4jnsgd1na2vs0mg"},{"bike_id":"e9f79471-4ff3-4676-918f-e60f2e151b99","system_id":"levelo_inurba_marseille","lat":43.337444,"lon":5.374475,"is_reserved":false,"is_disabled":false,"rental_uris":{"android":"levelo://app?vid=e9f79471-4ff3-4676-918f-e60f2e151b99","ios":"levelo://app?vid=e9f79471-4ff3-4676-918f-e60f2e151b99"},"vehicle_type_id":"4","last_reported":1733472783,"current_range_meters":38400,"station_id":"","pricing_plan_id":"cebpf4jnsgd1na2vs0mg"},{"bike_id":"36eab559-191f-41d4-9302-813f441f16aa","system_id":"levelo_inurba_marseille","lat":43.24179,"lon":5.39724,"is_reserved":false,"is_disabled":true,"rental_uris":{"android":"levelo://app?vid=36eab559-191f-41d4-9302-813f441f16aa","ios":"levelo://app?vid=36eab559-191f-41d4-9302-813f441f16aa"},"vehicle_type_id":"4","last_reported":1733472783,"current_range_meters":35600,"station_id":"ce4bhn12rcd13ifvqgpg","pricing_plan_id":"cebpf4jnsgd1na2vs0mg"},{"bike_id":"20ead303-285b-443e-b7f9-3990faecca15","system_id":"levelo_inurba_marseille","lat":43.337444,"lon":5.374475,"is_reserved":false,"is_disabled":true,"rental_uris":{"android":"levelo://app?vid=20ead303-285b-443e-b7f9-3990faecca15","ios":"levelo://app?vid=20ead303-285b-443e-b7f9-3990faecca15"},"vehicle_type_id":"4","last_reported":1733472783,"current_range_meters":0,"station_id":"","pricing_plan_id":"cebpf4jnsgd1na2vs0mg"},{"bike_id":"f5b29c60-65be-4166-a3c6-4bfd677425bf","system_id":"levelo_inurba_marseille","lat":43.27494,"lon":5.42453,"is_reserved":false,"is_disabled":false,"rental_uris":{"android":"levelo://app?vid=f5b29c60-65be-4166-a3c6-4bfd677425bf","ios":"levelo://app?vid=f5b29c60-65be-4166-a3c6-4bfd677425bf"},"vehicle_type_id":"4","last_reported":1733472783,"current_range_meters":24800,"station_id":"ce4bhn92rcd13ifvqgrg","pricing_plan_id":"cebpf4jnsgd1na2vs0mg"},{"bike_id":"e05119fd-fd4d-4fc7-9786-f468bbb9ad6c","system_id":"levelo_inurba_marseille","lat":43.32289,"lon":5.38258,"is_reserved":false,"is_disabled":false,"rental_uris":{"android":"levelo://app?vid=e05119fd-fd4d-4fc7-9786-f468bbb9ad6c","ios":"levelo://app?vid=e05119fd-fd4d-4fc7-9786-f468bbb9ad6c"},"vehicle_type_id":"4","last_reported":1733472783,"current_range_meters":38800,"station_id":"ce4bhr12rcd13ifvqhqg","pricing_plan_id":"cebpf4jnsgd1na2vs0mg"},{"bike_id":"41602994-4a86-4ce3-8f6d-26a770d951fa","system_id":"levelo_inurba_marseille","lat":43.27488,"lon":5.42454,"is_reserved":false,"is_disabled":true,"rental_uris":{"android":"levelo://app?vid=41602994-4a86-4ce3-8f6d-26a770d951fa","ios":"levelo://app?vid=41602994-4a86-4ce3-8f6d-26a770d951fa"},"vehicle_type_id":"4","last_reported":1733472783,"current_range_meters":36400,"station_id":"ce4bhn92rcd13ifvqgrg","pricing_plan_id":"cebpf4jnsgd1na2vs0mg"},{"bike_id":"771b3b0e-5244-4786-b104-ef6fcbe19306","system_id":"levelo_inurba_marseille","lat":43.295816,"lon":5.375471,"is_reserved":false,"is_disabled":false,"rental_uris":{"android":"levelo://app?vid=771b3b0e-5244-4786-b104-ef6fcbe19306","ios":"levelo://app?vid=771b3b0e-5244-4786-b104-ef6fcbe19306"},"vehicle_type_id":"4","last_reported":1733472783,"current_range_meters":35600,"station_id":"ce4bgh92rcd13ifvqb50","pricing_plan_id":"cebpf4jnsgd1na2vs0mg"},{"bike_id":"9e3bc3fb-05cb-4c9a-8460-05ba9e2b92d0","system_id":"levelo_inurba_marseille","lat":43.31351,"lon":5.3673,"is_reserved":false,"is_disabled":false,"rental_uris":{"android":"levelo://app?vid=9e3bc3fb-05cb-4c9a-8460-05ba9e2b92d0","ios":"levelo://app?vid=9e3bc3fb-05cb-4c9a-8460-05ba9e2b92d0"},"vehicle_type_id":"4","last_reported":1733472783,"current_range_meters":37600,"station_id":"ce4bgr92rcd13ifvqc6g","pricing_plan_id":"cebpf4jnsgd1na2vs0mg"},{"bike_id":"2eaeb1ad-6f19-4509-aca4-fe59e482d04a","system_id":"levelo_inurba_marseille","lat":43.24998,"lon":5.38931,"is_reserved":false,"is_disabled":true,"rental_uris":{"android":"levelo://app?vid=2eaeb1ad-6f19-4509-aca4-fe59e482d04a","ios":"levelo://app?vid=2eaeb1ad-6f19-4509-aca4-fe59e482d04a"},"vehicle_type_id":"4","last_reported":1733472783,"current_range_meters":0,"station_id":"ce4bhgp2rcd13ifvqfd0","pricing_plan_id":"cebpf4jnsgd1na2vs0mg"},{"bike_id":"6190c8df-124a-4018-b7be-432be9a10fd3","system_id":"levelo_inurba_marseille","lat":43.28351,"lon":5.38112,"is_reserved":false,"is_disabled":true,"rental_uris":{"android":"levelo://app?vid=6190c8df-124a-4018-b7be-432be9a10fd3","ios":"levelo://app?vid=6190c8df-124a-4018-b7be-432be9a10fd3"},"vehicle_type_id":"4","last_reported":1733472783,"current_range_meters":800,"station_id":"ce4bh412rcd13ifvqdr0","pricing_plan_id":"cebpf4jnsgd1na2vs0mg"},{"bike_id":"002dbbaf-2564-47f3-b075-2b49e3a34c52","system_id":"levelo_inurba_marseille","lat":43.30549,"lon":5.36725,"is_reserved":false,"is_disabled":false,"rental_uris":{"android":"levelo://app?vid=002dbbaf-2564-47f3-b075-2b49e3a34c52","ios":"levelo://app?vid=002dbbaf-2564-47f3-b075-2b49e3a34c52"},"vehicle_type_id":"4","last_reported":1733472783,"current_range_meters":16800,"station_id":"ce4bgrp2rcd13ifvqc9g","pricing_plan_id":"cebpf4jnsgd1na2vs0mg"},{"bike_id":"0fc18ad1-e209-4c85-b7e9-3f81908ab6ee","system_id":"levelo_inurba_marseille","lat":43.27945,"lon":5.41047,"is_reserved":false,"is_disabled":false,"rental_uris":{"android":"levelo://app?vid=0fc18ad1-e209-4c85-b7e9-3f81908ab6ee","ios":"levelo://app?vid=0fc18ad1-e209-4c85-b7e9-3f81908ab6ee"},"vehicle_type_id":"4","last_reported":1733472783,"current_range_meters":24000,"station_id":"ce4bhnp2rcd13ifvqh0g","pricing_plan_id":"cebpf4jnsgd1na2vs0mg"},{"bike_id":"1fe39c46-689d-4ef3-85ac-95a61cc44bff","system_id":"levelo_inurba_marseille","lat":43.29032,"lon":5.37555,"is_reserved":false,"is_disabled":true,"rental_uris":{"android":"levelo://app?vid=1fe39c46-689d-4ef3-85ac-95a61cc44bff","ios":"levelo://app?vid=1fe39c46-689d-4ef3-85ac-95a61cc44bff"},"vehicle_type_id":"4","last_reported":1733472783,"current_range_meters":0,"station_id":"ce4bh692rcd13ifvqe90","pricing_plan_id":"cebpf4jnsgd1na2vs0mg"},{"bike_id":"c7937e55-70ee-4a20-b169-edc60cf12155","system_id":"levelo_inurba_marseille","lat":43.30799,"lon":5.43518,"is_reserved":false,"is_disabled":false,"rental_uris":{"android":"levelo://app?vid=c7937e55-70ee-4a20-b169-edc60cf12155","ios":"levelo://app?vid=c7937e55-70ee-4a20-b169-edc60cf12155"},"vehicle_type_id":"4","last_reported":1733472783,"current_range_meters":37600,"station_id":"ce4bhph2rcd13ifvqheg","pricing_plan_id":"cebpf4jnsgd1na2vs0mg"},{"bike_id":"0d76dbf6-5e40-455b-a0e6-70fb0b70c5f9","system_id":"levelo_inurba_marseille","lat":43.32368,"lon":5.3888,"is_reserved":false,"is_disabled":false,"rental_uris":{"android":"levelo://app?vid=0d76dbf6-5e40-455b-a0e6-70fb0b70c5f9","ios":"levelo://app?vid=0d76dbf6-5e40-455b-a0e6-70fb0b70c5f9"},"vehicle_type_id":"4","last_reported":1733472783,"current_range_meters":37600,"station_id":"ce4bhqp2rcd13ifvqhog","pricing_plan_id":"cebpf4jnsgd1na2vs0mg"},{"bike_id":"bb33fa0c-b703-4470-8119-8d67c160e4d2","system_id":"levelo_inurba_marseille","lat":43.25081,"lon":5.39511,"is_reserved":false,"is_disabled":false,"rental_uris":{"android":"levelo://app?vid=bb33fa0c-b703-4470-8119-8d67c160e4d2","ios":"levelo://app?vid=bb33fa0c-b703-4470-8119-8d67c160e4d2"},"vehicle_type_id":"4","last_reported":1733472783,"current_range_meters":38000,"station_id":"ce4bhm12rcd13ifvqgkg","pricing_plan_id":"cebpf4jnsgd1na2vs0mg"},{"bike_id":"2f3968e7-9336-4ee4-ba78-8e92c0a818cc","system_id":"levelo_inurba_marseille","lat":43.31322,"lon":5.36647,"is_reserved":false,"is_disabled":true,"rental_uris":{"android":"levelo://app?vid=2f3968e7-9336-4ee4-ba78-8e92c0a818cc","ios":"levelo://app?vid=2f3968e7-9336-4ee4-ba78-8e92c0a818cc"},"vehicle_type_id":"4","last_reported":1733472783,"current_range_meters":0,"station_id":"","pricing_plan_id":"cebpf4jnsgd1na2vs0mg"},{"bike_id":"780ae887-a10d-4168-adaf-89f6b409e7ce","system_id":"levelo_inurba_marseille","lat":43.27941,"lon":5.4105,"is_reserved":false,"is_disabled":false,"rental_uris":{"android":"levelo://app?vid=780ae887-a10d-4168-adaf-89f6b409e7ce","ios":"levelo://app?vid=780ae887-a10d-4168-adaf-89f6b409e7ce"},"vehicle_type_id":"4","last_reported":1733472783,"current_range_meters":12000,"station_id":"ce4bhnp2rcd13ifvqh0g","pricing_plan_id":"cebpf4jnsgd1na2vs0mg"},{"bike_id":"4d3faf3b-c455-4a80-9648-56dd8a851d4f","system_id":"levelo_inurba_marseille","lat":43.24182,"lon":5.39722,"is_reserved":false,"is_disabled":false,"rental_uris":{"android":"levelo://app?vid=4d3faf3b-c455-4a80-9648-56dd8a851d4f","ios":"levelo://app?vid=4d3faf3b-c455-4a80-9648-56dd8a851d4f"},"vehicle_type_id":"4","last_reported":1733472783,"current_range_meters":19200,"station_id":"ce4bhn12rcd13ifvqgpg","pricing_plan_id":"cebpf4jnsgd1na2vs0mg"},{"bike_id":"0c0e2aa7-9f52-4d17-add8-5ae2b19fae91","system_id":"levelo_inurba_marseille","lat":43.29179,"lon":5.36759,"is_reserved":false,"is_disabled":false,"rental_uris":{"android":"levelo://app?vid=0c0e2aa7-9f52-4d17-add8-5ae2b19fae91","ios":"levelo://app?vid=0c0e2aa7-9f52-4d17-add8-5ae2b19fae91"},"vehicle_type_id":"4","last_reported":1733472783,"current_range_meters":9600,"station_id":"ce4bhap2rcd13ifvqek0","pricing_plan_id":"cebpf4jnsgd1na2vs0mg"},{"bike_id":"a81c2427-d96c-40bd-818c-9b142bb6804e","system_id":"levelo_inurba_marseille","lat":43.27505,"lon":5.42462,"is_reserved":false,"is_disabled":false,"rental_uris":{"android":"levelo://app?vid=a81c2427-d96c-40bd-818c-9b142bb6804e","ios":"levelo://app?vid=a81c2427-d96c-40bd-818c-9b142bb6804e"},"vehicle_type_id":"4","last_reported":1733472783,"current_range_meters":24800,"station_id":"ce4bhn92rcd13ifvqgrg","pricing_plan_id":"cebpf4jnsgd1na2vs0mg"},{"bike_id":"c14472d8-c73b-4b98-bf06-effebd8b0eed","system_id":"levelo_inurba_marseille","lat":43.30459,"lon":5.37903,"is_reserved":false,"is_disabled":true,"rental_uris":{"android":"levelo://app?vid=c14472d8-c73b-4b98-bf06-effebd8b0eed","ios":"levelo://app?vid=c14472d8-c73b-4b98-bf06-effebd8b0eed"},"vehicle_type_id":"4","last_reported":1733472783,"current_range_meters":37600,"station_id":"ce4bgup2rcd13ifvqcn0","pricing_plan_id":"cebpf4jnsgd1na2vs0mg"},{"bike_id":"4f364583-ef31-4fd7-b03f-e8563c2d4cc3","system_id":"levelo_inurba_marseille","lat":43.26682,"lon":5.38269,"is_reserved":false,"is_disabled":true,"rental_uris":{"android":"levelo://app?vid=4f364583-ef31-4fd7-b03f-e8563c2d4cc3","ios":"levelo://app?vid=4f364583-ef31-4fd7-b03f-e8563c2d4cc3"},"vehicle_type_id":"4","last_reported":1733472783,"current_range_meters":1600,"station_id":"ce4bhg92rcd13ifvqf90","pricing_plan_id":"cebpf4jnsgd1na2vs0mg"},{"bike_id":"430ac931-ab07-4cc1-a3d7-d0a15e798c88","system_id":"levelo_inurba_marseille","lat":43.32544,"lon":5.41441,"is_reserved":false,"is_disabled":false,"rental_uris":{"android":"levelo://app?vid=430ac931-ab07-4cc1-a3d7-d0a15e798c88","ios":"levelo://app?vid=430ac931-ab07-4cc1-a3d7-d0a15e798c88"},"vehicle_type_id":"4","last_reported":1733472783,"current_range_meters":32400,"station_id":"ce4bhq12rcd13ifvqhhg","pricing_plan_id":"cebpf4jnsgd1na2vs0mg"},{"bike_id":"5fc95382-6b43-43ae-b315-2cbd8f3350df","system_id":"levelo_inurba_marseille","lat":43.29306,"lon":5.37167,"is_reserved":false,"is_disabled":false,"rental_uris":{"android":"levelo://app?vid=5fc95382-6b43-43ae-b315-2cbd8f3350df","ios":"levelo://app?vid=5fc95382-6b43-43ae-b315-2cbd8f3350df"},"vehicle_type_id":"4","last_reported":1733472783,"current_range_meters":37600,"station_id":"ce4bgh92rcd13ifvqb40","pricing_plan_id":"cebpf4jnsgd1na2vs0mg"},{"bike_id":"18c465ad-16a0-4d72-a337-11a15929aab8","system_id":"levelo_inurba_marseille","lat":43.239606,"lon":5.366203,"is_reserved":false,"is_disabled":false,"rental_uris":{"android":"levelo://app?vid=18c465ad-16a0-4d72-a337-11a15929aab8","ios":"levelo://app?vid=18c465ad-16a0-4d72-a337-11a15929aab8"},"vehicle_type_id":"4","last_reported":1733472783,"current_range_meters":11600,"station_id":"ce4bhi12rcd13ifvqfp0","pricing_plan_id":"cebpf4jnsgd1na2vs0mg"},{"bike_id":"6ac53aa6-e328-444e-93f7-00e8b7e03df0","system_id":"levelo_inurba_marseille","lat":43.30386,"lon":5.40957,"is_reserved":false,"is_disabled":false,"rental_uris":{"android":"levelo://app?vid=6ac53aa6-e328-444e-93f7-00e8b7e03df0","ios":"levelo://app?vid=6ac53aa6-e328-444e-93f7-00e8b7e03df0"},"vehicle_type_id":"4","last_reported":1733472783,"current_range_meters":36400,"station_id":"","pricing_plan_id":"cebpf4jnsgd1na2vs0mg"},{"bike_id":"582496be-be2b-4662-956c-66396b1c0d76","system_id":"levelo_inurba_marseille","lat":43.25107,"lon":5.40325,"is_reserved":false,"is_disabled":false,"rental_uris":{"android":"levelo://app?vid=582496be-be2b-4662-956c-66396b1c0d76","ios":"levelo://app?vid=582496be-be2b-4662-956c-66396b1c0d76"},"vehicle_type_id":"4","last_reported":1733472783,"current_range_meters":27200,"station_id":"ce4bhlh2rcd13ifvqgig","pricing_plan_id":"cebpf4jnsgd1na2vs0mg"},{"bike_id":"74e6904d-130d-4d83-a1d7-188d253e65b6","system_id":"levelo_inurba_marseille","lat":43.30475,"lon":5.37912,"is_reserved":false,"is_disabled":false,"rental_uris":{"android":"levelo://app?vid=74e6904d-130d-4d83-a1d7-188d253e65b6","ios":"levelo://app?vid=74e6904d-130d-4d83-a1d7-188d253e65b6"},"vehicle_type_id":"4","last_reported":1733472783,"current_range_meters":28000,"station_id":"ce4bgup2rcd13ifvqcn0","pricing_plan_id":"cebpf4jnsgd1na2vs0mg"},{"bike_id":"b0025f03-f4b7-4e1f-b2ae-d738bfb01f75","system_id":"levelo_inurba_marseille","lat":43.31391,"lon":5.37722,"is_reserved":false,"is_disabled":true,"rental_uris":{"android":"levelo://app?vid=b0025f03-f4b7-4e1f-b2ae-d738bfb01f75","ios":"levelo://app?vid=b0025f03-f4b7-4e1f-b2ae-d738bfb01f75"},"vehicle_type_id":"4","last_reported":1733472783,"current_range_meters":35200,"station_id":"","pricing_plan_id":"cebpf4jnsgd1na2vs0mg"},{"bike_id":"439b8fee-9512-4932-8e24-be55af22cd47","system_id":"levelo_inurba_marseille","lat":43.24069,"lon":5.37749,"is_reserved":false,"is_disabled":false,"rental_uris":{"android":"levelo://app?vid=439b8fee-9512-4932-8e24-be55af22cd47","ios":"levelo://app?vid=439b8fee-9512-4932-8e24-be55af22cd47"},"vehicle_type_id":"4","last_reported":1733472783,"current_range_meters":35200,"station_id":"ce4bhnp2rcd13ifvqgvg","pricing_plan_id":"cebpf4jnsgd1na2vs0mg"},{"bike_id":"179f3704-32e4-4a45-88a1-f27a03d92a32","system_id":"levelo_inurba_marseille","lat":43.27495,"lon":5.42454,"is_reserved":false,"is_disabled":false,"rental_uris":{"android":"levelo://app?vid=179f3704-32e4-4a45-88a1-f27a03d92a32","ios":"levelo://app?vid=179f3704-32e4-4a45-88a1-f27a03d92a32"},"vehicle_type_id":"4","last_reported":1733472783,"current_range_meters":36400,"station_id":"ce4bhn92rcd13ifvqgrg","pricing_plan_id":"cebpf4jnsgd1na2vs0mg"},{"bike_id":"a4e93ad9-b384-4542-a9e1-14a9a51d48b6","system_id":"levelo_inurba_marseille","lat":43.30535,"lon":5.36699,"is_reserved":false,"is_disabled":false,"rental_uris":{"android":"levelo://app?vid=a4e93ad9-b384-4542-a9e1-14a9a51d48b6","ios":"levelo://app?vid=a4e93ad9-b384-4542-a9e1-14a9a51d48b6"},"vehicle_type_id":"4","last_reported":1733472783,"current_range_meters":14800,"station_id":"ce4bgrp2rcd13ifvqc9g","pricing_plan_id":"cebpf4jnsgd1na2vs0mg"},{"bike_id":"f10c5e90-601b-4bd4-87e7-4cbb6a13a4fb","system_id":"levelo_inurba_marseille","lat":43.26126,"lon":5.39271,"is_reserved":false,"is_disabled":true,"rental_uris":{"android":"levelo://app?vid=f10c5e90-601b-4bd4-87e7-4cbb6a13a4fb","ios":"levelo://app?vid=f10c5e90-601b-4bd4-87e7-4cbb6a13a4fb"},"vehicle_type_id":"4","last_reported":1733472783,"current_range_meters":1600,"station_id":"","pricing_plan_id":"cebpf4jnsgd1na2vs0mg"},{"bike_id":"1d46f849-23af-4abf-834e-62814955ddf2","system_id":"levelo_inurba_marseille","lat":43.29554,"lon":5.42283,"is_reserved":false,"is_disabled":false,"rental_uris":{"android":"levelo://app?vid=1d46f849-23af-4abf-834e-62814955ddf2","ios":"levelo://app?vid=1d46f849-23af-4abf-834e-62814955ddf2"},"vehicle_type_id":"4","last_reported":1733472783,"current_range_meters":33600,"station_id":"ce4bhph2rcd13ifvqhdg","pricing_plan_id":"cebpf4jnsgd1na2vs0mg"},{"bike_id":"26b4ff91-bf48-452e-b9d2-f8169a90133e","system_id":"levelo_inurba_marseille","lat":43.30943,"lon":5.39081,"is_reserved":false,"is_disabled":false,"rental_uris":{"android":"levelo://app?vid=26b4ff91-bf48-452e-b9d2-f8169a90133e","ios":"levelo://app?vid=26b4ff91-bf48-452e-b9d2-f8169a90133e"},"vehicle_type_id":"4","last_reported":1733472783,"current_range_meters":35200,"station_id":"ce4bgup2rcd13ifvqco0","pricing_plan_id":"cebpf4jnsgd1na2vs0mg"},{"bike_id":"665ab737-3737-49cc-84c2-0ab5fee4205c","system_id":"levelo_inurba_marseille","lat":43.25934,"lon":5.40912,"is_reserved":false,"is_disabled":false,"rental_uris":{"android":"levelo://app?vid=665ab737-3737-49cc-84c2-0ab5fee4205c","ios":"levelo://app?vid=665ab737-3737-49cc-84c2-0ab5fee4205c"},"vehicle_type_id":"4","last_reported":1733472783,"current_range_meters":31200,"station_id":"ce4bhm92rcd13ifvqglg","pricing_plan_id":"cebpf4jnsgd1na2vs0mg"},{"bike_id":"2165dbf2-bcf4-4c26-9cea-b5a99992ccff","system_id":"levelo_inurba_marseille","lat":43.2827,"lon":5.35058,"is_reserved":false,"is_disabled":false,"rental_uris":{"android":"levelo://app?vid=2165dbf2-bcf4-4c26-9cea-b5a99992ccff","ios":"levelo://app?vid=2165dbf2-bcf4-4c26-9cea-b5a99992ccff"},"vehicle_type_id":"4","last_reported":1733472783,"current_range_meters":38800,"station_id":"ce4bhbp2rcd13ifvqerg","pricing_plan_id":"cebpf4jnsgd1na2vs0mg"},{"bike_id":"c392e4c3-b551-4938-bf4d-657774532cf7","system_id":"levelo_inurba_marseille","lat":43.30537,"lon":5.36541,"is_reserved":false,"is_disabled":false,"rental_uris":{"android":"levelo://app?vid=c392e4c3-b551-4938-bf4d-657774532cf7","ios":"levelo://app?vid=c392e4c3-b551-4938-bf4d-657774532cf7"},"vehicle_type_id":"4","last_reported":1733472783,"current_range_meters":30800,"station_id":"ce4bgs12rcd13ifvqcag","pricing_plan_id":"cebpf4jnsgd1na2vs0mg"},{"bike_id":"0e516958-fe02-46a6-9187-d1cfa5dfa278","system_id":"levelo_inurba_marseille","lat":43.25933,"lon":5.40917,"is_reserved":false,"is_disabled":false,"rental_uris":{"android":"levelo://app?vid=0e516958-fe02-46a6-9187-d1cfa5dfa278","ios":"levelo://app?vid=0e516958-fe02-46a6-9187-d1cfa5dfa278"},"vehicle_type_id":"4","last_reported":1733472783,"current_range_meters":9600,"station_id":"ce4bhm92rcd13ifvqglg","pricing_plan_id":"cebpf4jnsgd1na2vs0mg"},{"bike_id":"25df6fa5-0e99-4ca3-b962-45e4d327f4cd","system_id":"levelo_inurba_marseille","lat":43.28613,"lon":5.35115,"is_reserved":false,"is_disabled":false,"rental_uris":{"android":"levelo://app?vid=25df6fa5-0e99-4ca3-b962-45e4d327f4cd","ios":"levelo://app?vid=25df6fa5-0e99-4ca3-b962-45e4d327f4cd"},"vehicle_type_id":"4","last_reported":1733472783,"current_range_meters":21600,"station_id":"ce4bhch2rcd13ifvqeug","pricing_plan_id":"cebpf4jnsgd1na2vs0mg"},{"bike_id":"20b7188f-e505-43bb-9200-5e9953d9e57f","system_id":"levelo_inurba_marseille","lat":43.23967,"lon":5.36629,"is_reserved":false,"is_disabled":false,"rental_uris":{"android":"levelo://app?vid=20b7188f-e505-43bb-9200-5e9953d9e57f","ios":"levelo://app?vid=20b7188f-e505-43bb-9200-5e9953d9e57f"},"vehicle_type_id":"4","last_reported":1733472783,"current_range_meters":30000,"station_id":"ce4bhi12rcd13ifvqfp0","pricing_plan_id":"cebpf4jnsgd1na2vs0mg"},{"bike_id":"f5bd5773-3df4-400a-9c89-e449e0b42a96","system_id":"levelo_inurba_marseille","lat":43.24808,"lon":5.37455,"is_reserved":false,"is_disabled":true,"rental_uris":{"android":"levelo://app?vid=f5bd5773-3df4-400a-9c89-e449e0b42a96","ios":"levelo://app?vid=f5bd5773-3df4-400a-9c89-e449e0b42a96"},"vehicle_type_id":"4","last_reported":1733472783,"current_range_meters":37600,"station_id":"ce4bhgh2rcd13ifvqfb0","pricing_plan_id":"cebpf4jnsgd1na2vs0mg"},{"bike_id":"7079e6c4-6b96-4f67-b7f1-0be10c067c19","system_id":"levelo_inurba_marseille","lat":43.290367,"lon":5.370259,"is_reserved":false,"is_disabled":false,"rental_uris":{"android":"levelo://app?vid=7079e6c4-6b96-4f67-b7f1-0be10c067c19","ios":"levelo://app?vid=7079e6c4-6b96-4f67-b7f1-0be10c067c19"},"vehicle_type_id":"4","last_reported":1733472783,"current_range_meters":14000,"station_id":"ce4bh5p2rcd13ifvqe4g","pricing_plan_id":"cebpf4jnsgd1na2vs0mg"},{"bike_id":"b51dfe86-3361-41c8-87c8-520bcd630eac","system_id":"levelo_inurba_marseille","lat":43.30955,"lon":5.39038,"is_reserved":false,"is_disabled":false,"rental_uris":{"android":"levelo://app?vid=b51dfe86-3361-41c8-87c8-520bcd630eac","ios":"levelo://app?vid=b51dfe86-3361-41c8-87c8-520bcd630eac"},"vehicle_type_id":"4","last_reported":1733472783,"current_range_meters":15200,"station_id":"ce4bgup2rcd13ifvqco0","pricing_plan_id":"cebpf4jnsgd1na2vs0mg"},{"bike_id":"cee1a977-f386-4ca7-b7f4-ecb23b8538de","system_id":"levelo_inurba_marseille","lat":43.28485,"lon":5.38424,"is_reserved":false,"is_disabled":true,"rental_uris":{"android":"levelo://app?vid=cee1a977-f386-4ca7-b7f4-ecb23b8538de","ios":"levelo://app?vid=cee1a977-f386-4ca7-b7f4-ecb23b8538de"},"vehicle_type_id":"4","last_reported":1733472783,"current_range_meters":0,"station_id":"","pricing_plan_id":"cebpf4jnsgd1na2vs0mg"},{"bike_id":"a4d3b324-e08a-49a2-ae58-8854d2d2da3b","system_id":"levelo_inurba_marseille","lat":43.3177,"lon":5.37288,"is_reserved":false,"is_disabled":false,"rental_uris":{"android":"levelo://app?vid=a4d3b324-e08a-49a2-ae58-8854d2d2da3b","ios":"levelo://app?vid=a4d3b324-e08a-49a2-ae58-8854d2d2da3b"},"vehicle_type_id":"4","last_reported":1733472783,"current_range_meters":34800,"station_id":"","pricing_plan_id":"cebpf4jnsgd1na2vs0mg"},{"bike_id":"cdfe6590-4984-4014-86c8-6dd70747c27a","system_id":"levelo_inurba_marseille","lat":43.29737,"lon":5.37434,"is_reserved":false,"is_disabled":true,"rental_uris":{"android":"levelo://app?vid=cdfe6590-4984-4014-86c8-6dd70747c27a","ios":"levelo://app?vid=cdfe6590-4984-4014-86c8-6dd70747c27a"},"vehicle_type_id":"4","last_reported":1733472783,"current_range_meters":0,"station_id":"","pricing_plan_id":"cebpf4jnsgd1na2vs0mg"},{"bike_id":"3ee7cc12-5a0c-4c73-a8df-8def52948c8e","system_id":"levelo_inurba_marseille","lat":43.26957,"lon":5.38625,"is_reserved":false,"is_disabled":false,"rental_uris":{"android":"levelo://app?vid=3ee7cc12-5a0c-4c73-a8df-8def52948c8e","ios":"levelo://app?vid=3ee7cc12-5a0c-4c73-a8df-8def52948c8e"},"vehicle_type_id":"4","last_reported":1733472783,"current_range_meters":32400,"station_id":"ce4bhh92rcd13ifvqfh0","pricing_plan_id":"cebpf4jnsgd1na2vs0mg"},{"bike_id":"4d0dadab-e6e1-4e5a-9b42-cd848beb1025","system_id":"levelo_inurba_marseille","lat":43.255786,"lon":5.382368,"is_reserved":false,"is_disabled":false,"rental_uris":{"android":"levelo://app?vid=4d0dadab-e6e1-4e5a-9b42-cd848beb1025","ios":"levelo://app?vid=4d0dadab-e6e1-4e5a-9b42-cd848beb1025"},"vehicle_type_id":"4","last_reported":1733472783,"current_range_meters":18800,"station_id":"ce4bhih2rcd13ifvqfs0","pricing_plan_id":"cebpf4jnsgd1na2vs0mg"},{"bike_id":"8075e1e4-c7e4-4ef6-8da3-fa46955ebf15","system_id":"levelo_inurba_marseille","lat":43.309556,"lon":5.390493,"is_reserved":false,"is_disabled":false,"rental_uris":{"android":"levelo://app?vid=8075e1e4-c7e4-4ef6-8da3-fa46955ebf15","ios":"levelo://app?vid=8075e1e4-c7e4-4ef6-8da3-fa46955ebf15"},"vehicle_type_id":"4","last_reported":1733472783,"current_range_meters":36400,"station_id":"ce4bgup2rcd13ifvqco0","pricing_plan_id":"cebpf4jnsgd1na2vs0mg"},{"bike_id":"2bd9e227-9504-45f5-94e5-b6a337568cb4","system_id":"levelo_inurba_marseille","lat":43.30358,"lon":5.41879,"is_reserved":false,"is_disabled":false,"rental_uris":{"android":"levelo://app?vid=2bd9e227-9504-45f5-94e5-b6a337568cb4","ios":"levelo://app?vid=2bd9e227-9504-45f5-94e5-b6a337568cb4"},"vehicle_type_id":"4","last_reported":1733472783,"current_range_meters":11600,"station_id":"ce4bhop2rcd13ifvqh7g","pricing_plan_id":"cebpf4jnsgd1na2vs0mg"},{"bike_id":"6fb00969-21f8-4503-a74e-e887bd6407a1","system_id":"levelo_inurba_marseille","lat":43.27497,"lon":5.42455,"is_reserved":false,"is_disabled":false,"rental_uris":{"android":"levelo://app?vid=6fb00969-21f8-4503-a74e-e887bd6407a1","ios":"levelo://app?vid=6fb00969-21f8-4503-a74e-e887bd6407a1"},"vehicle_type_id":"4","last_reported":1733472783,"current_range_meters":36400,"station_id":"ce4bhn92rcd13ifvqgrg","pricing_plan_id":"cebpf4jnsgd1na2vs0mg"},{"bike_id":"987a5ab4-d60c-480c-94b6-7cab38975402","system_id":"levelo_inurba_marseille","lat":43.29748,"lon":5.37971,"is_reserved":false,"is_disabled":true,"rental_uris":{"android":"levelo://app?vid=987a5ab4-d60c-480c-94b6-7cab38975402","ios":"levelo://app?vid=987a5ab4-d60c-480c-94b6-7cab38975402"},"vehicle_type_id":"4","last_reported":1733472783,"current_range_meters":0,"station_id":"","pricing_plan_id":"cebpf4jnsgd1na2vs0mg"},{"bike_id":"2c4596ad-0ad9-4016-b92b-0093349de2b4","system_id":"levelo_inurba_marseille","lat":43.30755,"lon":5.38187,"is_reserved":false,"is_disabled":true,"rental_uris":{"android":"levelo://app?vid=2c4596ad-0ad9-4016-b92b-0093349de2b4","ios":"levelo://app?vid=2c4596ad-0ad9-4016-b92b-0093349de2b4"},"vehicle_type_id":"4","last_reported":1733472783,"current_range_meters":0,"station_id":"","pricing_plan_id":"cebpf4jnsgd1na2vs0mg"},{"bike_id":"2ad9673b-1d2d-4a0f-8dfe-0d23ab8cf51a","system_id":"levelo_inurba_marseille","lat":43.32367,"lon":5.38884,"is_reserved":false,"is_disabled":false,"rental_uris":{"android":"levelo://app?vid=2ad9673b-1d2d-4a0f-8dfe-0d23ab8cf51a","ios":"levelo://app?vid=2ad9673b-1d2d-4a0f-8dfe-0d23ab8cf51a"},"vehicle_type_id":"4","last_reported":1733472783,"current_range_meters":20400,"station_id":"ce4bhqp2rcd13ifvqhog","pricing_plan_id":"cebpf4jnsgd1na2vs0mg"},{"bike_id":"b7ab8c01-033f-4395-8276-23c850ad3d02","system_id":"levelo_inurba_marseille","lat":43.30348,"lon":5.36626,"is_reserved":false,"is_disabled":true,"rental_uris":{"android":"levelo://app?vid=b7ab8c01-033f-4395-8276-23c850ad3d02","ios":"levelo://app?vid=b7ab8c01-033f-4395-8276-23c850ad3d02"},"vehicle_type_id":"4","last_reported":1733472783,"current_range_meters":0,"station_id":"","pricing_plan_id":"cebpf4jnsgd1na2vs0mg"},{"bike_id":"0279b2c0-513c-422a-b9fb-9fc99372925b","system_id":"levelo_inurba_marseille","lat":43.31554,"lon":5.38919,"is_reserved":false,"is_disabled":false,"rental_uris":{"android":"levelo://app?vid=0279b2c0-513c-422a-b9fb-9fc99372925b","ios":"levelo://app?vid=0279b2c0-513c-422a-b9fb-9fc99372925b"},"vehicle_type_id":"4","last_reported":1733472783,"current_range_meters":19200,"station_id":"","pricing_plan_id":"cebpf4jnsgd1na2vs0mg"},{"bike_id":"f4676a9b-685c-4e8f-a479-8e34f48f1df5","system_id":"levelo_inurba_marseille","lat":43.3373,"lon":5.39181,"is_reserved":false,"is_disabled":false,"rental_uris":{"android":"levelo://app?vid=f4676a9b-685c-4e8f-a479-8e34f48f1df5","ios":"levelo://app?vid=f4676a9b-685c-4e8f-a479-8e34f48f1df5"},"vehicle_type_id":"4","last_reported":1733472783,"current_range_meters":38400,"station_id":"ce4bhr92rcd13ifvqhsg","pricing_plan_id":"cebpf4jnsgd1na2vs0mg"},{"bike_id":"b15a802f-09bb-4088-aa70-fff1dfefff70","system_id":"levelo_inurba_marseille","lat":43.23153,"lon":5.43722,"is_reserved":false,"is_disabled":false,"rental_uris":{"android":"levelo://app?vid=b15a802f-09bb-4088-aa70-fff1dfefff70","ios":"levelo://app?vid=b15a802f-09bb-4088-aa70-fff1dfefff70"},"vehicle_type_id":"4","last_reported":1733472783,"current_range_meters":19600,"station_id":"ce4bhmp2rcd13ifvqgog","pricing_plan_id":"cebpf4jnsgd1na2vs0mg"},{"bike_id":"aabdb257-8888-4229-a0a4-2fbdece78663","system_id":"levelo_inurba_marseille","lat":43.32486,"lon":5.36567,"is_reserved":false,"is_disabled":false,"rental_uris":{"android":"levelo://app?vid=aabdb257-8888-4229-a0a4-2fbdece78663","ios":"levelo://app?vid=aabdb257-8888-4229-a0a4-2fbdece78663"},"vehicle_type_id":"4","last_reported":1733472783,"current_range_meters":26800,"station_id":"ce4bhs12rcd13ifvqhvg","pricing_plan_id":"cebpf4jnsgd1na2vs0mg"},{"bike_id":"01fc086f-11d0-4126-a5a7-f83f36005f81","system_id":"levelo_inurba_marseille","lat":43.31766,"lon":5.36883,"is_reserved":false,"is_disabled":false,"rental_uris":{"android":"levelo://app?vid=01fc086f-11d0-4126-a5a7-f83f36005f81","ios":"levelo://app?vid=01fc086f-11d0-4126-a5a7-f83f36005f81"},"vehicle_type_id":"4","last_reported":1733472783,"current_range_meters":35600,"station_id":"","pricing_plan_id":"cebpf4jnsgd1na2vs0mg"},{"bike_id":"3d769a68-e6a2-4c4a-88b0-3c686dbb241d","system_id":"levelo_inurba_marseille","lat":43.28912,"lon":5.394975,"is_reserved":false,"is_disabled":false,"rental_uris":{"android":"levelo://app?vid=3d769a68-e6a2-4c4a-88b0-3c686dbb241d","ios":"levelo://app?vid=3d769a68-e6a2-4c4a-88b0-3c686dbb241d"},"vehicle_type_id":"4","last_reported":1733472783,"current_range_meters":4400,"station_id":"","pricing_plan_id":"cebpf4jnsgd1na2vs0mg"},{"bike_id":"365a7539-8d65-43f2-8f6f-884e74be06d8","system_id":"levelo_inurba_marseille","lat":43.28616,"lon":5.35101,"is_reserved":false,"is_disabled":true,"rental_uris":{"android":"levelo://app?vid=365a7539-8d65-43f2-8f6f-884e74be06d8","ios":"levelo://app?vid=365a7539-8d65-43f2-8f6f-884e74be06d8"},"vehicle_type_id":"4","last_reported":1733472783,"current_range_meters":1200,"station_id":"ce4bhch2rcd13ifvqeug","pricing_plan_id":"cebpf4jnsgd1na2vs0mg"},{"bike_id":"11e86528-eb6b-4391-86a5-9b1822d069a4","system_id":"levelo_inurba_marseille","lat":43.278805,"lon":5.388003,"is_reserved":false,"is_disabled":true,"rental_uris":{"android":"levelo://app?vid=11e86528-eb6b-4391-86a5-9b1822d069a4","ios":"levelo://app?vid=11e86528-eb6b-4391-86a5-9b1822d069a4"},"vehicle_type_id":"4","last_reported":1733472783,"current_range_meters":6400,"station_id":"","pricing_plan_id":"cebpf4jnsgd1na2vs0mg"},{"bike_id":"6cc6805f-c0ca-4585-bdf1-b5a0339762b0","system_id":"levelo_inurba_marseille","lat":43.29027,"lon":5.42744,"is_reserved":false,"is_disabled":true,"rental_uris":{"android":"levelo://app?vid=6cc6805f-c0ca-4585-bdf1-b5a0339762b0","ios":"levelo://app?vid=6cc6805f-c0ca-4585-bdf1-b5a0339762b0"},"vehicle_type_id":"4","last_reported":1733472783,"current_range_meters":0,"station_id":"","pricing_plan_id":"cebpf4jnsgd1na2vs0mg"},{"bike_id":"1d5bafba-bfb3-46e4-b5fb-ab509808ea9e","system_id":"levelo_inurba_marseille","lat":43.27422,"lon":5.39413,"is_reserved":false,"is_disabled":false,"rental_uris":{"android":"levelo://app?vid=1d5bafba-bfb3-46e4-b5fb-ab509808ea9e","ios":"levelo://app?vid=1d5bafba-bfb3-46e4-b5fb-ab509808ea9e"},"vehicle_type_id":"4","last_reported":1733472783,"current_range_meters":38800,"station_id":"ce4bhdp2rcd13ifvqf20","pricing_plan_id":"cebpf4jnsgd1na2vs0mg"},{"bike_id":"4e6fc26f-c1d5-4d84-ac5b-7d384b8c30d5","system_id":"levelo_inurba_marseille","lat":43.32362,"lon":5.36743,"is_reserved":false,"is_disabled":false,"rental_uris":{"android":"levelo://app?vid=4e6fc26f-c1d5-4d84-ac5b-7d384b8c30d5","ios":"levelo://app?vid=4e6fc26f-c1d5-4d84-ac5b-7d384b8c30d5"},"vehicle_type_id":"4","last_reported":1733472783,"current_range_meters":8000,"station_id":"ce4bhsh2rcd13ifvqi2g","pricing_plan_id":"cebpf4jnsgd1na2vs0mg"},{"bike_id":"8d1c8b92-79bb-4181-b0d2-5e94db1a14d0","system_id":"levelo_inurba_marseille","lat":43.29972,"lon":5.3826,"is_reserved":false,"is_disabled":true,"rental_uris":{"android":"levelo://app?vid=8d1c8b92-79bb-4181-b0d2-5e94db1a14d0","ios":"levelo://app?vid=8d1c8b92-79bb-4181-b0d2-5e94db1a14d0"},"vehicle_type_id":"4","last_reported":1733472783,"current_range_meters":0,"station_id":"","pricing_plan_id":"cebpf4jnsgd1na2vs0mg"},{"bike_id":"66988d75-a9f0-423c-89be-11e06668ead3","system_id":"levelo_inurba_marseille","lat":43.2656,"lon":5.37283,"is_reserved":false,"is_disabled":true,"rental_uris":{"android":"levelo://app?vid=66988d75-a9f0-423c-89be-11e06668ead3","ios":"levelo://app?vid=66988d75-a9f0-423c-89be-11e06668ead3"},"vehicle_type_id":"4","last_reported":1733472783,"current_range_meters":0,"station_id":"ce4bhg12rcd13ifvqf70","pricing_plan_id":"cebpf4jnsgd1na2vs0mg"},{"bike_id":"86b16773-a548-4ef0-9a22-6b1e8564b227","system_id":"levelo_inurba_marseille","lat":43.28005,"lon":5.40012,"is_reserved":false,"is_disabled":false,"rental_uris":{"android":"levelo://app?vid=86b16773-a548-4ef0-9a22-6b1e8564b227","ios":"levelo://app?vid=86b16773-a548-4ef0-9a22-6b1e8564b227"},"vehicle_type_id":"4","last_reported":1733472783,"current_range_meters":38800,"station_id":"ce4bho92rcd13ifvqh4g","pricing_plan_id":"cebpf4jnsgd1na2vs0mg"},{"bike_id":"2d4328f5-608e-4ff2-8dbb-502f49d3f46f","system_id":"levelo_inurba_marseille","lat":43.293466,"lon":5.385238,"is_reserved":false,"is_disabled":false,"rental_uris":{"android":"levelo://app?vid=2d4328f5-608e-4ff2-8dbb-502f49d3f46f","ios":"levelo://app?vid=2d4328f5-608e-4ff2-8dbb-502f49d3f46f"},"vehicle_type_id":"4","last_reported":1733472783,"current_range_meters":14800,"station_id":"","pricing_plan_id":"cebpf4jnsgd1na2vs0mg"},{"bike_id":"fbbe482b-b222-49f4-9598-daed94552451","system_id":"levelo_inurba_marseille","lat":43.25941,"lon":5.40903,"is_reserved":false,"is_disabled":false,"rental_uris":{"android":"levelo://app?vid=fbbe482b-b222-49f4-9598-daed94552451","ios":"levelo://app?vid=fbbe482b-b222-49f4-9598-daed94552451"},"vehicle_type_id":"4","last_reported":1733472783,"current_range_meters":18000,"station_id":"ce4bhm92rcd13ifvqglg","pricing_plan_id":"cebpf4jnsgd1na2vs0mg"},{"bike_id":"2e558381-b365-424a-ac88-e39ec193888d","system_id":"levelo_inurba_marseille","lat":43.30968,"lon":5.39056,"is_reserved":false,"is_disabled":true,"rental_uris":{"android":"levelo://app?vid=2e558381-b365-424a-ac88-e39ec193888d","ios":"levelo://app?vid=2e558381-b365-424a-ac88-e39ec193888d"},"vehicle_type_id":"4","last_reported":1733472783,"current_range_meters":1200,"station_id":"ce4bgup2rcd13ifvqco0","pricing_plan_id":"cebpf4jnsgd1na2vs0mg"},{"bike_id":"7401184e-dcdc-4f69-89e9-1615045c1f8c","system_id":"levelo_inurba_marseille","lat":43.3003,"lon":5.38919,"is_reserved":false,"is_disabled":true,"rental_uris":{"android":"levelo://app?vid=7401184e-dcdc-4f69-89e9-1615045c1f8c","ios":"levelo://app?vid=7401184e-dcdc-4f69-89e9-1615045c1f8c"},"vehicle_type_id":"4","last_reported":1733472783,"current_range_meters":0,"station_id":"","pricing_plan_id":"cebpf4jnsgd1na2vs0mg"},{"bike_id":"8d92b535-a11b-4ce9-a357-9330f41faef2","system_id":"levelo_inurba_marseille","lat":43.25825,"lon":5.39438,"is_reserved":false,"is_disabled":false,"rental_uris":{"android":"levelo://app?vid=8d92b535-a11b-4ce9-a357-9330f41faef2","ios":"levelo://app?vid=8d92b535-a11b-4ce9-a357-9330f41faef2"},"vehicle_type_id":"4","last_reported":1733472783,"current_range_meters":39200,"station_id":"ce4bhip2rcd13ifvqft0","pricing_plan_id":"cebpf4jnsgd1na2vs0mg"},{"bike_id":"d202779d-d8b0-4f7b-ad4a-054b02d9fe98","system_id":"levelo_inurba_marseille","lat":43.25122,"lon":5.40316,"is_reserved":false,"is_disabled":false,"rental_uris":{"android":"levelo://app?vid=d202779d-d8b0-4f7b-ad4a-054b02d9fe98","ios":"levelo://app?vid=d202779d-d8b0-4f7b-ad4a-054b02d9fe98"},"vehicle_type_id":"4","last_reported":1733472783,"current_range_meters":11200,"station_id":"ce4bhlh2rcd13ifvqgig","pricing_plan_id":"cebpf4jnsgd1na2vs0mg"},{"bike_id":"9235a45d-a7bb-479a-94f3-3fbfbc2df340","system_id":"levelo_inurba_marseille","lat":43.25498,"lon":5.37649,"is_reserved":false,"is_disabled":false,"rental_uris":{"android":"levelo://app?vid=9235a45d-a7bb-479a-94f3-3fbfbc2df340","ios":"levelo://app?vid=9235a45d-a7bb-479a-94f3-3fbfbc2df340"},"vehicle_type_id":"4","last_reported":1733472783,"current_range_meters":9600,"station_id":"ce4bhh12rcd13ifvqff0","pricing_plan_id":"cebpf4jnsgd1na2vs0mg"},{"bike_id":"5e0f238b-ae64-4126-8ec3-f35e96dcf93f","system_id":"levelo_inurba_marseille","lat":43.25003,"lon":5.38926,"is_reserved":false,"is_disabled":false,"rental_uris":{"android":"levelo://app?vid=5e0f238b-ae64-4126-8ec3-f35e96dcf93f","ios":"levelo://app?vid=5e0f238b-ae64-4126-8ec3-f35e96dcf93f"},"vehicle_type_id":"4","last_reported":1733472783,"current_range_meters":23200,"station_id":"ce4bhgp2rcd13ifvqfd0","pricing_plan_id":"cebpf4jnsgd1na2vs0mg"},{"bike_id":"a41e2c27-028d-4b70-a9e4-77567138afa3","system_id":"levelo_inurba_marseille","lat":43.30545,"lon":5.38425,"is_reserved":false,"is_disabled":false,"rental_uris":{"android":"levelo://app?vid=a41e2c27-028d-4b70-a9e4-77567138afa3","ios":"levelo://app?vid=a41e2c27-028d-4b70-a9e4-77567138afa3"},"vehicle_type_id":"4","last_reported":1733472783,"current_range_meters":27600,"station_id":"ce4bgg92rcd13ifvqb30","pricing_plan_id":"cebpf4jnsgd1na2vs0mg"},{"bike_id":"2192e276-8ae2-4e00-8d2a-d3a83978fbd6","system_id":"levelo_inurba_marseille","lat":43.23156,"lon":5.43712,"is_reserved":false,"is_disabled":false,"rental_uris":{"android":"levelo://app?vid=2192e276-8ae2-4e00-8d2a-d3a83978fbd6","ios":"levelo://app?vid=2192e276-8ae2-4e00-8d2a-d3a83978fbd6"},"vehicle_type_id":"4","last_reported":1733472783,"current_range_meters":27600,"station_id":"ce4bhmp2rcd13ifvqgog","pricing_plan_id":"cebpf4jnsgd1na2vs0mg"},{"bike_id":"cf315912-6fc6-4c2f-9885-dbef65eb8065","system_id":"levelo_inurba_marseille","lat":43.28822,"lon":5.38825,"is_reserved":false,"is_disabled":false,"rental_uris":{"android":"levelo://app?vid=cf315912-6fc6-4c2f-9885-dbef65eb8065","ios":"levelo://app?vid=cf315912-6fc6-4c2f-9885-dbef65eb8065"},"vehicle_type_id":"4","last_reported":1733472783,"current_range_meters":11600,"station_id":"","pricing_plan_id":"cebpf4jnsgd1na2vs0mg"},{"bike_id":"3fab0d02-0b16-4f66-b1af-3c810bb7b85a","system_id":"levelo_inurba_marseille","lat":43.29359,"lon":5.37853,"is_reserved":false,"is_disabled":true,"rental_uris":{"android":"levelo://app?vid=3fab0d02-0b16-4f66-b1af-3c810bb7b85a","ios":"levelo://app?vid=3fab0d02-0b16-4f66-b1af-3c810bb7b85a"},"vehicle_type_id":"4","last_reported":1733472783,"current_range_meters":24400,"station_id":"ce4bgjh2rcd13ifvqbf0","pricing_plan_id":"cebpf4jnsgd1na2vs0mg"},{"bike_id":"7e138b6d-da12-4dd1-aa5c-731ba9e5976b","system_id":"levelo_inurba_marseille","lat":43.3167,"lon":5.37324,"is_reserved":false,"is_disabled":true,"rental_uris":{"android":"levelo://app?vid=7e138b6d-da12-4dd1-aa5c-731ba9e5976b","ios":"levelo://app?vid=7e138b6d-da12-4dd1-aa5c-731ba9e5976b"},"vehicle_type_id":"4","last_reported":1733472783,"current_range_meters":0,"station_id":"","pricing_plan_id":"cebpf4jnsgd1na2vs0mg"},{"bike_id":"c194d2b7-f703-4a71-8551-257108ddb668","system_id":"levelo_inurba_marseille","lat":43.29713,"lon":5.36593,"is_reserved":false,"is_disabled":false,"rental_uris":{"android":"levelo://app?vid=c194d2b7-f703-4a71-8551-257108ddb668","ios":"levelo://app?vid=c194d2b7-f703-4a71-8551-257108ddb668"},"vehicle_type_id":"4","last_reported":1733472783,"current_range_meters":20000,"station_id":"ce4bgn12rcd13ifvqbt0","pricing_plan_id":"cebpf4jnsgd1na2vs0mg"},{"bike_id":"97caf237-85e4-434f-9ad0-53e6794457f3","system_id":"levelo_inurba_marseille","lat":43.2319,"lon":5.4001,"is_reserved":false,"is_disabled":false,"rental_uris":{"android":"levelo://app?vid=97caf237-85e4-434f-9ad0-53e6794457f3","ios":"levelo://app?vid=97caf237-85e4-434f-9ad0-53e6794457f3"},"vehicle_type_id":"4","last_reported":1733472783,"current_range_meters":38000,"station_id":"ce4bhn12rcd13ifvqgqg","pricing_plan_id":"cebpf4jnsgd1na2vs0mg"},{"bike_id":"9c77a68d-2e99-44e9-b903-950fb6644d35","system_id":"levelo_inurba_marseille","lat":43.25265,"lon":5.39465,"is_reserved":false,"is_disabled":true,"rental_uris":{"android":"levelo://app?vid=9c77a68d-2e99-44e9-b903-950fb6644d35","ios":"levelo://app?vid=9c77a68d-2e99-44e9-b903-950fb6644d35"},"vehicle_type_id":"4","last_reported":1733472783,"current_range_meters":0,"station_id":"","pricing_plan_id":"cebpf4jnsgd1na2vs0mg"},{"bike_id":"1db7a442-453a-4eeb-9121-196736f0ce47","system_id":"levelo_inurba_marseille","lat":43.30147,"lon":5.38077,"is_reserved":false,"is_disabled":false,"rental_uris":{"android":"levelo://app?vid=1db7a442-453a-4eeb-9121-196736f0ce47","ios":"levelo://app?vid=1db7a442-453a-4eeb-9121-196736f0ce47"},"vehicle_type_id":"4","last_reported":1733472783,"current_range_meters":38800,"station_id":"ce4bgjp2rcd13ifvqbh0","pricing_plan_id":"cebpf4jnsgd1na2vs0mg"},{"bike_id":"8e82f2ca-6ff2-4048-bc8a-f89791c5df5b","system_id":"levelo_inurba_marseille","lat":43.24075,"lon":5.37744,"is_reserved":false,"is_disabled":true,"rental_uris":{"android":"levelo://app?vid=8e82f2ca-6ff2-4048-bc8a-f89791c5df5b","ios":"levelo://app?vid=8e82f2ca-6ff2-4048-bc8a-f89791c5df5b"},"vehicle_type_id":"4","last_reported":1733472783,"current_range_meters":25200,"station_id":"ce4bhnp2rcd13ifvqgvg","pricing_plan_id":"cebpf4jnsgd1na2vs0mg"},{"bike_id":"bc3d5e10-8b3a-44c5-931e-a78f6c147614","system_id":"levelo_inurba_marseille","lat":43.27568,"lon":5.3841,"is_reserved":false,"is_disabled":false,"rental_uris":{"android":"levelo://app?vid=bc3d5e10-8b3a-44c5-931e-a78f6c147614","ios":"levelo://app?vid=bc3d5e10-8b3a-44c5-931e-a78f6c147614"},"vehicle_type_id":"4","last_reported":1733472783,"current_range_meters":38800,"station_id":"ce4bhh92rcd13ifvqfi0","pricing_plan_id":"cebpf4jnsgd1na2vs0mg"},{"bike_id":"d0c1876a-a4f3-4d77-a856-9a68b657c668","system_id":"levelo_inurba_marseille","lat":43.24076,"lon":5.37754,"is_reserved":false,"is_disabled":false,"rental_uris":{"android":"levelo://app?vid=d0c1876a-a4f3-4d77-a856-9a68b657c668","ios":"levelo://app?vid=d0c1876a-a4f3-4d77-a856-9a68b657c668"},"vehicle_type_id":"4","last_reported":1733472783,"current_range_meters":38800,"station_id":"ce4bhnp2rcd13ifvqgvg","pricing_plan_id":"cebpf4jnsgd1na2vs0mg"},{"bike_id":"83985555-c848-4b28-808f-8a7e7cf8519e","system_id":"levelo_inurba_marseille","lat":43.28115,"lon":5.43955,"is_reserved":false,"is_disabled":true,"rental_uris":{"android":"levelo://app?vid=83985555-c848-4b28-808f-8a7e7cf8519e","ios":"levelo://app?vid=83985555-c848-4b28-808f-8a7e7cf8519e"},"vehicle_type_id":"4","last_reported":1733472783,"current_range_meters":0,"station_id":"","pricing_plan_id":"cebpf4jnsgd1na2vs0mg"},{"bike_id":"7326b8b1-24b7-4c26-9027-ad533451c1c2","system_id":"levelo_inurba_marseille","lat":43.24068,"lon":5.3775,"is_reserved":false,"is_disabled":false,"rental_uris":{"android":"levelo://app?vid=7326b8b1-24b7-4c26-9027-ad533451c1c2","ios":"levelo://app?vid=7326b8b1-24b7-4c26-9027-ad533451c1c2"},"vehicle_type_id":"4","last_reported":1733472783,"current_range_meters":14400,"station_id":"ce4bhnp2rcd13ifvqgvg","pricing_plan_id":"cebpf4jnsgd1na2vs0mg"},{"bike_id":"903ec8f1-f4c3-441f-a117-ff7454fcb959","system_id":"levelo_inurba_marseille","lat":43.29478,"lon":5.39404,"is_reserved":false,"is_disabled":true,"rental_uris":{"android":"levelo://app?vid=903ec8f1-f4c3-441f-a117-ff7454fcb959","ios":"levelo://app?vid=903ec8f1-f4c3-441f-a117-ff7454fcb959"},"vehicle_type_id":"4","last_reported":1733472783,"current_range_meters":0,"station_id":"ce4bh292rcd13ifvqdf0","pricing_plan_id":"cebpf4jnsgd1na2vs0mg"},{"bike_id":"9bc47e6e-404e-4d83-a9c3-862006ca093e","system_id":"levelo_inurba_marseille","lat":43.28834,"lon":5.37917,"is_reserved":false,"is_disabled":false,"rental_uris":{"android":"levelo://app?vid=9bc47e6e-404e-4d83-a9c3-862006ca093e","ios":"levelo://app?vid=9bc47e6e-404e-4d83-a9c3-862006ca093e"},"vehicle_type_id":"4","last_reported":1733472783,"current_range_meters":16400,"station_id":"","pricing_plan_id":"cebpf4jnsgd1na2vs0mg"},{"bike_id":"04a282cb-05e8-434c-a1ea-196c599ab847","system_id":"levelo_inurba_marseille","lat":43.31008,"lon":5.42058,"is_reserved":false,"is_disabled":false,"rental_uris":{"android":"levelo://app?vid=04a282cb-05e8-434c-a1ea-196c599ab847","ios":"levelo://app?vid=04a282cb-05e8-434c-a1ea-196c599ab847"},"vehicle_type_id":"4","last_reported":1733472783,"current_range_meters":38800,"station_id":"ce4bhp92rcd13ifvqhag","pricing_plan_id":"cebpf4jnsgd1na2vs0mg"},{"bike_id":"4a8e21e6-ec65-4655-92a4-dfff45da23c1","system_id":"levelo_inurba_marseille","lat":43.25507,"lon":5.37649,"is_reserved":false,"is_disabled":true,"rental_uris":{"android":"levelo://app?vid=4a8e21e6-ec65-4655-92a4-dfff45da23c1","ios":"levelo://app?vid=4a8e21e6-ec65-4655-92a4-dfff45da23c1"},"vehicle_type_id":"4","last_reported":1733472783,"current_range_meters":39200,"station_id":"ce4bhh12rcd13ifvqff0","pricing_plan_id":"cebpf4jnsgd1na2vs0mg"},{"bike_id":"b8a700b0-b24e-45c1-9c65-bb2892b35ff9","system_id":"levelo_inurba_marseille","lat":43.32543,"lon":5.41438,"is_reserved":false,"is_disabled":false,"rental_uris":{"android":"levelo://app?vid=b8a700b0-b24e-45c1-9c65-bb2892b35ff9","ios":"levelo://app?vid=b8a700b0-b24e-45c1-9c65-bb2892b35ff9"},"vehicle_type_id":"4","last_reported":1733472783,"current_range_meters":35200,"station_id":"ce4bhq12rcd13ifvqhhg","pricing_plan_id":"cebpf4jnsgd1na2vs0mg"},{"bike_id":"0c507ca3-908d-4b41-b22c-e04739a3c43f","system_id":"levelo_inurba_marseille","lat":43.31484,"lon":5.37306,"is_reserved":false,"is_disabled":false,"rental_uris":{"android":"levelo://app?vid=0c507ca3-908d-4b41-b22c-e04739a3c43f","ios":"levelo://app?vid=0c507ca3-908d-4b41-b22c-e04739a3c43f"},"vehicle_type_id":"4","last_reported":1733472783,"current_range_meters":31200,"station_id":"ce4bgt12rcd13ifvqcd0","pricing_plan_id":"cebpf4jnsgd1na2vs0mg"},{"bike_id":"0f618fb2-6893-4636-8622-a0878310ef5d","system_id":"levelo_inurba_marseille","lat":43.292985,"lon":5.37445,"is_reserved":false,"is_disabled":true,"rental_uris":{"android":"levelo://app?vid=0f618fb2-6893-4636-8622-a0878310ef5d","ios":"levelo://app?vid=0f618fb2-6893-4636-8622-a0878310ef5d"},"vehicle_type_id":"4","last_reported":1733472783,"current_range_meters":38800,"station_id":"ce4bgi12rcd13ifvqb70","pricing_plan_id":"cebpf4jnsgd1na2vs0mg"},{"bike_id":"020719d4-c29b-4e35-be4b-81ca932ddaa9","system_id":"levelo_inurba_marseille","lat":43.30242,"lon":5.40064,"is_reserved":false,"is_disabled":true,"rental_uris":{"android":"levelo://app?vid=020719d4-c29b-4e35-be4b-81ca932ddaa9","ios":"levelo://app?vid=020719d4-c29b-4e35-be4b-81ca932ddaa9"},"vehicle_type_id":"4","last_reported":1733472783,"current_range_meters":27600,"station_id":"ce4bgvh2rcd13ifvqcs0","pricing_plan_id":"cebpf4jnsgd1na2vs0mg"},{"bike_id":"735debda-4cb5-4de1-8f9b-ddc354a8500b","system_id":"levelo_inurba_marseille","lat":43.26496,"lon":5.39546,"is_reserved":false,"is_disabled":true,"rental_uris":{"android":"levelo://app?vid=735debda-4cb5-4de1-8f9b-ddc354a8500b","ios":"levelo://app?vid=735debda-4cb5-4de1-8f9b-ddc354a8500b"},"vehicle_type_id":"4","last_reported":1733472783,"current_range_meters":32800,"station_id":"ce4bhi12rcd13ifvqfq0","pricing_plan_id":"cebpf4jnsgd1na2vs0mg"},{"bike_id":"a8264fb2-dad4-4c52-9230-cf80b47302d6","system_id":"levelo_inurba_marseille","lat":43.31996,"lon":5.38151,"is_reserved":false,"is_disabled":false,"rental_uris":{"android":"levelo://app?vid=a8264fb2-dad4-4c52-9230-cf80b47302d6","ios":"levelo://app?vid=a8264fb2-dad4-4c52-9230-cf80b47302d6"},"vehicle_type_id":"4","last_reported":1733472783,"current_range_meters":12800,"station_id":"ce4bhr12rcd13ifvqhpg","pricing_plan_id":"cebpf4jnsgd1na2vs0mg"},{"bike_id":"5edf82fa-e9d0-4d1f-98f1-37c98092771a","system_id":"levelo_inurba_marseille","lat":43.23184,"lon":5.35513,"is_reserved":false,"is_disabled":false,"rental_uris":{"android":"levelo://app?vid=5edf82fa-e9d0-4d1f-98f1-37c98092771a","ios":"levelo://app?vid=5edf82fa-e9d0-4d1f-98f1-37c98092771a"},"vehicle_type_id":"4","last_reported":1733472783,"current_range_meters":38800,"station_id":"ce4bhu92rcd13ifvqi70","pricing_plan_id":"cebpf4jnsgd1na2vs0mg"},{"bike_id":"5c8c1563-790f-413c-92a4-e9bf05f3db3f","system_id":"levelo_inurba_marseille","lat":43.24069,"lon":5.37763,"is_reserved":false,"is_disabled":false,"rental_uris":{"android":"levelo://app?vid=5c8c1563-790f-413c-92a4-e9bf05f3db3f","ios":"levelo://app?vid=5c8c1563-790f-413c-92a4-e9bf05f3db3f"},"vehicle_type_id":"4","last_reported":1733472783,"current_range_meters":10000,"station_id":"ce4bhnp2rcd13ifvqgvg","pricing_plan_id":"cebpf4jnsgd1na2vs0mg"},{"bike_id":"6507e3db-e7f1-48be-a24e-7d810db27ffa","system_id":"levelo_inurba_marseille","lat":43.30148,"lon":5.3808,"is_reserved":false,"is_disabled":false,"rental_uris":{"android":"levelo://app?vid=6507e3db-e7f1-48be-a24e-7d810db27ffa","ios":"levelo://app?vid=6507e3db-e7f1-48be-a24e-7d810db27ffa"},"vehicle_type_id":"4","last_reported":1733472783,"current_range_meters":38400,"station_id":"ce4bgjp2rcd13ifvqbh0","pricing_plan_id":"cebpf4jnsgd1na2vs0mg"},{"bike_id":"2278aa7c-669c-4263-9ba8-1156e5deaf60","system_id":"levelo_inurba_marseille","lat":43.23197,"lon":5.39994,"is_reserved":false,"is_disabled":true,"rental_uris":{"android":"levelo://app?vid=2278aa7c-669c-4263-9ba8-1156e5deaf60","ios":"levelo://app?vid=2278aa7c-669c-4263-9ba8-1156e5deaf60"},"vehicle_type_id":"4","last_reported":1733472783,"current_range_meters":0,"station_id":"ce4bhn12rcd13ifvqgqg","pricing_plan_id":"cebpf4jnsgd1na2vs0mg"},{"bike_id":"696aff15-0b39-476f-8937-4b7e9cf37bd5","system_id":"levelo_inurba_marseille","lat":43.24079,"lon":5.37744,"is_reserved":false,"is_disabled":false,"rental_uris":{"android":"levelo://app?vid=696aff15-0b39-476f-8937-4b7e9cf37bd5","ios":"levelo://app?vid=696aff15-0b39-476f-8937-4b7e9cf37bd5"},"vehicle_type_id":"4","last_reported":1733472783,"current_range_meters":10000,"station_id":"ce4bhnp2rcd13ifvqgvg","pricing_plan_id":"cebpf4jnsgd1na2vs0mg"},{"bike_id":"506c09f4-6c9b-4fb3-996c-4c7f86dd75a8","system_id":"levelo_inurba_marseille","lat":43.25495,"lon":5.37646,"is_reserved":false,"is_disabled":true,"rental_uris":{"android":"levelo://app?vid=506c09f4-6c9b-4fb3-996c-4c7f86dd75a8","ios":"levelo://app?vid=506c09f4-6c9b-4fb3-996c-4c7f86dd75a8"},"vehicle_type_id":"4","last_reported":1733472783,"current_range_meters":0,"station_id":"ce4bhh12rcd13ifvqff0","pricing_plan_id":"cebpf4jnsgd1na2vs0mg"},{"bike_id":"6ab99516-c9b5-4294-ac9c-0785f1b2c910","system_id":"levelo_inurba_marseille","lat":43.2757,"lon":5.38405,"is_reserved":false,"is_disabled":true,"rental_uris":{"android":"levelo://app?vid=6ab99516-c9b5-4294-ac9c-0785f1b2c910","ios":"levelo://app?vid=6ab99516-c9b5-4294-ac9c-0785f1b2c910"},"vehicle_type_id":"4","last_reported":1733472783,"current_range_meters":33200,"station_id":"ce4bhh92rcd13ifvqfi0","pricing_plan_id":"cebpf4jnsgd1na2vs0mg"},{"bike_id":"17abaaf2-9129-4b20-a90a-485795d071b7","system_id":"levelo_inurba_marseille","lat":43.28723,"lon":5.37937,"is_reserved":false,"is_disabled":true,"rental_uris":{"android":"levelo://app?vid=17abaaf2-9129-4b20-a90a-485795d071b7","ios":"levelo://app?vid=17abaaf2-9129-4b20-a90a-485795d071b7"},"vehicle_type_id":"4","last_reported":1733472783,"current_range_meters":1200,"station_id":"ce4bh9p2rcd13ifvqec0","pricing_plan_id":"cebpf4jnsgd1na2vs0mg"},{"bike_id":"9202c63e-372c-4469-a5c1-8e35757d1940","system_id":"levelo_inurba_marseille","lat":43.30053,"lon":5.38832,"is_reserved":false,"is_disabled":true,"rental_uris":{"android":"levelo://app?vid=9202c63e-372c-4469-a5c1-8e35757d1940","ios":"levelo://app?vid=9202c63e-372c-4469-a5c1-8e35757d1940"},"vehicle_type_id":"4","last_reported":1733472783,"current_range_meters":0,"station_id":"","pricing_plan_id":"cebpf4jnsgd1na2vs0mg"},{"bike_id":"4d75ea9c-71c5-44e7-a3ed-dd13a7651159","system_id":"levelo_inurba_marseille","lat":43.30797,"lon":5.43512,"is_reserved":false,"is_disabled":false,"rental_uris":{"android":"levelo://app?vid=4d75ea9c-71c5-44e7-a3ed-dd13a7651159","ios":"levelo://app?vid=4d75ea9c-71c5-44e7-a3ed-dd13a7651159"},"vehicle_type_id":"4","last_reported":1733472783,"current_range_meters":22800,"station_id":"ce4bhph2rcd13ifvqheg","pricing_plan_id":"cebpf4jnsgd1na2vs0mg"},{"bike_id":"5ecc5b41-0852-407d-a6ab-9fbe559e4644","system_id":"levelo_inurba_marseille","lat":43.32079,"lon":5.41521,"is_reserved":false,"is_disabled":true,"rental_uris":{"android":"levelo://app?vid=5ecc5b41-0852-407d-a6ab-9fbe559e4644","ios":"levelo://app?vid=5ecc5b41-0852-407d-a6ab-9fbe559e4644"},"vehicle_type_id":"4","last_reported":1733472783,"current_range_meters":38800,"station_id":"ce4bhq92rcd13ifvqhkg","pricing_plan_id":"cebpf4jnsgd1na2vs0mg"},{"bike_id":"fc06ed5f-6e14-4c88-a108-5cae3ed536ba","system_id":"levelo_inurba_marseille","lat":43.30547,"lon":5.36552,"is_reserved":false,"is_disabled":false,"rental_uris":{"android":"levelo://app?vid=fc06ed5f-6e14-4c88-a108-5cae3ed536ba","ios":"levelo://app?vid=fc06ed5f-6e14-4c88-a108-5cae3ed536ba"},"vehicle_type_id":"4","last_reported":1733472783,"current_range_meters":20800,"station_id":"ce4bgs12rcd13ifvqcag","pricing_plan_id":"cebpf4jnsgd1na2vs0mg"},{"bike_id":"0deb7b46-3bee-4382-87b1-3984fb62457f","system_id":"levelo_inurba_marseille","lat":43.28739,"lon":5.3891,"is_reserved":false,"is_disabled":true,"rental_uris":{"android":"levelo://app?vid=0deb7b46-3bee-4382-87b1-3984fb62457f","ios":"levelo://app?vid=0deb7b46-3bee-4382-87b1-3984fb62457f"},"vehicle_type_id":"4","last_reported":1733472783,"current_range_meters":32000,"station_id":"","pricing_plan_id":"cebpf4jnsgd1na2vs0mg"},{"bike_id":"cf3e6ea0-09ff-406c-b357-28a6a6117f94","system_id":"levelo_inurba_marseille","lat":43.22941,"lon":5.35379,"is_reserved":false,"is_disabled":false,"rental_uris":{"android":"levelo://app?vid=cf3e6ea0-09ff-406c-b357-28a6a6117f94","ios":"levelo://app?vid=cf3e6ea0-09ff-406c-b357-28a6a6117f94"},"vehicle_type_id":"4","last_reported":1733472783,"current_range_meters":38800,"station_id":"cpo3532slgdg3j2ikp40","pricing_plan_id":"cebpf4jnsgd1na2vs0mg"},{"bike_id":"ab8dbcec-4230-4804-8bbf-73df4a6afea0","system_id":"levelo_inurba_marseille","lat":43.283508,"lon":5.381109,"is_reserved":false,"is_disabled":false,"rental_uris":{"android":"levelo://app?vid=ab8dbcec-4230-4804-8bbf-73df4a6afea0","ios":"levelo://app?vid=ab8dbcec-4230-4804-8bbf-73df4a6afea0"},"vehicle_type_id":"4","last_reported":1733472783,"current_range_meters":36400,"station_id":"ce4bh412rcd13ifvqdr0","pricing_plan_id":"cebpf4jnsgd1na2vs0mg"},{"bike_id":"65ce63ba-4b19-4214-8fca-148f4064e7d3","system_id":"levelo_inurba_marseille","lat":43.24071,"lon":5.37763,"is_reserved":false,"is_disabled":false,"rental_uris":{"android":"levelo://app?vid=65ce63ba-4b19-4214-8fca-148f4064e7d3","ios":"levelo://app?vid=65ce63ba-4b19-4214-8fca-148f4064e7d3"},"vehicle_type_id":"4","last_reported":1733472783,"current_range_meters":38800,"station_id":"ce4bhnp2rcd13ifvqgvg","pricing_plan_id":"cebpf4jnsgd1na2vs0mg"},{"bike_id":"db3c94a5-ff30-4edb-bb19-28b1f38946f3","system_id":"levelo_inurba_marseille","lat":43.31356,"lon":5.36736,"is_reserved":false,"is_disabled":false,"rental_uris":{"android":"levelo://app?vid=db3c94a5-ff30-4edb-bb19-28b1f38946f3","ios":"levelo://app?vid=db3c94a5-ff30-4edb-bb19-28b1f38946f3"},"vehicle_type_id":"4","last_reported":1733472783,"current_range_meters":28800,"station_id":"ce4bgr92rcd13ifvqc6g","pricing_plan_id":"cebpf4jnsgd1na2vs0mg"},{"bike_id":"e5052455-3f69-40a0-8b24-a19b52e587fb","system_id":"levelo_inurba_marseille","lat":43.26958,"lon":5.38623,"is_reserved":false,"is_disabled":false,"rental_uris":{"android":"levelo://app?vid=e5052455-3f69-40a0-8b24-a19b52e587fb","ios":"levelo://app?vid=e5052455-3f69-40a0-8b24-a19b52e587fb"},"vehicle_type_id":"4","last_reported":1733472783,"current_range_meters":17600,"station_id":"ce4bhh92rcd13ifvqfh0","pricing_plan_id":"cebpf4jnsgd1na2vs0mg"},{"bike_id":"719e509a-25e4-4b1b-9830-f708d85d7593","system_id":"levelo_inurba_marseille","lat":43.29404,"lon":5.37451,"is_reserved":false,"is_disabled":true,"rental_uris":{"android":"levelo://app?vid=719e509a-25e4-4b1b-9830-f708d85d7593","ios":"levelo://app?vid=719e509a-25e4-4b1b-9830-f708d85d7593"},"vehicle_type_id":"4","last_reported":1733472783,"current_range_meters":0,"station_id":"","pricing_plan_id":"cebpf4jnsgd1na2vs0mg"},{"bike_id":"7bbfba3c-fe58-4200-9fd7-912dd8f2f249","system_id":"levelo_inurba_marseille","lat":43.24088,"lon":5.37746,"is_reserved":false,"is_disabled":true,"rental_uris":{"android":"levelo://app?vid=7bbfba3c-fe58-4200-9fd7-912dd8f2f249","ios":"levelo://app?vid=7bbfba3c-fe58-4200-9fd7-912dd8f2f249"},"vehicle_type_id":"4","last_reported":1733472783,"current_range_meters":800,"station_id":"ce4bhnp2rcd13ifvqgvg","pricing_plan_id":"cebpf4jnsgd1na2vs0mg"},{"bike_id":"1016d41b-4f4d-4a66-8160-d62f70778cd7","system_id":"levelo_inurba_marseille","lat":43.30192,"lon":5.36625,"is_reserved":false,"is_disabled":false,"rental_uris":{"android":"levelo://app?vid=1016d41b-4f4d-4a66-8160-d62f70778cd7","ios":"levelo://app?vid=1016d41b-4f4d-4a66-8160-d62f70778cd7"},"vehicle_type_id":"4","last_reported":1733472783,"current_range_meters":4000,"station_id":"ce4bgrh2rcd13ifvqc8g","pricing_plan_id":"cebpf4jnsgd1na2vs0mg"},{"bike_id":"7f1a4caf-188c-432d-9492-d813ece2f921","system_id":"levelo_inurba_marseille","lat":43.24076,"lon":5.37758,"is_reserved":false,"is_disabled":false,"rental_uris":{"android":"levelo://app?vid=7f1a4caf-188c-432d-9492-d813ece2f921","ios":"levelo://app?vid=7f1a4caf-188c-432d-9492-d813ece2f921"},"vehicle_type_id":"4","last_reported":1733472783,"current_range_meters":38000,"station_id":"ce4bhnp2rcd13ifvqgvg","pricing_plan_id":"cebpf4jnsgd1na2vs0mg"},{"bike_id":"7a0a2714-105e-4622-8b3e-a7dd62dc6941","system_id":"levelo_inurba_marseille","lat":43.29266,"lon":5.384189,"is_reserved":false,"is_disabled":true,"rental_uris":{"android":"levelo://app?vid=7a0a2714-105e-4622-8b3e-a7dd62dc6941","ios":"levelo://app?vid=7a0a2714-105e-4622-8b3e-a7dd62dc6941"},"vehicle_type_id":"4","last_reported":1733472783,"current_range_meters":800,"station_id":"","pricing_plan_id":"cebpf4jnsgd1na2vs0mg"},{"bike_id":"7bf6ec18-9c33-4a75-9f47-75bf827e3f19","system_id":"levelo_inurba_marseille","lat":43.312308,"lon":5.368639,"is_reserved":false,"is_disabled":false,"rental_uris":{"android":"levelo://app?vid=7bf6ec18-9c33-4a75-9f47-75bf827e3f19","ios":"levelo://app?vid=7bf6ec18-9c33-4a75-9f47-75bf827e3f19"},"vehicle_type_id":"4","last_reported":1733472783,"current_range_meters":33200,"station_id":"ce4bgl92rcd13ifvqbq0","pricing_plan_id":"cebpf4jnsgd1na2vs0mg"},{"bike_id":"a702e96e-9fe5-4b47-a720-785c984a4f7b","system_id":"levelo_inurba_marseille","lat":43.31497,"lon":5.37304,"is_reserved":false,"is_disabled":false,"rental_uris":{"android":"levelo://app?vid=a702e96e-9fe5-4b47-a720-785c984a4f7b","ios":"levelo://app?vid=a702e96e-9fe5-4b47-a720-785c984a4f7b"},"vehicle_type_id":"4","last_reported":1733472783,"current_range_meters":19600,"station_id":"ce4bgt12rcd13ifvqcd0","pricing_plan_id":"cebpf4jnsgd1na2vs0mg"},{"bike_id":"2b6d8e3a-eba6-48ab-ae54-ba4181438667","system_id":"levelo_inurba_marseille","lat":43.28941,"lon":5.39632,"is_reserved":false,"is_disabled":true,"rental_uris":{"android":"levelo://app?vid=2b6d8e3a-eba6-48ab-ae54-ba4181438667","ios":"levelo://app?vid=2b6d8e3a-eba6-48ab-ae54-ba4181438667"},"vehicle_type_id":"4","last_reported":1733472783,"current_range_meters":0,"station_id":"ce4bh3h2rcd13ifvqdn0","pricing_plan_id":"cebpf4jnsgd1na2vs0mg"},{"bike_id":"beea83fa-4acd-4b03-9b02-0d528a5d16d9","system_id":"levelo_inurba_marseille","lat":43.30151,"lon":5.38072,"is_reserved":false,"is_disabled":false,"rental_uris":{"android":"levelo://app?vid=beea83fa-4acd-4b03-9b02-0d528a5d16d9","ios":"levelo://app?vid=beea83fa-4acd-4b03-9b02-0d528a5d16d9"},"vehicle_type_id":"4","last_reported":1733472783,"current_range_meters":36400,"station_id":"ce4bgjp2rcd13ifvqbh0","pricing_plan_id":"cebpf4jnsgd1na2vs0mg"},{"bike_id":"f7e50027-cc71-462b-a690-6201bce1409e","system_id":"levelo_inurba_marseille","lat":43.30271,"lon":5.37722,"is_reserved":false,"is_disabled":false,"rental_uris":{"android":"levelo://app?vid=f7e50027-cc71-462b-a690-6201bce1409e","ios":"levelo://app?vid=f7e50027-cc71-462b-a690-6201bce1409e"},"vehicle_type_id":"4","last_reported":1733472783,"current_range_meters":27600,"station_id":"ce4bguh2rcd13ifvqcj0","pricing_plan_id":"cebpf4jnsgd1na2vs0mg"},{"bike_id":"7866bbf0-bafd-4a14-8753-dfc99e8997a7","system_id":"levelo_inurba_marseille","lat":43.25941,"lon":5.40899,"is_reserved":false,"is_disabled":false,"rental_uris":{"android":"levelo://app?vid=7866bbf0-bafd-4a14-8753-dfc99e8997a7","ios":"levelo://app?vid=7866bbf0-bafd-4a14-8753-dfc99e8997a7"},"vehicle_type_id":"4","last_reported":1733472783,"current_range_meters":32000,"station_id":"ce4bhm92rcd13ifvqglg","pricing_plan_id":"cebpf4jnsgd1na2vs0mg"},{"bike_id":"f2853704-1403-45ae-9d89-d24ea142dced","system_id":"levelo_inurba_marseille","lat":43.26945,"lon":5.38638,"is_reserved":false,"is_disabled":false,"rental_uris":{"android":"levelo://app?vid=f2853704-1403-45ae-9d89-d24ea142dced","ios":"levelo://app?vid=f2853704-1403-45ae-9d89-d24ea142dced"},"vehicle_type_id":"4","last_reported":1733472783,"current_range_meters":28000,"station_id":"ce4bhh92rcd13ifvqfh0","pricing_plan_id":"cebpf4jnsgd1na2vs0mg"},{"bike_id":"b01ba929-1580-401b-973d-e4a15d746d4a","system_id":"levelo_inurba_marseille","lat":43.22937,"lon":5.35376,"is_reserved":false,"is_disabled":false,"rental_uris":{"android":"levelo://app?vid=b01ba929-1580-401b-973d-e4a15d746d4a","ios":"levelo://app?vid=b01ba929-1580-401b-973d-e4a15d746d4a"},"vehicle_type_id":"4","last_reported":1733472783,"current_range_meters":10000,"station_id":"cpo3532slgdg3j2ikp40","pricing_plan_id":"cebpf4jnsgd1na2vs0mg"},{"bike_id":"7519ef7a-d08a-49a3-a099-389c2c29dff3","system_id":"levelo_inurba_marseille","lat":43.31327,"lon":5.37025,"is_reserved":false,"is_disabled":true,"rental_uris":{"android":"levelo://app?vid=7519ef7a-d08a-49a3-a099-389c2c29dff3","ios":"levelo://app?vid=7519ef7a-d08a-49a3-a099-389c2c29dff3"},"vehicle_type_id":"4","last_reported":1733472783,"current_range_meters":0,"station_id":"","pricing_plan_id":"cebpf4jnsgd1na2vs0mg"},{"bike_id":"8c1e28b4-904f-48d7-ba6d-d3b5b5d05922","system_id":"levelo_inurba_marseille","lat":43.29396,"lon":5.40094,"is_reserved":false,"is_disabled":true,"rental_uris":{"android":"levelo://app?vid=8c1e28b4-904f-48d7-ba6d-d3b5b5d05922","ios":"levelo://app?vid=8c1e28b4-904f-48d7-ba6d-d3b5b5d05922"},"vehicle_type_id":"4","last_reported":1733472783,"current_range_meters":0,"station_id":"","pricing_plan_id":"cebpf4jnsgd1na2vs0mg"},{"bike_id":"0b71660a-1e2c-464c-8918-ddfe192ba61c","system_id":"levelo_inurba_marseille","lat":43.28974,"lon":5.37826,"is_reserved":false,"is_disabled":false,"rental_uris":{"android":"levelo://app?vid=0b71660a-1e2c-464c-8918-ddfe192ba61c","ios":"levelo://app?vid=0b71660a-1e2c-464c-8918-ddfe192ba61c"},"vehicle_type_id":"4","last_reported":1733472783,"current_range_meters":6800,"station_id":"ce4bh9p2rcd13ifvqed0","pricing_plan_id":"cebpf4jnsgd1na2vs0mg"},{"bike_id":"7b9b3679-8df0-485d-a17a-ac62ea96167a","system_id":"levelo_inurba_marseille","lat":43.27952,"lon":5.38673,"is_reserved":false,"is_disabled":true,"rental_uris":{"android":"levelo://app?vid=7b9b3679-8df0-485d-a17a-ac62ea96167a","ios":"levelo://app?vid=7b9b3679-8df0-485d-a17a-ac62ea96167a"},"vehicle_type_id":"4","last_reported":1733472783,"current_range_meters":14400,"station_id":"","pricing_plan_id":"cebpf4jnsgd1na2vs0mg"},{"bike_id":"48edefcb-3481-4c82-9d25-2501ca354608","system_id":"levelo_inurba_marseille","lat":43.32557,"lon":5.41457,"is_reserved":false,"is_disabled":false,"rental_uris":{"android":"levelo://app?vid=48edefcb-3481-4c82-9d25-2501ca354608","ios":"levelo://app?vid=48edefcb-3481-4c82-9d25-2501ca354608"},"vehicle_type_id":"4","last_reported":1733472783,"current_range_meters":34800,"station_id":"ce4bhq12rcd13ifvqhhg","pricing_plan_id":"cebpf4jnsgd1na2vs0mg"},{"bike_id":"5a4d103d-1290-44e8-acb5-6ce94d590af3","system_id":"levelo_inurba_marseille","lat":43.32538,"lon":5.41441,"is_reserved":false,"is_disabled":false,"rental_uris":{"android":"levelo://app?vid=5a4d103d-1290-44e8-acb5-6ce94d590af3","ios":"levelo://app?vid=5a4d103d-1290-44e8-acb5-6ce94d590af3"},"vehicle_type_id":"4","last_reported":1733472783,"current_range_meters":33600,"station_id":"ce4bhq12rcd13ifvqhhg","pricing_plan_id":"cebpf4jnsgd1na2vs0mg"},{"bike_id":"bf287014-8520-4a64-acc3-d6c21480df1e","system_id":"levelo_inurba_marseille","lat":43.30536,"lon":5.367,"is_reserved":false,"is_disabled":true,"rental_uris":{"android":"levelo://app?vid=bf287014-8520-4a64-acc3-d6c21480df1e","ios":"levelo://app?vid=bf287014-8520-4a64-acc3-d6c21480df1e"},"vehicle_type_id":"4","last_reported":1733472783,"current_range_meters":35200,"station_id":"ce4bgrp2rcd13ifvqc9g","pricing_plan_id":"cebpf4jnsgd1na2vs0mg"},{"bike_id":"76c60742-da29-4597-b9cb-6f5f219f85f2","system_id":"levelo_inurba_marseille","lat":43.32479,"lon":5.36562,"is_reserved":false,"is_disabled":false,"rental_uris":{"android":"levelo://app?vid=76c60742-da29-4597-b9cb-6f5f219f85f2","ios":"levelo://app?vid=76c60742-da29-4597-b9cb-6f5f219f85f2"},"vehicle_type_id":"4","last_reported":1733472783,"current_range_meters":7200,"station_id":"ce4bhs12rcd13ifvqhvg","pricing_plan_id":"cebpf4jnsgd1na2vs0mg"},{"bike_id":"526e643e-c4cd-4baa-8b38-59dfdad1a202","system_id":"levelo_inurba_marseille","lat":43.29298,"lon":5.37453,"is_reserved":false,"is_disabled":false,"rental_uris":{"android":"levelo://app?vid=526e643e-c4cd-4baa-8b38-59dfdad1a202","ios":"levelo://app?vid=526e643e-c4cd-4baa-8b38-59dfdad1a202"},"vehicle_type_id":"4","last_reported":1733472783,"current_range_meters":38800,"station_id":"ce4bgi12rcd13ifvqb70","pricing_plan_id":"cebpf4jnsgd1na2vs0mg"},{"bike_id":"1ee74f47-c25e-4fca-8cea-1505429867e2","system_id":"levelo_inurba_marseille","lat":43.30322,"lon":5.39334,"is_reserved":false,"is_disabled":true,"rental_uris":{"android":"levelo://app?vid=1ee74f47-c25e-4fca-8cea-1505429867e2","ios":"levelo://app?vid=1ee74f47-c25e-4fca-8cea-1505429867e2"},"vehicle_type_id":"4","last_reported":1733472783,"current_range_meters":25600,"station_id":"","pricing_plan_id":"cebpf4jnsgd1na2vs0mg"},{"bike_id":"a142c859-dc3d-4663-871d-18657cc11222","system_id":"levelo_inurba_marseille","lat":43.32533,"lon":5.41436,"is_reserved":false,"is_disabled":false,"rental_uris":{"android":"levelo://app?vid=a142c859-dc3d-4663-871d-18657cc11222","ios":"levelo://app?vid=a142c859-dc3d-4663-871d-18657cc11222"},"vehicle_type_id":"4","last_reported":1733472783,"current_range_meters":38800,"station_id":"ce4bhq12rcd13ifvqhhg","pricing_plan_id":"cebpf4jnsgd1na2vs0mg"},{"bike_id":"f9107edb-20df-4eb0-ae5a-672ea646bbbf","system_id":"levelo_inurba_marseille","lat":43.28614,"lon":5.35101,"is_reserved":false,"is_disabled":true,"rental_uris":{"android":"levelo://app?vid=f9107edb-20df-4eb0-ae5a-672ea646bbbf","ios":"levelo://app?vid=f9107edb-20df-4eb0-ae5a-672ea646bbbf"},"vehicle_type_id":"4","last_reported":1733472783,"current_range_meters":30400,"station_id":"ce4bhch2rcd13ifvqeug","pricing_plan_id":"cebpf4jnsgd1na2vs0mg"},{"bike_id":"1f41adbd-b25d-46c6-8a53-e4ecdbbf967f","system_id":"levelo_inurba_marseille","lat":43.24074,"lon":5.37751,"is_reserved":false,"is_disabled":false,"rental_uris":{"android":"levelo://app?vid=1f41adbd-b25d-46c6-8a53-e4ecdbbf967f","ios":"levelo://app?vid=1f41adbd-b25d-46c6-8a53-e4ecdbbf967f"},"vehicle_type_id":"4","last_reported":1733472783,"current_range_meters":17200,"station_id":"ce4bhnp2rcd13ifvqgvg","pricing_plan_id":"cebpf4jnsgd1na2vs0mg"},{"bike_id":"3e592e74-64b6-427b-a9f3-9c85b0d07de7","system_id":"levelo_inurba_marseille","lat":43.23195,"lon":5.39981,"is_reserved":false,"is_disabled":false,"rental_uris":{"android":"levelo://app?vid=3e592e74-64b6-427b-a9f3-9c85b0d07de7","ios":"levelo://app?vid=3e592e74-64b6-427b-a9f3-9c85b0d07de7"},"vehicle_type_id":"4","last_reported":1733472783,"current_range_meters":25200,"station_id":"ce4bhn12rcd13ifvqgqg","pricing_plan_id":"cebpf4jnsgd1na2vs0mg"},{"bike_id":"581367ce-481c-40c1-a0e2-d5680f7b4da1","system_id":"levelo_inurba_marseille","lat":43.25934,"lon":5.40914,"is_reserved":false,"is_disabled":true,"rental_uris":{"android":"levelo://app?vid=581367ce-481c-40c1-a0e2-d5680f7b4da1","ios":"levelo://app?vid=581367ce-481c-40c1-a0e2-d5680f7b4da1"},"vehicle_type_id":"4","last_reported":1733472783,"current_range_meters":800,"station_id":"ce4bhm92rcd13ifvqglg","pricing_plan_id":"cebpf4jnsgd1na2vs0mg"},{"bike_id":"1223cd63-2d39-4ea8-96db-3ee79f668f4b","system_id":"levelo_inurba_marseille","lat":43.24092,"lon":5.37744,"is_reserved":false,"is_disabled":false,"rental_uris":{"android":"levelo://app?vid=1223cd63-2d39-4ea8-96db-3ee79f668f4b","ios":"levelo://app?vid=1223cd63-2d39-4ea8-96db-3ee79f668f4b"},"vehicle_type_id":"4","last_reported":1733472783,"current_range_meters":28800,"station_id":"ce4bhnp2rcd13ifvqgvg","pricing_plan_id":"cebpf4jnsgd1na2vs0mg"},{"bike_id":"0ada4ac8-82be-41ab-a4d6-04558624c236","system_id":"levelo_inurba_marseille","lat":43.32489,"lon":5.36553,"is_reserved":false,"is_disabled":false,"rental_uris":{"android":"levelo://app?vid=0ada4ac8-82be-41ab-a4d6-04558624c236","ios":"levelo://app?vid=0ada4ac8-82be-41ab-a4d6-04558624c236"},"vehicle_type_id":"4","last_reported":1733472783,"current_range_meters":28000,"station_id":"ce4bhs12rcd13ifvqhvg","pricing_plan_id":"cebpf4jnsgd1na2vs0mg"},{"bike_id":"884aad3b-fa16-412e-b47f-a0bbc0e36dec","system_id":"levelo_inurba_marseille","lat":43.27496,"lon":5.42454,"is_reserved":false,"is_disabled":false,"rental_uris":{"android":"levelo://app?vid=884aad3b-fa16-412e-b47f-a0bbc0e36dec","ios":"levelo://app?vid=884aad3b-fa16-412e-b47f-a0bbc0e36dec"},"vehicle_type_id":"4","last_reported":1733472783,"current_range_meters":38800,"station_id":"ce4bhn92rcd13ifvqgrg","pricing_plan_id":"cebpf4jnsgd1na2vs0mg"},{"bike_id":"710c9d13-8a64-4ca7-ba64-fd3194714b19","system_id":"levelo_inurba_marseille","lat":43.30801,"lon":5.37335,"is_reserved":false,"is_disabled":false,"rental_uris":{"android":"levelo://app?vid=710c9d13-8a64-4ca7-ba64-fd3194714b19","ios":"levelo://app?vid=710c9d13-8a64-4ca7-ba64-fd3194714b19"},"vehicle_type_id":"4","last_reported":1733472783,"current_range_meters":17200,"station_id":"","pricing_plan_id":"cebpf4jnsgd1na2vs0mg"},{"bike_id":"a4b9e425-64b8-4ce2-a5ab-5fcc5d1230a4","system_id":"levelo_inurba_marseille","lat":43.32112,"lon":5.36773,"is_reserved":false,"is_disabled":false,"rental_uris":{"android":"levelo://app?vid=a4b9e425-64b8-4ce2-a5ab-5fcc5d1230a4","ios":"levelo://app?vid=a4b9e425-64b8-4ce2-a5ab-5fcc5d1230a4"},"vehicle_type_id":"4","last_reported":1733472783,"current_range_meters":30800,"station_id":"ce4bhrh2rcd13ifvqhug","pricing_plan_id":"cebpf4jnsgd1na2vs0mg"},{"bike_id":"51991a0a-fe9c-412b-8c2b-242ee7813ef4","system_id":"levelo_inurba_marseille","lat":43.23973,"lon":5.36622,"is_reserved":false,"is_disabled":false,"rental_uris":{"android":"levelo://app?vid=51991a0a-fe9c-412b-8c2b-242ee7813ef4","ios":"levelo://app?vid=51991a0a-fe9c-412b-8c2b-242ee7813ef4"},"vehicle_type_id":"4","last_reported":1733472783,"current_range_meters":39200,"station_id":"ce4bhi12rcd13ifvqfp0","pricing_plan_id":"cebpf4jnsgd1na2vs0mg"},{"bike_id":"fd98eaa9-4d55-4e7b-aa90-0d14707466d9","system_id":"levelo_inurba_marseille","lat":43.337444,"lon":5.374475,"is_reserved":false,"is_disabled":true,"rental_uris":{"android":"levelo://app?vid=fd98eaa9-4d55-4e7b-aa90-0d14707466d9","ios":"levelo://app?vid=fd98eaa9-4d55-4e7b-aa90-0d14707466d9"},"vehicle_type_id":"4","last_reported":1733472783,"current_range_meters":0,"station_id":"","pricing_plan_id":"cebpf4jnsgd1na2vs0mg"},{"bike_id":"a354c404-d0a1-4e8f-84ee-7dc99a6d697e","system_id":"levelo_inurba_marseille","lat":43.292793,"lon":5.401318,"is_reserved":false,"is_disabled":false,"rental_uris":{"android":"levelo://app?vid=a354c404-d0a1-4e8f-84ee-7dc99a6d697e","ios":"levelo://app?vid=a354c404-d0a1-4e8f-84ee-7dc99a6d697e"},"vehicle_type_id":"4","last_reported":1733472783,"current_range_meters":38400,"station_id":"ce4bh312rcd13ifvqdk0","pricing_plan_id":"cebpf4jnsgd1na2vs0mg"},{"bike_id":"7739e7e5-bcce-43a6-9d41-f90a9ba836ed","system_id":"levelo_inurba_marseille","lat":43.295954,"lon":5.381048,"is_reserved":false,"is_disabled":true,"rental_uris":{"android":"levelo://app?vid=7739e7e5-bcce-43a6-9d41-f90a9ba836ed","ios":"levelo://app?vid=7739e7e5-bcce-43a6-9d41-f90a9ba836ed"},"vehicle_type_id":"4","last_reported":1733472783,"current_range_meters":0,"station_id":"ce4bgl12rcd13ifvqbo0","pricing_plan_id":"cebpf4jnsgd1na2vs0mg"},{"bike_id":"e25dc6e3-1f83-4e32-ad60-7f8ea4cb5b47","system_id":"levelo_inurba_marseille","lat":43.29794,"lon":5.39351,"is_reserved":false,"is_disabled":true,"rental_uris":{"android":"levelo://app?vid=e25dc6e3-1f83-4e32-ad60-7f8ea4cb5b47","ios":"levelo://app?vid=e25dc6e3-1f83-4e32-ad60-7f8ea4cb5b47"},"vehicle_type_id":"4","last_reported":1733472783,"current_range_meters":0,"station_id":"chh1huq6cuj3fo74tm60","pricing_plan_id":"cebpf4jnsgd1na2vs0mg"},{"bike_id":"9f166179-3cc0-42ca-860b-06242525cca2","system_id":"levelo_inurba_marseille","lat":43.320087,"lon":5.4157,"is_reserved":false,"is_disabled":false,"rental_uris":{"android":"levelo://app?vid=9f166179-3cc0-42ca-860b-06242525cca2","ios":"levelo://app?vid=9f166179-3cc0-42ca-860b-06242525cca2"},"vehicle_type_id":"4","last_reported":1733472783,"current_range_meters":31200,"station_id":"ce4bhq92rcd13ifvqhkg","pricing_plan_id":"cebpf4jnsgd1na2vs0mg"},{"bike_id":"81bb0809-3958-450b-a118-41d100f60b65","system_id":"levelo_inurba_marseille","lat":43.29793,"lon":5.38108,"is_reserved":false,"is_disabled":false,"rental_uris":{"android":"levelo://app?vid=81bb0809-3958-450b-a118-41d100f60b65","ios":"levelo://app?vid=81bb0809-3958-450b-a118-41d100f60b65"},"vehicle_type_id":"4","last_reported":1733472783,"current_range_meters":22400,"station_id":"ce4bgip2rcd13ifvqbb0","pricing_plan_id":"cebpf4jnsgd1na2vs0mg"},{"bike_id":"c2d8a1c2-d166-4a36-b32f-beec95c93bd5","system_id":"levelo_inurba_marseille","lat":43.33756,"lon":5.37459,"is_reserved":false,"is_disabled":false,"rental_uris":{"android":"levelo://app?vid=c2d8a1c2-d166-4a36-b32f-beec95c93bd5","ios":"levelo://app?vid=c2d8a1c2-d166-4a36-b32f-beec95c93bd5"},"vehicle_type_id":"4","last_reported":1733472783,"current_range_meters":5600,"station_id":"","pricing_plan_id":"cebpf4jnsgd1na2vs0mg"},{"bike_id":"3fc211b5-8d37-40d3-9ca6-016ef413ddc8","system_id":"levelo_inurba_marseille","lat":43.29671,"lon":5.37309,"is_reserved":false,"is_disabled":false,"rental_uris":{"android":"levelo://app?vid=3fc211b5-8d37-40d3-9ca6-016ef413ddc8","ios":"levelo://app?vid=3fc211b5-8d37-40d3-9ca6-016ef413ddc8"},"vehicle_type_id":"4","last_reported":1733472783,"current_range_meters":25600,"station_id":"ce4bgk12rcd13ifvqbj0","pricing_plan_id":"cebpf4jnsgd1na2vs0mg"},{"bike_id":"658b8fee-cef6-41db-87fd-84e32fd3690f","system_id":"levelo_inurba_marseille","lat":43.2467,"lon":5.38161,"is_reserved":false,"is_disabled":false,"rental_uris":{"android":"levelo://app?vid=658b8fee-cef6-41db-87fd-84e32fd3690f","ios":"levelo://app?vid=658b8fee-cef6-41db-87fd-84e32fd3690f"},"vehicle_type_id":"4","last_reported":1733472783,"current_range_meters":16800,"station_id":"ce4bhih2rcd13ifvqfr0","pricing_plan_id":"cebpf4jnsgd1na2vs0mg"},{"bike_id":"3ff9d4f2-fed3-4f22-accd-56edda5d500f","system_id":"levelo_inurba_marseille","lat":43.24074,"lon":5.37763,"is_reserved":false,"is_disabled":false,"rental_uris":{"android":"levelo://app?vid=3ff9d4f2-fed3-4f22-accd-56edda5d500f","ios":"levelo://app?vid=3ff9d4f2-fed3-4f22-accd-56edda5d500f"},"vehicle_type_id":"4","last_reported":1733472783,"current_range_meters":19200,"station_id":"ce4bhnp2rcd13ifvqgvg","pricing_plan_id":"cebpf4jnsgd1na2vs0mg"},{"bike_id":"295d6a08-fe13-4a80-af89-aec25176bae5","system_id":"levelo_inurba_marseille","lat":43.31489,"lon":5.37306,"is_reserved":false,"is_disabled":false,"rental_uris":{"android":"levelo://app?vid=295d6a08-fe13-4a80-af89-aec25176bae5","ios":"levelo://app?vid=295d6a08-fe13-4a80-af89-aec25176bae5"},"vehicle_type_id":"4","last_reported":1733472783,"current_range_meters":23200,"station_id":"ce4bgt12rcd13ifvqcd0","pricing_plan_id":"cebpf4jnsgd1na2vs0mg"},{"bike_id":"af01c0d2-5ebd-4966-a733-186db68229a3","system_id":"levelo_inurba_marseille","lat":43.27072,"lon":5.42281,"is_reserved":false,"is_disabled":false,"rental_uris":{"android":"levelo://app?vid=af01c0d2-5ebd-4966-a733-186db68229a3","ios":"levelo://app?vid=af01c0d2-5ebd-4966-a733-186db68229a3"},"vehicle_type_id":"4","last_reported":1733472783,"current_range_meters":11600,"station_id":"ce4bhk92rcd13ifvqgb0","pricing_plan_id":"cebpf4jnsgd1na2vs0mg"},{"bike_id":"71b9d6f6-95d1-40e5-a2c1-a7d32362d154","system_id":"levelo_inurba_marseille","lat":43.29806,"lon":5.38079,"is_reserved":false,"is_disabled":false,"rental_uris":{"android":"levelo://app?vid=71b9d6f6-95d1-40e5-a2c1-a7d32362d154","ios":"levelo://app?vid=71b9d6f6-95d1-40e5-a2c1-a7d32362d154"},"vehicle_type_id":"4","last_reported":1733472783,"current_range_meters":9200,"station_id":"ce4bgip2rcd13ifvqbb0","pricing_plan_id":"cebpf4jnsgd1na2vs0mg"},{"bike_id":"76a7c25f-64ae-40f1-a842-f8a5377dc1b2","system_id":"levelo_inurba_marseille","lat":43.30142,"lon":5.37415,"is_reserved":false,"is_disabled":false,"rental_uris":{"android":"levelo://app?vid=76a7c25f-64ae-40f1-a842-f8a5377dc1b2","ios":"levelo://app?vid=76a7c25f-64ae-40f1-a842-f8a5377dc1b2"},"vehicle_type_id":"4","last_reported":1733472783,"current_range_meters":24800,"station_id":"ce4bgs92rcd13ifvqcc0","pricing_plan_id":"cebpf4jnsgd1na2vs0mg"},{"bike_id":"dce35d6a-08b0-4b4c-b89b-7b5e69e85874","system_id":"levelo_inurba_marseille","lat":43.32443,"lon":5.36373,"is_reserved":false,"is_disabled":false,"rental_uris":{"android":"levelo://app?vid=dce35d6a-08b0-4b4c-b89b-7b5e69e85874","ios":"levelo://app?vid=dce35d6a-08b0-4b4c-b89b-7b5e69e85874"},"vehicle_type_id":"4","last_reported":1733472783,"current_range_meters":6800,"station_id":"","pricing_plan_id":"cebpf4jnsgd1na2vs0mg"},{"bike_id":"37727576-2d28-4525-b065-40affdaee0f8","system_id":"levelo_inurba_marseille","lat":43.32386,"lon":5.3891,"is_reserved":false,"is_disabled":false,"rental_uris":{"android":"levelo://app?vid=37727576-2d28-4525-b065-40affdaee0f8","ios":"levelo://app?vid=37727576-2d28-4525-b065-40affdaee0f8"},"vehicle_type_id":"4","last_reported":1733472783,"current_range_meters":36400,"station_id":"ce4bhqp2rcd13ifvqhog","pricing_plan_id":"cebpf4jnsgd1na2vs0mg"},{"bike_id":"547a52a0-874e-4115-b932-82235978e25d","system_id":"levelo_inurba_marseille","lat":43.28419,"lon":5.34988,"is_reserved":false,"is_disabled":false,"rental_uris":{"android":"levelo://app?vid=547a52a0-874e-4115-b932-82235978e25d","ios":"levelo://app?vid=547a52a0-874e-4115-b932-82235978e25d"},"vehicle_type_id":"4","last_reported":1733472783,"current_range_meters":16000,"station_id":"ce4bhbh2rcd13ifvqepg","pricing_plan_id":"cebpf4jnsgd1na2vs0mg"},{"bike_id":"737bdef3-e4f9-4d42-9b3b-45164c8dc58f","system_id":"levelo_inurba_marseille","lat":43.24089,"lon":5.37745,"is_reserved":false,"is_disabled":true,"rental_uris":{"android":"levelo://app?vid=737bdef3-e4f9-4d42-9b3b-45164c8dc58f","ios":"levelo://app?vid=737bdef3-e4f9-4d42-9b3b-45164c8dc58f"},"vehicle_type_id":"4","last_reported":1733472783,"current_range_meters":8800,"station_id":"ce4bhnp2rcd13ifvqgvg","pricing_plan_id":"cebpf4jnsgd1na2vs0mg"},{"bike_id":"2a8616dd-1a20-47e2-98bb-51de6844fdf1","system_id":"levelo_inurba_marseille","lat":43.24075,"lon":5.37757,"is_reserved":false,"is_disabled":false,"rental_uris":{"android":"levelo://app?vid=2a8616dd-1a20-47e2-98bb-51de6844fdf1","ios":"levelo://app?vid=2a8616dd-1a20-47e2-98bb-51de6844fdf1"},"vehicle_type_id":"4","last_reported":1733472783,"current_range_meters":16800,"station_id":"ce4bhnp2rcd13ifvqgvg","pricing_plan_id":"cebpf4jnsgd1na2vs0mg"},{"bike_id":"9a8db6ac-16c5-4f18-bd43-3aeca3af8152","system_id":"levelo_inurba_marseille","lat":43.25723,"lon":5.41111,"is_reserved":false,"is_disabled":false,"rental_uris":{"android":"levelo://app?vid=9a8db6ac-16c5-4f18-bd43-3aeca3af8152","ios":"levelo://app?vid=9a8db6ac-16c5-4f18-bd43-3aeca3af8152"},"vehicle_type_id":"4","last_reported":1733472783,"current_range_meters":6400,"station_id":"ce4bhkp2rcd13ifvqgd0","pricing_plan_id":"cebpf4jnsgd1na2vs0mg"},{"bike_id":"e48f64eb-a3fc-4b42-8a23-1d33eb9ed9c7","system_id":"levelo_inurba_marseille","lat":43.2978,"lon":5.36291,"is_reserved":false,"is_disabled":false,"rental_uris":{"android":"levelo://app?vid=e48f64eb-a3fc-4b42-8a23-1d33eb9ed9c7","ios":"levelo://app?vid=e48f64eb-a3fc-4b42-8a23-1d33eb9ed9c7"},"vehicle_type_id":"4","last_reported":1733472783,"current_range_meters":8800,"station_id":"ce4bgpp2rcd13ifvqc3g","pricing_plan_id":"cebpf4jnsgd1na2vs0mg"},{"bike_id":"cb881818-1d71-401e-a2c3-d8fdf0775529","system_id":"levelo_inurba_marseille","lat":43.29706,"lon":5.37687,"is_reserved":false,"is_disabled":false,"rental_uris":{"android":"levelo://app?vid=cb881818-1d71-401e-a2c3-d8fdf0775529","ios":"levelo://app?vid=cb881818-1d71-401e-a2c3-d8fdf0775529"},"vehicle_type_id":"4","last_reported":1733472783,"current_range_meters":14400,"station_id":"ce4bgkh2rcd13ifvqbl0","pricing_plan_id":"cebpf4jnsgd1na2vs0mg"},{"bike_id":"4c731081-4465-4ee0-a99d-5a9339d6530d","system_id":"levelo_inurba_marseille","lat":43.23143,"lon":5.43659,"is_reserved":false,"is_disabled":true,"rental_uris":{"android":"levelo://app?vid=4c731081-4465-4ee0-a99d-5a9339d6530d","ios":"levelo://app?vid=4c731081-4465-4ee0-a99d-5a9339d6530d"},"vehicle_type_id":"4","last_reported":1733472783,"current_range_meters":12000,"station_id":"ce4bhmp2rcd13ifvqgog","pricing_plan_id":"cebpf4jnsgd1na2vs0mg"},{"bike_id":"0a699ff1-27ba-4036-976f-c1c2d97cc3c1","system_id":"levelo_inurba_marseille","lat":43.30146,"lon":5.38068,"is_reserved":false,"is_disabled":false,"rental_uris":{"android":"levelo://app?vid=0a699ff1-27ba-4036-976f-c1c2d97cc3c1","ios":"levelo://app?vid=0a699ff1-27ba-4036-976f-c1c2d97cc3c1"},"vehicle_type_id":"4","last_reported":1733472783,"current_range_meters":5600,"station_id":"ce4bgjp2rcd13ifvqbh0","pricing_plan_id":"cebpf4jnsgd1na2vs0mg"},{"bike_id":"7cec87ae-5cf8-4ac3-b0bf-8d42d1422b1f","system_id":"levelo_inurba_marseille","lat":43.304442,"lon":5.407394,"is_reserved":false,"is_disabled":false,"rental_uris":{"android":"levelo://app?vid=7cec87ae-5cf8-4ac3-b0bf-8d42d1422b1f","ios":"levelo://app?vid=7cec87ae-5cf8-4ac3-b0bf-8d42d1422b1f"},"vehicle_type_id":"4","last_reported":1733472783,"current_range_meters":35600,"station_id":"","pricing_plan_id":"cebpf4jnsgd1na2vs0mg"},{"bike_id":"27814115-87e6-41c0-8d60-2fbe613e2470","system_id":"levelo_inurba_marseille","lat":43.32048,"lon":5.41542,"is_reserved":false,"is_disabled":false,"rental_uris":{"android":"levelo://app?vid=27814115-87e6-41c0-8d60-2fbe613e2470","ios":"levelo://app?vid=27814115-87e6-41c0-8d60-2fbe613e2470"},"vehicle_type_id":"4","last_reported":1733472783,"current_range_meters":38400,"station_id":"ce4bhq92rcd13ifvqhkg","pricing_plan_id":"cebpf4jnsgd1na2vs0mg"},{"bike_id":"06fa5d7c-3b9b-4c5d-a878-9f9d07eac2da","system_id":"levelo_inurba_marseille","lat":43.2795,"lon":5.41045,"is_reserved":false,"is_disabled":false,"rental_uris":{"android":"levelo://app?vid=06fa5d7c-3b9b-4c5d-a878-9f9d07eac2da","ios":"levelo://app?vid=06fa5d7c-3b9b-4c5d-a878-9f9d07eac2da"},"vehicle_type_id":"4","last_reported":1733472783,"current_range_meters":33600,"station_id":"ce4bhnp2rcd13ifvqh0g","pricing_plan_id":"cebpf4jnsgd1na2vs0mg"},{"bike_id":"397a07c9-3c4f-4866-935f-f6189951e0a6","system_id":"levelo_inurba_marseille","lat":43.29285,"lon":5.36851,"is_reserved":false,"is_disabled":false,"rental_uris":{"android":"levelo://app?vid=397a07c9-3c4f-4866-935f-f6189951e0a6","ios":"levelo://app?vid=397a07c9-3c4f-4866-935f-f6189951e0a6"},"vehicle_type_id":"4","last_reported":1733472783,"current_range_meters":28800,"station_id":"ce4bhbp2rcd13ifvqesg","pricing_plan_id":"cebpf4jnsgd1na2vs0mg"},{"bike_id":"0dfe5993-5179-4656-97ef-5f6faa77baac","system_id":"levelo_inurba_marseille","lat":43.3054,"lon":5.3654,"is_reserved":false,"is_disabled":false,"rental_uris":{"android":"levelo://app?vid=0dfe5993-5179-4656-97ef-5f6faa77baac","ios":"levelo://app?vid=0dfe5993-5179-4656-97ef-5f6faa77baac"},"vehicle_type_id":"4","last_reported":1733472783,"current_range_meters":20400,"station_id":"ce4bgs12rcd13ifvqcag","pricing_plan_id":"cebpf4jnsgd1na2vs0mg"},{"bike_id":"7cd07970-1b1c-41d6-adb6-cac1bd6cbafa","system_id":"levelo_inurba_marseille","lat":43.33602,"lon":5.41026,"is_reserved":false,"is_disabled":false,"rental_uris":{"android":"levelo://app?vid=7cd07970-1b1c-41d6-adb6-cac1bd6cbafa","ios":"levelo://app?vid=7cd07970-1b1c-41d6-adb6-cac1bd6cbafa"},"vehicle_type_id":"4","last_reported":1733472783,"current_range_meters":24000,"station_id":"ce4bhqh2rcd13ifvqhmg","pricing_plan_id":"cebpf4jnsgd1na2vs0mg"},{"bike_id":"0698d184-313c-42b8-bc3a-90a38a46ba80","system_id":"levelo_inurba_marseille","lat":43.30135,"lon":5.38774,"is_reserved":false,"is_disabled":true,"rental_uris":{"android":"levelo://app?vid=0698d184-313c-42b8-bc3a-90a38a46ba80","ios":"levelo://app?vid=0698d184-313c-42b8-bc3a-90a38a46ba80"},"vehicle_type_id":"4","last_reported":1733472783,"current_range_meters":1200,"station_id":"ce4bghh2rcd13ifvqb60","pricing_plan_id":"cebpf4jnsgd1na2vs0mg"},{"bike_id":"21c61b3f-2ae1-41ed-96e8-21fc1b01a387","system_id":"levelo_inurba_marseille","lat":43.30084,"lon":5.37244,"is_reserved":false,"is_disabled":false,"rental_uris":{"android":"levelo://app?vid=21c61b3f-2ae1-41ed-96e8-21fc1b01a387","ios":"levelo://app?vid=21c61b3f-2ae1-41ed-96e8-21fc1b01a387"},"vehicle_type_id":"4","last_reported":1733472783,"current_range_meters":11200,"station_id":"","pricing_plan_id":"cebpf4jnsgd1na2vs0mg"},{"bike_id":"f51684b7-fd29-4622-9efb-7a87c0a48d7b","system_id":"levelo_inurba_marseille","lat":43.24394,"lon":5.37055,"is_reserved":false,"is_disabled":true,"rental_uris":{"android":"levelo://app?vid=f51684b7-fd29-4622-9efb-7a87c0a48d7b","ios":"levelo://app?vid=f51684b7-fd29-4622-9efb-7a87c0a48d7b"},"vehicle_type_id":"4","last_reported":1733472783,"current_range_meters":24800,"station_id":"ce4bhhh2rcd13ifvqfk0","pricing_plan_id":"cebpf4jnsgd1na2vs0mg"},{"bike_id":"5906e592-4137-4292-a377-fcf152b4c3c5","system_id":"levelo_inurba_marseille","lat":43.29168,"lon":5.37163,"is_reserved":false,"is_disabled":false,"rental_uris":{"android":"levelo://app?vid=5906e592-4137-4292-a377-fcf152b4c3c5","ios":"levelo://app?vid=5906e592-4137-4292-a377-fcf152b4c3c5"},"vehicle_type_id":"4","last_reported":1733472783,"current_range_meters":24800,"station_id":"ce4bha92rcd13ifvqeh0","pricing_plan_id":"cebpf4jnsgd1na2vs0mg"},{"bike_id":"3a9149f3-357c-4d0a-859b-18382ef024a5","system_id":"levelo_inurba_marseille","lat":43.32114,"lon":5.36767,"is_reserved":false,"is_disabled":false,"rental_uris":{"android":"levelo://app?vid=3a9149f3-357c-4d0a-859b-18382ef024a5","ios":"levelo://app?vid=3a9149f3-357c-4d0a-859b-18382ef024a5"},"vehicle_type_id":"4","last_reported":1733472783,"current_range_meters":19600,"station_id":"ce4bhrh2rcd13ifvqhug","pricing_plan_id":"cebpf4jnsgd1na2vs0mg"},{"bike_id":"bbcbfa71-d8f5-4b8e-9040-d67356b9ece4","system_id":"levelo_inurba_marseille","lat":43.31366,"lon":5.3851,"is_reserved":false,"is_disabled":true,"rental_uris":{"android":"levelo://app?vid=bbcbfa71-d8f5-4b8e-9040-d67356b9ece4","ios":"levelo://app?vid=bbcbfa71-d8f5-4b8e-9040-d67356b9ece4"},"vehicle_type_id":"4","last_reported":1733472783,"current_range_meters":7200,"station_id":"ce4bgt92rcd13ifvqcf0","pricing_plan_id":"cebpf4jnsgd1na2vs0mg"},{"bike_id":"868a434e-7c11-4b20-84c6-7ecdbf24c83b","system_id":"levelo_inurba_marseille","lat":43.33025,"lon":5.39032,"is_reserved":false,"is_disabled":false,"rental_uris":{"android":"levelo://app?vid=868a434e-7c11-4b20-84c6-7ecdbf24c83b","ios":"levelo://app?vid=868a434e-7c11-4b20-84c6-7ecdbf24c83b"},"vehicle_type_id":"4","last_reported":1733472783,"current_range_meters":28400,"station_id":"ce4bhr92rcd13ifvqhrg","pricing_plan_id":"cebpf4jnsgd1na2vs0mg"},{"bike_id":"f4f26259-85f2-42d3-b0b5-c02046ecbaee","system_id":"levelo_inurba_marseille","lat":43.31222,"lon":5.3684,"is_reserved":false,"is_disabled":false,"rental_uris":{"android":"levelo://app?vid=f4f26259-85f2-42d3-b0b5-c02046ecbaee","ios":"levelo://app?vid=f4f26259-85f2-42d3-b0b5-c02046ecbaee"},"vehicle_type_id":"4","last_reported":1733472783,"current_range_meters":13600,"station_id":"ce4bgl92rcd13ifvqbq0","pricing_plan_id":"cebpf4jnsgd1na2vs0mg"},{"bike_id":"98df377c-5b46-4a4e-a80e-95ded7d1b7b9","system_id":"levelo_inurba_marseille","lat":43.29031,"lon":5.38646,"is_reserved":false,"is_disabled":true,"rental_uris":{"android":"levelo://app?vid=98df377c-5b46-4a4e-a80e-95ded7d1b7b9","ios":"levelo://app?vid=98df377c-5b46-4a4e-a80e-95ded7d1b7b9"},"vehicle_type_id":"4","last_reported":1733472783,"current_range_meters":24400,"station_id":"ce4bh4p2rcd13ifvqe0g","pricing_plan_id":"cebpf4jnsgd1na2vs0mg"},{"bike_id":"da6a7a1d-e653-4950-af8c-8137b06f7d40","system_id":"levelo_inurba_marseille","lat":43.3004,"lon":5.37551,"is_reserved":false,"is_disabled":true,"rental_uris":{"android":"levelo://app?vid=da6a7a1d-e653-4950-af8c-8137b06f7d40","ios":"levelo://app?vid=da6a7a1d-e653-4950-af8c-8137b06f7d40"},"vehicle_type_id":"4","last_reported":1733472783,"current_range_meters":0,"station_id":"","pricing_plan_id":"cebpf4jnsgd1na2vs0mg"},{"bike_id":"b1ce4e53-59d1-4dc6-bd81-38e823b0b8a9","system_id":"levelo_inurba_marseille","lat":43.29413,"lon":5.38599,"is_reserved":false,"is_disabled":true,"rental_uris":{"android":"levelo://app?vid=b1ce4e53-59d1-4dc6-bd81-38e823b0b8a9","ios":"levelo://app?vid=b1ce4e53-59d1-4dc6-bd81-38e823b0b8a9"},"vehicle_type_id":"4","last_reported":1733472783,"current_range_meters":0,"station_id":"ce4bh2h2rcd13ifvqdh0","pricing_plan_id":"cebpf4jnsgd1na2vs0mg"},{"bike_id":"f7252cae-ba4c-4699-a0b4-4edea22fdb53","system_id":"levelo_inurba_marseille","lat":43.26204,"lon":5.37927,"is_reserved":false,"is_disabled":false,"rental_uris":{"android":"levelo://app?vid=f7252cae-ba4c-4699-a0b4-4edea22fdb53","ios":"levelo://app?vid=f7252cae-ba4c-4699-a0b4-4edea22fdb53"},"vehicle_type_id":"4","last_reported":1733472783,"current_range_meters":17200,"station_id":"ce4bhjp2rcd13ifvqg90","pricing_plan_id":"cebpf4jnsgd1na2vs0mg"},{"bike_id":"d1391f75-0844-4b44-be23-1c381e54fd43","system_id":"levelo_inurba_marseille","lat":43.23966,"lon":5.36632,"is_reserved":false,"is_disabled":true,"rental_uris":{"android":"levelo://app?vid=d1391f75-0844-4b44-be23-1c381e54fd43","ios":"levelo://app?vid=d1391f75-0844-4b44-be23-1c381e54fd43"},"vehicle_type_id":"4","last_reported":1733472783,"current_range_meters":0,"station_id":"ce4bhi12rcd13ifvqfp0","pricing_plan_id":"cebpf4jnsgd1na2vs0mg"},