{"last_updated":1719407447,"ttl":30,"version":"2.2","data":{"bikes":[{"bike_id":"50fcdd96-c9c3-458a-b884-2af9e4ccc19f","system_id":"levelo_inurba_marseille","lat":43.313391,"lon":5.36706,"is_reserved":false,"is_disabled":false,"rental_uris":{"android":"levelo://app?vid=50fcdd96-c9c3-458a-b884-2af9e4ccc19f","ios":"levelo://app?vid=50fcdd96-c9c3-458a-b884-2af9e4ccc19f"},"vehicle_type_id":"4","last_reported":1719407447,"current_range_meters":28400,"station_id":"ce4bgr92rcd13ifvqc6g","pricing_plan_id":"cebpf4jnsgd1na2vs0mg"},{"bike_id":"d00b9d08-51be-4daa-a101-495c0d258bc5","system_id":"levelo_inurba_marseille","lat":43.309076,"lon":5.368465,"is_reserved":false,"is_disabled":false,"rental_uris":{"android":"levelo://app?vid=d00b9d08-51be-4daa-a101-495c0d258bc5","ios":"levelo://app?vid=d00b9d08-51be-4daa-a101-495c0d258bc5"},"vehicle_type_id":"4","last_reported":1719407447,"current_range_meters":26400,"station_id":"ce4bgn92rcd13ifvqbvg","pricing_plan_id":"cebpf4jnsgd1na2vs0mg"},{"bike_id":"bcc3e4e7-49ad-4827-ad72-a8aac5cd29e6","system_id":"levelo_inurba_marseille","lat":43.31509,"lon":5.37089,"is_reserved":false,"is_disabled":false,"rental_uris":{"android":"levelo://app?vid=bcc3e4e7-49ad-4827-ad72-a8aac5cd29e6","ios":"levelo://app?vid=bcc3e4e7-49ad-4827-ad72-a8aac5cd29e6"},"vehicle_type_id":"4","last_reported":1719407447,"current_range_meters":15600,"station_id":"","pricing_plan_id":"cebpf4jnsgd1na2vs0mg"},{"bike_id":"d3064dd1-5b22-46bd-92ec-b56bf5e5726e","system_id":"levelo_inurba_marseille","lat":43.309076,"lon":5.368465,"is_reserved":false,"is_disabled":false,"rental_uris":{"android":"levelo://app?vid=d3064dd1-5b22-46bd-92ec-b56bf5e5726e","ios":"levelo://app?vid=d3064dd1-5b22-46bd-92ec-b56bf5e5726e"},"vehicle_type_id":"4","last_reported":1719407447,"current_range_meters":24000,"station_id":"ce4bgn92rcd13ifvqbvg","pricing_plan_id":"cebpf4jnsgd1na2vs0mg"},{"bike_id":"b81e1594-6854-4d5b-9179-0b7504aec750","system_id":"levelo_inurba_marseille","lat":43.309076,"lon":5.368465,"is_reserved":false,"is_disabled":false,"rental_uris":{"android":"levelo://app?vid=b81e1594-6854-4d5b-9179-0b7504aec750","ios":"levelo://app?vid=b81e1594-6854-4d5b-9179-0b7504aec750"},"vehicle_type_id":"4","last_reported":1719407447,"current_range_meters":31600,"station_id":"ce4bgn92rcd13ifvqbvg","pricing_plan_id":"cebpf4jnsgd1na2vs0mg"},{"bike_id":"c9489075-e1ad-4518-93d2-29fc3d88522b","system_id":"levelo_inurba_marseille","lat":43.309076,"lon":5.368465,"is_reserved":false,"is_disabled":false,"rental_uris":{"android":"levelo://app?vid=c9489075-e1ad-4518-93d2-29fc3d88522b","ios":"levelo://app?vid=c9489075-e1ad-4518-93d2-29fc3d88522b"},"vehicle_type_id":"4","last_reported":1719407447,"current_range_meters":12800,"station_id":"ce4bgn92rcd13ifvqbvg","pricing_plan_id":"cebpf4jnsgd1na2vs0mg"},{"bike_id":"f969d6a0-4297-4954-b02d-2d4482adf86f","system_id":"levelo_inurba_marseille","lat":43.309076,"lon":5.368465,"is_reserved":false,"is_disabled":false,"rental_uris":{"android":"levelo://app?vid=f969d6a0-4297-4954-b02d-2d4482adf86f","ios":"levelo://app?vid=f969d6a0-4297-4954-b02d-2d4482adf86f"},"vehicle_type_id":"4","last_reported":1719407447,"current_range_meters":7600,"station_id":"ce4bgn92rcd13ifvqbvg","pricing_plan_id":"cebpf4jnsgd1na2vs0mg"},{"bike_id":"ba7080ec-8739-4517-827e-0f778bd75416","system_id":"levelo_inurba_marseille","lat":43.309076,"lon":5.368465,"is_reserved":false,"is_disabled":false,"rental_uris":{"android":"levelo://app?vid=ba7080ec-8739-4517-827e-0f778bd75416","ios":"levelo://app?vid=ba7080ec-8739-4517-827e-0f778bd75416"},"vehicle_type_id":"4","last_reported":1719407447,"current_range_meters":28400,"station_id":"ce4bgn92rcd13ifvqbvg","pricing_plan_id":"cebpf4jnsgd1na2vs0mg"},{"bike_id":"f09504e4-c6a4-4f7f-8ae9-666c2727448f","system_id":"levelo_inurba_marseille","lat":43.309076,"lon":5.368465,"is_reserved":false,"is_disabled":false,"rental_uris":{"android":"levelo://app?vid=f09504e4-c6a4-4f7f-8ae9-666c2727448f","ios":"levelo://app?vid=f09504e4-c6a4-4f7f-8ae9-666c2727448f"},"vehicle_type_id":"4","last_reported":1719407447,"current_range_meters":31600,"station_id":"ce4bgn92rcd13ifvqbvg","pricing_plan_id":"cebpf4jnsgd1na2vs0mg"},{"bike_id":"68771b83-0a6c-4054-848e-90c9d2601b71","system_id":"levelo_inurba_marseille","lat":43.309076,"lon":5.368465,"is_reserved":false,"is_disabled":false,"rental_uris":{"android":"levelo://app?vid=68771b83-0a6c-4054-848e-90c9d2601b71","ios":"levelo://app?vid=68771b83-0a6c-4054-848e-90c9d2601b71"},"vehicle_type_id":"4","last_reported":1719407447,"current_range_meters":20400,"station_id":"ce4bgn92rcd13ifvqbvg","pricing_plan_id":"cebpf4jnsgd1na2vs0mg"},{"bike_id":"5fa12946-7c4e-40e4-bf06-1997b111d4a9","system_id":"levelo_inurba_marseille","lat":43.309076,"lon":5.368465,"is_reserved":false,"is_disabled":false,"rental_uris":{"android":"levelo://app?vid=5fa12946-7c4e-40e4-bf06-1997b111d4a9","ios":"levelo://app?vid=5fa12946-7c4e-40e4-bf06-1997b111d4a9"},"vehicle_type_id":"4","last_reported":1719407447,"current_range_meters":28400,"station_id":"ce4bgn92rcd13ifvqbvg","pricing_plan_id":"cebpf4jnsgd1na2vs0mg"},{"bike_id":"e83b26ee-9ccf-4082-87b2-4a0e36650769","system_id":"levelo_inurba_marseille","lat":43.309076,"lon":5.368465,"is_reserved":false,"is_disabled":false,"rental_uris":{"android":"levelo://app?vid=e83b26ee-9ccf-4082-87b2-4a0e36650769","ios":"levelo://app?vid=e83b26ee-9ccf-4082-87b2-4a0e36650769"},"vehicle_type_id":"4","last_reported":1719407447,"current_range_meters":24800,"station_id":"ce4bgn92rcd13ifvqbvg","pricing_plan_id":"cebpf4jnsgd1na2vs0mg"},{"bike_id":"fbd37a69-1e63-4a18-acf7-e19ec07a2591","system_id":"levelo_inurba_marseille","lat":43.309076,"lon":5.368465,"is_reserved":false,"is_disabled":false,"rental_uris":{"android":"levelo://app?vid=fbd37a69-1e63-4a18-acf7-e19ec07a2591","ios":"levelo://app?vid=fbd37a69-1e63-4a18-acf7-e19ec07a2591"},"vehicle_type_id":"4","last_reported":1719407447,"current_range_meters":26800,"station_id":"ce4bgn92rcd13ifvqbvg","pricing_plan_id":"cebpf4jnsgd1na2vs0mg"},{"bike_id":"6f65c913-f8f2-4c60-a084-dd6d30e70822","system_id":"levelo_inurba_marseille","lat":43.309076,"lon":5.368465,"is_reserved":false,"is_disabled":false,"rental_uris":{"android":"levelo://app?vid=6f65c913-f8f2-4c60-a084-dd6d30e70822","ios":"levelo://app?vid=6f65c913-f8f2-4c60-a084-dd6d30e70822"},"vehicle_type_id":"4","last_reported":1719407447,"current_range_meters":11200,"station_id":"ce4bgn92rcd13ifvqbvg","pricing_plan_id":"cebpf4jnsgd1na2vs0mg"},{"bike_id":"989fd977-4307-439e-825a-f594430ed3ee","system_id":"levelo_inurba_marseille","lat":43.309076,"lon":5.368465,"is_reserved":false,"is_disabled":false,"rental_uris":{"android":"levelo://app?vid=989fd977-4307-439e-825a-f594430ed3ee","ios":"levelo://app?vid=989fd977-4307-439e-825a-f594430ed3ee"},"vehicle_type_id":"4","last_reported":1719407447,"current_range_meters":15200,"station_id":"ce4bgn92rcd13ifvqbvg","pricing_plan_id":"cebpf4jnsgd1na2vs0mg"},{"bike_id":"a8e993af-27b0-4a6b-895b-7e125224d0c9","system_id":"levelo_inurba_marseille","lat":43.309076,"lon":5.368465,"is_reserved":false,"is_disabled":false,"rental_uris":{"android":"levelo://app?vid=a8e993af-27b0-4a6b-895b-7e125224d0c9","ios":"levelo://app?vid=a8e993af-27b0-4a6b-895b-7e125224d0c9"},"vehicle_type_id":"4","last_reported":1719407447,"current_range_meters":13200,"station_id":"ce4bgn92rcd13ifvqbvg","pricing_plan_id":"cebpf4jnsgd1na2vs0mg"},{"bike_id":"0b412582-15de-4bc4-aa9f-41c364758892","system_id":"levelo_inurba_marseille","lat":43.309076,"lon":5.368465,"is_reserved":false,"is_disabled":false,"rental_uris":{"android":"levelo://app?vid=0b412582-15de-4bc4-aa9f-41c364758892","ios":"levelo://app?vid=0b412582-15de-4bc4-aa9f-41c364758892"},"vehicle_type_id":"4","last_reported":1719407447,"current_range_meters":22400,"station_id":"ce4bgn92rcd13ifvqbvg","pricing_plan_id":"cebpf4jnsgd1na2vs0mg"},{"bike_id":"5db02a30-b56e-4057-9d75-332037cd4802","system_id":"levelo_inurba_marseille","lat":43.314811,"lon":5.373103,"is_reserved":false,"is_disabled":false,"rental_uris":{"android":"levelo://app?vid=5db02a30-b56e-4057-9d75-332037cd4802","ios":"levelo://app?vid=5db02a30-b56e-4057-9d75-332037cd4802"},"vehicle_type_id":"4","last_reported":1719407447,"current_range_meters":31200,"station_id":"ce4bgt12rcd13ifvqcd0","pricing_plan_id":"cebpf4jnsgd1na2vs0mg"},{"bike_id":"d9029c48-671a-4f6a-9a8d-9608f627fd98","system_id":"levelo_inurba_marseille","lat":43.30913,"lon":5.37206,"is_reserved":false,"is_disabled":false,"rental_uris":{"android":"levelo://app?vid=d9029c48-671a-4f6a-9a8d-9608f627fd98","ios":"levelo://app?vid=d9029c48-671a-4f6a-9a8d-9608f627fd98"},"vehicle_type_id":"4","last_reported":1719407447,"current_range_meters":20800,"station_id":"ce4bguh2rcd13ifvqckg","pricing_plan_id":"cebpf4jnsgd1na2vs0mg"},{"bike_id":"9de02eca-b3d5-4118-8c58-95d741bb2cdb","system_id":"levelo_inurba_marseille","lat":43.305973,"lon":5.36568,"is_reserved":false,"is_disabled":false,"rental_uris":{"android":"levelo://app?vid=9de02eca-b3d5-4118-8c58-95d741bb2cdb","ios":"levelo://app?vid=9de02eca-b3d5-4118-8c58-95d741bb2cdb"},"vehicle_type_id":"4","last_reported":1719407447,"current_range_meters":31200,"station_id":"ce4bgs12rcd13ifvqcag","pricing_plan_id":"cebpf4jnsgd1na2vs0mg"},{"bike_id":"4b62a422-94d6-484a-9ad2-d4c5d34df481","system_id":"levelo_inurba_marseille","lat":43.305712,"lon":5.365641,"is_reserved":false,"is_disabled":false,"rental_uris":{"android":"levelo://app?vid=4b62a422-94d6-484a-9ad2-d4c5d34df481","ios":"levelo://app?vid=4b62a422-94d6-484a-9ad2-d4c5d34df481"},"vehicle_type_id":"4","last_reported":1719407447,"current_range_meters":9600,"station_id":"ce4bgs12rcd13ifvqcag","pricing_plan_id":"cebpf4jnsgd1na2vs0mg"},{"bike_id":"a1dd199e-ac8a-4394-9c4a-334740d4831d","system_id":"levelo_inurba_marseille","lat":43.30564,"lon":5.36531,"is_reserved":false,"is_disabled":false,"rental_uris":{"android":"levelo://app?vid=a1dd199e-ac8a-4394-9c4a-334740d4831d","ios":"levelo://app?vid=a1dd199e-ac8a-4394-9c4a-334740d4831d"},"vehicle_type_id":"4","last_reported":1719407447,"current_range_meters":24000,"station_id":"ce4bgs12rcd13ifvqcag","pricing_plan_id":"cebpf4jnsgd1na2vs0mg"},{"bike_id":"9b704cdb-9b1a-4bc8-a8df-fc60ea30bf9c","system_id":"levelo_inurba_marseille","lat":43.30537,"lon":5.367345,"is_reserved":false,"is_disabled":false,"rental_uris":{"android":"levelo://app?vid=9b704cdb-9b1a-4bc8-a8df-fc60ea30bf9c","ios":"levelo://app?vid=9b704cdb-9b1a-4bc8-a8df-fc60ea30bf9c"},"vehicle_type_id":"4","last_reported":1719407447,"current_range_meters":22800,"station_id":"ce4bgrp2rcd13ifvqc9g","pricing_plan_id":"cebpf4jnsgd1na2vs0mg"},{"bike_id":"9839d674-f9fd-474b-94b0-90a4ff988c74","system_id":"levelo_inurba_marseille","lat":43.305712,"lon":5.365641,"is_reserved":false,"is_disabled":false,"rental_uris":{"android":"levelo://app?vid=9839d674-f9fd-474b-94b0-90a4ff988c74","ios":"levelo://app?vid=9839d674-f9fd-474b-94b0-90a4ff988c74"},"vehicle_type_id":"4","last_reported":1719407447,"current_range_meters":28000,"station_id":"ce4bgs12rcd13ifvqcag","pricing_plan_id":"cebpf4jnsgd1na2vs0mg"},{"bike_id":"8654ec76-fe33-42db-92fd-4fa61c3e7eba","system_id":"levelo_inurba_marseille","lat":43.305712,"lon":5.365641,"is_reserved":false,"is_disabled":false,"rental_uris":{"android":"levelo://app?vid=8654ec76-fe33-42db-92fd-4fa61c3e7eba","ios":"levelo://app?vid=8654ec76-fe33-42db-92fd-4fa61c3e7eba"},"vehicle_type_id":"4","last_reported":1719407447,"current_range_meters":26400,"station_id":"ce4bgs12rcd13ifvqcag","pricing_plan_id":"cebpf4jnsgd1na2vs0mg"},{"bike_id":"69d94a79-79af-4e2c-9858-3c9bc3cb44a3","system_id":"levelo_inurba_marseille","lat":43.305712,"lon":5.365641,"is_reserved":false,"is_disabled":false,"rental_uris":{"android":"levelo://app?vid=69d94a79-79af-4e2c-9858-3c9bc3cb44a3","ios":"levelo://app?vid=69d94a79-79af-4e2c-9858-3c9bc3cb44a3"},"vehicle_type_id":"4","last_reported":1719407447,"current_range_meters":28400,"station_id":"ce4bgs12rcd13ifvqcag","pricing_plan_id":"cebpf4jnsgd1na2vs0mg"},{"bike_id":"201272ff-b459-408f-848e-6edcfcfdc71c","system_id":"levelo_inurba_marseille","lat":43.305712,"lon":5.365641,"is_reserved":false,"is_disabled":false,"rental_uris":{"android":"levelo://app?vid=201272ff-b459-408f-848e-6edcfcfdc71c","ios":"levelo://app?vid=201272ff-b459-408f-848e-6edcfcfdc71c"},"vehicle_type_id":"4","last_reported":1719407447,"current_range_meters":12800,"station_id":"ce4bgs12rcd13ifvqcag","pricing_plan_id":"cebpf4jnsgd1na2vs0mg"},{"bike_id":"7e24b2ed-8e36-4173-a869-77214815d48c","system_id":"levelo_inurba_marseille","lat":43.305712,"lon":5.365641,"is_reserved":false,"is_disabled":false,"rental_uris":{"android":"levelo://app?vid=7e24b2ed-8e36-4173-a869-77214815d48c","ios":"levelo://app?vid=7e24b2ed-8e36-4173-a869-77214815d48c"},"vehicle_type_id":"4","last_reported":1719407447,"current_range_meters":29200,"station_id":"ce4bgs12rcd13ifvqcag","pricing_plan_id":"cebpf4jnsgd1na2vs0mg"},{"bike_id":"9fb1f5ae-687c-44af-8b17-3bad15ecdc65","system_id":"levelo_inurba_marseille","lat":43.30554,"lon":5.3654,"is_reserved":false,"is_disabled":false,"rental_uris":{"android":"levelo://app?vid=9fb1f5ae-687c-44af-8b17-3bad15ecdc65","ios":"levelo://app?vid=9fb1f5ae-687c-44af-8b17-3bad15ecdc65"},"vehicle_type_id":"4","last_reported":1719407447,"current_range_meters":26000,"station_id":"ce4bgs12rcd13ifvqcag","pricing_plan_id":"cebpf4jnsgd1na2vs0mg"},{"bike_id":"1bcce157-aa1d-4baf-9b6f-57cbac2ef55e","system_id":"levelo_inurba_marseille","lat":43.305543,"lon":5.365287,"is_reserved":false,"is_disabled":false,"rental_uris":{"android":"levelo://app?vid=1bcce157-aa1d-4baf-9b6f-57cbac2ef55e","ios":"levelo://app?vid=1bcce157-aa1d-4baf-9b6f-57cbac2ef55e"},"vehicle_type_id":"4","last_reported":1719407447,"current_range_meters":9600,"station_id":"ce4bgs12rcd13ifvqcag","pricing_plan_id":"cebpf4jnsgd1na2vs0mg"},{"bike_id":"9cd5c80f-7658-4941-a9a7-353044c54cd1","system_id":"levelo_inurba_marseille","lat":43.305712,"lon":5.365641,"is_reserved":false,"is_disabled":false,"rental_uris":{"android":"levelo://app?vid=9cd5c80f-7658-4941-a9a7-353044c54cd1","ios":"levelo://app?vid=9cd5c80f-7658-4941-a9a7-353044c54cd1"},"vehicle_type_id":"4","last_reported":1719407447,"current_range_meters":28400,"station_id":"ce4bgs12rcd13ifvqcag","pricing_plan_id":"cebpf4jnsgd1na2vs0mg"},{"bike_id":"f38dc822-e2c6-4966-8497-5bb86bf938bc","system_id":"levelo_inurba_marseille","lat":43.305712,"lon":5.365641,"is_reserved":false,"is_disabled":false,"rental_uris":{"android":"levelo://app?vid=f38dc822-e2c6-4966-8497-5bb86bf938bc","ios":"levelo://app?vid=f38dc822-e2c6-4966-8497-5bb86bf938bc"},"vehicle_type_id":"4","last_reported":1719407447,"current_range_meters":12400,"station_id":"ce4bgs12rcd13ifvqcag","pricing_plan_id":"cebpf4jnsgd1na2vs0mg"},{"bike_id":"343231dd-24a2-4a1c-acbe-c0d0ca91f6eb","system_id":"levelo_inurba_marseille","lat":43.30554,"lon":5.3653,"is_reserved":false,"is_disabled":false,"rental_uris":{"android":"levelo://app?vid=343231dd-24a2-4a1c-acbe-c0d0ca91f6eb","ios":"levelo://app?vid=343231dd-24a2-4a1c-acbe-c0d0ca91f6eb"},"vehicle_type_id":"4","last_reported":1719407447,"current_range_meters":8400,"station_id":"ce4bgs12rcd13ifvqcag","pricing_plan_id":"cebpf4jnsgd1na2vs0mg"},{"bike_id":"2b761083-157c-48f6-9a41-d8a3b5cd2421","system_id":"levelo_inurba_marseille","lat":43.305712,"lon":5.365641,"is_reserved":false,"is_disabled":false,"rental_uris":{"android":"levelo://app?vid=2b761083-157c-48f6-9a41-d8a3b5cd2421","ios":"levelo://app?vid=2b761083-157c-48f6-9a41-d8a3b5cd2421"},"vehicle_type_id":"4","last_reported":1719407447,"current_range_meters":21200,"station_id":"ce4bgs12rcd13ifvqcag","pricing_plan_id":"cebpf4jnsgd1na2vs0mg"},{"bike_id":"efc7615d-30bb-4754-a9dd-645c7db295a4","system_id":"levelo_inurba_marseille","lat":43.305357,"lon":5.36662,"is_reserved":false,"is_disabled":false,"rental_uris":{"android":"levelo://app?vid=efc7615d-30bb-4754-a9dd-645c7db295a4","ios":"levelo://app?vid=efc7615d-30bb-4754-a9dd-645c7db295a4"},"vehicle_type_id":"4","last_reported":1719407447,"current_range_meters":31200,"station_id":"","pricing_plan_id":"cebpf4jnsgd1na2vs0mg"},{"bike_id":"a5bb91aa-7190-44c8-acf2-5cce74bf90cd","system_id":"levelo_inurba_marseille","lat":43.305714,"lon":5.365633,"is_reserved":false,"is_disabled":false,"rental_uris":{"android":"levelo://app?vid=a5bb91aa-7190-44c8-acf2-5cce74bf90cd","ios":"levelo://app?vid=a5bb91aa-7190-44c8-acf2-5cce74bf90cd"},"vehicle_type_id":"4","last_reported":1719407447,"current_range_meters":31600,"station_id":"ce4bgs12rcd13ifvqcag","pricing_plan_id":"cebpf4jnsgd1na2vs0mg"},{"bike_id":"3ee73b22-041e-4e5e-a902-7fdf2f49bbba","system_id":"levelo_inurba_marseille","lat":43.305368,"lon":5.367343,"is_reserved":false,"is_disabled":false,"rental_uris":{"android":"levelo://app?vid=3ee73b22-041e-4e5e-a902-7fdf2f49bbba","ios":"levelo://app?vid=3ee73b22-041e-4e5e-a902-7fdf2f49bbba"},"vehicle_type_id":"4","last_reported":1719407447,"current_range_meters":16000,"station_id":"ce4bgrp2rcd13ifvqc9g","pricing_plan_id":"cebpf4jnsgd1na2vs0mg"},{"bike_id":"4605086e-6bf6-47c9-b923-0a89e611b05e","system_id":"levelo_inurba_marseille","lat":43.30537,"lon":5.367345,"is_reserved":false,"is_disabled":false,"rental_uris":{"android":"levelo://app?vid=4605086e-6bf6-47c9-b923-0a89e611b05e","ios":"levelo://app?vid=4605086e-6bf6-47c9-b923-0a89e611b05e"},"vehicle_type_id":"4","last_reported":1719407447,"current_range_meters":6400,"station_id":"ce4bgrp2rcd13ifvqc9g","pricing_plan_id":"cebpf4jnsgd1na2vs0mg"},{"bike_id":"e11c3f6d-96a0-4fbf-a438-6e28a91f2537","system_id":"levelo_inurba_marseille","lat":43.305989,"lon":5.37225,"is_reserved":false,"is_disabled":false,"rental_uris":{"android":"levelo://app?vid=e11c3f6d-96a0-4fbf-a438-6e28a91f2537","ios":"levelo://app?vid=e11c3f6d-96a0-4fbf-a438-6e28a91f2537"},"vehicle_type_id":"4","last_reported":1719407447,"current_range_meters":4400,"station_id":"ce4bgqh2rcd13ifvqc4g","pricing_plan_id":"cebpf4jnsgd1na2vs0mg"},{"bike_id":"0da638b6-1925-4492-9cac-e1b16a08ce2a","system_id":"levelo_inurba_marseille","lat":43.311125,"lon":5.377624,"is_reserved":false,"is_disabled":false,"rental_uris":{"android":"levelo://app?vid=0da638b6-1925-4492-9cac-e1b16a08ce2a","ios":"levelo://app?vid=0da638b6-1925-4492-9cac-e1b16a08ce2a"},"vehicle_type_id":"4","last_reported":1719407447,"current_range_meters":9200,"station_id":"ce4bgt92rcd13ifvqcg0","pricing_plan_id":"cebpf4jnsgd1na2vs0mg"},{"bike_id":"36c140fe-d18f-4ff5-be8f-386de33eddf0","system_id":"levelo_inurba_marseille","lat":43.311178,"lon":5.377647,"is_reserved":false,"is_disabled":false,"rental_uris":{"android":"levelo://app?vid=36c140fe-d18f-4ff5-be8f-386de33eddf0","ios":"levelo://app?vid=36c140fe-d18f-4ff5-be8f-386de33eddf0"},"vehicle_type_id":"4","last_reported":1719407447,"current_range_meters":25600,"station_id":"ce4bgt92rcd13ifvqcg0","pricing_plan_id":"cebpf4jnsgd1na2vs0mg"},{"bike_id":"1cc7b63e-1be9-4cd0-a4b8-dc8e5e8a839e","system_id":"levelo_inurba_marseille","lat":43.303046,"lon":5.368981,"is_reserved":false,"is_disabled":false,"rental_uris":{"android":"levelo://app?vid=1cc7b63e-1be9-4cd0-a4b8-dc8e5e8a839e","ios":"levelo://app?vid=1cc7b63e-1be9-4cd0-a4b8-dc8e5e8a839e"},"vehicle_type_id":"4","last_reported":1719407447,"current_range_meters":23600,"station_id":"ce4bgqh2rcd13ifvqc5g","pricing_plan_id":"cebpf4jnsgd1na2vs0mg"},{"bike_id":"49502256-6bfd-48ec-b378-7df137b0df53","system_id":"levelo_inurba_marseille","lat":43.303046,"lon":5.368981,"is_reserved":false,"is_disabled":false,"rental_uris":{"android":"levelo://app?vid=49502256-6bfd-48ec-b378-7df137b0df53","ios":"levelo://app?vid=49502256-6bfd-48ec-b378-7df137b0df53"},"vehicle_type_id":"4","last_reported":1719407447,"current_range_meters":31200,"station_id":"ce4bgqh2rcd13ifvqc5g","pricing_plan_id":"cebpf4jnsgd1na2vs0mg"},{"bike_id":"6512d8d8-6f16-42e7-a414-c0e39e3095db","system_id":"levelo_inurba_marseille","lat":43.301939,"lon":5.366286,"is_reserved":false,"is_disabled":false,"rental_uris":{"android":"levelo://app?vid=6512d8d8-6f16-42e7-a414-c0e39e3095db","ios":"levelo://app?vid=6512d8d8-6f16-42e7-a414-c0e39e3095db"},"vehicle_type_id":"4","last_reported":1719407447,"current_range_meters":27600,"station_id":"ce4bgrh2rcd13ifvqc8g","pricing_plan_id":"cebpf4jnsgd1na2vs0mg"},{"bike_id":"7c39eb2b-b7c9-4c68-8c85-740a50d91aaa","system_id":"levelo_inurba_marseille","lat":43.301939,"lon":5.366286,"is_reserved":false,"is_disabled":false,"rental_uris":{"android":"levelo://app?vid=7c39eb2b-b7c9-4c68-8c85-740a50d91aaa","ios":"levelo://app?vid=7c39eb2b-b7c9-4c68-8c85-740a50d91aaa"},"vehicle_type_id":"4","last_reported":1719407447,"current_range_meters":22800,"station_id":"ce4bgrh2rcd13ifvqc8g","pricing_plan_id":"cebpf4jnsgd1na2vs0mg"},{"bike_id":"b01b827b-88b9-41f7-8b9c-d738928e6853","system_id":"levelo_inurba_marseille","lat":43.301939,"lon":5.366286,"is_reserved":false,"is_disabled":false,"rental_uris":{"android":"levelo://app?vid=b01b827b-88b9-41f7-8b9c-d738928e6853","ios":"levelo://app?vid=b01b827b-88b9-41f7-8b9c-d738928e6853"},"vehicle_type_id":"4","last_reported":1719407447,"current_range_meters":24800,"station_id":"ce4bgrh2rcd13ifvqc8g","pricing_plan_id":"cebpf4jnsgd1na2vs0mg"},{"bike_id":"9ba803a2-1f0e-4536-9fed-759d2a09873c","system_id":"levelo_inurba_marseille","lat":43.301939,"lon":5.366286,"is_reserved":false,"is_disabled":false,"rental_uris":{"android":"levelo://app?vid=9ba803a2-1f0e-4536-9fed-759d2a09873c","ios":"levelo://app?vid=9ba803a2-1f0e-4536-9fed-759d2a09873c"},"vehicle_type_id":"4","last_reported":1719407447,"current_range_meters":14000,"station_id":"ce4bgrh2rcd13ifvqc8g","pricing_plan_id":"cebpf4jnsgd1na2vs0mg"},{"bike_id":"8271ab95-4124-4bca-b072-013bae1719d5","system_id":"levelo_inurba_marseille","lat":43.301939,"lon":5.366286,"is_reserved":false,"is_disabled":false,"rental_uris":{"android":"levelo://app?vid=8271ab95-4124-4bca-b072-013bae1719d5","ios":"levelo://app?vid=8271ab95-4124-4bca-b072-013bae1719d5"},"vehicle_type_id":"4","last_reported":1719407447,"current_range_meters":24400,"station_id":"ce4bgrh2rcd13ifvqc8g","pricing_plan_id":"cebpf4jnsgd1na2vs0mg"},{"bike_id":"5faa5a02-48c6-4719-a8ef-a7b75e739d35","system_id":"levelo_inurba_marseille","lat":43.308012,"lon":5.381511,"is_reserved":false,"is_disabled":false,"rental_uris":{"android":"levelo://app?vid=5faa5a02-48c6-4719-a8ef-a7b75e739d35","ios":"levelo://app?vid=5faa5a02-48c6-4719-a8ef-a7b75e739d35"},"vehicle_type_id":"4","last_reported":1719407447,"current_range_meters":15200,"station_id":"ce4bgt12rcd13ifvqce0","pricing_plan_id":"cebpf4jnsgd1na2vs0mg"},{"bike_id":"07da0607-83a5-4af5-89ca-221efcbd317d","system_id":"levelo_inurba_marseille","lat":43.304606,"lon":5.379026,"is_reserved":false,"is_disabled":false,"rental_uris":{"android":"levelo://app?vid=07da0607-83a5-4af5-89ca-221efcbd317d","ios":"levelo://app?vid=07da0607-83a5-4af5-89ca-221efcbd317d"},"vehicle_type_id":"4","last_reported":1719407447,"current_range_meters":5200,"station_id":"ce4bgup2rcd13ifvqcn0","pricing_plan_id":"cebpf4jnsgd1na2vs0mg"},{"bike_id":"cdd6636e-e8af-432a-8e5b-721643b3a579","system_id":"levelo_inurba_marseille","lat":43.304606,"lon":5.379026,"is_reserved":false,"is_disabled":false,"rental_uris":{"android":"levelo://app?vid=cdd6636e-e8af-432a-8e5b-721643b3a579","ios":"levelo://app?vid=cdd6636e-e8af-432a-8e5b-721643b3a579"},"vehicle_type_id":"4","last_reported":1719407447,"current_range_meters":10400,"station_id":"ce4bgup2rcd13ifvqcn0","pricing_plan_id":"cebpf4jnsgd1na2vs0mg"},{"bike_id":"59468a49-ff5a-4083-8c91-005f7a15a8d4","system_id":"levelo_inurba_marseille","lat":43.324771,"lon":5.36557,"is_reserved":false,"is_disabled":false,"rental_uris":{"android":"levelo://app?vid=59468a49-ff5a-4083-8c91-005f7a15a8d4","ios":"levelo://app?vid=59468a49-ff5a-4083-8c91-005f7a15a8d4"},"vehicle_type_id":"4","last_reported":1719407447,"current_range_meters":14800,"station_id":"ce4bhs12rcd13ifvqhvg","pricing_plan_id":"cebpf4jnsgd1na2vs0mg"},{"bike_id":"b5775679-4ca6-4cce-8295-031cf4e3a3d5","system_id":"levelo_inurba_marseille","lat":43.324771,"lon":5.36557,"is_reserved":false,"is_disabled":false,"rental_uris":{"android":"levelo://app?vid=b5775679-4ca6-4cce-8295-031cf4e3a3d5","ios":"levelo://app?vid=b5775679-4ca6-4cce-8295-031cf4e3a3d5"},"vehicle_type_id":"4","last_reported":1719407447,"current_range_meters":21200,"station_id":"ce4bhs12rcd13ifvqhvg","pricing_plan_id":"cebpf4jnsgd1na2vs0mg"},{"bike_id":"ef58f710-d75c-428a-a216-ccae836a40f3","system_id":"levelo_inurba_marseille","lat":43.32482,"lon":5.36559,"is_reserved":false,"is_disabled":false,"rental_uris":{"android":"levelo://app?vid=ef58f710-d75c-428a-a216-ccae836a40f3","ios":"levelo://app?vid=ef58f710-d75c-428a-a216-ccae836a40f3"},"vehicle_type_id":"4","last_reported":1719407447,"current_range_meters":24800,"station_id":"ce4bhs12rcd13ifvqhvg","pricing_plan_id":"cebpf4jnsgd1na2vs0mg"},{"bike_id":"c8170bb6-a2e2-4e02-b09e-8929f05ef0b6","system_id":"levelo_inurba_marseille","lat":43.324771,"lon":5.36557,"is_reserved":false,"is_disabled":false,"rental_uris":{"android":"levelo://app?vid=c8170bb6-a2e2-4e02-b09e-8929f05ef0b6","ios":"levelo://app?vid=c8170bb6-a2e2-4e02-b09e-8929f05ef0b6"},"vehicle_type_id":"4","last_reported":1719407447,"current_range_meters":2400,"station_id":"ce4bhs12rcd13ifvqhvg","pricing_plan_id":"cebpf4jnsgd1na2vs0mg"},{"bike_id":"60a11d50-0e0f-425d-8f45-dbbd75bc8f01","system_id":"levelo_inurba_marseille","lat":43.324856,"lon":5.365796,"is_reserved":false,"is_disabled":false,"rental_uris":{"android":"levelo://app?vid=60a11d50-0e0f-425d-8f45-dbbd75bc8f01","ios":"levelo://app?vid=60a11d50-0e0f-425d-8f45-dbbd75bc8f01"},"vehicle_type_id":"4","last_reported":1719407447,"current_range_meters":24000,"station_id":"ce4bhs12rcd13ifvqhvg","pricing_plan_id":"cebpf4jnsgd1na2vs0mg"},{"bike_id":"46a60a86-cf99-40d3-bee4-82be7cc111a2","system_id":"levelo_inurba_marseille","lat":43.32486,"lon":5.36557,"is_reserved":false,"is_disabled":false,"rental_uris":{"android":"levelo://app?vid=46a60a86-cf99-40d3-bee4-82be7cc111a2","ios":"levelo://app?vid=46a60a86-cf99-40d3-bee4-82be7cc111a2"},"vehicle_type_id":"4","last_reported":1719407447,"current_range_meters":22400,"station_id":"ce4bhs12rcd13ifvqhvg","pricing_plan_id":"cebpf4jnsgd1na2vs0mg"},{"bike_id":"9545c3a7-fcef-49d2-bc7d-f475a8f46799","system_id":"levelo_inurba_marseille","lat":43.324771,"lon":5.36557,"is_reserved":false,"is_disabled":false,"rental_uris":{"android":"levelo://app?vid=9545c3a7-fcef-49d2-bc7d-f475a8f46799","ios":"levelo://app?vid=9545c3a7-fcef-49d2-bc7d-f475a8f46799"},"vehicle_type_id":"4","last_reported":1719407447,"current_range_meters":6800,"station_id":"ce4bhs12rcd13ifvqhvg","pricing_plan_id":"cebpf4jnsgd1na2vs0mg"},{"bike_id":"72bafb86-d841-44a2-ac16-6d9373c7a7ae","system_id":"levelo_inurba_marseille","lat":43.3106,"lon":5.38339,"is_reserved":false,"is_disabled":false,"rental_uris":{"android":"levelo://app?vid=72bafb86-d841-44a2-ac16-6d9373c7a7ae","ios":"levelo://app?vid=72bafb86-d841-44a2-ac16-6d9373c7a7ae"},"vehicle_type_id":"4","last_reported":1719407447,"current_range_meters":0,"station_id":"ce4bgv92rcd13ifvqcr0","pricing_plan_id":"cebpf4jnsgd1na2vs0mg"},{"bike_id":"cd7a8215-677a-437f-b7f3-43bdffbcf350","system_id":"levelo_inurba_marseille","lat":43.324771,"lon":5.36557,"is_reserved":false,"is_disabled":false,"rental_uris":{"android":"levelo://app?vid=cd7a8215-677a-437f-b7f3-43bdffbcf350","ios":"levelo://app?vid=cd7a8215-677a-437f-b7f3-43bdffbcf350"},"vehicle_type_id":"4","last_reported":1719407447,"current_range_meters":8800,"station_id":"ce4bhs12rcd13ifvqhvg","pricing_plan_id":"cebpf4jnsgd1na2vs0mg"},{"bike_id":"7d29847f-daf0-47a0-bcbd-0e931d171891","system_id":"levelo_inurba_marseille","lat":43.324771,"lon":5.36557,"is_reserved":false,"is_disabled":false,"rental_uris":{"android":"levelo://app?vid=7d29847f-daf0-47a0-bcbd-0e931d171891","ios":"levelo://app?vid=7d29847f-daf0-47a0-bcbd-0e931d171891"},"vehicle_type_id":"4","last_reported":1719407447,"current_range_meters":21200,"station_id":"ce4bhs12rcd13ifvqhvg","pricing_plan_id":"cebpf4jnsgd1na2vs0mg"},{"bike_id":"4c213928-c39a-4402-8ee4-14987721d71d","system_id":"levelo_inurba_marseille","lat":43.302784,"lon":5.377158,"is_reserved":false,"is_disabled":false,"rental_uris":{"android":"levelo://app?vid=4c213928-c39a-4402-8ee4-14987721d71d","ios":"levelo://app?vid=4c213928-c39a-4402-8ee4-14987721d71d"},"vehicle_type_id":"4","last_reported":1719407447,"current_range_meters":31200,"station_id":"ce4bguh2rcd13ifvqcj0","pricing_plan_id":"cebpf4jnsgd1na2vs0mg"},{"bike_id":"96ad18f7-22f5-408f-9bd9-92036c0e0420","system_id":"levelo_inurba_marseille","lat":43.302784,"lon":5.377158,"is_reserved":false,"is_disabled":false,"rental_uris":{"android":"levelo://app?vid=96ad18f7-22f5-408f-9bd9-92036c0e0420","ios":"levelo://app?vid=96ad18f7-22f5-408f-9bd9-92036c0e0420"},"vehicle_type_id":"4","last_reported":1719407447,"current_range_meters":17600,"station_id":"ce4bguh2rcd13ifvqcj0","pricing_plan_id":"cebpf4jnsgd1na2vs0mg"},{"bike_id":"ab73093c-338e-46bb-8284-8f626f4677d7","system_id":"levelo_inurba_marseille","lat":43.30143,"lon":5.37413,"is_reserved":false,"is_disabled":false,"rental_uris":{"android":"levelo://app?vid=ab73093c-338e-46bb-8284-8f626f4677d7","ios":"levelo://app?vid=ab73093c-338e-46bb-8284-8f626f4677d7"},"vehicle_type_id":"4","last_reported":1719407447,"current_range_meters":10000,"station_id":"ce4bgs92rcd13ifvqcc0","pricing_plan_id":"cebpf4jnsgd1na2vs0mg"},{"bike_id":"9d855e15-e78a-49c7-9c2b-e05bb502a2e6","system_id":"levelo_inurba_marseille","lat":43.30143,"lon":5.37413,"is_reserved":false,"is_disabled":false,"rental_uris":{"android":"levelo://app?vid=9d855e15-e78a-49c7-9c2b-e05bb502a2e6","ios":"levelo://app?vid=9d855e15-e78a-49c7-9c2b-e05bb502a2e6"},"vehicle_type_id":"4","last_reported":1719407447,"current_range_meters":12400,"station_id":"ce4bgs92rcd13ifvqcc0","pricing_plan_id":"cebpf4jnsgd1na2vs0mg"},{"bike_id":"905cfb3e-8ff7-44af-a418-f7ab38036846","system_id":"levelo_inurba_marseille","lat":43.30143,"lon":5.37413,"is_reserved":false,"is_disabled":false,"rental_uris":{"android":"levelo://app?vid=905cfb3e-8ff7-44af-a418-f7ab38036846","ios":"levelo://app?vid=905cfb3e-8ff7-44af-a418-f7ab38036846"},"vehicle_type_id":"4","last_reported":1719407447,"current_range_meters":14800,"station_id":"ce4bgs92rcd13ifvqcc0","pricing_plan_id":"cebpf4jnsgd1na2vs0mg"},{"bike_id":"9b10ceef-49cc-4afb-9908-e99b88aa65bb","system_id":"levelo_inurba_marseille","lat":43.30143,"lon":5.37413,"is_reserved":false,"is_disabled":false,"rental_uris":{"android":"levelo://app?vid=9b10ceef-49cc-4afb-9908-e99b88aa65bb","ios":"levelo://app?vid=9b10ceef-49cc-4afb-9908-e99b88aa65bb"},"vehicle_type_id":"4","last_reported":1719407447,"current_range_meters":28400,"station_id":"ce4bgs92rcd13ifvqcc0","pricing_plan_id":"cebpf4jnsgd1na2vs0mg"},{"bike_id":"29614d5e-fd87-40ee-9816-4136f576eb6f","system_id":"levelo_inurba_marseille","lat":43.30143,"lon":5.37413,"is_reserved":false,"is_disabled":false,"rental_uris":{"android":"levelo://app?vid=29614d5e-fd87-40ee-9816-4136f576eb6f","ios":"levelo://app?vid=29614d5e-fd87-40ee-9816-4136f576eb6f"},"vehicle_type_id":"4","last_reported":1719407447,"current_range_meters":28800,"station_id":"ce4bgs92rcd13ifvqcc0","pricing_plan_id":"cebpf4jnsgd1na2vs0mg"},{"bike_id":"a9b07729-0431-4a2c-a962-2fb503cbb9f4","system_id":"levelo_inurba_marseille","lat":43.302784,"lon":5.377158,"is_reserved":false,"is_disabled":false,"rental_uris":{"android":"levelo://app?vid=a9b07729-0431-4a2c-a962-2fb503cbb9f4","ios":"levelo://app?vid=a9b07729-0431-4a2c-a962-2fb503cbb9f4"},"vehicle_type_id":"4","last_reported":1719407447,"current_range_meters":26000,"station_id":"ce4bguh2rcd13ifvqcj0","pricing_plan_id":"cebpf4jnsgd1na2vs0mg"},{"bike_id":"935297c3-826f-44e2-9df5-4a1587892834","system_id":"levelo_inurba_marseille","lat":43.303228,"lon":5.378755,"is_reserved":false,"is_disabled":false,"rental_uris":{"android":"levelo://app?vid=935297c3-826f-44e2-9df5-4a1587892834","ios":"levelo://app?vid=935297c3-826f-44e2-9df5-4a1587892834"},"vehicle_type_id":"4","last_reported":1719407447,"current_range_meters":25600,"station_id":"","pricing_plan_id":"cebpf4jnsgd1na2vs0mg"},{"bike_id":"2158ba54-d50f-42a0-a63c-04495a7c3afb","system_id":"levelo_inurba_marseille","lat":43.313571,"lon":5.384829,"is_reserved":false,"is_disabled":false,"rental_uris":{"android":"levelo://app?vid=2158ba54-d50f-42a0-a63c-04495a7c3afb","ios":"levelo://app?vid=2158ba54-d50f-42a0-a63c-04495a7c3afb"},"vehicle_type_id":"4","last_reported":1719407447,"current_range_meters":1600,"station_id":"ce4bgt92rcd13ifvqcf0","pricing_plan_id":"cebpf4jnsgd1na2vs0mg"},{"bike_id":"23b7bbd5-ff15-4153-890b-f98dbdd29086","system_id":"levelo_inurba_marseille","lat":43.313571,"lon":5.384829,"is_reserved":false,"is_disabled":false,"rental_uris":{"android":"levelo://app?vid=23b7bbd5-ff15-4153-890b-f98dbdd29086","ios":"levelo://app?vid=23b7bbd5-ff15-4153-890b-f98dbdd29086"},"vehicle_type_id":"4","last_reported":1719407447,"current_range_meters":29200,"station_id":"ce4bgt92rcd13ifvqcf0","pricing_plan_id":"cebpf4jnsgd1na2vs0mg"},{"bike_id":"4c678242-7567-4810-8331-978c2d37f34a","system_id":"levelo_inurba_marseille","lat":43.299222,"lon":5.365554,"is_reserved":false,"is_disabled":false,"rental_uris":{"android":"levelo://app?vid=4c678242-7567-4810-8331-978c2d37f34a","ios":"levelo://app?vid=4c678242-7567-4810-8331-978c2d37f34a"},"vehicle_type_id":"4","last_reported":1719407447,"current_range_meters":29600,"station_id":"ce4bgm92rcd13ifvqbr0","pricing_plan_id":"cebpf4jnsgd1na2vs0mg"},{"bike_id":"a4fc4bee-22d6-4331-bb0e-b130c54aac28","system_id":"levelo_inurba_marseille","lat":43.299222,"lon":5.365554,"is_reserved":false,"is_disabled":false,"rental_uris":{"android":"levelo://app?vid=a4fc4bee-22d6-4331-bb0e-b130c54aac28","ios":"levelo://app?vid=a4fc4bee-22d6-4331-bb0e-b130c54aac28"},"vehicle_type_id":"4","last_reported":1719407447,"current_range_meters":6800,"station_id":"ce4bgm92rcd13ifvqbr0","pricing_plan_id":"cebpf4jnsgd1na2vs0mg"},{"bike_id":"fc01dc39-c456-484f-9bed-a16245c6e6de","system_id":"levelo_inurba_marseille","lat":43.299222,"lon":5.365554,"is_reserved":false,"is_disabled":false,"rental_uris":{"android":"levelo://app?vid=fc01dc39-c456-484f-9bed-a16245c6e6de","ios":"levelo://app?vid=fc01dc39-c456-484f-9bed-a16245c6e6de"},"vehicle_type_id":"4","last_reported":1719407447,"current_range_meters":30000,"station_id":"ce4bgm92rcd13ifvqbr0","pricing_plan_id":"cebpf4jnsgd1na2vs0mg"},{"bike_id":"d7f865ed-023a-49ef-b8f9-f451a02d808f","system_id":"levelo_inurba_marseille","lat":43.299222,"lon":5.365554,"is_reserved":false,"is_disabled":false,"rental_uris":{"android":"levelo://app?vid=d7f865ed-023a-49ef-b8f9-f451a02d808f","ios":"levelo://app?vid=d7f865ed-023a-49ef-b8f9-f451a02d808f"},"vehicle_type_id":"4","last_reported":1719407447,"current_range_meters":21200,"station_id":"ce4bgm92rcd13ifvqbr0","pricing_plan_id":"cebpf4jnsgd1na2vs0mg"},{"bike_id":"dab4cd3e-2141-4919-86e2-afb00df26b10","system_id":"levelo_inurba_marseille","lat":43.299222,"lon":5.365554,"is_reserved":false,"is_disabled":false,"rental_uris":{"android":"levelo://app?vid=dab4cd3e-2141-4919-86e2-afb00df26b10","ios":"levelo://app?vid=dab4cd3e-2141-4919-86e2-afb00df26b10"},"vehicle_type_id":"4","last_reported":1719407447,"current_range_meters":4400,"station_id":"ce4bgm92rcd13ifvqbr0","pricing_plan_id":"cebpf4jnsgd1na2vs0mg"},{"bike_id":"cb082f92-caeb-44af-ac43-26f550c16aca","system_id":"levelo_inurba_marseille","lat":43.299724,"lon":5.371829,"is_reserved":false,"is_disabled":false,"rental_uris":{"android":"levelo://app?vid=cb082f92-caeb-44af-ac43-26f550c16aca","ios":"levelo://app?vid=cb082f92-caeb-44af-ac43-26f550c16aca"},"vehicle_type_id":"4","last_reported":1719407447,"current_range_meters":11200,"station_id":"ce4bgr92rcd13ifvqc7g","pricing_plan_id":"cebpf4jnsgd1na2vs0mg"},{"bike_id":"8e2b8448-7da3-4b78-b6ba-3913a028535f","system_id":"levelo_inurba_marseille","lat":43.299222,"lon":5.365554,"is_reserved":false,"is_disabled":false,"rental_uris":{"android":"levelo://app?vid=8e2b8448-7da3-4b78-b6ba-3913a028535f","ios":"levelo://app?vid=8e2b8448-7da3-4b78-b6ba-3913a028535f"},"vehicle_type_id":"4","last_reported":1719407447,"current_range_meters":30800,"station_id":"ce4bgm92rcd13ifvqbr0","pricing_plan_id":"cebpf4jnsgd1na2vs0mg"},{"bike_id":"7443fb54-f8c1-4ea9-b83d-d303f1f89d33","system_id":"levelo_inurba_marseille","lat":43.299222,"lon":5.365554,"is_reserved":false,"is_disabled":false,"rental_uris":{"android":"levelo://app?vid=7443fb54-f8c1-4ea9-b83d-d303f1f89d33","ios":"levelo://app?vid=7443fb54-f8c1-4ea9-b83d-d303f1f89d33"},"vehicle_type_id":"4","last_reported":1719407447,"current_range_meters":31600,"station_id":"ce4bgm92rcd13ifvqbr0","pricing_plan_id":"cebpf4jnsgd1na2vs0mg"},{"bike_id":"b4e90371-b51b-4bb3-9f26-7d543acd8573","system_id":"levelo_inurba_marseille","lat":43.30945,"lon":5.38638,"is_reserved":false,"is_disabled":false,"rental_uris":{"android":"levelo://app?vid=b4e90371-b51b-4bb3-9f26-7d543acd8573","ios":"levelo://app?vid=b4e90371-b51b-4bb3-9f26-7d543acd8573"},"vehicle_type_id":"4","last_reported":1719407447,"current_range_meters":20000,"station_id":"","pricing_plan_id":"cebpf4jnsgd1na2vs0mg"},{"bike_id":"f99e2ad8-206b-4fe3-81f9-02f00610a16a","system_id":"levelo_inurba_marseille","lat":43.299243,"lon":5.374807,"is_reserved":false,"is_disabled":false,"rental_uris":{"android":"levelo://app?vid=f99e2ad8-206b-4fe3-81f9-02f00610a16a","ios":"levelo://app?vid=f99e2ad8-206b-4fe3-81f9-02f00610a16a"},"vehicle_type_id":"4","last_reported":1719407447,"current_range_meters":25600,"station_id":"ce4bgjh2rcd13ifvqbg0","pricing_plan_id":"cebpf4jnsgd1na2vs0mg"},{"bike_id":"07b3d7d5-54b2-43d3-8aaa-14f2e9c3a977","system_id":"levelo_inurba_marseille","lat":43.29846,"lon":5.3627,"is_reserved":false,"is_disabled":false,"rental_uris":{"android":"levelo://app?vid=07b3d7d5-54b2-43d3-8aaa-14f2e9c3a977","ios":"levelo://app?vid=07b3d7d5-54b2-43d3-8aaa-14f2e9c3a977"},"vehicle_type_id":"4","last_reported":1719407447,"current_range_meters":31200,"station_id":"ce4bgpp2rcd13ifvqc3g","pricing_plan_id":"cebpf4jnsgd1na2vs0mg"},{"bike_id":"5a6a8df1-7ef9-4e4d-8bfb-1eb68f627e28","system_id":"levelo_inurba_marseille","lat":43.297794,"lon":5.370888,"is_reserved":false,"is_disabled":false,"rental_uris":{"android":"levelo://app?vid=5a6a8df1-7ef9-4e4d-8bfb-1eb68f627e28","ios":"levelo://app?vid=5a6a8df1-7ef9-4e4d-8bfb-1eb68f627e28"},"vehicle_type_id":"4","last_reported":1719407447,"current_range_meters":2000,"station_id":"ce4bgop2rcd13ifvqc1g","pricing_plan_id":"cebpf4jnsgd1na2vs0mg"},{"bike_id":"011918c2-fc62-4719-a1cd-45064cd4963c","system_id":"levelo_inurba_marseille","lat":43.322964,"lon":5.382614,"is_reserved":false,"is_disabled":false,"rental_uris":{"android":"levelo://app?vid=011918c2-fc62-4719-a1cd-45064cd4963c","ios":"levelo://app?vid=011918c2-fc62-4719-a1cd-45064cd4963c"},"vehicle_type_id":"4","last_reported":1719407447,"current_range_meters":4000,"station_id":"ce4bhr12rcd13ifvqhqg","pricing_plan_id":"cebpf4jnsgd1na2vs0mg"},{"bike_id":"8a3dee68-befb-495c-8c53-779d24084da1","system_id":"levelo_inurba_marseille","lat":43.297071,"lon":5.36554,"is_reserved":false,"is_disabled":false,"rental_uris":{"android":"levelo://app?vid=8a3dee68-befb-495c-8c53-779d24084da1","ios":"levelo://app?vid=8a3dee68-befb-495c-8c53-779d24084da1"},"vehicle_type_id":"4","last_reported":1719407447,"current_range_meters":22800,"station_id":"","pricing_plan_id":"cebpf4jnsgd1na2vs0mg"},{"bike_id":"c85d31e3-0e33-46ec-aba3-f61ed6d311b9","system_id":"levelo_inurba_marseille","lat":43.327869,"lon":5.359671,"is_reserved":false,"is_disabled":false,"rental_uris":{"android":"levelo://app?vid=c85d31e3-0e33-46ec-aba3-f61ed6d311b9","ios":"levelo://app?vid=c85d31e3-0e33-46ec-aba3-f61ed6d311b9"},"vehicle_type_id":"4","last_reported":1719407447,"current_range_meters":25600,"station_id":"","pricing_plan_id":"cebpf4jnsgd1na2vs0mg"},{"bike_id":"e4b32829-ed6c-4606-a680-d4ac6fd66173","system_id":"levelo_inurba_marseille","lat":43.2968,"lon":5.37291,"is_reserved":false,"is_disabled":false,"rental_uris":{"android":"levelo://app?vid=e4b32829-ed6c-4606-a680-d4ac6fd66173","ios":"levelo://app?vid=e4b32829-ed6c-4606-a680-d4ac6fd66173"},"vehicle_type_id":"4","last_reported":1719407447,"current_range_meters":4000,"station_id":"ce4bgk12rcd13ifvqbj0","pricing_plan_id":"cebpf4jnsgd1na2vs0mg"},{"bike_id":"6bba26a7-d542-4e87-af70-74aeb0406416","system_id":"levelo_inurba_marseille","lat":43.2968,"lon":5.37291,"is_reserved":false,"is_disabled":false,"rental_uris":{"android":"levelo://app?vid=6bba26a7-d542-4e87-af70-74aeb0406416","ios":"levelo://app?vid=6bba26a7-d542-4e87-af70-74aeb0406416"},"vehicle_type_id":"4","last_reported":1719407447,"current_range_meters":30000,"station_id":"ce4bgk12rcd13ifvqbj0","pricing_plan_id":"cebpf4jnsgd1na2vs0mg"},{"bike_id":"ea7799e9-dc22-4237-ae97-a12e10202093","system_id":"levelo_inurba_marseille","lat":43.296129,"lon":5.370777,"is_reserved":false,"is_disabled":false,"rental_uris":{"android":"levelo://app?vid=ea7799e9-dc22-4237-ae97-a12e10202093","ios":"levelo://app?vid=ea7799e9-dc22-4237-ae97-a12e10202093"},"vehicle_type_id":"4","last_reported":1719407447,"current_range_meters":31200,"station_id":"ce4bgnh2rcd13ifvqc0g","pricing_plan_id":"cebpf4jnsgd1na2vs0mg"},{"bike_id":"90dc5ad4-462e-4585-8776-f3b18eeb0799","system_id":"levelo_inurba_marseille","lat":43.29625,"lon":5.37168,"is_reserved":false,"is_disabled":false,"rental_uris":{"android":"levelo://app?vid=90dc5ad4-462e-4585-8776-f3b18eeb0799","ios":"levelo://app?vid=90dc5ad4-462e-4585-8776-f3b18eeb0799"},"vehicle_type_id":"4","last_reported":1719407447,"current_range_meters":23200,"station_id":"ce4bgnh2rcd13ifvqc0g","pricing_plan_id":"cebpf4jnsgd1na2vs0mg"},{"bike_id":"56a7213f-b7c1-4ad4-9db0-8bace63fa3f4","system_id":"levelo_inurba_marseille","lat":43.29624,"lon":5.37163,"is_reserved":false,"is_disabled":false,"rental_uris":{"android":"levelo://app?vid=56a7213f-b7c1-4ad4-9db0-8bace63fa3f4","ios":"levelo://app?vid=56a7213f-b7c1-4ad4-9db0-8bace63fa3f4"},"vehicle_type_id":"4","last_reported":1719407447,"current_range_meters":6800,"station_id":"ce4bgnh2rcd13ifvqc0g","pricing_plan_id":"cebpf4jnsgd1na2vs0mg"},{"bike_id":"b5b8f3e8-4102-46fb-97d0-4eb504287cd0","system_id":"levelo_inurba_marseille","lat":43.29624,"lon":5.37172,"is_reserved":false,"is_disabled":false,"rental_uris":{"android":"levelo://app?vid=b5b8f3e8-4102-46fb-97d0-4eb504287cd0","ios":"levelo://app?vid=b5b8f3e8-4102-46fb-97d0-4eb504287cd0"},"vehicle_type_id":"4","last_reported":1719407447,"current_range_meters":22400,"station_id":"ce4bgnh2rcd13ifvqc0g","pricing_plan_id":"cebpf4jnsgd1na2vs0mg"},{"bike_id":"6812a006-8a19-42bf-9695-6e4514fb7407","system_id":"levelo_inurba_marseille","lat":43.29573,"lon":5.367355,"is_reserved":false,"is_disabled":false,"rental_uris":{"android":"levelo://app?vid=6812a006-8a19-42bf-9695-6e4514fb7407","ios":"levelo://app?vid=6812a006-8a19-42bf-9695-6e4514fb7407"},"vehicle_type_id":"4","last_reported":1719407447,"current_range_meters":21200,"station_id":"ce4bgph2rcd13ifvqc2g","pricing_plan_id":"cebpf4jnsgd1na2vs0mg"},{"bike_id":"38568a9a-9a1b-4857-a132-d537b87967b0","system_id":"levelo_inurba_marseille","lat":43.296129,"lon":5.370777,"is_reserved":false,"is_disabled":false,"rental_uris":{"android":"levelo://app?vid=38568a9a-9a1b-4857-a132-d537b87967b0","ios":"levelo://app?vid=38568a9a-9a1b-4857-a132-d537b87967b0"},"vehicle_type_id":"4","last_reported":1719407447,"current_range_meters":25200,"station_id":"ce4bgnh2rcd13ifvqc0g","pricing_plan_id":"cebpf4jnsgd1na2vs0mg"},{"bike_id":"4126a4c2-0b14-4c08-9f3a-40af90f7d603","system_id":"levelo_inurba_marseille","lat":43.29573,"lon":5.367355,"is_reserved":false,"is_disabled":false,"rental_uris":{"android":"levelo://app?vid=4126a4c2-0b14-4c08-9f3a-40af90f7d603","ios":"levelo://app?vid=4126a4c2-0b14-4c08-9f3a-40af90f7d603"},"vehicle_type_id":"4","last_reported":1719407447,"current_range_meters":25600,"station_id":"ce4bgph2rcd13ifvqc2g","pricing_plan_id":"cebpf4jnsgd1na2vs0mg"},{"bike_id":"6b36e137-6f17-4782-a660-4bfeb1538890","system_id":"levelo_inurba_marseille","lat":43.296921,"lon":5.376579,"is_reserved":false,"is_disabled":false,"rental_uris":{"android":"levelo://app?vid=6b36e137-6f17-4782-a660-4bfeb1538890","ios":"levelo://app?vid=6b36e137-6f17-4782-a660-4bfeb1538890"},"vehicle_type_id":"4","last_reported":1719407447,"current_range_meters":11200,"station_id":"ce4bgkh2rcd13ifvqbl0","pricing_plan_id":"cebpf4jnsgd1na2vs0mg"},{"bike_id":"2260f854-5ba1-436f-ae89-9c81600f58dd","system_id":"levelo_inurba_marseille","lat":43.296921,"lon":5.376579,"is_reserved":false,"is_disabled":false,"rental_uris":{"android":"levelo://app?vid=2260f854-5ba1-436f-ae89-9c81600f58dd","ios":"levelo://app?vid=2260f854-5ba1-436f-ae89-9c81600f58dd"},"vehicle_type_id":"4","last_reported":1719407447,"current_range_meters":29200,"station_id":"ce4bgkh2rcd13ifvqbl0","pricing_plan_id":"cebpf4jnsgd1na2vs0mg"},{"bike_id":"859bf75b-1d07-45ce-a07a-3d154cc3abf1","system_id":"levelo_inurba_marseille","lat":43.296921,"lon":5.376579,"is_reserved":false,"is_disabled":false,"rental_uris":{"android":"levelo://app?vid=859bf75b-1d07-45ce-a07a-3d154cc3abf1","ios":"levelo://app?vid=859bf75b-1d07-45ce-a07a-3d154cc3abf1"},"vehicle_type_id":"4","last_reported":1719407447,"current_range_meters":800,"station_id":"ce4bgkh2rcd13ifvqbl0","pricing_plan_id":"cebpf4jnsgd1na2vs0mg"},{"bike_id":"4d958e22-8e77-4848-888d-dc7e4c50bc62","system_id":"levelo_inurba_marseille","lat":43.29867,"lon":5.38071,"is_reserved":false,"is_disabled":false,"rental_uris":{"android":"levelo://app?vid=4d958e22-8e77-4848-888d-dc7e4c50bc62","ios":"levelo://app?vid=4d958e22-8e77-4848-888d-dc7e4c50bc62"},"vehicle_type_id":"4","last_reported":1719407447,"current_range_meters":17600,"station_id":"","pricing_plan_id":"cebpf4jnsgd1na2vs0mg"},{"bike_id":"198b92b6-8b5b-4a94-bd4f-3f6aa4e289fa","system_id":"levelo_inurba_marseille","lat":43.29866,"lon":5.38111,"is_reserved":false,"is_disabled":false,"rental_uris":{"android":"levelo://app?vid=198b92b6-8b5b-4a94-bd4f-3f6aa4e289fa","ios":"levelo://app?vid=198b92b6-8b5b-4a94-bd4f-3f6aa4e289fa"},"vehicle_type_id":"4","last_reported":1719407447,"current_range_meters":16000,"station_id":"","pricing_plan_id":"cebpf4jnsgd1na2vs0mg"},{"bike_id":"a5e0a603-ccf7-432b-9c6f-bcac1d6ffc3f","system_id":"levelo_inurba_marseille","lat":43.29854,"lon":5.38101,"is_reserved":false,"is_disabled":false,"rental_uris":{"android":"levelo://app?vid=a5e0a603-ccf7-432b-9c6f-bcac1d6ffc3f","ios":"levelo://app?vid=a5e0a603-ccf7-432b-9c6f-bcac1d6ffc3f"},"vehicle_type_id":"4","last_reported":1719407447,"current_range_meters":14400,"station_id":"","pricing_plan_id":"cebpf4jnsgd1na2vs0mg"},{"bike_id":"9f4a10f8-2510-4979-9e11-2ff4df501d42","system_id":"levelo_inurba_marseille","lat":43.317557,"lon":5.390173,"is_reserved":false,"is_disabled":false,"rental_uris":{"android":"levelo://app?vid=9f4a10f8-2510-4979-9e11-2ff4df501d42","ios":"levelo://app?vid=9f4a10f8-2510-4979-9e11-2ff4df501d42"},"vehicle_type_id":"4","last_reported":1719407447,"current_range_meters":25600,"station_id":"ce4bhqp2rcd13ifvqhng","pricing_plan_id":"cebpf4jnsgd1na2vs0mg"},{"bike_id":"36a5d8ce-f61e-4836-9343-16b1003767c8","system_id":"levelo_inurba_marseille","lat":43.29888,"lon":5.38216,"is_reserved":false,"is_disabled":false,"rental_uris":{"android":"levelo://app?vid=36a5d8ce-f61e-4836-9343-16b1003767c8","ios":"levelo://app?vid=36a5d8ce-f61e-4836-9343-16b1003767c8"},"vehicle_type_id":"4","last_reported":1719407447,"current_range_meters":0,"station_id":"","pricing_plan_id":"cebpf4jnsgd1na2vs0mg"},{"bike_id":"795e85f7-708c-46a8-bf4d-85111dcfde51","system_id":"levelo_inurba_marseille","lat":43.295748,"lon":5.37522,"is_reserved":false,"is_disabled":false,"rental_uris":{"android":"levelo://app?vid=795e85f7-708c-46a8-bf4d-85111dcfde51","ios":"levelo://app?vid=795e85f7-708c-46a8-bf4d-85111dcfde51"},"vehicle_type_id":"4","last_reported":1719407447,"current_range_meters":28400,"station_id":"ce4bgh92rcd13ifvqb50","pricing_plan_id":"cebpf4jnsgd1na2vs0mg"},{"bike_id":"dea4b387-a22d-4d08-a00e-2e503b481355","system_id":"levelo_inurba_marseille","lat":43.304278,"lon":5.388868,"is_reserved":false,"is_disabled":false,"rental_uris":{"android":"levelo://app?vid=dea4b387-a22d-4d08-a00e-2e503b481355","ios":"levelo://app?vid=dea4b387-a22d-4d08-a00e-2e503b481355"},"vehicle_type_id":"4","last_reported":1719407447,"current_range_meters":27600,"station_id":"ce4bgk12rcd13ifvqbi0","pricing_plan_id":"cebpf4jnsgd1na2vs0mg"},{"bike_id":"dd724cd9-4f68-4de5-83d9-a6783dcf7ce6","system_id":"levelo_inurba_marseille","lat":43.304274,"lon":5.388873,"is_reserved":false,"is_disabled":false,"rental_uris":{"android":"levelo://app?vid=dd724cd9-4f68-4de5-83d9-a6783dcf7ce6","ios":"levelo://app?vid=dd724cd9-4f68-4de5-83d9-a6783dcf7ce6"},"vehicle_type_id":"4","last_reported":1719407447,"current_range_meters":19200,"station_id":"ce4bgk12rcd13ifvqbi0","pricing_plan_id":"cebpf4jnsgd1na2vs0mg"},{"bike_id":"ae3fa784-be87-4f9b-bef2-a085adfb7c5d","system_id":"levelo_inurba_marseille","lat":43.29789,"lon":5.38122,"is_reserved":false,"is_disabled":false,"rental_uris":{"android":"levelo://app?vid=ae3fa784-be87-4f9b-bef2-a085adfb7c5d","ios":"levelo://app?vid=ae3fa784-be87-4f9b-bef2-a085adfb7c5d"},"vehicle_type_id":"4","last_reported":1719407447,"current_range_meters":0,"station_id":"ce4bgip2rcd13ifvqbb0","pricing_plan_id":"cebpf4jnsgd1na2vs0mg"},{"bike_id":"6c4ecea9-2445-4c00-91f3-662d352efb28","system_id":"levelo_inurba_marseille","lat":43.295748,"lon":5.37522,"is_reserved":false,"is_disabled":false,"rental_uris":{"android":"levelo://app?vid=6c4ecea9-2445-4c00-91f3-662d352efb28","ios":"levelo://app?vid=6c4ecea9-2445-4c00-91f3-662d352efb28"},"vehicle_type_id":"4","last_reported":1719407447,"current_range_meters":400,"station_id":"ce4bgh92rcd13ifvqb50","pricing_plan_id":"cebpf4jnsgd1na2vs0mg"},{"bike_id":"5959341c-b4a9-4649-ae12-192e82d79cb6","system_id":"levelo_inurba_marseille","lat":43.296263,"lon":5.377094,"is_reserved":false,"is_disabled":false,"rental_uris":{"android":"levelo://app?vid=5959341c-b4a9-4649-ae12-192e82d79cb6","ios":"levelo://app?vid=5959341c-b4a9-4649-ae12-192e82d79cb6"},"vehicle_type_id":"4","last_reported":1719407447,"current_range_meters":23600,"station_id":"ce4bgi92rcd13ifvqb90","pricing_plan_id":"cebpf4jnsgd1na2vs0mg"},{"bike_id":"d2984c14-67a3-47cc-a920-f2a7d4bb70e5","system_id":"levelo_inurba_marseille","lat":43.292749,"lon":5.368402,"is_reserved":false,"is_disabled":false,"rental_uris":{"android":"levelo://app?vid=d2984c14-67a3-47cc-a920-f2a7d4bb70e5","ios":"levelo://app?vid=d2984c14-67a3-47cc-a920-f2a7d4bb70e5"},"vehicle_type_id":"4","last_reported":1719407447,"current_range_meters":25200,"station_id":"ce4bhbp2rcd13ifvqesg","pricing_plan_id":"cebpf4jnsgd1na2vs0mg"},{"bike_id":"ea53b027-1a7c-4320-89c8-b02e15b6578a","system_id":"levelo_inurba_marseille","lat":43.299717,"lon":5.384845,"is_reserved":false,"is_disabled":false,"rental_uris":{"android":"levelo://app?vid=ea53b027-1a7c-4320-89c8-b02e15b6578a","ios":"levelo://app?vid=ea53b027-1a7c-4320-89c8-b02e15b6578a"},"vehicle_type_id":"4","last_reported":1719407447,"current_range_meters":0,"station_id":"ce4bgj92rcd13ifvqbd0","pricing_plan_id":"cebpf4jnsgd1na2vs0mg"},{"bike_id":"7529e5c3-da79-4f5d-b36f-47c4add5f35d","system_id":"levelo_inurba_marseille","lat":43.295279,"lon":5.375048,"is_reserved":false,"is_disabled":false,"rental_uris":{"android":"levelo://app?vid=7529e5c3-da79-4f5d-b36f-47c4add5f35d","ios":"levelo://app?vid=7529e5c3-da79-4f5d-b36f-47c4add5f35d"},"vehicle_type_id":"4","last_reported":1719407447,"current_range_meters":14800,"station_id":"ce4bgkp2rcd13ifvqbmg","pricing_plan_id":"cebpf4jnsgd1na2vs0mg"},{"bike_id":"ec955683-394c-4f44-ba6f-ad6194681791","system_id":"levelo_inurba_marseille","lat":43.32369,"lon":5.38884,"is_reserved":false,"is_disabled":false,"rental_uris":{"android":"levelo://app?vid=ec955683-394c-4f44-ba6f-ad6194681791","ios":"levelo://app?vid=ec955683-394c-4f44-ba6f-ad6194681791"},"vehicle_type_id":"4","last_reported":1719407447,"current_range_meters":22800,"station_id":"ce4bhqp2rcd13ifvqhog","pricing_plan_id":"cebpf4jnsgd1na2vs0mg"},{"bike_id":"72cf9328-ba53-451e-a353-3c89661f0472","system_id":"levelo_inurba_marseille","lat":43.29637,"lon":5.38114,"is_reserved":false,"is_disabled":false,"rental_uris":{"android":"levelo://app?vid=72cf9328-ba53-451e-a353-3c89661f0472","ios":"levelo://app?vid=72cf9328-ba53-451e-a353-3c89661f0472"},"vehicle_type_id":"4","last_reported":1719407447,"current_range_meters":16000,"station_id":"","pricing_plan_id":"cebpf4jnsgd1na2vs0mg"},{"bike_id":"b61339be-bdcd-4d7b-a746-2bcf9089550d","system_id":"levelo_inurba_marseille","lat":43.29638,"lon":5.38118,"is_reserved":false,"is_disabled":false,"rental_uris":{"android":"levelo://app?vid=b61339be-bdcd-4d7b-a746-2bcf9089550d","ios":"levelo://app?vid=b61339be-bdcd-4d7b-a746-2bcf9089550d"},"vehicle_type_id":"4","last_reported":1719407447,"current_range_meters":10400,"station_id":"","pricing_plan_id":"cebpf4jnsgd1na2vs0mg"},{"bike_id":"27bd0719-c384-4ee7-a7cc-9a1c0f0257f9","system_id":"levelo_inurba_marseille","lat":43.29611,"lon":5.38097,"is_reserved":false,"is_disabled":false,"rental_uris":{"android":"levelo://app?vid=27bd0719-c384-4ee7-a7cc-9a1c0f0257f9","ios":"levelo://app?vid=27bd0719-c384-4ee7-a7cc-9a1c0f0257f9"},"vehicle_type_id":"4","last_reported":1719407447,"current_range_meters":26400,"station_id":"ce4bgl12rcd13ifvqbo0","pricing_plan_id":"cebpf4jnsgd1na2vs0mg"},{"bike_id":"67aabb10-5fe6-41fa-9ee7-f044405d20f1","system_id":"levelo_inurba_marseille","lat":43.296027,"lon":5.380967,"is_reserved":false,"is_disabled":false,"rental_uris":{"android":"levelo://app?vid=67aabb10-5fe6-41fa-9ee7-f044405d20f1","ios":"levelo://app?vid=67aabb10-5fe6-41fa-9ee7-f044405d20f1"},"vehicle_type_id":"4","last_reported":1719407447,"current_range_meters":0,"station_id":"ce4bgl12rcd13ifvqbo0","pricing_plan_id":"cebpf4jnsgd1na2vs0mg"},{"bike_id":"b63aadf8-d976-4dd4-8397-2a8bc687323c","system_id":"levelo_inurba_marseille","lat":43.29602,"lon":5.381084,"is_reserved":false,"is_disabled":false,"rental_uris":{"android":"levelo://app?vid=b63aadf8-d976-4dd4-8397-2a8bc687323c","ios":"levelo://app?vid=b63aadf8-d976-4dd4-8397-2a8bc687323c"},"vehicle_type_id":"4","last_reported":1719407447,"current_range_meters":15200,"station_id":"ce4bgl12rcd13ifvqbo0","pricing_plan_id":"cebpf4jnsgd1na2vs0mg"},{"bike_id":"6b3c2d0b-d01b-4195-8806-5febb7331a0e","system_id":"levelo_inurba_marseille","lat":43.292749,"lon":5.368402,"is_reserved":false,"is_disabled":false,"rental_uris":{"android":"levelo://app?vid=6b3c2d0b-d01b-4195-8806-5febb7331a0e","ios":"levelo://app?vid=6b3c2d0b-d01b-4195-8806-5febb7331a0e"},"vehicle_type_id":"4","last_reported":1719407447,"current_range_meters":12000,"station_id":"ce4bhbp2rcd13ifvqesg","pricing_plan_id":"cebpf4jnsgd1na2vs0mg"},{"bike_id":"685ce58b-888f-4834-9928-b823de9d932f","system_id":"levelo_inurba_marseille","lat":43.29286,"lon":5.36837,"is_reserved":false,"is_disabled":false,"rental_uris":{"android":"levelo://app?vid=685ce58b-888f-4834-9928-b823de9d932f","ios":"levelo://app?vid=685ce58b-888f-4834-9928-b823de9d932f"},"vehicle_type_id":"4","last_reported":1719407447,"current_range_meters":24800,"station_id":"ce4bhbp2rcd13ifvqesg","pricing_plan_id":"cebpf4jnsgd1na2vs0mg"},{"bike_id":"2e7f297e-9a88-4eb6-8b17-a1b9b047bedc","system_id":"levelo_inurba_marseille","lat":43.29283,"lon":5.36836,"is_reserved":false,"is_disabled":false,"rental_uris":{"android":"levelo://app?vid=2e7f297e-9a88-4eb6-8b17-a1b9b047bedc","ios":"levelo://app?vid=2e7f297e-9a88-4eb6-8b17-a1b9b047bedc"},"vehicle_type_id":"4","last_reported":1719407447,"current_range_meters":23200,"station_id":"ce4bhbp2rcd13ifvqesg","pricing_plan_id":"cebpf4jnsgd1na2vs0mg"},{"bike_id":"2ff670ae-26bd-485a-ad68-88cf753e8e73","system_id":"levelo_inurba_marseille","lat":43.292749,"lon":5.368402,"is_reserved":false,"is_disabled":false,"rental_uris":{"android":"levelo://app?vid=2ff670ae-26bd-485a-ad68-88cf753e8e73","ios":"levelo://app?vid=2ff670ae-26bd-485a-ad68-88cf753e8e73"},"vehicle_type_id":"4","last_reported":1719407447,"current_range_meters":5600,"station_id":"ce4bhbp2rcd13ifvqesg","pricing_plan_id":"cebpf4jnsgd1na2vs0mg"},{"bike_id":"4416a6ef-96be-4f4a-ac85-b1de93862e65","system_id":"levelo_inurba_marseille","lat":43.292749,"lon":5.368402,"is_reserved":false,"is_disabled":false,"rental_uris":{"android":"levelo://app?vid=4416a6ef-96be-4f4a-ac85-b1de93862e65","ios":"levelo://app?vid=4416a6ef-96be-4f4a-ac85-b1de93862e65"},"vehicle_type_id":"4","last_reported":1719407447,"current_range_meters":14800,"station_id":"ce4bhbp2rcd13ifvqesg","pricing_plan_id":"cebpf4jnsgd1na2vs0mg"},{"bike_id":"dfb6a9f5-e462-47d9-b378-387829e87098","system_id":"levelo_inurba_marseille","lat":43.292749,"lon":5.368402,"is_reserved":false,"is_disabled":false,"rental_uris":{"android":"levelo://app?vid=dfb6a9f5-e462-47d9-b378-387829e87098","ios":"levelo://app?vid=dfb6a9f5-e462-47d9-b378-387829e87098"},"vehicle_type_id":"4","last_reported":1719407447,"current_range_meters":24000,"station_id":"ce4bhbp2rcd13ifvqesg","pricing_plan_id":"cebpf4jnsgd1na2vs0mg"},{"bike_id":"fa484f63-e6b1-4d8c-add1-732db6645cbe","system_id":"levelo_inurba_marseille","lat":43.29281,"lon":5.36834,"is_reserved":false,"is_disabled":false,"rental_uris":{"android":"levelo://app?vid=fa484f63-e6b1-4d8c-add1-732db6645cbe","ios":"levelo://app?vid=fa484f63-e6b1-4d8c-add1-732db6645cbe"},"vehicle_type_id":"4","last_reported":1719407447,"current_range_meters":30000,"station_id":"ce4bhbp2rcd13ifvqesg","pricing_plan_id":"cebpf4jnsgd1na2vs0mg"},{"bike_id":"ab646ccf-1db5-4fc1-95aa-d015f79410bb","system_id":"levelo_inurba_marseille","lat":43.292749,"lon":5.368398,"is_reserved":false,"is_disabled":false,"rental_uris":{"android":"levelo://app?vid=ab646ccf-1db5-4fc1-95aa-d015f79410bb","ios":"levelo://app?vid=ab646ccf-1db5-4fc1-95aa-d015f79410bb"},"vehicle_type_id":"4","last_reported":1719407447,"current_range_meters":800,"station_id":"ce4bhbp2rcd13ifvqesg","pricing_plan_id":"cebpf4jnsgd1na2vs0mg"},{"bike_id":"9376546e-7f02-4fed-aaea-1de89aa51ce1","system_id":"levelo_inurba_marseille","lat":43.292749,"lon":5.368398,"is_reserved":false,"is_disabled":false,"rental_uris":{"android":"levelo://app?vid=9376546e-7f02-4fed-aaea-1de89aa51ce1","ios":"levelo://app?vid=9376546e-7f02-4fed-aaea-1de89aa51ce1"},"vehicle_type_id":"4","last_reported":1719407447,"current_range_meters":10800,"station_id":"ce4bhbp2rcd13ifvqesg","pricing_plan_id":"cebpf4jnsgd1na2vs0mg"},{"bike_id":"309875a6-beaa-493b-96d2-aaa02ab4f698","system_id":"levelo_inurba_marseille","lat":43.292749,"lon":5.368402,"is_reserved":false,"is_disabled":false,"rental_uris":{"android":"levelo://app?vid=309875a6-beaa-493b-96d2-aaa02ab4f698","ios":"levelo://app?vid=309875a6-beaa-493b-96d2-aaa02ab4f698"},"vehicle_type_id":"4","last_reported":1719407447,"current_range_meters":11200,"station_id":"ce4bhbp2rcd13ifvqesg","pricing_plan_id":"cebpf4jnsgd1na2vs0mg"},{"bike_id":"a7d33842-c8be-442a-a2d7-66216e306b35","system_id":"levelo_inurba_marseille","lat":43.292749,"lon":5.368402,"is_reserved":false,"is_disabled":false,"rental_uris":{"android":"levelo://app?vid=a7d33842-c8be-442a-a2d7-66216e306b35","ios":"levelo://app?vid=a7d33842-c8be-442a-a2d7-66216e306b35"},"vehicle_type_id":"4","last_reported":1719407447,"current_range_meters":21200,"station_id":"ce4bhbp2rcd13ifvqesg","pricing_plan_id":"cebpf4jnsgd1na2vs0mg"},{"bike_id":"2ea83f6a-9316-40e8-ba41-cc8d811debbf","system_id":"levelo_inurba_marseille","lat":43.292749,"lon":5.368402,"is_reserved":false,"is_disabled":false,"rental_uris":{"android":"levelo://app?vid=2ea83f6a-9316-40e8-ba41-cc8d811debbf","ios":"levelo://app?vid=2ea83f6a-9316-40e8-ba41-cc8d811debbf"},"vehicle_type_id":"4","last_reported":1719407447,"current_range_meters":18800,"station_id":"ce4bhbp2rcd13ifvqesg","pricing_plan_id":"cebpf4jnsgd1na2vs0mg"},{"bike_id":"cb48a5cb-2fba-40cd-a5c2-985508c73369","system_id":"levelo_inurba_marseille","lat":43.292749,"lon":5.368402,"is_reserved":false,"is_disabled":false,"rental_uris":{"android":"levelo://app?vid=cb48a5cb-2fba-40cd-a5c2-985508c73369","ios":"levelo://app?vid=cb48a5cb-2fba-40cd-a5c2-985508c73369"},"vehicle_type_id":"4","last_reported":1719407447,"current_range_meters":27200,"station_id":"ce4bhbp2rcd13ifvqesg","pricing_plan_id":"cebpf4jnsgd1na2vs0mg"},{"bike_id":"08360db1-562b-4d6e-850d-42ef693223fc","system_id":"levelo_inurba_marseille","lat":43.292749,"lon":5.368402,"is_reserved":false,"is_disabled":false,"rental_uris":{"android":"levelo://app?vid=08360db1-562b-4d6e-850d-42ef693223fc","ios":"levelo://app?vid=08360db1-562b-4d6e-850d-42ef693223fc"},"vehicle_type_id":"4","last_reported":1719407447,"current_range_meters":22400,"station_id":"ce4bhbp2rcd13ifvqesg","pricing_plan_id":"cebpf4jnsgd1na2vs0mg"},{"bike_id":"b874ab79-6e0a-49de-8760-5a355281d3c3","system_id":"levelo_inurba_marseille","lat":43.292749,"lon":5.368402,"is_reserved":false,"is_disabled":false,"rental_uris":{"android":"levelo://app?vid=b874ab79-6e0a-49de-8760-5a355281d3c3","ios":"levelo://app?vid=b874ab79-6e0a-49de-8760-5a355281d3c3"},"vehicle_type_id":"4","last_reported":1719407447,"current_range_meters":31200,"station_id":"ce4bhbp2rcd13ifvqesg","pricing_plan_id":"cebpf4jnsgd1na2vs0mg"},{"bike_id":"de4e5da6-f82b-41ce-bfc1-b2957e271c39","system_id":"levelo_inurba_marseille","lat":43.292749,"lon":5.368402,"is_reserved":false,"is_disabled":false,"rental_uris":{"android":"levelo://app?vid=de4e5da6-f82b-41ce-bfc1-b2957e271c39","ios":"levelo://app?vid=de4e5da6-f82b-41ce-bfc1-b2957e271c39"},"vehicle_type_id":"4","last_reported":1719407447,"current_range_meters":22000,"station_id":"ce4bhbp2rcd13ifvqesg","pricing_plan_id":"cebpf4jnsgd1na2vs0mg"},{"bike_id":"c19cf901-ca0d-4640-b3ca-d236b4e28b89","system_id":"levelo_inurba_marseille","lat":43.292749,"lon":5.368398,"is_reserved":false,"is_disabled":false,"rental_uris":{"android":"levelo://app?vid=c19cf901-ca0d-4640-b3ca-d236b4e28b89","ios":"levelo://app?vid=c19cf901-ca0d-4640-b3ca-d236b4e28b89"},"vehicle_type_id":"4","last_reported":1719407447,"current_range_meters":18400,"station_id":"ce4bhbp2rcd13ifvqesg","pricing_plan_id":"cebpf4jnsgd1na2vs0mg"},{"bike_id":"414721c6-a40e-4930-9230-9faf0da0ed42","system_id":"levelo_inurba_marseille","lat":43.29265,"lon":5.36837,"is_reserved":false,"is_disabled":false,"rental_uris":{"android":"levelo://app?vid=414721c6-a40e-4930-9230-9faf0da0ed42","ios":"levelo://app?vid=414721c6-a40e-4930-9230-9faf0da0ed42"},"vehicle_type_id":"4","last_reported":1719407447,"current_range_meters":30800,"station_id":"ce4bhbp2rcd13ifvqesg","pricing_plan_id":"cebpf4jnsgd1na2vs0mg"},{"bike_id":"d5f283b8-10ee-4e4d-aa3e-44e86d01eb89","system_id":"levelo_inurba_marseille","lat":43.293009,"lon":5.374584,"is_reserved":false,"is_disabled":false,"rental_uris":{"android":"levelo://app?vid=d5f283b8-10ee-4e4d-aa3e-44e86d01eb89","ios":"levelo://app?vid=d5f283b8-10ee-4e4d-aa3e-44e86d01eb89"},"vehicle_type_id":"4","last_reported":1719407447,"current_range_meters":21600,"station_id":"ce4bgi12rcd13ifvqb70","pricing_plan_id":"cebpf4jnsgd1na2vs0mg"},{"bike_id":"15c3bb6f-6d80-4330-b7a3-dcea57ba75b6","system_id":"levelo_inurba_marseille","lat":43.2936,"lon":5.37835,"is_reserved":false,"is_disabled":false,"rental_uris":{"android":"levelo://app?vid=15c3bb6f-6d80-4330-b7a3-dcea57ba75b6","ios":"levelo://app?vid=15c3bb6f-6d80-4330-b7a3-dcea57ba75b6"},"vehicle_type_id":"4","last_reported":1719407447,"current_range_meters":27600,"station_id":"ce4bgjh2rcd13ifvqbf0","pricing_plan_id":"cebpf4jnsgd1na2vs0mg"},{"bike_id":"acb12f8d-0931-4e23-ada7-4baf8af92fa8","system_id":"levelo_inurba_marseille","lat":43.2936,"lon":5.37835,"is_reserved":false,"is_disabled":false,"rental_uris":{"android":"levelo://app?vid=acb12f8d-0931-4e23-ada7-4baf8af92fa8","ios":"levelo://app?vid=acb12f8d-0931-4e23-ada7-4baf8af92fa8"},"vehicle_type_id":"4","last_reported":1719407447,"current_range_meters":5200,"station_id":"ce4bgjh2rcd13ifvqbf0","pricing_plan_id":"cebpf4jnsgd1na2vs0mg"},{"bike_id":"7c4a9b9c-d8f2-4761-af3d-d62c8a9e7d4c","system_id":"levelo_inurba_marseille","lat":43.292311,"lon":5.360731,"is_reserved":false,"is_disabled":false,"rental_uris":{"android":"levelo://app?vid=7c4a9b9c-d8f2-4761-af3d-d62c8a9e7d4c","ios":"levelo://app?vid=7c4a9b9c-d8f2-4761-af3d-d62c8a9e7d4c"},"vehicle_type_id":"4","last_reported":1719407447,"current_range_meters":24800,"station_id":"ce4bhbh2rcd13ifvqeqg","pricing_plan_id":"cebpf4jnsgd1na2vs0mg"},{"bike_id":"be56b606-51df-464c-830c-ae07c2bb95a5","system_id":"levelo_inurba_marseille","lat":43.292311,"lon":5.360731,"is_reserved":false,"is_disabled":false,"rental_uris":{"android":"levelo://app?vid=be56b606-51df-464c-830c-ae07c2bb95a5","ios":"levelo://app?vid=be56b606-51df-464c-830c-ae07c2bb95a5"},"vehicle_type_id":"4","last_reported":1719407447,"current_range_meters":31200,"station_id":"ce4bhbh2rcd13ifvqeqg","pricing_plan_id":"cebpf4jnsgd1na2vs0mg"},{"bike_id":"9abee6a5-8058-41ad-87a6-a9de9596117e","system_id":"levelo_inurba_marseille","lat":43.298764,"lon":5.388973,"is_reserved":false,"is_disabled":false,"rental_uris":{"android":"levelo://app?vid=9abee6a5-8058-41ad-87a6-a9de9596117e","ios":"levelo://app?vid=9abee6a5-8058-41ad-87a6-a9de9596117e"},"vehicle_type_id":"4","last_reported":1719407447,"current_range_meters":1600,"station_id":"ce4bh392rcd13ifvqdl0","pricing_plan_id":"cebpf4jnsgd1na2vs0mg"},{"bike_id":"8bc68be2-303d-475e-b8d6-9e1e0acca21b","system_id":"levelo_inurba_marseille","lat":43.297007,"lon":5.386453,"is_reserved":false,"is_disabled":false,"rental_uris":{"android":"levelo://app?vid=8bc68be2-303d-475e-b8d6-9e1e0acca21b","ios":"levelo://app?vid=8bc68be2-303d-475e-b8d6-9e1e0acca21b"},"vehicle_type_id":"4","last_reported":1719407447,"current_range_meters":7600,"station_id":"","pricing_plan_id":"cebpf4jnsgd1na2vs0mg"},{"bike_id":"e26914e9-b5bc-4c80-906e-8d151e3a64d6","system_id":"levelo_inurba_marseille","lat":43.298764,"lon":5.388973,"is_reserved":false,"is_disabled":false,"rental_uris":{"android":"levelo://app?vid=e26914e9-b5bc-4c80-906e-8d151e3a64d6","ios":"levelo://app?vid=e26914e9-b5bc-4c80-906e-8d151e3a64d6"},"vehicle_type_id":"4","last_reported":1719407447,"current_range_meters":0,"station_id":"ce4bh392rcd13ifvqdl0","pricing_plan_id":"cebpf4jnsgd1na2vs0mg"},{"bike_id":"b17bfcae-59dd-49b7-8fd3-456ec667ecda","system_id":"levelo_inurba_marseille","lat":43.291675,"lon":5.371583,"is_reserved":false,"is_disabled":false,"rental_uris":{"android":"levelo://app?vid=b17bfcae-59dd-49b7-8fd3-456ec667ecda","ios":"levelo://app?vid=b17bfcae-59dd-49b7-8fd3-456ec667ecda"},"vehicle_type_id":"4","last_reported":1719407447,"current_range_meters":16800,"station_id":"ce4bha92rcd13ifvqeh0","pricing_plan_id":"cebpf4jnsgd1na2vs0mg"},{"bike_id":"82d45d67-5ca1-4918-8895-62bae001f5b8","system_id":"levelo_inurba_marseille","lat":43.291671,"lon":5.371575,"is_reserved":false,"is_disabled":false,"rental_uris":{"android":"levelo://app?vid=82d45d67-5ca1-4918-8895-62bae001f5b8","ios":"levelo://app?vid=82d45d67-5ca1-4918-8895-62bae001f5b8"},"vehicle_type_id":"4","last_reported":1719407447,"current_range_meters":23200,"station_id":"ce4bha92rcd13ifvqeh0","pricing_plan_id":"cebpf4jnsgd1na2vs0mg"},{"bike_id":"21ef71c1-b041-41cd-9e34-a7eb3fb68392","system_id":"levelo_inurba_marseille","lat":43.292005,"lon":5.357875,"is_reserved":false,"is_disabled":false,"rental_uris":{"android":"levelo://app?vid=21ef71c1-b041-41cd-9e34-a7eb3fb68392","ios":"levelo://app?vid=21ef71c1-b041-41cd-9e34-a7eb3fb68392"},"vehicle_type_id":"4","last_reported":1719407447,"current_range_meters":13200,"station_id":"ce4bhb12rcd13ifvqel0","pricing_plan_id":"cebpf4jnsgd1na2vs0mg"},{"bike_id":"d375134c-8558-4cd0-9d67-4613d0409a65","system_id":"levelo_inurba_marseille","lat":43.291994,"lon":5.357886,"is_reserved":false,"is_disabled":false,"rental_uris":{"android":"levelo://app?vid=d375134c-8558-4cd0-9d67-4613d0409a65","ios":"levelo://app?vid=d375134c-8558-4cd0-9d67-4613d0409a65"},"vehicle_type_id":"4","last_reported":1719407447,"current_range_meters":26800,"station_id":"ce4bhb12rcd13ifvqel0","pricing_plan_id":"cebpf4jnsgd1na2vs0mg"},{"bike_id":"f8f17aae-987c-4057-bb28-9d4cb464da42","system_id":"levelo_inurba_marseille","lat":43.291994,"lon":5.357886,"is_reserved":false,"is_disabled":false,"rental_uris":{"android":"levelo://app?vid=f8f17aae-987c-4057-bb28-9d4cb464da42","ios":"levelo://app?vid=f8f17aae-987c-4057-bb28-9d4cb464da42"},"vehicle_type_id":"4","last_reported":1719407447,"current_range_meters":30000,"station_id":"ce4bhb12rcd13ifvqel0","pricing_plan_id":"cebpf4jnsgd1na2vs0mg"},{"bike_id":"483a88b1-6609-4a9b-9714-5156bf1d63c3","system_id":"levelo_inurba_marseille","lat":43.29529,"lon":5.385581,"is_reserved":false,"is_disabled":false,"rental_uris":{"android":"levelo://app?vid=483a88b1-6609-4a9b-9714-5156bf1d63c3","ios":"levelo://app?vid=483a88b1-6609-4a9b-9714-5156bf1d63c3"},"vehicle_type_id":"4","last_reported":1719407447,"current_range_meters":29600,"station_id":"ce4bgih2rcd13ifvqba0","pricing_plan_id":"cebpf4jnsgd1na2vs0mg"},{"bike_id":"06e9b1e9-74d1-4973-b509-bfaf5a214e1b","system_id":"levelo_inurba_marseille","lat":43.290779,"lon":5.371482,"is_reserved":false,"is_disabled":false,"rental_uris":{"android":"levelo://app?vid=06e9b1e9-74d1-4973-b509-bfaf5a214e1b","ios":"levelo://app?vid=06e9b1e9-74d1-4973-b509-bfaf5a214e1b"},"vehicle_type_id":"4","last_reported":1719407447,"current_range_meters":6400,"station_id":"ce4bh5p2rcd13ifvqe4g","pricing_plan_id":"cebpf4jnsgd1na2vs0mg"},{"bike_id":"6f7572aa-503d-4a50-9a1d-c30d752f7e8b","system_id":"levelo_inurba_marseille","lat":43.290779,"lon":5.371482,"is_reserved":false,"is_disabled":false,"rental_uris":{"android":"levelo://app?vid=6f7572aa-503d-4a50-9a1d-c30d752f7e8b","ios":"levelo://app?vid=6f7572aa-503d-4a50-9a1d-c30d752f7e8b"},"vehicle_type_id":"4","last_reported":1719407447,"current_range_meters":1600,"station_id":"ce4bh5p2rcd13ifvqe4g","pricing_plan_id":"cebpf4jnsgd1na2vs0mg"},{"bike_id":"662679df-6f65-4623-bc71-a9f83e87ac86","system_id":"levelo_inurba_marseille","lat":43.290779,"lon":5.371482,"is_reserved":false,"is_disabled":false,"rental_uris":{"android":"levelo://app?vid=662679df-6f65-4623-bc71-a9f83e87ac86","ios":"levelo://app?vid=662679df-6f65-4623-bc71-a9f83e87ac86"},"vehicle_type_id":"4","last_reported":1719407447,"current_range_meters":31200,"station_id":"ce4bh5p2rcd13ifvqe4g","pricing_plan_id":"cebpf4jnsgd1na2vs0mg"},{"bike_id":"531a7274-d227-40f6-964b-e9f6247c043b","system_id":"levelo_inurba_marseille","lat":43.29107,"lon":5.37658,"is_reserved":false,"is_disabled":false,"rental_uris":{"android":"levelo://app?vid=531a7274-d227-40f6-964b-e9f6247c043b","ios":"levelo://app?vid=531a7274-d227-40f6-964b-e9f6247c043b"},"vehicle_type_id":"4","last_reported":1719407447,"current_range_meters":4800,"station_id":"","pricing_plan_id":"cebpf4jnsgd1na2vs0mg"},{"bike_id":"d7d73af0-52b3-4e98-a31f-096e259fe241","system_id":"levelo_inurba_marseille","lat":43.290631,"lon":5.359244,"is_reserved":false,"is_disabled":false,"rental_uris":{"android":"levelo://app?vid=d7d73af0-52b3-4e98-a31f-096e259fe241","ios":"levelo://app?vid=d7d73af0-52b3-4e98-a31f-096e259fe241"},"vehicle_type_id":"4","last_reported":1719407447,"current_range_meters":12400,"station_id":"ce4bha92rcd13ifvqeg0","pricing_plan_id":"cebpf4jnsgd1na2vs0mg"},{"bike_id":"2223b94b-3b09-41c5-8119-6b7fb674a594","system_id":"levelo_inurba_marseille","lat":43.290327,"lon":5.375711,"is_reserved":false,"is_disabled":false,"rental_uris":{"android":"levelo://app?vid=2223b94b-3b09-41c5-8119-6b7fb674a594","ios":"levelo://app?vid=2223b94b-3b09-41c5-8119-6b7fb674a594"},"vehicle_type_id":"4","last_reported":1719407447,"current_range_meters":6400,"station_id":"ce4bh692rcd13ifvqe90","pricing_plan_id":"cebpf4jnsgd1na2vs0mg"},{"bike_id":"a9206c52-cc70-426c-9cdc-f1ee73ba7889","system_id":"levelo_inurba_marseille","lat":43.29036,"lon":5.37551,"is_reserved":false,"is_disabled":false,"rental_uris":{"android":"levelo://app?vid=a9206c52-cc70-426c-9cdc-f1ee73ba7889","ios":"levelo://app?vid=a9206c52-cc70-426c-9cdc-f1ee73ba7889"},"vehicle_type_id":"4","last_reported":1719407447,"current_range_meters":22800,"station_id":"ce4bh692rcd13ifvqe90","pricing_plan_id":"cebpf4jnsgd1na2vs0mg"},{"bike_id":"2de0695b-c3e2-4d60-bbb1-79839776e593","system_id":"levelo_inurba_marseille","lat":43.289184,"lon":5.366408,"is_reserved":false,"is_disabled":false,"rental_uris":{"android":"levelo://app?vid=2de0695b-c3e2-4d60-bbb1-79839776e593","ios":"levelo://app?vid=2de0695b-c3e2-4d60-bbb1-79839776e593"},"vehicle_type_id":"4","last_reported":1719407447,"current_range_meters":14000,"station_id":"ce4bhap2rcd13ifvqek0","pricing_plan_id":"cebpf4jnsgd1na2vs0mg"},{"bike_id":"81100fe6-3c62-4601-a904-b7521a539de8","system_id":"levelo_inurba_marseille","lat":43.29028,"lon":5.37555,"is_reserved":false,"is_disabled":false,"rental_uris":{"android":"levelo://app?vid=81100fe6-3c62-4601-a904-b7521a539de8","ios":"levelo://app?vid=81100fe6-3c62-4601-a904-b7521a539de8"},"vehicle_type_id":"4","last_reported":1719407447,"current_range_meters":0,"station_id":"ce4bh692rcd13ifvqe90","pricing_plan_id":"cebpf4jnsgd1na2vs0mg"},{"bike_id":"1138d255-b00e-4a3e-bfc8-625775995923","system_id":"levelo_inurba_marseille","lat":43.28936,"lon":5.36386,"is_reserved":false,"is_disabled":false,"rental_uris":{"android":"levelo://app?vid=1138d255-b00e-4a3e-bfc8-625775995923","ios":"levelo://app?vid=1138d255-b00e-4a3e-bfc8-625775995923"},"vehicle_type_id":"4","last_reported":1719407447,"current_range_meters":18400,"station_id":"","pricing_plan_id":"cebpf4jnsgd1na2vs0mg"},{"bike_id":"085b9d9a-b746-4fb0-8e9f-da53d03c2c58","system_id":"levelo_inurba_marseille","lat":43.289468,"lon":5.363719,"is_reserved":false,"is_disabled":false,"rental_uris":{"android":"levelo://app?vid=085b9d9a-b746-4fb0-8e9f-da53d03c2c58","ios":"levelo://app?vid=085b9d9a-b746-4fb0-8e9f-da53d03c2c58"},"vehicle_type_id":"4","last_reported":1719407447,"current_range_meters":23600,"station_id":"ce4bhc92rcd13ifvqetg","pricing_plan_id":"cebpf4jnsgd1na2vs0mg"},{"bike_id":"e6b29fc0-32c2-4053-8fd5-40e0fa2fec5c","system_id":"levelo_inurba_marseille","lat":43.289184,"lon":5.366408,"is_reserved":false,"is_disabled":false,"rental_uris":{"android":"levelo://app?vid=e6b29fc0-32c2-4053-8fd5-40e0fa2fec5c","ios":"levelo://app?vid=e6b29fc0-32c2-4053-8fd5-40e0fa2fec5c"},"vehicle_type_id":"4","last_reported":1719407447,"current_range_meters":20800,"station_id":"ce4bhap2rcd13ifvqek0","pricing_plan_id":"cebpf4jnsgd1na2vs0mg"},{"bike_id":"a1b6aa50-53e9-4ecf-86ca-6b62c8f4701b","system_id":"levelo_inurba_marseille","lat":43.289468,"lon":5.363719,"is_reserved":false,"is_disabled":false,"rental_uris":{"android":"levelo://app?vid=a1b6aa50-53e9-4ecf-86ca-6b62c8f4701b","ios":"levelo://app?vid=a1b6aa50-53e9-4ecf-86ca-6b62c8f4701b"},"vehicle_type_id":"4","last_reported":1719407447,"current_range_meters":6000,"station_id":"ce4bhc92rcd13ifvqetg","pricing_plan_id":"cebpf4jnsgd1na2vs0mg"},{"bike_id":"d9daae79-03cf-42c8-9d35-53e131f55afa","system_id":"levelo_inurba_marseille","lat":43.290103,"lon":5.356114,"is_reserved":false,"is_disabled":false,"rental_uris":{"android":"levelo://app?vid=d9daae79-03cf-42c8-9d35-53e131f55afa","ios":"levelo://app?vid=d9daae79-03cf-42c8-9d35-53e131f55afa"},"vehicle_type_id":"4","last_reported":1719407447,"current_range_meters":2000,"station_id":"ce4bhb92rcd13ifvqen0","pricing_plan_id":"cebpf4jnsgd1na2vs0mg"},{"bike_id":"b6fd6488-33a2-4475-bca6-28e0be7563f2","system_id":"levelo_inurba_marseille","lat":43.290103,"lon":5.356114,"is_reserved":false,"is_disabled":false,"rental_uris":{"android":"levelo://app?vid=b6fd6488-33a2-4475-bca6-28e0be7563f2","ios":"levelo://app?vid=b6fd6488-33a2-4475-bca6-28e0be7563f2"},"vehicle_type_id":"4","last_reported":1719407447,"current_range_meters":12400,"station_id":"ce4bhb92rcd13ifvqen0","pricing_plan_id":"cebpf4jnsgd1na2vs0mg"},{"bike_id":"3187c0dc-31a5-4280-a9eb-e5038ec9dc28","system_id":"levelo_inurba_marseille","lat":43.290104,"lon":5.356111,"is_reserved":false,"is_disabled":false,"rental_uris":{"android":"levelo://app?vid=3187c0dc-31a5-4280-a9eb-e5038ec9dc28","ios":"levelo://app?vid=3187c0dc-31a5-4280-a9eb-e5038ec9dc28"},"vehicle_type_id":"4","last_reported":1719407447,"current_range_meters":18800,"station_id":"ce4bhb92rcd13ifvqen0","pricing_plan_id":"cebpf4jnsgd1na2vs0mg"},{"bike_id":"7905433b-66bb-48c7-a58a-7d1be64183c6","system_id":"levelo_inurba_marseille","lat":43.290104,"lon":5.356111,"is_reserved":false,"is_disabled":false,"rental_uris":{"android":"levelo://app?vid=7905433b-66bb-48c7-a58a-7d1be64183c6","ios":"levelo://app?vid=7905433b-66bb-48c7-a58a-7d1be64183c6"},"vehicle_type_id":"4","last_reported":1719407447,"current_range_meters":26800,"station_id":"ce4bhb92rcd13ifvqen0","pricing_plan_id":"cebpf4jnsgd1na2vs0mg"},{"bike_id":"984dcb59-a948-47fc-9f6b-045c2a2691d8","system_id":"levelo_inurba_marseille","lat":43.290104,"lon":5.356111,"is_reserved":false,"is_disabled":false,"rental_uris":{"android":"levelo://app?vid=984dcb59-a948-47fc-9f6b-045c2a2691d8","ios":"levelo://app?vid=984dcb59-a948-47fc-9f6b-045c2a2691d8"},"vehicle_type_id":"4","last_reported":1719407447,"current_range_meters":0,"station_id":"ce4bhb92rcd13ifvqen0","pricing_plan_id":"cebpf4jnsgd1na2vs0mg"},{"bike_id":"2e276f30-96f6-4ae8-95a6-4be00ffb0c2e","system_id":"levelo_inurba_marseille","lat":43.290104,"lon":5.356111,"is_reserved":false,"is_disabled":false,"rental_uris":{"android":"levelo://app?vid=2e276f30-96f6-4ae8-95a6-4be00ffb0c2e","ios":"levelo://app?vid=2e276f30-96f6-4ae8-95a6-4be00ffb0c2e"},"vehicle_type_id":"4","last_reported":1719407447,"current_range_meters":7200,"station_id":"ce4bhb92rcd13ifvqen0","pricing_plan_id":"cebpf4jnsgd1na2vs0mg"},{"bike_id":"204b3f55-aa9d-4dd9-a5bd-da917482a366","system_id":"levelo_inurba_marseille","lat":43.29793,"lon":5.39341,"is_reserved":false,"is_disabled":false,"rental_uris":{"android":"levelo://app?vid=204b3f55-aa9d-4dd9-a5bd-da917482a366","ios":"levelo://app?vid=204b3f55-aa9d-4dd9-a5bd-da917482a366"},"vehicle_type_id":"4","last_reported":1719407447,"current_range_meters":27200,"station_id":"chh1huq6cuj3fo74tm60","pricing_plan_id":"cebpf4jnsgd1na2vs0mg"},{"bike_id":"409cff70-859a-4502-b862-1ca428e06c38","system_id":"levelo_inurba_marseille","lat":43.28845,"lon":5.36918,"is_reserved":false,"is_disabled":false,"rental_uris":{"android":"levelo://app?vid=409cff70-859a-4502-b862-1ca428e06c38","ios":"levelo://app?vid=409cff70-859a-4502-b862-1ca428e06c38"},"vehicle_type_id":"4","last_reported":1719407447,"current_range_meters":20000,"station_id":"","pricing_plan_id":"cebpf4jnsgd1na2vs0mg"},{"bike_id":"06067b65-6558-41df-a861-e88e3ce5e751","system_id":"levelo_inurba_marseille","lat":43.33025,"lon":5.39035,"is_reserved":false,"is_disabled":false,"rental_uris":{"android":"levelo://app?vid=06067b65-6558-41df-a861-e88e3ce5e751","ios":"levelo://app?vid=06067b65-6558-41df-a861-e88e3ce5e751"},"vehicle_type_id":"4","last_reported":1719407447,"current_range_meters":0,"station_id":"ce4bhr92rcd13ifvqhrg","pricing_plan_id":"cebpf4jnsgd1na2vs0mg"},{"bike_id":"91a547bb-9759-44e6-8775-2ac69d601a5a","system_id":"levelo_inurba_marseille","lat":43.330442,"lon":5.389148,"is_reserved":false,"is_disabled":false,"rental_uris":{"android":"levelo://app?vid=91a547bb-9759-44e6-8775-2ac69d601a5a","ios":"levelo://app?vid=91a547bb-9759-44e6-8775-2ac69d601a5a"},"vehicle_type_id":"4","last_reported":1719407447,"current_range_meters":26400,"station_id":"ce4bhr92rcd13ifvqhrg","pricing_plan_id":"cebpf4jnsgd1na2vs0mg"},{"bike_id":"355aabf8-dabb-41ea-8b63-ca7770e4952b","system_id":"levelo_inurba_marseille","lat":43.295169,"lon":5.390426,"is_reserved":false,"is_disabled":false,"rental_uris":{"android":"levelo://app?vid=355aabf8-dabb-41ea-8b63-ca7770e4952b","ios":"levelo://app?vid=355aabf8-dabb-41ea-8b63-ca7770e4952b"},"vehicle_type_id":"4","last_reported":1719407447,"current_range_meters":22400,"station_id":"ce4bh3p2rcd13ifvqdp0","pricing_plan_id":"cebpf4jnsgd1na2vs0mg"},{"bike_id":"e099c4fb-4c08-44b3-8139-cd7a5fd33a92","system_id":"levelo_inurba_marseille","lat":43.28856,"lon":5.358371,"is_reserved":false,"is_disabled":false,"rental_uris":{"android":"levelo://app?vid=e099c4fb-4c08-44b3-8139-cd7a5fd33a92","ios":"levelo://app?vid=e099c4fb-4c08-44b3-8139-cd7a5fd33a92"},"vehicle_type_id":"4","last_reported":1719407447,"current_range_meters":8400,"station_id":"ce4bhb12rcd13ifvqem0","pricing_plan_id":"cebpf4jnsgd1na2vs0mg"},{"bike_id":"c3ddbe4a-157d-4893-acf1-f1f626a65d21","system_id":"levelo_inurba_marseille","lat":43.33715,"lon":5.37426,"is_reserved":false,"is_disabled":false,"rental_uris":{"android":"levelo://app?vid=c3ddbe4a-157d-4893-acf1-f1f626a65d21","ios":"levelo://app?vid=c3ddbe4a-157d-4893-acf1-f1f626a65d21"},"vehicle_type_id":"0","last_reported":1719407447,"current_range_meters":19200,"station_id":"","pricing_plan_id":"cebpf4jnsgd1na2vs0mg"},{"bike_id":"bd9a6c26-2db3-4e30-92c7-c85ae97147aa","system_id":"levelo_inurba_marseille","lat":43.3374,"lon":5.3746,"is_reserved":false,"is_disabled":false,"rental_uris":{"android":"levelo://app?vid=bd9a6c26-2db3-4e30-92c7-c85ae97147aa","ios":"levelo://app?vid=bd9a6c26-2db3-4e30-92c7-c85ae97147aa"},"vehicle_type_id":"0","last_reported":1719407447,"current_range_meters":21600,"station_id":"","pricing_plan_id":"cebpf4jnsgd1na2vs0mg"},{"bike_id":"9b81675f-44cd-4cbe-9733-2d36a516d8f7","system_id":"levelo_inurba_marseille","lat":43.3374,"lon":5.3746,"is_reserved":false,"is_disabled":false,"rental_uris":{"android":"levelo://app?vid=9b81675f-44cd-4cbe-9733-2d36a516d8f7","ios":"levelo://app?vid=9b81675f-44cd-4cbe-9733-2d36a516d8f7"},"vehicle_type_id":"0","last_reported":1719407447,"current_range_meters":20400,"station_id":"","pricing_plan_id":"cebpf4jnsgd1na2vs0mg"},{"bike_id":"bb65fb70-df82-47d8-b27f-438620895501","system_id":"levelo_inurba_marseille","lat":43.337409,"lon":5.374553,"is_reserved":false,"is_disabled":false,"rental_uris":{"android":"levelo://app?vid=bb65fb70-df82-47d8-b27f-438620895501","ios":"levelo://app?vid=bb65fb70-df82-47d8-b27f-438620895501"},"vehicle_type_id":"4","last_reported":1719407447,"current_range_meters":12400,"station_id":"","pricing_plan_id":"cebpf4jnsgd1na2vs0mg"},{"bike_id":"11da98ef-d0c3-43c2-a7e4-890f2c23ccbc","system_id":"levelo_inurba_marseille","lat":43.337405,"lon":5.374605,"is_reserved":false,"is_disabled":false,"rental_uris":{"android":"levelo://app?vid=11da98ef-d0c3-43c2-a7e4-890f2c23ccbc","ios":"levelo://app?vid=11da98ef-d0c3-43c2-a7e4-890f2c23ccbc"},"vehicle_type_id":"4","last_reported":1719407447,"current_range_meters":12800,"station_id":"","pricing_plan_id":"cebpf4jnsgd1na2vs0mg"},{"bike_id":"2a0fb516-a307-4861-b129-104556c40f00","system_id":"levelo_inurba_marseille","lat":43.337397,"lon":5.37466,"is_reserved":false,"is_disabled":false,"rental_uris":{"android":"levelo://app?vid=2a0fb516-a307-4861-b129-104556c40f00","ios":"levelo://app?vid=2a0fb516-a307-4861-b129-104556c40f00"},"vehicle_type_id":"0","last_reported":1719407447,"current_range_meters":10400,"station_id":"","pricing_plan_id":"cebpf4jnsgd1na2vs0mg"},{"bike_id":"c25a3696-e1cc-43ba-8656-23d4a118ee2e","system_id":"levelo_inurba_marseille","lat":43.337388,"lon":5.374716,"is_reserved":false,"is_disabled":false,"rental_uris":{"android":"levelo://app?vid=c25a3696-e1cc-43ba-8656-23d4a118ee2e","ios":"levelo://app?vid=c25a3696-e1cc-43ba-8656-23d4a118ee2e"},"vehicle_type_id":"4","last_reported":1719407447,"current_range_meters":18800,"station_id":"","pricing_plan_id":"cebpf4jnsgd1na2vs0mg"},{"bike_id":"985eda3a-8205-4c72-8b0d-a44593dd15b5","system_id":"levelo_inurba_marseille","lat":43.337407,"lon":5.374657,"is_reserved":false,"is_disabled":false,"rental_uris":{"android":"levelo://app?vid=985eda3a-8205-4c72-8b0d-a44593dd15b5","ios":"levelo://app?vid=985eda3a-8205-4c72-8b0d-a44593dd15b5"},"vehicle_type_id":"0","last_reported":1719407447,"current_range_meters":11600,"station_id":"","pricing_plan_id":"cebpf4jnsgd1na2vs0mg"},{"bike_id":"aa527c2c-31a5-479b-bfbe-daae0d9bb514","system_id":"levelo_inurba_marseille","lat":43.337435,"lon":5.374635,"is_reserved":false,"is_disabled":false,"rental_uris":{"android":"levelo://app?vid=aa527c2c-31a5-479b-bfbe-daae0d9bb514","ios":"levelo://app?vid=aa527c2c-31a5-479b-bfbe-daae0d9bb514"},"vehicle_type_id":"0","last_reported":1719407447,"current_range_meters":8000,"station_id":"","pricing_plan_id":"cebpf4jnsgd1na2vs0mg"},{"bike_id":"cbff8e2e-87ad-4d9e-a09d-9b1fba1c0aeb","system_id":"levelo_inurba_marseille","lat":43.337424,"lon":5.374709,"is_reserved":false,"is_disabled":false,"rental_uris":{"android":"levelo://app?vid=cbff8e2e-87ad-4d9e-a09d-9b1fba1c0aeb","ios":"levelo://app?vid=cbff8e2e-87ad-4d9e-a09d-9b1fba1c0aeb"},"vehicle_type_id":"0","last_reported":1719407447,"current_range_meters":18400,"station_id":"","pricing_plan_id":"cebpf4jnsgd1na2vs0mg"},{"bike_id":"70df0eff-7892-4d64-8b33-f9b25d3cdb77","system_id":"levelo_inurba_marseille","lat":43.33743,"lon":5.37468,"is_reserved":false,"is_disabled":false,"rental_uris":{"android":"levelo://app?vid=70df0eff-7892-4d64-8b33-f9b25d3cdb77","ios":"levelo://app?vid=70df0eff-7892-4d64-8b33-f9b25d3cdb77"},"vehicle_type_id":"4","last_reported":1719407447,"current_range_meters":18800,"station_id":"","pricing_plan_id":"cebpf4jnsgd1na2vs0mg"},{"bike_id":"8043cc8a-f702-4e45-9523-d56dfd7ee432","system_id":"levelo_inurba_marseille","lat":43.33746,"lon":5.37471,"is_reserved":false,"is_disabled":false,"rental_uris":{"android":"levelo://app?vid=8043cc8a-f702-4e45-9523-d56dfd7ee432","ios":"levelo://app?vid=8043cc8a-f702-4e45-9523-d56dfd7ee432"},"vehicle_type_id":"0","last_reported":1719407447,"current_range_meters":17600,"station_id":"","pricing_plan_id":"cebpf4jnsgd1na2vs0mg"},{"bike_id":"964da988-1ad7-425d-8814-a2de4f563aa5","system_id":"levelo_inurba_marseille","lat":43.3375,"lon":5.37459,"is_reserved":false,"is_disabled":false,"rental_uris":{"android":"levelo://app?vid=964da988-1ad7-425d-8814-a2de4f563aa5","ios":"levelo://app?vid=964da988-1ad7-425d-8814-a2de4f563aa5"},"vehicle_type_id":"4","last_reported":1719407447,"current_range_meters":25200,"station_id":"","pricing_plan_id":"cebpf4jnsgd1na2vs0mg"},{"bike_id":"bf709b1a-1e81-4c69-a36a-dfef45d67fee","system_id":"levelo_inurba_marseille","lat":43.33748,"lon":5.37474,"is_reserved":false,"is_disabled":false,"rental_uris":{"android":"levelo://app?vid=bf709b1a-1e81-4c69-a36a-dfef45d67fee","ios":"levelo://app?vid=bf709b1a-1e81-4c69-a36a-dfef45d67fee"},"vehicle_type_id":"4","last_reported":1719407447,"current_range_meters":18800,"station_id":"","pricing_plan_id":"cebpf4jnsgd1na2vs0mg"},{"bike_id":"6e0baf4b-61d7-4ef6-8422-5a70117d3288","system_id":"levelo_inurba_marseille","lat":43.337543,"lon":5.374544,"is_reserved":false,"is_disabled":false,"rental_uris":{"android":"levelo://app?vid=6e0baf4b-61d7-4ef6-8422-5a70117d3288","ios":"levelo://app?vid=6e0baf4b-61d7-4ef6-8422-5a70117d3288"},"vehicle_type_id":"4","last_reported":1719407447,"current_range_meters":30800,"station_id":"","pricing_plan_id":"cebpf4jnsgd1na2vs0mg"},{"bike_id":"19c239d3-5a4b-4aff-8085-66266dba085d","system_id":"levelo_inurba_marseille","lat":43.33764,"lon":5.37441,"is_reserved":false,"is_disabled":false,"rental_uris":{"android":"levelo://app?vid=19c239d3-5a4b-4aff-8085-66266dba085d","ios":"levelo://app?vid=19c239d3-5a4b-4aff-8085-66266dba085d"},"vehicle_type_id":"4","last_reported":1719407447,"current_range_meters":23200,"station_id":"","pricing_plan_id":"cebpf4jnsgd1na2vs0mg"},{"bike_id":"c1cfc8fa-6566-4888-9de6-af766d64e3d0","system_id":"levelo_inurba_marseille","lat":43.30642,"lon":5.401031,"is_reserved":false,"is_disabled":false,"rental_uris":{"android":"levelo://app?vid=c1cfc8fa-6566-4888-9de6-af766d64e3d0","ios":"levelo://app?vid=c1cfc8fa-6566-4888-9de6-af766d64e3d0"},"vehicle_type_id":"4","last_reported":1719407447,"current_range_meters":16400,"station_id":"ce4bh112rcd13ifvqda0","pricing_plan_id":"cebpf4jnsgd1na2vs0mg"},{"bike_id":"6d55599a-2cb4-4d13-8e4c-13d0be2b5eff","system_id":"levelo_inurba_marseille","lat":43.301117,"lon":5.398795,"is_reserved":false,"is_disabled":false,"rental_uris":{"android":"levelo://app?vid=6d55599a-2cb4-4d13-8e4c-13d0be2b5eff","ios":"levelo://app?vid=6d55599a-2cb4-4d13-8e4c-13d0be2b5eff"},"vehicle_type_id":"4","last_reported":1719407447,"current_range_meters":5200,"station_id":"ce4bh0h2rcd13ifvqd40","pricing_plan_id":"cebpf4jnsgd1na2vs0mg"},{"bike_id":"17e15384-1613-4abd-b5ca-2a3628e9ca97","system_id":"levelo_inurba_marseille","lat":43.286961,"lon":5.373785,"is_reserved":false,"is_disabled":false,"rental_uris":{"android":"levelo://app?vid=17e15384-1613-4abd-b5ca-2a3628e9ca97","ios":"levelo://app?vid=17e15384-1613-4abd-b5ca-2a3628e9ca97"},"vehicle_type_id":"4","last_reported":1719407447,"current_range_meters":5200,"station_id":"ce4bh3p2rcd13ifvqdq0","pricing_plan_id":"cebpf4jnsgd1na2vs0mg"},{"bike_id":"a4c7063e-e46c-41c0-9777-647811774978","system_id":"levelo_inurba_marseille","lat":43.286961,"lon":5.373785,"is_reserved":false,"is_disabled":false,"rental_uris":{"android":"levelo://app?vid=a4c7063e-e46c-41c0-9777-647811774978","ios":"levelo://app?vid=a4c7063e-e46c-41c0-9777-647811774978"},"vehicle_type_id":"4","last_reported":1719407447,"current_range_meters":0,"station_id":"ce4bh3p2rcd13ifvqdq0","pricing_plan_id":"cebpf4jnsgd1na2vs0mg"},{"bike_id":"7f32c0d9-525f-4266-ac62-a7ff79caa81e","system_id":"levelo_inurba_marseille","lat":43.286961,"lon":5.373785,"is_reserved":false,"is_disabled":false,"rental_uris":{"android":"levelo://app?vid=7f32c0d9-525f-4266-ac62-a7ff79caa81e","ios":"levelo://app?vid=7f32c0d9-525f-4266-ac62-a7ff79caa81e"},"vehicle_type_id":"4","last_reported":1719407447,"current_range_meters":15600,"station_id":"ce4bh3p2rcd13ifvqdq0","pricing_plan_id":"cebpf4jnsgd1na2vs0mg"},{"bike_id":"e0b9b0a1-0e0c-4980-9710-47cbd25d87f5","system_id":"levelo_inurba_marseille","lat":43.286961,"lon":5.373785,"is_reserved":false,"is_disabled":false,"rental_uris":{"android":"levelo://app?vid=e0b9b0a1-0e0c-4980-9710-47cbd25d87f5","ios":"levelo://app?vid=e0b9b0a1-0e0c-4980-9710-47cbd25d87f5"},"vehicle_type_id":"4","last_reported":1719407447,"current_range_meters":16400,"station_id":"ce4bh3p2rcd13ifvqdq0","pricing_plan_id":"cebpf4jnsgd1na2vs0mg"},{"bike_id":"ddaf4901-61f8-4627-8273-71e88eea8df7","system_id":"levelo_inurba_marseille","lat":43.28696,"lon":5.37378,"is_reserved":false,"is_disabled":false,"rental_uris":{"android":"levelo://app?vid=ddaf4901-61f8-4627-8273-71e88eea8df7","ios":"levelo://app?vid=ddaf4901-61f8-4627-8273-71e88eea8df7"},"vehicle_type_id":"4","last_reported":1719407447,"current_range_meters":0,"station_id":"ce4bh3p2rcd13ifvqdq0","pricing_plan_id":"cebpf4jnsgd1na2vs0mg"},{"bike_id":"9b024d23-5298-4dd4-a7fd-309b69d9b875","system_id":"levelo_inurba_marseille","lat":43.298681,"lon":5.397225,"is_reserved":false,"is_disabled":false,"rental_uris":{"android":"levelo://app?vid=9b024d23-5298-4dd4-a7fd-309b69d9b875","ios":"levelo://app?vid=9b024d23-5298-4dd4-a7fd-309b69d9b875"},"vehicle_type_id":"4","last_reported":1719407447,"current_range_meters":2400,"station_id":"ce4bh0h2rcd13ifvqd50","pricing_plan_id":"cebpf4jnsgd1na2vs0mg"},{"bike_id":"bed53f56-f342-4cf9-b77a-53270491743b","system_id":"levelo_inurba_marseille","lat":43.286961,"lon":5.373785,"is_reserved":false,"is_disabled":false,"rental_uris":{"android":"levelo://app?vid=bed53f56-f342-4cf9-b77a-53270491743b","ios":"levelo://app?vid=bed53f56-f342-4cf9-b77a-53270491743b"},"vehicle_type_id":"4","last_reported":1719407447,"current_range_meters":17600,"station_id":"ce4bh3p2rcd13ifvqdq0","pricing_plan_id":"cebpf4jnsgd1na2vs0mg"},{"bike_id":"f12f891f-00b4-4671-afbf-3a7aabfef367","system_id":"levelo_inurba_marseille","lat":43.290345,"lon":5.38646,"is_reserved":false,"is_disabled":false,"rental_uris":{"android":"levelo://app?vid=f12f891f-00b4-4671-afbf-3a7aabfef367","ios":"levelo://app?vid=f12f891f-00b4-4671-afbf-3a7aabfef367"},"vehicle_type_id":"4","last_reported":1719407447,"current_range_meters":7600,"station_id":"ce4bh4p2rcd13ifvqe0g","pricing_plan_id":"cebpf4jnsgd1na2vs0mg"},{"bike_id":"09b5fa95-2814-456a-81e5-be24994e6070","system_id":"levelo_inurba_marseille","lat":43.290336,"lon":5.386425,"is_reserved":false,"is_disabled":false,"rental_uris":{"android":"levelo://app?vid=09b5fa95-2814-456a-81e5-be24994e6070","ios":"levelo://app?vid=09b5fa95-2814-456a-81e5-be24994e6070"},"vehicle_type_id":"4","last_reported":1719407447,"current_range_meters":24000,"station_id":"ce4bh4p2rcd13ifvqe0g","pricing_plan_id":"cebpf4jnsgd1na2vs0mg"},{"bike_id":"593b791c-b8a4-41f9-afff-cbb3b085e0b9","system_id":"levelo_inurba_marseille","lat":43.286039,"lon":5.370679,"is_reserved":false,"is_disabled":false,"rental_uris":{"android":"levelo://app?vid=593b791c-b8a4-41f9-afff-cbb3b085e0b9","ios":"levelo://app?vid=593b791c-b8a4-41f9-afff-cbb3b085e0b9"},"vehicle_type_id":"4","last_reported":1719407447,"current_range_meters":0,"station_id":"ce4bht12rcd13ifvqi60","pricing_plan_id":"cebpf4jnsgd1na2vs0mg"},{"bike_id":"6cd98870-feee-492c-8272-cfe3fca5585a","system_id":"levelo_inurba_marseille","lat":43.286039,"lon":5.370679,"is_reserved":false,"is_disabled":false,"rental_uris":{"android":"levelo://app?vid=6cd98870-feee-492c-8272-cfe3fca5585a","ios":"levelo://app?vid=6cd98870-feee-492c-8272-cfe3fca5585a"},"vehicle_type_id":"4","last_reported":1719407447,"current_range_meters":29600,"station_id":"ce4bht12rcd13ifvqi60","pricing_plan_id":"cebpf4jnsgd1na2vs0mg"},{"bike_id":"45316b0c-4e28-4dca-8d71-b4c46d7b123c","system_id":"levelo_inurba_marseille","lat":43.287184,"lon":5.37937,"is_reserved":false,"is_disabled":false,"rental_uris":{"android":"levelo://app?vid=45316b0c-4e28-4dca-8d71-b4c46d7b123c","ios":"levelo://app?vid=45316b0c-4e28-4dca-8d71-b4c46d7b123c"},"vehicle_type_id":"4","last_reported":1719407447,"current_range_meters":11600,"station_id":"ce4bh9p2rcd13ifvqec0","pricing_plan_id":"cebpf4jnsgd1na2vs0mg"},{"bike_id":"61f128bc-537f-4d31-89c5-563d6dcc3fa3","system_id":"levelo_inurba_marseille","lat":43.286039,"lon":5.370679,"is_reserved":false,"is_disabled":false,"rental_uris":{"android":"levelo://app?vid=61f128bc-537f-4d31-89c5-563d6dcc3fa3","ios":"levelo://app?vid=61f128bc-537f-4d31-89c5-563d6dcc3fa3"},"vehicle_type_id":"4","last_reported":1719407447,"current_range_meters":28800,"station_id":"ce4bht12rcd13ifvqi60","pricing_plan_id":"cebpf4jnsgd1na2vs0mg"},{"bike_id":"6643bef7-553d-4084-976c-ceefdec921e4","system_id":"levelo_inurba_marseille","lat":43.287184,"lon":5.37937,"is_reserved":false,"is_disabled":false,"rental_uris":{"android":"levelo://app?vid=6643bef7-553d-4084-976c-ceefdec921e4","ios":"levelo://app?vid=6643bef7-553d-4084-976c-ceefdec921e4"},"vehicle_type_id":"4","last_reported":1719407447,"current_range_meters":7200,"station_id":"ce4bh9p2rcd13ifvqec0","pricing_plan_id":"cebpf4jnsgd1na2vs0mg"},{"bike_id":"30490741-7bce-411f-ac94-2c38891bbe2a","system_id":"levelo_inurba_marseille","lat":43.292749,"lon":5.368398,"is_reserved":false,"is_disabled":false,"rental_uris":{"android":"levelo://app?vid=30490741-7bce-411f-ac94-2c38891bbe2a","ios":"levelo://app?vid=30490741-7bce-411f-ac94-2c38891bbe2a"},"vehicle_type_id":"4","last_reported":1719407447,"current_range_meters":16800,"station_id":"ce4bhbp2rcd13ifvqesg","pricing_plan_id":"cebpf4jnsgd1na2vs0mg"},{"bike_id":"aa78e2e2-3232-4b63-a510-0252c9e5ec8f","system_id":"levelo_inurba_marseille","lat":43.31691,"lon":5.40477,"is_reserved":false,"is_disabled":false,"rental_uris":{"android":"levelo://app?vid=aa78e2e2-3232-4b63-a510-0252c9e5ec8f","ios":"levelo://app?vid=aa78e2e2-3232-4b63-a510-0252c9e5ec8f"},"vehicle_type_id":"4","last_reported":1719407447,"current_range_meters":0,"station_id":"ce4bh012rcd13ifvqd00","pricing_plan_id":"cebpf4jnsgd1na2vs0mg"},{"bike_id":"47142198-f63f-48dd-a868-fd07dcb77593","system_id":"levelo_inurba_marseille","lat":43.284538,"lon":5.358657,"is_reserved":false,"is_disabled":false,"rental_uris":{"android":"levelo://app?vid=47142198-f63f-48dd-a868-fd07dcb77593","ios":"levelo://app?vid=47142198-f63f-48dd-a868-fd07dcb77593"},"vehicle_type_id":"4","last_reported":1719407447,"current_range_meters":10400,"station_id":"ce4bhah2rcd13ifvqei0","pricing_plan_id":"cebpf4jnsgd1na2vs0mg"},{"bike_id":"1ef91953-0440-4a03-9344-808799fc5c85","system_id":"levelo_inurba_marseille","lat":43.284538,"lon":5.358657,"is_reserved":false,"is_disabled":false,"rental_uris":{"android":"levelo://app?vid=1ef91953-0440-4a03-9344-808799fc5c85","ios":"levelo://app?vid=1ef91953-0440-4a03-9344-808799fc5c85"},"vehicle_type_id":"4","last_reported":1719407447,"current_range_meters":17600,"station_id":"ce4bhah2rcd13ifvqei0","pricing_plan_id":"cebpf4jnsgd1na2vs0mg"},{"bike_id":"0ac7456c-4d06-4d65-8dad-2b23b0b7fc1a","system_id":"levelo_inurba_marseille","lat":43.284538,"lon":5.358657,"is_reserved":false,"is_disabled":false,"rental_uris":{"android":"levelo://app?vid=0ac7456c-4d06-4d65-8dad-2b23b0b7fc1a","ios":"levelo://app?vid=0ac7456c-4d06-4d65-8dad-2b23b0b7fc1a"},"vehicle_type_id":"4","last_reported":1719407447,"current_range_meters":10000,"station_id":"ce4bhah2rcd13ifvqei0","pricing_plan_id":"cebpf4jnsgd1na2vs0mg"},{"bike_id":"58d2e7ce-2918-414e-882f-188bd4402247","system_id":"levelo_inurba_marseille","lat":43.294314,"lon":5.397498,"is_reserved":false,"is_disabled":false,"rental_uris":{"android":"levelo://app?vid=58d2e7ce-2918-414e-882f-188bd4402247","ios":"levelo://app?vid=58d2e7ce-2918-414e-882f-188bd4402247"},"vehicle_type_id":"4","last_reported":1719407447,"current_range_meters":8400,"station_id":"ce4bh3h2rcd13ifvqdo0","pricing_plan_id":"cebpf4jnsgd1na2vs0mg"},{"bike_id":"c2345b1d-da74-4e90-8e2e-651e6bc4c7e5","system_id":"levelo_inurba_marseille","lat":43.28625,"lon":5.35107,"is_reserved":false,"is_disabled":false,"rental_uris":{"android":"levelo://app?vid=c2345b1d-da74-4e90-8e2e-651e6bc4c7e5","ios":"levelo://app?vid=c2345b1d-da74-4e90-8e2e-651e6bc4c7e5"},"vehicle_type_id":"4","last_reported":1719407447,"current_range_meters":19600,"station_id":"ce4bhch2rcd13ifvqeug","pricing_plan_id":"cebpf4jnsgd1na2vs0mg"},{"bike_id":"fa20a63f-7b7b-4a49-9d8a-f4b565adb9b9","system_id":"levelo_inurba_marseille","lat":43.285856,"lon":5.350771,"is_reserved":false,"is_disabled":false,"rental_uris":{"android":"levelo://app?vid=fa20a63f-7b7b-4a49-9d8a-f4b565adb9b9","ios":"levelo://app?vid=fa20a63f-7b7b-4a49-9d8a-f4b565adb9b9"},"vehicle_type_id":"4","last_reported":1719407447,"current_range_meters":13600,"station_id":"ce4bhch2rcd13ifvqeug","pricing_plan_id":"cebpf4jnsgd1na2vs0mg"},{"bike_id":"9b555f41-dd62-423a-9700-68d33ed87437","system_id":"levelo_inurba_marseille","lat":43.28623,"lon":5.35102,"is_reserved":false,"is_disabled":false,"rental_uris":{"android":"levelo://app?vid=9b555f41-dd62-423a-9700-68d33ed87437","ios":"levelo://app?vid=9b555f41-dd62-423a-9700-68d33ed87437"},"vehicle_type_id":"4","last_reported":1719407447,"current_range_meters":23600,"station_id":"ce4bhch2rcd13ifvqeug","pricing_plan_id":"cebpf4jnsgd1na2vs0mg"},{"bike_id":"9ce7e730-f02c-4c59-9736-887193a9fbe8","system_id":"levelo_inurba_marseille","lat":43.286197,"lon":5.35112,"is_reserved":false,"is_disabled":false,"rental_uris":{"android":"levelo://app?vid=9ce7e730-f02c-4c59-9736-887193a9fbe8","ios":"levelo://app?vid=9ce7e730-f02c-4c59-9736-887193a9fbe8"},"vehicle_type_id":"4","last_reported":1719407447,"current_range_meters":3200,"station_id":"ce4bhch2rcd13ifvqeug","pricing_plan_id":"cebpf4jnsgd1na2vs0mg"},{"bike_id":"d7340dc8-da3e-4800-b60f-8b0066cd5eab","system_id":"levelo_inurba_marseille","lat":43.28621,"lon":5.35103,"is_reserved":false,"is_disabled":false,"rental_uris":{"android":"levelo://app?vid=d7340dc8-da3e-4800-b60f-8b0066cd5eab","ios":"levelo://app?vid=d7340dc8-da3e-4800-b60f-8b0066cd5eab"},"vehicle_type_id":"4","last_reported":1719407447,"current_range_meters":28800,"station_id":"ce4bhch2rcd13ifvqeug","pricing_plan_id":"cebpf4jnsgd1na2vs0mg"},