{"last_updated":1733145649,"ttl":60,"version":"2.2","data":{"bikes":[{"bike_id":"587a1889-5fb9-4967-acb6-6f6d2293a150","system_id":"levelo_inurba_marseille","lat":43.30544,"lon":5.36711,"is_reserved":false,"is_disabled":false,"rental_uris":{"android":"levelo://app?vid=587a1889-5fb9-4967-acb6-6f6d2293a150","ios":"levelo://app?vid=587a1889-5fb9-4967-acb6-6f6d2293a150"},"vehicle_type_id":"4","last_reported":1733145649,"current_range_meters":35600,"station_id":"ce4bgrp2rcd13ifvqc9g","pricing_plan_id":"cebpf4jnsgd1na2vs0mg"},{"bike_id":"a8240cfa-6b36-44f3-899a-4807a01486bd","system_id":"levelo_inurba_marseille","lat":43.29555,"lon":5.42291,"is_reserved":false,"is_disabled":false,"rental_uris":{"android":"levelo://app?vid=a8240cfa-6b36-44f3-899a-4807a01486bd","ios":"levelo://app?vid=a8240cfa-6b36-44f3-899a-4807a01486bd"},"vehicle_type_id":"4","last_reported":1733145649,"current_range_meters":22400,"station_id":"ce4bhph2rcd13ifvqhdg","pricing_plan_id":"cebpf4jnsgd1na2vs0mg"},{"bike_id":"5d185ce1-f6f3-4450-a56d-622efc6c6751","system_id":"levelo_inurba_marseille","lat":43.30152,"lon":5.38102,"is_reserved":false,"is_disabled":true,"rental_uris":{"android":"levelo://app?vid=5d185ce1-f6f3-4450-a56d-622efc6c6751","ios":"levelo://app?vid=5d185ce1-f6f3-4450-a56d-622efc6c6751"},"vehicle_type_id":"4","last_reported":1733145649,"current_range_meters":0,"station_id":"ce4bgjp2rcd13ifvqbh0","pricing_plan_id":"cebpf4jnsgd1na2vs0mg"},{"bike_id":"36f80ea5-8062-4524-a4e5-be8cde6b930a","system_id":"levelo_inurba_marseille","lat":43.29692,"lon":5.37076,"is_reserved":false,"is_disabled":true,"rental_uris":{"android":"levelo://app?vid=36f80ea5-8062-4524-a4e5-be8cde6b930a","ios":"levelo://app?vid=36f80ea5-8062-4524-a4e5-be8cde6b930a"},"vehicle_type_id":"4","last_reported":1733145649,"current_range_meters":0,"station_id":"","pricing_plan_id":"cebpf4jnsgd1na2vs0mg"},{"bike_id":"7ff9ed7d-51d4-4c0b-aef0-61969fefb411","system_id":"levelo_inurba_marseille","lat":43.24171,"lon":5.36407,"is_reserved":false,"is_disabled":false,"rental_uris":{"android":"levelo://app?vid=7ff9ed7d-51d4-4c0b-aef0-61969fefb411","ios":"levelo://app?vid=7ff9ed7d-51d4-4c0b-aef0-61969fefb411"},"vehicle_type_id":"4","last_reported":1733145649,"current_range_meters":20800,"station_id":"cpo36qri1sfpv3e86is0","pricing_plan_id":"cebpf4jnsgd1na2vs0mg"},{"bike_id":"ce681e90-7c3f-40b4-8d49-fcc9543eb27b","system_id":"levelo_inurba_marseille","lat":43.24648,"lon":5.38912,"is_reserved":false,"is_disabled":false,"rental_uris":{"android":"levelo://app?vid=ce681e90-7c3f-40b4-8d49-fcc9543eb27b","ios":"levelo://app?vid=ce681e90-7c3f-40b4-8d49-fcc9543eb27b"},"vehicle_type_id":"4","last_reported":1733145649,"current_range_meters":30400,"station_id":"ce4bhg12rcd13ifvqf60","pricing_plan_id":"cebpf4jnsgd1na2vs0mg"},{"bike_id":"304c3c23-006c-47a7-be41-53df15bd78fa","system_id":"levelo_inurba_marseille","lat":43.29419,"lon":5.38614,"is_reserved":false,"is_disabled":true,"rental_uris":{"android":"levelo://app?vid=304c3c23-006c-47a7-be41-53df15bd78fa","ios":"levelo://app?vid=304c3c23-006c-47a7-be41-53df15bd78fa"},"vehicle_type_id":"4","last_reported":1733145649,"current_range_meters":23200,"station_id":"ce4bh2h2rcd13ifvqdh0","pricing_plan_id":"cebpf4jnsgd1na2vs0mg"},{"bike_id":"e3230f71-6a51-47bf-afba-eff4c005f683","system_id":"levelo_inurba_marseille","lat":43.2926,"lon":5.40898,"is_reserved":false,"is_disabled":false,"rental_uris":{"android":"levelo://app?vid=e3230f71-6a51-47bf-afba-eff4c005f683","ios":"levelo://app?vid=e3230f71-6a51-47bf-afba-eff4c005f683"},"vehicle_type_id":"4","last_reported":1733145649,"current_range_meters":23200,"station_id":"ce4bh192rcd13ifvqdc0","pricing_plan_id":"cebpf4jnsgd1na2vs0mg"},{"bike_id":"ff0955f3-3019-41a7-b303-9808c8475b84","system_id":"levelo_inurba_marseille","lat":43.26946,"lon":5.38642,"is_reserved":false,"is_disabled":false,"rental_uris":{"android":"levelo://app?vid=ff0955f3-3019-41a7-b303-9808c8475b84","ios":"levelo://app?vid=ff0955f3-3019-41a7-b303-9808c8475b84"},"vehicle_type_id":"4","last_reported":1733145649,"current_range_meters":18000,"station_id":"ce4bhh92rcd13ifvqfh0","pricing_plan_id":"cebpf4jnsgd1na2vs0mg"},{"bike_id":"3338b3f3-533b-439c-8a07-2019d3aa4d98","system_id":"levelo_inurba_marseille","lat":43.34145,"lon":5.40903,"is_reserved":false,"is_disabled":false,"rental_uris":{"android":"levelo://app?vid=3338b3f3-533b-439c-8a07-2019d3aa4d98","ios":"levelo://app?vid=3338b3f3-533b-439c-8a07-2019d3aa4d98"},"vehicle_type_id":"4","last_reported":1733145649,"current_range_meters":25600,"station_id":"ce4bhqh2rcd13ifvqhlg","pricing_plan_id":"cebpf4jnsgd1na2vs0mg"},{"bike_id":"60a89135-a858-4e7a-8d86-fae137119051","system_id":"levelo_inurba_marseille","lat":43.30457,"lon":5.37906,"is_reserved":false,"is_disabled":true,"rental_uris":{"android":"levelo://app?vid=60a89135-a858-4e7a-8d86-fae137119051","ios":"levelo://app?vid=60a89135-a858-4e7a-8d86-fae137119051"},"vehicle_type_id":"4","last_reported":1733145649,"current_range_meters":0,"station_id":"ce4bgup2rcd13ifvqcn0","pricing_plan_id":"cebpf4jnsgd1na2vs0mg"},{"bike_id":"c5bde077-a6b0-4923-bc83-886997aa0506","system_id":"levelo_inurba_marseille","lat":43.34142,"lon":5.40909,"is_reserved":false,"is_disabled":false,"rental_uris":{"android":"levelo://app?vid=c5bde077-a6b0-4923-bc83-886997aa0506","ios":"levelo://app?vid=c5bde077-a6b0-4923-bc83-886997aa0506"},"vehicle_type_id":"4","last_reported":1733145649,"current_range_meters":39200,"station_id":"ce4bhqh2rcd13ifvqhlg","pricing_plan_id":"cebpf4jnsgd1na2vs0mg"},{"bike_id":"7efd0a66-6d6c-4730-a1fe-0cd3222ee3da","system_id":"levelo_inurba_marseille","lat":43.23158,"lon":5.4369,"is_reserved":false,"is_disabled":false,"rental_uris":{"android":"levelo://app?vid=7efd0a66-6d6c-4730-a1fe-0cd3222ee3da","ios":"levelo://app?vid=7efd0a66-6d6c-4730-a1fe-0cd3222ee3da"},"vehicle_type_id":"4","last_reported":1733145649,"current_range_meters":12000,"station_id":"ce4bhmp2rcd13ifvqgog","pricing_plan_id":"cebpf4jnsgd1na2vs0mg"},{"bike_id":"966791e8-cdff-4838-a42b-c9b609a533a7","system_id":"levelo_inurba_marseille","lat":43.27455,"lon":5.40073,"is_reserved":false,"is_disabled":true,"rental_uris":{"android":"levelo://app?vid=966791e8-cdff-4838-a42b-c9b609a533a7","ios":"levelo://app?vid=966791e8-cdff-4838-a42b-c9b609a533a7"},"vehicle_type_id":"4","last_reported":1733145649,"current_range_meters":0,"station_id":"","pricing_plan_id":"cebpf4jnsgd1na2vs0mg"},{"bike_id":"edaa2690-e8bc-498d-ab5c-13269193fb53","system_id":"levelo_inurba_marseille","lat":43.30542,"lon":5.36713,"is_reserved":false,"is_disabled":false,"rental_uris":{"android":"levelo://app?vid=edaa2690-e8bc-498d-ab5c-13269193fb53","ios":"levelo://app?vid=edaa2690-e8bc-498d-ab5c-13269193fb53"},"vehicle_type_id":"4","last_reported":1733145649,"current_range_meters":39200,"station_id":"ce4bgrp2rcd13ifvqc9g","pricing_plan_id":"cebpf4jnsgd1na2vs0mg"},{"bike_id":"b5d2e4bc-3b74-454a-9492-8937742f0031","system_id":"levelo_inurba_marseille","lat":43.29576,"lon":5.36738,"is_reserved":false,"is_disabled":false,"rental_uris":{"android":"levelo://app?vid=b5d2e4bc-3b74-454a-9492-8937742f0031","ios":"levelo://app?vid=b5d2e4bc-3b74-454a-9492-8937742f0031"},"vehicle_type_id":"4","last_reported":1733145649,"current_range_meters":20800,"station_id":"ce4bgph2rcd13ifvqc2g","pricing_plan_id":"cebpf4jnsgd1na2vs0mg"},{"bike_id":"f6416da2-4ca1-4d37-889d-e4c2dddd59ca","system_id":"levelo_inurba_marseille","lat":43.25584,"lon":5.38226,"is_reserved":false,"is_disabled":false,"rental_uris":{"android":"levelo://app?vid=f6416da2-4ca1-4d37-889d-e4c2dddd59ca","ios":"levelo://app?vid=f6416da2-4ca1-4d37-889d-e4c2dddd59ca"},"vehicle_type_id":"4","last_reported":1733145649,"current_range_meters":33200,"station_id":"ce4bhih2rcd13ifvqfs0","pricing_plan_id":"cebpf4jnsgd1na2vs0mg"},{"bike_id":"ad232a8f-1c88-48fd-afb4-99dc0abe4fb8","system_id":"levelo_inurba_marseille","lat":43.28352,"lon":5.38108,"is_reserved":false,"is_disabled":false,"rental_uris":{"android":"levelo://app?vid=ad232a8f-1c88-48fd-afb4-99dc0abe4fb8","ios":"levelo://app?vid=ad232a8f-1c88-48fd-afb4-99dc0abe4fb8"},"vehicle_type_id":"4","last_reported":1733145649,"current_range_meters":32400,"station_id":"ce4bh412rcd13ifvqdr0","pricing_plan_id":"cebpf4jnsgd1na2vs0mg"},{"bike_id":"5fb0ed80-8c6f-4ebd-af34-79aabb73218d","system_id":"levelo_inurba_marseille","lat":43.29578,"lon":5.37515,"is_reserved":false,"is_disabled":false,"rental_uris":{"android":"levelo://app?vid=5fb0ed80-8c6f-4ebd-af34-79aabb73218d","ios":"levelo://app?vid=5fb0ed80-8c6f-4ebd-af34-79aabb73218d"},"vehicle_type_id":"4","last_reported":1733145649,"current_range_meters":20800,"station_id":"ce4bgh92rcd13ifvqb50","pricing_plan_id":"cebpf4jnsgd1na2vs0mg"},{"bike_id":"a818c37b-b020-45cb-9b1b-fbdc68b10782","system_id":"levelo_inurba_marseille","lat":43.24076,"lon":5.37758,"is_reserved":false,"is_disabled":false,"rental_uris":{"android":"levelo://app?vid=a818c37b-b020-45cb-9b1b-fbdc68b10782","ios":"levelo://app?vid=a818c37b-b020-45cb-9b1b-fbdc68b10782"},"vehicle_type_id":"4","last_reported":1733145649,"current_range_meters":19600,"station_id":"ce4bhnp2rcd13ifvqgvg","pricing_plan_id":"cebpf4jnsgd1na2vs0mg"},{"bike_id":"01d46aad-fb4e-4a3a-9770-b3342631d0b9","system_id":"levelo_inurba_marseille","lat":43.3206,"lon":5.41543,"is_reserved":false,"is_disabled":true,"rental_uris":{"android":"levelo://app?vid=01d46aad-fb4e-4a3a-9770-b3342631d0b9","ios":"levelo://app?vid=01d46aad-fb4e-4a3a-9770-b3342631d0b9"},"vehicle_type_id":"4","last_reported":1733145649,"current_range_meters":37600,"station_id":"ce4bhq92rcd13ifvqhkg","pricing_plan_id":"cebpf4jnsgd1na2vs0mg"},{"bike_id":"c8540c9d-7dc3-44fa-a0f8-7263d3d70bb8","system_id":"levelo_inurba_marseille","lat":43.24647,"lon":5.3889,"is_reserved":false,"is_disabled":true,"rental_uris":{"android":"levelo://app?vid=c8540c9d-7dc3-44fa-a0f8-7263d3d70bb8","ios":"levelo://app?vid=c8540c9d-7dc3-44fa-a0f8-7263d3d70bb8"},"vehicle_type_id":"4","last_reported":1733145649,"current_range_meters":0,"station_id":"ce4bhg12rcd13ifvqf60","pricing_plan_id":"cebpf4jnsgd1na2vs0mg"},{"bike_id":"ff16ece1-8a64-4635-bc9c-8c7ebe7f977e","system_id":"levelo_inurba_marseille","lat":43.33732,"lon":5.37447,"is_reserved":false,"is_disabled":false,"rental_uris":{"android":"levelo://app?vid=ff16ece1-8a64-4635-bc9c-8c7ebe7f977e","ios":"levelo://app?vid=ff16ece1-8a64-4635-bc9c-8c7ebe7f977e"},"vehicle_type_id":"4","last_reported":1733145649,"current_range_meters":38400,"station_id":"","pricing_plan_id":"cebpf4jnsgd1na2vs0mg"},{"bike_id":"2a531c7d-d4b4-41b9-9da2-df7ea639eb8c","system_id":"levelo_inurba_marseille","lat":43.28151,"lon":5.42646,"is_reserved":false,"is_disabled":false,"rental_uris":{"android":"levelo://app?vid=2a531c7d-d4b4-41b9-9da2-df7ea639eb8c","ios":"levelo://app?vid=2a531c7d-d4b4-41b9-9da2-df7ea639eb8c"},"vehicle_type_id":"4","last_reported":1733145649,"current_range_meters":7200,"station_id":"ce4bhnh2rcd13ifvqgug","pricing_plan_id":"cebpf4jnsgd1na2vs0mg"},{"bike_id":"87a177cf-8a72-43d2-ad9b-470961f3e5dc","system_id":"levelo_inurba_marseille","lat":43.29998,"lon":5.37642,"is_reserved":false,"is_disabled":true,"rental_uris":{"android":"levelo://app?vid=87a177cf-8a72-43d2-ad9b-470961f3e5dc","ios":"levelo://app?vid=87a177cf-8a72-43d2-ad9b-470961f3e5dc"},"vehicle_type_id":"4","last_reported":1733145649,"current_range_meters":0,"station_id":"","pricing_plan_id":"cebpf4jnsgd1na2vs0mg"},{"bike_id":"eaad1b19-5c73-428b-b3fd-a83a41ecca27","system_id":"levelo_inurba_marseille","lat":43.29746,"lon":5.37917,"is_reserved":false,"is_disabled":true,"rental_uris":{"android":"levelo://app?vid=eaad1b19-5c73-428b-b3fd-a83a41ecca27","ios":"levelo://app?vid=eaad1b19-5c73-428b-b3fd-a83a41ecca27"},"vehicle_type_id":"4","last_reported":1733145649,"current_range_meters":0,"station_id":"","pricing_plan_id":"cebpf4jnsgd1na2vs0mg"},{"bike_id":"e7d3785a-1f87-4212-a721-03fa819e8c45","system_id":"levelo_inurba_marseille","lat":43.23184,"lon":5.39978,"is_reserved":false,"is_disabled":false,"rental_uris":{"android":"levelo://app?vid=e7d3785a-1f87-4212-a721-03fa819e8c45","ios":"levelo://app?vid=e7d3785a-1f87-4212-a721-03fa819e8c45"},"vehicle_type_id":"4","last_reported":1733145649,"current_range_meters":39200,"station_id":"ce4bhn12rcd13ifvqgqg","pricing_plan_id":"cebpf4jnsgd1na2vs0mg"},{"bike_id":"aefe19c6-ea14-4a1e-94eb-a2510a93b49c","system_id":"levelo_inurba_marseille","lat":43.23155,"lon":5.4372,"is_reserved":false,"is_disabled":false,"rental_uris":{"android":"levelo://app?vid=aefe19c6-ea14-4a1e-94eb-a2510a93b49c","ios":"levelo://app?vid=aefe19c6-ea14-4a1e-94eb-a2510a93b49c"},"vehicle_type_id":"4","last_reported":1733145649,"current_range_meters":38800,"station_id":"ce4bhmp2rcd13ifvqgog","pricing_plan_id":"cebpf4jnsgd1na2vs0mg"},{"bike_id":"b0bd4cdf-7308-45f0-8e99-a0d5811907ff","system_id":"levelo_inurba_marseille","lat":43.25438,"lon":5.38158,"is_reserved":false,"is_disabled":true,"rental_uris":{"android":"levelo://app?vid=b0bd4cdf-7308-45f0-8e99-a0d5811907ff","ios":"levelo://app?vid=b0bd4cdf-7308-45f0-8e99-a0d5811907ff"},"vehicle_type_id":"4","last_reported":1733145649,"current_range_meters":0,"station_id":"","pricing_plan_id":"cebpf4jnsgd1na2vs0mg"},{"bike_id":"13341a5c-709a-42b3-984a-1db82542f4c6","system_id":"levelo_inurba_marseille","lat":43.29884,"lon":5.40347,"is_reserved":false,"is_disabled":true,"rental_uris":{"android":"levelo://app?vid=13341a5c-709a-42b3-984a-1db82542f4c6","ios":"levelo://app?vid=13341a5c-709a-42b3-984a-1db82542f4c6"},"vehicle_type_id":"4","last_reported":1733145649,"current_range_meters":0,"station_id":"","pricing_plan_id":"cebpf4jnsgd1na2vs0mg"},{"bike_id":"108ef90a-16c6-4a8c-bdfd-540023494752","system_id":"levelo_inurba_marseille","lat":43.31116,"lon":5.37781,"is_reserved":false,"is_disabled":false,"rental_uris":{"android":"levelo://app?vid=108ef90a-16c6-4a8c-bdfd-540023494752","ios":"levelo://app?vid=108ef90a-16c6-4a8c-bdfd-540023494752"},"vehicle_type_id":"4","last_reported":1733145649,"current_range_meters":33200,"station_id":"ce4bgt92rcd13ifvqcg0","pricing_plan_id":"cebpf4jnsgd1na2vs0mg"},{"bike_id":"e8e48636-9f03-431e-ab9d-14ec67229389","system_id":"levelo_inurba_marseille","lat":43.2959,"lon":5.36744,"is_reserved":false,"is_disabled":false,"rental_uris":{"android":"levelo://app?vid=e8e48636-9f03-431e-ab9d-14ec67229389","ios":"levelo://app?vid=e8e48636-9f03-431e-ab9d-14ec67229389"},"vehicle_type_id":"4","last_reported":1733145649,"current_range_meters":35200,"station_id":"ce4bgph2rcd13ifvqc2g","pricing_plan_id":"cebpf4jnsgd1na2vs0mg"},{"bike_id":"6f7949e1-de87-4a49-8620-fec27e04447f","system_id":"levelo_inurba_marseille","lat":43.33714,"lon":5.39195,"is_reserved":false,"is_disabled":false,"rental_uris":{"android":"levelo://app?vid=6f7949e1-de87-4a49-8620-fec27e04447f","ios":"levelo://app?vid=6f7949e1-de87-4a49-8620-fec27e04447f"},"vehicle_type_id":"4","last_reported":1733145649,"current_range_meters":18000,"station_id":"ce4bhr92rcd13ifvqhsg","pricing_plan_id":"cebpf4jnsgd1na2vs0mg"},{"bike_id":"ace7ca25-f8fc-47f8-ad35-02002314b4df","system_id":"levelo_inurba_marseille","lat":43.28265,"lon":5.35072,"is_reserved":false,"is_disabled":false,"rental_uris":{"android":"levelo://app?vid=ace7ca25-f8fc-47f8-ad35-02002314b4df","ios":"levelo://app?vid=ace7ca25-f8fc-47f8-ad35-02002314b4df"},"vehicle_type_id":"4","last_reported":1733145649,"current_range_meters":38800,"station_id":"ce4bhbp2rcd13ifvqerg","pricing_plan_id":"cebpf4jnsgd1na2vs0mg"},{"bike_id":"39a4f230-2b4a-43d5-b832-65f8065979c8","system_id":"levelo_inurba_marseille","lat":43.25932,"lon":5.40923,"is_reserved":false,"is_disabled":true,"rental_uris":{"android":"levelo://app?vid=39a4f230-2b4a-43d5-b832-65f8065979c8","ios":"levelo://app?vid=39a4f230-2b4a-43d5-b832-65f8065979c8"},"vehicle_type_id":"4","last_reported":1733145649,"current_range_meters":30400,"station_id":"ce4bhm92rcd13ifvqglg","pricing_plan_id":"cebpf4jnsgd1na2vs0mg"},{"bike_id":"79da6e11-068f-4f85-891a-bf5d6033ae1b","system_id":"levelo_inurba_marseille","lat":43.29194,"lon":5.39312,"is_reserved":false,"is_disabled":true,"rental_uris":{"android":"levelo://app?vid=79da6e11-068f-4f85-891a-bf5d6033ae1b","ios":"levelo://app?vid=79da6e11-068f-4f85-891a-bf5d6033ae1b"},"vehicle_type_id":"4","last_reported":1733145649,"current_range_meters":12400,"station_id":"ce4bh192rcd13ifvqdd0","pricing_plan_id":"cebpf4jnsgd1na2vs0mg"},{"bike_id":"a11ec84b-4c39-41a3-8618-20d5e8ae2c31","system_id":"levelo_inurba_marseille","lat":43.30806,"lon":5.43522,"is_reserved":false,"is_disabled":true,"rental_uris":{"android":"levelo://app?vid=a11ec84b-4c39-41a3-8618-20d5e8ae2c31","ios":"levelo://app?vid=a11ec84b-4c39-41a3-8618-20d5e8ae2c31"},"vehicle_type_id":"4","last_reported":1733145649,"current_range_meters":14400,"station_id":"ce4bhph2rcd13ifvqheg","pricing_plan_id":"cebpf4jnsgd1na2vs0mg"},{"bike_id":"4b0bda6d-822a-412a-aa4d-bd9a5d840afc","system_id":"levelo_inurba_marseille","lat":43.3055,"lon":5.36559,"is_reserved":false,"is_disabled":false,"rental_uris":{"android":"levelo://app?vid=4b0bda6d-822a-412a-aa4d-bd9a5d840afc","ios":"levelo://app?vid=4b0bda6d-822a-412a-aa4d-bd9a5d840afc"},"vehicle_type_id":"4","last_reported":1733145649,"current_range_meters":38800,"station_id":"ce4bgs12rcd13ifvqcag","pricing_plan_id":"cebpf4jnsgd1na2vs0mg"},{"bike_id":"64902cd5-b6db-4837-84a4-55b4f5e014de","system_id":"levelo_inurba_marseille","lat":43.24178,"lon":5.39724,"is_reserved":false,"is_disabled":false,"rental_uris":{"android":"levelo://app?vid=64902cd5-b6db-4837-84a4-55b4f5e014de","ios":"levelo://app?vid=64902cd5-b6db-4837-84a4-55b4f5e014de"},"vehicle_type_id":"4","last_reported":1733145649,"current_range_meters":36800,"station_id":"ce4bhn12rcd13ifvqgpg","pricing_plan_id":"cebpf4jnsgd1na2vs0mg"},{"bike_id":"2dcc4d7e-07bd-4653-baca-340e238b4d04","system_id":"levelo_inurba_marseille","lat":43.23963,"lon":5.36634,"is_reserved":false,"is_disabled":false,"rental_uris":{"android":"levelo://app?vid=2dcc4d7e-07bd-4653-baca-340e238b4d04","ios":"levelo://app?vid=2dcc4d7e-07bd-4653-baca-340e238b4d04"},"vehicle_type_id":"4","last_reported":1733145649,"current_range_meters":39200,"station_id":"ce4bhi12rcd13ifvqfp0","pricing_plan_id":"cebpf4jnsgd1na2vs0mg"},{"bike_id":"2ddb0dcb-3338-4ac7-a7aa-051cff396656","system_id":"levelo_inurba_marseille","lat":43.27491,"lon":5.42449,"is_reserved":false,"is_disabled":false,"rental_uris":{"android":"levelo://app?vid=2ddb0dcb-3338-4ac7-a7aa-051cff396656","ios":"levelo://app?vid=2ddb0dcb-3338-4ac7-a7aa-051cff396656"},"vehicle_type_id":"4","last_reported":1733145649,"current_range_meters":8000,"station_id":"ce4bhn92rcd13ifvqgrg","pricing_plan_id":"cebpf4jnsgd1na2vs0mg"},{"bike_id":"fa2dc7bb-12ec-4082-a039-9b1547b640e1","system_id":"levelo_inurba_marseille","lat":43.30539,"lon":5.36544,"is_reserved":false,"is_disabled":false,"rental_uris":{"android":"levelo://app?vid=fa2dc7bb-12ec-4082-a039-9b1547b640e1","ios":"levelo://app?vid=fa2dc7bb-12ec-4082-a039-9b1547b640e1"},"vehicle_type_id":"4","last_reported":1733145649,"current_range_meters":38800,"station_id":"ce4bgs12rcd13ifvqcag","pricing_plan_id":"cebpf4jnsgd1na2vs0mg"},{"bike_id":"562553f0-916a-409a-b6a4-cd49b0284b42","system_id":"levelo_inurba_marseille","lat":43.27943,"lon":5.41053,"is_reserved":false,"is_disabled":false,"rental_uris":{"android":"levelo://app?vid=562553f0-916a-409a-b6a4-cd49b0284b42","ios":"levelo://app?vid=562553f0-916a-409a-b6a4-cd49b0284b42"},"vehicle_type_id":"4","last_reported":1733145649,"current_range_meters":16800,"station_id":"ce4bhnp2rcd13ifvqh0g","pricing_plan_id":"cebpf4jnsgd1na2vs0mg"},{"bike_id":"32d55f99-0252-4be1-bce9-7a80f3291e5b","system_id":"levelo_inurba_marseille","lat":43.26684,"lon":5.38274,"is_reserved":false,"is_disabled":true,"rental_uris":{"android":"levelo://app?vid=32d55f99-0252-4be1-bce9-7a80f3291e5b","ios":"levelo://app?vid=32d55f99-0252-4be1-bce9-7a80f3291e5b"},"vehicle_type_id":"4","last_reported":1733145649,"current_range_meters":30400,"station_id":"ce4bhg92rcd13ifvqf90","pricing_plan_id":"cebpf4jnsgd1na2vs0mg"},{"bike_id":"9d675599-af7a-446c-be1b-29fa67e4036b","system_id":"levelo_inurba_marseille","lat":43.29061,"lon":5.37141,"is_reserved":false,"is_disabled":false,"rental_uris":{"android":"levelo://app?vid=9d675599-af7a-446c-be1b-29fa67e4036b","ios":"levelo://app?vid=9d675599-af7a-446c-be1b-29fa67e4036b"},"vehicle_type_id":"4","last_reported":1733145649,"current_range_meters":8400,"station_id":"ce4bh5p2rcd13ifvqe4g","pricing_plan_id":"cebpf4jnsgd1na2vs0mg"},{"bike_id":"ac7a2d63-6842-4f4e-9f26-ad7bc15bf672","system_id":"levelo_inurba_marseille","lat":43.29224,"lon":5.36067,"is_reserved":false,"is_disabled":false,"rental_uris":{"android":"levelo://app?vid=ac7a2d63-6842-4f4e-9f26-ad7bc15bf672","ios":"levelo://app?vid=ac7a2d63-6842-4f4e-9f26-ad7bc15bf672"},"vehicle_type_id":"4","last_reported":1733145649,"current_range_meters":8800,"station_id":"ce4bhbh2rcd13ifvqeqg","pricing_plan_id":"cebpf4jnsgd1na2vs0mg"},{"bike_id":"58c88695-8a41-447f-b483-23a0d1d5c26f","system_id":"levelo_inurba_marseille","lat":43.29537,"lon":5.38541,"is_reserved":false,"is_disabled":false,"rental_uris":{"android":"levelo://app?vid=58c88695-8a41-447f-b483-23a0d1d5c26f","ios":"levelo://app?vid=58c88695-8a41-447f-b483-23a0d1d5c26f"},"vehicle_type_id":"4","last_reported":1733145649,"current_range_meters":18800,"station_id":"ce4bgih2rcd13ifvqba0","pricing_plan_id":"cebpf4jnsgd1na2vs0mg"},{"bike_id":"7ed2229e-6e77-42d8-826e-e15ec9f33077","system_id":"levelo_inurba_marseille","lat":43.26686,"lon":5.38269,"is_reserved":false,"is_disabled":true,"rental_uris":{"android":"levelo://app?vid=7ed2229e-6e77-42d8-826e-e15ec9f33077","ios":"levelo://app?vid=7ed2229e-6e77-42d8-826e-e15ec9f33077"},"vehicle_type_id":"4","last_reported":1733145649,"current_range_meters":11200,"station_id":"ce4bhg92rcd13ifvqf90","pricing_plan_id":"cebpf4jnsgd1na2vs0mg"},{"bike_id":"f1575328-6ec4-48ad-9cd8-c347e43638f8","system_id":"levelo_inurba_marseille","lat":43.32051,"lon":5.41557,"is_reserved":false,"is_disabled":false,"rental_uris":{"android":"levelo://app?vid=f1575328-6ec4-48ad-9cd8-c347e43638f8","ios":"levelo://app?vid=f1575328-6ec4-48ad-9cd8-c347e43638f8"},"vehicle_type_id":"4","last_reported":1733145649,"current_range_meters":36800,"station_id":"ce4bhq92rcd13ifvqhkg","pricing_plan_id":"cebpf4jnsgd1na2vs0mg"},{"bike_id":"4dfae700-2450-484f-ba33-a31bb728cc44","system_id":"levelo_inurba_marseille","lat":43.31224,"lon":5.36855,"is_reserved":false,"is_disabled":true,"rental_uris":{"android":"levelo://app?vid=4dfae700-2450-484f-ba33-a31bb728cc44","ios":"levelo://app?vid=4dfae700-2450-484f-ba33-a31bb728cc44"},"vehicle_type_id":"4","last_reported":1733145649,"current_range_meters":800,"station_id":"ce4bgl92rcd13ifvqbq0","pricing_plan_id":"cebpf4jnsgd1na2vs0mg"},{"bike_id":"83bc0723-03b3-4370-8560-f118816cb461","system_id":"levelo_inurba_marseille","lat":43.29786,"lon":5.38099,"is_reserved":false,"is_disabled":false,"rental_uris":{"android":"levelo://app?vid=83bc0723-03b3-4370-8560-f118816cb461","ios":"levelo://app?vid=83bc0723-03b3-4370-8560-f118816cb461"},"vehicle_type_id":"4","last_reported":1733145649,"current_range_meters":20400,"station_id":"ce4bgip2rcd13ifvqbb0","pricing_plan_id":"cebpf4jnsgd1na2vs0mg"},{"bike_id":"7f3163db-bc2e-49f4-bd56-b53f58760881","system_id":"levelo_inurba_marseille","lat":43.28659,"lon":5.36365,"is_reserved":false,"is_disabled":false,"rental_uris":{"android":"levelo://app?vid=7f3163db-bc2e-49f4-bd56-b53f58760881","ios":"levelo://app?vid=7f3163db-bc2e-49f4-bd56-b53f58760881"},"vehicle_type_id":"4","last_reported":1733145649,"current_range_meters":20400,"station_id":"ce4bhah2rcd13ifvqej0","pricing_plan_id":"cebpf4jnsgd1na2vs0mg"},{"bike_id":"73a2b44f-75c8-4c01-8662-25e588e79ba4","system_id":"levelo_inurba_marseille","lat":43.30885,"lon":5.39662,"is_reserved":false,"is_disabled":false,"rental_uris":{"android":"levelo://app?vid=73a2b44f-75c8-4c01-8662-25e588e79ba4","ios":"levelo://app?vid=73a2b44f-75c8-4c01-8662-25e588e79ba4"},"vehicle_type_id":"4","last_reported":1733145649,"current_range_meters":36400,"station_id":"ce4bh012rcd13ifvqcv0","pricing_plan_id":"cebpf4jnsgd1na2vs0mg"},{"bike_id":"abc1476c-a7e0-42d6-a54c-ef07025d3129","system_id":"levelo_inurba_marseille","lat":43.27496,"lon":5.42454,"is_reserved":false,"is_disabled":false,"rental_uris":{"android":"levelo://app?vid=abc1476c-a7e0-42d6-a54c-ef07025d3129","ios":"levelo://app?vid=abc1476c-a7e0-42d6-a54c-ef07025d3129"},"vehicle_type_id":"4","last_reported":1733145649,"current_range_meters":28400,"station_id":"ce4bhn92rcd13ifvqgrg","pricing_plan_id":"cebpf4jnsgd1na2vs0mg"},{"bike_id":"5ddfa011-d975-41ac-ab06-32125b62100c","system_id":"levelo_inurba_marseille","lat":43.28406,"lon":5.37525,"is_reserved":false,"is_disabled":true,"rental_uris":{"android":"levelo://app?vid=5ddfa011-d975-41ac-ab06-32125b62100c","ios":"levelo://app?vid=5ddfa011-d975-41ac-ab06-32125b62100c"},"vehicle_type_id":"4","last_reported":1733145649,"current_range_meters":28400,"station_id":"ce4bh412rcd13ifvqds0","pricing_plan_id":"cebpf4jnsgd1na2vs0mg"},{"bike_id":"adb0a645-a52b-46f8-a13a-5839a3d0829c","system_id":"levelo_inurba_marseille","lat":43.28858,"lon":5.39295,"is_reserved":false,"is_disabled":false,"rental_uris":{"android":"levelo://app?vid=adb0a645-a52b-46f8-a13a-5839a3d0829c","ios":"levelo://app?vid=adb0a645-a52b-46f8-a13a-5839a3d0829c"},"vehicle_type_id":"4","last_reported":1733145649,"current_range_meters":10000,"station_id":"ce4bh2p2rcd13ifvqdi0","pricing_plan_id":"cebpf4jnsgd1na2vs0mg"},{"bike_id":"b02e731d-1c8a-4505-961f-59a737b30938","system_id":"levelo_inurba_marseille","lat":43.2649,"lon":5.39549,"is_reserved":false,"is_disabled":false,"rental_uris":{"android":"levelo://app?vid=b02e731d-1c8a-4505-961f-59a737b30938","ios":"levelo://app?vid=b02e731d-1c8a-4505-961f-59a737b30938"},"vehicle_type_id":"4","last_reported":1733145649,"current_range_meters":36800,"station_id":"ce4bhi12rcd13ifvqfq0","pricing_plan_id":"cebpf4jnsgd1na2vs0mg"},{"bike_id":"80ce8c20-4bfd-4d65-9ef9-5ccdb276a92d","system_id":"levelo_inurba_marseille","lat":43.26036,"lon":5.3755,"is_reserved":false,"is_disabled":false,"rental_uris":{"android":"levelo://app?vid=80ce8c20-4bfd-4d65-9ef9-5ccdb276a92d","ios":"levelo://app?vid=80ce8c20-4bfd-4d65-9ef9-5ccdb276a92d"},"vehicle_type_id":"4","last_reported":1733145649,"current_range_meters":37600,"station_id":"ce4bhgh2rcd13ifvqfa0","pricing_plan_id":"cebpf4jnsgd1na2vs0mg"},{"bike_id":"95c98dc0-e590-407f-91f9-1fb2b136e289","system_id":"levelo_inurba_marseille","lat":43.33605,"lon":5.41033,"is_reserved":false,"is_disabled":false,"rental_uris":{"android":"levelo://app?vid=95c98dc0-e590-407f-91f9-1fb2b136e289","ios":"levelo://app?vid=95c98dc0-e590-407f-91f9-1fb2b136e289"},"vehicle_type_id":"4","last_reported":1733145649,"current_range_meters":12400,"station_id":"ce4bhqh2rcd13ifvqhmg","pricing_plan_id":"cebpf4jnsgd1na2vs0mg"},{"bike_id":"556a8013-cbcf-416b-b9dc-9419666cbd18","system_id":"levelo_inurba_marseille","lat":43.30473,"lon":5.37896,"is_reserved":false,"is_disabled":false,"rental_uris":{"android":"levelo://app?vid=556a8013-cbcf-416b-b9dc-9419666cbd18","ios":"levelo://app?vid=556a8013-cbcf-416b-b9dc-9419666cbd18"},"vehicle_type_id":"4","last_reported":1733145649,"current_range_meters":3600,"station_id":"ce4bgup2rcd13ifvqcn0","pricing_plan_id":"cebpf4jnsgd1na2vs0mg"},{"bike_id":"67fa2a9e-eed8-4ed6-bdd8-7d1023a52b4e","system_id":"levelo_inurba_marseille","lat":43.26937,"lon":5.38922,"is_reserved":false,"is_disabled":true,"rental_uris":{"android":"levelo://app?vid=67fa2a9e-eed8-4ed6-bdd8-7d1023a52b4e","ios":"levelo://app?vid=67fa2a9e-eed8-4ed6-bdd8-7d1023a52b4e"},"vehicle_type_id":"4","last_reported":1733145649,"current_range_meters":0,"station_id":"ce4bhhh2rcd13ifvqfl0","pricing_plan_id":"cebpf4jnsgd1na2vs0mg"},{"bike_id":"2791a0e6-2489-42fa-b36d-5373dec506a6","system_id":"levelo_inurba_marseille","lat":43.27491,"lon":5.42453,"is_reserved":false,"is_disabled":false,"rental_uris":{"android":"levelo://app?vid=2791a0e6-2489-42fa-b36d-5373dec506a6","ios":"levelo://app?vid=2791a0e6-2489-42fa-b36d-5373dec506a6"},"vehicle_type_id":"4","last_reported":1733145649,"current_range_meters":32400,"station_id":"ce4bhn92rcd13ifvqgrg","pricing_plan_id":"cebpf4jnsgd1na2vs0mg"},{"bike_id":"6de5dd10-1c5a-445b-91d0-8e8450508ac5","system_id":"levelo_inurba_marseille","lat":43.30282,"lon":5.37709,"is_reserved":false,"is_disabled":false,"rental_uris":{"android":"levelo://app?vid=6de5dd10-1c5a-445b-91d0-8e8450508ac5","ios":"levelo://app?vid=6de5dd10-1c5a-445b-91d0-8e8450508ac5"},"vehicle_type_id":"4","last_reported":1733145649,"current_range_meters":33200,"station_id":"ce4bguh2rcd13ifvqcj0","pricing_plan_id":"cebpf4jnsgd1na2vs0mg"},{"bike_id":"ea5b94a9-f113-4c93-ac37-1b2264541f5d","system_id":"levelo_inurba_marseille","lat":43.29275,"lon":5.36853,"is_reserved":false,"is_disabled":true,"rental_uris":{"android":"levelo://app?vid=ea5b94a9-f113-4c93-ac37-1b2264541f5d","ios":"levelo://app?vid=ea5b94a9-f113-4c93-ac37-1b2264541f5d"},"vehicle_type_id":"4","last_reported":1733145649,"current_range_meters":27200,"station_id":"","pricing_plan_id":"cebpf4jnsgd1na2vs0mg"},{"bike_id":"dd34c5a0-d851-44e1-a1b7-6dcc89247d26","system_id":"levelo_inurba_marseille","lat":43.29796,"lon":5.38099,"is_reserved":false,"is_disabled":false,"rental_uris":{"android":"levelo://app?vid=dd34c5a0-d851-44e1-a1b7-6dcc89247d26","ios":"levelo://app?vid=dd34c5a0-d851-44e1-a1b7-6dcc89247d26"},"vehicle_type_id":"4","last_reported":1733145649,"current_range_meters":22400,"station_id":"ce4bgip2rcd13ifvqbb0","pricing_plan_id":"cebpf4jnsgd1na2vs0mg"},{"bike_id":"68b7238e-5605-4c57-83e7-99083a424aa5","system_id":"levelo_inurba_marseille","lat":43.2767,"lon":5.38888,"is_reserved":false,"is_disabled":false,"rental_uris":{"android":"levelo://app?vid=68b7238e-5605-4c57-83e7-99083a424aa5","ios":"levelo://app?vid=68b7238e-5605-4c57-83e7-99083a424aa5"},"vehicle_type_id":"4","last_reported":1733145649,"current_range_meters":36400,"station_id":"ce4bhi12rcd13ifvqfo0","pricing_plan_id":"cebpf4jnsgd1na2vs0mg"},{"bike_id":"4fb36359-4540-4a72-9569-1ea1bd036d9c","system_id":"levelo_inurba_marseille","lat":43.23971,"lon":5.36616,"is_reserved":false,"is_disabled":false,"rental_uris":{"android":"levelo://app?vid=4fb36359-4540-4a72-9569-1ea1bd036d9c","ios":"levelo://app?vid=4fb36359-4540-4a72-9569-1ea1bd036d9c"},"vehicle_type_id":"4","last_reported":1733145649,"current_range_meters":38400,"station_id":"ce4bhi12rcd13ifvqfp0","pricing_plan_id":"cebpf4jnsgd1na2vs0mg"},{"bike_id":"fee40e4a-edf0-429c-9838-5fd8b4a4fd95","system_id":"levelo_inurba_marseille","lat":43.29742,"lon":5.37415,"is_reserved":false,"is_disabled":true,"rental_uris":{"android":"levelo://app?vid=fee40e4a-edf0-429c-9838-5fd8b4a4fd95","ios":"levelo://app?vid=fee40e4a-edf0-429c-9838-5fd8b4a4fd95"},"vehicle_type_id":"4","last_reported":1733145649,"current_range_meters":0,"station_id":"","pricing_plan_id":"cebpf4jnsgd1na2vs0mg"},{"bike_id":"721ede5d-2c9d-4a89-9b93-ab464cb3ad01","system_id":"levelo_inurba_marseille","lat":43.23193,"lon":5.35554,"is_reserved":false,"is_disabled":false,"rental_uris":{"android":"levelo://app?vid=721ede5d-2c9d-4a89-9b93-ab464cb3ad01","ios":"levelo://app?vid=721ede5d-2c9d-4a89-9b93-ab464cb3ad01"},"vehicle_type_id":"4","last_reported":1733145649,"current_range_meters":11600,"station_id":"ce4bhu92rcd13ifvqi70","pricing_plan_id":"cebpf4jnsgd1na2vs0mg"},{"bike_id":"72299c03-492d-4eb1-a40e-3fc41844a746","system_id":"levelo_inurba_marseille","lat":43.31718,"lon":5.3774,"is_reserved":false,"is_disabled":false,"rental_uris":{"android":"levelo://app?vid=72299c03-492d-4eb1-a40e-3fc41844a746","ios":"levelo://app?vid=72299c03-492d-4eb1-a40e-3fc41844a746"},"vehicle_type_id":"4","last_reported":1733145649,"current_range_meters":39200,"station_id":"ce4bgth2rcd13ifvqch0","pricing_plan_id":"cebpf4jnsgd1na2vs0mg"},{"bike_id":"74b5679f-12e8-4f95-852c-9f7ff4024dca","system_id":"levelo_inurba_marseille","lat":43.23146,"lon":5.43703,"is_reserved":false,"is_disabled":false,"rental_uris":{"android":"levelo://app?vid=74b5679f-12e8-4f95-852c-9f7ff4024dca","ios":"levelo://app?vid=74b5679f-12e8-4f95-852c-9f7ff4024dca"},"vehicle_type_id":"4","last_reported":1733145649,"current_range_meters":16400,"station_id":"ce4bhmp2rcd13ifvqgog","pricing_plan_id":"cebpf4jnsgd1na2vs0mg"},{"bike_id":"45c95cf3-1aa9-4af9-a9a3-7dba50ecc20e","system_id":"levelo_inurba_marseille","lat":43.27447,"lon":5.40718,"is_reserved":false,"is_disabled":false,"rental_uris":{"android":"levelo://app?vid=45c95cf3-1aa9-4af9-a9a3-7dba50ecc20e","ios":"levelo://app?vid=45c95cf3-1aa9-4af9-a9a3-7dba50ecc20e"},"vehicle_type_id":"4","last_reported":1733145649,"current_range_meters":13600,"station_id":"","pricing_plan_id":"cebpf4jnsgd1na2vs0mg"},{"bike_id":"bc749360-3ce4-4dd6-a0ac-83aa82c323a7","system_id":"levelo_inurba_marseille","lat":43.28152,"lon":5.42638,"is_reserved":false,"is_disabled":false,"rental_uris":{"android":"levelo://app?vid=bc749360-3ce4-4dd6-a0ac-83aa82c323a7","ios":"levelo://app?vid=bc749360-3ce4-4dd6-a0ac-83aa82c323a7"},"vehicle_type_id":"4","last_reported":1733145649,"current_range_meters":25200,"station_id":"ce4bhnh2rcd13ifvqgug","pricing_plan_id":"cebpf4jnsgd1na2vs0mg"},{"bike_id":"77bdf080-2008-44a7-bdcb-e1f596964af0","system_id":"levelo_inurba_marseille","lat":43.29603,"lon":5.38103,"is_reserved":false,"is_disabled":false,"rental_uris":{"android":"levelo://app?vid=77bdf080-2008-44a7-bdcb-e1f596964af0","ios":"levelo://app?vid=77bdf080-2008-44a7-bdcb-e1f596964af0"},"vehicle_type_id":"4","last_reported":1733145649,"current_range_meters":8000,"station_id":"ce4bgl12rcd13ifvqbo0","pricing_plan_id":"cebpf4jnsgd1na2vs0mg"},{"bike_id":"4d4c884f-6933-49c0-8899-f9856d90f44d","system_id":"levelo_inurba_marseille","lat":43.29748,"lon":5.37971,"is_reserved":false,"is_disabled":true,"rental_uris":{"android":"levelo://app?vid=4d4c884f-6933-49c0-8899-f9856d90f44d","ios":"levelo://app?vid=4d4c884f-6933-49c0-8899-f9856d90f44d"},"vehicle_type_id":"4","last_reported":1733145649,"current_range_meters":0,"station_id":"","pricing_plan_id":"cebpf4jnsgd1na2vs0mg"},{"bike_id":"49383f8c-5e0c-4bb5-aa2b-e1c81f4536f3","system_id":"levelo_inurba_marseille","lat":43.32291,"lon":5.38262,"is_reserved":false,"is_disabled":false,"rental_uris":{"android":"levelo://app?vid=49383f8c-5e0c-4bb5-aa2b-e1c81f4536f3","ios":"levelo://app?vid=49383f8c-5e0c-4bb5-aa2b-e1c81f4536f3"},"vehicle_type_id":"4","last_reported":1733145649,"current_range_meters":19200,"station_id":"ce4bhr12rcd13ifvqhqg","pricing_plan_id":"cebpf4jnsgd1na2vs0mg"},{"bike_id":"65b5bd1a-ce87-490b-badb-17f85eabea92","system_id":"levelo_inurba_marseille","lat":43.2996,"lon":5.41324,"is_reserved":false,"is_disabled":false,"rental_uris":{"android":"levelo://app?vid=65b5bd1a-ce87-490b-badb-17f85eabea92","ios":"levelo://app?vid=65b5bd1a-ce87-490b-badb-17f85eabea92"},"vehicle_type_id":"4","last_reported":1733145649,"current_range_meters":38400,"station_id":"ce4bhp12rcd13ifvqh9g","pricing_plan_id":"cebpf4jnsgd1na2vs0mg"},{"bike_id":"362acf97-9e8f-4c3e-8574-4958ae2ff74f","system_id":"levelo_inurba_marseille","lat":43.26246,"lon":5.42127,"is_reserved":false,"is_disabled":false,"rental_uris":{"android":"levelo://app?vid=362acf97-9e8f-4c3e-8574-4958ae2ff74f","ios":"levelo://app?vid=362acf97-9e8f-4c3e-8574-4958ae2ff74f"},"vehicle_type_id":"4","last_reported":1733145649,"current_range_meters":24000,"station_id":"","pricing_plan_id":"cebpf4jnsgd1na2vs0mg"},{"bike_id":"0f5fbce9-146c-49c4-8788-16d1a8f4deb0","system_id":"levelo_inurba_marseille","lat":43.3032,"lon":5.36589,"is_reserved":false,"is_disabled":true,"rental_uris":{"android":"levelo://app?vid=0f5fbce9-146c-49c4-8788-16d1a8f4deb0","ios":"levelo://app?vid=0f5fbce9-146c-49c4-8788-16d1a8f4deb0"},"vehicle_type_id":"4","last_reported":1733145649,"current_range_meters":0,"station_id":"","pricing_plan_id":"cebpf4jnsgd1na2vs0mg"},{"bike_id":"0df3a188-afb8-4aa7-a10d-8141326d33b1","system_id":"levelo_inurba_marseille","lat":43.25932,"lon":5.40913,"is_reserved":false,"is_disabled":false,"rental_uris":{"android":"levelo://app?vid=0df3a188-afb8-4aa7-a10d-8141326d33b1","ios":"levelo://app?vid=0df3a188-afb8-4aa7-a10d-8141326d33b1"},"vehicle_type_id":"4","last_reported":1733145649,"current_range_meters":38800,"station_id":"ce4bhm92rcd13ifvqglg","pricing_plan_id":"cebpf4jnsgd1na2vs0mg"},{"bike_id":"4d430e73-ba33-45b8-8f85-205a09424c89","system_id":"levelo_inurba_marseille","lat":43.31349,"lon":5.3674,"is_reserved":false,"is_disabled":false,"rental_uris":{"android":"levelo://app?vid=4d430e73-ba33-45b8-8f85-205a09424c89","ios":"levelo://app?vid=4d430e73-ba33-45b8-8f85-205a09424c89"},"vehicle_type_id":"4","last_reported":1733145649,"current_range_meters":39200,"station_id":"ce4bgr92rcd13ifvqc6g","pricing_plan_id":"cebpf4jnsgd1na2vs0mg"},{"bike_id":"b7b33697-14a7-4110-9b8b-4194e6ef5f3f","system_id":"levelo_inurba_marseille","lat":43.27277,"lon":5.39192,"is_reserved":false,"is_disabled":true,"rental_uris":{"android":"levelo://app?vid=b7b33697-14a7-4110-9b8b-4194e6ef5f3f","ios":"levelo://app?vid=b7b33697-14a7-4110-9b8b-4194e6ef5f3f"},"vehicle_type_id":"4","last_reported":1733145649,"current_range_meters":0,"station_id":"","pricing_plan_id":"cebpf4jnsgd1na2vs0mg"},{"bike_id":"6e17ccb3-dfab-4232-bdc7-0b4c6b42b9db","system_id":"levelo_inurba_marseille","lat":43.30909,"lon":5.36854,"is_reserved":false,"is_disabled":false,"rental_uris":{"android":"levelo://app?vid=6e17ccb3-dfab-4232-bdc7-0b4c6b42b9db","ios":"levelo://app?vid=6e17ccb3-dfab-4232-bdc7-0b4c6b42b9db"},"vehicle_type_id":"4","last_reported":1733145649,"current_range_meters":27600,"station_id":"ce4bgn92rcd13ifvqbvg","pricing_plan_id":"cebpf4jnsgd1na2vs0mg"},{"bike_id":"ac49fba4-30df-4893-b052-7d9d76fd86a2","system_id":"levelo_inurba_marseille","lat":43.29249,"lon":5.38432,"is_reserved":false,"is_disabled":true,"rental_uris":{"android":"levelo://app?vid=ac49fba4-30df-4893-b052-7d9d76fd86a2","ios":"levelo://app?vid=ac49fba4-30df-4893-b052-7d9d76fd86a2"},"vehicle_type_id":"4","last_reported":1733145649,"current_range_meters":8000,"station_id":"ce4bh692rcd13ifvqea0","pricing_plan_id":"cebpf4jnsgd1na2vs0mg"},{"bike_id":"da786c18-1732-48a5-8a36-44fffcc9890b","system_id":"levelo_inurba_marseille","lat":43.30556,"lon":5.3653,"is_reserved":false,"is_disabled":false,"rental_uris":{"android":"levelo://app?vid=da786c18-1732-48a5-8a36-44fffcc9890b","ios":"levelo://app?vid=da786c18-1732-48a5-8a36-44fffcc9890b"},"vehicle_type_id":"4","last_reported":1733145649,"current_range_meters":31200,"station_id":"ce4bgs12rcd13ifvqcag","pricing_plan_id":"cebpf4jnsgd1na2vs0mg"},{"bike_id":"e4e6a691-f641-4704-80b5-86f8682e648e","system_id":"levelo_inurba_marseille","lat":43.31234,"lon":5.3686,"is_reserved":false,"is_disabled":false,"rental_uris":{"android":"levelo://app?vid=e4e6a691-f641-4704-80b5-86f8682e648e","ios":"levelo://app?vid=e4e6a691-f641-4704-80b5-86f8682e648e"},"vehicle_type_id":"4","last_reported":1733145649,"current_range_meters":34800,"station_id":"ce4bgl92rcd13ifvqbq0","pricing_plan_id":"cebpf4jnsgd1na2vs0mg"},{"bike_id":"19a17543-d12c-4b1b-bad3-d982e3e0fb74","system_id":"levelo_inurba_marseille","lat":43.2695,"lon":5.38623,"is_reserved":false,"is_disabled":false,"rental_uris":{"android":"levelo://app?vid=19a17543-d12c-4b1b-bad3-d982e3e0fb74","ios":"levelo://app?vid=19a17543-d12c-4b1b-bad3-d982e3e0fb74"},"vehicle_type_id":"4","last_reported":1733145649,"current_range_meters":28800,"station_id":"ce4bhh92rcd13ifvqfh0","pricing_plan_id":"cebpf4jnsgd1na2vs0mg"},{"bike_id":"c70bed4a-03c3-4d48-9d9d-f10e1949ee20","system_id":"levelo_inurba_marseille","lat":43.25009,"lon":5.38927,"is_reserved":false,"is_disabled":false,"rental_uris":{"android":"levelo://app?vid=c70bed4a-03c3-4d48-9d9d-f10e1949ee20","ios":"levelo://app?vid=c70bed4a-03c3-4d48-9d9d-f10e1949ee20"},"vehicle_type_id":"4","last_reported":1733145649,"current_range_meters":39200,"station_id":"ce4bhgp2rcd13ifvqfd0","pricing_plan_id":"cebpf4jnsgd1na2vs0mg"},{"bike_id":"4168b43c-3049-46dc-94dd-a599091d3594","system_id":"levelo_inurba_marseille","lat":43.30908,"lon":5.36857,"is_reserved":false,"is_disabled":true,"rental_uris":{"android":"levelo://app?vid=4168b43c-3049-46dc-94dd-a599091d3594","ios":"levelo://app?vid=4168b43c-3049-46dc-94dd-a599091d3594"},"vehicle_type_id":"4","last_reported":1733145649,"current_range_meters":39200,"station_id":"ce4bgn92rcd13ifvqbvg","pricing_plan_id":"cebpf4jnsgd1na2vs0mg"},{"bike_id":"0c75325c-958e-45f7-89d5-8bf413dd17d1","system_id":"levelo_inurba_marseille","lat":43.3001,"lon":5.38272,"is_reserved":false,"is_disabled":true,"rental_uris":{"android":"levelo://app?vid=0c75325c-958e-45f7-89d5-8bf413dd17d1","ios":"levelo://app?vid=0c75325c-958e-45f7-89d5-8bf413dd17d1"},"vehicle_type_id":"4","last_reported":1733145649,"current_range_meters":0,"station_id":"","pricing_plan_id":"cebpf4jnsgd1na2vs0mg"},{"bike_id":"ac6227b0-4537-4e38-93b3-d0e01fa3ff1c","system_id":"levelo_inurba_marseille","lat":43.30131,"lon":5.3879,"is_reserved":false,"is_disabled":true,"rental_uris":{"android":"levelo://app?vid=ac6227b0-4537-4e38-93b3-d0e01fa3ff1c","ios":"levelo://app?vid=ac6227b0-4537-4e38-93b3-d0e01fa3ff1c"},"vehicle_type_id":"4","last_reported":1733145649,"current_range_meters":34000,"station_id":"ce4bghh2rcd13ifvqb60","pricing_plan_id":"cebpf4jnsgd1na2vs0mg"},{"bike_id":"ae61492c-1336-4302-8273-06616af974f7","system_id":"levelo_inurba_marseille","lat":43.30907,"lon":5.36851,"is_reserved":false,"is_disabled":false,"rental_uris":{"android":"levelo://app?vid=ae61492c-1336-4302-8273-06616af974f7","ios":"levelo://app?vid=ae61492c-1336-4302-8273-06616af974f7"},"vehicle_type_id":"4","last_reported":1733145649,"current_range_meters":32800,"station_id":"ce4bgn92rcd13ifvqbvg","pricing_plan_id":"cebpf4jnsgd1na2vs0mg"},{"bike_id":"5f079ca1-d5e1-4c58-a3a6-e73e7e2766ea","system_id":"levelo_inurba_marseille","lat":43.29199,"lon":5.39324,"is_reserved":false,"is_disabled":false,"rental_uris":{"android":"levelo://app?vid=5f079ca1-d5e1-4c58-a3a6-e73e7e2766ea","ios":"levelo://app?vid=5f079ca1-d5e1-4c58-a3a6-e73e7e2766ea"},"vehicle_type_id":"4","last_reported":1733145649,"current_range_meters":34000,"station_id":"ce4bh192rcd13ifvqdd0","pricing_plan_id":"cebpf4jnsgd1na2vs0mg"},{"bike_id":"04726a15-f42d-4b27-9fc8-503beadc9d40","system_id":"levelo_inurba_marseille","lat":43.29004,"lon":5.35605,"is_reserved":false,"is_disabled":false,"rental_uris":{"android":"levelo://app?vid=04726a15-f42d-4b27-9fc8-503beadc9d40","ios":"levelo://app?vid=04726a15-f42d-4b27-9fc8-503beadc9d40"},"vehicle_type_id":"4","last_reported":1733145649,"current_range_meters":3200,"station_id":"ce4bhb92rcd13ifvqen0","pricing_plan_id":"cebpf4jnsgd1na2vs0mg"},{"bike_id":"8e4b612e-24e3-44bb-9c8c-80cbb01c1315","system_id":"levelo_inurba_marseille","lat":43.29843,"lon":5.36275,"is_reserved":false,"is_disabled":true,"rental_uris":{"android":"levelo://app?vid=8e4b612e-24e3-44bb-9c8c-80cbb01c1315","ios":"levelo://app?vid=8e4b612e-24e3-44bb-9c8c-80cbb01c1315"},"vehicle_type_id":"4","last_reported":1733145649,"current_range_meters":38800,"station_id":"ce4bgpp2rcd13ifvqc3g","pricing_plan_id":"cebpf4jnsgd1na2vs0mg"},{"bike_id":"8e126d5e-9202-4d02-9b96-07562eaa0d7f","system_id":"levelo_inurba_marseille","lat":43.33724,"lon":5.39179,"is_reserved":false,"is_disabled":true,"rental_uris":{"android":"levelo://app?vid=8e126d5e-9202-4d02-9b96-07562eaa0d7f","ios":"levelo://app?vid=8e126d5e-9202-4d02-9b96-07562eaa0d7f"},"vehicle_type_id":"4","last_reported":1733145649,"current_range_meters":20800,"station_id":"ce4bhr92rcd13ifvqhsg","pricing_plan_id":"cebpf4jnsgd1na2vs0mg"},{"bike_id":"05105735-e014-425e-a423-3d282ee4f2be","system_id":"levelo_inurba_marseille","lat":43.23963,"lon":5.36633,"is_reserved":false,"is_disabled":false,"rental_uris":{"android":"levelo://app?vid=05105735-e014-425e-a423-3d282ee4f2be","ios":"levelo://app?vid=05105735-e014-425e-a423-3d282ee4f2be"},"vehicle_type_id":"4","last_reported":1733145649,"current_range_meters":32400,"station_id":"ce4bhi12rcd13ifvqfp0","pricing_plan_id":"cebpf4jnsgd1na2vs0mg"},{"bike_id":"cd8cc499-deb6-4097-9823-c7ccf6d23d4f","system_id":"levelo_inurba_marseille","lat":43.28031,"lon":5.36959,"is_reserved":false,"is_disabled":true,"rental_uris":{"android":"levelo://app?vid=cd8cc499-deb6-4097-9823-c7ccf6d23d4f","ios":"levelo://app?vid=cd8cc499-deb6-4097-9823-c7ccf6d23d4f"},"vehicle_type_id":"4","last_reported":1733145649,"current_range_meters":0,"station_id":"ce4bha12rcd13ifvqef0","pricing_plan_id":"cebpf4jnsgd1na2vs0mg"},{"bike_id":"ab21b564-5254-4ca5-ab91-6e92916c4136","system_id":"levelo_inurba_marseille","lat":43.28926,"lon":5.38398,"is_reserved":false,"is_disabled":true,"rental_uris":{"android":"levelo://app?vid=ab21b564-5254-4ca5-ab91-6e92916c4136","ios":"levelo://app?vid=ab21b564-5254-4ca5-ab91-6e92916c4136"},"vehicle_type_id":"4","last_reported":1733145649,"current_range_meters":0,"station_id":"ce4bh612rcd13ifvqe6g","pricing_plan_id":"cebpf4jnsgd1na2vs0mg"},{"bike_id":"f3b13940-9c35-4e1d-b8e5-eb7cfb605c7f","system_id":"levelo_inurba_marseille","lat":43.28462,"lon":5.38537,"is_reserved":false,"is_disabled":false,"rental_uris":{"android":"levelo://app?vid=f3b13940-9c35-4e1d-b8e5-eb7cfb605c7f","ios":"levelo://app?vid=f3b13940-9c35-4e1d-b8e5-eb7cfb605c7f"},"vehicle_type_id":"4","last_reported":1733145649,"current_range_meters":29600,"station_id":"ce4bh8p2rcd13ifvqeb0","pricing_plan_id":"cebpf4jnsgd1na2vs0mg"},{"bike_id":"064861a6-5a15-4e22-bc40-26ea165590ab","system_id":"levelo_inurba_marseille","lat":43.29202,"lon":5.39327,"is_reserved":false,"is_disabled":true,"rental_uris":{"android":"levelo://app?vid=064861a6-5a15-4e22-bc40-26ea165590ab","ios":"levelo://app?vid=064861a6-5a15-4e22-bc40-26ea165590ab"},"vehicle_type_id":"4","last_reported":1733145649,"current_range_meters":18800,"station_id":"ce4bh192rcd13ifvqdd0","pricing_plan_id":"cebpf4jnsgd1na2vs0mg"},{"bike_id":"83187be1-7efa-435e-ae9b-74201cb4dec3","system_id":"levelo_inurba_marseille","lat":43.26687,"lon":5.38276,"is_reserved":false,"is_disabled":true,"rental_uris":{"android":"levelo://app?vid=83187be1-7efa-435e-ae9b-74201cb4dec3","ios":"levelo://app?vid=83187be1-7efa-435e-ae9b-74201cb4dec3"},"vehicle_type_id":"4","last_reported":1733145649,"current_range_meters":33600,"station_id":"ce4bhg92rcd13ifvqf90","pricing_plan_id":"cebpf4jnsgd1na2vs0mg"},{"bike_id":"2aa1e707-1373-4f29-9a6c-51393a307d7d","system_id":"levelo_inurba_marseille","lat":43.3188,"lon":5.40743,"is_reserved":false,"is_disabled":false,"rental_uris":{"android":"levelo://app?vid=2aa1e707-1373-4f29-9a6c-51393a307d7d","ios":"levelo://app?vid=2aa1e707-1373-4f29-9a6c-51393a307d7d"},"vehicle_type_id":"4","last_reported":1733145649,"current_range_meters":6800,"station_id":"ce4bhq12rcd13ifvqhig","pricing_plan_id":"cebpf4jnsgd1na2vs0mg"},{"bike_id":"c302020c-3f96-4d22-83ac-0ce637d5ebf1","system_id":"levelo_inurba_marseille","lat":43.288605,"lon":5.358507,"is_reserved":false,"is_disabled":false,"rental_uris":{"android":"levelo://app?vid=c302020c-3f96-4d22-83ac-0ce637d5ebf1","ios":"levelo://app?vid=c302020c-3f96-4d22-83ac-0ce637d5ebf1"},"vehicle_type_id":"4","last_reported":1733145649,"current_range_meters":36800,"station_id":"ce4bhb12rcd13ifvqem0","pricing_plan_id":"cebpf4jnsgd1na2vs0mg"},{"bike_id":"b05ef065-828b-47d3-9127-d966ded65289","system_id":"levelo_inurba_marseille","lat":43.30558,"lon":5.36551,"is_reserved":false,"is_disabled":false,"rental_uris":{"android":"levelo://app?vid=b05ef065-828b-47d3-9127-d966ded65289","ios":"levelo://app?vid=b05ef065-828b-47d3-9127-d966ded65289"},"vehicle_type_id":"4","last_reported":1733145649,"current_range_meters":38000,"station_id":"ce4bgs12rcd13ifvqcag","pricing_plan_id":"cebpf4jnsgd1na2vs0mg"},{"bike_id":"2474090c-fa0b-4808-945e-6b393dd77e47","system_id":"levelo_inurba_marseille","lat":43.30434,"lon":5.37929,"is_reserved":false,"is_disabled":true,"rental_uris":{"android":"levelo://app?vid=2474090c-fa0b-4808-945e-6b393dd77e47","ios":"levelo://app?vid=2474090c-fa0b-4808-945e-6b393dd77e47"},"vehicle_type_id":"4","last_reported":1733145649,"current_range_meters":38800,"station_id":"ce4bgup2rcd13ifvqcn0","pricing_plan_id":"cebpf4jnsgd1na2vs0mg"},{"bike_id":"ba66e627-a6a3-48c2-9447-b71d9ffcb5b1","system_id":"levelo_inurba_marseille","lat":43.30885,"lon":5.37194,"is_reserved":false,"is_disabled":false,"rental_uris":{"android":"levelo://app?vid=ba66e627-a6a3-48c2-9447-b71d9ffcb5b1","ios":"levelo://app?vid=ba66e627-a6a3-48c2-9447-b71d9ffcb5b1"},"vehicle_type_id":"4","last_reported":1733145649,"current_range_meters":27600,"station_id":"ce4bguh2rcd13ifvqckg","pricing_plan_id":"cebpf4jnsgd1na2vs0mg"},{"bike_id":"0433c890-a267-42fd-a826-ea986404d07e","system_id":"levelo_inurba_marseille","lat":43.27498,"lon":5.42448,"is_reserved":false,"is_disabled":false,"rental_uris":{"android":"levelo://app?vid=0433c890-a267-42fd-a826-ea986404d07e","ios":"levelo://app?vid=0433c890-a267-42fd-a826-ea986404d07e"},"vehicle_type_id":"4","last_reported":1733145649,"current_range_meters":24800,"station_id":"ce4bhn92rcd13ifvqgrg","pricing_plan_id":"cebpf4jnsgd1na2vs0mg"},{"bike_id":"8215438b-96f9-4cad-a489-b7d51a6864a6","system_id":"levelo_inurba_marseille","lat":43.27805,"lon":5.40714,"is_reserved":false,"is_disabled":false,"rental_uris":{"android":"levelo://app?vid=8215438b-96f9-4cad-a489-b7d51a6864a6","ios":"levelo://app?vid=8215438b-96f9-4cad-a489-b7d51a6864a6"},"vehicle_type_id":"4","last_reported":1733145649,"current_range_meters":14000,"station_id":"ce4bhnh2rcd13ifvqgtg","pricing_plan_id":"cebpf4jnsgd1na2vs0mg"},{"bike_id":"209d8de9-6b18-447d-9855-c44a4820f306","system_id":"levelo_inurba_marseille","lat":43.28428,"lon":5.39199,"is_reserved":false,"is_disabled":false,"rental_uris":{"android":"levelo://app?vid=209d8de9-6b18-447d-9855-c44a4820f306","ios":"levelo://app?vid=209d8de9-6b18-447d-9855-c44a4820f306"},"vehicle_type_id":"4","last_reported":1733145649,"current_range_meters":38800,"station_id":"ce4bhoh2rcd13ifvqh5g","pricing_plan_id":"cebpf4jnsgd1na2vs0mg"},{"bike_id":"ea1337cb-aaf9-4a8f-9612-c78771fe8808","system_id":"levelo_inurba_marseille","lat":43.25288,"lon":5.39463,"is_reserved":false,"is_disabled":true,"rental_uris":{"android":"levelo://app?vid=ea1337cb-aaf9-4a8f-9612-c78771fe8808","ios":"levelo://app?vid=ea1337cb-aaf9-4a8f-9612-c78771fe8808"},"vehicle_type_id":"4","last_reported":1733145649,"current_range_meters":0,"station_id":"","pricing_plan_id":"cebpf4jnsgd1na2vs0mg"},{"bike_id":"afb8d7b8-4c43-4261-b9b7-3baf43140e81","system_id":"levelo_inurba_marseille","lat":43.29243,"lon":5.4091,"is_reserved":false,"is_disabled":false,"rental_uris":{"android":"levelo://app?vid=afb8d7b8-4c43-4261-b9b7-3baf43140e81","ios":"levelo://app?vid=afb8d7b8-4c43-4261-b9b7-3baf43140e81"},"vehicle_type_id":"4","last_reported":1733145649,"current_range_meters":20400,"station_id":"ce4bh192rcd13ifvqdc0","pricing_plan_id":"cebpf4jnsgd1na2vs0mg"},{"bike_id":"93c1730c-b26a-462e-b9b3-b9e9a5b7e0b2","system_id":"levelo_inurba_marseille","lat":43.29844,"lon":5.36271,"is_reserved":false,"is_disabled":false,"rental_uris":{"android":"levelo://app?vid=93c1730c-b26a-462e-b9b3-b9e9a5b7e0b2","ios":"levelo://app?vid=93c1730c-b26a-462e-b9b3-b9e9a5b7e0b2"},"vehicle_type_id":"4","last_reported":1733145649,"current_range_meters":25600,"station_id":"ce4bgpp2rcd13ifvqc3g","pricing_plan_id":"cebpf4jnsgd1na2vs0mg"},{"bike_id":"037b9cac-d48e-4cc3-aed3-4bdd2de6638a","system_id":"levelo_inurba_marseille","lat":43.30194,"lon":5.39995,"is_reserved":false,"is_disabled":false,"rental_uris":{"android":"levelo://app?vid=037b9cac-d48e-4cc3-aed3-4bdd2de6638a","ios":"levelo://app?vid=037b9cac-d48e-4cc3-aed3-4bdd2de6638a"},"vehicle_type_id":"4","last_reported":1733145649,"current_range_meters":6000,"station_id":"ce4bgvh2rcd13ifvqcs0","pricing_plan_id":"cebpf4jnsgd1na2vs0mg"},{"bike_id":"615470e5-564b-404e-92bd-9f8548c50cce","system_id":"levelo_inurba_marseille","lat":43.30829,"lon":5.38178,"is_reserved":false,"is_disabled":false,"rental_uris":{"android":"levelo://app?vid=615470e5-564b-404e-92bd-9f8548c50cce","ios":"levelo://app?vid=615470e5-564b-404e-92bd-9f8548c50cce"},"vehicle_type_id":"4","last_reported":1733145649,"current_range_meters":21600,"station_id":"ce4bgt12rcd13ifvqce0","pricing_plan_id":"cebpf4jnsgd1na2vs0mg"},{"bike_id":"af12a5f9-720e-4019-987d-3779fe2b91a2","system_id":"levelo_inurba_marseille","lat":43.30828,"lon":5.374,"is_reserved":false,"is_disabled":true,"rental_uris":{"android":"levelo://app?vid=af12a5f9-720e-4019-987d-3779fe2b91a2","ios":"levelo://app?vid=af12a5f9-720e-4019-987d-3779fe2b91a2"},"vehicle_type_id":"4","last_reported":1733145649,"current_range_meters":0,"station_id":"","pricing_plan_id":"cebpf4jnsgd1na2vs0mg"},{"bike_id":"02c5ff7b-feeb-40dc-98e9-e82da1359162","system_id":"levelo_inurba_marseille","lat":43.31222,"lon":5.36863,"is_reserved":false,"is_disabled":false,"rental_uris":{"android":"levelo://app?vid=02c5ff7b-feeb-40dc-98e9-e82da1359162","ios":"levelo://app?vid=02c5ff7b-feeb-40dc-98e9-e82da1359162"},"vehicle_type_id":"4","last_reported":1733145649,"current_range_meters":2800,"station_id":"ce4bgl92rcd13ifvqbq0","pricing_plan_id":"cebpf4jnsgd1na2vs0mg"},{"bike_id":"6f206291-5210-422f-bd21-551cab675f49","system_id":"levelo_inurba_marseille","lat":43.30952,"lon":5.39037,"is_reserved":false,"is_disabled":false,"rental_uris":{"android":"levelo://app?vid=6f206291-5210-422f-bd21-551cab675f49","ios":"levelo://app?vid=6f206291-5210-422f-bd21-551cab675f49"},"vehicle_type_id":"4","last_reported":1733145649,"current_range_meters":16800,"station_id":"ce4bgup2rcd13ifvqco0","pricing_plan_id":"cebpf4jnsgd1na2vs0mg"},{"bike_id":"c4a65884-b54c-4c76-9da9-6db532738bac","system_id":"levelo_inurba_marseille","lat":43.29796,"lon":5.38121,"is_reserved":false,"is_disabled":true,"rental_uris":{"android":"levelo://app?vid=c4a65884-b54c-4c76-9da9-6db532738bac","ios":"levelo://app?vid=c4a65884-b54c-4c76-9da9-6db532738bac"},"vehicle_type_id":"4","last_reported":1733145649,"current_range_meters":0,"station_id":"ce4bgip2rcd13ifvqbb0","pricing_plan_id":"cebpf4jnsgd1na2vs0mg"},{"bike_id":"d1b4c7e3-66e0-43e4-a0f4-b1088f07e4f8","system_id":"levelo_inurba_marseille","lat":43.31754,"lon":5.39029,"is_reserved":false,"is_disabled":false,"rental_uris":{"android":"levelo://app?vid=d1b4c7e3-66e0-43e4-a0f4-b1088f07e4f8","ios":"levelo://app?vid=d1b4c7e3-66e0-43e4-a0f4-b1088f07e4f8"},"vehicle_type_id":"4","last_reported":1733145649,"current_range_meters":38400,"station_id":"ce4bhqp2rcd13ifvqhng","pricing_plan_id":"cebpf4jnsgd1na2vs0mg"},{"bike_id":"38785929-f34d-4d86-a7ff-7bf88009b289","system_id":"levelo_inurba_marseille","lat":43.25751,"lon":5.41099,"is_reserved":false,"is_disabled":false,"rental_uris":{"android":"levelo://app?vid=38785929-f34d-4d86-a7ff-7bf88009b289","ios":"levelo://app?vid=38785929-f34d-4d86-a7ff-7bf88009b289"},"vehicle_type_id":"4","last_reported":1733145649,"current_range_meters":24800,"station_id":"ce4bhkp2rcd13ifvqgd0","pricing_plan_id":"cebpf4jnsgd1na2vs0mg"},{"bike_id":"ac2a82ed-217d-4a5c-aeff-ea21a140ef53","system_id":"levelo_inurba_marseille","lat":43.28059,"lon":5.35628,"is_reserved":false,"is_disabled":false,"rental_uris":{"android":"levelo://app?vid=ac2a82ed-217d-4a5c-aeff-ea21a140ef53","ios":"levelo://app?vid=ac2a82ed-217d-4a5c-aeff-ea21a140ef53"},"vehicle_type_id":"4","last_reported":1733145649,"current_range_meters":11600,"station_id":"","pricing_plan_id":"cebpf4jnsgd1na2vs0mg"},{"bike_id":"c575cb95-bf17-496b-a3c9-4fe53ce32279","system_id":"levelo_inurba_marseille","lat":43.31128,"lon":5.37769,"is_reserved":false,"is_disabled":false,"rental_uris":{"android":"levelo://app?vid=c575cb95-bf17-496b-a3c9-4fe53ce32279","ios":"levelo://app?vid=c575cb95-bf17-496b-a3c9-4fe53ce32279"},"vehicle_type_id":"4","last_reported":1733145649,"current_range_meters":24800,"station_id":"ce4bgt92rcd13ifvqcg0","pricing_plan_id":"cebpf4jnsgd1na2vs0mg"},{"bike_id":"dda99f1d-33cc-4a3e-8f12-3791ea0e80cb","system_id":"levelo_inurba_marseille","lat":43.30205,"lon":5.39477,"is_reserved":false,"is_disabled":true,"rental_uris":{"android":"levelo://app?vid=dda99f1d-33cc-4a3e-8f12-3791ea0e80cb","ios":"levelo://app?vid=dda99f1d-33cc-4a3e-8f12-3791ea0e80cb"},"vehicle_type_id":"4","last_reported":1733145649,"current_range_meters":400,"station_id":"ce4bh0p2rcd13ifvqd70","pricing_plan_id":"cebpf4jnsgd1na2vs0mg"},{"bike_id":"4a2be555-d056-454c-bed3-fe781ba86f8e","system_id":"levelo_inurba_marseille","lat":43.25886,"lon":5.39954,"is_reserved":false,"is_disabled":true,"rental_uris":{"android":"levelo://app?vid=4a2be555-d056-454c-bed3-fe781ba86f8e","ios":"levelo://app?vid=4a2be555-d056-454c-bed3-fe781ba86f8e"},"vehicle_type_id":"4","last_reported":1733145649,"current_range_meters":0,"station_id":"","pricing_plan_id":"cebpf4jnsgd1na2vs0mg"},{"bike_id":"da5f1f92-1966-46c6-97cd-6dae61f5d4f5","system_id":"levelo_inurba_marseille","lat":43.295765,"lon":5.37505,"is_reserved":false,"is_disabled":false,"rental_uris":{"android":"levelo://app?vid=da5f1f92-1966-46c6-97cd-6dae61f5d4f5","ios":"levelo://app?vid=da5f1f92-1966-46c6-97cd-6dae61f5d4f5"},"vehicle_type_id":"4","last_reported":1733145649,"current_range_meters":37600,"station_id":"ce4bgh92rcd13ifvqb50","pricing_plan_id":"cebpf4jnsgd1na2vs0mg"},{"bike_id":"4bc94dc8-8dfe-4739-a5bd-9ac915b9a612","system_id":"levelo_inurba_marseille","lat":43.2885,"lon":5.35848,"is_reserved":false,"is_disabled":false,"rental_uris":{"android":"levelo://app?vid=4bc94dc8-8dfe-4739-a5bd-9ac915b9a612","ios":"levelo://app?vid=4bc94dc8-8dfe-4739-a5bd-9ac915b9a612"},"vehicle_type_id":"4","last_reported":1733145649,"current_range_meters":36800,"station_id":"ce4bhb12rcd13ifvqem0","pricing_plan_id":"cebpf4jnsgd1na2vs0mg"},{"bike_id":"4c4ad450-e525-4791-ab68-5d15294ada80","system_id":"levelo_inurba_marseille","lat":43.23204,"lon":5.35564,"is_reserved":false,"is_disabled":false,"rental_uris":{"android":"levelo://app?vid=4c4ad450-e525-4791-ab68-5d15294ada80","ios":"levelo://app?vid=4c4ad450-e525-4791-ab68-5d15294ada80"},"vehicle_type_id":"4","last_reported":1733145649,"current_range_meters":38800,"station_id":"ce4bhu92rcd13ifvqi70","pricing_plan_id":"cebpf4jnsgd1na2vs0mg"},{"bike_id":"01aeb6eb-100b-4081-b6f7-f8ff6d95660f","system_id":"levelo_inurba_marseille","lat":43.32045,"lon":5.41552,"is_reserved":false,"is_disabled":false,"rental_uris":{"android":"levelo://app?vid=01aeb6eb-100b-4081-b6f7-f8ff6d95660f","ios":"levelo://app?vid=01aeb6eb-100b-4081-b6f7-f8ff6d95660f"},"vehicle_type_id":"4","last_reported":1733145649,"current_range_meters":12000,"station_id":"ce4bhq92rcd13ifvqhkg","pricing_plan_id":"cebpf4jnsgd1na2vs0mg"},{"bike_id":"7682970a-0007-4326-9ff0-a1502e46ac41","system_id":"levelo_inurba_marseille","lat":43.23193,"lon":5.35557,"is_reserved":false,"is_disabled":true,"rental_uris":{"android":"levelo://app?vid=7682970a-0007-4326-9ff0-a1502e46ac41","ios":"levelo://app?vid=7682970a-0007-4326-9ff0-a1502e46ac41"},"vehicle_type_id":"4","last_reported":1733145649,"current_range_meters":0,"station_id":"ce4bhu92rcd13ifvqi70","pricing_plan_id":"cebpf4jnsgd1na2vs0mg"},{"bike_id":"ca4c3565-e748-4d65-8c5a-ea8f8d2a87d2","system_id":"levelo_inurba_marseille","lat":43.27976,"lon":5.38741,"is_reserved":false,"is_disabled":false,"rental_uris":{"android":"levelo://app?vid=ca4c3565-e748-4d65-8c5a-ea8f8d2a87d2","ios":"levelo://app?vid=ca4c3565-e748-4d65-8c5a-ea8f8d2a87d2"},"vehicle_type_id":"4","last_reported":1733145649,"current_range_meters":23200,"station_id":"ce4bhg12rcd13ifvqf80","pricing_plan_id":"cebpf4jnsgd1na2vs0mg"},{"bike_id":"eb5c916b-2f62-4970-a07a-597dde3f9251","system_id":"levelo_inurba_marseille","lat":43.24073,"lon":5.37755,"is_reserved":false,"is_disabled":true,"rental_uris":{"android":"levelo://app?vid=eb5c916b-2f62-4970-a07a-597dde3f9251","ios":"levelo://app?vid=eb5c916b-2f62-4970-a07a-597dde3f9251"},"vehicle_type_id":"4","last_reported":1733145649,"current_range_meters":0,"station_id":"ce4bhnp2rcd13ifvqgvg","pricing_plan_id":"cebpf4jnsgd1na2vs0mg"},{"bike_id":"000b518d-442b-4752-8b9a-e2fc3654d286","system_id":"levelo_inurba_marseille","lat":43.29451,"lon":5.3976,"is_reserved":false,"is_disabled":true,"rental_uris":{"android":"levelo://app?vid=000b518d-442b-4752-8b9a-e2fc3654d286","ios":"levelo://app?vid=000b518d-442b-4752-8b9a-e2fc3654d286"},"vehicle_type_id":"4","last_reported":1733145649,"current_range_meters":11600,"station_id":"ce4bh3h2rcd13ifvqdo0","pricing_plan_id":"cebpf4jnsgd1na2vs0mg"},{"bike_id":"93cccd41-cc0b-4305-84ee-69fe54f591e9","system_id":"levelo_inurba_marseille","lat":43.28154,"lon":5.42637,"is_reserved":false,"is_disabled":false,"rental_uris":{"android":"levelo://app?vid=93cccd41-cc0b-4305-84ee-69fe54f591e9","ios":"levelo://app?vid=93cccd41-cc0b-4305-84ee-69fe54f591e9"},"vehicle_type_id":"4","last_reported":1733145649,"current_range_meters":38800,"station_id":"ce4bhnh2rcd13ifvqgug","pricing_plan_id":"cebpf4jnsgd1na2vs0mg"},{"bike_id":"e39d22a4-daed-483a-acbb-550d4592cfe0","system_id":"levelo_inurba_marseille","lat":43.30053,"lon":5.38832,"is_reserved":false,"is_disabled":true,"rental_uris":{"android":"levelo://app?vid=e39d22a4-daed-483a-acbb-550d4592cfe0","ios":"levelo://app?vid=e39d22a4-daed-483a-acbb-550d4592cfe0"},"vehicle_type_id":"4","last_reported":1733145649,"current_range_meters":0,"station_id":"","pricing_plan_id":"cebpf4jnsgd1na2vs0mg"},{"bike_id":"d26a0ea1-f52a-4432-90c9-02f34daf9bd4","system_id":"levelo_inurba_marseille","lat":43.32654,"lon":5.40994,"is_reserved":false,"is_disabled":false,"rental_uris":{"android":"levelo://app?vid=d26a0ea1-f52a-4432-90c9-02f34daf9bd4","ios":"levelo://app?vid=d26a0ea1-f52a-4432-90c9-02f34daf9bd4"},"vehicle_type_id":"4","last_reported":1733145649,"current_range_meters":38000,"station_id":"ce4bhpp2rcd13ifvqhgg","pricing_plan_id":"cebpf4jnsgd1na2vs0mg"},{"bike_id":"1df9b703-c348-4e74-bbcb-1f4c6fc14b39","system_id":"levelo_inurba_marseille","lat":43.30547,"lon":5.36532,"is_reserved":false,"is_disabled":false,"rental_uris":{"android":"levelo://app?vid=1df9b703-c348-4e74-bbcb-1f4c6fc14b39","ios":"levelo://app?vid=1df9b703-c348-4e74-bbcb-1f4c6fc14b39"},"vehicle_type_id":"4","last_reported":1733145649,"current_range_meters":38800,"station_id":"ce4bgs12rcd13ifvqcag","pricing_plan_id":"cebpf4jnsgd1na2vs0mg"},{"bike_id":"f9c8b933-6f3c-415b-a23a-3b43c2f5668d","system_id":"levelo_inurba_marseille","lat":43.23056,"lon":5.35488,"is_reserved":false,"is_disabled":false,"rental_uris":{"android":"levelo://app?vid=f9c8b933-6f3c-415b-a23a-3b43c2f5668d","ios":"levelo://app?vid=f9c8b933-6f3c-415b-a23a-3b43c2f5668d"},"vehicle_type_id":"4","last_reported":1733145649,"current_range_meters":26000,"station_id":"cpo3342slgdg3j2ifvpg","pricing_plan_id":"cebpf4jnsgd1na2vs0mg"},{"bike_id":"7e240355-01c5-4914-a572-525c5ba6ec0f","system_id":"levelo_inurba_marseille","lat":43.29262,"lon":5.40917,"is_reserved":false,"is_disabled":true,"rental_uris":{"android":"levelo://app?vid=7e240355-01c5-4914-a572-525c5ba6ec0f","ios":"levelo://app?vid=7e240355-01c5-4914-a572-525c5ba6ec0f"},"vehicle_type_id":"4","last_reported":1733145649,"current_range_meters":8000,"station_id":"ce4bh192rcd13ifvqdc0","pricing_plan_id":"cebpf4jnsgd1na2vs0mg"},{"bike_id":"aea2d576-7cff-40ec-b507-8af1aebba3ae","system_id":"levelo_inurba_marseille","lat":43.29918,"lon":5.37465,"is_reserved":false,"is_disabled":false,"rental_uris":{"android":"levelo://app?vid=aea2d576-7cff-40ec-b507-8af1aebba3ae","ios":"levelo://app?vid=aea2d576-7cff-40ec-b507-8af1aebba3ae"},"vehicle_type_id":"4","last_reported":1733145649,"current_range_meters":36800,"station_id":"ce4bgjh2rcd13ifvqbg0","pricing_plan_id":"cebpf4jnsgd1na2vs0mg"},{"bike_id":"acbf2f2c-8b9c-4a19-8ec5-57953413deb6","system_id":"levelo_inurba_marseille","lat":43.32538,"lon":5.41425,"is_reserved":false,"is_disabled":false,"rental_uris":{"android":"levelo://app?vid=acbf2f2c-8b9c-4a19-8ec5-57953413deb6","ios":"levelo://app?vid=acbf2f2c-8b9c-4a19-8ec5-57953413deb6"},"vehicle_type_id":"4","last_reported":1733145649,"current_range_meters":24800,"station_id":"ce4bhq12rcd13ifvqhhg","pricing_plan_id":"cebpf4jnsgd1na2vs0mg"},{"bike_id":"8da1de5d-7c97-43a0-be6f-80c14f130fbf","system_id":"levelo_inurba_marseille","lat":43.29914,"lon":5.37468,"is_reserved":false,"is_disabled":false,"rental_uris":{"android":"levelo://app?vid=8da1de5d-7c97-43a0-be6f-80c14f130fbf","ios":"levelo://app?vid=8da1de5d-7c97-43a0-be6f-80c14f130fbf"},"vehicle_type_id":"4","last_reported":1733145649,"current_range_meters":26800,"station_id":"ce4bgjh2rcd13ifvqbg0","pricing_plan_id":"cebpf4jnsgd1na2vs0mg"},{"bike_id":"5b4a07d2-f622-4025-bc36-df53ba7687d6","system_id":"levelo_inurba_marseille","lat":43.30232,"lon":5.40053,"is_reserved":false,"is_disabled":false,"rental_uris":{"android":"levelo://app?vid=5b4a07d2-f622-4025-bc36-df53ba7687d6","ios":"levelo://app?vid=5b4a07d2-f622-4025-bc36-df53ba7687d6"},"vehicle_type_id":"4","last_reported":1733145649,"current_range_meters":25200,"station_id":"ce4bgvh2rcd13ifvqcs0","pricing_plan_id":"cebpf4jnsgd1na2vs0mg"},{"bike_id":"d6bd3c8b-c80e-40e1-b60a-f48f1234d172","system_id":"levelo_inurba_marseille","lat":43.26942,"lon":5.40252,"is_reserved":false,"is_disabled":false,"rental_uris":{"android":"levelo://app?vid=d6bd3c8b-c80e-40e1-b60a-f48f1234d172","ios":"levelo://app?vid=d6bd3c8b-c80e-40e1-b60a-f48f1234d172"},"vehicle_type_id":"4","last_reported":1733145649,"current_range_meters":17200,"station_id":"cjm6bp8fraef2m0cb0m0","pricing_plan_id":"cebpf4jnsgd1na2vs0mg"},{"bike_id":"11d5604e-29c4-4f54-96ae-67f1e4e1420d","system_id":"levelo_inurba_marseille","lat":43.29569,"lon":5.37512,"is_reserved":false,"is_disabled":true,"rental_uris":{"android":"levelo://app?vid=11d5604e-29c4-4f54-96ae-67f1e4e1420d","ios":"levelo://app?vid=11d5604e-29c4-4f54-96ae-67f1e4e1420d"},"vehicle_type_id":"4","last_reported":1733145649,"current_range_meters":0,"station_id":"ce4bgh92rcd13ifvqb50","pricing_plan_id":"cebpf4jnsgd1na2vs0mg"},{"bike_id":"2a401333-53bc-42ac-853b-1aea45bc2e54","system_id":"levelo_inurba_marseille","lat":43.24181,"lon":5.39729,"is_reserved":false,"is_disabled":false,"rental_uris":{"android":"levelo://app?vid=2a401333-53bc-42ac-853b-1aea45bc2e54","ios":"levelo://app?vid=2a401333-53bc-42ac-853b-1aea45bc2e54"},"vehicle_type_id":"4","last_reported":1733145649,"current_range_meters":39200,"station_id":"ce4bhn12rcd13ifvqgpg","pricing_plan_id":"cebpf4jnsgd1na2vs0mg"},{"bike_id":"c550f12d-40e0-413c-90ec-2a664b40bd8f","system_id":"levelo_inurba_marseille","lat":43.28721,"lon":5.36089,"is_reserved":false,"is_disabled":false,"rental_uris":{"android":"levelo://app?vid=c550f12d-40e0-413c-90ec-2a664b40bd8f","ios":"levelo://app?vid=c550f12d-40e0-413c-90ec-2a664b40bd8f"},"vehicle_type_id":"4","last_reported":1733145649,"current_range_meters":26000,"station_id":"cki0cbj6b192h4jlfktg","pricing_plan_id":"cebpf4jnsgd1na2vs0mg"},{"bike_id":"b642d79a-bd2c-495a-acdd-099583f67bf5","system_id":"levelo_inurba_marseille","lat":43.32291,"lon":5.38276,"is_reserved":false,"is_disabled":false,"rental_uris":{"android":"levelo://app?vid=b642d79a-bd2c-495a-acdd-099583f67bf5","ios":"levelo://app?vid=b642d79a-bd2c-495a-acdd-099583f67bf5"},"vehicle_type_id":"4","last_reported":1733145649,"current_range_meters":22800,"station_id":"ce4bhr12rcd13ifvqhqg","pricing_plan_id":"cebpf4jnsgd1na2vs0mg"},{"bike_id":"ffc8afea-4e9a-410b-a553-533ded6b8e84","system_id":"levelo_inurba_marseille","lat":43.26689,"lon":5.3827,"is_reserved":false,"is_disabled":false,"rental_uris":{"android":"levelo://app?vid=ffc8afea-4e9a-410b-a553-533ded6b8e84","ios":"levelo://app?vid=ffc8afea-4e9a-410b-a553-533ded6b8e84"},"vehicle_type_id":"4","last_reported":1733145649,"current_range_meters":37600,"station_id":"ce4bhg92rcd13ifvqf90","pricing_plan_id":"cebpf4jnsgd1na2vs0mg"},{"bike_id":"97981cc8-c463-4538-bd2d-7f5cd2bcbd32","system_id":"levelo_inurba_marseille","lat":43.32533,"lon":5.41455,"is_reserved":false,"is_disabled":true,"rental_uris":{"android":"levelo://app?vid=97981cc8-c463-4538-bd2d-7f5cd2bcbd32","ios":"levelo://app?vid=97981cc8-c463-4538-bd2d-7f5cd2bcbd32"},"vehicle_type_id":"4","last_reported":1733145649,"current_range_meters":1600,"station_id":"ce4bhq12rcd13ifvqhhg","pricing_plan_id":"cebpf4jnsgd1na2vs0mg"},{"bike_id":"426e8663-b5b6-4b38-b89a-a8ae0a534b6d","system_id":"levelo_inurba_marseille","lat":43.30901,"lon":5.36853,"is_reserved":false,"is_disabled":false,"rental_uris":{"android":"levelo://app?vid=426e8663-b5b6-4b38-b89a-a8ae0a534b6d","ios":"levelo://app?vid=426e8663-b5b6-4b38-b89a-a8ae0a534b6d"},"vehicle_type_id":"4","last_reported":1733145649,"current_range_meters":36400,"station_id":"ce4bgn92rcd13ifvqbvg","pricing_plan_id":"cebpf4jnsgd1na2vs0mg"},{"bike_id":"233a77a4-19d4-4f05-a632-d107e06c2aae","system_id":"levelo_inurba_marseille","lat":43.29022,"lon":5.38652,"is_reserved":false,"is_disabled":false,"rental_uris":{"android":"levelo://app?vid=233a77a4-19d4-4f05-a632-d107e06c2aae","ios":"levelo://app?vid=233a77a4-19d4-4f05-a632-d107e06c2aae"},"vehicle_type_id":"4","last_reported":1733145649,"current_range_meters":21600,"station_id":"ce4bh4p2rcd13ifvqe0g","pricing_plan_id":"cebpf4jnsgd1na2vs0mg"},{"bike_id":"44842d2a-7aa5-4e97-b17b-a498950430e1","system_id":"levelo_inurba_marseille","lat":43.27948,"lon":5.41044,"is_reserved":false,"is_disabled":false,"rental_uris":{"android":"levelo://app?vid=44842d2a-7aa5-4e97-b17b-a498950430e1","ios":"levelo://app?vid=44842d2a-7aa5-4e97-b17b-a498950430e1"},"vehicle_type_id":"4","last_reported":1733145649,"current_range_meters":25600,"station_id":"ce4bhnp2rcd13ifvqh0g","pricing_plan_id":"cebpf4jnsgd1na2vs0mg"},{"bike_id":"55aa419e-7ca9-4f29-976a-fefd7a814401","system_id":"levelo_inurba_marseille","lat":43.30131,"lon":5.38792,"is_reserved":false,"is_disabled":true,"rental_uris":{"android":"levelo://app?vid=55aa419e-7ca9-4f29-976a-fefd7a814401","ios":"levelo://app?vid=55aa419e-7ca9-4f29-976a-fefd7a814401"},"vehicle_type_id":"4","last_reported":1733145649,"current_range_meters":12000,"station_id":"ce4bghh2rcd13ifvqb60","pricing_plan_id":"cebpf4jnsgd1na2vs0mg"},{"bike_id":"e5c3ad5a-77c8-4126-8cc8-7683e3448108","system_id":"levelo_inurba_marseille","lat":43.29003,"lon":5.35621,"is_reserved":false,"is_disabled":false,"rental_uris":{"android":"levelo://app?vid=e5c3ad5a-77c8-4126-8cc8-7683e3448108","ios":"levelo://app?vid=e5c3ad5a-77c8-4126-8cc8-7683e3448108"},"vehicle_type_id":"4","last_reported":1733145649,"current_range_meters":26800,"station_id":"ce4bhb92rcd13ifvqen0","pricing_plan_id":"cebpf4jnsgd1na2vs0mg"},{"bike_id":"eb3f7a45-8ce5-4652-9ae0-80e8d6cefc86","system_id":"levelo_inurba_marseille","lat":43.26933,"lon":5.38913,"is_reserved":false,"is_disabled":false,"rental_uris":{"android":"levelo://app?vid=eb3f7a45-8ce5-4652-9ae0-80e8d6cefc86","ios":"levelo://app?vid=eb3f7a45-8ce5-4652-9ae0-80e8d6cefc86"},"vehicle_type_id":"4","last_reported":1733145649,"current_range_meters":38800,"station_id":"ce4bhhh2rcd13ifvqfl0","pricing_plan_id":"cebpf4jnsgd1na2vs0mg"},{"bike_id":"7c6fee9c-696a-49fb-b33f-d7797ad7f6f8","system_id":"levelo_inurba_marseille","lat":43.27058,"lon":5.40259,"is_reserved":false,"is_disabled":false,"rental_uris":{"android":"levelo://app?vid=7c6fee9c-696a-49fb-b33f-d7797ad7f6f8","ios":"levelo://app?vid=7c6fee9c-696a-49fb-b33f-d7797ad7f6f8"},"vehicle_type_id":"4","last_reported":1733145649,"current_range_meters":16400,"station_id":"ce4bhk92rcd13ifvqgc0","pricing_plan_id":"cebpf4jnsgd1na2vs0mg"},{"bike_id":"464d6d3d-db29-4e2c-bd41-5010d21f4bfe","system_id":"levelo_inurba_marseille","lat":43.27962,"lon":5.38699,"is_reserved":false,"is_disabled":false,"rental_uris":{"android":"levelo://app?vid=464d6d3d-db29-4e2c-bd41-5010d21f4bfe","ios":"levelo://app?vid=464d6d3d-db29-4e2c-bd41-5010d21f4bfe"},"vehicle_type_id":"4","last_reported":1733145649,"current_range_meters":16800,"station_id":"","pricing_plan_id":"cebpf4jnsgd1na2vs0mg"},{"bike_id":"5253f866-cb6b-42f3-b8b8-6983fc8146b7","system_id":"levelo_inurba_marseille","lat":43.28466,"lon":5.35884,"is_reserved":false,"is_disabled":false,"rental_uris":{"android":"levelo://app?vid=5253f866-cb6b-42f3-b8b8-6983fc8146b7","ios":"levelo://app?vid=5253f866-cb6b-42f3-b8b8-6983fc8146b7"},"vehicle_type_id":"4","last_reported":1733145649,"current_range_meters":27600,"station_id":"ce4bhah2rcd13ifvqei0","pricing_plan_id":"cebpf4jnsgd1na2vs0mg"},{"bike_id":"db1f621b-3e70-47a2-9f40-e7c88c14cc8d","system_id":"levelo_inurba_marseille","lat":43.32364,"lon":5.3676,"is_reserved":false,"is_disabled":false,"rental_uris":{"android":"levelo://app?vid=db1f621b-3e70-47a2-9f40-e7c88c14cc8d","ios":"levelo://app?vid=db1f621b-3e70-47a2-9f40-e7c88c14cc8d"},"vehicle_type_id":"4","last_reported":1733145649,"current_range_meters":28800,"station_id":"ce4bhsh2rcd13ifvqi2g","pricing_plan_id":"cebpf4jnsgd1na2vs0mg"},{"bike_id":"eb4cef70-700b-438f-b2dd-e2fcfd704608","system_id":"levelo_inurba_marseille","lat":43.30944,"lon":5.39045,"is_reserved":false,"is_disabled":true,"rental_uris":{"android":"levelo://app?vid=eb4cef70-700b-438f-b2dd-e2fcfd704608","ios":"levelo://app?vid=eb4cef70-700b-438f-b2dd-e2fcfd704608"},"vehicle_type_id":"4","last_reported":1733145649,"current_range_meters":0,"station_id":"ce4bgup2rcd13ifvqco0","pricing_plan_id":"cebpf4jnsgd1na2vs0mg"},{"bike_id":"9e549ef1-9609-40ee-9025-9fdbd26f4af7","system_id":"levelo_inurba_marseille","lat":43.30308,"lon":5.36904,"is_reserved":false,"is_disabled":false,"rental_uris":{"android":"levelo://app?vid=9e549ef1-9609-40ee-9025-9fdbd26f4af7","ios":"levelo://app?vid=9e549ef1-9609-40ee-9025-9fdbd26f4af7"},"vehicle_type_id":"4","last_reported":1733145649,"current_range_meters":28000,"station_id":"ce4bgqh2rcd13ifvqc5g","pricing_plan_id":"cebpf4jnsgd1na2vs0mg"},{"bike_id":"4213c837-d727-413b-ba3b-8731e753917c","system_id":"levelo_inurba_marseille","lat":43.28147,"lon":5.42636,"is_reserved":false,"is_disabled":false,"rental_uris":{"android":"levelo://app?vid=4213c837-d727-413b-ba3b-8731e753917c","ios":"levelo://app?vid=4213c837-d727-413b-ba3b-8731e753917c"},"vehicle_type_id":"4","last_reported":1733145649,"current_range_meters":34800,"station_id":"ce4bhnh2rcd13ifvqgug","pricing_plan_id":"cebpf4jnsgd1na2vs0mg"},{"bike_id":"bec5f9de-d63e-4efc-8725-04e0327e24fa","system_id":"levelo_inurba_marseille","lat":43.27374,"lon":5.36255,"is_reserved":false,"is_disabled":true,"rental_uris":{"android":"levelo://app?vid=bec5f9de-d63e-4efc-8725-04e0327e24fa","ios":"levelo://app?vid=bec5f9de-d63e-4efc-8725-04e0327e24fa"},"vehicle_type_id":"4","last_reported":1733145649,"current_range_meters":0,"station_id":"ce4bhbh2rcd13ifvqeo0","pricing_plan_id":"cebpf4jnsgd1na2vs0mg"},{"bike_id":"25dd2a60-280f-4b55-9588-353347a1acca","system_id":"levelo_inurba_marseille","lat":43.24082,"lon":5.3775,"is_reserved":false,"is_disabled":false,"rental_uris":{"android":"levelo://app?vid=25dd2a60-280f-4b55-9588-353347a1acca","ios":"levelo://app?vid=25dd2a60-280f-4b55-9588-353347a1acca"},"vehicle_type_id":"4","last_reported":1733145649,"current_range_meters":38800,"station_id":"ce4bhnp2rcd13ifvqgvg","pricing_plan_id":"cebpf4jnsgd1na2vs0mg"},{"bike_id":"ca3e12a3-558f-4632-9bc9-97c14c4dfcae","system_id":"levelo_inurba_marseille","lat":43.30142,"lon":5.37408,"is_reserved":false,"is_disabled":false,"rental_uris":{"android":"levelo://app?vid=ca3e12a3-558f-4632-9bc9-97c14c4dfcae","ios":"levelo://app?vid=ca3e12a3-558f-4632-9bc9-97c14c4dfcae"},"vehicle_type_id":"4","last_reported":1733145649,"current_range_meters":38800,"station_id":"ce4bgs92rcd13ifvqcc0","pricing_plan_id":"cebpf4jnsgd1na2vs0mg"},{"bike_id":"7bcad77e-e8f4-454e-a857-c1075df436fa","system_id":"levelo_inurba_marseille","lat":43.2893,"lon":5.36395,"is_reserved":false,"is_disabled":false,"rental_uris":{"android":"levelo://app?vid=7bcad77e-e8f4-454e-a857-c1075df436fa","ios":"levelo://app?vid=7bcad77e-e8f4-454e-a857-c1075df436fa"},"vehicle_type_id":"4","last_reported":1733145649,"current_range_meters":24400,"station_id":"ce4bhc92rcd13ifvqetg","pricing_plan_id":"cebpf4jnsgd1na2vs0mg"},{"bike_id":"95bdd4cf-433c-4a42-9a6a-6031b7747278","system_id":"levelo_inurba_marseille","lat":43.30792,"lon":5.3816,"is_reserved":false,"is_disabled":false,"rental_uris":{"android":"levelo://app?vid=95bdd4cf-433c-4a42-9a6a-6031b7747278","ios":"levelo://app?vid=95bdd4cf-433c-4a42-9a6a-6031b7747278"},"vehicle_type_id":"4","last_reported":1733145649,"current_range_meters":24400,"station_id":"ce4bgt12rcd13ifvqce0","pricing_plan_id":"cebpf4jnsgd1na2vs0mg"},{"bike_id":"f10e3904-7533-4a4f-a392-3ce2fa743ada","system_id":"levelo_inurba_marseille","lat":43.23152,"lon":5.43723,"is_reserved":false,"is_disabled":false,"rental_uris":{"android":"levelo://app?vid=f10e3904-7533-4a4f-a392-3ce2fa743ada","ios":"levelo://app?vid=f10e3904-7533-4a4f-a392-3ce2fa743ada"},"vehicle_type_id":"4","last_reported":1733145649,"current_range_meters":23200,"station_id":"ce4bhmp2rcd13ifvqgog","pricing_plan_id":"cebpf4jnsgd1na2vs0mg"},{"bike_id":"42dff1c4-6053-46d6-ab14-2b44877e8b55","system_id":"levelo_inurba_marseille","lat":43.28443,"lon":5.3919,"is_reserved":false,"is_disabled":true,"rental_uris":{"android":"levelo://app?vid=42dff1c4-6053-46d6-ab14-2b44877e8b55","ios":"levelo://app?vid=42dff1c4-6053-46d6-ab14-2b44877e8b55"},"vehicle_type_id":"4","last_reported":1733145649,"current_range_meters":32400,"station_id":"ce4bhoh2rcd13ifvqh5g","pricing_plan_id":"cebpf4jnsgd1na2vs0mg"},{"bike_id":"5d1dbb4a-c994-4490-b4b1-2aad0dbad47d","system_id":"levelo_inurba_marseille","lat":43.27491,"lon":5.42462,"is_reserved":false,"is_disabled":false,"rental_uris":{"android":"levelo://app?vid=5d1dbb4a-c994-4490-b4b1-2aad0dbad47d","ios":"levelo://app?vid=5d1dbb4a-c994-4490-b4b1-2aad0dbad47d"},"vehicle_type_id":"4","last_reported":1733145649,"current_range_meters":38800,"station_id":"ce4bhn92rcd13ifvqgrg","pricing_plan_id":"cebpf4jnsgd1na2vs0mg"},{"bike_id":"27d13c7a-6338-48dc-81dd-618b3e4ff60b","system_id":"levelo_inurba_marseille","lat":43.29055,"lon":5.38339,"is_reserved":false,"is_disabled":true,"rental_uris":{"android":"levelo://app?vid=27d13c7a-6338-48dc-81dd-618b3e4ff60b","ios":"levelo://app?vid=27d13c7a-6338-48dc-81dd-618b3e4ff60b"},"vehicle_type_id":"4","last_reported":1733145649,"current_range_meters":29600,"station_id":"","pricing_plan_id":"cebpf4jnsgd1na2vs0mg"},{"bike_id":"c320e1eb-dbd0-4df2-8282-00e392a1bad3","system_id":"levelo_inurba_marseille","lat":43.30953,"lon":5.39056,"is_reserved":false,"is_disabled":false,"rental_uris":{"android":"levelo://app?vid=c320e1eb-dbd0-4df2-8282-00e392a1bad3","ios":"levelo://app?vid=c320e1eb-dbd0-4df2-8282-00e392a1bad3"},"vehicle_type_id":"4","last_reported":1733145649,"current_range_meters":18000,"station_id":"ce4bgup2rcd13ifvqco0","pricing_plan_id":"cebpf4jnsgd1na2vs0mg"},{"bike_id":"49e5ad66-0c25-41ce-a0f0-4dcbbaf3d70a","system_id":"levelo_inurba_marseille","lat":43.30188,"lon":5.36609,"is_reserved":false,"is_disabled":false,"rental_uris":{"android":"levelo://app?vid=49e5ad66-0c25-41ce-a0f0-4dcbbaf3d70a","ios":"levelo://app?vid=49e5ad66-0c25-41ce-a0f0-4dcbbaf3d70a"},"vehicle_type_id":"4","last_reported":1733145649,"current_range_meters":38000,"station_id":"ce4bgrh2rcd13ifvqc8g","pricing_plan_id":"cebpf4jnsgd1na2vs0mg"},{"bike_id":"44303251-5adb-4093-b7e1-2d3403366d15","system_id":"levelo_inurba_marseille","lat":43.26791,"lon":5.39412,"is_reserved":false,"is_disabled":false,"rental_uris":{"android":"levelo://app?vid=44303251-5adb-4093-b7e1-2d3403366d15","ios":"levelo://app?vid=44303251-5adb-4093-b7e1-2d3403366d15"},"vehicle_type_id":"4","last_reported":1733145649,"current_range_meters":38000,"station_id":"ce4bhh12rcd13ifvqfg0","pricing_plan_id":"cebpf4jnsgd1na2vs0mg"},{"bike_id":"c4b0c435-7b1f-44c9-8c19-c825260a77d8","system_id":"levelo_inurba_marseille","lat":43.27495,"lon":5.4245,"is_reserved":false,"is_disabled":false,"rental_uris":{"android":"levelo://app?vid=c4b0c435-7b1f-44c9-8c19-c825260a77d8","ios":"levelo://app?vid=c4b0c435-7b1f-44c9-8c19-c825260a77d8"},"vehicle_type_id":"4","last_reported":1733145649,"current_range_meters":38000,"station_id":"ce4bhn92rcd13ifvqgrg","pricing_plan_id":"cebpf4jnsgd1na2vs0mg"},{"bike_id":"1baf8daa-f609-4ff2-be46-813262c7c0e5","system_id":"levelo_inurba_marseille","lat":43.27897,"lon":5.38,"is_reserved":false,"is_disabled":false,"rental_uris":{"android":"levelo://app?vid=1baf8daa-f609-4ff2-be46-813262c7c0e5","ios":"levelo://app?vid=1baf8daa-f609-4ff2-be46-813262c7c0e5"},"vehicle_type_id":"4","last_reported":1733145649,"current_range_meters":38800,"station_id":"ce4bhf92rcd13ifvqf50","pricing_plan_id":"cebpf4jnsgd1na2vs0mg"},{"bike_id":"df6606c9-131c-43a0-b6b8-e36db6a66532","system_id":"levelo_inurba_marseille","lat":43.29846,"lon":5.36278,"is_reserved":false,"is_disabled":false,"rental_uris":{"android":"levelo://app?vid=df6606c9-131c-43a0-b6b8-e36db6a66532","ios":"levelo://app?vid=df6606c9-131c-43a0-b6b8-e36db6a66532"},"vehicle_type_id":"4","last_reported":1733145649,"current_range_meters":37600,"station_id":"ce4bgpp2rcd13ifvqc3g","pricing_plan_id":"cebpf4jnsgd1na2vs0mg"},{"bike_id":"6ee9b804-219d-4821-9052-991b7df2bed2","system_id":"levelo_inurba_marseille","lat":43.23161,"lon":5.43698,"is_reserved":false,"is_disabled":false,"rental_uris":{"android":"levelo://app?vid=6ee9b804-219d-4821-9052-991b7df2bed2","ios":"levelo://app?vid=6ee9b804-219d-4821-9052-991b7df2bed2"},"vehicle_type_id":"4","last_reported":1733145649,"current_range_meters":37600,"station_id":"ce4bhmp2rcd13ifvqgog","pricing_plan_id":"cebpf4jnsgd1na2vs0mg"},{"bike_id":"a6c5f3e0-af97-47ea-bf62-32fd6aef765e","system_id":"levelo_inurba_marseille","lat":43.3148,"lon":5.37296,"is_reserved":false,"is_disabled":false,"rental_uris":{"android":"levelo://app?vid=a6c5f3e0-af97-47ea-bf62-32fd6aef765e","ios":"levelo://app?vid=a6c5f3e0-af97-47ea-bf62-32fd6aef765e"},"vehicle_type_id":"4","last_reported":1733145649,"current_range_meters":36000,"station_id":"ce4bgt12rcd13ifvqcd0","pricing_plan_id":"cebpf4jnsgd1na2vs0mg"},{"bike_id":"441c09c7-12b7-475f-8f2f-939b3fee058b","system_id":"levelo_inurba_marseille","lat":43.32483,"lon":5.36563,"is_reserved":false,"is_disabled":false,"rental_uris":{"android":"levelo://app?vid=441c09c7-12b7-475f-8f2f-939b3fee058b","ios":"levelo://app?vid=441c09c7-12b7-475f-8f2f-939b3fee058b"},"vehicle_type_id":"4","last_reported":1733145649,"current_range_meters":37600,"station_id":"ce4bhs12rcd13ifvqhvg","pricing_plan_id":"cebpf4jnsgd1na2vs0mg"},{"bike_id":"a0d249a5-7f3f-4ed0-97b6-f9ff00223952","system_id":"levelo_inurba_marseille","lat":43.32036,"lon":5.4158,"is_reserved":false,"is_disabled":false,"rental_uris":{"android":"levelo://app?vid=a0d249a5-7f3f-4ed0-97b6-f9ff00223952","ios":"levelo://app?vid=a0d249a5-7f3f-4ed0-97b6-f9ff00223952"},"vehicle_type_id":"4","last_reported":1733145649,"current_range_meters":33600,"station_id":"ce4bhq92rcd13ifvqhkg","pricing_plan_id":"cebpf4jnsgd1na2vs0mg"},{"bike_id":"26b23f29-de16-4130-bf58-0e873f7e6c76","system_id":"levelo_inurba_marseille","lat":43.32106,"lon":5.36768,"is_reserved":false,"is_disabled":false,"rental_uris":{"android":"levelo://app?vid=26b23f29-de16-4130-bf58-0e873f7e6c76","ios":"levelo://app?vid=26b23f29-de16-4130-bf58-0e873f7e6c76"},"vehicle_type_id":"4","last_reported":1733145649,"current_range_meters":17200,"station_id":"ce4bhrh2rcd13ifvqhug","pricing_plan_id":"cebpf4jnsgd1na2vs0mg"},{"bike_id":"e0161261-fd33-45e3-8038-51d77778a6b0","system_id":"levelo_inurba_marseille","lat":43.30652,"lon":5.40102,"is_reserved":false,"is_disabled":true,"rental_uris":{"android":"levelo://app?vid=e0161261-fd33-45e3-8038-51d77778a6b0","ios":"levelo://app?vid=e0161261-fd33-45e3-8038-51d77778a6b0"},"vehicle_type_id":"4","last_reported":1733145649,"current_range_meters":38800,"station_id":"ce4bh112rcd13ifvqda0","pricing_plan_id":"cebpf4jnsgd1na2vs0mg"},{"bike_id":"d1722dbd-593f-4bde-9488-979d16c6540f","system_id":"levelo_inurba_marseille","lat":43.26566,"lon":5.39004,"is_reserved":false,"is_disabled":false,"rental_uris":{"android":"levelo://app?vid=d1722dbd-593f-4bde-9488-979d16c6540f","ios":"levelo://app?vid=d1722dbd-593f-4bde-9488-979d16c6540f"},"vehicle_type_id":"4","last_reported":1733145649,"current_range_meters":28400,"station_id":"ce4bhe12rcd13ifvqf30","pricing_plan_id":"cebpf4jnsgd1na2vs0mg"},{"bike_id":"4d38a818-9531-4d9e-a2a0-b9cd0b136842","system_id":"levelo_inurba_marseille","lat":43.26485,"lon":5.39145,"is_reserved":false,"is_disabled":true,"rental_uris":{"android":"levelo://app?vid=4d38a818-9531-4d9e-a2a0-b9cd0b136842","ios":"levelo://app?vid=4d38a818-9531-4d9e-a2a0-b9cd0b136842"},"vehicle_type_id":"4","last_reported":1733145649,"current_range_meters":0,"station_id":"","pricing_plan_id":"cebpf4jnsgd1na2vs0mg"},{"bike_id":"d74f6380-9290-47e1-a199-fbd3fdcddc74","system_id":"levelo_inurba_marseille","lat":43.30543,"lon":5.36707,"is_reserved":false,"is_disabled":true,"rental_uris":{"android":"levelo://app?vid=d74f6380-9290-47e1-a199-fbd3fdcddc74","ios":"levelo://app?vid=d74f6380-9290-47e1-a199-fbd3fdcddc74"},"vehicle_type_id":"4","last_reported":1733145649,"current_range_meters":36800,"station_id":"ce4bgrp2rcd13ifvqc9g","pricing_plan_id":"cebpf4jnsgd1na2vs0mg"},{"bike_id":"a794634e-f858-4eb8-a1c0-a675bb554c5c","system_id":"levelo_inurba_marseille","lat":43.336006,"lon":5.410184,"is_reserved":false,"is_disabled":false,"rental_uris":{"android":"levelo://app?vid=a794634e-f858-4eb8-a1c0-a675bb554c5c","ios":"levelo://app?vid=a794634e-f858-4eb8-a1c0-a675bb554c5c"},"vehicle_type_id":"4","last_reported":1733145649,"current_range_meters":37600,"station_id":"ce4bhqh2rcd13ifvqhmg","pricing_plan_id":"cebpf4jnsgd1na2vs0mg"},{"bike_id":"0925ff43-bab0-49be-8348-5535795fc1c0","system_id":"levelo_inurba_marseille","lat":43.305414,"lon":5.384309,"is_reserved":false,"is_disabled":true,"rental_uris":{"android":"levelo://app?vid=0925ff43-bab0-49be-8348-5535795fc1c0","ios":"levelo://app?vid=0925ff43-bab0-49be-8348-5535795fc1c0"},"vehicle_type_id":"4","last_reported":1733145649,"current_range_meters":8400,"station_id":"ce4bgg92rcd13ifvqb30","pricing_plan_id":"cebpf4jnsgd1na2vs0mg"},{"bike_id":"1d2fa405-a962-4317-8e6b-e19693f9da72","system_id":"levelo_inurba_marseille","lat":43.29582,"lon":5.37747,"is_reserved":false,"is_disabled":false,"rental_uris":{"android":"levelo://app?vid=1d2fa405-a962-4317-8e6b-e19693f9da72","ios":"levelo://app?vid=1d2fa405-a962-4317-8e6b-e19693f9da72"},"vehicle_type_id":"4","last_reported":1733145649,"current_range_meters":6800,"station_id":"","pricing_plan_id":"cebpf4jnsgd1na2vs0mg"},{"bike_id":"df175e35-a109-455b-a549-3a0af8fc4135","system_id":"levelo_inurba_marseille","lat":43.26687,"lon":5.38274,"is_reserved":false,"is_disabled":true,"rental_uris":{"android":"levelo://app?vid=df175e35-a109-455b-a549-3a0af8fc4135","ios":"levelo://app?vid=df175e35-a109-455b-a549-3a0af8fc4135"},"vehicle_type_id":"4","last_reported":1733145649,"current_range_meters":12400,"station_id":"ce4bhg92rcd13ifvqf90","pricing_plan_id":"cebpf4jnsgd1na2vs0mg"},{"bike_id":"3917b861-9390-4c13-98a5-8c8f7ba256da","system_id":"levelo_inurba_marseille","lat":43.30589,"lon":5.37234,"is_reserved":false,"is_disabled":false,"rental_uris":{"android":"levelo://app?vid=3917b861-9390-4c13-98a5-8c8f7ba256da","ios":"levelo://app?vid=3917b861-9390-4c13-98a5-8c8f7ba256da"},"vehicle_type_id":"4","last_reported":1733145649,"current_range_meters":38400,"station_id":"ce4bgqh2rcd13ifvqc4g","pricing_plan_id":"cebpf4jnsgd1na2vs0mg"},{"bike_id":"21a6c56b-70d5-46d3-8e36-2533b8bc3c87","system_id":"levelo_inurba_marseille","lat":43.28348,"lon":5.38107,"is_reserved":false,"is_disabled":false,"rental_uris":{"android":"levelo://app?vid=21a6c56b-70d5-46d3-8e36-2533b8bc3c87","ios":"levelo://app?vid=21a6c56b-70d5-46d3-8e36-2533b8bc3c87"},"vehicle_type_id":"4","last_reported":1733145649,"current_range_meters":34800,"station_id":"ce4bh412rcd13ifvqdr0","pricing_plan_id":"cebpf4jnsgd1na2vs0mg"},{"bike_id":"bcbec8b6-67bd-44b6-8c85-2a42307d4a1d","system_id":"levelo_inurba_marseille","lat":43.30146,"lon":5.3742,"is_reserved":false,"is_disabled":false,"rental_uris":{"android":"levelo://app?vid=bcbec8b6-67bd-44b6-8c85-2a42307d4a1d","ios":"levelo://app?vid=bcbec8b6-67bd-44b6-8c85-2a42307d4a1d"},"vehicle_type_id":"4","last_reported":1733145649,"current_range_meters":18800,"station_id":"ce4bgs92rcd13ifvqcc0","pricing_plan_id":"cebpf4jnsgd1na2vs0mg"},{"bike_id":"3e2f6801-bbc8-48d7-97a1-1f9357316d28","system_id":"levelo_inurba_marseille","lat":43.30539,"lon":5.3652,"is_reserved":false,"is_disabled":false,"rental_uris":{"android":"levelo://app?vid=3e2f6801-bbc8-48d7-97a1-1f9357316d28","ios":"levelo://app?vid=3e2f6801-bbc8-48d7-97a1-1f9357316d28"},"vehicle_type_id":"4","last_reported":1733145649,"current_range_meters":25600,"station_id":"ce4bgs12rcd13ifvqcag","pricing_plan_id":"cebpf4jnsgd1na2vs0mg"},{"bike_id":"afcde20d-9f60-4e7a-b597-7d7c8c8241a8","system_id":"levelo_inurba_marseille","lat":43.27314,"lon":5.39082,"is_reserved":false,"is_disabled":false,"rental_uris":{"android":"levelo://app?vid=afcde20d-9f60-4e7a-b597-7d7c8c8241a8","ios":"levelo://app?vid=afcde20d-9f60-4e7a-b597-7d7c8c8241a8"},"vehicle_type_id":"4","last_reported":1733145649,"current_range_meters":36800,"station_id":"ce4bhgp2rcd13ifvqfe0","pricing_plan_id":"cebpf4jnsgd1na2vs0mg"},{"bike_id":"ada49683-08d4-40ee-be26-3b47cec8d021","system_id":"levelo_inurba_marseille","lat":43.27919,"lon":5.39581,"is_reserved":false,"is_disabled":true,"rental_uris":{"android":"levelo://app?vid=ada49683-08d4-40ee-be26-3b47cec8d021","ios":"levelo://app?vid=ada49683-08d4-40ee-be26-3b47cec8d021"},"vehicle_type_id":"4","last_reported":1733145649,"current_range_meters":2000,"station_id":"ce4bhf92rcd13ifvqf40","pricing_plan_id":"cebpf4jnsgd1na2vs0mg"},{"bike_id":"bd6cb841-3383-49a7-a557-84233ee1e82d","system_id":"levelo_inurba_marseille","lat":43.29225,"lon":5.36071,"is_reserved":false,"is_disabled":false,"rental_uris":{"android":"levelo://app?vid=bd6cb841-3383-49a7-a557-84233ee1e82d","ios":"levelo://app?vid=bd6cb841-3383-49a7-a557-84233ee1e82d"},"vehicle_type_id":"4","last_reported":1733145649,"current_range_meters":36400,"station_id":"ce4bhbh2rcd13ifvqeqg","pricing_plan_id":"cebpf4jnsgd1na2vs0mg"},{"bike_id":"e0af28c8-a863-4484-ab80-caa4b3e90a58","system_id":"levelo_inurba_marseille","lat":43.30548,"lon":5.36714,"is_reserved":false,"is_disabled":false,"rental_uris":{"android":"levelo://app?vid=e0af28c8-a863-4484-ab80-caa4b3e90a58","ios":"levelo://app?vid=e0af28c8-a863-4484-ab80-caa4b3e90a58"},"vehicle_type_id":"4","last_reported":1733145649,"current_range_meters":16400,"station_id":"ce4bgrp2rcd13ifvqc9g","pricing_plan_id":"cebpf4jnsgd1na2vs0mg"},{"bike_id":"9b8b7b4a-1669-4fba-825e-049223c8dda3","system_id":"levelo_inurba_marseille","lat":43.29304,"lon":5.37461,"is_reserved":false,"is_disabled":false,"rental_uris":{"android":"levelo://app?vid=9b8b7b4a-1669-4fba-825e-049223c8dda3","ios":"levelo://app?vid=9b8b7b4a-1669-4fba-825e-049223c8dda3"},"vehicle_type_id":"4","last_reported":1733145649,"current_range_meters":28000,"station_id":"ce4bgi12rcd13ifvqb70","pricing_plan_id":"cebpf4jnsgd1na2vs0mg"},{"bike_id":"b2c10e20-bf73-43ce-8135-893ea7138496","system_id":"levelo_inurba_marseille","lat":43.30424,"lon":5.39743,"is_reserved":false,"is_disabled":false,"rental_uris":{"android":"levelo://app?vid=b2c10e20-bf73-43ce-8135-893ea7138496","ios":"levelo://app?vid=b2c10e20-bf73-43ce-8135-893ea7138496"},"vehicle_type_id":"4","last_reported":1733145649,"current_range_meters":20000,"station_id":"ce4bh092rcd13ifvqd20","pricing_plan_id":"cebpf4jnsgd1na2vs0mg"},{"bike_id":"892ab3c1-9d5b-4e30-b3f0-f246a67e57b6","system_id":"levelo_inurba_marseille","lat":43.28289,"lon":5.35063,"is_reserved":false,"is_disabled":false,"rental_uris":{"android":"levelo://app?vid=892ab3c1-9d5b-4e30-b3f0-f246a67e57b6","ios":"levelo://app?vid=892ab3c1-9d5b-4e30-b3f0-f246a67e57b6"},"vehicle_type_id":"4","last_reported":1733145649,"current_range_meters":24800,"station_id":"ce4bhbp2rcd13ifvqerg","pricing_plan_id":"cebpf4jnsgd1na2vs0mg"},{"bike_id":"741e87c8-37e0-4458-b772-9d2a50752ac6","system_id":"levelo_inurba_marseille","lat":43.305472,"lon":5.367007,"is_reserved":false,"is_disabled":false,"rental_uris":{"android":"levelo://app?vid=741e87c8-37e0-4458-b772-9d2a50752ac6","ios":"levelo://app?vid=741e87c8-37e0-4458-b772-9d2a50752ac6"},"vehicle_type_id":"4","last_reported":1733145649,"current_range_meters":39200,"station_id":"ce4bgrp2rcd13ifvqc9g","pricing_plan_id":"cebpf4jnsgd1na2vs0mg"},{"bike_id":"9b945d61-0b56-4248-8983-d00bf213007a","system_id":"levelo_inurba_marseille","lat":43.23198,"lon":5.3555,"is_reserved":false,"is_disabled":false,"rental_uris":{"android":"levelo://app?vid=9b945d61-0b56-4248-8983-d00bf213007a","ios":"levelo://app?vid=9b945d61-0b56-4248-8983-d00bf213007a"},"vehicle_type_id":"4","last_reported":1733145649,"current_range_meters":27600,"station_id":"ce4bhu92rcd13ifvqi70","pricing_plan_id":"cebpf4jnsgd1na2vs0mg"},{"bike_id":"2ca2c672-d86a-4f8c-bf98-0176e87f6243","system_id":"levelo_inurba_marseille","lat":43.27182,"lon":5.40996,"is_reserved":false,"is_disabled":false,"rental_uris":{"android":"levelo://app?vid=2ca2c672-d86a-4f8c-bf98-0176e87f6243","ios":"levelo://app?vid=2ca2c672-d86a-4f8c-bf98-0176e87f6243"},"vehicle_type_id":"4","last_reported":1733145649,"current_range_meters":28400,"station_id":"ce4bhl12rcd13ifvqgf0","pricing_plan_id":"cebpf4jnsgd1na2vs0mg"},{"bike_id":"c109599f-460a-4c04-9b06-057f16909e88","system_id":"levelo_inurba_marseille","lat":43.295723,"lon":5.399681,"is_reserved":false,"is_disabled":true,"rental_uris":{"android":"levelo://app?vid=c109599f-460a-4c04-9b06-057f16909e88","ios":"levelo://app?vid=c109599f-460a-4c04-9b06-057f16909e88"},"vehicle_type_id":"4","last_reported":1733145649,"current_range_meters":20000,"station_id":"ce4bh312rcd13ifvqdj0","pricing_plan_id":"cebpf4jnsgd1na2vs0mg"},{"bike_id":"d8d6cb5e-eedd-4683-935e-c88248734e3e","system_id":"levelo_inurba_marseille","lat":43.30541,"lon":5.36544,"is_reserved":false,"is_disabled":false,"rental_uris":{"android":"levelo://app?vid=d8d6cb5e-eedd-4683-935e-c88248734e3e","ios":"levelo://app?vid=d8d6cb5e-eedd-4683-935e-c88248734e3e"},"vehicle_type_id":"4","last_reported":1733145649,"current_range_meters":38800,"station_id":"ce4bgs12rcd13ifvqcag","pricing_plan_id":"cebpf4jnsgd1na2vs0mg"},{"bike_id":"df438715-331e-44f1-8429-89205268d527","system_id":"levelo_inurba_marseille","lat":43.29932,"lon":5.36549,"is_reserved":false,"is_disabled":false,"rental_uris":{"android":"levelo://app?vid=df438715-331e-44f1-8429-89205268d527","ios":"levelo://app?vid=df438715-331e-44f1-8429-89205268d527"},"vehicle_type_id":"4","last_reported":1733145649,"current_range_meters":18000,"station_id":"ce4bgm92rcd13ifvqbr0","pricing_plan_id":"cebpf4jnsgd1na2vs0mg"},{"bike_id":"cbc873b5-9408-42f9-aca1-728e71c0ec86","system_id":"levelo_inurba_marseille","lat":43.25503,"lon":5.37653,"is_reserved":false,"is_disabled":false,"rental_uris":{"android":"levelo://app?vid=cbc873b5-9408-42f9-aca1-728e71c0ec86","ios":"levelo://app?vid=cbc873b5-9408-42f9-aca1-728e71c0ec86"},"vehicle_type_id":"4","last_reported":1733145649,"current_range_meters":22000,"station_id":"ce4bhh12rcd13ifvqff0","pricing_plan_id":"cebpf4jnsgd1na2vs0mg"},{"bike_id":"9dd1fc98-a89e-437a-b707-6eb8b3c899e8","system_id":"levelo_inurba_marseille","lat":43.29044,"lon":5.35913,"is_reserved":false,"is_disabled":true,"rental_uris":{"android":"levelo://app?vid=9dd1fc98-a89e-437a-b707-6eb8b3c899e8","ios":"levelo://app?vid=9dd1fc98-a89e-437a-b707-6eb8b3c899e8"},"vehicle_type_id":"4","last_reported":1733145649,"current_range_meters":0,"station_id":"","pricing_plan_id":"cebpf4jnsgd1na2vs0mg"},{"bike_id":"907688e7-63b8-4a9c-bc88-b5b0d6c29681","system_id":"levelo_inurba_marseille","lat":43.26932,"lon":5.38917,"is_reserved":false,"is_disabled":false,"rental_uris":{"android":"levelo://app?vid=907688e7-63b8-4a9c-bc88-b5b0d6c29681","ios":"levelo://app?vid=907688e7-63b8-4a9c-bc88-b5b0d6c29681"},"vehicle_type_id":"4","last_reported":1733145649,"current_range_meters":38400,"station_id":"ce4bhhh2rcd13ifvqfl0","pricing_plan_id":"cebpf4jnsgd1na2vs0mg"},{"bike_id":"b498ce6d-6162-4b6a-9de4-d778ae0310f6","system_id":"levelo_inurba_marseille","lat":43.30599,"lon":5.39355,"is_reserved":false,"is_disabled":false,"rental_uris":{"android":"levelo://app?vid=b498ce6d-6162-4b6a-9de4-d778ae0310f6","ios":"levelo://app?vid=b498ce6d-6162-4b6a-9de4-d778ae0310f6"},"vehicle_type_id":"4","last_reported":1733145649,"current_range_meters":37600,"station_id":"ce4bh0p2rcd13ifvqd80","pricing_plan_id":"cebpf4jnsgd1na2vs0mg"},{"bike_id":"fb3ca736-6ecb-47b7-90e2-663d13bb67d1","system_id":"levelo_inurba_marseille","lat":43.31349,"lon":5.36738,"is_reserved":false,"is_disabled":false,"rental_uris":{"android":"levelo://app?vid=fb3ca736-6ecb-47b7-90e2-663d13bb67d1","ios":"levelo://app?vid=fb3ca736-6ecb-47b7-90e2-663d13bb67d1"},"vehicle_type_id":"4","last_reported":1733145649,"current_range_meters":22400,"station_id":"ce4bgr92rcd13ifvqc6g","pricing_plan_id":"cebpf4jnsgd1na2vs0mg"},{"bike_id":"9fbfaf83-1e34-401b-8124-027cf742539f","system_id":"levelo_inurba_marseille","lat":43.27967,"lon":5.38742,"is_reserved":false,"is_disabled":false,"rental_uris":{"android":"levelo://app?vid=9fbfaf83-1e34-401b-8124-027cf742539f","ios":"levelo://app?vid=9fbfaf83-1e34-401b-8124-027cf742539f"},"vehicle_type_id":"4","last_reported":1733145649,"current_range_meters":28000,"station_id":"ce4bhg12rcd13ifvqf80","pricing_plan_id":"cebpf4jnsgd1na2vs0mg"},{"bike_id":"f5078b8f-458c-46e5-9040-98e7aeec84ee","system_id":"levelo_inurba_marseille","lat":43.29826,"lon":5.36278,"is_reserved":false,"is_disabled":false,"rental_uris":{"android":"levelo://app?vid=f5078b8f-458c-46e5-9040-98e7aeec84ee","ios":"levelo://app?vid=f5078b8f-458c-46e5-9040-98e7aeec84ee"},"vehicle_type_id":"4","last_reported":1733145649,"current_range_meters":38800,"station_id":"ce4bgpp2rcd13ifvqc3g","pricing_plan_id":"cebpf4jnsgd1na2vs0mg"},{"bike_id":"1b4091b4-9da5-4e08-a623-15bd0eb83e75","system_id":"levelo_inurba_marseille","lat":43.29301,"lon":5.37178,"is_reserved":false,"is_disabled":true,"rental_uris":{"android":"levelo://app?vid=1b4091b4-9da5-4e08-a623-15bd0eb83e75","ios":"levelo://app?vid=1b4091b4-9da5-4e08-a623-15bd0eb83e75"},"vehicle_type_id":"4","last_reported":1733145649,"current_range_meters":0,"station_id":"ce4bgh92rcd13ifvqb40","pricing_plan_id":"cebpf4jnsgd1na2vs0mg"},{"bike_id":"69db5fd1-23d3-4a4e-9045-e0c893257195","system_id":"levelo_inurba_marseille","lat":43.29223,"lon":5.36071,"is_reserved":false,"is_disabled":false,"rental_uris":{"android":"levelo://app?vid=69db5fd1-23d3-4a4e-9045-e0c893257195","ios":"levelo://app?vid=69db5fd1-23d3-4a4e-9045-e0c893257195"},"vehicle_type_id":"4","last_reported":1733145649,"current_range_meters":17200,"station_id":"ce4bhbh2rcd13ifvqeqg","pricing_plan_id":"cebpf4jnsgd1na2vs0mg"},{"bike_id":"d943d960-7d9b-4964-9228-20089cd21664","system_id":"levelo_inurba_marseille","lat":43.32909,"lon":5.36448,"is_reserved":false,"is_disabled":false,"rental_uris":{"android":"levelo://app?vid=d943d960-7d9b-4964-9228-20089cd21664","ios":"levelo://app?vid=d943d960-7d9b-4964-9228-20089cd21664"},"vehicle_type_id":"4","last_reported":1733145649,"current_range_meters":9600,"station_id":"","pricing_plan_id":"cebpf4jnsgd1na2vs0mg"},{"bike_id":"1cc29d17-fc47-4d5b-bfda-7c4f191a8a02","system_id":"levelo_inurba_marseille","lat":43.25497,"lon":5.37649,"is_reserved":false,"is_disabled":false,"rental_uris":{"android":"levelo://app?vid=1cc29d17-fc47-4d5b-bfda-7c4f191a8a02","ios":"levelo://app?vid=1cc29d17-fc47-4d5b-bfda-7c4f191a8a02"},"vehicle_type_id":"4","last_reported":1733145649,"current_range_meters":16400,"station_id":"ce4bhh12rcd13ifvqff0","pricing_plan_id":"cebpf4jnsgd1na2vs0mg"},{"bike_id":"f4a7889e-9a81-4a63-ad43-59322503c8c1","system_id":"levelo_inurba_marseille","lat":43.32297,"lon":5.38273,"is_reserved":false,"is_disabled":false,"rental_uris":{"android":"levelo://app?vid=f4a7889e-9a81-4a63-ad43-59322503c8c1","ios":"levelo://app?vid=f4a7889e-9a81-4a63-ad43-59322503c8c1"},"vehicle_type_id":"4","last_reported":1733145649,"current_range_meters":39200,"station_id":"ce4bhr12rcd13ifvqhqg","pricing_plan_id":"cebpf4jnsgd1na2vs0mg"},