{"last_updated":1750489749,"ttl":60,"version":"2.2","data":{"bikes":[{"bike_id":"3da29fb8-fc97-44c6-b9ac-31dd456b2fd4","system_id":"levelo_inurba_marseille","lat":43.33771,"lon":5.37424,"is_reserved":false,"is_disabled":true,"rental_uris":{"android":"levelo://app?vid=3da29fb8-fc97-44c6-b9ac-31dd456b2fd4","ios":"levelo://app?vid=3da29fb8-fc97-44c6-b9ac-31dd456b2fd4"},"vehicle_type_id":"4","last_reported":1750489749,"current_range_meters":0,"station_id":"","pricing_plan_id":"cebpf4jnsgd1na2vs0mg"},{"bike_id":"01861ad8-a8d7-4be6-816e-651927c87584","system_id":"levelo_inurba_marseille","lat":43.33751,"lon":5.37456,"is_reserved":false,"is_disabled":true,"rental_uris":{"android":"levelo://app?vid=01861ad8-a8d7-4be6-816e-651927c87584","ios":"levelo://app?vid=01861ad8-a8d7-4be6-816e-651927c87584"},"vehicle_type_id":"4","last_reported":1750489749,"current_range_meters":0,"station_id":"","pricing_plan_id":"cebpf4jnsgd1na2vs0mg"},{"bike_id":"7bcccf35-e344-4f00-9a7f-199c76d3c58d","system_id":"levelo_inurba_marseille","lat":43.29146,"lon":5.4166,"is_reserved":false,"is_disabled":true,"rental_uris":{"android":"levelo://app?vid=7bcccf35-e344-4f00-9a7f-199c76d3c58d","ios":"levelo://app?vid=7bcccf35-e344-4f00-9a7f-199c76d3c58d"},"vehicle_type_id":"4","last_reported":1750489749,"current_range_meters":0,"station_id":"","pricing_plan_id":"cebpf4jnsgd1na2vs0mg"},{"bike_id":"d2bd57c8-6b64-48db-ad24-5398eb3fd9d6","system_id":"levelo_inurba_marseille","lat":43.337444,"lon":5.374475,"is_reserved":false,"is_disabled":true,"rental_uris":{"android":"levelo://app?vid=d2bd57c8-6b64-48db-ad24-5398eb3fd9d6","ios":"levelo://app?vid=d2bd57c8-6b64-48db-ad24-5398eb3fd9d6"},"vehicle_type_id":"4","last_reported":1750489749,"current_range_meters":0,"station_id":"","pricing_plan_id":"cebpf4jnsgd1na2vs0mg"},{"bike_id":"62a493c7-4534-4419-ad43-0582de34a72a","system_id":"levelo_inurba_marseille","lat":43.21366,"lon":5.355183,"is_reserved":false,"is_disabled":true,"rental_uris":{"android":"levelo://app?vid=62a493c7-4534-4419-ad43-0582de34a72a","ios":"levelo://app?vid=62a493c7-4534-4419-ad43-0582de34a72a"},"vehicle_type_id":"4","last_reported":1750489749,"current_range_meters":0,"station_id":"","pricing_plan_id":"cebpf4jnsgd1na2vs0mg"},{"bike_id":"d6609b4f-333b-43c1-9ebe-8726f5e76e88","system_id":"levelo_inurba_marseille","lat":43.337444,"lon":5.374475,"is_reserved":false,"is_disabled":true,"rental_uris":{"android":"levelo://app?vid=d6609b4f-333b-43c1-9ebe-8726f5e76e88","ios":"levelo://app?vid=d6609b4f-333b-43c1-9ebe-8726f5e76e88"},"vehicle_type_id":"4","last_reported":1750489749,"current_range_meters":0,"station_id":"","pricing_plan_id":"cebpf4jnsgd1na2vs0mg"},{"bike_id":"11e13553-c475-421d-a348-bac5f0dccdd0","system_id":"levelo_inurba_marseille","lat":43.27307,"lon":5.39957,"is_reserved":false,"is_disabled":true,"rental_uris":{"android":"levelo://app?vid=11e13553-c475-421d-a348-bac5f0dccdd0","ios":"levelo://app?vid=11e13553-c475-421d-a348-bac5f0dccdd0"},"vehicle_type_id":"4","last_reported":1750489749,"current_range_meters":0,"station_id":"","pricing_plan_id":"cebpf4jnsgd1na2vs0mg"},{"bike_id":"45bbf0a9-fb71-4554-b265-a4213254df71","system_id":"levelo_inurba_marseille","lat":43.291958,"lon":5.357966,"is_reserved":false,"is_disabled":true,"rental_uris":{"android":"levelo://app?vid=45bbf0a9-fb71-4554-b265-a4213254df71","ios":"levelo://app?vid=45bbf0a9-fb71-4554-b265-a4213254df71"},"vehicle_type_id":"4","last_reported":1750489749,"current_range_meters":0,"station_id":"ce4bgip2rcd13ifvqbb0","pricing_plan_id":"cebpf4jnsgd1na2vs0mg"},{"bike_id":"1931f0a6-dae7-4384-962b-1abe31f395a6","system_id":"levelo_inurba_marseille","lat":43.31119,"lon":5.3777,"is_reserved":false,"is_disabled":true,"rental_uris":{"android":"levelo://app?vid=1931f0a6-dae7-4384-962b-1abe31f395a6","ios":"levelo://app?vid=1931f0a6-dae7-4384-962b-1abe31f395a6"},"vehicle_type_id":"4","last_reported":1750489749,"current_range_meters":0,"station_id":"ce4bgt92rcd13ifvqcg0","pricing_plan_id":"cebpf4jnsgd1na2vs0mg"},{"bike_id":"c8d48a3d-d477-4c68-bf18-a427a2e7d1d1","system_id":"levelo_inurba_marseille","lat":43.298663,"lon":5.397343,"is_reserved":false,"is_disabled":true,"rental_uris":{"android":"levelo://app?vid=c8d48a3d-d477-4c68-bf18-a427a2e7d1d1","ios":"levelo://app?vid=c8d48a3d-d477-4c68-bf18-a427a2e7d1d1"},"vehicle_type_id":"4","last_reported":1750489749,"current_range_meters":0,"station_id":"ce4bh0h2rcd13ifvqd50","pricing_plan_id":"cebpf4jnsgd1na2vs0mg"},{"bike_id":"27c3efd2-b87f-410d-b354-97ab3c00d7d7","system_id":"levelo_inurba_marseille","lat":43.29026,"lon":5.38146,"is_reserved":false,"is_disabled":true,"rental_uris":{"android":"levelo://app?vid=27c3efd2-b87f-410d-b354-97ab3c00d7d7","ios":"levelo://app?vid=27c3efd2-b87f-410d-b354-97ab3c00d7d7"},"vehicle_type_id":"4","last_reported":1750489749,"current_range_meters":0,"station_id":"ce4bh4p2rcd13ifvqe1g","pricing_plan_id":"cebpf4jnsgd1na2vs0mg"},{"bike_id":"55f350e3-b7e3-4dd0-ab7a-b7ecf6f9626f","system_id":"levelo_inurba_marseille","lat":43.28622,"lon":5.35096,"is_reserved":false,"is_disabled":true,"rental_uris":{"android":"levelo://app?vid=55f350e3-b7e3-4dd0-ab7a-b7ecf6f9626f","ios":"levelo://app?vid=55f350e3-b7e3-4dd0-ab7a-b7ecf6f9626f"},"vehicle_type_id":"4","last_reported":1750489749,"current_range_meters":0,"station_id":"ce4bhch2rcd13ifvqeug","pricing_plan_id":"cebpf4jnsgd1na2vs0mg"},{"bike_id":"c376f5a3-7819-4741-b177-e74d17a08879","system_id":"levelo_inurba_marseille","lat":43.27656,"lon":5.38904,"is_reserved":false,"is_disabled":true,"rental_uris":{"android":"levelo://app?vid=c376f5a3-7819-4741-b177-e74d17a08879","ios":"levelo://app?vid=c376f5a3-7819-4741-b177-e74d17a08879"},"vehicle_type_id":"4","last_reported":1750489749,"current_range_meters":0,"station_id":"ce4bhi12rcd13ifvqfo0","pricing_plan_id":"cebpf4jnsgd1na2vs0mg"},{"bike_id":"bc824ca5-0243-45ce-b51f-4a47ad664adc","system_id":"levelo_inurba_marseille","lat":43.32351,"lon":5.38871,"is_reserved":false,"is_disabled":true,"rental_uris":{"android":"levelo://app?vid=bc824ca5-0243-45ce-b51f-4a47ad664adc","ios":"levelo://app?vid=bc824ca5-0243-45ce-b51f-4a47ad664adc"},"vehicle_type_id":"4","last_reported":1750489749,"current_range_meters":0,"station_id":"ce4bhqp2rcd13ifvqhog","pricing_plan_id":"cebpf4jnsgd1na2vs0mg"},{"bike_id":"fcf4c655-a0ab-4557-9c67-f3accfc480b8","system_id":"levelo_inurba_marseille","lat":43.32002,"lon":5.3813,"is_reserved":false,"is_disabled":true,"rental_uris":{"android":"levelo://app?vid=fcf4c655-a0ab-4557-9c67-f3accfc480b8","ios":"levelo://app?vid=fcf4c655-a0ab-4557-9c67-f3accfc480b8"},"vehicle_type_id":"4","last_reported":1750489749,"current_range_meters":0,"station_id":"ce4bhr12rcd13ifvqhpg","pricing_plan_id":"cebpf4jnsgd1na2vs0mg"},{"bike_id":"a1110f62-7697-413b-89ce-a34e33f7ed77","system_id":"levelo_inurba_marseille","lat":43.23192,"lon":5.35539,"is_reserved":false,"is_disabled":true,"rental_uris":{"android":"levelo://app?vid=a1110f62-7697-413b-89ce-a34e33f7ed77","ios":"levelo://app?vid=a1110f62-7697-413b-89ce-a34e33f7ed77"},"vehicle_type_id":"4","last_reported":1750489749,"current_range_meters":0,"station_id":"ce4bhu92rcd13ifvqi70","pricing_plan_id":"cebpf4jnsgd1na2vs0mg"},{"bike_id":"4ed6540b-1750-472b-996b-233d46510f7a","system_id":"levelo_inurba_marseille","lat":43.241698,"lon":5.363825,"is_reserved":false,"is_disabled":true,"rental_uris":{"android":"levelo://app?vid=4ed6540b-1750-472b-996b-233d46510f7a","ios":"levelo://app?vid=4ed6540b-1750-472b-996b-233d46510f7a"},"vehicle_type_id":"4","last_reported":1750489749,"current_range_meters":0,"station_id":"cpo36qri1sfpv3e86is0","pricing_plan_id":"cebpf4jnsgd1na2vs0mg"},{"bike_id":"24466bb8-ea46-418f-a473-cce465177766","system_id":"levelo_inurba_marseille","lat":43.217439,"lon":5.345997,"is_reserved":false,"is_disabled":true,"rental_uris":{"android":"levelo://app?vid=24466bb8-ea46-418f-a473-cce465177766","ios":"levelo://app?vid=24466bb8-ea46-418f-a473-cce465177766"},"vehicle_type_id":"4","last_reported":1750489749,"current_range_meters":0,"station_id":"st_cvj6r9ubvosntc0bgbag","pricing_plan_id":"cebpf4jnsgd1na2vs0mg"},{"bike_id":"1b64f142-5df0-4ea7-a5da-5566ae0b1958","system_id":"levelo_inurba_marseille","lat":43.27572,"lon":5.38441,"is_reserved":false,"is_disabled":true,"rental_uris":{"android":"levelo://app?vid=1b64f142-5df0-4ea7-a5da-5566ae0b1958","ios":"levelo://app?vid=1b64f142-5df0-4ea7-a5da-5566ae0b1958"},"vehicle_type_id":"4","last_reported":1750489749,"current_range_meters":400,"station_id":"ce4bhh92rcd13ifvqfi0","pricing_plan_id":"cebpf4jnsgd1na2vs0mg"},{"bike_id":"f1207ad5-d75f-4bf3-ad09-cb56ed4d4a9d","system_id":"levelo_inurba_marseille","lat":43.30149,"lon":5.38077,"is_reserved":false,"is_disabled":true,"rental_uris":{"android":"levelo://app?vid=f1207ad5-d75f-4bf3-ad09-cb56ed4d4a9d","ios":"levelo://app?vid=f1207ad5-d75f-4bf3-ad09-cb56ed4d4a9d"},"vehicle_type_id":"4","last_reported":1750489749,"current_range_meters":800,"station_id":"ce4bgjp2rcd13ifvqbh0","pricing_plan_id":"cebpf4jnsgd1na2vs0mg"},{"bike_id":"c6619179-2a69-467e-b369-0eb9b4eacd8c","system_id":"levelo_inurba_marseille","lat":43.30575,"lon":5.37203,"is_reserved":false,"is_disabled":true,"rental_uris":{"android":"levelo://app?vid=c6619179-2a69-467e-b369-0eb9b4eacd8c","ios":"levelo://app?vid=c6619179-2a69-467e-b369-0eb9b4eacd8c"},"vehicle_type_id":"4","last_reported":1750489749,"current_range_meters":800,"station_id":"ce4bgqh2rcd13ifvqc4g","pricing_plan_id":"cebpf4jnsgd1na2vs0mg"},{"bike_id":"51deda71-ad3a-4bed-96a7-b3cf465a2955","system_id":"levelo_inurba_marseille","lat":43.26229,"lon":5.40452,"is_reserved":false,"is_disabled":true,"rental_uris":{"android":"levelo://app?vid=51deda71-ad3a-4bed-96a7-b3cf465a2955","ios":"levelo://app?vid=51deda71-ad3a-4bed-96a7-b3cf465a2955"},"vehicle_type_id":"4","last_reported":1750489749,"current_range_meters":800,"station_id":"ce4bhmh2rcd13ifvqgmg","pricing_plan_id":"cebpf4jnsgd1na2vs0mg"},{"bike_id":"a1e02539-5601-41d6-94bb-5ca7dc81cca3","system_id":"levelo_inurba_marseille","lat":43.241653,"lon":5.364247,"is_reserved":false,"is_disabled":true,"rental_uris":{"android":"levelo://app?vid=a1e02539-5601-41d6-94bb-5ca7dc81cca3","ios":"levelo://app?vid=a1e02539-5601-41d6-94bb-5ca7dc81cca3"},"vehicle_type_id":"4","last_reported":1750489749,"current_range_meters":800,"station_id":"cpo36qri1sfpv3e86is0","pricing_plan_id":"cebpf4jnsgd1na2vs0mg"},{"bike_id":"17b2af2c-1f28-4188-97fc-db08fe708787","system_id":"levelo_inurba_marseille","lat":43.28701,"lon":5.37388,"is_reserved":false,"is_disabled":true,"rental_uris":{"android":"levelo://app?vid=17b2af2c-1f28-4188-97fc-db08fe708787","ios":"levelo://app?vid=17b2af2c-1f28-4188-97fc-db08fe708787"},"vehicle_type_id":"4","last_reported":1750489749,"current_range_meters":1200,"station_id":"ce4bh3p2rcd13ifvqdq0","pricing_plan_id":"cebpf4jnsgd1na2vs0mg"},{"bike_id":"9e820e1f-82e5-42f1-a082-b3598434e244","system_id":"levelo_inurba_marseille","lat":43.28684,"lon":5.38665,"is_reserved":false,"is_disabled":true,"rental_uris":{"android":"levelo://app?vid=9e820e1f-82e5-42f1-a082-b3598434e244","ios":"levelo://app?vid=9e820e1f-82e5-42f1-a082-b3598434e244"},"vehicle_type_id":"4","last_reported":1750489749,"current_range_meters":1200,"station_id":"ce4bh492rcd13ifvqdug","pricing_plan_id":"cebpf4jnsgd1na2vs0mg"},{"bike_id":"33e07d1b-4f03-43a9-b502-32bf447a8f47","system_id":"levelo_inurba_marseille","lat":43.27814,"lon":5.40718,"is_reserved":false,"is_disabled":true,"rental_uris":{"android":"levelo://app?vid=33e07d1b-4f03-43a9-b502-32bf447a8f47","ios":"levelo://app?vid=33e07d1b-4f03-43a9-b502-32bf447a8f47"},"vehicle_type_id":"4","last_reported":1750489749,"current_range_meters":1200,"station_id":"ce4bhnh2rcd13ifvqgtg","pricing_plan_id":"cebpf4jnsgd1na2vs0mg"},{"bike_id":"156717d9-5d82-4226-a389-e52555e7069b","system_id":"levelo_inurba_marseille","lat":43.30601,"lon":5.37644,"is_reserved":false,"is_disabled":true,"rental_uris":{"android":"levelo://app?vid=156717d9-5d82-4226-a389-e52555e7069b","ios":"levelo://app?vid=156717d9-5d82-4226-a389-e52555e7069b"},"vehicle_type_id":"4","last_reported":1750489749,"current_range_meters":1600,"station_id":"","pricing_plan_id":"cebpf4jnsgd1na2vs0mg"},{"bike_id":"7391440d-7733-4265-b541-3d304ad0932b","system_id":"levelo_inurba_marseille","lat":43.29257,"lon":5.3684,"is_reserved":false,"is_disabled":true,"rental_uris":{"android":"levelo://app?vid=7391440d-7733-4265-b541-3d304ad0932b","ios":"levelo://app?vid=7391440d-7733-4265-b541-3d304ad0932b"},"vehicle_type_id":"4","last_reported":1750489749,"current_range_meters":1600,"station_id":"ce4bhbp2rcd13ifvqesg","pricing_plan_id":"cebpf4jnsgd1na2vs0mg"},{"bike_id":"0b4caeaf-5696-4a90-bc91-8a90ae92e4e6","system_id":"levelo_inurba_marseille","lat":43.32284,"lon":5.4379,"is_reserved":false,"is_disabled":false,"rental_uris":{"android":"levelo://app?vid=0b4caeaf-5696-4a90-bc91-8a90ae92e4e6","ios":"levelo://app?vid=0b4caeaf-5696-4a90-bc91-8a90ae92e4e6"},"vehicle_type_id":"4","last_reported":1750489749,"current_range_meters":3600,"station_id":"","pricing_plan_id":"cebpf4jnsgd1na2vs0mg"},{"bike_id":"9f9df872-115c-4a50-90b1-2c9b182d9be2","system_id":"levelo_inurba_marseille","lat":43.21753,"lon":5.34602,"is_reserved":false,"is_disabled":false,"rental_uris":{"android":"levelo://app?vid=9f9df872-115c-4a50-90b1-2c9b182d9be2","ios":"levelo://app?vid=9f9df872-115c-4a50-90b1-2c9b182d9be2"},"vehicle_type_id":"4","last_reported":1750489749,"current_range_meters":3600,"station_id":"","pricing_plan_id":"cebpf4jnsgd1na2vs0mg"},{"bike_id":"a0fe8606-645b-4ed3-95d6-f9532ba150e7","system_id":"levelo_inurba_marseille","lat":43.29593,"lon":5.37475,"is_reserved":false,"is_disabled":false,"rental_uris":{"android":"levelo://app?vid=a0fe8606-645b-4ed3-95d6-f9532ba150e7","ios":"levelo://app?vid=a0fe8606-645b-4ed3-95d6-f9532ba150e7"},"vehicle_type_id":"4","last_reported":1750489749,"current_range_meters":3600,"station_id":"ce4bgh92rcd13ifvqb50","pricing_plan_id":"cebpf4jnsgd1na2vs0mg"},{"bike_id":"281d24ad-4cc9-4083-9996-fdce51c9f6ca","system_id":"levelo_inurba_marseille","lat":43.30455,"lon":5.37897,"is_reserved":false,"is_disabled":false,"rental_uris":{"android":"levelo://app?vid=281d24ad-4cc9-4083-9996-fdce51c9f6ca","ios":"levelo://app?vid=281d24ad-4cc9-4083-9996-fdce51c9f6ca"},"vehicle_type_id":"4","last_reported":1750489749,"current_range_meters":3600,"station_id":"ce4bgup2rcd13ifvqcn0","pricing_plan_id":"cebpf4jnsgd1na2vs0mg"},{"bike_id":"d72f4605-ccde-4938-9d19-a4305c241eb0","system_id":"levelo_inurba_marseille","lat":43.28721,"lon":5.39983,"is_reserved":false,"is_disabled":false,"rental_uris":{"android":"levelo://app?vid=d72f4605-ccde-4938-9d19-a4305c241eb0","ios":"levelo://app?vid=d72f4605-ccde-4938-9d19-a4305c241eb0"},"vehicle_type_id":"4","last_reported":1750489749,"current_range_meters":3600,"station_id":"ce4bho92rcd13ifvqh3g","pricing_plan_id":"cebpf4jnsgd1na2vs0mg"},{"bike_id":"e8b2899a-4211-4f31-b803-6ec5b4d26202","system_id":"levelo_inurba_marseille","lat":43.27571,"lon":5.39686,"is_reserved":false,"is_disabled":false,"rental_uris":{"android":"levelo://app?vid=e8b2899a-4211-4f31-b803-6ec5b4d26202","ios":"levelo://app?vid=e8b2899a-4211-4f31-b803-6ec5b4d26202"},"vehicle_type_id":"4","last_reported":1750489749,"current_range_meters":4000,"station_id":"","pricing_plan_id":"cebpf4jnsgd1na2vs0mg"},{"bike_id":"dd45b830-666c-4c76-b06e-9938bffa2cad","system_id":"levelo_inurba_marseille","lat":43.31974,"lon":5.37537,"is_reserved":false,"is_disabled":false,"rental_uris":{"android":"levelo://app?vid=dd45b830-666c-4c76-b06e-9938bffa2cad","ios":"levelo://app?vid=dd45b830-666c-4c76-b06e-9938bffa2cad"},"vehicle_type_id":"4","last_reported":1750489749,"current_range_meters":4800,"station_id":"","pricing_plan_id":"cebpf4jnsgd1na2vs0mg"},{"bike_id":"df735c88-ae0a-4f8e-9723-d29eb27d80b9","system_id":"levelo_inurba_marseille","lat":43.299215,"lon":5.376276,"is_reserved":false,"is_disabled":false,"rental_uris":{"android":"levelo://app?vid=df735c88-ae0a-4f8e-9723-d29eb27d80b9","ios":"levelo://app?vid=df735c88-ae0a-4f8e-9723-d29eb27d80b9"},"vehicle_type_id":"4","last_reported":1750489749,"current_range_meters":4800,"station_id":"","pricing_plan_id":"cebpf4jnsgd1na2vs0mg"},{"bike_id":"9379a053-51bf-40a8-beb2-fe5ffa98f2c9","system_id":"levelo_inurba_marseille","lat":43.29616,"lon":5.37731,"is_reserved":false,"is_disabled":false,"rental_uris":{"android":"levelo://app?vid=9379a053-51bf-40a8-beb2-fe5ffa98f2c9","ios":"levelo://app?vid=9379a053-51bf-40a8-beb2-fe5ffa98f2c9"},"vehicle_type_id":"4","last_reported":1750489749,"current_range_meters":4800,"station_id":"ce4bgi92rcd13ifvqb90","pricing_plan_id":"cebpf4jnsgd1na2vs0mg"},{"bike_id":"f5639725-d6ab-4322-902e-0669fc3010ed","system_id":"levelo_inurba_marseille","lat":43.30591,"lon":5.39352,"is_reserved":false,"is_disabled":false,"rental_uris":{"android":"levelo://app?vid=f5639725-d6ab-4322-902e-0669fc3010ed","ios":"levelo://app?vid=f5639725-d6ab-4322-902e-0669fc3010ed"},"vehicle_type_id":"4","last_reported":1750489749,"current_range_meters":4800,"station_id":"ce4bh0p2rcd13ifvqd80","pricing_plan_id":"cebpf4jnsgd1na2vs0mg"},{"bike_id":"f025e0b0-8595-426c-b214-cb9b74c5fcfd","system_id":"levelo_inurba_marseille","lat":43.32215,"lon":5.40571,"is_reserved":false,"is_disabled":false,"rental_uris":{"android":"levelo://app?vid=f025e0b0-8595-426c-b214-cb9b74c5fcfd","ios":"levelo://app?vid=f025e0b0-8595-426c-b214-cb9b74c5fcfd"},"vehicle_type_id":"4","last_reported":1750489749,"current_range_meters":5600,"station_id":"","pricing_plan_id":"cebpf4jnsgd1na2vs0mg"},{"bike_id":"db6770d2-0b0e-4d06-9659-5f88c3d2504c","system_id":"levelo_inurba_marseille","lat":43.25721,"lon":5.4109,"is_reserved":false,"is_disabled":false,"rental_uris":{"android":"levelo://app?vid=db6770d2-0b0e-4d06-9659-5f88c3d2504c","ios":"levelo://app?vid=db6770d2-0b0e-4d06-9659-5f88c3d2504c"},"vehicle_type_id":"4","last_reported":1750489749,"current_range_meters":5600,"station_id":"ce4bhkp2rcd13ifvqgd0","pricing_plan_id":"cebpf4jnsgd1na2vs0mg"},{"bike_id":"a9095211-c3f5-45c2-b2ee-33f07a23a90e","system_id":"levelo_inurba_marseille","lat":43.26154,"lon":5.40439,"is_reserved":false,"is_disabled":false,"rental_uris":{"android":"levelo://app?vid=a9095211-c3f5-45c2-b2ee-33f07a23a90e","ios":"levelo://app?vid=a9095211-c3f5-45c2-b2ee-33f07a23a90e"},"vehicle_type_id":"4","last_reported":1750489749,"current_range_meters":5600,"station_id":"ce4bhmh2rcd13ifvqgmg","pricing_plan_id":"cebpf4jnsgd1na2vs0mg"},{"bike_id":"73521383-be10-4e11-87d9-5858a5a26f0a","system_id":"levelo_inurba_marseille","lat":43.337444,"lon":5.374475,"is_reserved":false,"is_disabled":false,"rental_uris":{"android":"levelo://app?vid=73521383-be10-4e11-87d9-5858a5a26f0a","ios":"levelo://app?vid=73521383-be10-4e11-87d9-5858a5a26f0a"},"vehicle_type_id":"4","last_reported":1750489749,"current_range_meters":6000,"station_id":"","pricing_plan_id":"cebpf4jnsgd1na2vs0mg"},{"bike_id":"713350ea-5b9e-462e-ba1a-a33db3528268","system_id":"levelo_inurba_marseille","lat":43.30217,"lon":5.36641,"is_reserved":false,"is_disabled":false,"rental_uris":{"android":"levelo://app?vid=713350ea-5b9e-462e-ba1a-a33db3528268","ios":"levelo://app?vid=713350ea-5b9e-462e-ba1a-a33db3528268"},"vehicle_type_id":"4","last_reported":1750489749,"current_range_meters":6000,"station_id":"ce4bgrh2rcd13ifvqc8g","pricing_plan_id":"cebpf4jnsgd1na2vs0mg"},{"bike_id":"e3190518-bcc2-47a7-bb62-bcde5a07a296","system_id":"levelo_inurba_marseille","lat":43.306517,"lon":5.400725,"is_reserved":false,"is_disabled":false,"rental_uris":{"android":"levelo://app?vid=e3190518-bcc2-47a7-bb62-bcde5a07a296","ios":"levelo://app?vid=e3190518-bcc2-47a7-bb62-bcde5a07a296"},"vehicle_type_id":"4","last_reported":1750489749,"current_range_meters":6000,"station_id":"ce4bh112rcd13ifvqda0","pricing_plan_id":"cebpf4jnsgd1na2vs0mg"},{"bike_id":"53aeb623-f14c-45ba-b3b7-1681f2e88216","system_id":"levelo_inurba_marseille","lat":43.23969,"lon":5.36635,"is_reserved":false,"is_disabled":false,"rental_uris":{"android":"levelo://app?vid=53aeb623-f14c-45ba-b3b7-1681f2e88216","ios":"levelo://app?vid=53aeb623-f14c-45ba-b3b7-1681f2e88216"},"vehicle_type_id":"4","last_reported":1750489749,"current_range_meters":6000,"station_id":"ce4bhi12rcd13ifvqfp0","pricing_plan_id":"cebpf4jnsgd1na2vs0mg"},{"bike_id":"29ad955b-1a94-4237-bf63-f67c4b3126c8","system_id":"levelo_inurba_marseille","lat":43.31731,"lon":5.42391,"is_reserved":false,"is_disabled":false,"rental_uris":{"android":"levelo://app?vid=29ad955b-1a94-4237-bf63-f67c4b3126c8","ios":"levelo://app?vid=29ad955b-1a94-4237-bf63-f67c4b3126c8"},"vehicle_type_id":"4","last_reported":1750489749,"current_range_meters":6000,"station_id":"ce4bhp92rcd13ifvqhbg","pricing_plan_id":"cebpf4jnsgd1na2vs0mg"},{"bike_id":"37aac634-d576-446e-89d4-a7b4c76e18b5","system_id":"levelo_inurba_marseille","lat":43.33627,"lon":5.43506,"is_reserved":false,"is_disabled":false,"rental_uris":{"android":"levelo://app?vid=37aac634-d576-446e-89d4-a7b4c76e18b5","ios":"levelo://app?vid=37aac634-d576-446e-89d4-a7b4c76e18b5"},"vehicle_type_id":"4","last_reported":1750489749,"current_range_meters":6400,"station_id":"","pricing_plan_id":"cebpf4jnsgd1na2vs0mg"},{"bike_id":"0ae0a5e2-4172-42fc-b67e-dcb70ad4d289","system_id":"levelo_inurba_marseille","lat":43.26741,"lon":5.42204,"is_reserved":false,"is_disabled":false,"rental_uris":{"android":"levelo://app?vid=0ae0a5e2-4172-42fc-b67e-dcb70ad4d289","ios":"levelo://app?vid=0ae0a5e2-4172-42fc-b67e-dcb70ad4d289"},"vehicle_type_id":"4","last_reported":1750489749,"current_range_meters":6400,"station_id":"","pricing_plan_id":"cebpf4jnsgd1na2vs0mg"},{"bike_id":"ec64da71-1c29-4db9-9cac-c834292a14a8","system_id":"levelo_inurba_marseille","lat":43.27059,"lon":5.40269,"is_reserved":false,"is_disabled":false,"rental_uris":{"android":"levelo://app?vid=ec64da71-1c29-4db9-9cac-c834292a14a8","ios":"levelo://app?vid=ec64da71-1c29-4db9-9cac-c834292a14a8"},"vehicle_type_id":"4","last_reported":1750489749,"current_range_meters":6400,"station_id":"ce4bhk92rcd13ifvqgc0","pricing_plan_id":"cebpf4jnsgd1na2vs0mg"},{"bike_id":"db7f7512-c361-460d-984a-c7320754ec1a","system_id":"levelo_inurba_marseille","lat":43.307992,"lon":5.435288,"is_reserved":false,"is_disabled":false,"rental_uris":{"android":"levelo://app?vid=db7f7512-c361-460d-984a-c7320754ec1a","ios":"levelo://app?vid=db7f7512-c361-460d-984a-c7320754ec1a"},"vehicle_type_id":"4","last_reported":1750489749,"current_range_meters":6400,"station_id":"ce4bhph2rcd13ifvqheg","pricing_plan_id":"cebpf4jnsgd1na2vs0mg"},{"bike_id":"59692da9-5274-42cc-aeaa-48d8fd38fd90","system_id":"levelo_inurba_marseille","lat":43.321027,"lon":5.36792,"is_reserved":false,"is_disabled":false,"rental_uris":{"android":"levelo://app?vid=59692da9-5274-42cc-aeaa-48d8fd38fd90","ios":"levelo://app?vid=59692da9-5274-42cc-aeaa-48d8fd38fd90"},"vehicle_type_id":"4","last_reported":1750489749,"current_range_meters":6400,"station_id":"ce4bhrh2rcd13ifvqhug","pricing_plan_id":"cebpf4jnsgd1na2vs0mg"},{"bike_id":"ac10027d-715a-4b27-903d-ee72ebf8fb88","system_id":"levelo_inurba_marseille","lat":43.30884,"lon":5.3963,"is_reserved":false,"is_disabled":false,"rental_uris":{"android":"levelo://app?vid=ac10027d-715a-4b27-903d-ee72ebf8fb88","ios":"levelo://app?vid=ac10027d-715a-4b27-903d-ee72ebf8fb88"},"vehicle_type_id":"4","last_reported":1750489749,"current_range_meters":6800,"station_id":"ce4bh012rcd13ifvqcv0","pricing_plan_id":"cebpf4jnsgd1na2vs0mg"},{"bike_id":"b2eb1b2c-ab0a-4a4e-8be9-f13a3a4321e6","system_id":"levelo_inurba_marseille","lat":43.27368,"lon":5.36254,"is_reserved":false,"is_disabled":false,"rental_uris":{"android":"levelo://app?vid=b2eb1b2c-ab0a-4a4e-8be9-f13a3a4321e6","ios":"levelo://app?vid=b2eb1b2c-ab0a-4a4e-8be9-f13a3a4321e6"},"vehicle_type_id":"4","last_reported":1750489749,"current_range_meters":6800,"station_id":"ce4bhbh2rcd13ifvqeo0","pricing_plan_id":"cebpf4jnsgd1na2vs0mg"},{"bike_id":"2d9cd306-f0e6-4b47-9011-26d7fa79b2a5","system_id":"levelo_inurba_marseille","lat":43.25007,"lon":5.38926,"is_reserved":false,"is_disabled":false,"rental_uris":{"android":"levelo://app?vid=2d9cd306-f0e6-4b47-9011-26d7fa79b2a5","ios":"levelo://app?vid=2d9cd306-f0e6-4b47-9011-26d7fa79b2a5"},"vehicle_type_id":"4","last_reported":1750489749,"current_range_meters":6800,"station_id":"ce4bhgp2rcd13ifvqfd0","pricing_plan_id":"cebpf4jnsgd1na2vs0mg"},{"bike_id":"06d9efc3-3928-4c11-90ce-4fc31500c864","system_id":"levelo_inurba_marseille","lat":43.247005,"lon":5.381475,"is_reserved":false,"is_disabled":false,"rental_uris":{"android":"levelo://app?vid=06d9efc3-3928-4c11-90ce-4fc31500c864","ios":"levelo://app?vid=06d9efc3-3928-4c11-90ce-4fc31500c864"},"vehicle_type_id":"4","last_reported":1750489749,"current_range_meters":6800,"station_id":"ce4bhih2rcd13ifvqfr0","pricing_plan_id":"cebpf4jnsgd1na2vs0mg"},{"bike_id":"fe09f8da-e191-4625-9c73-5616a2082425","system_id":"levelo_inurba_marseille","lat":43.232544,"lon":5.399806,"is_reserved":false,"is_disabled":false,"rental_uris":{"android":"levelo://app?vid=fe09f8da-e191-4625-9c73-5616a2082425","ios":"levelo://app?vid=fe09f8da-e191-4625-9c73-5616a2082425"},"vehicle_type_id":"4","last_reported":1750489749,"current_range_meters":6800,"station_id":"ce4bhn12rcd13ifvqgqg","pricing_plan_id":"cebpf4jnsgd1na2vs0mg"},{"bike_id":"f2169430-8ab5-4f68-846f-87f05b34d076","system_id":"levelo_inurba_marseille","lat":43.211876,"lon":5.350632,"is_reserved":false,"is_disabled":false,"rental_uris":{"android":"levelo://app?vid=f2169430-8ab5-4f68-846f-87f05b34d076","ios":"levelo://app?vid=f2169430-8ab5-4f68-846f-87f05b34d076"},"vehicle_type_id":"4","last_reported":1750489749,"current_range_meters":6800,"station_id":"st_cvj6sg6p6f1abm77japg","pricing_plan_id":"cebpf4jnsgd1na2vs0mg"},{"bike_id":"6c27666e-ee00-4768-b673-c88129e82192","system_id":"levelo_inurba_marseille","lat":43.29221,"lon":5.3962,"is_reserved":false,"is_disabled":false,"rental_uris":{"android":"levelo://app?vid=6c27666e-ee00-4768-b673-c88129e82192","ios":"levelo://app?vid=6c27666e-ee00-4768-b673-c88129e82192"},"vehicle_type_id":"4","last_reported":1750489749,"current_range_meters":7200,"station_id":"","pricing_plan_id":"cebpf4jnsgd1na2vs0mg"},{"bike_id":"33893335-fbcb-43e3-9e2f-95cb467b1bcb","system_id":"levelo_inurba_marseille","lat":43.30618,"lon":5.376225,"is_reserved":false,"is_disabled":false,"rental_uris":{"android":"levelo://app?vid=33893335-fbcb-43e3-9e2f-95cb467b1bcb","ios":"levelo://app?vid=33893335-fbcb-43e3-9e2f-95cb467b1bcb"},"vehicle_type_id":"4","last_reported":1750489749,"current_range_meters":7200,"station_id":"","pricing_plan_id":"cebpf4jnsgd1na2vs0mg"},{"bike_id":"fbe532e7-2f52-46dc-822c-1466686be8c5","system_id":"levelo_inurba_marseille","lat":43.300838,"lon":5.40533,"is_reserved":false,"is_disabled":false,"rental_uris":{"android":"levelo://app?vid=fbe532e7-2f52-46dc-822c-1466686be8c5","ios":"levelo://app?vid=fbe532e7-2f52-46dc-822c-1466686be8c5"},"vehicle_type_id":"4","last_reported":1750489749,"current_range_meters":7200,"station_id":"","pricing_plan_id":"cebpf4jnsgd1na2vs0mg"},{"bike_id":"470d5d38-9de3-4ee0-b8c2-7e3409e3e55a","system_id":"levelo_inurba_marseille","lat":43.29651,"lon":5.39375,"is_reserved":false,"is_disabled":false,"rental_uris":{"android":"levelo://app?vid=470d5d38-9de3-4ee0-b8c2-7e3409e3e55a","ios":"levelo://app?vid=470d5d38-9de3-4ee0-b8c2-7e3409e3e55a"},"vehicle_type_id":"4","last_reported":1750489749,"current_range_meters":7200,"station_id":"","pricing_plan_id":"cebpf4jnsgd1na2vs0mg"},{"bike_id":"bcbe64d2-7c50-48b2-b81b-f2ed14d4f576","system_id":"levelo_inurba_marseille","lat":43.30191,"lon":5.38079,"is_reserved":false,"is_disabled":false,"rental_uris":{"android":"levelo://app?vid=bcbe64d2-7c50-48b2-b81b-f2ed14d4f576","ios":"levelo://app?vid=bcbe64d2-7c50-48b2-b81b-f2ed14d4f576"},"vehicle_type_id":"4","last_reported":1750489749,"current_range_meters":8000,"station_id":"","pricing_plan_id":"cebpf4jnsgd1na2vs0mg"},{"bike_id":"51543da0-ae3d-4250-835e-31cda64d8a8c","system_id":"levelo_inurba_marseille","lat":43.30939,"lon":5.36855,"is_reserved":false,"is_disabled":false,"rental_uris":{"android":"levelo://app?vid=51543da0-ae3d-4250-835e-31cda64d8a8c","ios":"levelo://app?vid=51543da0-ae3d-4250-835e-31cda64d8a8c"},"vehicle_type_id":"4","last_reported":1750489749,"current_range_meters":8000,"station_id":"ce4bgn92rcd13ifvqbvg","pricing_plan_id":"cebpf4jnsgd1na2vs0mg"},{"bike_id":"be2ef5a4-5677-4d14-a1ef-f5b6475abf7e","system_id":"levelo_inurba_marseille","lat":43.258313,"lon":5.393993,"is_reserved":false,"is_disabled":false,"rental_uris":{"android":"levelo://app?vid=be2ef5a4-5677-4d14-a1ef-f5b6475abf7e","ios":"levelo://app?vid=be2ef5a4-5677-4d14-a1ef-f5b6475abf7e"},"vehicle_type_id":"4","last_reported":1750489749,"current_range_meters":8000,"station_id":"ce4bhip2rcd13ifvqft0","pricing_plan_id":"cebpf4jnsgd1na2vs0mg"},{"bike_id":"43320ea7-0bdb-472c-956d-1a4fda4c85ea","system_id":"levelo_inurba_marseille","lat":43.27848,"lon":5.40683,"is_reserved":false,"is_disabled":false,"rental_uris":{"android":"levelo://app?vid=43320ea7-0bdb-472c-956d-1a4fda4c85ea","ios":"levelo://app?vid=43320ea7-0bdb-472c-956d-1a4fda4c85ea"},"vehicle_type_id":"4","last_reported":1750489749,"current_range_meters":8000,"station_id":"ce4bhnh2rcd13ifvqgtg","pricing_plan_id":"cebpf4jnsgd1na2vs0mg"},{"bike_id":"178fea52-5c46-4383-9a8d-cae388a2eff0","system_id":"levelo_inurba_marseille","lat":43.32038,"lon":5.36748,"is_reserved":false,"is_disabled":false,"rental_uris":{"android":"levelo://app?vid=178fea52-5c46-4383-9a8d-cae388a2eff0","ios":"levelo://app?vid=178fea52-5c46-4383-9a8d-cae388a2eff0"},"vehicle_type_id":"4","last_reported":1750489749,"current_range_meters":8000,"station_id":"ce4bhrh2rcd13ifvqhug","pricing_plan_id":"cebpf4jnsgd1na2vs0mg"},{"bike_id":"619f8849-9932-49a9-b204-3ca7c8ba25c6","system_id":"levelo_inurba_marseille","lat":43.28627,"lon":5.37033,"is_reserved":false,"is_disabled":false,"rental_uris":{"android":"levelo://app?vid=619f8849-9932-49a9-b204-3ca7c8ba25c6","ios":"levelo://app?vid=619f8849-9932-49a9-b204-3ca7c8ba25c6"},"vehicle_type_id":"4","last_reported":1750489749,"current_range_meters":8000,"station_id":"ce4bht12rcd13ifvqi60","pricing_plan_id":"cebpf4jnsgd1na2vs0mg"},{"bike_id":"f30123e7-96d3-442d-9d01-6c98dc61e7c8","system_id":"levelo_inurba_marseille","lat":43.29807,"lon":5.36849,"is_reserved":false,"is_disabled":false,"rental_uris":{"android":"levelo://app?vid=f30123e7-96d3-442d-9d01-6c98dc61e7c8","ios":"levelo://app?vid=f30123e7-96d3-442d-9d01-6c98dc61e7c8"},"vehicle_type_id":"4","last_reported":1750489749,"current_range_meters":8400,"station_id":"","pricing_plan_id":"cebpf4jnsgd1na2vs0mg"},{"bike_id":"ac132914-b882-4638-a206-af4f52a44377","system_id":"levelo_inurba_marseille","lat":43.29908,"lon":5.38144,"is_reserved":false,"is_disabled":false,"rental_uris":{"android":"levelo://app?vid=ac132914-b882-4638-a206-af4f52a44377","ios":"levelo://app?vid=ac132914-b882-4638-a206-af4f52a44377"},"vehicle_type_id":"4","last_reported":1750489749,"current_range_meters":8400,"station_id":"ce4bgj12rcd13ifvqbc0","pricing_plan_id":"cebpf4jnsgd1na2vs0mg"},{"bike_id":"d0d24a29-d4fb-4b09-ac83-befd140e8c7a","system_id":"levelo_inurba_marseille","lat":43.29976,"lon":5.37175,"is_reserved":false,"is_disabled":false,"rental_uris":{"android":"levelo://app?vid=d0d24a29-d4fb-4b09-ac83-befd140e8c7a","ios":"levelo://app?vid=d0d24a29-d4fb-4b09-ac83-befd140e8c7a"},"vehicle_type_id":"4","last_reported":1750489749,"current_range_meters":8400,"station_id":"ce4bgr92rcd13ifvqc7g","pricing_plan_id":"cebpf4jnsgd1na2vs0mg"},{"bike_id":"95042efe-dbfa-4a14-965d-d1f94e815e16","system_id":"levelo_inurba_marseille","lat":43.30467,"lon":5.37893,"is_reserved":false,"is_disabled":false,"rental_uris":{"android":"levelo://app?vid=95042efe-dbfa-4a14-965d-d1f94e815e16","ios":"levelo://app?vid=95042efe-dbfa-4a14-965d-d1f94e815e16"},"vehicle_type_id":"4","last_reported":1750489749,"current_range_meters":8400,"station_id":"ce4bgup2rcd13ifvqcn0","pricing_plan_id":"cebpf4jnsgd1na2vs0mg"},{"bike_id":"e7654795-cc34-4f22-a359-3cabde03eb4d","system_id":"levelo_inurba_marseille","lat":43.30208,"lon":5.39466,"is_reserved":false,"is_disabled":false,"rental_uris":{"android":"levelo://app?vid=e7654795-cc34-4f22-a359-3cabde03eb4d","ios":"levelo://app?vid=e7654795-cc34-4f22-a359-3cabde03eb4d"},"vehicle_type_id":"4","last_reported":1750489749,"current_range_meters":8400,"station_id":"ce4bh0p2rcd13ifvqd70","pricing_plan_id":"cebpf4jnsgd1na2vs0mg"},{"bike_id":"999a7404-c492-4383-88c2-daf8b2db2f26","system_id":"levelo_inurba_marseille","lat":43.29358,"lon":5.40154,"is_reserved":false,"is_disabled":false,"rental_uris":{"android":"levelo://app?vid=999a7404-c492-4383-88c2-daf8b2db2f26","ios":"levelo://app?vid=999a7404-c492-4383-88c2-daf8b2db2f26"},"vehicle_type_id":"4","last_reported":1750489749,"current_range_meters":8400,"station_id":"ce4bh312rcd13ifvqdk0","pricing_plan_id":"cebpf4jnsgd1na2vs0mg"},{"bike_id":"040977a8-13c0-45f8-878b-41dbebdc1a7e","system_id":"levelo_inurba_marseille","lat":43.2992,"lon":5.43669,"is_reserved":false,"is_disabled":false,"rental_uris":{"android":"levelo://app?vid=040977a8-13c0-45f8-878b-41dbebdc1a7e","ios":"levelo://app?vid=040977a8-13c0-45f8-878b-41dbebdc1a7e"},"vehicle_type_id":"4","last_reported":1750489749,"current_range_meters":8400,"station_id":"ce4bhpp2rcd13ifvqhfg","pricing_plan_id":"cebpf4jnsgd1na2vs0mg"},{"bike_id":"c595d0e1-c778-4abe-9c79-a9dd74f54e27","system_id":"levelo_inurba_marseille","lat":43.24526,"lon":5.37226,"is_reserved":false,"is_disabled":false,"rental_uris":{"android":"levelo://app?vid=c595d0e1-c778-4abe-9c79-a9dd74f54e27","ios":"levelo://app?vid=c595d0e1-c778-4abe-9c79-a9dd74f54e27"},"vehicle_type_id":"4","last_reported":1750489749,"current_range_meters":8800,"station_id":"","pricing_plan_id":"cebpf4jnsgd1na2vs0mg"},{"bike_id":"fe4f642a-2c8e-4a43-b47d-5a5067b48c79","system_id":"levelo_inurba_marseille","lat":43.31331,"lon":5.39678,"is_reserved":false,"is_disabled":false,"rental_uris":{"android":"levelo://app?vid=fe4f642a-2c8e-4a43-b47d-5a5067b48c79","ios":"levelo://app?vid=fe4f642a-2c8e-4a43-b47d-5a5067b48c79"},"vehicle_type_id":"4","last_reported":1750489749,"current_range_meters":8800,"station_id":"ce4bgvp2rcd13ifvqcu0","pricing_plan_id":"cebpf4jnsgd1na2vs0mg"},{"bike_id":"a0f4885b-e467-4afb-b708-8c36a467e802","system_id":"levelo_inurba_marseille","lat":43.2905,"lon":5.39938,"is_reserved":false,"is_disabled":false,"rental_uris":{"android":"levelo://app?vid=a0f4885b-e467-4afb-b708-8c36a467e802","ios":"levelo://app?vid=a0f4885b-e467-4afb-b708-8c36a467e802"},"vehicle_type_id":"4","last_reported":1750489749,"current_range_meters":8800,"station_id":"ce4bh392rcd13ifvqdm0","pricing_plan_id":"cebpf4jnsgd1na2vs0mg"},{"bike_id":"867fa9e2-3bbb-4955-89e0-7bf6f984a819","system_id":"levelo_inurba_marseille","lat":43.28402,"lon":5.37508,"is_reserved":false,"is_disabled":false,"rental_uris":{"android":"levelo://app?vid=867fa9e2-3bbb-4955-89e0-7bf6f984a819","ios":"levelo://app?vid=867fa9e2-3bbb-4955-89e0-7bf6f984a819"},"vehicle_type_id":"4","last_reported":1750489749,"current_range_meters":8800,"station_id":"ce4bh412rcd13ifvqds0","pricing_plan_id":"cebpf4jnsgd1na2vs0mg"},{"bike_id":"cc554f2f-8737-4971-881e-eff8120e96eb","system_id":"levelo_inurba_marseille","lat":43.32359,"lon":5.36762,"is_reserved":false,"is_disabled":false,"rental_uris":{"android":"levelo://app?vid=cc554f2f-8737-4971-881e-eff8120e96eb","ios":"levelo://app?vid=cc554f2f-8737-4971-881e-eff8120e96eb"},"vehicle_type_id":"4","last_reported":1750489749,"current_range_meters":8800,"station_id":"ce4bhsh2rcd13ifvqi2g","pricing_plan_id":"cebpf4jnsgd1na2vs0mg"},{"bike_id":"752adc60-2900-4e85-a301-9a31611d5b34","system_id":"levelo_inurba_marseille","lat":43.30574,"lon":5.37172,"is_reserved":false,"is_disabled":false,"rental_uris":{"android":"levelo://app?vid=752adc60-2900-4e85-a301-9a31611d5b34","ios":"levelo://app?vid=752adc60-2900-4e85-a301-9a31611d5b34"},"vehicle_type_id":"4","last_reported":1750489749,"current_range_meters":9200,"station_id":"","pricing_plan_id":"cebpf4jnsgd1na2vs0mg"},{"bike_id":"b50ed994-fd88-4dd1-8846-dc2bf2666662","system_id":"levelo_inurba_marseille","lat":43.3056,"lon":5.40046,"is_reserved":false,"is_disabled":false,"rental_uris":{"android":"levelo://app?vid=b50ed994-fd88-4dd1-8846-dc2bf2666662","ios":"levelo://app?vid=b50ed994-fd88-4dd1-8846-dc2bf2666662"},"vehicle_type_id":"4","last_reported":1750489749,"current_range_meters":9200,"station_id":"","pricing_plan_id":"cebpf4jnsgd1na2vs0mg"},{"bike_id":"16967bbf-d622-4ac5-86f0-4604527523fa","system_id":"levelo_inurba_marseille","lat":43.24164,"lon":5.39713,"is_reserved":false,"is_disabled":false,"rental_uris":{"android":"levelo://app?vid=16967bbf-d622-4ac5-86f0-4604527523fa","ios":"levelo://app?vid=16967bbf-d622-4ac5-86f0-4604527523fa"},"vehicle_type_id":"4","last_reported":1750489749,"current_range_meters":9200,"station_id":"ce4bhn12rcd13ifvqgpg","pricing_plan_id":"cebpf4jnsgd1na2vs0mg"},{"bike_id":"1ce0e88e-d695-4fa0-a417-7b99c428309c","system_id":"levelo_inurba_marseille","lat":43.318997,"lon":5.407283,"is_reserved":false,"is_disabled":false,"rental_uris":{"android":"levelo://app?vid=1ce0e88e-d695-4fa0-a417-7b99c428309c","ios":"levelo://app?vid=1ce0e88e-d695-4fa0-a417-7b99c428309c"},"vehicle_type_id":"4","last_reported":1750489749,"current_range_meters":9200,"station_id":"ce4bhq12rcd13ifvqhig","pricing_plan_id":"cebpf4jnsgd1na2vs0mg"},{"bike_id":"199c2831-e081-4bc0-9b94-19503817091d","system_id":"levelo_inurba_marseille","lat":43.248995,"lon":5.406749,"is_reserved":false,"is_disabled":false,"rental_uris":{"android":"levelo://app?vid=199c2831-e081-4bc0-9b94-19503817091d","ios":"levelo://app?vid=199c2831-e081-4bc0-9b94-19503817091d"},"vehicle_type_id":"4","last_reported":1750489749,"current_range_meters":9600,"station_id":"","pricing_plan_id":"cebpf4jnsgd1na2vs0mg"},{"bike_id":"6376bfd4-747f-496b-9c87-8d3f8449c35d","system_id":"levelo_inurba_marseille","lat":43.317,"lon":5.37768,"is_reserved":false,"is_disabled":false,"rental_uris":{"android":"levelo://app?vid=6376bfd4-747f-496b-9c87-8d3f8449c35d","ios":"levelo://app?vid=6376bfd4-747f-496b-9c87-8d3f8449c35d"},"vehicle_type_id":"4","last_reported":1750489749,"current_range_meters":9600,"station_id":"ce4bgth2rcd13ifvqch0","pricing_plan_id":"cebpf4jnsgd1na2vs0mg"},{"bike_id":"2148217b-d8a5-4a4c-bd43-e70d855d7cd0","system_id":"levelo_inurba_marseille","lat":43.302661,"lon":5.400469,"is_reserved":false,"is_disabled":false,"rental_uris":{"android":"levelo://app?vid=2148217b-d8a5-4a4c-bd43-e70d855d7cd0","ios":"levelo://app?vid=2148217b-d8a5-4a4c-bd43-e70d855d7cd0"},"vehicle_type_id":"4","last_reported":1750489749,"current_range_meters":9600,"station_id":"ce4bgvh2rcd13ifvqcs0","pricing_plan_id":"cebpf4jnsgd1na2vs0mg"},{"bike_id":"780f0284-4f55-4f95-87fb-ecdf939e9a53","system_id":"levelo_inurba_marseille","lat":43.31334,"lon":5.396926,"is_reserved":false,"is_disabled":false,"rental_uris":{"android":"levelo://app?vid=780f0284-4f55-4f95-87fb-ecdf939e9a53","ios":"levelo://app?vid=780f0284-4f55-4f95-87fb-ecdf939e9a53"},"vehicle_type_id":"4","last_reported":1750489749,"current_range_meters":9600,"station_id":"ce4bgvp2rcd13ifvqcu0","pricing_plan_id":"cebpf4jnsgd1na2vs0mg"},{"bike_id":"a572deeb-2a98-49f6-b4c6-2d1a08996e3e","system_id":"levelo_inurba_marseille","lat":43.30424,"lon":5.39747,"is_reserved":false,"is_disabled":false,"rental_uris":{"android":"levelo://app?vid=a572deeb-2a98-49f6-b4c6-2d1a08996e3e","ios":"levelo://app?vid=a572deeb-2a98-49f6-b4c6-2d1a08996e3e"},"vehicle_type_id":"4","last_reported":1750489749,"current_range_meters":9600,"station_id":"ce4bh092rcd13ifvqd20","pricing_plan_id":"cebpf4jnsgd1na2vs0mg"},{"bike_id":"01480a11-f5c7-4e27-b152-06cde5658d99","system_id":"levelo_inurba_marseille","lat":43.279605,"lon":5.387307,"is_reserved":false,"is_disabled":false,"rental_uris":{"android":"levelo://app?vid=01480a11-f5c7-4e27-b152-06cde5658d99","ios":"levelo://app?vid=01480a11-f5c7-4e27-b152-06cde5658d99"},"vehicle_type_id":"4","last_reported":1750489749,"current_range_meters":9600,"station_id":"ce4bhg12rcd13ifvqf80","pricing_plan_id":"cebpf4jnsgd1na2vs0mg"},{"bike_id":"8300812b-c3f4-4460-a462-0c10590e5460","system_id":"levelo_inurba_marseille","lat":43.32976,"lon":5.4055,"is_reserved":false,"is_disabled":false,"rental_uris":{"android":"levelo://app?vid=8300812b-c3f4-4460-a462-0c10590e5460","ios":"levelo://app?vid=8300812b-c3f4-4460-a462-0c10590e5460"},"vehicle_type_id":"4","last_reported":1750489749,"current_range_meters":10000,"station_id":"","pricing_plan_id":"cebpf4jnsgd1na2vs0mg"},{"bike_id":"ee762a49-83ad-4fcd-811f-1fa20f226852","system_id":"levelo_inurba_marseille","lat":43.30379,"lon":5.42465,"is_reserved":false,"is_disabled":false,"rental_uris":{"android":"levelo://app?vid=ee762a49-83ad-4fcd-811f-1fa20f226852","ios":"levelo://app?vid=ee762a49-83ad-4fcd-811f-1fa20f226852"},"vehicle_type_id":"4","last_reported":1750489749,"current_range_meters":10000,"station_id":"ce4bhoh2rcd13ifvqh6g","pricing_plan_id":"cebpf4jnsgd1na2vs0mg"},{"bike_id":"2930bf7b-2372-4ddb-a96e-39fc10a37e17","system_id":"levelo_inurba_marseille","lat":43.32337,"lon":5.40615,"is_reserved":false,"is_disabled":false,"rental_uris":{"android":"levelo://app?vid=2930bf7b-2372-4ddb-a96e-39fc10a37e17","ios":"levelo://app?vid=2930bf7b-2372-4ddb-a96e-39fc10a37e17"},"vehicle_type_id":"4","last_reported":1750489749,"current_range_meters":10000,"station_id":"ce4bhq92rcd13ifvqhjg","pricing_plan_id":"cebpf4jnsgd1na2vs0mg"},{"bike_id":"a91667c8-9d9b-4267-80b6-c6c85a0895dc","system_id":"levelo_inurba_marseille","lat":43.3235,"lon":5.40595,"is_reserved":false,"is_disabled":false,"rental_uris":{"android":"levelo://app?vid=a91667c8-9d9b-4267-80b6-c6c85a0895dc","ios":"levelo://app?vid=a91667c8-9d9b-4267-80b6-c6c85a0895dc"},"vehicle_type_id":"4","last_reported":1750489749,"current_range_meters":10000,"station_id":"ce4bhq92rcd13ifvqhjg","pricing_plan_id":"cebpf4jnsgd1na2vs0mg"},{"bike_id":"05f69300-23b4-44be-a7e1-398a0efe81a4","system_id":"levelo_inurba_marseille","lat":43.317098,"lon":5.404359,"is_reserved":false,"is_disabled":false,"rental_uris":{"android":"levelo://app?vid=05f69300-23b4-44be-a7e1-398a0efe81a4","ios":"levelo://app?vid=05f69300-23b4-44be-a7e1-398a0efe81a4"},"vehicle_type_id":"4","last_reported":1750489749,"current_range_meters":10800,"station_id":"ce4bh012rcd13ifvqd00","pricing_plan_id":"cebpf4jnsgd1na2vs0mg"},{"bike_id":"9798d1fd-f8de-468c-8dc4-95309561412e","system_id":"levelo_inurba_marseille","lat":43.30645,"lon":5.40078,"is_reserved":false,"is_disabled":false,"rental_uris":{"android":"levelo://app?vid=9798d1fd-f8de-468c-8dc4-95309561412e","ios":"levelo://app?vid=9798d1fd-f8de-468c-8dc4-95309561412e"},"vehicle_type_id":"4","last_reported":1750489749,"current_range_meters":10800,"station_id":"ce4bh112rcd13ifvqda0","pricing_plan_id":"cebpf4jnsgd1na2vs0mg"},{"bike_id":"5dae2ccc-4a36-4069-ae18-918f6fb969a0","system_id":"levelo_inurba_marseille","lat":43.27654,"lon":5.38908,"is_reserved":false,"is_disabled":true,"rental_uris":{"android":"levelo://app?vid=5dae2ccc-4a36-4069-ae18-918f6fb969a0","ios":"levelo://app?vid=5dae2ccc-4a36-4069-ae18-918f6fb969a0"},"vehicle_type_id":"4","last_reported":1750489749,"current_range_meters":10800,"station_id":"ce4bhi12rcd13ifvqfo0","pricing_plan_id":"cebpf4jnsgd1na2vs0mg"},{"bike_id":"0c3c1a1e-accc-48fd-8dff-9e6a62eb7e59","system_id":"levelo_inurba_marseille","lat":43.32339,"lon":5.40622,"is_reserved":false,"is_disabled":false,"rental_uris":{"android":"levelo://app?vid=0c3c1a1e-accc-48fd-8dff-9e6a62eb7e59","ios":"levelo://app?vid=0c3c1a1e-accc-48fd-8dff-9e6a62eb7e59"},"vehicle_type_id":"4","last_reported":1750489749,"current_range_meters":10800,"station_id":"ce4bhq92rcd13ifvqhjg","pricing_plan_id":"cebpf4jnsgd1na2vs0mg"},{"bike_id":"19d28c8f-5421-4087-a03c-a21f0650d31f","system_id":"levelo_inurba_marseille","lat":43.2986,"lon":5.36265,"is_reserved":false,"is_disabled":false,"rental_uris":{"android":"levelo://app?vid=19d28c8f-5421-4087-a03c-a21f0650d31f","ios":"levelo://app?vid=19d28c8f-5421-4087-a03c-a21f0650d31f"},"vehicle_type_id":"4","last_reported":1750489749,"current_range_meters":11200,"station_id":"ce4bgpp2rcd13ifvqc3g","pricing_plan_id":"cebpf4jnsgd1na2vs0mg"},{"bike_id":"95948f8c-ed1b-4579-a2fd-8de9a76479dd","system_id":"levelo_inurba_marseille","lat":43.298781,"lon":5.397394,"is_reserved":false,"is_disabled":false,"rental_uris":{"android":"levelo://app?vid=95948f8c-ed1b-4579-a2fd-8de9a76479dd","ios":"levelo://app?vid=95948f8c-ed1b-4579-a2fd-8de9a76479dd"},"vehicle_type_id":"4","last_reported":1750489749,"current_range_meters":11200,"station_id":"ce4bh0h2rcd13ifvqd50","pricing_plan_id":"cebpf4jnsgd1na2vs0mg"},{"bike_id":"b0426fab-c281-467c-b6f2-11b1920af159","system_id":"levelo_inurba_marseille","lat":43.26551,"lon":5.37284,"is_reserved":false,"is_disabled":false,"rental_uris":{"android":"levelo://app?vid=b0426fab-c281-467c-b6f2-11b1920af159","ios":"levelo://app?vid=b0426fab-c281-467c-b6f2-11b1920af159"},"vehicle_type_id":"4","last_reported":1750489749,"current_range_meters":11200,"station_id":"ce4bhg12rcd13ifvqf70","pricing_plan_id":"cebpf4jnsgd1na2vs0mg"},{"bike_id":"f43ed071-4712-4c14-925a-97671c7fbd21","system_id":"levelo_inurba_marseille","lat":43.24387,"lon":5.37065,"is_reserved":false,"is_disabled":false,"rental_uris":{"android":"levelo://app?vid=f43ed071-4712-4c14-925a-97671c7fbd21","ios":"levelo://app?vid=f43ed071-4712-4c14-925a-97671c7fbd21"},"vehicle_type_id":"4","last_reported":1750489749,"current_range_meters":11200,"station_id":"ce4bhhh2rcd13ifvqfk0","pricing_plan_id":"cebpf4jnsgd1na2vs0mg"},{"bike_id":"7f32a65e-ea3d-42e8-bbf9-8ddb377b0bf0","system_id":"levelo_inurba_marseille","lat":43.26242,"lon":5.40432,"is_reserved":false,"is_disabled":false,"rental_uris":{"android":"levelo://app?vid=7f32a65e-ea3d-42e8-bbf9-8ddb377b0bf0","ios":"levelo://app?vid=7f32a65e-ea3d-42e8-bbf9-8ddb377b0bf0"},"vehicle_type_id":"4","last_reported":1750489749,"current_range_meters":11200,"station_id":"ce4bhmh2rcd13ifvqgmg","pricing_plan_id":"cebpf4jnsgd1na2vs0mg"},{"bike_id":"e2e7638e-95c1-4309-a653-aea5bf22d5dc","system_id":"levelo_inurba_marseille","lat":43.30256,"lon":5.40075,"is_reserved":false,"is_disabled":false,"rental_uris":{"android":"levelo://app?vid=e2e7638e-95c1-4309-a653-aea5bf22d5dc","ios":"levelo://app?vid=e2e7638e-95c1-4309-a653-aea5bf22d5dc"},"vehicle_type_id":"4","last_reported":1750489749,"current_range_meters":11600,"station_id":"ce4bgvh2rcd13ifvqcs0","pricing_plan_id":"cebpf4jnsgd1na2vs0mg"},{"bike_id":"bd27fe72-6fbc-453f-8b77-bee10ab3b13c","system_id":"levelo_inurba_marseille","lat":43.29544,"lon":5.42346,"is_reserved":false,"is_disabled":false,"rental_uris":{"android":"levelo://app?vid=bd27fe72-6fbc-453f-8b77-bee10ab3b13c","ios":"levelo://app?vid=bd27fe72-6fbc-453f-8b77-bee10ab3b13c"},"vehicle_type_id":"4","last_reported":1750489749,"current_range_meters":11600,"station_id":"ce4bhph2rcd13ifvqhdg","pricing_plan_id":"cebpf4jnsgd1na2vs0mg"},{"bike_id":"35d78290-40ba-4920-ac67-027dbac42037","system_id":"levelo_inurba_marseille","lat":43.32354,"lon":5.38857,"is_reserved":false,"is_disabled":false,"rental_uris":{"android":"levelo://app?vid=35d78290-40ba-4920-ac67-027dbac42037","ios":"levelo://app?vid=35d78290-40ba-4920-ac67-027dbac42037"},"vehicle_type_id":"4","last_reported":1750489749,"current_range_meters":11600,"station_id":"ce4bhqp2rcd13ifvqhog","pricing_plan_id":"cebpf4jnsgd1na2vs0mg"},{"bike_id":"dc540ba2-fb63-45eb-b83a-1826fb3d30b7","system_id":"levelo_inurba_marseille","lat":43.24599,"lon":5.39254,"is_reserved":false,"is_disabled":false,"rental_uris":{"android":"levelo://app?vid=dc540ba2-fb63-45eb-b83a-1826fb3d30b7","ios":"levelo://app?vid=dc540ba2-fb63-45eb-b83a-1826fb3d30b7"},"vehicle_type_id":"4","last_reported":1750489749,"current_range_meters":12000,"station_id":"","pricing_plan_id":"cebpf4jnsgd1na2vs0mg"},{"bike_id":"1f61651a-3363-4639-82a3-6f0a024979f1","system_id":"levelo_inurba_marseille","lat":43.30253,"lon":5.40066,"is_reserved":false,"is_disabled":false,"rental_uris":{"android":"levelo://app?vid=1f61651a-3363-4639-82a3-6f0a024979f1","ios":"levelo://app?vid=1f61651a-3363-4639-82a3-6f0a024979f1"},"vehicle_type_id":"4","last_reported":1750489749,"current_range_meters":12000,"station_id":"ce4bgvh2rcd13ifvqcs0","pricing_plan_id":"cebpf4jnsgd1na2vs0mg"},{"bike_id":"517a107e-9cd9-4539-be7a-5ca6b67916f7","system_id":"levelo_inurba_marseille","lat":43.306462,"lon":5.400799,"is_reserved":false,"is_disabled":false,"rental_uris":{"android":"levelo://app?vid=517a107e-9cd9-4539-be7a-5ca6b67916f7","ios":"levelo://app?vid=517a107e-9cd9-4539-be7a-5ca6b67916f7"},"vehicle_type_id":"4","last_reported":1750489749,"current_range_meters":12000,"station_id":"ce4bh112rcd13ifvqda0","pricing_plan_id":"cebpf4jnsgd1na2vs0mg"},{"bike_id":"959f0c62-9761-4a35-9c23-557e23ca2679","system_id":"levelo_inurba_marseille","lat":43.24671,"lon":5.38155,"is_reserved":false,"is_disabled":false,"rental_uris":{"android":"levelo://app?vid=959f0c62-9761-4a35-9c23-557e23ca2679","ios":"levelo://app?vid=959f0c62-9761-4a35-9c23-557e23ca2679"},"vehicle_type_id":"4","last_reported":1750489749,"current_range_meters":12000,"station_id":"ce4bhih2rcd13ifvqfr0","pricing_plan_id":"cebpf4jnsgd1na2vs0mg"},{"bike_id":"3fa5aa17-b27e-4bfa-8422-021bfaabc943","system_id":"levelo_inurba_marseille","lat":43.28012,"lon":5.41658,"is_reserved":false,"is_disabled":false,"rental_uris":{"android":"levelo://app?vid=3fa5aa17-b27e-4bfa-8422-021bfaabc943","ios":"levelo://app?vid=3fa5aa17-b27e-4bfa-8422-021bfaabc943"},"vehicle_type_id":"4","last_reported":1750489749,"current_range_meters":12000,"station_id":"ce4bho12rcd13ifvqh1g","pricing_plan_id":"cebpf4jnsgd1na2vs0mg"},{"bike_id":"8fd94bfe-b0a3-4509-a3c9-0f6e3f8eed78","system_id":"levelo_inurba_marseille","lat":43.24179,"lon":5.36381,"is_reserved":false,"is_disabled":false,"rental_uris":{"android":"levelo://app?vid=8fd94bfe-b0a3-4509-a3c9-0f6e3f8eed78","ios":"levelo://app?vid=8fd94bfe-b0a3-4509-a3c9-0f6e3f8eed78"},"vehicle_type_id":"4","last_reported":1750489749,"current_range_meters":12000,"station_id":"cpo36qri1sfpv3e86is0","pricing_plan_id":"cebpf4jnsgd1na2vs0mg"},{"bike_id":"8ef11a45-504d-45b0-a2b5-97fef9594218","system_id":"levelo_inurba_marseille","lat":43.29555,"lon":5.38158,"is_reserved":false,"is_disabled":false,"rental_uris":{"android":"levelo://app?vid=8ef11a45-504d-45b0-a2b5-97fef9594218","ios":"levelo://app?vid=8ef11a45-504d-45b0-a2b5-97fef9594218"},"vehicle_type_id":"4","last_reported":1750489749,"current_range_meters":12400,"station_id":"","pricing_plan_id":"cebpf4jnsgd1na2vs0mg"},{"bike_id":"1af8cc20-b4be-40a0-952b-b9221d26e0d7","system_id":"levelo_inurba_marseille","lat":43.287253,"lon":5.379519,"is_reserved":false,"is_disabled":false,"rental_uris":{"android":"levelo://app?vid=1af8cc20-b4be-40a0-952b-b9221d26e0d7","ios":"levelo://app?vid=1af8cc20-b4be-40a0-952b-b9221d26e0d7"},"vehicle_type_id":"4","last_reported":1750489749,"current_range_meters":12400,"station_id":"ce4bh9p2rcd13ifvqec0","pricing_plan_id":"cebpf4jnsgd1na2vs0mg"},{"bike_id":"d40af265-11b5-43a6-9bb6-f910f57901ba","system_id":"levelo_inurba_marseille","lat":43.32958,"lon":5.3808,"is_reserved":false,"is_disabled":false,"rental_uris":{"android":"levelo://app?vid=d40af265-11b5-43a6-9bb6-f910f57901ba","ios":"levelo://app?vid=d40af265-11b5-43a6-9bb6-f910f57901ba"},"vehicle_type_id":"4","last_reported":1750489749,"current_range_meters":12800,"station_id":"","pricing_plan_id":"cebpf4jnsgd1na2vs0mg"},{"bike_id":"d413a65d-92d4-471c-95ec-bace3ac606d3","system_id":"levelo_inurba_marseille","lat":43.24722,"lon":5.38172,"is_reserved":false,"is_disabled":false,"rental_uris":{"android":"levelo://app?vid=d413a65d-92d4-471c-95ec-bace3ac606d3","ios":"levelo://app?vid=d413a65d-92d4-471c-95ec-bace3ac606d3"},"vehicle_type_id":"4","last_reported":1750489749,"current_range_meters":12800,"station_id":"","pricing_plan_id":"cebpf4jnsgd1na2vs0mg"},{"bike_id":"1b8dbf41-d10c-4a02-8a9d-07ae5f16bc9e","system_id":"levelo_inurba_marseille","lat":43.29949,"lon":5.36571,"is_reserved":false,"is_disabled":false,"rental_uris":{"android":"levelo://app?vid=1b8dbf41-d10c-4a02-8a9d-07ae5f16bc9e","ios":"levelo://app?vid=1b8dbf41-d10c-4a02-8a9d-07ae5f16bc9e"},"vehicle_type_id":"4","last_reported":1750489749,"current_range_meters":12800,"station_id":"ce4bgm92rcd13ifvqbr0","pricing_plan_id":"cebpf4jnsgd1na2vs0mg"},{"bike_id":"c5d80bab-5e87-4c1c-a69f-62d26f69ac1d","system_id":"levelo_inurba_marseille","lat":43.31694,"lon":5.40463,"is_reserved":false,"is_disabled":false,"rental_uris":{"android":"levelo://app?vid=c5d80bab-5e87-4c1c-a69f-62d26f69ac1d","ios":"levelo://app?vid=c5d80bab-5e87-4c1c-a69f-62d26f69ac1d"},"vehicle_type_id":"4","last_reported":1750489749,"current_range_meters":13600,"station_id":"ce4bh012rcd13ifvqd00","pricing_plan_id":"cebpf4jnsgd1na2vs0mg"},{"bike_id":"75667a63-4449-4f24-8595-3ea2bc3fbac1","system_id":"levelo_inurba_marseille","lat":43.284783,"lon":5.384123,"is_reserved":false,"is_disabled":false,"rental_uris":{"android":"levelo://app?vid=75667a63-4449-4f24-8595-3ea2bc3fbac1","ios":"levelo://app?vid=75667a63-4449-4f24-8595-3ea2bc3fbac1"},"vehicle_type_id":"4","last_reported":1750489749,"current_range_meters":13600,"station_id":"ce4bh512rcd13ifvqe3g","pricing_plan_id":"cebpf4jnsgd1na2vs0mg"},{"bike_id":"d44e4de2-46db-4670-b095-8d8bde17414a","system_id":"levelo_inurba_marseille","lat":43.3171,"lon":5.424,"is_reserved":false,"is_disabled":false,"rental_uris":{"android":"levelo://app?vid=d44e4de2-46db-4670-b095-8d8bde17414a","ios":"levelo://app?vid=d44e4de2-46db-4670-b095-8d8bde17414a"},"vehicle_type_id":"4","last_reported":1750489749,"current_range_meters":13600,"station_id":"ce4bhp92rcd13ifvqhbg","pricing_plan_id":"cebpf4jnsgd1na2vs0mg"},{"bike_id":"bb5e8cfe-ffcf-4275-8796-019fb987ef2b","system_id":"levelo_inurba_marseille","lat":43.29566,"lon":5.42271,"is_reserved":false,"is_disabled":false,"rental_uris":{"android":"levelo://app?vid=bb5e8cfe-ffcf-4275-8796-019fb987ef2b","ios":"levelo://app?vid=bb5e8cfe-ffcf-4275-8796-019fb987ef2b"},"vehicle_type_id":"4","last_reported":1750489749,"current_range_meters":13600,"station_id":"ce4bhph2rcd13ifvqhdg","pricing_plan_id":"cebpf4jnsgd1na2vs0mg"},{"bike_id":"4643bc90-1bac-4c4b-98b1-e2d500830573","system_id":"levelo_inurba_marseille","lat":43.31363,"lon":5.37688,"is_reserved":false,"is_disabled":false,"rental_uris":{"android":"levelo://app?vid=4643bc90-1bac-4c4b-98b1-e2d500830573","ios":"levelo://app?vid=4643bc90-1bac-4c4b-98b1-e2d500830573"},"vehicle_type_id":"4","last_reported":1750489749,"current_range_meters":14000,"station_id":"","pricing_plan_id":"cebpf4jnsgd1na2vs0mg"},{"bike_id":"a22aa312-0025-4f42-88e2-b1e95e79340f","system_id":"levelo_inurba_marseille","lat":43.31659,"lon":5.38373,"is_reserved":false,"is_disabled":false,"rental_uris":{"android":"levelo://app?vid=a22aa312-0025-4f42-88e2-b1e95e79340f","ios":"levelo://app?vid=a22aa312-0025-4f42-88e2-b1e95e79340f"},"vehicle_type_id":"4","last_reported":1750489749,"current_range_meters":14000,"station_id":"","pricing_plan_id":"cebpf4jnsgd1na2vs0mg"},{"bike_id":"90c109b5-5cee-495e-8f11-f318c0f086b6","system_id":"levelo_inurba_marseille","lat":43.33617,"lon":5.43434,"is_reserved":false,"is_disabled":false,"rental_uris":{"android":"levelo://app?vid=90c109b5-5cee-495e-8f11-f318c0f086b6","ios":"levelo://app?vid=90c109b5-5cee-495e-8f11-f318c0f086b6"},"vehicle_type_id":"4","last_reported":1750489749,"current_range_meters":14000,"station_id":"","pricing_plan_id":"cebpf4jnsgd1na2vs0mg"},{"bike_id":"34328892-4c41-4971-b50c-7c906511ef39","system_id":"levelo_inurba_marseille","lat":43.306006,"lon":5.372287,"is_reserved":false,"is_disabled":false,"rental_uris":{"android":"levelo://app?vid=34328892-4c41-4971-b50c-7c906511ef39","ios":"levelo://app?vid=34328892-4c41-4971-b50c-7c906511ef39"},"vehicle_type_id":"4","last_reported":1750489749,"current_range_meters":14000,"station_id":"ce4bgqh2rcd13ifvqc4g","pricing_plan_id":"cebpf4jnsgd1na2vs0mg"},{"bike_id":"ced8ee67-58dc-40f7-a011-ace4bcd3b542","system_id":"levelo_inurba_marseille","lat":43.290407,"lon":5.399828,"is_reserved":false,"is_disabled":false,"rental_uris":{"android":"levelo://app?vid=ced8ee67-58dc-40f7-a011-ace4bcd3b542","ios":"levelo://app?vid=ced8ee67-58dc-40f7-a011-ace4bcd3b542"},"vehicle_type_id":"4","last_reported":1750489749,"current_range_meters":14000,"station_id":"ce4bh392rcd13ifvqdm0","pricing_plan_id":"cebpf4jnsgd1na2vs0mg"},{"bike_id":"3ccb411c-48a8-4b89-a0fe-4f09e05dcfb9","system_id":"levelo_inurba_marseille","lat":43.291687,"lon":5.371489,"is_reserved":false,"is_disabled":false,"rental_uris":{"android":"levelo://app?vid=3ccb411c-48a8-4b89-a0fe-4f09e05dcfb9","ios":"levelo://app?vid=3ccb411c-48a8-4b89-a0fe-4f09e05dcfb9"},"vehicle_type_id":"4","last_reported":1750489749,"current_range_meters":14000,"station_id":"ce4bha92rcd13ifvqeh0","pricing_plan_id":"cebpf4jnsgd1na2vs0mg"},{"bike_id":"5c03fa35-ca08-4633-ad66-e3b882f6a508","system_id":"levelo_inurba_marseille","lat":43.27586,"lon":5.38441,"is_reserved":false,"is_disabled":false,"rental_uris":{"android":"levelo://app?vid=5c03fa35-ca08-4633-ad66-e3b882f6a508","ios":"levelo://app?vid=5c03fa35-ca08-4633-ad66-e3b882f6a508"},"vehicle_type_id":"4","last_reported":1750489749,"current_range_meters":14000,"station_id":"ce4bhh92rcd13ifvqfi0","pricing_plan_id":"cebpf4jnsgd1na2vs0mg"},{"bike_id":"8a3c2651-21f6-45ab-acc7-dce8564d8017","system_id":"levelo_inurba_marseille","lat":43.29259,"lon":5.40143,"is_reserved":false,"is_disabled":false,"rental_uris":{"android":"levelo://app?vid=8a3c2651-21f6-45ab-acc7-dce8564d8017","ios":"levelo://app?vid=8a3c2651-21f6-45ab-acc7-dce8564d8017"},"vehicle_type_id":"4","last_reported":1750489749,"current_range_meters":14400,"station_id":"ce4bh312rcd13ifvqdk0","pricing_plan_id":"cebpf4jnsgd1na2vs0mg"},{"bike_id":"5a01a987-f989-4da6-b035-8c3000259e08","system_id":"levelo_inurba_marseille","lat":43.27904,"lon":5.39569,"is_reserved":false,"is_disabled":false,"rental_uris":{"android":"levelo://app?vid=5a01a987-f989-4da6-b035-8c3000259e08","ios":"levelo://app?vid=5a01a987-f989-4da6-b035-8c3000259e08"},"vehicle_type_id":"4","last_reported":1750489749,"current_range_meters":14400,"station_id":"ce4bhf92rcd13ifvqf40","pricing_plan_id":"cebpf4jnsgd1na2vs0mg"},{"bike_id":"30e40d30-3118-402e-bd31-1a5f1806240b","system_id":"levelo_inurba_marseille","lat":43.30466,"lon":5.37905,"is_reserved":false,"is_disabled":false,"rental_uris":{"android":"levelo://app?vid=30e40d30-3118-402e-bd31-1a5f1806240b","ios":"levelo://app?vid=30e40d30-3118-402e-bd31-1a5f1806240b"},"vehicle_type_id":"4","last_reported":1750489749,"current_range_meters":14800,"station_id":"ce4bgup2rcd13ifvqcn0","pricing_plan_id":"cebpf4jnsgd1na2vs0mg"},{"bike_id":"19267c63-bfb8-4e4b-a2b6-3c766dbbe094","system_id":"levelo_inurba_marseille","lat":43.29254,"lon":5.40902,"is_reserved":false,"is_disabled":false,"rental_uris":{"android":"levelo://app?vid=19267c63-bfb8-4e4b-a2b6-3c766dbbe094","ios":"levelo://app?vid=19267c63-bfb8-4e4b-a2b6-3c766dbbe094"},"vehicle_type_id":"4","last_reported":1750489749,"current_range_meters":14800,"station_id":"ce4bh192rcd13ifvqdc0","pricing_plan_id":"cebpf4jnsgd1na2vs0mg"},{"bike_id":"ba496306-0dfc-4d42-9bbf-ef090e9f1430","system_id":"levelo_inurba_marseille","lat":43.24649,"lon":5.38895,"is_reserved":false,"is_disabled":false,"rental_uris":{"android":"levelo://app?vid=ba496306-0dfc-4d42-9bbf-ef090e9f1430","ios":"levelo://app?vid=ba496306-0dfc-4d42-9bbf-ef090e9f1430"},"vehicle_type_id":"4","last_reported":1750489749,"current_range_meters":15200,"station_id":"ce4bhg12rcd13ifvqf60","pricing_plan_id":"cebpf4jnsgd1na2vs0mg"},{"bike_id":"a0c377fa-d524-472e-9207-eb3e6146368d","system_id":"levelo_inurba_marseille","lat":43.26025,"lon":5.37546,"is_reserved":false,"is_disabled":false,"rental_uris":{"android":"levelo://app?vid=a0c377fa-d524-472e-9207-eb3e6146368d","ios":"levelo://app?vid=a0c377fa-d524-472e-9207-eb3e6146368d"},"vehicle_type_id":"4","last_reported":1750489749,"current_range_meters":15200,"station_id":"ce4bhgh2rcd13ifvqfa0","pricing_plan_id":"cebpf4jnsgd1na2vs0mg"},{"bike_id":"d8dea6c6-0860-4bb7-889c-c26844959f98","system_id":"levelo_inurba_marseille","lat":43.29793,"lon":5.38095,"is_reserved":false,"is_disabled":false,"rental_uris":{"android":"levelo://app?vid=d8dea6c6-0860-4bb7-889c-c26844959f98","ios":"levelo://app?vid=d8dea6c6-0860-4bb7-889c-c26844959f98"},"vehicle_type_id":"4","last_reported":1750489749,"current_range_meters":16000,"station_id":"ce4bgip2rcd13ifvqbb0","pricing_plan_id":"cebpf4jnsgd1na2vs0mg"},{"bike_id":"c8d2f137-e8e7-41e2-bb1a-b42b41de976a","system_id":"levelo_inurba_marseille","lat":43.306463,"lon":5.40065,"is_reserved":false,"is_disabled":false,"rental_uris":{"android":"levelo://app?vid=c8d2f137-e8e7-41e2-bb1a-b42b41de976a","ios":"levelo://app?vid=c8d2f137-e8e7-41e2-bb1a-b42b41de976a"},"vehicle_type_id":"4","last_reported":1750489749,"current_range_meters":16000,"station_id":"ce4bh112rcd13ifvqda0","pricing_plan_id":"cebpf4jnsgd1na2vs0mg"},{"bike_id":"e7258c6f-ddc4-412e-ab27-d85a4e6495db","system_id":"levelo_inurba_marseille","lat":43.29291,"lon":5.3683,"is_reserved":false,"is_disabled":false,"rental_uris":{"android":"levelo://app?vid=e7258c6f-ddc4-412e-ab27-d85a4e6495db","ios":"levelo://app?vid=e7258c6f-ddc4-412e-ab27-d85a4e6495db"},"vehicle_type_id":"4","last_reported":1750489749,"current_range_meters":16000,"station_id":"ce4bhbp2rcd13ifvqesg","pricing_plan_id":"cebpf4jnsgd1na2vs0mg"},{"bike_id":"9436b3f7-e71d-4814-81fe-95d1af5df695","system_id":"levelo_inurba_marseille","lat":43.211937,"lon":5.350664,"is_reserved":false,"is_disabled":false,"rental_uris":{"android":"levelo://app?vid=9436b3f7-e71d-4814-81fe-95d1af5df695","ios":"levelo://app?vid=9436b3f7-e71d-4814-81fe-95d1af5df695"},"vehicle_type_id":"4","last_reported":1750489749,"current_range_meters":16000,"station_id":"st_cvj6sg6p6f1abm77japg","pricing_plan_id":"cebpf4jnsgd1na2vs0mg"},{"bike_id":"b5826738-818a-4c47-930a-9b762018aeaf","system_id":"levelo_inurba_marseille","lat":43.3203,"lon":5.40817,"is_reserved":false,"is_disabled":false,"rental_uris":{"android":"levelo://app?vid=b5826738-818a-4c47-930a-9b762018aeaf","ios":"levelo://app?vid=b5826738-818a-4c47-930a-9b762018aeaf"},"vehicle_type_id":"4","last_reported":1750489749,"current_range_meters":16400,"station_id":"","pricing_plan_id":"cebpf4jnsgd1na2vs0mg"},{"bike_id":"2a0e16d5-55d2-4c16-a4c9-b0b86c57f985","system_id":"levelo_inurba_marseille","lat":43.30154,"lon":5.3806,"is_reserved":false,"is_disabled":false,"rental_uris":{"android":"levelo://app?vid=2a0e16d5-55d2-4c16-a4c9-b0b86c57f985","ios":"levelo://app?vid=2a0e16d5-55d2-4c16-a4c9-b0b86c57f985"},"vehicle_type_id":"4","last_reported":1750489749,"current_range_meters":16400,"station_id":"ce4bgjp2rcd13ifvqbh0","pricing_plan_id":"cebpf4jnsgd1na2vs0mg"},{"bike_id":"399f1953-2bea-49fa-99d4-dce45aabeeb9","system_id":"levelo_inurba_marseille","lat":43.31686,"lon":5.40474,"is_reserved":false,"is_disabled":false,"rental_uris":{"android":"levelo://app?vid=399f1953-2bea-49fa-99d4-dce45aabeeb9","ios":"levelo://app?vid=399f1953-2bea-49fa-99d4-dce45aabeeb9"},"vehicle_type_id":"4","last_reported":1750489749,"current_range_meters":16400,"station_id":"ce4bh012rcd13ifvqd00","pricing_plan_id":"cebpf4jnsgd1na2vs0mg"},{"bike_id":"8a080f39-62d6-4fb5-8fad-8c4f8ea968be","system_id":"levelo_inurba_marseille","lat":43.292818,"lon":5.401099,"is_reserved":false,"is_disabled":false,"rental_uris":{"android":"levelo://app?vid=8a080f39-62d6-4fb5-8fad-8c4f8ea968be","ios":"levelo://app?vid=8a080f39-62d6-4fb5-8fad-8c4f8ea968be"},"vehicle_type_id":"4","last_reported":1750489749,"current_range_meters":16400,"station_id":"ce4bh312rcd13ifvqdk0","pricing_plan_id":"cebpf4jnsgd1na2vs0mg"},{"bike_id":"70c5db27-3c5a-4150-9e6a-af1f1459df6c","system_id":"levelo_inurba_marseille","lat":43.27967,"lon":5.38712,"is_reserved":false,"is_disabled":false,"rental_uris":{"android":"levelo://app?vid=70c5db27-3c5a-4150-9e6a-af1f1459df6c","ios":"levelo://app?vid=70c5db27-3c5a-4150-9e6a-af1f1459df6c"},"vehicle_type_id":"4","last_reported":1750489749,"current_range_meters":16400,"station_id":"ce4bhg12rcd13ifvqf80","pricing_plan_id":"cebpf4jnsgd1na2vs0mg"},{"bike_id":"6646f1cb-9c8e-49c5-beb9-43cec8edb267","system_id":"levelo_inurba_marseille","lat":43.268024,"lon":5.394083,"is_reserved":false,"is_disabled":false,"rental_uris":{"android":"levelo://app?vid=6646f1cb-9c8e-49c5-beb9-43cec8edb267","ios":"levelo://app?vid=6646f1cb-9c8e-49c5-beb9-43cec8edb267"},"vehicle_type_id":"4","last_reported":1750489749,"current_range_meters":16400,"station_id":"ce4bhh12rcd13ifvqfg0","pricing_plan_id":"cebpf4jnsgd1na2vs0mg"},{"bike_id":"5f42f629-91e9-467b-ac2c-49ebd77a7195","system_id":"levelo_inurba_marseille","lat":43.24177,"lon":5.39732,"is_reserved":false,"is_disabled":false,"rental_uris":{"android":"levelo://app?vid=5f42f629-91e9-467b-ac2c-49ebd77a7195","ios":"levelo://app?vid=5f42f629-91e9-467b-ac2c-49ebd77a7195"},"vehicle_type_id":"4","last_reported":1750489749,"current_range_meters":16400,"station_id":"ce4bhn12rcd13ifvqgpg","pricing_plan_id":"cebpf4jnsgd1na2vs0mg"},{"bike_id":"3d2d6044-6185-4c45-8ef2-14dfc8377c45","system_id":"levelo_inurba_marseille","lat":43.321105,"lon":5.367721,"is_reserved":false,"is_disabled":false,"rental_uris":{"android":"levelo://app?vid=3d2d6044-6185-4c45-8ef2-14dfc8377c45","ios":"levelo://app?vid=3d2d6044-6185-4c45-8ef2-14dfc8377c45"},"vehicle_type_id":"4","last_reported":1750489749,"current_range_meters":16400,"station_id":"ce4bhrh2rcd13ifvqhug","pricing_plan_id":"cebpf4jnsgd1na2vs0mg"},{"bike_id":"a03a949d-876f-42db-9564-0aeae678fff4","system_id":"levelo_inurba_marseille","lat":43.33627,"lon":5.43499,"is_reserved":false,"is_disabled":false,"rental_uris":{"android":"levelo://app?vid=a03a949d-876f-42db-9564-0aeae678fff4","ios":"levelo://app?vid=a03a949d-876f-42db-9564-0aeae678fff4"},"vehicle_type_id":"4","last_reported":1750489749,"current_range_meters":16800,"station_id":"","pricing_plan_id":"cebpf4jnsgd1na2vs0mg"},{"bike_id":"af760fd1-fa84-488b-b018-69b9b494ad54","system_id":"levelo_inurba_marseille","lat":43.27614,"lon":5.36103,"is_reserved":false,"is_disabled":false,"rental_uris":{"android":"levelo://app?vid=af760fd1-fa84-488b-b018-69b9b494ad54","ios":"levelo://app?vid=af760fd1-fa84-488b-b018-69b9b494ad54"},"vehicle_type_id":"4","last_reported":1750489749,"current_range_meters":16800,"station_id":"ce4bgj92rcd13ifvqbe0","pricing_plan_id":"cebpf4jnsgd1na2vs0mg"},{"bike_id":"d921b47e-56df-49a0-8fa5-af1de95ee410","system_id":"levelo_inurba_marseille","lat":43.29932,"lon":5.36552,"is_reserved":false,"is_disabled":false,"rental_uris":{"android":"levelo://app?vid=d921b47e-56df-49a0-8fa5-af1de95ee410","ios":"levelo://app?vid=d921b47e-56df-49a0-8fa5-af1de95ee410"},"vehicle_type_id":"4","last_reported":1750489749,"current_range_meters":16800,"station_id":"ce4bgm92rcd13ifvqbr0","pricing_plan_id":"cebpf4jnsgd1na2vs0mg"},{"bike_id":"56faa6ab-2f83-450c-9e58-434be7d2d9fc","system_id":"levelo_inurba_marseille","lat":43.311146,"lon":5.377604,"is_reserved":false,"is_disabled":false,"rental_uris":{"android":"levelo://app?vid=56faa6ab-2f83-450c-9e58-434be7d2d9fc","ios":"levelo://app?vid=56faa6ab-2f83-450c-9e58-434be7d2d9fc"},"vehicle_type_id":"4","last_reported":1750489749,"current_range_meters":16800,"station_id":"ce4bgt92rcd13ifvqcg0","pricing_plan_id":"cebpf4jnsgd1na2vs0mg"},{"bike_id":"1289328c-2166-4054-b0b7-db1bcb46ecea","system_id":"levelo_inurba_marseille","lat":43.298958,"lon":5.397435,"is_reserved":false,"is_disabled":false,"rental_uris":{"android":"levelo://app?vid=1289328c-2166-4054-b0b7-db1bcb46ecea","ios":"levelo://app?vid=1289328c-2166-4054-b0b7-db1bcb46ecea"},"vehicle_type_id":"4","last_reported":1750489749,"current_range_meters":16800,"station_id":"ce4bh0h2rcd13ifvqd50","pricing_plan_id":"cebpf4jnsgd1na2vs0mg"},{"bike_id":"bd0e21dd-d9ab-4dff-bd21-d82cad0adff7","system_id":"levelo_inurba_marseille","lat":43.26501,"lon":5.39527,"is_reserved":false,"is_disabled":false,"rental_uris":{"android":"levelo://app?vid=bd0e21dd-d9ab-4dff-bd21-d82cad0adff7","ios":"levelo://app?vid=bd0e21dd-d9ab-4dff-bd21-d82cad0adff7"},"vehicle_type_id":"4","last_reported":1750489749,"current_range_meters":16800,"station_id":"ce4bhi12rcd13ifvqfq0","pricing_plan_id":"cebpf4jnsgd1na2vs0mg"},{"bike_id":"38b4578b-d322-4ae7-86ef-2a7e9839b4fd","system_id":"levelo_inurba_marseille","lat":43.212117,"lon":5.350463,"is_reserved":false,"is_disabled":false,"rental_uris":{"android":"levelo://app?vid=38b4578b-d322-4ae7-86ef-2a7e9839b4fd","ios":"levelo://app?vid=38b4578b-d322-4ae7-86ef-2a7e9839b4fd"},"vehicle_type_id":"4","last_reported":1750489749,"current_range_meters":16800,"station_id":"st_cvj6sg6p6f1abm77japg","pricing_plan_id":"cebpf4jnsgd1na2vs0mg"},{"bike_id":"6a4b59b0-64b7-4950-ae73-2324ba55dcce","system_id":"levelo_inurba_marseille","lat":43.330197,"lon":5.38152,"is_reserved":false,"is_disabled":false,"rental_uris":{"android":"levelo://app?vid=6a4b59b0-64b7-4950-ae73-2324ba55dcce","ios":"levelo://app?vid=6a4b59b0-64b7-4950-ae73-2324ba55dcce"},"vehicle_type_id":"4","last_reported":1750489749,"current_range_meters":17200,"station_id":"","pricing_plan_id":"cebpf4jnsgd1na2vs0mg"},{"bike_id":"e027c74d-1962-483a-84e7-7fc299e599a5","system_id":"levelo_inurba_marseille","lat":43.30328,"lon":5.40079,"is_reserved":false,"is_disabled":false,"rental_uris":{"android":"levelo://app?vid=e027c74d-1962-483a-84e7-7fc299e599a5","ios":"levelo://app?vid=e027c74d-1962-483a-84e7-7fc299e599a5"},"vehicle_type_id":"4","last_reported":1750489749,"current_range_meters":17200,"station_id":"","pricing_plan_id":"cebpf4jnsgd1na2vs0mg"},{"bike_id":"f6069a5d-a2bc-44cc-bc6f-f26f79591d92","system_id":"levelo_inurba_marseille","lat":43.30785,"lon":5.37365,"is_reserved":false,"is_disabled":false,"rental_uris":{"android":"levelo://app?vid=f6069a5d-a2bc-44cc-bc6f-f26f79591d92","ios":"levelo://app?vid=f6069a5d-a2bc-44cc-bc6f-f26f79591d92"},"vehicle_type_id":"4","last_reported":1750489749,"current_range_meters":17200,"station_id":"","pricing_plan_id":"cebpf4jnsgd1na2vs0mg"},{"bike_id":"acf4c5ba-491d-4c2c-b805-de116280a2fc","system_id":"levelo_inurba_marseille","lat":43.292788,"lon":5.401118,"is_reserved":false,"is_disabled":false,"rental_uris":{"android":"levelo://app?vid=acf4c5ba-491d-4c2c-b805-de116280a2fc","ios":"levelo://app?vid=acf4c5ba-491d-4c2c-b805-de116280a2fc"},"vehicle_type_id":"4","last_reported":1750489749,"current_range_meters":17200,"station_id":"ce4bh312rcd13ifvqdk0","pricing_plan_id":"cebpf4jnsgd1na2vs0mg"},{"bike_id":"f1334ccd-572a-45ad-8ee3-ade2b04fe912","system_id":"levelo_inurba_marseille","lat":43.31116,"lon":5.37761,"is_reserved":false,"is_disabled":false,"rental_uris":{"android":"levelo://app?vid=f1334ccd-572a-45ad-8ee3-ade2b04fe912","ios":"levelo://app?vid=f1334ccd-572a-45ad-8ee3-ade2b04fe912"},"vehicle_type_id":"4","last_reported":1750489749,"current_range_meters":17600,"station_id":"ce4bgt92rcd13ifvqcg0","pricing_plan_id":"cebpf4jnsgd1na2vs0mg"},{"bike_id":"8654e402-1798-40f1-a9cd-a37b5887b3ad","system_id":"levelo_inurba_marseille","lat":43.30948,"lon":5.39055,"is_reserved":false,"is_disabled":false,"rental_uris":{"android":"levelo://app?vid=8654e402-1798-40f1-a9cd-a37b5887b3ad","ios":"levelo://app?vid=8654e402-1798-40f1-a9cd-a37b5887b3ad"},"vehicle_type_id":"4","last_reported":1750489749,"current_range_meters":17600,"station_id":"ce4bgup2rcd13ifvqco0","pricing_plan_id":"cebpf4jnsgd1na2vs0mg"},{"bike_id":"1b45921b-2375-4f5e-9fc0-95f00e334491","system_id":"levelo_inurba_marseille","lat":43.31312,"lon":5.3969,"is_reserved":false,"is_disabled":false,"rental_uris":{"android":"levelo://app?vid=1b45921b-2375-4f5e-9fc0-95f00e334491","ios":"levelo://app?vid=1b45921b-2375-4f5e-9fc0-95f00e334491"},"vehicle_type_id":"4","last_reported":1750489749,"current_range_meters":17600,"station_id":"ce4bgvp2rcd13ifvqcu0","pricing_plan_id":"cebpf4jnsgd1na2vs0mg"},{"bike_id":"269c3bdf-af5e-4656-89f5-602080b8a3e4","system_id":"levelo_inurba_marseille","lat":43.23978,"lon":5.36626,"is_reserved":false,"is_disabled":false,"rental_uris":{"android":"levelo://app?vid=269c3bdf-af5e-4656-89f5-602080b8a3e4","ios":"levelo://app?vid=269c3bdf-af5e-4656-89f5-602080b8a3e4"},"vehicle_type_id":"4","last_reported":1750489749,"current_range_meters":17600,"station_id":"ce4bhi12rcd13ifvqfp0","pricing_plan_id":"cebpf4jnsgd1na2vs0mg"},{"bike_id":"a45d765d-b082-4cc3-a836-1501da52c7d5","system_id":"levelo_inurba_marseille","lat":43.2582,"lon":5.39436,"is_reserved":false,"is_disabled":false,"rental_uris":{"android":"levelo://app?vid=a45d765d-b082-4cc3-a836-1501da52c7d5","ios":"levelo://app?vid=a45d765d-b082-4cc3-a836-1501da52c7d5"},"vehicle_type_id":"4","last_reported":1750489749,"current_range_meters":17600,"station_id":"ce4bhip2rcd13ifvqft0","pricing_plan_id":"cebpf4jnsgd1na2vs0mg"},{"bike_id":"cf077cfc-8295-4c86-b208-4d8963e12e17","system_id":"levelo_inurba_marseille","lat":43.27085,"lon":5.42255,"is_reserved":false,"is_disabled":false,"rental_uris":{"android":"levelo://app?vid=cf077cfc-8295-4c86-b208-4d8963e12e17","ios":"levelo://app?vid=cf077cfc-8295-4c86-b208-4d8963e12e17"},"vehicle_type_id":"4","last_reported":1750489749,"current_range_meters":17600,"station_id":"ce4bhk92rcd13ifvqgb0","pricing_plan_id":"cebpf4jnsgd1na2vs0mg"},{"bike_id":"dbe0dbe2-6a3e-4c81-a1e1-c7132a90da6d","system_id":"levelo_inurba_marseille","lat":43.25111,"lon":5.40316,"is_reserved":false,"is_disabled":false,"rental_uris":{"android":"levelo://app?vid=dbe0dbe2-6a3e-4c81-a1e1-c7132a90da6d","ios":"levelo://app?vid=dbe0dbe2-6a3e-4c81-a1e1-c7132a90da6d"},"vehicle_type_id":"4","last_reported":1750489749,"current_range_meters":17600,"station_id":"ce4bhlh2rcd13ifvqgig","pricing_plan_id":"cebpf4jnsgd1na2vs0mg"},{"bike_id":"75c573d9-a606-4039-9d9e-01f39b947d8d","system_id":"levelo_inurba_marseille","lat":43.23179,"lon":5.39987,"is_reserved":false,"is_disabled":false,"rental_uris":{"android":"levelo://app?vid=75c573d9-a606-4039-9d9e-01f39b947d8d","ios":"levelo://app?vid=75c573d9-a606-4039-9d9e-01f39b947d8d"},"vehicle_type_id":"4","last_reported":1750489749,"current_range_meters":17600,"station_id":"ce4bhn12rcd13ifvqgqg","pricing_plan_id":"cebpf4jnsgd1na2vs0mg"},{"bike_id":"1c6eee43-889f-4cff-bc8c-307447a31830","system_id":"levelo_inurba_marseille","lat":43.30805,"lon":5.43527,"is_reserved":false,"is_disabled":false,"rental_uris":{"android":"levelo://app?vid=1c6eee43-889f-4cff-bc8c-307447a31830","ios":"levelo://app?vid=1c6eee43-889f-4cff-bc8c-307447a31830"},"vehicle_type_id":"4","last_reported":1750489749,"current_range_meters":17600,"station_id":"ce4bhph2rcd13ifvqheg","pricing_plan_id":"cebpf4jnsgd1na2vs0mg"},{"bike_id":"04b016b0-78f2-4a40-9df3-2f41fff75a5c","system_id":"levelo_inurba_marseille","lat":43.21211,"lon":5.35063,"is_reserved":false,"is_disabled":false,"rental_uris":{"android":"levelo://app?vid=04b016b0-78f2-4a40-9df3-2f41fff75a5c","ios":"levelo://app?vid=04b016b0-78f2-4a40-9df3-2f41fff75a5c"},"vehicle_type_id":"4","last_reported":1750489749,"current_range_meters":17600,"station_id":"st_cvj6sg6p6f1abm77japg","pricing_plan_id":"cebpf4jnsgd1na2vs0mg"},{"bike_id":"51924496-d375-43d1-9f3c-2086be022a83","system_id":"levelo_inurba_marseille","lat":43.26023,"lon":5.38639,"is_reserved":false,"is_disabled":false,"rental_uris":{"android":"levelo://app?vid=51924496-d375-43d1-9f3c-2086be022a83","ios":"levelo://app?vid=51924496-d375-43d1-9f3c-2086be022a83"},"vehicle_type_id":"4","last_reported":1750489749,"current_range_meters":18000,"station_id":"","pricing_plan_id":"cebpf4jnsgd1na2vs0mg"},{"bike_id":"ffbb0c22-3f4e-4cdb-a0e5-79e3b9f3e1a2","system_id":"levelo_inurba_marseille","lat":43.33769,"lon":5.37469,"is_reserved":false,"is_disabled":false,"rental_uris":{"android":"levelo://app?vid=ffbb0c22-3f4e-4cdb-a0e5-79e3b9f3e1a2","ios":"levelo://app?vid=ffbb0c22-3f4e-4cdb-a0e5-79e3b9f3e1a2"},"vehicle_type_id":"4","last_reported":1750489749,"current_range_meters":18000,"station_id":"","pricing_plan_id":"cebpf4jnsgd1na2vs0mg"},{"bike_id":"283e24f6-100e-466a-9282-984daa0316dc","system_id":"levelo_inurba_marseille","lat":43.30181,"lon":5.36609,"is_reserved":false,"is_disabled":false,"rental_uris":{"android":"levelo://app?vid=283e24f6-100e-466a-9282-984daa0316dc","ios":"levelo://app?vid=283e24f6-100e-466a-9282-984daa0316dc"},"vehicle_type_id":"4","last_reported":1750489749,"current_range_meters":18000,"station_id":"ce4bgrh2rcd13ifvqc8g","pricing_plan_id":"cebpf4jnsgd1na2vs0mg"},{"bike_id":"26a2db9e-8b05-4c0c-b47a-9a45345f2484","system_id":"levelo_inurba_marseille","lat":43.30439,"lon":5.39749,"is_reserved":false,"is_disabled":false,"rental_uris":{"android":"levelo://app?vid=26a2db9e-8b05-4c0c-b47a-9a45345f2484","ios":"levelo://app?vid=26a2db9e-8b05-4c0c-b47a-9a45345f2484"},"vehicle_type_id":"4","last_reported":1750489749,"current_range_meters":18000,"station_id":"ce4bh092rcd13ifvqd20","pricing_plan_id":"cebpf4jnsgd1na2vs0mg"},{"bike_id":"e1923973-da41-4df0-b8a8-20981ae5e691","system_id":"levelo_inurba_marseille","lat":43.290356,"lon":5.399709,"is_reserved":false,"is_disabled":false,"rental_uris":{"android":"levelo://app?vid=e1923973-da41-4df0-b8a8-20981ae5e691","ios":"levelo://app?vid=e1923973-da41-4df0-b8a8-20981ae5e691"},"vehicle_type_id":"4","last_reported":1750489749,"current_range_meters":18000,"station_id":"ce4bh392rcd13ifvqdm0","pricing_plan_id":"cebpf4jnsgd1na2vs0mg"},{"bike_id":"f40fbac2-af4d-4df6-81a0-f8c7e8e050b5","system_id":"levelo_inurba_marseille","lat":43.27211,"lon":5.39188,"is_reserved":false,"is_disabled":false,"rental_uris":{"android":"levelo://app?vid=f40fbac2-af4d-4df6-81a0-f8c7e8e050b5","ios":"levelo://app?vid=f40fbac2-af4d-4df6-81a0-f8c7e8e050b5"},"vehicle_type_id":"4","last_reported":1750489749,"current_range_meters":18000,"station_id":"ce4bhhp2rcd13ifvqfm0","pricing_plan_id":"cebpf4jnsgd1na2vs0mg"},{"bike_id":"82b609eb-4bb1-412b-8dd3-ab5548ecab23","system_id":"levelo_inurba_marseille","lat":43.270687,"lon":5.422809,"is_reserved":false,"is_disabled":false,"rental_uris":{"android":"levelo://app?vid=82b609eb-4bb1-412b-8dd3-ab5548ecab23","ios":"levelo://app?vid=82b609eb-4bb1-412b-8dd3-ab5548ecab23"},"vehicle_type_id":"4","last_reported":1750489749,"current_range_meters":18000,"station_id":"ce4bhk92rcd13ifvqgb0","pricing_plan_id":"cebpf4jnsgd1na2vs0mg"},{"bike_id":"1e394239-d873-46d7-806d-fa98483a8220","system_id":"levelo_inurba_marseille","lat":43.26237,"lon":5.40433,"is_reserved":false,"is_disabled":false,"rental_uris":{"android":"levelo://app?vid=1e394239-d873-46d7-806d-fa98483a8220","ios":"levelo://app?vid=1e394239-d873-46d7-806d-fa98483a8220"},"vehicle_type_id":"4","last_reported":1750489749,"current_range_meters":18000,"station_id":"ce4bhmh2rcd13ifvqgmg","pricing_plan_id":"cebpf4jnsgd1na2vs0mg"},{"bike_id":"242617fe-5a92-4a1a-a166-16df37edb0a1","system_id":"levelo_inurba_marseille","lat":43.23181,"lon":5.3999,"is_reserved":false,"is_disabled":false,"rental_uris":{"android":"levelo://app?vid=242617fe-5a92-4a1a-a166-16df37edb0a1","ios":"levelo://app?vid=242617fe-5a92-4a1a-a166-16df37edb0a1"},"vehicle_type_id":"4","last_reported":1750489749,"current_range_meters":18000,"station_id":"ce4bhn12rcd13ifvqgqg","pricing_plan_id":"cebpf4jnsgd1na2vs0mg"},{"bike_id":"4d80d21e-3dc9-4004-a3c0-eb7b371a8ccf","system_id":"levelo_inurba_marseille","lat":43.33017,"lon":5.39423,"is_reserved":false,"is_disabled":false,"rental_uris":{"android":"levelo://app?vid=4d80d21e-3dc9-4004-a3c0-eb7b371a8ccf","ios":"levelo://app?vid=4d80d21e-3dc9-4004-a3c0-eb7b371a8ccf"},"vehicle_type_id":"4","last_reported":1750489749,"current_range_meters":18800,"station_id":"","pricing_plan_id":"cebpf4jnsgd1na2vs0mg"},{"bike_id":"91d988b7-666c-44b2-b2e1-aca873c9037e","system_id":"levelo_inurba_marseille","lat":43.29988,"lon":5.39875,"is_reserved":false,"is_disabled":false,"rental_uris":{"android":"levelo://app?vid=91d988b7-666c-44b2-b2e1-aca873c9037e","ios":"levelo://app?vid=91d988b7-666c-44b2-b2e1-aca873c9037e"},"vehicle_type_id":"4","last_reported":1750489749,"current_range_meters":18800,"station_id":"","pricing_plan_id":"cebpf4jnsgd1na2vs0mg"},{"bike_id":"3326a6fa-54ee-4cad-bd77-62c32ddf91d1","system_id":"levelo_inurba_marseille","lat":43.3139,"lon":5.38511,"is_reserved":false,"is_disabled":false,"rental_uris":{"android":"levelo://app?vid=3326a6fa-54ee-4cad-bd77-62c32ddf91d1","ios":"levelo://app?vid=3326a6fa-54ee-4cad-bd77-62c32ddf91d1"},"vehicle_type_id":"4","last_reported":1750489749,"current_range_meters":18800,"station_id":"ce4bgt92rcd13ifvqcf0","pricing_plan_id":"cebpf4jnsgd1na2vs0mg"},{"bike_id":"b5d947f7-95c5-47f8-b09b-a0d2b3006247","system_id":"levelo_inurba_marseille","lat":43.31327,"lon":5.39687,"is_reserved":false,"is_disabled":false,"rental_uris":{"android":"levelo://app?vid=b5d947f7-95c5-47f8-b09b-a0d2b3006247","ios":"levelo://app?vid=b5d947f7-95c5-47f8-b09b-a0d2b3006247"},"vehicle_type_id":"4","last_reported":1750489749,"current_range_meters":18800,"station_id":"ce4bgvp2rcd13ifvqcu0","pricing_plan_id":"cebpf4jnsgd1na2vs0mg"},{"bike_id":"f8df2956-f236-4a57-bc5d-1884300c4377","system_id":"levelo_inurba_marseille","lat":43.31281,"lon":5.40167,"is_reserved":false,"is_disabled":false,"rental_uris":{"android":"levelo://app?vid=f8df2956-f236-4a57-bc5d-1884300c4377","ios":"levelo://app?vid=f8df2956-f236-4a57-bc5d-1884300c4377"},"vehicle_type_id":"4","last_reported":1750489749,"current_range_meters":18800,"station_id":"ce4bh092rcd13ifvqd30","pricing_plan_id":"cebpf4jnsgd1na2vs0mg"},{"bike_id":"c8b308e1-bd18-4c17-92e7-f5918af66970","system_id":"levelo_inurba_marseille","lat":43.30653,"lon":5.40045,"is_reserved":false,"is_disabled":false,"rental_uris":{"android":"levelo://app?vid=c8b308e1-bd18-4c17-92e7-f5918af66970","ios":"levelo://app?vid=c8b308e1-bd18-4c17-92e7-f5918af66970"},"vehicle_type_id":"4","last_reported":1750489749,"current_range_meters":18800,"station_id":"ce4bh112rcd13ifvqda0","pricing_plan_id":"cebpf4jnsgd1na2vs0mg"},{"bike_id":"ef63bf4d-6c01-4a74-86e9-35921c48f925","system_id":"levelo_inurba_marseille","lat":43.306465,"lon":5.400674,"is_reserved":false,"is_disabled":false,"rental_uris":{"android":"levelo://app?vid=ef63bf4d-6c01-4a74-86e9-35921c48f925","ios":"levelo://app?vid=ef63bf4d-6c01-4a74-86e9-35921c48f925"},"vehicle_type_id":"4","last_reported":1750489749,"current_range_meters":18800,"station_id":"ce4bh112rcd13ifvqda0","pricing_plan_id":"cebpf4jnsgd1na2vs0mg"},{"bike_id":"df0fba21-f3e5-40e1-b187-231203706010","system_id":"levelo_inurba_marseille","lat":43.28558,"lon":5.39549,"is_reserved":false,"is_disabled":false,"rental_uris":{"android":"levelo://app?vid=df0fba21-f3e5-40e1-b187-231203706010","ios":"levelo://app?vid=df0fba21-f3e5-40e1-b187-231203706010"},"vehicle_type_id":"4","last_reported":1750489749,"current_range_meters":18800,"station_id":"ce4bh292rcd13ifvqdg0","pricing_plan_id":"cebpf4jnsgd1na2vs0mg"},{"bike_id":"bdca7c21-5d68-42ff-9a53-b840e5e7b3fd","system_id":"levelo_inurba_marseille","lat":43.27379,"lon":5.36253,"is_reserved":false,"is_disabled":false,"rental_uris":{"android":"levelo://app?vid=bdca7c21-5d68-42ff-9a53-b840e5e7b3fd","ios":"levelo://app?vid=bdca7c21-5d68-42ff-9a53-b840e5e7b3fd"},"vehicle_type_id":"4","last_reported":1750489749,"current_range_meters":18800,"station_id":"ce4bhbh2rcd13ifvqeo0","pricing_plan_id":"cebpf4jnsgd1na2vs0mg"},{"bike_id":"bebf48ce-610e-4dcf-8821-de72f87780a8","system_id":"levelo_inurba_marseille","lat":43.28262,"lon":5.35066,"is_reserved":false,"is_disabled":false,"rental_uris":{"android":"levelo://app?vid=bebf48ce-610e-4dcf-8821-de72f87780a8","ios":"levelo://app?vid=bebf48ce-610e-4dcf-8821-de72f87780a8"},"vehicle_type_id":"4","last_reported":1750489749,"current_range_meters":18800,"station_id":"ce4bhbp2rcd13ifvqerg","pricing_plan_id":"cebpf4jnsgd1na2vs0mg"},{"bike_id":"0b23f5cc-2064-4240-95d7-a566178f44f6","system_id":"levelo_inurba_marseille","lat":43.27062,"lon":5.40256,"is_reserved":false,"is_disabled":false,"rental_uris":{"android":"levelo://app?vid=0b23f5cc-2064-4240-95d7-a566178f44f6","ios":"levelo://app?vid=0b23f5cc-2064-4240-95d7-a566178f44f6"},"vehicle_type_id":"4","last_reported":1750489749,"current_range_meters":18800,"station_id":"ce4bhk92rcd13ifvqgc0","pricing_plan_id":"cebpf4jnsgd1na2vs0mg"},{"bike_id":"7f314a38-1be9-45d2-92b1-8cb0efa6a771","system_id":"levelo_inurba_marseille","lat":43.24071,"lon":5.37766,"is_reserved":false,"is_disabled":false,"rental_uris":{"android":"levelo://app?vid=7f314a38-1be9-45d2-92b1-8cb0efa6a771","ios":"levelo://app?vid=7f314a38-1be9-45d2-92b1-8cb0efa6a771"},"vehicle_type_id":"4","last_reported":1750489749,"current_range_meters":18800,"station_id":"ce4bhnp2rcd13ifvqgvg","pricing_plan_id":"cebpf4jnsgd1na2vs0mg"},{"bike_id":"fe686156-bf86-4e13-9573-6f0f3ee81efc","system_id":"levelo_inurba_marseille","lat":43.27937,"lon":5.41045,"is_reserved":false,"is_disabled":false,"rental_uris":{"android":"levelo://app?vid=fe686156-bf86-4e13-9573-6f0f3ee81efc","ios":"levelo://app?vid=fe686156-bf86-4e13-9573-6f0f3ee81efc"},"vehicle_type_id":"4","last_reported":1750489749,"current_range_meters":18800,"station_id":"ce4bhnp2rcd13ifvqh0g","pricing_plan_id":"cebpf4jnsgd1na2vs0mg"},{"bike_id":"4d4df371-4a07-4078-b66c-0646e04ad4bf","system_id":"levelo_inurba_marseille","lat":43.29893,"lon":5.4367,"is_reserved":false,"is_disabled":false,"rental_uris":{"android":"levelo://app?vid=4d4df371-4a07-4078-b66c-0646e04ad4bf","ios":"levelo://app?vid=4d4df371-4a07-4078-b66c-0646e04ad4bf"},"vehicle_type_id":"4","last_reported":1750489749,"current_range_meters":18800,"station_id":"ce4bhpp2rcd13ifvqhfg","pricing_plan_id":"cebpf4jnsgd1na2vs0mg"},{"bike_id":"dc1db63d-5468-44d8-958f-b819dd58751d","system_id":"levelo_inurba_marseille","lat":43.323317,"lon":5.406247,"is_reserved":false,"is_disabled":false,"rental_uris":{"android":"levelo://app?vid=dc1db63d-5468-44d8-958f-b819dd58751d","ios":"levelo://app?vid=dc1db63d-5468-44d8-958f-b819dd58751d"},"vehicle_type_id":"4","last_reported":1750489749,"current_range_meters":18800,"station_id":"ce4bhq92rcd13ifvqhjg","pricing_plan_id":"cebpf4jnsgd1na2vs0mg"},{"bike_id":"4b0f5bed-c4d5-4519-a6bb-723551f1da73","system_id":"levelo_inurba_marseille","lat":43.30147,"lon":5.38062,"is_reserved":false,"is_disabled":false,"rental_uris":{"android":"levelo://app?vid=4b0f5bed-c4d5-4519-a6bb-723551f1da73","ios":"levelo://app?vid=4b0f5bed-c4d5-4519-a6bb-723551f1da73"},"vehicle_type_id":"4","last_reported":1750489749,"current_range_meters":19200,"station_id":"ce4bgjp2rcd13ifvqbh0","pricing_plan_id":"cebpf4jnsgd1na2vs0mg"},{"bike_id":"c626881c-e8ba-4c5a-abe1-707f5dba6948","system_id":"levelo_inurba_marseille","lat":43.31492,"lon":5.373,"is_reserved":false,"is_disabled":false,"rental_uris":{"android":"levelo://app?vid=c626881c-e8ba-4c5a-abe1-707f5dba6948","ios":"levelo://app?vid=c626881c-e8ba-4c5a-abe1-707f5dba6948"},"vehicle_type_id":"4","last_reported":1750489749,"current_range_meters":19200,"station_id":"ce4bgt12rcd13ifvqcd0","pricing_plan_id":"cebpf4jnsgd1na2vs0mg"},{"bike_id":"04ee8092-af10-41ed-81db-f72403d43288","system_id":"levelo_inurba_marseille","lat":43.30891,"lon":5.39645,"is_reserved":false,"is_disabled":false,"rental_uris":{"android":"levelo://app?vid=04ee8092-af10-41ed-81db-f72403d43288","ios":"levelo://app?vid=04ee8092-af10-41ed-81db-f72403d43288"},"vehicle_type_id":"4","last_reported":1750489749,"current_range_meters":19200,"station_id":"ce4bh012rcd13ifvqcv0","pricing_plan_id":"cebpf4jnsgd1na2vs0mg"},{"bike_id":"55b0a1e6-ecab-4d37-aef2-b2afd7dbbed7","system_id":"levelo_inurba_marseille","lat":43.301298,"lon":5.398775,"is_reserved":false,"is_disabled":false,"rental_uris":{"android":"levelo://app?vid=55b0a1e6-ecab-4d37-aef2-b2afd7dbbed7","ios":"levelo://app?vid=55b0a1e6-ecab-4d37-aef2-b2afd7dbbed7"},"vehicle_type_id":"4","last_reported":1750489749,"current_range_meters":19200,"station_id":"ce4bh0h2rcd13ifvqd40","pricing_plan_id":"cebpf4jnsgd1na2vs0mg"},{"bike_id":"a35905cb-179f-42a7-8923-28754546fd4c","system_id":"levelo_inurba_marseille","lat":43.27997,"lon":5.40011,"is_reserved":false,"is_disabled":false,"rental_uris":{"android":"levelo://app?vid=a35905cb-179f-42a7-8923-28754546fd4c","ios":"levelo://app?vid=a35905cb-179f-42a7-8923-28754546fd4c"},"vehicle_type_id":"4","last_reported":1750489749,"current_range_meters":19200,"station_id":"ce4bho92rcd13ifvqh4g","pricing_plan_id":"cebpf4jnsgd1na2vs0mg"},{"bike_id":"a1eb72e2-2c7f-4052-b74b-29c3ea717b75","system_id":"levelo_inurba_marseille","lat":43.31898,"lon":5.40697,"is_reserved":false,"is_disabled":false,"rental_uris":{"android":"levelo://app?vid=a1eb72e2-2c7f-4052-b74b-29c3ea717b75","ios":"levelo://app?vid=a1eb72e2-2c7f-4052-b74b-29c3ea717b75"},"vehicle_type_id":"4","last_reported":1750489749,"current_range_meters":19200,"station_id":"ce4bhq12rcd13ifvqhig","pricing_plan_id":"cebpf4jnsgd1na2vs0mg"},{"bike_id":"89006e17-3a33-46d7-a57b-67f07f8af45a","system_id":"levelo_inurba_marseille","lat":43.25117,"lon":5.40327,"is_reserved":false,"is_disabled":false,"rental_uris":{"android":"levelo://app?vid=89006e17-3a33-46d7-a57b-67f07f8af45a","ios":"levelo://app?vid=89006e17-3a33-46d7-a57b-67f07f8af45a"},"vehicle_type_id":"4","last_reported":1750489749,"current_range_meters":19600,"station_id":"","pricing_plan_id":"cebpf4jnsgd1na2vs0mg"},{"bike_id":"c7a8b653-0ff6-4a79-9663-a017d10ac616","system_id":"levelo_inurba_marseille","lat":43.29049,"lon":5.39972,"is_reserved":false,"is_disabled":false,"rental_uris":{"android":"levelo://app?vid=c7a8b653-0ff6-4a79-9663-a017d10ac616","ios":"levelo://app?vid=c7a8b653-0ff6-4a79-9663-a017d10ac616"},"vehicle_type_id":"4","last_reported":1750489749,"current_range_meters":19600,"station_id":"ce4bh392rcd13ifvqdm0","pricing_plan_id":"cebpf4jnsgd1na2vs0mg"},{"bike_id":"e77808e6-212b-4e0d-ba1b-2ad3fe81da73","system_id":"levelo_inurba_marseille","lat":43.251161,"lon":5.403243,"is_reserved":false,"is_disabled":false,"rental_uris":{"android":"levelo://app?vid=e77808e6-212b-4e0d-ba1b-2ad3fe81da73","ios":"levelo://app?vid=e77808e6-212b-4e0d-ba1b-2ad3fe81da73"},"vehicle_type_id":"4","last_reported":1750489749,"current_range_meters":19600,"station_id":"ce4bhlh2rcd13ifvqgig","pricing_plan_id":"cebpf4jnsgd1na2vs0mg"},{"bike_id":"5e372528-2077-476b-a84f-f2201c11536d","system_id":"levelo_inurba_marseille","lat":43.28145,"lon":5.4264,"is_reserved":false,"is_disabled":false,"rental_uris":{"android":"levelo://app?vid=5e372528-2077-476b-a84f-f2201c11536d","ios":"levelo://app?vid=5e372528-2077-476b-a84f-f2201c11536d"},"vehicle_type_id":"4","last_reported":1750489749,"current_range_meters":19600,"station_id":"ce4bhnh2rcd13ifvqgug","pricing_plan_id":"cebpf4jnsgd1na2vs0mg"},{"bike_id":"44f91d9d-a072-4666-b130-0587846c0cfd","system_id":"levelo_inurba_marseille","lat":43.31891,"lon":5.40733,"is_reserved":false,"is_disabled":false,"rental_uris":{"android":"levelo://app?vid=44f91d9d-a072-4666-b130-0587846c0cfd","ios":"levelo://app?vid=44f91d9d-a072-4666-b130-0587846c0cfd"},"vehicle_type_id":"4","last_reported":1750489749,"current_range_meters":19600,"station_id":"ce4bhq12rcd13ifvqhig","pricing_plan_id":"cebpf4jnsgd1na2vs0mg"},{"bike_id":"453d76fb-bf47-4263-ae9f-4511bfafcee7","system_id":"levelo_inurba_marseille","lat":43.29605,"lon":5.3772,"is_reserved":false,"is_disabled":false,"rental_uris":{"android":"levelo://app?vid=453d76fb-bf47-4263-ae9f-4511bfafcee7","ios":"levelo://app?vid=453d76fb-bf47-4263-ae9f-4511bfafcee7"},"vehicle_type_id":"4","last_reported":1750489749,"current_range_meters":20000,"station_id":"ce4bgi92rcd13ifvqb90","pricing_plan_id":"cebpf4jnsgd1na2vs0mg"},{"bike_id":"925fbd4a-e92a-4de4-b2be-fa9d44fdd9f1","system_id":"levelo_inurba_marseille","lat":43.29867,"lon":5.39732,"is_reserved":false,"is_disabled":false,"rental_uris":{"android":"levelo://app?vid=925fbd4a-e92a-4de4-b2be-fa9d44fdd9f1","ios":"levelo://app?vid=925fbd4a-e92a-4de4-b2be-fa9d44fdd9f1"},"vehicle_type_id":"4","last_reported":1750489749,"current_range_meters":20000,"station_id":"ce4bh0h2rcd13ifvqd50","pricing_plan_id":"cebpf4jnsgd1na2vs0mg"},{"bike_id":"037bb55c-581c-4b44-b072-28cff3505ef8","system_id":"levelo_inurba_marseille","lat":43.29025,"lon":5.39996,"is_reserved":false,"is_disabled":false,"rental_uris":{"android":"levelo://app?vid=037bb55c-581c-4b44-b072-28cff3505ef8","ios":"levelo://app?vid=037bb55c-581c-4b44-b072-28cff3505ef8"},"vehicle_type_id":"4","last_reported":1750489749,"current_range_meters":20000,"station_id":"ce4bh392rcd13ifvqdm0","pricing_plan_id":"cebpf4jnsgd1na2vs0mg"},{"bike_id":"fe7ff49d-f73c-4d4a-b369-9bc703c18401","system_id":"levelo_inurba_marseille","lat":43.24386,"lon":5.37054,"is_reserved":false,"is_disabled":false,"rental_uris":{"android":"levelo://app?vid=fe7ff49d-f73c-4d4a-b369-9bc703c18401","ios":"levelo://app?vid=fe7ff49d-f73c-4d4a-b369-9bc703c18401"},"vehicle_type_id":"4","last_reported":1750489749,"current_range_meters":20000,"station_id":"ce4bhhh2rcd13ifvqfk0","pricing_plan_id":"cebpf4jnsgd1na2vs0mg"},{"bike_id":"37967699-9626-41b5-a5f9-8419eeae5de5","system_id":"levelo_inurba_marseille","lat":43.24179,"lon":5.39711,"is_reserved":false,"is_disabled":false,"rental_uris":{"android":"levelo://app?vid=37967699-9626-41b5-a5f9-8419eeae5de5","ios":"levelo://app?vid=37967699-9626-41b5-a5f9-8419eeae5de5"},"vehicle_type_id":"4","last_reported":1750489749,"current_range_meters":20000,"station_id":"ce4bhn12rcd13ifvqgpg","pricing_plan_id":"cebpf4jnsgd1na2vs0mg"},{"bike_id":"9415da86-e212-4480-9a8c-eebefdbd63dd","system_id":"levelo_inurba_marseille","lat":43.28426,"lon":5.39187,"is_reserved":false,"is_disabled":false,"rental_uris":{"android":"levelo://app?vid=9415da86-e212-4480-9a8c-eebefdbd63dd","ios":"levelo://app?vid=9415da86-e212-4480-9a8c-eebefdbd63dd"},"vehicle_type_id":"4","last_reported":1750489749,"current_range_meters":20000,"station_id":"ce4bhoh2rcd13ifvqh5g","pricing_plan_id":"cebpf4jnsgd1na2vs0mg"},{"bike_id":"b954ad20-8866-4808-9736-0e481591598c","system_id":"levelo_inurba_marseille","lat":43.326001,"lon":5.377608,"is_reserved":false,"is_disabled":false,"rental_uris":{"android":"levelo://app?vid=b954ad20-8866-4808-9736-0e481591598c","ios":"levelo://app?vid=b954ad20-8866-4808-9736-0e481591598c"},"vehicle_type_id":"4","last_reported":1750489749,"current_range_meters":20400,"station_id":"","pricing_plan_id":"cebpf4jnsgd1na2vs0mg"},{"bike_id":"fa47ac06-ab95-476b-9764-f102eb9f173d","system_id":"levelo_inurba_marseille","lat":43.29046,"lon":5.39899,"is_reserved":false,"is_disabled":false,"rental_uris":{"android":"levelo://app?vid=fa47ac06-ab95-476b-9764-f102eb9f173d","ios":"levelo://app?vid=fa47ac06-ab95-476b-9764-f102eb9f173d"},"vehicle_type_id":"4","last_reported":1750489749,"current_range_meters":20400,"station_id":"","pricing_plan_id":"cebpf4jnsgd1na2vs0mg"},{"bike_id":"678d72e7-30b1-4e96-959a-e1dd1bd379be","system_id":"levelo_inurba_marseille","lat":43.29532,"lon":5.38544,"is_reserved":false,"is_disabled":false,"rental_uris":{"android":"levelo://app?vid=678d72e7-30b1-4e96-959a-e1dd1bd379be","ios":"levelo://app?vid=678d72e7-30b1-4e96-959a-e1dd1bd379be"},"vehicle_type_id":"4","last_reported":1750489749,"current_range_meters":20400,"station_id":"ce4bgih2rcd13ifvqba0","pricing_plan_id":"cebpf4jnsgd1na2vs0mg"},{"bike_id":"3c26c873-bc10-4bbe-87b1-80d007ed2d15","system_id":"levelo_inurba_marseille","lat":43.29778,"lon":5.37105,"is_reserved":false,"is_disabled":false,"rental_uris":{"android":"levelo://app?vid=3c26c873-bc10-4bbe-87b1-80d007ed2d15","ios":"levelo://app?vid=3c26c873-bc10-4bbe-87b1-80d007ed2d15"},"vehicle_type_id":"4","last_reported":1750489749,"current_range_meters":20400,"station_id":"ce4bgop2rcd13ifvqc1g","pricing_plan_id":"cebpf4jnsgd1na2vs0mg"},{"bike_id":"ec8b02da-2217-4463-ac58-b1a702c014a3","system_id":"levelo_inurba_marseille","lat":43.29277,"lon":5.401217,"is_reserved":false,"is_disabled":false,"rental_uris":{"android":"levelo://app?vid=ec8b02da-2217-4463-ac58-b1a702c014a3","ios":"levelo://app?vid=ec8b02da-2217-4463-ac58-b1a702c014a3"},"vehicle_type_id":"4","last_reported":1750489749,"current_range_meters":20400,"station_id":"ce4bh312rcd13ifvqdk0","pricing_plan_id":"cebpf4jnsgd1na2vs0mg"},{"bike_id":"d5d4ea08-5286-42f6-8cc4-138a5180b07c","system_id":"levelo_inurba_marseille","lat":43.25009,"lon":5.38931,"is_reserved":false,"is_disabled":false,"rental_uris":{"android":"levelo://app?vid=d5d4ea08-5286-42f6-8cc4-138a5180b07c","ios":"levelo://app?vid=d5d4ea08-5286-42f6-8cc4-138a5180b07c"},"vehicle_type_id":"4","last_reported":1750489749,"current_range_meters":20400,"station_id":"ce4bhgp2rcd13ifvqfd0","pricing_plan_id":"cebpf4jnsgd1na2vs0mg"},{"bike_id":"e9eb657c-400f-41ee-97de-58790aa5151d","system_id":"levelo_inurba_marseille","lat":43.26224,"lon":5.4045,"is_reserved":false,"is_disabled":false,"rental_uris":{"android":"levelo://app?vid=e9eb657c-400f-41ee-97de-58790aa5151d","ios":"levelo://app?vid=e9eb657c-400f-41ee-97de-58790aa5151d"},"vehicle_type_id":"4","last_reported":1750489749,"current_range_meters":20400,"station_id":"ce4bhmh2rcd13ifvqgmg","pricing_plan_id":"cebpf4jnsgd1na2vs0mg"},{"bike_id":"a2278bd9-c198-40d0-9562-81172fc445cb","system_id":"levelo_inurba_marseille","lat":43.32048,"lon":5.41465,"is_reserved":false,"is_disabled":false,"rental_uris":{"android":"levelo://app?vid=a2278bd9-c198-40d0-9562-81172fc445cb","ios":"levelo://app?vid=a2278bd9-c198-40d0-9562-81172fc445cb"},"vehicle_type_id":"4","last_reported":1750489749,"current_range_meters":20400,"station_id":"ce4bhq92rcd13ifvqhkg","pricing_plan_id":"cebpf4jnsgd1na2vs0mg"},{"bike_id":"377ec864-6a07-4987-8844-392b5fb8234b","system_id":"levelo_inurba_marseille","lat":43.31816,"lon":5.38737,"is_reserved":false,"is_disabled":false,"rental_uris":{"android":"levelo://app?vid=377ec864-6a07-4987-8844-392b5fb8234b","ios":"levelo://app?vid=377ec864-6a07-4987-8844-392b5fb8234b"},"vehicle_type_id":"4","last_reported":1750489749,"current_range_meters":20800,"station_id":"","pricing_plan_id":"cebpf4jnsgd1na2vs0mg"},{"bike_id":"f0a62026-4e1b-4dba-a8af-b16a30d457be","system_id":"levelo_inurba_marseille","lat":43.26677,"lon":5.38264,"is_reserved":false,"is_disabled":false,"rental_uris":{"android":"levelo://app?vid=f0a62026-4e1b-4dba-a8af-b16a30d457be","ios":"levelo://app?vid=f0a62026-4e1b-4dba-a8af-b16a30d457be"},"vehicle_type_id":"4","last_reported":1750489749,"current_range_meters":20800,"station_id":"ce4bhg92rcd13ifvqf90","pricing_plan_id":"cebpf4jnsgd1na2vs0mg"},{"bike_id":"d17dfa65-3223-4d45-807a-c0a52bb205ee","system_id":"levelo_inurba_marseille","lat":43.23972,"lon":5.36624,"is_reserved":false,"is_disabled":false,"rental_uris":{"android":"levelo://app?vid=d17dfa65-3223-4d45-807a-c0a52bb205ee","ios":"levelo://app?vid=d17dfa65-3223-4d45-807a-c0a52bb205ee"},"vehicle_type_id":"4","last_reported":1750489749,"current_range_meters":20800,"station_id":"ce4bhi12rcd13ifvqfp0","pricing_plan_id":"cebpf4jnsgd1na2vs0mg"},{"bike_id":"7b1bca12-b663-491e-8b75-bbaab059a430","system_id":"levelo_inurba_marseille","lat":43.2417,"lon":5.39736,"is_reserved":false,"is_disabled":false,"rental_uris":{"android":"levelo://app?vid=7b1bca12-b663-491e-8b75-bbaab059a430","ios":"levelo://app?vid=7b1bca12-b663-491e-8b75-bbaab059a430"},"vehicle_type_id":"4","last_reported":1750489749,"current_range_meters":20800,"station_id":"ce4bhn12rcd13ifvqgpg","pricing_plan_id":"cebpf4jnsgd1na2vs0mg"},{"bike_id":"c1bfe059-dc8b-4a59-9d74-d550781388b9","system_id":"levelo_inurba_marseille","lat":43.295313,"lon":5.385461,"is_reserved":false,"is_disabled":false,"rental_uris":{"android":"levelo://app?vid=c1bfe059-dc8b-4a59-9d74-d550781388b9","ios":"levelo://app?vid=c1bfe059-dc8b-4a59-9d74-d550781388b9"},"vehicle_type_id":"4","last_reported":1750489749,"current_range_meters":21600,"station_id":"","pricing_plan_id":"cebpf4jnsgd1na2vs0mg"},{"bike_id":"8567eb24-0522-414c-af9a-6c5424b4b865","system_id":"levelo_inurba_marseille","lat":43.29936,"lon":5.39733,"is_reserved":false,"is_disabled":false,"rental_uris":{"android":"levelo://app?vid=8567eb24-0522-414c-af9a-6c5424b4b865","ios":"levelo://app?vid=8567eb24-0522-414c-af9a-6c5424b4b865"},"vehicle_type_id":"4","last_reported":1750489749,"current_range_meters":21600,"station_id":"","pricing_plan_id":"cebpf4jnsgd1na2vs0mg"},