{"last_updated":1761163936,"ttl":60,"version":"2.2","data":{"bikes":[{"bike_id":"9d3642b8-4f31-4318-a629-5f1e55f0e562","system_id":"levelo_inurba_marseille","lat":43.29502,"lon":5.38702,"is_reserved":false,"is_disabled":false,"rental_uris":{"android":"levelo://app?vid=9d3642b8-4f31-4318-a629-5f1e55f0e562","ios":"levelo://app?vid=9d3642b8-4f31-4318-a629-5f1e55f0e562"},"vehicle_type_id":"4","last_reported":1761163936,"current_range_meters":2800,"station_id":"","pricing_plan_id":"cebpf4jnsgd1na2vs0mg"},{"bike_id":"92f5e2fc-5283-4d49-ab4c-822a23177483","system_id":"levelo_inurba_marseille","lat":43.32646,"lon":5.4098,"is_reserved":false,"is_disabled":false,"rental_uris":{"android":"levelo://app?vid=92f5e2fc-5283-4d49-ab4c-822a23177483","ios":"levelo://app?vid=92f5e2fc-5283-4d49-ab4c-822a23177483"},"vehicle_type_id":"4","last_reported":1761163936,"current_range_meters":2800,"station_id":"ce4bhpp2rcd13ifvqhgg","pricing_plan_id":"cebpf4jnsgd1na2vs0mg"},{"bike_id":"467d3fd6-809c-40ec-a191-765aec6d4557","system_id":"levelo_inurba_marseille","lat":43.28365,"lon":5.38647,"is_reserved":false,"is_disabled":true,"rental_uris":{"android":"levelo://app?vid=467d3fd6-809c-40ec-a191-765aec6d4557","ios":"levelo://app?vid=467d3fd6-809c-40ec-a191-765aec6d4557"},"vehicle_type_id":"4","last_reported":1761163936,"current_range_meters":2800,"station_id":"ce4bh492rcd13ifvqdvg","pricing_plan_id":"cebpf4jnsgd1na2vs0mg"},{"bike_id":"da4226f6-7e42-4abe-860c-c7ef122197f6","system_id":"levelo_inurba_marseille","lat":43.28102,"lon":5.37827,"is_reserved":false,"is_disabled":false,"rental_uris":{"android":"levelo://app?vid=da4226f6-7e42-4abe-860c-c7ef122197f6","ios":"levelo://app?vid=da4226f6-7e42-4abe-860c-c7ef122197f6"},"vehicle_type_id":"4","last_reported":1761163936,"current_range_meters":2800,"station_id":"ce4bha12rcd13ifvqee0","pricing_plan_id":"cebpf4jnsgd1na2vs0mg"},{"bike_id":"2f4ce712-1300-4066-9133-5e160f57451c","system_id":"levelo_inurba_marseille","lat":43.29161,"lon":5.37147,"is_reserved":false,"is_disabled":false,"rental_uris":{"android":"levelo://app?vid=2f4ce712-1300-4066-9133-5e160f57451c","ios":"levelo://app?vid=2f4ce712-1300-4066-9133-5e160f57451c"},"vehicle_type_id":"4","last_reported":1761163936,"current_range_meters":3600,"station_id":"ce4bha92rcd13ifvqeh0","pricing_plan_id":"cebpf4jnsgd1na2vs0mg"},{"bike_id":"de6e7184-a66e-4a84-acfd-25f4d7820316","system_id":"levelo_inurba_marseille","lat":43.212,"lon":5.35077,"is_reserved":false,"is_disabled":false,"rental_uris":{"android":"levelo://app?vid=de6e7184-a66e-4a84-acfd-25f4d7820316","ios":"levelo://app?vid=de6e7184-a66e-4a84-acfd-25f4d7820316"},"vehicle_type_id":"4","last_reported":1761163936,"current_range_meters":3600,"station_id":"","pricing_plan_id":"cebpf4jnsgd1na2vs0mg"},{"bike_id":"6ff9e597-53e6-4285-ad9c-44300b714333","system_id":"levelo_inurba_marseille","lat":43.29533,"lon":5.38546,"is_reserved":false,"is_disabled":false,"rental_uris":{"android":"levelo://app?vid=6ff9e597-53e6-4285-ad9c-44300b714333","ios":"levelo://app?vid=6ff9e597-53e6-4285-ad9c-44300b714333"},"vehicle_type_id":"4","last_reported":1761163936,"current_range_meters":3600,"station_id":"ce4bgih2rcd13ifvqba0","pricing_plan_id":"cebpf4jnsgd1na2vs0mg"},{"bike_id":"e7cb61d9-84d9-41c0-8427-00fc6a9e436b","system_id":"levelo_inurba_marseille","lat":43.31098,"lon":5.37564,"is_reserved":false,"is_disabled":false,"rental_uris":{"android":"levelo://app?vid=e7cb61d9-84d9-41c0-8427-00fc6a9e436b","ios":"levelo://app?vid=e7cb61d9-84d9-41c0-8427-00fc6a9e436b"},"vehicle_type_id":"4","last_reported":1761163936,"current_range_meters":3600,"station_id":"","pricing_plan_id":"cebpf4jnsgd1na2vs0mg"},{"bike_id":"01ff1d2b-8a77-4e93-be7a-c2de50c12a75","system_id":"levelo_inurba_marseille","lat":43.251633,"lon":5.375642,"is_reserved":false,"is_disabled":false,"rental_uris":{"android":"levelo://app?vid=01ff1d2b-8a77-4e93-be7a-c2de50c12a75","ios":"levelo://app?vid=01ff1d2b-8a77-4e93-be7a-c2de50c12a75"},"vehicle_type_id":"4","last_reported":1761163936,"current_range_meters":3600,"station_id":"ce4bhgh2rcd13ifvqfb0","pricing_plan_id":"cebpf4jnsgd1na2vs0mg"},{"bike_id":"4154d683-e72a-4592-9e60-2a3872848698","system_id":"levelo_inurba_marseille","lat":43.28489,"lon":5.48393,"is_reserved":false,"is_disabled":false,"rental_uris":{"android":"levelo://app?vid=4154d683-e72a-4592-9e60-2a3872848698","ios":"levelo://app?vid=4154d683-e72a-4592-9e60-2a3872848698"},"vehicle_type_id":"4","last_reported":1761163936,"current_range_meters":4000,"station_id":"st_d3jp68qikq2c7381ktn0","pricing_plan_id":"cebpf4jnsgd1na2vs0mg"},{"bike_id":"a870d8c4-d388-4bd8-a292-a2b1665e7e0e","system_id":"levelo_inurba_marseille","lat":43.304308,"lon":5.405861,"is_reserved":false,"is_disabled":false,"rental_uris":{"android":"levelo://app?vid=a870d8c4-d388-4bd8-a292-a2b1665e7e0e","ios":"levelo://app?vid=a870d8c4-d388-4bd8-a292-a2b1665e7e0e"},"vehicle_type_id":"4","last_reported":1761163936,"current_range_meters":4000,"station_id":"","pricing_plan_id":"cebpf4jnsgd1na2vs0mg"},{"bike_id":"3cfece45-0cdd-4c61-884c-ab9e82505b7f","system_id":"levelo_inurba_marseille","lat":43.295342,"lon":5.385474,"is_reserved":false,"is_disabled":false,"rental_uris":{"android":"levelo://app?vid=3cfece45-0cdd-4c61-884c-ab9e82505b7f","ios":"levelo://app?vid=3cfece45-0cdd-4c61-884c-ab9e82505b7f"},"vehicle_type_id":"4","last_reported":1761163936,"current_range_meters":4000,"station_id":"ce4bgih2rcd13ifvqba0","pricing_plan_id":"cebpf4jnsgd1na2vs0mg"},{"bike_id":"cf5f1329-c57a-43a0-83ba-733087cc302c","system_id":"levelo_inurba_marseille","lat":43.28039,"lon":5.36957,"is_reserved":false,"is_disabled":false,"rental_uris":{"android":"levelo://app?vid=cf5f1329-c57a-43a0-83ba-733087cc302c","ios":"levelo://app?vid=cf5f1329-c57a-43a0-83ba-733087cc302c"},"vehicle_type_id":"4","last_reported":1761163936,"current_range_meters":4400,"station_id":"ce4bha12rcd13ifvqef0","pricing_plan_id":"cebpf4jnsgd1na2vs0mg"},{"bike_id":"0d038042-5883-44d6-ae2d-21ce3983a920","system_id":"levelo_inurba_marseille","lat":43.28711,"lon":5.37937,"is_reserved":false,"is_disabled":false,"rental_uris":{"android":"levelo://app?vid=0d038042-5883-44d6-ae2d-21ce3983a920","ios":"levelo://app?vid=0d038042-5883-44d6-ae2d-21ce3983a920"},"vehicle_type_id":"4","last_reported":1761163936,"current_range_meters":4400,"station_id":"ce4bh9p2rcd13ifvqec0","pricing_plan_id":"cebpf4jnsgd1na2vs0mg"},{"bike_id":"4173c464-e9b7-4b06-98e4-4b206b199a33","system_id":"levelo_inurba_marseille","lat":43.29514,"lon":5.39043,"is_reserved":false,"is_disabled":false,"rental_uris":{"android":"levelo://app?vid=4173c464-e9b7-4b06-98e4-4b206b199a33","ios":"levelo://app?vid=4173c464-e9b7-4b06-98e4-4b206b199a33"},"vehicle_type_id":"4","last_reported":1761163936,"current_range_meters":4400,"station_id":"ce4bh3p2rcd13ifvqdp0","pricing_plan_id":"cebpf4jnsgd1na2vs0mg"},{"bike_id":"805cc412-434c-4829-8363-1954f7f430fd","system_id":"levelo_inurba_marseille","lat":43.29866,"lon":5.38394,"is_reserved":false,"is_disabled":false,"rental_uris":{"android":"levelo://app?vid=805cc412-434c-4829-8363-1954f7f430fd","ios":"levelo://app?vid=805cc412-434c-4829-8363-1954f7f430fd"},"vehicle_type_id":"4","last_reported":1761163936,"current_range_meters":4400,"station_id":"","pricing_plan_id":"cebpf4jnsgd1na2vs0mg"},{"bike_id":"0a6fb3c0-0d03-489e-9405-8a3d1292bbbb","system_id":"levelo_inurba_marseille","lat":43.3032,"lon":5.40435,"is_reserved":false,"is_disabled":false,"rental_uris":{"android":"levelo://app?vid=0a6fb3c0-0d03-489e-9405-8a3d1292bbbb","ios":"levelo://app?vid=0a6fb3c0-0d03-489e-9405-8a3d1292bbbb"},"vehicle_type_id":"4","last_reported":1761163936,"current_range_meters":4800,"station_id":"ce4bh012rcd13ifvqd10","pricing_plan_id":"cebpf4jnsgd1na2vs0mg"},{"bike_id":"9a7fb688-5b03-4c63-a6d7-cbc783a8260a","system_id":"levelo_inurba_marseille","lat":43.29168,"lon":5.3716,"is_reserved":false,"is_disabled":false,"rental_uris":{"android":"levelo://app?vid=9a7fb688-5b03-4c63-a6d7-cbc783a8260a","ios":"levelo://app?vid=9a7fb688-5b03-4c63-a6d7-cbc783a8260a"},"vehicle_type_id":"4","last_reported":1761163936,"current_range_meters":4800,"station_id":"ce4bha92rcd13ifvqeh0","pricing_plan_id":"cebpf4jnsgd1na2vs0mg"},{"bike_id":"452df5f4-46b0-4004-94f0-e99c24e26b21","system_id":"levelo_inurba_marseille","lat":43.296587,"lon":5.378212,"is_reserved":false,"is_disabled":false,"rental_uris":{"android":"levelo://app?vid=452df5f4-46b0-4004-94f0-e99c24e26b21","ios":"levelo://app?vid=452df5f4-46b0-4004-94f0-e99c24e26b21"},"vehicle_type_id":"4","last_reported":1761163936,"current_range_meters":5600,"station_id":"ce4bgkh2rcd13ifvqbl0","pricing_plan_id":"cebpf4jnsgd1na2vs0mg"},{"bike_id":"66bec76d-d7e9-4a1e-a715-39e56334bf96","system_id":"levelo_inurba_marseille","lat":43.28284,"lon":5.39649,"is_reserved":false,"is_disabled":false,"rental_uris":{"android":"levelo://app?vid=66bec76d-d7e9-4a1e-a715-39e56334bf96","ios":"levelo://app?vid=66bec76d-d7e9-4a1e-a715-39e56334bf96"},"vehicle_type_id":"4","last_reported":1761163936,"current_range_meters":6000,"station_id":"","pricing_plan_id":"cebpf4jnsgd1na2vs0mg"},{"bike_id":"8c37385d-f76c-45de-9f31-e8919753786f","system_id":"levelo_inurba_marseille","lat":43.30789,"lon":5.38157,"is_reserved":false,"is_disabled":false,"rental_uris":{"android":"levelo://app?vid=8c37385d-f76c-45de-9f31-e8919753786f","ios":"levelo://app?vid=8c37385d-f76c-45de-9f31-e8919753786f"},"vehicle_type_id":"4","last_reported":1761163936,"current_range_meters":6000,"station_id":"ce4bgt12rcd13ifvqce0","pricing_plan_id":"cebpf4jnsgd1na2vs0mg"},{"bike_id":"3d068a7d-8c2c-4f97-8d7d-54140fa95800","system_id":"levelo_inurba_marseille","lat":43.273583,"lon":5.39879,"is_reserved":false,"is_disabled":false,"rental_uris":{"android":"levelo://app?vid=3d068a7d-8c2c-4f97-8d7d-54140fa95800","ios":"levelo://app?vid=3d068a7d-8c2c-4f97-8d7d-54140fa95800"},"vehicle_type_id":"4","last_reported":1761163936,"current_range_meters":6000,"station_id":"","pricing_plan_id":"cebpf4jnsgd1na2vs0mg"},{"bike_id":"1a712ed2-fb64-48d9-aeb9-18ee179e6822","system_id":"levelo_inurba_marseille","lat":43.29522,"lon":5.3853,"is_reserved":false,"is_disabled":false,"rental_uris":{"android":"levelo://app?vid=1a712ed2-fb64-48d9-aeb9-18ee179e6822","ios":"levelo://app?vid=1a712ed2-fb64-48d9-aeb9-18ee179e6822"},"vehicle_type_id":"4","last_reported":1761163936,"current_range_meters":6000,"station_id":"ce4bgih2rcd13ifvqba0","pricing_plan_id":"cebpf4jnsgd1na2vs0mg"},{"bike_id":"4c54fce8-987a-445a-92c6-6a562fcf631c","system_id":"levelo_inurba_marseille","lat":43.26554,"lon":5.37282,"is_reserved":false,"is_disabled":false,"rental_uris":{"android":"levelo://app?vid=4c54fce8-987a-445a-92c6-6a562fcf631c","ios":"levelo://app?vid=4c54fce8-987a-445a-92c6-6a562fcf631c"},"vehicle_type_id":"4","last_reported":1761163936,"current_range_meters":6000,"station_id":"ce4bhg12rcd13ifvqf70","pricing_plan_id":"cebpf4jnsgd1na2vs0mg"},{"bike_id":"1dc4f6a5-ede9-4201-8014-7d7787c338a0","system_id":"levelo_inurba_marseille","lat":43.32113,"lon":5.36768,"is_reserved":false,"is_disabled":false,"rental_uris":{"android":"levelo://app?vid=1dc4f6a5-ede9-4201-8014-7d7787c338a0","ios":"levelo://app?vid=1dc4f6a5-ede9-4201-8014-7d7787c338a0"},"vehicle_type_id":"4","last_reported":1761163936,"current_range_meters":6400,"station_id":"ce4bhrh2rcd13ifvqhug","pricing_plan_id":"cebpf4jnsgd1na2vs0mg"},{"bike_id":"a13755e4-d381-4db5-8262-24498ab73094","system_id":"levelo_inurba_marseille","lat":43.28667,"lon":5.38662,"is_reserved":false,"is_disabled":false,"rental_uris":{"android":"levelo://app?vid=a13755e4-d381-4db5-8262-24498ab73094","ios":"levelo://app?vid=a13755e4-d381-4db5-8262-24498ab73094"},"vehicle_type_id":"4","last_reported":1761163936,"current_range_meters":6400,"station_id":"ce4bh492rcd13ifvqdug","pricing_plan_id":"cebpf4jnsgd1na2vs0mg"},{"bike_id":"3f436717-7a24-4fab-94ab-41f45eee7beb","system_id":"levelo_inurba_marseille","lat":43.29567,"lon":5.39977,"is_reserved":false,"is_disabled":false,"rental_uris":{"android":"levelo://app?vid=3f436717-7a24-4fab-94ab-41f45eee7beb","ios":"levelo://app?vid=3f436717-7a24-4fab-94ab-41f45eee7beb"},"vehicle_type_id":"4","last_reported":1761163936,"current_range_meters":6800,"station_id":"ce4bh312rcd13ifvqdj0","pricing_plan_id":"cebpf4jnsgd1na2vs0mg"},{"bike_id":"e3661a1e-a166-45c2-b114-375d7290e4b3","system_id":"levelo_inurba_marseille","lat":43.29611,"lon":5.38107,"is_reserved":false,"is_disabled":false,"rental_uris":{"android":"levelo://app?vid=e3661a1e-a166-45c2-b114-375d7290e4b3","ios":"levelo://app?vid=e3661a1e-a166-45c2-b114-375d7290e4b3"},"vehicle_type_id":"4","last_reported":1761163936,"current_range_meters":6800,"station_id":"ce4bgl12rcd13ifvqbo0","pricing_plan_id":"cebpf4jnsgd1na2vs0mg"},{"bike_id":"158efa80-12ab-4b7d-8a51-8d3a468fcc07","system_id":"levelo_inurba_marseille","lat":43.21188,"lon":5.3508,"is_reserved":false,"is_disabled":true,"rental_uris":{"android":"levelo://app?vid=158efa80-12ab-4b7d-8a51-8d3a468fcc07","ios":"levelo://app?vid=158efa80-12ab-4b7d-8a51-8d3a468fcc07"},"vehicle_type_id":"4","last_reported":1761163936,"current_range_meters":6800,"station_id":"","pricing_plan_id":"cebpf4jnsgd1na2vs0mg"},{"bike_id":"b8424628-9848-42e8-bfce-4c6e2ca27e23","system_id":"levelo_inurba_marseille","lat":43.31166,"lon":5.38726,"is_reserved":false,"is_disabled":false,"rental_uris":{"android":"levelo://app?vid=b8424628-9848-42e8-bfce-4c6e2ca27e23","ios":"levelo://app?vid=b8424628-9848-42e8-bfce-4c6e2ca27e23"},"vehicle_type_id":"4","last_reported":1761163936,"current_range_meters":6800,"station_id":"ce4bgv12rcd13ifvqcp0","pricing_plan_id":"cebpf4jnsgd1na2vs0mg"},{"bike_id":"da3c5d5d-639d-4a11-88e1-f7b9c2ad220a","system_id":"levelo_inurba_marseille","lat":43.31733,"lon":5.37737,"is_reserved":false,"is_disabled":true,"rental_uris":{"android":"levelo://app?vid=da3c5d5d-639d-4a11-88e1-f7b9c2ad220a","ios":"levelo://app?vid=da3c5d5d-639d-4a11-88e1-f7b9c2ad220a"},"vehicle_type_id":"4","last_reported":1761163936,"current_range_meters":6800,"station_id":"ce4bgth2rcd13ifvqch0","pricing_plan_id":"cebpf4jnsgd1na2vs0mg"},{"bike_id":"a1f7606d-9c8f-4ec2-a600-d01a90f1d133","system_id":"levelo_inurba_marseille","lat":43.29255,"lon":5.37615,"is_reserved":false,"is_disabled":false,"rental_uris":{"android":"levelo://app?vid=a1f7606d-9c8f-4ec2-a600-d01a90f1d133","ios":"levelo://app?vid=a1f7606d-9c8f-4ec2-a600-d01a90f1d133"},"vehicle_type_id":"4","last_reported":1761163936,"current_range_meters":6800,"station_id":"ce4bgi12rcd13ifvqb80","pricing_plan_id":"cebpf4jnsgd1na2vs0mg"},{"bike_id":"b38a8f34-cd89-4e18-841e-d9ac2da5a01e","system_id":"levelo_inurba_marseille","lat":43.297298,"lon":5.393481,"is_reserved":false,"is_disabled":false,"rental_uris":{"android":"levelo://app?vid=b38a8f34-cd89-4e18-841e-d9ac2da5a01e","ios":"levelo://app?vid=b38a8f34-cd89-4e18-841e-d9ac2da5a01e"},"vehicle_type_id":"4","last_reported":1761163936,"current_range_meters":6800,"station_id":"chh1huq6cuj3fo74tm60","pricing_plan_id":"cebpf4jnsgd1na2vs0mg"},{"bike_id":"ebaf39f0-7478-435c-bd36-9e0bbf8ed102","system_id":"levelo_inurba_marseille","lat":43.29711,"lon":5.36988,"is_reserved":false,"is_disabled":false,"rental_uris":{"android":"levelo://app?vid=ebaf39f0-7478-435c-bd36-9e0bbf8ed102","ios":"levelo://app?vid=ebaf39f0-7478-435c-bd36-9e0bbf8ed102"},"vehicle_type_id":"4","last_reported":1761163936,"current_range_meters":6800,"station_id":"","pricing_plan_id":"cebpf4jnsgd1na2vs0mg"},{"bike_id":"9b78f4af-2080-40e9-890e-6d4bd2473172","system_id":"levelo_inurba_marseille","lat":43.297042,"lon":5.363043,"is_reserved":false,"is_disabled":false,"rental_uris":{"android":"levelo://app?vid=9b78f4af-2080-40e9-890e-6d4bd2473172","ios":"levelo://app?vid=9b78f4af-2080-40e9-890e-6d4bd2473172"},"vehicle_type_id":"4","last_reported":1761163936,"current_range_meters":7200,"station_id":"","pricing_plan_id":"cebpf4jnsgd1na2vs0mg"},{"bike_id":"56c299b9-16f1-4c29-b73c-c02c948a5df5","system_id":"levelo_inurba_marseille","lat":43.29974,"lon":5.38489,"is_reserved":false,"is_disabled":false,"rental_uris":{"android":"levelo://app?vid=56c299b9-16f1-4c29-b73c-c02c948a5df5","ios":"levelo://app?vid=56c299b9-16f1-4c29-b73c-c02c948a5df5"},"vehicle_type_id":"4","last_reported":1761163936,"current_range_meters":7200,"station_id":"ce4bgj92rcd13ifvqbd0","pricing_plan_id":"cebpf4jnsgd1na2vs0mg"},{"bike_id":"b7e41c34-cad5-468c-aadc-3ef8a1845b5a","system_id":"levelo_inurba_marseille","lat":43.28159,"lon":5.3611,"is_reserved":false,"is_disabled":false,"rental_uris":{"android":"levelo://app?vid=b7e41c34-cad5-468c-aadc-3ef8a1845b5a","ios":"levelo://app?vid=b7e41c34-cad5-468c-aadc-3ef8a1845b5a"},"vehicle_type_id":"4","last_reported":1761163936,"current_range_meters":7200,"station_id":"","pricing_plan_id":"cebpf4jnsgd1na2vs0mg"},{"bike_id":"97585d63-cae0-46a3-8fec-9651d52b3156","system_id":"levelo_inurba_marseille","lat":43.27884,"lon":5.37985,"is_reserved":false,"is_disabled":true,"rental_uris":{"android":"levelo://app?vid=97585d63-cae0-46a3-8fec-9651d52b3156","ios":"levelo://app?vid=97585d63-cae0-46a3-8fec-9651d52b3156"},"vehicle_type_id":"4","last_reported":1761163936,"current_range_meters":7200,"station_id":"ce4bhf92rcd13ifvqf50","pricing_plan_id":"cebpf4jnsgd1na2vs0mg"},{"bike_id":"c2b037ec-d0c7-4ed7-bb44-72c863d8d786","system_id":"levelo_inurba_marseille","lat":43.29601,"lon":5.38101,"is_reserved":false,"is_disabled":false,"rental_uris":{"android":"levelo://app?vid=c2b037ec-d0c7-4ed7-bb44-72c863d8d786","ios":"levelo://app?vid=c2b037ec-d0c7-4ed7-bb44-72c863d8d786"},"vehicle_type_id":"4","last_reported":1761163936,"current_range_meters":7200,"station_id":"ce4bgl12rcd13ifvqbo0","pricing_plan_id":"cebpf4jnsgd1na2vs0mg"},{"bike_id":"3201e625-69d5-420e-838c-f4c3f44666ef","system_id":"levelo_inurba_marseille","lat":43.33775,"lon":5.37438,"is_reserved":false,"is_disabled":false,"rental_uris":{"android":"levelo://app?vid=3201e625-69d5-420e-838c-f4c3f44666ef","ios":"levelo://app?vid=3201e625-69d5-420e-838c-f4c3f44666ef"},"vehicle_type_id":"4","last_reported":1761163936,"current_range_meters":7200,"station_id":"","pricing_plan_id":"cebpf4jnsgd1na2vs0mg"},{"bike_id":"a7b06526-aea6-4369-9939-dc263cf58f1c","system_id":"levelo_inurba_marseille","lat":43.27885,"lon":5.39155,"is_reserved":false,"is_disabled":true,"rental_uris":{"android":"levelo://app?vid=a7b06526-aea6-4369-9939-dc263cf58f1c","ios":"levelo://app?vid=a7b06526-aea6-4369-9939-dc263cf58f1c"},"vehicle_type_id":"4","last_reported":1761163936,"current_range_meters":7200,"station_id":"ce4bhjp2rcd13ifvqga0","pricing_plan_id":"cebpf4jnsgd1na2vs0mg"},{"bike_id":"543316bb-3283-45c5-9e81-ba96d8a24b77","system_id":"levelo_inurba_marseille","lat":43.30081,"lon":5.39079,"is_reserved":false,"is_disabled":false,"rental_uris":{"android":"levelo://app?vid=543316bb-3283-45c5-9e81-ba96d8a24b77","ios":"levelo://app?vid=543316bb-3283-45c5-9e81-ba96d8a24b77"},"vehicle_type_id":"4","last_reported":1761163936,"current_range_meters":7200,"station_id":"ce4bh192rcd13ifvqdb0","pricing_plan_id":"cebpf4jnsgd1na2vs0mg"},{"bike_id":"923d022b-4a85-437d-b152-30f3ec505c40","system_id":"levelo_inurba_marseille","lat":43.2737,"lon":5.36262,"is_reserved":false,"is_disabled":false,"rental_uris":{"android":"levelo://app?vid=923d022b-4a85-437d-b152-30f3ec505c40","ios":"levelo://app?vid=923d022b-4a85-437d-b152-30f3ec505c40"},"vehicle_type_id":"4","last_reported":1761163936,"current_range_meters":7200,"station_id":"ce4bhbh2rcd13ifvqeo0","pricing_plan_id":"cebpf4jnsgd1na2vs0mg"},{"bike_id":"76e793c3-127e-4520-9143-1c1b4960ae4c","system_id":"levelo_inurba_marseille","lat":43.30416,"lon":5.4127,"is_reserved":false,"is_disabled":false,"rental_uris":{"android":"levelo://app?vid=76e793c3-127e-4520-9143-1c1b4960ae4c","ios":"levelo://app?vid=76e793c3-127e-4520-9143-1c1b4960ae4c"},"vehicle_type_id":"4","last_reported":1761163936,"current_range_meters":7200,"station_id":"ce4bhop2rcd13ifvqh8g","pricing_plan_id":"cebpf4jnsgd1na2vs0mg"},{"bike_id":"81bc1960-f861-4c2d-bdfd-022bca251831","system_id":"levelo_inurba_marseille","lat":43.29253,"lon":5.37618,"is_reserved":false,"is_disabled":false,"rental_uris":{"android":"levelo://app?vid=81bc1960-f861-4c2d-bdfd-022bca251831","ios":"levelo://app?vid=81bc1960-f861-4c2d-bdfd-022bca251831"},"vehicle_type_id":"4","last_reported":1761163936,"current_range_meters":7200,"station_id":"ce4bgi12rcd13ifvqb80","pricing_plan_id":"cebpf4jnsgd1na2vs0mg"},{"bike_id":"93ea0dc8-e8b4-44ba-9a97-294396b22f72","system_id":"levelo_inurba_marseille","lat":43.30326,"lon":5.4043,"is_reserved":false,"is_disabled":false,"rental_uris":{"android":"levelo://app?vid=93ea0dc8-e8b4-44ba-9a97-294396b22f72","ios":"levelo://app?vid=93ea0dc8-e8b4-44ba-9a97-294396b22f72"},"vehicle_type_id":"4","last_reported":1761163936,"current_range_meters":7200,"station_id":"ce4bh012rcd13ifvqd10","pricing_plan_id":"cebpf4jnsgd1na2vs0mg"},{"bike_id":"9648558a-6bc8-443d-a1a3-78f4d1df24ab","system_id":"levelo_inurba_marseille","lat":43.295228,"lon":5.385432,"is_reserved":false,"is_disabled":false,"rental_uris":{"android":"levelo://app?vid=9648558a-6bc8-443d-a1a3-78f4d1df24ab","ios":"levelo://app?vid=9648558a-6bc8-443d-a1a3-78f4d1df24ab"},"vehicle_type_id":"4","last_reported":1761163936,"current_range_meters":8000,"station_id":"","pricing_plan_id":"cebpf4jnsgd1na2vs0mg"},{"bike_id":"502e6a71-f838-4fa6-803c-46fea46d5ac3","system_id":"levelo_inurba_marseille","lat":43.29521,"lon":5.3904,"is_reserved":false,"is_disabled":false,"rental_uris":{"android":"levelo://app?vid=502e6a71-f838-4fa6-803c-46fea46d5ac3","ios":"levelo://app?vid=502e6a71-f838-4fa6-803c-46fea46d5ac3"},"vehicle_type_id":"4","last_reported":1761163936,"current_range_meters":8000,"station_id":"ce4bh3p2rcd13ifvqdp0","pricing_plan_id":"cebpf4jnsgd1na2vs0mg"},{"bike_id":"b8457e49-45d1-4539-8d31-1eb0283df508","system_id":"levelo_inurba_marseille","lat":43.33165,"lon":5.35504,"is_reserved":false,"is_disabled":false,"rental_uris":{"android":"levelo://app?vid=b8457e49-45d1-4539-8d31-1eb0283df508","ios":"levelo://app?vid=b8457e49-45d1-4539-8d31-1eb0283df508"},"vehicle_type_id":"4","last_reported":1761163936,"current_range_meters":8000,"station_id":"","pricing_plan_id":"cebpf4jnsgd1na2vs0mg"},{"bike_id":"54691473-015d-4991-8a77-3506431449ec","system_id":"levelo_inurba_marseille","lat":43.27917,"lon":5.39575,"is_reserved":false,"is_disabled":false,"rental_uris":{"android":"levelo://app?vid=54691473-015d-4991-8a77-3506431449ec","ios":"levelo://app?vid=54691473-015d-4991-8a77-3506431449ec"},"vehicle_type_id":"4","last_reported":1761163936,"current_range_meters":8000,"station_id":"ce4bhf92rcd13ifvqf40","pricing_plan_id":"cebpf4jnsgd1na2vs0mg"},{"bike_id":"7ffbdf46-1d13-4e32-ad8f-b99766448a99","system_id":"levelo_inurba_marseille","lat":43.31564,"lon":5.38874,"is_reserved":false,"is_disabled":false,"rental_uris":{"android":"levelo://app?vid=7ffbdf46-1d13-4e32-ad8f-b99766448a99","ios":"levelo://app?vid=7ffbdf46-1d13-4e32-ad8f-b99766448a99"},"vehicle_type_id":"4","last_reported":1761163936,"current_range_meters":8000,"station_id":"","pricing_plan_id":"cebpf4jnsgd1na2vs0mg"},{"bike_id":"c2569d04-7748-428a-a404-a17efe8804c3","system_id":"levelo_inurba_marseille","lat":43.3014,"lon":5.43093,"is_reserved":false,"is_disabled":false,"rental_uris":{"android":"levelo://app?vid=c2569d04-7748-428a-a404-a17efe8804c3","ios":"levelo://app?vid=c2569d04-7748-428a-a404-a17efe8804c3"},"vehicle_type_id":"4","last_reported":1761163936,"current_range_meters":8000,"station_id":"st_d3js3co5814s73ftftug","pricing_plan_id":"cebpf4jnsgd1na2vs0mg"},{"bike_id":"90d6329a-ad77-46c8-92a3-346a55ba47d7","system_id":"levelo_inurba_marseille","lat":43.31481,"lon":5.37308,"is_reserved":false,"is_disabled":false,"rental_uris":{"android":"levelo://app?vid=90d6329a-ad77-46c8-92a3-346a55ba47d7","ios":"levelo://app?vid=90d6329a-ad77-46c8-92a3-346a55ba47d7"},"vehicle_type_id":"4","last_reported":1761163936,"current_range_meters":8000,"station_id":"ce4bgt12rcd13ifvqcd0","pricing_plan_id":"cebpf4jnsgd1na2vs0mg"},{"bike_id":"73845d70-817e-466d-a91f-551a1bf5e243","system_id":"levelo_inurba_marseille","lat":43.309526,"lon":5.39053,"is_reserved":false,"is_disabled":true,"rental_uris":{"android":"levelo://app?vid=73845d70-817e-466d-a91f-551a1bf5e243","ios":"levelo://app?vid=73845d70-817e-466d-a91f-551a1bf5e243"},"vehicle_type_id":"4","last_reported":1761163936,"current_range_meters":8400,"station_id":"ce4bgup2rcd13ifvqco0","pricing_plan_id":"cebpf4jnsgd1na2vs0mg"},{"bike_id":"bf2f684f-9b00-43ff-b264-a71ad076337b","system_id":"levelo_inurba_marseille","lat":43.29031,"lon":5.38604,"is_reserved":false,"is_disabled":false,"rental_uris":{"android":"levelo://app?vid=bf2f684f-9b00-43ff-b264-a71ad076337b","ios":"levelo://app?vid=bf2f684f-9b00-43ff-b264-a71ad076337b"},"vehicle_type_id":"4","last_reported":1761163936,"current_range_meters":8400,"station_id":"ce4bh4p2rcd13ifvqe0g","pricing_plan_id":"cebpf4jnsgd1na2vs0mg"},{"bike_id":"b61e6817-4496-4ad7-ab43-b524af2e26e5","system_id":"levelo_inurba_marseille","lat":43.29952,"lon":5.38501,"is_reserved":false,"is_disabled":false,"rental_uris":{"android":"levelo://app?vid=b61e6817-4496-4ad7-ab43-b524af2e26e5","ios":"levelo://app?vid=b61e6817-4496-4ad7-ab43-b524af2e26e5"},"vehicle_type_id":"4","last_reported":1761163936,"current_range_meters":8400,"station_id":"ce4bgj92rcd13ifvqbd0","pricing_plan_id":"cebpf4jnsgd1na2vs0mg"},{"bike_id":"a7314c1b-802d-40ec-94bd-11f148bb0a18","system_id":"levelo_inurba_marseille","lat":43.26497,"lon":5.39546,"is_reserved":false,"is_disabled":false,"rental_uris":{"android":"levelo://app?vid=a7314c1b-802d-40ec-94bd-11f148bb0a18","ios":"levelo://app?vid=a7314c1b-802d-40ec-94bd-11f148bb0a18"},"vehicle_type_id":"4","last_reported":1761163936,"current_range_meters":8400,"station_id":"ce4bhi12rcd13ifvqfq0","pricing_plan_id":"cebpf4jnsgd1na2vs0mg"},{"bike_id":"cacc399d-1ec5-4e9c-a942-9a97935caf12","system_id":"levelo_inurba_marseille","lat":43.29528,"lon":5.3854,"is_reserved":false,"is_disabled":false,"rental_uris":{"android":"levelo://app?vid=cacc399d-1ec5-4e9c-a942-9a97935caf12","ios":"levelo://app?vid=cacc399d-1ec5-4e9c-a942-9a97935caf12"},"vehicle_type_id":"4","last_reported":1761163936,"current_range_meters":8400,"station_id":"ce4bgih2rcd13ifvqba0","pricing_plan_id":"cebpf4jnsgd1na2vs0mg"},{"bike_id":"886a0e31-b360-434a-8df1-aed271a2cc41","system_id":"levelo_inurba_marseille","lat":43.32382,"lon":5.36736,"is_reserved":false,"is_disabled":false,"rental_uris":{"android":"levelo://app?vid=886a0e31-b360-434a-8df1-aed271a2cc41","ios":"levelo://app?vid=886a0e31-b360-434a-8df1-aed271a2cc41"},"vehicle_type_id":"4","last_reported":1761163936,"current_range_meters":8400,"station_id":"","pricing_plan_id":"cebpf4jnsgd1na2vs0mg"},{"bike_id":"029aa761-aaf6-4372-8888-0a5170a0d41f","system_id":"levelo_inurba_marseille","lat":43.29537,"lon":5.38543,"is_reserved":false,"is_disabled":false,"rental_uris":{"android":"levelo://app?vid=029aa761-aaf6-4372-8888-0a5170a0d41f","ios":"levelo://app?vid=029aa761-aaf6-4372-8888-0a5170a0d41f"},"vehicle_type_id":"4","last_reported":1761163936,"current_range_meters":8400,"station_id":"ce4bgih2rcd13ifvqba0","pricing_plan_id":"cebpf4jnsgd1na2vs0mg"},{"bike_id":"9fcbb531-6972-4715-ad82-a17e33c96cc8","system_id":"levelo_inurba_marseille","lat":43.29885,"lon":5.38918,"is_reserved":false,"is_disabled":false,"rental_uris":{"android":"levelo://app?vid=9fcbb531-6972-4715-ad82-a17e33c96cc8","ios":"levelo://app?vid=9fcbb531-6972-4715-ad82-a17e33c96cc8"},"vehicle_type_id":"4","last_reported":1761163936,"current_range_meters":8800,"station_id":"ce4bh392rcd13ifvqdl0","pricing_plan_id":"cebpf4jnsgd1na2vs0mg"},{"bike_id":"ac1df8dc-41e5-4954-977f-6f21ed12d11a","system_id":"levelo_inurba_marseille","lat":43.21749,"lon":5.346,"is_reserved":false,"is_disabled":false,"rental_uris":{"android":"levelo://app?vid=ac1df8dc-41e5-4954-977f-6f21ed12d11a","ios":"levelo://app?vid=ac1df8dc-41e5-4954-977f-6f21ed12d11a"},"vehicle_type_id":"4","last_reported":1761163936,"current_range_meters":8800,"station_id":"st_cvj6r9ubvosntc0bgbag","pricing_plan_id":"cebpf4jnsgd1na2vs0mg"},{"bike_id":"ab608a3b-8962-462d-92dd-b60970f1c9b3","system_id":"levelo_inurba_marseille","lat":43.28571,"lon":5.39496,"is_reserved":false,"is_disabled":false,"rental_uris":{"android":"levelo://app?vid=ab608a3b-8962-462d-92dd-b60970f1c9b3","ios":"levelo://app?vid=ab608a3b-8962-462d-92dd-b60970f1c9b3"},"vehicle_type_id":"4","last_reported":1761163936,"current_range_meters":8800,"station_id":"ce4bh292rcd13ifvqdg0","pricing_plan_id":"cebpf4jnsgd1na2vs0mg"},{"bike_id":"d38bb17a-4ac6-4da6-829b-fc2ffe260364","system_id":"levelo_inurba_marseille","lat":43.31893,"lon":5.40718,"is_reserved":false,"is_disabled":true,"rental_uris":{"android":"levelo://app?vid=d38bb17a-4ac6-4da6-829b-fc2ffe260364","ios":"levelo://app?vid=d38bb17a-4ac6-4da6-829b-fc2ffe260364"},"vehicle_type_id":"4","last_reported":1761163936,"current_range_meters":8800,"station_id":"ce4bhq12rcd13ifvqhig","pricing_plan_id":"cebpf4jnsgd1na2vs0mg"},{"bike_id":"3e45e104-e676-4554-b4de-abfc43f7c5fc","system_id":"levelo_inurba_marseille","lat":43.28464,"lon":5.35875,"is_reserved":false,"is_disabled":false,"rental_uris":{"android":"levelo://app?vid=3e45e104-e676-4554-b4de-abfc43f7c5fc","ios":"levelo://app?vid=3e45e104-e676-4554-b4de-abfc43f7c5fc"},"vehicle_type_id":"4","last_reported":1761163936,"current_range_meters":8800,"station_id":"ce4bhah2rcd13ifvqei0","pricing_plan_id":"cebpf4jnsgd1na2vs0mg"},{"bike_id":"dfa9c088-b016-43c8-a63f-95878087783f","system_id":"levelo_inurba_marseille","lat":43.28424,"lon":5.37516,"is_reserved":false,"is_disabled":false,"rental_uris":{"android":"levelo://app?vid=dfa9c088-b016-43c8-a63f-95878087783f","ios":"levelo://app?vid=dfa9c088-b016-43c8-a63f-95878087783f"},"vehicle_type_id":"4","last_reported":1761163936,"current_range_meters":8800,"station_id":"ce4bh412rcd13ifvqds0","pricing_plan_id":"cebpf4jnsgd1na2vs0mg"},{"bike_id":"c4432b73-0adb-475d-83b3-18f6e7bba483","system_id":"levelo_inurba_marseille","lat":43.32105,"lon":5.40814,"is_reserved":false,"is_disabled":false,"rental_uris":{"android":"levelo://app?vid=c4432b73-0adb-475d-83b3-18f6e7bba483","ios":"levelo://app?vid=c4432b73-0adb-475d-83b3-18f6e7bba483"},"vehicle_type_id":"4","last_reported":1761163936,"current_range_meters":8800,"station_id":"","pricing_plan_id":"cebpf4jnsgd1na2vs0mg"},{"bike_id":"46ce4a6a-405b-4153-b2be-2dbc5814180a","system_id":"levelo_inurba_marseille","lat":43.28109,"lon":5.37851,"is_reserved":false,"is_disabled":false,"rental_uris":{"android":"levelo://app?vid=46ce4a6a-405b-4153-b2be-2dbc5814180a","ios":"levelo://app?vid=46ce4a6a-405b-4153-b2be-2dbc5814180a"},"vehicle_type_id":"4","last_reported":1761163936,"current_range_meters":9200,"station_id":"ce4bha12rcd13ifvqee0","pricing_plan_id":"cebpf4jnsgd1na2vs0mg"},{"bike_id":"a943c37a-6409-4447-b550-97ae57482ba0","system_id":"levelo_inurba_marseille","lat":43.286046,"lon":5.37056,"is_reserved":false,"is_disabled":false,"rental_uris":{"android":"levelo://app?vid=a943c37a-6409-4447-b550-97ae57482ba0","ios":"levelo://app?vid=a943c37a-6409-4447-b550-97ae57482ba0"},"vehicle_type_id":"4","last_reported":1761163936,"current_range_meters":9200,"station_id":"ce4bht12rcd13ifvqi60","pricing_plan_id":"cebpf4jnsgd1na2vs0mg"},{"bike_id":"5a0b6738-891f-4fb1-9800-ae965ed4c6a0","system_id":"levelo_inurba_marseille","lat":43.29191,"lon":5.39326,"is_reserved":false,"is_disabled":false,"rental_uris":{"android":"levelo://app?vid=5a0b6738-891f-4fb1-9800-ae965ed4c6a0","ios":"levelo://app?vid=5a0b6738-891f-4fb1-9800-ae965ed4c6a0"},"vehicle_type_id":"4","last_reported":1761163936,"current_range_meters":9200,"station_id":"ce4bh192rcd13ifvqdd0","pricing_plan_id":"cebpf4jnsgd1na2vs0mg"},{"bike_id":"02f7835e-8895-43db-bc46-dc0659a292d5","system_id":"levelo_inurba_marseille","lat":43.29331,"lon":5.3707,"is_reserved":false,"is_disabled":false,"rental_uris":{"android":"levelo://app?vid=02f7835e-8895-43db-bc46-dc0659a292d5","ios":"levelo://app?vid=02f7835e-8895-43db-bc46-dc0659a292d5"},"vehicle_type_id":"4","last_reported":1761163936,"current_range_meters":9200,"station_id":"","pricing_plan_id":"cebpf4jnsgd1na2vs0mg"},{"bike_id":"7a5af68a-59cb-461b-b7ea-e73b980858f9","system_id":"levelo_inurba_marseille","lat":43.2857,"lon":5.39508,"is_reserved":false,"is_disabled":true,"rental_uris":{"android":"levelo://app?vid=7a5af68a-59cb-461b-b7ea-e73b980858f9","ios":"levelo://app?vid=7a5af68a-59cb-461b-b7ea-e73b980858f9"},"vehicle_type_id":"4","last_reported":1761163936,"current_range_meters":9200,"station_id":"ce4bh292rcd13ifvqdg0","pricing_plan_id":"cebpf4jnsgd1na2vs0mg"},{"bike_id":"7d2d5787-0ce3-440b-bd99-871ac3e090ec","system_id":"levelo_inurba_marseille","lat":43.28871,"lon":5.37863,"is_reserved":false,"is_disabled":false,"rental_uris":{"android":"levelo://app?vid=7d2d5787-0ce3-440b-bd99-871ac3e090ec","ios":"levelo://app?vid=7d2d5787-0ce3-440b-bd99-871ac3e090ec"},"vehicle_type_id":"4","last_reported":1761163936,"current_range_meters":9600,"station_id":"","pricing_plan_id":"cebpf4jnsgd1na2vs0mg"},{"bike_id":"221a7628-f042-4169-b5d5-56aa0c3f91a4","system_id":"levelo_inurba_marseille","lat":43.2874,"lon":5.37923,"is_reserved":false,"is_disabled":false,"rental_uris":{"android":"levelo://app?vid=221a7628-f042-4169-b5d5-56aa0c3f91a4","ios":"levelo://app?vid=221a7628-f042-4169-b5d5-56aa0c3f91a4"},"vehicle_type_id":"4","last_reported":1761163936,"current_range_meters":9600,"station_id":"ce4bh9p2rcd13ifvqec0","pricing_plan_id":"cebpf4jnsgd1na2vs0mg"},{"bike_id":"e995ec80-8159-4b63-aaf8-f6808235e297","system_id":"levelo_inurba_marseille","lat":43.30128,"lon":5.39868,"is_reserved":false,"is_disabled":false,"rental_uris":{"android":"levelo://app?vid=e995ec80-8159-4b63-aaf8-f6808235e297","ios":"levelo://app?vid=e995ec80-8159-4b63-aaf8-f6808235e297"},"vehicle_type_id":"4","last_reported":1761163936,"current_range_meters":9600,"station_id":"ce4bh0h2rcd13ifvqd40","pricing_plan_id":"cebpf4jnsgd1na2vs0mg"},{"bike_id":"b188ec5b-7575-4978-897f-11080fedf6b9","system_id":"levelo_inurba_marseille","lat":43.29527,"lon":5.39402,"is_reserved":false,"is_disabled":false,"rental_uris":{"android":"levelo://app?vid=b188ec5b-7575-4978-897f-11080fedf6b9","ios":"levelo://app?vid=b188ec5b-7575-4978-897f-11080fedf6b9"},"vehicle_type_id":"4","last_reported":1761163936,"current_range_meters":9600,"station_id":"ce4bh292rcd13ifvqdf0","pricing_plan_id":"cebpf4jnsgd1na2vs0mg"},{"bike_id":"d32af820-0e71-49b9-8789-fe21baace4f6","system_id":"levelo_inurba_marseille","lat":43.24665,"lon":5.38169,"is_reserved":false,"is_disabled":false,"rental_uris":{"android":"levelo://app?vid=d32af820-0e71-49b9-8789-fe21baace4f6","ios":"levelo://app?vid=d32af820-0e71-49b9-8789-fe21baace4f6"},"vehicle_type_id":"4","last_reported":1761163936,"current_range_meters":9600,"station_id":"ce4bhih2rcd13ifvqfr0","pricing_plan_id":"cebpf4jnsgd1na2vs0mg"},{"bike_id":"6bf7326c-c0f3-40af-9c88-8438dd50c33a","system_id":"levelo_inurba_marseille","lat":43.24807,"lon":5.37452,"is_reserved":false,"is_disabled":false,"rental_uris":{"android":"levelo://app?vid=6bf7326c-c0f3-40af-9c88-8438dd50c33a","ios":"levelo://app?vid=6bf7326c-c0f3-40af-9c88-8438dd50c33a"},"vehicle_type_id":"4","last_reported":1761163936,"current_range_meters":9600,"station_id":"ce4bhgh2rcd13ifvqfb0","pricing_plan_id":"cebpf4jnsgd1na2vs0mg"},{"bike_id":"44b1ad6b-1a98-4e37-a182-f58df3beccce","system_id":"levelo_inurba_marseille","lat":43.211935,"lon":5.350771,"is_reserved":false,"is_disabled":true,"rental_uris":{"android":"levelo://app?vid=44b1ad6b-1a98-4e37-a182-f58df3beccce","ios":"levelo://app?vid=44b1ad6b-1a98-4e37-a182-f58df3beccce"},"vehicle_type_id":"4","last_reported":1761163936,"current_range_meters":10000,"station_id":"","pricing_plan_id":"cebpf4jnsgd1na2vs0mg"},{"bike_id":"82576c51-8b9b-43eb-aa43-fc4a18c9ea5b","system_id":"levelo_inurba_marseille","lat":43.21757,"lon":5.34616,"is_reserved":false,"is_disabled":false,"rental_uris":{"android":"levelo://app?vid=82576c51-8b9b-43eb-aa43-fc4a18c9ea5b","ios":"levelo://app?vid=82576c51-8b9b-43eb-aa43-fc4a18c9ea5b"},"vehicle_type_id":"4","last_reported":1761163936,"current_range_meters":10000,"station_id":"st_cvj6r9ubvosntc0bgbag","pricing_plan_id":"cebpf4jnsgd1na2vs0mg"},{"bike_id":"89dd87c4-c8d0-4de7-8902-2b0447e67475","system_id":"levelo_inurba_marseille","lat":43.31232,"lon":5.36877,"is_reserved":false,"is_disabled":true,"rental_uris":{"android":"levelo://app?vid=89dd87c4-c8d0-4de7-8902-2b0447e67475","ios":"levelo://app?vid=89dd87c4-c8d0-4de7-8902-2b0447e67475"},"vehicle_type_id":"4","last_reported":1761163936,"current_range_meters":10000,"station_id":"","pricing_plan_id":"cebpf4jnsgd1na2vs0mg"},{"bike_id":"4579d17c-c380-4d64-ad08-0f15474b13c4","system_id":"levelo_inurba_marseille","lat":43.253359,"lon":5.421775,"is_reserved":false,"is_disabled":false,"rental_uris":{"android":"levelo://app?vid=4579d17c-c380-4d64-ad08-0f15474b13c4","ios":"levelo://app?vid=4579d17c-c380-4d64-ad08-0f15474b13c4"},"vehicle_type_id":"4","last_reported":1761163936,"current_range_meters":10800,"station_id":"st_d2m65c5bi1j21697t3ng","pricing_plan_id":"cebpf4jnsgd1na2vs0mg"},{"bike_id":"74026d70-7e19-482e-a6a4-5ac2f66592ee","system_id":"levelo_inurba_marseille","lat":43.29507,"lon":5.38537,"is_reserved":false,"is_disabled":false,"rental_uris":{"android":"levelo://app?vid=74026d70-7e19-482e-a6a4-5ac2f66592ee","ios":"levelo://app?vid=74026d70-7e19-482e-a6a4-5ac2f66592ee"},"vehicle_type_id":"4","last_reported":1761163936,"current_range_meters":10800,"station_id":"ce4bgih2rcd13ifvqba0","pricing_plan_id":"cebpf4jnsgd1na2vs0mg"},{"bike_id":"fe5786a2-3cbd-4e30-8ddf-18df8db18ee6","system_id":"levelo_inurba_marseille","lat":43.29978,"lon":5.37168,"is_reserved":false,"is_disabled":true,"rental_uris":{"android":"levelo://app?vid=fe5786a2-3cbd-4e30-8ddf-18df8db18ee6","ios":"levelo://app?vid=fe5786a2-3cbd-4e30-8ddf-18df8db18ee6"},"vehicle_type_id":"4","last_reported":1761163936,"current_range_meters":10800,"station_id":"ce4bgr92rcd13ifvqc7g","pricing_plan_id":"cebpf4jnsgd1na2vs0mg"},{"bike_id":"d74e2df8-5632-4edb-9723-5ac247394e83","system_id":"levelo_inurba_marseille","lat":43.30734,"lon":5.42442,"is_reserved":false,"is_disabled":false,"rental_uris":{"android":"levelo://app?vid=d74e2df8-5632-4edb-9723-5ac247394e83","ios":"levelo://app?vid=d74e2df8-5632-4edb-9723-5ac247394e83"},"vehicle_type_id":"4","last_reported":1761163936,"current_range_meters":10800,"station_id":"st_cvj6ca6bvosntc0bfgr0","pricing_plan_id":"cebpf4jnsgd1na2vs0mg"},{"bike_id":"f4ecfd5e-3d1d-499e-99da-445cf52f1bd3","system_id":"levelo_inurba_marseille","lat":43.308901,"lon":5.396486,"is_reserved":false,"is_disabled":false,"rental_uris":{"android":"levelo://app?vid=f4ecfd5e-3d1d-499e-99da-445cf52f1bd3","ios":"levelo://app?vid=f4ecfd5e-3d1d-499e-99da-445cf52f1bd3"},"vehicle_type_id":"4","last_reported":1761163936,"current_range_meters":10800,"station_id":"","pricing_plan_id":"cebpf4jnsgd1na2vs0mg"},{"bike_id":"1aec492c-e741-40a6-9501-c5056277a3d1","system_id":"levelo_inurba_marseille","lat":43.29631,"lon":5.38153,"is_reserved":false,"is_disabled":false,"rental_uris":{"android":"levelo://app?vid=1aec492c-e741-40a6-9501-c5056277a3d1","ios":"levelo://app?vid=1aec492c-e741-40a6-9501-c5056277a3d1"},"vehicle_type_id":"4","last_reported":1761163936,"current_range_meters":10800,"station_id":"ce4bgl12rcd13ifvqbo0","pricing_plan_id":"cebpf4jnsgd1na2vs0mg"},{"bike_id":"279afc7f-3b2a-4abc-9bbc-a647f9414320","system_id":"levelo_inurba_marseille","lat":43.29262,"lon":5.38442,"is_reserved":false,"is_disabled":false,"rental_uris":{"android":"levelo://app?vid=279afc7f-3b2a-4abc-9bbc-a647f9414320","ios":"levelo://app?vid=279afc7f-3b2a-4abc-9bbc-a647f9414320"},"vehicle_type_id":"4","last_reported":1761163936,"current_range_meters":11200,"station_id":"ce4bh692rcd13ifvqea0","pricing_plan_id":"cebpf4jnsgd1na2vs0mg"},{"bike_id":"27938040-5f97-48c9-b073-25f510f7592c","system_id":"levelo_inurba_marseille","lat":43.3216,"lon":5.39197,"is_reserved":false,"is_disabled":true,"rental_uris":{"android":"levelo://app?vid=27938040-5f97-48c9-b073-25f510f7592c","ios":"levelo://app?vid=27938040-5f97-48c9-b073-25f510f7592c"},"vehicle_type_id":"4","last_reported":1761163936,"current_range_meters":11200,"station_id":"","pricing_plan_id":"cebpf4jnsgd1na2vs0mg"},{"bike_id":"b61b8813-b442-4db4-a4d3-41ae371600b0","system_id":"levelo_inurba_marseille","lat":43.28712,"lon":5.37391,"is_reserved":false,"is_disabled":false,"rental_uris":{"android":"levelo://app?vid=b61b8813-b442-4db4-a4d3-41ae371600b0","ios":"levelo://app?vid=b61b8813-b442-4db4-a4d3-41ae371600b0"},"vehicle_type_id":"4","last_reported":1761163936,"current_range_meters":11200,"station_id":"ce4bh3p2rcd13ifvqdq0","pricing_plan_id":"cebpf4jnsgd1na2vs0mg"},{"bike_id":"396aaa55-c35f-41fc-8337-93bac25c9dde","system_id":"levelo_inurba_marseille","lat":43.29241,"lon":5.35551,"is_reserved":false,"is_disabled":false,"rental_uris":{"android":"levelo://app?vid=396aaa55-c35f-41fc-8337-93bac25c9dde","ios":"levelo://app?vid=396aaa55-c35f-41fc-8337-93bac25c9dde"},"vehicle_type_id":"4","last_reported":1761163936,"current_range_meters":11200,"station_id":"","pricing_plan_id":"cebpf4jnsgd1na2vs0mg"},{"bike_id":"d9cf5c0f-199b-41e8-a111-2e76d15013d9","system_id":"levelo_inurba_marseille","lat":43.2808,"lon":5.39641,"is_reserved":false,"is_disabled":false,"rental_uris":{"android":"levelo://app?vid=d9cf5c0f-199b-41e8-a111-2e76d15013d9","ios":"levelo://app?vid=d9cf5c0f-199b-41e8-a111-2e76d15013d9"},"vehicle_type_id":"4","last_reported":1761163936,"current_range_meters":11200,"station_id":"ce4bho12rcd13ifvqh2g","pricing_plan_id":"cebpf4jnsgd1na2vs0mg"},{"bike_id":"f3b9da4e-8557-4d09-ac40-2a7e624ac60a","system_id":"levelo_inurba_marseille","lat":43.30931,"lon":5.40143,"is_reserved":false,"is_disabled":false,"rental_uris":{"android":"levelo://app?vid=f3b9da4e-8557-4d09-ac40-2a7e624ac60a","ios":"levelo://app?vid=f3b9da4e-8557-4d09-ac40-2a7e624ac60a"},"vehicle_type_id":"4","last_reported":1761163936,"current_range_meters":11200,"station_id":"ce4bgvp2rcd13ifvqct0","pricing_plan_id":"cebpf4jnsgd1na2vs0mg"},{"bike_id":"27e4da55-03ac-4a27-9cbb-4218c6a866bf","system_id":"levelo_inurba_marseille","lat":43.280642,"lon":5.352788,"is_reserved":false,"is_disabled":false,"rental_uris":{"android":"levelo://app?vid=27e4da55-03ac-4a27-9cbb-4218c6a866bf","ios":"levelo://app?vid=27e4da55-03ac-4a27-9cbb-4218c6a866bf"},"vehicle_type_id":"4","last_reported":1761163936,"current_range_meters":11200,"station_id":"","pricing_plan_id":"cebpf4jnsgd1na2vs0mg"},{"bike_id":"593ed830-3e21-4fdf-a71b-2a293605db34","system_id":"levelo_inurba_marseille","lat":43.290955,"lon":5.381291,"is_reserved":false,"is_disabled":false,"rental_uris":{"android":"levelo://app?vid=593ed830-3e21-4fdf-a71b-2a293605db34","ios":"levelo://app?vid=593ed830-3e21-4fdf-a71b-2a293605db34"},"vehicle_type_id":"4","last_reported":1761163936,"current_range_meters":11200,"station_id":"ce4bh512rcd13ifvqe2g","pricing_plan_id":"cebpf4jnsgd1na2vs0mg"},{"bike_id":"6cedbdd4-d4fa-45a0-a47a-6925bf95118c","system_id":"levelo_inurba_marseille","lat":43.2293,"lon":5.35367,"is_reserved":false,"is_disabled":false,"rental_uris":{"android":"levelo://app?vid=6cedbdd4-d4fa-45a0-a47a-6925bf95118c","ios":"levelo://app?vid=6cedbdd4-d4fa-45a0-a47a-6925bf95118c"},"vehicle_type_id":"4","last_reported":1761163936,"current_range_meters":11600,"station_id":"cpo3532slgdg3j2ikp40","pricing_plan_id":"cebpf4jnsgd1na2vs0mg"},{"bike_id":"37d01fc8-4b4d-4652-a489-1254eb9d4c80","system_id":"levelo_inurba_marseille","lat":43.34076,"lon":5.40411,"is_reserved":false,"is_disabled":false,"rental_uris":{"android":"levelo://app?vid=37d01fc8-4b4d-4652-a489-1254eb9d4c80","ios":"levelo://app?vid=37d01fc8-4b4d-4652-a489-1254eb9d4c80"},"vehicle_type_id":"4","last_reported":1761163936,"current_range_meters":11600,"station_id":"","pricing_plan_id":"cebpf4jnsgd1na2vs0mg"},{"bike_id":"aef88e7f-d7bf-4c36-abcc-d9acc84d52cd","system_id":"levelo_inurba_marseille","lat":43.28885,"lon":5.37862,"is_reserved":false,"is_disabled":false,"rental_uris":{"android":"levelo://app?vid=aef88e7f-d7bf-4c36-abcc-d9acc84d52cd","ios":"levelo://app?vid=aef88e7f-d7bf-4c36-abcc-d9acc84d52cd"},"vehicle_type_id":"4","last_reported":1761163936,"current_range_meters":11600,"station_id":"","pricing_plan_id":"cebpf4jnsgd1na2vs0mg"},{"bike_id":"ec60652f-d3c2-400e-8251-0e42407708db","system_id":"levelo_inurba_marseille","lat":43.270686,"lon":5.422856,"is_reserved":false,"is_disabled":false,"rental_uris":{"android":"levelo://app?vid=ec60652f-d3c2-400e-8251-0e42407708db","ios":"levelo://app?vid=ec60652f-d3c2-400e-8251-0e42407708db"},"vehicle_type_id":"4","last_reported":1761163936,"current_range_meters":12000,"station_id":"ce4bhk92rcd13ifvqgb0","pricing_plan_id":"cebpf4jnsgd1na2vs0mg"},{"bike_id":"61c47949-89b9-4c27-95f4-2b581fa26bb6","system_id":"levelo_inurba_marseille","lat":43.23183,"lon":5.3999,"is_reserved":false,"is_disabled":false,"rental_uris":{"android":"levelo://app?vid=61c47949-89b9-4c27-95f4-2b581fa26bb6","ios":"levelo://app?vid=61c47949-89b9-4c27-95f4-2b581fa26bb6"},"vehicle_type_id":"4","last_reported":1761163936,"current_range_meters":12000,"station_id":"ce4bhn12rcd13ifvqgqg","pricing_plan_id":"cebpf4jnsgd1na2vs0mg"},{"bike_id":"dd03304e-14f0-450b-971e-cc3ce68c1a6a","system_id":"levelo_inurba_marseille","lat":43.29528,"lon":5.39036,"is_reserved":false,"is_disabled":false,"rental_uris":{"android":"levelo://app?vid=dd03304e-14f0-450b-971e-cc3ce68c1a6a","ios":"levelo://app?vid=dd03304e-14f0-450b-971e-cc3ce68c1a6a"},"vehicle_type_id":"4","last_reported":1761163936,"current_range_meters":12000,"station_id":"ce4bh3p2rcd13ifvqdp0","pricing_plan_id":"cebpf4jnsgd1na2vs0mg"},{"bike_id":"69ee16af-37c9-4879-91d3-adf897532b8b","system_id":"levelo_inurba_marseille","lat":43.289719,"lon":5.378311,"is_reserved":false,"is_disabled":false,"rental_uris":{"android":"levelo://app?vid=69ee16af-37c9-4879-91d3-adf897532b8b","ios":"levelo://app?vid=69ee16af-37c9-4879-91d3-adf897532b8b"},"vehicle_type_id":"4","last_reported":1761163936,"current_range_meters":12000,"station_id":"ce4bh9p2rcd13ifvqed0","pricing_plan_id":"cebpf4jnsgd1na2vs0mg"},{"bike_id":"79e8ea3e-55a6-4f49-b239-57d17b161b44","system_id":"levelo_inurba_marseille","lat":43.29535,"lon":5.38547,"is_reserved":false,"is_disabled":false,"rental_uris":{"android":"levelo://app?vid=79e8ea3e-55a6-4f49-b239-57d17b161b44","ios":"levelo://app?vid=79e8ea3e-55a6-4f49-b239-57d17b161b44"},"vehicle_type_id":"4","last_reported":1761163936,"current_range_meters":12000,"station_id":"ce4bgih2rcd13ifvqba0","pricing_plan_id":"cebpf4jnsgd1na2vs0mg"},{"bike_id":"cf4f8523-943a-4ccb-9ca4-89b3d37151d4","system_id":"levelo_inurba_marseille","lat":43.29536,"lon":5.38537,"is_reserved":false,"is_disabled":false,"rental_uris":{"android":"levelo://app?vid=cf4f8523-943a-4ccb-9ca4-89b3d37151d4","ios":"levelo://app?vid=cf4f8523-943a-4ccb-9ca4-89b3d37151d4"},"vehicle_type_id":"4","last_reported":1761163936,"current_range_meters":12000,"station_id":"ce4bgih2rcd13ifvqba0","pricing_plan_id":"cebpf4jnsgd1na2vs0mg"},{"bike_id":"7ae3bc16-27a9-4cde-9b4f-5bc789579348","system_id":"levelo_inurba_marseille","lat":43.23148,"lon":5.43727,"is_reserved":false,"is_disabled":false,"rental_uris":{"android":"levelo://app?vid=7ae3bc16-27a9-4cde-9b4f-5bc789579348","ios":"levelo://app?vid=7ae3bc16-27a9-4cde-9b4f-5bc789579348"},"vehicle_type_id":"4","last_reported":1761163936,"current_range_meters":12400,"station_id":"ce4bhmp2rcd13ifvqgog","pricing_plan_id":"cebpf4jnsgd1na2vs0mg"},{"bike_id":"1162e7e7-b350-4350-b863-7c9247b06d23","system_id":"levelo_inurba_marseille","lat":43.2815,"lon":5.42634,"is_reserved":false,"is_disabled":false,"rental_uris":{"android":"levelo://app?vid=1162e7e7-b350-4350-b863-7c9247b06d23","ios":"levelo://app?vid=1162e7e7-b350-4350-b863-7c9247b06d23"},"vehicle_type_id":"4","last_reported":1761163936,"current_range_meters":12400,"station_id":"ce4bhnh2rcd13ifvqgug","pricing_plan_id":"cebpf4jnsgd1na2vs0mg"},{"bike_id":"70b48e26-96a9-4b71-8a98-51ad104fdedb","system_id":"levelo_inurba_marseille","lat":43.24653,"lon":5.38891,"is_reserved":false,"is_disabled":false,"rental_uris":{"android":"levelo://app?vid=70b48e26-96a9-4b71-8a98-51ad104fdedb","ios":"levelo://app?vid=70b48e26-96a9-4b71-8a98-51ad104fdedb"},"vehicle_type_id":"4","last_reported":1761163936,"current_range_meters":12400,"station_id":"ce4bhg12rcd13ifvqf60","pricing_plan_id":"cebpf4jnsgd1na2vs0mg"},{"bike_id":"3aa8c3e6-230d-4538-ac39-2b944611f536","system_id":"levelo_inurba_marseille","lat":43.313653,"lon":5.367071,"is_reserved":false,"is_disabled":true,"rental_uris":{"android":"levelo://app?vid=3aa8c3e6-230d-4538-ac39-2b944611f536","ios":"levelo://app?vid=3aa8c3e6-230d-4538-ac39-2b944611f536"},"vehicle_type_id":"4","last_reported":1761163936,"current_range_meters":12400,"station_id":"ce4bgr92rcd13ifvqc6g","pricing_plan_id":"cebpf4jnsgd1na2vs0mg"},{"bike_id":"cf5289da-3aae-4acc-85f1-b4ddfdcaa038","system_id":"levelo_inurba_marseille","lat":43.2979,"lon":5.40398,"is_reserved":false,"is_disabled":false,"rental_uris":{"android":"levelo://app?vid=cf5289da-3aae-4acc-85f1-b4ddfdcaa038","ios":"levelo://app?vid=cf5289da-3aae-4acc-85f1-b4ddfdcaa038"},"vehicle_type_id":"4","last_reported":1761163936,"current_range_meters":12400,"station_id":"ce4bh112rcd13ifvqd90","pricing_plan_id":"cebpf4jnsgd1na2vs0mg"},{"bike_id":"7d3edfab-1200-4aab-936e-4fb6b3c138ce","system_id":"levelo_inurba_marseille","lat":43.29547,"lon":5.38547,"is_reserved":false,"is_disabled":false,"rental_uris":{"android":"levelo://app?vid=7d3edfab-1200-4aab-936e-4fb6b3c138ce","ios":"levelo://app?vid=7d3edfab-1200-4aab-936e-4fb6b3c138ce"},"vehicle_type_id":"4","last_reported":1761163936,"current_range_meters":12800,"station_id":"ce4bgih2rcd13ifvqba0","pricing_plan_id":"cebpf4jnsgd1na2vs0mg"},{"bike_id":"81dbaefd-5bdd-463c-a6a8-1293efec2dfd","system_id":"levelo_inurba_marseille","lat":43.28403,"lon":5.37517,"is_reserved":false,"is_disabled":false,"rental_uris":{"android":"levelo://app?vid=81dbaefd-5bdd-463c-a6a8-1293efec2dfd","ios":"levelo://app?vid=81dbaefd-5bdd-463c-a6a8-1293efec2dfd"},"vehicle_type_id":"4","last_reported":1761163936,"current_range_meters":12800,"station_id":"ce4bh412rcd13ifvqds0","pricing_plan_id":"cebpf4jnsgd1na2vs0mg"},{"bike_id":"0914acf5-02b1-4eee-9278-a32a847bef2a","system_id":"levelo_inurba_marseille","lat":43.29029,"lon":5.38625,"is_reserved":false,"is_disabled":false,"rental_uris":{"android":"levelo://app?vid=0914acf5-02b1-4eee-9278-a32a847bef2a","ios":"levelo://app?vid=0914acf5-02b1-4eee-9278-a32a847bef2a"},"vehicle_type_id":"4","last_reported":1761163936,"current_range_meters":12800,"station_id":"ce4bh4p2rcd13ifvqe0g","pricing_plan_id":"cebpf4jnsgd1na2vs0mg"},{"bike_id":"5b2fb394-b654-4cda-abea-19d87e1a4938","system_id":"levelo_inurba_marseille","lat":43.240822,"lon":5.377519,"is_reserved":false,"is_disabled":false,"rental_uris":{"android":"levelo://app?vid=5b2fb394-b654-4cda-abea-19d87e1a4938","ios":"levelo://app?vid=5b2fb394-b654-4cda-abea-19d87e1a4938"},"vehicle_type_id":"4","last_reported":1761163936,"current_range_meters":12800,"station_id":"ce4bhnp2rcd13ifvqgvg","pricing_plan_id":"cebpf4jnsgd1na2vs0mg"},{"bike_id":"61f001a3-2cb1-43fb-bfe4-e4a1763b22c1","system_id":"levelo_inurba_marseille","lat":43.27069,"lon":5.4226,"is_reserved":false,"is_disabled":false,"rental_uris":{"android":"levelo://app?vid=61f001a3-2cb1-43fb-bfe4-e4a1763b22c1","ios":"levelo://app?vid=61f001a3-2cb1-43fb-bfe4-e4a1763b22c1"},"vehicle_type_id":"4","last_reported":1761163936,"current_range_meters":12800,"station_id":"ce4bhk92rcd13ifvqgb0","pricing_plan_id":"cebpf4jnsgd1na2vs0mg"},{"bike_id":"1cad670c-ec5d-4cf9-bcd5-ea4c1c3ec531","system_id":"levelo_inurba_marseille","lat":43.28343,"lon":5.38095,"is_reserved":false,"is_disabled":false,"rental_uris":{"android":"levelo://app?vid=1cad670c-ec5d-4cf9-bcd5-ea4c1c3ec531","ios":"levelo://app?vid=1cad670c-ec5d-4cf9-bcd5-ea4c1c3ec531"},"vehicle_type_id":"4","last_reported":1761163936,"current_range_meters":12800,"station_id":"ce4bh412rcd13ifvqdr0","pricing_plan_id":"cebpf4jnsgd1na2vs0mg"},{"bike_id":"ac4f7d3c-5af7-44ad-8c8b-463d26f4b847","system_id":"levelo_inurba_marseille","lat":43.274451,"lon":5.390878,"is_reserved":false,"is_disabled":false,"rental_uris":{"android":"levelo://app?vid=ac4f7d3c-5af7-44ad-8c8b-463d26f4b847","ios":"levelo://app?vid=ac4f7d3c-5af7-44ad-8c8b-463d26f4b847"},"vehicle_type_id":"4","last_reported":1761163936,"current_range_meters":12800,"station_id":"ce4bhg12rcd13ifvqf80","pricing_plan_id":"cebpf4jnsgd1na2vs0mg"},{"bike_id":"7ab93674-3618-4d2a-bad0-80df678a9a9a","system_id":"levelo_inurba_marseille","lat":43.26058,"lon":5.39386,"is_reserved":false,"is_disabled":false,"rental_uris":{"android":"levelo://app?vid=7ab93674-3618-4d2a-bad0-80df678a9a9a","ios":"levelo://app?vid=7ab93674-3618-4d2a-bad0-80df678a9a9a"},"vehicle_type_id":"4","last_reported":1761163936,"current_range_meters":12800,"station_id":"ce4bhh92rcd13ifvqfj0","pricing_plan_id":"cebpf4jnsgd1na2vs0mg"},{"bike_id":"2d21dbe5-e60f-4cb3-81ec-89e5d1e853df","system_id":"levelo_inurba_marseille","lat":43.287,"lon":5.37381,"is_reserved":false,"is_disabled":false,"rental_uris":{"android":"levelo://app?vid=2d21dbe5-e60f-4cb3-81ec-89e5d1e853df","ios":"levelo://app?vid=2d21dbe5-e60f-4cb3-81ec-89e5d1e853df"},"vehicle_type_id":"4","last_reported":1761163936,"current_range_meters":12800,"station_id":"ce4bh3p2rcd13ifvqdq0","pricing_plan_id":"cebpf4jnsgd1na2vs0mg"},{"bike_id":"156972d4-e7bd-44a7-bd40-d0e268bdc23f","system_id":"levelo_inurba_marseille","lat":43.30146,"lon":5.37413,"is_reserved":false,"is_disabled":false,"rental_uris":{"android":"levelo://app?vid=156972d4-e7bd-44a7-bd40-d0e268bdc23f","ios":"levelo://app?vid=156972d4-e7bd-44a7-bd40-d0e268bdc23f"},"vehicle_type_id":"4","last_reported":1761163936,"current_range_meters":13600,"station_id":"ce4bgs92rcd13ifvqcc0","pricing_plan_id":"cebpf4jnsgd1na2vs0mg"},{"bike_id":"c7b9837e-da7f-48df-9970-e13eaa4f0aa6","system_id":"levelo_inurba_marseille","lat":43.29032,"lon":5.3864,"is_reserved":false,"is_disabled":false,"rental_uris":{"android":"levelo://app?vid=c7b9837e-da7f-48df-9970-e13eaa4f0aa6","ios":"levelo://app?vid=c7b9837e-da7f-48df-9970-e13eaa4f0aa6"},"vehicle_type_id":"4","last_reported":1761163936,"current_range_meters":13600,"station_id":"ce4bh4p2rcd13ifvqe0g","pricing_plan_id":"cebpf4jnsgd1na2vs0mg"},{"bike_id":"3123b8c0-f531-4aea-8536-e016b1a51d0c","system_id":"levelo_inurba_marseille","lat":43.31169,"lon":5.38716,"is_reserved":false,"is_disabled":false,"rental_uris":{"android":"levelo://app?vid=3123b8c0-f531-4aea-8536-e016b1a51d0c","ios":"levelo://app?vid=3123b8c0-f531-4aea-8536-e016b1a51d0c"},"vehicle_type_id":"4","last_reported":1761163936,"current_range_meters":13600,"station_id":"ce4bgv12rcd13ifvqcp0","pricing_plan_id":"cebpf4jnsgd1na2vs0mg"},{"bike_id":"07e992db-48e1-481b-a50e-3b491cfc1455","system_id":"levelo_inurba_marseille","lat":43.31991,"lon":5.41291,"is_reserved":false,"is_disabled":false,"rental_uris":{"android":"levelo://app?vid=07e992db-48e1-481b-a50e-3b491cfc1455","ios":"levelo://app?vid=07e992db-48e1-481b-a50e-3b491cfc1455"},"vehicle_type_id":"4","last_reported":1761163936,"current_range_meters":13600,"station_id":"","pricing_plan_id":"cebpf4jnsgd1na2vs0mg"},{"bike_id":"4eae2ec4-8862-466e-a3d9-395cca4276d0","system_id":"levelo_inurba_marseille","lat":43.302928,"lon":5.375158,"is_reserved":false,"is_disabled":false,"rental_uris":{"android":"levelo://app?vid=4eae2ec4-8862-466e-a3d9-395cca4276d0","ios":"levelo://app?vid=4eae2ec4-8862-466e-a3d9-395cca4276d0"},"vehicle_type_id":"4","last_reported":1761163936,"current_range_meters":13600,"station_id":"","pricing_plan_id":"cebpf4jnsgd1na2vs0mg"},{"bike_id":"e7709aff-f080-4c40-b225-77642ea3c5cc","system_id":"levelo_inurba_marseille","lat":43.24178,"lon":5.36369,"is_reserved":false,"is_disabled":false,"rental_uris":{"android":"levelo://app?vid=e7709aff-f080-4c40-b225-77642ea3c5cc","ios":"levelo://app?vid=e7709aff-f080-4c40-b225-77642ea3c5cc"},"vehicle_type_id":"4","last_reported":1761163936,"current_range_meters":13600,"station_id":"cpo36qri1sfpv3e86is0","pricing_plan_id":"cebpf4jnsgd1na2vs0mg"},{"bike_id":"425ded7c-04b3-4d95-a0c1-dd4a744a41a8","system_id":"levelo_inurba_marseille","lat":43.30133,"lon":5.39866,"is_reserved":false,"is_disabled":false,"rental_uris":{"android":"levelo://app?vid=425ded7c-04b3-4d95-a0c1-dd4a744a41a8","ios":"levelo://app?vid=425ded7c-04b3-4d95-a0c1-dd4a744a41a8"},"vehicle_type_id":"4","last_reported":1761163936,"current_range_meters":13600,"station_id":"ce4bh0h2rcd13ifvqd40","pricing_plan_id":"cebpf4jnsgd1na2vs0mg"},{"bike_id":"11c4e8c3-228b-4c39-b8c0-f49ce3c3e3b2","system_id":"levelo_inurba_marseille","lat":43.29798,"lon":5.39332,"is_reserved":false,"is_disabled":false,"rental_uris":{"android":"levelo://app?vid=11c4e8c3-228b-4c39-b8c0-f49ce3c3e3b2","ios":"levelo://app?vid=11c4e8c3-228b-4c39-b8c0-f49ce3c3e3b2"},"vehicle_type_id":"4","last_reported":1761163936,"current_range_meters":13600,"station_id":"chh1huq6cuj3fo74tm60","pricing_plan_id":"cebpf4jnsgd1na2vs0mg"},{"bike_id":"9870a68d-ae62-4bec-82c3-a7443a850bdc","system_id":"levelo_inurba_marseille","lat":43.3129,"lon":5.37762,"is_reserved":false,"is_disabled":false,"rental_uris":{"android":"levelo://app?vid=9870a68d-ae62-4bec-82c3-a7443a850bdc","ios":"levelo://app?vid=9870a68d-ae62-4bec-82c3-a7443a850bdc"},"vehicle_type_id":"4","last_reported":1761163936,"current_range_meters":14000,"station_id":"","pricing_plan_id":"cebpf4jnsgd1na2vs0mg"},{"bike_id":"1f70c7ed-fb60-4795-b932-255c2f1bb7ec","system_id":"levelo_inurba_marseille","lat":43.25092,"lon":5.39516,"is_reserved":false,"is_disabled":false,"rental_uris":{"android":"levelo://app?vid=1f70c7ed-fb60-4795-b932-255c2f1bb7ec","ios":"levelo://app?vid=1f70c7ed-fb60-4795-b932-255c2f1bb7ec"},"vehicle_type_id":"4","last_reported":1761163936,"current_range_meters":14000,"station_id":"ce4bhm12rcd13ifvqgkg","pricing_plan_id":"cebpf4jnsgd1na2vs0mg"},{"bike_id":"7dc3a787-7b14-4505-8e32-0b28349ba8b9","system_id":"levelo_inurba_marseille","lat":43.287063,"lon":5.362525,"is_reserved":false,"is_disabled":false,"rental_uris":{"android":"levelo://app?vid=7dc3a787-7b14-4505-8e32-0b28349ba8b9","ios":"levelo://app?vid=7dc3a787-7b14-4505-8e32-0b28349ba8b9"},"vehicle_type_id":"4","last_reported":1761163936,"current_range_meters":14000,"station_id":"","pricing_plan_id":"cebpf4jnsgd1na2vs0mg"},{"bike_id":"fe1f92bb-1486-4520-8962-05759febe2f9","system_id":"levelo_inurba_marseille","lat":43.27987,"lon":5.41659,"is_reserved":false,"is_disabled":false,"rental_uris":{"android":"levelo://app?vid=fe1f92bb-1486-4520-8962-05759febe2f9","ios":"levelo://app?vid=fe1f92bb-1486-4520-8962-05759febe2f9"},"vehicle_type_id":"4","last_reported":1761163936,"current_range_meters":14000,"station_id":"ce4bho12rcd13ifvqh1g","pricing_plan_id":"cebpf4jnsgd1na2vs0mg"},{"bike_id":"b1fd905b-d112-4f4c-b57d-96b3e1c9eb9c","system_id":"levelo_inurba_marseille","lat":43.3127,"lon":5.40179,"is_reserved":false,"is_disabled":false,"rental_uris":{"android":"levelo://app?vid=b1fd905b-d112-4f4c-b57d-96b3e1c9eb9c","ios":"levelo://app?vid=b1fd905b-d112-4f4c-b57d-96b3e1c9eb9c"},"vehicle_type_id":"4","last_reported":1761163936,"current_range_meters":14000,"station_id":"ce4bh092rcd13ifvqd30","pricing_plan_id":"cebpf4jnsgd1na2vs0mg"},{"bike_id":"8570069b-9899-489d-8546-786bc6b64b80","system_id":"levelo_inurba_marseille","lat":43.29264,"lon":5.38433,"is_reserved":false,"is_disabled":false,"rental_uris":{"android":"levelo://app?vid=8570069b-9899-489d-8546-786bc6b64b80","ios":"levelo://app?vid=8570069b-9899-489d-8546-786bc6b64b80"},"vehicle_type_id":"4","last_reported":1761163936,"current_range_meters":14400,"station_id":"ce4bh692rcd13ifvqea0","pricing_plan_id":"cebpf4jnsgd1na2vs0mg"},{"bike_id":"2f86c0e7-791d-40d3-86dc-3a2c4a57947d","system_id":"levelo_inurba_marseille","lat":43.31087,"lon":5.42434,"is_reserved":false,"is_disabled":false,"rental_uris":{"android":"levelo://app?vid=2f86c0e7-791d-40d3-86dc-3a2c4a57947d","ios":"levelo://app?vid=2f86c0e7-791d-40d3-86dc-3a2c4a57947d"},"vehicle_type_id":"4","last_reported":1761163936,"current_range_meters":14400,"station_id":"ce4bhp92rcd13ifvqhag","pricing_plan_id":"cebpf4jnsgd1na2vs0mg"},{"bike_id":"618a9c44-e479-45b6-b144-58d3228e3132","system_id":"levelo_inurba_marseille","lat":43.24627,"lon":5.38898,"is_reserved":false,"is_disabled":false,"rental_uris":{"android":"levelo://app?vid=618a9c44-e479-45b6-b144-58d3228e3132","ios":"levelo://app?vid=618a9c44-e479-45b6-b144-58d3228e3132"},"vehicle_type_id":"4","last_reported":1761163936,"current_range_meters":14400,"station_id":"ce4bhg12rcd13ifvqf60","pricing_plan_id":"cebpf4jnsgd1na2vs0mg"},{"bike_id":"4b9c2cda-db75-4124-b7ef-647f11a03088","system_id":"levelo_inurba_marseille","lat":43.28117,"lon":5.37857,"is_reserved":false,"is_disabled":false,"rental_uris":{"android":"levelo://app?vid=4b9c2cda-db75-4124-b7ef-647f11a03088","ios":"levelo://app?vid=4b9c2cda-db75-4124-b7ef-647f11a03088"},"vehicle_type_id":"4","last_reported":1761163936,"current_range_meters":14400,"station_id":"ce4bha12rcd13ifvqee0","pricing_plan_id":"cebpf4jnsgd1na2vs0mg"},{"bike_id":"36ad3006-f59a-4071-bf02-15dad7340f90","system_id":"levelo_inurba_marseille","lat":43.288784,"lon":5.360079,"is_reserved":false,"is_disabled":false,"rental_uris":{"android":"levelo://app?vid=36ad3006-f59a-4071-bf02-15dad7340f90","ios":"levelo://app?vid=36ad3006-f59a-4071-bf02-15dad7340f90"},"vehicle_type_id":"4","last_reported":1761163936,"current_range_meters":14800,"station_id":"ce4bhb12rcd13ifvqem0","pricing_plan_id":"cebpf4jnsgd1na2vs0mg"},{"bike_id":"7961ff2e-a5e5-4ebf-9fb8-9e88b6a1c2f2","system_id":"levelo_inurba_marseille","lat":43.239621,"lon":5.366247,"is_reserved":false,"is_disabled":false,"rental_uris":{"android":"levelo://app?vid=7961ff2e-a5e5-4ebf-9fb8-9e88b6a1c2f2","ios":"levelo://app?vid=7961ff2e-a5e5-4ebf-9fb8-9e88b6a1c2f2"},"vehicle_type_id":"4","last_reported":1761163936,"current_range_meters":14800,"station_id":"ce4bhi12rcd13ifvqfp0","pricing_plan_id":"cebpf4jnsgd1na2vs0mg"},{"bike_id":"b3b13e92-d401-45af-ad84-a41c7bbeb5fe","system_id":"levelo_inurba_marseille","lat":43.29722,"lon":5.37904,"is_reserved":false,"is_disabled":false,"rental_uris":{"android":"levelo://app?vid=b3b13e92-d401-45af-ad84-a41c7bbeb5fe","ios":"levelo://app?vid=b3b13e92-d401-45af-ad84-a41c7bbeb5fe"},"vehicle_type_id":"4","last_reported":1761163936,"current_range_meters":14800,"station_id":"","pricing_plan_id":"cebpf4jnsgd1na2vs0mg"},{"bike_id":"5c5f86d4-45e0-4ad5-a478-5119cd222b7f","system_id":"levelo_inurba_marseille","lat":43.33144,"lon":5.38178,"is_reserved":false,"is_disabled":false,"rental_uris":{"android":"levelo://app?vid=5c5f86d4-45e0-4ad5-a478-5119cd222b7f","ios":"levelo://app?vid=5c5f86d4-45e0-4ad5-a478-5119cd222b7f"},"vehicle_type_id":"4","last_reported":1761163936,"current_range_meters":14800,"station_id":"","pricing_plan_id":"cebpf4jnsgd1na2vs0mg"},{"bike_id":"57d16a6a-7daf-45c0-897d-6d2ceca4f010","system_id":"levelo_inurba_marseille","lat":43.295197,"lon":5.394053,"is_reserved":false,"is_disabled":false,"rental_uris":{"android":"levelo://app?vid=57d16a6a-7daf-45c0-897d-6d2ceca4f010","ios":"levelo://app?vid=57d16a6a-7daf-45c0-897d-6d2ceca4f010"},"vehicle_type_id":"4","last_reported":1761163936,"current_range_meters":14800,"station_id":"ce4bh292rcd13ifvqdf0","pricing_plan_id":"cebpf4jnsgd1na2vs0mg"},{"bike_id":"1f81d583-1761-446d-8027-abf674f2a951","system_id":"levelo_inurba_marseille","lat":43.258695,"lon":5.399033,"is_reserved":false,"is_disabled":false,"rental_uris":{"android":"levelo://app?vid=1f81d583-1761-446d-8027-abf674f2a951","ios":"levelo://app?vid=1f81d583-1761-446d-8027-abf674f2a951"},"vehicle_type_id":"4","last_reported":1761163936,"current_range_meters":14800,"station_id":"ce4bhl92rcd13ifvqghg","pricing_plan_id":"cebpf4jnsgd1na2vs0mg"},{"bike_id":"25229034-a7be-4a92-b506-0f9d6cf48b63","system_id":"levelo_inurba_marseille","lat":43.248049,"lon":5.374564,"is_reserved":false,"is_disabled":false,"rental_uris":{"android":"levelo://app?vid=25229034-a7be-4a92-b506-0f9d6cf48b63","ios":"levelo://app?vid=25229034-a7be-4a92-b506-0f9d6cf48b63"},"vehicle_type_id":"4","last_reported":1761163936,"current_range_meters":14800,"station_id":"ce4bhgh2rcd13ifvqfb0","pricing_plan_id":"cebpf4jnsgd1na2vs0mg"},{"bike_id":"b995c869-145d-4878-aacc-87653f0f438f","system_id":"levelo_inurba_marseille","lat":43.28352,"lon":5.38111,"is_reserved":false,"is_disabled":false,"rental_uris":{"android":"levelo://app?vid=b995c869-145d-4878-aacc-87653f0f438f","ios":"levelo://app?vid=b995c869-145d-4878-aacc-87653f0f438f"},"vehicle_type_id":"4","last_reported":1761163936,"current_range_meters":14800,"station_id":"ce4bh412rcd13ifvqdr0","pricing_plan_id":"cebpf4jnsgd1na2vs0mg"},{"bike_id":"b330339a-5e3d-4e4f-94e3-d27309429b08","system_id":"levelo_inurba_marseille","lat":43.29285,"lon":5.40122,"is_reserved":false,"is_disabled":false,"rental_uris":{"android":"levelo://app?vid=b330339a-5e3d-4e4f-94e3-d27309429b08","ios":"levelo://app?vid=b330339a-5e3d-4e4f-94e3-d27309429b08"},"vehicle_type_id":"4","last_reported":1761163936,"current_range_meters":14800,"station_id":"ce4bh312rcd13ifvqdk0","pricing_plan_id":"cebpf4jnsgd1na2vs0mg"},{"bike_id":"923a33be-4e47-4264-bb93-b5ef39f87d5d","system_id":"levelo_inurba_marseille","lat":43.29556,"lon":5.3861,"is_reserved":false,"is_disabled":false,"rental_uris":{"android":"levelo://app?vid=923a33be-4e47-4264-bb93-b5ef39f87d5d","ios":"levelo://app?vid=923a33be-4e47-4264-bb93-b5ef39f87d5d"},"vehicle_type_id":"4","last_reported":1761163936,"current_range_meters":14800,"station_id":"","pricing_plan_id":"cebpf4jnsgd1na2vs0mg"},{"bike_id":"089c55ce-cc10-4d63-8643-616237a9ce5b","system_id":"levelo_inurba_marseille","lat":43.30104,"lon":5.39065,"is_reserved":false,"is_disabled":false,"rental_uris":{"android":"levelo://app?vid=089c55ce-cc10-4d63-8643-616237a9ce5b","ios":"levelo://app?vid=089c55ce-cc10-4d63-8643-616237a9ce5b"},"vehicle_type_id":"4","last_reported":1761163936,"current_range_meters":15200,"station_id":"ce4bh192rcd13ifvqdb0","pricing_plan_id":"cebpf4jnsgd1na2vs0mg"},{"bike_id":"e26a4ba5-d1f0-450a-a9c3-d00a5fad899d","system_id":"levelo_inurba_marseille","lat":43.24167,"lon":5.36389,"is_reserved":false,"is_disabled":false,"rental_uris":{"android":"levelo://app?vid=e26a4ba5-d1f0-450a-a9c3-d00a5fad899d","ios":"levelo://app?vid=e26a4ba5-d1f0-450a-a9c3-d00a5fad899d"},"vehicle_type_id":"4","last_reported":1761163936,"current_range_meters":15200,"station_id":"cpo36qri1sfpv3e86is0","pricing_plan_id":"cebpf4jnsgd1na2vs0mg"},{"bike_id":"cf06ee6f-d420-499d-8dee-1fab4c8be77b","system_id":"levelo_inurba_marseille","lat":43.301286,"lon":5.38775,"is_reserved":false,"is_disabled":false,"rental_uris":{"android":"levelo://app?vid=cf06ee6f-d420-499d-8dee-1fab4c8be77b","ios":"levelo://app?vid=cf06ee6f-d420-499d-8dee-1fab4c8be77b"},"vehicle_type_id":"4","last_reported":1761163936,"current_range_meters":15200,"station_id":"","pricing_plan_id":"cebpf4jnsgd1na2vs0mg"},{"bike_id":"12560c82-fdef-4887-a8c4-b201c21f8929","system_id":"levelo_inurba_marseille","lat":43.29882,"lon":5.38902,"is_reserved":false,"is_disabled":false,"rental_uris":{"android":"levelo://app?vid=12560c82-fdef-4887-a8c4-b201c21f8929","ios":"levelo://app?vid=12560c82-fdef-4887-a8c4-b201c21f8929"},"vehicle_type_id":"4","last_reported":1761163936,"current_range_meters":15200,"station_id":"ce4bh392rcd13ifvqdl0","pricing_plan_id":"cebpf4jnsgd1na2vs0mg"},{"bike_id":"fecbe1f9-5b39-4a18-9133-88eaf36dc64f","system_id":"levelo_inurba_marseille","lat":43.29711,"lon":5.38087,"is_reserved":false,"is_disabled":false,"rental_uris":{"android":"levelo://app?vid=fecbe1f9-5b39-4a18-9133-88eaf36dc64f","ios":"levelo://app?vid=fecbe1f9-5b39-4a18-9133-88eaf36dc64f"},"vehicle_type_id":"4","last_reported":1761163936,"current_range_meters":15200,"station_id":"","pricing_plan_id":"cebpf4jnsgd1na2vs0mg"},{"bike_id":"c8c0fa58-a519-4343-9887-b0c694f93aef","system_id":"levelo_inurba_marseille","lat":43.288621,"lon":5.425123,"is_reserved":false,"is_disabled":false,"rental_uris":{"android":"levelo://app?vid=c8c0fa58-a519-4343-9887-b0c694f93aef","ios":"levelo://app?vid=c8c0fa58-a519-4343-9887-b0c694f93aef"},"vehicle_type_id":"4","last_reported":1761163936,"current_range_meters":16000,"station_id":"st_d3b462108ojc7389ooeg","pricing_plan_id":"cebpf4jnsgd1na2vs0mg"},{"bike_id":"6b9158cc-993e-4fdb-bafb-7fa32e0adab3","system_id":"levelo_inurba_marseille","lat":43.21761,"lon":5.34592,"is_reserved":false,"is_disabled":false,"rental_uris":{"android":"levelo://app?vid=6b9158cc-993e-4fdb-bafb-7fa32e0adab3","ios":"levelo://app?vid=6b9158cc-993e-4fdb-bafb-7fa32e0adab3"},"vehicle_type_id":"4","last_reported":1761163936,"current_range_meters":16000,"station_id":"","pricing_plan_id":"cebpf4jnsgd1na2vs0mg"},{"bike_id":"fa0be1b3-ac79-46dd-bbc1-835a3fafa9e1","system_id":"levelo_inurba_marseille","lat":43.300969,"lon":5.390826,"is_reserved":false,"is_disabled":false,"rental_uris":{"android":"levelo://app?vid=fa0be1b3-ac79-46dd-bbc1-835a3fafa9e1","ios":"levelo://app?vid=fa0be1b3-ac79-46dd-bbc1-835a3fafa9e1"},"vehicle_type_id":"4","last_reported":1761163936,"current_range_meters":16000,"station_id":"ce4bh192rcd13ifvqdb0","pricing_plan_id":"cebpf4jnsgd1na2vs0mg"},{"bike_id":"908177fd-ddc7-4961-b6da-3db013163692","system_id":"levelo_inurba_marseille","lat":43.28355,"lon":5.38094,"is_reserved":false,"is_disabled":false,"rental_uris":{"android":"levelo://app?vid=908177fd-ddc7-4961-b6da-3db013163692","ios":"levelo://app?vid=908177fd-ddc7-4961-b6da-3db013163692"},"vehicle_type_id":"4","last_reported":1761163936,"current_range_meters":16000,"station_id":"ce4bh412rcd13ifvqdr0","pricing_plan_id":"cebpf4jnsgd1na2vs0mg"},{"bike_id":"ff3839d3-16ac-4aa9-9120-d4030bd2a260","system_id":"levelo_inurba_marseille","lat":43.29808,"lon":5.39312,"is_reserved":false,"is_disabled":true,"rental_uris":{"android":"levelo://app?vid=ff3839d3-16ac-4aa9-9120-d4030bd2a260","ios":"levelo://app?vid=ff3839d3-16ac-4aa9-9120-d4030bd2a260"},"vehicle_type_id":"4","last_reported":1761163936,"current_range_meters":16000,"station_id":"chh1huq6cuj3fo74tm60","pricing_plan_id":"cebpf4jnsgd1na2vs0mg"},{"bike_id":"c775e1ea-9a62-4435-8d4f-004bf2c26047","system_id":"levelo_inurba_marseille","lat":43.29825,"lon":5.44056,"is_reserved":false,"is_disabled":false,"rental_uris":{"android":"levelo://app?vid=c775e1ea-9a62-4435-8d4f-004bf2c26047","ios":"levelo://app?vid=c775e1ea-9a62-4435-8d4f-004bf2c26047"},"vehicle_type_id":"4","last_reported":1761163936,"current_range_meters":16400,"station_id":"st_d3jp68qikq2c7381ktn0","pricing_plan_id":"cebpf4jnsgd1na2vs0mg"},{"bike_id":"61525fe3-26d4-4c5c-a075-e59599c296c4","system_id":"levelo_inurba_marseille","lat":43.31435,"lon":5.39289,"is_reserved":false,"is_disabled":false,"rental_uris":{"android":"levelo://app?vid=61525fe3-26d4-4c5c-a075-e59599c296c4","ios":"levelo://app?vid=61525fe3-26d4-4c5c-a075-e59599c296c4"},"vehicle_type_id":"4","last_reported":1761163936,"current_range_meters":16400,"station_id":"","pricing_plan_id":"cebpf4jnsgd1na2vs0mg"},{"bike_id":"5b1f3bc7-a4fa-4b8d-b6f0-b99a9e899fe0","system_id":"levelo_inurba_marseille","lat":43.28338,"lon":5.38103,"is_reserved":false,"is_disabled":false,"rental_uris":{"android":"levelo://app?vid=5b1f3bc7-a4fa-4b8d-b6f0-b99a9e899fe0","ios":"levelo://app?vid=5b1f3bc7-a4fa-4b8d-b6f0-b99a9e899fe0"},"vehicle_type_id":"4","last_reported":1761163936,"current_range_meters":16400,"station_id":"ce4bh412rcd13ifvqdr0","pricing_plan_id":"cebpf4jnsgd1na2vs0mg"},{"bike_id":"f94bbc39-8085-4208-a916-14cb898aa726","system_id":"levelo_inurba_marseille","lat":43.29535,"lon":5.38532,"is_reserved":false,"is_disabled":false,"rental_uris":{"android":"levelo://app?vid=f94bbc39-8085-4208-a916-14cb898aa726","ios":"levelo://app?vid=f94bbc39-8085-4208-a916-14cb898aa726"},"vehicle_type_id":"4","last_reported":1761163936,"current_range_meters":16400,"station_id":"ce4bgih2rcd13ifvqba0","pricing_plan_id":"cebpf4jnsgd1na2vs0mg"},{"bike_id":"f538f63b-5046-43e0-b976-b5f9d5d4e253","system_id":"levelo_inurba_marseille","lat":43.29784,"lon":5.39351,"is_reserved":false,"is_disabled":false,"rental_uris":{"android":"levelo://app?vid=f538f63b-5046-43e0-b976-b5f9d5d4e253","ios":"levelo://app?vid=f538f63b-5046-43e0-b976-b5f9d5d4e253"},"vehicle_type_id":"4","last_reported":1761163936,"current_range_meters":16400,"station_id":"chh1huq6cuj3fo74tm60","pricing_plan_id":"cebpf4jnsgd1na2vs0mg"},{"bike_id":"a68aac49-ab4a-47a8-885d-5d741422d97c","system_id":"levelo_inurba_marseille","lat":43.284426,"lon":5.391932,"is_reserved":false,"is_disabled":false,"rental_uris":{"android":"levelo://app?vid=a68aac49-ab4a-47a8-885d-5d741422d97c","ios":"levelo://app?vid=a68aac49-ab4a-47a8-885d-5d741422d97c"},"vehicle_type_id":"4","last_reported":1761163936,"current_range_meters":16400,"station_id":"","pricing_plan_id":"cebpf4jnsgd1na2vs0mg"},{"bike_id":"16163431-3311-4b1f-9eb2-05dc88b05eb8","system_id":"levelo_inurba_marseille","lat":43.29412,"lon":5.386028,"is_reserved":false,"is_disabled":false,"rental_uris":{"android":"levelo://app?vid=16163431-3311-4b1f-9eb2-05dc88b05eb8","ios":"levelo://app?vid=16163431-3311-4b1f-9eb2-05dc88b05eb8"},"vehicle_type_id":"4","last_reported":1761163936,"current_range_meters":16400,"station_id":"ce4bh3p2rcd13ifvqdp0","pricing_plan_id":"cebpf4jnsgd1na2vs0mg"},{"bike_id":"d0b2071f-3b06-48bb-81cd-5a9172e3cfbb","system_id":"levelo_inurba_marseille","lat":43.29886,"lon":5.38918,"is_reserved":false,"is_disabled":false,"rental_uris":{"android":"levelo://app?vid=d0b2071f-3b06-48bb-81cd-5a9172e3cfbb","ios":"levelo://app?vid=d0b2071f-3b06-48bb-81cd-5a9172e3cfbb"},"vehicle_type_id":"4","last_reported":1761163936,"current_range_meters":16400,"station_id":"ce4bh392rcd13ifvqdl0","pricing_plan_id":"cebpf4jnsgd1na2vs0mg"},{"bike_id":"71d530ff-c617-4500-862e-2196508ef7cb","system_id":"levelo_inurba_marseille","lat":43.238,"lon":5.36636,"is_reserved":false,"is_disabled":false,"rental_uris":{"android":"levelo://app?vid=71d530ff-c617-4500-862e-2196508ef7cb","ios":"levelo://app?vid=71d530ff-c617-4500-862e-2196508ef7cb"},"vehicle_type_id":"4","last_reported":1761163936,"current_range_meters":16800,"station_id":"st_d3nk18o9ro0c73en2l3g","pricing_plan_id":"cebpf4jnsgd1na2vs0mg"},{"bike_id":"91d630cc-6558-474d-911d-2ff4a104ddb1","system_id":"levelo_inurba_marseille","lat":43.31743,"lon":5.39016,"is_reserved":false,"is_disabled":false,"rental_uris":{"android":"levelo://app?vid=91d630cc-6558-474d-911d-2ff4a104ddb1","ios":"levelo://app?vid=91d630cc-6558-474d-911d-2ff4a104ddb1"},"vehicle_type_id":"4","last_reported":1761163936,"current_range_meters":16800,"station_id":"ce4bhqp2rcd13ifvqhng","pricing_plan_id":"cebpf4jnsgd1na2vs0mg"},{"bike_id":"0198280f-05b0-401c-b9f2-7586dff77353","system_id":"levelo_inurba_marseille","lat":43.28907,"lon":5.3778,"is_reserved":false,"is_disabled":false,"rental_uris":{"android":"levelo://app?vid=0198280f-05b0-401c-b9f2-7586dff77353","ios":"levelo://app?vid=0198280f-05b0-401c-b9f2-7586dff77353"},"vehicle_type_id":"4","last_reported":1761163936,"current_range_meters":16800,"station_id":"","pricing_plan_id":"cebpf4jnsgd1na2vs0mg"},{"bike_id":"e1927214-042b-4ff4-88d7-8c0645f3fb8b","system_id":"levelo_inurba_marseille","lat":43.248116,"lon":5.374613,"is_reserved":false,"is_disabled":false,"rental_uris":{"android":"levelo://app?vid=e1927214-042b-4ff4-88d7-8c0645f3fb8b","ios":"levelo://app?vid=e1927214-042b-4ff4-88d7-8c0645f3fb8b"},"vehicle_type_id":"4","last_reported":1761163936,"current_range_meters":16800,"station_id":"ce4bhnp2rcd13ifvqgvg","pricing_plan_id":"cebpf4jnsgd1na2vs0mg"},{"bike_id":"22556366-5b35-4879-b6f5-b944bfc8418c","system_id":"levelo_inurba_marseille","lat":43.30185,"lon":5.38119,"is_reserved":false,"is_disabled":true,"rental_uris":{"android":"levelo://app?vid=22556366-5b35-4879-b6f5-b944bfc8418c","ios":"levelo://app?vid=22556366-5b35-4879-b6f5-b944bfc8418c"},"vehicle_type_id":"4","last_reported":1761163936,"current_range_meters":16800,"station_id":"","pricing_plan_id":"cebpf4jnsgd1na2vs0mg"},{"bike_id":"bda3ed1a-3199-4eb8-8229-577855d09dbb","system_id":"levelo_inurba_marseille","lat":43.3163,"lon":5.37876,"is_reserved":false,"is_disabled":false,"rental_uris":{"android":"levelo://app?vid=bda3ed1a-3199-4eb8-8229-577855d09dbb","ios":"levelo://app?vid=bda3ed1a-3199-4eb8-8229-577855d09dbb"},"vehicle_type_id":"4","last_reported":1761163936,"current_range_meters":16800,"station_id":"","pricing_plan_id":"cebpf4jnsgd1na2vs0mg"},{"bike_id":"61526316-a588-4347-9843-b3c2f905949b","system_id":"levelo_inurba_marseille","lat":43.29536,"lon":5.38544,"is_reserved":false,"is_disabled":false,"rental_uris":{"android":"levelo://app?vid=61526316-a588-4347-9843-b3c2f905949b","ios":"levelo://app?vid=61526316-a588-4347-9843-b3c2f905949b"},"vehicle_type_id":"4","last_reported":1761163936,"current_range_meters":16800,"station_id":"ce4bgih2rcd13ifvqba0","pricing_plan_id":"cebpf4jnsgd1na2vs0mg"},{"bike_id":"783c31b7-fbaa-44b2-a895-4587ac186552","system_id":"levelo_inurba_marseille","lat":43.26567,"lon":5.39,"is_reserved":false,"is_disabled":false,"rental_uris":{"android":"levelo://app?vid=783c31b7-fbaa-44b2-a895-4587ac186552","ios":"levelo://app?vid=783c31b7-fbaa-44b2-a895-4587ac186552"},"vehicle_type_id":"4","last_reported":1761163936,"current_range_meters":16800,"station_id":"ce4bhe12rcd13ifvqf30","pricing_plan_id":"cebpf4jnsgd1na2vs0mg"},{"bike_id":"577ecd2b-914e-4a10-9632-ee5c0350e5e6","system_id":"levelo_inurba_marseille","lat":43.295268,"lon":5.385421,"is_reserved":false,"is_disabled":false,"rental_uris":{"android":"levelo://app?vid=577ecd2b-914e-4a10-9632-ee5c0350e5e6","ios":"levelo://app?vid=577ecd2b-914e-4a10-9632-ee5c0350e5e6"},"vehicle_type_id":"4","last_reported":1761163936,"current_range_meters":16800,"station_id":"ce4bgih2rcd13ifvqba0","pricing_plan_id":"cebpf4jnsgd1na2vs0mg"},{"bike_id":"71518c22-91e9-4d8f-b188-4a1e53b35b80","system_id":"levelo_inurba_marseille","lat":43.307828,"lon":5.376559,"is_reserved":false,"is_disabled":false,"rental_uris":{"android":"levelo://app?vid=71518c22-91e9-4d8f-b188-4a1e53b35b80","ios":"levelo://app?vid=71518c22-91e9-4d8f-b188-4a1e53b35b80"},"vehicle_type_id":"4","last_reported":1761163936,"current_range_meters":16800,"station_id":"ce4bgv92rcd13ifvqcq0","pricing_plan_id":"cebpf4jnsgd1na2vs0mg"},{"bike_id":"9393f9ef-7253-457f-bdcb-e284d908af29","system_id":"levelo_inurba_marseille","lat":43.28852,"lon":5.3584,"is_reserved":false,"is_disabled":false,"rental_uris":{"android":"levelo://app?vid=9393f9ef-7253-457f-bdcb-e284d908af29","ios":"levelo://app?vid=9393f9ef-7253-457f-bdcb-e284d908af29"},"vehicle_type_id":"4","last_reported":1761163936,"current_range_meters":16800,"station_id":"ce4bhb12rcd13ifvqem0","pricing_plan_id":"cebpf4jnsgd1na2vs0mg"},{"bike_id":"d9247930-f477-4727-872b-24c5b02f6614","system_id":"levelo_inurba_marseille","lat":43.27192,"lon":5.40993,"is_reserved":false,"is_disabled":false,"rental_uris":{"android":"levelo://app?vid=d9247930-f477-4727-872b-24c5b02f6614","ios":"levelo://app?vid=d9247930-f477-4727-872b-24c5b02f6614"},"vehicle_type_id":"4","last_reported":1761163936,"current_range_meters":16800,"station_id":"ce4bhl12rcd13ifvqgf0","pricing_plan_id":"cebpf4jnsgd1na2vs0mg"},{"bike_id":"96939117-35ce-41f0-9af0-fcff4726b36a","system_id":"levelo_inurba_marseille","lat":43.30373,"lon":5.42485,"is_reserved":false,"is_disabled":false,"rental_uris":{"android":"levelo://app?vid=96939117-35ce-41f0-9af0-fcff4726b36a","ios":"levelo://app?vid=96939117-35ce-41f0-9af0-fcff4726b36a"},"vehicle_type_id":"4","last_reported":1761163936,"current_range_meters":17200,"station_id":"ce4bhoh2rcd13ifvqh6g","pricing_plan_id":"cebpf4jnsgd1na2vs0mg"},{"bike_id":"e4e04792-3ba0-4137-acc2-b7c8e0fbd172","system_id":"levelo_inurba_marseille","lat":43.297098,"lon":5.366119,"is_reserved":false,"is_disabled":false,"rental_uris":{"android":"levelo://app?vid=e4e04792-3ba0-4137-acc2-b7c8e0fbd172","ios":"levelo://app?vid=e4e04792-3ba0-4137-acc2-b7c8e0fbd172"},"vehicle_type_id":"4","last_reported":1761163936,"current_range_meters":17200,"station_id":"ce4bgn12rcd13ifvqbt0","pricing_plan_id":"cebpf4jnsgd1na2vs0mg"},{"bike_id":"0fc40d93-8bcb-4e48-89ef-a2a358d0bcd8","system_id":"levelo_inurba_marseille","lat":43.30322,"lon":5.40425,"is_reserved":false,"is_disabled":false,"rental_uris":{"android":"levelo://app?vid=0fc40d93-8bcb-4e48-89ef-a2a358d0bcd8","ios":"levelo://app?vid=0fc40d93-8bcb-4e48-89ef-a2a358d0bcd8"},"vehicle_type_id":"4","last_reported":1761163936,"current_range_meters":17200,"station_id":"ce4bh012rcd13ifvqd10","pricing_plan_id":"cebpf4jnsgd1na2vs0mg"},{"bike_id":"2a22829e-2bd6-41ec-a3e5-ef826e7425d3","system_id":"levelo_inurba_marseille","lat":43.32113,"lon":5.36746,"is_reserved":false,"is_disabled":false,"rental_uris":{"android":"levelo://app?vid=2a22829e-2bd6-41ec-a3e5-ef826e7425d3","ios":"levelo://app?vid=2a22829e-2bd6-41ec-a3e5-ef826e7425d3"},"vehicle_type_id":"4","last_reported":1761163936,"current_range_meters":17200,"station_id":"ce4bhrh2rcd13ifvqhug","pricing_plan_id":"cebpf4jnsgd1na2vs0mg"},{"bike_id":"84266477-27ea-49c2-a601-16ccb6cef0a7","system_id":"levelo_inurba_marseille","lat":43.29542,"lon":5.38539,"is_reserved":false,"is_disabled":false,"rental_uris":{"android":"levelo://app?vid=84266477-27ea-49c2-a601-16ccb6cef0a7","ios":"levelo://app?vid=84266477-27ea-49c2-a601-16ccb6cef0a7"},"vehicle_type_id":"4","last_reported":1761163936,"current_range_meters":17200,"station_id":"ce4bgih2rcd13ifvqba0","pricing_plan_id":"cebpf4jnsgd1na2vs0mg"},{"bike_id":"46b245e2-5c17-4401-9725-d80f452411ae","system_id":"levelo_inurba_marseille","lat":43.29526,"lon":5.38526,"is_reserved":false,"is_disabled":false,"rental_uris":{"android":"levelo://app?vid=46b245e2-5c17-4401-9725-d80f452411ae","ios":"levelo://app?vid=46b245e2-5c17-4401-9725-d80f452411ae"},"vehicle_type_id":"4","last_reported":1761163936,"current_range_meters":17600,"station_id":"ce4bgih2rcd13ifvqba0","pricing_plan_id":"cebpf4jnsgd1na2vs0mg"},{"bike_id":"2938bc11-cf20-48d2-8537-9e422430a9d9","system_id":"levelo_inurba_marseille","lat":43.27196,"lon":5.40989,"is_reserved":false,"is_disabled":false,"rental_uris":{"android":"levelo://app?vid=2938bc11-cf20-48d2-8537-9e422430a9d9","ios":"levelo://app?vid=2938bc11-cf20-48d2-8537-9e422430a9d9"},"vehicle_type_id":"4","last_reported":1761163936,"current_range_meters":17600,"station_id":"ce4bhl12rcd13ifvqgf0","pricing_plan_id":"cebpf4jnsgd1na2vs0mg"},{"bike_id":"06ab88d4-144b-4a0a-a5ee-f9fa11ce49bb","system_id":"levelo_inurba_marseille","lat":43.26567,"lon":5.40321,"is_reserved":false,"is_disabled":false,"rental_uris":{"android":"levelo://app?vid=06ab88d4-144b-4a0a-a5ee-f9fa11ce49bb","ios":"levelo://app?vid=06ab88d4-144b-4a0a-a5ee-f9fa11ce49bb"},"vehicle_type_id":"4","last_reported":1761163936,"current_range_meters":17600,"station_id":"ce4bhmp2rcd13ifvqgng","pricing_plan_id":"cebpf4jnsgd1na2vs0mg"},{"bike_id":"8279c4c5-fc60-4f53-bb06-414ea3d383b4","system_id":"levelo_inurba_marseille","lat":43.29084,"lon":5.38163,"is_reserved":false,"is_disabled":false,"rental_uris":{"android":"levelo://app?vid=8279c4c5-fc60-4f53-bb06-414ea3d383b4","ios":"levelo://app?vid=8279c4c5-fc60-4f53-bb06-414ea3d383b4"},"vehicle_type_id":"4","last_reported":1761163936,"current_range_meters":17600,"station_id":"ce4bh512rcd13ifvqe2g","pricing_plan_id":"cebpf4jnsgd1na2vs0mg"},{"bike_id":"d5446f76-30d2-4f55-be4e-e3a9def6fcf1","system_id":"levelo_inurba_marseille","lat":43.27987,"lon":5.40013,"is_reserved":false,"is_disabled":false,"rental_uris":{"android":"levelo://app?vid=d5446f76-30d2-4f55-be4e-e3a9def6fcf1","ios":"levelo://app?vid=d5446f76-30d2-4f55-be4e-e3a9def6fcf1"},"vehicle_type_id":"4","last_reported":1761163936,"current_range_meters":17600,"station_id":"ce4bho92rcd13ifvqh4g","pricing_plan_id":"cebpf4jnsgd1na2vs0mg"},{"bike_id":"13ffca06-ecc4-46ee-aa82-6818647126c8","system_id":"levelo_inurba_marseille","lat":43.299,"lon":5.43651,"is_reserved":false,"is_disabled":false,"rental_uris":{"android":"levelo://app?vid=13ffca06-ecc4-46ee-aa82-6818647126c8","ios":"levelo://app?vid=13ffca06-ecc4-46ee-aa82-6818647126c8"},"vehicle_type_id":"4","last_reported":1761163936,"current_range_meters":17600,"station_id":"ce4bhpp2rcd13ifvqhfg","pricing_plan_id":"cebpf4jnsgd1na2vs0mg"},{"bike_id":"fe30cecb-f264-4fe0-b4a7-fca9a34f6ed4","system_id":"levelo_inurba_marseille","lat":43.290305,"lon":5.372418,"is_reserved":false,"is_disabled":false,"rental_uris":{"android":"levelo://app?vid=fe30cecb-f264-4fe0-b4a7-fca9a34f6ed4","ios":"levelo://app?vid=fe30cecb-f264-4fe0-b4a7-fca9a34f6ed4"},"vehicle_type_id":"4","last_reported":1761163936,"current_range_meters":17600,"station_id":"","pricing_plan_id":"cebpf4jnsgd1na2vs0mg"},{"bike_id":"98a0c714-94f9-4b12-84fa-4cee0bc5110d","system_id":"levelo_inurba_marseille","lat":43.29302,"lon":5.37164,"is_reserved":false,"is_disabled":false,"rental_uris":{"android":"levelo://app?vid=98a0c714-94f9-4b12-84fa-4cee0bc5110d","ios":"levelo://app?vid=98a0c714-94f9-4b12-84fa-4cee0bc5110d"},"vehicle_type_id":"4","last_reported":1761163936,"current_range_meters":17600,"station_id":"ce4bgh92rcd13ifvqb40","pricing_plan_id":"cebpf4jnsgd1na2vs0mg"},{"bike_id":"62e025b3-e0fd-470f-bb93-c8ce647595ac","system_id":"levelo_inurba_marseille","lat":43.2954,"lon":5.38544,"is_reserved":false,"is_disabled":false,"rental_uris":{"android":"levelo://app?vid=62e025b3-e0fd-470f-bb93-c8ce647595ac","ios":"levelo://app?vid=62e025b3-e0fd-470f-bb93-c8ce647595ac"},"vehicle_type_id":"4","last_reported":1761163936,"current_range_meters":18000,"station_id":"ce4bgih2rcd13ifvqba0","pricing_plan_id":"cebpf4jnsgd1na2vs0mg"},{"bike_id":"ec34e0fa-6545-4468-b20a-af56dfd0a540","system_id":"levelo_inurba_marseille","lat":43.29757,"lon":5.42773,"is_reserved":false,"is_disabled":false,"rental_uris":{"android":"levelo://app?vid=ec34e0fa-6545-4468-b20a-af56dfd0a540","ios":"levelo://app?vid=ec34e0fa-6545-4468-b20a-af56dfd0a540"},"vehicle_type_id":"4","last_reported":1761163936,"current_range_meters":18000,"station_id":"st_d3md5207bmas73dh9klg","pricing_plan_id":"cebpf4jnsgd1na2vs0mg"},{"bike_id":"4ef0489f-e7b2-4aa8-950b-34bfa22a7c0e","system_id":"levelo_inurba_marseille","lat":43.28851,"lon":5.35869,"is_reserved":false,"is_disabled":false,"rental_uris":{"android":"levelo://app?vid=4ef0489f-e7b2-4aa8-950b-34bfa22a7c0e","ios":"levelo://app?vid=4ef0489f-e7b2-4aa8-950b-34bfa22a7c0e"},"vehicle_type_id":"4","last_reported":1761163936,"current_range_meters":18000,"station_id":"ce4bhb12rcd13ifvqem0","pricing_plan_id":"cebpf4jnsgd1na2vs0mg"},{"bike_id":"d1fc9185-8f19-463e-bbf5-1b4da50b9828","system_id":"levelo_inurba_marseille","lat":43.28403,"lon":5.37518,"is_reserved":false,"is_disabled":false,"rental_uris":{"android":"levelo://app?vid=d1fc9185-8f19-463e-bbf5-1b4da50b9828","ios":"levelo://app?vid=d1fc9185-8f19-463e-bbf5-1b4da50b9828"},"vehicle_type_id":"4","last_reported":1761163936,"current_range_meters":18000,"station_id":"ce4bh412rcd13ifvqds0","pricing_plan_id":"cebpf4jnsgd1na2vs0mg"},{"bike_id":"12275ef5-272a-4aae-b524-5e97cdfc2fd6","system_id":"levelo_inurba_marseille","lat":43.29546,"lon":5.38543,"is_reserved":false,"is_disabled":false,"rental_uris":{"android":"levelo://app?vid=12275ef5-272a-4aae-b524-5e97cdfc2fd6","ios":"levelo://app?vid=12275ef5-272a-4aae-b524-5e97cdfc2fd6"},"vehicle_type_id":"4","last_reported":1761163936,"current_range_meters":18800,"station_id":"ce4bgih2rcd13ifvqba0","pricing_plan_id":"cebpf4jnsgd1na2vs0mg"},{"bike_id":"615a88f0-403f-4498-97c1-f35ddd84a33e","system_id":"levelo_inurba_marseille","lat":43.27375,"lon":5.36242,"is_reserved":false,"is_disabled":false,"rental_uris":{"android":"levelo://app?vid=615a88f0-403f-4498-97c1-f35ddd84a33e","ios":"levelo://app?vid=615a88f0-403f-4498-97c1-f35ddd84a33e"},"vehicle_type_id":"4","last_reported":1761163936,"current_range_meters":18800,"station_id":"ce4bhbh2rcd13ifvqeo0","pricing_plan_id":"cebpf4jnsgd1na2vs0mg"},{"bike_id":"26ecfd90-2879-4ffd-b3cb-633752b421a5","system_id":"levelo_inurba_marseille","lat":43.26558,"lon":5.37293,"is_reserved":false,"is_disabled":false,"rental_uris":{"android":"levelo://app?vid=26ecfd90-2879-4ffd-b3cb-633752b421a5","ios":"levelo://app?vid=26ecfd90-2879-4ffd-b3cb-633752b421a5"},"vehicle_type_id":"4","last_reported":1761163936,"current_range_meters":18800,"station_id":"ce4bhg12rcd13ifvqf70","pricing_plan_id":"cebpf4jnsgd1na2vs0mg"},{"bike_id":"cae27b30-8314-4560-ab3a-adf65579fca3","system_id":"levelo_inurba_marseille","lat":43.2904,"lon":5.375652,"is_reserved":false,"is_disabled":false,"rental_uris":{"android":"levelo://app?vid=cae27b30-8314-4560-ab3a-adf65579fca3","ios":"levelo://app?vid=cae27b30-8314-4560-ab3a-adf65579fca3"},"vehicle_type_id":"4","last_reported":1761163936,"current_range_meters":18800,"station_id":"ce4bh692rcd13ifvqe90","pricing_plan_id":"cebpf4jnsgd1na2vs0mg"},{"bike_id":"39b1a680-6858-4c8a-a863-9c64114433d8","system_id":"levelo_inurba_marseille","lat":43.29259,"lon":5.38439,"is_reserved":false,"is_disabled":false,"rental_uris":{"android":"levelo://app?vid=39b1a680-6858-4c8a-a863-9c64114433d8","ios":"levelo://app?vid=39b1a680-6858-4c8a-a863-9c64114433d8"},"vehicle_type_id":"4","last_reported":1761163936,"current_range_meters":18800,"station_id":"ce4bh692rcd13ifvqea0","pricing_plan_id":"cebpf4jnsgd1na2vs0mg"},{"bike_id":"70d8b147-e553-420c-879b-27aa5305fd3a","system_id":"levelo_inurba_marseille","lat":43.29527,"lon":5.38547,"is_reserved":false,"is_disabled":false,"rental_uris":{"android":"levelo://app?vid=70d8b147-e553-420c-879b-27aa5305fd3a","ios":"levelo://app?vid=70d8b147-e553-420c-879b-27aa5305fd3a"},"vehicle_type_id":"4","last_reported":1761163936,"current_range_meters":18800,"station_id":"ce4bgih2rcd13ifvqba0","pricing_plan_id":"cebpf4jnsgd1na2vs0mg"},{"bike_id":"035ca1d7-233f-4f69-9569-4f3393764361","system_id":"levelo_inurba_marseille","lat":43.30868,"lon":5.37314,"is_reserved":false,"is_disabled":false,"rental_uris":{"android":"levelo://app?vid=035ca1d7-233f-4f69-9569-4f3393764361","ios":"levelo://app?vid=035ca1d7-233f-4f69-9569-4f3393764361"},"vehicle_type_id":"4","last_reported":1761163936,"current_range_meters":18800,"station_id":"","pricing_plan_id":"cebpf4jnsgd1na2vs0mg"},{"bike_id":"4c5286ab-263c-46b7-a661-9ba3543b37d4","system_id":"levelo_inurba_marseille","lat":43.296,"lon":5.38094,"is_reserved":false,"is_disabled":false,"rental_uris":{"android":"levelo://app?vid=4c5286ab-263c-46b7-a661-9ba3543b37d4","ios":"levelo://app?vid=4c5286ab-263c-46b7-a661-9ba3543b37d4"},"vehicle_type_id":"4","last_reported":1761163936,"current_range_meters":18800,"station_id":"ce4bgl12rcd13ifvqbo0","pricing_plan_id":"cebpf4jnsgd1na2vs0mg"},{"bike_id":"8bcacd78-80de-4026-af75-b37ebe3030fe","system_id":"levelo_inurba_marseille","lat":43.334756,"lon":5.404255,"is_reserved":false,"is_disabled":false,"rental_uris":{"android":"levelo://app?vid=8bcacd78-80de-4026-af75-b37ebe3030fe","ios":"levelo://app?vid=8bcacd78-80de-4026-af75-b37ebe3030fe"},"vehicle_type_id":"4","last_reported":1761163936,"current_range_meters":18800,"station_id":"","pricing_plan_id":"cebpf4jnsgd1na2vs0mg"},{"bike_id":"b98a5ae8-d8d1-4b53-9010-f1c67c5b652e","system_id":"levelo_inurba_marseille","lat":43.295313,"lon":5.385457,"is_reserved":false,"is_disabled":false,"rental_uris":{"android":"levelo://app?vid=b98a5ae8-d8d1-4b53-9010-f1c67c5b652e","ios":"levelo://app?vid=b98a5ae8-d8d1-4b53-9010-f1c67c5b652e"},"vehicle_type_id":"4","last_reported":1761163936,"current_range_meters":18800,"station_id":"ce4bgih2rcd13ifvqba0","pricing_plan_id":"cebpf4jnsgd1na2vs0mg"},{"bike_id":"9c023054-f387-47db-bf1d-2774b5d6d642","system_id":"levelo_inurba_marseille","lat":43.31706,"lon":5.3817,"is_reserved":false,"is_disabled":false,"rental_uris":{"android":"levelo://app?vid=9c023054-f387-47db-bf1d-2774b5d6d642","ios":"levelo://app?vid=9c023054-f387-47db-bf1d-2774b5d6d642"},"vehicle_type_id":"4","last_reported":1761163936,"current_range_meters":18800,"station_id":"","pricing_plan_id":"cebpf4jnsgd1na2vs0mg"},{"bike_id":"1c126f90-d4f5-46e1-b4d7-ef4a75d2cc41","system_id":"levelo_inurba_marseille","lat":43.28434,"lon":5.37524,"is_reserved":false,"is_disabled":false,"rental_uris":{"android":"levelo://app?vid=1c126f90-d4f5-46e1-b4d7-ef4a75d2cc41","ios":"levelo://app?vid=1c126f90-d4f5-46e1-b4d7-ef4a75d2cc41"},"vehicle_type_id":"4","last_reported":1761163936,"current_range_meters":18800,"station_id":"ce4bh412rcd13ifvqds0","pricing_plan_id":"cebpf4jnsgd1na2vs0mg"},{"bike_id":"f2a8d073-237e-43c9-9bc4-85e6ac2c1486","system_id":"levelo_inurba_marseille","lat":43.292633,"lon":5.384409,"is_reserved":false,"is_disabled":false,"rental_uris":{"android":"levelo://app?vid=f2a8d073-237e-43c9-9bc4-85e6ac2c1486","ios":"levelo://app?vid=f2a8d073-237e-43c9-9bc4-85e6ac2c1486"},"vehicle_type_id":"4","last_reported":1761163936,"current_range_meters":18800,"station_id":"ce4bh692rcd13ifvqea0","pricing_plan_id":"cebpf4jnsgd1na2vs0mg"},{"bike_id":"d3d5809d-d84f-4bd8-a6ed-f34f9e73b1e1","system_id":"levelo_inurba_marseille","lat":43.30065,"lon":5.39149,"is_reserved":false,"is_disabled":false,"rental_uris":{"android":"levelo://app?vid=d3d5809d-d84f-4bd8-a6ed-f34f9e73b1e1","ios":"levelo://app?vid=d3d5809d-d84f-4bd8-a6ed-f34f9e73b1e1"},"vehicle_type_id":"4","last_reported":1761163936,"current_range_meters":18800,"station_id":"","pricing_plan_id":"cebpf4jnsgd1na2vs0mg"},{"bike_id":"b942fba7-a141-4122-b641-9cd43163e54f","system_id":"levelo_inurba_marseille","lat":43.2953,"lon":5.38543,"is_reserved":false,"is_disabled":false,"rental_uris":{"android":"levelo://app?vid=b942fba7-a141-4122-b641-9cd43163e54f","ios":"levelo://app?vid=b942fba7-a141-4122-b641-9cd43163e54f"},"vehicle_type_id":"4","last_reported":1761163936,"current_range_meters":19200,"station_id":"ce4bgih2rcd13ifvqba0","pricing_plan_id":"cebpf4jnsgd1na2vs0mg"},{"bike_id":"429ac869-6cbc-4328-8cd2-aadfd124ff40","system_id":"levelo_inurba_marseille","lat":43.2848,"lon":5.3842,"is_reserved":false,"is_disabled":false,"rental_uris":{"android":"levelo://app?vid=429ac869-6cbc-4328-8cd2-aadfd124ff40","ios":"levelo://app?vid=429ac869-6cbc-4328-8cd2-aadfd124ff40"},"vehicle_type_id":"4","last_reported":1761163936,"current_range_meters":19200,"station_id":"ce4bh512rcd13ifvqe3g","pricing_plan_id":"cebpf4jnsgd1na2vs0mg"},{"bike_id":"e769906a-6115-425c-84a0-aab1fda48d3f","system_id":"levelo_inurba_marseille","lat":43.29676,"lon":5.37559,"is_reserved":false,"is_disabled":false,"rental_uris":{"android":"levelo://app?vid=e769906a-6115-425c-84a0-aab1fda48d3f","ios":"levelo://app?vid=e769906a-6115-425c-84a0-aab1fda48d3f"},"vehicle_type_id":"4","last_reported":1761163936,"current_range_meters":19200,"station_id":"","pricing_plan_id":"cebpf4jnsgd1na2vs0mg"},{"bike_id":"d62d9ac1-87e4-4ee3-af81-5d8c39780b7d","system_id":"levelo_inurba_marseille","lat":43.29261,"lon":5.38434,"is_reserved":false,"is_disabled":false,"rental_uris":{"android":"levelo://app?vid=d62d9ac1-87e4-4ee3-af81-5d8c39780b7d","ios":"levelo://app?vid=d62d9ac1-87e4-4ee3-af81-5d8c39780b7d"},"vehicle_type_id":"4","last_reported":1761163936,"current_range_meters":19200,"station_id":"ce4bh692rcd13ifvqea0","pricing_plan_id":"cebpf4jnsgd1na2vs0mg"},{"bike_id":"d0cfa56f-3af1-43db-898a-65d7ae6ed4a7","system_id":"levelo_inurba_marseille","lat":43.309402,"lon":5.401401,"is_reserved":false,"is_disabled":false,"rental_uris":{"android":"levelo://app?vid=d0cfa56f-3af1-43db-898a-65d7ae6ed4a7","ios":"levelo://app?vid=d0cfa56f-3af1-43db-898a-65d7ae6ed4a7"},"vehicle_type_id":"4","last_reported":1761163936,"current_range_meters":19200,"station_id":"ce4bgvp2rcd13ifvqct0","pricing_plan_id":"cebpf4jnsgd1na2vs0mg"},{"bike_id":"1996ea89-9471-4d12-8066-1a9d0b7c69da","system_id":"levelo_inurba_marseille","lat":43.24417,"lon":5.37061,"is_reserved":false,"is_disabled":false,"rental_uris":{"android":"levelo://app?vid=1996ea89-9471-4d12-8066-1a9d0b7c69da","ios":"levelo://app?vid=1996ea89-9471-4d12-8066-1a9d0b7c69da"},"vehicle_type_id":"4","last_reported":1761163936,"current_range_meters":19200,"station_id":"ce4bhhh2rcd13ifvqfk0","pricing_plan_id":"cebpf4jnsgd1na2vs0mg"},{"bike_id":"692a999f-f646-43fe-b949-d58fd32447f4","system_id":"levelo_inurba_marseille","lat":43.32244,"lon":5.39424,"is_reserved":false,"is_disabled":false,"rental_uris":{"android":"levelo://app?vid=692a999f-f646-43fe-b949-d58fd32447f4","ios":"levelo://app?vid=692a999f-f646-43fe-b949-d58fd32447f4"},"vehicle_type_id":"4","last_reported":1761163936,"current_range_meters":19200,"station_id":"","pricing_plan_id":"cebpf4jnsgd1na2vs0mg"},{"bike_id":"d1094955-0e48-41ff-8fc7-b5fabb2f38b3","system_id":"levelo_inurba_marseille","lat":43.28731,"lon":5.36066,"is_reserved":false,"is_disabled":false,"rental_uris":{"android":"levelo://app?vid=d1094955-0e48-41ff-8fc7-b5fabb2f38b3","ios":"levelo://app?vid=d1094955-0e48-41ff-8fc7-b5fabb2f38b3"},"vehicle_type_id":"4","last_reported":1761163936,"current_range_meters":19200,"station_id":"cki0cbj6b192h4jlfktg","pricing_plan_id":"cebpf4jnsgd1na2vs0mg"},{"bike_id":"a9b5f66c-4453-47bf-b898-2692ff7cb8a4","system_id":"levelo_inurba_marseille","lat":43.29329,"lon":5.37167,"is_reserved":false,"is_disabled":false,"rental_uris":{"android":"levelo://app?vid=a9b5f66c-4453-47bf-b898-2692ff7cb8a4","ios":"levelo://app?vid=a9b5f66c-4453-47bf-b898-2692ff7cb8a4"},"vehicle_type_id":"4","last_reported":1761163936,"current_range_meters":19200,"station_id":"ce4bgh92rcd13ifvqb40","pricing_plan_id":"cebpf4jnsgd1na2vs0mg"},{"bike_id":"6fdf1595-0579-49a4-987f-35f0abdeef02","system_id":"levelo_inurba_marseille","lat":43.27984,"lon":5.41671,"is_reserved":false,"is_disabled":false,"rental_uris":{"android":"levelo://app?vid=6fdf1595-0579-49a4-987f-35f0abdeef02","ios":"levelo://app?vid=6fdf1595-0579-49a4-987f-35f0abdeef02"},"vehicle_type_id":"4","last_reported":1761163936,"current_range_meters":19600,"station_id":"ce4bho12rcd13ifvqh1g","pricing_plan_id":"cebpf4jnsgd1na2vs0mg"},{"bike_id":"642db917-5c8b-4e8d-9ef5-47fe9ef8bc7a","system_id":"levelo_inurba_marseille","lat":43.29607,"lon":5.37707,"is_reserved":false,"is_disabled":false,"rental_uris":{"android":"levelo://app?vid=642db917-5c8b-4e8d-9ef5-47fe9ef8bc7a","ios":"levelo://app?vid=642db917-5c8b-4e8d-9ef5-47fe9ef8bc7a"},"vehicle_type_id":"4","last_reported":1761163936,"current_range_meters":19600,"station_id":"ce4bgi92rcd13ifvqb90","pricing_plan_id":"cebpf4jnsgd1na2vs0mg"},{"bike_id":"9a1972b5-72a6-4763-9884-2f966099622e","system_id":"levelo_inurba_marseille","lat":43.29939,"lon":5.37539,"is_reserved":false,"is_disabled":false,"rental_uris":{"android":"levelo://app?vid=9a1972b5-72a6-4763-9884-2f966099622e","ios":"levelo://app?vid=9a1972b5-72a6-4763-9884-2f966099622e"},"vehicle_type_id":"4","last_reported":1761163936,"current_range_meters":19600,"station_id":"ce4bgjh2rcd13ifvqbg0","pricing_plan_id":"cebpf4jnsgd1na2vs0mg"},{"bike_id":"4b57f639-91e4-4b76-b70a-71ec481a791c","system_id":"levelo_inurba_marseille","lat":43.25149,"lon":5.40331,"is_reserved":false,"is_disabled":false,"rental_uris":{"android":"levelo://app?vid=4b57f639-91e4-4b76-b70a-71ec481a791c","ios":"levelo://app?vid=4b57f639-91e4-4b76-b70a-71ec481a791c"},"vehicle_type_id":"4","last_reported":1761163936,"current_range_meters":19600,"station_id":"","pricing_plan_id":"cebpf4jnsgd1na2vs0mg"},{"bike_id":"5ad17f03-e1be-4683-8155-891ad73511ef","system_id":"levelo_inurba_marseille","lat":43.26223,"lon":5.40448,"is_reserved":false,"is_disabled":false,"rental_uris":{"android":"levelo://app?vid=5ad17f03-e1be-4683-8155-891ad73511ef","ios":"levelo://app?vid=5ad17f03-e1be-4683-8155-891ad73511ef"},"vehicle_type_id":"4","last_reported":1761163936,"current_range_meters":19600,"station_id":"ce4bho92rcd13ifvqh4g","pricing_plan_id":"cebpf4jnsgd1na2vs0mg"},{"bike_id":"3c1f59b8-21c7-4370-b6bc-4a82150b0c2d","system_id":"levelo_inurba_marseille","lat":43.30548,"lon":5.38422,"is_reserved":false,"is_disabled":false,"rental_uris":{"android":"levelo://app?vid=3c1f59b8-21c7-4370-b6bc-4a82150b0c2d","ios":"levelo://app?vid=3c1f59b8-21c7-4370-b6bc-4a82150b0c2d"},