{"last_updated":1744484830,"ttl":60,"version":"2.2","data":{"bikes":[{"bike_id":"dd081b68-0a47-41b3-9975-782e5d7a940e","system_id":"levelo_inurba_marseille","lat":43.27495,"lon":5.42447,"is_reserved":false,"is_disabled":false,"rental_uris":{"android":"levelo://app?vid=dd081b68-0a47-41b3-9975-782e5d7a940e","ios":"levelo://app?vid=dd081b68-0a47-41b3-9975-782e5d7a940e"},"vehicle_type_id":"4","last_reported":1744484831,"current_range_meters":2800,"station_id":"ce4bhn92rcd13ifvqgrg","pricing_plan_id":"cebpf4jnsgd1na2vs0mg"},{"bike_id":"984bb2aa-d82a-4281-90f1-1529bbc61000","system_id":"levelo_inurba_marseille","lat":43.299129,"lon":5.392711,"is_reserved":false,"is_disabled":false,"rental_uris":{"android":"levelo://app?vid=984bb2aa-d82a-4281-90f1-1529bbc61000","ios":"levelo://app?vid=984bb2aa-d82a-4281-90f1-1529bbc61000"},"vehicle_type_id":"4","last_reported":1744484831,"current_range_meters":2800,"station_id":"","pricing_plan_id":"cebpf4jnsgd1na2vs0mg"},{"bike_id":"6d29accf-8c26-4f27-9fe9-4cfaf709439d","system_id":"levelo_inurba_marseille","lat":43.3529,"lon":5.36945,"is_reserved":false,"is_disabled":false,"rental_uris":{"android":"levelo://app?vid=6d29accf-8c26-4f27-9fe9-4cfaf709439d","ios":"levelo://app?vid=6d29accf-8c26-4f27-9fe9-4cfaf709439d"},"vehicle_type_id":"4","last_reported":1744484831,"current_range_meters":2800,"station_id":"","pricing_plan_id":"cebpf4jnsgd1na2vs0mg"},{"bike_id":"b4f30754-3b64-4dcd-bb92-c15472b7345a","system_id":"levelo_inurba_marseille","lat":43.25866,"lon":5.39905,"is_reserved":false,"is_disabled":false,"rental_uris":{"android":"levelo://app?vid=b4f30754-3b64-4dcd-bb92-c15472b7345a","ios":"levelo://app?vid=b4f30754-3b64-4dcd-bb92-c15472b7345a"},"vehicle_type_id":"4","last_reported":1744484831,"current_range_meters":2800,"station_id":"ce4bhl92rcd13ifvqghg","pricing_plan_id":"cebpf4jnsgd1na2vs0mg"},{"bike_id":"375e7718-6689-42ef-bac0-a1d04430396f","system_id":"levelo_inurba_marseille","lat":43.292575,"lon":5.38437,"is_reserved":false,"is_disabled":false,"rental_uris":{"android":"levelo://app?vid=375e7718-6689-42ef-bac0-a1d04430396f","ios":"levelo://app?vid=375e7718-6689-42ef-bac0-a1d04430396f"},"vehicle_type_id":"4","last_reported":1744484831,"current_range_meters":2800,"station_id":"ce4bh692rcd13ifvqea0","pricing_plan_id":"cebpf4jnsgd1na2vs0mg"},{"bike_id":"eab6cbfa-cb8e-47d7-b0d6-226ab7facec7","system_id":"levelo_inurba_marseille","lat":43.31712,"lon":5.42429,"is_reserved":false,"is_disabled":true,"rental_uris":{"android":"levelo://app?vid=eab6cbfa-cb8e-47d7-b0d6-226ab7facec7","ios":"levelo://app?vid=eab6cbfa-cb8e-47d7-b0d6-226ab7facec7"},"vehicle_type_id":"4","last_reported":1744484831,"current_range_meters":2800,"station_id":"ce4bhp92rcd13ifvqhbg","pricing_plan_id":"cebpf4jnsgd1na2vs0mg"},{"bike_id":"57bcfad0-f9e5-4d53-8cf3-f3dc91249cb9","system_id":"levelo_inurba_marseille","lat":43.28402,"lon":5.37535,"is_reserved":false,"is_disabled":false,"rental_uris":{"android":"levelo://app?vid=57bcfad0-f9e5-4d53-8cf3-f3dc91249cb9","ios":"levelo://app?vid=57bcfad0-f9e5-4d53-8cf3-f3dc91249cb9"},"vehicle_type_id":"4","last_reported":1744484831,"current_range_meters":3200,"station_id":"ce4bh412rcd13ifvqds0","pricing_plan_id":"cebpf4jnsgd1na2vs0mg"},{"bike_id":"129e85f8-27ed-42da-9b02-5245b1e235c9","system_id":"levelo_inurba_marseille","lat":43.28152,"lon":5.42645,"is_reserved":false,"is_disabled":false,"rental_uris":{"android":"levelo://app?vid=129e85f8-27ed-42da-9b02-5245b1e235c9","ios":"levelo://app?vid=129e85f8-27ed-42da-9b02-5245b1e235c9"},"vehicle_type_id":"4","last_reported":1744484831,"current_range_meters":3200,"station_id":"ce4bhnh2rcd13ifvqgug","pricing_plan_id":"cebpf4jnsgd1na2vs0mg"},{"bike_id":"59d9ef72-2dfd-4c60-bd76-e810b375ad0a","system_id":"levelo_inurba_marseille","lat":43.28482,"lon":5.38416,"is_reserved":false,"is_disabled":false,"rental_uris":{"android":"levelo://app?vid=59d9ef72-2dfd-4c60-bd76-e810b375ad0a","ios":"levelo://app?vid=59d9ef72-2dfd-4c60-bd76-e810b375ad0a"},"vehicle_type_id":"4","last_reported":1744484831,"current_range_meters":3200,"station_id":"ce4bh512rcd13ifvqe3g","pricing_plan_id":"cebpf4jnsgd1na2vs0mg"},{"bike_id":"8de406fa-4b53-4831-b2d5-21c285429526","system_id":"levelo_inurba_marseille","lat":43.32845,"lon":5.39748,"is_reserved":false,"is_disabled":false,"rental_uris":{"android":"levelo://app?vid=8de406fa-4b53-4831-b2d5-21c285429526","ios":"levelo://app?vid=8de406fa-4b53-4831-b2d5-21c285429526"},"vehicle_type_id":"4","last_reported":1744484831,"current_range_meters":3200,"station_id":"","pricing_plan_id":"cebpf4jnsgd1na2vs0mg"},{"bike_id":"d7f9e116-c5b6-4b81-b124-ce6019a2d1cb","system_id":"levelo_inurba_marseille","lat":43.217457,"lon":5.346061,"is_reserved":false,"is_disabled":true,"rental_uris":{"android":"levelo://app?vid=d7f9e116-c5b6-4b81-b124-ce6019a2d1cb","ios":"levelo://app?vid=d7f9e116-c5b6-4b81-b124-ce6019a2d1cb"},"vehicle_type_id":"4","last_reported":1744484831,"current_range_meters":3200,"station_id":"st_cvj6r9ubvosntc0bgbag","pricing_plan_id":"cebpf4jnsgd1na2vs0mg"},{"bike_id":"76d2371e-4576-4942-9675-d0e9fc717e56","system_id":"levelo_inurba_marseille","lat":43.29699,"lon":5.36581,"is_reserved":false,"is_disabled":false,"rental_uris":{"android":"levelo://app?vid=76d2371e-4576-4942-9675-d0e9fc717e56","ios":"levelo://app?vid=76d2371e-4576-4942-9675-d0e9fc717e56"},"vehicle_type_id":"4","last_reported":1744484831,"current_range_meters":1200,"station_id":"ce4bgn12rcd13ifvqbt0","pricing_plan_id":"cebpf4jnsgd1na2vs0mg"},{"bike_id":"a9f344a9-b5c4-4c6f-adc4-6177f6c8159a","system_id":"levelo_inurba_marseille","lat":43.32812,"lon":5.39764,"is_reserved":false,"is_disabled":false,"rental_uris":{"android":"levelo://app?vid=a9f344a9-b5c4-4c6f-adc4-6177f6c8159a","ios":"levelo://app?vid=a9f344a9-b5c4-4c6f-adc4-6177f6c8159a"},"vehicle_type_id":"4","last_reported":1744484831,"current_range_meters":3200,"station_id":"","pricing_plan_id":"cebpf4jnsgd1na2vs0mg"},{"bike_id":"5763a5a8-a21d-4632-86df-da86aeaf9cce","system_id":"levelo_inurba_marseille","lat":43.27356,"lon":5.3625,"is_reserved":false,"is_disabled":false,"rental_uris":{"android":"levelo://app?vid=5763a5a8-a21d-4632-86df-da86aeaf9cce","ios":"levelo://app?vid=5763a5a8-a21d-4632-86df-da86aeaf9cce"},"vehicle_type_id":"4","last_reported":1744484831,"current_range_meters":3200,"station_id":"ce4bhbh2rcd13ifvqeo0","pricing_plan_id":"cebpf4jnsgd1na2vs0mg"},{"bike_id":"d5d1f4fb-d6c6-4681-b051-532b57c28feb","system_id":"levelo_inurba_marseille","lat":43.30879,"lon":5.39643,"is_reserved":false,"is_disabled":false,"rental_uris":{"android":"levelo://app?vid=d5d1f4fb-d6c6-4681-b051-532b57c28feb","ios":"levelo://app?vid=d5d1f4fb-d6c6-4681-b051-532b57c28feb"},"vehicle_type_id":"4","last_reported":1744484831,"current_range_meters":3600,"station_id":"ce4bh012rcd13ifvqcv0","pricing_plan_id":"cebpf4jnsgd1na2vs0mg"},{"bike_id":"433453c8-429f-4cdc-bbb1-e8a96489fd61","system_id":"levelo_inurba_marseille","lat":43.27666,"lon":5.38938,"is_reserved":false,"is_disabled":false,"rental_uris":{"android":"levelo://app?vid=433453c8-429f-4cdc-bbb1-e8a96489fd61","ios":"levelo://app?vid=433453c8-429f-4cdc-bbb1-e8a96489fd61"},"vehicle_type_id":"4","last_reported":1744484831,"current_range_meters":3600,"station_id":"ce4bhi12rcd13ifvqfo0","pricing_plan_id":"cebpf4jnsgd1na2vs0mg"},{"bike_id":"ca252a36-7f6f-43f4-a94d-dc2db8df21b1","system_id":"levelo_inurba_marseille","lat":43.269397,"lon":5.402641,"is_reserved":false,"is_disabled":false,"rental_uris":{"android":"levelo://app?vid=ca252a36-7f6f-43f4-a94d-dc2db8df21b1","ios":"levelo://app?vid=ca252a36-7f6f-43f4-a94d-dc2db8df21b1"},"vehicle_type_id":"4","last_reported":1744484831,"current_range_meters":3600,"station_id":"cjm6bp8fraef2m0cb0m0","pricing_plan_id":"cebpf4jnsgd1na2vs0mg"},{"bike_id":"450d137a-9a1b-419f-ae3b-f58a9c4a8b44","system_id":"levelo_inurba_marseille","lat":43.28078,"lon":5.39656,"is_reserved":false,"is_disabled":false,"rental_uris":{"android":"levelo://app?vid=450d137a-9a1b-419f-ae3b-f58a9c4a8b44","ios":"levelo://app?vid=450d137a-9a1b-419f-ae3b-f58a9c4a8b44"},"vehicle_type_id":"4","last_reported":1744484831,"current_range_meters":3600,"station_id":"ce4bho12rcd13ifvqh2g","pricing_plan_id":"cebpf4jnsgd1na2vs0mg"},{"bike_id":"e254310b-9099-47f5-b6af-5069e3dde3bb","system_id":"levelo_inurba_marseille","lat":43.24386,"lon":5.37054,"is_reserved":false,"is_disabled":false,"rental_uris":{"android":"levelo://app?vid=e254310b-9099-47f5-b6af-5069e3dde3bb","ios":"levelo://app?vid=e254310b-9099-47f5-b6af-5069e3dde3bb"},"vehicle_type_id":"4","last_reported":1744484831,"current_range_meters":4000,"station_id":"ce4bhhh2rcd13ifvqfk0","pricing_plan_id":"cebpf4jnsgd1na2vs0mg"},{"bike_id":"8abbbf05-432f-45b7-9d06-e569528c8d18","system_id":"levelo_inurba_marseille","lat":43.250974,"lon":5.395203,"is_reserved":false,"is_disabled":false,"rental_uris":{"android":"levelo://app?vid=8abbbf05-432f-45b7-9d06-e569528c8d18","ios":"levelo://app?vid=8abbbf05-432f-45b7-9d06-e569528c8d18"},"vehicle_type_id":"4","last_reported":1744484831,"current_range_meters":4000,"station_id":"ce4bhm12rcd13ifvqgkg","pricing_plan_id":"cebpf4jnsgd1na2vs0mg"},{"bike_id":"d7ea349f-efde-4e54-a1b4-79f4dca3fa71","system_id":"levelo_inurba_marseille","lat":43.24168,"lon":5.36399,"is_reserved":false,"is_disabled":false,"rental_uris":{"android":"levelo://app?vid=d7ea349f-efde-4e54-a1b4-79f4dca3fa71","ios":"levelo://app?vid=d7ea349f-efde-4e54-a1b4-79f4dca3fa71"},"vehicle_type_id":"4","last_reported":1744484831,"current_range_meters":4000,"station_id":"cpo36qri1sfpv3e86is0","pricing_plan_id":"cebpf4jnsgd1na2vs0mg"},{"bike_id":"a2417265-aaaf-4846-a7cc-2faf5068e2d6","system_id":"levelo_inurba_marseille","lat":43.281573,"lon":5.426498,"is_reserved":false,"is_disabled":false,"rental_uris":{"android":"levelo://app?vid=a2417265-aaaf-4846-a7cc-2faf5068e2d6","ios":"levelo://app?vid=a2417265-aaaf-4846-a7cc-2faf5068e2d6"},"vehicle_type_id":"4","last_reported":1744484831,"current_range_meters":4000,"station_id":"ce4bhnh2rcd13ifvqgug","pricing_plan_id":"cebpf4jnsgd1na2vs0mg"},{"bike_id":"7cac4554-c4bc-491e-a45a-81d031d7110e","system_id":"levelo_inurba_marseille","lat":43.246663,"lon":5.381819,"is_reserved":false,"is_disabled":false,"rental_uris":{"android":"levelo://app?vid=7cac4554-c4bc-491e-a45a-81d031d7110e","ios":"levelo://app?vid=7cac4554-c4bc-491e-a45a-81d031d7110e"},"vehicle_type_id":"4","last_reported":1744484831,"current_range_meters":4000,"station_id":"ce4bhih2rcd13ifvqfr0","pricing_plan_id":"cebpf4jnsgd1na2vs0mg"},{"bike_id":"1f41de99-cbf1-4820-af4d-34fc5d75a71c","system_id":"levelo_inurba_marseille","lat":43.29352,"lon":5.37436,"is_reserved":false,"is_disabled":false,"rental_uris":{"android":"levelo://app?vid=1f41de99-cbf1-4820-af4d-34fc5d75a71c","ios":"levelo://app?vid=1f41de99-cbf1-4820-af4d-34fc5d75a71c"},"vehicle_type_id":"4","last_reported":1744484831,"current_range_meters":4000,"station_id":"ce4bgg92rcd13ifvqb30","pricing_plan_id":"cebpf4jnsgd1na2vs0mg"},{"bike_id":"ae958ae8-c98f-4e2d-8835-51870ecfae6f","system_id":"levelo_inurba_marseille","lat":43.33009,"lon":5.39559,"is_reserved":false,"is_disabled":false,"rental_uris":{"android":"levelo://app?vid=ae958ae8-c98f-4e2d-8835-51870ecfae6f","ios":"levelo://app?vid=ae958ae8-c98f-4e2d-8835-51870ecfae6f"},"vehicle_type_id":"4","last_reported":1744484831,"current_range_meters":4000,"station_id":"","pricing_plan_id":"cebpf4jnsgd1na2vs0mg"},{"bike_id":"9f85e534-b3e8-4ea2-a8d7-c45e2a34513a","system_id":"levelo_inurba_marseille","lat":43.31329,"lon":5.39687,"is_reserved":false,"is_disabled":false,"rental_uris":{"android":"levelo://app?vid=9f85e534-b3e8-4ea2-a8d7-c45e2a34513a","ios":"levelo://app?vid=9f85e534-b3e8-4ea2-a8d7-c45e2a34513a"},"vehicle_type_id":"4","last_reported":1744484831,"current_range_meters":4400,"station_id":"ce4bgvp2rcd13ifvqcu0","pricing_plan_id":"cebpf4jnsgd1na2vs0mg"},{"bike_id":"5859d545-4e85-4535-9f5e-b3bc61ba95a8","system_id":"levelo_inurba_marseille","lat":43.29265,"lon":5.38434,"is_reserved":false,"is_disabled":false,"rental_uris":{"android":"levelo://app?vid=5859d545-4e85-4535-9f5e-b3bc61ba95a8","ios":"levelo://app?vid=5859d545-4e85-4535-9f5e-b3bc61ba95a8"},"vehicle_type_id":"4","last_reported":1744484831,"current_range_meters":4400,"station_id":"ce4bh692rcd13ifvqea0","pricing_plan_id":"cebpf4jnsgd1na2vs0mg"},{"bike_id":"f123e5ff-fa6a-4e60-96da-046fd0a39c11","system_id":"levelo_inurba_marseille","lat":43.31281,"lon":5.40165,"is_reserved":false,"is_disabled":false,"rental_uris":{"android":"levelo://app?vid=f123e5ff-fa6a-4e60-96da-046fd0a39c11","ios":"levelo://app?vid=f123e5ff-fa6a-4e60-96da-046fd0a39c11"},"vehicle_type_id":"4","last_reported":1744484831,"current_range_meters":4400,"station_id":"ce4bh092rcd13ifvqd30","pricing_plan_id":"cebpf4jnsgd1na2vs0mg"},{"bike_id":"223f68c2-64f7-4355-80ab-5a821a5f886a","system_id":"levelo_inurba_marseille","lat":43.306013,"lon":5.393609,"is_reserved":false,"is_disabled":false,"rental_uris":{"android":"levelo://app?vid=223f68c2-64f7-4355-80ab-5a821a5f886a","ios":"levelo://app?vid=223f68c2-64f7-4355-80ab-5a821a5f886a"},"vehicle_type_id":"4","last_reported":1744484831,"current_range_meters":4400,"station_id":"ce4bh0p2rcd13ifvqd80","pricing_plan_id":"cebpf4jnsgd1na2vs0mg"},{"bike_id":"021ea162-ee7a-4e88-9da9-b81698cd31b0","system_id":"levelo_inurba_marseille","lat":43.23957,"lon":5.3664,"is_reserved":false,"is_disabled":false,"rental_uris":{"android":"levelo://app?vid=021ea162-ee7a-4e88-9da9-b81698cd31b0","ios":"levelo://app?vid=021ea162-ee7a-4e88-9da9-b81698cd31b0"},"vehicle_type_id":"4","last_reported":1744484831,"current_range_meters":4400,"station_id":"ce4bhi12rcd13ifvqfp0","pricing_plan_id":"cebpf4jnsgd1na2vs0mg"},{"bike_id":"40268676-5676-4960-82f5-27f271ee13bb","system_id":"levelo_inurba_marseille","lat":43.28715,"lon":5.37953,"is_reserved":false,"is_disabled":false,"rental_uris":{"android":"levelo://app?vid=40268676-5676-4960-82f5-27f271ee13bb","ios":"levelo://app?vid=40268676-5676-4960-82f5-27f271ee13bb"},"vehicle_type_id":"4","last_reported":1744484831,"current_range_meters":4400,"station_id":"ce4bh9p2rcd13ifvqec0","pricing_plan_id":"cebpf4jnsgd1na2vs0mg"},{"bike_id":"5fcf6945-e773-412d-9b92-a4b32990e5c8","system_id":"levelo_inurba_marseille","lat":43.27833,"lon":5.3921,"is_reserved":false,"is_disabled":false,"rental_uris":{"android":"levelo://app?vid=5fcf6945-e773-412d-9b92-a4b32990e5c8","ios":"levelo://app?vid=5fcf6945-e773-412d-9b92-a4b32990e5c8"},"vehicle_type_id":"4","last_reported":1744484831,"current_range_meters":4000,"station_id":"ce4bhjp2rcd13ifvqga0","pricing_plan_id":"cebpf4jnsgd1na2vs0mg"},{"bike_id":"d4ceaa47-8b95-4a88-9a32-59513687c092","system_id":"levelo_inurba_marseille","lat":43.29803,"lon":5.38105,"is_reserved":false,"is_disabled":false,"rental_uris":{"android":"levelo://app?vid=d4ceaa47-8b95-4a88-9a32-59513687c092","ios":"levelo://app?vid=d4ceaa47-8b95-4a88-9a32-59513687c092"},"vehicle_type_id":"4","last_reported":1744484831,"current_range_meters":4800,"station_id":"ce4bgip2rcd13ifvqbb0","pricing_plan_id":"cebpf4jnsgd1na2vs0mg"},{"bike_id":"6f19986d-6ef2-4b7c-958e-4648be404096","system_id":"levelo_inurba_marseille","lat":43.28345,"lon":5.38109,"is_reserved":false,"is_disabled":false,"rental_uris":{"android":"levelo://app?vid=6f19986d-6ef2-4b7c-958e-4648be404096","ios":"levelo://app?vid=6f19986d-6ef2-4b7c-958e-4648be404096"},"vehicle_type_id":"4","last_reported":1744484831,"current_range_meters":4800,"station_id":"ce4bh412rcd13ifvqdr0","pricing_plan_id":"cebpf4jnsgd1na2vs0mg"},{"bike_id":"f96c0c65-7fce-4b6c-8bb2-232128e93959","system_id":"levelo_inurba_marseille","lat":43.30493,"lon":5.39306,"is_reserved":false,"is_disabled":false,"rental_uris":{"android":"levelo://app?vid=f96c0c65-7fce-4b6c-8bb2-232128e93959","ios":"levelo://app?vid=f96c0c65-7fce-4b6c-8bb2-232128e93959"},"vehicle_type_id":"4","last_reported":1744484831,"current_range_meters":4800,"station_id":"","pricing_plan_id":"cebpf4jnsgd1na2vs0mg"},{"bike_id":"2de83229-4342-4b80-af89-ad24add8743a","system_id":"levelo_inurba_marseille","lat":43.2693,"lon":5.40262,"is_reserved":false,"is_disabled":false,"rental_uris":{"android":"levelo://app?vid=2de83229-4342-4b80-af89-ad24add8743a","ios":"levelo://app?vid=2de83229-4342-4b80-af89-ad24add8743a"},"vehicle_type_id":"4","last_reported":1744484831,"current_range_meters":4800,"station_id":"cjm6bp8fraef2m0cb0m0","pricing_plan_id":"cebpf4jnsgd1na2vs0mg"},{"bike_id":"b9cbaf2f-53c6-43bb-a6b1-78b713010139","system_id":"levelo_inurba_marseille","lat":43.26931,"lon":5.40269,"is_reserved":false,"is_disabled":false,"rental_uris":{"android":"levelo://app?vid=b9cbaf2f-53c6-43bb-a6b1-78b713010139","ios":"levelo://app?vid=b9cbaf2f-53c6-43bb-a6b1-78b713010139"},"vehicle_type_id":"4","last_reported":1744484831,"current_range_meters":4800,"station_id":"cjm6bp8fraef2m0cb0m0","pricing_plan_id":"cebpf4jnsgd1na2vs0mg"},{"bike_id":"3c0fa41a-a28e-445b-b339-d575bd5bc29a","system_id":"levelo_inurba_marseille","lat":43.28605,"lon":5.35119,"is_reserved":false,"is_disabled":false,"rental_uris":{"android":"levelo://app?vid=3c0fa41a-a28e-445b-b339-d575bd5bc29a","ios":"levelo://app?vid=3c0fa41a-a28e-445b-b339-d575bd5bc29a"},"vehicle_type_id":"4","last_reported":1744484831,"current_range_meters":4800,"station_id":"ce4bhch2rcd13ifvqeug","pricing_plan_id":"cebpf4jnsgd1na2vs0mg"},{"bike_id":"1a98f9f4-f92a-46a1-a677-6510e6345589","system_id":"levelo_inurba_marseille","lat":43.309453,"lon":5.390373,"is_reserved":false,"is_disabled":false,"rental_uris":{"android":"levelo://app?vid=1a98f9f4-f92a-46a1-a677-6510e6345589","ios":"levelo://app?vid=1a98f9f4-f92a-46a1-a677-6510e6345589"},"vehicle_type_id":"4","last_reported":1744484831,"current_range_meters":4800,"station_id":"ce4bgup2rcd13ifvqco0","pricing_plan_id":"cebpf4jnsgd1na2vs0mg"},{"bike_id":"73039691-3bf5-41de-b513-f306b0a6b692","system_id":"levelo_inurba_marseille","lat":43.2417,"lon":5.3974,"is_reserved":false,"is_disabled":false,"rental_uris":{"android":"levelo://app?vid=73039691-3bf5-41de-b513-f306b0a6b692","ios":"levelo://app?vid=73039691-3bf5-41de-b513-f306b0a6b692"},"vehicle_type_id":"4","last_reported":1744484831,"current_range_meters":4800,"station_id":"ce4bhn12rcd13ifvqgpg","pricing_plan_id":"cebpf4jnsgd1na2vs0mg"},{"bike_id":"a5881055-aa9b-48f6-a598-952a2e733054","system_id":"levelo_inurba_marseille","lat":43.304255,"lon":5.388522,"is_reserved":false,"is_disabled":false,"rental_uris":{"android":"levelo://app?vid=a5881055-aa9b-48f6-a598-952a2e733054","ios":"levelo://app?vid=a5881055-aa9b-48f6-a598-952a2e733054"},"vehicle_type_id":"4","last_reported":1744484831,"current_range_meters":4800,"station_id":"ce4bgk12rcd13ifvqbi0","pricing_plan_id":"cebpf4jnsgd1na2vs0mg"},{"bike_id":"1620f5c4-a1ee-41ed-8dd0-def69688a41d","system_id":"levelo_inurba_marseille","lat":43.267883,"lon":5.394246,"is_reserved":false,"is_disabled":true,"rental_uris":{"android":"levelo://app?vid=1620f5c4-a1ee-41ed-8dd0-def69688a41d","ios":"levelo://app?vid=1620f5c4-a1ee-41ed-8dd0-def69688a41d"},"vehicle_type_id":"4","last_reported":1744484831,"current_range_meters":4800,"station_id":"ce4bhh12rcd13ifvqfg0","pricing_plan_id":"cebpf4jnsgd1na2vs0mg"},{"bike_id":"d3efe70f-6df8-4bb2-9dad-b08ce619d811","system_id":"levelo_inurba_marseille","lat":43.24804,"lon":5.3746,"is_reserved":false,"is_disabled":false,"rental_uris":{"android":"levelo://app?vid=d3efe70f-6df8-4bb2-9dad-b08ce619d811","ios":"levelo://app?vid=d3efe70f-6df8-4bb2-9dad-b08ce619d811"},"vehicle_type_id":"4","last_reported":1744484831,"current_range_meters":5600,"station_id":"ce4bhgh2rcd13ifvqfb0","pricing_plan_id":"cebpf4jnsgd1na2vs0mg"},{"bike_id":"292fec58-6e8f-4b30-aa43-c3a32a2b5394","system_id":"levelo_inurba_marseille","lat":43.317261,"lon":5.423963,"is_reserved":false,"is_disabled":false,"rental_uris":{"android":"levelo://app?vid=292fec58-6e8f-4b30-aa43-c3a32a2b5394","ios":"levelo://app?vid=292fec58-6e8f-4b30-aa43-c3a32a2b5394"},"vehicle_type_id":"4","last_reported":1744484831,"current_range_meters":5600,"station_id":"ce4bhp92rcd13ifvqhbg","pricing_plan_id":"cebpf4jnsgd1na2vs0mg"},{"bike_id":"f9739e02-c328-46a8-ac14-5b31e30723d0","system_id":"levelo_inurba_marseille","lat":43.23149,"lon":5.43719,"is_reserved":false,"is_disabled":false,"rental_uris":{"android":"levelo://app?vid=f9739e02-c328-46a8-ac14-5b31e30723d0","ios":"levelo://app?vid=f9739e02-c328-46a8-ac14-5b31e30723d0"},"vehicle_type_id":"4","last_reported":1744484831,"current_range_meters":5600,"station_id":"ce4bhmp2rcd13ifvqgog","pricing_plan_id":"cebpf4jnsgd1na2vs0mg"},{"bike_id":"7d3a7c52-cf55-4cc0-a4b9-686f560e3f05","system_id":"levelo_inurba_marseille","lat":43.31893,"lon":5.40726,"is_reserved":false,"is_disabled":false,"rental_uris":{"android":"levelo://app?vid=7d3a7c52-cf55-4cc0-a4b9-686f560e3f05","ios":"levelo://app?vid=7d3a7c52-cf55-4cc0-a4b9-686f560e3f05"},"vehicle_type_id":"4","last_reported":1744484831,"current_range_meters":5600,"station_id":"ce4bhq12rcd13ifvqhig","pricing_plan_id":"cebpf4jnsgd1na2vs0mg"},{"bike_id":"edadf267-0ed5-4a9f-b95e-c81251e10594","system_id":"levelo_inurba_marseille","lat":43.25501,"lon":5.37657,"is_reserved":false,"is_disabled":false,"rental_uris":{"android":"levelo://app?vid=edadf267-0ed5-4a9f-b95e-c81251e10594","ios":"levelo://app?vid=edadf267-0ed5-4a9f-b95e-c81251e10594"},"vehicle_type_id":"4","last_reported":1744484831,"current_range_meters":4800,"station_id":"ce4bhh12rcd13ifvqff0","pricing_plan_id":"cebpf4jnsgd1na2vs0mg"},{"bike_id":"8460fdeb-4b9a-450d-95ac-ca0e49e5d077","system_id":"levelo_inurba_marseille","lat":43.30943,"lon":5.3904,"is_reserved":false,"is_disabled":false,"rental_uris":{"android":"levelo://app?vid=8460fdeb-4b9a-450d-95ac-ca0e49e5d077","ios":"levelo://app?vid=8460fdeb-4b9a-450d-95ac-ca0e49e5d077"},"vehicle_type_id":"4","last_reported":1744484831,"current_range_meters":5600,"station_id":"ce4bgup2rcd13ifvqco0","pricing_plan_id":"cebpf4jnsgd1na2vs0mg"},{"bike_id":"01185ffa-9740-4e24-815d-3624dcc64fb8","system_id":"levelo_inurba_marseille","lat":43.325078,"lon":5.411273,"is_reserved":false,"is_disabled":false,"rental_uris":{"android":"levelo://app?vid=01185ffa-9740-4e24-815d-3624dcc64fb8","ios":"levelo://app?vid=01185ffa-9740-4e24-815d-3624dcc64fb8"},"vehicle_type_id":"4","last_reported":1744484831,"current_range_meters":5600,"station_id":"ce4bhqh2rcd13ifvqhmg","pricing_plan_id":"cebpf4jnsgd1na2vs0mg"},{"bike_id":"9f44aeda-ce0b-437a-aa5d-ca84731132bf","system_id":"levelo_inurba_marseille","lat":43.27055,"lon":5.4026,"is_reserved":false,"is_disabled":false,"rental_uris":{"android":"levelo://app?vid=9f44aeda-ce0b-437a-aa5d-ca84731132bf","ios":"levelo://app?vid=9f44aeda-ce0b-437a-aa5d-ca84731132bf"},"vehicle_type_id":"4","last_reported":1744484831,"current_range_meters":5600,"station_id":"ce4bhk92rcd13ifvqgc0","pricing_plan_id":"cebpf4jnsgd1na2vs0mg"},{"bike_id":"5ad3ca53-fae9-4ed2-ae66-592bb0c7901e","system_id":"levelo_inurba_marseille","lat":43.29842,"lon":5.36275,"is_reserved":false,"is_disabled":false,"rental_uris":{"android":"levelo://app?vid=5ad3ca53-fae9-4ed2-ae66-592bb0c7901e","ios":"levelo://app?vid=5ad3ca53-fae9-4ed2-ae66-592bb0c7901e"},"vehicle_type_id":"4","last_reported":1744484831,"current_range_meters":6000,"station_id":"ce4bgpp2rcd13ifvqc3g","pricing_plan_id":"cebpf4jnsgd1na2vs0mg"},{"bike_id":"3ac73e63-1619-4c1b-a7d0-7311424e94ef","system_id":"levelo_inurba_marseille","lat":43.28996,"lon":5.37618,"is_reserved":false,"is_disabled":false,"rental_uris":{"android":"levelo://app?vid=3ac73e63-1619-4c1b-a7d0-7311424e94ef","ios":"levelo://app?vid=3ac73e63-1619-4c1b-a7d0-7311424e94ef"},"vehicle_type_id":"4","last_reported":1744484831,"current_range_meters":6000,"station_id":"","pricing_plan_id":"cebpf4jnsgd1na2vs0mg"},{"bike_id":"a31d00a4-71ea-413f-877f-9bc8561efdd9","system_id":"levelo_inurba_marseille","lat":43.27053,"lon":5.4026,"is_reserved":false,"is_disabled":false,"rental_uris":{"android":"levelo://app?vid=a31d00a4-71ea-413f-877f-9bc8561efdd9","ios":"levelo://app?vid=a31d00a4-71ea-413f-877f-9bc8561efdd9"},"vehicle_type_id":"4","last_reported":1744484831,"current_range_meters":6400,"station_id":"ce4bhk92rcd13ifvqgc0","pricing_plan_id":"cebpf4jnsgd1na2vs0mg"},{"bike_id":"90e055c2-6a6e-4aaf-aa9d-0cdd8cb51c73","system_id":"levelo_inurba_marseille","lat":43.2943,"lon":5.38556,"is_reserved":false,"is_disabled":false,"rental_uris":{"android":"levelo://app?vid=90e055c2-6a6e-4aaf-aa9d-0cdd8cb51c73","ios":"levelo://app?vid=90e055c2-6a6e-4aaf-aa9d-0cdd8cb51c73"},"vehicle_type_id":"4","last_reported":1744484831,"current_range_meters":6400,"station_id":"","pricing_plan_id":"cebpf4jnsgd1na2vs0mg"},{"bike_id":"d9638379-3fff-4b94-a27a-340ddf8fe99a","system_id":"levelo_inurba_marseille","lat":43.2749,"lon":5.42456,"is_reserved":false,"is_disabled":false,"rental_uris":{"android":"levelo://app?vid=d9638379-3fff-4b94-a27a-340ddf8fe99a","ios":"levelo://app?vid=d9638379-3fff-4b94-a27a-340ddf8fe99a"},"vehicle_type_id":"4","last_reported":1744484831,"current_range_meters":6400,"station_id":"ce4bhn92rcd13ifvqgrg","pricing_plan_id":"cebpf4jnsgd1na2vs0mg"},{"bike_id":"ca0f0b84-8990-4d9b-9d00-3ad0d316745a","system_id":"levelo_inurba_marseille","lat":43.24804,"lon":5.37457,"is_reserved":false,"is_disabled":false,"rental_uris":{"android":"levelo://app?vid=ca0f0b84-8990-4d9b-9d00-3ad0d316745a","ios":"levelo://app?vid=ca0f0b84-8990-4d9b-9d00-3ad0d316745a"},"vehicle_type_id":"4","last_reported":1744484831,"current_range_meters":6400,"station_id":"ce4bhgh2rcd13ifvqfb0","pricing_plan_id":"cebpf4jnsgd1na2vs0mg"},{"bike_id":"119e273e-7e4c-4ee1-a4d4-a659c42fce21","system_id":"levelo_inurba_marseille","lat":43.2998,"lon":5.38491,"is_reserved":false,"is_disabled":false,"rental_uris":{"android":"levelo://app?vid=119e273e-7e4c-4ee1-a4d4-a659c42fce21","ios":"levelo://app?vid=119e273e-7e4c-4ee1-a4d4-a659c42fce21"},"vehicle_type_id":"4","last_reported":1744484831,"current_range_meters":6400,"station_id":"ce4bgj92rcd13ifvqbd0","pricing_plan_id":"cebpf4jnsgd1na2vs0mg"},{"bike_id":"4082dbc9-3bc8-40db-9f56-b49606140532","system_id":"levelo_inurba_marseille","lat":43.29265,"lon":5.38438,"is_reserved":false,"is_disabled":false,"rental_uris":{"android":"levelo://app?vid=4082dbc9-3bc8-40db-9f56-b49606140532","ios":"levelo://app?vid=4082dbc9-3bc8-40db-9f56-b49606140532"},"vehicle_type_id":"4","last_reported":1744484831,"current_range_meters":6400,"station_id":"ce4bh692rcd13ifvqea0","pricing_plan_id":"cebpf4jnsgd1na2vs0mg"},{"bike_id":"7dc6f05c-f257-4d62-b71b-a2b97753d797","system_id":"levelo_inurba_marseille","lat":43.30534,"lon":5.38446,"is_reserved":false,"is_disabled":true,"rental_uris":{"android":"levelo://app?vid=7dc6f05c-f257-4d62-b71b-a2b97753d797","ios":"levelo://app?vid=7dc6f05c-f257-4d62-b71b-a2b97753d797"},"vehicle_type_id":"4","last_reported":1744484831,"current_range_meters":6400,"station_id":"ce4bgg92rcd13ifvqb30","pricing_plan_id":"cebpf4jnsgd1na2vs0mg"},{"bike_id":"94455896-0f19-4fae-bd72-9879f01fcd6e","system_id":"levelo_inurba_marseille","lat":43.2956,"lon":5.42291,"is_reserved":false,"is_disabled":true,"rental_uris":{"android":"levelo://app?vid=94455896-0f19-4fae-bd72-9879f01fcd6e","ios":"levelo://app?vid=94455896-0f19-4fae-bd72-9879f01fcd6e"},"vehicle_type_id":"4","last_reported":1744484831,"current_range_meters":6400,"station_id":"ce4bhph2rcd13ifvqhdg","pricing_plan_id":"cebpf4jnsgd1na2vs0mg"},{"bike_id":"3f08cc69-711e-4264-b923-68891203ffa4","system_id":"levelo_inurba_marseille","lat":43.32285,"lon":5.38243,"is_reserved":false,"is_disabled":false,"rental_uris":{"android":"levelo://app?vid=3f08cc69-711e-4264-b923-68891203ffa4","ios":"levelo://app?vid=3f08cc69-711e-4264-b923-68891203ffa4"},"vehicle_type_id":"4","last_reported":1744484831,"current_range_meters":6400,"station_id":"ce4bhr12rcd13ifvqhqg","pricing_plan_id":"cebpf4jnsgd1na2vs0mg"},{"bike_id":"e5f16e14-a60e-4fee-bc7e-c4cf9835dec0","system_id":"levelo_inurba_marseille","lat":43.2893,"lon":5.383982,"is_reserved":false,"is_disabled":false,"rental_uris":{"android":"levelo://app?vid=e5f16e14-a60e-4fee-bc7e-c4cf9835dec0","ios":"levelo://app?vid=e5f16e14-a60e-4fee-bc7e-c4cf9835dec0"},"vehicle_type_id":"4","last_reported":1744484831,"current_range_meters":6400,"station_id":"ce4bh612rcd13ifvqe6g","pricing_plan_id":"cebpf4jnsgd1na2vs0mg"},{"bike_id":"94a2d289-6a01-4914-95dd-c0bbac3ace54","system_id":"levelo_inurba_marseille","lat":43.29542,"lon":5.42271,"is_reserved":false,"is_disabled":false,"rental_uris":{"android":"levelo://app?vid=94a2d289-6a01-4914-95dd-c0bbac3ace54","ios":"levelo://app?vid=94a2d289-6a01-4914-95dd-c0bbac3ace54"},"vehicle_type_id":"4","last_reported":1744484831,"current_range_meters":6800,"station_id":"ce4bhph2rcd13ifvqhdg","pricing_plan_id":"cebpf4jnsgd1na2vs0mg"},{"bike_id":"c0767652-21bd-441a-93d1-924408b5484e","system_id":"levelo_inurba_marseille","lat":43.317547,"lon":5.390181,"is_reserved":false,"is_disabled":false,"rental_uris":{"android":"levelo://app?vid=c0767652-21bd-441a-93d1-924408b5484e","ios":"levelo://app?vid=c0767652-21bd-441a-93d1-924408b5484e"},"vehicle_type_id":"4","last_reported":1744484831,"current_range_meters":6800,"station_id":"ce4bgi12rcd13ifvqb70","pricing_plan_id":"cebpf4jnsgd1na2vs0mg"},{"bike_id":"6d5d36cd-ae3f-44fd-8cc9-1227fc258be6","system_id":"levelo_inurba_marseille","lat":43.28704,"lon":5.3999,"is_reserved":false,"is_disabled":false,"rental_uris":{"android":"levelo://app?vid=6d5d36cd-ae3f-44fd-8cc9-1227fc258be6","ios":"levelo://app?vid=6d5d36cd-ae3f-44fd-8cc9-1227fc258be6"},"vehicle_type_id":"4","last_reported":1744484831,"current_range_meters":6800,"station_id":"ce4bho92rcd13ifvqh3g","pricing_plan_id":"cebpf4jnsgd1na2vs0mg"},{"bike_id":"9dc5a035-0084-4ffe-bfff-5d2ea6c1dccb","system_id":"levelo_inurba_marseille","lat":43.29556,"lon":5.37539,"is_reserved":false,"is_disabled":true,"rental_uris":{"android":"levelo://app?vid=9dc5a035-0084-4ffe-bfff-5d2ea6c1dccb","ios":"levelo://app?vid=9dc5a035-0084-4ffe-bfff-5d2ea6c1dccb"},"vehicle_type_id":"4","last_reported":1744484831,"current_range_meters":6800,"station_id":"ce4bgh92rcd13ifvqb50","pricing_plan_id":"cebpf4jnsgd1na2vs0mg"},{"bike_id":"ce64b13c-040b-4613-bf30-7c49ff50a44b","system_id":"levelo_inurba_marseille","lat":43.29564,"lon":5.42298,"is_reserved":false,"is_disabled":false,"rental_uris":{"android":"levelo://app?vid=ce64b13c-040b-4613-bf30-7c49ff50a44b","ios":"levelo://app?vid=ce64b13c-040b-4613-bf30-7c49ff50a44b"},"vehicle_type_id":"4","last_reported":1744484831,"current_range_meters":7200,"station_id":"ce4bhph2rcd13ifvqhdg","pricing_plan_id":"cebpf4jnsgd1na2vs0mg"},{"bike_id":"ea6c2726-d2c1-4855-a19d-2f7ae620759f","system_id":"levelo_inurba_marseille","lat":43.30952,"lon":5.39064,"is_reserved":false,"is_disabled":false,"rental_uris":{"android":"levelo://app?vid=ea6c2726-d2c1-4855-a19d-2f7ae620759f","ios":"levelo://app?vid=ea6c2726-d2c1-4855-a19d-2f7ae620759f"},"vehicle_type_id":"4","last_reported":1744484831,"current_range_meters":7200,"station_id":"ce4bgup2rcd13ifvqco0","pricing_plan_id":"cebpf4jnsgd1na2vs0mg"},{"bike_id":"cc83a7aa-57a1-4769-9137-8531613b4691","system_id":"levelo_inurba_marseille","lat":43.31258,"lon":5.37303,"is_reserved":false,"is_disabled":false,"rental_uris":{"android":"levelo://app?vid=cc83a7aa-57a1-4769-9137-8531613b4691","ios":"levelo://app?vid=cc83a7aa-57a1-4769-9137-8531613b4691"},"vehicle_type_id":"4","last_reported":1744484831,"current_range_meters":7200,"station_id":"","pricing_plan_id":"cebpf4jnsgd1na2vs0mg"},{"bike_id":"f287dd82-c174-4435-89f0-205d62f2e9a6","system_id":"levelo_inurba_marseille","lat":43.26956,"lon":5.38638,"is_reserved":false,"is_disabled":false,"rental_uris":{"android":"levelo://app?vid=f287dd82-c174-4435-89f0-205d62f2e9a6","ios":"levelo://app?vid=f287dd82-c174-4435-89f0-205d62f2e9a6"},"vehicle_type_id":"4","last_reported":1744484831,"current_range_meters":7200,"station_id":"ce4bhh92rcd13ifvqfh0","pricing_plan_id":"cebpf4jnsgd1na2vs0mg"},{"bike_id":"61087c9c-58a2-45af-89fa-c020f9313355","system_id":"levelo_inurba_marseille","lat":43.21754,"lon":5.346112,"is_reserved":false,"is_disabled":true,"rental_uris":{"android":"levelo://app?vid=61087c9c-58a2-45af-89fa-c020f9313355","ios":"levelo://app?vid=61087c9c-58a2-45af-89fa-c020f9313355"},"vehicle_type_id":"4","last_reported":1744484831,"current_range_meters":7200,"station_id":"st_cvj6r9ubvosntc0bgbag","pricing_plan_id":"cebpf4jnsgd1na2vs0mg"},{"bike_id":"e4380e13-6ea1-432c-b547-badeba89c1b3","system_id":"levelo_inurba_marseille","lat":43.28848,"lon":5.39327,"is_reserved":false,"is_disabled":true,"rental_uris":{"android":"levelo://app?vid=e4380e13-6ea1-432c-b547-badeba89c1b3","ios":"levelo://app?vid=e4380e13-6ea1-432c-b547-badeba89c1b3"},"vehicle_type_id":"4","last_reported":1744484831,"current_range_meters":7200,"station_id":"ce4bh2p2rcd13ifvqdi0","pricing_plan_id":"cebpf4jnsgd1na2vs0mg"},{"bike_id":"200c0f0f-31ff-42d1-b2b6-6050ad6f6a28","system_id":"levelo_inurba_marseille","lat":43.29611,"lon":5.37158,"is_reserved":false,"is_disabled":false,"rental_uris":{"android":"levelo://app?vid=200c0f0f-31ff-42d1-b2b6-6050ad6f6a28","ios":"levelo://app?vid=200c0f0f-31ff-42d1-b2b6-6050ad6f6a28"},"vehicle_type_id":"4","last_reported":1744484831,"current_range_meters":7200,"station_id":"ce4bgnh2rcd13ifvqc0g","pricing_plan_id":"cebpf4jnsgd1na2vs0mg"},{"bike_id":"72cb904b-91ec-4539-97d9-bf995ad32794","system_id":"levelo_inurba_marseille","lat":43.30209,"lon":5.39463,"is_reserved":false,"is_disabled":false,"rental_uris":{"android":"levelo://app?vid=72cb904b-91ec-4539-97d9-bf995ad32794","ios":"levelo://app?vid=72cb904b-91ec-4539-97d9-bf995ad32794"},"vehicle_type_id":"4","last_reported":1744484831,"current_range_meters":7200,"station_id":"ce4bh0p2rcd13ifvqd70","pricing_plan_id":"cebpf4jnsgd1na2vs0mg"},{"bike_id":"f1e00540-c2d1-4f3b-ba05-711232888e6e","system_id":"levelo_inurba_marseille","lat":43.21758,"lon":5.34611,"is_reserved":false,"is_disabled":true,"rental_uris":{"android":"levelo://app?vid=f1e00540-c2d1-4f3b-ba05-711232888e6e","ios":"levelo://app?vid=f1e00540-c2d1-4f3b-ba05-711232888e6e"},"vehicle_type_id":"4","last_reported":1744484831,"current_range_meters":7200,"station_id":"st_cvj6r9ubvosntc0bgbag","pricing_plan_id":"cebpf4jnsgd1na2vs0mg"},{"bike_id":"4c56221a-0f46-4530-955a-7184a07c8a88","system_id":"levelo_inurba_marseille","lat":43.23227,"lon":5.35576,"is_reserved":false,"is_disabled":true,"rental_uris":{"android":"levelo://app?vid=4c56221a-0f46-4530-955a-7184a07c8a88","ios":"levelo://app?vid=4c56221a-0f46-4530-955a-7184a07c8a88"},"vehicle_type_id":"4","last_reported":1744484831,"current_range_meters":7200,"station_id":"ce4bhu92rcd13ifvqi70","pricing_plan_id":"cebpf4jnsgd1na2vs0mg"},{"bike_id":"e55968ed-3750-4ab7-b161-0699e23f9e3d","system_id":"levelo_inurba_marseille","lat":43.311197,"lon":5.37752,"is_reserved":false,"is_disabled":false,"rental_uris":{"android":"levelo://app?vid=e55968ed-3750-4ab7-b161-0699e23f9e3d","ios":"levelo://app?vid=e55968ed-3750-4ab7-b161-0699e23f9e3d"},"vehicle_type_id":"4","last_reported":1744484831,"current_range_meters":7200,"station_id":"ce4bgt92rcd13ifvqcg0","pricing_plan_id":"cebpf4jnsgd1na2vs0mg"},{"bike_id":"350328b2-c071-4252-8553-1c7fb587f5ac","system_id":"levelo_inurba_marseille","lat":43.29417,"lon":5.38622,"is_reserved":false,"is_disabled":false,"rental_uris":{"android":"levelo://app?vid=350328b2-c071-4252-8553-1c7fb587f5ac","ios":"levelo://app?vid=350328b2-c071-4252-8553-1c7fb587f5ac"},"vehicle_type_id":"4","last_reported":1744484831,"current_range_meters":7200,"station_id":"ce4bh2h2rcd13ifvqdh0","pricing_plan_id":"cebpf4jnsgd1na2vs0mg"},{"bike_id":"274bc480-5a5b-4b40-b35b-dc81a232c6c4","system_id":"levelo_inurba_marseille","lat":43.29256,"lon":5.38435,"is_reserved":false,"is_disabled":false,"rental_uris":{"android":"levelo://app?vid=274bc480-5a5b-4b40-b35b-dc81a232c6c4","ios":"levelo://app?vid=274bc480-5a5b-4b40-b35b-dc81a232c6c4"},"vehicle_type_id":"4","last_reported":1744484831,"current_range_meters":7200,"station_id":"ce4bh692rcd13ifvqea0","pricing_plan_id":"cebpf4jnsgd1na2vs0mg"},{"bike_id":"0946896b-04a5-4384-848d-0c36b9e444a0","system_id":"levelo_inurba_marseille","lat":43.27057,"lon":5.40259,"is_reserved":false,"is_disabled":false,"rental_uris":{"android":"levelo://app?vid=0946896b-04a5-4384-848d-0c36b9e444a0","ios":"levelo://app?vid=0946896b-04a5-4384-848d-0c36b9e444a0"},"vehicle_type_id":"4","last_reported":1744484831,"current_range_meters":7200,"station_id":"ce4bhk92rcd13ifvqgc0","pricing_plan_id":"cebpf4jnsgd1na2vs0mg"},{"bike_id":"9b5358bb-e793-48df-9bdb-d3f6c1d0c314","system_id":"levelo_inurba_marseille","lat":43.26951,"lon":5.3864,"is_reserved":false,"is_disabled":false,"rental_uris":{"android":"levelo://app?vid=9b5358bb-e793-48df-9bdb-d3f6c1d0c314","ios":"levelo://app?vid=9b5358bb-e793-48df-9bdb-d3f6c1d0c314"},"vehicle_type_id":"4","last_reported":1744484831,"current_range_meters":7200,"station_id":"ce4bhh92rcd13ifvqfh0","pricing_plan_id":"cebpf4jnsgd1na2vs0mg"},{"bike_id":"e524e199-d573-4d65-acc8-4e08ac3eebbe","system_id":"levelo_inurba_marseille","lat":43.27912,"lon":5.39589,"is_reserved":false,"is_disabled":false,"rental_uris":{"android":"levelo://app?vid=e524e199-d573-4d65-acc8-4e08ac3eebbe","ios":"levelo://app?vid=e524e199-d573-4d65-acc8-4e08ac3eebbe"},"vehicle_type_id":"4","last_reported":1744484831,"current_range_meters":8000,"station_id":"ce4bhf92rcd13ifvqf40","pricing_plan_id":"cebpf4jnsgd1na2vs0mg"},{"bike_id":"6c735c4a-a2f7-42f6-9cd6-a3ead8574f96","system_id":"levelo_inurba_marseille","lat":43.281082,"lon":5.378435,"is_reserved":false,"is_disabled":false,"rental_uris":{"android":"levelo://app?vid=6c735c4a-a2f7-42f6-9cd6-a3ead8574f96","ios":"levelo://app?vid=6c735c4a-a2f7-42f6-9cd6-a3ead8574f96"},"vehicle_type_id":"4","last_reported":1744484831,"current_range_meters":8000,"station_id":"ce4bha12rcd13ifvqee0","pricing_plan_id":"cebpf4jnsgd1na2vs0mg"},{"bike_id":"83674f34-b46d-4b53-97cb-4f752a8f4c49","system_id":"levelo_inurba_marseille","lat":43.26951,"lon":5.38639,"is_reserved":false,"is_disabled":false,"rental_uris":{"android":"levelo://app?vid=83674f34-b46d-4b53-97cb-4f752a8f4c49","ios":"levelo://app?vid=83674f34-b46d-4b53-97cb-4f752a8f4c49"},"vehicle_type_id":"4","last_reported":1744484831,"current_range_meters":8000,"station_id":"ce4bhh92rcd13ifvqfh0","pricing_plan_id":"cebpf4jnsgd1na2vs0mg"},{"bike_id":"050cbc4d-b77d-4d82-98ac-e2f0678b58db","system_id":"levelo_inurba_marseille","lat":43.30216,"lon":5.3948,"is_reserved":false,"is_disabled":false,"rental_uris":{"android":"levelo://app?vid=050cbc4d-b77d-4d82-98ac-e2f0678b58db","ios":"levelo://app?vid=050cbc4d-b77d-4d82-98ac-e2f0678b58db"},"vehicle_type_id":"4","last_reported":1744484831,"current_range_meters":8000,"station_id":"ce4bh0p2rcd13ifvqd70","pricing_plan_id":"cebpf4jnsgd1na2vs0mg"},{"bike_id":"19d34af0-cf76-4a55-b4e5-0bcf879ffe45","system_id":"levelo_inurba_marseille","lat":43.29529,"lon":5.39031,"is_reserved":false,"is_disabled":false,"rental_uris":{"android":"levelo://app?vid=19d34af0-cf76-4a55-b4e5-0bcf879ffe45","ios":"levelo://app?vid=19d34af0-cf76-4a55-b4e5-0bcf879ffe45"},"vehicle_type_id":"4","last_reported":1744484831,"current_range_meters":8000,"station_id":"ce4bh3p2rcd13ifvqdp0","pricing_plan_id":"cebpf4jnsgd1na2vs0mg"},{"bike_id":"3890aa41-58cc-476c-8eac-9df5c375edb9","system_id":"levelo_inurba_marseille","lat":43.28352,"lon":5.38104,"is_reserved":false,"is_disabled":false,"rental_uris":{"android":"levelo://app?vid=3890aa41-58cc-476c-8eac-9df5c375edb9","ios":"levelo://app?vid=3890aa41-58cc-476c-8eac-9df5c375edb9"},"vehicle_type_id":"4","last_reported":1744484831,"current_range_meters":8000,"station_id":"ce4bh412rcd13ifvqdr0","pricing_plan_id":"cebpf4jnsgd1na2vs0mg"},{"bike_id":"185fdb97-ce32-4ed4-bba2-d43af448a972","system_id":"levelo_inurba_marseille","lat":43.29264,"lon":5.3842,"is_reserved":false,"is_disabled":false,"rental_uris":{"android":"levelo://app?vid=185fdb97-ce32-4ed4-bba2-d43af448a972","ios":"levelo://app?vid=185fdb97-ce32-4ed4-bba2-d43af448a972"},"vehicle_type_id":"4","last_reported":1744484831,"current_range_meters":8000,"station_id":"ce4bh692rcd13ifvqea0","pricing_plan_id":"cebpf4jnsgd1na2vs0mg"},{"bike_id":"72adaa87-94dc-4774-aca0-5147bc57bd16","system_id":"levelo_inurba_marseille","lat":43.2602,"lon":5.4174,"is_reserved":false,"is_disabled":false,"rental_uris":{"android":"levelo://app?vid=72adaa87-94dc-4774-aca0-5147bc57bd16","ios":"levelo://app?vid=72adaa87-94dc-4774-aca0-5147bc57bd16"},"vehicle_type_id":"4","last_reported":1744484831,"current_range_meters":8000,"station_id":"","pricing_plan_id":"cebpf4jnsgd1na2vs0mg"},{"bike_id":"6c0d50a4-94b1-4eb7-8c1e-6e9de57ed1b4","system_id":"levelo_inurba_marseille","lat":43.30326,"lon":5.40426,"is_reserved":false,"is_disabled":false,"rental_uris":{"android":"levelo://app?vid=6c0d50a4-94b1-4eb7-8c1e-6e9de57ed1b4","ios":"levelo://app?vid=6c0d50a4-94b1-4eb7-8c1e-6e9de57ed1b4"},"vehicle_type_id":"4","last_reported":1744484831,"current_range_meters":8400,"station_id":"ce4bh012rcd13ifvqd10","pricing_plan_id":"cebpf4jnsgd1na2vs0mg"},{"bike_id":"373e940a-92d8-4175-8099-d332b5c30bc9","system_id":"levelo_inurba_marseille","lat":43.31759,"lon":5.39042,"is_reserved":false,"is_disabled":false,"rental_uris":{"android":"levelo://app?vid=373e940a-92d8-4175-8099-d332b5c30bc9","ios":"levelo://app?vid=373e940a-92d8-4175-8099-d332b5c30bc9"},"vehicle_type_id":"4","last_reported":1744484831,"current_range_meters":8400,"station_id":"ce4bhqp2rcd13ifvqhng","pricing_plan_id":"cebpf4jnsgd1na2vs0mg"},{"bike_id":"915e778a-0d97-4d5b-8d88-32345f69035a","system_id":"levelo_inurba_marseille","lat":43.28695,"lon":5.37412,"is_reserved":false,"is_disabled":false,"rental_uris":{"android":"levelo://app?vid=915e778a-0d97-4d5b-8d88-32345f69035a","ios":"levelo://app?vid=915e778a-0d97-4d5b-8d88-32345f69035a"},"vehicle_type_id":"4","last_reported":1744484831,"current_range_meters":8400,"station_id":"ce4bh3p2rcd13ifvqdq0","pricing_plan_id":"cebpf4jnsgd1na2vs0mg"},{"bike_id":"763046a9-b317-4f5b-bb23-9a246b21dbc1","system_id":"levelo_inurba_marseille","lat":43.304139,"lon":5.391133,"is_reserved":false,"is_disabled":false,"rental_uris":{"android":"levelo://app?vid=763046a9-b317-4f5b-bb23-9a246b21dbc1","ios":"levelo://app?vid=763046a9-b317-4f5b-bb23-9a246b21dbc1"},"vehicle_type_id":"4","last_reported":1744484831,"current_range_meters":8400,"station_id":"ce4bgl92rcd13ifvqbq0","pricing_plan_id":"cebpf4jnsgd1na2vs0mg"},{"bike_id":"8c58f2fa-99e1-41f8-bf90-9c1648b679b1","system_id":"levelo_inurba_marseille","lat":43.273,"lon":5.41433,"is_reserved":false,"is_disabled":false,"rental_uris":{"android":"levelo://app?vid=8c58f2fa-99e1-41f8-bf90-9c1648b679b1","ios":"levelo://app?vid=8c58f2fa-99e1-41f8-bf90-9c1648b679b1"},"vehicle_type_id":"4","last_reported":1744484831,"current_range_meters":8400,"station_id":"","pricing_plan_id":"cebpf4jnsgd1na2vs0mg"},{"bike_id":"37864421-51e4-4d5e-801c-7ac32e01e722","system_id":"levelo_inurba_marseille","lat":43.31297,"lon":5.37846,"is_reserved":false,"is_disabled":false,"rental_uris":{"android":"levelo://app?vid=37864421-51e4-4d5e-801c-7ac32e01e722","ios":"levelo://app?vid=37864421-51e4-4d5e-801c-7ac32e01e722"},"vehicle_type_id":"4","last_reported":1744484831,"current_range_meters":8400,"station_id":"","pricing_plan_id":"cebpf4jnsgd1na2vs0mg"},{"bike_id":"1130922e-9ccc-463b-9207-aadecd794edb","system_id":"levelo_inurba_marseille","lat":43.31986,"lon":5.38149,"is_reserved":false,"is_disabled":true,"rental_uris":{"android":"levelo://app?vid=1130922e-9ccc-463b-9207-aadecd794edb","ios":"levelo://app?vid=1130922e-9ccc-463b-9207-aadecd794edb"},"vehicle_type_id":"4","last_reported":1744484831,"current_range_meters":8800,"station_id":"ce4bhr12rcd13ifvqhpg","pricing_plan_id":"cebpf4jnsgd1na2vs0mg"},{"bike_id":"5233f65f-739d-45ba-b4ec-0028623b32aa","system_id":"levelo_inurba_marseille","lat":43.29022,"lon":5.38632,"is_reserved":false,"is_disabled":false,"rental_uris":{"android":"levelo://app?vid=5233f65f-739d-45ba-b4ec-0028623b32aa","ios":"levelo://app?vid=5233f65f-739d-45ba-b4ec-0028623b32aa"},"vehicle_type_id":"4","last_reported":1744484831,"current_range_meters":8800,"station_id":"ce4bh4p2rcd13ifvqe0g","pricing_plan_id":"cebpf4jnsgd1na2vs0mg"},{"bike_id":"4cedd733-2587-4eb1-87b3-3ab69e1574bc","system_id":"levelo_inurba_marseille","lat":43.28981,"lon":5.3661,"is_reserved":false,"is_disabled":false,"rental_uris":{"android":"levelo://app?vid=4cedd733-2587-4eb1-87b3-3ab69e1574bc","ios":"levelo://app?vid=4cedd733-2587-4eb1-87b3-3ab69e1574bc"},"vehicle_type_id":"4","last_reported":1744484831,"current_range_meters":8800,"station_id":"","pricing_plan_id":"cebpf4jnsgd1na2vs0mg"},{"bike_id":"4c893399-b4ed-40ed-a49f-713da320f269","system_id":"levelo_inurba_marseille","lat":43.29861,"lon":5.37841,"is_reserved":false,"is_disabled":false,"rental_uris":{"android":"levelo://app?vid=4c893399-b4ed-40ed-a49f-713da320f269","ios":"levelo://app?vid=4c893399-b4ed-40ed-a49f-713da320f269"},"vehicle_type_id":"4","last_reported":1744484831,"current_range_meters":8800,"station_id":"","pricing_plan_id":"cebpf4jnsgd1na2vs0mg"},{"bike_id":"38c0a90c-3b44-4d21-a39b-fd16d4c0a4a7","system_id":"levelo_inurba_marseille","lat":43.27504,"lon":5.4243,"is_reserved":false,"is_disabled":false,"rental_uris":{"android":"levelo://app?vid=38c0a90c-3b44-4d21-a39b-fd16d4c0a4a7","ios":"levelo://app?vid=38c0a90c-3b44-4d21-a39b-fd16d4c0a4a7"},"vehicle_type_id":"4","last_reported":1744484831,"current_range_meters":8800,"station_id":"ce4bhn92rcd13ifvqgrg","pricing_plan_id":"cebpf4jnsgd1na2vs0mg"},{"bike_id":"3f52aecb-e49c-4288-b392-efddf1d650f2","system_id":"levelo_inurba_marseille","lat":43.31281,"lon":5.40161,"is_reserved":false,"is_disabled":false,"rental_uris":{"android":"levelo://app?vid=3f52aecb-e49c-4288-b392-efddf1d650f2","ios":"levelo://app?vid=3f52aecb-e49c-4288-b392-efddf1d650f2"},"vehicle_type_id":"4","last_reported":1744484831,"current_range_meters":8800,"station_id":"ce4bh092rcd13ifvqd30","pricing_plan_id":"cebpf4jnsgd1na2vs0mg"},{"bike_id":"db82c05f-27fc-4261-8070-e69dbb12a7a3","system_id":"levelo_inurba_marseille","lat":43.3112,"lon":5.3776,"is_reserved":false,"is_disabled":false,"rental_uris":{"android":"levelo://app?vid=db82c05f-27fc-4261-8070-e69dbb12a7a3","ios":"levelo://app?vid=db82c05f-27fc-4261-8070-e69dbb12a7a3"},"vehicle_type_id":"4","last_reported":1744484831,"current_range_meters":8800,"station_id":"ce4bgt92rcd13ifvqcg0","pricing_plan_id":"cebpf4jnsgd1na2vs0mg"},{"bike_id":"5db885ef-ad78-40f1-9574-acf342fd80f6","system_id":"levelo_inurba_marseille","lat":43.27619,"lon":5.36094,"is_reserved":false,"is_disabled":false,"rental_uris":{"android":"levelo://app?vid=5db885ef-ad78-40f1-9574-acf342fd80f6","ios":"levelo://app?vid=5db885ef-ad78-40f1-9574-acf342fd80f6"},"vehicle_type_id":"4","last_reported":1744484831,"current_range_meters":8800,"station_id":"ce4bgj92rcd13ifvqbe0","pricing_plan_id":"cebpf4jnsgd1na2vs0mg"},{"bike_id":"f6822e7a-80b8-42ed-bacf-3b1f927ee756","system_id":"levelo_inurba_marseille","lat":43.284104,"lon":5.375,"is_reserved":false,"is_disabled":false,"rental_uris":{"android":"levelo://app?vid=f6822e7a-80b8-42ed-bacf-3b1f927ee756","ios":"levelo://app?vid=f6822e7a-80b8-42ed-bacf-3b1f927ee756"},"vehicle_type_id":"4","last_reported":1744484831,"current_range_meters":8800,"station_id":"ce4bh412rcd13ifvqds0","pricing_plan_id":"cebpf4jnsgd1na2vs0mg"},{"bike_id":"39b4fb4d-1af0-4e2b-866c-cd1681822cc3","system_id":"levelo_inurba_marseille","lat":43.29247,"lon":5.38431,"is_reserved":false,"is_disabled":false,"rental_uris":{"android":"levelo://app?vid=39b4fb4d-1af0-4e2b-866c-cd1681822cc3","ios":"levelo://app?vid=39b4fb4d-1af0-4e2b-866c-cd1681822cc3"},"vehicle_type_id":"4","last_reported":1744484831,"current_range_meters":9200,"station_id":"ce4bh692rcd13ifvqea0","pricing_plan_id":"cebpf4jnsgd1na2vs0mg"},{"bike_id":"37d38fe8-bfe7-470b-9402-f0070053b391","system_id":"levelo_inurba_marseille","lat":43.30596,"lon":5.37233,"is_reserved":false,"is_disabled":false,"rental_uris":{"android":"levelo://app?vid=37d38fe8-bfe7-470b-9402-f0070053b391","ios":"levelo://app?vid=37d38fe8-bfe7-470b-9402-f0070053b391"},"vehicle_type_id":"4","last_reported":1744484831,"current_range_meters":9200,"station_id":"ce4bgqh2rcd13ifvqc4g","pricing_plan_id":"cebpf4jnsgd1na2vs0mg"},{"bike_id":"d299dc27-b39a-442c-9028-e4f2888cfbb8","system_id":"levelo_inurba_marseille","lat":43.29251,"lon":5.38429,"is_reserved":false,"is_disabled":false,"rental_uris":{"android":"levelo://app?vid=d299dc27-b39a-442c-9028-e4f2888cfbb8","ios":"levelo://app?vid=d299dc27-b39a-442c-9028-e4f2888cfbb8"},"vehicle_type_id":"4","last_reported":1744484831,"current_range_meters":9600,"station_id":"ce4bh692rcd13ifvqea0","pricing_plan_id":"cebpf4jnsgd1na2vs0mg"},{"bike_id":"82af94af-c174-4201-bb7b-cd7759232730","system_id":"levelo_inurba_marseille","lat":43.25498,"lon":5.37651,"is_reserved":false,"is_disabled":false,"rental_uris":{"android":"levelo://app?vid=82af94af-c174-4201-bb7b-cd7759232730","ios":"levelo://app?vid=82af94af-c174-4201-bb7b-cd7759232730"},"vehicle_type_id":"4","last_reported":1744484831,"current_range_meters":9200,"station_id":"ce4bhh12rcd13ifvqff0","pricing_plan_id":"cebpf4jnsgd1na2vs0mg"},{"bike_id":"4873b923-3644-4ac3-9d38-fee6306a11a5","system_id":"levelo_inurba_marseille","lat":43.29266,"lon":5.40124,"is_reserved":false,"is_disabled":true,"rental_uris":{"android":"levelo://app?vid=4873b923-3644-4ac3-9d38-fee6306a11a5","ios":"levelo://app?vid=4873b923-3644-4ac3-9d38-fee6306a11a5"},"vehicle_type_id":"4","last_reported":1744484831,"current_range_meters":9600,"station_id":"ce4bh312rcd13ifvqdk0","pricing_plan_id":"cebpf4jnsgd1na2vs0mg"},{"bike_id":"8207ea29-fd0c-4c7e-a5fa-88a3cf6888d1","system_id":"levelo_inurba_marseille","lat":43.2418,"lon":5.39738,"is_reserved":false,"is_disabled":false,"rental_uris":{"android":"levelo://app?vid=8207ea29-fd0c-4c7e-a5fa-88a3cf6888d1","ios":"levelo://app?vid=8207ea29-fd0c-4c7e-a5fa-88a3cf6888d1"},"vehicle_type_id":"4","last_reported":1744484831,"current_range_meters":9600,"station_id":"ce4bhn12rcd13ifvqgpg","pricing_plan_id":"cebpf4jnsgd1na2vs0mg"},{"bike_id":"c013d600-5e08-48f0-830e-8c965978436b","system_id":"levelo_inurba_marseille","lat":43.30441,"lon":5.389,"is_reserved":false,"is_disabled":true,"rental_uris":{"android":"levelo://app?vid=c013d600-5e08-48f0-830e-8c965978436b","ios":"levelo://app?vid=c013d600-5e08-48f0-830e-8c965978436b"},"vehicle_type_id":"4","last_reported":1744484831,"current_range_meters":9600,"station_id":"ce4bgk12rcd13ifvqbi0","pricing_plan_id":"cebpf4jnsgd1na2vs0mg"},{"bike_id":"2cf98fc6-f60e-4692-bee8-377349099a62","system_id":"levelo_inurba_marseille","lat":43.29707,"lon":5.366,"is_reserved":false,"is_disabled":false,"rental_uris":{"android":"levelo://app?vid=2cf98fc6-f60e-4692-bee8-377349099a62","ios":"levelo://app?vid=2cf98fc6-f60e-4692-bee8-377349099a62"},"vehicle_type_id":"4","last_reported":1744484831,"current_range_meters":9600,"station_id":"ce4bgn12rcd13ifvqbt0","pricing_plan_id":"cebpf4jnsgd1na2vs0mg"},{"bike_id":"5241dcdd-5afb-4ad1-8e13-e838db09617f","system_id":"levelo_inurba_marseille","lat":43.30208,"lon":5.39469,"is_reserved":false,"is_disabled":false,"rental_uris":{"android":"levelo://app?vid=5241dcdd-5afb-4ad1-8e13-e838db09617f","ios":"levelo://app?vid=5241dcdd-5afb-4ad1-8e13-e838db09617f"},"vehicle_type_id":"4","last_reported":1744484831,"current_range_meters":9600,"station_id":"ce4bh0p2rcd13ifvqd70","pricing_plan_id":"cebpf4jnsgd1na2vs0mg"},{"bike_id":"909f554d-be02-4046-b022-74eef92aab86","system_id":"levelo_inurba_marseille","lat":43.293038,"lon":5.37152,"is_reserved":false,"is_disabled":false,"rental_uris":{"android":"levelo://app?vid=909f554d-be02-4046-b022-74eef92aab86","ios":"levelo://app?vid=909f554d-be02-4046-b022-74eef92aab86"},"vehicle_type_id":"4","last_reported":1744484831,"current_range_meters":9600,"station_id":"ce4bgh92rcd13ifvqb40","pricing_plan_id":"cebpf4jnsgd1na2vs0mg"},{"bike_id":"0c7be884-ff29-491f-856f-b307cb3f7eb6","system_id":"levelo_inurba_marseille","lat":43.29174,"lon":5.37152,"is_reserved":false,"is_disabled":false,"rental_uris":{"android":"levelo://app?vid=0c7be884-ff29-491f-856f-b307cb3f7eb6","ios":"levelo://app?vid=0c7be884-ff29-491f-856f-b307cb3f7eb6"},"vehicle_type_id":"4","last_reported":1744484831,"current_range_meters":9600,"station_id":"ce4bha92rcd13ifvqeh0","pricing_plan_id":"cebpf4jnsgd1na2vs0mg"},{"bike_id":"4a0973b0-92a0-41e8-9b0d-a99e944bafe0","system_id":"levelo_inurba_marseille","lat":43.345113,"lon":5.413029,"is_reserved":false,"is_disabled":false,"rental_uris":{"android":"levelo://app?vid=4a0973b0-92a0-41e8-9b0d-a99e944bafe0","ios":"levelo://app?vid=4a0973b0-92a0-41e8-9b0d-a99e944bafe0"},"vehicle_type_id":"4","last_reported":1744484831,"current_range_meters":9600,"station_id":"","pricing_plan_id":"cebpf4jnsgd1na2vs0mg"},{"bike_id":"1a61866f-81e2-4731-961e-2165d84b2363","system_id":"levelo_inurba_marseille","lat":43.28451,"lon":5.39205,"is_reserved":false,"is_disabled":false,"rental_uris":{"android":"levelo://app?vid=1a61866f-81e2-4731-961e-2165d84b2363","ios":"levelo://app?vid=1a61866f-81e2-4731-961e-2165d84b2363"},"vehicle_type_id":"4","last_reported":1744484831,"current_range_meters":9600,"station_id":"ce4bhoh2rcd13ifvqh5g","pricing_plan_id":"cebpf4jnsgd1na2vs0mg"},{"bike_id":"88802da1-90f2-4aff-90a1-c3598e933096","system_id":"levelo_inurba_marseille","lat":43.30351,"lon":5.39278,"is_reserved":false,"is_disabled":false,"rental_uris":{"android":"levelo://app?vid=88802da1-90f2-4aff-90a1-c3598e933096","ios":"levelo://app?vid=88802da1-90f2-4aff-90a1-c3598e933096"},"vehicle_type_id":"4","last_reported":1744484831,"current_range_meters":9600,"station_id":"","pricing_plan_id":"cebpf4jnsgd1na2vs0mg"},{"bike_id":"90a14195-a53e-4d1f-a5a5-307cc368f11f","system_id":"levelo_inurba_marseille","lat":43.27413,"lon":5.39404,"is_reserved":false,"is_disabled":false,"rental_uris":{"android":"levelo://app?vid=90a14195-a53e-4d1f-a5a5-307cc368f11f","ios":"levelo://app?vid=90a14195-a53e-4d1f-a5a5-307cc368f11f"},"vehicle_type_id":"4","last_reported":1744484831,"current_range_meters":9200,"station_id":"ce4bhdp2rcd13ifvqf20","pricing_plan_id":"cebpf4jnsgd1na2vs0mg"},{"bike_id":"fba14dc4-f065-46f4-a67b-b47ee9a5123b","system_id":"levelo_inurba_marseille","lat":43.29306,"lon":5.37192,"is_reserved":false,"is_disabled":true,"rental_uris":{"android":"levelo://app?vid=fba14dc4-f065-46f4-a67b-b47ee9a5123b","ios":"levelo://app?vid=fba14dc4-f065-46f4-a67b-b47ee9a5123b"},"vehicle_type_id":"4","last_reported":1744484831,"current_range_meters":10000,"station_id":"ce4bgh92rcd13ifvqb40","pricing_plan_id":"cebpf4jnsgd1na2vs0mg"},{"bike_id":"d53356ed-34e7-4ce0-8d94-e073954cdd85","system_id":"levelo_inurba_marseille","lat":43.27069,"lon":5.40256,"is_reserved":false,"is_disabled":true,"rental_uris":{"android":"levelo://app?vid=d53356ed-34e7-4ce0-8d94-e073954cdd85","ios":"levelo://app?vid=d53356ed-34e7-4ce0-8d94-e073954cdd85"},"vehicle_type_id":"4","last_reported":1744484831,"current_range_meters":10000,"station_id":"ce4bhk92rcd13ifvqgc0","pricing_plan_id":"cebpf4jnsgd1na2vs0mg"},{"bike_id":"ff4bf555-621a-4bc6-84ba-5ba2f272c7aa","system_id":"levelo_inurba_marseille","lat":43.24812,"lon":5.37451,"is_reserved":false,"is_disabled":false,"rental_uris":{"android":"levelo://app?vid=ff4bf555-621a-4bc6-84ba-5ba2f272c7aa","ios":"levelo://app?vid=ff4bf555-621a-4bc6-84ba-5ba2f272c7aa"},"vehicle_type_id":"4","last_reported":1744484831,"current_range_meters":10000,"station_id":"ce4bhgh2rcd13ifvqfb0","pricing_plan_id":"cebpf4jnsgd1na2vs0mg"},{"bike_id":"1f68157c-5acb-4d16-84dc-da1b3279f304","system_id":"levelo_inurba_marseille","lat":43.26937,"lon":5.40254,"is_reserved":false,"is_disabled":false,"rental_uris":{"android":"levelo://app?vid=1f68157c-5acb-4d16-84dc-da1b3279f304","ios":"levelo://app?vid=1f68157c-5acb-4d16-84dc-da1b3279f304"},"vehicle_type_id":"4","last_reported":1744484831,"current_range_meters":10000,"station_id":"cjm6bp8fraef2m0cb0m0","pricing_plan_id":"cebpf4jnsgd1na2vs0mg"},{"bike_id":"31a6b1b3-e7d3-4bac-82dc-50125b183903","system_id":"levelo_inurba_marseille","lat":43.28268,"lon":5.3506,"is_reserved":false,"is_disabled":false,"rental_uris":{"android":"levelo://app?vid=31a6b1b3-e7d3-4bac-82dc-50125b183903","ios":"levelo://app?vid=31a6b1b3-e7d3-4bac-82dc-50125b183903"},"vehicle_type_id":"4","last_reported":1744484831,"current_range_meters":10000,"station_id":"ce4bhbp2rcd13ifvqerg","pricing_plan_id":"cebpf4jnsgd1na2vs0mg"},{"bike_id":"eb578252-5439-4851-a5f9-751638bdaef7","system_id":"levelo_inurba_marseille","lat":43.29038,"lon":5.3756,"is_reserved":false,"is_disabled":true,"rental_uris":{"android":"levelo://app?vid=eb578252-5439-4851-a5f9-751638bdaef7","ios":"levelo://app?vid=eb578252-5439-4851-a5f9-751638bdaef7"},"vehicle_type_id":"4","last_reported":1744484831,"current_range_meters":10000,"station_id":"ce4bh692rcd13ifvqe90","pricing_plan_id":"cebpf4jnsgd1na2vs0mg"},{"bike_id":"ef291804-1477-432e-b153-82ea15725418","system_id":"levelo_inurba_marseille","lat":43.33742,"lon":5.37454,"is_reserved":false,"is_disabled":false,"rental_uris":{"android":"levelo://app?vid=ef291804-1477-432e-b153-82ea15725418","ios":"levelo://app?vid=ef291804-1477-432e-b153-82ea15725418"},"vehicle_type_id":"4","last_reported":1744484831,"current_range_meters":10000,"station_id":"","pricing_plan_id":"cebpf4jnsgd1na2vs0mg"},{"bike_id":"4a4f9a09-23e4-4fa8-ba79-2ce1ece4ae54","system_id":"levelo_inurba_marseille","lat":43.26955,"lon":5.40299,"is_reserved":false,"is_disabled":false,"rental_uris":{"android":"levelo://app?vid=4a4f9a09-23e4-4fa8-ba79-2ce1ece4ae54","ios":"levelo://app?vid=4a4f9a09-23e4-4fa8-ba79-2ce1ece4ae54"},"vehicle_type_id":"4","last_reported":1744484831,"current_range_meters":10000,"station_id":"cjm6bp8fraef2m0cb0m0","pricing_plan_id":"cebpf4jnsgd1na2vs0mg"},{"bike_id":"a6ddee11-e1be-4252-9994-d84950956289","system_id":"levelo_inurba_marseille","lat":43.26934,"lon":5.40275,"is_reserved":false,"is_disabled":false,"rental_uris":{"android":"levelo://app?vid=a6ddee11-e1be-4252-9994-d84950956289","ios":"levelo://app?vid=a6ddee11-e1be-4252-9994-d84950956289"},"vehicle_type_id":"4","last_reported":1744484831,"current_range_meters":10000,"station_id":"cjm6bp8fraef2m0cb0m0","pricing_plan_id":"cebpf4jnsgd1na2vs0mg"},{"bike_id":"9ec3d517-cf0c-4251-b51b-942a273701fe","system_id":"levelo_inurba_marseille","lat":43.29018,"lon":5.38144,"is_reserved":false,"is_disabled":false,"rental_uris":{"android":"levelo://app?vid=9ec3d517-cf0c-4251-b51b-942a273701fe","ios":"levelo://app?vid=9ec3d517-cf0c-4251-b51b-942a273701fe"},"vehicle_type_id":"4","last_reported":1744484831,"current_range_meters":10000,"station_id":"ce4bh4p2rcd13ifvqe1g","pricing_plan_id":"cebpf4jnsgd1na2vs0mg"},{"bike_id":"a2a6fafc-9ee1-4ac9-b16d-fa1f378e78d0","system_id":"levelo_inurba_marseille","lat":43.29551,"lon":5.37531,"is_reserved":false,"is_disabled":true,"rental_uris":{"android":"levelo://app?vid=a2a6fafc-9ee1-4ac9-b16d-fa1f378e78d0","ios":"levelo://app?vid=a2a6fafc-9ee1-4ac9-b16d-fa1f378e78d0"},"vehicle_type_id":"4","last_reported":1744484831,"current_range_meters":10000,"station_id":"ce4bgh92rcd13ifvqb50","pricing_plan_id":"cebpf4jnsgd1na2vs0mg"},{"bike_id":"211990ef-4669-4091-86ec-137c884b610d","system_id":"levelo_inurba_marseille","lat":43.29257,"lon":5.38495,"is_reserved":false,"is_disabled":true,"rental_uris":{"android":"levelo://app?vid=211990ef-4669-4091-86ec-137c884b610d","ios":"levelo://app?vid=211990ef-4669-4091-86ec-137c884b610d"},"vehicle_type_id":"4","last_reported":1744484831,"current_range_meters":10000,"station_id":"","pricing_plan_id":"cebpf4jnsgd1na2vs0mg"},{"bike_id":"c775f68c-5a38-4d00-b0a1-5e0fa022f0bf","system_id":"levelo_inurba_marseille","lat":43.28701,"lon":5.37402,"is_reserved":false,"is_disabled":false,"rental_uris":{"android":"levelo://app?vid=c775f68c-5a38-4d00-b0a1-5e0fa022f0bf","ios":"levelo://app?vid=c775f68c-5a38-4d00-b0a1-5e0fa022f0bf"},"vehicle_type_id":"4","last_reported":1744484831,"current_range_meters":10000,"station_id":"ce4bh3p2rcd13ifvqdq0","pricing_plan_id":"cebpf4jnsgd1na2vs0mg"},{"bike_id":"872b5f41-ca71-4f92-bff6-6135b4120b28","system_id":"levelo_inurba_marseille","lat":43.26938,"lon":5.40253,"is_reserved":false,"is_disabled":false,"rental_uris":{"android":"levelo://app?vid=872b5f41-ca71-4f92-bff6-6135b4120b28","ios":"levelo://app?vid=872b5f41-ca71-4f92-bff6-6135b4120b28"},"vehicle_type_id":"4","last_reported":1744484831,"current_range_meters":10000,"station_id":"cjm6bp8fraef2m0cb0m0","pricing_plan_id":"cebpf4jnsgd1na2vs0mg"},{"bike_id":"6216954e-c593-4505-9651-af40a68f54b3","system_id":"levelo_inurba_marseille","lat":43.255,"lon":5.37655,"is_reserved":false,"is_disabled":false,"rental_uris":{"android":"levelo://app?vid=6216954e-c593-4505-9651-af40a68f54b3","ios":"levelo://app?vid=6216954e-c593-4505-9651-af40a68f54b3"},"vehicle_type_id":"4","last_reported":1744484831,"current_range_meters":10000,"station_id":"ce4bhh12rcd13ifvqff0","pricing_plan_id":"cebpf4jnsgd1na2vs0mg"},{"bike_id":"33152a3f-dac2-4ffa-98d6-f9b536d05887","system_id":"levelo_inurba_marseille","lat":43.28714,"lon":5.39971,"is_reserved":false,"is_disabled":false,"rental_uris":{"android":"levelo://app?vid=33152a3f-dac2-4ffa-98d6-f9b536d05887","ios":"levelo://app?vid=33152a3f-dac2-4ffa-98d6-f9b536d05887"},"vehicle_type_id":"4","last_reported":1744484831,"current_range_meters":10800,"station_id":"ce4bho92rcd13ifvqh3g","pricing_plan_id":"cebpf4jnsgd1na2vs0mg"},{"bike_id":"e2efc4ce-57b6-4925-8c09-17087ed67936","system_id":"levelo_inurba_marseille","lat":43.28001,"lon":5.40009,"is_reserved":false,"is_disabled":false,"rental_uris":{"android":"levelo://app?vid=e2efc4ce-57b6-4925-8c09-17087ed67936","ios":"levelo://app?vid=e2efc4ce-57b6-4925-8c09-17087ed67936"},"vehicle_type_id":"4","last_reported":1744484831,"current_range_meters":10800,"station_id":"ce4bho92rcd13ifvqh4g","pricing_plan_id":"cebpf4jnsgd1na2vs0mg"},{"bike_id":"a7bd35d8-431e-403a-8602-fbbeb8d04c19","system_id":"levelo_inurba_marseille","lat":43.29303,"lon":5.37173,"is_reserved":false,"is_disabled":false,"rental_uris":{"android":"levelo://app?vid=a7bd35d8-431e-403a-8602-fbbeb8d04c19","ios":"levelo://app?vid=a7bd35d8-431e-403a-8602-fbbeb8d04c19"},"vehicle_type_id":"4","last_reported":1744484831,"current_range_meters":10800,"station_id":"ce4bgh92rcd13ifvqb40","pricing_plan_id":"cebpf4jnsgd1na2vs0mg"},{"bike_id":"f7d1eee0-1715-419d-beac-1b98ec9e62ed","system_id":"levelo_inurba_marseille","lat":43.30952,"lon":5.39032,"is_reserved":false,"is_disabled":true,"rental_uris":{"android":"levelo://app?vid=f7d1eee0-1715-419d-beac-1b98ec9e62ed","ios":"levelo://app?vid=f7d1eee0-1715-419d-beac-1b98ec9e62ed"},"vehicle_type_id":"4","last_reported":1744484831,"current_range_meters":10800,"station_id":"ce4bgup2rcd13ifvqco0","pricing_plan_id":"cebpf4jnsgd1na2vs0mg"},{"bike_id":"86e3fd62-ce53-4f21-93c1-2fb7456de3cf","system_id":"levelo_inurba_marseille","lat":43.23063,"lon":5.35487,"is_reserved":false,"is_disabled":false,"rental_uris":{"android":"levelo://app?vid=86e3fd62-ce53-4f21-93c1-2fb7456de3cf","ios":"levelo://app?vid=86e3fd62-ce53-4f21-93c1-2fb7456de3cf"},"vehicle_type_id":"4","last_reported":1744484831,"current_range_meters":10800,"station_id":"cpo3342slgdg3j2ifvpg","pricing_plan_id":"cebpf4jnsgd1na2vs0mg"},{"bike_id":"a0ba52f8-7bf3-48c5-b10d-ce1e65573c82","system_id":"levelo_inurba_marseille","lat":43.254425,"lon":5.38156,"is_reserved":false,"is_disabled":false,"rental_uris":{"android":"levelo://app?vid=a0ba52f8-7bf3-48c5-b10d-ce1e65573c82","ios":"levelo://app?vid=a0ba52f8-7bf3-48c5-b10d-ce1e65573c82"},"vehicle_type_id":"4","last_reported":1744484831,"current_range_meters":10800,"station_id":"ce4bhgh2rcd13ifvqfb0","pricing_plan_id":"cebpf4jnsgd1na2vs0mg"},{"bike_id":"eb229502-80bd-42a4-8eda-daa62396ea07","system_id":"levelo_inurba_marseille","lat":43.27053,"lon":5.40258,"is_reserved":false,"is_disabled":false,"rental_uris":{"android":"levelo://app?vid=eb229502-80bd-42a4-8eda-daa62396ea07","ios":"levelo://app?vid=eb229502-80bd-42a4-8eda-daa62396ea07"},"vehicle_type_id":"4","last_reported":1744484831,"current_range_meters":10800,"station_id":"ce4bhk92rcd13ifvqgc0","pricing_plan_id":"cebpf4jnsgd1na2vs0mg"},{"bike_id":"0e7bf4ae-5aed-4055-a1f8-96debbb9847e","system_id":"levelo_inurba_marseille","lat":43.241713,"lon":5.364014,"is_reserved":false,"is_disabled":false,"rental_uris":{"android":"levelo://app?vid=0e7bf4ae-5aed-4055-a1f8-96debbb9847e","ios":"levelo://app?vid=0e7bf4ae-5aed-4055-a1f8-96debbb9847e"},"vehicle_type_id":"4","last_reported":1744484831,"current_range_meters":10800,"station_id":"cpo36qri1sfpv3e86is0","pricing_plan_id":"cebpf4jnsgd1na2vs0mg"},{"bike_id":"8609ec5b-db31-4682-89f6-95794d251c5e","system_id":"levelo_inurba_marseille","lat":43.23164,"lon":5.43714,"is_reserved":false,"is_disabled":false,"rental_uris":{"android":"levelo://app?vid=8609ec5b-db31-4682-89f6-95794d251c5e","ios":"levelo://app?vid=8609ec5b-db31-4682-89f6-95794d251c5e"},"vehicle_type_id":"4","last_reported":1744484831,"current_range_meters":10800,"station_id":"ce4bhmp2rcd13ifvqgog","pricing_plan_id":"cebpf4jnsgd1na2vs0mg"},{"bike_id":"dc3d4c56-48fa-4110-8747-f6e21df1fde2","system_id":"levelo_inurba_marseille","lat":43.27898,"lon":5.38017,"is_reserved":false,"is_disabled":false,"rental_uris":{"android":"levelo://app?vid=dc3d4c56-48fa-4110-8747-f6e21df1fde2","ios":"levelo://app?vid=dc3d4c56-48fa-4110-8747-f6e21df1fde2"},"vehicle_type_id":"4","last_reported":1744484831,"current_range_meters":11200,"station_id":"ce4bhf92rcd13ifvqf50","pricing_plan_id":"cebpf4jnsgd1na2vs0mg"},{"bike_id":"135dbc8e-e67d-4099-b3b7-57a67154d3a7","system_id":"levelo_inurba_marseille","lat":43.30801,"lon":5.38151,"is_reserved":false,"is_disabled":false,"rental_uris":{"android":"levelo://app?vid=135dbc8e-e67d-4099-b3b7-57a67154d3a7","ios":"levelo://app?vid=135dbc8e-e67d-4099-b3b7-57a67154d3a7"},"vehicle_type_id":"4","last_reported":1744484831,"current_range_meters":11200,"station_id":"ce4bgt12rcd13ifvqce0","pricing_plan_id":"cebpf4jnsgd1na2vs0mg"},{"bike_id":"d8f603cd-3b83-4148-bab8-3a185ad2a59f","system_id":"levelo_inurba_marseille","lat":43.32416,"lon":5.3913,"is_reserved":false,"is_disabled":false,"rental_uris":{"android":"levelo://app?vid=d8f603cd-3b83-4148-bab8-3a185ad2a59f","ios":"levelo://app?vid=d8f603cd-3b83-4148-bab8-3a185ad2a59f"},"vehicle_type_id":"4","last_reported":1744484831,"current_range_meters":11200,"station_id":"","pricing_plan_id":"cebpf4jnsgd1na2vs0mg"},{"bike_id":"8aa02e31-6d9c-4cdb-9454-7c00be71c126","system_id":"levelo_inurba_marseille","lat":43.29783,"lon":5.38103,"is_reserved":false,"is_disabled":false,"rental_uris":{"android":"levelo://app?vid=8aa02e31-6d9c-4cdb-9454-7c00be71c126","ios":"levelo://app?vid=8aa02e31-6d9c-4cdb-9454-7c00be71c126"},"vehicle_type_id":"4","last_reported":1744484831,"current_range_meters":11200,"station_id":"ce4bgip2rcd13ifvqbb0","pricing_plan_id":"cebpf4jnsgd1na2vs0mg"},{"bike_id":"30fc6d35-50a6-40c1-8966-72ad7d12d599","system_id":"levelo_inurba_marseille","lat":43.30589,"lon":5.39319,"is_reserved":false,"is_disabled":false,"rental_uris":{"android":"levelo://app?vid=30fc6d35-50a6-40c1-8966-72ad7d12d599","ios":"levelo://app?vid=30fc6d35-50a6-40c1-8966-72ad7d12d599"},"vehicle_type_id":"4","last_reported":1744484831,"current_range_meters":11200,"station_id":"ce4bh0p2rcd13ifvqd80","pricing_plan_id":"cebpf4jnsgd1na2vs0mg"},{"bike_id":"291d0e38-bdef-44ee-a8ed-d70fcee1e70e","system_id":"levelo_inurba_marseille","lat":43.297081,"lon":5.376937,"is_reserved":false,"is_disabled":false,"rental_uris":{"android":"levelo://app?vid=291d0e38-bdef-44ee-a8ed-d70fcee1e70e","ios":"levelo://app?vid=291d0e38-bdef-44ee-a8ed-d70fcee1e70e"},"vehicle_type_id":"4","last_reported":1744484831,"current_range_meters":10800,"station_id":"ce4bhbp2rcd13ifvqerg","pricing_plan_id":"cebpf4jnsgd1na2vs0mg"},{"bike_id":"80760483-d5ba-45da-8988-3c347137210f","system_id":"levelo_inurba_marseille","lat":43.29016,"lon":5.38144,"is_reserved":false,"is_disabled":false,"rental_uris":{"android":"levelo://app?vid=80760483-d5ba-45da-8988-3c347137210f","ios":"levelo://app?vid=80760483-d5ba-45da-8988-3c347137210f"},"vehicle_type_id":"4","last_reported":1744484831,"current_range_meters":11200,"station_id":"ce4bh4p2rcd13ifvqe1g","pricing_plan_id":"cebpf4jnsgd1na2vs0mg"},{"bike_id":"a6a623c2-7306-4f46-a108-03e8812e161b","system_id":"levelo_inurba_marseille","lat":43.295788,"lon":5.375184,"is_reserved":false,"is_disabled":false,"rental_uris":{"android":"levelo://app?vid=a6a623c2-7306-4f46-a108-03e8812e161b","ios":"levelo://app?vid=a6a623c2-7306-4f46-a108-03e8812e161b"},"vehicle_type_id":"4","last_reported":1744484831,"current_range_meters":11200,"station_id":"ce4bgh92rcd13ifvqb50","pricing_plan_id":"cebpf4jnsgd1na2vs0mg"},{"bike_id":"5b77a833-8185-45c2-9fe3-07eb40df54ca","system_id":"levelo_inurba_marseille","lat":43.33995,"lon":5.38057,"is_reserved":false,"is_disabled":false,"rental_uris":{"android":"levelo://app?vid=5b77a833-8185-45c2-9fe3-07eb40df54ca","ios":"levelo://app?vid=5b77a833-8185-45c2-9fe3-07eb40df54ca"},"vehicle_type_id":"4","last_reported":1744484831,"current_range_meters":11200,"station_id":"","pricing_plan_id":"cebpf4jnsgd1na2vs0mg"},{"bike_id":"a3c7c955-f330-4d72-a747-af773881bda2","system_id":"levelo_inurba_marseille","lat":43.2743,"lon":5.39418,"is_reserved":false,"is_disabled":false,"rental_uris":{"android":"levelo://app?vid=a3c7c955-f330-4d72-a747-af773881bda2","ios":"levelo://app?vid=a3c7c955-f330-4d72-a747-af773881bda2"},"vehicle_type_id":"4","last_reported":1744484831,"current_range_meters":11600,"station_id":"ce4bhdp2rcd13ifvqf20","pricing_plan_id":"cebpf4jnsgd1na2vs0mg"},{"bike_id":"ef914213-710f-49eb-872a-57f7b7138146","system_id":"levelo_inurba_marseille","lat":43.28002,"lon":5.40024,"is_reserved":false,"is_disabled":false,"rental_uris":{"android":"levelo://app?vid=ef914213-710f-49eb-872a-57f7b7138146","ios":"levelo://app?vid=ef914213-710f-49eb-872a-57f7b7138146"},"vehicle_type_id":"4","last_reported":1744484831,"current_range_meters":11600,"station_id":"ce4bho92rcd13ifvqh4g","pricing_plan_id":"cebpf4jnsgd1na2vs0mg"},{"bike_id":"8133ab5b-17f3-4fca-9ac2-7769488eb2ea","system_id":"levelo_inurba_marseille","lat":43.25491,"lon":5.37641,"is_reserved":false,"is_disabled":false,"rental_uris":{"android":"levelo://app?vid=8133ab5b-17f3-4fca-9ac2-7769488eb2ea","ios":"levelo://app?vid=8133ab5b-17f3-4fca-9ac2-7769488eb2ea"},"vehicle_type_id":"4","last_reported":1744484831,"current_range_meters":11600,"station_id":"ce4bhh12rcd13ifvqff0","pricing_plan_id":"cebpf4jnsgd1na2vs0mg"},{"bike_id":"4ac15233-0b55-49d0-af61-4cab496dd69a","system_id":"levelo_inurba_marseille","lat":43.28152,"lon":5.42654,"is_reserved":false,"is_disabled":false,"rental_uris":{"android":"levelo://app?vid=4ac15233-0b55-49d0-af61-4cab496dd69a","ios":"levelo://app?vid=4ac15233-0b55-49d0-af61-4cab496dd69a"},"vehicle_type_id":"4","last_reported":1744484831,"current_range_meters":11600,"station_id":"ce4bhnh2rcd13ifvqgug","pricing_plan_id":"cebpf4jnsgd1na2vs0mg"},{"bike_id":"31980f14-1915-469c-930d-c3ce313ee186","system_id":"levelo_inurba_marseille","lat":43.26943,"lon":5.38634,"is_reserved":false,"is_disabled":false,"rental_uris":{"android":"levelo://app?vid=31980f14-1915-469c-930d-c3ce313ee186","ios":"levelo://app?vid=31980f14-1915-469c-930d-c3ce313ee186"},"vehicle_type_id":"4","last_reported":1744484831,"current_range_meters":11600,"station_id":"ce4bhh92rcd13ifvqfh0","pricing_plan_id":"cebpf4jnsgd1na2vs0mg"},{"bike_id":"d900061c-b9cd-4b87-9149-aa35946b603c","system_id":"levelo_inurba_marseille","lat":43.30271,"lon":5.40056,"is_reserved":false,"is_disabled":false,"rental_uris":{"android":"levelo://app?vid=d900061c-b9cd-4b87-9149-aa35946b603c","ios":"levelo://app?vid=d900061c-b9cd-4b87-9149-aa35946b603c"},"vehicle_type_id":"4","last_reported":1744484831,"current_range_meters":11600,"station_id":"ce4bgvh2rcd13ifvqcs0","pricing_plan_id":"cebpf4jnsgd1na2vs0mg"},{"bike_id":"493cde9e-7859-4c26-a2e6-f744ee5d8553","system_id":"levelo_inurba_marseille","lat":43.3178,"lon":5.3642,"is_reserved":false,"is_disabled":false,"rental_uris":{"android":"levelo://app?vid=493cde9e-7859-4c26-a2e6-f744ee5d8553","ios":"levelo://app?vid=493cde9e-7859-4c26-a2e6-f744ee5d8553"},"vehicle_type_id":"4","last_reported":1744484831,"current_range_meters":11600,"station_id":"","pricing_plan_id":"cebpf4jnsgd1na2vs0mg"},{"bike_id":"a5a0ff80-b6e7-4a7a-a531-b5ed2357c29d","system_id":"levelo_inurba_marseille","lat":43.25723,"lon":5.41109,"is_reserved":false,"is_disabled":false,"rental_uris":{"android":"levelo://app?vid=a5a0ff80-b6e7-4a7a-a531-b5ed2357c29d","ios":"levelo://app?vid=a5a0ff80-b6e7-4a7a-a531-b5ed2357c29d"},"vehicle_type_id":"4","last_reported":1744484831,"current_range_meters":11600,"station_id":"ce4bhkp2rcd13ifvqgd0","pricing_plan_id":"cebpf4jnsgd1na2vs0mg"},{"bike_id":"0c2c80b8-25f4-4f12-925f-1ea5619f8f46","system_id":"levelo_inurba_marseille","lat":43.29029,"lon":5.37568,"is_reserved":false,"is_disabled":false,"rental_uris":{"android":"levelo://app?vid=0c2c80b8-25f4-4f12-925f-1ea5619f8f46","ios":"levelo://app?vid=0c2c80b8-25f4-4f12-925f-1ea5619f8f46"},"vehicle_type_id":"4","last_reported":1744484831,"current_range_meters":12000,"station_id":"ce4bh692rcd13ifvqe90","pricing_plan_id":"cebpf4jnsgd1na2vs0mg"},{"bike_id":"1ace4284-a150-45ce-a05d-4d34468531ee","system_id":"levelo_inurba_marseille","lat":43.28401,"lon":5.37513,"is_reserved":false,"is_disabled":false,"rental_uris":{"android":"levelo://app?vid=1ace4284-a150-45ce-a05d-4d34468531ee","ios":"levelo://app?vid=1ace4284-a150-45ce-a05d-4d34468531ee"},"vehicle_type_id":"4","last_reported":1744484831,"current_range_meters":12000,"station_id":"ce4bh412rcd13ifvqds0","pricing_plan_id":"cebpf4jnsgd1na2vs0mg"},{"bike_id":"2f5bc015-0a98-4a0d-a50f-f7181e1d6abe","system_id":"levelo_inurba_marseille","lat":43.23423,"lon":5.41269,"is_reserved":false,"is_disabled":false,"rental_uris":{"android":"levelo://app?vid=2f5bc015-0a98-4a0d-a50f-f7181e1d6abe","ios":"levelo://app?vid=2f5bc015-0a98-4a0d-a50f-f7181e1d6abe"},"vehicle_type_id":"4","last_reported":1744484831,"current_range_meters":12000,"station_id":"","pricing_plan_id":"cebpf4jnsgd1na2vs0mg"},{"bike_id":"58acbc2d-cf0e-4988-a331-4e6943fdb209","system_id":"levelo_inurba_marseille","lat":43.29409,"lon":5.38642,"is_reserved":false,"is_disabled":false,"rental_uris":{"android":"levelo://app?vid=58acbc2d-cf0e-4988-a331-4e6943fdb209","ios":"levelo://app?vid=58acbc2d-cf0e-4988-a331-4e6943fdb209"},"vehicle_type_id":"4","last_reported":1744484831,"current_range_meters":14000,"station_id":"ce4bh2h2rcd13ifvqdh0","pricing_plan_id":"cebpf4jnsgd1na2vs0mg"},{"bike_id":"dfa7bd58-76fc-44a5-9c3c-7a675d60ecc5","system_id":"levelo_inurba_marseille","lat":43.23149,"lon":5.43716,"is_reserved":false,"is_disabled":false,"rental_uris":{"android":"levelo://app?vid=dfa7bd58-76fc-44a5-9c3c-7a675d60ecc5","ios":"levelo://app?vid=dfa7bd58-76fc-44a5-9c3c-7a675d60ecc5"},"vehicle_type_id":"4","last_reported":1744484831,"current_range_meters":12000,"station_id":"ce4bhmp2rcd13ifvqgog","pricing_plan_id":"cebpf4jnsgd1na2vs0mg"},{"bike_id":"cd02e34d-255b-40b8-99fb-f44f17955dfd","system_id":"levelo_inurba_marseille","lat":43.24804,"lon":5.37461,"is_reserved":false,"is_disabled":false,"rental_uris":{"android":"levelo://app?vid=cd02e34d-255b-40b8-99fb-f44f17955dfd","ios":"levelo://app?vid=cd02e34d-255b-40b8-99fb-f44f17955dfd"},"vehicle_type_id":"4","last_reported":1744484831,"current_range_meters":12000,"station_id":"ce4bhgh2rcd13ifvqfb0","pricing_plan_id":"cebpf4jnsgd1na2vs0mg"},{"bike_id":"8504cadd-dfe4-4186-94fe-fef9547528ee","system_id":"levelo_inurba_marseille","lat":43.2926,"lon":5.38443,"is_reserved":false,"is_disabled":false,"rental_uris":{"android":"levelo://app?vid=8504cadd-dfe4-4186-94fe-fef9547528ee","ios":"levelo://app?vid=8504cadd-dfe4-4186-94fe-fef9547528ee"},"vehicle_type_id":"4","last_reported":1744484831,"current_range_meters":12000,"station_id":"ce4bh692rcd13ifvqea0","pricing_plan_id":"cebpf4jnsgd1na2vs0mg"},{"bike_id":"a7898cd8-38c9-4d05-9a5e-aab3523839db","system_id":"levelo_inurba_marseille","lat":43.3128,"lon":5.40155,"is_reserved":false,"is_disabled":false,"rental_uris":{"android":"levelo://app?vid=a7898cd8-38c9-4d05-9a5e-aab3523839db","ios":"levelo://app?vid=a7898cd8-38c9-4d05-9a5e-aab3523839db"},"vehicle_type_id":"4","last_reported":1744484831,"current_range_meters":12000,"station_id":"ce4bh092rcd13ifvqd30","pricing_plan_id":"cebpf4jnsgd1na2vs0mg"},{"bike_id":"61bc6256-8380-4638-bd27-1e2c56ecc87d","system_id":"levelo_inurba_marseille","lat":43.297156,"lon":5.376644,"is_reserved":false,"is_disabled":false,"rental_uris":{"android":"levelo://app?vid=61bc6256-8380-4638-bd27-1e2c56ecc87d","ios":"levelo://app?vid=61bc6256-8380-4638-bd27-1e2c56ecc87d"},"vehicle_type_id":"4","last_reported":1744484831,"current_range_meters":12000,"station_id":"ce4bgkh2rcd13ifvqbl0","pricing_plan_id":"cebpf4jnsgd1na2vs0mg"},{"bike_id":"35a02256-186d-45f4-9af8-a5761f9fd811","system_id":"levelo_inurba_marseille","lat":43.28358,"lon":5.38635,"is_reserved":false,"is_disabled":false,"rental_uris":{"android":"levelo://app?vid=35a02256-186d-45f4-9af8-a5761f9fd811","ios":"levelo://app?vid=35a02256-186d-45f4-9af8-a5761f9fd811"},"vehicle_type_id":"4","last_reported":1744484831,"current_range_meters":12400,"station_id":"ce4bh492rcd13ifvqdvg","pricing_plan_id":"cebpf4jnsgd1na2vs0mg"},{"bike_id":"f7843f46-58aa-4cf6-a1d0-1b94b16f71c2","system_id":"levelo_inurba_marseille","lat":43.29857,"lon":5.39663,"is_reserved":false,"is_disabled":false,"rental_uris":{"android":"levelo://app?vid=f7843f46-58aa-4cf6-a1d0-1b94b16f71c2","ios":"levelo://app?vid=f7843f46-58aa-4cf6-a1d0-1b94b16f71c2"},"vehicle_type_id":"4","last_reported":1744484831,"current_range_meters":12400,"station_id":"ce4bh0h2rcd13ifvqd50","pricing_plan_id":"cebpf4jnsgd1na2vs0mg"},{"bike_id":"3ba11aa6-bd3f-4e3d-84f2-d047f8269d30","system_id":"levelo_inurba_marseille","lat":43.24537,"lon":5.39527,"is_reserved":false,"is_disabled":false,"rental_uris":{"android":"levelo://app?vid=3ba11aa6-bd3f-4e3d-84f2-d047f8269d30","ios":"levelo://app?vid=3ba11aa6-bd3f-4e3d-84f2-d047f8269d30"},"vehicle_type_id":"4","last_reported":1744484831,"current_range_meters":12400,"station_id":"ce4bhlp2rcd13ifvqgjg","pricing_plan_id":"cebpf4jnsgd1na2vs0mg"},{"bike_id":"8cfdd8e4-f709-448e-9292-870783538e35","system_id":"levelo_inurba_marseille","lat":43.337444,"lon":5.374475,"is_reserved":false,"is_disabled":false,"rental_uris":{"android":"levelo://app?vid=8cfdd8e4-f709-448e-9292-870783538e35","ios":"levelo://app?vid=8cfdd8e4-f709-448e-9292-870783538e35"},"vehicle_type_id":"4","last_reported":1744484831,"current_range_meters":12400,"station_id":"","pricing_plan_id":"cebpf4jnsgd1na2vs0mg"},{"bike_id":"3fe50c98-9726-4a0b-bc6a-e1dc0d3bd51e","system_id":"levelo_inurba_marseille","lat":43.300977,"lon":5.390779,"is_reserved":false,"is_disabled":false,"rental_uris":{"android":"levelo://app?vid=3fe50c98-9726-4a0b-bc6a-e1dc0d3bd51e","ios":"levelo://app?vid=3fe50c98-9726-4a0b-bc6a-e1dc0d3bd51e"},"vehicle_type_id":"4","last_reported":1744484831,"current_range_meters":12800,"station_id":"ce4bhop2rcd13ifvqh8g","pricing_plan_id":"cebpf4jnsgd1na2vs0mg"},{"bike_id":"b959a73b-dad7-42bf-9b04-e4d8f2c7221a","system_id":"levelo_inurba_marseille","lat":43.28071,"lon":5.39638,"is_reserved":false,"is_disabled":false,"rental_uris":{"android":"levelo://app?vid=b959a73b-dad7-42bf-9b04-e4d8f2c7221a","ios":"levelo://app?vid=b959a73b-dad7-42bf-9b04-e4d8f2c7221a"},"vehicle_type_id":"4","last_reported":1744484831,"current_range_meters":12800,"station_id":"ce4bho12rcd13ifvqh2g","pricing_plan_id":"cebpf4jnsgd1na2vs0mg"},{"bike_id":"bbd49ae0-30b7-4d43-b868-f0ca84ffd742","system_id":"levelo_inurba_marseille","lat":43.29529,"lon":5.38547,"is_reserved":false,"is_disabled":false,"rental_uris":{"android":"levelo://app?vid=bbd49ae0-30b7-4d43-b868-f0ca84ffd742","ios":"levelo://app?vid=bbd49ae0-30b7-4d43-b868-f0ca84ffd742"},"vehicle_type_id":"4","last_reported":1744484831,"current_range_meters":12800,"station_id":"ce4bgih2rcd13ifvqba0","pricing_plan_id":"cebpf4jnsgd1na2vs0mg"},{"bike_id":"72c6aab6-3a44-430e-a84d-843d2a93e616","system_id":"levelo_inurba_marseille","lat":43.2119,"lon":5.35076,"is_reserved":false,"is_disabled":true,"rental_uris":{"android":"levelo://app?vid=72c6aab6-3a44-430e-a84d-843d2a93e616","ios":"levelo://app?vid=72c6aab6-3a44-430e-a84d-843d2a93e616"},"vehicle_type_id":"4","last_reported":1744484831,"current_range_meters":13600,"station_id":"st_cvj6sg6p6f1abm77japg","pricing_plan_id":"cebpf4jnsgd1na2vs0mg"},{"bike_id":"508ef5b3-911e-424c-8b0c-252daa5e45c1","system_id":"levelo_inurba_marseille","lat":43.3014,"lon":5.37422,"is_reserved":false,"is_disabled":false,"rental_uris":{"android":"levelo://app?vid=508ef5b3-911e-424c-8b0c-252daa5e45c1","ios":"levelo://app?vid=508ef5b3-911e-424c-8b0c-252daa5e45c1"},"vehicle_type_id":"4","last_reported":1744484831,"current_range_meters":13600,"station_id":"ce4bgs92rcd13ifvqcc0","pricing_plan_id":"cebpf4jnsgd1na2vs0mg"},{"bike_id":"6e2ac28e-dfb7-46b8-8016-b7ae92b2a4f0","system_id":"levelo_inurba_marseille","lat":43.27983,"lon":5.40057,"is_reserved":false,"is_disabled":false,"rental_uris":{"android":"levelo://app?vid=6e2ac28e-dfb7-46b8-8016-b7ae92b2a4f0","ios":"levelo://app?vid=6e2ac28e-dfb7-46b8-8016-b7ae92b2a4f0"},"vehicle_type_id":"4","last_reported":1744484831,"current_range_meters":13600,"station_id":"ce4bho92rcd13ifvqh4g","pricing_plan_id":"cebpf4jnsgd1na2vs0mg"},{"bike_id":"e0e59bfb-5088-41a2-835c-398ab715e8d6","system_id":"levelo_inurba_marseille","lat":43.24168,"lon":5.39729,"is_reserved":false,"is_disabled":false,"rental_uris":{"android":"levelo://app?vid=e0e59bfb-5088-41a2-835c-398ab715e8d6","ios":"levelo://app?vid=e0e59bfb-5088-41a2-835c-398ab715e8d6"},"vehicle_type_id":"4","last_reported":1744484831,"current_range_meters":13600,"station_id":"ce4bhn12rcd13ifvqgpg","pricing_plan_id":"cebpf4jnsgd1na2vs0mg"},{"bike_id":"58ac1e55-4bbe-453d-a4ad-5f2509aafb35","system_id":"levelo_inurba_marseille","lat":43.24795,"lon":5.37439,"is_reserved":false,"is_disabled":false,"rental_uris":{"android":"levelo://app?vid=58ac1e55-4bbe-453d-a4ad-5f2509aafb35","ios":"levelo://app?vid=58ac1e55-4bbe-453d-a4ad-5f2509aafb35"},"vehicle_type_id":"4","last_reported":1744484831,"current_range_meters":13600,"station_id":"ce4bhgh2rcd13ifvqfb0","pricing_plan_id":"cebpf4jnsgd1na2vs0mg"},{"bike_id":"8043ed93-c0e0-4b20-a22a-1ce703744524","system_id":"levelo_inurba_marseille","lat":43.2894,"lon":5.36634,"is_reserved":false,"is_disabled":true,"rental_uris":{"android":"levelo://app?vid=8043ed93-c0e0-4b20-a22a-1ce703744524","ios":"levelo://app?vid=8043ed93-c0e0-4b20-a22a-1ce703744524"},"vehicle_type_id":"4","last_reported":1744484831,"current_range_meters":13600,"station_id":"ce4bhap2rcd13ifvqek0","pricing_plan_id":"cebpf4jnsgd1na2vs0mg"},{"bike_id":"c5de9f04-a68c-4314-9995-789e3d717983","system_id":"levelo_inurba_marseille","lat":43.24414,"lon":5.37052,"is_reserved":false,"is_disabled":true,"rental_uris":{"android":"levelo://app?vid=c5de9f04-a68c-4314-9995-789e3d717983","ios":"levelo://app?vid=c5de9f04-a68c-4314-9995-789e3d717983"},"vehicle_type_id":"4","last_reported":1744484831,"current_range_meters":14000,"station_id":"ce4bhhh2rcd13ifvqfk0","pricing_plan_id":"cebpf4jnsgd1na2vs0mg"},{"bike_id":"f1dacd2d-525b-4636-b2df-9cb5a056dc40","system_id":"levelo_inurba_marseille","lat":43.24384,"lon":5.37057,"is_reserved":false,"is_disabled":false,"rental_uris":{"android":"levelo://app?vid=f1dacd2d-525b-4636-b2df-9cb5a056dc40","ios":"levelo://app?vid=f1dacd2d-525b-4636-b2df-9cb5a056dc40"},"vehicle_type_id":"4","last_reported":1744484831,"current_range_meters":14000,"station_id":"ce4bhhh2rcd13ifvqfk0","pricing_plan_id":"cebpf4jnsgd1na2vs0mg"},{"bike_id":"d51a8c93-4a62-49ae-82cb-4bd383d80bde","system_id":"levelo_inurba_marseille","lat":43.28186,"lon":5.42629,"is_reserved":false,"is_disabled":false,"rental_uris":{"android":"levelo://app?vid=d51a8c93-4a62-49ae-82cb-4bd383d80bde","ios":"levelo://app?vid=d51a8c93-4a62-49ae-82cb-4bd383d80bde"},"vehicle_type_id":"4","last_reported":1744484831,"current_range_meters":14000,"station_id":"ce4bhnh2rcd13ifvqgug","pricing_plan_id":"cebpf4jnsgd1na2vs0mg"},{"bike_id":"d85de402-a88e-4a1e-b892-f85632a7e90a","system_id":"levelo_inurba_marseille","lat":43.24385,"lon":5.37053,"is_reserved":false,"is_disabled":false,"rental_uris":{"android":"levelo://app?vid=d85de402-a88e-4a1e-b892-f85632a7e90a","ios":"levelo://app?vid=d85de402-a88e-4a1e-b892-f85632a7e90a"},"vehicle_type_id":"4","last_reported":1744484831,"current_range_meters":14000,"station_id":"ce4bhhh2rcd13ifvqfk0","pricing_plan_id":"cebpf4jnsgd1na2vs0mg"},{"bike_id":"89f7ba9a-432e-4c1c-a4fb-891736c5d094","system_id":"levelo_inurba_marseille","lat":43.28107,"lon":5.37835,"is_reserved":false,"is_disabled":false,"rental_uris":{"android":"levelo://app?vid=89f7ba9a-432e-4c1c-a4fb-891736c5d094","ios":"levelo://app?vid=89f7ba9a-432e-4c1c-a4fb-891736c5d094"},"vehicle_type_id":"4","last_reported":1744484831,"current_range_meters":14400,"station_id":"ce4bha12rcd13ifvqee0","pricing_plan_id":"cebpf4jnsgd1na2vs0mg"},{"bike_id":"ed5b29c1-ac71-487d-a872-61f54e944542","system_id":"levelo_inurba_marseille","lat":43.29289,"lon":5.37441,"is_reserved":false,"is_disabled":false,"rental_uris":{"android":"levelo://app?vid=ed5b29c1-ac71-487d-a872-61f54e944542","ios":"levelo://app?vid=ed5b29c1-ac71-487d-a872-61f54e944542"},"vehicle_type_id":"4","last_reported":1744484831,"current_range_meters":14400,"station_id":"ce4bgi12rcd13ifvqb70","pricing_plan_id":"cebpf4jnsgd1na2vs0mg"},{"bike_id":"2ffdb41b-0a63-41a9-8fa8-3ff51fa4b914","system_id":"levelo_inurba_marseille","lat":43.292666,"lon":5.384366,"is_reserved":false,"is_disabled":false,"rental_uris":{"android":"levelo://app?vid=2ffdb41b-0a63-41a9-8fa8-3ff51fa4b914","ios":"levelo://app?vid=2ffdb41b-0a63-41a9-8fa8-3ff51fa4b914"},"vehicle_type_id":"4","last_reported":1744484831,"current_range_meters":14400,"station_id":"ce4bh692rcd13ifvqea0","pricing_plan_id":"cebpf4jnsgd1na2vs0mg"},{"bike_id":"79908d21-f924-4b23-89f8-93c7954fff35","system_id":"levelo_inurba_marseille","lat":43.286697,"lon":5.386603,"is_reserved":false,"is_disabled":false,"rental_uris":{"android":"levelo://app?vid=79908d21-f924-4b23-89f8-93c7954fff35","ios":"levelo://app?vid=79908d21-f924-4b23-89f8-93c7954fff35"},"vehicle_type_id":"4","last_reported":1744484831,"current_range_meters":14400,"station_id":"ce4bh492rcd13ifvqdug","pricing_plan_id":"cebpf4jnsgd1na2vs0mg"},{"bike_id":"f9a6ff83-9a72-4423-ad48-fc6e48fccf0d","system_id":"levelo_inurba_marseille","lat":43.22508,"lon":5.34798,"is_reserved":false,"is_disabled":false,"rental_uris":{"android":"levelo://app?vid=f9a6ff83-9a72-4423-ad48-fc6e48fccf0d","ios":"levelo://app?vid=f9a6ff83-9a72-4423-ad48-fc6e48fccf0d"},"vehicle_type_id":"4","last_reported":1744484831,"current_range_meters":14800,"station_id":"ce4bgkp2rcd13ifvqbmg","pricing_plan_id":"cebpf4jnsgd1na2vs0mg"},{"bike_id":"4bc96fdf-973c-478b-ac18-983aad95dc76","system_id":"levelo_inurba_marseille","lat":43.26939,"lon":5.4026,"is_reserved":false,"is_disabled":false,"rental_uris":{"android":"levelo://app?vid=4bc96fdf-973c-478b-ac18-983aad95dc76","ios":"levelo://app?vid=4bc96fdf-973c-478b-ac18-983aad95dc76"},"vehicle_type_id":"4","last_reported":1744484831,"current_range_meters":14800,"station_id":"cjm6bp8fraef2m0cb0m0","pricing_plan_id":"cebpf4jnsgd1na2vs0mg"},{"bike_id":"52f14332-6a3f-4979-8272-bc0cc00164ef","system_id":"levelo_inurba_marseille","lat":43.30148,"lon":5.38075,"is_reserved":false,"is_disabled":false,"rental_uris":{"android":"levelo://app?vid=52f14332-6a3f-4979-8272-bc0cc00164ef","ios":"levelo://app?vid=52f14332-6a3f-4979-8272-bc0cc00164ef"},"vehicle_type_id":"4","last_reported":1744484831,"current_range_meters":14800,"station_id":"ce4bgjp2rcd13ifvqbh0","pricing_plan_id":"cebpf4jnsgd1na2vs0mg"},{"bike_id":"f00d1910-1ea6-4270-8faa-9c1822dd8bd0","system_id":"levelo_inurba_marseille","lat":43.30209,"lon":5.39459,"is_reserved":false,"is_disabled":false,"rental_uris":{"android":"levelo://app?vid=f00d1910-1ea6-4270-8faa-9c1822dd8bd0","ios":"levelo://app?vid=f00d1910-1ea6-4270-8faa-9c1822dd8bd0"},"vehicle_type_id":"4","last_reported":1744484831,"current_range_meters":14800,"station_id":"ce4bh0p2rcd13ifvqd70","pricing_plan_id":"cebpf4jnsgd1na2vs0mg"},{"bike_id":"01893ec6-aeeb-481a-b69f-5d9bc7dc6178","system_id":"levelo_inurba_marseille","lat":43.306804,"lon":5.394915,"is_reserved":false,"is_disabled":false,"rental_uris":{"android":"levelo://app?vid=01893ec6-aeeb-481a-b69f-5d9bc7dc6178","ios":"levelo://app?vid=01893ec6-aeeb-481a-b69f-5d9bc7dc6178"},"vehicle_type_id":"4","last_reported":1744484831,"current_range_meters":14800,"station_id":"ce4bh2h2rcd13ifvqdh0","pricing_plan_id":"cebpf4jnsgd1na2vs0mg"},{"bike_id":"a3bf51d9-08b7-458c-9b6d-ef5680cc95d6","system_id":"levelo_inurba_marseille","lat":43.21751,"lon":5.34628,"is_reserved":false,"is_disabled":true,"rental_uris":{"android":"levelo://app?vid=a3bf51d9-08b7-458c-9b6d-ef5680cc95d6","ios":"levelo://app?vid=a3bf51d9-08b7-458c-9b6d-ef5680cc95d6"},"vehicle_type_id":"4","last_reported":1744484831,"current_range_meters":14800,"station_id":"cpo36qri1sfpv3e86is0","pricing_plan_id":"cebpf4jnsgd1na2vs0mg"},{"bike_id":"82d38bd3-c046-4f55-aec8-4eb686f05e29","system_id":"levelo_inurba_marseille","lat":43.229289,"lon":5.353751,"is_reserved":false,"is_disabled":true,"rental_uris":{"android":"levelo://app?vid=82d38bd3-c046-4f55-aec8-4eb686f05e29","ios":"levelo://app?vid=82d38bd3-c046-4f55-aec8-4eb686f05e29"},"vehicle_type_id":"4","last_reported":1744484831,"current_range_meters":14800,"station_id":"cpo3532slgdg3j2ikp40","pricing_plan_id":"cebpf4jnsgd1na2vs0mg"},{"bike_id":"639bc19a-e302-421d-aaf2-658de6b21fe2","system_id":"levelo_inurba_marseille","lat":43.29309,"lon":5.37164,"is_reserved":false,"is_disabled":false,"rental_uris":{"android":"levelo://app?vid=639bc19a-e302-421d-aaf2-658de6b21fe2","ios":"levelo://app?vid=639bc19a-e302-421d-aaf2-658de6b21fe2"},"vehicle_type_id":"4","last_reported":1744484831,"current_range_meters":14800,"station_id":"ce4bgh92rcd13ifvqb40","pricing_plan_id":"cebpf4jnsgd1na2vs0mg"},{"bike_id":"332532c2-3421-4a25-8f03-477521b039b3","system_id":"levelo_inurba_marseille","lat":43.28706,"lon":5.39998,"is_reserved":false,"is_disabled":false,"rental_uris":{"android":"levelo://app?vid=332532c2-3421-4a25-8f03-477521b039b3","ios":"levelo://app?vid=332532c2-3421-4a25-8f03-477521b039b3"},"vehicle_type_id":"4","last_reported":1744484831,"current_range_meters":14800,"station_id":"ce4bho92rcd13ifvqh3g","pricing_plan_id":"cebpf4jnsgd1na2vs0mg"},{"bike_id":"efd328ca-f8bf-4550-bd94-c2fd75978f3c","system_id":"levelo_inurba_marseille","lat":43.33048,"lon":5.38095,"is_reserved":false,"is_disabled":false,"rental_uris":{"android":"levelo://app?vid=efd328ca-f8bf-4550-bd94-c2fd75978f3c","ios":"levelo://app?vid=efd328ca-f8bf-4550-bd94-c2fd75978f3c"},"vehicle_type_id":"4","last_reported":1744484831,"current_range_meters":14800,"station_id":"","pricing_plan_id":"cebpf4jnsgd1na2vs0mg"},{"bike_id":"4bbe6e48-9bfa-4dec-aab0-5597477f7da1","system_id":"levelo_inurba_marseille","lat":43.32412,"lon":5.39141,"is_reserved":false,"is_disabled":false,"rental_uris":{"android":"levelo://app?vid=4bbe6e48-9bfa-4dec-aab0-5597477f7da1","ios":"levelo://app?vid=4bbe6e48-9bfa-4dec-aab0-5597477f7da1"},"vehicle_type_id":"4","last_reported":1744484831,"current_range_meters":14800,"station_id":"","pricing_plan_id":"cebpf4jnsgd1na2vs0mg"},{"bike_id":"763f16f7-a628-4207-a874-9da6a0299631","system_id":"levelo_inurba_marseille","lat":43.28457,"lon":5.38558,"is_reserved":false,"is_disabled":false,"rental_uris":{"android":"levelo://app?vid=763f16f7-a628-4207-a874-9da6a0299631","ios":"levelo://app?vid=763f16f7-a628-4207-a874-9da6a0299631"},"vehicle_type_id":"4","last_reported":1744484831,"current_range_meters":15200,"station_id":"ce4bh8p2rcd13ifvqeb0","pricing_plan_id":"cebpf4jnsgd1na2vs0mg"},{"bike_id":"b207aa94-aa6f-4f0e-92ae-528c6681c054","system_id":"levelo_inurba_marseille","lat":43.29257,"lon":5.409103,"is_reserved":false,"is_disabled":false,"rental_uris":{"android":"levelo://app?vid=b207aa94-aa6f-4f0e-92ae-528c6681c054","ios":"levelo://app?vid=b207aa94-aa6f-4f0e-92ae-528c6681c054"},"vehicle_type_id":"4","last_reported":1744484831,"current_range_meters":15200,"station_id":"ce4bh192rcd13ifvqdc0","pricing_plan_id":"cebpf4jnsgd1na2vs0mg"},{"bike_id":"db9cdcec-b5ee-409b-adf3-2fb9b83088c4","system_id":"levelo_inurba_marseille","lat":43.30972,"lon":5.37359,"is_reserved":false,"is_disabled":false,"rental_uris":{"android":"levelo://app?vid=db9cdcec-b5ee-409b-adf3-2fb9b83088c4","ios":"levelo://app?vid=db9cdcec-b5ee-409b-adf3-2fb9b83088c4"},"vehicle_type_id":"4","last_reported":1744484831,"current_range_meters":15200,"station_id":"","pricing_plan_id":"cebpf4jnsgd1na2vs0mg"},{"bike_id":"4fb61690-7969-4be1-8372-d8a793f14fa1","system_id":"levelo_inurba_marseille","lat":43.305292,"lon":5.367146,"is_reserved":false,"is_disabled":false,"rental_uris":{"android":"levelo://app?vid=4fb61690-7969-4be1-8372-d8a793f14fa1","ios":"levelo://app?vid=4fb61690-7969-4be1-8372-d8a793f14fa1"},"vehicle_type_id":"4","last_reported":1744484831,"current_range_meters":15200,"station_id":"ce4bhs12rcd13ifvqhvg","pricing_plan_id":"cebpf4jnsgd1na2vs0mg"},{"bike_id":"020e9999-d552-48d0-ae5f-b725af0dbea2","system_id":"levelo_inurba_marseille","lat":43.299118,"lon":5.437605,"is_reserved":false,"is_disabled":false,"rental_uris":{"android":"levelo://app?vid=020e9999-d552-48d0-ae5f-b725af0dbea2","ios":"levelo://app?vid=020e9999-d552-48d0-ae5f-b725af0dbea2"},"vehicle_type_id":"4","last_reported":1744484831,"current_range_meters":15200,"station_id":"","pricing_plan_id":"cebpf4jnsgd1na2vs0mg"},{"bike_id":"700d71b5-4c85-431a-b92e-2942edd64ce4","system_id":"levelo_inurba_marseille","lat":43.24803,"lon":5.37456,"is_reserved":false,"is_disabled":false,"rental_uris":{"android":"levelo://app?vid=700d71b5-4c85-431a-b92e-2942edd64ce4","ios":"levelo://app?vid=700d71b5-4c85-431a-b92e-2942edd64ce4"},"vehicle_type_id":"4","last_reported":1744484831,"current_range_meters":16000,"station_id":"ce4bhgh2rcd13ifvqfb0","pricing_plan_id":"cebpf4jnsgd1na2vs0mg"},{"bike_id":"b55dd5e7-54b2-4035-b945-7b626dd7afc7","system_id":"levelo_inurba_marseille","lat":43.27567,"lon":5.409732,"is_reserved":false,"is_disabled":false,"rental_uris":{"android":"levelo://app?vid=b55dd5e7-54b2-4035-b945-7b626dd7afc7","ios":"levelo://app?vid=b55dd5e7-54b2-4035-b945-7b626dd7afc7"},"vehicle_type_id":"4","last_reported":1744484831,"current_range_meters":16000,"station_id":"","pricing_plan_id":"cebpf4jnsgd1na2vs0mg"},{"bike_id":"982bb1bc-457f-43d7-ae21-85035c856353","system_id":"levelo_inurba_marseille","lat":43.22492,"lon":5.34785,"is_reserved":false,"is_disabled":false,"rental_uris":{"android":"levelo://app?vid=982bb1bc-457f-43d7-ae21-85035c856353","ios":"levelo://app?vid=982bb1bc-457f-43d7-ae21-85035c856353"},"vehicle_type_id":"4","last_reported":1744484831,"current_range_meters":16000,"station_id":"st_cvj5dfep6f1abm77gieg","pricing_plan_id":"cebpf4jnsgd1na2vs0mg"},{"bike_id":"2ae5c809-c5d6-480f-b9b1-6456636a5c12","system_id":"levelo_inurba_marseille","lat":43.29422,"lon":5.38618,"is_reserved":false,"is_disabled":false,"rental_uris":{"android":"levelo://app?vid=2ae5c809-c5d6-480f-b9b1-6456636a5c12","ios":"levelo://app?vid=2ae5c809-c5d6-480f-b9b1-6456636a5c12"},"vehicle_type_id":"4","last_reported":1744484831,"current_range_meters":16000,"station_id":"ce4bh2h2rcd13ifvqdh0","pricing_plan_id":"cebpf4jnsgd1na2vs0mg"},{"bike_id":"c2fc3f85-c993-402a-9b5d-446823f8391a","system_id":"levelo_inurba_marseille","lat":43.27067,"lon":5.42277,"is_reserved":false,"is_disabled":false,"rental_uris":{"android":"levelo://app?vid=c2fc3f85-c993-402a-9b5d-446823f8391a","ios":"levelo://app?vid=c2fc3f85-c993-402a-9b5d-446823f8391a"},"vehicle_type_id":"4","last_reported":1744484831,"current_range_meters":15200,"station_id":"ce4bhk92rcd13ifvqgb0","pricing_plan_id":"cebpf4jnsgd1na2vs0mg"},{"bike_id":"a5c42498-573d-4bf6-b5a6-e6a6d09523fd","system_id":"levelo_inurba_marseille","lat":43.2926,"lon":5.38409,"is_reserved":false,"is_disabled":false,"rental_uris":{"android":"levelo://app?vid=a5c42498-573d-4bf6-b5a6-e6a6d09523fd","ios":"levelo://app?vid=a5c42498-573d-4bf6-b5a6-e6a6d09523fd"},"vehicle_type_id":"4","last_reported":1744484831,"current_range_meters":16000,"station_id":"ce4bh692rcd13ifvqea0","pricing_plan_id":"cebpf4jnsgd1na2vs0mg"},{"bike_id":"0eceb99a-0069-41ae-adf2-70785bb6a0d7","system_id":"levelo_inurba_marseille","lat":43.26557,"lon":5.37302,"is_reserved":false,"is_disabled":false,"rental_uris":{"android":"levelo://app?vid=0eceb99a-0069-41ae-adf2-70785bb6a0d7","ios":"levelo://app?vid=0eceb99a-0069-41ae-adf2-70785bb6a0d7"},"vehicle_type_id":"4","last_reported":1744484831,"current_range_meters":16000,"station_id":"ce4bhg12rcd13ifvqf70","pricing_plan_id":"cebpf4jnsgd1na2vs0mg"},{"bike_id":"73bbc97d-2b39-4276-bc22-fd7aa78f429c","system_id":"levelo_inurba_marseille","lat":43.29895,"lon":5.43673,"is_reserved":false,"is_disabled":false,"rental_uris":{"android":"levelo://app?vid=73bbc97d-2b39-4276-bc22-fd7aa78f429c","ios":"levelo://app?vid=73bbc97d-2b39-4276-bc22-fd7aa78f429c"},"vehicle_type_id":"4","last_reported":1744484831,"current_range_meters":16000,"station_id":"ce4bhpp2rcd13ifvqhfg","pricing_plan_id":"cebpf4jnsgd1na2vs0mg"},{"bike_id":"a7934277-5554-4e36-9600-102e4d49fc21","system_id":"levelo_inurba_marseille","lat":43.31325,"lon":5.39691,"is_reserved":false,"is_disabled":false,"rental_uris":{"android":"levelo://app?vid=a7934277-5554-4e36-9600-102e4d49fc21","ios":"levelo://app?vid=a7934277-5554-4e36-9600-102e4d49fc21"},"vehicle_type_id":"4","last_reported":1744484831,"current_range_meters":16000,"station_id":"ce4bgvp2rcd13ifvqcu0","pricing_plan_id":"cebpf4jnsgd1na2vs0mg"},{"bike_id":"3e3b1a23-7181-440d-8f3b-0dcb8bdfe65c","system_id":"levelo_inurba_marseille","lat":43.28721,"lon":5.37938,"is_reserved":false,"is_disabled":false,"rental_uris":{"android":"levelo://app?vid=3e3b1a23-7181-440d-8f3b-0dcb8bdfe65c","ios":"levelo://app?vid=3e3b1a23-7181-440d-8f3b-0dcb8bdfe65c"},"vehicle_type_id":"4","last_reported":1744484831,"current_range_meters":16400,"station_id":"ce4bh9p2rcd13ifvqec0","pricing_plan_id":"cebpf4jnsgd1na2vs0mg"},{"bike_id":"7fcde371-d25e-4ece-a5ce-7303f09f0152","system_id":"levelo_inurba_marseille","lat":43.24808,"lon":5.37461,"is_reserved":false,"is_disabled":false,"rental_uris":{"android":"levelo://app?vid=7fcde371-d25e-4ece-a5ce-7303f09f0152","ios":"levelo://app?vid=7fcde371-d25e-4ece-a5ce-7303f09f0152"},"vehicle_type_id":"4","last_reported":1744484831,"current_range_meters":16400,"station_id":"ce4bhgh2rcd13ifvqfb0","pricing_plan_id":"cebpf4jnsgd1na2vs0mg"},{"bike_id":"f217903b-ab33-4ff9-8b78-ffb80588c0a1","system_id":"levelo_inurba_marseille","lat":43.28078,"lon":5.39648,"is_reserved":false,"is_disabled":false,"rental_uris":{"android":"levelo://app?vid=f217903b-ab33-4ff9-8b78-ffb80588c0a1","ios":"levelo://app?vid=f217903b-ab33-4ff9-8b78-ffb80588c0a1"},"vehicle_type_id":"4","last_reported":1744484831,"current_range_meters":16400,"station_id":"ce4bho12rcd13ifvqh2g","pricing_plan_id":"cebpf4jnsgd1na2vs0mg"},{"bike_id":"2fc88268-9338-4674-a8f4-36dfb8363ca0","system_id":"levelo_inurba_marseille","lat":43.21201,"lon":5.35082,"is_reserved":false,"is_disabled":true,"rental_uris":{"android":"levelo://app?vid=2fc88268-9338-4674-a8f4-36dfb8363ca0","ios":"levelo://app?vid=2fc88268-9338-4674-a8f4-36dfb8363ca0"},"vehicle_type_id":"4","last_reported":1744484831,"current_range_meters":16400,"station_id":"st_cvj6sg6p6f1abm77japg","pricing_plan_id":"cebpf4jnsgd1na2vs0mg"},{"bike_id":"d8b9884b-4022-4710-9f87-50e0dbfd421d","system_id":"levelo_inurba_marseille","lat":43.24161,"lon":5.36396,"is_reserved":false,"is_disabled":false,"rental_uris":{"android":"levelo://app?vid=d8b9884b-4022-4710-9f87-50e0dbfd421d","ios":"levelo://app?vid=d8b9884b-4022-4710-9f87-50e0dbfd421d"},"vehicle_type_id":"4","last_reported":1744484831,"current_range_meters":16400,"station_id":"cpo36qri1sfpv3e86is0","pricing_plan_id":"cebpf4jnsgd1na2vs0mg"},