{"last_updated":1731391961,"ttl":60,"version":"2.2","data":{"bikes":[{"bike_id":"2afb4c00-67cc-42f1-ae32-502f5aecb4b2","system_id":"levelo_inurba_marseille","lat":43.24081,"lon":5.37736,"is_reserved":false,"is_disabled":false,"rental_uris":{"android":"levelo://app?vid=2afb4c00-67cc-42f1-ae32-502f5aecb4b2","ios":"levelo://app?vid=2afb4c00-67cc-42f1-ae32-502f5aecb4b2"},"vehicle_type_id":"4","last_reported":1731391961,"current_range_meters":30400,"station_id":"ce4bhnp2rcd13ifvqgvg","pricing_plan_id":"cebpf4jnsgd1na2vs0mg"},{"bike_id":"55f338da-564d-4339-bcb5-5d0a4b68c4e6","system_id":"levelo_inurba_marseille","lat":43.31072,"lon":5.40092,"is_reserved":false,"is_disabled":false,"rental_uris":{"android":"levelo://app?vid=55f338da-564d-4339-bcb5-5d0a4b68c4e6","ios":"levelo://app?vid=55f338da-564d-4339-bcb5-5d0a4b68c4e6"},"vehicle_type_id":"4","last_reported":1731391961,"current_range_meters":6400,"station_id":"","pricing_plan_id":"cebpf4jnsgd1na2vs0mg"},{"bike_id":"7d263089-dc22-413a-b37a-45490641fd7e","system_id":"levelo_inurba_marseille","lat":43.29283,"lon":5.40132,"is_reserved":false,"is_disabled":false,"rental_uris":{"android":"levelo://app?vid=7d263089-dc22-413a-b37a-45490641fd7e","ios":"levelo://app?vid=7d263089-dc22-413a-b37a-45490641fd7e"},"vehicle_type_id":"4","last_reported":1731391961,"current_range_meters":38800,"station_id":"ce4bh312rcd13ifvqdk0","pricing_plan_id":"cebpf4jnsgd1na2vs0mg"},{"bike_id":"72a438cb-efaa-4efb-a77c-0d6f80cf669a","system_id":"levelo_inurba_marseille","lat":43.28659,"lon":5.38667,"is_reserved":false,"is_disabled":false,"rental_uris":{"android":"levelo://app?vid=72a438cb-efaa-4efb-a77c-0d6f80cf669a","ios":"levelo://app?vid=72a438cb-efaa-4efb-a77c-0d6f80cf669a"},"vehicle_type_id":"4","last_reported":1731391961,"current_range_meters":36400,"station_id":"ce4bh492rcd13ifvqdug","pricing_plan_id":"cebpf4jnsgd1na2vs0mg"},{"bike_id":"7cfe6e23-1bc9-4580-9cde-63420454d057","system_id":"levelo_inurba_marseille","lat":43.27995,"lon":5.40014,"is_reserved":false,"is_disabled":false,"rental_uris":{"android":"levelo://app?vid=7cfe6e23-1bc9-4580-9cde-63420454d057","ios":"levelo://app?vid=7cfe6e23-1bc9-4580-9cde-63420454d057"},"vehicle_type_id":"4","last_reported":1731391961,"current_range_meters":30400,"station_id":"ce4bho92rcd13ifvqh4g","pricing_plan_id":"cebpf4jnsgd1na2vs0mg"},{"bike_id":"46a734c9-731d-4b21-a099-1ea1e56e747b","system_id":"levelo_inurba_marseille","lat":43.25577,"lon":5.3825,"is_reserved":false,"is_disabled":false,"rental_uris":{"android":"levelo://app?vid=46a734c9-731d-4b21-a099-1ea1e56e747b","ios":"levelo://app?vid=46a734c9-731d-4b21-a099-1ea1e56e747b"},"vehicle_type_id":"4","last_reported":1731391961,"current_range_meters":33600,"station_id":"ce4bhih2rcd13ifvqfs0","pricing_plan_id":"cebpf4jnsgd1na2vs0mg"},{"bike_id":"2eceb2f4-769e-4e99-b9fa-40ec7b652382","system_id":"levelo_inurba_marseille","lat":43.26191,"lon":5.37923,"is_reserved":false,"is_disabled":false,"rental_uris":{"android":"levelo://app?vid=2eceb2f4-769e-4e99-b9fa-40ec7b652382","ios":"levelo://app?vid=2eceb2f4-769e-4e99-b9fa-40ec7b652382"},"vehicle_type_id":"4","last_reported":1731391961,"current_range_meters":27600,"station_id":"ce4bhjp2rcd13ifvqg90","pricing_plan_id":"cebpf4jnsgd1na2vs0mg"},{"bike_id":"4168f567-a5e4-49ac-b248-24fb5a42d61e","system_id":"levelo_inurba_marseille","lat":43.30857,"lon":5.39676,"is_reserved":false,"is_disabled":false,"rental_uris":{"android":"levelo://app?vid=4168f567-a5e4-49ac-b248-24fb5a42d61e","ios":"levelo://app?vid=4168f567-a5e4-49ac-b248-24fb5a42d61e"},"vehicle_type_id":"4","last_reported":1731391961,"current_range_meters":38400,"station_id":"ce4bh012rcd13ifvqcv0","pricing_plan_id":"cebpf4jnsgd1na2vs0mg"},{"bike_id":"c1d4d46f-68bb-4094-ab1c-6d66217cdb82","system_id":"levelo_inurba_marseille","lat":43.31301,"lon":5.39709,"is_reserved":false,"is_disabled":false,"rental_uris":{"android":"levelo://app?vid=c1d4d46f-68bb-4094-ab1c-6d66217cdb82","ios":"levelo://app?vid=c1d4d46f-68bb-4094-ab1c-6d66217cdb82"},"vehicle_type_id":"4","last_reported":1731391961,"current_range_meters":20000,"station_id":"ce4bgvp2rcd13ifvqcu0","pricing_plan_id":"cebpf4jnsgd1na2vs0mg"},{"bike_id":"e8f6a345-613f-4d73-b3c6-ff7badec834d","system_id":"levelo_inurba_marseille","lat":43.2919,"lon":5.39317,"is_reserved":false,"is_disabled":false,"rental_uris":{"android":"levelo://app?vid=e8f6a345-613f-4d73-b3c6-ff7badec834d","ios":"levelo://app?vid=e8f6a345-613f-4d73-b3c6-ff7badec834d"},"vehicle_type_id":"4","last_reported":1731391961,"current_range_meters":33600,"station_id":"ce4bh192rcd13ifvqdd0","pricing_plan_id":"cebpf4jnsgd1na2vs0mg"},{"bike_id":"4ccb39fd-08bd-44de-af17-39c187587375","system_id":"levelo_inurba_marseille","lat":43.28406,"lon":5.37513,"is_reserved":false,"is_disabled":false,"rental_uris":{"android":"levelo://app?vid=4ccb39fd-08bd-44de-af17-39c187587375","ios":"levelo://app?vid=4ccb39fd-08bd-44de-af17-39c187587375"},"vehicle_type_id":"4","last_reported":1731391961,"current_range_meters":2800,"station_id":"ce4bh412rcd13ifvqds0","pricing_plan_id":"cebpf4jnsgd1na2vs0mg"},{"bike_id":"5f671af9-34ec-4500-b1fd-c7f28d715cb9","system_id":"levelo_inurba_marseille","lat":43.28723,"lon":5.36077,"is_reserved":false,"is_disabled":false,"rental_uris":{"android":"levelo://app?vid=5f671af9-34ec-4500-b1fd-c7f28d715cb9","ios":"levelo://app?vid=5f671af9-34ec-4500-b1fd-c7f28d715cb9"},"vehicle_type_id":"4","last_reported":1731391961,"current_range_meters":39200,"station_id":"cki0cbj6b192h4jlfktg","pricing_plan_id":"cebpf4jnsgd1na2vs0mg"},{"bike_id":"b5a0f60d-ed4f-4aae-8034-67433a67b848","system_id":"levelo_inurba_marseille","lat":43.290391,"lon":5.399584,"is_reserved":false,"is_disabled":false,"rental_uris":{"android":"levelo://app?vid=b5a0f60d-ed4f-4aae-8034-67433a67b848","ios":"levelo://app?vid=b5a0f60d-ed4f-4aae-8034-67433a67b848"},"vehicle_type_id":"4","last_reported":1731391961,"current_range_meters":39200,"station_id":"ce4bh392rcd13ifvqdm0","pricing_plan_id":"cebpf4jnsgd1na2vs0mg"},{"bike_id":"d58636f1-224d-48a3-ac68-59d52e30576f","system_id":"levelo_inurba_marseille","lat":43.32364,"lon":5.38892,"is_reserved":false,"is_disabled":false,"rental_uris":{"android":"levelo://app?vid=d58636f1-224d-48a3-ac68-59d52e30576f","ios":"levelo://app?vid=d58636f1-224d-48a3-ac68-59d52e30576f"},"vehicle_type_id":"4","last_reported":1731391961,"current_range_meters":30800,"station_id":"ce4bhqp2rcd13ifvqhog","pricing_plan_id":"cebpf4jnsgd1na2vs0mg"},{"bike_id":"00f7bd09-eb18-4ae0-9231-d3b4d0bbc19e","system_id":"levelo_inurba_marseille","lat":43.28391,"lon":5.37521,"is_reserved":false,"is_disabled":false,"rental_uris":{"android":"levelo://app?vid=00f7bd09-eb18-4ae0-9231-d3b4d0bbc19e","ios":"levelo://app?vid=00f7bd09-eb18-4ae0-9231-d3b4d0bbc19e"},"vehicle_type_id":"4","last_reported":1731391961,"current_range_meters":38000,"station_id":"ce4bh412rcd13ifvqds0","pricing_plan_id":"cebpf4jnsgd1na2vs0mg"},{"bike_id":"9a1b4d69-8325-4626-9aa5-4818992ac8e2","system_id":"levelo_inurba_marseille","lat":43.258244,"lon":5.394374,"is_reserved":false,"is_disabled":false,"rental_uris":{"android":"levelo://app?vid=9a1b4d69-8325-4626-9aa5-4818992ac8e2","ios":"levelo://app?vid=9a1b4d69-8325-4626-9aa5-4818992ac8e2"},"vehicle_type_id":"4","last_reported":1731391961,"current_range_meters":37600,"station_id":"ce4bhip2rcd13ifvqft0","pricing_plan_id":"cebpf4jnsgd1na2vs0mg"},{"bike_id":"2975b360-6237-4f5a-9de6-fa109896853a","system_id":"levelo_inurba_marseille","lat":43.28149,"lon":5.42646,"is_reserved":false,"is_disabled":false,"rental_uris":{"android":"levelo://app?vid=2975b360-6237-4f5a-9de6-fa109896853a","ios":"levelo://app?vid=2975b360-6237-4f5a-9de6-fa109896853a"},"vehicle_type_id":"4","last_reported":1731391961,"current_range_meters":28800,"station_id":"ce4bhnh2rcd13ifvqgug","pricing_plan_id":"cebpf4jnsgd1na2vs0mg"},{"bike_id":"b3e9156c-7ae6-49e2-9b82-9b89f0e3e830","system_id":"levelo_inurba_marseille","lat":43.28612,"lon":5.35093,"is_reserved":false,"is_disabled":false,"rental_uris":{"android":"levelo://app?vid=b3e9156c-7ae6-49e2-9b82-9b89f0e3e830","ios":"levelo://app?vid=b3e9156c-7ae6-49e2-9b82-9b89f0e3e830"},"vehicle_type_id":"4","last_reported":1731391961,"current_range_meters":24400,"station_id":"ce4bhch2rcd13ifvqeug","pricing_plan_id":"cebpf4jnsgd1na2vs0mg"},{"bike_id":"6e62b74d-c3a1-441b-bf00-0e1651e4eb84","system_id":"levelo_inurba_marseille","lat":43.28259,"lon":5.35072,"is_reserved":false,"is_disabled":false,"rental_uris":{"android":"levelo://app?vid=6e62b74d-c3a1-441b-bf00-0e1651e4eb84","ios":"levelo://app?vid=6e62b74d-c3a1-441b-bf00-0e1651e4eb84"},"vehicle_type_id":"4","last_reported":1731391961,"current_range_meters":18800,"station_id":"ce4bhbp2rcd13ifvqerg","pricing_plan_id":"cebpf4jnsgd1na2vs0mg"},{"bike_id":"af4b16b2-2793-4fea-9648-ff15d2a07b3d","system_id":"levelo_inurba_marseille","lat":43.25085,"lon":5.39523,"is_reserved":false,"is_disabled":false,"rental_uris":{"android":"levelo://app?vid=af4b16b2-2793-4fea-9648-ff15d2a07b3d","ios":"levelo://app?vid=af4b16b2-2793-4fea-9648-ff15d2a07b3d"},"vehicle_type_id":"4","last_reported":1731391961,"current_range_meters":39200,"station_id":"ce4bhm12rcd13ifvqgkg","pricing_plan_id":"cebpf4jnsgd1na2vs0mg"},{"bike_id":"7b62d9a1-4410-4919-b265-e09aff197a53","system_id":"levelo_inurba_marseille","lat":43.2707,"lon":5.42276,"is_reserved":false,"is_disabled":false,"rental_uris":{"android":"levelo://app?vid=7b62d9a1-4410-4919-b265-e09aff197a53","ios":"levelo://app?vid=7b62d9a1-4410-4919-b265-e09aff197a53"},"vehicle_type_id":"4","last_reported":1731391961,"current_range_meters":38800,"station_id":"ce4bhk92rcd13ifvqgb0","pricing_plan_id":"cebpf4jnsgd1na2vs0mg"},{"bike_id":"ae6df8b6-b947-4982-b485-c1304b8fa66e","system_id":"levelo_inurba_marseille","lat":43.287234,"lon":5.360891,"is_reserved":false,"is_disabled":false,"rental_uris":{"android":"levelo://app?vid=ae6df8b6-b947-4982-b485-c1304b8fa66e","ios":"levelo://app?vid=ae6df8b6-b947-4982-b485-c1304b8fa66e"},"vehicle_type_id":"4","last_reported":1731391961,"current_range_meters":34800,"station_id":"cki0cbj6b192h4jlfktg","pricing_plan_id":"cebpf4jnsgd1na2vs0mg"},{"bike_id":"2bf17b7d-6c5d-4291-a5db-173f19a13335","system_id":"levelo_inurba_marseille","lat":43.24651,"lon":5.389,"is_reserved":false,"is_disabled":false,"rental_uris":{"android":"levelo://app?vid=2bf17b7d-6c5d-4291-a5db-173f19a13335","ios":"levelo://app?vid=2bf17b7d-6c5d-4291-a5db-173f19a13335"},"vehicle_type_id":"4","last_reported":1731391961,"current_range_meters":31200,"station_id":"ce4bhg12rcd13ifvqf60","pricing_plan_id":"cebpf4jnsgd1na2vs0mg"},{"bike_id":"1ec31f50-d96c-47c6-9806-96f227089cd4","system_id":"levelo_inurba_marseille","lat":43.27492,"lon":5.42459,"is_reserved":false,"is_disabled":false,"rental_uris":{"android":"levelo://app?vid=1ec31f50-d96c-47c6-9806-96f227089cd4","ios":"levelo://app?vid=1ec31f50-d96c-47c6-9806-96f227089cd4"},"vehicle_type_id":"4","last_reported":1731391961,"current_range_meters":34000,"station_id":"ce4bhn92rcd13ifvqgrg","pricing_plan_id":"cebpf4jnsgd1na2vs0mg"},{"bike_id":"afc3c5b0-3896-4b74-beef-f6846cc7e6a4","system_id":"levelo_inurba_marseille","lat":43.31174,"lon":5.38712,"is_reserved":false,"is_disabled":false,"rental_uris":{"android":"levelo://app?vid=afc3c5b0-3896-4b74-beef-f6846cc7e6a4","ios":"levelo://app?vid=afc3c5b0-3896-4b74-beef-f6846cc7e6a4"},"vehicle_type_id":"4","last_reported":1731391961,"current_range_meters":38800,"station_id":"ce4bgv12rcd13ifvqcp0","pricing_plan_id":"cebpf4jnsgd1na2vs0mg"},{"bike_id":"32f97dc1-ce31-40f8-b00d-0551dfc7143c","system_id":"levelo_inurba_marseille","lat":43.30947,"lon":5.39046,"is_reserved":false,"is_disabled":false,"rental_uris":{"android":"levelo://app?vid=32f97dc1-ce31-40f8-b00d-0551dfc7143c","ios":"levelo://app?vid=32f97dc1-ce31-40f8-b00d-0551dfc7143c"},"vehicle_type_id":"4","last_reported":1731391961,"current_range_meters":38800,"station_id":"ce4bgup2rcd13ifvqco0","pricing_plan_id":"cebpf4jnsgd1na2vs0mg"},{"bike_id":"86a1e8ec-924c-482f-a632-e7f0600dca6f","system_id":"levelo_inurba_marseille","lat":43.33628,"lon":5.41037,"is_reserved":false,"is_disabled":false,"rental_uris":{"android":"levelo://app?vid=86a1e8ec-924c-482f-a632-e7f0600dca6f","ios":"levelo://app?vid=86a1e8ec-924c-482f-a632-e7f0600dca6f"},"vehicle_type_id":"4","last_reported":1731391961,"current_range_meters":38000,"station_id":"ce4bhqh2rcd13ifvqhmg","pricing_plan_id":"cebpf4jnsgd1na2vs0mg"},{"bike_id":"b8bf28fc-ee2d-4f5e-a43c-f7d17e20cb2e","system_id":"levelo_inurba_marseille","lat":43.2846,"lon":5.38533,"is_reserved":false,"is_disabled":false,"rental_uris":{"android":"levelo://app?vid=b8bf28fc-ee2d-4f5e-a43c-f7d17e20cb2e","ios":"levelo://app?vid=b8bf28fc-ee2d-4f5e-a43c-f7d17e20cb2e"},"vehicle_type_id":"4","last_reported":1731391961,"current_range_meters":24400,"station_id":"ce4bh8p2rcd13ifvqeb0","pricing_plan_id":"cebpf4jnsgd1na2vs0mg"},{"bike_id":"3e25259a-32b2-4300-b973-f9735b11d56c","system_id":"levelo_inurba_marseille","lat":43.30423,"lon":5.39748,"is_reserved":false,"is_disabled":false,"rental_uris":{"android":"levelo://app?vid=3e25259a-32b2-4300-b973-f9735b11d56c","ios":"levelo://app?vid=3e25259a-32b2-4300-b973-f9735b11d56c"},"vehicle_type_id":"4","last_reported":1731391961,"current_range_meters":31200,"station_id":"ce4bh092rcd13ifvqd20","pricing_plan_id":"cebpf4jnsgd1na2vs0mg"},{"bike_id":"621b9599-71ec-4c56-8b3b-21f11173c704","system_id":"levelo_inurba_marseille","lat":43.30211,"lon":5.39474,"is_reserved":false,"is_disabled":false,"rental_uris":{"android":"levelo://app?vid=621b9599-71ec-4c56-8b3b-21f11173c704","ios":"levelo://app?vid=621b9599-71ec-4c56-8b3b-21f11173c704"},"vehicle_type_id":"4","last_reported":1731391961,"current_range_meters":37600,"station_id":"ce4bh0p2rcd13ifvqd70","pricing_plan_id":"cebpf4jnsgd1na2vs0mg"},{"bike_id":"a76dcffa-3fcf-4c4b-97c6-84d62e8f453f","system_id":"levelo_inurba_marseille","lat":43.28087,"lon":5.39662,"is_reserved":false,"is_disabled":false,"rental_uris":{"android":"levelo://app?vid=a76dcffa-3fcf-4c4b-97c6-84d62e8f453f","ios":"levelo://app?vid=a76dcffa-3fcf-4c4b-97c6-84d62e8f453f"},"vehicle_type_id":"4","last_reported":1731391961,"current_range_meters":34000,"station_id":"ce4bho12rcd13ifvqh2g","pricing_plan_id":"cebpf4jnsgd1na2vs0mg"},{"bike_id":"55f1a7c3-896e-434c-b890-0d70bff8f621","system_id":"levelo_inurba_marseille","lat":43.24645,"lon":5.38891,"is_reserved":false,"is_disabled":false,"rental_uris":{"android":"levelo://app?vid=55f1a7c3-896e-434c-b890-0d70bff8f621","ios":"levelo://app?vid=55f1a7c3-896e-434c-b890-0d70bff8f621"},"vehicle_type_id":"4","last_reported":1731391961,"current_range_meters":11600,"station_id":"ce4bhg12rcd13ifvqf60","pricing_plan_id":"cebpf4jnsgd1na2vs0mg"},{"bike_id":"4839c812-e2cb-432b-a0ef-e2817e346c52","system_id":"levelo_inurba_marseille","lat":43.291988,"lon":5.393193,"is_reserved":false,"is_disabled":false,"rental_uris":{"android":"levelo://app?vid=4839c812-e2cb-432b-a0ef-e2817e346c52","ios":"levelo://app?vid=4839c812-e2cb-432b-a0ef-e2817e346c52"},"vehicle_type_id":"4","last_reported":1731391961,"current_range_meters":36800,"station_id":"ce4bh192rcd13ifvqdd0","pricing_plan_id":"cebpf4jnsgd1na2vs0mg"},{"bike_id":"ddb46d32-a809-4e74-a10a-eb15b0ade389","system_id":"levelo_inurba_marseille","lat":43.32656,"lon":5.40984,"is_reserved":false,"is_disabled":false,"rental_uris":{"android":"levelo://app?vid=ddb46d32-a809-4e74-a10a-eb15b0ade389","ios":"levelo://app?vid=ddb46d32-a809-4e74-a10a-eb15b0ade389"},"vehicle_type_id":"4","last_reported":1731391961,"current_range_meters":33200,"station_id":"ce4bhpp2rcd13ifvqhgg","pricing_plan_id":"cebpf4jnsgd1na2vs0mg"},{"bike_id":"f319df9a-050c-4060-9f27-484a66d802a2","system_id":"levelo_inurba_marseille","lat":43.29038,"lon":5.3995,"is_reserved":false,"is_disabled":false,"rental_uris":{"android":"levelo://app?vid=f319df9a-050c-4060-9f27-484a66d802a2","ios":"levelo://app?vid=f319df9a-050c-4060-9f27-484a66d802a2"},"vehicle_type_id":"4","last_reported":1731391961,"current_range_meters":22400,"station_id":"ce4bh392rcd13ifvqdm0","pricing_plan_id":"cebpf4jnsgd1na2vs0mg"},{"bike_id":"a7d71a95-aff9-47f9-8c01-defabf3b40db","system_id":"levelo_inurba_marseille","lat":43.28155,"lon":5.4265,"is_reserved":false,"is_disabled":false,"rental_uris":{"android":"levelo://app?vid=a7d71a95-aff9-47f9-8c01-defabf3b40db","ios":"levelo://app?vid=a7d71a95-aff9-47f9-8c01-defabf3b40db"},"vehicle_type_id":"4","last_reported":1731391961,"current_range_meters":8000,"station_id":"ce4bhnh2rcd13ifvqgug","pricing_plan_id":"cebpf4jnsgd1na2vs0mg"},{"bike_id":"471e1f62-51e4-4556-bb48-2828e393c998","system_id":"levelo_inurba_marseille","lat":43.31995,"lon":5.38146,"is_reserved":false,"is_disabled":false,"rental_uris":{"android":"levelo://app?vid=471e1f62-51e4-4556-bb48-2828e393c998","ios":"levelo://app?vid=471e1f62-51e4-4556-bb48-2828e393c998"},"vehicle_type_id":"4","last_reported":1731391961,"current_range_meters":38800,"station_id":"ce4bhr12rcd13ifvqhpg","pricing_plan_id":"cebpf4jnsgd1na2vs0mg"},{"bike_id":"30e18bba-f22a-4dbe-9837-4f97a1a00fad","system_id":"levelo_inurba_marseille","lat":43.31327,"lon":5.39695,"is_reserved":false,"is_disabled":false,"rental_uris":{"android":"levelo://app?vid=30e18bba-f22a-4dbe-9837-4f97a1a00fad","ios":"levelo://app?vid=30e18bba-f22a-4dbe-9837-4f97a1a00fad"},"vehicle_type_id":"4","last_reported":1731391961,"current_range_meters":39200,"station_id":"ce4bgvp2rcd13ifvqcu0","pricing_plan_id":"cebpf4jnsgd1na2vs0mg"},{"bike_id":"ffc8eba4-be35-43f2-b2db-219ce36ce8d6","system_id":"levelo_inurba_marseille","lat":43.29033,"lon":5.39967,"is_reserved":false,"is_disabled":false,"rental_uris":{"android":"levelo://app?vid=ffc8eba4-be35-43f2-b2db-219ce36ce8d6","ios":"levelo://app?vid=ffc8eba4-be35-43f2-b2db-219ce36ce8d6"},"vehicle_type_id":"4","last_reported":1731391961,"current_range_meters":8000,"station_id":"ce4bh392rcd13ifvqdm0","pricing_plan_id":"cebpf4jnsgd1na2vs0mg"},{"bike_id":"ce71d16e-828d-465e-b8f9-c4f23825cc86","system_id":"levelo_inurba_marseille","lat":43.29279,"lon":5.40123,"is_reserved":false,"is_disabled":false,"rental_uris":{"android":"levelo://app?vid=ce71d16e-828d-465e-b8f9-c4f23825cc86","ios":"levelo://app?vid=ce71d16e-828d-465e-b8f9-c4f23825cc86"},"vehicle_type_id":"4","last_reported":1731391961,"current_range_meters":32800,"station_id":"ce4bh312rcd13ifvqdk0","pricing_plan_id":"cebpf4jnsgd1na2vs0mg"},{"bike_id":"726b9c0d-286a-4c11-b2b0-75d926084ee3","system_id":"levelo_inurba_marseille","lat":43.2928,"lon":5.40121,"is_reserved":false,"is_disabled":false,"rental_uris":{"android":"levelo://app?vid=726b9c0d-286a-4c11-b2b0-75d926084ee3","ios":"levelo://app?vid=726b9c0d-286a-4c11-b2b0-75d926084ee3"},"vehicle_type_id":"4","last_reported":1731391961,"current_range_meters":19200,"station_id":"ce4bh312rcd13ifvqdk0","pricing_plan_id":"cebpf4jnsgd1na2vs0mg"},{"bike_id":"ac866058-58cc-424f-a2d8-5116ec51e77c","system_id":"levelo_inurba_marseille","lat":43.29039,"lon":5.39956,"is_reserved":false,"is_disabled":false,"rental_uris":{"android":"levelo://app?vid=ac866058-58cc-424f-a2d8-5116ec51e77c","ios":"levelo://app?vid=ac866058-58cc-424f-a2d8-5116ec51e77c"},"vehicle_type_id":"4","last_reported":1731391961,"current_range_meters":19600,"station_id":"ce4bh392rcd13ifvqdm0","pricing_plan_id":"cebpf4jnsgd1na2vs0mg"},{"bike_id":"213ebe40-36f1-4662-b159-1ff1ce218bf9","system_id":"levelo_inurba_marseille","lat":43.31711,"lon":5.37761,"is_reserved":false,"is_disabled":false,"rental_uris":{"android":"levelo://app?vid=213ebe40-36f1-4662-b159-1ff1ce218bf9","ios":"levelo://app?vid=213ebe40-36f1-4662-b159-1ff1ce218bf9"},"vehicle_type_id":"4","last_reported":1731391961,"current_range_meters":38800,"station_id":"ce4bgth2rcd13ifvqch0","pricing_plan_id":"cebpf4jnsgd1na2vs0mg"},{"bike_id":"d9a23c15-de1b-409c-a1bb-c645bf0c824f","system_id":"levelo_inurba_marseille","lat":43.28675,"lon":5.36343,"is_reserved":false,"is_disabled":false,"rental_uris":{"android":"levelo://app?vid=d9a23c15-de1b-409c-a1bb-c645bf0c824f","ios":"levelo://app?vid=d9a23c15-de1b-409c-a1bb-c645bf0c824f"},"vehicle_type_id":"4","last_reported":1731391961,"current_range_meters":38800,"station_id":"ce4bhah2rcd13ifvqej0","pricing_plan_id":"cebpf4jnsgd1na2vs0mg"},{"bike_id":"fa0311f8-b23f-406e-a708-49eae5db2178","system_id":"levelo_inurba_marseille","lat":43.25868,"lon":5.39903,"is_reserved":false,"is_disabled":false,"rental_uris":{"android":"levelo://app?vid=fa0311f8-b23f-406e-a708-49eae5db2178","ios":"levelo://app?vid=fa0311f8-b23f-406e-a708-49eae5db2178"},"vehicle_type_id":"4","last_reported":1731391961,"current_range_meters":38800,"station_id":"ce4bhl92rcd13ifvqghg","pricing_plan_id":"cebpf4jnsgd1na2vs0mg"},{"bike_id":"1705acf6-cea9-4982-a674-d2c551a557e1","system_id":"levelo_inurba_marseille","lat":43.26955,"lon":5.38633,"is_reserved":false,"is_disabled":false,"rental_uris":{"android":"levelo://app?vid=1705acf6-cea9-4982-a674-d2c551a557e1","ios":"levelo://app?vid=1705acf6-cea9-4982-a674-d2c551a557e1"},"vehicle_type_id":"4","last_reported":1731391961,"current_range_meters":38000,"station_id":"ce4bhh92rcd13ifvqfh0","pricing_plan_id":"cebpf4jnsgd1na2vs0mg"},{"bike_id":"639e350b-e8f2-4cb1-be79-9adcdba8f7fa","system_id":"levelo_inurba_marseille","lat":43.2848,"lon":5.38429,"is_reserved":false,"is_disabled":false,"rental_uris":{"android":"levelo://app?vid=639e350b-e8f2-4cb1-be79-9adcdba8f7fa","ios":"levelo://app?vid=639e350b-e8f2-4cb1-be79-9adcdba8f7fa"},"vehicle_type_id":"4","last_reported":1731391961,"current_range_meters":38800,"station_id":"ce4bh512rcd13ifvqe3g","pricing_plan_id":"cebpf4jnsgd1na2vs0mg"},{"bike_id":"0dfb8114-f805-4c44-8680-f6e7b2a97375","system_id":"levelo_inurba_marseille","lat":43.27968,"lon":5.38744,"is_reserved":false,"is_disabled":false,"rental_uris":{"android":"levelo://app?vid=0dfb8114-f805-4c44-8680-f6e7b2a97375","ios":"levelo://app?vid=0dfb8114-f805-4c44-8680-f6e7b2a97375"},"vehicle_type_id":"4","last_reported":1731391961,"current_range_meters":37600,"station_id":"ce4bhg12rcd13ifvqf80","pricing_plan_id":"cebpf4jnsgd1na2vs0mg"},{"bike_id":"047fda03-fe7d-4b79-a357-2b6fc387f4c3","system_id":"levelo_inurba_marseille","lat":43.31321,"lon":5.39702,"is_reserved":false,"is_disabled":false,"rental_uris":{"android":"levelo://app?vid=047fda03-fe7d-4b79-a357-2b6fc387f4c3","ios":"levelo://app?vid=047fda03-fe7d-4b79-a357-2b6fc387f4c3"},"vehicle_type_id":"4","last_reported":1731391961,"current_range_meters":39200,"station_id":"ce4bgvp2rcd13ifvqcu0","pricing_plan_id":"cebpf4jnsgd1na2vs0mg"},{"bike_id":"c976cdde-0993-47a0-9228-5a2ed120aff4","system_id":"levelo_inurba_marseille","lat":43.27568,"lon":5.38431,"is_reserved":false,"is_disabled":false,"rental_uris":{"android":"levelo://app?vid=c976cdde-0993-47a0-9228-5a2ed120aff4","ios":"levelo://app?vid=c976cdde-0993-47a0-9228-5a2ed120aff4"},"vehicle_type_id":"4","last_reported":1731391961,"current_range_meters":7200,"station_id":"ce4bhh92rcd13ifvqfi0","pricing_plan_id":"cebpf4jnsgd1na2vs0mg"},{"bike_id":"2972f759-c98e-4fe7-9758-85d215895273","system_id":"levelo_inurba_marseille","lat":43.23956,"lon":5.36626,"is_reserved":false,"is_disabled":false,"rental_uris":{"android":"levelo://app?vid=2972f759-c98e-4fe7-9758-85d215895273","ios":"levelo://app?vid=2972f759-c98e-4fe7-9758-85d215895273"},"vehicle_type_id":"4","last_reported":1731391961,"current_range_meters":27600,"station_id":"ce4bhi12rcd13ifvqfp0","pricing_plan_id":"cebpf4jnsgd1na2vs0mg"},{"bike_id":"d0ef08cf-1a61-4d5a-9612-ccfee90a1e32","system_id":"levelo_inurba_marseille","lat":43.24814,"lon":5.37458,"is_reserved":false,"is_disabled":false,"rental_uris":{"android":"levelo://app?vid=d0ef08cf-1a61-4d5a-9612-ccfee90a1e32","ios":"levelo://app?vid=d0ef08cf-1a61-4d5a-9612-ccfee90a1e32"},"vehicle_type_id":"4","last_reported":1731391961,"current_range_meters":38000,"station_id":"ce4bhgh2rcd13ifvqfb0","pricing_plan_id":"cebpf4jnsgd1na2vs0mg"},{"bike_id":"2c03e4b0-e4d2-40d5-86f6-780eecf790c0","system_id":"levelo_inurba_marseille","lat":43.30305,"lon":5.36901,"is_reserved":false,"is_disabled":false,"rental_uris":{"android":"levelo://app?vid=2c03e4b0-e4d2-40d5-86f6-780eecf790c0","ios":"levelo://app?vid=2c03e4b0-e4d2-40d5-86f6-780eecf790c0"},"vehicle_type_id":"4","last_reported":1731391961,"current_range_meters":32800,"station_id":"ce4bgqh2rcd13ifvqc5g","pricing_plan_id":"cebpf4jnsgd1na2vs0mg"},{"bike_id":"cc849dc6-c1c3-477a-ad2b-2f8888b16a17","system_id":"levelo_inurba_marseille","lat":43.2955,"lon":5.42281,"is_reserved":false,"is_disabled":false,"rental_uris":{"android":"levelo://app?vid=cc849dc6-c1c3-477a-ad2b-2f8888b16a17","ios":"levelo://app?vid=cc849dc6-c1c3-477a-ad2b-2f8888b16a17"},"vehicle_type_id":"4","last_reported":1731391961,"current_range_meters":28800,"station_id":"ce4bhph2rcd13ifvqhdg","pricing_plan_id":"cebpf4jnsgd1na2vs0mg"},{"bike_id":"718e2470-3b0b-4748-985e-dfeeef0c4b3b","system_id":"levelo_inurba_marseille","lat":43.29253,"lon":5.40901,"is_reserved":false,"is_disabled":false,"rental_uris":{"android":"levelo://app?vid=718e2470-3b0b-4748-985e-dfeeef0c4b3b","ios":"levelo://app?vid=718e2470-3b0b-4748-985e-dfeeef0c4b3b"},"vehicle_type_id":"4","last_reported":1731391961,"current_range_meters":38800,"station_id":"ce4bh192rcd13ifvqdc0","pricing_plan_id":"cebpf4jnsgd1na2vs0mg"},{"bike_id":"3028cdff-ede0-4f42-bdc9-11c7c92f380c","system_id":"levelo_inurba_marseille","lat":43.30425,"lon":5.39753,"is_reserved":false,"is_disabled":false,"rental_uris":{"android":"levelo://app?vid=3028cdff-ede0-4f42-bdc9-11c7c92f380c","ios":"levelo://app?vid=3028cdff-ede0-4f42-bdc9-11c7c92f380c"},"vehicle_type_id":"4","last_reported":1731391961,"current_range_meters":37600,"station_id":"ce4bh092rcd13ifvqd20","pricing_plan_id":"cebpf4jnsgd1na2vs0mg"},{"bike_id":"b819a652-8368-4390-b80a-73f224bb04bf","system_id":"levelo_inurba_marseille","lat":43.23192,"lon":5.39986,"is_reserved":false,"is_disabled":false,"rental_uris":{"android":"levelo://app?vid=b819a652-8368-4390-b80a-73f224bb04bf","ios":"levelo://app?vid=b819a652-8368-4390-b80a-73f224bb04bf"},"vehicle_type_id":"4","last_reported":1731391961,"current_range_meters":38400,"station_id":"ce4bhn12rcd13ifvqgqg","pricing_plan_id":"cebpf4jnsgd1na2vs0mg"},{"bike_id":"f1b68bd2-269f-4a84-b7e7-b5b02ae64077","system_id":"levelo_inurba_marseille","lat":43.27435,"lon":5.39409,"is_reserved":false,"is_disabled":false,"rental_uris":{"android":"levelo://app?vid=f1b68bd2-269f-4a84-b7e7-b5b02ae64077","ios":"levelo://app?vid=f1b68bd2-269f-4a84-b7e7-b5b02ae64077"},"vehicle_type_id":"4","last_reported":1731391961,"current_range_meters":38800,"station_id":"ce4bhdp2rcd13ifvqf20","pricing_plan_id":"cebpf4jnsgd1na2vs0mg"},{"bike_id":"0c0c226c-4311-40bc-966e-4d8a46b2c5c4","system_id":"levelo_inurba_marseille","lat":43.24073,"lon":5.37757,"is_reserved":false,"is_disabled":false,"rental_uris":{"android":"levelo://app?vid=0c0c226c-4311-40bc-966e-4d8a46b2c5c4","ios":"levelo://app?vid=0c0c226c-4311-40bc-966e-4d8a46b2c5c4"},"vehicle_type_id":"4","last_reported":1731391961,"current_range_meters":18800,"station_id":"ce4bhnp2rcd13ifvqgvg","pricing_plan_id":"cebpf4jnsgd1na2vs0mg"},{"bike_id":"fa0d82bf-057b-4d7f-b2a1-c89372f016b9","system_id":"levelo_inurba_marseille","lat":43.30642,"lon":5.40076,"is_reserved":false,"is_disabled":false,"rental_uris":{"android":"levelo://app?vid=fa0d82bf-057b-4d7f-b2a1-c89372f016b9","ios":"levelo://app?vid=fa0d82bf-057b-4d7f-b2a1-c89372f016b9"},"vehicle_type_id":"4","last_reported":1731391961,"current_range_meters":31200,"station_id":"ce4bh112rcd13ifvqda0","pricing_plan_id":"cebpf4jnsgd1na2vs0mg"},{"bike_id":"a476ab8e-a117-4297-aea2-2ae02e8e555d","system_id":"levelo_inurba_marseille","lat":43.26786,"lon":5.39413,"is_reserved":false,"is_disabled":false,"rental_uris":{"android":"levelo://app?vid=a476ab8e-a117-4297-aea2-2ae02e8e555d","ios":"levelo://app?vid=a476ab8e-a117-4297-aea2-2ae02e8e555d"},"vehicle_type_id":"4","last_reported":1731391961,"current_range_meters":35600,"station_id":"ce4bhh12rcd13ifvqfg0","pricing_plan_id":"cebpf4jnsgd1na2vs0mg"},{"bike_id":"4a44d421-3159-46ae-ac7b-ca309b28befe","system_id":"levelo_inurba_marseille","lat":43.29881,"lon":5.38902,"is_reserved":false,"is_disabled":false,"rental_uris":{"android":"levelo://app?vid=4a44d421-3159-46ae-ac7b-ca309b28befe","ios":"levelo://app?vid=4a44d421-3159-46ae-ac7b-ca309b28befe"},"vehicle_type_id":"4","last_reported":1731391961,"current_range_meters":33200,"station_id":"ce4bh392rcd13ifvqdl0","pricing_plan_id":"cebpf4jnsgd1na2vs0mg"},{"bike_id":"a54a1cc6-fb75-4d65-b6c0-1c9b0e3a2320","system_id":"levelo_inurba_marseille","lat":43.31169,"lon":5.38717,"is_reserved":false,"is_disabled":false,"rental_uris":{"android":"levelo://app?vid=a54a1cc6-fb75-4d65-b6c0-1c9b0e3a2320","ios":"levelo://app?vid=a54a1cc6-fb75-4d65-b6c0-1c9b0e3a2320"},"vehicle_type_id":"4","last_reported":1731391961,"current_range_meters":37600,"station_id":"ce4bgv12rcd13ifvqcp0","pricing_plan_id":"cebpf4jnsgd1na2vs0mg"},{"bike_id":"158b97eb-d890-4f70-b418-2a911b1da1d2","system_id":"levelo_inurba_marseille","lat":43.27941,"lon":5.41034,"is_reserved":false,"is_disabled":false,"rental_uris":{"android":"levelo://app?vid=158b97eb-d890-4f70-b418-2a911b1da1d2","ios":"levelo://app?vid=158b97eb-d890-4f70-b418-2a911b1da1d2"},"vehicle_type_id":"4","last_reported":1731391961,"current_range_meters":38000,"station_id":"ce4bhnp2rcd13ifvqh0g","pricing_plan_id":"cebpf4jnsgd1na2vs0mg"},{"bike_id":"f034f203-03ea-4fdf-93aa-a3635747d7f6","system_id":"levelo_inurba_marseille","lat":43.27612,"lon":5.36114,"is_reserved":false,"is_disabled":false,"rental_uris":{"android":"levelo://app?vid=f034f203-03ea-4fdf-93aa-a3635747d7f6","ios":"levelo://app?vid=f034f203-03ea-4fdf-93aa-a3635747d7f6"},"vehicle_type_id":"4","last_reported":1731391961,"current_range_meters":38000,"station_id":"ce4bgj92rcd13ifvqbe0","pricing_plan_id":"cebpf4jnsgd1na2vs0mg"},{"bike_id":"c2c0c158-e994-4346-894a-aa2c5884f6bb","system_id":"levelo_inurba_marseille","lat":43.25489,"lon":5.37652,"is_reserved":false,"is_disabled":false,"rental_uris":{"android":"levelo://app?vid=c2c0c158-e994-4346-894a-aa2c5884f6bb","ios":"levelo://app?vid=c2c0c158-e994-4346-894a-aa2c5884f6bb"},"vehicle_type_id":"4","last_reported":1731391961,"current_range_meters":37600,"station_id":"ce4bhh12rcd13ifvqff0","pricing_plan_id":"cebpf4jnsgd1na2vs0mg"},{"bike_id":"3260cc4a-31ee-4f29-b1d9-1f2c1c8e2cb4","system_id":"levelo_inurba_marseille","lat":43.25732,"lon":5.41111,"is_reserved":false,"is_disabled":false,"rental_uris":{"android":"levelo://app?vid=3260cc4a-31ee-4f29-b1d9-1f2c1c8e2cb4","ios":"levelo://app?vid=3260cc4a-31ee-4f29-b1d9-1f2c1c8e2cb4"},"vehicle_type_id":"4","last_reported":1731391961,"current_range_meters":38800,"station_id":"ce4bhkp2rcd13ifvqgd0","pricing_plan_id":"cebpf4jnsgd1na2vs0mg"},{"bike_id":"dd40039d-d2ac-4880-981e-204f87a64d3a","system_id":"levelo_inurba_marseille","lat":43.28662,"lon":5.36356,"is_reserved":false,"is_disabled":false,"rental_uris":{"android":"levelo://app?vid=dd40039d-d2ac-4880-981e-204f87a64d3a","ios":"levelo://app?vid=dd40039d-d2ac-4880-981e-204f87a64d3a"},"vehicle_type_id":"4","last_reported":1731391961,"current_range_meters":33600,"station_id":"ce4bhah2rcd13ifvqej0","pricing_plan_id":"cebpf4jnsgd1na2vs0mg"},{"bike_id":"31f7560b-0f52-4d6b-ac39-46cf0a6c1468","system_id":"levelo_inurba_marseille","lat":43.24391,"lon":5.37056,"is_reserved":false,"is_disabled":false,"rental_uris":{"android":"levelo://app?vid=31f7560b-0f52-4d6b-ac39-46cf0a6c1468","ios":"levelo://app?vid=31f7560b-0f52-4d6b-ac39-46cf0a6c1468"},"vehicle_type_id":"4","last_reported":1731391961,"current_range_meters":38800,"station_id":"ce4bhhh2rcd13ifvqfk0","pricing_plan_id":"cebpf4jnsgd1na2vs0mg"},{"bike_id":"40292f36-b783-475a-a909-db6db3fc2686","system_id":"levelo_inurba_marseille","lat":43.29279,"lon":5.40122,"is_reserved":false,"is_disabled":false,"rental_uris":{"android":"levelo://app?vid=40292f36-b783-475a-a909-db6db3fc2686","ios":"levelo://app?vid=40292f36-b783-475a-a909-db6db3fc2686"},"vehicle_type_id":"4","last_reported":1731391961,"current_range_meters":35200,"station_id":"ce4bh312rcd13ifvqdk0","pricing_plan_id":"cebpf4jnsgd1na2vs0mg"},{"bike_id":"dd2b8768-f22e-480b-8778-9d9e6cf2b8b7","system_id":"levelo_inurba_marseille","lat":43.27442,"lon":5.39408,"is_reserved":false,"is_disabled":false,"rental_uris":{"android":"levelo://app?vid=dd2b8768-f22e-480b-8778-9d9e6cf2b8b7","ios":"levelo://app?vid=dd2b8768-f22e-480b-8778-9d9e6cf2b8b7"},"vehicle_type_id":"4","last_reported":1731391961,"current_range_meters":31200,"station_id":"ce4bhdp2rcd13ifvqf20","pricing_plan_id":"cebpf4jnsgd1na2vs0mg"},{"bike_id":"f3d38261-a20c-4abf-bd9c-4639d1d0adb0","system_id":"levelo_inurba_marseille","lat":43.33603,"lon":5.4102,"is_reserved":false,"is_disabled":false,"rental_uris":{"android":"levelo://app?vid=f3d38261-a20c-4abf-bd9c-4639d1d0adb0","ios":"levelo://app?vid=f3d38261-a20c-4abf-bd9c-4639d1d0adb0"},"vehicle_type_id":"4","last_reported":1731391961,"current_range_meters":24800,"station_id":"ce4bhqh2rcd13ifvqhmg","pricing_plan_id":"cebpf4jnsgd1na2vs0mg"},{"bike_id":"40602ef5-4375-4188-9687-44d354e3dbc4","system_id":"levelo_inurba_marseille","lat":43.257239,"lon":5.411089,"is_reserved":false,"is_disabled":false,"rental_uris":{"android":"levelo://app?vid=40602ef5-4375-4188-9687-44d354e3dbc4","ios":"levelo://app?vid=40602ef5-4375-4188-9687-44d354e3dbc4"},"vehicle_type_id":"4","last_reported":1731391961,"current_range_meters":38400,"station_id":"ce4bhkp2rcd13ifvqgd0","pricing_plan_id":"cebpf4jnsgd1na2vs0mg"},{"bike_id":"2662e6f1-fc87-412a-a3b1-fa8c2f0a1203","system_id":"levelo_inurba_marseille","lat":43.298007,"lon":5.38101,"is_reserved":false,"is_disabled":false,"rental_uris":{"android":"levelo://app?vid=2662e6f1-fc87-412a-a3b1-fa8c2f0a1203","ios":"levelo://app?vid=2662e6f1-fc87-412a-a3b1-fa8c2f0a1203"},"vehicle_type_id":"4","last_reported":1731391961,"current_range_meters":37600,"station_id":"ce4bgip2rcd13ifvqbb0","pricing_plan_id":"cebpf4jnsgd1na2vs0mg"},{"bike_id":"f5f7adb1-08a0-41e5-84f8-4eacbb87fa6f","system_id":"levelo_inurba_marseille","lat":43.23958,"lon":5.36638,"is_reserved":false,"is_disabled":false,"rental_uris":{"android":"levelo://app?vid=f5f7adb1-08a0-41e5-84f8-4eacbb87fa6f","ios":"levelo://app?vid=f5f7adb1-08a0-41e5-84f8-4eacbb87fa6f"},"vehicle_type_id":"4","last_reported":1731391961,"current_range_meters":36800,"station_id":"ce4bhi12rcd13ifvqfp0","pricing_plan_id":"cebpf4jnsgd1na2vs0mg"},{"bike_id":"cd3763b4-c6c9-439a-8c88-6b6d78464d6e","system_id":"levelo_inurba_marseille","lat":43.337444,"lon":5.374475,"is_reserved":false,"is_disabled":false,"rental_uris":{"android":"levelo://app?vid=cd3763b4-c6c9-439a-8c88-6b6d78464d6e","ios":"levelo://app?vid=cd3763b4-c6c9-439a-8c88-6b6d78464d6e"},"vehicle_type_id":"4","last_reported":1731391961,"current_range_meters":33200,"station_id":"","pricing_plan_id":"cebpf4jnsgd1na2vs0mg"},{"bike_id":"a64e486f-ab51-45e7-ae26-9bf3a4451217","system_id":"levelo_inurba_marseille","lat":43.31996,"lon":5.38147,"is_reserved":false,"is_disabled":false,"rental_uris":{"android":"levelo://app?vid=a64e486f-ab51-45e7-ae26-9bf3a4451217","ios":"levelo://app?vid=a64e486f-ab51-45e7-ae26-9bf3a4451217"},"vehicle_type_id":"4","last_reported":1731391961,"current_range_meters":38800,"station_id":"ce4bhr12rcd13ifvqhpg","pricing_plan_id":"cebpf4jnsgd1na2vs0mg"},{"bike_id":"278e7ea9-a4f9-400f-9029-ec10e70e6e2f","system_id":"levelo_inurba_marseille","lat":43.305983,"lon":5.393547,"is_reserved":false,"is_disabled":false,"rental_uris":{"android":"levelo://app?vid=278e7ea9-a4f9-400f-9029-ec10e70e6e2f","ios":"levelo://app?vid=278e7ea9-a4f9-400f-9029-ec10e70e6e2f"},"vehicle_type_id":"4","last_reported":1731391961,"current_range_meters":35600,"station_id":"ce4bh0p2rcd13ifvqd80","pricing_plan_id":"cebpf4jnsgd1na2vs0mg"},{"bike_id":"fa012431-6b51-4c1a-9703-6517b7a85415","system_id":"levelo_inurba_marseille","lat":43.31131,"lon":5.38286,"is_reserved":false,"is_disabled":false,"rental_uris":{"android":"levelo://app?vid=fa012431-6b51-4c1a-9703-6517b7a85415","ios":"levelo://app?vid=fa012431-6b51-4c1a-9703-6517b7a85415"},"vehicle_type_id":"4","last_reported":1731391961,"current_range_meters":7200,"station_id":"ce4bh2h2rcd13ifvqdh0","pricing_plan_id":"cebpf4jnsgd1na2vs0mg"},{"bike_id":"29fd9c8f-5a7f-4c1f-9c19-eea4917c0fc8","system_id":"levelo_inurba_marseille","lat":43.25495,"lon":5.37653,"is_reserved":false,"is_disabled":false,"rental_uris":{"android":"levelo://app?vid=29fd9c8f-5a7f-4c1f-9c19-eea4917c0fc8","ios":"levelo://app?vid=29fd9c8f-5a7f-4c1f-9c19-eea4917c0fc8"},"vehicle_type_id":"4","last_reported":1731391961,"current_range_meters":37600,"station_id":"ce4bhh12rcd13ifvqff0","pricing_plan_id":"cebpf4jnsgd1na2vs0mg"},{"bike_id":"011e63d3-05b7-45e9-9aaa-fdfc6f62c27e","system_id":"levelo_inurba_marseille","lat":43.28714,"lon":5.3794,"is_reserved":false,"is_disabled":false,"rental_uris":{"android":"levelo://app?vid=011e63d3-05b7-45e9-9aaa-fdfc6f62c27e","ios":"levelo://app?vid=011e63d3-05b7-45e9-9aaa-fdfc6f62c27e"},"vehicle_type_id":"4","last_reported":1731391961,"current_range_meters":38800,"station_id":"ce4bh9p2rcd13ifvqec0","pricing_plan_id":"cebpf4jnsgd1na2vs0mg"},{"bike_id":"c85c23ca-d019-4d10-b7f8-59940ca10fe8","system_id":"levelo_inurba_marseille","lat":43.3234,"lon":5.40619,"is_reserved":false,"is_disabled":false,"rental_uris":{"android":"levelo://app?vid=c85c23ca-d019-4d10-b7f8-59940ca10fe8","ios":"levelo://app?vid=c85c23ca-d019-4d10-b7f8-59940ca10fe8"},"vehicle_type_id":"4","last_reported":1731391961,"current_range_meters":38800,"station_id":"ce4bhq92rcd13ifvqhjg","pricing_plan_id":"cebpf4jnsgd1na2vs0mg"},{"bike_id":"51e4106b-ae7d-4ceb-b87d-0c30ad9b3b74","system_id":"levelo_inurba_marseille","lat":43.33613,"lon":5.41022,"is_reserved":false,"is_disabled":false,"rental_uris":{"android":"levelo://app?vid=51e4106b-ae7d-4ceb-b87d-0c30ad9b3b74","ios":"levelo://app?vid=51e4106b-ae7d-4ceb-b87d-0c30ad9b3b74"},"vehicle_type_id":"4","last_reported":1731391961,"current_range_meters":38800,"station_id":"ce4bhqh2rcd13ifvqhmg","pricing_plan_id":"cebpf4jnsgd1na2vs0mg"},{"bike_id":"34c4e5fd-d09b-481c-889a-20f2df0a03b0","system_id":"levelo_inurba_marseille","lat":43.28156,"lon":5.42642,"is_reserved":false,"is_disabled":false,"rental_uris":{"android":"levelo://app?vid=34c4e5fd-d09b-481c-889a-20f2df0a03b0","ios":"levelo://app?vid=34c4e5fd-d09b-481c-889a-20f2df0a03b0"},"vehicle_type_id":"4","last_reported":1731391961,"current_range_meters":38800,"station_id":"ce4bhnh2rcd13ifvqgug","pricing_plan_id":"cebpf4jnsgd1na2vs0mg"},{"bike_id":"013eef84-722d-41db-b134-d56b32da95cf","system_id":"levelo_inurba_marseille","lat":43.29671,"lon":5.37293,"is_reserved":false,"is_disabled":false,"rental_uris":{"android":"levelo://app?vid=013eef84-722d-41db-b134-d56b32da95cf","ios":"levelo://app?vid=013eef84-722d-41db-b134-d56b32da95cf"},"vehicle_type_id":"4","last_reported":1731391961,"current_range_meters":37600,"station_id":"ce4bgk12rcd13ifvqbj0","pricing_plan_id":"cebpf4jnsgd1na2vs0mg"},{"bike_id":"b6e7a88b-4aa5-49c1-8146-a5de890828cf","system_id":"levelo_inurba_marseille","lat":43.292785,"lon":5.40125,"is_reserved":false,"is_disabled":false,"rental_uris":{"android":"levelo://app?vid=b6e7a88b-4aa5-49c1-8146-a5de890828cf","ios":"levelo://app?vid=b6e7a88b-4aa5-49c1-8146-a5de890828cf"},"vehicle_type_id":"4","last_reported":1731391961,"current_range_meters":38800,"station_id":"ce4bh312rcd13ifvqdk0","pricing_plan_id":"cebpf4jnsgd1na2vs0mg"},{"bike_id":"00df0da5-e326-4e92-bd9c-a0b3df25d56d","system_id":"levelo_inurba_marseille","lat":43.28406,"lon":5.37533,"is_reserved":false,"is_disabled":false,"rental_uris":{"android":"levelo://app?vid=00df0da5-e326-4e92-bd9c-a0b3df25d56d","ios":"levelo://app?vid=00df0da5-e326-4e92-bd9c-a0b3df25d56d"},"vehicle_type_id":"4","last_reported":1731391961,"current_range_meters":7200,"station_id":"ce4bh412rcd13ifvqds0","pricing_plan_id":"cebpf4jnsgd1na2vs0mg"},{"bike_id":"0d65accf-821c-4de6-8394-38c17b73e2e4","system_id":"levelo_inurba_marseille","lat":43.28726,"lon":5.36084,"is_reserved":false,"is_disabled":false,"rental_uris":{"android":"levelo://app?vid=0d65accf-821c-4de6-8394-38c17b73e2e4","ios":"levelo://app?vid=0d65accf-821c-4de6-8394-38c17b73e2e4"},"vehicle_type_id":"4","last_reported":1731391961,"current_range_meters":39200,"station_id":"cki0cbj6b192h4jlfktg","pricing_plan_id":"cebpf4jnsgd1na2vs0mg"},{"bike_id":"8140d6a7-661b-429c-90db-61798a1be38b","system_id":"levelo_inurba_marseille","lat":43.30459,"lon":5.37905,"is_reserved":false,"is_disabled":false,"rental_uris":{"android":"levelo://app?vid=8140d6a7-661b-429c-90db-61798a1be38b","ios":"levelo://app?vid=8140d6a7-661b-429c-90db-61798a1be38b"},"vehicle_type_id":"4","last_reported":1731391961,"current_range_meters":36800,"station_id":"ce4bgup2rcd13ifvqcn0","pricing_plan_id":"cebpf4jnsgd1na2vs0mg"},{"bike_id":"8b9e4e50-0d25-44d1-a11c-181613e63edd","system_id":"levelo_inurba_marseille","lat":43.28663,"lon":5.36351,"is_reserved":false,"is_disabled":false,"rental_uris":{"android":"levelo://app?vid=8b9e4e50-0d25-44d1-a11c-181613e63edd","ios":"levelo://app?vid=8b9e4e50-0d25-44d1-a11c-181613e63edd"},"vehicle_type_id":"4","last_reported":1731391961,"current_range_meters":34000,"station_id":"ce4bhah2rcd13ifvqej0","pricing_plan_id":"cebpf4jnsgd1na2vs0mg"},{"bike_id":"3d29209f-3f0e-431c-8fe8-54d40848cfc4","system_id":"levelo_inurba_marseille","lat":43.26492,"lon":5.39543,"is_reserved":false,"is_disabled":false,"rental_uris":{"android":"levelo://app?vid=3d29209f-3f0e-431c-8fe8-54d40848cfc4","ios":"levelo://app?vid=3d29209f-3f0e-431c-8fe8-54d40848cfc4"},"vehicle_type_id":"4","last_reported":1731391961,"current_range_meters":38800,"station_id":"ce4bhi12rcd13ifvqfq0","pricing_plan_id":"cebpf4jnsgd1na2vs0mg"},{"bike_id":"be92b951-fa38-407d-9b1f-c24eba11f49b","system_id":"levelo_inurba_marseille","lat":43.28851,"lon":5.35834,"is_reserved":false,"is_disabled":false,"rental_uris":{"android":"levelo://app?vid=be92b951-fa38-407d-9b1f-c24eba11f49b","ios":"levelo://app?vid=be92b951-fa38-407d-9b1f-c24eba11f49b"},"vehicle_type_id":"4","last_reported":1731391961,"current_range_meters":35600,"station_id":"ce4bhb12rcd13ifvqem0","pricing_plan_id":"cebpf4jnsgd1na2vs0mg"},{"bike_id":"03cec24b-bdda-4dc7-9f24-b5da9617b133","system_id":"levelo_inurba_marseille","lat":43.29609,"lon":5.37728,"is_reserved":false,"is_disabled":false,"rental_uris":{"android":"levelo://app?vid=03cec24b-bdda-4dc7-9f24-b5da9617b133","ios":"levelo://app?vid=03cec24b-bdda-4dc7-9f24-b5da9617b133"},"vehicle_type_id":"4","last_reported":1731391961,"current_range_meters":28400,"station_id":"ce4bgi92rcd13ifvqb90","pricing_plan_id":"cebpf4jnsgd1na2vs0mg"},{"bike_id":"b6649fd5-6529-4736-962c-37237ff042d4","system_id":"levelo_inurba_marseille","lat":43.2656,"lon":5.39008,"is_reserved":false,"is_disabled":false,"rental_uris":{"android":"levelo://app?vid=b6649fd5-6529-4736-962c-37237ff042d4","ios":"levelo://app?vid=b6649fd5-6529-4736-962c-37237ff042d4"},"vehicle_type_id":"4","last_reported":1731391961,"current_range_meters":37600,"station_id":"ce4bhe12rcd13ifvqf30","pricing_plan_id":"cebpf4jnsgd1na2vs0mg"},{"bike_id":"96b0e1b0-1f0c-4c66-ae1f-0cacd98a27e0","system_id":"levelo_inurba_marseille","lat":43.30531,"lon":5.38422,"is_reserved":false,"is_disabled":false,"rental_uris":{"android":"levelo://app?vid=96b0e1b0-1f0c-4c66-ae1f-0cacd98a27e0","ios":"levelo://app?vid=96b0e1b0-1f0c-4c66-ae1f-0cacd98a27e0"},"vehicle_type_id":"4","last_reported":1731391961,"current_range_meters":25200,"station_id":"ce4bgg92rcd13ifvqb30","pricing_plan_id":"cebpf4jnsgd1na2vs0mg"},{"bike_id":"5847243e-3d84-47dc-98d1-c8e94c4067b9","system_id":"levelo_inurba_marseille","lat":43.27563,"lon":5.38424,"is_reserved":false,"is_disabled":false,"rental_uris":{"android":"levelo://app?vid=5847243e-3d84-47dc-98d1-c8e94c4067b9","ios":"levelo://app?vid=5847243e-3d84-47dc-98d1-c8e94c4067b9"},"vehicle_type_id":"4","last_reported":1731391961,"current_range_meters":38800,"station_id":"ce4bhh92rcd13ifvqfi0","pricing_plan_id":"cebpf4jnsgd1na2vs0mg"},{"bike_id":"b6fb0d0d-4fe7-44bf-8a25-4a4b216fe62f","system_id":"levelo_inurba_marseille","lat":43.30805,"lon":5.38152,"is_reserved":false,"is_disabled":false,"rental_uris":{"android":"levelo://app?vid=b6fb0d0d-4fe7-44bf-8a25-4a4b216fe62f","ios":"levelo://app?vid=b6fb0d0d-4fe7-44bf-8a25-4a4b216fe62f"},"vehicle_type_id":"4","last_reported":1731391961,"current_range_meters":38800,"station_id":"ce4bgt12rcd13ifvqce0","pricing_plan_id":"cebpf4jnsgd1na2vs0mg"},{"bike_id":"22a2914a-6d99-4b9f-a055-86e657c3c38f","system_id":"levelo_inurba_marseille","lat":43.320025,"lon":5.381625,"is_reserved":false,"is_disabled":false,"rental_uris":{"android":"levelo://app?vid=22a2914a-6d99-4b9f-a055-86e657c3c38f","ios":"levelo://app?vid=22a2914a-6d99-4b9f-a055-86e657c3c38f"},"vehicle_type_id":"4","last_reported":1731391961,"current_range_meters":6000,"station_id":"ce4bhr12rcd13ifvqhpg","pricing_plan_id":"cebpf4jnsgd1na2vs0mg"},{"bike_id":"1d75d4ce-da07-47a0-83ad-027ef32b7b53","system_id":"levelo_inurba_marseille","lat":43.274073,"lon":5.38951,"is_reserved":false,"is_disabled":false,"rental_uris":{"android":"levelo://app?vid=1d75d4ce-da07-47a0-83ad-027ef32b7b53","ios":"levelo://app?vid=1d75d4ce-da07-47a0-83ad-027ef32b7b53"},"vehicle_type_id":"4","last_reported":1731391961,"current_range_meters":16400,"station_id":"","pricing_plan_id":"cebpf4jnsgd1na2vs0mg"},{"bike_id":"59c35e8b-3fa6-4e43-bbd3-8ded488b910a","system_id":"levelo_inurba_marseille","lat":43.30936,"lon":5.40156,"is_reserved":false,"is_disabled":false,"rental_uris":{"android":"levelo://app?vid=59c35e8b-3fa6-4e43-bbd3-8ded488b910a","ios":"levelo://app?vid=59c35e8b-3fa6-4e43-bbd3-8ded488b910a"},"vehicle_type_id":"4","last_reported":1731391961,"current_range_meters":38800,"station_id":"ce4bgvp2rcd13ifvqct0","pricing_plan_id":"cebpf4jnsgd1na2vs0mg"},{"bike_id":"a099051a-c2d9-4a1b-a70a-f068743f9217","system_id":"levelo_inurba_marseille","lat":43.27182,"lon":5.40994,"is_reserved":false,"is_disabled":false,"rental_uris":{"android":"levelo://app?vid=a099051a-c2d9-4a1b-a70a-f068743f9217","ios":"levelo://app?vid=a099051a-c2d9-4a1b-a70a-f068743f9217"},"vehicle_type_id":"4","last_reported":1731391961,"current_range_meters":38800,"station_id":"ce4bhl12rcd13ifvqgf0","pricing_plan_id":"cebpf4jnsgd1na2vs0mg"},{"bike_id":"d881a04b-7487-46c8-bcc3-e9689650446f","system_id":"levelo_inurba_marseille","lat":43.26191,"lon":5.3745,"is_reserved":false,"is_disabled":false,"rental_uris":{"android":"levelo://app?vid=d881a04b-7487-46c8-bcc3-e9689650446f","ios":"levelo://app?vid=d881a04b-7487-46c8-bcc3-e9689650446f"},"vehicle_type_id":"4","last_reported":1731391961,"current_range_meters":38000,"station_id":"ce4bhgp2rcd13ifvqfc0","pricing_plan_id":"cebpf4jnsgd1na2vs0mg"},{"bike_id":"4be7edbe-5982-45b2-a3b1-2e4ca0a06526","system_id":"levelo_inurba_marseille","lat":43.24069,"lon":5.37761,"is_reserved":false,"is_disabled":false,"rental_uris":{"android":"levelo://app?vid=4be7edbe-5982-45b2-a3b1-2e4ca0a06526","ios":"levelo://app?vid=4be7edbe-5982-45b2-a3b1-2e4ca0a06526"},"vehicle_type_id":"4","last_reported":1731391961,"current_range_meters":39200,"station_id":"ce4bhnp2rcd13ifvqgvg","pricing_plan_id":"cebpf4jnsgd1na2vs0mg"},{"bike_id":"58619a3d-722c-4d96-a931-d2f898b47aef","system_id":"levelo_inurba_marseille","lat":43.28675,"lon":5.38654,"is_reserved":false,"is_disabled":false,"rental_uris":{"android":"levelo://app?vid=58619a3d-722c-4d96-a931-d2f898b47aef","ios":"levelo://app?vid=58619a3d-722c-4d96-a931-d2f898b47aef"},"vehicle_type_id":"4","last_reported":1731391961,"current_range_meters":31200,"station_id":"ce4bh492rcd13ifvqdug","pricing_plan_id":"cebpf4jnsgd1na2vs0mg"},{"bike_id":"a63bf761-b669-40d4-a0c6-33f8c1f62671","system_id":"levelo_inurba_marseille","lat":43.28483,"lon":5.38548,"is_reserved":false,"is_disabled":false,"rental_uris":{"android":"levelo://app?vid=a63bf761-b669-40d4-a0c6-33f8c1f62671","ios":"levelo://app?vid=a63bf761-b669-40d4-a0c6-33f8c1f62671"},"vehicle_type_id":"4","last_reported":1731391961,"current_range_meters":38000,"station_id":"ce4bh8p2rcd13ifvqeb0","pricing_plan_id":"cebpf4jnsgd1na2vs0mg"},{"bike_id":"ca0e2a16-32dc-46e0-aefd-c26276db1088","system_id":"levelo_inurba_marseille","lat":43.24648,"lon":5.38901,"is_reserved":false,"is_disabled":false,"rental_uris":{"android":"levelo://app?vid=ca0e2a16-32dc-46e0-aefd-c26276db1088","ios":"levelo://app?vid=ca0e2a16-32dc-46e0-aefd-c26276db1088"},"vehicle_type_id":"4","last_reported":1731391961,"current_range_meters":38800,"station_id":"ce4bhg12rcd13ifvqf60","pricing_plan_id":"cebpf4jnsgd1na2vs0mg"},{"bike_id":"053b604b-8b91-4de0-bb66-85b19d20c972","system_id":"levelo_inurba_marseille","lat":43.309569,"lon":5.390412,"is_reserved":false,"is_disabled":false,"rental_uris":{"android":"levelo://app?vid=053b604b-8b91-4de0-bb66-85b19d20c972","ios":"levelo://app?vid=053b604b-8b91-4de0-bb66-85b19d20c972"},"vehicle_type_id":"4","last_reported":1731391961,"current_range_meters":39200,"station_id":"ce4bgup2rcd13ifvqco0","pricing_plan_id":"cebpf4jnsgd1na2vs0mg"},{"bike_id":"bc2354e1-2a50-4b5c-93e6-2616e25c5e1b","system_id":"levelo_inurba_marseille","lat":43.24811,"lon":5.37454,"is_reserved":false,"is_disabled":false,"rental_uris":{"android":"levelo://app?vid=bc2354e1-2a50-4b5c-93e6-2616e25c5e1b","ios":"levelo://app?vid=bc2354e1-2a50-4b5c-93e6-2616e25c5e1b"},"vehicle_type_id":"4","last_reported":1731391961,"current_range_meters":37600,"station_id":"ce4bhgh2rcd13ifvqfb0","pricing_plan_id":"cebpf4jnsgd1na2vs0mg"},{"bike_id":"ddc13481-8b09-4a79-b8b8-8b30845636a5","system_id":"levelo_inurba_marseille","lat":43.2996,"lon":5.38082,"is_reserved":false,"is_disabled":false,"rental_uris":{"android":"levelo://app?vid=ddc13481-8b09-4a79-b8b8-8b30845636a5","ios":"levelo://app?vid=ddc13481-8b09-4a79-b8b8-8b30845636a5"},"vehicle_type_id":"4","last_reported":1731391961,"current_range_meters":34000,"station_id":"ce4bgj12rcd13ifvqbc0","pricing_plan_id":"cebpf4jnsgd1na2vs0mg"},{"bike_id":"31617a15-5fd6-409f-aea0-42bc03b159b0","system_id":"levelo_inurba_marseille","lat":43.29803,"lon":5.38095,"is_reserved":false,"is_disabled":false,"rental_uris":{"android":"levelo://app?vid=31617a15-5fd6-409f-aea0-42bc03b159b0","ios":"levelo://app?vid=31617a15-5fd6-409f-aea0-42bc03b159b0"},"vehicle_type_id":"4","last_reported":1731391961,"current_range_meters":37600,"station_id":"ce4bgip2rcd13ifvqbb0","pricing_plan_id":"cebpf4jnsgd1na2vs0mg"},{"bike_id":"c4deb4cc-b275-4266-9b30-a0a2f4b844b9","system_id":"levelo_inurba_marseille","lat":43.31173,"lon":5.38709,"is_reserved":false,"is_disabled":false,"rental_uris":{"android":"levelo://app?vid=c4deb4cc-b275-4266-9b30-a0a2f4b844b9","ios":"levelo://app?vid=c4deb4cc-b275-4266-9b30-a0a2f4b844b9"},"vehicle_type_id":"4","last_reported":1731391961,"current_range_meters":38800,"station_id":"ce4bgv12rcd13ifvqcp0","pricing_plan_id":"cebpf4jnsgd1na2vs0mg"},{"bike_id":"53814902-db69-4cb1-9da1-d97c24cc8dff","system_id":"levelo_inurba_marseille","lat":43.28716,"lon":5.36079,"is_reserved":false,"is_disabled":false,"rental_uris":{"android":"levelo://app?vid=53814902-db69-4cb1-9da1-d97c24cc8dff","ios":"levelo://app?vid=53814902-db69-4cb1-9da1-d97c24cc8dff"},"vehicle_type_id":"4","last_reported":1731391961,"current_range_meters":38800,"station_id":"cki0cbj6b192h4jlfktg","pricing_plan_id":"cebpf4jnsgd1na2vs0mg"},{"bike_id":"784616cb-3dcc-4a17-ae25-f5786a0d223a","system_id":"levelo_inurba_marseille","lat":43.337444,"lon":5.374475,"is_reserved":false,"is_disabled":false,"rental_uris":{"android":"levelo://app?vid=784616cb-3dcc-4a17-ae25-f5786a0d223a","ios":"levelo://app?vid=784616cb-3dcc-4a17-ae25-f5786a0d223a"},"vehicle_type_id":"4","last_reported":1731391961,"current_range_meters":33600,"station_id":"","pricing_plan_id":"cebpf4jnsgd1na2vs0mg"},{"bike_id":"c9e1ccaf-93e0-42a0-8847-25269c17c325","system_id":"levelo_inurba_marseille","lat":43.24388,"lon":5.3707,"is_reserved":false,"is_disabled":false,"rental_uris":{"android":"levelo://app?vid=c9e1ccaf-93e0-42a0-8847-25269c17c325","ios":"levelo://app?vid=c9e1ccaf-93e0-42a0-8847-25269c17c325"},"vehicle_type_id":"4","last_reported":1731391961,"current_range_meters":37600,"station_id":"ce4bhhh2rcd13ifvqfk0","pricing_plan_id":"cebpf4jnsgd1na2vs0mg"},{"bike_id":"bbfcbce8-7188-4bb5-8aac-7d52bbdbdcf7","system_id":"levelo_inurba_marseille","lat":43.26025,"lon":5.37555,"is_reserved":false,"is_disabled":false,"rental_uris":{"android":"levelo://app?vid=bbfcbce8-7188-4bb5-8aac-7d52bbdbdcf7","ios":"levelo://app?vid=bbfcbce8-7188-4bb5-8aac-7d52bbdbdcf7"},"vehicle_type_id":"4","last_reported":1731391961,"current_range_meters":26000,"station_id":"ce4bhgh2rcd13ifvqfa0","pricing_plan_id":"cebpf4jnsgd1na2vs0mg"},{"bike_id":"0f680548-73ca-42b9-993a-8c4145e99092","system_id":"levelo_inurba_marseille","lat":43.287253,"lon":5.36091,"is_reserved":false,"is_disabled":false,"rental_uris":{"android":"levelo://app?vid=0f680548-73ca-42b9-993a-8c4145e99092","ios":"levelo://app?vid=0f680548-73ca-42b9-993a-8c4145e99092"},"vehicle_type_id":"4","last_reported":1731391961,"current_range_meters":7200,"station_id":"cki0cbj6b192h4jlfktg","pricing_plan_id":"cebpf4jnsgd1na2vs0mg"},{"bike_id":"a981cddb-35b3-4b69-a3bf-cfde7e96370a","system_id":"levelo_inurba_marseille","lat":43.23149,"lon":5.43728,"is_reserved":false,"is_disabled":false,"rental_uris":{"android":"levelo://app?vid=a981cddb-35b3-4b69-a3bf-cfde7e96370a","ios":"levelo://app?vid=a981cddb-35b3-4b69-a3bf-cfde7e96370a"},"vehicle_type_id":"4","last_reported":1731391961,"current_range_meters":38000,"station_id":"ce4bhmp2rcd13ifvqgog","pricing_plan_id":"cebpf4jnsgd1na2vs0mg"},{"bike_id":"86cf46ef-a2fc-4fbb-8052-23fdfb3f2282","system_id":"levelo_inurba_marseille","lat":43.27909,"lon":5.38011,"is_reserved":false,"is_disabled":false,"rental_uris":{"android":"levelo://app?vid=86cf46ef-a2fc-4fbb-8052-23fdfb3f2282","ios":"levelo://app?vid=86cf46ef-a2fc-4fbb-8052-23fdfb3f2282"},"vehicle_type_id":"4","last_reported":1731391961,"current_range_meters":22000,"station_id":"ce4bhf92rcd13ifvqf50","pricing_plan_id":"cebpf4jnsgd1na2vs0mg"},{"bike_id":"38494b26-732c-4693-af81-a3cf4c4e1902","system_id":"levelo_inurba_marseille","lat":43.31368,"lon":5.37446,"is_reserved":false,"is_disabled":false,"rental_uris":{"android":"levelo://app?vid=38494b26-732c-4693-af81-a3cf4c4e1902","ios":"levelo://app?vid=38494b26-732c-4693-af81-a3cf4c4e1902"},"vehicle_type_id":"4","last_reported":1731391961,"current_range_meters":10800,"station_id":"","pricing_plan_id":"cebpf4jnsgd1na2vs0mg"},{"bike_id":"d27197eb-d1ae-4933-98ff-9829770189ae","system_id":"levelo_inurba_marseille","lat":43.30601,"lon":5.39359,"is_reserved":false,"is_disabled":false,"rental_uris":{"android":"levelo://app?vid=d27197eb-d1ae-4933-98ff-9829770189ae","ios":"levelo://app?vid=d27197eb-d1ae-4933-98ff-9829770189ae"},"vehicle_type_id":"4","last_reported":1731391961,"current_range_meters":25200,"station_id":"ce4bh0p2rcd13ifvqd80","pricing_plan_id":"cebpf4jnsgd1na2vs0mg"},{"bike_id":"01fccc49-ac40-4cc9-90fc-950d9c6dd4ba","system_id":"levelo_inurba_marseille","lat":43.30593,"lon":5.39354,"is_reserved":false,"is_disabled":false,"rental_uris":{"android":"levelo://app?vid=01fccc49-ac40-4cc9-90fc-950d9c6dd4ba","ios":"levelo://app?vid=01fccc49-ac40-4cc9-90fc-950d9c6dd4ba"},"vehicle_type_id":"4","last_reported":1731391961,"current_range_meters":28000,"station_id":"ce4bh0p2rcd13ifvqd80","pricing_plan_id":"cebpf4jnsgd1na2vs0mg"},{"bike_id":"181fa628-fd06-4339-88f4-5d411c857699","system_id":"levelo_inurba_marseille","lat":43.27069,"lon":5.4228,"is_reserved":false,"is_disabled":false,"rental_uris":{"android":"levelo://app?vid=181fa628-fd06-4339-88f4-5d411c857699","ios":"levelo://app?vid=181fa628-fd06-4339-88f4-5d411c857699"},"vehicle_type_id":"4","last_reported":1731391961,"current_range_meters":33200,"station_id":"ce4bhk92rcd13ifvqgb0","pricing_plan_id":"cebpf4jnsgd1na2vs0mg"},{"bike_id":"f78d5976-a055-4d0c-afdb-4cc2a4b79214","system_id":"levelo_inurba_marseille","lat":43.311711,"lon":5.38713,"is_reserved":false,"is_disabled":false,"rental_uris":{"android":"levelo://app?vid=f78d5976-a055-4d0c-afdb-4cc2a4b79214","ios":"levelo://app?vid=f78d5976-a055-4d0c-afdb-4cc2a4b79214"},"vehicle_type_id":"4","last_reported":1731391961,"current_range_meters":38800,"station_id":"ce4bgv12rcd13ifvqcp0","pricing_plan_id":"cebpf4jnsgd1na2vs0mg"},{"bike_id":"58b0c114-eed4-4504-a004-75b4eaa2da17","system_id":"levelo_inurba_marseille","lat":43.29971,"lon":5.3717,"is_reserved":false,"is_disabled":false,"rental_uris":{"android":"levelo://app?vid=58b0c114-eed4-4504-a004-75b4eaa2da17","ios":"levelo://app?vid=58b0c114-eed4-4504-a004-75b4eaa2da17"},"vehicle_type_id":"4","last_reported":1731391961,"current_range_meters":37600,"station_id":"ce4bgr92rcd13ifvqc7g","pricing_plan_id":"cebpf4jnsgd1na2vs0mg"},{"bike_id":"fe88881f-4d0d-4590-a9c4-154cbfd945b3","system_id":"levelo_inurba_marseille","lat":43.26209,"lon":5.37445,"is_reserved":false,"is_disabled":false,"rental_uris":{"android":"levelo://app?vid=fe88881f-4d0d-4590-a9c4-154cbfd945b3","ios":"levelo://app?vid=fe88881f-4d0d-4590-a9c4-154cbfd945b3"},"vehicle_type_id":"4","last_reported":1731391961,"current_range_meters":16000,"station_id":"ce4bhgp2rcd13ifvqfc0","pricing_plan_id":"cebpf4jnsgd1na2vs0mg"},{"bike_id":"8046cf83-800a-4fbc-ad87-b439893e0919","system_id":"levelo_inurba_marseille","lat":43.29195,"lon":5.39301,"is_reserved":false,"is_disabled":false,"rental_uris":{"android":"levelo://app?vid=8046cf83-800a-4fbc-ad87-b439893e0919","ios":"levelo://app?vid=8046cf83-800a-4fbc-ad87-b439893e0919"},"vehicle_type_id":"4","last_reported":1731391961,"current_range_meters":8400,"station_id":"ce4bh192rcd13ifvqdd0","pricing_plan_id":"cebpf4jnsgd1na2vs0mg"},{"bike_id":"38befafa-005a-48da-b8a2-6e79b9913cfd","system_id":"levelo_inurba_marseille","lat":43.30436,"lon":5.42549,"is_reserved":false,"is_disabled":false,"rental_uris":{"android":"levelo://app?vid=38befafa-005a-48da-b8a2-6e79b9913cfd","ios":"levelo://app?vid=38befafa-005a-48da-b8a2-6e79b9913cfd"},"vehicle_type_id":"4","last_reported":1731391961,"current_range_meters":3200,"station_id":"","pricing_plan_id":"cebpf4jnsgd1na2vs0mg"},{"bike_id":"d5e45547-3c6c-49d3-a9e5-782864bb2d0e","system_id":"levelo_inurba_marseille","lat":43.28463,"lon":5.35887,"is_reserved":false,"is_disabled":false,"rental_uris":{"android":"levelo://app?vid=d5e45547-3c6c-49d3-a9e5-782864bb2d0e","ios":"levelo://app?vid=d5e45547-3c6c-49d3-a9e5-782864bb2d0e"},"vehicle_type_id":"4","last_reported":1731391961,"current_range_meters":37600,"station_id":"ce4bhah2rcd13ifvqei0","pricing_plan_id":"cebpf4jnsgd1na2vs0mg"},{"bike_id":"941ea951-b8b2-41e8-9dc6-73721a59ab36","system_id":"levelo_inurba_marseille","lat":43.280783,"lon":5.396562,"is_reserved":false,"is_disabled":false,"rental_uris":{"android":"levelo://app?vid=941ea951-b8b2-41e8-9dc6-73721a59ab36","ios":"levelo://app?vid=941ea951-b8b2-41e8-9dc6-73721a59ab36"},"vehicle_type_id":"4","last_reported":1731391961,"current_range_meters":39200,"station_id":"ce4bho12rcd13ifvqh2g","pricing_plan_id":"cebpf4jnsgd1na2vs0mg"},{"bike_id":"e0dd5ad8-53cf-4379-b894-58b137568b15","system_id":"levelo_inurba_marseille","lat":43.22918,"lon":5.35391,"is_reserved":false,"is_disabled":false,"rental_uris":{"android":"levelo://app?vid=e0dd5ad8-53cf-4379-b894-58b137568b15","ios":"levelo://app?vid=e0dd5ad8-53cf-4379-b894-58b137568b15"},"vehicle_type_id":"4","last_reported":1731391961,"current_range_meters":37600,"station_id":"cpo3532slgdg3j2ikp40","pricing_plan_id":"cebpf4jnsgd1na2vs0mg"},{"bike_id":"c8035b49-1282-4835-acf2-b33647f9510b","system_id":"levelo_inurba_marseille","lat":43.311156,"lon":5.377705,"is_reserved":false,"is_disabled":false,"rental_uris":{"android":"levelo://app?vid=c8035b49-1282-4835-acf2-b33647f9510b","ios":"levelo://app?vid=c8035b49-1282-4835-acf2-b33647f9510b"},"vehicle_type_id":"4","last_reported":1731391961,"current_range_meters":38800,"station_id":"ce4bgt92rcd13ifvqcg0","pricing_plan_id":"cebpf4jnsgd1na2vs0mg"},{"bike_id":"0ff30c97-d032-4bd2-b806-0ba1b23f1458","system_id":"levelo_inurba_marseille","lat":43.29896,"lon":5.43662,"is_reserved":false,"is_disabled":false,"rental_uris":{"android":"levelo://app?vid=0ff30c97-d032-4bd2-b806-0ba1b23f1458","ios":"levelo://app?vid=0ff30c97-d032-4bd2-b806-0ba1b23f1458"},"vehicle_type_id":"4","last_reported":1731391961,"current_range_meters":39200,"station_id":"ce4bhpp2rcd13ifvqhfg","pricing_plan_id":"cebpf4jnsgd1na2vs0mg"},{"bike_id":"81bbffab-2294-4802-a46f-42950b37b5d6","system_id":"levelo_inurba_marseille","lat":43.23948,"lon":5.36637,"is_reserved":false,"is_disabled":false,"rental_uris":{"android":"levelo://app?vid=81bbffab-2294-4802-a46f-42950b37b5d6","ios":"levelo://app?vid=81bbffab-2294-4802-a46f-42950b37b5d6"},"vehicle_type_id":"4","last_reported":1731391961,"current_range_meters":37600,"station_id":"ce4bhi12rcd13ifvqfp0","pricing_plan_id":"cebpf4jnsgd1na2vs0mg"},{"bike_id":"b6459786-f7ad-4308-8fc7-9d430346d23e","system_id":"levelo_inurba_marseille","lat":43.28344,"lon":5.38108,"is_reserved":false,"is_disabled":false,"rental_uris":{"android":"levelo://app?vid=b6459786-f7ad-4308-8fc7-9d430346d23e","ios":"levelo://app?vid=b6459786-f7ad-4308-8fc7-9d430346d23e"},"vehicle_type_id":"4","last_reported":1731391961,"current_range_meters":38400,"station_id":"ce4bh412rcd13ifvqdr0","pricing_plan_id":"cebpf4jnsgd1na2vs0mg"},{"bike_id":"647db640-e6dc-4daa-9749-1b2ec76d71b3","system_id":"levelo_inurba_marseille","lat":43.27071,"lon":5.42277,"is_reserved":false,"is_disabled":false,"rental_uris":{"android":"levelo://app?vid=647db640-e6dc-4daa-9749-1b2ec76d71b3","ios":"levelo://app?vid=647db640-e6dc-4daa-9749-1b2ec76d71b3"},"vehicle_type_id":"4","last_reported":1731391961,"current_range_meters":39200,"station_id":"ce4bhk92rcd13ifvqgb0","pricing_plan_id":"cebpf4jnsgd1na2vs0mg"},{"bike_id":"88a7325a-e421-4e7d-8495-b42a2ef41c7b","system_id":"levelo_inurba_marseille","lat":43.24807,"lon":5.37455,"is_reserved":false,"is_disabled":false,"rental_uris":{"android":"levelo://app?vid=88a7325a-e421-4e7d-8495-b42a2ef41c7b","ios":"levelo://app?vid=88a7325a-e421-4e7d-8495-b42a2ef41c7b"},"vehicle_type_id":"4","last_reported":1731391961,"current_range_meters":37600,"station_id":"ce4bhgh2rcd13ifvqfb0","pricing_plan_id":"cebpf4jnsgd1na2vs0mg"},{"bike_id":"4e66a56d-9be8-4549-8e96-74abaa4f7a6d","system_id":"levelo_inurba_marseille","lat":43.28152,"lon":5.42648,"is_reserved":false,"is_disabled":false,"rental_uris":{"android":"levelo://app?vid=4e66a56d-9be8-4549-8e96-74abaa4f7a6d","ios":"levelo://app?vid=4e66a56d-9be8-4549-8e96-74abaa4f7a6d"},"vehicle_type_id":"4","last_reported":1731391961,"current_range_meters":38400,"station_id":"ce4bhnh2rcd13ifvqgug","pricing_plan_id":"cebpf4jnsgd1na2vs0mg"},{"bike_id":"a0bfc5a0-e8d8-49ee-a67b-49ddf3cd60be","system_id":"levelo_inurba_marseille","lat":43.25488,"lon":5.37652,"is_reserved":false,"is_disabled":false,"rental_uris":{"android":"levelo://app?vid=a0bfc5a0-e8d8-49ee-a67b-49ddf3cd60be","ios":"levelo://app?vid=a0bfc5a0-e8d8-49ee-a67b-49ddf3cd60be"},"vehicle_type_id":"4","last_reported":1731391961,"current_range_meters":38000,"station_id":"ce4bhh12rcd13ifvqff0","pricing_plan_id":"cebpf4jnsgd1na2vs0mg"},{"bike_id":"fc01d943-4616-4d37-8e17-5947c751d06c","system_id":"levelo_inurba_marseille","lat":43.28099,"lon":5.37839,"is_reserved":false,"is_disabled":false,"rental_uris":{"android":"levelo://app?vid=fc01d943-4616-4d37-8e17-5947c751d06c","ios":"levelo://app?vid=fc01d943-4616-4d37-8e17-5947c751d06c"},"vehicle_type_id":"4","last_reported":1731391961,"current_range_meters":38800,"station_id":"ce4bha12rcd13ifvqee0","pricing_plan_id":"cebpf4jnsgd1na2vs0mg"},{"bike_id":"77a40fef-47f6-4b51-b992-52fc730c7742","system_id":"levelo_inurba_marseille","lat":43.27305,"lon":5.39049,"is_reserved":false,"is_disabled":false,"rental_uris":{"android":"levelo://app?vid=77a40fef-47f6-4b51-b992-52fc730c7742","ios":"levelo://app?vid=77a40fef-47f6-4b51-b992-52fc730c7742"},"vehicle_type_id":"4","last_reported":1731391961,"current_range_meters":12800,"station_id":"ce4bhgp2rcd13ifvqfe0","pricing_plan_id":"cebpf4jnsgd1na2vs0mg"},{"bike_id":"abd60e21-aebf-48b2-8331-8e8d6f687586","system_id":"levelo_inurba_marseille","lat":43.30796,"lon":5.37658,"is_reserved":false,"is_disabled":false,"rental_uris":{"android":"levelo://app?vid=abd60e21-aebf-48b2-8331-8e8d6f687586","ios":"levelo://app?vid=abd60e21-aebf-48b2-8331-8e8d6f687586"},"vehicle_type_id":"4","last_reported":1731391961,"current_range_meters":31200,"station_id":"ce4bgv92rcd13ifvqcq0","pricing_plan_id":"cebpf4jnsgd1na2vs0mg"},{"bike_id":"64c3e9c6-c3fc-4058-9a43-212bf2779561","system_id":"levelo_inurba_marseille","lat":43.30298,"lon":5.36899,"is_reserved":false,"is_disabled":false,"rental_uris":{"android":"levelo://app?vid=64c3e9c6-c3fc-4058-9a43-212bf2779561","ios":"levelo://app?vid=64c3e9c6-c3fc-4058-9a43-212bf2779561"},"vehicle_type_id":"4","last_reported":1731391961,"current_range_meters":38800,"station_id":"ce4bgqh2rcd13ifvqc5g","pricing_plan_id":"cebpf4jnsgd1na2vs0mg"},{"bike_id":"257e0e21-8635-4ead-9615-69ff5994ff9e","system_id":"levelo_inurba_marseille","lat":43.30944,"lon":5.39045,"is_reserved":false,"is_disabled":false,"rental_uris":{"android":"levelo://app?vid=257e0e21-8635-4ead-9615-69ff5994ff9e","ios":"levelo://app?vid=257e0e21-8635-4ead-9615-69ff5994ff9e"},"vehicle_type_id":"4","last_reported":1731391961,"current_range_meters":38800,"station_id":"ce4bgup2rcd13ifvqco0","pricing_plan_id":"cebpf4jnsgd1na2vs0mg"},{"bike_id":"3e50a673-a70a-4e99-8474-4a8234c1885d","system_id":"levelo_inurba_marseille","lat":43.31276,"lon":5.40169,"is_reserved":false,"is_disabled":false,"rental_uris":{"android":"levelo://app?vid=3e50a673-a70a-4e99-8474-4a8234c1885d","ios":"levelo://app?vid=3e50a673-a70a-4e99-8474-4a8234c1885d"},"vehicle_type_id":"4","last_reported":1731391961,"current_range_meters":37600,"station_id":"ce4bh092rcd13ifvqd30","pricing_plan_id":"cebpf4jnsgd1na2vs0mg"},{"bike_id":"ca470591-2acf-4dcf-8a9b-56688197c9a2","system_id":"levelo_inurba_marseille","lat":43.28656,"lon":5.3635,"is_reserved":false,"is_disabled":false,"rental_uris":{"android":"levelo://app?vid=ca470591-2acf-4dcf-8a9b-56688197c9a2","ios":"levelo://app?vid=ca470591-2acf-4dcf-8a9b-56688197c9a2"},"vehicle_type_id":"4","last_reported":1731391961,"current_range_meters":32800,"station_id":"ce4bhah2rcd13ifvqej0","pricing_plan_id":"cebpf4jnsgd1na2vs0mg"},{"bike_id":"025dfd54-cd61-4f04-aafc-a4949996d4f7","system_id":"levelo_inurba_marseille","lat":43.26777,"lon":5.39418,"is_reserved":false,"is_disabled":false,"rental_uris":{"android":"levelo://app?vid=025dfd54-cd61-4f04-aafc-a4949996d4f7","ios":"levelo://app?vid=025dfd54-cd61-4f04-aafc-a4949996d4f7"},"vehicle_type_id":"4","last_reported":1731391961,"current_range_meters":38800,"station_id":"ce4bhh12rcd13ifvqfg0","pricing_plan_id":"cebpf4jnsgd1na2vs0mg"},{"bike_id":"a875991b-6091-43df-8026-3e7fab422ca5","system_id":"levelo_inurba_marseille","lat":43.31276,"lon":5.40162,"is_reserved":false,"is_disabled":false,"rental_uris":{"android":"levelo://app?vid=a875991b-6091-43df-8026-3e7fab422ca5","ios":"levelo://app?vid=a875991b-6091-43df-8026-3e7fab422ca5"},"vehicle_type_id":"4","last_reported":1731391961,"current_range_meters":38800,"station_id":"ce4bh092rcd13ifvqd30","pricing_plan_id":"cebpf4jnsgd1na2vs0mg"},{"bike_id":"b7fee71f-fba8-498a-aa2a-878f5bb4c213","system_id":"levelo_inurba_marseille","lat":43.283522,"lon":5.381096,"is_reserved":false,"is_disabled":false,"rental_uris":{"android":"levelo://app?vid=b7fee71f-fba8-498a-aa2a-878f5bb4c213","ios":"levelo://app?vid=b7fee71f-fba8-498a-aa2a-878f5bb4c213"},"vehicle_type_id":"4","last_reported":1731391961,"current_range_meters":6400,"station_id":"ce4bh412rcd13ifvqdr0","pricing_plan_id":"cebpf4jnsgd1na2vs0mg"},{"bike_id":"03d125c4-466d-4b2a-99a4-924437eb4879","system_id":"levelo_inurba_marseille","lat":43.32365,"lon":5.38884,"is_reserved":false,"is_disabled":false,"rental_uris":{"android":"levelo://app?vid=03d125c4-466d-4b2a-99a4-924437eb4879","ios":"levelo://app?vid=03d125c4-466d-4b2a-99a4-924437eb4879"},"vehicle_type_id":"4","last_reported":1731391961,"current_range_meters":36000,"station_id":"ce4bhqp2rcd13ifvqhog","pricing_plan_id":"cebpf4jnsgd1na2vs0mg"},{"bike_id":"9efc3f96-f8de-4885-9ec6-bfdcfe63dbb0","system_id":"levelo_inurba_marseille","lat":43.28463,"lon":5.35884,"is_reserved":false,"is_disabled":false,"rental_uris":{"android":"levelo://app?vid=9efc3f96-f8de-4885-9ec6-bfdcfe63dbb0","ios":"levelo://app?vid=9efc3f96-f8de-4885-9ec6-bfdcfe63dbb0"},"vehicle_type_id":"4","last_reported":1731391961,"current_range_meters":38400,"station_id":"ce4bhah2rcd13ifvqei0","pricing_plan_id":"cebpf4jnsgd1na2vs0mg"},{"bike_id":"0a3e6fa3-5da7-4ab0-8dac-9530a7941547","system_id":"levelo_inurba_marseille","lat":43.32058,"lon":5.41547,"is_reserved":false,"is_disabled":false,"rental_uris":{"android":"levelo://app?vid=0a3e6fa3-5da7-4ab0-8dac-9530a7941547","ios":"levelo://app?vid=0a3e6fa3-5da7-4ab0-8dac-9530a7941547"},"vehicle_type_id":"4","last_reported":1731391961,"current_range_meters":18800,"station_id":"ce4bhq92rcd13ifvqhkg","pricing_plan_id":"cebpf4jnsgd1na2vs0mg"},{"bike_id":"183f34aa-47f1-47f3-8893-fbb42f65519c","system_id":"levelo_inurba_marseille","lat":43.25499,"lon":5.37651,"is_reserved":false,"is_disabled":false,"rental_uris":{"android":"levelo://app?vid=183f34aa-47f1-47f3-8893-fbb42f65519c","ios":"levelo://app?vid=183f34aa-47f1-47f3-8893-fbb42f65519c"},"vehicle_type_id":"4","last_reported":1731391961,"current_range_meters":34000,"station_id":"ce4bhh12rcd13ifvqff0","pricing_plan_id":"cebpf4jnsgd1na2vs0mg"},{"bike_id":"cfeb5094-b5a1-4e6e-bf6a-f6dbddf5a250","system_id":"levelo_inurba_marseille","lat":43.2706,"lon":5.40257,"is_reserved":false,"is_disabled":false,"rental_uris":{"android":"levelo://app?vid=cfeb5094-b5a1-4e6e-bf6a-f6dbddf5a250","ios":"levelo://app?vid=cfeb5094-b5a1-4e6e-bf6a-f6dbddf5a250"},"vehicle_type_id":"4","last_reported":1731391961,"current_range_meters":36400,"station_id":"ce4bhk92rcd13ifvqgc0","pricing_plan_id":"cebpf4jnsgd1na2vs0mg"},{"bike_id":"0389f6ba-9b11-4bae-aa59-6c887bee55e5","system_id":"levelo_inurba_marseille","lat":43.322013,"lon":5.387098,"is_reserved":false,"is_disabled":false,"rental_uris":{"android":"levelo://app?vid=0389f6ba-9b11-4bae-aa59-6c887bee55e5","ios":"levelo://app?vid=0389f6ba-9b11-4bae-aa59-6c887bee55e5"},"vehicle_type_id":"4","last_reported":1731391961,"current_range_meters":30000,"station_id":"","pricing_plan_id":"cebpf4jnsgd1na2vs0mg"},{"bike_id":"d53bc205-4d96-486f-909a-2e795a430688","system_id":"levelo_inurba_marseille","lat":43.27177,"lon":5.40988,"is_reserved":false,"is_disabled":false,"rental_uris":{"android":"levelo://app?vid=d53bc205-4d96-486f-909a-2e795a430688","ios":"levelo://app?vid=d53bc205-4d96-486f-909a-2e795a430688"},"vehicle_type_id":"4","last_reported":1731391961,"current_range_meters":5600,"station_id":"ce4bhl12rcd13ifvqgf0","pricing_plan_id":"cebpf4jnsgd1na2vs0mg"},{"bike_id":"25c91aca-eb79-41b7-8d92-995059972d0e","system_id":"levelo_inurba_marseille","lat":43.30146,"lon":5.38074,"is_reserved":false,"is_disabled":false,"rental_uris":{"android":"levelo://app?vid=25c91aca-eb79-41b7-8d92-995059972d0e","ios":"levelo://app?vid=25c91aca-eb79-41b7-8d92-995059972d0e"},"vehicle_type_id":"4","last_reported":1731391961,"current_range_meters":36400,"station_id":"ce4bgjp2rcd13ifvqbh0","pricing_plan_id":"cebpf4jnsgd1na2vs0mg"},{"bike_id":"45199710-2149-4d79-9989-3e056ef1425a","system_id":"levelo_inurba_marseille","lat":43.30134,"lon":5.37423,"is_reserved":false,"is_disabled":false,"rental_uris":{"android":"levelo://app?vid=45199710-2149-4d79-9989-3e056ef1425a","ios":"levelo://app?vid=45199710-2149-4d79-9989-3e056ef1425a"},"vehicle_type_id":"4","last_reported":1731391961,"current_range_meters":37600,"station_id":"ce4bgs92rcd13ifvqcc0","pricing_plan_id":"cebpf4jnsgd1na2vs0mg"},{"bike_id":"93323a0d-c43d-4459-a1e2-fa128b85a9cb","system_id":"levelo_inurba_marseille","lat":43.27905,"lon":5.39592,"is_reserved":false,"is_disabled":false,"rental_uris":{"android":"levelo://app?vid=93323a0d-c43d-4459-a1e2-fa128b85a9cb","ios":"levelo://app?vid=93323a0d-c43d-4459-a1e2-fa128b85a9cb"},"vehicle_type_id":"4","last_reported":1731391961,"current_range_meters":37600,"station_id":"ce4bhf92rcd13ifvqf40","pricing_plan_id":"cebpf4jnsgd1na2vs0mg"},{"bike_id":"d8d4b858-8aef-45cb-b3ba-1505a65462bf","system_id":"levelo_inurba_marseille","lat":43.29034,"lon":5.3756,"is_reserved":false,"is_disabled":false,"rental_uris":{"android":"levelo://app?vid=d8d4b858-8aef-45cb-b3ba-1505a65462bf","ios":"levelo://app?vid=d8d4b858-8aef-45cb-b3ba-1505a65462bf"},"vehicle_type_id":"4","last_reported":1731391961,"current_range_meters":33200,"station_id":"ce4bh692rcd13ifvqe90","pricing_plan_id":"cebpf4jnsgd1na2vs0mg"},{"bike_id":"ac5941e1-3fd0-4a36-b1af-70a3352289e4","system_id":"levelo_inurba_marseille","lat":43.28031,"lon":5.36948,"is_reserved":false,"is_disabled":false,"rental_uris":{"android":"levelo://app?vid=ac5941e1-3fd0-4a36-b1af-70a3352289e4","ios":"levelo://app?vid=ac5941e1-3fd0-4a36-b1af-70a3352289e4"},"vehicle_type_id":"4","last_reported":1731391961,"current_range_meters":38800,"station_id":"ce4bha12rcd13ifvqef0","pricing_plan_id":"cebpf4jnsgd1na2vs0mg"},{"bike_id":"87560b99-eb6a-40f4-9edc-fe0557ad2c24","system_id":"levelo_inurba_marseille","lat":43.27532,"lon":5.42789,"is_reserved":false,"is_disabled":false,"rental_uris":{"android":"levelo://app?vid=87560b99-eb6a-40f4-9edc-fe0557ad2c24","ios":"levelo://app?vid=87560b99-eb6a-40f4-9edc-fe0557ad2c24"},"vehicle_type_id":"4","last_reported":1731391961,"current_range_meters":16400,"station_id":"ce4bgvh2rcd13ifvqcs0","pricing_plan_id":"cebpf4jnsgd1na2vs0mg"},{"bike_id":"47aea41a-bbe0-424b-9b57-bc3ae1f79104","system_id":"levelo_inurba_marseille","lat":43.28352,"lon":5.38112,"is_reserved":false,"is_disabled":false,"rental_uris":{"android":"levelo://app?vid=47aea41a-bbe0-424b-9b57-bc3ae1f79104","ios":"levelo://app?vid=47aea41a-bbe0-424b-9b57-bc3ae1f79104"},"vehicle_type_id":"4","last_reported":1731391961,"current_range_meters":22000,"station_id":"ce4bh412rcd13ifvqdr0","pricing_plan_id":"cebpf4jnsgd1na2vs0mg"},{"bike_id":"12912c0c-de93-400c-aa24-7610028721b8","system_id":"levelo_inurba_marseille","lat":43.26495,"lon":5.39546,"is_reserved":false,"is_disabled":false,"rental_uris":{"android":"levelo://app?vid=12912c0c-de93-400c-aa24-7610028721b8","ios":"levelo://app?vid=12912c0c-de93-400c-aa24-7610028721b8"},"vehicle_type_id":"4","last_reported":1731391961,"current_range_meters":38800,"station_id":"ce4bhi12rcd13ifvqfq0","pricing_plan_id":"cebpf4jnsgd1na2vs0mg"},{"bike_id":"dea8e24b-36b5-4c6f-a7a1-18720dbf8f12","system_id":"levelo_inurba_marseille","lat":43.32485,"lon":5.36575,"is_reserved":false,"is_disabled":false,"rental_uris":{"android":"levelo://app?vid=dea8e24b-36b5-4c6f-a7a1-18720dbf8f12","ios":"levelo://app?vid=dea8e24b-36b5-4c6f-a7a1-18720dbf8f12"},"vehicle_type_id":"4","last_reported":1731391961,"current_range_meters":38000,"station_id":"ce4bhs12rcd13ifvqhvg","pricing_plan_id":"cebpf4jnsgd1na2vs0mg"},{"bike_id":"141c2232-cbe0-4185-ad79-d7c5f01972be","system_id":"levelo_inurba_marseille","lat":43.286654,"lon":5.363546,"is_reserved":false,"is_disabled":false,"rental_uris":{"android":"levelo://app?vid=141c2232-cbe0-4185-ad79-d7c5f01972be","ios":"levelo://app?vid=141c2232-cbe0-4185-ad79-d7c5f01972be"},"vehicle_type_id":"4","last_reported":1731391961,"current_range_meters":18800,"station_id":"ce4bhah2rcd13ifvqej0","pricing_plan_id":"cebpf4jnsgd1na2vs0mg"},{"bike_id":"46db45f5-e7e8-4ded-93be-0f41906b348a","system_id":"levelo_inurba_marseille","lat":43.29967,"lon":5.38493,"is_reserved":false,"is_disabled":false,"rental_uris":{"android":"levelo://app?vid=46db45f5-e7e8-4ded-93be-0f41906b348a","ios":"levelo://app?vid=46db45f5-e7e8-4ded-93be-0f41906b348a"},"vehicle_type_id":"4","last_reported":1731391961,"current_range_meters":32400,"station_id":"ce4bgj92rcd13ifvqbd0","pricing_plan_id":"cebpf4jnsgd1na2vs0mg"},{"bike_id":"d36d2d16-7cbd-4f56-a381-5c3e5fc20d4e","system_id":"levelo_inurba_marseille","lat":43.29247,"lon":5.40909,"is_reserved":false,"is_disabled":false,"rental_uris":{"android":"levelo://app?vid=d36d2d16-7cbd-4f56-a381-5c3e5fc20d4e","ios":"levelo://app?vid=d36d2d16-7cbd-4f56-a381-5c3e5fc20d4e"},"vehicle_type_id":"4","last_reported":1731391961,"current_range_meters":26800,"station_id":"ce4bh192rcd13ifvqdc0","pricing_plan_id":"cebpf4jnsgd1na2vs0mg"},{"bike_id":"a10aa59d-48d5-4050-a78e-e22a5968c8f7","system_id":"levelo_inurba_marseille","lat":43.29284,"lon":5.4012,"is_reserved":false,"is_disabled":false,"rental_uris":{"android":"levelo://app?vid=a10aa59d-48d5-4050-a78e-e22a5968c8f7","ios":"levelo://app?vid=a10aa59d-48d5-4050-a78e-e22a5968c8f7"},"vehicle_type_id":"4","last_reported":1731391961,"current_range_meters":35200,"station_id":"ce4bh312rcd13ifvqdk0","pricing_plan_id":"cebpf4jnsgd1na2vs0mg"},{"bike_id":"cfdc9915-a683-418d-b0c6-c97e9fa3083e","system_id":"levelo_inurba_marseille","lat":43.30929,"lon":5.40149,"is_reserved":false,"is_disabled":false,"rental_uris":{"android":"levelo://app?vid=cfdc9915-a683-418d-b0c6-c97e9fa3083e","ios":"levelo://app?vid=cfdc9915-a683-418d-b0c6-c97e9fa3083e"},"vehicle_type_id":"4","last_reported":1731391961,"current_range_meters":38800,"station_id":"ce4bgvp2rcd13ifvqct0","pricing_plan_id":"cebpf4jnsgd1na2vs0mg"},{"bike_id":"acf86c50-9156-4f9b-806d-8f4522e6bc0b","system_id":"levelo_inurba_marseille","lat":43.29035,"lon":5.37567,"is_reserved":false,"is_disabled":false,"rental_uris":{"android":"levelo://app?vid=acf86c50-9156-4f9b-806d-8f4522e6bc0b","ios":"levelo://app?vid=acf86c50-9156-4f9b-806d-8f4522e6bc0b"},"vehicle_type_id":"4","last_reported":1731391961,"current_range_meters":38000,"station_id":"ce4bh692rcd13ifvqe90","pricing_plan_id":"cebpf4jnsgd1na2vs0mg"},{"bike_id":"33c4a1e5-27a0-4532-8c93-2d50159384fb","system_id":"levelo_inurba_marseille","lat":43.27808,"lon":5.40712,"is_reserved":false,"is_disabled":false,"rental_uris":{"android":"levelo://app?vid=33c4a1e5-27a0-4532-8c93-2d50159384fb","ios":"levelo://app?vid=33c4a1e5-27a0-4532-8c93-2d50159384fb"},"vehicle_type_id":"4","last_reported":1731391961,"current_range_meters":28400,"station_id":"ce4bhnh2rcd13ifvqgtg","pricing_plan_id":"cebpf4jnsgd1na2vs0mg"},{"bike_id":"15ad8b44-55c9-4572-a02b-d7c6605dd1a3","system_id":"levelo_inurba_marseille","lat":43.25831,"lon":5.39429,"is_reserved":false,"is_disabled":false,"rental_uris":{"android":"levelo://app?vid=15ad8b44-55c9-4572-a02b-d7c6605dd1a3","ios":"levelo://app?vid=15ad8b44-55c9-4572-a02b-d7c6605dd1a3"},"vehicle_type_id":"4","last_reported":1731391961,"current_range_meters":32400,"station_id":"ce4bhip2rcd13ifvqft0","pricing_plan_id":"cebpf4jnsgd1na2vs0mg"},{"bike_id":"85098a99-d8d0-465f-ac8a-1a515fc868f5","system_id":"levelo_inurba_marseille","lat":43.3014,"lon":5.38089,"is_reserved":false,"is_disabled":false,"rental_uris":{"android":"levelo://app?vid=85098a99-d8d0-465f-ac8a-1a515fc868f5","ios":"levelo://app?vid=85098a99-d8d0-465f-ac8a-1a515fc868f5"},"vehicle_type_id":"4","last_reported":1731391961,"current_range_meters":17200,"station_id":"ce4bgjp2rcd13ifvqbh0","pricing_plan_id":"cebpf4jnsgd1na2vs0mg"},{"bike_id":"6551d46d-6bf3-4c7e-9fae-1492acb6e8e7","system_id":"levelo_inurba_marseille","lat":43.31724,"lon":5.42404,"is_reserved":false,"is_disabled":false,"rental_uris":{"android":"levelo://app?vid=6551d46d-6bf3-4c7e-9fae-1492acb6e8e7","ios":"levelo://app?vid=6551d46d-6bf3-4c7e-9fae-1492acb6e8e7"},"vehicle_type_id":"4","last_reported":1731391961,"current_range_meters":37600,"station_id":"ce4bhp92rcd13ifvqhbg","pricing_plan_id":"cebpf4jnsgd1na2vs0mg"},{"bike_id":"8c0d0ab1-f28b-4b96-bdef-3496d20980e0","system_id":"levelo_inurba_marseille","lat":43.31166,"lon":5.38711,"is_reserved":false,"is_disabled":false,"rental_uris":{"android":"levelo://app?vid=8c0d0ab1-f28b-4b96-bdef-3496d20980e0","ios":"levelo://app?vid=8c0d0ab1-f28b-4b96-bdef-3496d20980e0"},"vehicle_type_id":"4","last_reported":1731391961,"current_range_meters":30400,"station_id":"ce4bgv12rcd13ifvqcp0","pricing_plan_id":"cebpf4jnsgd1na2vs0mg"},{"bike_id":"3a380d17-df8f-4b0b-9249-c031a1e66b20","system_id":"levelo_inurba_marseille","lat":43.25577,"lon":5.38239,"is_reserved":false,"is_disabled":false,"rental_uris":{"android":"levelo://app?vid=3a380d17-df8f-4b0b-9249-c031a1e66b20","ios":"levelo://app?vid=3a380d17-df8f-4b0b-9249-c031a1e66b20"},"vehicle_type_id":"4","last_reported":1731391961,"current_range_meters":35200,"station_id":"ce4bhih2rcd13ifvqfs0","pricing_plan_id":"cebpf4jnsgd1na2vs0mg"},{"bike_id":"3248f9d0-f007-45e7-a87b-87ac6f6afea0","system_id":"levelo_inurba_marseille","lat":43.30459,"lon":5.37905,"is_reserved":false,"is_disabled":false,"rental_uris":{"android":"levelo://app?vid=3248f9d0-f007-45e7-a87b-87ac6f6afea0","ios":"levelo://app?vid=3248f9d0-f007-45e7-a87b-87ac6f6afea0"},"vehicle_type_id":"4","last_reported":1731391961,"current_range_meters":35200,"station_id":"ce4bgup2rcd13ifvqcn0","pricing_plan_id":"cebpf4jnsgd1na2vs0mg"},{"bike_id":"036f5223-a94e-4ad8-8170-3d8ab70f5edc","system_id":"levelo_inurba_marseille","lat":43.2848,"lon":5.38547,"is_reserved":false,"is_disabled":false,"rental_uris":{"android":"levelo://app?vid=036f5223-a94e-4ad8-8170-3d8ab70f5edc","ios":"levelo://app?vid=036f5223-a94e-4ad8-8170-3d8ab70f5edc"},"vehicle_type_id":"4","last_reported":1731391961,"current_range_meters":30000,"station_id":"ce4bh8p2rcd13ifvqeb0","pricing_plan_id":"cebpf4jnsgd1na2vs0mg"},{"bike_id":"4c88044d-18dd-4d7b-a66b-04d4050242b5","system_id":"levelo_inurba_marseille","lat":43.27439,"lon":5.39395,"is_reserved":false,"is_disabled":false,"rental_uris":{"android":"levelo://app?vid=4c88044d-18dd-4d7b-a66b-04d4050242b5","ios":"levelo://app?vid=4c88044d-18dd-4d7b-a66b-04d4050242b5"},"vehicle_type_id":"4","last_reported":1731391961,"current_range_meters":34800,"station_id":"ce4bhdp2rcd13ifvqf20","pricing_plan_id":"cebpf4jnsgd1na2vs0mg"},{"bike_id":"9f059631-bd7a-4a9c-a2a8-30a408586de8","system_id":"levelo_inurba_marseille","lat":43.2962,"lon":5.37723,"is_reserved":false,"is_disabled":false,"rental_uris":{"android":"levelo://app?vid=9f059631-bd7a-4a9c-a2a8-30a408586de8","ios":"levelo://app?vid=9f059631-bd7a-4a9c-a2a8-30a408586de8"},"vehicle_type_id":"4","last_reported":1731391961,"current_range_meters":34800,"station_id":"ce4bgi92rcd13ifvqb90","pricing_plan_id":"cebpf4jnsgd1na2vs0mg"},{"bike_id":"dae78a48-3da0-45bb-bd43-1861b1847e12","system_id":"levelo_inurba_marseille","lat":43.28349,"lon":5.38109,"is_reserved":false,"is_disabled":false,"rental_uris":{"android":"levelo://app?vid=dae78a48-3da0-45bb-bd43-1861b1847e12","ios":"levelo://app?vid=dae78a48-3da0-45bb-bd43-1861b1847e12"},"vehicle_type_id":"4","last_reported":1731391961,"current_range_meters":38000,"station_id":"ce4bh412rcd13ifvqdr0","pricing_plan_id":"cebpf4jnsgd1na2vs0mg"},{"bike_id":"f7403d44-18bb-4fcd-a284-5d8276d25914","system_id":"levelo_inurba_marseille","lat":43.24666,"lon":5.38152,"is_reserved":false,"is_disabled":false,"rental_uris":{"android":"levelo://app?vid=f7403d44-18bb-4fcd-a284-5d8276d25914","ios":"levelo://app?vid=f7403d44-18bb-4fcd-a284-5d8276d25914"},"vehicle_type_id":"4","last_reported":1731391961,"current_range_meters":38800,"station_id":"ce4bhih2rcd13ifvqfr0","pricing_plan_id":"cebpf4jnsgd1na2vs0mg"},{"bike_id":"307f472c-576c-4d90-a06d-9ae8a20dafea","system_id":"levelo_inurba_marseille","lat":43.31357,"lon":5.36691,"is_reserved":false,"is_disabled":false,"rental_uris":{"android":"levelo://app?vid=307f472c-576c-4d90-a06d-9ae8a20dafea","ios":"levelo://app?vid=307f472c-576c-4d90-a06d-9ae8a20dafea"},"vehicle_type_id":"4","last_reported":1731391961,"current_range_meters":36400,"station_id":"ce4bgr92rcd13ifvqc6g","pricing_plan_id":"cebpf4jnsgd1na2vs0mg"},{"bike_id":"a4c70d3d-94b7-4485-a77a-e2651b4cb24b","system_id":"levelo_inurba_marseille","lat":43.30559,"lon":5.37307,"is_reserved":false,"is_disabled":false,"rental_uris":{"android":"levelo://app?vid=a4c70d3d-94b7-4485-a77a-e2651b4cb24b","ios":"levelo://app?vid=a4c70d3d-94b7-4485-a77a-e2651b4cb24b"},"vehicle_type_id":"4","last_reported":1731391961,"current_range_meters":28800,"station_id":"ce4bhs12rcd13ifvqhvg","pricing_plan_id":"cebpf4jnsgd1na2vs0mg"},{"bike_id":"da4ee9a2-7d5a-4a76-9358-e8bc42011f15","system_id":"levelo_inurba_marseille","lat":43.33605,"lon":5.41019,"is_reserved":false,"is_disabled":false,"rental_uris":{"android":"levelo://app?vid=da4ee9a2-7d5a-4a76-9358-e8bc42011f15","ios":"levelo://app?vid=da4ee9a2-7d5a-4a76-9358-e8bc42011f15"},"vehicle_type_id":"4","last_reported":1731391961,"current_range_meters":39200,"station_id":"ce4bhqh2rcd13ifvqhmg","pricing_plan_id":"cebpf4jnsgd1na2vs0mg"},{"bike_id":"b2f3adca-b446-441d-a1ab-5903c30fd432","system_id":"levelo_inurba_marseille","lat":43.33772,"lon":5.37447,"is_reserved":false,"is_disabled":false,"rental_uris":{"android":"levelo://app?vid=b2f3adca-b446-441d-a1ab-5903c30fd432","ios":"levelo://app?vid=b2f3adca-b446-441d-a1ab-5903c30fd432"},"vehicle_type_id":"4","last_reported":1731391961,"current_range_meters":8000,"station_id":"","pricing_plan_id":"cebpf4jnsgd1na2vs0mg"},{"bike_id":"dfc0e8d3-cf7d-4bbb-bb8b-7546bf5e54ad","system_id":"levelo_inurba_marseille","lat":43.2694,"lon":5.40242,"is_reserved":false,"is_disabled":false,"rental_uris":{"android":"levelo://app?vid=dfc0e8d3-cf7d-4bbb-bb8b-7546bf5e54ad","ios":"levelo://app?vid=dfc0e8d3-cf7d-4bbb-bb8b-7546bf5e54ad"},"vehicle_type_id":"4","last_reported":1731391961,"current_range_meters":38800,"station_id":"cjm6bp8fraef2m0cb0m0","pricing_plan_id":"cebpf4jnsgd1na2vs0mg"},{"bike_id":"8120bf06-1fa5-4842-a10b-145dc9adee13","system_id":"levelo_inurba_marseille","lat":43.29659,"lon":5.37701,"is_reserved":false,"is_disabled":false,"rental_uris":{"android":"levelo://app?vid=8120bf06-1fa5-4842-a10b-145dc9adee13","ios":"levelo://app?vid=8120bf06-1fa5-4842-a10b-145dc9adee13"},"vehicle_type_id":"4","last_reported":1731391961,"current_range_meters":35600,"station_id":"ce4bhg92rcd13ifvqf90","pricing_plan_id":"cebpf4jnsgd1na2vs0mg"},{"bike_id":"ca5db060-c02c-4c9c-85b8-fa89c45fc361","system_id":"levelo_inurba_marseille","lat":43.28152,"lon":5.42643,"is_reserved":false,"is_disabled":false,"rental_uris":{"android":"levelo://app?vid=ca5db060-c02c-4c9c-85b8-fa89c45fc361","ios":"levelo://app?vid=ca5db060-c02c-4c9c-85b8-fa89c45fc361"},"vehicle_type_id":"4","last_reported":1731391961,"current_range_meters":38800,"station_id":"ce4bhnh2rcd13ifvqgug","pricing_plan_id":"cebpf4jnsgd1na2vs0mg"},{"bike_id":"b8c092b1-a5de-4f73-ab7a-241055e65cf8","system_id":"levelo_inurba_marseille","lat":43.25933,"lon":5.409099,"is_reserved":false,"is_disabled":false,"rental_uris":{"android":"levelo://app?vid=b8c092b1-a5de-4f73-ab7a-241055e65cf8","ios":"levelo://app?vid=b8c092b1-a5de-4f73-ab7a-241055e65cf8"},"vehicle_type_id":"4","last_reported":1731391961,"current_range_meters":38000,"station_id":"ce4bhm92rcd13ifvqglg","pricing_plan_id":"cebpf4jnsgd1na2vs0mg"},{"bike_id":"d52e8493-76de-4e92-96df-12a00039b59b","system_id":"levelo_inurba_marseille","lat":43.25499,"lon":5.37652,"is_reserved":false,"is_disabled":false,"rental_uris":{"android":"levelo://app?vid=d52e8493-76de-4e92-96df-12a00039b59b","ios":"levelo://app?vid=d52e8493-76de-4e92-96df-12a00039b59b"},"vehicle_type_id":"4","last_reported":1731391961,"current_range_meters":38000,"station_id":"ce4bhh12rcd13ifvqff0","pricing_plan_id":"cebpf4jnsgd1na2vs0mg"},{"bike_id":"3c8d9402-5602-453f-a44f-c2080c1431b8","system_id":"levelo_inurba_marseille","lat":43.274983,"lon":5.424468,"is_reserved":false,"is_disabled":false,"rental_uris":{"android":"levelo://app?vid=3c8d9402-5602-453f-a44f-c2080c1431b8","ios":"levelo://app?vid=3c8d9402-5602-453f-a44f-c2080c1431b8"},"vehicle_type_id":"4","last_reported":1731391961,"current_range_meters":37600,"station_id":"ce4bhn92rcd13ifvqgrg","pricing_plan_id":"cebpf4jnsgd1na2vs0mg"},{"bike_id":"82323c86-9e09-49a0-90c5-d2ba6154b9cb","system_id":"levelo_inurba_marseille","lat":43.27998,"lon":5.40016,"is_reserved":false,"is_disabled":false,"rental_uris":{"android":"levelo://app?vid=82323c86-9e09-49a0-90c5-d2ba6154b9cb","ios":"levelo://app?vid=82323c86-9e09-49a0-90c5-d2ba6154b9cb"},"vehicle_type_id":"4","last_reported":1731391961,"current_range_meters":34800,"station_id":"ce4bho92rcd13ifvqh4g","pricing_plan_id":"cebpf4jnsgd1na2vs0mg"},{"bike_id":"1c573e10-0a6c-409b-818c-7f7e8d274c59","system_id":"levelo_inurba_marseille","lat":43.231852,"lon":5.399865,"is_reserved":false,"is_disabled":false,"rental_uris":{"android":"levelo://app?vid=1c573e10-0a6c-409b-818c-7f7e8d274c59","ios":"levelo://app?vid=1c573e10-0a6c-409b-818c-7f7e8d274c59"},"vehicle_type_id":"4","last_reported":1731391961,"current_range_meters":38000,"station_id":"ce4bhn12rcd13ifvqgqg","pricing_plan_id":"cebpf4jnsgd1na2vs0mg"},{"bike_id":"9eb70065-8211-40ff-b11b-23faa1c99eeb","system_id":"levelo_inurba_marseille","lat":43.28568,"lon":5.39497,"is_reserved":false,"is_disabled":false,"rental_uris":{"android":"levelo://app?vid=9eb70065-8211-40ff-b11b-23faa1c99eeb","ios":"levelo://app?vid=9eb70065-8211-40ff-b11b-23faa1c99eeb"},"vehicle_type_id":"4","last_reported":1731391961,"current_range_meters":34800,"station_id":"ce4bh292rcd13ifvqdg0","pricing_plan_id":"cebpf4jnsgd1na2vs0mg"},{"bike_id":"3ff1b72a-c20b-4f05-aab8-318ae2b60234","system_id":"levelo_inurba_marseille","lat":43.28414,"lon":5.34993,"is_reserved":false,"is_disabled":false,"rental_uris":{"android":"levelo://app?vid=3ff1b72a-c20b-4f05-aab8-318ae2b60234","ios":"levelo://app?vid=3ff1b72a-c20b-4f05-aab8-318ae2b60234"},"vehicle_type_id":"4","last_reported":1731391961,"current_range_meters":28400,"station_id":"ce4bhbh2rcd13ifvqepg","pricing_plan_id":"cebpf4jnsgd1na2vs0mg"},{"bike_id":"e86b9b96-4c65-45e8-b0a4-0f51521e5e23","system_id":"levelo_inurba_marseille","lat":43.27914,"lon":5.39597,"is_reserved":false,"is_disabled":false,"rental_uris":{"android":"levelo://app?vid=e86b9b96-4c65-45e8-b0a4-0f51521e5e23","ios":"levelo://app?vid=e86b9b96-4c65-45e8-b0a4-0f51521e5e23"},"vehicle_type_id":"4","last_reported":1731391961,"current_range_meters":19600,"station_id":"ce4bhf92rcd13ifvqf40","pricing_plan_id":"cebpf4jnsgd1na2vs0mg"},{"bike_id":"abf7607e-f9dc-4663-83a2-506ca1c5839d","system_id":"levelo_inurba_marseille","lat":43.30465,"lon":5.37915,"is_reserved":false,"is_disabled":false,"rental_uris":{"android":"levelo://app?vid=abf7607e-f9dc-4663-83a2-506ca1c5839d","ios":"levelo://app?vid=abf7607e-f9dc-4663-83a2-506ca1c5839d"},"vehicle_type_id":"4","last_reported":1731391961,"current_range_meters":36400,"station_id":"ce4bgup2rcd13ifvqcn0","pricing_plan_id":"cebpf4jnsgd1na2vs0mg"},{"bike_id":"ed9aca48-e626-4447-9918-9e283c73d09e","system_id":"levelo_inurba_marseille","lat":43.26067,"lon":5.39394,"is_reserved":false,"is_disabled":false,"rental_uris":{"android":"levelo://app?vid=ed9aca48-e626-4447-9918-9e283c73d09e","ios":"levelo://app?vid=ed9aca48-e626-4447-9918-9e283c73d09e"},"vehicle_type_id":"4","last_reported":1731391961,"current_range_meters":36800,"station_id":"ce4bhh92rcd13ifvqfj0","pricing_plan_id":"cebpf4jnsgd1na2vs0mg"},{"bike_id":"b72ca6e7-47e9-42be-9a97-b74e22acdc0e","system_id":"levelo_inurba_marseille","lat":43.32102,"lon":5.36777,"is_reserved":false,"is_disabled":false,"rental_uris":{"android":"levelo://app?vid=b72ca6e7-47e9-42be-9a97-b74e22acdc0e","ios":"levelo://app?vid=b72ca6e7-47e9-42be-9a97-b74e22acdc0e"},"vehicle_type_id":"4","last_reported":1731391961,"current_range_meters":26000,"station_id":"ce4bhrh2rcd13ifvqhug","pricing_plan_id":"cebpf4jnsgd1na2vs0mg"},{"bike_id":"0e8b328d-d250-4022-b102-700ab6c44fe0","system_id":"levelo_inurba_marseille","lat":43.280362,"lon":5.369498,"is_reserved":false,"is_disabled":false,"rental_uris":{"android":"levelo://app?vid=0e8b328d-d250-4022-b102-700ab6c44fe0","ios":"levelo://app?vid=0e8b328d-d250-4022-b102-700ab6c44fe0"},"vehicle_type_id":"4","last_reported":1731391961,"current_range_meters":36400,"station_id":"ce4bha12rcd13ifvqef0","pricing_plan_id":"cebpf4jnsgd1na2vs0mg"},{"bike_id":"5b46ce18-e7d5-4e30-8def-85cfb1b5102d","system_id":"levelo_inurba_marseille","lat":43.23149,"lon":5.43722,"is_reserved":false,"is_disabled":false,"rental_uris":{"android":"levelo://app?vid=5b46ce18-e7d5-4e30-8def-85cfb1b5102d","ios":"levelo://app?vid=5b46ce18-e7d5-4e30-8def-85cfb1b5102d"},"vehicle_type_id":"4","last_reported":1731391961,"current_range_meters":38000,"station_id":"ce4bhmp2rcd13ifvqgog","pricing_plan_id":"cebpf4jnsgd1na2vs0mg"},{"bike_id":"f2289bf4-2038-4eb7-b270-ac009d16883d","system_id":"levelo_inurba_marseille","lat":43.24674,"lon":5.38166,"is_reserved":false,"is_disabled":false,"rental_uris":{"android":"levelo://app?vid=f2289bf4-2038-4eb7-b270-ac009d16883d","ios":"levelo://app?vid=f2289bf4-2038-4eb7-b270-ac009d16883d"},"vehicle_type_id":"4","last_reported":1731391961,"current_range_meters":8800,"station_id":"ce4bhih2rcd13ifvqfr0","pricing_plan_id":"cebpf4jnsgd1na2vs0mg"},{"bike_id":"a8533856-bbc1-4c12-abfa-4423c8992d4a","system_id":"levelo_inurba_marseille","lat":43.2572,"lon":5.41114,"is_reserved":false,"is_disabled":false,"rental_uris":{"android":"levelo://app?vid=a8533856-bbc1-4c12-abfa-4423c8992d4a","ios":"levelo://app?vid=a8533856-bbc1-4c12-abfa-4423c8992d4a"},"vehicle_type_id":"4","last_reported":1731391961,"current_range_meters":36400,"station_id":"ce4bhkp2rcd13ifvqgd0","pricing_plan_id":"cebpf4jnsgd1na2vs0mg"},{"bike_id":"1c309b11-f87a-46cd-bddb-f7341adf207e","system_id":"levelo_inurba_marseille","lat":43.28266,"lon":5.35069,"is_reserved":false,"is_disabled":false,"rental_uris":{"android":"levelo://app?vid=1c309b11-f87a-46cd-bddb-f7341adf207e","ios":"levelo://app?vid=1c309b11-f87a-46cd-bddb-f7341adf207e"},"vehicle_type_id":"4","last_reported":1731391961,"current_range_meters":34800,"station_id":"ce4bhbp2rcd13ifvqerg","pricing_plan_id":"cebpf4jnsgd1na2vs0mg"},{"bike_id":"d200f736-33ff-4949-a4fa-9c168ba1cf59","system_id":"levelo_inurba_marseille","lat":43.28408,"lon":5.34993,"is_reserved":false,"is_disabled":false,"rental_uris":{"android":"levelo://app?vid=d200f736-33ff-4949-a4fa-9c168ba1cf59","ios":"levelo://app?vid=d200f736-33ff-4949-a4fa-9c168ba1cf59"},"vehicle_type_id":"4","last_reported":1731391961,"current_range_meters":36800,"station_id":"ce4bhbh2rcd13ifvqepg","pricing_plan_id":"cebpf4jnsgd1na2vs0mg"},{"bike_id":"fcb4c44f-f067-45d0-ae7e-943cad7f071f","system_id":"levelo_inurba_marseille","lat":43.29005,"lon":5.35612,"is_reserved":false,"is_disabled":false,"rental_uris":{"android":"levelo://app?vid=fcb4c44f-f067-45d0-ae7e-943cad7f071f","ios":"levelo://app?vid=fcb4c44f-f067-45d0-ae7e-943cad7f071f"},"vehicle_type_id":"4","last_reported":1731391961,"current_range_meters":22000,"station_id":"ce4bhb92rcd13ifvqen0","pricing_plan_id":"cebpf4jnsgd1na2vs0mg"},{"bike_id":"c491574e-8837-4ac2-ad3a-3851da71ea72","system_id":"levelo_inurba_marseille","lat":43.24171,"lon":5.39735,"is_reserved":false,"is_disabled":false,"rental_uris":{"android":"levelo://app?vid=c491574e-8837-4ac2-ad3a-3851da71ea72","ios":"levelo://app?vid=c491574e-8837-4ac2-ad3a-3851da71ea72"},"vehicle_type_id":"4","last_reported":1731391961,"current_range_meters":31200,"station_id":"ce4bhn12rcd13ifvqgpg","pricing_plan_id":"cebpf4jnsgd1na2vs0mg"},{"bike_id":"b3ad0687-ffe0-4af6-a0c6-c7c40aa85320","system_id":"levelo_inurba_marseille","lat":43.27911,"lon":5.39588,"is_reserved":false,"is_disabled":false,"rental_uris":{"android":"levelo://app?vid=b3ad0687-ffe0-4af6-a0c6-c7c40aa85320","ios":"levelo://app?vid=b3ad0687-ffe0-4af6-a0c6-c7c40aa85320"},"vehicle_type_id":"4","last_reported":1731391961,"current_range_meters":28400,"station_id":"ce4bhf92rcd13ifvqf40","pricing_plan_id":"cebpf4jnsgd1na2vs0mg"},{"bike_id":"a782ee39-8025-47c5-bca9-236a6b29b898","system_id":"levelo_inurba_marseille","lat":43.31284,"lon":5.40172,"is_reserved":false,"is_disabled":false,"rental_uris":{"android":"levelo://app?vid=a782ee39-8025-47c5-bca9-236a6b29b898","ios":"levelo://app?vid=a782ee39-8025-47c5-bca9-236a6b29b898"},"vehicle_type_id":"4","last_reported":1731391961,"current_range_meters":30000,"station_id":"ce4bh092rcd13ifvqd30","pricing_plan_id":"cebpf4jnsgd1na2vs0mg"},{"bike_id":"2c507cd7-54ef-475c-8faa-961482f8a251","system_id":"levelo_inurba_marseille","lat":43.29561,"lon":5.4229,"is_reserved":false,"is_disabled":false,"rental_uris":{"android":"levelo://app?vid=2c507cd7-54ef-475c-8faa-961482f8a251","ios":"levelo://app?vid=2c507cd7-54ef-475c-8faa-961482f8a251"},"vehicle_type_id":"4","last_reported":1731391961,"current_range_meters":24000,"station_id":"ce4bhph2rcd13ifvqhdg","pricing_plan_id":"cebpf4jnsgd1na2vs0mg"},{"bike_id":"ec6af845-0f59-4b5f-b35c-55d027778db5","system_id":"levelo_inurba_marseille","lat":43.29732,"lon":5.37671,"is_reserved":false,"is_disabled":false,"rental_uris":{"android":"levelo://app?vid=ec6af845-0f59-4b5f-b35c-55d027778db5","ios":"levelo://app?vid=ec6af845-0f59-4b5f-b35c-55d027778db5"},"vehicle_type_id":"4","last_reported":1731391961,"current_range_meters":29600,"station_id":"ce4bgkh2rcd13ifvqbl0","pricing_plan_id":"cebpf4jnsgd1na2vs0mg"},{"bike_id":"60af76fb-31f5-416f-9e6f-d3f9ef616c17","system_id":"levelo_inurba_marseille","lat":43.30878,"lon":5.39638,"is_reserved":false,"is_disabled":false,"rental_uris":{"android":"levelo://app?vid=60af76fb-31f5-416f-9e6f-d3f9ef616c17","ios":"levelo://app?vid=60af76fb-31f5-416f-9e6f-d3f9ef616c17"},"vehicle_type_id":"4","last_reported":1731391961,"current_range_meters":39200,"station_id":"ce4bh012rcd13ifvqcv0","pricing_plan_id":"cebpf4jnsgd1na2vs0mg"},{"bike_id":"7f104df5-ba91-408c-8898-4e8d21aacd76","system_id":"levelo_inurba_marseille","lat":43.28615,"lon":5.35098,"is_reserved":false,"is_disabled":false,"rental_uris":{"android":"levelo://app?vid=7f104df5-ba91-408c-8898-4e8d21aacd76","ios":"levelo://app?vid=7f104df5-ba91-408c-8898-4e8d21aacd76"},"vehicle_type_id":"4","last_reported":1731391961,"current_range_meters":33200,"station_id":"ce4bhch2rcd13ifvqeug","pricing_plan_id":"cebpf4jnsgd1na2vs0mg"},{"bike_id":"1aa42bf0-0743-4455-91b9-56f26226900a","system_id":"levelo_inurba_marseille","lat":43.27989,"lon":5.4001,"is_reserved":false,"is_disabled":false,"rental_uris":{"android":"levelo://app?vid=1aa42bf0-0743-4455-91b9-56f26226900a","ios":"levelo://app?vid=1aa42bf0-0743-4455-91b9-56f26226900a"},"vehicle_type_id":"4","last_reported":1731391961,"current_range_meters":37600,"station_id":"ce4bho92rcd13ifvqh4g","pricing_plan_id":"cebpf4jnsgd1na2vs0mg"},{"bike_id":"dfa9c51e-db93-4ec5-be03-49118a518ec5","system_id":"levelo_inurba_marseille","lat":43.296333,"lon":5.406009,"is_reserved":false,"is_disabled":false,"rental_uris":{"android":"levelo://app?vid=dfa9c51e-db93-4ec5-be03-49118a518ec5","ios":"levelo://app?vid=dfa9c51e-db93-4ec5-be03-49118a518ec5"},"vehicle_type_id":"4","last_reported":1731391961,"current_range_meters":37600,"station_id":"ce4bh0h2rcd13ifvqd60","pricing_plan_id":"cebpf4jnsgd1na2vs0mg"},{"bike_id":"56336af0-3345-4d21-acc8-14daad65336a","system_id":"levelo_inurba_marseille","lat":43.28153,"lon":5.42636,"is_reserved":false,"is_disabled":false,"rental_uris":{"android":"levelo://app?vid=56336af0-3345-4d21-acc8-14daad65336a","ios":"levelo://app?vid=56336af0-3345-4d21-acc8-14daad65336a"},"vehicle_type_id":"4","last_reported":1731391961,"current_range_meters":38000,"station_id":"ce4bhnh2rcd13ifvqgug","pricing_plan_id":"cebpf4jnsgd1na2vs0mg"},{"bike_id":"c02a192e-5825-44fe-a0c9-fd04411f4ff2","system_id":"levelo_inurba_marseille","lat":43.2501,"lon":5.38917,"is_reserved":false,"is_disabled":false,"rental_uris":{"android":"levelo://app?vid=c02a192e-5825-44fe-a0c9-fd04411f4ff2","ios":"levelo://app?vid=c02a192e-5825-44fe-a0c9-fd04411f4ff2"},"vehicle_type_id":"4","last_reported":1731391961,"current_range_meters":20800,"station_id":"ce4bhgp2rcd13ifvqfd0","pricing_plan_id":"cebpf4jnsgd1na2vs0mg"},{"bike_id":"7aab22ee-8aae-44c3-8701-5137050c0226","system_id":"levelo_inurba_marseille","lat":43.248533,"lon":5.375288,"is_reserved":false,"is_disabled":false,"rental_uris":{"android":"levelo://app?vid=7aab22ee-8aae-44c3-8701-5137050c0226","ios":"levelo://app?vid=7aab22ee-8aae-44c3-8701-5137050c0226"},"vehicle_type_id":"4","last_reported":1731391961,"current_range_meters":36800,"station_id":"ce4bhgh2rcd13ifvqfb0","pricing_plan_id":"cebpf4jnsgd1na2vs0mg"},