{"last_updated":1774976087,"ttl":60,"version":"2.2","data":{"bikes":[{"bike_id":"a1c60e7d-675b-42ec-b64d-6cbe8b2b71be","system_id":"levelo_inurba_marseille","lat":43.24642,"lon":5.38936,"is_reserved":false,"is_disabled":false,"rental_uris":{"android":"levelo://app?vid=a1c60e7d-675b-42ec-b64d-6cbe8b2b71be","ios":"levelo://app?vid=a1c60e7d-675b-42ec-b64d-6cbe8b2b71be"},"vehicle_type_id":"4","last_reported":1774976088,"current_range_meters":2800,"station_id":"ce4bhg12rcd13ifvqf60","pricing_plan_id":"cebpf4jnsgd1na2vs0mg"},{"bike_id":"8cf4421d-02a3-49be-a472-e5edfc88d890","system_id":"levelo_inurba_marseille","lat":43.2466,"lon":5.3816,"is_reserved":false,"is_disabled":false,"rental_uris":{"android":"levelo://app?vid=8cf4421d-02a3-49be-a472-e5edfc88d890","ios":"levelo://app?vid=8cf4421d-02a3-49be-a472-e5edfc88d890"},"vehicle_type_id":"4","last_reported":1774976088,"current_range_meters":2800,"station_id":"ce4bhih2rcd13ifvqfr0","pricing_plan_id":"cebpf4jnsgd1na2vs0mg"},{"bike_id":"c5633a8c-b219-4d1b-b931-d97823f02029","system_id":"levelo_inurba_marseille","lat":43.24802,"lon":5.37455,"is_reserved":false,"is_disabled":false,"rental_uris":{"android":"levelo://app?vid=c5633a8c-b219-4d1b-b931-d97823f02029","ios":"levelo://app?vid=c5633a8c-b219-4d1b-b931-d97823f02029"},"vehicle_type_id":"4","last_reported":1774976088,"current_range_meters":2800,"station_id":"ce4bhgh2rcd13ifvqfb0","pricing_plan_id":"cebpf4jnsgd1na2vs0mg"},{"bike_id":"3a40f53f-1f75-4291-b668-d4d0f71d0a3a","system_id":"levelo_inurba_marseille","lat":43.2963,"lon":5.40595,"is_reserved":false,"is_disabled":false,"rental_uris":{"android":"levelo://app?vid=3a40f53f-1f75-4291-b668-d4d0f71d0a3a","ios":"levelo://app?vid=3a40f53f-1f75-4291-b668-d4d0f71d0a3a"},"vehicle_type_id":"4","last_reported":1774976088,"current_range_meters":2800,"station_id":"ce4bh0h2rcd13ifvqd60","pricing_plan_id":"cebpf4jnsgd1na2vs0mg"},{"bike_id":"8bb7d209-b750-4ff0-abfd-0763883c2afd","system_id":"levelo_inurba_marseille","lat":43.31056,"lon":5.37159,"is_reserved":false,"is_disabled":false,"rental_uris":{"android":"levelo://app?vid=8bb7d209-b750-4ff0-abfd-0763883c2afd","ios":"levelo://app?vid=8bb7d209-b750-4ff0-abfd-0763883c2afd"},"vehicle_type_id":"4","last_reported":1774976088,"current_range_meters":2800,"station_id":"st_d4kl2rp97mjs73e7tdfg","pricing_plan_id":"cebpf4jnsgd1na2vs0mg"},{"bike_id":"605ac37d-2dc5-40a1-923f-cb1e6ca4876e","system_id":"levelo_inurba_marseille","lat":43.25576,"lon":5.3823,"is_reserved":false,"is_disabled":false,"rental_uris":{"android":"levelo://app?vid=605ac37d-2dc5-40a1-923f-cb1e6ca4876e","ios":"levelo://app?vid=605ac37d-2dc5-40a1-923f-cb1e6ca4876e"},"vehicle_type_id":"4","last_reported":1774976088,"current_range_meters":2800,"station_id":"ce4bhih2rcd13ifvqfs0","pricing_plan_id":"cebpf4jnsgd1na2vs0mg"},{"bike_id":"c929a154-d033-4500-89e4-fdbed18384ef","system_id":"levelo_inurba_marseille","lat":43.27945,"lon":5.38683,"is_reserved":false,"is_disabled":false,"rental_uris":{"android":"levelo://app?vid=c929a154-d033-4500-89e4-fdbed18384ef","ios":"levelo://app?vid=c929a154-d033-4500-89e4-fdbed18384ef"},"vehicle_type_id":"4","last_reported":1774976088,"current_range_meters":2800,"station_id":"ce4bhg12rcd13ifvqf80","pricing_plan_id":"cebpf4jnsgd1na2vs0mg"},{"bike_id":"2927f07c-b234-4097-94c4-3cfcf9c927ca","system_id":"levelo_inurba_marseille","lat":43.23792,"lon":5.36633,"is_reserved":false,"is_disabled":false,"rental_uris":{"android":"levelo://app?vid=2927f07c-b234-4097-94c4-3cfcf9c927ca","ios":"levelo://app?vid=2927f07c-b234-4097-94c4-3cfcf9c927ca"},"vehicle_type_id":"4","last_reported":1774976088,"current_range_meters":2800,"station_id":"st_d3nk18o9ro0c73en2l3g","pricing_plan_id":"cebpf4jnsgd1na2vs0mg"},{"bike_id":"c0eec902-074b-4a18-af47-ff048b653a5e","system_id":"levelo_inurba_marseille","lat":43.28473,"lon":5.48387,"is_reserved":false,"is_disabled":false,"rental_uris":{"android":"levelo://app?vid=c0eec902-074b-4a18-af47-ff048b653a5e","ios":"levelo://app?vid=c0eec902-074b-4a18-af47-ff048b653a5e"},"vehicle_type_id":"4","last_reported":1774976088,"current_range_meters":3200,"station_id":"","pricing_plan_id":"cebpf4jnsgd1na2vs0mg"},{"bike_id":"33c42167-d4ca-4eac-b99f-6546dd4da7bc","system_id":"levelo_inurba_marseille","lat":43.26558,"lon":5.37283,"is_reserved":false,"is_disabled":false,"rental_uris":{"android":"levelo://app?vid=33c42167-d4ca-4eac-b99f-6546dd4da7bc","ios":"levelo://app?vid=33c42167-d4ca-4eac-b99f-6546dd4da7bc"},"vehicle_type_id":"4","last_reported":1774976088,"current_range_meters":3200,"station_id":"ce4bhg12rcd13ifvqf70","pricing_plan_id":"cebpf4jnsgd1na2vs0mg"},{"bike_id":"7ebeed39-b735-4876-adcb-947d78c84a23","system_id":"levelo_inurba_marseille","lat":43.28474,"lon":5.3856,"is_reserved":false,"is_disabled":false,"rental_uris":{"android":"levelo://app?vid=7ebeed39-b735-4876-adcb-947d78c84a23","ios":"levelo://app?vid=7ebeed39-b735-4876-adcb-947d78c84a23"},"vehicle_type_id":"4","last_reported":1774976088,"current_range_meters":3200,"station_id":"ce4bh8p2rcd13ifvqeb0","pricing_plan_id":"cebpf4jnsgd1na2vs0mg"},{"bike_id":"fd90adeb-db2d-4e65-bfd6-723a336eb566","system_id":"levelo_inurba_marseille","lat":43.25569,"lon":5.3824,"is_reserved":false,"is_disabled":false,"rental_uris":{"android":"levelo://app?vid=fd90adeb-db2d-4e65-bfd6-723a336eb566","ios":"levelo://app?vid=fd90adeb-db2d-4e65-bfd6-723a336eb566"},"vehicle_type_id":"4","last_reported":1774976088,"current_range_meters":3200,"station_id":"ce4bhih2rcd13ifvqfs0","pricing_plan_id":"cebpf4jnsgd1na2vs0mg"},{"bike_id":"efc03338-0fe7-4ae2-bc5b-1452778a1b59","system_id":"levelo_inurba_marseille","lat":43.28707,"lon":5.40003,"is_reserved":false,"is_disabled":false,"rental_uris":{"android":"levelo://app?vid=efc03338-0fe7-4ae2-bc5b-1452778a1b59","ios":"levelo://app?vid=efc03338-0fe7-4ae2-bc5b-1452778a1b59"},"vehicle_type_id":"4","last_reported":1774976088,"current_range_meters":3200,"station_id":"ce4bho92rcd13ifvqh3g","pricing_plan_id":"cebpf4jnsgd1na2vs0mg"},{"bike_id":"81512163-9501-4b34-a312-5513a18b2c21","system_id":"levelo_inurba_marseille","lat":43.28983,"lon":5.37838,"is_reserved":false,"is_disabled":false,"rental_uris":{"android":"levelo://app?vid=81512163-9501-4b34-a312-5513a18b2c21","ios":"levelo://app?vid=81512163-9501-4b34-a312-5513a18b2c21"},"vehicle_type_id":"4","last_reported":1774976088,"current_range_meters":3200,"station_id":"ce4bh9p2rcd13ifvqed0","pricing_plan_id":"cebpf4jnsgd1na2vs0mg"},{"bike_id":"5d1aa9b0-3030-4840-98d9-fd23e689d128","system_id":"levelo_inurba_marseille","lat":43.28414,"lon":5.34981,"is_reserved":false,"is_disabled":false,"rental_uris":{"android":"levelo://app?vid=5d1aa9b0-3030-4840-98d9-fd23e689d128","ios":"levelo://app?vid=5d1aa9b0-3030-4840-98d9-fd23e689d128"},"vehicle_type_id":"4","last_reported":1774976088,"current_range_meters":3200,"station_id":"ce4bhbh2rcd13ifvqepg","pricing_plan_id":"cebpf4jnsgd1na2vs0mg"},{"bike_id":"65f87c19-c0af-440c-80c0-3d21f7f32c71","system_id":"levelo_inurba_marseille","lat":43.30393,"lon":5.39769,"is_reserved":false,"is_disabled":false,"rental_uris":{"android":"levelo://app?vid=65f87c19-c0af-440c-80c0-3d21f7f32c71","ios":"levelo://app?vid=65f87c19-c0af-440c-80c0-3d21f7f32c71"},"vehicle_type_id":"4","last_reported":1774976088,"current_range_meters":3200,"station_id":"ce4bh092rcd13ifvqd20","pricing_plan_id":"cebpf4jnsgd1na2vs0mg"},{"bike_id":"465a7be5-dc1d-4e97-9dbd-838f50912c1e","system_id":"levelo_inurba_marseille","lat":43.23178,"lon":5.39996,"is_reserved":false,"is_disabled":false,"rental_uris":{"android":"levelo://app?vid=465a7be5-dc1d-4e97-9dbd-838f50912c1e","ios":"levelo://app?vid=465a7be5-dc1d-4e97-9dbd-838f50912c1e"},"vehicle_type_id":"4","last_reported":1774976088,"current_range_meters":3200,"station_id":"ce4bhn12rcd13ifvqgqg","pricing_plan_id":"cebpf4jnsgd1na2vs0mg"},{"bike_id":"60535554-f646-4a1d-b465-c1c23373de37","system_id":"levelo_inurba_marseille","lat":43.28053,"lon":5.42184,"is_reserved":false,"is_disabled":false,"rental_uris":{"android":"levelo://app?vid=60535554-f646-4a1d-b465-c1c23373de37","ios":"levelo://app?vid=60535554-f646-4a1d-b465-c1c23373de37"},"vehicle_type_id":"4","last_reported":1774976088,"current_range_meters":3600,"station_id":"","pricing_plan_id":"cebpf4jnsgd1na2vs0mg"},{"bike_id":"fa2139d7-56b5-4664-870b-94753042ac1d","system_id":"levelo_inurba_marseille","lat":43.21196,"lon":5.35069,"is_reserved":false,"is_disabled":false,"rental_uris":{"android":"levelo://app?vid=fa2139d7-56b5-4664-870b-94753042ac1d","ios":"levelo://app?vid=fa2139d7-56b5-4664-870b-94753042ac1d"},"vehicle_type_id":"4","last_reported":1774976088,"current_range_meters":3600,"station_id":"st_cvj6sg6p6f1abm77japg","pricing_plan_id":"cebpf4jnsgd1na2vs0mg"},{"bike_id":"a7212b2b-1ee7-4773-8537-8c459987701f","system_id":"levelo_inurba_marseille","lat":43.30302,"lon":5.39206,"is_reserved":false,"is_disabled":false,"rental_uris":{"android":"levelo://app?vid=a7212b2b-1ee7-4773-8537-8c459987701f","ios":"levelo://app?vid=a7212b2b-1ee7-4773-8537-8c459987701f"},"vehicle_type_id":"4","last_reported":1774976088,"current_range_meters":3600,"station_id":"ce4bgkh2rcd13ifvqbk0","pricing_plan_id":"cebpf4jnsgd1na2vs0mg"},{"bike_id":"3ac0129c-9c97-4af6-b6ad-c66c14a5c227","system_id":"levelo_inurba_marseille","lat":43.2849,"lon":5.48375,"is_reserved":false,"is_disabled":false,"rental_uris":{"android":"levelo://app?vid=3ac0129c-9c97-4af6-b6ad-c66c14a5c227","ios":"levelo://app?vid=3ac0129c-9c97-4af6-b6ad-c66c14a5c227"},"vehicle_type_id":"4","last_reported":1774976088,"current_range_meters":3600,"station_id":"","pricing_plan_id":"cebpf4jnsgd1na2vs0mg"},{"bike_id":"7fa296e0-80ee-4399-b21f-737372e465c1","system_id":"levelo_inurba_marseille","lat":43.29798,"lon":5.38071,"is_reserved":false,"is_disabled":false,"rental_uris":{"android":"levelo://app?vid=7fa296e0-80ee-4399-b21f-737372e465c1","ios":"levelo://app?vid=7fa296e0-80ee-4399-b21f-737372e465c1"},"vehicle_type_id":"4","last_reported":1774976088,"current_range_meters":3600,"station_id":"ce4bgip2rcd13ifvqbb0","pricing_plan_id":"cebpf4jnsgd1na2vs0mg"},{"bike_id":"86e75f3c-23b3-46c4-9204-578544ad8e9a","system_id":"levelo_inurba_marseille","lat":43.23347,"lon":5.4131,"is_reserved":false,"is_disabled":false,"rental_uris":{"android":"levelo://app?vid=86e75f3c-23b3-46c4-9204-578544ad8e9a","ios":"levelo://app?vid=86e75f3c-23b3-46c4-9204-578544ad8e9a"},"vehicle_type_id":"4","last_reported":1774976088,"current_range_meters":3600,"station_id":"st_d75pvndhf9lc73cqq3eg","pricing_plan_id":"cebpf4jnsgd1na2vs0mg"},{"bike_id":"4d667ae4-b547-4cca-991c-1e232d16e2e1","system_id":"levelo_inurba_marseille","lat":43.24158,"lon":5.36411,"is_reserved":false,"is_disabled":false,"rental_uris":{"android":"levelo://app?vid=4d667ae4-b547-4cca-991c-1e232d16e2e1","ios":"levelo://app?vid=4d667ae4-b547-4cca-991c-1e232d16e2e1"},"vehicle_type_id":"4","last_reported":1774976088,"current_range_meters":4000,"station_id":"cpo36qri1sfpv3e86is0","pricing_plan_id":"cebpf4jnsgd1na2vs0mg"},{"bike_id":"f84cba2b-7e1e-44da-b978-787505dcd903","system_id":"levelo_inurba_marseille","lat":43.29535,"lon":5.38538,"is_reserved":false,"is_disabled":false,"rental_uris":{"android":"levelo://app?vid=f84cba2b-7e1e-44da-b978-787505dcd903","ios":"levelo://app?vid=f84cba2b-7e1e-44da-b978-787505dcd903"},"vehicle_type_id":"4","last_reported":1774976088,"current_range_meters":4000,"station_id":"ce4bgih2rcd13ifvqba0","pricing_plan_id":"cebpf4jnsgd1na2vs0mg"},{"bike_id":"7cefc45d-38f5-45cf-a99c-dfb4be1018fe","system_id":"levelo_inurba_marseille","lat":43.24452,"lon":5.42572,"is_reserved":false,"is_disabled":false,"rental_uris":{"android":"levelo://app?vid=7cefc45d-38f5-45cf-a99c-dfb4be1018fe","ios":"levelo://app?vid=7cefc45d-38f5-45cf-a99c-dfb4be1018fe"},"vehicle_type_id":"4","last_reported":1774976088,"current_range_meters":4000,"station_id":"st_d4a3vfp97mjs738cd8kg","pricing_plan_id":"cebpf4jnsgd1na2vs0mg"},{"bike_id":"86ba820c-cae3-4e67-9382-805c5c633f24","system_id":"levelo_inurba_marseille","lat":43.28614,"lon":5.39875,"is_reserved":false,"is_disabled":false,"rental_uris":{"android":"levelo://app?vid=86ba820c-cae3-4e67-9382-805c5c633f24","ios":"levelo://app?vid=86ba820c-cae3-4e67-9382-805c5c633f24"},"vehicle_type_id":"4","last_reported":1774976088,"current_range_meters":4000,"station_id":"st_d4a7ka997mjs738ck50g","pricing_plan_id":"cebpf4jnsgd1na2vs0mg"},{"bike_id":"3be39b51-fdb7-4783-bf79-0af5a5d0c897","system_id":"levelo_inurba_marseille","lat":43.2842,"lon":5.37504,"is_reserved":false,"is_disabled":false,"rental_uris":{"android":"levelo://app?vid=3be39b51-fdb7-4783-bf79-0af5a5d0c897","ios":"levelo://app?vid=3be39b51-fdb7-4783-bf79-0af5a5d0c897"},"vehicle_type_id":"4","last_reported":1774976088,"current_range_meters":4000,"station_id":"ce4bh412rcd13ifvqds0","pricing_plan_id":"cebpf4jnsgd1na2vs0mg"},{"bike_id":"84dd4474-b306-4a3f-a912-9d9c00427778","system_id":"levelo_inurba_marseille","lat":43.28205,"lon":5.39066,"is_reserved":false,"is_disabled":false,"rental_uris":{"android":"levelo://app?vid=84dd4474-b306-4a3f-a912-9d9c00427778","ios":"levelo://app?vid=84dd4474-b306-4a3f-a912-9d9c00427778"},"vehicle_type_id":"4","last_reported":1774976088,"current_range_meters":4000,"station_id":"ce4bhn92rcd13ifvqgsg","pricing_plan_id":"cebpf4jnsgd1na2vs0mg"},{"bike_id":"693d357b-8769-457b-8350-604c7ee8ccc3","system_id":"levelo_inurba_marseille","lat":43.26216,"lon":5.40426,"is_reserved":false,"is_disabled":true,"rental_uris":{"android":"levelo://app?vid=693d357b-8769-457b-8350-604c7ee8ccc3","ios":"levelo://app?vid=693d357b-8769-457b-8350-604c7ee8ccc3"},"vehicle_type_id":"4","last_reported":1774976088,"current_range_meters":4000,"station_id":"ce4bhmh2rcd13ifvqgmg","pricing_plan_id":"cebpf4jnsgd1na2vs0mg"},{"bike_id":"fe2c2d4e-ad0a-4ad1-b727-7e9a7d4ef824","system_id":"levelo_inurba_marseille","lat":43.28481,"lon":5.48385,"is_reserved":false,"is_disabled":false,"rental_uris":{"android":"levelo://app?vid=fe2c2d4e-ad0a-4ad1-b727-7e9a7d4ef824","ios":"levelo://app?vid=fe2c2d4e-ad0a-4ad1-b727-7e9a7d4ef824"},"vehicle_type_id":"4","last_reported":1774976088,"current_range_meters":4000,"station_id":"","pricing_plan_id":"cebpf4jnsgd1na2vs0mg"},{"bike_id":"dd89378c-e887-4a35-b3cc-c23e475dbf41","system_id":"levelo_inurba_marseille","lat":43.30266,"lon":5.36896,"is_reserved":false,"is_disabled":false,"rental_uris":{"android":"levelo://app?vid=dd89378c-e887-4a35-b3cc-c23e475dbf41","ios":"levelo://app?vid=dd89378c-e887-4a35-b3cc-c23e475dbf41"},"vehicle_type_id":"4","last_reported":1774976088,"current_range_meters":4000,"station_id":"ce4bgqh2rcd13ifvqc5g","pricing_plan_id":"cebpf4jnsgd1na2vs0mg"},{"bike_id":"8d26c30b-3847-405c-8066-75bf15658130","system_id":"levelo_inurba_marseille","lat":43.29832,"lon":5.36448,"is_reserved":false,"is_disabled":false,"rental_uris":{"android":"levelo://app?vid=8d26c30b-3847-405c-8066-75bf15658130","ios":"levelo://app?vid=8d26c30b-3847-405c-8066-75bf15658130"},"vehicle_type_id":"4","last_reported":1774976088,"current_range_meters":4000,"station_id":"","pricing_plan_id":"cebpf4jnsgd1na2vs0mg"},{"bike_id":"7a581845-80c1-4b9c-8977-1e5578db901a","system_id":"levelo_inurba_marseille","lat":43.29243,"lon":5.40892,"is_reserved":false,"is_disabled":false,"rental_uris":{"android":"levelo://app?vid=7a581845-80c1-4b9c-8977-1e5578db901a","ios":"levelo://app?vid=7a581845-80c1-4b9c-8977-1e5578db901a"},"vehicle_type_id":"4","last_reported":1774976088,"current_range_meters":4000,"station_id":"ce4bh192rcd13ifvqdc0","pricing_plan_id":"cebpf4jnsgd1na2vs0mg"},{"bike_id":"0bda6034-994d-4397-bb4d-6b4ece617f27","system_id":"levelo_inurba_marseille","lat":43.29978,"lon":5.38497,"is_reserved":false,"is_disabled":false,"rental_uris":{"android":"levelo://app?vid=0bda6034-994d-4397-bb4d-6b4ece617f27","ios":"levelo://app?vid=0bda6034-994d-4397-bb4d-6b4ece617f27"},"vehicle_type_id":"4","last_reported":1774976088,"current_range_meters":4000,"station_id":"ce4bgj92rcd13ifvqbd0","pricing_plan_id":"cebpf4jnsgd1na2vs0mg"},{"bike_id":"4809bf2f-3f03-4f8c-b187-08c79e8dd974","system_id":"levelo_inurba_marseille","lat":43.26564,"lon":5.39009,"is_reserved":false,"is_disabled":false,"rental_uris":{"android":"levelo://app?vid=4809bf2f-3f03-4f8c-b187-08c79e8dd974","ios":"levelo://app?vid=4809bf2f-3f03-4f8c-b187-08c79e8dd974"},"vehicle_type_id":"4","last_reported":1774976088,"current_range_meters":4000,"station_id":"ce4bhe12rcd13ifvqf30","pricing_plan_id":"cebpf4jnsgd1na2vs0mg"},{"bike_id":"03ec0070-1d93-4ac5-87d3-21d47edad7cd","system_id":"levelo_inurba_marseille","lat":43.2378,"lon":5.36629,"is_reserved":false,"is_disabled":false,"rental_uris":{"android":"levelo://app?vid=03ec0070-1d93-4ac5-87d3-21d47edad7cd","ios":"levelo://app?vid=03ec0070-1d93-4ac5-87d3-21d47edad7cd"},"vehicle_type_id":"4","last_reported":1774976088,"current_range_meters":4400,"station_id":"st_d3nk18o9ro0c73en2l3g","pricing_plan_id":"cebpf4jnsgd1na2vs0mg"},{"bike_id":"10844d4f-8a2d-46cd-986e-ccf4b3a1143c","system_id":"levelo_inurba_marseille","lat":43.26576,"lon":5.38995,"is_reserved":false,"is_disabled":false,"rental_uris":{"android":"levelo://app?vid=10844d4f-8a2d-46cd-986e-ccf4b3a1143c","ios":"levelo://app?vid=10844d4f-8a2d-46cd-986e-ccf4b3a1143c"},"vehicle_type_id":"4","last_reported":1774976088,"current_range_meters":4400,"station_id":"ce4bhe12rcd13ifvqf30","pricing_plan_id":"cebpf4jnsgd1na2vs0mg"},{"bike_id":"0c6e6798-e036-48b5-8f51-31ac48e32018","system_id":"levelo_inurba_marseille","lat":43.31234,"lon":5.36872,"is_reserved":false,"is_disabled":false,"rental_uris":{"android":"levelo://app?vid=0c6e6798-e036-48b5-8f51-31ac48e32018","ios":"levelo://app?vid=0c6e6798-e036-48b5-8f51-31ac48e32018"},"vehicle_type_id":"4","last_reported":1774976088,"current_range_meters":4400,"station_id":"ce4bgl92rcd13ifvqbq0","pricing_plan_id":"cebpf4jnsgd1na2vs0mg"},{"bike_id":"8db720bd-c013-47bc-b3e6-6235b86947e2","system_id":"levelo_inurba_marseille","lat":43.22554,"lon":5.41636,"is_reserved":false,"is_disabled":false,"rental_uris":{"android":"levelo://app?vid=8db720bd-c013-47bc-b3e6-6235b86947e2","ios":"levelo://app?vid=8db720bd-c013-47bc-b3e6-6235b86947e2"},"vehicle_type_id":"4","last_reported":1774976088,"current_range_meters":4400,"station_id":"st_d2o4gvlbi1j2169b742g","pricing_plan_id":"cebpf4jnsgd1na2vs0mg"},{"bike_id":"9522cc51-642a-4e78-be96-1573c210648a","system_id":"levelo_inurba_marseille","lat":43.30315,"lon":5.40437,"is_reserved":false,"is_disabled":false,"rental_uris":{"android":"levelo://app?vid=9522cc51-642a-4e78-be96-1573c210648a","ios":"levelo://app?vid=9522cc51-642a-4e78-be96-1573c210648a"},"vehicle_type_id":"4","last_reported":1774976088,"current_range_meters":4400,"station_id":"ce4bh012rcd13ifvqd10","pricing_plan_id":"cebpf4jnsgd1na2vs0mg"},{"bike_id":"89506e3c-910d-47d7-b094-fec5babeb4f4","system_id":"levelo_inurba_marseille","lat":43.2884,"lon":5.3931,"is_reserved":false,"is_disabled":false,"rental_uris":{"android":"levelo://app?vid=89506e3c-910d-47d7-b094-fec5babeb4f4","ios":"levelo://app?vid=89506e3c-910d-47d7-b094-fec5babeb4f4"},"vehicle_type_id":"4","last_reported":1774976088,"current_range_meters":4400,"station_id":"ce4bh2p2rcd13ifvqdi0","pricing_plan_id":"cebpf4jnsgd1na2vs0mg"},{"bike_id":"1ccc5b84-b929-4406-b0fe-a6ec9c3319d8","system_id":"levelo_inurba_marseille","lat":43.29025,"lon":5.38635,"is_reserved":false,"is_disabled":false,"rental_uris":{"android":"levelo://app?vid=1ccc5b84-b929-4406-b0fe-a6ec9c3319d8","ios":"levelo://app?vid=1ccc5b84-b929-4406-b0fe-a6ec9c3319d8"},"vehicle_type_id":"4","last_reported":1774976088,"current_range_meters":4400,"station_id":"ce4bh4p2rcd13ifvqe0g","pricing_plan_id":"cebpf4jnsgd1na2vs0mg"},{"bike_id":"8289ea9c-9f3c-47cc-ae82-8027b0a738ac","system_id":"levelo_inurba_marseille","lat":43.31927,"lon":5.36734,"is_reserved":false,"is_disabled":false,"rental_uris":{"android":"levelo://app?vid=8289ea9c-9f3c-47cc-ae82-8027b0a738ac","ios":"levelo://app?vid=8289ea9c-9f3c-47cc-ae82-8027b0a738ac"},"vehicle_type_id":"4","last_reported":1774976088,"current_range_meters":4400,"station_id":"","pricing_plan_id":"cebpf4jnsgd1na2vs0mg"},{"bike_id":"72d9b7c8-bad1-4689-9b0f-2502537cdda9","system_id":"levelo_inurba_marseille","lat":43.25485,"lon":5.37655,"is_reserved":false,"is_disabled":false,"rental_uris":{"android":"levelo://app?vid=72d9b7c8-bad1-4689-9b0f-2502537cdda9","ios":"levelo://app?vid=72d9b7c8-bad1-4689-9b0f-2502537cdda9"},"vehicle_type_id":"4","last_reported":1774976088,"current_range_meters":4400,"station_id":"ce4bhh12rcd13ifvqff0","pricing_plan_id":"cebpf4jnsgd1na2vs0mg"},{"bike_id":"cb88b7c0-158f-47d6-b62a-c3ee88f004a1","system_id":"levelo_inurba_marseille","lat":43.24458,"lon":5.42533,"is_reserved":false,"is_disabled":false,"rental_uris":{"android":"levelo://app?vid=cb88b7c0-158f-47d6-b62a-c3ee88f004a1","ios":"levelo://app?vid=cb88b7c0-158f-47d6-b62a-c3ee88f004a1"},"vehicle_type_id":"4","last_reported":1774976088,"current_range_meters":4400,"station_id":"st_d4a3vfp97mjs738cd8kg","pricing_plan_id":"cebpf4jnsgd1na2vs0mg"},{"bike_id":"fc72e382-006d-46cf-bbec-8b8e91cdc78d","system_id":"levelo_inurba_marseille","lat":43.29009,"lon":5.35598,"is_reserved":false,"is_disabled":false,"rental_uris":{"android":"levelo://app?vid=fc72e382-006d-46cf-bbec-8b8e91cdc78d","ios":"levelo://app?vid=fc72e382-006d-46cf-bbec-8b8e91cdc78d"},"vehicle_type_id":"4","last_reported":1774976088,"current_range_meters":4400,"station_id":"ce4bhb92rcd13ifvqen0","pricing_plan_id":"cebpf4jnsgd1na2vs0mg"},{"bike_id":"227cc43c-6fb3-476a-abb2-74c924061fb2","system_id":"levelo_inurba_marseille","lat":43.2255,"lon":5.41628,"is_reserved":false,"is_disabled":false,"rental_uris":{"android":"levelo://app?vid=227cc43c-6fb3-476a-abb2-74c924061fb2","ios":"levelo://app?vid=227cc43c-6fb3-476a-abb2-74c924061fb2"},"vehicle_type_id":"4","last_reported":1774976088,"current_range_meters":4400,"station_id":"st_d2o4gvlbi1j2169b742g","pricing_plan_id":"cebpf4jnsgd1na2vs0mg"},{"bike_id":"f54bfc49-c52e-433a-9661-97eeb8e5a586","system_id":"levelo_inurba_marseille","lat":43.23789,"lon":5.36686,"is_reserved":false,"is_disabled":false,"rental_uris":{"android":"levelo://app?vid=f54bfc49-c52e-433a-9661-97eeb8e5a586","ios":"levelo://app?vid=f54bfc49-c52e-433a-9661-97eeb8e5a586"},"vehicle_type_id":"4","last_reported":1774976088,"current_range_meters":4400,"station_id":"st_d3nk18o9ro0c73en2l3g","pricing_plan_id":"cebpf4jnsgd1na2vs0mg"},{"bike_id":"cfa0e8a6-8463-4e12-86ba-31c2e338fa5f","system_id":"levelo_inurba_marseille","lat":43.28506,"lon":5.4017,"is_reserved":false,"is_disabled":false,"rental_uris":{"android":"levelo://app?vid=cfa0e8a6-8463-4e12-86ba-31c2e338fa5f","ios":"levelo://app?vid=cfa0e8a6-8463-4e12-86ba-31c2e338fa5f"},"vehicle_type_id":"4","last_reported":1774976088,"current_range_meters":4400,"station_id":"","pricing_plan_id":"cebpf4jnsgd1na2vs0mg"},{"bike_id":"8b4108a6-c7e2-4043-b547-cb1e59a8963a","system_id":"levelo_inurba_marseille","lat":43.24334,"lon":5.40845,"is_reserved":false,"is_disabled":false,"rental_uris":{"android":"levelo://app?vid=8b4108a6-c7e2-4043-b547-cb1e59a8963a","ios":"levelo://app?vid=8b4108a6-c7e2-4043-b547-cb1e59a8963a"},"vehicle_type_id":"4","last_reported":1774976088,"current_range_meters":4400,"station_id":"","pricing_plan_id":"cebpf4jnsgd1na2vs0mg"},{"bike_id":"c6ed78e3-3c94-4dd1-b429-a5d8d26a2a1e","system_id":"levelo_inurba_marseille","lat":43.28938,"lon":5.36384,"is_reserved":false,"is_disabled":false,"rental_uris":{"android":"levelo://app?vid=c6ed78e3-3c94-4dd1-b429-a5d8d26a2a1e","ios":"levelo://app?vid=c6ed78e3-3c94-4dd1-b429-a5d8d26a2a1e"},"vehicle_type_id":"4","last_reported":1774976088,"current_range_meters":4800,"station_id":"ce4bhc92rcd13ifvqetg","pricing_plan_id":"cebpf4jnsgd1na2vs0mg"},{"bike_id":"c798f683-654c-4162-8383-94bab235ad53","system_id":"levelo_inurba_marseille","lat":43.2993,"lon":5.36534,"is_reserved":false,"is_disabled":false,"rental_uris":{"android":"levelo://app?vid=c798f683-654c-4162-8383-94bab235ad53","ios":"levelo://app?vid=c798f683-654c-4162-8383-94bab235ad53"},"vehicle_type_id":"4","last_reported":1774976088,"current_range_meters":4800,"station_id":"ce4bgm92rcd13ifvqbr0","pricing_plan_id":"cebpf4jnsgd1na2vs0mg"},{"bike_id":"4977f95e-718a-4120-8926-2364059fe1a3","system_id":"levelo_inurba_marseille","lat":43.27259,"lon":5.40201,"is_reserved":false,"is_disabled":false,"rental_uris":{"android":"levelo://app?vid=4977f95e-718a-4120-8926-2364059fe1a3","ios":"levelo://app?vid=4977f95e-718a-4120-8926-2364059fe1a3"},"vehicle_type_id":"4","last_reported":1774976088,"current_range_meters":4800,"station_id":"","pricing_plan_id":"cebpf4jnsgd1na2vs0mg"},{"bike_id":"4723eef4-bfeb-4703-a009-d2703a79428a","system_id":"levelo_inurba_marseille","lat":43.23153,"lon":5.43699,"is_reserved":false,"is_disabled":false,"rental_uris":{"android":"levelo://app?vid=4723eef4-bfeb-4703-a009-d2703a79428a","ios":"levelo://app?vid=4723eef4-bfeb-4703-a009-d2703a79428a"},"vehicle_type_id":"4","last_reported":1774976088,"current_range_meters":4800,"station_id":"ce4bhmp2rcd13ifvqgog","pricing_plan_id":"cebpf4jnsgd1na2vs0mg"},{"bike_id":"5cd8e3dd-bbf4-4969-9a00-4d81eff7e674","system_id":"levelo_inurba_marseille","lat":43.24156,"lon":5.36401,"is_reserved":false,"is_disabled":false,"rental_uris":{"android":"levelo://app?vid=5cd8e3dd-bbf4-4969-9a00-4d81eff7e674","ios":"levelo://app?vid=5cd8e3dd-bbf4-4969-9a00-4d81eff7e674"},"vehicle_type_id":"4","last_reported":1774976088,"current_range_meters":4800,"station_id":"cpo36qri1sfpv3e86is0","pricing_plan_id":"cebpf4jnsgd1na2vs0mg"},{"bike_id":"cb1709ac-6129-4781-b7ce-4b0441532f28","system_id":"levelo_inurba_marseille","lat":43.23802,"lon":5.36633,"is_reserved":false,"is_disabled":false,"rental_uris":{"android":"levelo://app?vid=cb1709ac-6129-4781-b7ce-4b0441532f28","ios":"levelo://app?vid=cb1709ac-6129-4781-b7ce-4b0441532f28"},"vehicle_type_id":"4","last_reported":1774976088,"current_range_meters":4800,"station_id":"st_d3nk18o9ro0c73en2l3g","pricing_plan_id":"cebpf4jnsgd1na2vs0mg"},{"bike_id":"6a07290c-4d96-493c-bece-412d5cabc671","system_id":"levelo_inurba_marseille","lat":43.28618,"lon":5.35105,"is_reserved":false,"is_disabled":false,"rental_uris":{"android":"levelo://app?vid=6a07290c-4d96-493c-bece-412d5cabc671","ios":"levelo://app?vid=6a07290c-4d96-493c-bece-412d5cabc671"},"vehicle_type_id":"4","last_reported":1774976088,"current_range_meters":4800,"station_id":"ce4bhch2rcd13ifvqeug","pricing_plan_id":"cebpf4jnsgd1na2vs0mg"},{"bike_id":"3ec9244a-c2f3-4c95-bd2f-33d6915d1d30","system_id":"levelo_inurba_marseille","lat":43.25122,"lon":5.40334,"is_reserved":false,"is_disabled":false,"rental_uris":{"android":"levelo://app?vid=3ec9244a-c2f3-4c95-bd2f-33d6915d1d30","ios":"levelo://app?vid=3ec9244a-c2f3-4c95-bd2f-33d6915d1d30"},"vehicle_type_id":"4","last_reported":1774976088,"current_range_meters":4800,"station_id":"ce4bhlh2rcd13ifvqgig","pricing_plan_id":"cebpf4jnsgd1na2vs0mg"},{"bike_id":"6cb80350-a12f-414d-8a45-edb4d9decdf0","system_id":"levelo_inurba_marseille","lat":43.28552,"lon":5.441,"is_reserved":false,"is_disabled":false,"rental_uris":{"android":"levelo://app?vid=6cb80350-a12f-414d-8a45-edb4d9decdf0","ios":"levelo://app?vid=6cb80350-a12f-414d-8a45-edb4d9decdf0"},"vehicle_type_id":"4","last_reported":1774976088,"current_range_meters":4800,"station_id":"st_d3j3df2ikq2c7380ej80","pricing_plan_id":"cebpf4jnsgd1na2vs0mg"},{"bike_id":"c67d94f5-21d2-49d1-b980-9c12e222ce65","system_id":"levelo_inurba_marseille","lat":43.26563,"lon":5.39018,"is_reserved":false,"is_disabled":false,"rental_uris":{"android":"levelo://app?vid=c67d94f5-21d2-49d1-b980-9c12e222ce65","ios":"levelo://app?vid=c67d94f5-21d2-49d1-b980-9c12e222ce65"},"vehicle_type_id":"4","last_reported":1774976088,"current_range_meters":4800,"station_id":"ce4bhe12rcd13ifvqf30","pricing_plan_id":"cebpf4jnsgd1na2vs0mg"},{"bike_id":"e75d5ab0-201a-49aa-aee4-ccc6a30f5664","system_id":"levelo_inurba_marseille","lat":43.29527,"lon":5.38674,"is_reserved":false,"is_disabled":false,"rental_uris":{"android":"levelo://app?vid=e75d5ab0-201a-49aa-aee4-ccc6a30f5664","ios":"levelo://app?vid=e75d5ab0-201a-49aa-aee4-ccc6a30f5664"},"vehicle_type_id":"4","last_reported":1774976088,"current_range_meters":4800,"station_id":"","pricing_plan_id":"cebpf4jnsgd1na2vs0mg"},{"bike_id":"f2ac8faa-b8e8-4025-bb6d-4e45873c4422","system_id":"levelo_inurba_marseille","lat":43.23148,"lon":5.43724,"is_reserved":false,"is_disabled":false,"rental_uris":{"android":"levelo://app?vid=f2ac8faa-b8e8-4025-bb6d-4e45873c4422","ios":"levelo://app?vid=f2ac8faa-b8e8-4025-bb6d-4e45873c4422"},"vehicle_type_id":"4","last_reported":1774976088,"current_range_meters":5600,"station_id":"ce4bhmp2rcd13ifvqgog","pricing_plan_id":"cebpf4jnsgd1na2vs0mg"},{"bike_id":"46908cee-d39c-4432-9f8a-bab93c874af1","system_id":"levelo_inurba_marseille","lat":43.24692,"lon":5.38204,"is_reserved":false,"is_disabled":false,"rental_uris":{"android":"levelo://app?vid=46908cee-d39c-4432-9f8a-bab93c874af1","ios":"levelo://app?vid=46908cee-d39c-4432-9f8a-bab93c874af1"},"vehicle_type_id":"4","last_reported":1774976088,"current_range_meters":5600,"station_id":"ce4bhih2rcd13ifvqfr0","pricing_plan_id":"cebpf4jnsgd1na2vs0mg"},{"bike_id":"34e5e96c-68fe-4408-9ab0-fa9cd7e8a6c0","system_id":"levelo_inurba_marseille","lat":43.29893,"lon":5.40947,"is_reserved":false,"is_disabled":false,"rental_uris":{"android":"levelo://app?vid=34e5e96c-68fe-4408-9ab0-fa9cd7e8a6c0","ios":"levelo://app?vid=34e5e96c-68fe-4408-9ab0-fa9cd7e8a6c0"},"vehicle_type_id":"4","last_reported":1774976088,"current_range_meters":5600,"station_id":"","pricing_plan_id":"cebpf4jnsgd1na2vs0mg"},{"bike_id":"7807e959-548b-4573-9349-6f8ad219a4a5","system_id":"levelo_inurba_marseille","lat":43.24166,"lon":5.36401,"is_reserved":false,"is_disabled":false,"rental_uris":{"android":"levelo://app?vid=7807e959-548b-4573-9349-6f8ad219a4a5","ios":"levelo://app?vid=7807e959-548b-4573-9349-6f8ad219a4a5"},"vehicle_type_id":"4","last_reported":1774976088,"current_range_meters":5600,"station_id":"cpo36qri1sfpv3e86is0","pricing_plan_id":"cebpf4jnsgd1na2vs0mg"},{"bike_id":"372b8b50-b0a7-4341-a976-61dda51c6bb2","system_id":"levelo_inurba_marseille","lat":43.2619,"lon":5.3744,"is_reserved":false,"is_disabled":false,"rental_uris":{"android":"levelo://app?vid=372b8b50-b0a7-4341-a976-61dda51c6bb2","ios":"levelo://app?vid=372b8b50-b0a7-4341-a976-61dda51c6bb2"},"vehicle_type_id":"4","last_reported":1774976088,"current_range_meters":5600,"station_id":"ce4bhgp2rcd13ifvqfc0","pricing_plan_id":"cebpf4jnsgd1na2vs0mg"},{"bike_id":"e61a3b02-8828-47a8-8796-a0480c283119","system_id":"levelo_inurba_marseille","lat":43.22923,"lon":5.35377,"is_reserved":false,"is_disabled":false,"rental_uris":{"android":"levelo://app?vid=e61a3b02-8828-47a8-8796-a0480c283119","ios":"levelo://app?vid=e61a3b02-8828-47a8-8796-a0480c283119"},"vehicle_type_id":"4","last_reported":1774976088,"current_range_meters":5600,"station_id":"cpo3532slgdg3j2ikp40","pricing_plan_id":"cebpf4jnsgd1na2vs0mg"},{"bike_id":"145da0be-3016-4be6-8263-0e24c3e5d1fa","system_id":"levelo_inurba_marseille","lat":43.23956,"lon":5.36626,"is_reserved":false,"is_disabled":false,"rental_uris":{"android":"levelo://app?vid=145da0be-3016-4be6-8263-0e24c3e5d1fa","ios":"levelo://app?vid=145da0be-3016-4be6-8263-0e24c3e5d1fa"},"vehicle_type_id":"4","last_reported":1774976088,"current_range_meters":5600,"station_id":"ce4bhi12rcd13ifvqfp0","pricing_plan_id":"cebpf4jnsgd1na2vs0mg"},{"bike_id":"a2df5bbc-915e-4be4-8861-be4d46ce41c0","system_id":"levelo_inurba_marseille","lat":43.28484,"lon":5.48395,"is_reserved":false,"is_disabled":false,"rental_uris":{"android":"levelo://app?vid=a2df5bbc-915e-4be4-8861-be4d46ce41c0","ios":"levelo://app?vid=a2df5bbc-915e-4be4-8861-be4d46ce41c0"},"vehicle_type_id":"4","last_reported":1774976088,"current_range_meters":6000,"station_id":"","pricing_plan_id":"cebpf4jnsgd1na2vs0mg"},{"bike_id":"eac6a123-5f69-4eb4-aa4b-cdeaecf10b56","system_id":"levelo_inurba_marseille","lat":43.30546,"lon":5.36554,"is_reserved":false,"is_disabled":false,"rental_uris":{"android":"levelo://app?vid=eac6a123-5f69-4eb4-aa4b-cdeaecf10b56","ios":"levelo://app?vid=eac6a123-5f69-4eb4-aa4b-cdeaecf10b56"},"vehicle_type_id":"4","last_reported":1774976088,"current_range_meters":6000,"station_id":"ce4bgs12rcd13ifvqcag","pricing_plan_id":"cebpf4jnsgd1na2vs0mg"},{"bike_id":"6a35cc8d-14da-43dd-b25f-f5fa66837317","system_id":"levelo_inurba_marseille","lat":43.25172,"lon":5.41939,"is_reserved":false,"is_disabled":false,"rental_uris":{"android":"levelo://app?vid=6a35cc8d-14da-43dd-b25f-f5fa66837317","ios":"levelo://app?vid=6a35cc8d-14da-43dd-b25f-f5fa66837317"},"vehicle_type_id":"4","last_reported":1774976088,"current_range_meters":6000,"station_id":"","pricing_plan_id":"cebpf4jnsgd1na2vs0mg"},{"bike_id":"1aa18052-e7e0-4185-b467-3a7da5c3e7aa","system_id":"levelo_inurba_marseille","lat":43.29799,"lon":5.37093,"is_reserved":false,"is_disabled":false,"rental_uris":{"android":"levelo://app?vid=1aa18052-e7e0-4185-b467-3a7da5c3e7aa","ios":"levelo://app?vid=1aa18052-e7e0-4185-b467-3a7da5c3e7aa"},"vehicle_type_id":"4","last_reported":1774976088,"current_range_meters":6000,"station_id":"ce4bgop2rcd13ifvqc1g","pricing_plan_id":"cebpf4jnsgd1na2vs0mg"},{"bike_id":"516dc13e-98d2-4db1-9953-88b33774944d","system_id":"levelo_inurba_marseille","lat":43.29531,"lon":5.38663,"is_reserved":false,"is_disabled":false,"rental_uris":{"android":"levelo://app?vid=516dc13e-98d2-4db1-9953-88b33774944d","ios":"levelo://app?vid=516dc13e-98d2-4db1-9953-88b33774944d"},"vehicle_type_id":"4","last_reported":1774976088,"current_range_meters":6000,"station_id":"","pricing_plan_id":"cebpf4jnsgd1na2vs0mg"},{"bike_id":"5ae1cde3-c020-448f-8cff-83f80611c531","system_id":"levelo_inurba_marseille","lat":43.24459,"lon":5.4253,"is_reserved":false,"is_disabled":false,"rental_uris":{"android":"levelo://app?vid=5ae1cde3-c020-448f-8cff-83f80611c531","ios":"levelo://app?vid=5ae1cde3-c020-448f-8cff-83f80611c531"},"vehicle_type_id":"4","last_reported":1774976088,"current_range_meters":6000,"station_id":"st_d4a3vfp97mjs738cd8kg","pricing_plan_id":"cebpf4jnsgd1na2vs0mg"},{"bike_id":"d713f008-d847-4ca5-8d90-6f2b759f5aee","system_id":"levelo_inurba_marseille","lat":43.31328,"lon":5.39689,"is_reserved":false,"is_disabled":false,"rental_uris":{"android":"levelo://app?vid=d713f008-d847-4ca5-8d90-6f2b759f5aee","ios":"levelo://app?vid=d713f008-d847-4ca5-8d90-6f2b759f5aee"},"vehicle_type_id":"4","last_reported":1774976088,"current_range_meters":6000,"station_id":"ce4bgvp2rcd13ifvqcu0","pricing_plan_id":"cebpf4jnsgd1na2vs0mg"},{"bike_id":"b2ad8f77-b72f-425d-ae56-6f3d07fd7d34","system_id":"levelo_inurba_marseille","lat":43.33163,"lon":5.37694,"is_reserved":false,"is_disabled":false,"rental_uris":{"android":"levelo://app?vid=b2ad8f77-b72f-425d-ae56-6f3d07fd7d34","ios":"levelo://app?vid=b2ad8f77-b72f-425d-ae56-6f3d07fd7d34"},"vehicle_type_id":"4","last_reported":1774976088,"current_range_meters":6000,"station_id":"st_d46cu089ee8s73dldbu0","pricing_plan_id":"cebpf4jnsgd1na2vs0mg"},{"bike_id":"038bd06b-85ee-4348-8ad4-bd8d78b9c2d6","system_id":"levelo_inurba_marseille","lat":43.31049,"lon":5.37169,"is_reserved":false,"is_disabled":false,"rental_uris":{"android":"levelo://app?vid=038bd06b-85ee-4348-8ad4-bd8d78b9c2d6","ios":"levelo://app?vid=038bd06b-85ee-4348-8ad4-bd8d78b9c2d6"},"vehicle_type_id":"4","last_reported":1774976088,"current_range_meters":6000,"station_id":"st_d4kl2rp97mjs73e7tdfg","pricing_plan_id":"cebpf4jnsgd1na2vs0mg"},{"bike_id":"bb9c9ce8-7ad8-4c58-9c75-429d43a3d175","system_id":"levelo_inurba_marseille","lat":43.24034,"lon":5.36226,"is_reserved":false,"is_disabled":false,"rental_uris":{"android":"levelo://app?vid=bb9c9ce8-7ad8-4c58-9c75-429d43a3d175","ios":"levelo://app?vid=bb9c9ce8-7ad8-4c58-9c75-429d43a3d175"},"vehicle_type_id":"4","last_reported":1774976088,"current_range_meters":6000,"station_id":"","pricing_plan_id":"cebpf4jnsgd1na2vs0mg"},{"bike_id":"8224fee4-1d52-4b11-b16a-70c5a6603dd7","system_id":"levelo_inurba_marseille","lat":43.28477,"lon":5.484,"is_reserved":false,"is_disabled":false,"rental_uris":{"android":"levelo://app?vid=8224fee4-1d52-4b11-b16a-70c5a6603dd7","ios":"levelo://app?vid=8224fee4-1d52-4b11-b16a-70c5a6603dd7"},"vehicle_type_id":"4","last_reported":1774976088,"current_range_meters":6000,"station_id":"","pricing_plan_id":"cebpf4jnsgd1na2vs0mg"},{"bike_id":"692f4460-e67f-476b-a85f-00ce42a1802e","system_id":"levelo_inurba_marseille","lat":43.31121,"lon":5.377655,"is_reserved":false,"is_disabled":false,"rental_uris":{"android":"levelo://app?vid=692f4460-e67f-476b-a85f-00ce42a1802e","ios":"levelo://app?vid=692f4460-e67f-476b-a85f-00ce42a1802e"},"vehicle_type_id":"4","last_reported":1774976088,"current_range_meters":6400,"station_id":"ce4bgt92rcd13ifvqcg0","pricing_plan_id":"cebpf4jnsgd1na2vs0mg"},{"bike_id":"b542c304-293a-45f1-a562-d7fc7dbf754a","system_id":"levelo_inurba_marseille","lat":43.29504,"lon":5.43308,"is_reserved":false,"is_disabled":false,"rental_uris":{"android":"levelo://app?vid=b542c304-293a-45f1-a562-d7fc7dbf754a","ios":"levelo://app?vid=b542c304-293a-45f1-a562-d7fc7dbf754a"},"vehicle_type_id":"4","last_reported":1774976088,"current_range_meters":6400,"station_id":"st_d3j5ugp08ojc73fj9d10","pricing_plan_id":"cebpf4jnsgd1na2vs0mg"},{"bike_id":"090040e2-9712-4897-ba40-38302b217c99","system_id":"levelo_inurba_marseille","lat":43.28159,"lon":5.42628,"is_reserved":false,"is_disabled":false,"rental_uris":{"android":"levelo://app?vid=090040e2-9712-4897-ba40-38302b217c99","ios":"levelo://app?vid=090040e2-9712-4897-ba40-38302b217c99"},"vehicle_type_id":"4","last_reported":1774976088,"current_range_meters":6400,"station_id":"ce4bhnh2rcd13ifvqgug","pricing_plan_id":"cebpf4jnsgd1na2vs0mg"},{"bike_id":"bcc288dd-6942-4899-95ee-d43aed6e21bd","system_id":"levelo_inurba_marseille","lat":43.31322,"lon":5.36734,"is_reserved":false,"is_disabled":false,"rental_uris":{"android":"levelo://app?vid=bcc288dd-6942-4899-95ee-d43aed6e21bd","ios":"levelo://app?vid=bcc288dd-6942-4899-95ee-d43aed6e21bd"},"vehicle_type_id":"4","last_reported":1774976088,"current_range_meters":6400,"station_id":"ce4bgr92rcd13ifvqc6g","pricing_plan_id":"cebpf4jnsgd1na2vs0mg"},{"bike_id":"48529b6b-9879-4de3-b292-e59df15e7b99","system_id":"levelo_inurba_marseille","lat":43.29532,"lon":5.39036,"is_reserved":false,"is_disabled":false,"rental_uris":{"android":"levelo://app?vid=48529b6b-9879-4de3-b292-e59df15e7b99","ios":"levelo://app?vid=48529b6b-9879-4de3-b292-e59df15e7b99"},"vehicle_type_id":"4","last_reported":1774976088,"current_range_meters":6400,"station_id":"ce4bh3p2rcd13ifvqdp0","pricing_plan_id":"cebpf4jnsgd1na2vs0mg"},{"bike_id":"f5a303b4-19b6-4e82-aa4f-cd822fbe2e26","system_id":"levelo_inurba_marseille","lat":43.25552,"lon":5.38232,"is_reserved":false,"is_disabled":false,"rental_uris":{"android":"levelo://app?vid=f5a303b4-19b6-4e82-aa4f-cd822fbe2e26","ios":"levelo://app?vid=f5a303b4-19b6-4e82-aa4f-cd822fbe2e26"},"vehicle_type_id":"4","last_reported":1774976088,"current_range_meters":6400,"station_id":"ce4bhih2rcd13ifvqfs0","pricing_plan_id":"cebpf4jnsgd1na2vs0mg"},{"bike_id":"e72f4c7b-240a-4bc5-b383-6a5f011f272e","system_id":"levelo_inurba_marseille","lat":43.23211,"lon":5.35561,"is_reserved":false,"is_disabled":false,"rental_uris":{"android":"levelo://app?vid=e72f4c7b-240a-4bc5-b383-6a5f011f272e","ios":"levelo://app?vid=e72f4c7b-240a-4bc5-b383-6a5f011f272e"},"vehicle_type_id":"4","last_reported":1774976088,"current_range_meters":6400,"station_id":"ce4bhu92rcd13ifvqi70","pricing_plan_id":"cebpf4jnsgd1na2vs0mg"},{"bike_id":"a4c711ce-c48e-4767-b86f-5d87dcdcc4b7","system_id":"levelo_inurba_marseille","lat":43.21753,"lon":5.34624,"is_reserved":false,"is_disabled":false,"rental_uris":{"android":"levelo://app?vid=a4c711ce-c48e-4767-b86f-5d87dcdcc4b7","ios":"levelo://app?vid=a4c711ce-c48e-4767-b86f-5d87dcdcc4b7"},"vehicle_type_id":"4","last_reported":1774976088,"current_range_meters":6400,"station_id":"st_cvj6r9ubvosntc0bgbag","pricing_plan_id":"cebpf4jnsgd1na2vs0mg"},{"bike_id":"f9f4d58a-2305-4399-97ab-91809c2434f8","system_id":"levelo_inurba_marseille","lat":43.2841,"lon":5.37506,"is_reserved":false,"is_disabled":false,"rental_uris":{"android":"levelo://app?vid=f9f4d58a-2305-4399-97ab-91809c2434f8","ios":"levelo://app?vid=f9f4d58a-2305-4399-97ab-91809c2434f8"},"vehicle_type_id":"4","last_reported":1774976088,"current_range_meters":6400,"station_id":"ce4bh412rcd13ifvqds0","pricing_plan_id":"cebpf4jnsgd1na2vs0mg"},{"bike_id":"aa0cc8df-20ab-4e27-aef8-77b280cc543b","system_id":"levelo_inurba_marseille","lat":43.25055,"lon":5.37525,"is_reserved":false,"is_disabled":false,"rental_uris":{"android":"levelo://app?vid=aa0cc8df-20ab-4e27-aef8-77b280cc543b","ios":"levelo://app?vid=aa0cc8df-20ab-4e27-aef8-77b280cc543b"},"vehicle_type_id":"4","last_reported":1774976088,"current_range_meters":6400,"station_id":"","pricing_plan_id":"cebpf4jnsgd1na2vs0mg"},{"bike_id":"0b9bd603-c492-4ca6-8741-19e545661081","system_id":"levelo_inurba_marseille","lat":43.24169,"lon":5.36368,"is_reserved":false,"is_disabled":false,"rental_uris":{"android":"levelo://app?vid=0b9bd603-c492-4ca6-8741-19e545661081","ios":"levelo://app?vid=0b9bd603-c492-4ca6-8741-19e545661081"},"vehicle_type_id":"4","last_reported":1774976088,"current_range_meters":6400,"station_id":"cpo36qri1sfpv3e86is0","pricing_plan_id":"cebpf4jnsgd1na2vs0mg"},{"bike_id":"b2d72fd8-9618-48b7-8f8f-0078908bfacf","system_id":"levelo_inurba_marseille","lat":43.30136,"lon":5.4307,"is_reserved":false,"is_disabled":false,"rental_uris":{"android":"levelo://app?vid=b2d72fd8-9618-48b7-8f8f-0078908bfacf","ios":"levelo://app?vid=b2d72fd8-9618-48b7-8f8f-0078908bfacf"},"vehicle_type_id":"4","last_reported":1774976088,"current_range_meters":6400,"station_id":"st_d3js3co5814s73ftftug","pricing_plan_id":"cebpf4jnsgd1na2vs0mg"},{"bike_id":"cf039980-8909-4a03-aa52-b426c9efd4e8","system_id":"levelo_inurba_marseille","lat":43.21744,"lon":5.34591,"is_reserved":false,"is_disabled":false,"rental_uris":{"android":"levelo://app?vid=cf039980-8909-4a03-aa52-b426c9efd4e8","ios":"levelo://app?vid=cf039980-8909-4a03-aa52-b426c9efd4e8"},"vehicle_type_id":"4","last_reported":1774976088,"current_range_meters":6400,"station_id":"st_cvj6r9ubvosntc0bgbag","pricing_plan_id":"cebpf4jnsgd1na2vs0mg"},{"bike_id":"62fd9cc7-62f1-473c-a274-3f650a4055cf","system_id":"levelo_inurba_marseille","lat":43.29444,"lon":5.39732,"is_reserved":false,"is_disabled":false,"rental_uris":{"android":"levelo://app?vid=62fd9cc7-62f1-473c-a274-3f650a4055cf","ios":"levelo://app?vid=62fd9cc7-62f1-473c-a274-3f650a4055cf"},"vehicle_type_id":"4","last_reported":1774976088,"current_range_meters":6400,"station_id":"ce4bh3h2rcd13ifvqdo0","pricing_plan_id":"cebpf4jnsgd1na2vs0mg"},{"bike_id":"b6bc9951-c26e-4b7d-9e38-7f4c629c176e","system_id":"levelo_inurba_marseille","lat":43.29034,"lon":5.35913,"is_reserved":false,"is_disabled":false,"rental_uris":{"android":"levelo://app?vid=b6bc9951-c26e-4b7d-9e38-7f4c629c176e","ios":"levelo://app?vid=b6bc9951-c26e-4b7d-9e38-7f4c629c176e"},"vehicle_type_id":"4","last_reported":1774976088,"current_range_meters":6400,"station_id":"ce4bha92rcd13ifvqeg0","pricing_plan_id":"cebpf4jnsgd1na2vs0mg"},{"bike_id":"59c65e25-757b-4611-ab19-cc02e6ee8d57","system_id":"levelo_inurba_marseille","lat":43.21747,"lon":5.34606,"is_reserved":false,"is_disabled":false,"rental_uris":{"android":"levelo://app?vid=59c65e25-757b-4611-ab19-cc02e6ee8d57","ios":"levelo://app?vid=59c65e25-757b-4611-ab19-cc02e6ee8d57"},"vehicle_type_id":"4","last_reported":1774976088,"current_range_meters":6400,"station_id":"st_cvj6r9ubvosntc0bgbag","pricing_plan_id":"cebpf4jnsgd1na2vs0mg"},{"bike_id":"b093597f-dab7-4cc0-85ad-7e12db815972","system_id":"levelo_inurba_marseille","lat":43.3172,"lon":5.40435,"is_reserved":false,"is_disabled":false,"rental_uris":{"android":"levelo://app?vid=b093597f-dab7-4cc0-85ad-7e12db815972","ios":"levelo://app?vid=b093597f-dab7-4cc0-85ad-7e12db815972"},"vehicle_type_id":"4","last_reported":1774976088,"current_range_meters":6400,"station_id":"","pricing_plan_id":"cebpf4jnsgd1na2vs0mg"},{"bike_id":"d803e2d9-9376-4f1f-85b0-c6f8e1eae86c","system_id":"levelo_inurba_marseille","lat":43.29899,"lon":5.4367,"is_reserved":false,"is_disabled":false,"rental_uris":{"android":"levelo://app?vid=d803e2d9-9376-4f1f-85b0-c6f8e1eae86c","ios":"levelo://app?vid=d803e2d9-9376-4f1f-85b0-c6f8e1eae86c"},"vehicle_type_id":"4","last_reported":1774976088,"current_range_meters":6400,"station_id":"ce4bhpp2rcd13ifvqhfg","pricing_plan_id":"cebpf4jnsgd1na2vs0mg"},{"bike_id":"ad49ab69-c411-4c11-99b0-f62ffd949482","system_id":"levelo_inurba_marseille","lat":43.33604,"lon":5.41033,"is_reserved":false,"is_disabled":false,"rental_uris":{"android":"levelo://app?vid=ad49ab69-c411-4c11-99b0-f62ffd949482","ios":"levelo://app?vid=ad49ab69-c411-4c11-99b0-f62ffd949482"},"vehicle_type_id":"4","last_reported":1774976088,"current_range_meters":6400,"station_id":"ce4bhqh2rcd13ifvqhmg","pricing_plan_id":"cebpf4jnsgd1na2vs0mg"},{"bike_id":"5495f268-dddd-494d-8b35-779cb208c3e0","system_id":"levelo_inurba_marseille","lat":43.26564,"lon":5.39016,"is_reserved":false,"is_disabled":false,"rental_uris":{"android":"levelo://app?vid=5495f268-dddd-494d-8b35-779cb208c3e0","ios":"levelo://app?vid=5495f268-dddd-494d-8b35-779cb208c3e0"},"vehicle_type_id":"4","last_reported":1774976088,"current_range_meters":6400,"station_id":"ce4bhe12rcd13ifvqf30","pricing_plan_id":"cebpf4jnsgd1na2vs0mg"},{"bike_id":"aec34a6c-ce9b-42fa-a139-f2733448dfd7","system_id":"levelo_inurba_marseille","lat":43.26204,"lon":5.37934,"is_reserved":false,"is_disabled":false,"rental_uris":{"android":"levelo://app?vid=aec34a6c-ce9b-42fa-a139-f2733448dfd7","ios":"levelo://app?vid=aec34a6c-ce9b-42fa-a139-f2733448dfd7"},"vehicle_type_id":"4","last_reported":1774976088,"current_range_meters":6800,"station_id":"ce4bhjp2rcd13ifvqg90","pricing_plan_id":"cebpf4jnsgd1na2vs0mg"},{"bike_id":"b3466ecc-4c48-4c4d-94a7-8d6040baea0c","system_id":"levelo_inurba_marseille","lat":43.2256,"lon":5.41623,"is_reserved":false,"is_disabled":false,"rental_uris":{"android":"levelo://app?vid=b3466ecc-4c48-4c4d-94a7-8d6040baea0c","ios":"levelo://app?vid=b3466ecc-4c48-4c4d-94a7-8d6040baea0c"},"vehicle_type_id":"4","last_reported":1774976088,"current_range_meters":6800,"station_id":"st_d2o4gvlbi1j2169b742g","pricing_plan_id":"cebpf4jnsgd1na2vs0mg"},{"bike_id":"3af2314f-0c87-4a50-add2-7e597ea34773","system_id":"levelo_inurba_marseille","lat":43.24812,"lon":5.37455,"is_reserved":false,"is_disabled":false,"rental_uris":{"android":"levelo://app?vid=3af2314f-0c87-4a50-add2-7e597ea34773","ios":"levelo://app?vid=3af2314f-0c87-4a50-add2-7e597ea34773"},"vehicle_type_id":"4","last_reported":1774976088,"current_range_meters":6800,"station_id":"ce4bhgh2rcd13ifvqfb0","pricing_plan_id":"cebpf4jnsgd1na2vs0mg"},{"bike_id":"405bedfb-9935-4390-a8a3-f9ddcf9a97e8","system_id":"levelo_inurba_marseille","lat":43.22547,"lon":5.34823,"is_reserved":false,"is_disabled":false,"rental_uris":{"android":"levelo://app?vid=405bedfb-9935-4390-a8a3-f9ddcf9a97e8","ios":"levelo://app?vid=405bedfb-9935-4390-a8a3-f9ddcf9a97e8"},"vehicle_type_id":"4","last_reported":1774976088,"current_range_meters":6800,"station_id":"","pricing_plan_id":"cebpf4jnsgd1na2vs0mg"},{"bike_id":"540e08a8-3c1b-41fd-9344-04335c7837ef","system_id":"levelo_inurba_marseille","lat":43.30796,"lon":5.39989,"is_reserved":false,"is_disabled":false,"rental_uris":{"android":"levelo://app?vid=540e08a8-3c1b-41fd-9344-04335c7837ef","ios":"levelo://app?vid=540e08a8-3c1b-41fd-9344-04335c7837ef"},"vehicle_type_id":"4","last_reported":1774976088,"current_range_meters":6800,"station_id":"","pricing_plan_id":"cebpf4jnsgd1na2vs0mg"},{"bike_id":"aff3ff3f-6b67-4330-8619-cb367673fc13","system_id":"levelo_inurba_marseille","lat":43.24394,"lon":5.37052,"is_reserved":false,"is_disabled":false,"rental_uris":{"android":"levelo://app?vid=aff3ff3f-6b67-4330-8619-cb367673fc13","ios":"levelo://app?vid=aff3ff3f-6b67-4330-8619-cb367673fc13"},"vehicle_type_id":"4","last_reported":1774976088,"current_range_meters":6800,"station_id":"ce4bhhh2rcd13ifvqfk0","pricing_plan_id":"cebpf4jnsgd1na2vs0mg"},{"bike_id":"2af113ee-79ab-43e1-8352-bb07abd51450","system_id":"levelo_inurba_marseille","lat":43.29295,"lon":5.37449,"is_reserved":false,"is_disabled":false,"rental_uris":{"android":"levelo://app?vid=2af113ee-79ab-43e1-8352-bb07abd51450","ios":"levelo://app?vid=2af113ee-79ab-43e1-8352-bb07abd51450"},"vehicle_type_id":"4","last_reported":1774976088,"current_range_meters":6800,"station_id":"ce4bgi12rcd13ifvqb70","pricing_plan_id":"cebpf4jnsgd1na2vs0mg"},{"bike_id":"9e8c35a2-3d4d-48a8-87e2-0775e9d3d581","system_id":"levelo_inurba_marseille","lat":43.27476,"lon":5.40818,"is_reserved":false,"is_disabled":false,"rental_uris":{"android":"levelo://app?vid=9e8c35a2-3d4d-48a8-87e2-0775e9d3d581","ios":"levelo://app?vid=9e8c35a2-3d4d-48a8-87e2-0775e9d3d581"},"vehicle_type_id":"4","last_reported":1774976088,"current_range_meters":6800,"station_id":"","pricing_plan_id":"cebpf4jnsgd1na2vs0mg"},{"bike_id":"7f22feed-d092-43e1-8b7c-390e4c948e82","system_id":"levelo_inurba_marseille","lat":43.28701,"lon":5.37395,"is_reserved":false,"is_disabled":false,"rental_uris":{"android":"levelo://app?vid=7f22feed-d092-43e1-8b7c-390e4c948e82","ios":"levelo://app?vid=7f22feed-d092-43e1-8b7c-390e4c948e82"},"vehicle_type_id":"4","last_reported":1774976088,"current_range_meters":6800,"station_id":"ce4bh3p2rcd13ifvqdq0","pricing_plan_id":"cebpf4jnsgd1na2vs0mg"},{"bike_id":"abd9bc5a-f533-4766-aa45-1c77d19c7c4e","system_id":"levelo_inurba_marseille","lat":43.30645,"lon":5.40076,"is_reserved":false,"is_disabled":false,"rental_uris":{"android":"levelo://app?vid=abd9bc5a-f533-4766-aa45-1c77d19c7c4e","ios":"levelo://app?vid=abd9bc5a-f533-4766-aa45-1c77d19c7c4e"},"vehicle_type_id":"4","last_reported":1774976088,"current_range_meters":6800,"station_id":"ce4bh112rcd13ifvqda0","pricing_plan_id":"cebpf4jnsgd1na2vs0mg"},{"bike_id":"ea1967d6-c988-4410-823b-ea0c02e666d2","system_id":"levelo_inurba_marseille","lat":43.24806,"lon":5.37461,"is_reserved":false,"is_disabled":false,"rental_uris":{"android":"levelo://app?vid=ea1967d6-c988-4410-823b-ea0c02e666d2","ios":"levelo://app?vid=ea1967d6-c988-4410-823b-ea0c02e666d2"},"vehicle_type_id":"4","last_reported":1774976088,"current_range_meters":6800,"station_id":"ce4bhgh2rcd13ifvqfb0","pricing_plan_id":"cebpf4jnsgd1na2vs0mg"},{"bike_id":"370e4e08-6d82-4b38-8b87-e7eadfcbd0ed","system_id":"levelo_inurba_marseille","lat":43.24198,"lon":5.39706,"is_reserved":false,"is_disabled":false,"rental_uris":{"android":"levelo://app?vid=370e4e08-6d82-4b38-8b87-e7eadfcbd0ed","ios":"levelo://app?vid=370e4e08-6d82-4b38-8b87-e7eadfcbd0ed"},"vehicle_type_id":"4","last_reported":1774976088,"current_range_meters":6800,"station_id":"ce4bhn12rcd13ifvqgpg","pricing_plan_id":"cebpf4jnsgd1na2vs0mg"},{"bike_id":"10f05ed2-5813-4d4b-a9c2-f44482f892e6","system_id":"levelo_inurba_marseille","lat":43.31483,"lon":5.36933,"is_reserved":false,"is_disabled":false,"rental_uris":{"android":"levelo://app?vid=10f05ed2-5813-4d4b-a9c2-f44482f892e6","ios":"levelo://app?vid=10f05ed2-5813-4d4b-a9c2-f44482f892e6"},"vehicle_type_id":"4","last_reported":1774976088,"current_range_meters":6800,"station_id":"","pricing_plan_id":"cebpf4jnsgd1na2vs0mg"},{"bike_id":"3010ca9d-c8fb-41d7-ace8-3104f4f63f5d","system_id":"levelo_inurba_marseille","lat":43.23181,"lon":5.35561,"is_reserved":false,"is_disabled":false,"rental_uris":{"android":"levelo://app?vid=3010ca9d-c8fb-41d7-ace8-3104f4f63f5d","ios":"levelo://app?vid=3010ca9d-c8fb-41d7-ace8-3104f4f63f5d"},"vehicle_type_id":"4","last_reported":1774976088,"current_range_meters":6800,"station_id":"ce4bhu92rcd13ifvqi70","pricing_plan_id":"cebpf4jnsgd1na2vs0mg"},{"bike_id":"b69b7ee0-eb68-4e40-9110-6ed5a17a58dc","system_id":"levelo_inurba_marseille","lat":43.28422,"lon":5.34999,"is_reserved":false,"is_disabled":false,"rental_uris":{"android":"levelo://app?vid=b69b7ee0-eb68-4e40-9110-6ed5a17a58dc","ios":"levelo://app?vid=b69b7ee0-eb68-4e40-9110-6ed5a17a58dc"},"vehicle_type_id":"4","last_reported":1774976088,"current_range_meters":6800,"station_id":"ce4bhbh2rcd13ifvqepg","pricing_plan_id":"cebpf4jnsgd1na2vs0mg"},{"bike_id":"958ae1aa-92b5-4902-b66f-aee23fd43f5b","system_id":"levelo_inurba_marseille","lat":43.26205,"lon":5.37469,"is_reserved":false,"is_disabled":false,"rental_uris":{"android":"levelo://app?vid=958ae1aa-92b5-4902-b66f-aee23fd43f5b","ios":"levelo://app?vid=958ae1aa-92b5-4902-b66f-aee23fd43f5b"},"vehicle_type_id":"4","last_reported":1774976088,"current_range_meters":6800,"station_id":"ce4bhgp2rcd13ifvqfc0","pricing_plan_id":"cebpf4jnsgd1na2vs0mg"},{"bike_id":"829c5c52-e00f-4e24-b4b1-46ec3043d526","system_id":"levelo_inurba_marseille","lat":43.29883,"lon":5.42108,"is_reserved":false,"is_disabled":false,"rental_uris":{"android":"levelo://app?vid=829c5c52-e00f-4e24-b4b1-46ec3043d526","ios":"levelo://app?vid=829c5c52-e00f-4e24-b4b1-46ec3043d526"},"vehicle_type_id":"4","last_reported":1774976088,"current_range_meters":6800,"station_id":"st_d6tc004otcvc738tfe70","pricing_plan_id":"cebpf4jnsgd1na2vs0mg"},{"bike_id":"d6a7cdf9-0cd3-4cb4-b39c-ae1c7089970d","system_id":"levelo_inurba_marseille","lat":43.28441,"lon":5.39193,"is_reserved":false,"is_disabled":false,"rental_uris":{"android":"levelo://app?vid=d6a7cdf9-0cd3-4cb4-b39c-ae1c7089970d","ios":"levelo://app?vid=d6a7cdf9-0cd3-4cb4-b39c-ae1c7089970d"},"vehicle_type_id":"4","last_reported":1774976088,"current_range_meters":6800,"station_id":"ce4bhoh2rcd13ifvqh5g","pricing_plan_id":"cebpf4jnsgd1na2vs0mg"},{"bike_id":"99357e4e-0fd2-4bed-b022-406a548cc7c5","system_id":"levelo_inurba_marseille","lat":43.23954,"lon":5.3662,"is_reserved":false,"is_disabled":false,"rental_uris":{"android":"levelo://app?vid=99357e4e-0fd2-4bed-b022-406a548cc7c5","ios":"levelo://app?vid=99357e4e-0fd2-4bed-b022-406a548cc7c5"},"vehicle_type_id":"4","last_reported":1774976088,"current_range_meters":6800,"station_id":"ce4bhi12rcd13ifvqfp0","pricing_plan_id":"cebpf4jnsgd1na2vs0mg"},{"bike_id":"fa53d3ac-8ca2-48a3-bd17-938e57055d61","system_id":"levelo_inurba_marseille","lat":43.31272,"lon":5.40175,"is_reserved":false,"is_disabled":false,"rental_uris":{"android":"levelo://app?vid=fa53d3ac-8ca2-48a3-bd17-938e57055d61","ios":"levelo://app?vid=fa53d3ac-8ca2-48a3-bd17-938e57055d61"},"vehicle_type_id":"4","last_reported":1774976088,"current_range_meters":7200,"station_id":"ce4bh092rcd13ifvqd30","pricing_plan_id":"cebpf4jnsgd1na2vs0mg"},{"bike_id":"3a922081-a991-4b97-906e-7f7dba00403a","system_id":"levelo_inurba_marseille","lat":43.32349,"lon":5.36788,"is_reserved":false,"is_disabled":false,"rental_uris":{"android":"levelo://app?vid=3a922081-a991-4b97-906e-7f7dba00403a","ios":"levelo://app?vid=3a922081-a991-4b97-906e-7f7dba00403a"},"vehicle_type_id":"4","last_reported":1774976088,"current_range_meters":7200,"station_id":"ce4bhsh2rcd13ifvqi2g","pricing_plan_id":"cebpf4jnsgd1na2vs0mg"},{"bike_id":"816d1509-b6a4-4401-86a1-6ea0eb371364","system_id":"levelo_inurba_marseille","lat":43.2379,"lon":5.36645,"is_reserved":false,"is_disabled":false,"rental_uris":{"android":"levelo://app?vid=816d1509-b6a4-4401-86a1-6ea0eb371364","ios":"levelo://app?vid=816d1509-b6a4-4401-86a1-6ea0eb371364"},"vehicle_type_id":"4","last_reported":1774976088,"current_range_meters":7200,"station_id":"st_d3nk18o9ro0c73en2l3g","pricing_plan_id":"cebpf4jnsgd1na2vs0mg"},{"bike_id":"aac1d201-4604-4928-a1e8-3a9c499870e7","system_id":"levelo_inurba_marseille","lat":43.24645,"lon":5.3891,"is_reserved":false,"is_disabled":false,"rental_uris":{"android":"levelo://app?vid=aac1d201-4604-4928-a1e8-3a9c499870e7","ios":"levelo://app?vid=aac1d201-4604-4928-a1e8-3a9c499870e7"},"vehicle_type_id":"4","last_reported":1774976088,"current_range_meters":7200,"station_id":"ce4bhg12rcd13ifvqf60","pricing_plan_id":"cebpf4jnsgd1na2vs0mg"},{"bike_id":"ba94dc01-239a-45b3-ab74-97fee97d11ad","system_id":"levelo_inurba_marseille","lat":43.29232,"lon":5.36035,"is_reserved":false,"is_disabled":false,"rental_uris":{"android":"levelo://app?vid=ba94dc01-239a-45b3-ab74-97fee97d11ad","ios":"levelo://app?vid=ba94dc01-239a-45b3-ab74-97fee97d11ad"},"vehicle_type_id":"4","last_reported":1774976088,"current_range_meters":7200,"station_id":"ce4bhbh2rcd13ifvqeqg","pricing_plan_id":"cebpf4jnsgd1na2vs0mg"},{"bike_id":"f1c7cedb-7ca6-425d-bb6e-eba3f64564e5","system_id":"levelo_inurba_marseille","lat":43.2418,"lon":5.39726,"is_reserved":false,"is_disabled":false,"rental_uris":{"android":"levelo://app?vid=f1c7cedb-7ca6-425d-bb6e-eba3f64564e5","ios":"levelo://app?vid=f1c7cedb-7ca6-425d-bb6e-eba3f64564e5"},"vehicle_type_id":"4","last_reported":1774976088,"current_range_meters":7200,"station_id":"ce4bhn12rcd13ifvqgpg","pricing_plan_id":"cebpf4jnsgd1na2vs0mg"},{"bike_id":"fc230a14-954a-4d36-be5c-8f8498288ae5","system_id":"levelo_inurba_marseille","lat":43.28261,"lon":5.35084,"is_reserved":false,"is_disabled":false,"rental_uris":{"android":"levelo://app?vid=fc230a14-954a-4d36-be5c-8f8498288ae5","ios":"levelo://app?vid=fc230a14-954a-4d36-be5c-8f8498288ae5"},"vehicle_type_id":"4","last_reported":1774976088,"current_range_meters":7200,"station_id":"ce4bhbp2rcd13ifvqerg","pricing_plan_id":"cebpf4jnsgd1na2vs0mg"},{"bike_id":"9c1440ce-c955-43db-9800-7794805da744","system_id":"levelo_inurba_marseille","lat":43.23963,"lon":5.36634,"is_reserved":false,"is_disabled":false,"rental_uris":{"android":"levelo://app?vid=9c1440ce-c955-43db-9800-7794805da744","ios":"levelo://app?vid=9c1440ce-c955-43db-9800-7794805da744"},"vehicle_type_id":"4","last_reported":1774976088,"current_range_meters":7200,"station_id":"ce4bhi12rcd13ifvqfp0","pricing_plan_id":"cebpf4jnsgd1na2vs0mg"},{"bike_id":"815d7912-e35e-4708-88e8-d76cd012d1ba","system_id":"levelo_inurba_marseille","lat":43.25326,"lon":5.4218,"is_reserved":false,"is_disabled":false,"rental_uris":{"android":"levelo://app?vid=815d7912-e35e-4708-88e8-d76cd012d1ba","ios":"levelo://app?vid=815d7912-e35e-4708-88e8-d76cd012d1ba"},"vehicle_type_id":"4","last_reported":1774976088,"current_range_meters":7200,"station_id":"st_d2m65c5bi1j21697t3ng","pricing_plan_id":"cebpf4jnsgd1na2vs0mg"},{"bike_id":"f2128c2b-d262-4514-8fb8-ef01aa66887a","system_id":"levelo_inurba_marseille","lat":43.299774,"lon":5.371736,"is_reserved":false,"is_disabled":false,"rental_uris":{"android":"levelo://app?vid=f2128c2b-d262-4514-8fb8-ef01aa66887a","ios":"levelo://app?vid=f2128c2b-d262-4514-8fb8-ef01aa66887a"},"vehicle_type_id":"4","last_reported":1774976088,"current_range_meters":7200,"station_id":"ce4bgr92rcd13ifvqc7g","pricing_plan_id":"cebpf4jnsgd1na2vs0mg"},{"bike_id":"428c0f22-3e25-498c-916d-25afdb53c6dd","system_id":"levelo_inurba_marseille","lat":43.26951,"lon":5.38636,"is_reserved":false,"is_disabled":false,"rental_uris":{"android":"levelo://app?vid=428c0f22-3e25-498c-916d-25afdb53c6dd","ios":"levelo://app?vid=428c0f22-3e25-498c-916d-25afdb53c6dd"},"vehicle_type_id":"4","last_reported":1774976088,"current_range_meters":7200,"station_id":"ce4bhh92rcd13ifvqfh0","pricing_plan_id":"cebpf4jnsgd1na2vs0mg"},{"bike_id":"ba7deb35-b669-454e-ad2d-32596ffa8222","system_id":"levelo_inurba_marseille","lat":43.21745,"lon":5.34611,"is_reserved":false,"is_disabled":false,"rental_uris":{"android":"levelo://app?vid=ba7deb35-b669-454e-ad2d-32596ffa8222","ios":"levelo://app?vid=ba7deb35-b669-454e-ad2d-32596ffa8222"},"vehicle_type_id":"4","last_reported":1774976088,"current_range_meters":7200,"station_id":"st_cvj6r9ubvosntc0bgbag","pricing_plan_id":"cebpf4jnsgd1na2vs0mg"},{"bike_id":"0f20fa83-5694-4393-a47b-7caf9e918801","system_id":"levelo_inurba_marseille","lat":43.29158,"lon":5.42621,"is_reserved":false,"is_disabled":false,"rental_uris":{"android":"levelo://app?vid=0f20fa83-5694-4393-a47b-7caf9e918801","ios":"levelo://app?vid=0f20fa83-5694-4393-a47b-7caf9e918801"},"vehicle_type_id":"4","last_reported":1774976088,"current_range_meters":7200,"station_id":"","pricing_plan_id":"cebpf4jnsgd1na2vs0mg"},{"bike_id":"5873ab8e-e97b-4356-aade-970ccc94ad6a","system_id":"levelo_inurba_marseille","lat":43.25093,"lon":5.39522,"is_reserved":false,"is_disabled":false,"rental_uris":{"android":"levelo://app?vid=5873ab8e-e97b-4356-aade-970ccc94ad6a","ios":"levelo://app?vid=5873ab8e-e97b-4356-aade-970ccc94ad6a"},"vehicle_type_id":"4","last_reported":1774976088,"current_range_meters":7200,"station_id":"ce4bhm12rcd13ifvqgkg","pricing_plan_id":"cebpf4jnsgd1na2vs0mg"},{"bike_id":"792d7249-89f9-4f4b-bdcd-35ee2f559f92","system_id":"levelo_inurba_marseille","lat":43.3059,"lon":5.36703,"is_reserved":false,"is_disabled":false,"rental_uris":{"android":"levelo://app?vid=792d7249-89f9-4f4b-bdcd-35ee2f559f92","ios":"levelo://app?vid=792d7249-89f9-4f4b-bdcd-35ee2f559f92"},"vehicle_type_id":"4","last_reported":1774976088,"current_range_meters":7200,"station_id":"","pricing_plan_id":"cebpf4jnsgd1na2vs0mg"},{"bike_id":"79129c40-9bd0-4de6-981a-faea7f55c070","system_id":"levelo_inurba_marseille","lat":43.24647,"lon":5.38897,"is_reserved":false,"is_disabled":false,"rental_uris":{"android":"levelo://app?vid=79129c40-9bd0-4de6-981a-faea7f55c070","ios":"levelo://app?vid=79129c40-9bd0-4de6-981a-faea7f55c070"},"vehicle_type_id":"4","last_reported":1774976088,"current_range_meters":7200,"station_id":"ce4bhg12rcd13ifvqf60","pricing_plan_id":"cebpf4jnsgd1na2vs0mg"},{"bike_id":"30137f63-3406-4bcd-a82f-5c0c1c27e81e","system_id":"levelo_inurba_marseille","lat":43.30797,"lon":5.3816,"is_reserved":false,"is_disabled":false,"rental_uris":{"android":"levelo://app?vid=30137f63-3406-4bcd-a82f-5c0c1c27e81e","ios":"levelo://app?vid=30137f63-3406-4bcd-a82f-5c0c1c27e81e"},"vehicle_type_id":"4","last_reported":1774976088,"current_range_meters":7200,"station_id":"ce4bgt12rcd13ifvqce0","pricing_plan_id":"cebpf4jnsgd1na2vs0mg"},{"bike_id":"812692de-c770-4848-a459-505c4920721f","system_id":"levelo_inurba_marseille","lat":43.24656,"lon":5.38179,"is_reserved":false,"is_disabled":false,"rental_uris":{"android":"levelo://app?vid=812692de-c770-4848-a459-505c4920721f","ios":"levelo://app?vid=812692de-c770-4848-a459-505c4920721f"},"vehicle_type_id":"4","last_reported":1774976088,"current_range_meters":7200,"station_id":"ce4bhih2rcd13ifvqfr0","pricing_plan_id":"cebpf4jnsgd1na2vs0mg"},{"bike_id":"1ebb73a2-9b99-41e1-889f-3e6016408a38","system_id":"levelo_inurba_marseille","lat":43.27942,"lon":5.41063,"is_reserved":false,"is_disabled":false,"rental_uris":{"android":"levelo://app?vid=1ebb73a2-9b99-41e1-889f-3e6016408a38","ios":"levelo://app?vid=1ebb73a2-9b99-41e1-889f-3e6016408a38"},"vehicle_type_id":"4","last_reported":1774976088,"current_range_meters":7200,"station_id":"ce4bhnp2rcd13ifvqh0g","pricing_plan_id":"cebpf4jnsgd1na2vs0mg"},{"bike_id":"5f187735-fafb-444d-90d5-88a9f9cbb325","system_id":"levelo_inurba_marseille","lat":43.30318,"lon":5.37888,"is_reserved":false,"is_disabled":false,"rental_uris":{"android":"levelo://app?vid=5f187735-fafb-444d-90d5-88a9f9cbb325","ios":"levelo://app?vid=5f187735-fafb-444d-90d5-88a9f9cbb325"},"vehicle_type_id":"4","last_reported":1774976088,"current_range_meters":7200,"station_id":"","pricing_plan_id":"cebpf4jnsgd1na2vs0mg"},{"bike_id":"e30918fa-5003-4ff7-96a8-d10a5a8a80b4","system_id":"levelo_inurba_marseille","lat":43.28401,"lon":5.37517,"is_reserved":false,"is_disabled":false,"rental_uris":{"android":"levelo://app?vid=e30918fa-5003-4ff7-96a8-d10a5a8a80b4","ios":"levelo://app?vid=e30918fa-5003-4ff7-96a8-d10a5a8a80b4"},"vehicle_type_id":"4","last_reported":1774976088,"current_range_meters":7200,"station_id":"ce4bh412rcd13ifvqds0","pricing_plan_id":"cebpf4jnsgd1na2vs0mg"},{"bike_id":"9da6f0a0-254f-4937-8243-355fe7b156df","system_id":"levelo_inurba_marseille","lat":43.28538,"lon":5.44104,"is_reserved":false,"is_disabled":false,"rental_uris":{"android":"levelo://app?vid=9da6f0a0-254f-4937-8243-355fe7b156df","ios":"levelo://app?vid=9da6f0a0-254f-4937-8243-355fe7b156df"},"vehicle_type_id":"4","last_reported":1774976088,"current_range_meters":7200,"station_id":"st_d3j3df2ikq2c7380ej80","pricing_plan_id":"cebpf4jnsgd1na2vs0mg"},{"bike_id":"9793cf18-cbfb-4e25-9697-75a016b78c27","system_id":"levelo_inurba_marseille","lat":43.28388,"lon":5.38473,"is_reserved":false,"is_disabled":false,"rental_uris":{"android":"levelo://app?vid=9793cf18-cbfb-4e25-9697-75a016b78c27","ios":"levelo://app?vid=9793cf18-cbfb-4e25-9697-75a016b78c27"},"vehicle_type_id":"4","last_reported":1774976088,"current_range_meters":7200,"station_id":"","pricing_plan_id":"cebpf4jnsgd1na2vs0mg"},{"bike_id":"68ef153f-a709-4c80-9ef2-238d9f86b776","system_id":"levelo_inurba_marseille","lat":43.28244,"lon":5.35074,"is_reserved":false,"is_disabled":false,"rental_uris":{"android":"levelo://app?vid=68ef153f-a709-4c80-9ef2-238d9f86b776","ios":"levelo://app?vid=68ef153f-a709-4c80-9ef2-238d9f86b776"},"vehicle_type_id":"4","last_reported":1774976088,"current_range_meters":7200,"station_id":"ce4bhbp2rcd13ifvqerg","pricing_plan_id":"cebpf4jnsgd1na2vs0mg"},{"bike_id":"0ebcc71a-1070-45ee-8791-56ad76c8f07f","system_id":"levelo_inurba_marseille","lat":43.26377,"lon":5.41082,"is_reserved":false,"is_disabled":false,"rental_uris":{"android":"levelo://app?vid=0ebcc71a-1070-45ee-8791-56ad76c8f07f","ios":"levelo://app?vid=0ebcc71a-1070-45ee-8791-56ad76c8f07f"},"vehicle_type_id":"4","last_reported":1774976088,"current_range_meters":7200,"station_id":"st_d4e5ca6na9uc73bfl5fg","pricing_plan_id":"cebpf4jnsgd1na2vs0mg"},{"bike_id":"43e4bb96-0cd3-4e42-baf5-dd0ee842f69a","system_id":"levelo_inurba_marseille","lat":43.23793,"lon":5.36636,"is_reserved":false,"is_disabled":false,"rental_uris":{"android":"levelo://app?vid=43e4bb96-0cd3-4e42-baf5-dd0ee842f69a","ios":"levelo://app?vid=43e4bb96-0cd3-4e42-baf5-dd0ee842f69a"},"vehicle_type_id":"4","last_reported":1774976088,"current_range_meters":7200,"station_id":"st_d3nk18o9ro0c73en2l3g","pricing_plan_id":"cebpf4jnsgd1na2vs0mg"},{"bike_id":"3681bea9-2900-445c-b2d4-06ae4cedc9b9","system_id":"levelo_inurba_marseille","lat":43.29601,"lon":5.38107,"is_reserved":false,"is_disabled":true,"rental_uris":{"android":"levelo://app?vid=3681bea9-2900-445c-b2d4-06ae4cedc9b9","ios":"levelo://app?vid=3681bea9-2900-445c-b2d4-06ae4cedc9b9"},"vehicle_type_id":"4","last_reported":1774976088,"current_range_meters":8000,"station_id":"ce4bgl12rcd13ifvqbo0","pricing_plan_id":"cebpf4jnsgd1na2vs0mg"},{"bike_id":"8429f855-c4a0-4803-9ce7-0d1fb93dbfe8","system_id":"levelo_inurba_marseille","lat":43.28541,"lon":5.48376,"is_reserved":false,"is_disabled":false,"rental_uris":{"android":"levelo://app?vid=8429f855-c4a0-4803-9ce7-0d1fb93dbfe8","ios":"levelo://app?vid=8429f855-c4a0-4803-9ce7-0d1fb93dbfe8"},"vehicle_type_id":"4","last_reported":1774976088,"current_range_meters":8000,"station_id":"","pricing_plan_id":"cebpf4jnsgd1na2vs0mg"},{"bike_id":"6154ce6a-6063-43ce-9e4a-767e1486eb9e","system_id":"levelo_inurba_marseille","lat":43.23064,"lon":5.35485,"is_reserved":false,"is_disabled":false,"rental_uris":{"android":"levelo://app?vid=6154ce6a-6063-43ce-9e4a-767e1486eb9e","ios":"levelo://app?vid=6154ce6a-6063-43ce-9e4a-767e1486eb9e"},"vehicle_type_id":"4","last_reported":1774976088,"current_range_meters":8000,"station_id":"cpo3342slgdg3j2ifvpg","pricing_plan_id":"cebpf4jnsgd1na2vs0mg"},{"bike_id":"4b2c0f5b-a0a4-4b39-8ba4-08240979d821","system_id":"levelo_inurba_marseille","lat":43.24177,"lon":5.39732,"is_reserved":false,"is_disabled":false,"rental_uris":{"android":"levelo://app?vid=4b2c0f5b-a0a4-4b39-8ba4-08240979d821","ios":"levelo://app?vid=4b2c0f5b-a0a4-4b39-8ba4-08240979d821"},"vehicle_type_id":"4","last_reported":1774976088,"current_range_meters":8000,"station_id":"ce4bhn12rcd13ifvqgpg","pricing_plan_id":"cebpf4jnsgd1na2vs0mg"},{"bike_id":"ace2b5ee-1355-40d7-ba59-bba7c913ea22","system_id":"levelo_inurba_marseille","lat":43.337444,"lon":5.374475,"is_reserved":false,"is_disabled":true,"rental_uris":{"android":"levelo://app?vid=ace2b5ee-1355-40d7-ba59-bba7c913ea22","ios":"levelo://app?vid=ace2b5ee-1355-40d7-ba59-bba7c913ea22"},"vehicle_type_id":"4","last_reported":1774976088,"current_range_meters":8000,"station_id":"","pricing_plan_id":"cebpf4jnsgd1na2vs0mg"},{"bike_id":"50dd00c6-7947-4820-a4c0-c8a42548efd2","system_id":"levelo_inurba_marseille","lat":43.28695,"lon":5.36179,"is_reserved":false,"is_disabled":false,"rental_uris":{"android":"levelo://app?vid=50dd00c6-7947-4820-a4c0-c8a42548efd2","ios":"levelo://app?vid=50dd00c6-7947-4820-a4c0-c8a42548efd2"},"vehicle_type_id":"4","last_reported":1774976088,"current_range_meters":8000,"station_id":"","pricing_plan_id":"cebpf4jnsgd1na2vs0mg"},{"bike_id":"750807a6-4dc2-459c-99ab-2f2079c0197b","system_id":"levelo_inurba_marseille","lat":43.2904,"lon":5.38635,"is_reserved":false,"is_disabled":false,"rental_uris":{"android":"levelo://app?vid=750807a6-4dc2-459c-99ab-2f2079c0197b","ios":"levelo://app?vid=750807a6-4dc2-459c-99ab-2f2079c0197b"},"vehicle_type_id":"4","last_reported":1774976088,"current_range_meters":8000,"station_id":"ce4bh4p2rcd13ifvqe0g","pricing_plan_id":"cebpf4jnsgd1na2vs0mg"},{"bike_id":"d90b30f7-db03-414a-88e2-268b512c6ce2","system_id":"levelo_inurba_marseille","lat":43.25006,"lon":5.38915,"is_reserved":false,"is_disabled":false,"rental_uris":{"android":"levelo://app?vid=d90b30f7-db03-414a-88e2-268b512c6ce2","ios":"levelo://app?vid=d90b30f7-db03-414a-88e2-268b512c6ce2"},"vehicle_type_id":"4","last_reported":1774976088,"current_range_meters":8000,"station_id":"ce4bhgp2rcd13ifvqfd0","pricing_plan_id":"cebpf4jnsgd1na2vs0mg"},{"bike_id":"602c7046-3fa2-412f-acea-a5dda9264272","system_id":"levelo_inurba_marseille","lat":43.21189,"lon":5.35062,"is_reserved":false,"is_disabled":false,"rental_uris":{"android":"levelo://app?vid=602c7046-3fa2-412f-acea-a5dda9264272","ios":"levelo://app?vid=602c7046-3fa2-412f-acea-a5dda9264272"},"vehicle_type_id":"4","last_reported":1774976088,"current_range_meters":8000,"station_id":"st_cvj6sg6p6f1abm77japg","pricing_plan_id":"cebpf4jnsgd1na2vs0mg"},{"bike_id":"4521d8e0-0eb6-4078-bd36-d524fb0ea48a","system_id":"levelo_inurba_marseille","lat":43.29605,"lon":5.37713,"is_reserved":false,"is_disabled":false,"rental_uris":{"android":"levelo://app?vid=4521d8e0-0eb6-4078-bd36-d524fb0ea48a","ios":"levelo://app?vid=4521d8e0-0eb6-4078-bd36-d524fb0ea48a"},"vehicle_type_id":"4","last_reported":1774976088,"current_range_meters":8000,"station_id":"ce4bgi92rcd13ifvqb90","pricing_plan_id":"cebpf4jnsgd1na2vs0mg"},{"bike_id":"17e08ba3-5ff1-46c0-b692-e7f174267bbc","system_id":"levelo_inurba_marseille","lat":43.30167,"lon":5.36621,"is_reserved":false,"is_disabled":false,"rental_uris":{"android":"levelo://app?vid=17e08ba3-5ff1-46c0-b692-e7f174267bbc","ios":"levelo://app?vid=17e08ba3-5ff1-46c0-b692-e7f174267bbc"},"vehicle_type_id":"4","last_reported":1774976088,"current_range_meters":8000,"station_id":"ce4bgrh2rcd13ifvqc8g","pricing_plan_id":"cebpf4jnsgd1na2vs0mg"},{"bike_id":"21f87c15-edb4-477e-8bf4-58f311519b25","system_id":"levelo_inurba_marseille","lat":43.28428,"lon":5.34957,"is_reserved":false,"is_disabled":false,"rental_uris":{"android":"levelo://app?vid=21f87c15-edb4-477e-8bf4-58f311519b25","ios":"levelo://app?vid=21f87c15-edb4-477e-8bf4-58f311519b25"},"vehicle_type_id":"4","last_reported":1774976088,"current_range_meters":8000,"station_id":"ce4bhbh2rcd13ifvqepg","pricing_plan_id":"cebpf4jnsgd1na2vs0mg"},{"bike_id":"16e274d7-7305-4b38-a146-4da91ab01fb2","system_id":"levelo_inurba_marseille","lat":43.2119,"lon":5.35073,"is_reserved":false,"is_disabled":false,"rental_uris":{"android":"levelo://app?vid=16e274d7-7305-4b38-a146-4da91ab01fb2","ios":"levelo://app?vid=16e274d7-7305-4b38-a146-4da91ab01fb2"},"vehicle_type_id":"4","last_reported":1774976088,"current_range_meters":8000,"station_id":"st_cvj6sg6p6f1abm77japg","pricing_plan_id":"cebpf4jnsgd1na2vs0mg"},{"bike_id":"b1e9f130-d8ae-4858-bc10-b368a2ad0d85","system_id":"levelo_inurba_marseille","lat":43.28479,"lon":5.48392,"is_reserved":false,"is_disabled":false,"rental_uris":{"android":"levelo://app?vid=b1e9f130-d8ae-4858-bc10-b368a2ad0d85","ios":"levelo://app?vid=b1e9f130-d8ae-4858-bc10-b368a2ad0d85"},"vehicle_type_id":"4","last_reported":1774976088,"current_range_meters":8000,"station_id":"","pricing_plan_id":"cebpf4jnsgd1na2vs0mg"},{"bike_id":"ad3dbea0-7082-49b4-9d8f-3003a92f1eba","system_id":"levelo_inurba_marseille","lat":43.28703,"lon":5.37394,"is_reserved":false,"is_disabled":false,"rental_uris":{"android":"levelo://app?vid=ad3dbea0-7082-49b4-9d8f-3003a92f1eba","ios":"levelo://app?vid=ad3dbea0-7082-49b4-9d8f-3003a92f1eba"},"vehicle_type_id":"4","last_reported":1774976088,"current_range_meters":8000,"station_id":"ce4bh3p2rcd13ifvqdq0","pricing_plan_id":"cebpf4jnsgd1na2vs0mg"},{"bike_id":"e98dd6e8-d317-43af-87b8-7784a84112b8","system_id":"levelo_inurba_marseille","lat":43.23953,"lon":5.36637,"is_reserved":false,"is_disabled":false,"rental_uris":{"android":"levelo://app?vid=e98dd6e8-d317-43af-87b8-7784a84112b8","ios":"levelo://app?vid=e98dd6e8-d317-43af-87b8-7784a84112b8"},"vehicle_type_id":"4","last_reported":1774976088,"current_range_meters":8000,"station_id":"ce4bhi12rcd13ifvqfp0","pricing_plan_id":"cebpf4jnsgd1na2vs0mg"},{"bike_id":"b53f224e-5c2b-47b3-a19b-0c6884245c31","system_id":"levelo_inurba_marseille","lat":43.23961,"lon":5.36644,"is_reserved":false,"is_disabled":false,"rental_uris":{"android":"levelo://app?vid=b53f224e-5c2b-47b3-a19b-0c6884245c31","ios":"levelo://app?vid=b53f224e-5c2b-47b3-a19b-0c6884245c31"},"vehicle_type_id":"4","last_reported":1774976088,"current_range_meters":8000,"station_id":"ce4bhi12rcd13ifvqfp0","pricing_plan_id":"cebpf4jnsgd1na2vs0mg"},{"bike_id":"aa363bcf-731a-43c6-a6f8-7c62b12a1925","system_id":"levelo_inurba_marseille","lat":43.28427,"lon":5.34947,"is_reserved":false,"is_disabled":false,"rental_uris":{"android":"levelo://app?vid=aa363bcf-731a-43c6-a6f8-7c62b12a1925","ios":"levelo://app?vid=aa363bcf-731a-43c6-a6f8-7c62b12a1925"},"vehicle_type_id":"4","last_reported":1774976088,"current_range_meters":8000,"station_id":"ce4bhbh2rcd13ifvqepg","pricing_plan_id":"cebpf4jnsgd1na2vs0mg"},{"bike_id":"8b972516-364d-4c36-a2f6-f81da10bf5ee","system_id":"levelo_inurba_marseille","lat":43.3011,"lon":5.43109,"is_reserved":false,"is_disabled":false,"rental_uris":{"android":"levelo://app?vid=8b972516-364d-4c36-a2f6-f81da10bf5ee","ios":"levelo://app?vid=8b972516-364d-4c36-a2f6-f81da10bf5ee"},"vehicle_type_id":"4","last_reported":1774976088,"current_range_meters":8000,"station_id":"st_d3js3co5814s73ftftug","pricing_plan_id":"cebpf4jnsgd1na2vs0mg"},{"bike_id":"fbb75834-f22e-4b0c-a13f-b3782403aa38","system_id":"levelo_inurba_marseille","lat":43.23964,"lon":5.36628,"is_reserved":false,"is_disabled":false,"rental_uris":{"android":"levelo://app?vid=fbb75834-f22e-4b0c-a13f-b3782403aa38","ios":"levelo://app?vid=fbb75834-f22e-4b0c-a13f-b3782403aa38"},"vehicle_type_id":"4","last_reported":1774976088,"current_range_meters":8000,"station_id":"ce4bhi12rcd13ifvqfp0","pricing_plan_id":"cebpf4jnsgd1na2vs0mg"},{"bike_id":"295fdc2c-c390-48bc-8c45-8b59329c6d4e","system_id":"levelo_inurba_marseille","lat":43.29616,"lon":5.37719,"is_reserved":false,"is_disabled":false,"rental_uris":{"android":"levelo://app?vid=295fdc2c-c390-48bc-8c45-8b59329c6d4e","ios":"levelo://app?vid=295fdc2c-c390-48bc-8c45-8b59329c6d4e"},"vehicle_type_id":"4","last_reported":1774976088,"current_range_meters":8000,"station_id":"ce4bgi92rcd13ifvqb90","pricing_plan_id":"cebpf4jnsgd1na2vs0mg"},{"bike_id":"48e99d23-61ef-4493-837f-d5e9698a5ecf","system_id":"levelo_inurba_marseille","lat":43.27619,"lon":5.36105,"is_reserved":false,"is_disabled":false,"rental_uris":{"android":"levelo://app?vid=48e99d23-61ef-4493-837f-d5e9698a5ecf","ios":"levelo://app?vid=48e99d23-61ef-4493-837f-d5e9698a5ecf"},"vehicle_type_id":"4","last_reported":1774976088,"current_range_meters":8000,"station_id":"ce4bgj92rcd13ifvqbe0","pricing_plan_id":"cebpf4jnsgd1na2vs0mg"},{"bike_id":"f41228a8-91f5-4446-aa92-86f61e39ed04","system_id":"levelo_inurba_marseille","lat":43.28995,"lon":5.35623,"is_reserved":false,"is_disabled":false,"rental_uris":{"android":"levelo://app?vid=f41228a8-91f5-4446-aa92-86f61e39ed04","ios":"levelo://app?vid=f41228a8-91f5-4446-aa92-86f61e39ed04"},"vehicle_type_id":"4","last_reported":1774976088,"current_range_meters":8000,"station_id":"ce4bhb92rcd13ifvqen0","pricing_plan_id":"cebpf4jnsgd1na2vs0mg"},{"bike_id":"15eb4f4d-a16a-450e-aa13-dca03e151336","system_id":"levelo_inurba_marseille","lat":43.25587,"lon":5.38267,"is_reserved":false,"is_disabled":false,"rental_uris":{"android":"levelo://app?vid=15eb4f4d-a16a-450e-aa13-dca03e151336","ios":"levelo://app?vid=15eb4f4d-a16a-450e-aa13-dca03e151336"},"vehicle_type_id":"4","last_reported":1774976088,"current_range_meters":8000,"station_id":"ce4bhih2rcd13ifvqfs0","pricing_plan_id":"cebpf4jnsgd1na2vs0mg"},{"bike_id":"b130f3c8-fca0-4d03-9e34-18b6a09ad6b8","system_id":"levelo_inurba_marseille","lat":43.28598,"lon":5.39883,"is_reserved":false,"is_disabled":false,"rental_uris":{"android":"levelo://app?vid=b130f3c8-fca0-4d03-9e34-18b6a09ad6b8","ios":"levelo://app?vid=b130f3c8-fca0-4d03-9e34-18b6a09ad6b8"},"vehicle_type_id":"4","last_reported":1774976088,"current_range_meters":8000,"station_id":"st_d4a7ka997mjs738ck50g","pricing_plan_id":"cebpf4jnsgd1na2vs0mg"},{"bike_id":"3c7de47c-3a94-458e-bdb1-8077a5e8d0cc","system_id":"levelo_inurba_marseille","lat":43.2842,"lon":5.34999,"is_reserved":false,"is_disabled":false,"rental_uris":{"android":"levelo://app?vid=3c7de47c-3a94-458e-bdb1-8077a5e8d0cc","ios":"levelo://app?vid=3c7de47c-3a94-458e-bdb1-8077a5e8d0cc"},"vehicle_type_id":"4","last_reported":1774976088,"current_range_meters":8000,"station_id":"ce4bhbh2rcd13ifvqepg","pricing_plan_id":"cebpf4jnsgd1na2vs0mg"},{"bike_id":"bfbdbe2c-3191-4575-be9c-4e657ca9482b","system_id":"levelo_inurba_marseille","lat":43.27617,"lon":5.36108,"is_reserved":false,"is_disabled":false,"rental_uris":{"android":"levelo://app?vid=bfbdbe2c-3191-4575-be9c-4e657ca9482b","ios":"levelo://app?vid=bfbdbe2c-3191-4575-be9c-4e657ca9482b"},"vehicle_type_id":"4","last_reported":1774976088,"current_range_meters":8400,"station_id":"ce4bgj92rcd13ifvqbe0","pricing_plan_id":"cebpf4jnsgd1na2vs0mg"},{"bike_id":"6ec1889d-c43d-42d7-9ebb-6d09626d1897","system_id":"levelo_inurba_marseille","lat":43.24654,"lon":5.38929,"is_reserved":false,"is_disabled":false,"rental_uris":{"android":"levelo://app?vid=6ec1889d-c43d-42d7-9ebb-6d09626d1897","ios":"levelo://app?vid=6ec1889d-c43d-42d7-9ebb-6d09626d1897"},"vehicle_type_id":"4","last_reported":1774976088,"current_range_meters":8400,"station_id":"ce4bhg12rcd13ifvqf60","pricing_plan_id":"cebpf4jnsgd1na2vs0mg"},{"bike_id":"dfb946ce-fedb-4e12-8519-cb8fb15a5c14","system_id":"levelo_inurba_marseille","lat":43.24147,"lon":5.36375,"is_reserved":false,"is_disabled":false,"rental_uris":{"android":"levelo://app?vid=dfb946ce-fedb-4e12-8519-cb8fb15a5c14","ios":"levelo://app?vid=dfb946ce-fedb-4e12-8519-cb8fb15a5c14"},"vehicle_type_id":"4","last_reported":1774976088,"current_range_meters":8400,"station_id":"cpo36qri1sfpv3e86is0","pricing_plan_id":"cebpf4jnsgd1na2vs0mg"},{"bike_id":"e5a7a53a-b267-4440-9c9f-66f6b2ca226b","system_id":"levelo_inurba_marseille","lat":43.29602,"lon":5.37193,"is_reserved":false,"is_disabled":false,"rental_uris":{"android":"levelo://app?vid=e5a7a53a-b267-4440-9c9f-66f6b2ca226b","ios":"levelo://app?vid=e5a7a53a-b267-4440-9c9f-66f6b2ca226b"},"vehicle_type_id":"4","last_reported":1774976088,"current_range_meters":8400,"station_id":"ce4bgnh2rcd13ifvqc0g","pricing_plan_id":"cebpf4jnsgd1na2vs0mg"},{"bike_id":"97911566-b39d-4772-9786-37508c49e45f","system_id":"levelo_inurba_marseille","lat":43.22557,"lon":5.41623,"is_reserved":false,"is_disabled":false,"rental_uris":{"android":"levelo://app?vid=97911566-b39d-4772-9786-37508c49e45f","ios":"levelo://app?vid=97911566-b39d-4772-9786-37508c49e45f"},"vehicle_type_id":"4","last_reported":1774976088,"current_range_meters":8400,"station_id":"st_d2o4gvlbi1j2169b742g","pricing_plan_id":"cebpf4jnsgd1na2vs0mg"},{"bike_id":"1130d409-34d2-42ba-a5d5-ed99d6325005","system_id":"levelo_inurba_marseille","lat":43.21746,"lon":5.34598,"is_reserved":false,"is_disabled":false,"rental_uris":{"android":"levelo://app?vid=1130d409-34d2-42ba-a5d5-ed99d6325005","ios":"levelo://app?vid=1130d409-34d2-42ba-a5d5-ed99d6325005"},"vehicle_type_id":"4","last_reported":1774976088,"current_range_meters":8400,"station_id":"st_cvj6r9ubvosntc0bgbag","pricing_plan_id":"cebpf4jnsgd1na2vs0mg"},{"bike_id":"24809054-a7ec-4edc-87e1-0fe9b671a822","system_id":"levelo_inurba_marseille","lat":43.29894,"lon":5.43653,"is_reserved":false,"is_disabled":false,"rental_uris":{"android":"levelo://app?vid=24809054-a7ec-4edc-87e1-0fe9b671a822","ios":"levelo://app?vid=24809054-a7ec-4edc-87e1-0fe9b671a822"},"vehicle_type_id":"4","last_reported":1774976088,"current_range_meters":8400,"station_id":"ce4bhpp2rcd13ifvqhfg","pricing_plan_id":"cebpf4jnsgd1na2vs0mg"},{"bike_id":"dd0c2c54-978e-49b8-89a3-9926153b6f8e","system_id":"levelo_inurba_marseille","lat":43.29904,"lon":5.43653,"is_reserved":false,"is_disabled":false,"rental_uris":{"android":"levelo://app?vid=dd0c2c54-978e-49b8-89a3-9926153b6f8e","ios":"levelo://app?vid=dd0c2c54-978e-49b8-89a3-9926153b6f8e"},"vehicle_type_id":"4","last_reported":1774976088,"current_range_meters":8400,"station_id":"ce4bhpp2rcd13ifvqhfg","pricing_plan_id":"cebpf4jnsgd1na2vs0mg"},{"bike_id":"d41d5ff3-651c-4e70-8a12-e8a105b53c64","system_id":"levelo_inurba_marseille","lat":43.31599,"lon":5.44537,"is_reserved":false,"is_disabled":false,"rental_uris":{"android":"levelo://app?vid=d41d5ff3-651c-4e70-8a12-e8a105b53c64","ios":"levelo://app?vid=d41d5ff3-651c-4e70-8a12-e8a105b53c64"},"vehicle_type_id":"4","last_reported":1774976088,"current_range_meters":8400,"station_id":"","pricing_plan_id":"cebpf4jnsgd1na2vs0mg"},{"bike_id":"bbe47512-0bee-4235-aaf4-5e9f39a93bf0","system_id":"levelo_inurba_marseille","lat":43.28409,"lon":5.34995,"is_reserved":false,"is_disabled":false,"rental_uris":{"android":"levelo://app?vid=bbe47512-0bee-4235-aaf4-5e9f39a93bf0","ios":"levelo://app?vid=bbe47512-0bee-4235-aaf4-5e9f39a93bf0"},"vehicle_type_id":"4","last_reported":1774976088,"current_range_meters":8400,"station_id":"ce4bhbh2rcd13ifvqepg","pricing_plan_id":"cebpf4jnsgd1na2vs0mg"},{"bike_id":"fae0b53f-00f1-45b9-a1ad-74d490e431a9","system_id":"levelo_inurba_marseille","lat":43.225307,"lon":5.348402,"is_reserved":false,"is_disabled":false,"rental_uris":{"android":"levelo://app?vid=fae0b53f-00f1-45b9-a1ad-74d490e431a9","ios":"levelo://app?vid=fae0b53f-00f1-45b9-a1ad-74d490e431a9"},"vehicle_type_id":"4","last_reported":1774976088,"current_range_meters":8400,"station_id":"st_cvj5dfep6f1abm77gieg","pricing_plan_id":"cebpf4jnsgd1na2vs0mg"},{"bike_id":"99989140-ecdd-42c6-8e05-6943687e674d","system_id":"levelo_inurba_marseille","lat":43.30125,"lon":5.38944,"is_reserved":false,"is_disabled":false,"rental_uris":{"android":"levelo://app?vid=99989140-ecdd-42c6-8e05-6943687e674d","ios":"levelo://app?vid=99989140-ecdd-42c6-8e05-6943687e674d"},"vehicle_type_id":"4","last_reported":1774976088,"current_range_meters":8400,"station_id":"","pricing_plan_id":"cebpf4jnsgd1na2vs0mg"},{"bike_id":"5f4ae7a4-fe3e-4884-a1ad-c936ba64ec14","system_id":"levelo_inurba_marseille","lat":43.27368,"lon":5.36237,"is_reserved":false,"is_disabled":false,"rental_uris":{"android":"levelo://app?vid=5f4ae7a4-fe3e-4884-a1ad-c936ba64ec14","ios":"levelo://app?vid=5f4ae7a4-fe3e-4884-a1ad-c936ba64ec14"},"vehicle_type_id":"4","last_reported":1774976088,"current_range_meters":8400,"station_id":"ce4bhbh2rcd13ifvqeo0","pricing_plan_id":"cebpf4jnsgd1na2vs0mg"},{"bike_id":"a5b21948-fcb5-4ade-bce3-37cd3c403d4c","system_id":"levelo_inurba_marseille","lat":43.23052,"lon":5.35493,"is_reserved":false,"is_disabled":false,"rental_uris":{"android":"levelo://app?vid=a5b21948-fcb5-4ade-bce3-37cd3c403d4c","ios":"levelo://app?vid=a5b21948-fcb5-4ade-bce3-37cd3c403d4c"},"vehicle_type_id":"4","last_reported":1774976088,"current_range_meters":8400,"station_id":"cpo3342slgdg3j2ifvpg","pricing_plan_id":"cebpf4jnsgd1na2vs0mg"},{"bike_id":"c7c38a25-bfa6-4136-8c21-45bf24724f33","system_id":"levelo_inurba_marseille","lat":43.31324,"lon":5.39697,"is_reserved":false,"is_disabled":false,"rental_uris":{"android":"levelo://app?vid=c7c38a25-bfa6-4136-8c21-45bf24724f33","ios":"levelo://app?vid=c7c38a25-bfa6-4136-8c21-45bf24724f33"},"vehicle_type_id":"4","last_reported":1774976088,"current_range_meters":8400,"station_id":"ce4bgvp2rcd13ifvqcu0","pricing_plan_id":"cebpf4jnsgd1na2vs0mg"},{"bike_id":"2472a388-2ba6-406a-93b5-09de3d970e91","system_id":"levelo_inurba_marseille","lat":43.24395,"lon":5.37048,"is_reserved":false,"is_disabled":false,"rental_uris":{"android":"levelo://app?vid=2472a388-2ba6-406a-93b5-09de3d970e91","ios":"levelo://app?vid=2472a388-2ba6-406a-93b5-09de3d970e91"},"vehicle_type_id":"4","last_reported":1774976088,"current_range_meters":8400,"station_id":"ce4bhhh2rcd13ifvqfk0","pricing_plan_id":"cebpf4jnsgd1na2vs0mg"},{"bike_id":"82ef25fe-ced1-4b2f-9f5f-f3e9366b70f0","system_id":"levelo_inurba_marseille","lat":43.28492,"lon":5.48404,"is_reserved":false,"is_disabled":false,"rental_uris":{"android":"levelo://app?vid=82ef25fe-ced1-4b2f-9f5f-f3e9366b70f0","ios":"levelo://app?vid=82ef25fe-ced1-4b2f-9f5f-f3e9366b70f0"},"vehicle_type_id":"4","last_reported":1774976088,"current_range_meters":8400,"station_id":"st_d3svhcjqgbts73a3dn0g","pricing_plan_id":"cebpf4jnsgd1na2vs0mg"},{"bike_id":"f21b37b0-99ac-48f1-b4f7-25177be73ed8","system_id":"levelo_inurba_marseille","lat":43.23186,"lon":5.39987,"is_reserved":false,"is_disabled":false,"rental_uris":{"android":"levelo://app?vid=f21b37b0-99ac-48f1-b4f7-25177be73ed8","ios":"levelo://app?vid=f21b37b0-99ac-48f1-b4f7-25177be73ed8"},"vehicle_type_id":"4","last_reported":1774976088,"current_range_meters":8400,"station_id":"ce4bhn12rcd13ifvqgqg","pricing_plan_id":"cebpf4jnsgd1na2vs0mg"},{"bike_id":"72509681-52aa-4782-9de0-820bb878387d","system_id":"levelo_inurba_marseille","lat":43.22553,"lon":5.41637,"is_reserved":false,"is_disabled":false,"rental_uris":{"android":"levelo://app?vid=72509681-52aa-4782-9de0-820bb878387d","ios":"levelo://app?vid=72509681-52aa-4782-9de0-820bb878387d"},"vehicle_type_id":"4","last_reported":1774976088,"current_range_meters":8400,"station_id":"st_d2o4gvlbi1j2169b742g","pricing_plan_id":"cebpf4jnsgd1na2vs0mg"},{"bike_id":"f2a7e3a5-cac5-4b5c-9077-f8604e7b1b43","system_id":"levelo_inurba_marseille","lat":43.29106,"lon":5.42656,"is_reserved":false,"is_disabled":false,"rental_uris":{"android":"levelo://app?vid=f2a7e3a5-cac5-4b5c-9077-f8604e7b1b43","ios":"levelo://app?vid=f2a7e3a5-cac5-4b5c-9077-f8604e7b1b43"},"vehicle_type_id":"4","last_reported":1774976088,"current_range_meters":8400,"station_id":"","pricing_plan_id":"cebpf4jnsgd1na2vs0mg"},{"bike_id":"08e71c86-43a8-4902-86cf-de3f77db33e6","system_id":"levelo_inurba_marseille","lat":43.29691,"lon":5.44437,"is_reserved":false,"is_disabled":false,"rental_uris":{"android":"levelo://app?vid=08e71c86-43a8-4902-86cf-de3f77db33e6","ios":"levelo://app?vid=08e71c86-43a8-4902-86cf-de3f77db33e6"},"vehicle_type_id":"4","last_reported":1774976088,"current_range_meters":8400,"station_id":"","pricing_plan_id":"cebpf4jnsgd1na2vs0mg"},{"bike_id":"bb0d11db-19ae-4f1c-8146-45d8cf0530f7","system_id":"levelo_inurba_marseille","lat":43.337444,"lon":5.374475,"is_reserved":false,"is_disabled":true,"rental_uris":{"android":"levelo://app?vid=bb0d11db-19ae-4f1c-8146-45d8cf0530f7","ios":"levelo://app?vid=bb0d11db-19ae-4f1c-8146-45d8cf0530f7"},"vehicle_type_id":"4","last_reported":1774976088,"current_range_meters":8400,"station_id":"","pricing_plan_id":"cebpf4jnsgd1na2vs0mg"},{"bike_id":"2143be35-497d-4c7b-9f85-3e781cd61463","system_id":"levelo_inurba_marseille","lat":43.29906,"lon":5.43654,"is_reserved":false,"is_disabled":false,"rental_uris":{"android":"levelo://app?vid=2143be35-497d-4c7b-9f85-3e781cd61463","ios":"levelo://app?vid=2143be35-497d-4c7b-9f85-3e781cd61463"},"vehicle_type_id":"4","last_reported":1774976088,"current_range_meters":8400,"station_id":"ce4bhpp2rcd13ifvqhfg","pricing_plan_id":"cebpf4jnsgd1na2vs0mg"},{"bike_id":"849cf848-0f78-404a-8d52-8d271f01abd8","system_id":"levelo_inurba_marseille","lat":43.25831,"lon":5.38911,"is_reserved":false,"is_disabled":false,"rental_uris":{"android":"levelo://app?vid=849cf848-0f78-404a-8d52-8d271f01abd8","ios":"levelo://app?vid=849cf848-0f78-404a-8d52-8d271f01abd8"},"vehicle_type_id":"4","last_reported":1774976088,"current_range_meters":8800,"station_id":"","pricing_plan_id":"cebpf4jnsgd1na2vs0mg"},{"bike_id":"54b32ec7-ddfd-41e6-ae23-087da91e8924","system_id":"levelo_inurba_marseille","lat":43.29896,"lon":5.43661,"is_reserved":false,"is_disabled":false,"rental_uris":{"android":"levelo://app?vid=54b32ec7-ddfd-41e6-ae23-087da91e8924","ios":"levelo://app?vid=54b32ec7-ddfd-41e6-ae23-087da91e8924"},"vehicle_type_id":"4","last_reported":1774976088,"current_range_meters":8800,"station_id":"ce4bhpp2rcd13ifvqhfg","pricing_plan_id":"cebpf4jnsgd1na2vs0mg"},{"bike_id":"b34a6be2-4ccd-49ad-8041-27085899f619","system_id":"levelo_inurba_marseille","lat":43.28462,"lon":5.38566,"is_reserved":false,"is_disabled":false,"rental_uris":{"android":"levelo://app?vid=b34a6be2-4ccd-49ad-8041-27085899f619","ios":"levelo://app?vid=b34a6be2-4ccd-49ad-8041-27085899f619"},"vehicle_type_id":"4","last_reported":1774976088,"current_range_meters":8800,"station_id":"ce4bh8p2rcd13ifvqeb0","pricing_plan_id":"cebpf4jnsgd1na2vs0mg"},{"bike_id":"e458a106-03bd-43e1-805a-4e2ea0bec4ed","system_id":"levelo_inurba_marseille","lat":43.31871,"lon":5.38397,"is_reserved":false,"is_disabled":false,"rental_uris":{"android":"levelo://app?vid=e458a106-03bd-43e1-805a-4e2ea0bec4ed","ios":"levelo://app?vid=e458a106-03bd-43e1-805a-4e2ea0bec4ed"},"vehicle_type_id":"4","last_reported":1774976088,"current_range_meters":8800,"station_id":"","pricing_plan_id":"cebpf4jnsgd1na2vs0mg"},{"bike_id":"140d59d9-5fe1-4f30-b8f2-8350c1b6a55b","system_id":"levelo_inurba_marseille","lat":43.28409,"lon":5.34975,"is_reserved":false,"is_disabled":false,"rental_uris":{"android":"levelo://app?vid=140d59d9-5fe1-4f30-b8f2-8350c1b6a55b","ios":"levelo://app?vid=140d59d9-5fe1-4f30-b8f2-8350c1b6a55b"},"vehicle_type_id":"4","last_reported":1774976088,"current_range_meters":8800,"station_id":"ce4bhbh2rcd13ifvqepg","pricing_plan_id":"cebpf4jnsgd1na2vs0mg"},{"bike_id":"9c014c21-0814-46e2-9079-4ed86b4000e6","system_id":"levelo_inurba_marseille","lat":43.23794,"lon":5.3665,"is_reserved":false,"is_disabled":false,"rental_uris":{"android":"levelo://app?vid=9c014c21-0814-46e2-9079-4ed86b4000e6","ios":"levelo://app?vid=9c014c21-0814-46e2-9079-4ed86b4000e6"},"vehicle_type_id":"4","last_reported":1774976088,"current_range_meters":8800,"station_id":"st_d3nk18o9ro0c73en2l3g","pricing_plan_id":"cebpf4jnsgd1na2vs0mg"},{"bike_id":"e1d4e1d7-8511-4c6f-9b09-b42f23052f53","system_id":"levelo_inurba_marseille","lat":43.24066,"lon":5.3776,"is_reserved":false,"is_disabled":false,"rental_uris":{"android":"levelo://app?vid=e1d4e1d7-8511-4c6f-9b09-b42f23052f53","ios":"levelo://app?vid=e1d4e1d7-8511-4c6f-9b09-b42f23052f53"},"vehicle_type_id":"4","last_reported":1774976088,"current_range_meters":8800,"station_id":"ce4bhnp2rcd13ifvqgvg","pricing_plan_id":"cebpf4jnsgd1na2vs0mg"},{"bike_id":"61440877-f954-42f0-a72d-12f419300a5f","system_id":"levelo_inurba_marseille","lat":43.31184,"lon":5.36796,"is_reserved":false,"is_disabled":false,"rental_uris":{"android":"levelo://app?vid=61440877-f954-42f0-a72d-12f419300a5f","ios":"levelo://app?vid=61440877-f954-42f0-a72d-12f419300a5f"},"vehicle_type_id":"4","last_reported":1774976088,"current_range_meters":8800,"station_id":"","pricing_plan_id":"cebpf4jnsgd1na2vs0mg"},{"bike_id":"435393ff-9e8e-4fa2-82a4-6ce12bbccbed","system_id":"levelo_inurba_marseille","lat":43.28478,"lon":5.4841,"is_reserved":false,"is_disabled":false,"rental_uris":{"android":"levelo://app?vid=435393ff-9e8e-4fa2-82a4-6ce12bbccbed","ios":"levelo://app?vid=435393ff-9e8e-4fa2-82a4-6ce12bbccbed"},"vehicle_type_id":"4","last_reported":1774976088,"current_range_meters":8800,"station_id":"st_d3svhcjqgbts73a3dn0g","pricing_plan_id":"cebpf4jnsgd1na2vs0mg"},{"bike_id":"4ea3ac51-1f11-400f-a1fa-dfa868b19cae","system_id":"levelo_inurba_marseille","lat":43.2549,"lon":5.37651,"is_reserved":false,"is_disabled":false,"rental_uris":{"android":"levelo://app?vid=4ea3ac51-1f11-400f-a1fa-dfa868b19cae","ios":"levelo://app?vid=4ea3ac51-1f11-400f-a1fa-dfa868b19cae"},"vehicle_type_id":"4","last_reported":1774976088,"current_range_meters":8800,"station_id":"ce4bhh12rcd13ifvqff0","pricing_plan_id":"cebpf4jnsgd1na2vs0mg"},{"bike_id":"1fd14647-60cf-49f0-a971-843beb62395e","system_id":"levelo_inurba_marseille","lat":43.28532,"lon":5.44091,"is_reserved":false,"is_disabled":false,"rental_uris":{"android":"levelo://app?vid=1fd14647-60cf-49f0-a971-843beb62395e","ios":"levelo://app?vid=1fd14647-60cf-49f0-a971-843beb62395e"},"vehicle_type_id":"4","last_reported":1774976088,"current_range_meters":8800,"station_id":"st_d3j3df2ikq2c7380ej80","pricing_plan_id":"cebpf4jnsgd1na2vs0mg"},{"bike_id":"10143625-4f1f-4b98-a23a-f0e119d830ff","system_id":"levelo_inurba_marseille","lat":43.24831,"lon":5.37486,"is_reserved":false,"is_disabled":false,"rental_uris":{"android":"levelo://app?vid=10143625-4f1f-4b98-a23a-f0e119d830ff","ios":"levelo://app?vid=10143625-4f1f-4b98-a23a-f0e119d830ff"},"vehicle_type_id":"4","last_reported":1774976088,"current_range_meters":8800,"station_id":"","pricing_plan_id":"cebpf4jnsgd1na2vs0mg"},{"bike_id":"67f59828-71ae-45a6-96ce-d8b147997bc0","system_id":"levelo_inurba_marseille","lat":43.25575,"lon":5.38233,"is_reserved":false,"is_disabled":false,"rental_uris":{"android":"levelo://app?vid=67f59828-71ae-45a6-96ce-d8b147997bc0","ios":"levelo://app?vid=67f59828-71ae-45a6-96ce-d8b147997bc0"},"vehicle_type_id":"4","last_reported":1774976088,"current_range_meters":8800,"station_id":"ce4bhih2rcd13ifvqfs0","pricing_plan_id":"cebpf4jnsgd1na2vs0mg"},{"bike_id":"ae252984-33f9-4582-8e8a-f420930221a8","system_id":"levelo_inurba_marseille","lat":43.29533,"lon":5.38656,"is_reserved":false,"is_disabled":false,"rental_uris":{"android":"levelo://app?vid=ae252984-33f9-4582-8e8a-f420930221a8","ios":"levelo://app?vid=ae252984-33f9-4582-8e8a-f420930221a8"},"vehicle_type_id":"4","last_reported":1774976088,"current_range_meters":8800,"station_id":"","pricing_plan_id":"cebpf4jnsgd1na2vs0mg"},{"bike_id":"33f3c10f-22cd-4c73-a574-94b484b74c9e","system_id":"levelo_inurba_marseille","lat":43.28535,"lon":5.44108,"is_reserved":false,"is_disabled":false,"rental_uris":{"android":"levelo://app?vid=33f3c10f-22cd-4c73-a574-94b484b74c9e","ios":"levelo://app?vid=33f3c10f-22cd-4c73-a574-94b484b74c9e"},"vehicle_type_id":"4","last_reported":1774976088,"current_range_meters":8800,"station_id":"st_d3j3df2ikq2c7380ej80","pricing_plan_id":"cebpf4jnsgd1na2vs0mg"},{"bike_id":"0f182db9-a1f9-46fd-9199-275e74a125d7","system_id":"levelo_inurba_marseille","lat":43.24163,"lon":5.36405,"is_reserved":false,"is_disabled":false,"rental_uris":{"android":"levelo://app?vid=0f182db9-a1f9-46fd-9199-275e74a125d7","ios":"levelo://app?vid=0f182db9-a1f9-46fd-9199-275e74a125d7"},"vehicle_type_id":"4","last_reported":1774976088,"current_range_meters":8800,"station_id":"cpo36qri1sfpv3e86is0","pricing_plan_id":"cebpf4jnsgd1na2vs0mg"},{"bike_id":"196245b7-f19f-487c-87fc-6db97ce05752","system_id":"levelo_inurba_marseille","lat":43.273713,"lon":5.362622,"is_reserved":false,"is_disabled":false,"rental_uris":{"android":"levelo://app?vid=196245b7-f19f-487c-87fc-6db97ce05752","ios":"levelo://app?vid=196245b7-f19f-487c-87fc-6db97ce05752"},"vehicle_type_id":"4","last_reported":1774976088,"current_range_meters":8800,"station_id":"ce4bhbh2rcd13ifvqeo0","pricing_plan_id":"cebpf4jnsgd1na2vs0mg"},{"bike_id":"47188d45-8646-4e21-890c-24674051c702","system_id":"levelo_inurba_marseille","lat":43.24173,"lon":5.39724,"is_reserved":false,"is_disabled":false,"rental_uris":{"android":"levelo://app?vid=47188d45-8646-4e21-890c-24674051c702","ios":"levelo://app?vid=47188d45-8646-4e21-890c-24674051c702"},"vehicle_type_id":"4","last_reported":1774976088,"current_range_meters":8800,"station_id":"ce4bhn12rcd13ifvqgpg","pricing_plan_id":"cebpf4jnsgd1na2vs0mg"},{"bike_id":"1b957733-84d6-4d17-8f2b-ecfa19890447","system_id":"levelo_inurba_marseille","lat":43.33515,"lon":5.3748,"is_reserved":false,"is_disabled":false,"rental_uris":{"android":"levelo://app?vid=1b957733-84d6-4d17-8f2b-ecfa19890447","ios":"levelo://app?vid=1b957733-84d6-4d17-8f2b-ecfa19890447"},"vehicle_type_id":"4","last_reported":1774976088,"current_range_meters":8800,"station_id":"","pricing_plan_id":"cebpf4jnsgd1na2vs0mg"},{"bike_id":"b1d02504-2c4f-47d1-9d0a-aa3599012e9a","system_id":"levelo_inurba_marseille","lat":43.26817,"lon":5.40241,"is_reserved":false,"is_disabled":false,"rental_uris":{"android":"levelo://app?vid=b1d02504-2c4f-47d1-9d0a-aa3599012e9a","ios":"levelo://app?vid=b1d02504-2c4f-47d1-9d0a-aa3599012e9a"},"vehicle_type_id":"4","last_reported":1774976088,"current_range_meters":8800,"station_id":"ce501612rcd8frsf0b60","pricing_plan_id":"cebpf4jnsgd1na2vs0mg"},{"bike_id":"4f461c12-a839-4112-843e-a559d023da9c","system_id":"levelo_inurba_marseille","lat":43.21202,"lon":5.35056,"is_reserved":false,"is_disabled":false,"rental_uris":{"android":"levelo://app?vid=4f461c12-a839-4112-843e-a559d023da9c","ios":"levelo://app?vid=4f461c12-a839-4112-843e-a559d023da9c"},"vehicle_type_id":"4","last_reported":1774976088,"current_range_meters":8800,"station_id":"st_cvj6sg6p6f1abm77japg","pricing_plan_id":"cebpf4jnsgd1na2vs0mg"},{"bike_id":"0bc10477-9a3d-4617-b6e2-51ab48087246","system_id":"levelo_inurba_marseille","lat":43.26682,"lon":5.38264,"is_reserved":false,"is_disabled":false,"rental_uris":{"android":"levelo://app?vid=0bc10477-9a3d-4617-b6e2-51ab48087246","ios":"levelo://app?vid=0bc10477-9a3d-4617-b6e2-51ab48087246"},"vehicle_type_id":"4","last_reported":1774976088,"current_range_meters":8800,"station_id":"ce4bhg92rcd13ifvqf90","pricing_plan_id":"cebpf4jnsgd1na2vs0mg"},{"bike_id":"f994d906-16d8-4b1a-869e-3ac991c8f7a9","system_id":"levelo_inurba_marseille","lat":43.24378,"lon":5.37099,"is_reserved":false,"is_disabled":false,"rental_uris":{"android":"levelo://app?vid=f994d906-16d8-4b1a-869e-3ac991c8f7a9","ios":"levelo://app?vid=f994d906-16d8-4b1a-869e-3ac991c8f7a9"},"vehicle_type_id":"4","last_reported":1774976088,"current_range_meters":8800,"station_id":"ce4bhhh2rcd13ifvqfk0","pricing_plan_id":"cebpf4jnsgd1na2vs0mg"},{"bike_id":"8fc970ee-a484-45a1-8680-8f7f28a23ddf","system_id":"levelo_inurba_marseille","lat":43.21791,"lon":5.34633,"is_reserved":false,"is_disabled":false,"rental_uris":{"android":"levelo://app?vid=8fc970ee-a484-45a1-8680-8f7f28a23ddf","ios":"levelo://app?vid=8fc970ee-a484-45a1-8680-8f7f28a23ddf"},"vehicle_type_id":"4","last_reported":1774976088,"current_range_meters":8800,"station_id":"","pricing_plan_id":"cebpf4jnsgd1na2vs0mg"},{"bike_id":"eb168392-a120-432c-95f8-0710fc1ccfde","system_id":"levelo_inurba_marseille","lat":43.2319,"lon":5.35565,"is_reserved":false,"is_disabled":false,"rental_uris":{"android":"levelo://app?vid=eb168392-a120-432c-95f8-0710fc1ccfde","ios":"levelo://app?vid=eb168392-a120-432c-95f8-0710fc1ccfde"},"vehicle_type_id":"4","last_reported":1774976088,"current_range_meters":8800,"station_id":"ce4bhu92rcd13ifvqi70","pricing_plan_id":"cebpf4jnsgd1na2vs0mg"},{"bike_id":"ec7f1113-7689-4025-9f13-3d4deb94a203","system_id":"levelo_inurba_marseille","lat":43.31049,"lon":5.38609,"is_reserved":false,"is_disabled":false,"rental_uris":{"android":"levelo://app?vid=ec7f1113-7689-4025-9f13-3d4deb94a203","ios":"levelo://app?vid=ec7f1113-7689-4025-9f13-3d4deb94a203"},"vehicle_type_id":"4","last_reported":1774976088,"current_range_meters":8800,"station_id":"","pricing_plan_id":"cebpf4jnsgd1na2vs0mg"},{"bike_id":"e98f011e-fec1-47d6-acbe-57b72f0e04e7","system_id":"levelo_inurba_marseille","lat":43.29006,"lon":5.35614,"is_reserved":false,"is_disabled":true,"rental_uris":{"android":"levelo://app?vid=e98f011e-fec1-47d6-acbe-57b72f0e04e7","ios":"levelo://app?vid=e98f011e-fec1-47d6-acbe-57b72f0e04e7"},