{"last_updated":1704575167,"ttl":30,"version":"2.2","data":{"bikes":[{"bike_id":"c425a59a-6e2e-4cf3-a83a-9195f97464e2","system_id":"levelo_inurba_marseille","lat":43.31341,"lon":5.367098,"is_reserved":false,"is_disabled":false,"rental_uris":{"android":"levelo://app?vid=c425a59a-6e2e-4cf3-a83a-9195f97464e2","ios":"levelo://app?vid=c425a59a-6e2e-4cf3-a83a-9195f97464e2"},"vehicle_type_id":"4","last_reported":1704575167,"current_range_meters":29200,"station_id":"ce4bgr92rcd13ifvqc6g","pricing_plan_id":"free"},{"bike_id":"ea044ebb-0b53-491c-a6aa-e155add11b5f","system_id":"levelo_inurba_marseille","lat":43.309076,"lon":5.368465,"is_reserved":false,"is_disabled":false,"rental_uris":{"android":"levelo://app?vid=ea044ebb-0b53-491c-a6aa-e155add11b5f","ios":"levelo://app?vid=ea044ebb-0b53-491c-a6aa-e155add11b5f"},"vehicle_type_id":"4","last_reported":1704575167,"current_range_meters":16800,"station_id":"ce4bgn92rcd13ifvqbvg","pricing_plan_id":"free"},{"bike_id":"aa90e863-5d05-45aa-9a02-68ea466a9fda","system_id":"levelo_inurba_marseille","lat":43.314811,"lon":5.373104,"is_reserved":false,"is_disabled":false,"rental_uris":{"android":"levelo://app?vid=aa90e863-5d05-45aa-9a02-68ea466a9fda","ios":"levelo://app?vid=aa90e863-5d05-45aa-9a02-68ea466a9fda"},"vehicle_type_id":"4","last_reported":1704575167,"current_range_meters":21200,"station_id":"ce4bgt12rcd13ifvqcd0","pricing_plan_id":"free"},{"bike_id":"a14ffc2c-aaf7-4a0c-974c-fb0eff055e8f","system_id":"levelo_inurba_marseille","lat":43.314811,"lon":5.373104,"is_reserved":false,"is_disabled":false,"rental_uris":{"android":"levelo://app?vid=a14ffc2c-aaf7-4a0c-974c-fb0eff055e8f","ios":"levelo://app?vid=a14ffc2c-aaf7-4a0c-974c-fb0eff055e8f"},"vehicle_type_id":"4","last_reported":1704575167,"current_range_meters":13200,"station_id":"ce4bgt12rcd13ifvqcd0","pricing_plan_id":"free"},{"bike_id":"7a5ea22c-f8aa-4876-ac2f-2e62549c1eea","system_id":"levelo_inurba_marseille","lat":43.309039,"lon":5.371797,"is_reserved":false,"is_disabled":false,"rental_uris":{"android":"levelo://app?vid=7a5ea22c-f8aa-4876-ac2f-2e62549c1eea","ios":"levelo://app?vid=7a5ea22c-f8aa-4876-ac2f-2e62549c1eea"},"vehicle_type_id":"4","last_reported":1704575167,"current_range_meters":4000,"station_id":"ce4bguh2rcd13ifvqckg","pricing_plan_id":"free"},{"bike_id":"a1d8cad3-fabd-4b0f-be3d-2f7f3e4b8cd2","system_id":"levelo_inurba_marseille","lat":43.309039,"lon":5.371797,"is_reserved":false,"is_disabled":false,"rental_uris":{"android":"levelo://app?vid=a1d8cad3-fabd-4b0f-be3d-2f7f3e4b8cd2","ios":"levelo://app?vid=a1d8cad3-fabd-4b0f-be3d-2f7f3e4b8cd2"},"vehicle_type_id":"4","last_reported":1704575167,"current_range_meters":26800,"station_id":"ce4bguh2rcd13ifvqckg","pricing_plan_id":"free"},{"bike_id":"b3cce754-093a-482e-a05d-1152ff4a51ea","system_id":"levelo_inurba_marseille","lat":43.316515,"lon":5.372935,"is_reserved":false,"is_disabled":false,"rental_uris":{"android":"levelo://app?vid=b3cce754-093a-482e-a05d-1152ff4a51ea","ios":"levelo://app?vid=b3cce754-093a-482e-a05d-1152ff4a51ea"},"vehicle_type_id":"4","last_reported":1704575167,"current_range_meters":5600,"station_id":"","pricing_plan_id":"free"},{"bike_id":"d6de3a91-d4aa-436e-9f53-33c60416afc7","system_id":"levelo_inurba_marseille","lat":43.305706,"lon":5.365654,"is_reserved":false,"is_disabled":false,"rental_uris":{"android":"levelo://app?vid=d6de3a91-d4aa-436e-9f53-33c60416afc7","ios":"levelo://app?vid=d6de3a91-d4aa-436e-9f53-33c60416afc7"},"vehicle_type_id":"4","last_reported":1704575167,"current_range_meters":13600,"station_id":"ce4bgs12rcd13ifvqcag","pricing_plan_id":"free"},{"bike_id":"6d8de670-9083-4329-8d1b-1d6fd3f687cb","system_id":"levelo_inurba_marseille","lat":43.305368,"lon":5.367343,"is_reserved":false,"is_disabled":false,"rental_uris":{"android":"levelo://app?vid=6d8de670-9083-4329-8d1b-1d6fd3f687cb","ios":"levelo://app?vid=6d8de670-9083-4329-8d1b-1d6fd3f687cb"},"vehicle_type_id":"4","last_reported":1704575167,"current_range_meters":400,"station_id":"ce4bgrp2rcd13ifvqc9g","pricing_plan_id":"free"},{"bike_id":"6fe256e8-975b-4610-bd54-06a0021d18f2","system_id":"levelo_inurba_marseille","lat":43.305368,"lon":5.367343,"is_reserved":false,"is_disabled":false,"rental_uris":{"android":"levelo://app?vid=6fe256e8-975b-4610-bd54-06a0021d18f2","ios":"levelo://app?vid=6fe256e8-975b-4610-bd54-06a0021d18f2"},"vehicle_type_id":"4","last_reported":1704575167,"current_range_meters":16800,"station_id":"ce4bgrp2rcd13ifvqc9g","pricing_plan_id":"free"},{"bike_id":"b35bad86-a854-4c78-9ebf-1880c650f84e","system_id":"levelo_inurba_marseille","lat":43.305714,"lon":5.365633,"is_reserved":false,"is_disabled":false,"rental_uris":{"android":"levelo://app?vid=b35bad86-a854-4c78-9ebf-1880c650f84e","ios":"levelo://app?vid=b35bad86-a854-4c78-9ebf-1880c650f84e"},"vehicle_type_id":"4","last_reported":1704575167,"current_range_meters":26000,"station_id":"ce4bgs12rcd13ifvqcag","pricing_plan_id":"free"},{"bike_id":"c708d9e2-c571-4758-b4b8-706cdb1bee8c","system_id":"levelo_inurba_marseille","lat":43.305989,"lon":5.37225,"is_reserved":false,"is_disabled":false,"rental_uris":{"android":"levelo://app?vid=c708d9e2-c571-4758-b4b8-706cdb1bee8c","ios":"levelo://app?vid=c708d9e2-c571-4758-b4b8-706cdb1bee8c"},"vehicle_type_id":"4","last_reported":1704575167,"current_range_meters":17600,"station_id":"ce4bgqh2rcd13ifvqc4g","pricing_plan_id":"free"},{"bike_id":"68382ad2-6338-4a04-a17c-3729445bfc02","system_id":"levelo_inurba_marseille","lat":43.311131,"lon":5.377651,"is_reserved":false,"is_disabled":false,"rental_uris":{"android":"levelo://app?vid=68382ad2-6338-4a04-a17c-3729445bfc02","ios":"levelo://app?vid=68382ad2-6338-4a04-a17c-3729445bfc02"},"vehicle_type_id":"4","last_reported":1704575167,"current_range_meters":3600,"station_id":"ce4bgt92rcd13ifvqcg0","pricing_plan_id":"free"},{"bike_id":"99bc566d-1b57-4df2-83e0-cc12c54c3360","system_id":"levelo_inurba_marseille","lat":43.307945,"lon":5.376487,"is_reserved":false,"is_disabled":false,"rental_uris":{"android":"levelo://app?vid=99bc566d-1b57-4df2-83e0-cc12c54c3360","ios":"levelo://app?vid=99bc566d-1b57-4df2-83e0-cc12c54c3360"},"vehicle_type_id":"4","last_reported":1704575167,"current_range_meters":27200,"station_id":"ce4bgv92rcd13ifvqcq0","pricing_plan_id":"free"},{"bike_id":"f02e2a8d-e921-416f-810f-4aadd5da4dab","system_id":"levelo_inurba_marseille","lat":43.307945,"lon":5.376487,"is_reserved":false,"is_disabled":false,"rental_uris":{"android":"levelo://app?vid=f02e2a8d-e921-416f-810f-4aadd5da4dab","ios":"levelo://app?vid=f02e2a8d-e921-416f-810f-4aadd5da4dab"},"vehicle_type_id":"4","last_reported":1704575167,"current_range_meters":25200,"station_id":"ce4bgv92rcd13ifvqcq0","pricing_plan_id":"free"},{"bike_id":"89bffd9f-80ae-48ac-8282-961ba54a130e","system_id":"levelo_inurba_marseille","lat":43.317075,"lon":5.377367,"is_reserved":false,"is_disabled":false,"rental_uris":{"android":"levelo://app?vid=89bffd9f-80ae-48ac-8282-961ba54a130e","ios":"levelo://app?vid=89bffd9f-80ae-48ac-8282-961ba54a130e"},"vehicle_type_id":"4","last_reported":1704575167,"current_range_meters":28000,"station_id":"ce4bgth2rcd13ifvqch0","pricing_plan_id":"free"},{"bike_id":"c4e90871-bb94-4085-82dc-ccbd997a22ca","system_id":"levelo_inurba_marseille","lat":43.315294,"lon":5.379096,"is_reserved":false,"is_disabled":false,"rental_uris":{"android":"levelo://app?vid=c4e90871-bb94-4085-82dc-ccbd997a22ca","ios":"levelo://app?vid=c4e90871-bb94-4085-82dc-ccbd997a22ca"},"vehicle_type_id":"4","last_reported":1704575167,"current_range_meters":8800,"station_id":"","pricing_plan_id":"free"},{"bike_id":"29c6a7a9-f07d-4030-ab86-adb0c59b6223","system_id":"levelo_inurba_marseille","lat":43.31522,"lon":5.38032,"is_reserved":false,"is_disabled":false,"rental_uris":{"android":"levelo://app?vid=29c6a7a9-f07d-4030-ab86-adb0c59b6223","ios":"levelo://app?vid=29c6a7a9-f07d-4030-ab86-adb0c59b6223"},"vehicle_type_id":"4","last_reported":1704575167,"current_range_meters":15200,"station_id":"ce4bhsp2rcd13ifvqi50","pricing_plan_id":"free"},{"bike_id":"8ef1a586-cc29-4bb1-a1d4-de2934bfeac9","system_id":"levelo_inurba_marseille","lat":43.315293,"lon":5.380349,"is_reserved":false,"is_disabled":false,"rental_uris":{"android":"levelo://app?vid=8ef1a586-cc29-4bb1-a1d4-de2934bfeac9","ios":"levelo://app?vid=8ef1a586-cc29-4bb1-a1d4-de2934bfeac9"},"vehicle_type_id":"4","last_reported":1704575167,"current_range_meters":5200,"station_id":"ce4bhsp2rcd13ifvqi50","pricing_plan_id":"free"},{"bike_id":"410d56b4-8422-4bc5-a962-9b4ea6b59eab","system_id":"levelo_inurba_marseille","lat":43.301939,"lon":5.366286,"is_reserved":false,"is_disabled":false,"rental_uris":{"android":"levelo://app?vid=410d56b4-8422-4bc5-a962-9b4ea6b59eab","ios":"levelo://app?vid=410d56b4-8422-4bc5-a962-9b4ea6b59eab"},"vehicle_type_id":"4","last_reported":1704575167,"current_range_meters":31200,"station_id":"ce4bgrh2rcd13ifvqc8g","pricing_plan_id":"free"},{"bike_id":"65299ed0-39be-4339-99c8-f819dc7e5d34","system_id":"levelo_inurba_marseille","lat":43.301939,"lon":5.366286,"is_reserved":false,"is_disabled":false,"rental_uris":{"android":"levelo://app?vid=65299ed0-39be-4339-99c8-f819dc7e5d34","ios":"levelo://app?vid=65299ed0-39be-4339-99c8-f819dc7e5d34"},"vehicle_type_id":"4","last_reported":1704575167,"current_range_meters":25600,"station_id":"ce4bgrh2rcd13ifvqc8g","pricing_plan_id":"free"},{"bike_id":"2fa4e399-1efc-4485-8dcf-072a702b7578","system_id":"levelo_inurba_marseille","lat":43.308012,"lon":5.381511,"is_reserved":false,"is_disabled":false,"rental_uris":{"android":"levelo://app?vid=2fa4e399-1efc-4485-8dcf-072a702b7578","ios":"levelo://app?vid=2fa4e399-1efc-4485-8dcf-072a702b7578"},"vehicle_type_id":"4","last_reported":1704575167,"current_range_meters":24400,"station_id":"ce4bgt12rcd13ifvqce0","pricing_plan_id":"free"},{"bike_id":"74392b6b-c179-4e2b-95c4-e4362d7f2679","system_id":"levelo_inurba_marseille","lat":43.308012,"lon":5.381511,"is_reserved":false,"is_disabled":false,"rental_uris":{"android":"levelo://app?vid=74392b6b-c179-4e2b-95c4-e4362d7f2679","ios":"levelo://app?vid=74392b6b-c179-4e2b-95c4-e4362d7f2679"},"vehicle_type_id":"4","last_reported":1704575167,"current_range_meters":25600,"station_id":"ce4bgt12rcd13ifvqce0","pricing_plan_id":"free"},{"bike_id":"14ce5d50-f0d8-49cc-96f8-86f0f986c394","system_id":"levelo_inurba_marseille","lat":43.304606,"lon":5.379026,"is_reserved":false,"is_disabled":false,"rental_uris":{"android":"levelo://app?vid=14ce5d50-f0d8-49cc-96f8-86f0f986c394","ios":"levelo://app?vid=14ce5d50-f0d8-49cc-96f8-86f0f986c394"},"vehicle_type_id":"4","last_reported":1704575167,"current_range_meters":27600,"station_id":"ce4bgup2rcd13ifvqcn0","pricing_plan_id":"free"},{"bike_id":"f9fe576d-f714-4c6f-afb1-8be6160b6d90","system_id":"levelo_inurba_marseille","lat":43.324771,"lon":5.36557,"is_reserved":false,"is_disabled":false,"rental_uris":{"android":"levelo://app?vid=f9fe576d-f714-4c6f-afb1-8be6160b6d90","ios":"levelo://app?vid=f9fe576d-f714-4c6f-afb1-8be6160b6d90"},"vehicle_type_id":"4","last_reported":1704575167,"current_range_meters":24800,"station_id":"ce4bhs12rcd13ifvqhvg","pricing_plan_id":"free"},{"bike_id":"2aa100e7-2671-4c1b-a1f0-ab7832afcbad","system_id":"levelo_inurba_marseille","lat":43.324771,"lon":5.36557,"is_reserved":false,"is_disabled":false,"rental_uris":{"android":"levelo://app?vid=2aa100e7-2671-4c1b-a1f0-ab7832afcbad","ios":"levelo://app?vid=2aa100e7-2671-4c1b-a1f0-ab7832afcbad"},"vehicle_type_id":"4","last_reported":1704575167,"current_range_meters":4000,"station_id":"ce4bhs12rcd13ifvqhvg","pricing_plan_id":"free"},{"bike_id":"9a5d20fc-5739-4188-aece-a966211e1333","system_id":"levelo_inurba_marseille","lat":43.324771,"lon":5.36557,"is_reserved":false,"is_disabled":false,"rental_uris":{"android":"levelo://app?vid=9a5d20fc-5739-4188-aece-a966211e1333","ios":"levelo://app?vid=9a5d20fc-5739-4188-aece-a966211e1333"},"vehicle_type_id":"4","last_reported":1704575167,"current_range_meters":18400,"station_id":"ce4bhs12rcd13ifvqhvg","pricing_plan_id":"free"},{"bike_id":"764f3dcc-5d52-4fa8-879d-a2ab43aa6892","system_id":"levelo_inurba_marseille","lat":43.313571,"lon":5.384829,"is_reserved":false,"is_disabled":false,"rental_uris":{"android":"levelo://app?vid=764f3dcc-5d52-4fa8-879d-a2ab43aa6892","ios":"levelo://app?vid=764f3dcc-5d52-4fa8-879d-a2ab43aa6892"},"vehicle_type_id":"4","last_reported":1704575167,"current_range_meters":22800,"station_id":"ce4bgt92rcd13ifvqcf0","pricing_plan_id":"free"},{"bike_id":"e3b9ae65-acd7-4b41-ab6d-1121cea568da","system_id":"levelo_inurba_marseille","lat":43.313571,"lon":5.384829,"is_reserved":false,"is_disabled":false,"rental_uris":{"android":"levelo://app?vid=e3b9ae65-acd7-4b41-ab6d-1121cea568da","ios":"levelo://app?vid=e3b9ae65-acd7-4b41-ab6d-1121cea568da"},"vehicle_type_id":"4","last_reported":1704575167,"current_range_meters":21600,"station_id":"ce4bgt92rcd13ifvqcf0","pricing_plan_id":"free"},{"bike_id":"f92ec925-15ef-4f91-8a42-f43d19a0f82d","system_id":"levelo_inurba_marseille","lat":43.313571,"lon":5.384829,"is_reserved":false,"is_disabled":false,"rental_uris":{"android":"levelo://app?vid=f92ec925-15ef-4f91-8a42-f43d19a0f82d","ios":"levelo://app?vid=f92ec925-15ef-4f91-8a42-f43d19a0f82d"},"vehicle_type_id":"4","last_reported":1704575167,"current_range_meters":30400,"station_id":"ce4bgt92rcd13ifvqcf0","pricing_plan_id":"free"},{"bike_id":"6d84ffbc-6218-44d8-9874-49e022ee5ef5","system_id":"levelo_inurba_marseille","lat":43.313571,"lon":5.384829,"is_reserved":false,"is_disabled":false,"rental_uris":{"android":"levelo://app?vid=6d84ffbc-6218-44d8-9874-49e022ee5ef5","ios":"levelo://app?vid=6d84ffbc-6218-44d8-9874-49e022ee5ef5"},"vehicle_type_id":"4","last_reported":1704575167,"current_range_meters":26800,"station_id":"ce4bgt92rcd13ifvqcf0","pricing_plan_id":"free"},{"bike_id":"17504bde-947a-4cd6-98b3-9a4c66aca99b","system_id":"levelo_inurba_marseille","lat":43.313827,"lon":5.385007,"is_reserved":false,"is_disabled":false,"rental_uris":{"android":"levelo://app?vid=17504bde-947a-4cd6-98b3-9a4c66aca99b","ios":"levelo://app?vid=17504bde-947a-4cd6-98b3-9a4c66aca99b"},"vehicle_type_id":"4","last_reported":1704575167,"current_range_meters":4400,"station_id":"","pricing_plan_id":"free"},{"bike_id":"69de95c2-76a5-4a02-b519-cf5e0d49bfad","system_id":"levelo_inurba_marseille","lat":43.299222,"lon":5.365554,"is_reserved":false,"is_disabled":false,"rental_uris":{"android":"levelo://app?vid=69de95c2-76a5-4a02-b519-cf5e0d49bfad","ios":"levelo://app?vid=69de95c2-76a5-4a02-b519-cf5e0d49bfad"},"vehicle_type_id":"4","last_reported":1704575167,"current_range_meters":8000,"station_id":"ce4bgm92rcd13ifvqbr0","pricing_plan_id":"free"},{"bike_id":"c2970ff6-cb8f-4948-b740-3819f93fd944","system_id":"levelo_inurba_marseille","lat":43.299724,"lon":5.371829,"is_reserved":false,"is_disabled":false,"rental_uris":{"android":"levelo://app?vid=c2970ff6-cb8f-4948-b740-3819f93fd944","ios":"levelo://app?vid=c2970ff6-cb8f-4948-b740-3819f93fd944"},"vehicle_type_id":"4","last_reported":1704575167,"current_range_meters":0,"station_id":"ce4bgr92rcd13ifvqc7g","pricing_plan_id":"free"},{"bike_id":"0d7d432b-848f-4e47-be20-267656603d0a","system_id":"levelo_inurba_marseille","lat":43.29966,"lon":5.37188,"is_reserved":false,"is_disabled":false,"rental_uris":{"android":"levelo://app?vid=0d7d432b-848f-4e47-be20-267656603d0a","ios":"levelo://app?vid=0d7d432b-848f-4e47-be20-267656603d0a"},"vehicle_type_id":"4","last_reported":1704575167,"current_range_meters":22000,"station_id":"","pricing_plan_id":"free"},{"bike_id":"3c69489c-925b-4888-a83b-5a2156f1e4a8","system_id":"levelo_inurba_marseille","lat":43.299912,"lon":5.37448,"is_reserved":false,"is_disabled":false,"rental_uris":{"android":"levelo://app?vid=3c69489c-925b-4888-a83b-5a2156f1e4a8","ios":"levelo://app?vid=3c69489c-925b-4888-a83b-5a2156f1e4a8"},"vehicle_type_id":"4","last_reported":1704575167,"current_range_meters":24800,"station_id":"","pricing_plan_id":"free"},{"bike_id":"ce0040e2-8a1f-4882-922d-ea15a02d1ba4","system_id":"levelo_inurba_marseille","lat":43.300815,"lon":5.376977,"is_reserved":false,"is_disabled":false,"rental_uris":{"android":"levelo://app?vid=ce0040e2-8a1f-4882-922d-ea15a02d1ba4","ios":"levelo://app?vid=ce0040e2-8a1f-4882-922d-ea15a02d1ba4"},"vehicle_type_id":"4","last_reported":1704575167,"current_range_meters":4800,"station_id":"","pricing_plan_id":"free"},{"bike_id":"b22604ec-0c4b-41b4-a20e-38add68f7682","system_id":"levelo_inurba_marseille","lat":43.3257,"lon":5.37484,"is_reserved":false,"is_disabled":false,"rental_uris":{"android":"levelo://app?vid=b22604ec-0c4b-41b4-a20e-38add68f7682","ios":"levelo://app?vid=b22604ec-0c4b-41b4-a20e-38add68f7682"},"vehicle_type_id":"4","last_reported":1704575167,"current_range_meters":12400,"station_id":"","pricing_plan_id":"free"},{"bike_id":"fc92aa80-5b62-488e-b074-57b92494f5ed","system_id":"levelo_inurba_marseille","lat":43.305364,"lon":5.384119,"is_reserved":false,"is_disabled":false,"rental_uris":{"android":"levelo://app?vid=fc92aa80-5b62-488e-b074-57b92494f5ed","ios":"levelo://app?vid=fc92aa80-5b62-488e-b074-57b92494f5ed"},"vehicle_type_id":"4","last_reported":1704575167,"current_range_meters":23200,"station_id":"ce4bgg92rcd13ifvqb30","pricing_plan_id":"free"},{"bike_id":"90f624c9-e920-42f0-bdb2-c7157855cdc0","system_id":"levelo_inurba_marseille","lat":43.311606,"lon":5.386854,"is_reserved":false,"is_disabled":false,"rental_uris":{"android":"levelo://app?vid=90f624c9-e920-42f0-bdb2-c7157855cdc0","ios":"levelo://app?vid=90f624c9-e920-42f0-bdb2-c7157855cdc0"},"vehicle_type_id":"4","last_reported":1704575167,"current_range_meters":12000,"station_id":"ce4bgv12rcd13ifvqcp0","pricing_plan_id":"free"},{"bike_id":"6ebb6f8f-c2b1-4f68-8170-7c2d4b33c9da","system_id":"levelo_inurba_marseille","lat":43.311722,"lon":5.387247,"is_reserved":false,"is_disabled":false,"rental_uris":{"android":"levelo://app?vid=6ebb6f8f-c2b1-4f68-8170-7c2d4b33c9da","ios":"levelo://app?vid=6ebb6f8f-c2b1-4f68-8170-7c2d4b33c9da"},"vehicle_type_id":"4","last_reported":1704575167,"current_range_meters":26000,"station_id":"ce4bgv12rcd13ifvqcp0","pricing_plan_id":"free"},{"bike_id":"1e803025-1f09-466a-8d3d-f9f6386a6109","system_id":"levelo_inurba_marseille","lat":43.311722,"lon":5.387247,"is_reserved":false,"is_disabled":false,"rental_uris":{"android":"levelo://app?vid=1e803025-1f09-466a-8d3d-f9f6386a6109","ios":"levelo://app?vid=1e803025-1f09-466a-8d3d-f9f6386a6109"},"vehicle_type_id":"4","last_reported":1704575167,"current_range_meters":15200,"station_id":"ce4bgv12rcd13ifvqcp0","pricing_plan_id":"free"},{"bike_id":"276c91d7-6ca9-48bc-bf75-acd9920b9ec2","system_id":"levelo_inurba_marseille","lat":43.322872,"lon":5.382756,"is_reserved":false,"is_disabled":false,"rental_uris":{"android":"levelo://app?vid=276c91d7-6ca9-48bc-bf75-acd9920b9ec2","ios":"levelo://app?vid=276c91d7-6ca9-48bc-bf75-acd9920b9ec2"},"vehicle_type_id":"4","last_reported":1704575167,"current_range_meters":26400,"station_id":"ce4bhr12rcd13ifvqhqg","pricing_plan_id":"free"},{"bike_id":"297a7823-4b34-45b3-8282-c78d31cc9f05","system_id":"levelo_inurba_marseille","lat":43.322872,"lon":5.382756,"is_reserved":false,"is_disabled":false,"rental_uris":{"android":"levelo://app?vid=297a7823-4b34-45b3-8282-c78d31cc9f05","ios":"levelo://app?vid=297a7823-4b34-45b3-8282-c78d31cc9f05"},"vehicle_type_id":"4","last_reported":1704575167,"current_range_meters":28000,"station_id":"ce4bhr12rcd13ifvqhqg","pricing_plan_id":"free"},{"bike_id":"cc495013-a9b7-4492-a4e4-0f0aca4a9939","system_id":"levelo_inurba_marseille","lat":43.322872,"lon":5.382756,"is_reserved":false,"is_disabled":false,"rental_uris":{"android":"levelo://app?vid=cc495013-a9b7-4492-a4e4-0f0aca4a9939","ios":"levelo://app?vid=cc495013-a9b7-4492-a4e4-0f0aca4a9939"},"vehicle_type_id":"4","last_reported":1704575167,"current_range_meters":10400,"station_id":"ce4bhr12rcd13ifvqhqg","pricing_plan_id":"free"},{"bike_id":"d0aaa14f-1070-4a80-a2f2-78508dd9f6bd","system_id":"levelo_inurba_marseille","lat":43.322872,"lon":5.382756,"is_reserved":false,"is_disabled":false,"rental_uris":{"android":"levelo://app?vid=d0aaa14f-1070-4a80-a2f2-78508dd9f6bd","ios":"levelo://app?vid=d0aaa14f-1070-4a80-a2f2-78508dd9f6bd"},"vehicle_type_id":"4","last_reported":1704575167,"current_range_meters":31600,"station_id":"ce4bhr12rcd13ifvqhqg","pricing_plan_id":"free"},{"bike_id":"3bb7c7dd-5eca-4a2d-a889-98c939c30e62","system_id":"levelo_inurba_marseille","lat":43.32291,"lon":5.38277,"is_reserved":false,"is_disabled":false,"rental_uris":{"android":"levelo://app?vid=3bb7c7dd-5eca-4a2d-a889-98c939c30e62","ios":"levelo://app?vid=3bb7c7dd-5eca-4a2d-a889-98c939c30e62"},"vehicle_type_id":"4","last_reported":1704575167,"current_range_meters":30000,"station_id":"ce4bhr12rcd13ifvqhqg","pricing_plan_id":"free"},{"bike_id":"09da622d-5ec6-4261-a95d-695d32c570ab","system_id":"levelo_inurba_marseille","lat":43.32285,"lon":5.38285,"is_reserved":false,"is_disabled":false,"rental_uris":{"android":"levelo://app?vid=09da622d-5ec6-4261-a95d-695d32c570ab","ios":"levelo://app?vid=09da622d-5ec6-4261-a95d-695d32c570ab"},"vehicle_type_id":"4","last_reported":1704575167,"current_range_meters":13600,"station_id":"ce4bhr12rcd13ifvqhqg","pricing_plan_id":"free"},{"bike_id":"f661f6de-13d0-42ff-819f-05ad69d6ac0a","system_id":"levelo_inurba_marseille","lat":43.32817,"lon":5.36688,"is_reserved":false,"is_disabled":false,"rental_uris":{"android":"levelo://app?vid=f661f6de-13d0-42ff-819f-05ad69d6ac0a","ios":"levelo://app?vid=f661f6de-13d0-42ff-819f-05ad69d6ac0a"},"vehicle_type_id":"4","last_reported":1704575167,"current_range_meters":27200,"station_id":"ce4bhs92rcd13ifvqi0g","pricing_plan_id":"free"},{"bike_id":"387c1dff-fb7e-4547-838e-1af3f69c4219","system_id":"levelo_inurba_marseille","lat":43.328239,"lon":5.366838,"is_reserved":false,"is_disabled":false,"rental_uris":{"android":"levelo://app?vid=387c1dff-fb7e-4547-838e-1af3f69c4219","ios":"levelo://app?vid=387c1dff-fb7e-4547-838e-1af3f69c4219"},"vehicle_type_id":"4","last_reported":1704575167,"current_range_meters":26000,"station_id":"ce4bhs92rcd13ifvqi0g","pricing_plan_id":"free"},{"bike_id":"66addf4b-70b7-4ac4-8e17-37956e9ecfbb","system_id":"levelo_inurba_marseille","lat":43.32824,"lon":5.36677,"is_reserved":false,"is_disabled":false,"rental_uris":{"android":"levelo://app?vid=66addf4b-70b7-4ac4-8e17-37956e9ecfbb","ios":"levelo://app?vid=66addf4b-70b7-4ac4-8e17-37956e9ecfbb"},"vehicle_type_id":"4","last_reported":1704575167,"current_range_meters":22400,"station_id":"ce4bhs92rcd13ifvqi0g","pricing_plan_id":"free"},{"bike_id":"c224ea64-7bb8-45be-8a3a-d137d9e17684","system_id":"levelo_inurba_marseille","lat":43.328245,"lon":5.366837,"is_reserved":false,"is_disabled":false,"rental_uris":{"android":"levelo://app?vid=c224ea64-7bb8-45be-8a3a-d137d9e17684","ios":"levelo://app?vid=c224ea64-7bb8-45be-8a3a-d137d9e17684"},"vehicle_type_id":"4","last_reported":1704575167,"current_range_meters":17600,"station_id":"ce4bhs92rcd13ifvqi0g","pricing_plan_id":"free"},{"bike_id":"ca02ca89-8dd5-4fc4-9a30-db37a36b7ff7","system_id":"levelo_inurba_marseille","lat":43.32825,"lon":5.3668,"is_reserved":false,"is_disabled":false,"rental_uris":{"android":"levelo://app?vid=ca02ca89-8dd5-4fc4-9a30-db37a36b7ff7","ios":"levelo://app?vid=ca02ca89-8dd5-4fc4-9a30-db37a36b7ff7"},"vehicle_type_id":"4","last_reported":1704575167,"current_range_meters":30800,"station_id":"ce4bhs92rcd13ifvqi0g","pricing_plan_id":"free"},{"bike_id":"0f4d3e9a-7c47-4898-8890-89e08c97b864","system_id":"levelo_inurba_marseille","lat":43.328253,"lon":5.366854,"is_reserved":false,"is_disabled":false,"rental_uris":{"android":"levelo://app?vid=0f4d3e9a-7c47-4898-8890-89e08c97b864","ios":"levelo://app?vid=0f4d3e9a-7c47-4898-8890-89e08c97b864"},"vehicle_type_id":"4","last_reported":1704575167,"current_range_meters":24000,"station_id":"ce4bhs92rcd13ifvqi0g","pricing_plan_id":"free"},{"bike_id":"43f47c35-ec23-411b-b2fa-7957e35eab11","system_id":"levelo_inurba_marseille","lat":43.328371,"lon":5.366909,"is_reserved":false,"is_disabled":false,"rental_uris":{"android":"levelo://app?vid=43f47c35-ec23-411b-b2fa-7957e35eab11","ios":"levelo://app?vid=43f47c35-ec23-411b-b2fa-7957e35eab11"},"vehicle_type_id":"4","last_reported":1704575167,"current_range_meters":13600,"station_id":"ce4bhs92rcd13ifvqi0g","pricing_plan_id":"free"},{"bike_id":"72905f78-9c33-4138-8385-d331d9223abd","system_id":"levelo_inurba_marseille","lat":43.3283,"lon":5.36693,"is_reserved":false,"is_disabled":false,"rental_uris":{"android":"levelo://app?vid=72905f78-9c33-4138-8385-d331d9223abd","ios":"levelo://app?vid=72905f78-9c33-4138-8385-d331d9223abd"},"vehicle_type_id":"4","last_reported":1704575167,"current_range_meters":18000,"station_id":"ce4bhs92rcd13ifvqi0g","pricing_plan_id":"free"},{"bike_id":"5021f406-3153-4a9e-a450-00a19314acbe","system_id":"levelo_inurba_marseille","lat":43.328371,"lon":5.366909,"is_reserved":false,"is_disabled":false,"rental_uris":{"android":"levelo://app?vid=5021f406-3153-4a9e-a450-00a19314acbe","ios":"levelo://app?vid=5021f406-3153-4a9e-a450-00a19314acbe"},"vehicle_type_id":"4","last_reported":1704575167,"current_range_meters":5600,"station_id":"ce4bhs92rcd13ifvqi0g","pricing_plan_id":"free"},{"bike_id":"0725f2a6-de18-43ea-a245-f699ddc19b55","system_id":"levelo_inurba_marseille","lat":43.328371,"lon":5.366909,"is_reserved":false,"is_disabled":false,"rental_uris":{"android":"levelo://app?vid=0725f2a6-de18-43ea-a245-f699ddc19b55","ios":"levelo://app?vid=0725f2a6-de18-43ea-a245-f699ddc19b55"},"vehicle_type_id":"4","last_reported":1704575167,"current_range_meters":11600,"station_id":"ce4bhs92rcd13ifvqi0g","pricing_plan_id":"free"},{"bike_id":"064b14d2-f3e9-43be-a725-c95d6c66fd15","system_id":"levelo_inurba_marseille","lat":43.328371,"lon":5.366909,"is_reserved":false,"is_disabled":false,"rental_uris":{"android":"levelo://app?vid=064b14d2-f3e9-43be-a725-c95d6c66fd15","ios":"levelo://app?vid=064b14d2-f3e9-43be-a725-c95d6c66fd15"},"vehicle_type_id":"4","last_reported":1704575167,"current_range_meters":24800,"station_id":"ce4bhs92rcd13ifvqi0g","pricing_plan_id":"free"},{"bike_id":"ee966a52-c4f3-4b5b-b8b2-c85b17eb5fb4","system_id":"levelo_inurba_marseille","lat":43.328371,"lon":5.366909,"is_reserved":false,"is_disabled":false,"rental_uris":{"android":"levelo://app?vid=ee966a52-c4f3-4b5b-b8b2-c85b17eb5fb4","ios":"levelo://app?vid=ee966a52-c4f3-4b5b-b8b2-c85b17eb5fb4"},"vehicle_type_id":"4","last_reported":1704575167,"current_range_meters":19200,"station_id":"ce4bhs92rcd13ifvqi0g","pricing_plan_id":"free"},{"bike_id":"42895378-a21e-445b-8e89-325727904609","system_id":"levelo_inurba_marseille","lat":43.328371,"lon":5.366909,"is_reserved":false,"is_disabled":false,"rental_uris":{"android":"levelo://app?vid=42895378-a21e-445b-8e89-325727904609","ios":"levelo://app?vid=42895378-a21e-445b-8e89-325727904609"},"vehicle_type_id":"4","last_reported":1704575167,"current_range_meters":24800,"station_id":"ce4bhs92rcd13ifvqi0g","pricing_plan_id":"free"},{"bike_id":"126e4c69-ead8-48d7-bd32-839ee650c744","system_id":"levelo_inurba_marseille","lat":43.297163,"lon":5.365866,"is_reserved":false,"is_disabled":false,"rental_uris":{"android":"levelo://app?vid=126e4c69-ead8-48d7-bd32-839ee650c744","ios":"levelo://app?vid=126e4c69-ead8-48d7-bd32-839ee650c744"},"vehicle_type_id":"4","last_reported":1704575167,"current_range_meters":21600,"station_id":"ce4bgn12rcd13ifvqbt0","pricing_plan_id":"free"},{"bike_id":"20ee9ffc-dea6-4ee0-aa5b-7f51a0c56576","system_id":"levelo_inurba_marseille","lat":43.298917,"lon":5.378939,"is_reserved":false,"is_disabled":false,"rental_uris":{"android":"levelo://app?vid=20ee9ffc-dea6-4ee0-aa5b-7f51a0c56576","ios":"levelo://app?vid=20ee9ffc-dea6-4ee0-aa5b-7f51a0c56576"},"vehicle_type_id":"4","last_reported":1704575167,"current_range_meters":18000,"station_id":"","pricing_plan_id":"free"},{"bike_id":"b4333834-157f-4772-b871-c14c988252eb","system_id":"levelo_inurba_marseille","lat":43.296131,"lon":5.370791,"is_reserved":false,"is_disabled":false,"rental_uris":{"android":"levelo://app?vid=b4333834-157f-4772-b871-c14c988252eb","ios":"levelo://app?vid=b4333834-157f-4772-b871-c14c988252eb"},"vehicle_type_id":"4","last_reported":1704575167,"current_range_meters":29200,"station_id":"ce4bgnh2rcd13ifvqc0g","pricing_plan_id":"free"},{"bike_id":"bcb5166a-247a-4bea-b27e-4beff96946a7","system_id":"levelo_inurba_marseille","lat":43.295788,"lon":5.367452,"is_reserved":false,"is_disabled":false,"rental_uris":{"android":"levelo://app?vid=bcb5166a-247a-4bea-b27e-4beff96946a7","ios":"levelo://app?vid=bcb5166a-247a-4bea-b27e-4beff96946a7"},"vehicle_type_id":"4","last_reported":1704575167,"current_range_meters":24800,"station_id":"ce4bgph2rcd13ifvqc2g","pricing_plan_id":"free"},{"bike_id":"f9359700-f559-4f3e-8bd3-5bfd1d970390","system_id":"levelo_inurba_marseille","lat":43.299028,"lon":5.381509,"is_reserved":false,"is_disabled":false,"rental_uris":{"android":"levelo://app?vid=f9359700-f559-4f3e-8bd3-5bfd1d970390","ios":"levelo://app?vid=f9359700-f559-4f3e-8bd3-5bfd1d970390"},"vehicle_type_id":"4","last_reported":1704575167,"current_range_meters":29200,"station_id":"ce4bgj12rcd13ifvqbc0","pricing_plan_id":"free"},{"bike_id":"31bb98bd-baf8-44e3-b9e3-b9c0c7fa1a55","system_id":"levelo_inurba_marseille","lat":43.299028,"lon":5.381509,"is_reserved":false,"is_disabled":false,"rental_uris":{"android":"levelo://app?vid=31bb98bd-baf8-44e3-b9e3-b9c0c7fa1a55","ios":"levelo://app?vid=31bb98bd-baf8-44e3-b9e3-b9c0c7fa1a55"},"vehicle_type_id":"4","last_reported":1704575167,"current_range_meters":18400,"station_id":"ce4bgj12rcd13ifvqbc0","pricing_plan_id":"free"},{"bike_id":"712bc03c-4301-4f23-a402-31c4a3f6ea54","system_id":"levelo_inurba_marseille","lat":43.317532,"lon":5.390125,"is_reserved":false,"is_disabled":false,"rental_uris":{"android":"levelo://app?vid=712bc03c-4301-4f23-a402-31c4a3f6ea54","ios":"levelo://app?vid=712bc03c-4301-4f23-a402-31c4a3f6ea54"},"vehicle_type_id":"4","last_reported":1704575167,"current_range_meters":6400,"station_id":"ce4bhqp2rcd13ifvqhng","pricing_plan_id":"free"},{"bike_id":"e37c395a-9586-41ec-a7f6-e0ff510c2fd8","system_id":"levelo_inurba_marseille","lat":43.317579,"lon":5.390219,"is_reserved":false,"is_disabled":false,"rental_uris":{"android":"levelo://app?vid=e37c395a-9586-41ec-a7f6-e0ff510c2fd8","ios":"levelo://app?vid=e37c395a-9586-41ec-a7f6-e0ff510c2fd8"},"vehicle_type_id":"4","last_reported":1704575167,"current_range_meters":31200,"station_id":"ce4bhqp2rcd13ifvqhng","pricing_plan_id":"free"},{"bike_id":"53b8b99f-61cc-4dd1-a7ec-a32bd91f2e37","system_id":"levelo_inurba_marseille","lat":43.31757,"lon":5.39025,"is_reserved":false,"is_disabled":false,"rental_uris":{"android":"levelo://app?vid=53b8b99f-61cc-4dd1-a7ec-a32bd91f2e37","ios":"levelo://app?vid=53b8b99f-61cc-4dd1-a7ec-a32bd91f2e37"},"vehicle_type_id":"4","last_reported":1704575167,"current_range_meters":12000,"station_id":"ce4bhqp2rcd13ifvqhng","pricing_plan_id":"free"},{"bike_id":"b1766360-b6b4-4548-8322-527e14199a19","system_id":"levelo_inurba_marseille","lat":43.29584,"lon":5.37507,"is_reserved":false,"is_disabled":false,"rental_uris":{"android":"levelo://app?vid=b1766360-b6b4-4548-8322-527e14199a19","ios":"levelo://app?vid=b1766360-b6b4-4548-8322-527e14199a19"},"vehicle_type_id":"4","last_reported":1704575167,"current_range_meters":0,"station_id":"ce4bgh92rcd13ifvqb50","pricing_plan_id":"free"},{"bike_id":"0e001f21-2cf1-45e6-becb-58265b03e884","system_id":"levelo_inurba_marseille","lat":43.304274,"lon":5.388873,"is_reserved":false,"is_disabled":false,"rental_uris":{"android":"levelo://app?vid=0e001f21-2cf1-45e6-becb-58265b03e884","ios":"levelo://app?vid=0e001f21-2cf1-45e6-becb-58265b03e884"},"vehicle_type_id":"4","last_reported":1704575167,"current_range_meters":8000,"station_id":"ce4bgk12rcd13ifvqbi0","pricing_plan_id":"free"},{"bike_id":"d60802d6-4f47-444a-b234-883690eec05b","system_id":"levelo_inurba_marseille","lat":43.33062,"lon":5.3627,"is_reserved":false,"is_disabled":false,"rental_uris":{"android":"levelo://app?vid=d60802d6-4f47-444a-b234-883690eec05b","ios":"levelo://app?vid=d60802d6-4f47-444a-b234-883690eec05b"},"vehicle_type_id":"4","last_reported":1704575167,"current_range_meters":0,"station_id":"","pricing_plan_id":"free"},{"bike_id":"89af9140-a12b-4f97-a739-afe32bb57893","system_id":"levelo_inurba_marseille","lat":43.299717,"lon":5.384845,"is_reserved":false,"is_disabled":false,"rental_uris":{"android":"levelo://app?vid=89af9140-a12b-4f97-a739-afe32bb57893","ios":"levelo://app?vid=89af9140-a12b-4f97-a739-afe32bb57893"},"vehicle_type_id":"4","last_reported":1704575167,"current_range_meters":8400,"station_id":"ce4bgj92rcd13ifvqbd0","pricing_plan_id":"free"},{"bike_id":"2164c822-9059-4039-a75f-0d4978d13f5f","system_id":"levelo_inurba_marseille","lat":43.299717,"lon":5.384845,"is_reserved":false,"is_disabled":false,"rental_uris":{"android":"levelo://app?vid=2164c822-9059-4039-a75f-0d4978d13f5f","ios":"levelo://app?vid=2164c822-9059-4039-a75f-0d4978d13f5f"},"vehicle_type_id":"4","last_reported":1704575167,"current_range_meters":9600,"station_id":"ce4bgj92rcd13ifvqbd0","pricing_plan_id":"free"},{"bike_id":"204dea3f-87e7-4326-9f54-6cdab23e9e5a","system_id":"levelo_inurba_marseille","lat":43.32367,"lon":5.388767,"is_reserved":false,"is_disabled":false,"rental_uris":{"android":"levelo://app?vid=204dea3f-87e7-4326-9f54-6cdab23e9e5a","ios":"levelo://app?vid=204dea3f-87e7-4326-9f54-6cdab23e9e5a"},"vehicle_type_id":"4","last_reported":1704575167,"current_range_meters":6400,"station_id":"ce4bhqp2rcd13ifvqhog","pricing_plan_id":"free"},{"bike_id":"f4a2cf71-d775-409e-a41d-4055d020dfd7","system_id":"levelo_inurba_marseille","lat":43.29601,"lon":5.381084,"is_reserved":false,"is_disabled":false,"rental_uris":{"android":"levelo://app?vid=f4a2cf71-d775-409e-a41d-4055d020dfd7","ios":"levelo://app?vid=f4a2cf71-d775-409e-a41d-4055d020dfd7"},"vehicle_type_id":"4","last_reported":1704575167,"current_range_meters":13600,"station_id":"ce4bgl12rcd13ifvqbo0","pricing_plan_id":"free"},{"bike_id":"e65d45d8-5d93-40c5-98a6-1d077f9f9065","system_id":"levelo_inurba_marseille","lat":43.29305,"lon":5.3717,"is_reserved":false,"is_disabled":false,"rental_uris":{"android":"levelo://app?vid=e65d45d8-5d93-40c5-98a6-1d077f9f9065","ios":"levelo://app?vid=e65d45d8-5d93-40c5-98a6-1d077f9f9065"},"vehicle_type_id":"4","last_reported":1704575167,"current_range_meters":26000,"station_id":"ce4bgh92rcd13ifvqb40","pricing_plan_id":"free"},{"bike_id":"3915bec1-1d49-438b-9d4e-cd749eada0b6","system_id":"levelo_inurba_marseille","lat":43.293124,"lon":5.374222,"is_reserved":false,"is_disabled":false,"rental_uris":{"android":"levelo://app?vid=3915bec1-1d49-438b-9d4e-cd749eada0b6","ios":"levelo://app?vid=3915bec1-1d49-438b-9d4e-cd749eada0b6"},"vehicle_type_id":"4","last_reported":1704575167,"current_range_meters":18000,"station_id":"ce4bgi12rcd13ifvqb70","pricing_plan_id":"free"},{"bike_id":"dde66372-7098-492b-b7cc-3b07754137f8","system_id":"levelo_inurba_marseille","lat":43.293098,"lon":5.374218,"is_reserved":false,"is_disabled":false,"rental_uris":{"android":"levelo://app?vid=dde66372-7098-492b-b7cc-3b07754137f8","ios":"levelo://app?vid=dde66372-7098-492b-b7cc-3b07754137f8"},"vehicle_type_id":"4","last_reported":1704575167,"current_range_meters":7600,"station_id":"ce4bgi12rcd13ifvqb70","pricing_plan_id":"free"},{"bike_id":"8fa133e9-61d2-4a4d-aee4-efcdd6ecc97a","system_id":"levelo_inurba_marseille","lat":43.305994,"lon":5.393687,"is_reserved":false,"is_disabled":false,"rental_uris":{"android":"levelo://app?vid=8fa133e9-61d2-4a4d-aee4-efcdd6ecc97a","ios":"levelo://app?vid=8fa133e9-61d2-4a4d-aee4-efcdd6ecc97a"},"vehicle_type_id":"4","last_reported":1704575167,"current_range_meters":28400,"station_id":"ce4bh0p2rcd13ifvqd80","pricing_plan_id":"free"},{"bike_id":"fe19ba93-9746-41aa-97a7-87b19527c8f9","system_id":"levelo_inurba_marseille","lat":43.303002,"lon":5.392142,"is_reserved":false,"is_disabled":false,"rental_uris":{"android":"levelo://app?vid=fe19ba93-9746-41aa-97a7-87b19527c8f9","ios":"levelo://app?vid=fe19ba93-9746-41aa-97a7-87b19527c8f9"},"vehicle_type_id":"4","last_reported":1704575167,"current_range_meters":23600,"station_id":"ce4bgkh2rcd13ifvqbk0","pricing_plan_id":"free"},{"bike_id":"888c75c2-3a22-44ab-92f3-e7819df79140","system_id":"levelo_inurba_marseille","lat":43.2936,"lon":5.37835,"is_reserved":false,"is_disabled":false,"rental_uris":{"android":"levelo://app?vid=888c75c2-3a22-44ab-92f3-e7819df79140","ios":"levelo://app?vid=888c75c2-3a22-44ab-92f3-e7819df79140"},"vehicle_type_id":"4","last_reported":1704575167,"current_range_meters":4000,"station_id":"ce4bgjh2rcd13ifvqbf0","pricing_plan_id":"free"},{"bike_id":"f3398a27-e63f-48af-9ca2-057bd9f0ef43","system_id":"levelo_inurba_marseille","lat":43.29819,"lon":5.38776,"is_reserved":false,"is_disabled":false,"rental_uris":{"android":"levelo://app?vid=f3398a27-e63f-48af-9ca2-057bd9f0ef43","ios":"levelo://app?vid=f3398a27-e63f-48af-9ca2-057bd9f0ef43"},"vehicle_type_id":"4","last_reported":1704575167,"current_range_meters":15600,"station_id":"","pricing_plan_id":"free"},{"bike_id":"1765f064-5fef-4c4a-82a6-5206e4e3c452","system_id":"levelo_inurba_marseille","lat":43.291671,"lon":5.371575,"is_reserved":false,"is_disabled":false,"rental_uris":{"android":"levelo://app?vid=1765f064-5fef-4c4a-82a6-5206e4e3c452","ios":"levelo://app?vid=1765f064-5fef-4c4a-82a6-5206e4e3c452"},"vehicle_type_id":"4","last_reported":1704575167,"current_range_meters":5200,"station_id":"ce4bha92rcd13ifvqeh0","pricing_plan_id":"free"},{"bike_id":"e3866b6e-507b-4bc8-b020-976e10a9e2fe","system_id":"levelo_inurba_marseille","lat":43.291671,"lon":5.371575,"is_reserved":false,"is_disabled":false,"rental_uris":{"android":"levelo://app?vid=e3866b6e-507b-4bc8-b020-976e10a9e2fe","ios":"levelo://app?vid=e3866b6e-507b-4bc8-b020-976e10a9e2fe"},"vehicle_type_id":"4","last_reported":1704575167,"current_range_meters":0,"station_id":"ce4bha92rcd13ifvqeh0","pricing_plan_id":"free"},{"bike_id":"b6a02140-a5ad-4256-931b-747f4d19f157","system_id":"levelo_inurba_marseille","lat":43.291671,"lon":5.371575,"is_reserved":false,"is_disabled":false,"rental_uris":{"android":"levelo://app?vid=b6a02140-a5ad-4256-931b-747f4d19f157","ios":"levelo://app?vid=b6a02140-a5ad-4256-931b-747f4d19f157"},"vehicle_type_id":"4","last_reported":1704575167,"current_range_meters":9600,"station_id":"ce4bha92rcd13ifvqeh0","pricing_plan_id":"free"},{"bike_id":"c0700da6-9e9d-425d-a034-145d10e3e2c9","system_id":"levelo_inurba_marseille","lat":43.291671,"lon":5.371575,"is_reserved":false,"is_disabled":false,"rental_uris":{"android":"levelo://app?vid=c0700da6-9e9d-425d-a034-145d10e3e2c9","ios":"levelo://app?vid=c0700da6-9e9d-425d-a034-145d10e3e2c9"},"vehicle_type_id":"4","last_reported":1704575167,"current_range_meters":26000,"station_id":"ce4bha92rcd13ifvqeh0","pricing_plan_id":"free"},{"bike_id":"e0f6ec75-c4c9-4da2-894a-2a29948c2dd5","system_id":"levelo_inurba_marseille","lat":43.291671,"lon":5.371575,"is_reserved":false,"is_disabled":false,"rental_uris":{"android":"levelo://app?vid=e0f6ec75-c4c9-4da2-894a-2a29948c2dd5","ios":"levelo://app?vid=e0f6ec75-c4c9-4da2-894a-2a29948c2dd5"},"vehicle_type_id":"4","last_reported":1704575167,"current_range_meters":21200,"station_id":"ce4bha92rcd13ifvqeh0","pricing_plan_id":"free"},{"bike_id":"9028121a-8837-4b13-8868-c1cd54517804","system_id":"levelo_inurba_marseille","lat":43.291994,"lon":5.357886,"is_reserved":false,"is_disabled":false,"rental_uris":{"android":"levelo://app?vid=9028121a-8837-4b13-8868-c1cd54517804","ios":"levelo://app?vid=9028121a-8837-4b13-8868-c1cd54517804"},"vehicle_type_id":"4","last_reported":1704575167,"current_range_meters":17200,"station_id":"ce4bhb12rcd13ifvqel0","pricing_plan_id":"free"},{"bike_id":"76a8e2bc-ccc7-4a3a-95c2-889889b43963","system_id":"levelo_inurba_marseille","lat":43.309038,"lon":5.396546,"is_reserved":false,"is_disabled":false,"rental_uris":{"android":"levelo://app?vid=76a8e2bc-ccc7-4a3a-95c2-889889b43963","ios":"levelo://app?vid=76a8e2bc-ccc7-4a3a-95c2-889889b43963"},"vehicle_type_id":"4","last_reported":1704575167,"current_range_meters":25600,"station_id":"ce4bh012rcd13ifvqcv0","pricing_plan_id":"free"},{"bike_id":"a32a7746-144b-4831-b829-ba30a3ecf321","system_id":"levelo_inurba_marseille","lat":43.313291,"lon":5.396838,"is_reserved":false,"is_disabled":false,"rental_uris":{"android":"levelo://app?vid=a32a7746-144b-4831-b829-ba30a3ecf321","ios":"levelo://app?vid=a32a7746-144b-4831-b829-ba30a3ecf321"},"vehicle_type_id":"4","last_reported":1704575167,"current_range_meters":12800,"station_id":"ce4bgvp2rcd13ifvqcu0","pricing_plan_id":"free"},{"bike_id":"1c5d170a-0be1-4098-8943-01a7458f05e6","system_id":"levelo_inurba_marseille","lat":43.29529,"lon":5.385581,"is_reserved":false,"is_disabled":false,"rental_uris":{"android":"levelo://app?vid=1c5d170a-0be1-4098-8943-01a7458f05e6","ios":"levelo://app?vid=1c5d170a-0be1-4098-8943-01a7458f05e6"},"vehicle_type_id":"4","last_reported":1704575167,"current_range_meters":24800,"station_id":"ce4bgih2rcd13ifvqba0","pricing_plan_id":"free"},{"bike_id":"a18c9f18-dd23-4fa3-ae4c-750a813ec2dd","system_id":"levelo_inurba_marseille","lat":43.313785,"lon":5.397115,"is_reserved":false,"is_disabled":false,"rental_uris":{"android":"levelo://app?vid=a18c9f18-dd23-4fa3-ae4c-750a813ec2dd","ios":"levelo://app?vid=a18c9f18-dd23-4fa3-ae4c-750a813ec2dd"},"vehicle_type_id":"4","last_reported":1704575167,"current_range_meters":17600,"station_id":"","pricing_plan_id":"free"},{"bike_id":"96f38d29-0829-46dc-ad95-731133e0171f","system_id":"levelo_inurba_marseille","lat":43.29529,"lon":5.385581,"is_reserved":false,"is_disabled":false,"rental_uris":{"android":"levelo://app?vid=96f38d29-0829-46dc-ad95-731133e0171f","ios":"levelo://app?vid=96f38d29-0829-46dc-ad95-731133e0171f"},"vehicle_type_id":"4","last_reported":1704575167,"current_range_meters":27200,"station_id":"ce4bgih2rcd13ifvqba0","pricing_plan_id":"free"},{"bike_id":"10b1a2d7-edc8-4942-b6a8-7452493ad032","system_id":"levelo_inurba_marseille","lat":43.290779,"lon":5.371482,"is_reserved":false,"is_disabled":false,"rental_uris":{"android":"levelo://app?vid=10b1a2d7-edc8-4942-b6a8-7452493ad032","ios":"levelo://app?vid=10b1a2d7-edc8-4942-b6a8-7452493ad032"},"vehicle_type_id":"4","last_reported":1704575167,"current_range_meters":26800,"station_id":"ce4bh5p2rcd13ifvqe4g","pricing_plan_id":"free"},{"bike_id":"4c06385c-fac9-448a-a0f6-f43ddfe59f28","system_id":"levelo_inurba_marseille","lat":43.290624,"lon":5.359245,"is_reserved":false,"is_disabled":false,"rental_uris":{"android":"levelo://app?vid=4c06385c-fac9-448a-a0f6-f43ddfe59f28","ios":"levelo://app?vid=4c06385c-fac9-448a-a0f6-f43ddfe59f28"},"vehicle_type_id":"4","last_reported":1704575167,"current_range_meters":4400,"station_id":"ce4bha92rcd13ifvqeg0","pricing_plan_id":"free"},{"bike_id":"73a3e9b9-885b-47fe-bcaf-4f0f17880e73","system_id":"levelo_inurba_marseille","lat":43.294153,"lon":5.386305,"is_reserved":false,"is_disabled":false,"rental_uris":{"android":"levelo://app?vid=73a3e9b9-885b-47fe-bcaf-4f0f17880e73","ios":"levelo://app?vid=73a3e9b9-885b-47fe-bcaf-4f0f17880e73"},"vehicle_type_id":"4","last_reported":1704575167,"current_range_meters":0,"station_id":"ce4bh2h2rcd13ifvqdh0","pricing_plan_id":"free"},{"bike_id":"4ee90c42-de7e-44e0-808a-53c44fab3cc4","system_id":"levelo_inurba_marseille","lat":43.294153,"lon":5.386305,"is_reserved":false,"is_disabled":false,"rental_uris":{"android":"levelo://app?vid=4ee90c42-de7e-44e0-808a-53c44fab3cc4","ios":"levelo://app?vid=4ee90c42-de7e-44e0-808a-53c44fab3cc4"},"vehicle_type_id":"4","last_reported":1704575167,"current_range_meters":8000,"station_id":"ce4bh2h2rcd13ifvqdh0","pricing_plan_id":"free"},{"bike_id":"42c4bc69-6755-41f5-b958-8587c77e1e17","system_id":"levelo_inurba_marseille","lat":43.289184,"lon":5.366408,"is_reserved":false,"is_disabled":false,"rental_uris":{"android":"levelo://app?vid=42c4bc69-6755-41f5-b958-8587c77e1e17","ios":"levelo://app?vid=42c4bc69-6755-41f5-b958-8587c77e1e17"},"vehicle_type_id":"4","last_reported":1704575167,"current_range_meters":17600,"station_id":"ce4bhap2rcd13ifvqek0","pricing_plan_id":"free"},{"bike_id":"f8c2e625-fbcc-4420-9eab-5532e700c338","system_id":"levelo_inurba_marseille","lat":43.294153,"lon":5.386305,"is_reserved":false,"is_disabled":false,"rental_uris":{"android":"levelo://app?vid=f8c2e625-fbcc-4420-9eab-5532e700c338","ios":"levelo://app?vid=f8c2e625-fbcc-4420-9eab-5532e700c338"},"vehicle_type_id":"4","last_reported":1704575167,"current_range_meters":31200,"station_id":"ce4bh2h2rcd13ifvqdh0","pricing_plan_id":"free"},{"bike_id":"af2c81c4-2101-4b62-bd05-53c7940e0cb8","system_id":"levelo_inurba_marseille","lat":43.294162,"lon":5.386292,"is_reserved":false,"is_disabled":false,"rental_uris":{"android":"levelo://app?vid=af2c81c4-2101-4b62-bd05-53c7940e0cb8","ios":"levelo://app?vid=af2c81c4-2101-4b62-bd05-53c7940e0cb8"},"vehicle_type_id":"4","last_reported":1704575167,"current_range_meters":26000,"station_id":"ce4bh2h2rcd13ifvqdh0","pricing_plan_id":"free"},{"bike_id":"8e54cd51-f491-404b-8d70-fde18e86674c","system_id":"levelo_inurba_marseille","lat":43.294153,"lon":5.386305,"is_reserved":false,"is_disabled":false,"rental_uris":{"android":"levelo://app?vid=8e54cd51-f491-404b-8d70-fde18e86674c","ios":"levelo://app?vid=8e54cd51-f491-404b-8d70-fde18e86674c"},"vehicle_type_id":"4","last_reported":1704575167,"current_range_meters":26000,"station_id":"ce4bh2h2rcd13ifvqdh0","pricing_plan_id":"free"},{"bike_id":"7f68f819-121b-43a3-aca3-9d0f1d8e6674","system_id":"levelo_inurba_marseille","lat":43.294162,"lon":5.386292,"is_reserved":false,"is_disabled":false,"rental_uris":{"android":"levelo://app?vid=7f68f819-121b-43a3-aca3-9d0f1d8e6674","ios":"levelo://app?vid=7f68f819-121b-43a3-aca3-9d0f1d8e6674"},"vehicle_type_id":"4","last_reported":1704575167,"current_range_meters":9200,"station_id":"ce4bh2h2rcd13ifvqdh0","pricing_plan_id":"free"},{"bike_id":"e0239d23-12f2-401e-9b6a-1ef3b574ac29","system_id":"levelo_inurba_marseille","lat":43.294162,"lon":5.386292,"is_reserved":false,"is_disabled":false,"rental_uris":{"android":"levelo://app?vid=e0239d23-12f2-401e-9b6a-1ef3b574ac29","ios":"levelo://app?vid=e0239d23-12f2-401e-9b6a-1ef3b574ac29"},"vehicle_type_id":"4","last_reported":1704575167,"current_range_meters":22400,"station_id":"ce4bh2h2rcd13ifvqdh0","pricing_plan_id":"free"},{"bike_id":"a8a2005a-93cb-47e1-bbdd-09b70f1a2cfc","system_id":"levelo_inurba_marseille","lat":43.28941,"lon":5.36633,"is_reserved":false,"is_disabled":false,"rental_uris":{"android":"levelo://app?vid=a8a2005a-93cb-47e1-bbdd-09b70f1a2cfc","ios":"levelo://app?vid=a8a2005a-93cb-47e1-bbdd-09b70f1a2cfc"},"vehicle_type_id":"4","last_reported":1704575167,"current_range_meters":25200,"station_id":"ce4bhap2rcd13ifvqek0","pricing_plan_id":"free"},{"bike_id":"527fe92c-5a2a-4e81-939e-0687eade67e6","system_id":"levelo_inurba_marseille","lat":43.289184,"lon":5.366408,"is_reserved":false,"is_disabled":false,"rental_uris":{"android":"levelo://app?vid=527fe92c-5a2a-4e81-939e-0687eade67e6","ios":"levelo://app?vid=527fe92c-5a2a-4e81-939e-0687eade67e6"},"vehicle_type_id":"4","last_reported":1704575167,"current_range_meters":5200,"station_id":"ce4bhap2rcd13ifvqek0","pricing_plan_id":"free"},{"bike_id":"fc6ad390-90f4-4082-b8bf-70ce0dcef1d2","system_id":"levelo_inurba_marseille","lat":43.289184,"lon":5.366408,"is_reserved":false,"is_disabled":false,"rental_uris":{"android":"levelo://app?vid=fc6ad390-90f4-4082-b8bf-70ce0dcef1d2","ios":"levelo://app?vid=fc6ad390-90f4-4082-b8bf-70ce0dcef1d2"},"vehicle_type_id":"4","last_reported":1704575167,"current_range_meters":19600,"station_id":"ce4bhap2rcd13ifvqek0","pricing_plan_id":"free"},{"bike_id":"621659f5-5ff2-4eba-a4cb-3e5963e3eeb7","system_id":"levelo_inurba_marseille","lat":43.289444,"lon":5.364034,"is_reserved":false,"is_disabled":false,"rental_uris":{"android":"levelo://app?vid=621659f5-5ff2-4eba-a4cb-3e5963e3eeb7","ios":"levelo://app?vid=621659f5-5ff2-4eba-a4cb-3e5963e3eeb7"},"vehicle_type_id":"4","last_reported":1704575167,"current_range_meters":7600,"station_id":"ce4bhc92rcd13ifvqetg","pricing_plan_id":"free"},{"bike_id":"308ccaaa-a5a7-4a08-bd37-6054a54ae177","system_id":"levelo_inurba_marseille","lat":43.292644,"lon":5.384257,"is_reserved":false,"is_disabled":false,"rental_uris":{"android":"levelo://app?vid=308ccaaa-a5a7-4a08-bd37-6054a54ae177","ios":"levelo://app?vid=308ccaaa-a5a7-4a08-bd37-6054a54ae177"},"vehicle_type_id":"4","last_reported":1704575167,"current_range_meters":22800,"station_id":"ce4bh692rcd13ifvqea0","pricing_plan_id":"free"},{"bike_id":"0c12d915-cfe7-4c5f-96ca-488714f09b4e","system_id":"levelo_inurba_marseille","lat":43.292644,"lon":5.384257,"is_reserved":false,"is_disabled":false,"rental_uris":{"android":"levelo://app?vid=0c12d915-cfe7-4c5f-96ca-488714f09b4e","ios":"levelo://app?vid=0c12d915-cfe7-4c5f-96ca-488714f09b4e"},"vehicle_type_id":"4","last_reported":1704575167,"current_range_meters":14000,"station_id":"ce4bh692rcd13ifvqea0","pricing_plan_id":"free"},{"bike_id":"6c3d2550-0868-475b-9269-f919384b02dd","system_id":"levelo_inurba_marseille","lat":43.292642,"lon":5.384254,"is_reserved":false,"is_disabled":false,"rental_uris":{"android":"levelo://app?vid=6c3d2550-0868-475b-9269-f919384b02dd","ios":"levelo://app?vid=6c3d2550-0868-475b-9269-f919384b02dd"},"vehicle_type_id":"4","last_reported":1704575167,"current_range_meters":30400,"station_id":"ce4bh692rcd13ifvqea0","pricing_plan_id":"free"},{"bike_id":"4a26aebe-3b37-409d-83f7-3dd07221ba46","system_id":"levelo_inurba_marseille","lat":43.292644,"lon":5.384257,"is_reserved":false,"is_disabled":false,"rental_uris":{"android":"levelo://app?vid=4a26aebe-3b37-409d-83f7-3dd07221ba46","ios":"levelo://app?vid=4a26aebe-3b37-409d-83f7-3dd07221ba46"},"vehicle_type_id":"4","last_reported":1704575167,"current_range_meters":30400,"station_id":"ce4bh692rcd13ifvqea0","pricing_plan_id":"free"},{"bike_id":"2b6769dc-72aa-479e-8c35-8d3242dd11f0","system_id":"levelo_inurba_marseille","lat":43.304274,"lon":5.397513,"is_reserved":false,"is_disabled":false,"rental_uris":{"android":"levelo://app?vid=2b6769dc-72aa-479e-8c35-8d3242dd11f0","ios":"levelo://app?vid=2b6769dc-72aa-479e-8c35-8d3242dd11f0"},"vehicle_type_id":"4","last_reported":1704575167,"current_range_meters":26400,"station_id":"ce4bh092rcd13ifvqd20","pricing_plan_id":"free"},{"bike_id":"f291ce47-065b-475e-947f-5d78ca4b78b3","system_id":"levelo_inurba_marseille","lat":43.297815,"lon":5.393548,"is_reserved":false,"is_disabled":false,"rental_uris":{"android":"levelo://app?vid=f291ce47-065b-475e-947f-5d78ca4b78b3","ios":"levelo://app?vid=f291ce47-065b-475e-947f-5d78ca4b78b3"},"vehicle_type_id":"4","last_reported":1704575167,"current_range_meters":6400,"station_id":"chh1huq6cuj3fo74tm60","pricing_plan_id":"free"},{"bike_id":"c8f1c66d-517e-47cd-8c74-1fbdb664b117","system_id":"levelo_inurba_marseille","lat":43.33024,"lon":5.39031,"is_reserved":false,"is_disabled":false,"rental_uris":{"android":"levelo://app?vid=c8f1c66d-517e-47cd-8c74-1fbdb664b117","ios":"levelo://app?vid=c8f1c66d-517e-47cd-8c74-1fbdb664b117"},"vehicle_type_id":"4","last_reported":1704575167,"current_range_meters":17600,"station_id":"","pricing_plan_id":"free"},{"bike_id":"8625464e-66d0-4621-bd34-1a2874fb7a19","system_id":"levelo_inurba_marseille","lat":43.330442,"lon":5.389148,"is_reserved":false,"is_disabled":false,"rental_uris":{"android":"levelo://app?vid=8625464e-66d0-4621-bd34-1a2874fb7a19","ios":"levelo://app?vid=8625464e-66d0-4621-bd34-1a2874fb7a19"},"vehicle_type_id":"4","last_reported":1704575167,"current_range_meters":9600,"station_id":"ce4bhr92rcd13ifvqhrg","pricing_plan_id":"free"},{"bike_id":"c736c7ee-9044-4c40-9b21-ab66a46226ec","system_id":"levelo_inurba_marseille","lat":43.295169,"lon":5.390426,"is_reserved":false,"is_disabled":false,"rental_uris":{"android":"levelo://app?vid=c736c7ee-9044-4c40-9b21-ab66a46226ec","ios":"levelo://app?vid=c736c7ee-9044-4c40-9b21-ab66a46226ec"},"vehicle_type_id":"4","last_reported":1704575167,"current_range_meters":27600,"station_id":"ce4bh3p2rcd13ifvqdp0","pricing_plan_id":"free"},{"bike_id":"5c0e221b-54dc-4307-a6ad-cc1692cf4df3","system_id":"levelo_inurba_marseille","lat":43.33018,"lon":5.39043,"is_reserved":false,"is_disabled":false,"rental_uris":{"android":"levelo://app?vid=5c0e221b-54dc-4307-a6ad-cc1692cf4df3","ios":"levelo://app?vid=5c0e221b-54dc-4307-a6ad-cc1692cf4df3"},"vehicle_type_id":"4","last_reported":1704575167,"current_range_meters":18000,"station_id":"","pricing_plan_id":"free"},{"bike_id":"04ec1a46-291d-4424-964d-42cfee126bb8","system_id":"levelo_inurba_marseille","lat":43.33023,"lon":5.39036,"is_reserved":false,"is_disabled":false,"rental_uris":{"android":"levelo://app?vid=04ec1a46-291d-4424-964d-42cfee126bb8","ios":"levelo://app?vid=04ec1a46-291d-4424-964d-42cfee126bb8"},"vehicle_type_id":"4","last_reported":1704575167,"current_range_meters":23200,"station_id":"","pricing_plan_id":"free"},{"bike_id":"d353198f-eb6b-4a1e-b7b6-607985da16e3","system_id":"levelo_inurba_marseille","lat":43.330442,"lon":5.389148,"is_reserved":false,"is_disabled":false,"rental_uris":{"android":"levelo://app?vid=d353198f-eb6b-4a1e-b7b6-607985da16e3","ios":"levelo://app?vid=d353198f-eb6b-4a1e-b7b6-607985da16e3"},"vehicle_type_id":"4","last_reported":1704575167,"current_range_meters":21600,"station_id":"ce4bhr92rcd13ifvqhrg","pricing_plan_id":"free"},{"bike_id":"7c7a6206-545f-4749-ace7-a0c9f17d3062","system_id":"levelo_inurba_marseille","lat":43.330442,"lon":5.389148,"is_reserved":false,"is_disabled":false,"rental_uris":{"android":"levelo://app?vid=7c7a6206-545f-4749-ace7-a0c9f17d3062","ios":"levelo://app?vid=7c7a6206-545f-4749-ace7-a0c9f17d3062"},"vehicle_type_id":"4","last_reported":1704575167,"current_range_meters":18000,"station_id":"ce4bhr92rcd13ifvqhrg","pricing_plan_id":"free"},{"bike_id":"604d70e1-4bfc-4c1a-ad50-5c45b428d61e","system_id":"levelo_inurba_marseille","lat":43.330442,"lon":5.389148,"is_reserved":false,"is_disabled":false,"rental_uris":{"android":"levelo://app?vid=604d70e1-4bfc-4c1a-ad50-5c45b428d61e","ios":"levelo://app?vid=604d70e1-4bfc-4c1a-ad50-5c45b428d61e"},"vehicle_type_id":"4","last_reported":1704575167,"current_range_meters":22400,"station_id":"ce4bhr92rcd13ifvqhrg","pricing_plan_id":"free"},{"bike_id":"42a2d22f-ce67-446d-ab38-453f93bc49fa","system_id":"levelo_inurba_marseille","lat":43.330442,"lon":5.389148,"is_reserved":false,"is_disabled":false,"rental_uris":{"android":"levelo://app?vid=42a2d22f-ce67-446d-ab38-453f93bc49fa","ios":"levelo://app?vid=42a2d22f-ce67-446d-ab38-453f93bc49fa"},"vehicle_type_id":"4","last_reported":1704575167,"current_range_meters":15600,"station_id":"ce4bhr92rcd13ifvqhrg","pricing_plan_id":"free"},{"bike_id":"6c5eebbe-3606-40f4-b51a-cdf8266c0074","system_id":"levelo_inurba_marseille","lat":43.33024,"lon":5.3904,"is_reserved":false,"is_disabled":false,"rental_uris":{"android":"levelo://app?vid=6c5eebbe-3606-40f4-b51a-cdf8266c0074","ios":"levelo://app?vid=6c5eebbe-3606-40f4-b51a-cdf8266c0074"},"vehicle_type_id":"4","last_reported":1704575167,"current_range_meters":11600,"station_id":"","pricing_plan_id":"free"},{"bike_id":"50a06571-ee32-4006-8417-dd8ead2ab8e4","system_id":"levelo_inurba_marseille","lat":43.3302,"lon":5.39047,"is_reserved":false,"is_disabled":false,"rental_uris":{"android":"levelo://app?vid=50a06571-ee32-4006-8417-dd8ead2ab8e4","ios":"levelo://app?vid=50a06571-ee32-4006-8417-dd8ead2ab8e4"},"vehicle_type_id":"4","last_reported":1704575167,"current_range_meters":28000,"station_id":"","pricing_plan_id":"free"},{"bike_id":"57a59c67-703f-4a83-aae5-f27109cb99b9","system_id":"levelo_inurba_marseille","lat":43.330442,"lon":5.389148,"is_reserved":false,"is_disabled":false,"rental_uris":{"android":"levelo://app?vid=57a59c67-703f-4a83-aae5-f27109cb99b9","ios":"levelo://app?vid=57a59c67-703f-4a83-aae5-f27109cb99b9"},"vehicle_type_id":"4","last_reported":1704575167,"current_range_meters":21600,"station_id":"ce4bhr92rcd13ifvqhrg","pricing_plan_id":"free"},{"bike_id":"8a426083-d925-4221-b0bc-1cf82a72291b","system_id":"levelo_inurba_marseille","lat":43.309371,"lon":5.401449,"is_reserved":false,"is_disabled":false,"rental_uris":{"android":"levelo://app?vid=8a426083-d925-4221-b0bc-1cf82a72291b","ios":"levelo://app?vid=8a426083-d925-4221-b0bc-1cf82a72291b"},"vehicle_type_id":"4","last_reported":1704575167,"current_range_meters":19600,"station_id":"ce4bgvp2rcd13ifvqct0","pricing_plan_id":"free"},{"bike_id":"c8150c2e-9fca-4c4a-8d6c-895c5f80e74a","system_id":"levelo_inurba_marseille","lat":43.309371,"lon":5.401449,"is_reserved":false,"is_disabled":false,"rental_uris":{"android":"levelo://app?vid=c8150c2e-9fca-4c4a-8d6c-895c5f80e74a","ios":"levelo://app?vid=c8150c2e-9fca-4c4a-8d6c-895c5f80e74a"},"vehicle_type_id":"4","last_reported":1704575167,"current_range_meters":11200,"station_id":"ce4bgvp2rcd13ifvqct0","pricing_plan_id":"free"},{"bike_id":"c5527485-3bbb-4ad9-ac15-0be0dadc774a","system_id":"levelo_inurba_marseille","lat":43.309371,"lon":5.401449,"is_reserved":false,"is_disabled":false,"rental_uris":{"android":"levelo://app?vid=c5527485-3bbb-4ad9-ac15-0be0dadc774a","ios":"levelo://app?vid=c5527485-3bbb-4ad9-ac15-0be0dadc774a"},"vehicle_type_id":"4","last_reported":1704575167,"current_range_meters":20800,"station_id":"ce4bgvp2rcd13ifvqct0","pricing_plan_id":"free"},{"bike_id":"81925df8-5837-45ce-ad10-0e4e1edaece0","system_id":"levelo_inurba_marseille","lat":43.30641,"lon":5.40077,"is_reserved":false,"is_disabled":false,"rental_uris":{"android":"levelo://app?vid=81925df8-5837-45ce-ad10-0e4e1edaece0","ios":"levelo://app?vid=81925df8-5837-45ce-ad10-0e4e1edaece0"},"vehicle_type_id":"4","last_reported":1704575167,"current_range_meters":12000,"station_id":"ce4bh112rcd13ifvqda0","pricing_plan_id":"free"},{"bike_id":"01d6c0a7-ee14-409a-8ec5-8458281114ad","system_id":"levelo_inurba_marseille","lat":43.286591,"lon":5.363346,"is_reserved":false,"is_disabled":false,"rental_uris":{"android":"levelo://app?vid=01d6c0a7-ee14-409a-8ec5-8458281114ad","ios":"levelo://app?vid=01d6c0a7-ee14-409a-8ec5-8458281114ad"},"vehicle_type_id":"4","last_reported":1704575167,"current_range_meters":11200,"station_id":"ce4bhah2rcd13ifvqej0","pricing_plan_id":"free"},{"bike_id":"1f4f2027-8ae0-4707-a139-5c587877b71b","system_id":"levelo_inurba_marseille","lat":43.298681,"lon":5.397225,"is_reserved":false,"is_disabled":false,"rental_uris":{"android":"levelo://app?vid=1f4f2027-8ae0-4707-a139-5c587877b71b","ios":"levelo://app?vid=1f4f2027-8ae0-4707-a139-5c587877b71b"},"vehicle_type_id":"4","last_reported":1704575167,"current_range_meters":22000,"station_id":"ce4bh0h2rcd13ifvqd50","pricing_plan_id":"free"},{"bike_id":"5c53de44-99cc-4112-ab13-0c2ed9659f54","system_id":"levelo_inurba_marseille","lat":43.286961,"lon":5.373785,"is_reserved":false,"is_disabled":false,"rental_uris":{"android":"levelo://app?vid=5c53de44-99cc-4112-ab13-0c2ed9659f54","ios":"levelo://app?vid=5c53de44-99cc-4112-ab13-0c2ed9659f54"},"vehicle_type_id":"4","last_reported":1704575167,"current_range_meters":30400,"station_id":"ce4bh3p2rcd13ifvqdq0","pricing_plan_id":"free"},{"bike_id":"06241773-fd5b-4491-b754-8a09544cf718","system_id":"levelo_inurba_marseille","lat":43.298681,"lon":5.397225,"is_reserved":false,"is_disabled":false,"rental_uris":{"android":"levelo://app?vid=06241773-fd5b-4491-b754-8a09544cf718","ios":"levelo://app?vid=06241773-fd5b-4491-b754-8a09544cf718"},"vehicle_type_id":"4","last_reported":1704575167,"current_range_meters":4800,"station_id":"ce4bh0h2rcd13ifvqd50","pricing_plan_id":"free"},{"bike_id":"accc40e1-9258-4b2d-9d83-2cbcfb368755","system_id":"levelo_inurba_marseille","lat":43.286593,"lon":5.363346,"is_reserved":false,"is_disabled":false,"rental_uris":{"android":"levelo://app?vid=accc40e1-9258-4b2d-9d83-2cbcfb368755","ios":"levelo://app?vid=accc40e1-9258-4b2d-9d83-2cbcfb368755"},"vehicle_type_id":"4","last_reported":1704575167,"current_range_meters":28000,"station_id":"ce4bhah2rcd13ifvqej0","pricing_plan_id":"free"},{"bike_id":"ac5056cf-8b40-44a0-aad3-bc4037f1358d","system_id":"levelo_inurba_marseille","lat":43.286961,"lon":5.373785,"is_reserved":false,"is_disabled":false,"rental_uris":{"android":"levelo://app?vid=ac5056cf-8b40-44a0-aad3-bc4037f1358d","ios":"levelo://app?vid=ac5056cf-8b40-44a0-aad3-bc4037f1358d"},"vehicle_type_id":"4","last_reported":1704575167,"current_range_meters":26400,"station_id":"ce4bh3p2rcd13ifvqdq0","pricing_plan_id":"free"},{"bike_id":"6c976029-5e7e-4dd8-bfaa-4c5c5ee6fad0","system_id":"levelo_inurba_marseille","lat":43.286039,"lon":5.370679,"is_reserved":false,"is_disabled":false,"rental_uris":{"android":"levelo://app?vid=6c976029-5e7e-4dd8-bfaa-4c5c5ee6fad0","ios":"levelo://app?vid=6c976029-5e7e-4dd8-bfaa-4c5c5ee6fad0"},"vehicle_type_id":"4","last_reported":1704575167,"current_range_meters":26400,"station_id":"ce4bht12rcd13ifvqi60","pricing_plan_id":"free"},{"bike_id":"3d586703-e7c7-4c93-820c-cc285dc4e8ac","system_id":"levelo_inurba_marseille","lat":43.286039,"lon":5.370681,"is_reserved":false,"is_disabled":false,"rental_uris":{"android":"levelo://app?vid=3d586703-e7c7-4c93-820c-cc285dc4e8ac","ios":"levelo://app?vid=3d586703-e7c7-4c93-820c-cc285dc4e8ac"},"vehicle_type_id":"4","last_reported":1704575167,"current_range_meters":9200,"station_id":"ce4bht12rcd13ifvqi60","pricing_plan_id":"free"},{"bike_id":"04354081-9e48-4217-a408-35aca2faae90","system_id":"levelo_inurba_marseille","lat":43.28719,"lon":5.37923,"is_reserved":false,"is_disabled":false,"rental_uris":{"android":"levelo://app?vid=04354081-9e48-4217-a408-35aca2faae90","ios":"levelo://app?vid=04354081-9e48-4217-a408-35aca2faae90"},"vehicle_type_id":"4","last_reported":1704575167,"current_range_meters":6400,"station_id":"ce4bh9p2rcd13ifvqec0","pricing_plan_id":"free"},{"bike_id":"103fee8d-d576-4560-a3bb-1c6c7a60b117","system_id":"levelo_inurba_marseille","lat":43.316828,"lon":5.404723,"is_reserved":false,"is_disabled":false,"rental_uris":{"android":"levelo://app?vid=103fee8d-d576-4560-a3bb-1c6c7a60b117","ios":"levelo://app?vid=103fee8d-d576-4560-a3bb-1c6c7a60b117"},"vehicle_type_id":"4","last_reported":1704575167,"current_range_meters":10400,"station_id":"ce4bh012rcd13ifvqd00","pricing_plan_id":"free"},{"bike_id":"dc904c4f-032c-4c41-afb9-db003ae57db5","system_id":"levelo_inurba_marseille","lat":43.316828,"lon":5.404723,"is_reserved":false,"is_disabled":false,"rental_uris":{"android":"levelo://app?vid=dc904c4f-032c-4c41-afb9-db003ae57db5","ios":"levelo://app?vid=dc904c4f-032c-4c41-afb9-db003ae57db5"},"vehicle_type_id":"4","last_reported":1704575167,"current_range_meters":12400,"station_id":"ce4bh012rcd13ifvqd00","pricing_plan_id":"free"},{"bike_id":"ecc718c0-b93d-4766-9287-bf8f4f71c467","system_id":"levelo_inurba_marseille","lat":43.316821,"lon":5.404737,"is_reserved":false,"is_disabled":false,"rental_uris":{"android":"levelo://app?vid=ecc718c0-b93d-4766-9287-bf8f4f71c467","ios":"levelo://app?vid=ecc718c0-b93d-4766-9287-bf8f4f71c467"},"vehicle_type_id":"4","last_reported":1704575167,"current_range_meters":20400,"station_id":"ce4bh012rcd13ifvqd00","pricing_plan_id":"free"},{"bike_id":"e37d53c3-994c-4ffc-83c6-fc733491c5d7","system_id":"levelo_inurba_marseille","lat":43.291994,"lon":5.392907,"is_reserved":false,"is_disabled":false,"rental_uris":{"android":"levelo://app?vid=e37d53c3-994c-4ffc-83c6-fc733491c5d7","ios":"levelo://app?vid=e37d53c3-994c-4ffc-83c6-fc733491c5d7"},"vehicle_type_id":"4","last_reported":1704575167,"current_range_meters":14000,"station_id":"ce4bh192rcd13ifvqdd0","pricing_plan_id":"free"},{"bike_id":"7c725a1a-e162-4f90-b9ab-605d5eb03c6f","system_id":"levelo_inurba_marseille","lat":43.291994,"lon":5.392907,"is_reserved":false,"is_disabled":false,"rental_uris":{"android":"levelo://app?vid=7c725a1a-e162-4f90-b9ab-605d5eb03c6f","ios":"levelo://app?vid=7c725a1a-e162-4f90-b9ab-605d5eb03c6f"},"vehicle_type_id":"4","last_reported":1704575167,"current_range_meters":31600,"station_id":"ce4bh192rcd13ifvqdd0","pricing_plan_id":"free"},{"bike_id":"e3e93e6b-1b38-4930-9e6a-2292e3fec59a","system_id":"levelo_inurba_marseille","lat":43.291994,"lon":5.392907,"is_reserved":false,"is_disabled":false,"rental_uris":{"android":"levelo://app?vid=e3e93e6b-1b38-4930-9e6a-2292e3fec59a","ios":"levelo://app?vid=e3e93e6b-1b38-4930-9e6a-2292e3fec59a"},"vehicle_type_id":"4","last_reported":1704575167,"current_range_meters":18400,"station_id":"ce4bh192rcd13ifvqdd0","pricing_plan_id":"free"},{"bike_id":"733e0c96-b6fb-4506-aa18-1e9626ef7df1","system_id":"levelo_inurba_marseille","lat":43.291994,"lon":5.392907,"is_reserved":false,"is_disabled":false,"rental_uris":{"android":"levelo://app?vid=733e0c96-b6fb-4506-aa18-1e9626ef7df1","ios":"levelo://app?vid=733e0c96-b6fb-4506-aa18-1e9626ef7df1"},"vehicle_type_id":"4","last_reported":1704575167,"current_range_meters":22000,"station_id":"ce4bh192rcd13ifvqdd0","pricing_plan_id":"free"},{"bike_id":"9f5343ef-e351-4163-b3ef-c0bc857a5878","system_id":"levelo_inurba_marseille","lat":43.284534,"lon":5.358662,"is_reserved":false,"is_disabled":false,"rental_uris":{"android":"levelo://app?vid=9f5343ef-e351-4163-b3ef-c0bc857a5878","ios":"levelo://app?vid=9f5343ef-e351-4163-b3ef-c0bc857a5878"},"vehicle_type_id":"4","last_reported":1704575167,"current_range_meters":0,"station_id":"ce4bhah2rcd13ifvqei0","pricing_plan_id":"free"},{"bike_id":"9aa9c4cc-f4d7-468d-af2c-12a6b45ba393","system_id":"levelo_inurba_marseille","lat":43.284538,"lon":5.358657,"is_reserved":false,"is_disabled":false,"rental_uris":{"android":"levelo://app?vid=9aa9c4cc-f4d7-468d-af2c-12a6b45ba393","ios":"levelo://app?vid=9aa9c4cc-f4d7-468d-af2c-12a6b45ba393"},"vehicle_type_id":"4","last_reported":1704575167,"current_range_meters":20800,"station_id":"ce4bhah2rcd13ifvqei0","pricing_plan_id":"free"},{"bike_id":"eab18bf7-4c2d-449d-974a-d2ffb3b73fde","system_id":"levelo_inurba_marseille","lat":43.284534,"lon":5.358662,"is_reserved":false,"is_disabled":false,"rental_uris":{"android":"levelo://app?vid=eab18bf7-4c2d-449d-974a-d2ffb3b73fde","ios":"levelo://app?vid=eab18bf7-4c2d-449d-974a-d2ffb3b73fde"},"vehicle_type_id":"4","last_reported":1704575167,"current_range_meters":18400,"station_id":"ce4bhah2rcd13ifvqei0","pricing_plan_id":"free"},{"bike_id":"e8ddf66a-d915-44e7-9d09-ba737474cd09","system_id":"levelo_inurba_marseille","lat":43.284538,"lon":5.358657,"is_reserved":false,"is_disabled":false,"rental_uris":{"android":"levelo://app?vid=e8ddf66a-d915-44e7-9d09-ba737474cd09","ios":"levelo://app?vid=e8ddf66a-d915-44e7-9d09-ba737474cd09"},"vehicle_type_id":"4","last_reported":1704575167,"current_range_meters":16800,"station_id":"ce4bhah2rcd13ifvqei0","pricing_plan_id":"free"},{"bike_id":"fb57a4ce-b80e-4e72-9b44-0357d82d3002","system_id":"levelo_inurba_marseille","lat":43.285848,"lon":5.350787,"is_reserved":false,"is_disabled":false,"rental_uris":{"android":"levelo://app?vid=fb57a4ce-b80e-4e72-9b44-0357d82d3002","ios":"levelo://app?vid=fb57a4ce-b80e-4e72-9b44-0357d82d3002"},"vehicle_type_id":"4","last_reported":1704575167,"current_range_meters":22800,"station_id":"ce4bhch2rcd13ifvqeug","pricing_plan_id":"free"},{"bike_id":"96910b03-f01f-4ccf-9e76-9a065bfbbec5","system_id":"levelo_inurba_marseille","lat":43.285856,"lon":5.350771,"is_reserved":false,"is_disabled":false,"rental_uris":{"android":"levelo://app?vid=96910b03-f01f-4ccf-9e76-9a065bfbbec5","ios":"levelo://app?vid=96910b03-f01f-4ccf-9e76-9a065bfbbec5"},"vehicle_type_id":"4","last_reported":1704575167,"current_range_meters":30800,"station_id":"ce4bhch2rcd13ifvqeug","pricing_plan_id":"free"},{"bike_id":"77dcd9db-8541-482e-80ea-3465701dc93c","system_id":"levelo_inurba_marseille","lat":43.285856,"lon":5.350771,"is_reserved":false,"is_disabled":false,"rental_uris":{"android":"levelo://app?vid=77dcd9db-8541-482e-80ea-3465701dc93c","ios":"levelo://app?vid=77dcd9db-8541-482e-80ea-3465701dc93c"},"vehicle_type_id":"4","last_reported":1704575167,"current_range_meters":18000,"station_id":"ce4bhch2rcd13ifvqeug","pricing_plan_id":"free"},{"bike_id":"e7e08145-4601-41a4-9b39-d7f05b7c27b0","system_id":"levelo_inurba_marseille","lat":43.285856,"lon":5.350771,"is_reserved":false,"is_disabled":false,"rental_uris":{"android":"levelo://app?vid=e7e08145-4601-41a4-9b39-d7f05b7c27b0","ios":"levelo://app?vid=e7e08145-4601-41a4-9b39-d7f05b7c27b0"},"vehicle_type_id":"4","last_reported":1704575167,"current_range_meters":9600,"station_id":"ce4bhch2rcd13ifvqeug","pricing_plan_id":"free"},{"bike_id":"8ae8fd29-973b-477c-9463-de857e7f5178","system_id":"levelo_inurba_marseille","lat":43.285856,"lon":5.350771,"is_reserved":false,"is_disabled":false,"rental_uris":{"android":"levelo://app?vid=8ae8fd29-973b-477c-9463-de857e7f5178","ios":"levelo://app?vid=8ae8fd29-973b-477c-9463-de857e7f5178"},"vehicle_type_id":"4","last_reported":1704575167,"current_range_meters":24800,"station_id":"ce4bhch2rcd13ifvqeug","pricing_plan_id":"free"},{"bike_id":"f6d84242-536a-4227-995d-300e54eb18f6","system_id":"levelo_inurba_marseille","lat":43.285856,"lon":5.350771,"is_reserved":false,"is_disabled":false,"rental_uris":{"android":"levelo://app?vid=f6d84242-536a-4227-995d-300e54eb18f6","ios":"levelo://app?vid=f6d84242-536a-4227-995d-300e54eb18f6"},"vehicle_type_id":"4","last_reported":1704575167,"current_range_meters":12000,"station_id":"ce4bhch2rcd13ifvqeug","pricing_plan_id":"free"},{"bike_id":"6dba823a-7470-468c-beea-8f25015feb1d","system_id":"levelo_inurba_marseille","lat":43.28613,"lon":5.35108,"is_reserved":false,"is_disabled":false,"rental_uris":{"android":"levelo://app?vid=6dba823a-7470-468c-beea-8f25015feb1d","ios":"levelo://app?vid=6dba823a-7470-468c-beea-8f25015feb1d"},"vehicle_type_id":"4","last_reported":1704575167,"current_range_meters":14000,"station_id":"ce4bhch2rcd13ifvqeug","pricing_plan_id":"free"},{"bike_id":"154efb84-26fc-49e6-ada6-5bf0c44dd6f0","system_id":"levelo_inurba_marseille","lat":43.285856,"lon":5.350771,"is_reserved":false,"is_disabled":false,"rental_uris":{"android":"levelo://app?vid=154efb84-26fc-49e6-ada6-5bf0c44dd6f0","ios":"levelo://app?vid=154efb84-26fc-49e6-ada6-5bf0c44dd6f0"},"vehicle_type_id":"4","last_reported":1704575167,"current_range_meters":12400,"station_id":"ce4bhch2rcd13ifvqeug","pricing_plan_id":"free"},{"bike_id":"01e59b64-29e9-4e48-86ad-7a3b4b582e04","system_id":"levelo_inurba_marseille","lat":43.285856,"lon":5.350771,"is_reserved":false,"is_disabled":false,"rental_uris":{"android":"levelo://app?vid=01e59b64-29e9-4e48-86ad-7a3b4b582e04","ios":"levelo://app?vid=01e59b64-29e9-4e48-86ad-7a3b4b582e04"},"vehicle_type_id":"4","last_reported":1704575167,"current_range_meters":29600,"station_id":"ce4bhch2rcd13ifvqeug","pricing_plan_id":"free"},{"bike_id":"43b3ea92-a636-409a-a2bf-2cfcdf83346d","system_id":"levelo_inurba_marseille","lat":43.285856,"lon":5.350771,"is_reserved":false,"is_disabled":false,"rental_uris":{"android":"levelo://app?vid=43b3ea92-a636-409a-a2bf-2cfcdf83346d","ios":"levelo://app?vid=43b3ea92-a636-409a-a2bf-2cfcdf83346d"},"vehicle_type_id":"4","last_reported":1704575167,"current_range_meters":27200,"station_id":"ce4bhch2rcd13ifvqeug","pricing_plan_id":"free"},{"bike_id":"5688a380-9bf4-41fc-824e-d906fd2a2179","system_id":"levelo_inurba_marseille","lat":43.285856,"lon":5.350771,"is_reserved":false,"is_disabled":false,"rental_uris":{"android":"levelo://app?vid=5688a380-9bf4-41fc-824e-d906fd2a2179","ios":"levelo://app?vid=5688a380-9bf4-41fc-824e-d906fd2a2179"},"vehicle_type_id":"4","last_reported":1704575167,"current_range_meters":16000,"station_id":"ce4bhch2rcd13ifvqeug","pricing_plan_id":"free"},{"bike_id":"a8a5a961-0292-4b80-81a4-a594170f711e","system_id":"levelo_inurba_marseille","lat":43.285856,"lon":5.350771,"is_reserved":false,"is_disabled":false,"rental_uris":{"android":"levelo://app?vid=a8a5a961-0292-4b80-81a4-a594170f711e","ios":"levelo://app?vid=a8a5a961-0292-4b80-81a4-a594170f711e"},"vehicle_type_id":"4","last_reported":1704575167,"current_range_meters":21200,"station_id":"ce4bhch2rcd13ifvqeug","pricing_plan_id":"free"},{"bike_id":"e7d08906-0d87-4715-8ffa-bdb9be03abd3","system_id":"levelo_inurba_marseille","lat":43.285856,"lon":5.350771,"is_reserved":false,"is_disabled":false,"rental_uris":{"android":"levelo://app?vid=e7d08906-0d87-4715-8ffa-bdb9be03abd3","ios":"levelo://app?vid=e7d08906-0d87-4715-8ffa-bdb9be03abd3"},"vehicle_type_id":"4","last_reported":1704575167,"current_range_meters":20400,"station_id":"ce4bhch2rcd13ifvqeug","pricing_plan_id":"free"},{"bike_id":"ad416916-31a8-43a9-a9e3-26fdda5903b3","system_id":"levelo_inurba_marseille","lat":43.285848,"lon":5.350787,"is_reserved":false,"is_disabled":false,"rental_uris":{"android":"levelo://app?vid=ad416916-31a8-43a9-a9e3-26fdda5903b3","ios":"levelo://app?vid=ad416916-31a8-43a9-a9e3-26fdda5903b3"},"vehicle_type_id":"4","last_reported":1704575167,"current_range_meters":12000,"station_id":"ce4bhch2rcd13ifvqeug","pricing_plan_id":"free"},{"bike_id":"67ac3761-6d22-4242-8a33-e8933ed41b0a","system_id":"levelo_inurba_marseille","lat":43.28418,"lon":5.3752,"is_reserved":false,"is_disabled":false,"rental_uris":{"android":"levelo://app?vid=67ac3761-6d22-4242-8a33-e8933ed41b0a","ios":"levelo://app?vid=67ac3761-6d22-4242-8a33-e8933ed41b0a"},"vehicle_type_id":"4","last_reported":1704575167,"current_range_meters":30800,"station_id":"ce4bh412rcd13ifvqds0","pricing_plan_id":"free"},{"bike_id":"b3721e83-4cd8-4326-bc59-8c0ed4f50f7e","system_id":"levelo_inurba_marseille","lat":43.284124,"lon":5.375289,"is_reserved":false,"is_disabled":false,"rental_uris":{"android":"levelo://app?vid=b3721e83-4cd8-4326-bc59-8c0ed4f50f7e","ios":"levelo://app?vid=b3721e83-4cd8-4326-bc59-8c0ed4f50f7e"},"vehicle_type_id":"4","last_reported":1704575167,"current_range_meters":31200,"station_id":"ce4bh412rcd13ifvqds0","pricing_plan_id":"free"},{"bike_id":"38e7a5b3-9d1e-4c27-9424-19673725fc98","system_id":"levelo_inurba_marseille","lat":43.2841,"lon":5.37535,"is_reserved":false,"is_disabled":false,"rental_uris":{"android":"levelo://app?vid=38e7a5b3-9d1e-4c27-9424-19673725fc98","ios":"levelo://app?vid=38e7a5b3-9d1e-4c27-9424-19673725fc98"},"vehicle_type_id":"4","last_reported":1704575167,"current_range_meters":30000,"station_id":"ce4bh412rcd13ifvqds0","pricing_plan_id":"free"},{"bike_id":"fbad2125-fac4-47af-8aef-bb952a3b5438","system_id":"levelo_inurba_marseille","lat":43.284046,"lon":5.375219,"is_reserved":false,"is_disabled":false,"rental_uris":{"android":"levelo://app?vid=fbad2125-fac4-47af-8aef-bb952a3b5438","ios":"levelo://app?vid=fbad2125-fac4-47af-8aef-bb952a3b5438"},"vehicle_type_id":"4","last_reported":1704575167,"current_range_meters":26800,"station_id":"ce4bh412rcd13ifvqds0","pricing_plan_id":"free"},{"bike_id":"b0d9c37a-12b7-4fcf-b2cc-70034df7a04b","system_id":"levelo_inurba_marseille","lat":43.29814,"lon":5.40188,"is_reserved":false,"is_disabled":false,"rental_uris":{"android":"levelo://app?vid=b0d9c37a-12b7-4fcf-b2cc-70034df7a04b","ios":"levelo://app?vid=b0d9c37a-12b7-4fcf-b2cc-70034df7a04b"},"vehicle_type_id":"4","last_reported":1704575167,"current_range_meters":2400,"station_id":"","pricing_plan_id":"free"},{"bike_id":"f064af56-fb01-4845-95f7-9e2c3a6ddb6b","system_id":"levelo_inurba_marseille","lat":43.286595,"lon":5.386795,"is_reserved":false,"is_disabled":false,"rental_uris":{"android":"levelo://app?vid=f064af56-fb01-4845-95f7-9e2c3a6ddb6b","ios":"levelo://app?vid=f064af56-fb01-4845-95f7-9e2c3a6ddb6b"},"vehicle_type_id":"4","last_reported":1704575167,"current_range_meters":0,"station_id":"ce4bh492rcd13ifvqdug","pricing_plan_id":"free"},{"bike_id":"33b5cad4-74c8-451a-8822-f57a3fae057e","system_id":"levelo_inurba_marseille","lat":43.319179,"lon":5.407725,"is_reserved":false,"is_disabled":false,"rental_uris":{"android":"levelo://app?vid=33b5cad4-74c8-451a-8822-f57a3fae057e","ios":"levelo://app?vid=33b5cad4-74c8-451a-8822-f57a3fae057e"},"vehicle_type_id":"4","last_reported":1704575167,"current_range_meters":26800,"station_id":"ce4bhq12rcd13ifvqhig","pricing_plan_id":"free"},{"bike_id":"002b4379-69d7-41c9-ab53-4de44a1e07fa","system_id":"levelo_inurba_marseille","lat":43.33717,"lon":5.39184,"is_reserved":false,"is_disabled":false,"rental_uris":{"android":"levelo://app?vid=002b4379-69d7-41c9-ab53-4de44a1e07fa","ios":"levelo://app?vid=002b4379-69d7-41c9-ab53-4de44a1e07fa"},"vehicle_type_id":"4","last_reported":1704575167,"current_range_meters":10800,"station_id":"ce4bhr92rcd13ifvqhsg","pricing_plan_id":"free"},{"bike_id":"54bec85a-3ad1-4ccc-9cab-e86a90c0ca6c","system_id":"levelo_inurba_marseille","lat":43.323464,"lon":5.406297,"is_reserved":false,"is_disabled":false,"rental_uris":{"android":"levelo://app?vid=54bec85a-3ad1-4ccc-9cab-e86a90c0ca6c","ios":"levelo://app?vid=54bec85a-3ad1-4ccc-9cab-e86a90c0ca6c"},"vehicle_type_id":"4","last_reported":1704575167,"current_range_meters":17600,"station_id":"ce4bhq92rcd13ifvqhjg","pricing_plan_id":"free"},{"bike_id":"f2685c6d-930c-4123-bdc4-4dba79c7a85d","system_id":"levelo_inurba_marseille","lat":43.284793,"lon":5.384113,"is_reserved":false,"is_disabled":false,"rental_uris":{"android":"levelo://app?vid=f2685c6d-930c-4123-bdc4-4dba79c7a85d","ios":"levelo://app?vid=f2685c6d-930c-4123-bdc4-4dba79c7a85d"},"vehicle_type_id":"4","last_reported":1704575167,"current_range_meters":21600,"station_id":"ce4bh512rcd13ifvqe3g","pricing_plan_id":"free"},{"bike_id":"fc693a24-54e9-4fb4-a4cf-f8303d242aa5","system_id":"levelo_inurba_marseille","lat":43.288497,"lon":5.393089,"is_reserved":false,"is_disabled":false,"rental_uris":{"android":"levelo://app?vid=fc693a24-54e9-4fb4-a4cf-f8303d242aa5","ios":"levelo://app?vid=fc693a24-54e9-4fb4-a4cf-f8303d242aa5"},"vehicle_type_id":"4","last_reported":1704575167,"current_range_meters":26800,"station_id":"ce4bh2p2rcd13ifvqdi0","pricing_plan_id":"free"},{"bike_id":"e0c88ecc-04f9-4c5b-b32a-6b5648de092c","system_id":"levelo_inurba_marseille","lat":43.288501,"lon":5.393087,"is_reserved":false,"is_disabled":false,"rental_uris":{"android":"levelo://app?vid=e0c88ecc-04f9-4c5b-b32a-6b5648de092c","ios":"levelo://app?vid=e0c88ecc-04f9-4c5b-b32a-6b5648de092c"},"vehicle_type_id":"4","last_reported":1704575167,"current_range_meters":1600,"station_id":"ce4bh2p2rcd13ifvqdi0","pricing_plan_id":"free"},{"bike_id":"089fd505-dace-46fe-a5f8-d3c86a685bad","system_id":"levelo_inurba_marseille","lat":43.284276,"lon":5.349921,"is_reserved":false,"is_disabled":false,"rental_uris":{"android":"levelo://app?vid=089fd505-dace-46fe-a5f8-d3c86a685bad","ios":"levelo://app?vid=089fd505-dace-46fe-a5f8-d3c86a685bad"},"vehicle_type_id":"4","last_reported":1704575167,"current_range_meters":22400,"station_id":"ce4bhbh2rcd13ifvqepg","pricing_plan_id":"free"},{"bike_id":"74c757a3-57f5-43bc-9cbd-c0caf045d565","system_id":"levelo_inurba_marseille","lat":43.284219,"lon":5.3497,"is_reserved":false,"is_disabled":false,"rental_uris":{"android":"levelo://app?vid=74c757a3-57f5-43bc-9cbd-c0caf045d565","ios":"levelo://app?vid=74c757a3-57f5-43bc-9cbd-c0caf045d565"},"vehicle_type_id":"4","last_reported":1704575167,"current_range_meters":28000,"station_id":"ce4bhbh2rcd13ifvqepg","pricing_plan_id":"free"},{"bike_id":"c3f119c8-a2c3-48cd-a23a-407567ed222b","system_id":"levelo_inurba_marseille","lat":43.284217,"lon":5.349697,"is_reserved":false,"is_disabled":false,"rental_uris":{"android":"levelo://app?vid=c3f119c8-a2c3-48cd-a23a-407567ed222b","ios":"levelo://app?vid=c3f119c8-a2c3-48cd-a23a-407567ed222b"},"vehicle_type_id":"4","last_reported":1704575167,"current_range_meters":31600,"station_id":"ce4bhbh2rcd13ifvqepg","pricing_plan_id":"free"},{"bike_id":"4714bef9-5f38-4c26-b888-7b40cc11f281","system_id":"levelo_inurba_marseille","lat":43.284219,"lon":5.3497,"is_reserved":false,"is_disabled":false,"rental_uris":{"android":"levelo://app?vid=4714bef9-5f38-4c26-b888-7b40cc11f281","ios":"levelo://app?vid=4714bef9-5f38-4c26-b888-7b40cc11f281"},"vehicle_type_id":"4","last_reported":1704575167,"current_range_meters":30000,"station_id":"ce4bhbh2rcd13ifvqepg","pricing_plan_id":"free"},{"bike_id":"5d724bc6-af52-4d46-8d06-42885fe6618d","system_id":"levelo_inurba_marseille","lat":43.284217,"lon":5.349697,"is_reserved":false,"is_disabled":false,"rental_uris":{"android":"levelo://app?vid=5d724bc6-af52-4d46-8d06-42885fe6618d","ios":"levelo://app?vid=5d724bc6-af52-4d46-8d06-42885fe6618d"},"vehicle_type_id":"4","last_reported":1704575167,"current_range_meters":31600,"station_id":"ce4bhbh2rcd13ifvqepg","pricing_plan_id":"free"},{"bike_id":"a2b2319c-8302-4c6c-8e3d-f0397969e6f4","system_id":"levelo_inurba_marseille","lat":43.284217,"lon":5.349697,"is_reserved":false,"is_disabled":false,"rental_uris":{"android":"levelo://app?vid=a2b2319c-8302-4c6c-8e3d-f0397969e6f4","ios":"levelo://app?vid=a2b2319c-8302-4c6c-8e3d-f0397969e6f4"},"vehicle_type_id":"4","last_reported":1704575167,"current_range_meters":13600,"station_id":"ce4bhbh2rcd13ifvqepg","pricing_plan_id":"free"},{"bike_id":"d9053633-3e20-4b04-aade-d069042c0c0a","system_id":"levelo_inurba_marseille","lat":43.284217,"lon":5.349697,"is_reserved":false,"is_disabled":false,"rental_uris":{"android":"levelo://app?vid=d9053633-3e20-4b04-aade-d069042c0c0a","ios":"levelo://app?vid=d9053633-3e20-4b04-aade-d069042c0c0a"},"vehicle_type_id":"4","last_reported":1704575167,"current_range_meters":18400,"station_id":"ce4bhbh2rcd13ifvqepg","pricing_plan_id":"free"},{"bike_id":"0baf3e70-04b3-4d7a-90cb-7b33002d6177","system_id":"levelo_inurba_marseille","lat":43.292724,"lon":5.401131,"is_reserved":false,"is_disabled":false,"rental_uris":{"android":"levelo://app?vid=0baf3e70-04b3-4d7a-90cb-7b33002d6177","ios":"levelo://app?vid=0baf3e70-04b3-4d7a-90cb-7b33002d6177"},"vehicle_type_id":"4","last_reported":1704575167,"current_range_meters":22000,"station_id":"ce4bh312rcd13ifvqdk0","pricing_plan_id":"free"},{"bike_id":"f504af7c-df2b-40ed-b292-73fc5838a0d1","system_id":"levelo_inurba_marseille","lat":43.282744,"lon":5.350533,"is_reserved":false,"is_disabled":false,"rental_uris":{"android":"levelo://app?vid=f504af7c-df2b-40ed-b292-73fc5838a0d1","ios":"levelo://app?vid=f504af7c-df2b-40ed-b292-73fc5838a0d1"},"vehicle_type_id":"4","last_reported":1704575167,"current_range_meters":23200,"station_id":"ce4bhbp2rcd13ifvqerg","pricing_plan_id":"free"},{"bike_id":"52596233-efe2-42f7-a154-9ab226054d49","system_id":"levelo_inurba_marseille","lat":43.282744,"lon":5.350533,"is_reserved":false,"is_disabled":false,"rental_uris":{"android":"levelo://app?vid=52596233-efe2-42f7-a154-9ab226054d49","ios":"levelo://app?vid=52596233-efe2-42f7-a154-9ab226054d49"},"vehicle_type_id":"4","last_reported":1704575167,"current_range_meters":31200,"station_id":"ce4bhbp2rcd13ifvqerg","pricing_plan_id":"free"},{"bike_id":"f8dd31ec-fac5-40aa-bf57-1849aadae574","system_id":"levelo_inurba_marseille","lat":43.282744,"lon":5.350533,"is_reserved":false,"is_disabled":false,"rental_uris":{"android":"levelo://app?vid=f8dd31ec-fac5-40aa-bf57-1849aadae574","ios":"levelo://app?vid=f8dd31ec-fac5-40aa-bf57-1849aadae574"},"vehicle_type_id":"4","last_reported":1704575167,"current_range_meters":26400,"station_id":"ce4bhbp2rcd13ifvqerg","pricing_plan_id":"free"},{"bike_id":"0460cab1-97c5-4774-a16c-e37100078aa5","system_id":"levelo_inurba_marseille","lat":43.282728,"lon":5.350702,"is_reserved":false,"is_disabled":false,"rental_uris":{"android":"levelo://app?vid=0460cab1-97c5-4774-a16c-e37100078aa5","ios":"levelo://app?vid=0460cab1-97c5-4774-a16c-e37100078aa5"},"vehicle_type_id":"4","last_reported":1704575167,"current_range_meters":14400,"station_id":"ce4bhbp2rcd13ifvqerg","pricing_plan_id":"free"},{"bike_id":"fd817817-289b-4ac7-a1d1-8ad432f14ee3","system_id":"levelo_inurba_marseille","lat":43.282744,"lon":5.350533,"is_reserved":false,"is_disabled":false,"rental_uris":{"android":"levelo://app?vid=fd817817-289b-4ac7-a1d1-8ad432f14ee3","ios":"levelo://app?vid=fd817817-289b-4ac7-a1d1-8ad432f14ee3"},"vehicle_type_id":"4","last_reported":1704575167,"current_range_meters":19600,"station_id":"ce4bhbp2rcd13ifvqerg","pricing_plan_id":"free"},{"bike_id":"93f6283d-cf10-4452-8663-b71a2d6dd7f1","system_id":"levelo_inurba_marseille","lat":43.282744,"lon":5.350533,"is_reserved":false,"is_disabled":false,"rental_uris":{"android":"levelo://app?vid=93f6283d-cf10-4452-8663-b71a2d6dd7f1","ios":"levelo://app?vid=93f6283d-cf10-4452-8663-b71a2d6dd7f1"},"vehicle_type_id":"4","last_reported":1704575167,"current_range_meters":23600,"station_id":"ce4bhbp2rcd13ifvqerg","pricing_plan_id":"free"},{"bike_id":"64a3722c-d7b1-4c03-a920-a75f2903e4ba","system_id":"levelo_inurba_marseille","lat":43.282744,"lon":5.350533,"is_reserved":false,"is_disabled":false,"rental_uris":{"android":"levelo://app?vid=64a3722c-d7b1-4c03-a920-a75f2903e4ba","ios":"levelo://app?vid=64a3722c-d7b1-4c03-a920-a75f2903e4ba"},"vehicle_type_id":"4","last_reported":1704575167,"current_range_meters":31200,"station_id":"ce4bhbp2rcd13ifvqerg","pricing_plan_id":"free"},{"bike_id":"c7170c0f-4192-424d-a41c-9fb0826c97a7","system_id":"levelo_inurba_marseille","lat":43.28039,"lon":5.369297,"is_reserved":false,"is_disabled":false,"rental_uris":{"android":"levelo://app?vid=c7170c0f-4192-424d-a41c-9fb0826c97a7","ios":"levelo://app?vid=c7170c0f-4192-424d-a41c-9fb0826c97a7"},"vehicle_type_id":"4","last_reported":1704575167,"current_range_meters":23600,"station_id":"ce4bha12rcd13ifvqef0","pricing_plan_id":"free"},{"bike_id":"1f0fa8e9-8e9e-4514-bbf0-3884a138f6fe","system_id":"levelo_inurba_marseille","lat":43.28039,"lon":5.369297,"is_reserved":false,"is_disabled":false,"rental_uris":{"android":"levelo://app?vid=1f0fa8e9-8e9e-4514-bbf0-3884a138f6fe","ios":"levelo://app?vid=1f0fa8e9-8e9e-4514-bbf0-3884a138f6fe"},"vehicle_type_id":"4","last_reported":1704575167,"current_range_meters":27600,"station_id":"ce4bha12rcd13ifvqef0","pricing_plan_id":"free"},{"bike_id":"21804342-5a63-4a0e-ad51-7b719089cba5","system_id":"levelo_inurba_marseille","lat":43.28039,"lon":5.369297,"is_reserved":false,"is_disabled":false,"rental_uris":{"android":"levelo://app?vid=21804342-5a63-4a0e-ad51-7b719089cba5","ios":"levelo://app?vid=21804342-5a63-4a0e-ad51-7b719089cba5"},"vehicle_type_id":"4","last_reported":1704575167,"current_range_meters":28000,"station_id":"ce4bha12rcd13ifvqef0","pricing_plan_id":"free"},{"bike_id":"b8a1237f-fa5e-4e7d-91fc-20954cd1bc9e","system_id":"levelo_inurba_marseille","lat":43.296263,"lon":5.40601,"is_reserved":false,"is_disabled":false,"rental_uris":{"android":"levelo://app?vid=b8a1237f-fa5e-4e7d-91fc-20954cd1bc9e","ios":"levelo://app?vid=b8a1237f-fa5e-4e7d-91fc-20954cd1bc9e"},"vehicle_type_id":"4","last_reported":1704575167,"current_range_meters":25600,"station_id":"ce4bh0h2rcd13ifvqd60","pricing_plan_id":"free"},{"bike_id":"c1b42a69-46de-4daf-9ffe-19d166ca7f58","system_id":"levelo_inurba_marseille","lat":43.281044,"lon":5.378308,"is_reserved":false,"is_disabled":false,"rental_uris":{"android":"levelo://app?vid=c1b42a69-46de-4daf-9ffe-19d166ca7f58","ios":"levelo://app?vid=c1b42a69-46de-4daf-9ffe-19d166ca7f58"},"vehicle_type_id":"4","last_reported":1704575167,"current_range_meters":26000,"station_id":"ce4bha12rcd13ifvqee0","pricing_plan_id":"free"},{"bike_id":"04716975-64cb-4ccb-b4f1-ba80fdd9de24","system_id":"levelo_inurba_marseille","lat":43.281044,"lon":5.378308,"is_reserved":false,"is_disabled":false,"rental_uris":{"android":"levelo://app?vid=04716975-64cb-4ccb-b4f1-ba80fdd9de24","ios":"levelo://app?vid=04716975-64cb-4ccb-b4f1-ba80fdd9de24"},"vehicle_type_id":"4","last_reported":1704575167,"current_range_meters":22800,"station_id":"ce4bha12rcd13ifvqee0","pricing_plan_id":"free"},{"bike_id":"14acf763-d3d0-4928-9e27-ba6d03a9beb6","system_id":"levelo_inurba_marseille","lat":43.296263,"lon":5.40601,"is_reserved":false,"is_disabled":false,"rental_uris":{"android":"levelo://app?vid=14acf763-d3d0-4928-9e27-ba6d03a9beb6","ios":"levelo://app?vid=14acf763-d3d0-4928-9e27-ba6d03a9beb6"},"vehicle_type_id":"4","last_reported":1704575167,"current_range_meters":15600,"station_id":"ce4bh0h2rcd13ifvqd60","pricing_plan_id":"free"},{"bike_id":"044496cc-6e0a-4070-8db2-3481ec2f2469","system_id":"levelo_inurba_marseille","lat":43.28573,"lon":5.394992,"is_reserved":false,"is_disabled":false,"rental_uris":{"android":"levelo://app?vid=044496cc-6e0a-4070-8db2-3481ec2f2469","ios":"levelo://app?vid=044496cc-6e0a-4070-8db2-3481ec2f2469"},"vehicle_type_id":"4","last_reported":1704575167,"current_range_meters":7200,"station_id":"ce4bh292rcd13ifvqdg0","pricing_plan_id":"free"},{"bike_id":"a6faecf3-116a-4e63-9a7d-a0405b58bcd9","system_id":"levelo_inurba_marseille","lat":43.285742,"lon":5.395004,"is_reserved":false,"is_disabled":false,"rental_uris":{"android":"levelo://app?vid=a6faecf3-116a-4e63-9a7d-a0405b58bcd9","ios":"levelo://app?vid=a6faecf3-116a-4e63-9a7d-a0405b58bcd9"},"vehicle_type_id":"4","last_reported":1704575167,"current_range_meters":25600,"station_id":"ce4bh292rcd13ifvqdg0","pricing_plan_id":"free"},{"bike_id":"73b7c303-bb17-492e-9d0f-94d5ac695eac","system_id":"levelo_inurba_marseille","lat":43.32664,"lon":5.40983,"is_reserved":false,"is_disabled":false,"rental_uris":{"android":"levelo://app?vid=73b7c303-bb17-492e-9d0f-94d5ac695eac","ios":"levelo://app?vid=73b7c303-bb17-492e-9d0f-94d5ac695eac"},"vehicle_type_id":"4","last_reported":1704575167,"current_range_meters":19600,"station_id":"ce4bhpp2rcd13ifvqhgg","pricing_plan_id":"free"},{"bike_id":"a0d20dd8-a3b3-4fa3-a6e9-2896226abf35","system_id":"levelo_inurba_marseille","lat":43.326605,"lon":5.409903,"is_reserved":false,"is_disabled":false,"rental_uris":{"android":"levelo://app?vid=a0d20dd8-a3b3-4fa3-a6e9-2896226abf35","ios":"levelo://app?vid=a0d20dd8-a3b3-4fa3-a6e9-2896226abf35"},"vehicle_type_id":"4","last_reported":1704575167,"current_range_meters":9600,"station_id":"ce4bhpp2rcd13ifvqhgg","pricing_plan_id":"free"},{"bike_id":"804748a1-919c-4286-95e2-023037287763","system_id":"levelo_inurba_marseille","lat":43.326605,"lon":5.409903,"is_reserved":false,"is_disabled":false,"rental_uris":{"android":"levelo://app?vid=804748a1-919c-4286-95e2-023037287763","ios":"levelo://app?vid=804748a1-919c-4286-95e2-023037287763"},"vehicle_type_id":"4","last_reported":1704575167,"current_range_meters":30800,"station_id":"ce4bhpp2rcd13ifvqhgg","pricing_plan_id":"free"},{"bike_id":"6bcc2d9f-ce8b-4eda-944e-d3d8c9887e44","system_id":"levelo_inurba_marseille","lat":43.304188,"lon":5.412904,"is_reserved":false,"is_disabled":false,"rental_uris":{"android":"levelo://app?vid=6bcc2d9f-ce8b-4eda-944e-d3d8c9887e44","ios":"levelo://app?vid=6bcc2d9f-ce8b-4eda-944e-d3d8c9887e44"},"vehicle_type_id":"4","last_reported":1704575167,"current_range_meters":19600,"station_id":"ce4bhop2rcd13ifvqh8g","pricing_plan_id":"free"},{"bike_id":"1629d957-45c5-442b-80d3-d8f389f845e9","system_id":"levelo_inurba_marseille","lat":43.30413,"lon":5.41284,"is_reserved":false,"is_disabled":false,"rental_uris":{"android":"levelo://app?vid=1629d957-45c5-442b-80d3-d8f389f845e9","ios":"levelo://app?vid=1629d957-45c5-442b-80d3-d8f389f845e9"},"vehicle_type_id":"4","last_reported":1704575167,"current_range_meters":23600,"station_id":"ce4bhop2rcd13ifvqh8g","pricing_plan_id":"free"},{"bike_id":"6b32fc1f-04a9-4fe2-b9d5-f7ed7bb851d8","system_id":"levelo_inurba_marseille","lat":43.30414,"lon":5.41286,"is_reserved":false,"is_disabled":false,"rental_uris":{"android":"levelo://app?vid=6b32fc1f-04a9-4fe2-b9d5-f7ed7bb851d8","ios":"levelo://app?vid=6b32fc1f-04a9-4fe2-b9d5-f7ed7bb851d8"},"vehicle_type_id":"4","last_reported":1704575167,"current_range_meters":6400,"station_id":"ce4bhop2rcd13ifvqh8g","pricing_plan_id":"free"},{"bike_id":"de20d667-0342-4dd6-80aa-fc923ac7a4b9","system_id":"levelo_inurba_marseille","lat":43.30414,"lon":5.4129,"is_reserved":false,"is_disabled":false,"rental_uris":{"android":"levelo://app?vid=de20d667-0342-4dd6-80aa-fc923ac7a4b9","ios":"levelo://app?vid=de20d667-0342-4dd6-80aa-fc923ac7a4b9"},"vehicle_type_id":"4","last_reported":1704575167,"current_range_meters":16000,"station_id":"ce4bhop2rcd13ifvqh8g","pricing_plan_id":"free"},{"bike_id":"3d351d06-0266-45af-8adb-554012353f4c","system_id":"levelo_inurba_marseille","lat":43.304205,"lon":5.412952,"is_reserved":false,"is_disabled":false,"rental_uris":{"android":"levelo://app?vid=3d351d06-0266-45af-8adb-554012353f4c","ios":"levelo://app?vid=3d351d06-0266-45af-8adb-554012353f4c"},"vehicle_type_id":"4","last_reported":1704575167,"current_range_meters":29200,"station_id":"ce4bhop2rcd13ifvqh8g","pricing_plan_id":"free"},{"bike_id":"42cbd23f-a351-4504-8913-fdf670468387","system_id":"levelo_inurba_marseille","lat":43.304127,"lon":5.412926,"is_reserved":false,"is_disabled":false,"rental_uris":{"android":"levelo://app?vid=42cbd23f-a351-4504-8913-fdf670468387","ios":"levelo://app?vid=42cbd23f-a351-4504-8913-fdf670468387"},"vehicle_type_id":"4","last_reported":1704575167,"current_range_meters":1200,"station_id":"ce4bhop2rcd13ifvqh8g","pricing_plan_id":"free"},{"bike_id":"34d0ac35-3ac7-4b8b-a1c5-105fd039b867","system_id":"levelo_inurba_marseille","lat":43.30412,"lon":5.41295,"is_reserved":false,"is_disabled":false,"rental_uris":{"android":"levelo://app?vid=34d0ac35-3ac7-4b8b-a1c5-105fd039b867","ios":"levelo://app?vid=34d0ac35-3ac7-4b8b-a1c5-105fd039b867"},"vehicle_type_id":"4","last_reported":1704575167,"current_range_meters":12000,"station_id":"ce4bhop2rcd13ifvqh8g","pricing_plan_id":"free"},{"bike_id":"e8742fff-3141-4a75-a555-585253c6281c","system_id":"levelo_inurba_marseille","lat":43.299579,"lon":5.413255,"is_reserved":false,"is_disabled":false,"rental_uris":{"android":"levelo://app?vid=e8742fff-3141-4a75-a555-585253c6281c","ios":"levelo://app?vid=e8742fff-3141-4a75-a555-585253c6281c"},"vehicle_type_id":"4","last_reported":1704575167,"current_range_meters":30000,"station_id":"ce4bhp12rcd13ifvqh9g","pricing_plan_id":"free"},{"bike_id":"c091dd33-318a-4a7a-b50f-997c9e30af63","system_id":"levelo_inurba_marseille","lat":43.299574,"lon":5.413234,"is_reserved":false,"is_disabled":false,"rental_uris":{"android":"levelo://app?vid=c091dd33-318a-4a7a-b50f-997c9e30af63","ios":"levelo://app?vid=c091dd33-318a-4a7a-b50f-997c9e30af63"},"vehicle_type_id":"4","last_reported":1704575167,"current_range_meters":29600,"station_id":"ce4bhp12rcd13ifvqh9g","pricing_plan_id":"free"},{"bike_id":"c46133e4-27aa-48f8-bead-41342bf92c5d","system_id":"levelo_inurba_marseille","lat":43.279742,"lon":5.38744,"is_reserved":false,"is_disabled":false,"rental_uris":{"android":"levelo://app?vid=c46133e4-27aa-48f8-bead-41342bf92c5d","ios":"levelo://app?vid=c46133e4-27aa-48f8-bead-41342bf92c5d"},"vehicle_type_id":"4","last_reported":1704575167,"current_range_meters":8000,"station_id":"ce4bhg12rcd13ifvqf80","pricing_plan_id":"free"},{"bike_id":"141d8f62-d431-4979-8358-54f524263357","system_id":"levelo_inurba_marseille","lat":43.32535,"lon":5.41455,"is_reserved":false,"is_disabled":false,"rental_uris":{"android":"levelo://app?vid=141d8f62-d431-4979-8358-54f524263357","ios":"levelo://app?vid=141d8f62-d431-4979-8358-54f524263357"},"vehicle_type_id":"4","last_reported":1704575167,"current_range_meters":21200,"station_id":"ce4bhq12rcd13ifvqhhg","pricing_plan_id":"free"},{"bike_id":"eb3e230f-92a1-40ed-b64a-0ce99be0436e","system_id":"levelo_inurba_marseille","lat":43.28083,"lon":5.3966,"is_reserved":false,"is_disabled":false,"rental_uris":{"android":"levelo://app?vid=eb3e230f-92a1-40ed-b64a-0ce99be0436e","ios":"levelo://app?vid=eb3e230f-92a1-40ed-b64a-0ce99be0436e"},"vehicle_type_id":"4","last_reported":1704575167,"current_range_meters":0,"station_id":"ce4bho12rcd13ifvqh2g","pricing_plan_id":"free"},{"bike_id":"29a481a7-2edc-4a0f-8037-745cf30cfd87","system_id":"levelo_inurba_marseille","lat":43.2798,"lon":5.39472,"is_reserved":false,"is_disabled":false,"rental_uris":{"android":"levelo://app?vid=29a481a7-2edc-4a0f-8037-745cf30cfd87","ios":"levelo://app?vid=29a481a7-2edc-4a0f-8037-745cf30cfd87"},"vehicle_type_id":"4","last_reported":1704575167,"current_range_meters":15200,"station_id":"","pricing_plan_id":"free"},{"bike_id":"48ae1ea2-8d09-42be-864e-4461b750428f","system_id":"levelo_inurba_marseille","lat":43.303837,"lon":5.418724,"is_reserved":false,"is_disabled":false,"rental_uris":{"android":"levelo://app?vid=48ae1ea2-8d09-42be-864e-4461b750428f","ios":"levelo://app?vid=48ae1ea2-8d09-42be-864e-4461b750428f"},"vehicle_type_id":"4","last_reported":1704575167,"current_range_meters":24000,"station_id":"ce4bhop2rcd13ifvqh7g","pricing_plan_id":"free"},{"bike_id":"9c283331-e35c-4907-bc1d-05046942f50d","system_id":"levelo_inurba_marseille","lat":43.303837,"lon":5.418724,"is_reserved":false,"is_disabled":false,"rental_uris":{"android":"levelo://app?vid=9c283331-e35c-4907-bc1d-05046942f50d","ios":"levelo://app?vid=9c283331-e35c-4907-bc1d-05046942f50d"},"vehicle_type_id":"4","last_reported":1704575167,"current_range_meters":15600,"station_id":"ce4bhop2rcd13ifvqh7g","pricing_plan_id":"free"},{"bike_id":"65dffadf-43e6-4e86-87fa-ee2c73e6a3f8","system_id":"levelo_inurba_marseille","lat":43.278401,"lon":5.392152,"is_reserved":false,"is_disabled":false,"rental_uris":{"android":"levelo://app?vid=65dffadf-43e6-4e86-87fa-ee2c73e6a3f8","ios":"levelo://app?vid=65dffadf-43e6-4e86-87fa-ee2c73e6a3f8"},"vehicle_type_id":"4","last_reported":1704575167,"current_range_meters":7200,"station_id":"ce4bhjp2rcd13ifvqga0","pricing_plan_id":"free"},{"bike_id":"f8d6d231-360c-41e0-8ff9-938a1009ecda","system_id":"levelo_inurba_marseille","lat":43.278401,"lon":5.392152,"is_reserved":false,"is_disabled":false,"rental_uris":{"android":"levelo://app?vid=f8d6d231-360c-41e0-8ff9-938a1009ecda","ios":"levelo://app?vid=f8d6d231-360c-41e0-8ff9-938a1009ecda"},"vehicle_type_id":"4","last_reported":1704575167,"current_range_meters":23600,"station_id":"ce4bhjp2rcd13ifvqga0","pricing_plan_id":"free"},{"bike_id":"57ac9b20-dde9-4166-b14e-0a3136efd138","system_id":"levelo_inurba_marseille","lat":43.276771,"lon":5.388799,"is_reserved":false,"is_disabled":false,"rental_uris":{"android":"levelo://app?vid=57ac9b20-dde9-4166-b14e-0a3136efd138","ios":"levelo://app?vid=57ac9b20-dde9-4166-b14e-0a3136efd138"},"vehicle_type_id":"4","last_reported":1704575167,"current_range_meters":31200,"station_id":"ce4bhi12rcd13ifvqfo0","pricing_plan_id":"free"},{"bike_id":"bd6e81a9-2696-4844-856e-19892e6c042b","system_id":"levelo_inurba_marseille","lat":43.276771,"lon":5.388799,"is_reserved":false,"is_disabled":false,"rental_uris":{"android":"levelo://app?vid=bd6e81a9-2696-4844-856e-19892e6c042b","ios":"levelo://app?vid=bd6e81a9-2696-4844-856e-19892e6c042b"},"vehicle_type_id":"4","last_reported":1704575167,"current_range_meters":22000,"station_id":"ce4bhi12rcd13ifvqfo0","pricing_plan_id":"free"},{"bike_id":"389599e8-e61d-4b80-ae3d-7f26a8b1868f","system_id":"levelo_inurba_marseille","lat":43.279952,"lon":5.400085,"is_reserved":false,"is_disabled":false,"rental_uris":{"android":"levelo://app?vid=389599e8-e61d-4b80-ae3d-7f26a8b1868f","ios":"levelo://app?vid=389599e8-e61d-4b80-ae3d-7f26a8b1868f"},"vehicle_type_id":"4","last_reported":1704575167,"current_range_meters":17200,"station_id":"ce4bho92rcd13ifvqh4g","pricing_plan_id":"free"},{"bike_id":"e7a411eb-84b4-4951-b315-a348e176a550","system_id":"levelo_inurba_marseille","lat":43.279952,"lon":5.400085,"is_reserved":false,"is_disabled":false,"rental_uris":{"android":"levelo://app?vid=e7a411eb-84b4-4951-b315-a348e176a550","ios":"levelo://app?vid=e7a411eb-84b4-4951-b315-a348e176a550"},"vehicle_type_id":"4","last_reported":1704575167,"current_range_meters":31200,"station_id":"ce4bho92rcd13ifvqh4g","pricing_plan_id":"free"},{"bike_id":"0abddda8-e3c0-4704-a1ad-a6d15ecfa138","system_id":"levelo_inurba_marseille","lat":43.279952,"lon":5.400085,"is_reserved":false,"is_disabled":false,"rental_uris":{"android":"levelo://app?vid=0abddda8-e3c0-4704-a1ad-a6d15ecfa138","ios":"levelo://app?vid=0abddda8-e3c0-4704-a1ad-a6d15ecfa138"},"vehicle_type_id":"4","last_reported":1704575167,"current_range_meters":24000,"station_id":"ce4bho92rcd13ifvqh4g","pricing_plan_id":"free"},{"bike_id":"c131855b-e0a3-4dc4-95a1-afa5400db29f","system_id":"levelo_inurba_marseille","lat":43.317121,"lon":5.423936,"is_reserved":false,"is_disabled":false,"rental_uris":{"android":"levelo://app?vid=c131855b-e0a3-4dc4-95a1-afa5400db29f","ios":"levelo://app?vid=c131855b-e0a3-4dc4-95a1-afa5400db29f"},