{"last_updated":1752300916,"ttl":60,"version":"2.2","data":{"bikes":[{"bike_id":"bc0ba58e-06a3-432d-8c35-ebe9130c41f9","system_id":"levelo_inurba_marseille","lat":43.337444,"lon":5.374475,"is_reserved":false,"is_disabled":true,"rental_uris":{"android":"levelo://app?vid=bc0ba58e-06a3-432d-8c35-ebe9130c41f9","ios":"levelo://app?vid=bc0ba58e-06a3-432d-8c35-ebe9130c41f9"},"vehicle_type_id":"4","last_reported":1752300916,"current_range_meters":2800,"station_id":"","pricing_plan_id":"cebpf4jnsgd1na2vs0mg"},{"bike_id":"6a5b119e-7cf2-4dc4-b7fa-68080f35defe","system_id":"levelo_inurba_marseille","lat":43.31755,"lon":5.39028,"is_reserved":false,"is_disabled":true,"rental_uris":{"android":"levelo://app?vid=6a5b119e-7cf2-4dc4-b7fa-68080f35defe","ios":"levelo://app?vid=6a5b119e-7cf2-4dc4-b7fa-68080f35defe"},"vehicle_type_id":"4","last_reported":1752300916,"current_range_meters":3600,"station_id":"ce4bhqp2rcd13ifvqhng","pricing_plan_id":"cebpf4jnsgd1na2vs0mg"},{"bike_id":"b757ffbb-2b71-4330-9f60-5f8a9d46d16e","system_id":"levelo_inurba_marseille","lat":43.29648,"lon":5.37125,"is_reserved":false,"is_disabled":false,"rental_uris":{"android":"levelo://app?vid=b757ffbb-2b71-4330-9f60-5f8a9d46d16e","ios":"levelo://app?vid=b757ffbb-2b71-4330-9f60-5f8a9d46d16e"},"vehicle_type_id":"4","last_reported":1752300916,"current_range_meters":4000,"station_id":"ce4bgnh2rcd13ifvqc0g","pricing_plan_id":"cebpf4jnsgd1na2vs0mg"},{"bike_id":"30339d85-dec4-4b59-85a6-ce7e62ab2e62","system_id":"levelo_inurba_marseille","lat":43.250019,"lon":5.389216,"is_reserved":false,"is_disabled":false,"rental_uris":{"android":"levelo://app?vid=30339d85-dec4-4b59-85a6-ce7e62ab2e62","ios":"levelo://app?vid=30339d85-dec4-4b59-85a6-ce7e62ab2e62"},"vehicle_type_id":"4","last_reported":1752300916,"current_range_meters":5600,"station_id":"ce4bhgp2rcd13ifvqfd0","pricing_plan_id":"cebpf4jnsgd1na2vs0mg"},{"bike_id":"d8f33195-93cb-4919-8fab-bd796498b905","system_id":"levelo_inurba_marseille","lat":43.26564,"lon":5.39012,"is_reserved":false,"is_disabled":true,"rental_uris":{"android":"levelo://app?vid=d8f33195-93cb-4919-8fab-bd796498b905","ios":"levelo://app?vid=d8f33195-93cb-4919-8fab-bd796498b905"},"vehicle_type_id":"4","last_reported":1752300916,"current_range_meters":6800,"station_id":"ce4bhe12rcd13ifvqf30","pricing_plan_id":"cebpf4jnsgd1na2vs0mg"},{"bike_id":"80572c0e-dd76-4996-8857-92f8eabf8fca","system_id":"levelo_inurba_marseille","lat":43.3108,"lon":5.38341,"is_reserved":false,"is_disabled":true,"rental_uris":{"android":"levelo://app?vid=80572c0e-dd76-4996-8857-92f8eabf8fca","ios":"levelo://app?vid=80572c0e-dd76-4996-8857-92f8eabf8fca"},"vehicle_type_id":"4","last_reported":1752300916,"current_range_meters":6800,"station_id":"ce4bgv92rcd13ifvqcr0","pricing_plan_id":"cebpf4jnsgd1na2vs0mg"},{"bike_id":"8a8548c8-5024-4ee6-ba3e-a02d35e313f5","system_id":"levelo_inurba_marseille","lat":43.28618,"lon":5.37056,"is_reserved":false,"is_disabled":false,"rental_uris":{"android":"levelo://app?vid=8a8548c8-5024-4ee6-ba3e-a02d35e313f5","ios":"levelo://app?vid=8a8548c8-5024-4ee6-ba3e-a02d35e313f5"},"vehicle_type_id":"4","last_reported":1752300916,"current_range_meters":7200,"station_id":"ce4bht12rcd13ifvqi60","pricing_plan_id":"cebpf4jnsgd1na2vs0mg"},{"bike_id":"163ff198-10fe-42e9-b633-a66267195e68","system_id":"levelo_inurba_marseille","lat":43.23178,"lon":5.3999,"is_reserved":false,"is_disabled":false,"rental_uris":{"android":"levelo://app?vid=163ff198-10fe-42e9-b633-a66267195e68","ios":"levelo://app?vid=163ff198-10fe-42e9-b633-a66267195e68"},"vehicle_type_id":"4","last_reported":1752300916,"current_range_meters":7200,"station_id":"ce4bhn12rcd13ifvqgqg","pricing_plan_id":"cebpf4jnsgd1na2vs0mg"},{"bike_id":"2711e2df-4467-499e-8fe3-b15ecca6968c","system_id":"levelo_inurba_marseille","lat":43.30649,"lon":5.40098,"is_reserved":false,"is_disabled":true,"rental_uris":{"android":"levelo://app?vid=2711e2df-4467-499e-8fe3-b15ecca6968c","ios":"levelo://app?vid=2711e2df-4467-499e-8fe3-b15ecca6968c"},"vehicle_type_id":"4","last_reported":1752300916,"current_range_meters":7200,"station_id":"ce4bh112rcd13ifvqda0","pricing_plan_id":"cebpf4jnsgd1na2vs0mg"},{"bike_id":"b4544312-64e4-4dd2-bd6d-e1d3f6243b40","system_id":"levelo_inurba_marseille","lat":43.288518,"lon":5.384556,"is_reserved":false,"is_disabled":false,"rental_uris":{"android":"levelo://app?vid=b4544312-64e4-4dd2-bd6d-e1d3f6243b40","ios":"levelo://app?vid=b4544312-64e4-4dd2-bd6d-e1d3f6243b40"},"vehicle_type_id":"4","last_reported":1752300916,"current_range_meters":7200,"station_id":"","pricing_plan_id":"cebpf4jnsgd1na2vs0mg"},{"bike_id":"b84efe8f-b40a-4e55-b7c2-d1e60451fba9","system_id":"levelo_inurba_marseille","lat":43.30782,"lon":5.37649,"is_reserved":false,"is_disabled":false,"rental_uris":{"android":"levelo://app?vid=b84efe8f-b40a-4e55-b7c2-d1e60451fba9","ios":"levelo://app?vid=b84efe8f-b40a-4e55-b7c2-d1e60451fba9"},"vehicle_type_id":"4","last_reported":1752300916,"current_range_meters":8000,"station_id":"ce4bgv92rcd13ifvqcq0","pricing_plan_id":"cebpf4jnsgd1na2vs0mg"},{"bike_id":"eea44b83-c165-49dd-a23a-29cb59d8d866","system_id":"levelo_inurba_marseille","lat":43.308289,"lon":5.374156,"is_reserved":false,"is_disabled":false,"rental_uris":{"android":"levelo://app?vid=eea44b83-c165-49dd-a23a-29cb59d8d866","ios":"levelo://app?vid=eea44b83-c165-49dd-a23a-29cb59d8d866"},"vehicle_type_id":"4","last_reported":1752300916,"current_range_meters":8000,"station_id":"","pricing_plan_id":"cebpf4jnsgd1na2vs0mg"},{"bike_id":"770f6277-795c-462e-bace-52e3417d22c8","system_id":"levelo_inurba_marseille","lat":43.296608,"lon":5.366789,"is_reserved":false,"is_disabled":false,"rental_uris":{"android":"levelo://app?vid=770f6277-795c-462e-bace-52e3417d22c8","ios":"levelo://app?vid=770f6277-795c-462e-bace-52e3417d22c8"},"vehicle_type_id":"4","last_reported":1752300916,"current_range_meters":8000,"station_id":"ce4bgn12rcd13ifvqbt0","pricing_plan_id":"cebpf4jnsgd1na2vs0mg"},{"bike_id":"ac6fa144-a58e-4c9c-88eb-747201fb9c31","system_id":"levelo_inurba_marseille","lat":43.30787,"lon":5.39293,"is_reserved":false,"is_disabled":false,"rental_uris":{"android":"levelo://app?vid=ac6fa144-a58e-4c9c-88eb-747201fb9c31","ios":"levelo://app?vid=ac6fa144-a58e-4c9c-88eb-747201fb9c31"},"vehicle_type_id":"4","last_reported":1752300916,"current_range_meters":8000,"station_id":"","pricing_plan_id":"cebpf4jnsgd1na2vs0mg"},{"bike_id":"4e209b0c-855f-4b51-8120-2faef8673853","system_id":"levelo_inurba_marseille","lat":43.306086,"lon":5.368859,"is_reserved":false,"is_disabled":false,"rental_uris":{"android":"levelo://app?vid=4e209b0c-855f-4b51-8120-2faef8673853","ios":"levelo://app?vid=4e209b0c-855f-4b51-8120-2faef8673853"},"vehicle_type_id":"4","last_reported":1752300916,"current_range_meters":8000,"station_id":"","pricing_plan_id":"cebpf4jnsgd1na2vs0mg"},{"bike_id":"5a7b57ef-a00d-4d19-853c-d49c119db95f","system_id":"levelo_inurba_marseille","lat":43.24566,"lon":5.3734,"is_reserved":false,"is_disabled":true,"rental_uris":{"android":"levelo://app?vid=5a7b57ef-a00d-4d19-853c-d49c119db95f","ios":"levelo://app?vid=5a7b57ef-a00d-4d19-853c-d49c119db95f"},"vehicle_type_id":"4","last_reported":1752300916,"current_range_meters":8400,"station_id":"","pricing_plan_id":"cebpf4jnsgd1na2vs0mg"},{"bike_id":"fab33990-a786-445e-9523-e9b95bbf1c3f","system_id":"levelo_inurba_marseille","lat":43.30535,"lon":5.38418,"is_reserved":false,"is_disabled":false,"rental_uris":{"android":"levelo://app?vid=fab33990-a786-445e-9523-e9b95bbf1c3f","ios":"levelo://app?vid=fab33990-a786-445e-9523-e9b95bbf1c3f"},"vehicle_type_id":"4","last_reported":1752300916,"current_range_meters":8400,"station_id":"ce4bgg92rcd13ifvqb30","pricing_plan_id":"cebpf4jnsgd1na2vs0mg"},{"bike_id":"e3e456c4-b90b-4273-a549-897888733807","system_id":"levelo_inurba_marseille","lat":43.330215,"lon":5.390478,"is_reserved":false,"is_disabled":true,"rental_uris":{"android":"levelo://app?vid=e3e456c4-b90b-4273-a549-897888733807","ios":"levelo://app?vid=e3e456c4-b90b-4273-a549-897888733807"},"vehicle_type_id":"4","last_reported":1752300916,"current_range_meters":8400,"station_id":"ce4bhr92rcd13ifvqhrg","pricing_plan_id":"cebpf4jnsgd1na2vs0mg"},{"bike_id":"8330a68f-2f6e-4337-9657-35d7d87c04ca","system_id":"levelo_inurba_marseille","lat":43.25451,"lon":5.37946,"is_reserved":false,"is_disabled":true,"rental_uris":{"android":"levelo://app?vid=8330a68f-2f6e-4337-9657-35d7d87c04ca","ios":"levelo://app?vid=8330a68f-2f6e-4337-9657-35d7d87c04ca"},"vehicle_type_id":"4","last_reported":1752300916,"current_range_meters":8800,"station_id":"","pricing_plan_id":"cebpf4jnsgd1na2vs0mg"},{"bike_id":"f6379f47-d054-43a8-bf41-72c2d3a2fa59","system_id":"levelo_inurba_marseille","lat":43.23963,"lon":5.36636,"is_reserved":false,"is_disabled":false,"rental_uris":{"android":"levelo://app?vid=f6379f47-d054-43a8-bf41-72c2d3a2fa59","ios":"levelo://app?vid=f6379f47-d054-43a8-bf41-72c2d3a2fa59"},"vehicle_type_id":"4","last_reported":1752300916,"current_range_meters":8800,"station_id":"ce4bhi12rcd13ifvqfp0","pricing_plan_id":"cebpf4jnsgd1na2vs0mg"},{"bike_id":"e83614b7-1234-4bc3-b14a-b5635492649e","system_id":"levelo_inurba_marseille","lat":43.286479,"lon":5.385163,"is_reserved":false,"is_disabled":false,"rental_uris":{"android":"levelo://app?vid=e83614b7-1234-4bc3-b14a-b5635492649e","ios":"levelo://app?vid=e83614b7-1234-4bc3-b14a-b5635492649e"},"vehicle_type_id":"4","last_reported":1752300916,"current_range_meters":8800,"station_id":"","pricing_plan_id":"cebpf4jnsgd1na2vs0mg"},{"bike_id":"2899eb88-bfb3-4774-b14e-59748bdb27c8","system_id":"levelo_inurba_marseille","lat":43.29866,"lon":5.39742,"is_reserved":false,"is_disabled":false,"rental_uris":{"android":"levelo://app?vid=2899eb88-bfb3-4774-b14e-59748bdb27c8","ios":"levelo://app?vid=2899eb88-bfb3-4774-b14e-59748bdb27c8"},"vehicle_type_id":"4","last_reported":1752300916,"current_range_meters":8800,"station_id":"ce4bh0h2rcd13ifvqd50","pricing_plan_id":"cebpf4jnsgd1na2vs0mg"},{"bike_id":"534ed68d-5ceb-43a8-968b-be30f01dfa74","system_id":"levelo_inurba_marseille","lat":43.28211,"lon":5.39017,"is_reserved":false,"is_disabled":true,"rental_uris":{"android":"levelo://app?vid=534ed68d-5ceb-43a8-968b-be30f01dfa74","ios":"levelo://app?vid=534ed68d-5ceb-43a8-968b-be30f01dfa74"},"vehicle_type_id":"4","last_reported":1752300916,"current_range_meters":9200,"station_id":"","pricing_plan_id":"cebpf4jnsgd1na2vs0mg"},{"bike_id":"9a8048d4-46f2-4ef7-aa23-5310e4dbfdd4","system_id":"levelo_inurba_marseille","lat":43.27926,"lon":5.39579,"is_reserved":false,"is_disabled":false,"rental_uris":{"android":"levelo://app?vid=9a8048d4-46f2-4ef7-aa23-5310e4dbfdd4","ios":"levelo://app?vid=9a8048d4-46f2-4ef7-aa23-5310e4dbfdd4"},"vehicle_type_id":"4","last_reported":1752300916,"current_range_meters":9200,"station_id":"ce4bhf92rcd13ifvqf40","pricing_plan_id":"cebpf4jnsgd1na2vs0mg"},{"bike_id":"e43fe009-2bcb-43ae-8a1b-2633b06c91fd","system_id":"levelo_inurba_marseille","lat":43.283531,"lon":5.380965,"is_reserved":false,"is_disabled":false,"rental_uris":{"android":"levelo://app?vid=e43fe009-2bcb-43ae-8a1b-2633b06c91fd","ios":"levelo://app?vid=e43fe009-2bcb-43ae-8a1b-2633b06c91fd"},"vehicle_type_id":"4","last_reported":1752300916,"current_range_meters":9200,"station_id":"ce4bh412rcd13ifvqdr0","pricing_plan_id":"cebpf4jnsgd1na2vs0mg"},{"bike_id":"12962c22-c999-46c4-b70d-26925ea9fc72","system_id":"levelo_inurba_marseille","lat":43.29735,"lon":5.3837,"is_reserved":false,"is_disabled":false,"rental_uris":{"android":"levelo://app?vid=12962c22-c999-46c4-b70d-26925ea9fc72","ios":"levelo://app?vid=12962c22-c999-46c4-b70d-26925ea9fc72"},"vehicle_type_id":"4","last_reported":1752300916,"current_range_meters":9200,"station_id":"","pricing_plan_id":"cebpf4jnsgd1na2vs0mg"},{"bike_id":"d849a247-c2c0-4619-bac8-f5a6994e0014","system_id":"levelo_inurba_marseille","lat":43.32049,"lon":5.41553,"is_reserved":false,"is_disabled":true,"rental_uris":{"android":"levelo://app?vid=d849a247-c2c0-4619-bac8-f5a6994e0014","ios":"levelo://app?vid=d849a247-c2c0-4619-bac8-f5a6994e0014"},"vehicle_type_id":"4","last_reported":1752300916,"current_range_meters":9600,"station_id":"ce4bhq92rcd13ifvqhkg","pricing_plan_id":"cebpf4jnsgd1na2vs0mg"},{"bike_id":"e5696315-21db-49f9-a755-4e3b5ae3ba6f","system_id":"levelo_inurba_marseille","lat":43.2319,"lon":5.39982,"is_reserved":false,"is_disabled":false,"rental_uris":{"android":"levelo://app?vid=e5696315-21db-49f9-a755-4e3b5ae3ba6f","ios":"levelo://app?vid=e5696315-21db-49f9-a755-4e3b5ae3ba6f"},"vehicle_type_id":"4","last_reported":1752300916,"current_range_meters":9600,"station_id":"ce4bhn12rcd13ifvqgqg","pricing_plan_id":"cebpf4jnsgd1na2vs0mg"},{"bike_id":"e87ebf92-9f2a-47b1-a4d2-d4688fefaa87","system_id":"levelo_inurba_marseille","lat":43.303263,"lon":5.404331,"is_reserved":false,"is_disabled":false,"rental_uris":{"android":"levelo://app?vid=e87ebf92-9f2a-47b1-a4d2-d4688fefaa87","ios":"levelo://app?vid=e87ebf92-9f2a-47b1-a4d2-d4688fefaa87"},"vehicle_type_id":"4","last_reported":1752300916,"current_range_meters":10000,"station_id":"ce4bh012rcd13ifvqd10","pricing_plan_id":"cebpf4jnsgd1na2vs0mg"},{"bike_id":"24408ebf-8612-4df2-b491-b3f77a991042","system_id":"levelo_inurba_marseille","lat":43.31746,"lon":5.38996,"is_reserved":false,"is_disabled":false,"rental_uris":{"android":"levelo://app?vid=24408ebf-8612-4df2-b491-b3f77a991042","ios":"levelo://app?vid=24408ebf-8612-4df2-b491-b3f77a991042"},"vehicle_type_id":"4","last_reported":1752300916,"current_range_meters":10000,"station_id":"ce4bhqp2rcd13ifvqhng","pricing_plan_id":"cebpf4jnsgd1na2vs0mg"},{"bike_id":"6e44525d-ed45-445a-a877-081b94eb5813","system_id":"levelo_inurba_marseille","lat":43.30389,"lon":5.41888,"is_reserved":false,"is_disabled":true,"rental_uris":{"android":"levelo://app?vid=6e44525d-ed45-445a-a877-081b94eb5813","ios":"levelo://app?vid=6e44525d-ed45-445a-a877-081b94eb5813"},"vehicle_type_id":"4","last_reported":1752300916,"current_range_meters":10000,"station_id":"ce4bhop2rcd13ifvqh7g","pricing_plan_id":"cebpf4jnsgd1na2vs0mg"},{"bike_id":"6145e0d4-1b01-4570-bfd0-4fe34ecb56a5","system_id":"levelo_inurba_marseille","lat":43.28438,"lon":5.39189,"is_reserved":false,"is_disabled":false,"rental_uris":{"android":"levelo://app?vid=6145e0d4-1b01-4570-bfd0-4fe34ecb56a5","ios":"levelo://app?vid=6145e0d4-1b01-4570-bfd0-4fe34ecb56a5"},"vehicle_type_id":"4","last_reported":1752300916,"current_range_meters":10000,"station_id":"ce4bhoh2rcd13ifvqh5g","pricing_plan_id":"cebpf4jnsgd1na2vs0mg"},{"bike_id":"e80e9a57-5e81-4b14-8bfd-dc924ee16f86","system_id":"levelo_inurba_marseille","lat":43.336041,"lon":5.410371,"is_reserved":false,"is_disabled":false,"rental_uris":{"android":"levelo://app?vid=e80e9a57-5e81-4b14-8bfd-dc924ee16f86","ios":"levelo://app?vid=e80e9a57-5e81-4b14-8bfd-dc924ee16f86"},"vehicle_type_id":"4","last_reported":1752300916,"current_range_meters":10000,"station_id":"ce4bhqh2rcd13ifvqhmg","pricing_plan_id":"cebpf4jnsgd1na2vs0mg"},{"bike_id":"46398dfb-c483-4a99-82e0-09eb86052d5b","system_id":"levelo_inurba_marseille","lat":43.284766,"lon":5.385741,"is_reserved":false,"is_disabled":false,"rental_uris":{"android":"levelo://app?vid=46398dfb-c483-4a99-82e0-09eb86052d5b","ios":"levelo://app?vid=46398dfb-c483-4a99-82e0-09eb86052d5b"},"vehicle_type_id":"4","last_reported":1752300916,"current_range_meters":10000,"station_id":"ce4bh8p2rcd13ifvqeb0","pricing_plan_id":"cebpf4jnsgd1na2vs0mg"},{"bike_id":"282ce212-aadc-44df-93aa-d0321d302887","system_id":"levelo_inurba_marseille","lat":43.2511,"lon":5.40341,"is_reserved":false,"is_disabled":false,"rental_uris":{"android":"levelo://app?vid=282ce212-aadc-44df-93aa-d0321d302887","ios":"levelo://app?vid=282ce212-aadc-44df-93aa-d0321d302887"},"vehicle_type_id":"4","last_reported":1752300916,"current_range_meters":10000,"station_id":"ce4bhlh2rcd13ifvqgig","pricing_plan_id":"cebpf4jnsgd1na2vs0mg"},{"bike_id":"5076ad93-b7e2-4902-b566-655c2183f3e6","system_id":"levelo_inurba_marseille","lat":43.279713,"lon":5.387481,"is_reserved":false,"is_disabled":true,"rental_uris":{"android":"levelo://app?vid=5076ad93-b7e2-4902-b566-655c2183f3e6","ios":"levelo://app?vid=5076ad93-b7e2-4902-b566-655c2183f3e6"},"vehicle_type_id":"4","last_reported":1752300916,"current_range_meters":10800,"station_id":"","pricing_plan_id":"cebpf4jnsgd1na2vs0mg"},{"bike_id":"37efeb5c-06ef-458e-a6fc-e2e8b4e1669f","system_id":"levelo_inurba_marseille","lat":43.24388,"lon":5.37065,"is_reserved":false,"is_disabled":false,"rental_uris":{"android":"levelo://app?vid=37efeb5c-06ef-458e-a6fc-e2e8b4e1669f","ios":"levelo://app?vid=37efeb5c-06ef-458e-a6fc-e2e8b4e1669f"},"vehicle_type_id":"4","last_reported":1752300916,"current_range_meters":10800,"station_id":"ce4bhhh2rcd13ifvqfk0","pricing_plan_id":"cebpf4jnsgd1na2vs0mg"},{"bike_id":"395cc0f2-d8ba-4b1e-996e-4ac92fbd7b6d","system_id":"levelo_inurba_marseille","lat":43.29533,"lon":5.39031,"is_reserved":false,"is_disabled":false,"rental_uris":{"android":"levelo://app?vid=395cc0f2-d8ba-4b1e-996e-4ac92fbd7b6d","ios":"levelo://app?vid=395cc0f2-d8ba-4b1e-996e-4ac92fbd7b6d"},"vehicle_type_id":"4","last_reported":1752300916,"current_range_meters":10800,"station_id":"ce4bh3p2rcd13ifvqdp0","pricing_plan_id":"cebpf4jnsgd1na2vs0mg"},{"bike_id":"7392143f-a48d-4d17-918a-2d49b0cf2786","system_id":"levelo_inurba_marseille","lat":43.31716,"lon":5.40478,"is_reserved":false,"is_disabled":true,"rental_uris":{"android":"levelo://app?vid=7392143f-a48d-4d17-918a-2d49b0cf2786","ios":"levelo://app?vid=7392143f-a48d-4d17-918a-2d49b0cf2786"},"vehicle_type_id":"4","last_reported":1752300916,"current_range_meters":10800,"station_id":"ce4bh012rcd13ifvqd00","pricing_plan_id":"cebpf4jnsgd1na2vs0mg"},{"bike_id":"89cd6e1d-3397-4fa0-92b5-6e21be6f78ca","system_id":"levelo_inurba_marseille","lat":43.337444,"lon":5.374475,"is_reserved":false,"is_disabled":true,"rental_uris":{"android":"levelo://app?vid=89cd6e1d-3397-4fa0-92b5-6e21be6f78ca","ios":"levelo://app?vid=89cd6e1d-3397-4fa0-92b5-6e21be6f78ca"},"vehicle_type_id":"4","last_reported":1752300916,"current_range_meters":11200,"station_id":"","pricing_plan_id":"cebpf4jnsgd1na2vs0mg"},{"bike_id":"080f57f3-a8d5-4466-97ef-f4f40d547d09","system_id":"levelo_inurba_marseille","lat":43.313665,"lon":5.385064,"is_reserved":false,"is_disabled":false,"rental_uris":{"android":"levelo://app?vid=080f57f3-a8d5-4466-97ef-f4f40d547d09","ios":"levelo://app?vid=080f57f3-a8d5-4466-97ef-f4f40d547d09"},"vehicle_type_id":"4","last_reported":1752300916,"current_range_meters":11200,"station_id":"ce4bgt92rcd13ifvqcf0","pricing_plan_id":"cebpf4jnsgd1na2vs0mg"},{"bike_id":"fd9f5c27-5d58-42e5-badc-a12a0344229e","system_id":"levelo_inurba_marseille","lat":43.28911,"lon":5.360624,"is_reserved":false,"is_disabled":false,"rental_uris":{"android":"levelo://app?vid=fd9f5c27-5d58-42e5-badc-a12a0344229e","ios":"levelo://app?vid=fd9f5c27-5d58-42e5-badc-a12a0344229e"},"vehicle_type_id":"4","last_reported":1752300916,"current_range_meters":11200,"station_id":"","pricing_plan_id":"cebpf4jnsgd1na2vs0mg"},{"bike_id":"4d4b9e28-a4f6-4d45-ac6b-64a63a768bd8","system_id":"levelo_inurba_marseille","lat":43.315141,"lon":5.374154,"is_reserved":false,"is_disabled":false,"rental_uris":{"android":"levelo://app?vid=4d4b9e28-a4f6-4d45-ac6b-64a63a768bd8","ios":"levelo://app?vid=4d4b9e28-a4f6-4d45-ac6b-64a63a768bd8"},"vehicle_type_id":"4","last_reported":1752300916,"current_range_meters":11200,"station_id":"","pricing_plan_id":"cebpf4jnsgd1na2vs0mg"},{"bike_id":"c14ea29d-9882-4c3f-b961-1aa78b5f79e5","system_id":"levelo_inurba_marseille","lat":43.30642,"lon":5.40091,"is_reserved":false,"is_disabled":false,"rental_uris":{"android":"levelo://app?vid=c14ea29d-9882-4c3f-b961-1aa78b5f79e5","ios":"levelo://app?vid=c14ea29d-9882-4c3f-b961-1aa78b5f79e5"},"vehicle_type_id":"4","last_reported":1752300916,"current_range_meters":11200,"station_id":"ce4bh112rcd13ifvqda0","pricing_plan_id":"cebpf4jnsgd1na2vs0mg"},{"bike_id":"595e9351-a7ce-45de-8995-771f7d9fe86e","system_id":"levelo_inurba_marseille","lat":43.309243,"lon":5.378088,"is_reserved":false,"is_disabled":false,"rental_uris":{"android":"levelo://app?vid=595e9351-a7ce-45de-8995-771f7d9fe86e","ios":"levelo://app?vid=595e9351-a7ce-45de-8995-771f7d9fe86e"},"vehicle_type_id":"4","last_reported":1752300916,"current_range_meters":11200,"station_id":"","pricing_plan_id":"cebpf4jnsgd1na2vs0mg"},{"bike_id":"647a1903-1834-4730-b34e-6397917620f0","system_id":"levelo_inurba_marseille","lat":43.31717,"lon":5.37021,"is_reserved":false,"is_disabled":true,"rental_uris":{"android":"levelo://app?vid=647a1903-1834-4730-b34e-6397917620f0","ios":"levelo://app?vid=647a1903-1834-4730-b34e-6397917620f0"},"vehicle_type_id":"4","last_reported":1752300916,"current_range_meters":11200,"station_id":"","pricing_plan_id":"cebpf4jnsgd1na2vs0mg"},{"bike_id":"eda0ea69-6404-43e6-9ede-2655d170d444","system_id":"levelo_inurba_marseille","lat":43.28819,"lon":5.35868,"is_reserved":false,"is_disabled":true,"rental_uris":{"android":"levelo://app?vid=eda0ea69-6404-43e6-9ede-2655d170d444","ios":"levelo://app?vid=eda0ea69-6404-43e6-9ede-2655d170d444"},"vehicle_type_id":"4","last_reported":1752300916,"current_range_meters":11200,"station_id":"ce4bhb12rcd13ifvqem0","pricing_plan_id":"cebpf4jnsgd1na2vs0mg"},{"bike_id":"5799da97-f0f8-4f00-bf95-bbe1c2ee0207","system_id":"levelo_inurba_marseille","lat":43.27211,"lon":5.39181,"is_reserved":false,"is_disabled":false,"rental_uris":{"android":"levelo://app?vid=5799da97-f0f8-4f00-bf95-bbe1c2ee0207","ios":"levelo://app?vid=5799da97-f0f8-4f00-bf95-bbe1c2ee0207"},"vehicle_type_id":"4","last_reported":1752300916,"current_range_meters":11200,"station_id":"ce4bhhp2rcd13ifvqfm0","pricing_plan_id":"cebpf4jnsgd1na2vs0mg"},{"bike_id":"ef698040-cffd-4a0c-9a91-bf557274de35","system_id":"levelo_inurba_marseille","lat":43.317067,"lon":5.37768,"is_reserved":false,"is_disabled":false,"rental_uris":{"android":"levelo://app?vid=ef698040-cffd-4a0c-9a91-bf557274de35","ios":"levelo://app?vid=ef698040-cffd-4a0c-9a91-bf557274de35"},"vehicle_type_id":"4","last_reported":1752300916,"current_range_meters":11600,"station_id":"ce4bgth2rcd13ifvqch0","pricing_plan_id":"cebpf4jnsgd1na2vs0mg"},{"bike_id":"85758837-e8e8-429b-9b62-411361adebf1","system_id":"levelo_inurba_marseille","lat":43.3177,"lon":5.38998,"is_reserved":false,"is_disabled":true,"rental_uris":{"android":"levelo://app?vid=85758837-e8e8-429b-9b62-411361adebf1","ios":"levelo://app?vid=85758837-e8e8-429b-9b62-411361adebf1"},"vehicle_type_id":"4","last_reported":1752300916,"current_range_meters":11600,"station_id":"ce4bhqp2rcd13ifvqhng","pricing_plan_id":"cebpf4jnsgd1na2vs0mg"},{"bike_id":"e3a75ee9-c614-467b-8cc2-f813bcef2ab1","system_id":"levelo_inurba_marseille","lat":43.33743,"lon":5.3919,"is_reserved":false,"is_disabled":false,"rental_uris":{"android":"levelo://app?vid=e3a75ee9-c614-467b-8cc2-f813bcef2ab1","ios":"levelo://app?vid=e3a75ee9-c614-467b-8cc2-f813bcef2ab1"},"vehicle_type_id":"4","last_reported":1752300916,"current_range_meters":11600,"station_id":"ce4bhr92rcd13ifvqhsg","pricing_plan_id":"cebpf4jnsgd1na2vs0mg"},{"bike_id":"7b5cd6ce-df57-4328-854d-cb2d1407ab18","system_id":"levelo_inurba_marseille","lat":43.330335,"lon":5.390459,"is_reserved":false,"is_disabled":false,"rental_uris":{"android":"levelo://app?vid=7b5cd6ce-df57-4328-854d-cb2d1407ab18","ios":"levelo://app?vid=7b5cd6ce-df57-4328-854d-cb2d1407ab18"},"vehicle_type_id":"4","last_reported":1752300916,"current_range_meters":11600,"station_id":"ce4bhr92rcd13ifvqhrg","pricing_plan_id":"cebpf4jnsgd1na2vs0mg"},{"bike_id":"ceb8bcf8-9e11-4102-bd78-9a687c0c96d2","system_id":"levelo_inurba_marseille","lat":43.289257,"lon":5.384032,"is_reserved":false,"is_disabled":false,"rental_uris":{"android":"levelo://app?vid=ceb8bcf8-9e11-4102-bd78-9a687c0c96d2","ios":"levelo://app?vid=ceb8bcf8-9e11-4102-bd78-9a687c0c96d2"},"vehicle_type_id":"4","last_reported":1752300916,"current_range_meters":12000,"station_id":"ce4bh612rcd13ifvqe6g","pricing_plan_id":"cebpf4jnsgd1na2vs0mg"},{"bike_id":"e8e03632-b9d1-480f-a4da-da482a543464","system_id":"levelo_inurba_marseille","lat":43.29037,"lon":5.37567,"is_reserved":false,"is_disabled":true,"rental_uris":{"android":"levelo://app?vid=e8e03632-b9d1-480f-a4da-da482a543464","ios":"levelo://app?vid=e8e03632-b9d1-480f-a4da-da482a543464"},"vehicle_type_id":"4","last_reported":1752300916,"current_range_meters":12000,"station_id":"ce4bh692rcd13ifvqe90","pricing_plan_id":"cebpf4jnsgd1na2vs0mg"},{"bike_id":"8929c1bf-fd4d-44e4-aa66-b3eb6538c998","system_id":"levelo_inurba_marseille","lat":43.28558,"lon":5.42933,"is_reserved":false,"is_disabled":false,"rental_uris":{"android":"levelo://app?vid=8929c1bf-fd4d-44e4-aa66-b3eb6538c998","ios":"levelo://app?vid=8929c1bf-fd4d-44e4-aa66-b3eb6538c998"},"vehicle_type_id":"4","last_reported":1752300916,"current_range_meters":12000,"station_id":"","pricing_plan_id":"cebpf4jnsgd1na2vs0mg"},{"bike_id":"d70f3e21-e354-48ae-88ce-ac52cf88884e","system_id":"levelo_inurba_marseille","lat":43.28655,"lon":5.36356,"is_reserved":false,"is_disabled":false,"rental_uris":{"android":"levelo://app?vid=d70f3e21-e354-48ae-88ce-ac52cf88884e","ios":"levelo://app?vid=d70f3e21-e354-48ae-88ce-ac52cf88884e"},"vehicle_type_id":"4","last_reported":1752300916,"current_range_meters":12000,"station_id":"ce4bhah2rcd13ifvqej0","pricing_plan_id":"cebpf4jnsgd1na2vs0mg"},{"bike_id":"dafa5a87-b26d-4379-9a6b-1f02133b78a6","system_id":"levelo_inurba_marseille","lat":43.2119,"lon":5.35063,"is_reserved":false,"is_disabled":false,"rental_uris":{"android":"levelo://app?vid=dafa5a87-b26d-4379-9a6b-1f02133b78a6","ios":"levelo://app?vid=dafa5a87-b26d-4379-9a6b-1f02133b78a6"},"vehicle_type_id":"4","last_reported":1752300916,"current_range_meters":12000,"station_id":"","pricing_plan_id":"cebpf4jnsgd1na2vs0mg"},{"bike_id":"c113b6ca-3c24-4b48-97e0-49e6db25d076","system_id":"levelo_inurba_marseille","lat":43.24187,"lon":5.39738,"is_reserved":false,"is_disabled":false,"rental_uris":{"android":"levelo://app?vid=c113b6ca-3c24-4b48-97e0-49e6db25d076","ios":"levelo://app?vid=c113b6ca-3c24-4b48-97e0-49e6db25d076"},"vehicle_type_id":"4","last_reported":1752300916,"current_range_meters":12000,"station_id":"ce4bhn12rcd13ifvqgpg","pricing_plan_id":"cebpf4jnsgd1na2vs0mg"},{"bike_id":"4a92b34b-1d43-4830-8a92-a24d5fc4e5ca","system_id":"levelo_inurba_marseille","lat":43.295737,"lon":5.375004,"is_reserved":false,"is_disabled":true,"rental_uris":{"android":"levelo://app?vid=4a92b34b-1d43-4830-8a92-a24d5fc4e5ca","ios":"levelo://app?vid=4a92b34b-1d43-4830-8a92-a24d5fc4e5ca"},"vehicle_type_id":"4","last_reported":1752300916,"current_range_meters":12400,"station_id":"ce4bgh92rcd13ifvqb50","pricing_plan_id":"cebpf4jnsgd1na2vs0mg"},{"bike_id":"97d4bafb-1703-482a-9af9-9c0328bf232e","system_id":"levelo_inurba_marseille","lat":43.29556,"lon":5.37488,"is_reserved":false,"is_disabled":true,"rental_uris":{"android":"levelo://app?vid=97d4bafb-1703-482a-9af9-9c0328bf232e","ios":"levelo://app?vid=97d4bafb-1703-482a-9af9-9c0328bf232e"},"vehicle_type_id":"4","last_reported":1752300916,"current_range_meters":12400,"station_id":"ce4bgkp2rcd13ifvqbmg","pricing_plan_id":"cebpf4jnsgd1na2vs0mg"},{"bike_id":"abb0acc4-71df-4998-bb59-1e7e60195447","system_id":"levelo_inurba_marseille","lat":43.29425,"lon":5.38616,"is_reserved":false,"is_disabled":true,"rental_uris":{"android":"levelo://app?vid=abb0acc4-71df-4998-bb59-1e7e60195447","ios":"levelo://app?vid=abb0acc4-71df-4998-bb59-1e7e60195447"},"vehicle_type_id":"4","last_reported":1752300916,"current_range_meters":12400,"station_id":"ce4bh2h2rcd13ifvqdh0","pricing_plan_id":"cebpf4jnsgd1na2vs0mg"},{"bike_id":"8fccf46e-4269-459a-bd9a-cdd93f6b32bc","system_id":"levelo_inurba_marseille","lat":43.303579,"lon":5.41881,"is_reserved":false,"is_disabled":true,"rental_uris":{"android":"levelo://app?vid=8fccf46e-4269-459a-bd9a-cdd93f6b32bc","ios":"levelo://app?vid=8fccf46e-4269-459a-bd9a-cdd93f6b32bc"},"vehicle_type_id":"4","last_reported":1752300916,"current_range_meters":12800,"station_id":"ce4bhop2rcd13ifvqh7g","pricing_plan_id":"cebpf4jnsgd1na2vs0mg"},{"bike_id":"c1bf3d72-7f59-4a69-b332-47fa296f0c41","system_id":"levelo_inurba_marseille","lat":43.2847,"lon":5.38422,"is_reserved":false,"is_disabled":false,"rental_uris":{"android":"levelo://app?vid=c1bf3d72-7f59-4a69-b332-47fa296f0c41","ios":"levelo://app?vid=c1bf3d72-7f59-4a69-b332-47fa296f0c41"},"vehicle_type_id":"4","last_reported":1752300916,"current_range_meters":12800,"station_id":"ce4bh512rcd13ifvqe3g","pricing_plan_id":"cebpf4jnsgd1na2vs0mg"},{"bike_id":"2b019a5b-c61d-469b-8d5e-0654899efd09","system_id":"levelo_inurba_marseille","lat":43.29299,"lon":5.37161,"is_reserved":false,"is_disabled":false,"rental_uris":{"android":"levelo://app?vid=2b019a5b-c61d-469b-8d5e-0654899efd09","ios":"levelo://app?vid=2b019a5b-c61d-469b-8d5e-0654899efd09"},"vehicle_type_id":"4","last_reported":1752300916,"current_range_meters":12400,"station_id":"ce4bgh92rcd13ifvqb40","pricing_plan_id":"cebpf4jnsgd1na2vs0mg"},{"bike_id":"43b90c82-97e0-4fa7-8b67-2448f07d529e","system_id":"levelo_inurba_marseille","lat":43.211922,"lon":5.350718,"is_reserved":false,"is_disabled":false,"rental_uris":{"android":"levelo://app?vid=43b90c82-97e0-4fa7-8b67-2448f07d529e","ios":"levelo://app?vid=43b90c82-97e0-4fa7-8b67-2448f07d529e"},"vehicle_type_id":"4","last_reported":1752300916,"current_range_meters":12800,"station_id":"","pricing_plan_id":"cebpf4jnsgd1na2vs0mg"},{"bike_id":"5c09517d-9b0e-404d-8685-192cc354edb9","system_id":"levelo_inurba_marseille","lat":43.310667,"lon":5.383622,"is_reserved":false,"is_disabled":false,"rental_uris":{"android":"levelo://app?vid=5c09517d-9b0e-404d-8685-192cc354edb9","ios":"levelo://app?vid=5c09517d-9b0e-404d-8685-192cc354edb9"},"vehicle_type_id":"4","last_reported":1752300916,"current_range_meters":12800,"station_id":"ce4bgv92rcd13ifvqcr0","pricing_plan_id":"cebpf4jnsgd1na2vs0mg"},{"bike_id":"0385f41f-5fc3-4cc8-a0e3-3512cd2cfdfd","system_id":"levelo_inurba_marseille","lat":43.24176,"lon":5.397154,"is_reserved":false,"is_disabled":true,"rental_uris":{"android":"levelo://app?vid=0385f41f-5fc3-4cc8-a0e3-3512cd2cfdfd","ios":"levelo://app?vid=0385f41f-5fc3-4cc8-a0e3-3512cd2cfdfd"},"vehicle_type_id":"4","last_reported":1752300916,"current_range_meters":12800,"station_id":"ce4bhn12rcd13ifvqgpg","pricing_plan_id":"cebpf4jnsgd1na2vs0mg"},{"bike_id":"5cd74eda-833d-42c9-9173-69f518999a0c","system_id":"levelo_inurba_marseille","lat":43.34134,"lon":5.40899,"is_reserved":false,"is_disabled":false,"rental_uris":{"android":"levelo://app?vid=5cd74eda-833d-42c9-9173-69f518999a0c","ios":"levelo://app?vid=5cd74eda-833d-42c9-9173-69f518999a0c"},"vehicle_type_id":"4","last_reported":1752300916,"current_range_meters":13600,"station_id":"ce4bhqh2rcd13ifvqhlg","pricing_plan_id":"cebpf4jnsgd1na2vs0mg"},{"bike_id":"e9fd0cf8-573b-4177-88a6-f1faf33e8aca","system_id":"levelo_inurba_marseille","lat":43.290077,"lon":5.3561,"is_reserved":false,"is_disabled":false,"rental_uris":{"android":"levelo://app?vid=e9fd0cf8-573b-4177-88a6-f1faf33e8aca","ios":"levelo://app?vid=e9fd0cf8-573b-4177-88a6-f1faf33e8aca"},"vehicle_type_id":"4","last_reported":1752300916,"current_range_meters":13600,"station_id":"ce4bhb92rcd13ifvqen0","pricing_plan_id":"cebpf4jnsgd1na2vs0mg"},{"bike_id":"7f064164-3173-43bd-aad9-1c0cd37d4c96","system_id":"levelo_inurba_marseille","lat":43.2927,"lon":5.40137,"is_reserved":false,"is_disabled":false,"rental_uris":{"android":"levelo://app?vid=7f064164-3173-43bd-aad9-1c0cd37d4c96","ios":"levelo://app?vid=7f064164-3173-43bd-aad9-1c0cd37d4c96"},"vehicle_type_id":"4","last_reported":1752300916,"current_range_meters":13600,"station_id":"ce4bh312rcd13ifvqdk0","pricing_plan_id":"cebpf4jnsgd1na2vs0mg"},{"bike_id":"37b84a38-055a-4a6e-a56a-8ff3d0c1b2ec","system_id":"levelo_inurba_marseille","lat":43.21191,"lon":5.35076,"is_reserved":false,"is_disabled":false,"rental_uris":{"android":"levelo://app?vid=37b84a38-055a-4a6e-a56a-8ff3d0c1b2ec","ios":"levelo://app?vid=37b84a38-055a-4a6e-a56a-8ff3d0c1b2ec"},"vehicle_type_id":"4","last_reported":1752300916,"current_range_meters":13600,"station_id":"st_cvj6sg6p6f1abm77japg","pricing_plan_id":"cebpf4jnsgd1na2vs0mg"},{"bike_id":"9ebca4be-7c13-46b2-85ed-fd57a4cd9c32","system_id":"levelo_inurba_marseille","lat":43.30871,"lon":5.39642,"is_reserved":false,"is_disabled":false,"rental_uris":{"android":"levelo://app?vid=9ebca4be-7c13-46b2-85ed-fd57a4cd9c32","ios":"levelo://app?vid=9ebca4be-7c13-46b2-85ed-fd57a4cd9c32"},"vehicle_type_id":"4","last_reported":1752300916,"current_range_meters":14000,"station_id":"ce4bh012rcd13ifvqcv0","pricing_plan_id":"cebpf4jnsgd1na2vs0mg"},{"bike_id":"94041aa2-1754-4746-a1a4-f32c3e0de584","system_id":"levelo_inurba_marseille","lat":43.25101,"lon":5.39527,"is_reserved":false,"is_disabled":true,"rental_uris":{"android":"levelo://app?vid=94041aa2-1754-4746-a1a4-f32c3e0de584","ios":"levelo://app?vid=94041aa2-1754-4746-a1a4-f32c3e0de584"},"vehicle_type_id":"4","last_reported":1752300916,"current_range_meters":14000,"station_id":"ce4bhm12rcd13ifvqgkg","pricing_plan_id":"cebpf4jnsgd1na2vs0mg"},{"bike_id":"c1b25357-5d0b-4895-b90e-dff6a6d44ad5","system_id":"levelo_inurba_marseille","lat":43.31284,"lon":5.40159,"is_reserved":false,"is_disabled":false,"rental_uris":{"android":"levelo://app?vid=c1b25357-5d0b-4895-b90e-dff6a6d44ad5","ios":"levelo://app?vid=c1b25357-5d0b-4895-b90e-dff6a6d44ad5"},"vehicle_type_id":"4","last_reported":1752300916,"current_range_meters":14000,"station_id":"ce4bh092rcd13ifvqd30","pricing_plan_id":"cebpf4jnsgd1na2vs0mg"},{"bike_id":"61198919-e72c-4fce-bc96-126627987dc0","system_id":"levelo_inurba_marseille","lat":43.295847,"lon":5.378804,"is_reserved":false,"is_disabled":false,"rental_uris":{"android":"levelo://app?vid=61198919-e72c-4fce-bc96-126627987dc0","ios":"levelo://app?vid=61198919-e72c-4fce-bc96-126627987dc0"},"vehicle_type_id":"4","last_reported":1752300916,"current_range_meters":14000,"station_id":"","pricing_plan_id":"cebpf4jnsgd1na2vs0mg"},{"bike_id":"876a3eea-af9c-4d66-874b-e39a7a6162f0","system_id":"levelo_inurba_marseille","lat":43.28706,"lon":5.40031,"is_reserved":false,"is_disabled":true,"rental_uris":{"android":"levelo://app?vid=876a3eea-af9c-4d66-874b-e39a7a6162f0","ios":"levelo://app?vid=876a3eea-af9c-4d66-874b-e39a7a6162f0"},"vehicle_type_id":"4","last_reported":1752300916,"current_range_meters":14000,"station_id":"","pricing_plan_id":"cebpf4jnsgd1na2vs0mg"},{"bike_id":"452e8211-4f44-45d0-814a-3e9e25b8c44e","system_id":"levelo_inurba_marseille","lat":43.211925,"lon":5.350735,"is_reserved":false,"is_disabled":false,"rental_uris":{"android":"levelo://app?vid=452e8211-4f44-45d0-814a-3e9e25b8c44e","ios":"levelo://app?vid=452e8211-4f44-45d0-814a-3e9e25b8c44e"},"vehicle_type_id":"4","last_reported":1752300916,"current_range_meters":14000,"station_id":"st_cvj6sg6p6f1abm77japg","pricing_plan_id":"cebpf4jnsgd1na2vs0mg"},{"bike_id":"dbba3321-20c7-4989-a7b5-ea9ab2c4b3e8","system_id":"levelo_inurba_marseille","lat":43.261935,"lon":5.374477,"is_reserved":false,"is_disabled":false,"rental_uris":{"android":"levelo://app?vid=dbba3321-20c7-4989-a7b5-ea9ab2c4b3e8","ios":"levelo://app?vid=dbba3321-20c7-4989-a7b5-ea9ab2c4b3e8"},"vehicle_type_id":"4","last_reported":1752300916,"current_range_meters":14000,"station_id":"ce4bhgp2rcd13ifvqfc0","pricing_plan_id":"cebpf4jnsgd1na2vs0mg"},{"bike_id":"e86ba8c9-208d-482c-a826-4c100938472a","system_id":"levelo_inurba_marseille","lat":43.21194,"lon":5.35063,"is_reserved":false,"is_disabled":false,"rental_uris":{"android":"levelo://app?vid=e86ba8c9-208d-482c-a826-4c100938472a","ios":"levelo://app?vid=e86ba8c9-208d-482c-a826-4c100938472a"},"vehicle_type_id":"4","last_reported":1752300916,"current_range_meters":14000,"station_id":"st_cvj6sg6p6f1abm77japg","pricing_plan_id":"cebpf4jnsgd1na2vs0mg"},{"bike_id":"c453155a-5220-48fc-922b-600ca54f8ab5","system_id":"levelo_inurba_marseille","lat":43.2866,"lon":5.36357,"is_reserved":false,"is_disabled":true,"rental_uris":{"android":"levelo://app?vid=c453155a-5220-48fc-922b-600ca54f8ab5","ios":"levelo://app?vid=c453155a-5220-48fc-922b-600ca54f8ab5"},"vehicle_type_id":"4","last_reported":1752300916,"current_range_meters":14000,"station_id":"ce4bhah2rcd13ifvqej0","pricing_plan_id":"cebpf4jnsgd1na2vs0mg"},{"bike_id":"042461e1-66c6-43d1-9f02-79b7d6b213c2","system_id":"levelo_inurba_marseille","lat":43.313723,"lon":5.385002,"is_reserved":false,"is_disabled":false,"rental_uris":{"android":"levelo://app?vid=042461e1-66c6-43d1-9f02-79b7d6b213c2","ios":"levelo://app?vid=042461e1-66c6-43d1-9f02-79b7d6b213c2"},"vehicle_type_id":"4","last_reported":1752300916,"current_range_meters":14400,"station_id":"ce4bgt92rcd13ifvqcf0","pricing_plan_id":"cebpf4jnsgd1na2vs0mg"},{"bike_id":"602a311c-31bf-4ac4-b70b-551b51c68ed9","system_id":"levelo_inurba_marseille","lat":43.27324,"lon":5.39079,"is_reserved":false,"is_disabled":false,"rental_uris":{"android":"levelo://app?vid=602a311c-31bf-4ac4-b70b-551b51c68ed9","ios":"levelo://app?vid=602a311c-31bf-4ac4-b70b-551b51c68ed9"},"vehicle_type_id":"4","last_reported":1752300916,"current_range_meters":14400,"station_id":"ce4bhgp2rcd13ifvqfe0","pricing_plan_id":"cebpf4jnsgd1na2vs0mg"},{"bike_id":"ed019ecd-f4ca-470f-953e-821f34892065","system_id":"levelo_inurba_marseille","lat":43.3054,"lon":5.36705,"is_reserved":false,"is_disabled":true,"rental_uris":{"android":"levelo://app?vid=ed019ecd-f4ca-470f-953e-821f34892065","ios":"levelo://app?vid=ed019ecd-f4ca-470f-953e-821f34892065"},"vehicle_type_id":"4","last_reported":1752300916,"current_range_meters":14800,"station_id":"ce4bgrp2rcd13ifvqc9g","pricing_plan_id":"cebpf4jnsgd1na2vs0mg"},{"bike_id":"a581eef9-f0fb-4e5d-8be0-84b96bfd2d41","system_id":"levelo_inurba_marseille","lat":43.29383,"lon":5.37875,"is_reserved":false,"is_disabled":true,"rental_uris":{"android":"levelo://app?vid=a581eef9-f0fb-4e5d-8be0-84b96bfd2d41","ios":"levelo://app?vid=a581eef9-f0fb-4e5d-8be0-84b96bfd2d41"},"vehicle_type_id":"4","last_reported":1752300916,"current_range_meters":14800,"station_id":"ce4bgjh2rcd13ifvqbf0","pricing_plan_id":"cebpf4jnsgd1na2vs0mg"},{"bike_id":"a100566b-d122-47f7-b059-1aae620ff9b3","system_id":"levelo_inurba_marseille","lat":43.240691,"lon":5.377583,"is_reserved":false,"is_disabled":false,"rental_uris":{"android":"levelo://app?vid=a100566b-d122-47f7-b059-1aae620ff9b3","ios":"levelo://app?vid=a100566b-d122-47f7-b059-1aae620ff9b3"},"vehicle_type_id":"4","last_reported":1752300916,"current_range_meters":14800,"station_id":"ce4bhnp2rcd13ifvqgvg","pricing_plan_id":"cebpf4jnsgd1na2vs0mg"},{"bike_id":"daee89b2-7637-43fb-a5bb-124b5364aaf3","system_id":"levelo_inurba_marseille","lat":43.25582,"lon":5.38222,"is_reserved":false,"is_disabled":false,"rental_uris":{"android":"levelo://app?vid=daee89b2-7637-43fb-a5bb-124b5364aaf3","ios":"levelo://app?vid=daee89b2-7637-43fb-a5bb-124b5364aaf3"},"vehicle_type_id":"4","last_reported":1752300916,"current_range_meters":15200,"station_id":"ce4bhih2rcd13ifvqfs0","pricing_plan_id":"cebpf4jnsgd1na2vs0mg"},{"bike_id":"58c86ff8-b444-4637-8b8c-414b4195493a","system_id":"levelo_inurba_marseille","lat":43.280875,"lon":5.396655,"is_reserved":false,"is_disabled":false,"rental_uris":{"android":"levelo://app?vid=58c86ff8-b444-4637-8b8c-414b4195493a","ios":"levelo://app?vid=58c86ff8-b444-4637-8b8c-414b4195493a"},"vehicle_type_id":"4","last_reported":1752300916,"current_range_meters":15200,"station_id":"ce4bho12rcd13ifvqh2g","pricing_plan_id":"cebpf4jnsgd1na2vs0mg"},{"bike_id":"ad3a92a9-aac6-4694-a2f3-20c935fef2b6","system_id":"levelo_inurba_marseille","lat":43.292986,"lon":5.374656,"is_reserved":false,"is_disabled":false,"rental_uris":{"android":"levelo://app?vid=ad3a92a9-aac6-4694-a2f3-20c935fef2b6","ios":"levelo://app?vid=ad3a92a9-aac6-4694-a2f3-20c935fef2b6"},"vehicle_type_id":"4","last_reported":1752300916,"current_range_meters":15200,"station_id":"","pricing_plan_id":"cebpf4jnsgd1na2vs0mg"},{"bike_id":"25e5f971-a9c9-4b07-bb3b-bff8f5b484ea","system_id":"levelo_inurba_marseille","lat":43.309277,"lon":5.401654,"is_reserved":false,"is_disabled":false,"rental_uris":{"android":"levelo://app?vid=25e5f971-a9c9-4b07-bb3b-bff8f5b484ea","ios":"levelo://app?vid=25e5f971-a9c9-4b07-bb3b-bff8f5b484ea"},"vehicle_type_id":"4","last_reported":1752300916,"current_range_meters":15200,"station_id":"ce4bgvp2rcd13ifvqct0","pricing_plan_id":"cebpf4jnsgd1na2vs0mg"},{"bike_id":"ba7e3217-8069-471e-8907-7c5152d45243","system_id":"levelo_inurba_marseille","lat":43.262276,"lon":5.404628,"is_reserved":false,"is_disabled":false,"rental_uris":{"android":"levelo://app?vid=ba7e3217-8069-471e-8907-7c5152d45243","ios":"levelo://app?vid=ba7e3217-8069-471e-8907-7c5152d45243"},"vehicle_type_id":"4","last_reported":1752300916,"current_range_meters":16000,"station_id":"ce4bhmh2rcd13ifvqgmg","pricing_plan_id":"cebpf4jnsgd1na2vs0mg"},{"bike_id":"709c9beb-13f1-45e2-bbd1-0f71d60cf8b2","system_id":"levelo_inurba_marseille","lat":43.30948,"lon":5.40177,"is_reserved":false,"is_disabled":true,"rental_uris":{"android":"levelo://app?vid=709c9beb-13f1-45e2-bbd1-0f71d60cf8b2","ios":"levelo://app?vid=709c9beb-13f1-45e2-bbd1-0f71d60cf8b2"},"vehicle_type_id":"4","last_reported":1752300916,"current_range_meters":16000,"station_id":"ce4bgvp2rcd13ifvqct0","pricing_plan_id":"cebpf4jnsgd1na2vs0mg"},{"bike_id":"f05b8bfe-6934-41c1-8e7b-6912b26dbed6","system_id":"levelo_inurba_marseille","lat":43.265688,"lon":5.39018,"is_reserved":false,"is_disabled":false,"rental_uris":{"android":"levelo://app?vid=f05b8bfe-6934-41c1-8e7b-6912b26dbed6","ios":"levelo://app?vid=f05b8bfe-6934-41c1-8e7b-6912b26dbed6"},"vehicle_type_id":"4","last_reported":1752300916,"current_range_meters":16000,"station_id":"ce4bhe12rcd13ifvqf30","pricing_plan_id":"cebpf4jnsgd1na2vs0mg"},{"bike_id":"aaa3b10e-8c10-48cf-933e-220b9a468a85","system_id":"levelo_inurba_marseille","lat":43.21763,"lon":5.3462,"is_reserved":false,"is_disabled":false,"rental_uris":{"android":"levelo://app?vid=aaa3b10e-8c10-48cf-933e-220b9a468a85","ios":"levelo://app?vid=aaa3b10e-8c10-48cf-933e-220b9a468a85"},"vehicle_type_id":"4","last_reported":1752300916,"current_range_meters":16000,"station_id":"","pricing_plan_id":"cebpf4jnsgd1na2vs0mg"},{"bike_id":"715646cc-87aa-466c-a34b-df843b8622d4","system_id":"levelo_inurba_marseille","lat":43.29567,"lon":5.37516,"is_reserved":false,"is_disabled":false,"rental_uris":{"android":"levelo://app?vid=715646cc-87aa-466c-a34b-df843b8622d4","ios":"levelo://app?vid=715646cc-87aa-466c-a34b-df843b8622d4"},"vehicle_type_id":"4","last_reported":1752300916,"current_range_meters":16000,"station_id":"ce4bgh92rcd13ifvqb50","pricing_plan_id":"cebpf4jnsgd1na2vs0mg"},{"bike_id":"ad023729-3d33-44a6-99ca-a047715b7f88","system_id":"levelo_inurba_marseille","lat":43.211971,"lon":5.350749,"is_reserved":false,"is_disabled":false,"rental_uris":{"android":"levelo://app?vid=ad023729-3d33-44a6-99ca-a047715b7f88","ios":"levelo://app?vid=ad023729-3d33-44a6-99ca-a047715b7f88"},"vehicle_type_id":"4","last_reported":1752300916,"current_range_meters":16000,"station_id":"st_cvj6sg6p6f1abm77japg","pricing_plan_id":"cebpf4jnsgd1na2vs0mg"},{"bike_id":"f2770ea1-d1a3-4b88-95ee-a5994bbb099d","system_id":"levelo_inurba_marseille","lat":43.28704,"lon":5.40001,"is_reserved":false,"is_disabled":false,"rental_uris":{"android":"levelo://app?vid=f2770ea1-d1a3-4b88-95ee-a5994bbb099d","ios":"levelo://app?vid=f2770ea1-d1a3-4b88-95ee-a5994bbb099d"},"vehicle_type_id":"4","last_reported":1752300916,"current_range_meters":16000,"station_id":"ce4bho92rcd13ifvqh3g","pricing_plan_id":"cebpf4jnsgd1na2vs0mg"},{"bike_id":"de66b8a7-0531-49db-91a9-781cfbdccc21","system_id":"levelo_inurba_marseille","lat":43.28852,"lon":5.35874,"is_reserved":false,"is_disabled":false,"rental_uris":{"android":"levelo://app?vid=de66b8a7-0531-49db-91a9-781cfbdccc21","ios":"levelo://app?vid=de66b8a7-0531-49db-91a9-781cfbdccc21"},"vehicle_type_id":"4","last_reported":1752300916,"current_range_meters":16000,"station_id":"ce4bhb12rcd13ifvqem0","pricing_plan_id":"cebpf4jnsgd1na2vs0mg"},{"bike_id":"dfb324bb-b3fa-42ac-af97-fcb3ac59c854","system_id":"levelo_inurba_marseille","lat":43.2982,"lon":5.37121,"is_reserved":false,"is_disabled":false,"rental_uris":{"android":"levelo://app?vid=dfb324bb-b3fa-42ac-af97-fcb3ac59c854","ios":"levelo://app?vid=dfb324bb-b3fa-42ac-af97-fcb3ac59c854"},"vehicle_type_id":"4","last_reported":1752300916,"current_range_meters":16400,"station_id":"ce4bgop2rcd13ifvqc1g","pricing_plan_id":"cebpf4jnsgd1na2vs0mg"},{"bike_id":"530fdaa0-3dcf-48bd-ae6d-18f67ca1c283","system_id":"levelo_inurba_marseille","lat":43.29658,"lon":5.36428,"is_reserved":false,"is_disabled":false,"rental_uris":{"android":"levelo://app?vid=530fdaa0-3dcf-48bd-ae6d-18f67ca1c283","ios":"levelo://app?vid=530fdaa0-3dcf-48bd-ae6d-18f67ca1c283"},"vehicle_type_id":"4","last_reported":1752300916,"current_range_meters":16400,"station_id":"","pricing_plan_id":"cebpf4jnsgd1na2vs0mg"},{"bike_id":"4362e87f-c830-433a-8419-b0e3aaf5178e","system_id":"levelo_inurba_marseille","lat":43.320401,"lon":5.415532,"is_reserved":false,"is_disabled":false,"rental_uris":{"android":"levelo://app?vid=4362e87f-c830-433a-8419-b0e3aaf5178e","ios":"levelo://app?vid=4362e87f-c830-433a-8419-b0e3aaf5178e"},"vehicle_type_id":"4","last_reported":1752300916,"current_range_meters":16400,"station_id":"ce4bhq92rcd13ifvqhkg","pricing_plan_id":"cebpf4jnsgd1na2vs0mg"},{"bike_id":"7ae3c05b-b3f8-4752-80d6-117d478c59d0","system_id":"levelo_inurba_marseille","lat":43.308891,"lon":5.396367,"is_reserved":false,"is_disabled":false,"rental_uris":{"android":"levelo://app?vid=7ae3c05b-b3f8-4752-80d6-117d478c59d0","ios":"levelo://app?vid=7ae3c05b-b3f8-4752-80d6-117d478c59d0"},"vehicle_type_id":"4","last_reported":1752300916,"current_range_meters":16400,"station_id":"ce4bh012rcd13ifvqcv0","pricing_plan_id":"cebpf4jnsgd1na2vs0mg"},{"bike_id":"f20dc79a-7198-418a-9671-1d3f28b0b615","system_id":"levelo_inurba_marseille","lat":43.25104,"lon":5.40327,"is_reserved":false,"is_disabled":false,"rental_uris":{"android":"levelo://app?vid=f20dc79a-7198-418a-9671-1d3f28b0b615","ios":"levelo://app?vid=f20dc79a-7198-418a-9671-1d3f28b0b615"},"vehicle_type_id":"4","last_reported":1752300916,"current_range_meters":16400,"station_id":"ce4bhlh2rcd13ifvqgig","pricing_plan_id":"cebpf4jnsgd1na2vs0mg"},{"bike_id":"cfee0657-6493-4e9d-b55a-affdef745be3","system_id":"levelo_inurba_marseille","lat":43.29842,"lon":5.37686,"is_reserved":false,"is_disabled":false,"rental_uris":{"android":"levelo://app?vid=cfee0657-6493-4e9d-b55a-affdef745be3","ios":"levelo://app?vid=cfee0657-6493-4e9d-b55a-affdef745be3"},"vehicle_type_id":"4","last_reported":1752300916,"current_range_meters":16400,"station_id":"","pricing_plan_id":"cebpf4jnsgd1na2vs0mg"},{"bike_id":"470d1e9d-8c05-40b8-a6b2-039f183b9f6a","system_id":"levelo_inurba_marseille","lat":43.23192,"lon":5.35556,"is_reserved":false,"is_disabled":true,"rental_uris":{"android":"levelo://app?vid=470d1e9d-8c05-40b8-a6b2-039f183b9f6a","ios":"levelo://app?vid=470d1e9d-8c05-40b8-a6b2-039f183b9f6a"},"vehicle_type_id":"4","last_reported":1752300916,"current_range_meters":16400,"station_id":"ce4bhu92rcd13ifvqi70","pricing_plan_id":"cebpf4jnsgd1na2vs0mg"},{"bike_id":"888bd7d8-4ec5-4282-97cb-63503f2485c0","system_id":"levelo_inurba_marseille","lat":43.30805,"lon":5.38135,"is_reserved":false,"is_disabled":false,"rental_uris":{"android":"levelo://app?vid=888bd7d8-4ec5-4282-97cb-63503f2485c0","ios":"levelo://app?vid=888bd7d8-4ec5-4282-97cb-63503f2485c0"},"vehicle_type_id":"4","last_reported":1752300916,"current_range_meters":16800,"station_id":"ce4bgt12rcd13ifvqce0","pricing_plan_id":"cebpf4jnsgd1na2vs0mg"},{"bike_id":"412afb4e-4f76-4025-a6ca-7f64bda83e72","system_id":"levelo_inurba_marseille","lat":43.245497,"lon":5.395292,"is_reserved":false,"is_disabled":false,"rental_uris":{"android":"levelo://app?vid=412afb4e-4f76-4025-a6ca-7f64bda83e72","ios":"levelo://app?vid=412afb4e-4f76-4025-a6ca-7f64bda83e72"},"vehicle_type_id":"4","last_reported":1752300916,"current_range_meters":16800,"station_id":"ce4bhlp2rcd13ifvqgjg","pricing_plan_id":"cebpf4jnsgd1na2vs0mg"},{"bike_id":"2d98c144-979b-4cdc-9c63-d39d433bf790","system_id":"levelo_inurba_marseille","lat":43.26765,"lon":5.39479,"is_reserved":false,"is_disabled":true,"rental_uris":{"android":"levelo://app?vid=2d98c144-979b-4cdc-9c63-d39d433bf790","ios":"levelo://app?vid=2d98c144-979b-4cdc-9c63-d39d433bf790"},"vehicle_type_id":"4","last_reported":1752300916,"current_range_meters":16800,"station_id":"","pricing_plan_id":"cebpf4jnsgd1na2vs0mg"},{"bike_id":"44cb55d7-0a6b-4498-9996-58505fae2254","system_id":"levelo_inurba_marseille","lat":43.30644,"lon":5.40085,"is_reserved":false,"is_disabled":false,"rental_uris":{"android":"levelo://app?vid=44cb55d7-0a6b-4498-9996-58505fae2254","ios":"levelo://app?vid=44cb55d7-0a6b-4498-9996-58505fae2254"},"vehicle_type_id":"4","last_reported":1752300916,"current_range_meters":16800,"station_id":"ce4bh112rcd13ifvqda0","pricing_plan_id":"cebpf4jnsgd1na2vs0mg"},{"bike_id":"3efad7fc-3bae-4b01-b6d8-edd7c4aa748e","system_id":"levelo_inurba_marseille","lat":43.265734,"lon":5.390051,"is_reserved":false,"is_disabled":false,"rental_uris":{"android":"levelo://app?vid=3efad7fc-3bae-4b01-b6d8-edd7c4aa748e","ios":"levelo://app?vid=3efad7fc-3bae-4b01-b6d8-edd7c4aa748e"},"vehicle_type_id":"4","last_reported":1752300916,"current_range_meters":16800,"station_id":"ce4bhe12rcd13ifvqf30","pricing_plan_id":"cebpf4jnsgd1na2vs0mg"},{"bike_id":"f062f3f8-6747-4d90-b0fe-3c9e94933ab7","system_id":"levelo_inurba_marseille","lat":43.270684,"lon":5.42284,"is_reserved":false,"is_disabled":false,"rental_uris":{"android":"levelo://app?vid=f062f3f8-6747-4d90-b0fe-3c9e94933ab7","ios":"levelo://app?vid=f062f3f8-6747-4d90-b0fe-3c9e94933ab7"},"vehicle_type_id":"4","last_reported":1752300916,"current_range_meters":16800,"station_id":"ce4bhk92rcd13ifvqgb0","pricing_plan_id":"cebpf4jnsgd1na2vs0mg"},{"bike_id":"c6f7dabd-b092-4554-a710-07eb4af96a4c","system_id":"levelo_inurba_marseille","lat":43.211902,"lon":5.350703,"is_reserved":false,"is_disabled":false,"rental_uris":{"android":"levelo://app?vid=c6f7dabd-b092-4554-a710-07eb4af96a4c","ios":"levelo://app?vid=c6f7dabd-b092-4554-a710-07eb4af96a4c"},"vehicle_type_id":"4","last_reported":1752300916,"current_range_meters":16800,"station_id":"st_cvj6sg6p6f1abm77japg","pricing_plan_id":"cebpf4jnsgd1na2vs0mg"},{"bike_id":"919e600e-ebda-4ca0-9126-38ed65a36143","system_id":"levelo_inurba_marseille","lat":43.211928,"lon":5.350779,"is_reserved":false,"is_disabled":false,"rental_uris":{"android":"levelo://app?vid=919e600e-ebda-4ca0-9126-38ed65a36143","ios":"levelo://app?vid=919e600e-ebda-4ca0-9126-38ed65a36143"},"vehicle_type_id":"4","last_reported":1752300916,"current_range_meters":16800,"station_id":"st_cvj6sg6p6f1abm77japg","pricing_plan_id":"cebpf4jnsgd1na2vs0mg"},{"bike_id":"c6eff470-5985-4e86-9724-ba852058f347","system_id":"levelo_inurba_marseille","lat":43.28405,"lon":5.37521,"is_reserved":false,"is_disabled":false,"rental_uris":{"android":"levelo://app?vid=c6eff470-5985-4e86-9724-ba852058f347","ios":"levelo://app?vid=c6eff470-5985-4e86-9724-ba852058f347"},"vehicle_type_id":"4","last_reported":1752300916,"current_range_meters":17200,"station_id":"ce4bh412rcd13ifvqds0","pricing_plan_id":"cebpf4jnsgd1na2vs0mg"},{"bike_id":"607eff80-7879-4cd4-802a-27da59b17290","system_id":"levelo_inurba_marseille","lat":43.308819,"lon":5.396428,"is_reserved":false,"is_disabled":false,"rental_uris":{"android":"levelo://app?vid=607eff80-7879-4cd4-802a-27da59b17290","ios":"levelo://app?vid=607eff80-7879-4cd4-802a-27da59b17290"},"vehicle_type_id":"4","last_reported":1752300916,"current_range_meters":17200,"station_id":"ce4bh012rcd13ifvqcv0","pricing_plan_id":"cebpf4jnsgd1na2vs0mg"},{"bike_id":"fe9d49e1-a07a-4343-a1f5-cbcd31489875","system_id":"levelo_inurba_marseille","lat":43.251285,"lon":5.40334,"is_reserved":false,"is_disabled":false,"rental_uris":{"android":"levelo://app?vid=fe9d49e1-a07a-4343-a1f5-cbcd31489875","ios":"levelo://app?vid=fe9d49e1-a07a-4343-a1f5-cbcd31489875"},"vehicle_type_id":"4","last_reported":1752300916,"current_range_meters":17200,"station_id":"ce4bhlh2rcd13ifvqgig","pricing_plan_id":"cebpf4jnsgd1na2vs0mg"},{"bike_id":"4fbffdf3-2e83-480d-98d4-de9e0e34a530","system_id":"levelo_inurba_marseille","lat":43.30315,"lon":5.36902,"is_reserved":false,"is_disabled":false,"rental_uris":{"android":"levelo://app?vid=4fbffdf3-2e83-480d-98d4-de9e0e34a530","ios":"levelo://app?vid=4fbffdf3-2e83-480d-98d4-de9e0e34a530"},"vehicle_type_id":"4","last_reported":1752300916,"current_range_meters":17200,"station_id":"ce4bgqh2rcd13ifvqc5g","pricing_plan_id":"cebpf4jnsgd1na2vs0mg"},{"bike_id":"51890362-46b0-4ee7-9f02-afbf036d064e","system_id":"levelo_inurba_marseille","lat":43.212,"lon":5.350753,"is_reserved":false,"is_disabled":false,"rental_uris":{"android":"levelo://app?vid=51890362-46b0-4ee7-9f02-afbf036d064e","ios":"levelo://app?vid=51890362-46b0-4ee7-9f02-afbf036d064e"},"vehicle_type_id":"4","last_reported":1752300916,"current_range_meters":17200,"station_id":"st_cvj6sg6p6f1abm77japg","pricing_plan_id":"cebpf4jnsgd1na2vs0mg"},{"bike_id":"486ee436-dc2c-4cbf-b133-565f554ddb1e","system_id":"levelo_inurba_marseille","lat":43.25123,"lon":5.40332,"is_reserved":false,"is_disabled":false,"rental_uris":{"android":"levelo://app?vid=486ee436-dc2c-4cbf-b133-565f554ddb1e","ios":"levelo://app?vid=486ee436-dc2c-4cbf-b133-565f554ddb1e"},"vehicle_type_id":"4","last_reported":1752300916,"current_range_meters":17200,"station_id":"ce4bhlh2rcd13ifvqgig","pricing_plan_id":"cebpf4jnsgd1na2vs0mg"},{"bike_id":"ded1613d-37f4-4636-b9a1-5b3ab463f128","system_id":"levelo_inurba_marseille","lat":43.30151,"lon":5.39893,"is_reserved":false,"is_disabled":false,"rental_uris":{"android":"levelo://app?vid=ded1613d-37f4-4636-b9a1-5b3ab463f128","ios":"levelo://app?vid=ded1613d-37f4-4636-b9a1-5b3ab463f128"},"vehicle_type_id":"4","last_reported":1752300916,"current_range_meters":17200,"station_id":"ce4bh0h2rcd13ifvqd40","pricing_plan_id":"cebpf4jnsgd1na2vs0mg"},{"bike_id":"2a66106d-d0c2-4fdb-a0d3-33bcad5edb0d","system_id":"levelo_inurba_marseille","lat":43.321093,"lon":5.367769,"is_reserved":false,"is_disabled":false,"rental_uris":{"android":"levelo://app?vid=2a66106d-d0c2-4fdb-a0d3-33bcad5edb0d","ios":"levelo://app?vid=2a66106d-d0c2-4fdb-a0d3-33bcad5edb0d"},"vehicle_type_id":"4","last_reported":1752300916,"current_range_meters":17200,"station_id":"ce4bhrh2rcd13ifvqhug","pricing_plan_id":"cebpf4jnsgd1na2vs0mg"},{"bike_id":"a88ad0f9-4dc9-4f3f-841b-ae01ad57516a","system_id":"levelo_inurba_marseille","lat":43.2669,"lon":5.38274,"is_reserved":false,"is_disabled":true,"rental_uris":{"android":"levelo://app?vid=a88ad0f9-4dc9-4f3f-841b-ae01ad57516a","ios":"levelo://app?vid=a88ad0f9-4dc9-4f3f-841b-ae01ad57516a"},"vehicle_type_id":"4","last_reported":1752300916,"current_range_meters":17600,"station_id":"ce4bhg92rcd13ifvqf90","pricing_plan_id":"cebpf4jnsgd1na2vs0mg"},{"bike_id":"00bc0b3b-e317-4a17-a011-a3a9a29d816a","system_id":"levelo_inurba_marseille","lat":43.211913,"lon":5.350701,"is_reserved":false,"is_disabled":false,"rental_uris":{"android":"levelo://app?vid=00bc0b3b-e317-4a17-a011-a3a9a29d816a","ios":"levelo://app?vid=00bc0b3b-e317-4a17-a011-a3a9a29d816a"},"vehicle_type_id":"4","last_reported":1752300916,"current_range_meters":17600,"station_id":"st_cvj6sg6p6f1abm77japg","pricing_plan_id":"cebpf4jnsgd1na2vs0mg"},{"bike_id":"ee5338dd-18a1-4b48-a5b0-f8c72f7b1319","system_id":"levelo_inurba_marseille","lat":43.31812,"lon":5.36858,"is_reserved":false,"is_disabled":false,"rental_uris":{"android":"levelo://app?vid=ee5338dd-18a1-4b48-a5b0-f8c72f7b1319","ios":"levelo://app?vid=ee5338dd-18a1-4b48-a5b0-f8c72f7b1319"},"vehicle_type_id":"4","last_reported":1752300916,"current_range_meters":17600,"station_id":"","pricing_plan_id":"cebpf4jnsgd1na2vs0mg"},{"bike_id":"3e01e98e-784c-40cc-9a58-943021295c96","system_id":"levelo_inurba_marseille","lat":43.26496,"lon":5.3955,"is_reserved":false,"is_disabled":false,"rental_uris":{"android":"levelo://app?vid=3e01e98e-784c-40cc-9a58-943021295c96","ios":"levelo://app?vid=3e01e98e-784c-40cc-9a58-943021295c96"},"vehicle_type_id":"4","last_reported":1752300916,"current_range_meters":17600,"station_id":"ce4bhi12rcd13ifvqfq0","pricing_plan_id":"cebpf4jnsgd1na2vs0mg"},{"bike_id":"e37a2d08-72ed-4015-b714-186e1a332d22","system_id":"levelo_inurba_marseille","lat":43.28703,"lon":5.38648,"is_reserved":false,"is_disabled":false,"rental_uris":{"android":"levelo://app?vid=e37a2d08-72ed-4015-b714-186e1a332d22","ios":"levelo://app?vid=e37a2d08-72ed-4015-b714-186e1a332d22"},"vehicle_type_id":"4","last_reported":1752300916,"current_range_meters":17600,"station_id":"","pricing_plan_id":"cebpf4jnsgd1na2vs0mg"},{"bike_id":"3cdfe184-4350-4adc-a955-e7571cb17f49","system_id":"levelo_inurba_marseille","lat":43.33745,"lon":5.37513,"is_reserved":false,"is_disabled":true,"rental_uris":{"android":"levelo://app?vid=3cdfe184-4350-4adc-a955-e7571cb17f49","ios":"levelo://app?vid=3cdfe184-4350-4adc-a955-e7571cb17f49"},"vehicle_type_id":"4","last_reported":1752300916,"current_range_meters":17600,"station_id":"","pricing_plan_id":"cebpf4jnsgd1na2vs0mg"},{"bike_id":"53b2e3fb-77f4-44bd-9b1f-4c6e207a18dc","system_id":"levelo_inurba_marseille","lat":43.26487,"lon":5.39557,"is_reserved":false,"is_disabled":false,"rental_uris":{"android":"levelo://app?vid=53b2e3fb-77f4-44bd-9b1f-4c6e207a18dc","ios":"levelo://app?vid=53b2e3fb-77f4-44bd-9b1f-4c6e207a18dc"},"vehicle_type_id":"4","last_reported":1752300916,"current_range_meters":17600,"station_id":"ce4bhi12rcd13ifvqfq0","pricing_plan_id":"cebpf4jnsgd1na2vs0mg"},{"bike_id":"a862a812-a4e3-41db-bffe-dc440146afeb","system_id":"levelo_inurba_marseille","lat":43.27049,"lon":5.4026,"is_reserved":false,"is_disabled":false,"rental_uris":{"android":"levelo://app?vid=a862a812-a4e3-41db-bffe-dc440146afeb","ios":"levelo://app?vid=a862a812-a4e3-41db-bffe-dc440146afeb"},"vehicle_type_id":"4","last_reported":1752300916,"current_range_meters":17600,"station_id":"ce4bhk92rcd13ifvqgc0","pricing_plan_id":"cebpf4jnsgd1na2vs0mg"},{"bike_id":"d9d1fd9b-ea93-4b1d-b937-5a9fe33714df","system_id":"levelo_inurba_marseille","lat":43.239608,"lon":5.366321,"is_reserved":false,"is_disabled":false,"rental_uris":{"android":"levelo://app?vid=d9d1fd9b-ea93-4b1d-b937-5a9fe33714df","ios":"levelo://app?vid=d9d1fd9b-ea93-4b1d-b937-5a9fe33714df"},"vehicle_type_id":"4","last_reported":1752300916,"current_range_meters":17600,"station_id":"ce4bhi12rcd13ifvqfp0","pricing_plan_id":"cebpf4jnsgd1na2vs0mg"},{"bike_id":"8e96cc1c-7c1c-42f1-8e93-5f09751459d9","system_id":"levelo_inurba_marseille","lat":43.29301,"lon":5.37454,"is_reserved":false,"is_disabled":true,"rental_uris":{"android":"levelo://app?vid=8e96cc1c-7c1c-42f1-8e93-5f09751459d9","ios":"levelo://app?vid=8e96cc1c-7c1c-42f1-8e93-5f09751459d9"},"vehicle_type_id":"4","last_reported":1752300916,"current_range_meters":17600,"station_id":"ce4bgi12rcd13ifvqb70","pricing_plan_id":"cebpf4jnsgd1na2vs0mg"},{"bike_id":"a0137104-c9f4-434a-a5e3-80725cd5a2b4","system_id":"levelo_inurba_marseille","lat":43.211923,"lon":5.350766,"is_reserved":false,"is_disabled":false,"rental_uris":{"android":"levelo://app?vid=a0137104-c9f4-434a-a5e3-80725cd5a2b4","ios":"levelo://app?vid=a0137104-c9f4-434a-a5e3-80725cd5a2b4"},"vehicle_type_id":"4","last_reported":1752300916,"current_range_meters":17600,"station_id":"st_cvj6sg6p6f1abm77japg","pricing_plan_id":"cebpf4jnsgd1na2vs0mg"},{"bike_id":"09d7ea43-b43a-4318-913c-f05f5c2670f1","system_id":"levelo_inurba_marseille","lat":43.25581,"lon":5.38242,"is_reserved":false,"is_disabled":false,"rental_uris":{"android":"levelo://app?vid=09d7ea43-b43a-4318-913c-f05f5c2670f1","ios":"levelo://app?vid=09d7ea43-b43a-4318-913c-f05f5c2670f1"},"vehicle_type_id":"4","last_reported":1752300916,"current_range_meters":17600,"station_id":"ce4bhih2rcd13ifvqfs0","pricing_plan_id":"cebpf4jnsgd1na2vs0mg"},{"bike_id":"38e70852-2f7a-4b34-a55f-7175aa6a06f9","system_id":"levelo_inurba_marseille","lat":43.279106,"lon":5.379936,"is_reserved":false,"is_disabled":false,"rental_uris":{"android":"levelo://app?vid=38e70852-2f7a-4b34-a55f-7175aa6a06f9","ios":"levelo://app?vid=38e70852-2f7a-4b34-a55f-7175aa6a06f9"},"vehicle_type_id":"4","last_reported":1752300916,"current_range_meters":18000,"station_id":"ce4bhf92rcd13ifvqf50","pricing_plan_id":"cebpf4jnsgd1na2vs0mg"},{"bike_id":"df87bdcd-46a7-4b0e-8da7-fe811f9445f8","system_id":"levelo_inurba_marseille","lat":43.270591,"lon":5.402602,"is_reserved":false,"is_disabled":false,"rental_uris":{"android":"levelo://app?vid=df87bdcd-46a7-4b0e-8da7-fe811f9445f8","ios":"levelo://app?vid=df87bdcd-46a7-4b0e-8da7-fe811f9445f8"},"vehicle_type_id":"4","last_reported":1752300916,"current_range_meters":18000,"station_id":"ce4bhk92rcd13ifvqgc0","pricing_plan_id":"cebpf4jnsgd1na2vs0mg"},{"bike_id":"e51da3c1-8ab5-47c5-abee-45829a7c0aac","system_id":"levelo_inurba_marseille","lat":43.27341,"lon":5.39075,"is_reserved":false,"is_disabled":true,"rental_uris":{"android":"levelo://app?vid=e51da3c1-8ab5-47c5-abee-45829a7c0aac","ios":"levelo://app?vid=e51da3c1-8ab5-47c5-abee-45829a7c0aac"},"vehicle_type_id":"4","last_reported":1752300916,"current_range_meters":18000,"station_id":"ce4bhgp2rcd13ifvqfe0","pricing_plan_id":"cebpf4jnsgd1na2vs0mg"},{"bike_id":"8b37f03f-f226-4bbc-8648-b109da7ba145","system_id":"levelo_inurba_marseille","lat":43.30536,"lon":5.366999,"is_reserved":false,"is_disabled":false,"rental_uris":{"android":"levelo://app?vid=8b37f03f-f226-4bbc-8648-b109da7ba145","ios":"levelo://app?vid=8b37f03f-f226-4bbc-8648-b109da7ba145"},"vehicle_type_id":"4","last_reported":1752300916,"current_range_meters":18000,"station_id":"","pricing_plan_id":"cebpf4jnsgd1na2vs0mg"},{"bike_id":"d1174286-7c20-4cec-9521-e1fe98b8de7e","system_id":"levelo_inurba_marseille","lat":43.306415,"lon":5.400869,"is_reserved":false,"is_disabled":false,"rental_uris":{"android":"levelo://app?vid=d1174286-7c20-4cec-9521-e1fe98b8de7e","ios":"levelo://app?vid=d1174286-7c20-4cec-9521-e1fe98b8de7e"},"vehicle_type_id":"4","last_reported":1752300916,"current_range_meters":18000,"station_id":"ce4bh112rcd13ifvqda0","pricing_plan_id":"cebpf4jnsgd1na2vs0mg"},{"bike_id":"d52165fe-acbf-4377-a8a3-01db8604f89e","system_id":"levelo_inurba_marseille","lat":43.306439,"lon":5.400688,"is_reserved":false,"is_disabled":false,"rental_uris":{"android":"levelo://app?vid=d52165fe-acbf-4377-a8a3-01db8604f89e","ios":"levelo://app?vid=d52165fe-acbf-4377-a8a3-01db8604f89e"},"vehicle_type_id":"4","last_reported":1752300916,"current_range_meters":18800,"station_id":"ce4bh112rcd13ifvqda0","pricing_plan_id":"cebpf4jnsgd1na2vs0mg"},{"bike_id":"775fc0d3-6cde-492b-b703-b78970571f1a","system_id":"levelo_inurba_marseille","lat":43.323651,"lon":5.367594,"is_reserved":false,"is_disabled":false,"rental_uris":{"android":"levelo://app?vid=775fc0d3-6cde-492b-b703-b78970571f1a","ios":"levelo://app?vid=775fc0d3-6cde-492b-b703-b78970571f1a"},"vehicle_type_id":"4","last_reported":1752300916,"current_range_meters":18800,"station_id":"ce4bhsh2rcd13ifvqi2g","pricing_plan_id":"cebpf4jnsgd1na2vs0mg"},{"bike_id":"844b44b6-4e33-4917-878d-a3c647561239","system_id":"levelo_inurba_marseille","lat":43.30764,"lon":5.42439,"is_reserved":false,"is_disabled":false,"rental_uris":{"android":"levelo://app?vid=844b44b6-4e33-4917-878d-a3c647561239","ios":"levelo://app?vid=844b44b6-4e33-4917-878d-a3c647561239"},"vehicle_type_id":"4","last_reported":1752300916,"current_range_meters":18800,"station_id":"st_cvj6ca6bvosntc0bfgr0","pricing_plan_id":"cebpf4jnsgd1na2vs0mg"},{"bike_id":"bbff8839-b181-4672-82e9-9981f6d38cec","system_id":"levelo_inurba_marseille","lat":43.2925,"lon":5.40928,"is_reserved":false,"is_disabled":false,"rental_uris":{"android":"levelo://app?vid=bbff8839-b181-4672-82e9-9981f6d38cec","ios":"levelo://app?vid=bbff8839-b181-4672-82e9-9981f6d38cec"},"vehicle_type_id":"4","last_reported":1752300916,"current_range_meters":18800,"station_id":"ce4bh192rcd13ifvqdc0","pricing_plan_id":"cebpf4jnsgd1na2vs0mg"},{"bike_id":"15c005ca-52e7-4b89-8afe-4bc56f68590a","system_id":"levelo_inurba_marseille","lat":43.265683,"lon":5.390211,"is_reserved":false,"is_disabled":false,"rental_uris":{"android":"levelo://app?vid=15c005ca-52e7-4b89-8afe-4bc56f68590a","ios":"levelo://app?vid=15c005ca-52e7-4b89-8afe-4bc56f68590a"},"vehicle_type_id":"4","last_reported":1752300916,"current_range_meters":18800,"station_id":"ce4bhe12rcd13ifvqf30","pricing_plan_id":"cebpf4jnsgd1na2vs0mg"},{"bike_id":"ed387e25-1565-45a2-bc50-3d9ebbd60ae1","system_id":"levelo_inurba_marseille","lat":43.32692,"lon":5.3765,"is_reserved":false,"is_disabled":false,"rental_uris":{"android":"levelo://app?vid=ed387e25-1565-45a2-bc50-3d9ebbd60ae1","ios":"levelo://app?vid=ed387e25-1565-45a2-bc50-3d9ebbd60ae1"},"vehicle_type_id":"4","last_reported":1752300916,"current_range_meters":18800,"station_id":"","pricing_plan_id":"cebpf4jnsgd1na2vs0mg"},{"bike_id":"b59e51ca-d910-4846-ae9d-c6b0b3ae1ac3","system_id":"levelo_inurba_marseille","lat":43.28316,"lon":5.35033,"is_reserved":false,"is_disabled":false,"rental_uris":{"android":"levelo://app?vid=b59e51ca-d910-4846-ae9d-c6b0b3ae1ac3","ios":"levelo://app?vid=b59e51ca-d910-4846-ae9d-c6b0b3ae1ac3"},"vehicle_type_id":"4","last_reported":1752300916,"current_range_meters":18800,"station_id":"ce4bhbp2rcd13ifvqerg","pricing_plan_id":"cebpf4jnsgd1na2vs0mg"},{"bike_id":"9d0d85e3-ee19-452d-93c5-fbfc98a09acf","system_id":"levelo_inurba_marseille","lat":43.29506,"lon":5.43849,"is_reserved":false,"is_disabled":false,"rental_uris":{"android":"levelo://app?vid=9d0d85e3-ee19-452d-93c5-fbfc98a09acf","ios":"levelo://app?vid=9d0d85e3-ee19-452d-93c5-fbfc98a09acf"},"vehicle_type_id":"4","last_reported":1752300916,"current_range_meters":18800,"station_id":"","pricing_plan_id":"cebpf4jnsgd1na2vs0mg"},{"bike_id":"d799b321-3a7d-4201-b46e-ffe2ad124f19","system_id":"levelo_inurba_marseille","lat":43.32886,"lon":5.38344,"is_reserved":false,"is_disabled":false,"rental_uris":{"android":"levelo://app?vid=d799b321-3a7d-4201-b46e-ffe2ad124f19","ios":"levelo://app?vid=d799b321-3a7d-4201-b46e-ffe2ad124f19"},"vehicle_type_id":"4","last_reported":1752300916,"current_range_meters":18800,"station_id":"","pricing_plan_id":"cebpf4jnsgd1na2vs0mg"},{"bike_id":"370ae3e6-8487-4b1d-a408-f62ab081da71","system_id":"levelo_inurba_marseille","lat":43.29276,"lon":5.40123,"is_reserved":false,"is_disabled":false,"rental_uris":{"android":"levelo://app?vid=370ae3e6-8487-4b1d-a408-f62ab081da71","ios":"levelo://app?vid=370ae3e6-8487-4b1d-a408-f62ab081da71"},"vehicle_type_id":"4","last_reported":1752300916,"current_range_meters":18800,"station_id":"ce4bh312rcd13ifvqdk0","pricing_plan_id":"cebpf4jnsgd1na2vs0mg"},{"bike_id":"b9942fc9-bd94-4ea4-bc4a-7c740477c155","system_id":"levelo_inurba_marseille","lat":43.29616,"lon":5.37732,"is_reserved":false,"is_disabled":false,"rental_uris":{"android":"levelo://app?vid=b9942fc9-bd94-4ea4-bc4a-7c740477c155","ios":"levelo://app?vid=b9942fc9-bd94-4ea4-bc4a-7c740477c155"},"vehicle_type_id":"4","last_reported":1752300916,"current_range_meters":19200,"station_id":"ce4bgi92rcd13ifvqb90","pricing_plan_id":"cebpf4jnsgd1na2vs0mg"},{"bike_id":"4b8da722-ee9e-48a4-a5e5-3a8a10364708","system_id":"levelo_inurba_marseille","lat":43.312319,"lon":5.37816,"is_reserved":false,"is_disabled":false,"rental_uris":{"android":"levelo://app?vid=4b8da722-ee9e-48a4-a5e5-3a8a10364708","ios":"levelo://app?vid=4b8da722-ee9e-48a4-a5e5-3a8a10364708"},"vehicle_type_id":"4","last_reported":1752300916,"current_range_meters":19200,"station_id":"","pricing_plan_id":"cebpf4jnsgd1na2vs0mg"},{"bike_id":"9495bc52-7b34-46f9-a02e-5095ef29cb81","system_id":"levelo_inurba_marseille","lat":43.33617,"lon":5.4103,"is_reserved":false,"is_disabled":false,"rental_uris":{"android":"levelo://app?vid=9495bc52-7b34-46f9-a02e-5095ef29cb81","ios":"levelo://app?vid=9495bc52-7b34-46f9-a02e-5095ef29cb81"},"vehicle_type_id":"4","last_reported":1752300916,"current_range_meters":19200,"station_id":"ce4bhqh2rcd13ifvqhmg","pricing_plan_id":"cebpf4jnsgd1na2vs0mg"},{"bike_id":"57692aae-9841-41ad-bc01-254866eaf8b0","system_id":"levelo_inurba_marseille","lat":43.323421,"lon":5.406202,"is_reserved":false,"is_disabled":false,"rental_uris":{"android":"levelo://app?vid=57692aae-9841-41ad-bc01-254866eaf8b0","ios":"levelo://app?vid=57692aae-9841-41ad-bc01-254866eaf8b0"},"vehicle_type_id":"4","last_reported":1752300916,"current_range_meters":19200,"station_id":"ce4bhq92rcd13ifvqhjg","pricing_plan_id":"cebpf4jnsgd1na2vs0mg"},{"bike_id":"d79a699f-219a-4276-9165-07d645cadd36","system_id":"levelo_inurba_marseille","lat":43.279688,"lon":5.387497,"is_reserved":false,"is_disabled":true,"rental_uris":{"android":"levelo://app?vid=d79a699f-219a-4276-9165-07d645cadd36","ios":"levelo://app?vid=d79a699f-219a-4276-9165-07d645cadd36"},"vehicle_type_id":"4","last_reported":1752300916,"current_range_meters":19200,"station_id":"ce4bhg12rcd13ifvqf80","pricing_plan_id":"cebpf4jnsgd1na2vs0mg"},{"bike_id":"5af35bc3-c835-45dc-8089-0d78e9c38b02","system_id":"levelo_inurba_marseille","lat":43.27896,"lon":5.38002,"is_reserved":false,"is_disabled":false,"rental_uris":{"android":"levelo://app?vid=5af35bc3-c835-45dc-8089-0d78e9c38b02","ios":"levelo://app?vid=5af35bc3-c835-45dc-8089-0d78e9c38b02"},"vehicle_type_id":"4","last_reported":1752300916,"current_range_meters":19200,"station_id":"ce4bhf92rcd13ifvqf50","pricing_plan_id":"cebpf4jnsgd1na2vs0mg"},{"bike_id":"e817dbcf-1eb6-4edb-9c23-a648f327672e","system_id":"levelo_inurba_marseille","lat":43.303212,"lon":5.404614,"is_reserved":false,"is_disabled":false,"rental_uris":{"android":"levelo://app?vid=e817dbcf-1eb6-4edb-9c23-a648f327672e","ios":"levelo://app?vid=e817dbcf-1eb6-4edb-9c23-a648f327672e"},"vehicle_type_id":"4","last_reported":1752300916,"current_range_meters":19200,"station_id":"ce4bh012rcd13ifvqd10","pricing_plan_id":"cebpf4jnsgd1na2vs0mg"},{"bike_id":"d59b6034-62d4-4ad0-ad26-53c378a6e831","system_id":"levelo_inurba_marseille","lat":43.26557,"lon":5.37288,"is_reserved":false,"is_disabled":false,"rental_uris":{"android":"levelo://app?vid=d59b6034-62d4-4ad0-ad26-53c378a6e831","ios":"levelo://app?vid=d59b6034-62d4-4ad0-ad26-53c378a6e831"},"vehicle_type_id":"4","last_reported":1752300916,"current_range_meters":19200,"station_id":"ce4bhg12rcd13ifvqf70","pricing_plan_id":"cebpf4jnsgd1na2vs0mg"},{"bike_id":"cdf43cd5-317e-4133-92d1-72261db0c111","system_id":"levelo_inurba_marseille","lat":43.24084,"lon":5.3774,"is_reserved":false,"is_disabled":true,"rental_uris":{"android":"levelo://app?vid=cdf43cd5-317e-4133-92d1-72261db0c111","ios":"levelo://app?vid=cdf43cd5-317e-4133-92d1-72261db0c111"},"vehicle_type_id":"4","last_reported":1752300916,"current_range_meters":19600,"station_id":"ce4bhnp2rcd13ifvqgvg","pricing_plan_id":"cebpf4jnsgd1na2vs0mg"},{"bike_id":"a46b9dfb-4db3-4551-a2f5-a8c981c35f1f","system_id":"levelo_inurba_marseille","lat":43.28848,"lon":5.39359,"is_reserved":false,"is_disabled":true,"rental_uris":{"android":"levelo://app?vid=a46b9dfb-4db3-4551-a2f5-a8c981c35f1f","ios":"levelo://app?vid=a46b9dfb-4db3-4551-a2f5-a8c981c35f1f"},"vehicle_type_id":"4","last_reported":1752300916,"current_range_meters":19600,"station_id":"ce4bh2p2rcd13ifvqdi0","pricing_plan_id":"cebpf4jnsgd1na2vs0mg"},{"bike_id":"08b6b04f-aa04-48eb-8aa3-4dd7574af152","system_id":"levelo_inurba_marseille","lat":43.31714,"lon":5.37745,"is_reserved":false,"is_disabled":false,"rental_uris":{"android":"levelo://app?vid=08b6b04f-aa04-48eb-8aa3-4dd7574af152","ios":"levelo://app?vid=08b6b04f-aa04-48eb-8aa3-4dd7574af152"},"vehicle_type_id":"4","last_reported":1752300916,"current_range_meters":19600,"station_id":"ce4bgth2rcd13ifvqch0","pricing_plan_id":"cebpf4jnsgd1na2vs0mg"},{"bike_id":"49a25542-5ccc-437e-a925-aba2deda045d","system_id":"levelo_inurba_marseille","lat":43.320075,"lon":5.381674,"is_reserved":false,"is_disabled":false,"rental_uris":{"android":"levelo://app?vid=49a25542-5ccc-437e-a925-aba2deda045d","ios":"levelo://app?vid=49a25542-5ccc-437e-a925-aba2deda045d"},"vehicle_type_id":"4","last_reported":1752300916,"current_range_meters":19600,"station_id":"ce4bhr12rcd13ifvqhpg","pricing_plan_id":"cebpf4jnsgd1na2vs0mg"},{"bike_id":"58b6f68f-38be-4bcd-bd5c-38d33fd60f98","system_id":"levelo_inurba_marseille","lat":43.25101,"lon":5.3952,"is_reserved":false,"is_disabled":false,"rental_uris":{"android":"levelo://app?vid=58b6f68f-38be-4bcd-bd5c-38d33fd60f98","ios":"levelo://app?vid=58b6f68f-38be-4bcd-bd5c-38d33fd60f98"},"vehicle_type_id":"4","last_reported":1752300916,"current_range_meters":20000,"station_id":"ce4bhm12rcd13ifvqgkg","pricing_plan_id":"cebpf4jnsgd1na2vs0mg"},{"bike_id":"a0033d5f-9dde-4d7c-a1b1-b3d6e1cbb6ab","system_id":"levelo_inurba_marseille","lat":43.26556,"lon":5.37284,"is_reserved":false,"is_disabled":false,"rental_uris":{"android":"levelo://app?vid=a0033d5f-9dde-4d7c-a1b1-b3d6e1cbb6ab","ios":"levelo://app?vid=a0033d5f-9dde-4d7c-a1b1-b3d6e1cbb6ab"},"vehicle_type_id":"4","last_reported":1752300916,"current_range_meters":20000,"station_id":"ce4bhg12rcd13ifvqf70","pricing_plan_id":"cebpf4jnsgd1na2vs0mg"},{"bike_id":"ece5e006-0a29-4a34-88d5-2dde675964aa","system_id":"levelo_inurba_marseille","lat":43.27626,"lon":5.36104,"is_reserved":false,"is_disabled":false,"rental_uris":{"android":"levelo://app?vid=ece5e006-0a29-4a34-88d5-2dde675964aa","ios":"levelo://app?vid=ece5e006-0a29-4a34-88d5-2dde675964aa"},"vehicle_type_id":"4","last_reported":1752300916,"current_range_meters":20000,"station_id":"ce4bgj92rcd13ifvqbe0","pricing_plan_id":"cebpf4jnsgd1na2vs0mg"},{"bike_id":"f9924005-c8ac-4086-8e25-9a21391f65ea","system_id":"levelo_inurba_marseille","lat":43.2119,"lon":5.3509,"is_reserved":false,"is_disabled":false,"rental_uris":{"android":"levelo://app?vid=f9924005-c8ac-4086-8e25-9a21391f65ea","ios":"levelo://app?vid=f9924005-c8ac-4086-8e25-9a21391f65ea"},"vehicle_type_id":"4","last_reported":1752300916,"current_range_meters":20000,"station_id":"st_cvj6sg6p6f1abm77japg","pricing_plan_id":"cebpf4jnsgd1na2vs0mg"},{"bike_id":"2afd10ce-5f23-4122-9c7a-a3416be941b2","system_id":"levelo_inurba_marseille","lat":43.260256,"lon":5.37555,"is_reserved":false,"is_disabled":true,"rental_uris":{"android":"levelo://app?vid=2afd10ce-5f23-4122-9c7a-a3416be941b2","ios":"levelo://app?vid=2afd10ce-5f23-4122-9c7a-a3416be941b2"},"vehicle_type_id":"4","last_reported":1752300916,"current_range_meters":20000,"station_id":"ce4bhgh2rcd13ifvqfa0","pricing_plan_id":"cebpf4jnsgd1na2vs0mg"},{"bike_id":"93736004-e478-41dc-b796-7360599bf429","system_id":"levelo_inurba_marseille","lat":43.32078,"lon":5.41581,"is_reserved":false,"is_disabled":true,"rental_uris":{"android":"levelo://app?vid=93736004-e478-41dc-b796-7360599bf429","ios":"levelo://app?vid=93736004-e478-41dc-b796-7360599bf429"},"vehicle_type_id":"4","last_reported":1752300916,"current_range_meters":20000,"station_id":"ce4bhq92rcd13ifvqhkg","pricing_plan_id":"cebpf4jnsgd1na2vs0mg"},{"bike_id":"14b914a7-ac81-4524-a358-77b861ff3535","system_id":"levelo_inurba_marseille","lat":43.27618,"lon":5.360978,"is_reserved":false,"is_disabled":false,"rental_uris":{"android":"levelo://app?vid=14b914a7-ac81-4524-a358-77b861ff3535","ios":"levelo://app?vid=14b914a7-ac81-4524-a358-77b861ff3535"},"vehicle_type_id":"4","last_reported":1752300916,"current_range_meters":20000,"station_id":"ce4bgj92rcd13ifvqbe0","pricing_plan_id":"cebpf4jnsgd1na2vs0mg"},{"bike_id":"904cd745-de86-436e-965f-75fc25c24822","system_id":"levelo_inurba_marseille","lat":43.2904,"lon":5.37567,"is_reserved":false,"is_disabled":false,"rental_uris":{"android":"levelo://app?vid=904cd745-de86-436e-965f-75fc25c24822","ios":"levelo://app?vid=904cd745-de86-436e-965f-75fc25c24822"},"vehicle_type_id":"4","last_reported":1752300916,"current_range_meters":17600,"station_id":"ce4bh692rcd13ifvqe90","pricing_plan_id":"cebpf4jnsgd1na2vs0mg"},{"bike_id":"4fca0cc4-d924-45aa-a1a3-8643e5ece2e2","system_id":"levelo_inurba_marseille","lat":43.24665,"lon":5.381617,"is_reserved":false,"is_disabled":false,"rental_uris":{"android":"levelo://app?vid=4fca0cc4-d924-45aa-a1a3-8643e5ece2e2","ios":"levelo://app?vid=4fca0cc4-d924-45aa-a1a3-8643e5ece2e2"},"vehicle_type_id":"4","last_reported":1752300916,"current_range_meters":20000,"station_id":"ce4bhih2rcd13ifvqfr0","pricing_plan_id":"cebpf4jnsgd1na2vs0mg"},{"bike_id":"d243b042-2112-4e24-b0fe-d5014f355fef","system_id":"levelo_inurba_marseille","lat":43.29526,"lon":5.37503,"is_reserved":false,"is_disabled":false,"rental_uris":{"android":"levelo://app?vid=d243b042-2112-4e24-b0fe-d5014f355fef","ios":"levelo://app?vid=d243b042-2112-4e24-b0fe-d5014f355fef"},"vehicle_type_id":"4","last_reported":1752300916,"current_range_meters":20000,"station_id":"ce4bgkp2rcd13ifvqbmg","pricing_plan_id":"cebpf4jnsgd1na2vs0mg"},{"bike_id":"64889f51-2893-4ba2-af07-b83d26853ca9","system_id":"levelo_inurba_marseille","lat":43.29286,"lon":5.40121,"is_reserved":false,"is_disabled":true,"rental_uris":{"android":"levelo://app?vid=64889f51-2893-4ba2-af07-b83d26853ca9","ios":"levelo://app?vid=64889f51-2893-4ba2-af07-b83d26853ca9"},"vehicle_type_id":"4","last_reported":1752300916,"current_range_meters":20400,"station_id":"ce4bh312rcd13ifvqdk0","pricing_plan_id":"cebpf4jnsgd1na2vs0mg"},{"bike_id":"81a7968c-76d4-40a6-9015-2ce2ddcae4c6","system_id":"levelo_inurba_marseille","lat":43.28438,"lon":5.3922,"is_reserved":false,"is_disabled":false,"rental_uris":{"android":"levelo://app?vid=81a7968c-76d4-40a6-9015-2ce2ddcae4c6","ios":"levelo://app?vid=81a7968c-76d4-40a6-9015-2ce2ddcae4c6"},"vehicle_type_id":"4","last_reported":1752300916,"current_range_meters":20400,"station_id":"ce4bhoh2rcd13ifvqh5g","pricing_plan_id":"cebpf4jnsgd1na2vs0mg"},{"bike_id":"2be08dce-0157-4ef8-802b-b5ca6818a70f","system_id":"levelo_inurba_marseille","lat":43.31283,"lon":5.40163,"is_reserved":false,"is_disabled":false,"rental_uris":{"android":"levelo://app?vid=2be08dce-0157-4ef8-802b-b5ca6818a70f","ios":"levelo://app?vid=2be08dce-0157-4ef8-802b-b5ca6818a70f"},"vehicle_type_id":"4","last_reported":1752300916,"current_range_meters":20400,"station_id":"ce4bh092rcd13ifvqd30","pricing_plan_id":"cebpf4jnsgd1na2vs0mg"},{"bike_id":"07bbe0ad-515d-489f-9d55-8f6b6e5a3262","system_id":"levelo_inurba_marseille","lat":43.28442,"lon":5.3921,"is_reserved":false,"is_disabled":false,"rental_uris":{"android":"levelo://app?vid=07bbe0ad-515d-489f-9d55-8f6b6e5a3262","ios":"levelo://app?vid=07bbe0ad-515d-489f-9d55-8f6b6e5a3262"},"vehicle_type_id":"4","last_reported":1752300916,"current_range_meters":20000,"station_id":"ce4bhoh2rcd13ifvqh5g","pricing_plan_id":"cebpf4jnsgd1na2vs0mg"},{"bike_id":"8e23fa40-63b5-4fca-aaa9-0b2e48c2c790","system_id":"levelo_inurba_marseille","lat":43.30967,"lon":5.39032,"is_reserved":false,"is_disabled":true,"rental_uris":{"android":"levelo://app?vid=8e23fa40-63b5-4fca-aaa9-0b2e48c2c790","ios":"levelo://app?vid=8e23fa40-63b5-4fca-aaa9-0b2e48c2c790"},"vehicle_type_id":"4","last_reported":1752300916,"current_range_meters":20400,"station_id":"ce4bgup2rcd13ifvqco0","pricing_plan_id":"cebpf4jnsgd1na2vs0mg"},{"bike_id":"05465d77-d204-47be-83d9-25429d2e73ca","system_id":"levelo_inurba_marseille","lat":43.30472,"lon":5.37909,"is_reserved":false,"is_disabled":false,"rental_uris":{"android":"levelo://app?vid=05465d77-d204-47be-83d9-25429d2e73ca","ios":"levelo://app?vid=05465d77-d204-47be-83d9-25429d2e73ca"},"vehicle_type_id":"4","last_reported":1752300916,"current_range_meters":20400,"station_id":"ce4bgup2rcd13ifvqcn0","pricing_plan_id":"cebpf4jnsgd1na2vs0mg"},{"bike_id":"adcc9ae0-a9a8-4cbc-892d-3748d0a338d6","system_id":"levelo_inurba_marseille","lat":43.2988,"lon":5.39722,"is_reserved":false,"is_disabled":true,"rental_uris":{"android":"levelo://app?vid=adcc9ae0-a9a8-4cbc-892d-3748d0a338d6","ios":"levelo://app?vid=adcc9ae0-a9a8-4cbc-892d-3748d0a338d6"},"vehicle_type_id":"4","last_reported":1752300916,"current_range_meters":20400,"station_id":"ce4bh0h2rcd13ifvqd50","pricing_plan_id":"cebpf4jnsgd1na2vs0mg"},{"bike_id":"6ab47a3b-33be-43a3-9be5-22544c2b0721","system_id":"levelo_inurba_marseille","lat":43.295311,"lon":5.385457,"is_reserved":false,"is_disabled":true,"rental_uris":{"android":"levelo://app?vid=6ab47a3b-33be-43a3-9be5-22544c2b0721","ios":"levelo://app?vid=6ab47a3b-33be-43a3-9be5-22544c2b0721"},"vehicle_type_id":"4","last_reported":1752300916,"current_range_meters":20800,"station_id":"ce4bgih2rcd13ifvqba0","pricing_plan_id":"cebpf4jnsgd1na2vs0mg"},{"bike_id":"a97283a8-00c1-4a88-b765-2d0c83f0c3b3","system_id":"levelo_inurba_marseille","lat":43.25006,"lon":5.38926,"is_reserved":false,"is_disabled":false,"rental_uris":{"android":"levelo://app?vid=a97283a8-00c1-4a88-b765-2d0c83f0c3b3","ios":"levelo://app?vid=a97283a8-00c1-4a88-b765-2d0c83f0c3b3"},"vehicle_type_id":"4","last_reported":1752300916,"current_range_meters":20800,"station_id":"ce4bhgp2rcd13ifvqfd0","pricing_plan_id":"cebpf4jnsgd1na2vs0mg"},{"bike_id":"5ac1cc19-1bc3-4f55-9cc0-4d45c0e83a3a","system_id":"levelo_inurba_marseille","lat":43.29273,"lon":5.40195,"is_reserved":false,"is_disabled":false,"rental_uris":{"android":"levelo://app?vid=5ac1cc19-1bc3-4f55-9cc0-4d45c0e83a3a","ios":"levelo://app?vid=5ac1cc19-1bc3-4f55-9cc0-4d45c0e83a3a"},"vehicle_type_id":"4","last_reported":1752300916,"current_range_meters":20800,"station_id":"ce4bh312rcd13ifvqdk0","pricing_plan_id":"cebpf4jnsgd1na2vs0mg"},{"bike_id":"71ffafe8-ba4f-4329-9795-1b18b71c34dd","system_id":"levelo_inurba_marseille","lat":43.2978,"lon":5.37071,"is_reserved":false,"is_disabled":false,"rental_uris":{"android":"levelo://app?vid=71ffafe8-ba4f-4329-9795-1b18b71c34dd","ios":"levelo://app?vid=71ffafe8-ba4f-4329-9795-1b18b71c34dd"},"vehicle_type_id":"4","last_reported":1752300916,"current_range_meters":21600,"station_id":"ce4bgop2rcd13ifvqc1g","pricing_plan_id":"cebpf4jnsgd1na2vs0mg"},{"bike_id":"9b40dc73-509b-4d2f-8a27-44696719b175","system_id":"levelo_inurba_marseille","lat":43.270718,"lon":5.422839,"is_reserved":false,"is_disabled":false,"rental_uris":{"android":"levelo://app?vid=9b40dc73-509b-4d2f-8a27-44696719b175","ios":"levelo://app?vid=9b40dc73-509b-4d2f-8a27-44696719b175"},"vehicle_type_id":"4","last_reported":1752300916,"current_range_meters":21600,"station_id":"ce4bhk92rcd13ifvqgb0","pricing_plan_id":"cebpf4jnsgd1na2vs0mg"},{"bike_id":"02c71304-9c4f-4ebf-b265-2eb94afb5a95","system_id":"levelo_inurba_marseille","lat":43.30932,"lon":5.36832,"is_reserved":false,"is_disabled":false,"rental_uris":{"android":"levelo://app?vid=02c71304-9c4f-4ebf-b265-2eb94afb5a95","ios":"levelo://app?vid=02c71304-9c4f-4ebf-b265-2eb94afb5a95"},"vehicle_type_id":"4","last_reported":1752300916,"current_range_meters":21600,"station_id":"","pricing_plan_id":"cebpf4jnsgd1na2vs0mg"},{"bike_id":"45be3528-fd16-498e-8434-e30e29d5ac2e","system_id":"levelo_inurba_marseille","lat":43.30372,"lon":5.39821,"is_reserved":false,"is_disabled":false,"rental_uris":{"android":"levelo://app?vid=45be3528-fd16-498e-8434-e30e29d5ac2e","ios":"levelo://app?vid=45be3528-fd16-498e-8434-e30e29d5ac2e"},"vehicle_type_id":"4","last_reported":1752300916,"current_range_meters":21600,"station_id":"","pricing_plan_id":"cebpf4jnsgd1na2vs0mg"},{"bike_id":"2d5ece50-7b5e-4b8c-b259-cb04f9b7d133","system_id":"levelo_inurba_marseille","lat":43.31363,"lon":5.38494,"is_reserved":false,"is_disabled":false,"rental_uris":{"android":"levelo://app?vid=2d5ece50-7b5e-4b8c-b259-cb04f9b7d133","ios":"levelo://app?vid=2d5ece50-7b5e-4b8c-b259-cb04f9b7d133"},"vehicle_type_id":"4","last_reported":1752300916,"current_range_meters":21600,"station_id":"ce4bgt92rcd13ifvqcf0","pricing_plan_id":"cebpf4jnsgd1na2vs0mg"},{"bike_id":"760e7858-c0b8-4554-a613-7f2d68de507f","system_id":"levelo_inurba_marseille","lat":43.301378,"lon":5.372015,"is_reserved":false,"is_disabled":false,"rental_uris":{"android":"levelo://app?vid=760e7858-c0b8-4554-a613-7f2d68de507f","ios":"levelo://app?vid=760e7858-c0b8-4554-a613-7f2d68de507f"},"vehicle_type_id":"4","last_reported":1752300916,"current_range_meters":21600,"station_id":"","pricing_plan_id":"cebpf4jnsgd1na2vs0mg"},{"bike_id":"dc47e28b-4d2c-4cc0-9dcc-30f47829d9cb","system_id":"levelo_inurba_marseille","lat":43.25031,"lon":5.38926,"is_reserved":false,"is_disabled":false,"rental_uris":{"android":"levelo://app?vid=dc47e28b-4d2c-4cc0-9dcc-30f47829d9cb","ios":"levelo://app?vid=dc47e28b-4d2c-4cc0-9dcc-30f47829d9cb"},"vehicle_type_id":"4","last_reported":1752300916,"current_range_meters":21600,"station_id":"ce4bhgp2rcd13ifvqfd0","pricing_plan_id":"cebpf4jnsgd1na2vs0mg"},{"bike_id":"49b911d1-4d44-404c-9f01-b5f57b93eb1d","system_id":"levelo_inurba_marseille","lat":43.290406,"lon":5.399634,"is_reserved":false,"is_disabled":false,"rental_uris":{"android":"levelo://app?vid=49b911d1-4d44-404c-9f01-b5f57b93eb1d","ios":"levelo://app?vid=49b911d1-4d44-404c-9f01-b5f57b93eb1d"},"vehicle_type_id":"4","last_reported":1752300916,"current_range_meters":21600,"station_id":"ce4bh392rcd13ifvqdm0","pricing_plan_id":"cebpf4jnsgd1na2vs0mg"},{"bike_id":"ffe737bd-72ef-4f4c-a192-40a6db0a7d85","system_id":"levelo_inurba_marseille","lat":43.30148,"lon":5.38082,"is_reserved":false,"is_disabled":false,"rental_uris":{"android":"levelo://app?vid=ffe737bd-72ef-4f4c-a192-40a6db0a7d85","ios":"levelo://app?vid=ffe737bd-72ef-4f4c-a192-40a6db0a7d85"},"vehicle_type_id":"4","last_reported":1752300916,"current_range_meters":21600,"station_id":"ce4bgjp2rcd13ifvqbh0","pricing_plan_id":"cebpf4jnsgd1na2vs0mg"},{"bike_id":"3194e511-7eaa-423b-8037-0a4e779bf4e7","system_id":"levelo_inurba_marseille","lat":43.30766,"lon":5.37635,"is_reserved":false,"is_disabled":false,"rental_uris":{"android":"levelo://app?vid=3194e511-7eaa-423b-8037-0a4e779bf4e7","ios":"levelo://app?vid=3194e511-7eaa-423b-8037-0a4e779bf4e7"},"vehicle_type_id":"4","last_reported":1752300916,"current_range_meters":22000,"station_id":"ce4bgv92rcd13ifvqcq0","pricing_plan_id":"cebpf4jnsgd1na2vs0mg"},{"bike_id":"06c941b6-ccf0-438e-96c1-752265e3672d","system_id":"levelo_inurba_marseille","lat":43.31266,"lon":5.40169,"is_reserved":false,"is_disabled":false,"rental_uris":{"android":"levelo://app?vid=06c941b6-ccf0-438e-96c1-752265e3672d","ios":"levelo://app?vid=06c941b6-ccf0-438e-96c1-752265e3672d"},"vehicle_type_id":"4","last_reported":1752300916,"current_range_meters":22000,"station_id":"ce4bh092rcd13ifvqd30","pricing_plan_id":"cebpf4jnsgd1na2vs0mg"},{"bike_id":"69e04c82-feaa-4455-a918-fbb51efec30e","system_id":"levelo_inurba_marseille","lat":43.30549,"lon":5.38145,"is_reserved":false,"is_disabled":false,"rental_uris":{"android":"levelo://app?vid=69e04c82-feaa-4455-a918-fbb51efec30e","ios":"levelo://app?vid=69e04c82-feaa-4455-a918-fbb51efec30e"},"vehicle_type_id":"4","last_reported":1752300916,"current_range_meters":22000,"station_id":"","pricing_plan_id":"cebpf4jnsgd1na2vs0mg"},{"bike_id":"dd8a22ab-a77e-41e2-b54b-73865567fd13","system_id":"levelo_inurba_marseille","lat":43.29291,"lon":5.40154,"is_reserved":false,"is_disabled":false,"rental_uris":{"android":"levelo://app?vid=dd8a22ab-a77e-41e2-b54b-73865567fd13","ios":"levelo://app?vid=dd8a22ab-a77e-41e2-b54b-73865567fd13"},"vehicle_type_id":"4","last_reported":1752300916,"current_range_meters":22000,"station_id":"ce4bh312rcd13ifvqdk0","pricing_plan_id":"cebpf4jnsgd1na2vs0mg"},{"bike_id":"7f8239f6-49ce-42e0-a2e5-983000e48522","system_id":"levelo_inurba_marseille","lat":43.25113,"lon":5.40322,"is_reserved":false,"is_disabled":false,"rental_uris":{"android":"levelo://app?vid=7f8239f6-49ce-42e0-a2e5-983000e48522","ios":"levelo://app?vid=7f8239f6-49ce-42e0-a2e5-983000e48522"},"vehicle_type_id":"4","last_reported":1752300916,"current_range_meters":22000,"station_id":"ce4bhlh2rcd13ifvqgig","pricing_plan_id":"cebpf4jnsgd1na2vs0mg"},{"bike_id":"3bc59915-9e27-4f9a-ada7-649e082979d5","system_id":"levelo_inurba_marseille","lat":43.299,"lon":5.43687,"is_reserved":false,"is_disabled":false,"rental_uris":{"android":"levelo://app?vid=3bc59915-9e27-4f9a-ada7-649e082979d5","ios":"levelo://app?vid=3bc59915-9e27-4f9a-ada7-649e082979d5"},"vehicle_type_id":"4","last_reported":1752300916,"current_range_meters":22000,"station_id":"ce4bhpp2rcd13ifvqhfg","pricing_plan_id":"cebpf4jnsgd1na2vs0mg"},{"bike_id":"c35b2c01-0717-4a19-a3fc-fc581bde10ae","system_id":"levelo_inurba_marseille","lat":43.30814,"lon":5.38151,"is_reserved":false,"is_disabled":false,"rental_uris":{"android":"levelo://app?vid=c35b2c01-0717-4a19-a3fc-fc581bde10ae","ios":"levelo://app?vid=c35b2c01-0717-4a19-a3fc-fc581bde10ae"},"vehicle_type_id":"4","last_reported":1752300916,"current_range_meters":22400,"station_id":"ce4bgt12rcd13ifvqce0","pricing_plan_id":"cebpf4jnsgd1na2vs0mg"},{"bike_id":"9042ed46-1f81-485d-87b2-e44543c848ee","system_id":"levelo_inurba_marseille","lat":43.30607,"lon":5.37193,"is_reserved":false,"is_disabled":false,"rental_uris":{"android":"levelo://app?vid=9042ed46-1f81-485d-87b2-e44543c848ee","ios":"levelo://app?vid=9042ed46-1f81-485d-87b2-e44543c848ee"},"vehicle_type_id":"4","last_reported":1752300916,"current_range_meters":22400,"station_id":"ce4bgqh2rcd13ifvqc4g","pricing_plan_id":"cebpf4jnsgd1na2vs0mg"},{"bike_id":"91a5348d-1996-4338-8fbd-12c576d3f361","system_id":"levelo_inurba_marseille","lat":43.30812,"lon":5.38167,"is_reserved":false,"is_disabled":false,"rental_uris":{"android":"levelo://app?vid=91a5348d-1996-4338-8fbd-12c576d3f361","ios":"levelo://app?vid=91a5348d-1996-4338-8fbd-12c576d3f361"},"vehicle_type_id":"4","last_reported":1752300916,"current_range_meters":22400,"station_id":"ce4bgt12rcd13ifvqce0","pricing_plan_id":"cebpf4jnsgd1na2vs0mg"},{"bike_id":"14bd388a-460e-488f-af3a-d6fc123137a9","system_id":"levelo_inurba_marseille","lat":43.246743,"lon":5.381664,"is_reserved":false,"is_disabled":false,"rental_uris":{"android":"levelo://app?vid=14bd388a-460e-488f-af3a-d6fc123137a9","ios":"levelo://app?vid=14bd388a-460e-488f-af3a-d6fc123137a9"},"vehicle_type_id":"4","last_reported":1752300916,"current_range_meters":22400,"station_id":"ce4bhih2rcd13ifvqfr0","pricing_plan_id":"cebpf4jnsgd1na2vs0mg"},{"bike_id":"80706ed8-34fd-4666-9e3e-8aacbb0a19ea","system_id":"levelo_inurba_marseille","lat":43.267966,"lon":5.402679,"is_reserved":false,"is_disabled":true,"rental_uris":{"android":"levelo://app?vid=80706ed8-34fd-4666-9e3e-8aacbb0a19ea","ios":"levelo://app?vid=80706ed8-34fd-4666-9e3e-8aacbb0a19ea"},"vehicle_type_id":"4","last_reported":1752300916,"current_range_meters":22400,"station_id":"ce501612rcd8frsf0b60","pricing_plan_id":"cebpf4jnsgd1na2vs0mg"},{"bike_id":"f5a47db5-6fb2-46bd-a2de-efa4ad13bf60","system_id":"levelo_inurba_marseille","lat":43.21191,"lon":5.3508,"is_reserved":false,"is_disabled":false,"rental_uris":{"android":"levelo://app?vid=f5a47db5-6fb2-46bd-a2de-efa4ad13bf60","ios":"levelo://app?vid=f5a47db5-6fb2-46bd-a2de-efa4ad13bf60"},"vehicle_type_id":"4","last_reported":1752300916,"current_range_meters":22800,"station_id":"st_cvj6sg6p6f1abm77japg","pricing_plan_id":"cebpf4jnsgd1na2vs0mg"},{"bike_id":"579c9257-e9d2-4fed-8af3-001a27548604","system_id":"levelo_inurba_marseille","lat":43.21232,"lon":5.35078,"is_reserved":false,"is_disabled":false,"rental_uris":{"android":"levelo://app?vid=579c9257-e9d2-4fed-8af3-001a27548604","ios":"levelo://app?vid=579c9257-e9d2-4fed-8af3-001a27548604"},"vehicle_type_id":"4","last_reported":1752300916,"current_range_meters":22800,"station_id":"","pricing_plan_id":"cebpf4jnsgd1na2vs0mg"},{"bike_id":"58375fde-ca97-4dab-be52-59caf98323d3","system_id":"levelo_inurba_marseille","lat":43.26549,"lon":5.37296,"is_reserved":false,"is_disabled":true,"rental_uris":{"android":"levelo://app?vid=58375fde-ca97-4dab-be52-59caf98323d3","ios":"levelo://app?vid=58375fde-ca97-4dab-be52-59caf98323d3"},"vehicle_type_id":"4","last_reported":1752300916,"current_range_meters":22800,"station_id":"ce4bhg12rcd13ifvqf70","pricing_plan_id":"cebpf4jnsgd1na2vs0mg"},{"bike_id":"b13a1b6d-ee3b-4421-b6bb-536d78df709e","system_id":"levelo_inurba_marseille","lat":43.31537,"lon":5.37264,"is_reserved":false,"is_disabled":false,"rental_uris":{"android":"levelo://app?vid=b13a1b6d-ee3b-4421-b6bb-536d78df709e","ios":"levelo://app?vid=b13a1b6d-ee3b-4421-b6bb-536d78df709e"},"vehicle_type_id":"4","last_reported":1752300916,"current_range_meters":22800,"station_id":"ce4bgt12rcd13ifvqcd0","pricing_plan_id":"cebpf4jnsgd1na2vs0mg"},{"bike_id":"96743d52-937f-4826-8924-38fc8c385246","system_id":"levelo_inurba_marseille","lat":43.309349,"lon":5.401596,"is_reserved":false,"is_disabled":false,"rental_uris":{"android":"levelo://app?vid=96743d52-937f-4826-8924-38fc8c385246","ios":"levelo://app?vid=96743d52-937f-4826-8924-38fc8c385246"},"vehicle_type_id":"4","last_reported":1752300916,"current_range_meters":22800,"station_id":"ce4bgvp2rcd13ifvqct0","pricing_plan_id":"cebpf4jnsgd1na2vs0mg"},{"bike_id":"37e04037-4751-45cc-9e56-db1728107dad","system_id":"levelo_inurba_marseille","lat":43.31108,"lon":5.37789,"is_reserved":false,"is_disabled":false,"rental_uris":{"android":"levelo://app?vid=37e04037-4751-45cc-9e56-db1728107dad","ios":"levelo://app?vid=37e04037-4751-45cc-9e56-db1728107dad"},"vehicle_type_id":"4","last_reported":1752300916,"current_range_meters":22800,"station_id":"ce4bgt92rcd13ifvqcg0","pricing_plan_id":"cebpf4jnsgd1na2vs0mg"},{"bike_id":"30eb0ca0-8ddd-43cd-aeff-88f0926bec3f","system_id":"levelo_inurba_marseille","lat":43.318946,"lon":5.407434,"is_reserved":false,"is_disabled":true,"rental_uris":{"android":"levelo://app?vid=30eb0ca0-8ddd-43cd-aeff-88f0926bec3f","ios":"levelo://app?vid=30eb0ca0-8ddd-43cd-aeff-88f0926bec3f"},"vehicle_type_id":"4","last_reported":1752300916,"current_range_meters":22800,"station_id":"ce4bhq12rcd13ifvqhig","pricing_plan_id":"cebpf4jnsgd1na2vs0mg"},{"bike_id":"9f7a8926-fe00-41e0-80a0-ac3ffcc68741","system_id":"levelo_inurba_marseille","lat":43.24072,"lon":5.37756,"is_reserved":false,"is_disabled":false,"rental_uris":{"android":"levelo://app?vid=9f7a8926-fe00-41e0-80a0-ac3ffcc68741","ios":"levelo://app?vid=9f7a8926-fe00-41e0-80a0-ac3ffcc68741"},"vehicle_type_id":"4","last_reported":1752300916,"current_range_meters":23200,"station_id":"ce4bhnp2rcd13ifvqgvg","pricing_plan_id":"cebpf4jnsgd1na2vs0mg"},{"bike_id":"10666549-7ebc-45b0-9816-8cedb6235d7b","system_id":"levelo_inurba_marseille","lat":43.286119,"lon":5.37052,"is_reserved":false,"is_disabled":false,"rental_uris":{"android":"levelo://app?vid=10666549-7ebc-45b0-9816-8cedb6235d7b","ios":"levelo://app?vid=10666549-7ebc-45b0-9816-8cedb6235d7b"},"vehicle_type_id":"4","last_reported":1752300916,"current_range_meters":23200,"station_id":"ce4bht12rcd13ifvqi60","pricing_plan_id":"cebpf4jnsgd1na2vs0mg"},{"bike_id":"d2501d8a-17a4-488b-92ac-71df945193d6","system_id":"levelo_inurba_marseille","lat":43.270703,"lon":5.422784,"is_reserved":false,"is_disabled":false,"rental_uris":{"android":"levelo://app?vid=d2501d8a-17a4-488b-92ac-71df945193d6","ios":"levelo://app?vid=d2501d8a-17a4-488b-92ac-71df945193d6"},"vehicle_type_id":"4","last_reported":1752300916,"current_range_meters":23200,"station_id":"ce4bhk92rcd13ifvqgb0","pricing_plan_id":"cebpf4jnsgd1na2vs0mg"},{"bike_id":"a03a975e-b486-407b-9fe2-dcab76e4a421","system_id":"levelo_inurba_marseille","lat":43.29545,"lon":5.3853,"is_reserved":false,"is_disabled":true,"rental_uris":{"android":"levelo://app?vid=a03a975e-b486-407b-9fe2-dcab76e4a421","ios":"levelo://app?vid=a03a975e-b486-407b-9fe2-dcab76e4a421"},"vehicle_type_id":"4","last_reported":1752300916,"current_range_meters":23200,"station_id":"ce4bgih2rcd13ifvqba0","pricing_plan_id":"cebpf4jnsgd1na2vs0mg"},{"bike_id":"cc6260c7-e588-42d7-afef-96c409802ccc","system_id":"levelo_inurba_marseille","lat":43.2119,"lon":5.35068,"is_reserved":false,"is_disabled":false,"rental_uris":{"android":"levelo://app?vid=cc6260c7-e588-42d7-afef-96c409802ccc","ios":"levelo://app?vid=cc6260c7-e588-42d7-afef-96c409802ccc"},"vehicle_type_id":"4","last_reported":1752300916,"current_range_meters":23200,"station_id":"st_cvj6sg6p6f1abm77japg","pricing_plan_id":"cebpf4jnsgd1na2vs0mg"},{"bike_id":"9bfc7d3d-4e60-4f8a-9c32-ef3d0e77ec5b","system_id":"levelo_inurba_marseille","lat":43.211916,"lon":5.350749,"is_reserved":false,"is_disabled":false,"rental_uris":{"android":"levelo://app?vid=9bfc7d3d-4e60-4f8a-9c32-ef3d0e77ec5b","ios":"levelo://app?vid=9bfc7d3d-4e60-4f8a-9c32-ef3d0e77ec5b"},"vehicle_type_id":"4","last_reported":1752300916,"current_range_meters":23200,"station_id":"st_cvj6sg6p6f1abm77japg","pricing_plan_id":"cebpf4jnsgd1na2vs0mg"},{"bike_id":"29dc3911-ed20-469c-be27-30aba7e69ef9","system_id":"levelo_inurba_marseille","lat":43.28504,"lon":5.38557,"is_reserved":false,"is_disabled":false,"rental_uris":{"android":"levelo://app?vid=29dc3911-ed20-469c-be27-30aba7e69ef9","ios":"levelo://app?vid=29dc3911-ed20-469c-be27-30aba7e69ef9"},"vehicle_type_id":"4","last_reported":1752300916,"current_range_meters":23200,"station_id":"ce4bh8p2rcd13ifvqeb0","pricing_plan_id":"cebpf4jnsgd1na2vs0mg"},{"bike_id":"27ddc5d2-b61b-45ad-9987-f12fa460ae74","system_id":"levelo_inurba_marseille","lat":43.30943,"lon":5.40135,"is_reserved":false,"is_disabled":false,"rental_uris":{"android":"levelo://app?vid=27ddc5d2-b61b-45ad-9987-f12fa460ae74","ios":"levelo://app?vid=27ddc5d2-b61b-45ad-9987-f12fa460ae74"},"vehicle_type_id":"4","last_reported":1752300916,"current_range_meters":23200,"station_id":"ce4bgvp2rcd13ifvqct0","pricing_plan_id":"cebpf4jnsgd1na2vs0mg"},{"bike_id":"3e8475a2-71cc-4f0b-aa84-e4a9b0792906","system_id":"levelo_inurba_marseille","lat":43.30561,"lon":5.36542,"is_reserved":false,"is_disabled":true,"rental_uris":{"android":"levelo://app?vid=3e8475a2-71cc-4f0b-aa84-e4a9b0792906","ios":"levelo://app?vid=3e8475a2-71cc-4f0b-aa84-e4a9b0792906"},"vehicle_type_id":"4","last_reported":1752300916,"current_range_meters":24000,"station_id":"ce4bgs12rcd13ifvqcag","pricing_plan_id":"cebpf4jnsgd1na2vs0mg"},{"bike_id":"54534ae9-bf25-48fa-b42c-12d66382903d","system_id":"levelo_inurba_marseille","lat":43.27074,"lon":5.42296,"is_reserved":false,"is_disabled":false,"rental_uris":{"android":"levelo://app?vid=54534ae9-bf25-48fa-b42c-12d66382903d","ios":"levelo://app?vid=54534ae9-bf25-48fa-b42c-12d66382903d"},"vehicle_type_id":"4","last_reported":1752300916,"current_range_meters":24000,"station_id":"ce4bhk92rcd13ifvqgb0","pricing_plan_id":"cebpf4jnsgd1na2vs0mg"},{"bike_id":"c591bf72-13b3-4715-813a-30448b8574a6","system_id":"levelo_inurba_marseille","lat":43.29422,"lon":5.38618,"is_reserved":false,"is_disabled":true,"rental_uris":{"android":"levelo://app?vid=c591bf72-13b3-4715-813a-30448b8574a6","ios":"levelo://app?vid=c591bf72-13b3-4715-813a-30448b8574a6"},"vehicle_type_id":"4","last_reported":1752300916,"current_range_meters":24000,"station_id":"ce4bh2h2rcd13ifvqdh0","pricing_plan_id":"cebpf4jnsgd1na2vs0mg"},{"bike_id":"07d14d86-a176-4665-a495-26ba7e0009ea","system_id":"levelo_inurba_marseille","lat":43.28284,"lon":5.35052,"is_reserved":false,"is_disabled":true,"rental_uris":{"android":"levelo://app?vid=07d14d86-a176-4665-a495-26ba7e0009ea","ios":"levelo://app?vid=07d14d86-a176-4665-a495-26ba7e0009ea"},"vehicle_type_id":"4","last_reported":1752300916,"current_range_meters":24000,"station_id":"ce4bhbp2rcd13ifvqerg","pricing_plan_id":"cebpf4jnsgd1na2vs0mg"},{"bike_id":"c8c4de1a-846f-4f5b-aace-9fb14bf7ad52","system_id":"levelo_inurba_marseille","lat":43.211945,"lon":5.350724,"is_reserved":false,"is_disabled":false,"rental_uris":{"android":"levelo://app?vid=c8c4de1a-846f-4f5b-aace-9fb14bf7ad52","ios":"levelo://app?vid=c8c4de1a-846f-4f5b-aace-9fb14bf7ad52"},"vehicle_type_id":"4","last_reported":1752300916,"current_range_meters":24000,"station_id":"st_cvj6sg6p6f1abm77japg","pricing_plan_id":"cebpf4jnsgd1na2vs0mg"},{"bike_id":"7b49c975-458d-4b6e-820c-0a946d3491f2","system_id":"levelo_inurba_marseille","lat":43.29175,"lon":5.37147,"is_reserved":false,"is_disabled":true,"rental_uris":{"android":"levelo://app?vid=7b49c975-458d-4b6e-820c-0a946d3491f2","ios":"levelo://app?vid=7b49c975-458d-4b6e-820c-0a946d3491f2"},"vehicle_type_id":"4","last_reported":1752300916,"current_range_meters":24000,"station_id":"ce4bha92rcd13ifvqeh0","pricing_plan_id":"cebpf4jnsgd1na2vs0mg"},