{"last_updated":1761685769,"ttl":60,"version":"2.2","data":{"bikes":[{"bike_id":"dbc0e999-85bd-4a1d-a4d4-696c0adb85db","system_id":"levelo_inurba_marseille","lat":43.29847,"lon":5.36299,"is_reserved":false,"is_disabled":true,"rental_uris":{"android":"levelo://app?vid=dbc0e999-85bd-4a1d-a4d4-696c0adb85db","ios":"levelo://app?vid=dbc0e999-85bd-4a1d-a4d4-696c0adb85db"},"vehicle_type_id":"4","last_reported":1761685769,"current_range_meters":2800,"station_id":"ce4bgpp2rcd13ifvqc3g","pricing_plan_id":"cebpf4jnsgd1na2vs0mg"},{"bike_id":"23b9b20f-5e77-4b3c-b370-1c2a92395c28","system_id":"levelo_inurba_marseille","lat":43.30188,"lon":5.36602,"is_reserved":false,"is_disabled":true,"rental_uris":{"android":"levelo://app?vid=23b9b20f-5e77-4b3c-b370-1c2a92395c28","ios":"levelo://app?vid=23b9b20f-5e77-4b3c-b370-1c2a92395c28"},"vehicle_type_id":"4","last_reported":1761685769,"current_range_meters":2800,"station_id":"ce4bgrh2rcd13ifvqc8g","pricing_plan_id":"cebpf4jnsgd1na2vs0mg"},{"bike_id":"64b75b4a-3497-4861-8cc2-90dd62cd9f5e","system_id":"levelo_inurba_marseille","lat":43.29297,"lon":5.43449,"is_reserved":false,"is_disabled":false,"rental_uris":{"android":"levelo://app?vid=64b75b4a-3497-4861-8cc2-90dd62cd9f5e","ios":"levelo://app?vid=64b75b4a-3497-4861-8cc2-90dd62cd9f5e"},"vehicle_type_id":"4","last_reported":1761685769,"current_range_meters":2800,"station_id":"","pricing_plan_id":"cebpf4jnsgd1na2vs0mg"},{"bike_id":"de5cece4-6186-4ccb-b70e-a25e8bd3fc86","system_id":"levelo_inurba_marseille","lat":43.337444,"lon":5.374475,"is_reserved":false,"is_disabled":false,"rental_uris":{"android":"levelo://app?vid=de5cece4-6186-4ccb-b70e-a25e8bd3fc86","ios":"levelo://app?vid=de5cece4-6186-4ccb-b70e-a25e8bd3fc86"},"vehicle_type_id":"4","last_reported":1761685769,"current_range_meters":3200,"station_id":"","pricing_plan_id":"cebpf4jnsgd1na2vs0mg"},{"bike_id":"5f1d8bea-2559-46bd-9f1a-71f37a063690","system_id":"levelo_inurba_marseille","lat":43.282549,"lon":5.37899,"is_reserved":false,"is_disabled":false,"rental_uris":{"android":"levelo://app?vid=5f1d8bea-2559-46bd-9f1a-71f37a063690","ios":"levelo://app?vid=5f1d8bea-2559-46bd-9f1a-71f37a063690"},"vehicle_type_id":"4","last_reported":1761685769,"current_range_meters":4000,"station_id":"ce4bha12rcd13ifvqee0","pricing_plan_id":"cebpf4jnsgd1na2vs0mg"},{"bike_id":"3f7c552a-2a9b-4bf8-95bd-507570380f71","system_id":"levelo_inurba_marseille","lat":43.28696,"lon":5.37937,"is_reserved":false,"is_disabled":false,"rental_uris":{"android":"levelo://app?vid=3f7c552a-2a9b-4bf8-95bd-507570380f71","ios":"levelo://app?vid=3f7c552a-2a9b-4bf8-95bd-507570380f71"},"vehicle_type_id":"4","last_reported":1761685769,"current_range_meters":4800,"station_id":"","pricing_plan_id":"cebpf4jnsgd1na2vs0mg"},{"bike_id":"c48dc094-4c25-4b99-9aa9-ff1b8c1db8dc","system_id":"levelo_inurba_marseille","lat":43.225322,"lon":5.348327,"is_reserved":false,"is_disabled":false,"rental_uris":{"android":"levelo://app?vid=c48dc094-4c25-4b99-9aa9-ff1b8c1db8dc","ios":"levelo://app?vid=c48dc094-4c25-4b99-9aa9-ff1b8c1db8dc"},"vehicle_type_id":"4","last_reported":1761685769,"current_range_meters":4800,"station_id":"","pricing_plan_id":"cebpf4jnsgd1na2vs0mg"},{"bike_id":"25cfc9a0-611e-4298-a548-1a3bea1ad243","system_id":"levelo_inurba_marseille","lat":43.299633,"lon":5.371804,"is_reserved":false,"is_disabled":false,"rental_uris":{"android":"levelo://app?vid=25cfc9a0-611e-4298-a548-1a3bea1ad243","ios":"levelo://app?vid=25cfc9a0-611e-4298-a548-1a3bea1ad243"},"vehicle_type_id":"4","last_reported":1761685769,"current_range_meters":4800,"station_id":"ce4bgr92rcd13ifvqc7g","pricing_plan_id":"cebpf4jnsgd1na2vs0mg"},{"bike_id":"312ec842-c9ae-42ec-bc05-a95e2eb799b8","system_id":"levelo_inurba_marseille","lat":43.28578,"lon":5.39489,"is_reserved":false,"is_disabled":false,"rental_uris":{"android":"levelo://app?vid=312ec842-c9ae-42ec-bc05-a95e2eb799b8","ios":"levelo://app?vid=312ec842-c9ae-42ec-bc05-a95e2eb799b8"},"vehicle_type_id":"4","last_reported":1761685769,"current_range_meters":4800,"station_id":"ce4bh292rcd13ifvqdg0","pricing_plan_id":"cebpf4jnsgd1na2vs0mg"},{"bike_id":"4ddf7669-6cdd-4415-aba7-251a3892d5ea","system_id":"levelo_inurba_marseille","lat":43.23178,"lon":5.39986,"is_reserved":false,"is_disabled":false,"rental_uris":{"android":"levelo://app?vid=4ddf7669-6cdd-4415-aba7-251a3892d5ea","ios":"levelo://app?vid=4ddf7669-6cdd-4415-aba7-251a3892d5ea"},"vehicle_type_id":"4","last_reported":1761685769,"current_range_meters":5600,"station_id":"ce4bhn12rcd13ifvqgqg","pricing_plan_id":"cebpf4jnsgd1na2vs0mg"},{"bike_id":"aba6b563-5093-4f2c-abdc-45b501f05388","system_id":"levelo_inurba_marseille","lat":43.27068,"lon":5.38309,"is_reserved":false,"is_disabled":true,"rental_uris":{"android":"levelo://app?vid=aba6b563-5093-4f2c-abdc-45b501f05388","ios":"levelo://app?vid=aba6b563-5093-4f2c-abdc-45b501f05388"},"vehicle_type_id":"4","last_reported":1761685769,"current_range_meters":5600,"station_id":"st_d3n2fo6cfp8s73cte1j0","pricing_plan_id":"cebpf4jnsgd1na2vs0mg"},{"bike_id":"4fb7c116-45c0-4948-a546-9e37319b9898","system_id":"levelo_inurba_marseille","lat":43.3012,"lon":5.43104,"is_reserved":false,"is_disabled":false,"rental_uris":{"android":"levelo://app?vid=4fb7c116-45c0-4948-a546-9e37319b9898","ios":"levelo://app?vid=4fb7c116-45c0-4948-a546-9e37319b9898"},"vehicle_type_id":"4","last_reported":1761685769,"current_range_meters":5600,"station_id":"st_d3js3co5814s73ftftug","pricing_plan_id":"cebpf4jnsgd1na2vs0mg"},{"bike_id":"d31b9fb1-06d8-48cc-99e6-4d83700d93cc","system_id":"levelo_inurba_marseille","lat":43.29892,"lon":5.43702,"is_reserved":false,"is_disabled":false,"rental_uris":{"android":"levelo://app?vid=d31b9fb1-06d8-48cc-99e6-4d83700d93cc","ios":"levelo://app?vid=d31b9fb1-06d8-48cc-99e6-4d83700d93cc"},"vehicle_type_id":"4","last_reported":1761685769,"current_range_meters":5600,"station_id":"","pricing_plan_id":"cebpf4jnsgd1na2vs0mg"},{"bike_id":"24715fdb-254d-49c2-93a3-30b24ede44d7","system_id":"levelo_inurba_marseille","lat":43.28724,"lon":5.36063,"is_reserved":false,"is_disabled":false,"rental_uris":{"android":"levelo://app?vid=24715fdb-254d-49c2-93a3-30b24ede44d7","ios":"levelo://app?vid=24715fdb-254d-49c2-93a3-30b24ede44d7"},"vehicle_type_id":"4","last_reported":1761685769,"current_range_meters":6000,"station_id":"cki0cbj6b192h4jlfktg","pricing_plan_id":"cebpf4jnsgd1na2vs0mg"},{"bike_id":"f41453ce-2830-4bbc-bd68-b1077b6fb720","system_id":"levelo_inurba_marseille","lat":43.27948,"lon":5.41038,"is_reserved":false,"is_disabled":false,"rental_uris":{"android":"levelo://app?vid=f41453ce-2830-4bbc-bd68-b1077b6fb720","ios":"levelo://app?vid=f41453ce-2830-4bbc-bd68-b1077b6fb720"},"vehicle_type_id":"4","last_reported":1761685769,"current_range_meters":6800,"station_id":"ce4bhnp2rcd13ifvqh0g","pricing_plan_id":"cebpf4jnsgd1na2vs0mg"},{"bike_id":"69b2f9eb-bb37-4b03-92a7-f55e28376598","system_id":"levelo_inurba_marseille","lat":43.26955,"lon":5.3863,"is_reserved":false,"is_disabled":false,"rental_uris":{"android":"levelo://app?vid=69b2f9eb-bb37-4b03-92a7-f55e28376598","ios":"levelo://app?vid=69b2f9eb-bb37-4b03-92a7-f55e28376598"},"vehicle_type_id":"4","last_reported":1761685769,"current_range_meters":6800,"station_id":"ce4bhh92rcd13ifvqfh0","pricing_plan_id":"cebpf4jnsgd1na2vs0mg"},{"bike_id":"609a9047-57e2-4b1e-851d-8b6ef3587f94","system_id":"levelo_inurba_marseille","lat":43.28624,"lon":5.37063,"is_reserved":false,"is_disabled":false,"rental_uris":{"android":"levelo://app?vid=609a9047-57e2-4b1e-851d-8b6ef3587f94","ios":"levelo://app?vid=609a9047-57e2-4b1e-851d-8b6ef3587f94"},"vehicle_type_id":"4","last_reported":1761685769,"current_range_meters":6800,"station_id":"ce4bht12rcd13ifvqi60","pricing_plan_id":"cebpf4jnsgd1na2vs0mg"},{"bike_id":"bc23c83e-5098-4cb2-9645-f891504fb524","system_id":"levelo_inurba_marseille","lat":43.29929,"lon":5.36529,"is_reserved":false,"is_disabled":false,"rental_uris":{"android":"levelo://app?vid=bc23c83e-5098-4cb2-9645-f891504fb524","ios":"levelo://app?vid=bc23c83e-5098-4cb2-9645-f891504fb524"},"vehicle_type_id":"4","last_reported":1761685769,"current_range_meters":6800,"station_id":"ce4bgm92rcd13ifvqbr0","pricing_plan_id":"cebpf4jnsgd1na2vs0mg"},{"bike_id":"ecf682c9-b328-42d4-bf93-c673977dea5c","system_id":"levelo_inurba_marseille","lat":43.29151,"lon":5.37153,"is_reserved":false,"is_disabled":true,"rental_uris":{"android":"levelo://app?vid=ecf682c9-b328-42d4-bf93-c673977dea5c","ios":"levelo://app?vid=ecf682c9-b328-42d4-bf93-c673977dea5c"},"vehicle_type_id":"4","last_reported":1761685769,"current_range_meters":6800,"station_id":"ce4bha92rcd13ifvqeh0","pricing_plan_id":"cebpf4jnsgd1na2vs0mg"},{"bike_id":"fd09dbe7-0bec-431b-9705-875a0c7a7829","system_id":"levelo_inurba_marseille","lat":43.23059,"lon":5.35476,"is_reserved":false,"is_disabled":true,"rental_uris":{"android":"levelo://app?vid=fd09dbe7-0bec-431b-9705-875a0c7a7829","ios":"levelo://app?vid=fd09dbe7-0bec-431b-9705-875a0c7a7829"},"vehicle_type_id":"4","last_reported":1761685769,"current_range_meters":7200,"station_id":"cpo3342slgdg3j2ifvpg","pricing_plan_id":"cebpf4jnsgd1na2vs0mg"},{"bike_id":"eea3c3c3-734f-4fd3-8061-ed84cfe47b38","system_id":"levelo_inurba_marseille","lat":43.32571,"lon":5.39125,"is_reserved":false,"is_disabled":false,"rental_uris":{"android":"levelo://app?vid=eea3c3c3-734f-4fd3-8061-ed84cfe47b38","ios":"levelo://app?vid=eea3c3c3-734f-4fd3-8061-ed84cfe47b38"},"vehicle_type_id":"4","last_reported":1761685769,"current_range_meters":7200,"station_id":"","pricing_plan_id":"cebpf4jnsgd1na2vs0mg"},{"bike_id":"bcad8694-17b3-4592-a67f-0b7ceb0ea08e","system_id":"levelo_inurba_marseille","lat":43.29587,"lon":5.3997,"is_reserved":false,"is_disabled":false,"rental_uris":{"android":"levelo://app?vid=bcad8694-17b3-4592-a67f-0b7ceb0ea08e","ios":"levelo://app?vid=bcad8694-17b3-4592-a67f-0b7ceb0ea08e"},"vehicle_type_id":"4","last_reported":1761685769,"current_range_meters":7200,"station_id":"ce4bh312rcd13ifvqdj0","pricing_plan_id":"cebpf4jnsgd1na2vs0mg"},{"bike_id":"6ae15792-7d21-46e6-95dd-e36a007921e7","system_id":"levelo_inurba_marseille","lat":43.30786,"lon":5.37657,"is_reserved":false,"is_disabled":false,"rental_uris":{"android":"levelo://app?vid=6ae15792-7d21-46e6-95dd-e36a007921e7","ios":"levelo://app?vid=6ae15792-7d21-46e6-95dd-e36a007921e7"},"vehicle_type_id":"4","last_reported":1761685769,"current_range_meters":7200,"station_id":"ce4bgv92rcd13ifvqcq0","pricing_plan_id":"cebpf4jnsgd1na2vs0mg"},{"bike_id":"ef6b5ada-0cc6-448f-8ef8-f7866d4a1d50","system_id":"levelo_inurba_marseille","lat":43.2902,"lon":5.38631,"is_reserved":false,"is_disabled":false,"rental_uris":{"android":"levelo://app?vid=ef6b5ada-0cc6-448f-8ef8-f7866d4a1d50","ios":"levelo://app?vid=ef6b5ada-0cc6-448f-8ef8-f7866d4a1d50"},"vehicle_type_id":"4","last_reported":1761685769,"current_range_meters":8000,"station_id":"ce4bh4p2rcd13ifvqe0g","pricing_plan_id":"cebpf4jnsgd1na2vs0mg"},{"bike_id":"9f7696d2-1b63-4f47-8247-0f8e6ffafc4d","system_id":"levelo_inurba_marseille","lat":43.284332,"lon":5.391988,"is_reserved":false,"is_disabled":false,"rental_uris":{"android":"levelo://app?vid=9f7696d2-1b63-4f47-8247-0f8e6ffafc4d","ios":"levelo://app?vid=9f7696d2-1b63-4f47-8247-0f8e6ffafc4d"},"vehicle_type_id":"4","last_reported":1761685769,"current_range_meters":8000,"station_id":"ce4bhrh2rcd13ifvqhug","pricing_plan_id":"cebpf4jnsgd1na2vs0mg"},{"bike_id":"db882984-a3d5-4812-a9b1-c6b3e8a0406e","system_id":"levelo_inurba_marseille","lat":43.30371,"lon":5.42484,"is_reserved":false,"is_disabled":false,"rental_uris":{"android":"levelo://app?vid=db882984-a3d5-4812-a9b1-c6b3e8a0406e","ios":"levelo://app?vid=db882984-a3d5-4812-a9b1-c6b3e8a0406e"},"vehicle_type_id":"4","last_reported":1761685769,"current_range_meters":8000,"station_id":"ce4bhoh2rcd13ifvqh6g","pricing_plan_id":"cebpf4jnsgd1na2vs0mg"},{"bike_id":"ff6239ba-eb27-42f9-85d4-a80ae4e2bc95","system_id":"levelo_inurba_marseille","lat":43.30184,"lon":5.36603,"is_reserved":false,"is_disabled":false,"rental_uris":{"android":"levelo://app?vid=ff6239ba-eb27-42f9-85d4-a80ae4e2bc95","ios":"levelo://app?vid=ff6239ba-eb27-42f9-85d4-a80ae4e2bc95"},"vehicle_type_id":"4","last_reported":1761685769,"current_range_meters":8000,"station_id":"ce4bgrh2rcd13ifvqc8g","pricing_plan_id":"cebpf4jnsgd1na2vs0mg"},{"bike_id":"98dcbd85-2cf8-40a8-ac33-549423dad6b6","system_id":"levelo_inurba_marseille","lat":43.303069,"lon":5.39214,"is_reserved":false,"is_disabled":false,"rental_uris":{"android":"levelo://app?vid=98dcbd85-2cf8-40a8-ac33-549423dad6b6","ios":"levelo://app?vid=98dcbd85-2cf8-40a8-ac33-549423dad6b6"},"vehicle_type_id":"4","last_reported":1761685769,"current_range_meters":8400,"station_id":"","pricing_plan_id":"cebpf4jnsgd1na2vs0mg"},{"bike_id":"208a1fa9-c371-4a9e-bc97-d54ccd03a0b4","system_id":"levelo_inurba_marseille","lat":43.33788,"lon":5.37476,"is_reserved":false,"is_disabled":false,"rental_uris":{"android":"levelo://app?vid=208a1fa9-c371-4a9e-bc97-d54ccd03a0b4","ios":"levelo://app?vid=208a1fa9-c371-4a9e-bc97-d54ccd03a0b4"},"vehicle_type_id":"4","last_reported":1761685769,"current_range_meters":8400,"station_id":"","pricing_plan_id":"cebpf4jnsgd1na2vs0mg"},{"bike_id":"ef990288-864a-408a-9b9c-e14a453a2fae","system_id":"levelo_inurba_marseille","lat":43.2929,"lon":5.37452,"is_reserved":false,"is_disabled":false,"rental_uris":{"android":"levelo://app?vid=ef990288-864a-408a-9b9c-e14a453a2fae","ios":"levelo://app?vid=ef990288-864a-408a-9b9c-e14a453a2fae"},"vehicle_type_id":"4","last_reported":1761685769,"current_range_meters":8400,"station_id":"ce4bgi12rcd13ifvqb70","pricing_plan_id":"cebpf4jnsgd1na2vs0mg"},{"bike_id":"2544ccad-f23f-466c-a3b6-3763606cd9eb","system_id":"levelo_inurba_marseille","lat":43.30093,"lon":5.39086,"is_reserved":false,"is_disabled":false,"rental_uris":{"android":"levelo://app?vid=2544ccad-f23f-466c-a3b6-3763606cd9eb","ios":"levelo://app?vid=2544ccad-f23f-466c-a3b6-3763606cd9eb"},"vehicle_type_id":"4","last_reported":1761685769,"current_range_meters":8800,"station_id":"ce4bh192rcd13ifvqdb0","pricing_plan_id":"cebpf4jnsgd1na2vs0mg"},{"bike_id":"ff3ce436-1785-418e-8081-70fae0b4c310","system_id":"levelo_inurba_marseille","lat":43.27069,"lon":5.4227,"is_reserved":false,"is_disabled":false,"rental_uris":{"android":"levelo://app?vid=ff3ce436-1785-418e-8081-70fae0b4c310","ios":"levelo://app?vid=ff3ce436-1785-418e-8081-70fae0b4c310"},"vehicle_type_id":"4","last_reported":1761685769,"current_range_meters":8800,"station_id":"ce4bhk92rcd13ifvqgb0","pricing_plan_id":"cebpf4jnsgd1na2vs0mg"},{"bike_id":"83abc523-624c-48e6-9a92-436b0377e810","system_id":"levelo_inurba_marseille","lat":43.2993,"lon":5.36542,"is_reserved":false,"is_disabled":false,"rental_uris":{"android":"levelo://app?vid=83abc523-624c-48e6-9a92-436b0377e810","ios":"levelo://app?vid=83abc523-624c-48e6-9a92-436b0377e810"},"vehicle_type_id":"4","last_reported":1761685769,"current_range_meters":8800,"station_id":"ce4bgm92rcd13ifvqbr0","pricing_plan_id":"cebpf4jnsgd1na2vs0mg"},{"bike_id":"3abb3b30-040b-4af3-b943-c7c737938f81","system_id":"levelo_inurba_marseille","lat":43.29869,"lon":5.38906,"is_reserved":false,"is_disabled":false,"rental_uris":{"android":"levelo://app?vid=3abb3b30-040b-4af3-b943-c7c737938f81","ios":"levelo://app?vid=3abb3b30-040b-4af3-b943-c7c737938f81"},"vehicle_type_id":"4","last_reported":1761685769,"current_range_meters":9200,"station_id":"ce4bh392rcd13ifvqdl0","pricing_plan_id":"cebpf4jnsgd1na2vs0mg"},{"bike_id":"1880ebb9-7edb-463e-976b-226e958b9ebe","system_id":"levelo_inurba_marseille","lat":43.31097,"lon":5.37487,"is_reserved":false,"is_disabled":false,"rental_uris":{"android":"levelo://app?vid=1880ebb9-7edb-463e-976b-226e958b9ebe","ios":"levelo://app?vid=1880ebb9-7edb-463e-976b-226e958b9ebe"},"vehicle_type_id":"4","last_reported":1761685769,"current_range_meters":9200,"station_id":"ce4bgt12rcd13ifvqce0","pricing_plan_id":"cebpf4jnsgd1na2vs0mg"},{"bike_id":"43409da0-f39d-4da4-a8be-ea8fe102e3d5","system_id":"levelo_inurba_marseille","lat":43.30304,"lon":5.39116,"is_reserved":false,"is_disabled":false,"rental_uris":{"android":"levelo://app?vid=43409da0-f39d-4da4-a8be-ea8fe102e3d5","ios":"levelo://app?vid=43409da0-f39d-4da4-a8be-ea8fe102e3d5"},"vehicle_type_id":"4","last_reported":1761685769,"current_range_meters":9200,"station_id":"","pricing_plan_id":"cebpf4jnsgd1na2vs0mg"},{"bike_id":"0409dcea-6e49-4b7c-8694-e8875014df10","system_id":"levelo_inurba_marseille","lat":43.31281,"lon":5.40166,"is_reserved":false,"is_disabled":false,"rental_uris":{"android":"levelo://app?vid=0409dcea-6e49-4b7c-8694-e8875014df10","ios":"levelo://app?vid=0409dcea-6e49-4b7c-8694-e8875014df10"},"vehicle_type_id":"4","last_reported":1761685769,"current_range_meters":9200,"station_id":"ce4bh092rcd13ifvqd30","pricing_plan_id":"cebpf4jnsgd1na2vs0mg"},{"bike_id":"f9484733-c07f-4293-8628-46871c65b913","system_id":"levelo_inurba_marseille","lat":43.25456,"lon":5.38104,"is_reserved":false,"is_disabled":false,"rental_uris":{"android":"levelo://app?vid=f9484733-c07f-4293-8628-46871c65b913","ios":"levelo://app?vid=f9484733-c07f-4293-8628-46871c65b913"},"vehicle_type_id":"4","last_reported":1761685769,"current_range_meters":9200,"station_id":"","pricing_plan_id":"cebpf4jnsgd1na2vs0mg"},{"bike_id":"3b82aff6-7cb9-43aa-944c-0f02fe4ef9fa","system_id":"levelo_inurba_marseille","lat":43.27951,"lon":5.38724,"is_reserved":false,"is_disabled":true,"rental_uris":{"android":"levelo://app?vid=3b82aff6-7cb9-43aa-944c-0f02fe4ef9fa","ios":"levelo://app?vid=3b82aff6-7cb9-43aa-944c-0f02fe4ef9fa"},"vehicle_type_id":"4","last_reported":1761685769,"current_range_meters":9200,"station_id":"ce4bhg12rcd13ifvqf80","pricing_plan_id":"cebpf4jnsgd1na2vs0mg"},{"bike_id":"365fdbbd-2dad-45e2-9e35-cf5a3895f78b","system_id":"levelo_inurba_marseille","lat":43.28928,"lon":5.39623,"is_reserved":false,"is_disabled":false,"rental_uris":{"android":"levelo://app?vid=365fdbbd-2dad-45e2-9e35-cf5a3895f78b","ios":"levelo://app?vid=365fdbbd-2dad-45e2-9e35-cf5a3895f78b"},"vehicle_type_id":"4","last_reported":1761685769,"current_range_meters":9200,"station_id":"ce4bh3h2rcd13ifvqdn0","pricing_plan_id":"cebpf4jnsgd1na2vs0mg"},{"bike_id":"4b362e1d-451a-4f97-b2f0-2662c5b1b4e0","system_id":"levelo_inurba_marseille","lat":43.29745,"lon":5.42769,"is_reserved":false,"is_disabled":false,"rental_uris":{"android":"levelo://app?vid=4b362e1d-451a-4f97-b2f0-2662c5b1b4e0","ios":"levelo://app?vid=4b362e1d-451a-4f97-b2f0-2662c5b1b4e0"},"vehicle_type_id":"4","last_reported":1761685769,"current_range_meters":9600,"station_id":"st_d3md5207bmas73dh9klg","pricing_plan_id":"cebpf4jnsgd1na2vs0mg"},{"bike_id":"dbcbcef0-4b5f-446e-9d2e-80d991993c2b","system_id":"levelo_inurba_marseille","lat":43.29539,"lon":5.40222,"is_reserved":false,"is_disabled":false,"rental_uris":{"android":"levelo://app?vid=dbcbcef0-4b5f-446e-9d2e-80d991993c2b","ios":"levelo://app?vid=dbcbcef0-4b5f-446e-9d2e-80d991993c2b"},"vehicle_type_id":"4","last_reported":1761685769,"current_range_meters":9600,"station_id":"","pricing_plan_id":"cebpf4jnsgd1na2vs0mg"},{"bike_id":"011ffc47-cab5-4e69-83ea-75158b7053d8","system_id":"levelo_inurba_marseille","lat":43.255821,"lon":5.382295,"is_reserved":false,"is_disabled":true,"rental_uris":{"android":"levelo://app?vid=011ffc47-cab5-4e69-83ea-75158b7053d8","ios":"levelo://app?vid=011ffc47-cab5-4e69-83ea-75158b7053d8"},"vehicle_type_id":"4","last_reported":1761685769,"current_range_meters":9600,"station_id":"ce4bhih2rcd13ifvqfs0","pricing_plan_id":"cebpf4jnsgd1na2vs0mg"},{"bike_id":"9f59c1da-8e8e-4cbc-b374-2d5a9d796afb","system_id":"levelo_inurba_marseille","lat":43.28843,"lon":5.40042,"is_reserved":false,"is_disabled":false,"rental_uris":{"android":"levelo://app?vid=9f59c1da-8e8e-4cbc-b374-2d5a9d796afb","ios":"levelo://app?vid=9f59c1da-8e8e-4cbc-b374-2d5a9d796afb"},"vehicle_type_id":"4","last_reported":1761685769,"current_range_meters":9600,"station_id":"","pricing_plan_id":"cebpf4jnsgd1na2vs0mg"},{"bike_id":"0da36f85-c9c3-4754-921b-9ff4fd26bd67","system_id":"levelo_inurba_marseille","lat":43.30313,"lon":5.392,"is_reserved":false,"is_disabled":false,"rental_uris":{"android":"levelo://app?vid=0da36f85-c9c3-4754-921b-9ff4fd26bd67","ios":"levelo://app?vid=0da36f85-c9c3-4754-921b-9ff4fd26bd67"},"vehicle_type_id":"4","last_reported":1761685769,"current_range_meters":10000,"station_id":"ce4bgkh2rcd13ifvqbk0","pricing_plan_id":"cebpf4jnsgd1na2vs0mg"},{"bike_id":"56bf462e-4d45-4785-83a6-6cd0b15615a7","system_id":"levelo_inurba_marseille","lat":43.27911,"lon":5.39582,"is_reserved":false,"is_disabled":false,"rental_uris":{"android":"levelo://app?vid=56bf462e-4d45-4785-83a6-6cd0b15615a7","ios":"levelo://app?vid=56bf462e-4d45-4785-83a6-6cd0b15615a7"},"vehicle_type_id":"4","last_reported":1761685769,"current_range_meters":10000,"station_id":"ce4bhf92rcd13ifvqf40","pricing_plan_id":"cebpf4jnsgd1na2vs0mg"},{"bike_id":"7eaf5972-420e-4ee4-8af0-6020df7e9204","system_id":"levelo_inurba_marseille","lat":43.297177,"lon":5.366006,"is_reserved":false,"is_disabled":false,"rental_uris":{"android":"levelo://app?vid=7eaf5972-420e-4ee4-8af0-6020df7e9204","ios":"levelo://app?vid=7eaf5972-420e-4ee4-8af0-6020df7e9204"},"vehicle_type_id":"4","last_reported":1761685769,"current_range_meters":10800,"station_id":"ce4bgn12rcd13ifvqbt0","pricing_plan_id":"cebpf4jnsgd1na2vs0mg"},{"bike_id":"9133dd04-43b8-4849-bc98-a5dba826c529","system_id":"levelo_inurba_marseille","lat":43.29597,"lon":5.38091,"is_reserved":false,"is_disabled":false,"rental_uris":{"android":"levelo://app?vid=9133dd04-43b8-4849-bc98-a5dba826c529","ios":"levelo://app?vid=9133dd04-43b8-4849-bc98-a5dba826c529"},"vehicle_type_id":"4","last_reported":1761685769,"current_range_meters":10800,"station_id":"ce4bgl12rcd13ifvqbo0","pricing_plan_id":"cebpf4jnsgd1na2vs0mg"},{"bike_id":"6abb9e09-33f3-43f3-9417-8cc0cf0144f6","system_id":"levelo_inurba_marseille","lat":43.29916,"lon":5.37449,"is_reserved":false,"is_disabled":true,"rental_uris":{"android":"levelo://app?vid=6abb9e09-33f3-43f3-9417-8cc0cf0144f6","ios":"levelo://app?vid=6abb9e09-33f3-43f3-9417-8cc0cf0144f6"},"vehicle_type_id":"4","last_reported":1761685769,"current_range_meters":10800,"station_id":"ce4bgjh2rcd13ifvqbg0","pricing_plan_id":"cebpf4jnsgd1na2vs0mg"},{"bike_id":"897d1025-cdde-48ec-9b73-6418bafdbbc5","system_id":"levelo_inurba_marseille","lat":43.28087,"lon":5.34745,"is_reserved":false,"is_disabled":false,"rental_uris":{"android":"levelo://app?vid=897d1025-cdde-48ec-9b73-6418bafdbbc5","ios":"levelo://app?vid=897d1025-cdde-48ec-9b73-6418bafdbbc5"},"vehicle_type_id":"4","last_reported":1761685769,"current_range_meters":10800,"station_id":"","pricing_plan_id":"cebpf4jnsgd1na2vs0mg"},{"bike_id":"32a863b6-26b8-457c-992a-f0253dd4c910","system_id":"levelo_inurba_marseille","lat":43.28446,"lon":5.4841,"is_reserved":false,"is_disabled":false,"rental_uris":{"android":"levelo://app?vid=32a863b6-26b8-457c-992a-f0253dd4c910","ios":"levelo://app?vid=32a863b6-26b8-457c-992a-f0253dd4c910"},"vehicle_type_id":"4","last_reported":1761685769,"current_range_meters":10800,"station_id":"st_d3svhcjqgbts73a3dn0g","pricing_plan_id":"cebpf4jnsgd1na2vs0mg"},{"bike_id":"dccef0b1-edb3-49b5-866c-43e10e5763cc","system_id":"levelo_inurba_marseille","lat":43.28819,"lon":5.43835,"is_reserved":false,"is_disabled":false,"rental_uris":{"android":"levelo://app?vid=dccef0b1-edb3-49b5-866c-43e10e5763cc","ios":"levelo://app?vid=dccef0b1-edb3-49b5-866c-43e10e5763cc"},"vehicle_type_id":"4","last_reported":1761685769,"current_range_meters":11200,"station_id":"","pricing_plan_id":"cebpf4jnsgd1na2vs0mg"},{"bike_id":"6447d5c6-c1f3-4227-9d75-6d07349bdb8b","system_id":"levelo_inurba_marseille","lat":43.28106,"lon":5.37825,"is_reserved":false,"is_disabled":false,"rental_uris":{"android":"levelo://app?vid=6447d5c6-c1f3-4227-9d75-6d07349bdb8b","ios":"levelo://app?vid=6447d5c6-c1f3-4227-9d75-6d07349bdb8b"},"vehicle_type_id":"4","last_reported":1761685769,"current_range_meters":11200,"station_id":"ce4bha12rcd13ifvqee0","pricing_plan_id":"cebpf4jnsgd1na2vs0mg"},{"bike_id":"4b946528-d6dc-4ffb-9df6-711301ce258c","system_id":"levelo_inurba_marseille","lat":43.2756,"lon":5.3843,"is_reserved":false,"is_disabled":false,"rental_uris":{"android":"levelo://app?vid=4b946528-d6dc-4ffb-9df6-711301ce258c","ios":"levelo://app?vid=4b946528-d6dc-4ffb-9df6-711301ce258c"},"vehicle_type_id":"4","last_reported":1761685769,"current_range_meters":11200,"station_id":"ce4bhh92rcd13ifvqfi0","pricing_plan_id":"cebpf4jnsgd1na2vs0mg"},{"bike_id":"4d0ea88f-e94d-48ce-a89e-1be9a9a052b5","system_id":"levelo_inurba_marseille","lat":43.30528,"lon":5.36718,"is_reserved":false,"is_disabled":false,"rental_uris":{"android":"levelo://app?vid=4d0ea88f-e94d-48ce-a89e-1be9a9a052b5","ios":"levelo://app?vid=4d0ea88f-e94d-48ce-a89e-1be9a9a052b5"},"vehicle_type_id":"4","last_reported":1761685769,"current_range_meters":11200,"station_id":"ce4bgrp2rcd13ifvqc9g","pricing_plan_id":"cebpf4jnsgd1na2vs0mg"},{"bike_id":"1fba990f-0f4f-41e0-8192-050c196f51ea","system_id":"levelo_inurba_marseille","lat":43.30419,"lon":5.4129,"is_reserved":false,"is_disabled":false,"rental_uris":{"android":"levelo://app?vid=1fba990f-0f4f-41e0-8192-050c196f51ea","ios":"levelo://app?vid=1fba990f-0f4f-41e0-8192-050c196f51ea"},"vehicle_type_id":"4","last_reported":1761685769,"current_range_meters":11600,"station_id":"ce4bhop2rcd13ifvqh8g","pricing_plan_id":"cebpf4jnsgd1na2vs0mg"},{"bike_id":"d05c4176-f995-472c-9849-ed781d6a7edd","system_id":"levelo_inurba_marseille","lat":43.29034,"lon":5.38633,"is_reserved":false,"is_disabled":false,"rental_uris":{"android":"levelo://app?vid=d05c4176-f995-472c-9849-ed781d6a7edd","ios":"levelo://app?vid=d05c4176-f995-472c-9849-ed781d6a7edd"},"vehicle_type_id":"4","last_reported":1761685769,"current_range_meters":11600,"station_id":"ce4bh4p2rcd13ifvqe0g","pricing_plan_id":"cebpf4jnsgd1na2vs0mg"},{"bike_id":"d5ca831f-8041-403e-ada8-7b4196c3d5be","system_id":"levelo_inurba_marseille","lat":43.293714,"lon":5.379385,"is_reserved":false,"is_disabled":false,"rental_uris":{"android":"levelo://app?vid=d5ca831f-8041-403e-ada8-7b4196c3d5be","ios":"levelo://app?vid=d5ca831f-8041-403e-ada8-7b4196c3d5be"},"vehicle_type_id":"4","last_reported":1761685769,"current_range_meters":11600,"station_id":"","pricing_plan_id":"cebpf4jnsgd1na2vs0mg"},{"bike_id":"51b000ec-8148-4379-a8c5-929284adf255","system_id":"levelo_inurba_marseille","lat":43.29281,"lon":5.40116,"is_reserved":false,"is_disabled":false,"rental_uris":{"android":"levelo://app?vid=51b000ec-8148-4379-a8c5-929284adf255","ios":"levelo://app?vid=51b000ec-8148-4379-a8c5-929284adf255"},"vehicle_type_id":"4","last_reported":1761685769,"current_range_meters":11600,"station_id":"ce4bh312rcd13ifvqdk0","pricing_plan_id":"cebpf4jnsgd1na2vs0mg"},{"bike_id":"13e2c97f-09dd-4126-9b7a-0eb2e83aba46","system_id":"levelo_inurba_marseille","lat":43.28938,"lon":5.36383,"is_reserved":false,"is_disabled":false,"rental_uris":{"android":"levelo://app?vid=13e2c97f-09dd-4126-9b7a-0eb2e83aba46","ios":"levelo://app?vid=13e2c97f-09dd-4126-9b7a-0eb2e83aba46"},"vehicle_type_id":"4","last_reported":1761685769,"current_range_meters":11600,"station_id":"ce4bhc92rcd13ifvqetg","pricing_plan_id":"cebpf4jnsgd1na2vs0mg"},{"bike_id":"f4ae9746-b1ce-4423-871f-af6ff98b156e","system_id":"levelo_inurba_marseille","lat":43.30251,"lon":5.40095,"is_reserved":false,"is_disabled":false,"rental_uris":{"android":"levelo://app?vid=f4ae9746-b1ce-4423-871f-af6ff98b156e","ios":"levelo://app?vid=f4ae9746-b1ce-4423-871f-af6ff98b156e"},"vehicle_type_id":"4","last_reported":1761685769,"current_range_meters":11600,"station_id":"ce4bgvh2rcd13ifvqcs0","pricing_plan_id":"cebpf4jnsgd1na2vs0mg"},{"bike_id":"7cfb59b5-adf8-4788-9944-29fbeebf84e4","system_id":"levelo_inurba_marseille","lat":43.28913,"lon":5.38397,"is_reserved":false,"is_disabled":false,"rental_uris":{"android":"levelo://app?vid=7cfb59b5-adf8-4788-9944-29fbeebf84e4","ios":"levelo://app?vid=7cfb59b5-adf8-4788-9944-29fbeebf84e4"},"vehicle_type_id":"4","last_reported":1761685769,"current_range_meters":12000,"station_id":"ce4bh612rcd13ifvqe6g","pricing_plan_id":"cebpf4jnsgd1na2vs0mg"},{"bike_id":"ae02210f-3a75-423b-b85c-34cdf2f682b3","system_id":"levelo_inurba_marseille","lat":43.28421,"lon":5.37503,"is_reserved":false,"is_disabled":false,"rental_uris":{"android":"levelo://app?vid=ae02210f-3a75-423b-b85c-34cdf2f682b3","ios":"levelo://app?vid=ae02210f-3a75-423b-b85c-34cdf2f682b3"},"vehicle_type_id":"4","last_reported":1761685769,"current_range_meters":12000,"station_id":"ce4bh412rcd13ifvqds0","pricing_plan_id":"cebpf4jnsgd1na2vs0mg"},{"bike_id":"2dadb0b7-125c-4cad-a51f-e306e38949dd","system_id":"levelo_inurba_marseille","lat":43.25335,"lon":5.4217,"is_reserved":false,"is_disabled":false,"rental_uris":{"android":"levelo://app?vid=2dadb0b7-125c-4cad-a51f-e306e38949dd","ios":"levelo://app?vid=2dadb0b7-125c-4cad-a51f-e306e38949dd"},"vehicle_type_id":"4","last_reported":1761685769,"current_range_meters":12000,"station_id":"st_d2m65c5bi1j21697t3ng","pricing_plan_id":"cebpf4jnsgd1na2vs0mg"},{"bike_id":"d2ce14a1-e9f5-407b-a0c3-2e69d0a16a79","system_id":"levelo_inurba_marseille","lat":43.28229,"lon":5.39076,"is_reserved":false,"is_disabled":true,"rental_uris":{"android":"levelo://app?vid=d2ce14a1-e9f5-407b-a0c3-2e69d0a16a79","ios":"levelo://app?vid=d2ce14a1-e9f5-407b-a0c3-2e69d0a16a79"},"vehicle_type_id":"4","last_reported":1761685769,"current_range_meters":12000,"station_id":"ce4bhn92rcd13ifvqgsg","pricing_plan_id":"cebpf4jnsgd1na2vs0mg"},{"bike_id":"e68f19ec-6316-4a47-919b-a01164633315","system_id":"levelo_inurba_marseille","lat":43.25091,"lon":5.39524,"is_reserved":false,"is_disabled":true,"rental_uris":{"android":"levelo://app?vid=e68f19ec-6316-4a47-919b-a01164633315","ios":"levelo://app?vid=e68f19ec-6316-4a47-919b-a01164633315"},"vehicle_type_id":"4","last_reported":1761685769,"current_range_meters":12000,"station_id":"ce4bhm12rcd13ifvqgkg","pricing_plan_id":"cebpf4jnsgd1na2vs0mg"},{"bike_id":"1975be38-f301-42ba-a022-50bba37a3dac","system_id":"levelo_inurba_marseille","lat":43.2841,"lon":5.37527,"is_reserved":false,"is_disabled":false,"rental_uris":{"android":"levelo://app?vid=1975be38-f301-42ba-a022-50bba37a3dac","ios":"levelo://app?vid=1975be38-f301-42ba-a022-50bba37a3dac"},"vehicle_type_id":"4","last_reported":1761685769,"current_range_meters":12000,"station_id":"ce4bh412rcd13ifvqds0","pricing_plan_id":"cebpf4jnsgd1na2vs0mg"},{"bike_id":"7f7e1362-af0a-48a6-bf92-3f8a1d452c0a","system_id":"levelo_inurba_marseille","lat":43.29027,"lon":5.38625,"is_reserved":false,"is_disabled":false,"rental_uris":{"android":"levelo://app?vid=7f7e1362-af0a-48a6-bf92-3f8a1d452c0a","ios":"levelo://app?vid=7f7e1362-af0a-48a6-bf92-3f8a1d452c0a"},"vehicle_type_id":"4","last_reported":1761685769,"current_range_meters":12000,"station_id":"ce4bh4p2rcd13ifvqe0g","pricing_plan_id":"cebpf4jnsgd1na2vs0mg"},{"bike_id":"d5e74bc1-ca86-4b2f-9a40-71c1de3828a2","system_id":"levelo_inurba_marseille","lat":43.30245,"lon":5.40055,"is_reserved":false,"is_disabled":false,"rental_uris":{"android":"levelo://app?vid=d5e74bc1-ca86-4b2f-9a40-71c1de3828a2","ios":"levelo://app?vid=d5e74bc1-ca86-4b2f-9a40-71c1de3828a2"},"vehicle_type_id":"4","last_reported":1761685769,"current_range_meters":12400,"station_id":"ce4bgvh2rcd13ifvqcs0","pricing_plan_id":"cebpf4jnsgd1na2vs0mg"},{"bike_id":"eea91071-a585-455f-a824-596ec59b39cb","system_id":"levelo_inurba_marseille","lat":43.25331,"lon":5.42171,"is_reserved":false,"is_disabled":false,"rental_uris":{"android":"levelo://app?vid=eea91071-a585-455f-a824-596ec59b39cb","ios":"levelo://app?vid=eea91071-a585-455f-a824-596ec59b39cb"},"vehicle_type_id":"4","last_reported":1761685769,"current_range_meters":12400,"station_id":"st_d2m65c5bi1j21697t3ng","pricing_plan_id":"cebpf4jnsgd1na2vs0mg"},{"bike_id":"dced2bcc-e95f-44ce-b7d8-7bb47def612a","system_id":"levelo_inurba_marseille","lat":43.23063,"lon":5.3549,"is_reserved":false,"is_disabled":false,"rental_uris":{"android":"levelo://app?vid=dced2bcc-e95f-44ce-b7d8-7bb47def612a","ios":"levelo://app?vid=dced2bcc-e95f-44ce-b7d8-7bb47def612a"},"vehicle_type_id":"4","last_reported":1761685769,"current_range_meters":12400,"station_id":"cpo3342slgdg3j2ifvpg","pricing_plan_id":"cebpf4jnsgd1na2vs0mg"},{"bike_id":"09f3f1dd-94b1-4be4-9fb0-1498a4011c94","system_id":"levelo_inurba_marseille","lat":43.28412,"lon":5.37521,"is_reserved":false,"is_disabled":false,"rental_uris":{"android":"levelo://app?vid=09f3f1dd-94b1-4be4-9fb0-1498a4011c94","ios":"levelo://app?vid=09f3f1dd-94b1-4be4-9fb0-1498a4011c94"},"vehicle_type_id":"4","last_reported":1761685769,"current_range_meters":12400,"station_id":"ce4bh412rcd13ifvqds0","pricing_plan_id":"cebpf4jnsgd1na2vs0mg"},{"bike_id":"49ed0d39-51fe-4cd4-8527-50556baa8749","system_id":"levelo_inurba_marseille","lat":43.22531,"lon":5.348321,"is_reserved":false,"is_disabled":false,"rental_uris":{"android":"levelo://app?vid=49ed0d39-51fe-4cd4-8527-50556baa8749","ios":"levelo://app?vid=49ed0d39-51fe-4cd4-8527-50556baa8749"},"vehicle_type_id":"4","last_reported":1761685769,"current_range_meters":12400,"station_id":"","pricing_plan_id":"cebpf4jnsgd1na2vs0mg"},{"bike_id":"5a289f23-5fd9-46f1-9a29-9ac89e1b2d5f","system_id":"levelo_inurba_marseille","lat":43.26686,"lon":5.38263,"is_reserved":false,"is_disabled":false,"rental_uris":{"android":"levelo://app?vid=5a289f23-5fd9-46f1-9a29-9ac89e1b2d5f","ios":"levelo://app?vid=5a289f23-5fd9-46f1-9a29-9ac89e1b2d5f"},"vehicle_type_id":"4","last_reported":1761685769,"current_range_meters":12400,"station_id":"ce4bhg92rcd13ifvqf90","pricing_plan_id":"cebpf4jnsgd1na2vs0mg"},{"bike_id":"f5797326-3c99-49ed-b5ea-113d3e51334b","system_id":"levelo_inurba_marseille","lat":43.3088,"lon":5.39656,"is_reserved":false,"is_disabled":false,"rental_uris":{"android":"levelo://app?vid=f5797326-3c99-49ed-b5ea-113d3e51334b","ios":"levelo://app?vid=f5797326-3c99-49ed-b5ea-113d3e51334b"},"vehicle_type_id":"4","last_reported":1761685769,"current_range_meters":12800,"station_id":"ce4bh012rcd13ifvqcv0","pricing_plan_id":"cebpf4jnsgd1na2vs0mg"},{"bike_id":"798a6099-226a-447c-bc36-82e620e156b7","system_id":"levelo_inurba_marseille","lat":43.28869,"lon":5.35834,"is_reserved":false,"is_disabled":false,"rental_uris":{"android":"levelo://app?vid=798a6099-226a-447c-bc36-82e620e156b7","ios":"levelo://app?vid=798a6099-226a-447c-bc36-82e620e156b7"},"vehicle_type_id":"4","last_reported":1761685769,"current_range_meters":12800,"station_id":"ce4bhb12rcd13ifvqem0","pricing_plan_id":"cebpf4jnsgd1na2vs0mg"},{"bike_id":"f202aef9-db9c-4b5f-b19b-62f40b9a9dba","system_id":"levelo_inurba_marseille","lat":43.24076,"lon":5.37747,"is_reserved":false,"is_disabled":false,"rental_uris":{"android":"levelo://app?vid=f202aef9-db9c-4b5f-b19b-62f40b9a9dba","ios":"levelo://app?vid=f202aef9-db9c-4b5f-b19b-62f40b9a9dba"},"vehicle_type_id":"4","last_reported":1761685769,"current_range_meters":12800,"station_id":"ce4bhnp2rcd13ifvqgvg","pricing_plan_id":"cebpf4jnsgd1na2vs0mg"},{"bike_id":"f1b32764-5ab9-4e8e-a35a-116f87feb363","system_id":"levelo_inurba_marseille","lat":43.303193,"lon":5.404397,"is_reserved":false,"is_disabled":false,"rental_uris":{"android":"levelo://app?vid=f1b32764-5ab9-4e8e-a35a-116f87feb363","ios":"levelo://app?vid=f1b32764-5ab9-4e8e-a35a-116f87feb363"},"vehicle_type_id":"4","last_reported":1761685769,"current_range_meters":12800,"station_id":"ce4bh012rcd13ifvqd10","pricing_plan_id":"cebpf4jnsgd1na2vs0mg"},{"bike_id":"1ba4c94a-7f92-4a79-b713-01b134a554c7","system_id":"levelo_inurba_marseille","lat":43.30246,"lon":5.40085,"is_reserved":false,"is_disabled":false,"rental_uris":{"android":"levelo://app?vid=1ba4c94a-7f92-4a79-b713-01b134a554c7","ios":"levelo://app?vid=1ba4c94a-7f92-4a79-b713-01b134a554c7"},"vehicle_type_id":"4","last_reported":1761685769,"current_range_meters":12800,"station_id":"ce4bgvh2rcd13ifvqcs0","pricing_plan_id":"cebpf4jnsgd1na2vs0mg"},{"bike_id":"29902583-9450-4aea-886e-f84d10138293","system_id":"levelo_inurba_marseille","lat":43.29966,"lon":5.38521,"is_reserved":false,"is_disabled":false,"rental_uris":{"android":"levelo://app?vid=29902583-9450-4aea-886e-f84d10138293","ios":"levelo://app?vid=29902583-9450-4aea-886e-f84d10138293"},"vehicle_type_id":"4","last_reported":1761685769,"current_range_meters":12800,"station_id":"ce4bgj92rcd13ifvqbd0","pricing_plan_id":"cebpf4jnsgd1na2vs0mg"},{"bike_id":"e362f4ba-3ff5-409c-847f-dbee0482ec04","system_id":"levelo_inurba_marseille","lat":43.29995,"lon":5.37167,"is_reserved":false,"is_disabled":true,"rental_uris":{"android":"levelo://app?vid=e362f4ba-3ff5-409c-847f-dbee0482ec04","ios":"levelo://app?vid=e362f4ba-3ff5-409c-847f-dbee0482ec04"},"vehicle_type_id":"4","last_reported":1761685769,"current_range_meters":12800,"station_id":"ce4bgr92rcd13ifvqc7g","pricing_plan_id":"cebpf4jnsgd1na2vs0mg"},{"bike_id":"ce00e885-a781-4efe-acd7-bb2e5665d1e7","system_id":"levelo_inurba_marseille","lat":43.28403,"lon":5.37541,"is_reserved":false,"is_disabled":false,"rental_uris":{"android":"levelo://app?vid=ce00e885-a781-4efe-acd7-bb2e5665d1e7","ios":"levelo://app?vid=ce00e885-a781-4efe-acd7-bb2e5665d1e7"},"vehicle_type_id":"4","last_reported":1761685769,"current_range_meters":13600,"station_id":"ce4bh412rcd13ifvqds0","pricing_plan_id":"cebpf4jnsgd1na2vs0mg"},{"bike_id":"94e6b0aa-f8c9-477e-8091-c3a189e0f238","system_id":"levelo_inurba_marseille","lat":43.29669,"lon":5.38105,"is_reserved":false,"is_disabled":false,"rental_uris":{"android":"levelo://app?vid=94e6b0aa-f8c9-477e-8091-c3a189e0f238","ios":"levelo://app?vid=94e6b0aa-f8c9-477e-8091-c3a189e0f238"},"vehicle_type_id":"4","last_reported":1761685769,"current_range_meters":13600,"station_id":"","pricing_plan_id":"cebpf4jnsgd1na2vs0mg"},{"bike_id":"63dac326-4326-4d8c-b485-571f34cbb501","system_id":"levelo_inurba_marseille","lat":43.29249,"lon":5.38432,"is_reserved":false,"is_disabled":false,"rental_uris":{"android":"levelo://app?vid=63dac326-4326-4d8c-b485-571f34cbb501","ios":"levelo://app?vid=63dac326-4326-4d8c-b485-571f34cbb501"},"vehicle_type_id":"4","last_reported":1761685769,"current_range_meters":13600,"station_id":"ce4bh692rcd13ifvqea0","pricing_plan_id":"cebpf4jnsgd1na2vs0mg"},{"bike_id":"ef4771b9-72cc-422f-8667-8b012379856a","system_id":"levelo_inurba_marseille","lat":43.29047,"lon":5.35898,"is_reserved":false,"is_disabled":false,"rental_uris":{"android":"levelo://app?vid=ef4771b9-72cc-422f-8667-8b012379856a","ios":"levelo://app?vid=ef4771b9-72cc-422f-8667-8b012379856a"},"vehicle_type_id":"4","last_reported":1761685769,"current_range_meters":13600,"station_id":"ce4bha92rcd13ifvqeg0","pricing_plan_id":"cebpf4jnsgd1na2vs0mg"},{"bike_id":"813b0e57-2c36-42ec-aee0-add73db61124","system_id":"levelo_inurba_marseille","lat":43.30864,"lon":5.39638,"is_reserved":false,"is_disabled":false,"rental_uris":{"android":"levelo://app?vid=813b0e57-2c36-42ec-aee0-add73db61124","ios":"levelo://app?vid=813b0e57-2c36-42ec-aee0-add73db61124"},"vehicle_type_id":"4","last_reported":1761685769,"current_range_meters":13600,"station_id":"ce4bh012rcd13ifvqcv0","pricing_plan_id":"cebpf4jnsgd1na2vs0mg"},{"bike_id":"f9e3a613-e29e-4338-a770-1a9a0c8616d6","system_id":"levelo_inurba_marseille","lat":43.291742,"lon":5.393765,"is_reserved":false,"is_disabled":false,"rental_uris":{"android":"levelo://app?vid=f9e3a613-e29e-4338-a770-1a9a0c8616d6","ios":"levelo://app?vid=f9e3a613-e29e-4338-a770-1a9a0c8616d6"},"vehicle_type_id":"4","last_reported":1761685769,"current_range_meters":13600,"station_id":"","pricing_plan_id":"cebpf4jnsgd1na2vs0mg"},{"bike_id":"32d7653e-b033-4183-b4c0-f44169bb9067","system_id":"levelo_inurba_marseille","lat":43.32727,"lon":5.39231,"is_reserved":false,"is_disabled":false,"rental_uris":{"android":"levelo://app?vid=32d7653e-b033-4183-b4c0-f44169bb9067","ios":"levelo://app?vid=32d7653e-b033-4183-b4c0-f44169bb9067"},"vehicle_type_id":"4","last_reported":1761685769,"current_range_meters":13600,"station_id":"","pricing_plan_id":"cebpf4jnsgd1na2vs0mg"},{"bike_id":"2be3bf9b-39f4-4c37-8c01-9e9bcabe1c53","system_id":"levelo_inurba_marseille","lat":43.33741,"lon":5.37444,"is_reserved":false,"is_disabled":false,"rental_uris":{"android":"levelo://app?vid=2be3bf9b-39f4-4c37-8c01-9e9bcabe1c53","ios":"levelo://app?vid=2be3bf9b-39f4-4c37-8c01-9e9bcabe1c53"},"vehicle_type_id":"4","last_reported":1761685769,"current_range_meters":13600,"station_id":"","pricing_plan_id":"cebpf4jnsgd1na2vs0mg"},{"bike_id":"9b5fba50-dca7-4457-9e49-d03b78568ab3","system_id":"levelo_inurba_marseille","lat":43.28106,"lon":5.37838,"is_reserved":false,"is_disabled":false,"rental_uris":{"android":"levelo://app?vid=9b5fba50-dca7-4457-9e49-d03b78568ab3","ios":"levelo://app?vid=9b5fba50-dca7-4457-9e49-d03b78568ab3"},"vehicle_type_id":"4","last_reported":1761685769,"current_range_meters":13600,"station_id":"ce4bha12rcd13ifvqee0","pricing_plan_id":"cebpf4jnsgd1na2vs0mg"},{"bike_id":"aa0e7e4b-f890-4f53-a40a-615d9f77115a","system_id":"levelo_inurba_marseille","lat":43.3212,"lon":5.36761,"is_reserved":false,"is_disabled":false,"rental_uris":{"android":"levelo://app?vid=aa0e7e4b-f890-4f53-a40a-615d9f77115a","ios":"levelo://app?vid=aa0e7e4b-f890-4f53-a40a-615d9f77115a"},"vehicle_type_id":"4","last_reported":1761685769,"current_range_meters":14000,"station_id":"ce4bhrh2rcd13ifvqhug","pricing_plan_id":"cebpf4jnsgd1na2vs0mg"},{"bike_id":"720466cc-999a-4d77-9e26-053a3dffc8ba","system_id":"levelo_inurba_marseille","lat":43.323675,"lon":5.388864,"is_reserved":false,"is_disabled":false,"rental_uris":{"android":"levelo://app?vid=720466cc-999a-4d77-9e26-053a3dffc8ba","ios":"levelo://app?vid=720466cc-999a-4d77-9e26-053a3dffc8ba"},"vehicle_type_id":"4","last_reported":1761685769,"current_range_meters":14000,"station_id":"ce4bhqp2rcd13ifvqhog","pricing_plan_id":"cebpf4jnsgd1na2vs0mg"},{"bike_id":"ae8ebe94-fc0f-4409-8f77-39eb5c613a67","system_id":"levelo_inurba_marseille","lat":43.337444,"lon":5.374475,"is_reserved":false,"is_disabled":false,"rental_uris":{"android":"levelo://app?vid=ae8ebe94-fc0f-4409-8f77-39eb5c613a67","ios":"levelo://app?vid=ae8ebe94-fc0f-4409-8f77-39eb5c613a67"},"vehicle_type_id":"4","last_reported":1761685769,"current_range_meters":14400,"station_id":"","pricing_plan_id":"cebpf4jnsgd1na2vs0mg"},{"bike_id":"5f429273-0124-42f3-9bc4-84a4b4b750b7","system_id":"levelo_inurba_marseille","lat":43.29538,"lon":5.39023,"is_reserved":false,"is_disabled":false,"rental_uris":{"android":"levelo://app?vid=5f429273-0124-42f3-9bc4-84a4b4b750b7","ios":"levelo://app?vid=5f429273-0124-42f3-9bc4-84a4b4b750b7"},"vehicle_type_id":"4","last_reported":1761685769,"current_range_meters":14400,"station_id":"ce4bh3p2rcd13ifvqdp0","pricing_plan_id":"cebpf4jnsgd1na2vs0mg"},{"bike_id":"46d8cd22-361f-4c91-9e38-bf998ae888d1","system_id":"levelo_inurba_marseille","lat":43.31687,"lon":5.40469,"is_reserved":false,"is_disabled":false,"rental_uris":{"android":"levelo://app?vid=46d8cd22-361f-4c91-9e38-bf998ae888d1","ios":"levelo://app?vid=46d8cd22-361f-4c91-9e38-bf998ae888d1"},"vehicle_type_id":"4","last_reported":1761685769,"current_range_meters":14400,"station_id":"ce4bh012rcd13ifvqd00","pricing_plan_id":"cebpf4jnsgd1na2vs0mg"},{"bike_id":"ca5d98a5-688f-4f24-82da-a63307128809","system_id":"levelo_inurba_marseille","lat":43.29537,"lon":5.38543,"is_reserved":false,"is_disabled":false,"rental_uris":{"android":"levelo://app?vid=ca5d98a5-688f-4f24-82da-a63307128809","ios":"levelo://app?vid=ca5d98a5-688f-4f24-82da-a63307128809"},"vehicle_type_id":"4","last_reported":1761685769,"current_range_meters":14400,"station_id":"ce4bgih2rcd13ifvqba0","pricing_plan_id":"cebpf4jnsgd1na2vs0mg"},{"bike_id":"e0ff5506-344a-4f05-a1d0-68f5db5c5e83","system_id":"levelo_inurba_marseille","lat":43.29532,"lon":5.38544,"is_reserved":false,"is_disabled":false,"rental_uris":{"android":"levelo://app?vid=e0ff5506-344a-4f05-a1d0-68f5db5c5e83","ios":"levelo://app?vid=e0ff5506-344a-4f05-a1d0-68f5db5c5e83"},"vehicle_type_id":"4","last_reported":1761685769,"current_range_meters":14800,"station_id":"ce4bgih2rcd13ifvqba0","pricing_plan_id":"cebpf4jnsgd1na2vs0mg"},{"bike_id":"4b5b81a2-28ed-4a29-a5e6-68ce9e33c97e","system_id":"levelo_inurba_marseille","lat":43.288552,"lon":5.392945,"is_reserved":false,"is_disabled":false,"rental_uris":{"android":"levelo://app?vid=4b5b81a2-28ed-4a29-a5e6-68ce9e33c97e","ios":"levelo://app?vid=4b5b81a2-28ed-4a29-a5e6-68ce9e33c97e"},"vehicle_type_id":"4","last_reported":1761685769,"current_range_meters":14800,"station_id":"ce4bh8p2rcd13ifvqeb0","pricing_plan_id":"cebpf4jnsgd1na2vs0mg"},{"bike_id":"a2c44ae7-52cc-4b80-a772-211a26fa85b1","system_id":"levelo_inurba_marseille","lat":43.30182,"lon":5.36619,"is_reserved":false,"is_disabled":true,"rental_uris":{"android":"levelo://app?vid=a2c44ae7-52cc-4b80-a772-211a26fa85b1","ios":"levelo://app?vid=a2c44ae7-52cc-4b80-a772-211a26fa85b1"},"vehicle_type_id":"4","last_reported":1761685769,"current_range_meters":15200,"station_id":"ce4bgrh2rcd13ifvqc8g","pricing_plan_id":"cebpf4jnsgd1na2vs0mg"},{"bike_id":"82c3d2c8-f0bf-446e-b125-018f07998329","system_id":"levelo_inurba_marseille","lat":43.32755,"lon":5.40099,"is_reserved":false,"is_disabled":false,"rental_uris":{"android":"levelo://app?vid=82c3d2c8-f0bf-446e-b125-018f07998329","ios":"levelo://app?vid=82c3d2c8-f0bf-446e-b125-018f07998329"},"vehicle_type_id":"4","last_reported":1761685769,"current_range_meters":15200,"station_id":"","pricing_plan_id":"cebpf4jnsgd1na2vs0mg"},{"bike_id":"9c97335d-e5a0-4807-8718-cc9e9bd0f749","system_id":"levelo_inurba_marseille","lat":43.25094,"lon":5.3947,"is_reserved":false,"is_disabled":false,"rental_uris":{"android":"levelo://app?vid=9c97335d-e5a0-4807-8718-cc9e9bd0f749","ios":"levelo://app?vid=9c97335d-e5a0-4807-8718-cc9e9bd0f749"},"vehicle_type_id":"4","last_reported":1761685769,"current_range_meters":15200,"station_id":"ce4bhm12rcd13ifvqgkg","pricing_plan_id":"cebpf4jnsgd1na2vs0mg"},{"bike_id":"c8e5e430-7854-47ea-8478-a17b8a03850c","system_id":"levelo_inurba_marseille","lat":43.30876,"lon":5.39648,"is_reserved":false,"is_disabled":false,"rental_uris":{"android":"levelo://app?vid=c8e5e430-7854-47ea-8478-a17b8a03850c","ios":"levelo://app?vid=c8e5e430-7854-47ea-8478-a17b8a03850c"},"vehicle_type_id":"4","last_reported":1761685769,"current_range_meters":15200,"station_id":"ce4bh012rcd13ifvqcv0","pricing_plan_id":"cebpf4jnsgd1na2vs0mg"},{"bike_id":"03a5a43b-e2ae-4791-8d34-9f5d2fab204e","system_id":"levelo_inurba_marseille","lat":43.290303,"lon":5.386426,"is_reserved":false,"is_disabled":false,"rental_uris":{"android":"levelo://app?vid=03a5a43b-e2ae-4791-8d34-9f5d2fab204e","ios":"levelo://app?vid=03a5a43b-e2ae-4791-8d34-9f5d2fab204e"},"vehicle_type_id":"4","last_reported":1761685769,"current_range_meters":15200,"station_id":"ce4bh4p2rcd13ifvqe0g","pricing_plan_id":"cebpf4jnsgd1na2vs0mg"},{"bike_id":"132a9f41-e808-4f56-ae02-265cc585a431","system_id":"levelo_inurba_marseille","lat":43.28564,"lon":5.39506,"is_reserved":false,"is_disabled":false,"rental_uris":{"android":"levelo://app?vid=132a9f41-e808-4f56-ae02-265cc585a431","ios":"levelo://app?vid=132a9f41-e808-4f56-ae02-265cc585a431"},"vehicle_type_id":"4","last_reported":1761685769,"current_range_meters":15200,"station_id":"ce4bh292rcd13ifvqdg0","pricing_plan_id":"cebpf4jnsgd1na2vs0mg"},{"bike_id":"d24a2c68-94c2-4577-88eb-bd161c9ebb38","system_id":"levelo_inurba_marseille","lat":43.225311,"lon":5.348358,"is_reserved":false,"is_disabled":false,"rental_uris":{"android":"levelo://app?vid=d24a2c68-94c2-4577-88eb-bd161c9ebb38","ios":"levelo://app?vid=d24a2c68-94c2-4577-88eb-bd161c9ebb38"},"vehicle_type_id":"4","last_reported":1761685769,"current_range_meters":15200,"station_id":"","pricing_plan_id":"cebpf4jnsgd1na2vs0mg"},{"bike_id":"02dd205b-e97c-4104-9683-066d2523fd3f","system_id":"levelo_inurba_marseille","lat":43.23067,"lon":5.35492,"is_reserved":false,"is_disabled":false,"rental_uris":{"android":"levelo://app?vid=02dd205b-e97c-4104-9683-066d2523fd3f","ios":"levelo://app?vid=02dd205b-e97c-4104-9683-066d2523fd3f"},"vehicle_type_id":"4","last_reported":1761685769,"current_range_meters":15200,"station_id":"cpo3342slgdg3j2ifvpg","pricing_plan_id":"cebpf4jnsgd1na2vs0mg"},{"bike_id":"42ed1b94-640c-460f-8d10-6f0a1faeb5d8","system_id":"levelo_inurba_marseille","lat":43.30304,"lon":5.392046,"is_reserved":false,"is_disabled":false,"rental_uris":{"android":"levelo://app?vid=42ed1b94-640c-460f-8d10-6f0a1faeb5d8","ios":"levelo://app?vid=42ed1b94-640c-460f-8d10-6f0a1faeb5d8"},"vehicle_type_id":"4","last_reported":1761685769,"current_range_meters":16000,"station_id":"ce4bgkh2rcd13ifvqbk0","pricing_plan_id":"cebpf4jnsgd1na2vs0mg"},{"bike_id":"1658feda-bd17-4ba3-b055-fda290c11fec","system_id":"levelo_inurba_marseille","lat":43.30252,"lon":5.40056,"is_reserved":false,"is_disabled":false,"rental_uris":{"android":"levelo://app?vid=1658feda-bd17-4ba3-b055-fda290c11fec","ios":"levelo://app?vid=1658feda-bd17-4ba3-b055-fda290c11fec"},"vehicle_type_id":"4","last_reported":1761685769,"current_range_meters":16000,"station_id":"ce4bgvh2rcd13ifvqcs0","pricing_plan_id":"cebpf4jnsgd1na2vs0mg"},{"bike_id":"a65af54c-e17c-4127-bb63-1fda253d56d0","system_id":"levelo_inurba_marseille","lat":43.32292,"lon":5.38268,"is_reserved":false,"is_disabled":false,"rental_uris":{"android":"levelo://app?vid=a65af54c-e17c-4127-bb63-1fda253d56d0","ios":"levelo://app?vid=a65af54c-e17c-4127-bb63-1fda253d56d0"},"vehicle_type_id":"4","last_reported":1761685769,"current_range_meters":16000,"station_id":"ce4bhr12rcd13ifvqhqg","pricing_plan_id":"cebpf4jnsgd1na2vs0mg"},{"bike_id":"e8b84214-f1c5-42ec-8e5a-ba8b999acb71","system_id":"levelo_inurba_marseille","lat":43.25821,"lon":5.39424,"is_reserved":false,"is_disabled":false,"rental_uris":{"android":"levelo://app?vid=e8b84214-f1c5-42ec-8e5a-ba8b999acb71","ios":"levelo://app?vid=e8b84214-f1c5-42ec-8e5a-ba8b999acb71"},"vehicle_type_id":"4","last_reported":1761685769,"current_range_meters":16000,"station_id":"ce4bhip2rcd13ifvqft0","pricing_plan_id":"cebpf4jnsgd1na2vs0mg"},{"bike_id":"5bfd23b8-1367-4e61-9c52-b20cbdf81bf6","system_id":"levelo_inurba_marseille","lat":43.31077,"lon":5.38353,"is_reserved":false,"is_disabled":false,"rental_uris":{"android":"levelo://app?vid=5bfd23b8-1367-4e61-9c52-b20cbdf81bf6","ios":"levelo://app?vid=5bfd23b8-1367-4e61-9c52-b20cbdf81bf6"},"vehicle_type_id":"4","last_reported":1761685769,"current_range_meters":16400,"station_id":"ce4bgv92rcd13ifvqcr0","pricing_plan_id":"cebpf4jnsgd1na2vs0mg"},{"bike_id":"11716ec0-de75-4788-aa86-bbb4f0d68f78","system_id":"levelo_inurba_marseille","lat":43.289797,"lon":5.366349,"is_reserved":false,"is_disabled":false,"rental_uris":{"android":"levelo://app?vid=11716ec0-de75-4788-aa86-bbb4f0d68f78","ios":"levelo://app?vid=11716ec0-de75-4788-aa86-bbb4f0d68f78"},"vehicle_type_id":"4","last_reported":1761685769,"current_range_meters":16400,"station_id":"ce4bhap2rcd13ifvqek0","pricing_plan_id":"cebpf4jnsgd1na2vs0mg"},{"bike_id":"d3724109-bf40-4091-a944-a6f45960f313","system_id":"levelo_inurba_marseille","lat":43.29028,"lon":5.38628,"is_reserved":false,"is_disabled":false,"rental_uris":{"android":"levelo://app?vid=d3724109-bf40-4091-a944-a6f45960f313","ios":"levelo://app?vid=d3724109-bf40-4091-a944-a6f45960f313"},"vehicle_type_id":"4","last_reported":1761685769,"current_range_meters":16400,"station_id":"ce4bh4p2rcd13ifvqe0g","pricing_plan_id":"cebpf4jnsgd1na2vs0mg"},{"bike_id":"025f0b58-2ca1-4f6f-a038-9584999cd0cc","system_id":"levelo_inurba_marseille","lat":43.29251,"lon":5.38452,"is_reserved":false,"is_disabled":false,"rental_uris":{"android":"levelo://app?vid=025f0b58-2ca1-4f6f-a038-9584999cd0cc","ios":"levelo://app?vid=025f0b58-2ca1-4f6f-a038-9584999cd0cc"},"vehicle_type_id":"4","last_reported":1761685769,"current_range_meters":16400,"station_id":"ce4bh692rcd13ifvqea0","pricing_plan_id":"cebpf4jnsgd1na2vs0mg"},{"bike_id":"b7853e2d-9fd8-47b7-b418-f5a31a67b88f","system_id":"levelo_inurba_marseille","lat":43.295114,"lon":5.379263,"is_reserved":false,"is_disabled":false,"rental_uris":{"android":"levelo://app?vid=b7853e2d-9fd8-47b7-b418-f5a31a67b88f","ios":"levelo://app?vid=b7853e2d-9fd8-47b7-b418-f5a31a67b88f"},"vehicle_type_id":"4","last_reported":1761685769,"current_range_meters":16400,"station_id":"","pricing_plan_id":"cebpf4jnsgd1na2vs0mg"},{"bike_id":"fc8dce04-fa9b-4511-9944-96d30aadef1b","system_id":"levelo_inurba_marseille","lat":43.3033,"lon":5.40423,"is_reserved":false,"is_disabled":false,"rental_uris":{"android":"levelo://app?vid=fc8dce04-fa9b-4511-9944-96d30aadef1b","ios":"levelo://app?vid=fc8dce04-fa9b-4511-9944-96d30aadef1b"},"vehicle_type_id":"4","last_reported":1761685769,"current_range_meters":16400,"station_id":"ce4bh012rcd13ifvqd10","pricing_plan_id":"cebpf4jnsgd1na2vs0mg"},{"bike_id":"800402a0-10ff-4a89-83e0-c531e949cae8","system_id":"levelo_inurba_marseille","lat":43.272093,"lon":5.391853,"is_reserved":false,"is_disabled":false,"rental_uris":{"android":"levelo://app?vid=800402a0-10ff-4a89-83e0-c531e949cae8","ios":"levelo://app?vid=800402a0-10ff-4a89-83e0-c531e949cae8"},"vehicle_type_id":"4","last_reported":1761685769,"current_range_meters":16400,"station_id":"ce4bhhp2rcd13ifvqfm0","pricing_plan_id":"cebpf4jnsgd1na2vs0mg"},{"bike_id":"2c80b54e-bbc1-4de7-afdf-9b0246ad8a4c","system_id":"levelo_inurba_marseille","lat":43.24806,"lon":5.37457,"is_reserved":false,"is_disabled":false,"rental_uris":{"android":"levelo://app?vid=2c80b54e-bbc1-4de7-afdf-9b0246ad8a4c","ios":"levelo://app?vid=2c80b54e-bbc1-4de7-afdf-9b0246ad8a4c"},"vehicle_type_id":"4","last_reported":1761685769,"current_range_meters":16800,"station_id":"ce4bhgh2rcd13ifvqfb0","pricing_plan_id":"cebpf4jnsgd1na2vs0mg"},{"bike_id":"0ab4ee7f-daa9-4046-91b8-1f8994cd51b1","system_id":"levelo_inurba_marseille","lat":43.30315,"lon":5.36899,"is_reserved":false,"is_disabled":false,"rental_uris":{"android":"levelo://app?vid=0ab4ee7f-daa9-4046-91b8-1f8994cd51b1","ios":"levelo://app?vid=0ab4ee7f-daa9-4046-91b8-1f8994cd51b1"},"vehicle_type_id":"4","last_reported":1761685769,"current_range_meters":16800,"station_id":"ce4bgqh2rcd13ifvqc5g","pricing_plan_id":"cebpf4jnsgd1na2vs0mg"},{"bike_id":"6a91e7ca-4b00-459a-8085-0a31f67a5c55","system_id":"levelo_inurba_marseille","lat":43.29529,"lon":5.39042,"is_reserved":false,"is_disabled":false,"rental_uris":{"android":"levelo://app?vid=6a91e7ca-4b00-459a-8085-0a31f67a5c55","ios":"levelo://app?vid=6a91e7ca-4b00-459a-8085-0a31f67a5c55"},"vehicle_type_id":"4","last_reported":1761685769,"current_range_meters":16800,"station_id":"ce4bh3p2rcd13ifvqdp0","pricing_plan_id":"cebpf4jnsgd1na2vs0mg"},{"bike_id":"7646a48b-a165-4172-aaa5-aabda3625dff","system_id":"levelo_inurba_marseille","lat":43.29538,"lon":5.38544,"is_reserved":false,"is_disabled":false,"rental_uris":{"android":"levelo://app?vid=7646a48b-a165-4172-aaa5-aabda3625dff","ios":"levelo://app?vid=7646a48b-a165-4172-aaa5-aabda3625dff"},"vehicle_type_id":"4","last_reported":1761685769,"current_range_meters":16800,"station_id":"ce4bgih2rcd13ifvqba0","pricing_plan_id":"cebpf4jnsgd1na2vs0mg"},{"bike_id":"bb9370ef-3590-41dd-8c39-3a78062a4405","system_id":"levelo_inurba_marseille","lat":43.2656,"lon":5.37292,"is_reserved":false,"is_disabled":false,"rental_uris":{"android":"levelo://app?vid=bb9370ef-3590-41dd-8c39-3a78062a4405","ios":"levelo://app?vid=bb9370ef-3590-41dd-8c39-3a78062a4405"},"vehicle_type_id":"4","last_reported":1761685769,"current_range_meters":16800,"station_id":"ce4bhg12rcd13ifvqf70","pricing_plan_id":"cebpf4jnsgd1na2vs0mg"},{"bike_id":"01202907-5172-4114-ab0c-8d1eb3b1a19c","system_id":"levelo_inurba_marseille","lat":43.2953,"lon":5.38546,"is_reserved":false,"is_disabled":false,"rental_uris":{"android":"levelo://app?vid=01202907-5172-4114-ab0c-8d1eb3b1a19c","ios":"levelo://app?vid=01202907-5172-4114-ab0c-8d1eb3b1a19c"},"vehicle_type_id":"4","last_reported":1761685769,"current_range_meters":16800,"station_id":"ce4bgih2rcd13ifvqba0","pricing_plan_id":"cebpf4jnsgd1na2vs0mg"},{"bike_id":"0c6edb58-af86-422a-8b73-50f3c60d5fc5","system_id":"levelo_inurba_marseille","lat":43.27498,"lon":5.42451,"is_reserved":false,"is_disabled":false,"rental_uris":{"android":"levelo://app?vid=0c6edb58-af86-422a-8b73-50f3c60d5fc5","ios":"levelo://app?vid=0c6edb58-af86-422a-8b73-50f3c60d5fc5"},"vehicle_type_id":"4","last_reported":1761685769,"current_range_meters":16800,"station_id":"ce4bhn92rcd13ifvqgrg","pricing_plan_id":"cebpf4jnsgd1na2vs0mg"},{"bike_id":"28ecc673-9f76-410b-bbf1-6f0559d3f1af","system_id":"levelo_inurba_marseille","lat":43.29347,"lon":5.37435,"is_reserved":false,"is_disabled":false,"rental_uris":{"android":"levelo://app?vid=28ecc673-9f76-410b-bbf1-6f0559d3f1af","ios":"levelo://app?vid=28ecc673-9f76-410b-bbf1-6f0559d3f1af"},"vehicle_type_id":"4","last_reported":1761685769,"current_range_meters":16800,"station_id":"ce4bhap2rcd13ifvqek0","pricing_plan_id":"cebpf4jnsgd1na2vs0mg"},{"bike_id":"e62bc63f-1623-48ba-bdc2-ffa136c40c90","system_id":"levelo_inurba_marseille","lat":43.28091,"lon":5.35655,"is_reserved":false,"is_disabled":false,"rental_uris":{"android":"levelo://app?vid=e62bc63f-1623-48ba-bdc2-ffa136c40c90","ios":"levelo://app?vid=e62bc63f-1623-48ba-bdc2-ffa136c40c90"},"vehicle_type_id":"4","last_reported":1761685769,"current_range_meters":17200,"station_id":"","pricing_plan_id":"cebpf4jnsgd1na2vs0mg"},{"bike_id":"fef7c7e6-8059-41aa-ae57-31b07bd2b2eb","system_id":"levelo_inurba_marseille","lat":43.225311,"lon":5.348374,"is_reserved":false,"is_disabled":false,"rental_uris":{"android":"levelo://app?vid=fef7c7e6-8059-41aa-ae57-31b07bd2b2eb","ios":"levelo://app?vid=fef7c7e6-8059-41aa-ae57-31b07bd2b2eb"},"vehicle_type_id":"4","last_reported":1761685769,"current_range_meters":17200,"station_id":"","pricing_plan_id":"cebpf4jnsgd1na2vs0mg"},{"bike_id":"b9fbed83-10d6-4a2f-8e81-30125c59e5d0","system_id":"levelo_inurba_marseille","lat":43.301263,"lon":5.398639,"is_reserved":false,"is_disabled":false,"rental_uris":{"android":"levelo://app?vid=b9fbed83-10d6-4a2f-8e81-30125c59e5d0","ios":"levelo://app?vid=b9fbed83-10d6-4a2f-8e81-30125c59e5d0"},"vehicle_type_id":"4","last_reported":1761685769,"current_range_meters":17200,"station_id":"ce4bh0h2rcd13ifvqd40","pricing_plan_id":"cebpf4jnsgd1na2vs0mg"},{"bike_id":"14c6cedd-2559-445e-b389-644995a90b39","system_id":"levelo_inurba_marseille","lat":43.31053,"lon":5.42753,"is_reserved":false,"is_disabled":false,"rental_uris":{"android":"levelo://app?vid=14c6cedd-2559-445e-b389-644995a90b39","ios":"levelo://app?vid=14c6cedd-2559-445e-b389-644995a90b39"},"vehicle_type_id":"4","last_reported":1761685769,"current_range_meters":17200,"station_id":"","pricing_plan_id":"cebpf4jnsgd1na2vs0mg"},{"bike_id":"36f59993-4d4a-4f48-adec-deac4a95aae6","system_id":"levelo_inurba_marseille","lat":43.27378,"lon":5.36252,"is_reserved":false,"is_disabled":false,"rental_uris":{"android":"levelo://app?vid=36f59993-4d4a-4f48-adec-deac4a95aae6","ios":"levelo://app?vid=36f59993-4d4a-4f48-adec-deac4a95aae6"},"vehicle_type_id":"4","last_reported":1761685769,"current_range_meters":17200,"station_id":"ce4bhbh2rcd13ifvqeo0","pricing_plan_id":"cebpf4jnsgd1na2vs0mg"},{"bike_id":"731c6dbb-3562-49c0-8d1a-307d7d710a0c","system_id":"levelo_inurba_marseille","lat":43.29532,"lon":5.38546,"is_reserved":false,"is_disabled":false,"rental_uris":{"android":"levelo://app?vid=731c6dbb-3562-49c0-8d1a-307d7d710a0c","ios":"levelo://app?vid=731c6dbb-3562-49c0-8d1a-307d7d710a0c"},"vehicle_type_id":"4","last_reported":1761685769,"current_range_meters":17200,"station_id":"ce4bgih2rcd13ifvqba0","pricing_plan_id":"cebpf4jnsgd1na2vs0mg"},{"bike_id":"e08a0954-1e77-4ace-99d4-fb493c406774","system_id":"levelo_inurba_marseille","lat":43.30248,"lon":5.40029,"is_reserved":false,"is_disabled":false,"rental_uris":{"android":"levelo://app?vid=e08a0954-1e77-4ace-99d4-fb493c406774","ios":"levelo://app?vid=e08a0954-1e77-4ace-99d4-fb493c406774"},"vehicle_type_id":"4","last_reported":1761685769,"current_range_meters":17200,"station_id":"","pricing_plan_id":"cebpf4jnsgd1na2vs0mg"},{"bike_id":"d340ce0c-a59e-46d4-8780-fe806ed042f0","system_id":"levelo_inurba_marseille","lat":43.2842,"lon":5.37524,"is_reserved":false,"is_disabled":false,"rental_uris":{"android":"levelo://app?vid=d340ce0c-a59e-46d4-8780-fe806ed042f0","ios":"levelo://app?vid=d340ce0c-a59e-46d4-8780-fe806ed042f0"},"vehicle_type_id":"4","last_reported":1761685769,"current_range_meters":17600,"station_id":"ce4bh412rcd13ifvqds0","pricing_plan_id":"cebpf4jnsgd1na2vs0mg"},{"bike_id":"91332a8d-8cbf-4ded-a486-0dea41af6bbc","system_id":"levelo_inurba_marseille","lat":43.28935,"lon":5.38403,"is_reserved":false,"is_disabled":false,"rental_uris":{"android":"levelo://app?vid=91332a8d-8cbf-4ded-a486-0dea41af6bbc","ios":"levelo://app?vid=91332a8d-8cbf-4ded-a486-0dea41af6bbc"},"vehicle_type_id":"4","last_reported":1761685769,"current_range_meters":17600,"station_id":"ce4bh612rcd13ifvqe6g","pricing_plan_id":"cebpf4jnsgd1na2vs0mg"},{"bike_id":"5d326f57-e437-48e7-ac33-9efede1e2fa5","system_id":"levelo_inurba_marseille","lat":43.29515,"lon":5.38558,"is_reserved":false,"is_disabled":false,"rental_uris":{"android":"levelo://app?vid=5d326f57-e437-48e7-ac33-9efede1e2fa5","ios":"levelo://app?vid=5d326f57-e437-48e7-ac33-9efede1e2fa5"},"vehicle_type_id":"4","last_reported":1761685769,"current_range_meters":17600,"station_id":"ce4bgih2rcd13ifvqba0","pricing_plan_id":"cebpf4jnsgd1na2vs0mg"},{"bike_id":"ea4cf001-23bc-41c3-ab59-d3c1f50281e6","system_id":"levelo_inurba_marseille","lat":43.29261,"lon":5.38438,"is_reserved":false,"is_disabled":false,"rental_uris":{"android":"levelo://app?vid=ea4cf001-23bc-41c3-ab59-d3c1f50281e6","ios":"levelo://app?vid=ea4cf001-23bc-41c3-ab59-d3c1f50281e6"},"vehicle_type_id":"4","last_reported":1761685769,"current_range_meters":17600,"station_id":"ce4bh692rcd13ifvqea0","pricing_plan_id":"cebpf4jnsgd1na2vs0mg"},{"bike_id":"70871168-18dd-4754-ad19-d28c37ce9f69","system_id":"levelo_inurba_marseille","lat":43.30807,"lon":5.38184,"is_reserved":false,"is_disabled":true,"rental_uris":{"android":"levelo://app?vid=70871168-18dd-4754-ad19-d28c37ce9f69","ios":"levelo://app?vid=70871168-18dd-4754-ad19-d28c37ce9f69"},"vehicle_type_id":"4","last_reported":1761685769,"current_range_meters":17600,"station_id":"ce4bgt12rcd13ifvqce0","pricing_plan_id":"cebpf4jnsgd1na2vs0mg"},{"bike_id":"34cfbbfb-7fcd-4e0b-a511-b666cf091d8e","system_id":"levelo_inurba_marseille","lat":43.25089,"lon":5.3952,"is_reserved":false,"is_disabled":true,"rental_uris":{"android":"levelo://app?vid=34cfbbfb-7fcd-4e0b-a511-b666cf091d8e","ios":"levelo://app?vid=34cfbbfb-7fcd-4e0b-a511-b666cf091d8e"},"vehicle_type_id":"4","last_reported":1761685769,"current_range_meters":17600,"station_id":"ce4bhm12rcd13ifvqgkg","pricing_plan_id":"cebpf4jnsgd1na2vs0mg"},{"bike_id":"7fb0d27d-ec45-4de8-9c9e-90046ec376fa","system_id":"levelo_inurba_marseille","lat":43.24164,"lon":5.36395,"is_reserved":false,"is_disabled":false,"rental_uris":{"android":"levelo://app?vid=7fb0d27d-ec45-4de8-9c9e-90046ec376fa","ios":"levelo://app?vid=7fb0d27d-ec45-4de8-9c9e-90046ec376fa"},"vehicle_type_id":"4","last_reported":1761685769,"current_range_meters":17600,"station_id":"cpo36qri1sfpv3e86is0","pricing_plan_id":"cebpf4jnsgd1na2vs0mg"},{"bike_id":"faee4aed-34d1-4e59-9f3e-bc2337688920","system_id":"levelo_inurba_marseille","lat":43.31683,"lon":5.43684,"is_reserved":false,"is_disabled":true,"rental_uris":{"android":"levelo://app?vid=faee4aed-34d1-4e59-9f3e-bc2337688920","ios":"levelo://app?vid=faee4aed-34d1-4e59-9f3e-bc2337688920"},"vehicle_type_id":"4","last_reported":1761685769,"current_range_meters":17600,"station_id":"ce4bhp92rcd13ifvqhcg","pricing_plan_id":"cebpf4jnsgd1na2vs0mg"},{"bike_id":"eaa27f99-1b2b-451b-9b6e-d89600e0e460","system_id":"levelo_inurba_marseille","lat":43.29524,"lon":5.3856,"is_reserved":false,"is_disabled":false,"rental_uris":{"android":"levelo://app?vid=eaa27f99-1b2b-451b-9b6e-d89600e0e460","ios":"levelo://app?vid=eaa27f99-1b2b-451b-9b6e-d89600e0e460"},"vehicle_type_id":"4","last_reported":1761685769,"current_range_meters":17600,"station_id":"ce4bgih2rcd13ifvqba0","pricing_plan_id":"cebpf4jnsgd1na2vs0mg"},{"bike_id":"f6adb9c1-4a78-4322-baec-aa5f6f5d93b6","system_id":"levelo_inurba_marseille","lat":43.225321,"lon":5.348302,"is_reserved":false,"is_disabled":false,"rental_uris":{"android":"levelo://app?vid=f6adb9c1-4a78-4322-baec-aa5f6f5d93b6","ios":"levelo://app?vid=f6adb9c1-4a78-4322-baec-aa5f6f5d93b6"},"vehicle_type_id":"4","last_reported":1761685769,"current_range_meters":17600,"station_id":"","pricing_plan_id":"cebpf4jnsgd1na2vs0mg"},{"bike_id":"96874538-e338-47dd-8158-7284ae5bb7a5","system_id":"levelo_inurba_marseille","lat":43.2906,"lon":5.39421,"is_reserved":false,"is_disabled":false,"rental_uris":{"android":"levelo://app?vid=96874538-e338-47dd-8158-7284ae5bb7a5","ios":"levelo://app?vid=96874538-e338-47dd-8158-7284ae5bb7a5"},"vehicle_type_id":"4","last_reported":1761685769,"current_range_meters":18000,"station_id":"","pricing_plan_id":"cebpf4jnsgd1na2vs0mg"},{"bike_id":"e3260d53-1f31-4048-a6b1-57d9b1375877","system_id":"levelo_inurba_marseille","lat":43.28537,"lon":5.44097,"is_reserved":false,"is_disabled":false,"rental_uris":{"android":"levelo://app?vid=e3260d53-1f31-4048-a6b1-57d9b1375877","ios":"levelo://app?vid=e3260d53-1f31-4048-a6b1-57d9b1375877"},"vehicle_type_id":"4","last_reported":1761685769,"current_range_meters":18000,"station_id":"st_d3j3df2ikq2c7380ej80","pricing_plan_id":"cebpf4jnsgd1na2vs0mg"},{"bike_id":"3d00cf23-a66b-47a1-8eb3-f05af16b09a1","system_id":"levelo_inurba_marseille","lat":43.24421,"lon":5.37051,"is_reserved":false,"is_disabled":false,"rental_uris":{"android":"levelo://app?vid=3d00cf23-a66b-47a1-8eb3-f05af16b09a1","ios":"levelo://app?vid=3d00cf23-a66b-47a1-8eb3-f05af16b09a1"},"vehicle_type_id":"4","last_reported":1761685769,"current_range_meters":18000,"station_id":"ce4bhhh2rcd13ifvqfk0","pricing_plan_id":"cebpf4jnsgd1na2vs0mg"},{"bike_id":"1a34b5a4-3c1e-479b-b6f5-76f97d5c5c52","system_id":"levelo_inurba_marseille","lat":43.28542,"lon":5.44087,"is_reserved":false,"is_disabled":false,"rental_uris":{"android":"levelo://app?vid=1a34b5a4-3c1e-479b-b6f5-76f97d5c5c52","ios":"levelo://app?vid=1a34b5a4-3c1e-479b-b6f5-76f97d5c5c52"},"vehicle_type_id":"4","last_reported":1761685769,"current_range_meters":18000,"station_id":"st_d3j3df2ikq2c7380ej80","pricing_plan_id":"cebpf4jnsgd1na2vs0mg"},{"bike_id":"059e3913-0aad-446f-b1e1-0538bc67f272","system_id":"levelo_inurba_marseille","lat":43.3033,"lon":5.40427,"is_reserved":false,"is_disabled":false,"rental_uris":{"android":"levelo://app?vid=059e3913-0aad-446f-b1e1-0538bc67f272","ios":"levelo://app?vid=059e3913-0aad-446f-b1e1-0538bc67f272"},"vehicle_type_id":"4","last_reported":1761685769,"current_range_meters":18000,"station_id":"ce4bh012rcd13ifvqd10","pricing_plan_id":"cebpf4jnsgd1na2vs0mg"},{"bike_id":"6b348488-d238-4b34-a50a-373e43518d1d","system_id":"levelo_inurba_marseille","lat":43.237762,"lon":5.366315,"is_reserved":false,"is_disabled":false,"rental_uris":{"android":"levelo://app?vid=6b348488-d238-4b34-a50a-373e43518d1d","ios":"levelo://app?vid=6b348488-d238-4b34-a50a-373e43518d1d"},"vehicle_type_id":"4","last_reported":1761685769,"current_range_meters":18000,"station_id":"st_d3nk18o9ro0c73en2l3g","pricing_plan_id":"cebpf4jnsgd1na2vs0mg"},{"bike_id":"3be6387f-9356-4d22-96e9-26a716368262","system_id":"levelo_inurba_marseille","lat":43.29633,"lon":5.4061,"is_reserved":false,"is_disabled":true,"rental_uris":{"android":"levelo://app?vid=3be6387f-9356-4d22-96e9-26a716368262","ios":"levelo://app?vid=3be6387f-9356-4d22-96e9-26a716368262"},"vehicle_type_id":"4","last_reported":1761685769,"current_range_meters":18000,"station_id":"ce4bh0h2rcd13ifvqd60","pricing_plan_id":"cebpf4jnsgd1na2vs0mg"},{"bike_id":"290248c4-aeef-446a-9931-ec541fe3c863","system_id":"levelo_inurba_marseille","lat":43.30952,"lon":5.39023,"is_reserved":false,"is_disabled":false,"rental_uris":{"android":"levelo://app?vid=290248c4-aeef-446a-9931-ec541fe3c863","ios":"levelo://app?vid=290248c4-aeef-446a-9931-ec541fe3c863"},"vehicle_type_id":"4","last_reported":1761685769,"current_range_meters":18000,"station_id":"ce4bgup2rcd13ifvqco0","pricing_plan_id":"cebpf4jnsgd1na2vs0mg"},{"bike_id":"19f435a2-1a97-4560-b4c8-f2142b4f82fe","system_id":"levelo_inurba_marseille","lat":43.29531,"lon":5.3855,"is_reserved":false,"is_disabled":false,"rental_uris":{"android":"levelo://app?vid=19f435a2-1a97-4560-b4c8-f2142b4f82fe","ios":"levelo://app?vid=19f435a2-1a97-4560-b4c8-f2142b4f82fe"},"vehicle_type_id":"4","last_reported":1761685769,"current_range_meters":18000,"station_id":"ce4bgih2rcd13ifvqba0","pricing_plan_id":"cebpf4jnsgd1na2vs0mg"},{"bike_id":"024c35cc-8338-4b12-876a-7fd2b358150d","system_id":"levelo_inurba_marseille","lat":43.28427,"lon":5.37524,"is_reserved":false,"is_disabled":false,"rental_uris":{"android":"levelo://app?vid=024c35cc-8338-4b12-876a-7fd2b358150d","ios":"levelo://app?vid=024c35cc-8338-4b12-876a-7fd2b358150d"},"vehicle_type_id":"4","last_reported":1761685769,"current_range_meters":18000,"station_id":"ce4bh412rcd13ifvqds0","pricing_plan_id":"cebpf4jnsgd1na2vs0mg"},{"bike_id":"36eabe61-e39d-4c7b-8006-7f1761a425b8","system_id":"levelo_inurba_marseille","lat":43.29444,"lon":5.39753,"is_reserved":false,"is_disabled":false,"rental_uris":{"android":"levelo://app?vid=36eabe61-e39d-4c7b-8006-7f1761a425b8","ios":"levelo://app?vid=36eabe61-e39d-4c7b-8006-7f1761a425b8"},"vehicle_type_id":"4","last_reported":1761685769,"current_range_meters":18000,"station_id":"ce4bh3h2rcd13ifvqdo0","pricing_plan_id":"cebpf4jnsgd1na2vs0mg"},{"bike_id":"aeb74963-973d-4f14-ac3b-ad008505fb7d","system_id":"levelo_inurba_marseille","lat":43.28862,"lon":5.39309,"is_reserved":false,"is_disabled":false,"rental_uris":{"android":"levelo://app?vid=aeb74963-973d-4f14-ac3b-ad008505fb7d","ios":"levelo://app?vid=aeb74963-973d-4f14-ac3b-ad008505fb7d"},"vehicle_type_id":"4","last_reported":1761685769,"current_range_meters":18000,"station_id":"ce4bh2p2rcd13ifvqdi0","pricing_plan_id":"cebpf4jnsgd1na2vs0mg"},{"bike_id":"af657061-45d4-41f7-a25a-2f5e789e34e3","system_id":"levelo_inurba_marseille","lat":43.29526,"lon":5.38531,"is_reserved":false,"is_disabled":false,"rental_uris":{"android":"levelo://app?vid=af657061-45d4-41f7-a25a-2f5e789e34e3","ios":"levelo://app?vid=af657061-45d4-41f7-a25a-2f5e789e34e3"},"vehicle_type_id":"4","last_reported":1761685769,"current_range_meters":18000,"station_id":"ce4bgih2rcd13ifvqba0","pricing_plan_id":"cebpf4jnsgd1na2vs0mg"},{"bike_id":"75dc66b3-0d26-400d-85b7-e985f64e2136","system_id":"levelo_inurba_marseille","lat":43.28993,"lon":5.43699,"is_reserved":false,"is_disabled":false,"rental_uris":{"android":"levelo://app?vid=75dc66b3-0d26-400d-85b7-e985f64e2136","ios":"levelo://app?vid=75dc66b3-0d26-400d-85b7-e985f64e2136"},"vehicle_type_id":"4","last_reported":1761685769,"current_range_meters":18800,"station_id":"","pricing_plan_id":"cebpf4jnsgd1na2vs0mg"},{"bike_id":"991fd8cf-597f-4eec-a5a4-515407b605e3","system_id":"levelo_inurba_marseille","lat":43.29508,"lon":5.39031,"is_reserved":false,"is_disabled":false,"rental_uris":{"android":"levelo://app?vid=991fd8cf-597f-4eec-a5a4-515407b605e3","ios":"levelo://app?vid=991fd8cf-597f-4eec-a5a4-515407b605e3"},"vehicle_type_id":"4","last_reported":1761685769,"current_range_meters":18800,"station_id":"ce4bh3p2rcd13ifvqdp0","pricing_plan_id":"cebpf4jnsgd1na2vs0mg"},{"bike_id":"be6db7f8-b9fe-42be-b286-fea32b95aa67","system_id":"levelo_inurba_marseille","lat":43.29276,"lon":5.36846,"is_reserved":false,"is_disabled":false,"rental_uris":{"android":"levelo://app?vid=be6db7f8-b9fe-42be-b286-fea32b95aa67","ios":"levelo://app?vid=be6db7f8-b9fe-42be-b286-fea32b95aa67"},"vehicle_type_id":"4","last_reported":1761685769,"current_range_meters":18800,"station_id":"ce4bhbp2rcd13ifvqesg","pricing_plan_id":"cebpf4jnsgd1na2vs0mg"},{"bike_id":"5ae39c5d-5e24-440b-8fa6-9d63bbfbae68","system_id":"levelo_inurba_marseille","lat":43.29459,"lon":5.38751,"is_reserved":false,"is_disabled":false,"rental_uris":{"android":"levelo://app?vid=5ae39c5d-5e24-440b-8fa6-9d63bbfbae68","ios":"levelo://app?vid=5ae39c5d-5e24-440b-8fa6-9d63bbfbae68"},"vehicle_type_id":"4","last_reported":1761685769,"current_range_meters":18800,"station_id":"","pricing_plan_id":"cebpf4jnsgd1na2vs0mg"},{"bike_id":"5889b409-6f07-439e-a793-46bfaff8e999","system_id":"levelo_inurba_marseille","lat":43.27071,"lon":5.42279,"is_reserved":false,"is_disabled":false,"rental_uris":{"android":"levelo://app?vid=5889b409-6f07-439e-a793-46bfaff8e999","ios":"levelo://app?vid=5889b409-6f07-439e-a793-46bfaff8e999"},"vehicle_type_id":"4","last_reported":1761685769,"current_range_meters":19200,"station_id":"ce4bhk92rcd13ifvqgb0","pricing_plan_id":"cebpf4jnsgd1na2vs0mg"},{"bike_id":"cb198da0-0e7c-48ae-a1c5-8f167fa907d9","system_id":"levelo_inurba_marseille","lat":43.31114,"lon":5.37775,"is_reserved":false,"is_disabled":false,"rental_uris":{"android":"levelo://app?vid=cb198da0-0e7c-48ae-a1c5-8f167fa907d9","ios":"levelo://app?vid=cb198da0-0e7c-48ae-a1c5-8f167fa907d9"},"vehicle_type_id":"4","last_reported":1761685769,"current_range_meters":19200,"station_id":"ce4bgt92rcd13ifvqcg0","pricing_plan_id":"cebpf4jnsgd1na2vs0mg"},{"bike_id":"0bd9265c-a632-49bd-829e-a493cb7ee3a3","system_id":"levelo_inurba_marseille","lat":43.33399,"lon":5.3727,"is_reserved":false,"is_disabled":false,"rental_uris":{"android":"levelo://app?vid=0bd9265c-a632-49bd-829e-a493cb7ee3a3","ios":"levelo://app?vid=0bd9265c-a632-49bd-829e-a493cb7ee3a3"},"vehicle_type_id":"4","last_reported":1761685769,"current_range_meters":19200,"station_id":"","pricing_plan_id":"cebpf4jnsgd1na2vs0mg"},{"bike_id":"66f35c71-7548-4c33-9bb7-97e77983d5f2","system_id":"levelo_inurba_marseille","lat":43.30242,"lon":5.40053,"is_reserved":false,"is_disabled":true,"rental_uris":{"android":"levelo://app?vid=66f35c71-7548-4c33-9bb7-97e77983d5f2","ios":"levelo://app?vid=66f35c71-7548-4c33-9bb7-97e77983d5f2"},"vehicle_type_id":"4","last_reported":1761685769,"current_range_meters":19200,"station_id":"ce4bgvh2rcd13ifvqcs0","pricing_plan_id":"cebpf4jnsgd1na2vs0mg"},{"bike_id":"88d5770e-c923-4058-937f-6fe5d60fc0d8","system_id":"levelo_inurba_marseille","lat":43.28571,"lon":5.39499,"is_reserved":false,"is_disabled":false,"rental_uris":{"android":"levelo://app?vid=88d5770e-c923-4058-937f-6fe5d60fc0d8","ios":"levelo://app?vid=88d5770e-c923-4058-937f-6fe5d60fc0d8"},"vehicle_type_id":"4","last_reported":1761685769,"current_range_meters":19200,"station_id":"ce4bh292rcd13ifvqdg0","pricing_plan_id":"cebpf4jnsgd1na2vs0mg"},{"bike_id":"54981271-6fcc-4bca-bad9-c46eb41508f8","system_id":"levelo_inurba_marseille","lat":43.29529,"lon":5.38515,"is_reserved":false,"is_disabled":false,"rental_uris":{"android":"levelo://app?vid=54981271-6fcc-4bca-bad9-c46eb41508f8","ios":"levelo://app?vid=54981271-6fcc-4bca-bad9-c46eb41508f8"},"vehicle_type_id":"4","last_reported":1761685769,"current_range_meters":19200,"station_id":"ce4bgih2rcd13ifvqba0","pricing_plan_id":"cebpf4jnsgd1na2vs0mg"},{"bike_id":"76aace91-61d0-4fb5-84bc-fded435c3777","system_id":"levelo_inurba_marseille","lat":43.30049,"lon":5.38653,"is_reserved":false,"is_disabled":false,"rental_uris":{"android":"levelo://app?vid=76aace91-61d0-4fb5-84bc-fded435c3777","ios":"levelo://app?vid=76aace91-61d0-4fb5-84bc-fded435c3777"},"vehicle_type_id":"4","last_reported":1761685769,"current_range_meters":19200,"station_id":"","pricing_plan_id":"cebpf4jnsgd1na2vs0mg"},{"bike_id":"a06c786d-e3eb-4ef1-8733-b2407d8624c3","system_id":"levelo_inurba_marseille","lat":43.28867,"lon":5.42518,"is_reserved":false,"is_disabled":false,"rental_uris":{"android":"levelo://app?vid=a06c786d-e3eb-4ef1-8733-b2407d8624c3","ios":"levelo://app?vid=a06c786d-e3eb-4ef1-8733-b2407d8624c3"},"vehicle_type_id":"4","last_reported":1761685769,"current_range_meters":19200,"station_id":"st_d3b462108ojc7389ooeg","pricing_plan_id":"cebpf4jnsgd1na2vs0mg"},{"bike_id":"b94f0eeb-19ea-48b2-8f89-02bc73d02abb","system_id":"levelo_inurba_marseille","lat":43.30212,"lon":5.39464,"is_reserved":false,"is_disabled":false,"rental_uris":{"android":"levelo://app?vid=b94f0eeb-19ea-48b2-8f89-02bc73d02abb","ios":"levelo://app?vid=b94f0eeb-19ea-48b2-8f89-02bc73d02abb"},"vehicle_type_id":"4","last_reported":1761685769,"current_range_meters":19200,"station_id":"ce4bh0p2rcd13ifvqd70","pricing_plan_id":"cebpf4jnsgd1na2vs0mg"},{"bike_id":"a889273d-bcc7-4055-aa42-4c0b25e800a5","system_id":"levelo_inurba_marseille","lat":43.30878,"lon":5.39624,"is_reserved":false,"is_disabled":false,"rental_uris":{"android":"levelo://app?vid=a889273d-bcc7-4055-aa42-4c0b25e800a5","ios":"levelo://app?vid=a889273d-bcc7-4055-aa42-4c0b25e800a5"},"vehicle_type_id":"4","last_reported":1761685769,"current_range_meters":19200,"station_id":"ce4bh012rcd13ifvqcv0","pricing_plan_id":"cebpf4jnsgd1na2vs0mg"},{"bike_id":"4735dc9b-efdb-40d5-82ff-c13389eb3794","system_id":"levelo_inurba_marseille","lat":43.276022,"lon":5.422747,"is_reserved":false,"is_disabled":false,"rental_uris":{"android":"levelo://app?vid=4735dc9b-efdb-40d5-82ff-c13389eb3794","ios":"levelo://app?vid=4735dc9b-efdb-40d5-82ff-c13389eb3794"},"vehicle_type_id":"4","last_reported":1761685769,"current_range_meters":19200,"station_id":"ce4bhn92rcd13ifvqgrg","pricing_plan_id":"cebpf4jnsgd1na2vs0mg"},{"bike_id":"2213c54a-976a-43be-8f2d-e12b8795e211","system_id":"levelo_inurba_marseille","lat":43.3087,"lon":5.39645,"is_reserved":false,"is_disabled":false,"rental_uris":{"android":"levelo://app?vid=2213c54a-976a-43be-8f2d-e12b8795e211","ios":"levelo://app?vid=2213c54a-976a-43be-8f2d-e12b8795e211"},"vehicle_type_id":"4","last_reported":1761685769,"current_range_meters":19600,"station_id":"ce4bh012rcd13ifvqcv0","pricing_plan_id":"cebpf4jnsgd1na2vs0mg"},{"bike_id":"06f2f7c3-b9c2-495e-bf4f-a98757a492d0","system_id":"levelo_inurba_marseille","lat":43.270689,"lon":5.42282,"is_reserved":false,"is_disabled":false,"rental_uris":{"android":"levelo://app?vid=06f2f7c3-b9c2-495e-bf4f-a98757a492d0","ios":"levelo://app?vid=06f2f7c3-b9c2-495e-bf4f-a98757a492d0"},"vehicle_type_id":"4","last_reported":1761685769,"current_range_meters":19600,"station_id":"ce4bhk92rcd13ifvqgb0","pricing_plan_id":"cebpf4jnsgd1na2vs0mg"},{"bike_id":"a16fc5a6-83d2-45de-8e88-d20792aedc48","system_id":"levelo_inurba_marseille","lat":43.30116,"lon":5.39881,"is_reserved":false,"is_disabled":false,"rental_uris":{"android":"levelo://app?vid=a16fc5a6-83d2-45de-8e88-d20792aedc48","ios":"levelo://app?vid=a16fc5a6-83d2-45de-8e88-d20792aedc48"},"vehicle_type_id":"4","last_reported":1761685769,"current_range_meters":19600,"station_id":"ce4bh0h2rcd13ifvqd40","pricing_plan_id":"cebpf4jnsgd1na2vs0mg"},{"bike_id":"6a34e6d0-792e-4bee-9428-37d85ef8871d","system_id":"levelo_inurba_marseille","lat":43.24776,"lon":5.37518,"is_reserved":false,"is_disabled":false,"rental_uris":{"android":"levelo://app?vid=6a34e6d0-792e-4bee-9428-37d85ef8871d","ios":"levelo://app?vid=6a34e6d0-792e-4bee-9428-37d85ef8871d"},"vehicle_type_id":"4","last_reported":1761685769,"current_range_meters":19600,"station_id":"","pricing_plan_id":"cebpf4jnsgd1na2vs0mg"},{"bike_id":"4d12211a-530a-4dfd-859b-37eda4e43430","system_id":"levelo_inurba_marseille","lat":43.278113,"lon":5.407096,"is_reserved":false,"is_disabled":false,"rental_uris":{"android":"levelo://app?vid=4d12211a-530a-4dfd-859b-37eda4e43430","ios":"levelo://app?vid=4d12211a-530a-4dfd-859b-37eda4e43430"},"vehicle_type_id":"4","last_reported":1761685769,"current_range_meters":19600,"station_id":"ce4bhnh2rcd13ifvqgtg","pricing_plan_id":"cebpf4jnsgd1na2vs0mg"},{"bike_id":"1fc2cd5c-5cb6-42ed-b0f5-ddf1cc748404","system_id":"levelo_inurba_marseille","lat":43.29872,"lon":5.38909,"is_reserved":false,"is_disabled":false,"rental_uris":{"android":"levelo://app?vid=1fc2cd5c-5cb6-42ed-b0f5-ddf1cc748404","ios":"levelo://app?vid=1fc2cd5c-5cb6-42ed-b0f5-ddf1cc748404"},"vehicle_type_id":"4","last_reported":1761685769,"current_range_meters":19600,"station_id":"ce4bh392rcd13ifvqdl0","pricing_plan_id":"cebpf4jnsgd1na2vs0mg"},{"bike_id":"556c95c4-e39d-4a50-b32b-6e1b11658636","system_id":"levelo_inurba_marseille","lat":43.24176,"lon":5.36382,"is_reserved":false,"is_disabled":false,"rental_uris":{"android":"levelo://app?vid=556c95c4-e39d-4a50-b32b-6e1b11658636","ios":"levelo://app?vid=556c95c4-e39d-4a50-b32b-6e1b11658636"},"vehicle_type_id":"4","last_reported":1761685769,"current_range_meters":19600,"station_id":"cpo36qri1sfpv3e86is0","pricing_plan_id":"cebpf4jnsgd1na2vs0mg"},{"bike_id":"7aa26a18-77e4-41b2-bb4d-083d6334db1d","system_id":"levelo_inurba_marseille","lat":43.281058,"lon":5.378277,"is_reserved":false,"is_disabled":false,"rental_uris":{"android":"levelo://app?vid=7aa26a18-77e4-41b2-bb4d-083d6334db1d","ios":"levelo://app?vid=7aa26a18-77e4-41b2-bb4d-083d6334db1d"},"vehicle_type_id":"4","last_reported":1761685769,"current_range_meters":19600,"station_id":"ce4bha12rcd13ifvqee0","pricing_plan_id":"cebpf4jnsgd1na2vs0mg"},{"bike_id":"b128fb34-0a8e-4964-8a8c-faa83b2a9c88","system_id":"levelo_inurba_marseille","lat":43.29535,"lon":5.38546,"is_reserved":false,"is_disabled":false,"rental_uris":{"android":"levelo://app?vid=b128fb34-0a8e-4964-8a8c-faa83b2a9c88","ios":"levelo://app?vid=b128fb34-0a8e-4964-8a8c-faa83b2a9c88"},"vehicle_type_id":"4","last_reported":1761685769,"current_range_meters":19600,"station_id":"ce4bgih2rcd13ifvqba0","pricing_plan_id":"cebpf4jnsgd1na2vs0mg"},{"bike_id":"ec66bba6-4075-4856-88c1-d8c49e2c0bff","system_id":"levelo_inurba_marseille","lat":43.262044,"lon":5.40441,"is_reserved":false,"is_disabled":false,"rental_uris":{"android":"levelo://app?vid=ec66bba6-4075-4856-88c1-d8c49e2c0bff","ios":"levelo://app?vid=ec66bba6-4075-4856-88c1-d8c49e2c0bff"},"vehicle_type_id":"4","last_reported":1761685769,"current_range_meters":20000,"station_id":"ce4bhmh2rcd13ifvqgmg","pricing_plan_id":"cebpf4jnsgd1na2vs0mg"},{"bike_id":"09079493-120e-454d-9f36-16ff9b0111a6","system_id":"levelo_inurba_marseille","lat":43.3203,"lon":5.41536,"is_reserved":false,"is_disabled":false,"rental_uris":{"android":"levelo://app?vid=09079493-120e-454d-9f36-16ff9b0111a6","ios":"levelo://app?vid=09079493-120e-454d-9f36-16ff9b0111a6"},"vehicle_type_id":"4","last_reported":1761685769,"current_range_meters":20000,"station_id":"ce4bhq92rcd13ifvqhkg","pricing_plan_id":"cebpf4jnsgd1na2vs0mg"},{"bike_id":"d9a6a1f6-ad3e-4d83-b3dd-5f0ef903b947","system_id":"levelo_inurba_marseille","lat":43.230866,"lon":5.354803,"is_reserved":false,"is_disabled":false,"rental_uris":{"android":"levelo://app?vid=d9a6a1f6-ad3e-4d83-b3dd-5f0ef903b947","ios":"levelo://app?vid=d9a6a1f6-ad3e-4d83-b3dd-5f0ef903b947"},"vehicle_type_id":"4","last_reported":1761685769,"current_range_meters":20000,"station_id":"","pricing_plan_id":"cebpf4jnsgd1na2vs0mg"},{"bike_id":"77cffd7d-e7d8-43df-a392-5189142e826d","system_id":"levelo_inurba_marseille","lat":43.29566,"lon":5.39971,"is_reserved":false,"is_disabled":false,"rental_uris":{"android":"levelo://app?vid=77cffd7d-e7d8-43df-a392-5189142e826d","ios":"levelo://app?vid=77cffd7d-e7d8-43df-a392-5189142e826d"},"vehicle_type_id":"4","last_reported":1761685769,"current_range_meters":20000,"station_id":"ce4bh312rcd13ifvqdj0","pricing_plan_id":"cebpf4jnsgd1na2vs0mg"},{"bike_id":"5e04b96a-69b2-49da-bdbb-bd558021106c","system_id":"levelo_inurba_marseille","lat":43.29881,"lon":5.38909,"is_reserved":false,"is_disabled":false,"rental_uris":{"android":"levelo://app?vid=5e04b96a-69b2-49da-bdbb-bd558021106c","ios":"levelo://app?vid=5e04b96a-69b2-49da-bdbb-bd558021106c"},"vehicle_type_id":"4","last_reported":1761685769,"current_range_meters":20000,"station_id":"ce4bh392rcd13ifvqdl0","pricing_plan_id":"cebpf4jnsgd1na2vs0mg"},{"bike_id":"6697d458-38f9-4512-b600-cd3b9e804749","system_id":"levelo_inurba_marseille","lat":43.28566,"lon":5.39489,"is_reserved":false,"is_disabled":false,"rental_uris":{"android":"levelo://app?vid=6697d458-38f9-4512-b600-cd3b9e804749","ios":"levelo://app?vid=6697d458-38f9-4512-b600-cd3b9e804749"},"vehicle_type_id":"4","last_reported":1761685769,"current_range_meters":20000,"station_id":"ce4bh292rcd13ifvqdg0","pricing_plan_id":"cebpf4jnsgd1na2vs0mg"},{"bike_id":"5bf996c0-533a-43f0-90e7-e795ff8ed648","system_id":"levelo_inurba_marseille","lat":43.28356,"lon":5.38106,"is_reserved":false,"is_disabled":false,"rental_uris":{"android":"levelo://app?vid=5bf996c0-533a-43f0-90e7-e795ff8ed648","ios":"levelo://app?vid=5bf996c0-533a-43f0-90e7-e795ff8ed648"},"vehicle_type_id":"4","last_reported":1761685769,"current_range_meters":20000,"station_id":"ce4bh412rcd13ifvqdr0","pricing_plan_id":"cebpf4jnsgd1na2vs0mg"},{"bike_id":"dead3ee9-28a0-4654-afdf-43074901507c","system_id":"levelo_inurba_marseille","lat":43.30328,"lon":5.40434,"is_reserved":false,"is_disabled":false,"rental_uris":{"android":"levelo://app?vid=dead3ee9-28a0-4654-afdf-43074901507c","ios":"levelo://app?vid=dead3ee9-28a0-4654-afdf-43074901507c"},"vehicle_type_id":"4","last_reported":1761685769,"current_range_meters":20000,"station_id":"ce4bh012rcd13ifvqd10","pricing_plan_id":"cebpf4jnsgd1na2vs0mg"},{"bike_id":"0320dc14-5222-40a3-b833-18c5819cb98a","system_id":"levelo_inurba_marseille","lat":43.28423,"lon":5.37513,"is_reserved":false,"is_disabled":false,"rental_uris":{"android":"levelo://app?vid=0320dc14-5222-40a3-b833-18c5819cb98a","ios":"levelo://app?vid=0320dc14-5222-40a3-b833-18c5819cb98a"},"vehicle_type_id":"4","last_reported":1761685769,"current_range_meters":20000,"station_id":"ce4bh412rcd13ifvqds0","pricing_plan_id":"cebpf4jnsgd1na2vs0mg"},{"bike_id":"5c6bdd19-934c-4daf-9d08-86b6b69edc1f","system_id":"levelo_inurba_marseille","lat":43.29518,"lon":5.3904,"is_reserved":false,"is_disabled":false,"rental_uris":{"android":"levelo://app?vid=5c6bdd19-934c-4daf-9d08-86b6b69edc1f","ios":"levelo://app?vid=5c6bdd19-934c-4daf-9d08-86b6b69edc1f"},"vehicle_type_id":"4","last_reported":1761685769,"current_range_meters":20000,"station_id":"ce4bh3p2rcd13ifvqdp0","pricing_plan_id":"cebpf4jnsgd1na2vs0mg"},{"bike_id":"a1d7357d-c144-402f-9571-d9ef26b7a55a","system_id":"levelo_inurba_marseille","lat":43.29534,"lon":5.37506,"is_reserved":false,"is_disabled":false,"rental_uris":{"android":"levelo://app?vid=a1d7357d-c144-402f-9571-d9ef26b7a55a","ios":"levelo://app?vid=a1d7357d-c144-402f-9571-d9ef26b7a55a"},"vehicle_type_id":"4","last_reported":1761685769,"current_range_meters":20400,"station_id":"ce4bgkp2rcd13ifvqbmg","pricing_plan_id":"cebpf4jnsgd1na2vs0mg"},{"bike_id":"a0257cb7-6e09-4e57-9074-9166ca511388","system_id":"levelo_inurba_marseille","lat":43.22565,"lon":5.41628,"is_reserved":false,"is_disabled":false,"rental_uris":{"android":"levelo://app?vid=a0257cb7-6e09-4e57-9074-9166ca511388","ios":"levelo://app?vid=a0257cb7-6e09-4e57-9074-9166ca511388"},"vehicle_type_id":"4","last_reported":1761685769,"current_range_meters":20400,"station_id":"st_d2o4gvlbi1j2169b742g","pricing_plan_id":"cebpf4jnsgd1na2vs0mg"},{"bike_id":"2e71e28f-9664-4350-bc05-536897292751","system_id":"levelo_inurba_marseille","lat":43.26242,"lon":5.40449,"is_reserved":false,"is_disabled":false,"rental_uris":{"android":"levelo://app?vid=2e71e28f-9664-4350-bc05-536897292751","ios":"levelo://app?vid=2e71e28f-9664-4350-bc05-536897292751"},"vehicle_type_id":"4","last_reported":1761685769,"current_range_meters":20400,"station_id":"ce4bhmh2rcd13ifvqgmg","pricing_plan_id":"cebpf4jnsgd1na2vs0mg"},{"bike_id":"ff47bb6a-259f-4abd-b272-7462ca9a56ef","system_id":"levelo_inurba_marseille","lat":43.28105,"lon":5.37852,"is_reserved":false,"is_disabled":false,"rental_uris":{"android":"levelo://app?vid=ff47bb6a-259f-4abd-b272-7462ca9a56ef","ios":"levelo://app?vid=ff47bb6a-259f-4abd-b272-7462ca9a56ef"},"vehicle_type_id":"4","last_reported":1761685769,"current_range_meters":20400,"station_id":"ce4bha12rcd13ifvqee0","pricing_plan_id":"cebpf4jnsgd1na2vs0mg"},{"bike_id":"e4aeb1ff-a5ee-420b-9dc5-378273e13e18","system_id":"levelo_inurba_marseille","lat":43.286234,"lon":5.385352,"is_reserved":false,"is_disabled":false,"rental_uris":{"android":"levelo://app?vid=e4aeb1ff-a5ee-420b-9dc5-378273e13e18","ios":"levelo://app?vid=e4aeb1ff-a5ee-420b-9dc5-378273e13e18"},"vehicle_type_id":"4","last_reported":1761685769,"current_range_meters":20400,"station_id":"ce4bh492rcd13ifvqdug","pricing_plan_id":"cebpf4jnsgd1na2vs0mg"},{"bike_id":"c6706c6d-037f-4e47-b7ee-20726d97bdcf","system_id":"levelo_inurba_marseille","lat":43.29534,"lon":5.38549,"is_reserved":false,"is_disabled":false,"rental_uris":{"android":"levelo://app?vid=c6706c6d-037f-4e47-b7ee-20726d97bdcf","ios":"levelo://app?vid=c6706c6d-037f-4e47-b7ee-20726d97bdcf"},"vehicle_type_id":"4","last_reported":1761685769,"current_range_meters":20400,"station_id":"ce4bgih2rcd13ifvqba0","pricing_plan_id":"cebpf4jnsgd1na2vs0mg"},{"bike_id":"9d19aa12-f7d8-4182-8cd0-6d800ec08c05","system_id":"levelo_inurba_marseille","lat":43.276166,"lon":5.360981,"is_reserved":false,"is_disabled":true,"rental_uris":{"android":"levelo://app?vid=9d19aa12-f7d8-4182-8cd0-6d800ec08c05","ios":"levelo://app?vid=9d19aa12-f7d8-4182-8cd0-6d800ec08c05"},"vehicle_type_id":"4","last_reported":1761685769,"current_range_meters":20400,"station_id":"ce4bgj92rcd13ifvqbe0","pricing_plan_id":"cebpf4jnsgd1na2vs0mg"},{"bike_id":"36fb124d-78f8-4b2f-bca1-48ed5b0e91f2","system_id":"levelo_inurba_marseille","lat":43.281036,"lon":5.378303,"is_reserved":false,"is_disabled":false,"rental_uris":{"android":"levelo://app?vid=36fb124d-78f8-4b2f-bca1-48ed5b0e91f2","ios":"levelo://app?vid=36fb124d-78f8-4b2f-bca1-48ed5b0e91f2"},"vehicle_type_id":"4","last_reported":1761685769,"current_range_meters":20400,"station_id":"ce4bha12rcd13ifvqee0","pricing_plan_id":"cebpf4jnsgd1na2vs0mg"},{"bike_id":"a37e047c-f292-4319-a928-9ed4148ac5b1","system_id":"levelo_inurba_marseille","lat":43.311594,"lon":5.387152,"is_reserved":false,"is_disabled":false,"rental_uris":{"android":"levelo://app?vid=a37e047c-f292-4319-a928-9ed4148ac5b1","ios":"levelo://app?vid=a37e047c-f292-4319-a928-9ed4148ac5b1"},"vehicle_type_id":"4","last_reported":1761685769,"current_range_meters":20400,"station_id":"ce4bgv12rcd13ifvqcp0","pricing_plan_id":"cebpf4jnsgd1na2vs0mg"},{"bike_id":"37b9a414-ff49-459d-a699-5e4384e67c87","system_id":"levelo_inurba_marseille","lat":43.29596,"lon":5.36736,"is_reserved":false,"is_disabled":false,"rental_uris":{"android":"levelo://app?vid=37b9a414-ff49-459d-a699-5e4384e67c87","ios":"levelo://app?vid=37b9a414-ff49-459d-a699-5e4384e67c87"},"vehicle_type_id":"4","last_reported":1761685769,"current_range_meters":20800,"station_id":"ce4bgph2rcd13ifvqc2g","pricing_plan_id":"cebpf4jnsgd1na2vs0mg"},{"bike_id":"75d57c7d-1a1a-4807-b716-f0c1fc5a0d1a","system_id":"levelo_inurba_marseille","lat":43.30622,"lon":5.37215,"is_reserved":false,"is_disabled":false,"rental_uris":{"android":"levelo://app?vid=75d57c7d-1a1a-4807-b716-f0c1fc5a0d1a","ios":"levelo://app?vid=75d57c7d-1a1a-4807-b716-f0c1fc5a0d1a"},"vehicle_type_id":"4","last_reported":1761685769,"current_range_meters":20800,"station_id":"ce4bgqh2rcd13ifvqc4g","pricing_plan_id":"cebpf4jnsgd1na2vs0mg"},{"bike_id":"d9a21a39-82a4-44e5-91ef-7ee4a7aa79c8","system_id":"levelo_inurba_marseille","lat":43.28109,"lon":5.3783,"is_reserved":false,"is_disabled":false,"rental_uris":{"android":"levelo://app?vid=d9a21a39-82a4-44e5-91ef-7ee4a7aa79c8","ios":"levelo://app?vid=d9a21a39-82a4-44e5-91ef-7ee4a7aa79c8"},"vehicle_type_id":"4","last_reported":1761685769,"current_range_meters":20800,"station_id":"ce4bha12rcd13ifvqee0","pricing_plan_id":"cebpf4jnsgd1na2vs0mg"},{"bike_id":"e4fd9ca6-7b99-43f9-a59b-0cb9e4c40d4b","system_id":"levelo_inurba_marseille","lat":43.29036,"lon":5.3865,"is_reserved":false,"is_disabled":false,"rental_uris":{"android":"levelo://app?vid=e4fd9ca6-7b99-43f9-a59b-0cb9e4c40d4b","ios":"levelo://app?vid=e4fd9ca6-7b99-43f9-a59b-0cb9e4c40d4b"},"vehicle_type_id":"4","last_reported":1761685769,"current_range_meters":20800,"station_id":"ce4bh4p2rcd13ifvqe0g","pricing_plan_id":"cebpf4jnsgd1na2vs0mg"},{"bike_id":"b4efef1a-d825-4853-9c38-51a153d81698","system_id":"levelo_inurba_marseille","lat":43.25095,"lon":5.39508,"is_reserved":false,"is_disabled":false,"rental_uris":{"android":"levelo://app?vid=b4efef1a-d825-4853-9c38-51a153d81698","ios":"levelo://app?vid=b4efef1a-d825-4853-9c38-51a153d81698"},"vehicle_type_id":"4","last_reported":1761685769,"current_range_meters":20800,"station_id":"ce4bhm12rcd13ifvqgkg","pricing_plan_id":"cebpf4jnsgd1na2vs0mg"},{"bike_id":"f0ec41fd-03ca-4d4c-9a71-3c2b6d63f2f6","system_id":"levelo_inurba_marseille","lat":43.28413,"lon":5.37524,"is_reserved":false,"is_disabled":false,"rental_uris":{"android":"levelo://app?vid=f0ec41fd-03ca-4d4c-9a71-3c2b6d63f2f6","ios":"levelo://app?vid=f0ec41fd-03ca-4d4c-9a71-3c2b6d63f2f6"},"vehicle_type_id":"4","last_reported":1761685769,"current_range_meters":20800,"station_id":"ce4bh412rcd13ifvqds0","pricing_plan_id":"cebpf4jnsgd1na2vs0mg"},{"bike_id":"6cb41050-3825-4564-a15e-b71a37e8bb48","system_id":"levelo_inurba_marseille","lat":43.26215,"lon":5.3744,"is_reserved":false,"is_disabled":false,"rental_uris":{"android":"levelo://app?vid=6cb41050-3825-4564-a15e-b71a37e8bb48","ios":"levelo://app?vid=6cb41050-3825-4564-a15e-b71a37e8bb48"},"vehicle_type_id":"4","last_reported":1761685769,"current_range_meters":20800,"station_id":"ce4bhgp2rcd13ifvqfc0","pricing_plan_id":"cebpf4jnsgd1na2vs0mg"},{"bike_id":"58e5d3a5-2659-4cba-9640-35e98cfd4b2c","system_id":"levelo_inurba_marseille","lat":43.2954,"lon":5.37515,"is_reserved":false,"is_disabled":true,"rental_uris":{"android":"levelo://app?vid=58e5d3a5-2659-4cba-9640-35e98cfd4b2c","ios":"levelo://app?vid=58e5d3a5-2659-4cba-9640-35e98cfd4b2c"},"vehicle_type_id":"4","last_reported":1761685769,"current_range_meters":21600,"station_id":"ce4bgkp2rcd13ifvqbmg","pricing_plan_id":"cebpf4jnsgd1na2vs0mg"},{"bike_id":"40f2b625-7d0c-4fb2-9832-dc645b0606ef","system_id":"levelo_inurba_marseille","lat":43.33784,"lon":5.37443,"is_reserved":false,"is_disabled":false,"rental_uris":{"android":"levelo://app?vid=40f2b625-7d0c-4fb2-9832-dc645b0606ef","ios":"levelo://app?vid=40f2b625-7d0c-4fb2-9832-dc645b0606ef"},"vehicle_type_id":"4","last_reported":1761685769,"current_range_meters":21600,"station_id":"","pricing_plan_id":"cebpf4jnsgd1na2vs0mg"},{"bike_id":"765e33c5-b992-4dc4-8c54-0384c53e260f","system_id":"levelo_inurba_marseille","lat":43.24172,"lon":5.36387,"is_reserved":false,"is_disabled":true,"rental_uris":{"android":"levelo://app?vid=765e33c5-b992-4dc4-8c54-0384c53e260f","ios":"levelo://app?vid=765e33c5-b992-4dc4-8c54-0384c53e260f"},"vehicle_type_id":"4","last_reported":1761685769,"current_range_meters":21600,"station_id":"cpo36qri1sfpv3e86is0","pricing_plan_id":"cebpf4jnsgd1na2vs0mg"},{"bike_id":"b853a3c8-ad89-4975-8a5d-b6c171e7d3f7","system_id":"levelo_inurba_marseille","lat":43.29024,"lon":5.37569,"is_reserved":false,"is_disabled":false,"rental_uris":{"android":"levelo://app?vid=b853a3c8-ad89-4975-8a5d-b6c171e7d3f7","ios":"levelo://app?vid=b853a3c8-ad89-4975-8a5d-b6c171e7d3f7"},"vehicle_type_id":"4","last_reported":1761685769,"current_range_meters":21600,"station_id":"ce4bh692rcd13ifvqe90","pricing_plan_id":"cebpf4jnsgd1na2vs0mg"},{"bike_id":"94c0d23a-f06f-40ad-88dc-b44ce398022f","system_id":"levelo_inurba_marseille","lat":43.2803,"lon":5.36953,"is_reserved":false,"is_disabled":false,"rental_uris":{"android":"levelo://app?vid=94c0d23a-f06f-40ad-88dc-b44ce398022f","ios":"levelo://app?vid=94c0d23a-f06f-40ad-88dc-b44ce398022f"},"vehicle_type_id":"4","last_reported":1761685769,"current_range_meters":21600,"station_id":"ce4bha12rcd13ifvqef0","pricing_plan_id":"cebpf4jnsgd1na2vs0mg"},{"bike_id":"f8107aa9-d99c-41cc-888c-08e303af4044","system_id":"levelo_inurba_marseille","lat":43.29249,"lon":5.38427,"is_reserved":false,"is_disabled":false,"rental_uris":{"android":"levelo://app?vid=f8107aa9-d99c-41cc-888c-08e303af4044","ios":"levelo://app?vid=f8107aa9-d99c-41cc-888c-08e303af4044"},"vehicle_type_id":"4","last_reported":1761685769,"current_range_meters":21600,"station_id":"ce4bh692rcd13ifvqea0","pricing_plan_id":"cebpf4jnsgd1na2vs0mg"},{"bike_id":"5d6dab70-76c7-420b-ad97-bb518b3696b2","system_id":"levelo_inurba_marseille","lat":43.30352,"lon":5.36474,"is_reserved":false,"is_disabled":false,"rental_uris":{"android":"levelo://app?vid=5d6dab70-76c7-420b-ad97-bb518b3696b2","ios":"levelo://app?vid=5d6dab70-76c7-420b-ad97-bb518b3696b2"},"vehicle_type_id":"4","last_reported":1761685769,"current_range_meters":21600,"station_id":"","pricing_plan_id":"cebpf4jnsgd1na2vs0mg"},{"bike_id":"02783449-1679-465e-a1c9-fafa329f2d04","system_id":"levelo_inurba_marseille","lat":43.31358,"lon":5.38497,"is_reserved":false,"is_disabled":false,"rental_uris":{"android":"levelo://app?vid=02783449-1679-465e-a1c9-fafa329f2d04","ios":"levelo://app?vid=02783449-1679-465e-a1c9-fafa329f2d04"},"vehicle_type_id":"4","last_reported":1761685769,"current_range_meters":21600,"station_id":"ce4bgt92rcd13ifvqcf0","pricing_plan_id":"cebpf4jnsgd1na2vs0mg"},{"bike_id":"9d245cdd-57af-40c9-8fae-42d63cad83d4","system_id":"levelo_inurba_marseille","lat":43.308813,"lon":5.396455,"is_reserved":false,"is_disabled":false,"rental_uris":{"android":"levelo://app?vid=9d245cdd-57af-40c9-8fae-42d63cad83d4","ios":"levelo://app?vid=9d245cdd-57af-40c9-8fae-42d63cad83d4"},"vehicle_type_id":"4","last_reported":1761685769,"current_range_meters":22000,"station_id":"ce4bh012rcd13ifvqcv0","pricing_plan_id":"cebpf4jnsgd1na2vs0mg"},{"bike_id":"28717fee-76dd-49af-beb0-0cc715783d15","system_id":"levelo_inurba_marseille","lat":43.29525,"lon":5.3854,"is_reserved":false,"is_disabled":false,"rental_uris":{"android":"levelo://app?vid=28717fee-76dd-49af-beb0-0cc715783d15","ios":"levelo://app?vid=28717fee-76dd-49af-beb0-0cc715783d15"},"vehicle_type_id":"4","last_reported":1761685769,"current_range_meters":22000,"station_id":"ce4bgih2rcd13ifvqba0","pricing_plan_id":"cebpf4jnsgd1na2vs0mg"},{"bike_id":"c3df1c35-97c8-444d-a22e-3cba355a6dac","system_id":"levelo_inurba_marseille","lat":43.292637,"lon":5.384422,"is_reserved":false,"is_disabled":false,"rental_uris":{"android":"levelo://app?vid=c3df1c35-97c8-444d-a22e-3cba355a6dac","ios":"levelo://app?vid=c3df1c35-97c8-444d-a22e-3cba355a6dac"},"vehicle_type_id":"4","last_reported":1761685769,"current_range_meters":22000,"station_id":"ce4bh692rcd13ifvqea0","pricing_plan_id":"cebpf4jnsgd1na2vs0mg"},{"bike_id":"e0e6f003-4dfe-4f1f-ba05-4e3901cd0206","system_id":"levelo_inurba_marseille","lat":43.30307,"lon":5.39212,"is_reserved":false,"is_disabled":false,"rental_uris":{"android":"levelo://app?vid=e0e6f003-4dfe-4f1f-ba05-4e3901cd0206","ios":"levelo://app?vid=e0e6f003-4dfe-4f1f-ba05-4e3901cd0206"},"vehicle_type_id":"4","last_reported":1761685769,"current_range_meters":22000,"station_id":"ce4bgkh2rcd13ifvqbk0","pricing_plan_id":"cebpf4jnsgd1na2vs0mg"},{"bike_id":"3ccbad45-41c7-4b92-bea1-b635a899572f","system_id":"levelo_inurba_marseille","lat":43.31486,"lon":5.37306,"is_reserved":false,"is_disabled":false,"rental_uris":{"android":"levelo://app?vid=3ccbad45-41c7-4b92-bea1-b635a899572f","ios":"levelo://app?vid=3ccbad45-41c7-4b92-bea1-b635a899572f"},"vehicle_type_id":"4","last_reported":1761685769,"current_range_meters":22000,"station_id":"ce4bgt12rcd13ifvqcd0","pricing_plan_id":"cebpf4jnsgd1na2vs0mg"},{"bike_id":"456266f3-48d8-4fb8-ac5d-d08598ad41f1","system_id":"levelo_inurba_marseille","lat":43.25588,"lon":5.38235,"is_reserved":false,"is_disabled":false,"rental_uris":{"android":"levelo://app?vid=456266f3-48d8-4fb8-ac5d-d08598ad41f1","ios":"levelo://app?vid=456266f3-48d8-4fb8-ac5d-d08598ad41f1"},"vehicle_type_id":"4","last_reported":1761685769,"current_range_meters":22000,"station_id":"ce4bhih2rcd13ifvqfs0","pricing_plan_id":"cebpf4jnsgd1na2vs0mg"},{"bike_id":"e3b68576-35dd-440e-88c3-770c96cebe46","system_id":"levelo_inurba_marseille","lat":43.29847,"lon":5.36259,"is_reserved":false,"is_disabled":false,"rental_uris":{"android":"levelo://app?vid=e3b68576-35dd-440e-88c3-770c96cebe46","ios":"levelo://app?vid=e3b68576-35dd-440e-88c3-770c96cebe46"},"vehicle_type_id":"4","last_reported":1761685769,"current_range_meters":22400,"station_id":"ce4bgpp2rcd13ifvqc3g","pricing_plan_id":"cebpf4jnsgd1na2vs0mg"},