{"last_updated":1710781648,"ttl":30,"version":"2.2","data":{"bikes":[{"bike_id":"c9097be9-24d5-415b-87cd-9c9ceef1aa97","system_id":"levelo_inurba_marseille","lat":43.313391,"lon":5.36706,"is_reserved":false,"is_disabled":false,"rental_uris":{"android":"levelo://app?vid=c9097be9-24d5-415b-87cd-9c9ceef1aa97","ios":"levelo://app?vid=c9097be9-24d5-415b-87cd-9c9ceef1aa97"},"vehicle_type_id":"4","last_reported":1710781648,"current_range_meters":0,"station_id":"ce4bgr92rcd13ifvqc6g","pricing_plan_id":"cebpf4jnsgd1na2vs0mg"},{"bike_id":"b5259229-7d5a-4d10-81f3-9fb4725bb74b","system_id":"levelo_inurba_marseille","lat":43.312239,"lon":5.368562,"is_reserved":false,"is_disabled":false,"rental_uris":{"android":"levelo://app?vid=b5259229-7d5a-4d10-81f3-9fb4725bb74b","ios":"levelo://app?vid=b5259229-7d5a-4d10-81f3-9fb4725bb74b"},"vehicle_type_id":"4","last_reported":1710781648,"current_range_meters":0,"station_id":"ce4bgl92rcd13ifvqbq0","pricing_plan_id":"cebpf4jnsgd1na2vs0mg"},{"bike_id":"17b3e928-3b2f-40f2-8693-c57b3eece312","system_id":"levelo_inurba_marseille","lat":43.312239,"lon":5.368562,"is_reserved":false,"is_disabled":false,"rental_uris":{"android":"levelo://app?vid=17b3e928-3b2f-40f2-8693-c57b3eece312","ios":"levelo://app?vid=17b3e928-3b2f-40f2-8693-c57b3eece312"},"vehicle_type_id":"4","last_reported":1710781648,"current_range_meters":8400,"station_id":"ce4bgl92rcd13ifvqbq0","pricing_plan_id":"cebpf4jnsgd1na2vs0mg"},{"bike_id":"3aa13f88-5614-4237-90a3-06b3b7ee04d5","system_id":"levelo_inurba_marseille","lat":43.314811,"lon":5.373103,"is_reserved":false,"is_disabled":false,"rental_uris":{"android":"levelo://app?vid=3aa13f88-5614-4237-90a3-06b3b7ee04d5","ios":"levelo://app?vid=3aa13f88-5614-4237-90a3-06b3b7ee04d5"},"vehicle_type_id":"4","last_reported":1710781648,"current_range_meters":4800,"station_id":"ce4bgt12rcd13ifvqcd0","pricing_plan_id":"cebpf4jnsgd1na2vs0mg"},{"bike_id":"df054508-af1c-4ce3-a4a0-acfd2eaa8a2f","system_id":"levelo_inurba_marseille","lat":43.31486,"lon":5.3731,"is_reserved":false,"is_disabled":false,"rental_uris":{"android":"levelo://app?vid=df054508-af1c-4ce3-a4a0-acfd2eaa8a2f","ios":"levelo://app?vid=df054508-af1c-4ce3-a4a0-acfd2eaa8a2f"},"vehicle_type_id":"4","last_reported":1710781648,"current_range_meters":20000,"station_id":"ce4bgt12rcd13ifvqcd0","pricing_plan_id":"cebpf4jnsgd1na2vs0mg"},{"bike_id":"cf9d2c26-a648-4c1c-819a-9942379e9f6c","system_id":"levelo_inurba_marseille","lat":43.31497,"lon":5.37305,"is_reserved":false,"is_disabled":false,"rental_uris":{"android":"levelo://app?vid=cf9d2c26-a648-4c1c-819a-9942379e9f6c","ios":"levelo://app?vid=cf9d2c26-a648-4c1c-819a-9942379e9f6c"},"vehicle_type_id":"4","last_reported":1710781648,"current_range_meters":29600,"station_id":"ce4bgt12rcd13ifvqcd0","pricing_plan_id":"cebpf4jnsgd1na2vs0mg"},{"bike_id":"b2a674a6-27a6-49c5-95e4-85ba636ad8d5","system_id":"levelo_inurba_marseille","lat":43.314811,"lon":5.373104,"is_reserved":false,"is_disabled":false,"rental_uris":{"android":"levelo://app?vid=b2a674a6-27a6-49c5-95e4-85ba636ad8d5","ios":"levelo://app?vid=b2a674a6-27a6-49c5-95e4-85ba636ad8d5"},"vehicle_type_id":"4","last_reported":1710781648,"current_range_meters":19200,"station_id":"ce4bgt12rcd13ifvqcd0","pricing_plan_id":"cebpf4jnsgd1na2vs0mg"},{"bike_id":"65493843-cb89-491e-a836-adebf1a7f953","system_id":"levelo_inurba_marseille","lat":43.31501,"lon":5.3731,"is_reserved":false,"is_disabled":false,"rental_uris":{"android":"levelo://app?vid=65493843-cb89-491e-a836-adebf1a7f953","ios":"levelo://app?vid=65493843-cb89-491e-a836-adebf1a7f953"},"vehicle_type_id":"4","last_reported":1710781648,"current_range_meters":17200,"station_id":"ce4bgt12rcd13ifvqcd0","pricing_plan_id":"cebpf4jnsgd1na2vs0mg"},{"bike_id":"9740ab34-8e70-45b0-8721-f56cefe3b857","system_id":"levelo_inurba_marseille","lat":43.31501,"lon":5.37312,"is_reserved":false,"is_disabled":false,"rental_uris":{"android":"levelo://app?vid=9740ab34-8e70-45b0-8721-f56cefe3b857","ios":"levelo://app?vid=9740ab34-8e70-45b0-8721-f56cefe3b857"},"vehicle_type_id":"4","last_reported":1710781648,"current_range_meters":0,"station_id":"ce4bgt12rcd13ifvqcd0","pricing_plan_id":"cebpf4jnsgd1na2vs0mg"},{"bike_id":"e2e8c8f6-6763-4a87-8143-755b498e8bac","system_id":"levelo_inurba_marseille","lat":43.309039,"lon":5.371797,"is_reserved":false,"is_disabled":false,"rental_uris":{"android":"levelo://app?vid=e2e8c8f6-6763-4a87-8143-755b498e8bac","ios":"levelo://app?vid=e2e8c8f6-6763-4a87-8143-755b498e8bac"},"vehicle_type_id":"4","last_reported":1710781648,"current_range_meters":3600,"station_id":"ce4bguh2rcd13ifvqckg","pricing_plan_id":"cebpf4jnsgd1na2vs0mg"},{"bike_id":"6d794a59-2d07-463f-89ba-23452562a0be","system_id":"levelo_inurba_marseille","lat":43.308963,"lon":5.371977,"is_reserved":false,"is_disabled":false,"rental_uris":{"android":"levelo://app?vid=6d794a59-2d07-463f-89ba-23452562a0be","ios":"levelo://app?vid=6d794a59-2d07-463f-89ba-23452562a0be"},"vehicle_type_id":"4","last_reported":1710781648,"current_range_meters":1200,"station_id":"ce4bguh2rcd13ifvqckg","pricing_plan_id":"cebpf4jnsgd1na2vs0mg"},{"bike_id":"4c172bde-a9b5-428a-a1b1-4c36b4cce3f3","system_id":"levelo_inurba_marseille","lat":43.30891,"lon":5.37191,"is_reserved":false,"is_disabled":false,"rental_uris":{"android":"levelo://app?vid=4c172bde-a9b5-428a-a1b1-4c36b4cce3f3","ios":"levelo://app?vid=4c172bde-a9b5-428a-a1b1-4c36b4cce3f3"},"vehicle_type_id":"4","last_reported":1710781648,"current_range_meters":6000,"station_id":"ce4bguh2rcd13ifvqckg","pricing_plan_id":"cebpf4jnsgd1na2vs0mg"},{"bike_id":"2390d82f-2794-414d-979f-9e712bb2659f","system_id":"levelo_inurba_marseille","lat":43.309039,"lon":5.371797,"is_reserved":false,"is_disabled":false,"rental_uris":{"android":"levelo://app?vid=2390d82f-2794-414d-979f-9e712bb2659f","ios":"levelo://app?vid=2390d82f-2794-414d-979f-9e712bb2659f"},"vehicle_type_id":"4","last_reported":1710781648,"current_range_meters":21600,"station_id":"ce4bguh2rcd13ifvqckg","pricing_plan_id":"cebpf4jnsgd1na2vs0mg"},{"bike_id":"ed58d798-0033-487a-a4e9-0cb96309180c","system_id":"levelo_inurba_marseille","lat":43.309034,"lon":5.371783,"is_reserved":false,"is_disabled":false,"rental_uris":{"android":"levelo://app?vid=ed58d798-0033-487a-a4e9-0cb96309180c","ios":"levelo://app?vid=ed58d798-0033-487a-a4e9-0cb96309180c"},"vehicle_type_id":"4","last_reported":1710781648,"current_range_meters":14400,"station_id":"ce4bguh2rcd13ifvqckg","pricing_plan_id":"cebpf4jnsgd1na2vs0mg"},{"bike_id":"ac335bbd-7bb7-4a31-ad64-5c4985d56416","system_id":"levelo_inurba_marseille","lat":43.30539,"lon":5.36712,"is_reserved":false,"is_disabled":false,"rental_uris":{"android":"levelo://app?vid=ac335bbd-7bb7-4a31-ad64-5c4985d56416","ios":"levelo://app?vid=ac335bbd-7bb7-4a31-ad64-5c4985d56416"},"vehicle_type_id":"4","last_reported":1710781648,"current_range_meters":0,"station_id":"ce4bgrp2rcd13ifvqc9g","pricing_plan_id":"cebpf4jnsgd1na2vs0mg"},{"bike_id":"2c4112ec-5f16-4335-9c0c-38584c779d7b","system_id":"levelo_inurba_marseille","lat":43.30545,"lon":5.36536,"is_reserved":false,"is_disabled":false,"rental_uris":{"android":"levelo://app?vid=2c4112ec-5f16-4335-9c0c-38584c779d7b","ios":"levelo://app?vid=2c4112ec-5f16-4335-9c0c-38584c779d7b"},"vehicle_type_id":"4","last_reported":1710781648,"current_range_meters":0,"station_id":"ce4bgs12rcd13ifvqcag","pricing_plan_id":"cebpf4jnsgd1na2vs0mg"},{"bike_id":"6217e32c-822c-4bc5-9b18-be13ca4a9a5a","system_id":"levelo_inurba_marseille","lat":43.305989,"lon":5.37225,"is_reserved":false,"is_disabled":false,"rental_uris":{"android":"levelo://app?vid=6217e32c-822c-4bc5-9b18-be13ca4a9a5a","ios":"levelo://app?vid=6217e32c-822c-4bc5-9b18-be13ca4a9a5a"},"vehicle_type_id":"4","last_reported":1710781648,"current_range_meters":15600,"station_id":"ce4bgqh2rcd13ifvqc4g","pricing_plan_id":"cebpf4jnsgd1na2vs0mg"},{"bike_id":"ec3d1a00-8853-4453-a884-b645a20a6c50","system_id":"levelo_inurba_marseille","lat":43.305989,"lon":5.37225,"is_reserved":false,"is_disabled":false,"rental_uris":{"android":"levelo://app?vid=ec3d1a00-8853-4453-a884-b645a20a6c50","ios":"levelo://app?vid=ec3d1a00-8853-4453-a884-b645a20a6c50"},"vehicle_type_id":"4","last_reported":1710781648,"current_range_meters":1600,"station_id":"ce4bgqh2rcd13ifvqc4g","pricing_plan_id":"cebpf4jnsgd1na2vs0mg"},{"bike_id":"3a168d4f-4f1b-4c98-92a7-538a67ff8e9c","system_id":"levelo_inurba_marseille","lat":43.31009,"lon":5.37722,"is_reserved":false,"is_disabled":false,"rental_uris":{"android":"levelo://app?vid=3a168d4f-4f1b-4c98-92a7-538a67ff8e9c","ios":"levelo://app?vid=3a168d4f-4f1b-4c98-92a7-538a67ff8e9c"},"vehicle_type_id":"4","last_reported":1710781648,"current_range_meters":25600,"station_id":"","pricing_plan_id":"cebpf4jnsgd1na2vs0mg"},{"bike_id":"a6fa6a5c-ecc8-4aa3-af74-41cef5e31c9c","system_id":"levelo_inurba_marseille","lat":43.311131,"lon":5.377651,"is_reserved":false,"is_disabled":false,"rental_uris":{"android":"levelo://app?vid=a6fa6a5c-ecc8-4aa3-af74-41cef5e31c9c","ios":"levelo://app?vid=a6fa6a5c-ecc8-4aa3-af74-41cef5e31c9c"},"vehicle_type_id":"4","last_reported":1710781648,"current_range_meters":0,"station_id":"ce4bgt92rcd13ifvqcg0","pricing_plan_id":"cebpf4jnsgd1na2vs0mg"},{"bike_id":"d11de621-ac04-40de-8e2f-0b2ae3e00216","system_id":"levelo_inurba_marseille","lat":43.31115,"lon":5.37771,"is_reserved":false,"is_disabled":false,"rental_uris":{"android":"levelo://app?vid=d11de621-ac04-40de-8e2f-0b2ae3e00216","ios":"levelo://app?vid=d11de621-ac04-40de-8e2f-0b2ae3e00216"},"vehicle_type_id":"4","last_reported":1710781648,"current_range_meters":0,"station_id":"ce4bgv92rcd13ifvqcq0","pricing_plan_id":"cebpf4jnsgd1na2vs0mg"},{"bike_id":"107a39be-b8ad-4d71-8e7f-7d4c32e479c0","system_id":"levelo_inurba_marseille","lat":43.307945,"lon":5.376487,"is_reserved":false,"is_disabled":false,"rental_uris":{"android":"levelo://app?vid=107a39be-b8ad-4d71-8e7f-7d4c32e479c0","ios":"levelo://app?vid=107a39be-b8ad-4d71-8e7f-7d4c32e479c0"},"vehicle_type_id":"4","last_reported":1710781648,"current_range_meters":24400,"station_id":"ce4bgv92rcd13ifvqcq0","pricing_plan_id":"cebpf4jnsgd1na2vs0mg"},{"bike_id":"9dc60d17-36f1-4901-a7cd-737d54b42338","system_id":"levelo_inurba_marseille","lat":43.317075,"lon":5.377367,"is_reserved":false,"is_disabled":false,"rental_uris":{"android":"levelo://app?vid=9dc60d17-36f1-4901-a7cd-737d54b42338","ios":"levelo://app?vid=9dc60d17-36f1-4901-a7cd-737d54b42338"},"vehicle_type_id":"4","last_reported":1710781648,"current_range_meters":12400,"station_id":"ce4bgth2rcd13ifvqch0","pricing_plan_id":"cebpf4jnsgd1na2vs0mg"},{"bike_id":"6168b2f5-87bb-4a70-b739-a567cc161634","system_id":"levelo_inurba_marseille","lat":43.317075,"lon":5.377367,"is_reserved":false,"is_disabled":false,"rental_uris":{"android":"levelo://app?vid=6168b2f5-87bb-4a70-b739-a567cc161634","ios":"levelo://app?vid=6168b2f5-87bb-4a70-b739-a567cc161634"},"vehicle_type_id":"4","last_reported":1710781648,"current_range_meters":4400,"station_id":"ce4bgth2rcd13ifvqch0","pricing_plan_id":"cebpf4jnsgd1na2vs0mg"},{"bike_id":"5fdbfcfd-1289-41b3-9cab-3f0a6b505049","system_id":"levelo_inurba_marseille","lat":43.317075,"lon":5.377367,"is_reserved":false,"is_disabled":false,"rental_uris":{"android":"levelo://app?vid=5fdbfcfd-1289-41b3-9cab-3f0a6b505049","ios":"levelo://app?vid=5fdbfcfd-1289-41b3-9cab-3f0a6b505049"},"vehicle_type_id":"4","last_reported":1710781648,"current_range_meters":18800,"station_id":"ce4bgth2rcd13ifvqch0","pricing_plan_id":"cebpf4jnsgd1na2vs0mg"},{"bike_id":"5799cdeb-953e-444e-bdb3-4b0c0ae430d8","system_id":"levelo_inurba_marseille","lat":43.317075,"lon":5.377367,"is_reserved":false,"is_disabled":false,"rental_uris":{"android":"levelo://app?vid=5799cdeb-953e-444e-bdb3-4b0c0ae430d8","ios":"levelo://app?vid=5799cdeb-953e-444e-bdb3-4b0c0ae430d8"},"vehicle_type_id":"4","last_reported":1710781648,"current_range_meters":22400,"station_id":"ce4bgth2rcd13ifvqch0","pricing_plan_id":"cebpf4jnsgd1na2vs0mg"},{"bike_id":"f735999e-2531-4151-b274-1586b4c45e23","system_id":"levelo_inurba_marseille","lat":43.317075,"lon":5.377367,"is_reserved":false,"is_disabled":false,"rental_uris":{"android":"levelo://app?vid=f735999e-2531-4151-b274-1586b4c45e23","ios":"levelo://app?vid=f735999e-2531-4151-b274-1586b4c45e23"},"vehicle_type_id":"4","last_reported":1710781648,"current_range_meters":27200,"station_id":"ce4bgth2rcd13ifvqch0","pricing_plan_id":"cebpf4jnsgd1na2vs0mg"},{"bike_id":"01c208ec-08fc-47fb-90c6-1a11b3a5cb96","system_id":"levelo_inurba_marseille","lat":43.303046,"lon":5.368981,"is_reserved":false,"is_disabled":false,"rental_uris":{"android":"levelo://app?vid=01c208ec-08fc-47fb-90c6-1a11b3a5cb96","ios":"levelo://app?vid=01c208ec-08fc-47fb-90c6-1a11b3a5cb96"},"vehicle_type_id":"4","last_reported":1710781648,"current_range_meters":800,"station_id":"ce4bgqh2rcd13ifvqc5g","pricing_plan_id":"cebpf4jnsgd1na2vs0mg"},{"bike_id":"0d7d4fa8-f94e-46f3-b558-aecd7354fa66","system_id":"levelo_inurba_marseille","lat":43.30304,"lon":5.368987,"is_reserved":false,"is_disabled":false,"rental_uris":{"android":"levelo://app?vid=0d7d4fa8-f94e-46f3-b558-aecd7354fa66","ios":"levelo://app?vid=0d7d4fa8-f94e-46f3-b558-aecd7354fa66"},"vehicle_type_id":"4","last_reported":1710781648,"current_range_meters":22400,"station_id":"ce4bgqh2rcd13ifvqc5g","pricing_plan_id":"cebpf4jnsgd1na2vs0mg"},{"bike_id":"37f3c847-d9d4-4bc3-8d1c-df7843710aa4","system_id":"levelo_inurba_marseille","lat":43.303046,"lon":5.368981,"is_reserved":false,"is_disabled":false,"rental_uris":{"android":"levelo://app?vid=37f3c847-d9d4-4bc3-8d1c-df7843710aa4","ios":"levelo://app?vid=37f3c847-d9d4-4bc3-8d1c-df7843710aa4"},"vehicle_type_id":"4","last_reported":1710781648,"current_range_meters":2400,"station_id":"ce4bgqh2rcd13ifvqc5g","pricing_plan_id":"cebpf4jnsgd1na2vs0mg"},{"bike_id":"6a7f6e24-c6fc-4ea8-903b-5d89dd586bdb","system_id":"levelo_inurba_marseille","lat":43.30304,"lon":5.368987,"is_reserved":false,"is_disabled":false,"rental_uris":{"android":"levelo://app?vid=6a7f6e24-c6fc-4ea8-903b-5d89dd586bdb","ios":"levelo://app?vid=6a7f6e24-c6fc-4ea8-903b-5d89dd586bdb"},"vehicle_type_id":"4","last_reported":1710781648,"current_range_meters":0,"station_id":"ce4bgqh2rcd13ifvqc5g","pricing_plan_id":"cebpf4jnsgd1na2vs0mg"},{"bike_id":"2986687a-ef58-422c-9363-9627558e439d","system_id":"levelo_inurba_marseille","lat":43.30289,"lon":5.3687,"is_reserved":false,"is_disabled":false,"rental_uris":{"android":"levelo://app?vid=2986687a-ef58-422c-9363-9627558e439d","ios":"levelo://app?vid=2986687a-ef58-422c-9363-9627558e439d"},"vehicle_type_id":"4","last_reported":1710781648,"current_range_meters":400,"station_id":"ce4bgqh2rcd13ifvqc5g","pricing_plan_id":"cebpf4jnsgd1na2vs0mg"},{"bike_id":"2b9b9f78-8be3-4ae0-b5c0-9b031aa140fd","system_id":"levelo_inurba_marseille","lat":43.315289,"lon":5.380349,"is_reserved":false,"is_disabled":false,"rental_uris":{"android":"levelo://app?vid=2b9b9f78-8be3-4ae0-b5c0-9b031aa140fd","ios":"levelo://app?vid=2b9b9f78-8be3-4ae0-b5c0-9b031aa140fd"},"vehicle_type_id":"4","last_reported":1710781648,"current_range_meters":26000,"station_id":"ce4bhsp2rcd13ifvqi50","pricing_plan_id":"cebpf4jnsgd1na2vs0mg"},{"bike_id":"77fec037-beb2-4d31-99db-7d5bce890547","system_id":"levelo_inurba_marseille","lat":43.301939,"lon":5.366286,"is_reserved":false,"is_disabled":false,"rental_uris":{"android":"levelo://app?vid=77fec037-beb2-4d31-99db-7d5bce890547","ios":"levelo://app?vid=77fec037-beb2-4d31-99db-7d5bce890547"},"vehicle_type_id":"4","last_reported":1710781648,"current_range_meters":9200,"station_id":"ce4bgrh2rcd13ifvqc8g","pricing_plan_id":"cebpf4jnsgd1na2vs0mg"},{"bike_id":"25269351-4448-4370-9e01-9c7ee7b57213","system_id":"levelo_inurba_marseille","lat":43.301939,"lon":5.366286,"is_reserved":false,"is_disabled":false,"rental_uris":{"android":"levelo://app?vid=25269351-4448-4370-9e01-9c7ee7b57213","ios":"levelo://app?vid=25269351-4448-4370-9e01-9c7ee7b57213"},"vehicle_type_id":"4","last_reported":1710781648,"current_range_meters":0,"station_id":"ce4bgrh2rcd13ifvqc8g","pricing_plan_id":"cebpf4jnsgd1na2vs0mg"},{"bike_id":"0d32645e-1774-4620-be82-a45f8b3826a7","system_id":"levelo_inurba_marseille","lat":43.301939,"lon":5.366286,"is_reserved":false,"is_disabled":false,"rental_uris":{"android":"levelo://app?vid=0d32645e-1774-4620-be82-a45f8b3826a7","ios":"levelo://app?vid=0d32645e-1774-4620-be82-a45f8b3826a7"},"vehicle_type_id":"4","last_reported":1710781648,"current_range_meters":9200,"station_id":"ce4bgrh2rcd13ifvqc8g","pricing_plan_id":"cebpf4jnsgd1na2vs0mg"},{"bike_id":"36a4b2a2-4972-490d-aff5-b33f648891ea","system_id":"levelo_inurba_marseille","lat":43.301939,"lon":5.366286,"is_reserved":false,"is_disabled":false,"rental_uris":{"android":"levelo://app?vid=36a4b2a2-4972-490d-aff5-b33f648891ea","ios":"levelo://app?vid=36a4b2a2-4972-490d-aff5-b33f648891ea"},"vehicle_type_id":"4","last_reported":1710781648,"current_range_meters":0,"station_id":"ce4bgrh2rcd13ifvqc8g","pricing_plan_id":"cebpf4jnsgd1na2vs0mg"},{"bike_id":"0f229822-77b6-45d0-b7a9-145a0ffc10f7","system_id":"levelo_inurba_marseille","lat":43.301939,"lon":5.366286,"is_reserved":false,"is_disabled":false,"rental_uris":{"android":"levelo://app?vid=0f229822-77b6-45d0-b7a9-145a0ffc10f7","ios":"levelo://app?vid=0f229822-77b6-45d0-b7a9-145a0ffc10f7"},"vehicle_type_id":"4","last_reported":1710781648,"current_range_meters":7200,"station_id":"ce4bgrh2rcd13ifvqc8g","pricing_plan_id":"cebpf4jnsgd1na2vs0mg"},{"bike_id":"8dac248c-317a-483b-951e-f22ae612da2e","system_id":"levelo_inurba_marseille","lat":43.308012,"lon":5.381511,"is_reserved":false,"is_disabled":false,"rental_uris":{"android":"levelo://app?vid=8dac248c-317a-483b-951e-f22ae612da2e","ios":"levelo://app?vid=8dac248c-317a-483b-951e-f22ae612da2e"},"vehicle_type_id":"4","last_reported":1710781648,"current_range_meters":0,"station_id":"ce4bgt12rcd13ifvqce0","pricing_plan_id":"cebpf4jnsgd1na2vs0mg"},{"bike_id":"de502677-cf7a-49c1-af68-b94e952279b5","system_id":"levelo_inurba_marseille","lat":43.308012,"lon":5.381511,"is_reserved":false,"is_disabled":false,"rental_uris":{"android":"levelo://app?vid=de502677-cf7a-49c1-af68-b94e952279b5","ios":"levelo://app?vid=de502677-cf7a-49c1-af68-b94e952279b5"},"vehicle_type_id":"4","last_reported":1710781648,"current_range_meters":10000,"station_id":"ce4bgt12rcd13ifvqce0","pricing_plan_id":"cebpf4jnsgd1na2vs0mg"},{"bike_id":"79a9f218-61ec-4a13-ae01-39c83265df8b","system_id":"levelo_inurba_marseille","lat":43.324771,"lon":5.36557,"is_reserved":false,"is_disabled":false,"rental_uris":{"android":"levelo://app?vid=79a9f218-61ec-4a13-ae01-39c83265df8b","ios":"levelo://app?vid=79a9f218-61ec-4a13-ae01-39c83265df8b"},"vehicle_type_id":"4","last_reported":1710781648,"current_range_meters":17200,"station_id":"ce4bhs12rcd13ifvqhvg","pricing_plan_id":"cebpf4jnsgd1na2vs0mg"},{"bike_id":"091abd61-7dbd-4e37-bd30-5d2890459946","system_id":"levelo_inurba_marseille","lat":43.324771,"lon":5.36557,"is_reserved":false,"is_disabled":false,"rental_uris":{"android":"levelo://app?vid=091abd61-7dbd-4e37-bd30-5d2890459946","ios":"levelo://app?vid=091abd61-7dbd-4e37-bd30-5d2890459946"},"vehicle_type_id":"4","last_reported":1710781648,"current_range_meters":21200,"station_id":"ce4bhs12rcd13ifvqhvg","pricing_plan_id":"cebpf4jnsgd1na2vs0mg"},{"bike_id":"f34a10b5-3b51-4b98-af60-c0752dacefa7","system_id":"levelo_inurba_marseille","lat":43.324815,"lon":5.365765,"is_reserved":false,"is_disabled":false,"rental_uris":{"android":"levelo://app?vid=f34a10b5-3b51-4b98-af60-c0752dacefa7","ios":"levelo://app?vid=f34a10b5-3b51-4b98-af60-c0752dacefa7"},"vehicle_type_id":"4","last_reported":1710781648,"current_range_meters":1600,"station_id":"ce4bhs12rcd13ifvqhvg","pricing_plan_id":"cebpf4jnsgd1na2vs0mg"},{"bike_id":"c69ae619-ff3a-4b02-a9d9-4fe1177389bd","system_id":"levelo_inurba_marseille","lat":43.32481,"lon":5.365617,"is_reserved":false,"is_disabled":false,"rental_uris":{"android":"levelo://app?vid=c69ae619-ff3a-4b02-a9d9-4fe1177389bd","ios":"levelo://app?vid=c69ae619-ff3a-4b02-a9d9-4fe1177389bd"},"vehicle_type_id":"4","last_reported":1710781648,"current_range_meters":22000,"station_id":"","pricing_plan_id":"cebpf4jnsgd1na2vs0mg"},{"bike_id":"c59bee61-0974-4e45-8386-bda8425ea8fd","system_id":"levelo_inurba_marseille","lat":43.324771,"lon":5.36557,"is_reserved":false,"is_disabled":false,"rental_uris":{"android":"levelo://app?vid=c59bee61-0974-4e45-8386-bda8425ea8fd","ios":"levelo://app?vid=c59bee61-0974-4e45-8386-bda8425ea8fd"},"vehicle_type_id":"4","last_reported":1710781648,"current_range_meters":30000,"station_id":"ce4bhs12rcd13ifvqhvg","pricing_plan_id":"cebpf4jnsgd1na2vs0mg"},{"bike_id":"7913a792-aed6-45ad-9bdb-e29ac94bb379","system_id":"levelo_inurba_marseille","lat":43.324771,"lon":5.36557,"is_reserved":false,"is_disabled":false,"rental_uris":{"android":"levelo://app?vid=7913a792-aed6-45ad-9bdb-e29ac94bb379","ios":"levelo://app?vid=7913a792-aed6-45ad-9bdb-e29ac94bb379"},"vehicle_type_id":"4","last_reported":1710781648,"current_range_meters":0,"station_id":"ce4bhs12rcd13ifvqhvg","pricing_plan_id":"cebpf4jnsgd1na2vs0mg"},{"bike_id":"1de455b2-ed40-4a82-b165-515b3455cef2","system_id":"levelo_inurba_marseille","lat":43.310734,"lon":5.38348,"is_reserved":false,"is_disabled":false,"rental_uris":{"android":"levelo://app?vid=1de455b2-ed40-4a82-b165-515b3455cef2","ios":"levelo://app?vid=1de455b2-ed40-4a82-b165-515b3455cef2"},"vehicle_type_id":"4","last_reported":1710781648,"current_range_meters":6800,"station_id":"ce4bgv92rcd13ifvqcr0","pricing_plan_id":"cebpf4jnsgd1na2vs0mg"},{"bike_id":"31db091e-1185-44f4-a034-a03919919212","system_id":"levelo_inurba_marseille","lat":43.301429,"lon":5.37413,"is_reserved":false,"is_disabled":false,"rental_uris":{"android":"levelo://app?vid=31db091e-1185-44f4-a034-a03919919212","ios":"levelo://app?vid=31db091e-1185-44f4-a034-a03919919212"},"vehicle_type_id":"4","last_reported":1710781648,"current_range_meters":31200,"station_id":"ce4bgs92rcd13ifvqcc0","pricing_plan_id":"cebpf4jnsgd1na2vs0mg"},{"bike_id":"4bc451a1-3314-4300-994e-f9fd16ea23b7","system_id":"levelo_inurba_marseille","lat":43.31983,"lon":5.38143,"is_reserved":false,"is_disabled":false,"rental_uris":{"android":"levelo://app?vid=4bc451a1-3314-4300-994e-f9fd16ea23b7","ios":"levelo://app?vid=4bc451a1-3314-4300-994e-f9fd16ea23b7"},"vehicle_type_id":"4","last_reported":1710781648,"current_range_meters":15600,"station_id":"ce4bhr12rcd13ifvqhpg","pricing_plan_id":"cebpf4jnsgd1na2vs0mg"},{"bike_id":"99b6d252-0b8b-4d81-bda6-bfc67dc33b41","system_id":"levelo_inurba_marseille","lat":43.31997,"lon":5.38156,"is_reserved":false,"is_disabled":false,"rental_uris":{"android":"levelo://app?vid=99b6d252-0b8b-4d81-bda6-bfc67dc33b41","ios":"levelo://app?vid=99b6d252-0b8b-4d81-bda6-bfc67dc33b41"},"vehicle_type_id":"4","last_reported":1710781648,"current_range_meters":15200,"station_id":"ce4bhr12rcd13ifvqhpg","pricing_plan_id":"cebpf4jnsgd1na2vs0mg"},{"bike_id":"be83824f-cd7e-44ed-bda3-89905b40ab1f","system_id":"levelo_inurba_marseille","lat":43.319947,"lon":5.381585,"is_reserved":false,"is_disabled":false,"rental_uris":{"android":"levelo://app?vid=be83824f-cd7e-44ed-bda3-89905b40ab1f","ios":"levelo://app?vid=be83824f-cd7e-44ed-bda3-89905b40ab1f"},"vehicle_type_id":"4","last_reported":1710781648,"current_range_meters":11600,"station_id":"ce4bhr12rcd13ifvqhpg","pricing_plan_id":"cebpf4jnsgd1na2vs0mg"},{"bike_id":"b3015aab-550e-45d6-9e44-61aef91bf99b","system_id":"levelo_inurba_marseille","lat":43.319944,"lon":5.381609,"is_reserved":false,"is_disabled":false,"rental_uris":{"android":"levelo://app?vid=b3015aab-550e-45d6-9e44-61aef91bf99b","ios":"levelo://app?vid=b3015aab-550e-45d6-9e44-61aef91bf99b"},"vehicle_type_id":"4","last_reported":1710781648,"current_range_meters":16800,"station_id":"ce4bhr12rcd13ifvqhpg","pricing_plan_id":"cebpf4jnsgd1na2vs0mg"},{"bike_id":"bf310d92-9fb8-4e92-9e5c-7371b2a2f5f5","system_id":"levelo_inurba_marseille","lat":43.319935,"lon":5.381699,"is_reserved":false,"is_disabled":false,"rental_uris":{"android":"levelo://app?vid=bf310d92-9fb8-4e92-9e5c-7371b2a2f5f5","ios":"levelo://app?vid=bf310d92-9fb8-4e92-9e5c-7371b2a2f5f5"},"vehicle_type_id":"4","last_reported":1710781648,"current_range_meters":8000,"station_id":"ce4bhr12rcd13ifvqhpg","pricing_plan_id":"cebpf4jnsgd1na2vs0mg"},{"bike_id":"5d785fbb-7571-4e78-8cc8-1ff6485fcb25","system_id":"levelo_inurba_marseille","lat":43.319935,"lon":5.381699,"is_reserved":false,"is_disabled":false,"rental_uris":{"android":"levelo://app?vid=5d785fbb-7571-4e78-8cc8-1ff6485fcb25","ios":"levelo://app?vid=5d785fbb-7571-4e78-8cc8-1ff6485fcb25"},"vehicle_type_id":"4","last_reported":1710781648,"current_range_meters":9600,"station_id":"ce4bhr12rcd13ifvqhpg","pricing_plan_id":"cebpf4jnsgd1na2vs0mg"},{"bike_id":"bdbd38e6-d898-4577-a554-8575b07cc12e","system_id":"levelo_inurba_marseille","lat":43.313571,"lon":5.384829,"is_reserved":false,"is_disabled":false,"rental_uris":{"android":"levelo://app?vid=bdbd38e6-d898-4577-a554-8575b07cc12e","ios":"levelo://app?vid=bdbd38e6-d898-4577-a554-8575b07cc12e"},"vehicle_type_id":"4","last_reported":1710781648,"current_range_meters":24000,"station_id":"ce4bgt92rcd13ifvqcf0","pricing_plan_id":"cebpf4jnsgd1na2vs0mg"},{"bike_id":"5b0382a0-7823-4dd2-9397-1eb81b12adae","system_id":"levelo_inurba_marseille","lat":43.299402,"lon":5.365562,"is_reserved":false,"is_disabled":false,"rental_uris":{"android":"levelo://app?vid=5b0382a0-7823-4dd2-9397-1eb81b12adae","ios":"levelo://app?vid=5b0382a0-7823-4dd2-9397-1eb81b12adae"},"vehicle_type_id":"4","last_reported":1710781648,"current_range_meters":9600,"station_id":"","pricing_plan_id":"cebpf4jnsgd1na2vs0mg"},{"bike_id":"0ad83a4f-b68f-43fd-8be1-fda67a92a76d","system_id":"levelo_inurba_marseille","lat":43.299222,"lon":5.365554,"is_reserved":false,"is_disabled":false,"rental_uris":{"android":"levelo://app?vid=0ad83a4f-b68f-43fd-8be1-fda67a92a76d","ios":"levelo://app?vid=0ad83a4f-b68f-43fd-8be1-fda67a92a76d"},"vehicle_type_id":"4","last_reported":1710781648,"current_range_meters":0,"station_id":"ce4bgm92rcd13ifvqbr0","pricing_plan_id":"cebpf4jnsgd1na2vs0mg"},{"bike_id":"e1c5a1c6-6b43-4caf-887c-a904f6d3c062","system_id":"levelo_inurba_marseille","lat":43.299724,"lon":5.371829,"is_reserved":false,"is_disabled":false,"rental_uris":{"android":"levelo://app?vid=e1c5a1c6-6b43-4caf-887c-a904f6d3c062","ios":"levelo://app?vid=e1c5a1c6-6b43-4caf-887c-a904f6d3c062"},"vehicle_type_id":"4","last_reported":1710781648,"current_range_meters":14800,"station_id":"ce4bgr92rcd13ifvqc7g","pricing_plan_id":"cebpf4jnsgd1na2vs0mg"},{"bike_id":"5ade2b54-5666-40bf-a59a-f40e169b24d8","system_id":"levelo_inurba_marseille","lat":43.299724,"lon":5.371829,"is_reserved":false,"is_disabled":false,"rental_uris":{"android":"levelo://app?vid=5ade2b54-5666-40bf-a59a-f40e169b24d8","ios":"levelo://app?vid=5ade2b54-5666-40bf-a59a-f40e169b24d8"},"vehicle_type_id":"4","last_reported":1710781648,"current_range_meters":9200,"station_id":"ce4bgr92rcd13ifvqc7g","pricing_plan_id":"cebpf4jnsgd1na2vs0mg"},{"bike_id":"9c89719d-a48c-4b37-a653-0dcfcb183f85","system_id":"levelo_inurba_marseille","lat":43.299724,"lon":5.371829,"is_reserved":false,"is_disabled":false,"rental_uris":{"android":"levelo://app?vid=9c89719d-a48c-4b37-a653-0dcfcb183f85","ios":"levelo://app?vid=9c89719d-a48c-4b37-a653-0dcfcb183f85"},"vehicle_type_id":"4","last_reported":1710781648,"current_range_meters":800,"station_id":"ce4bgr92rcd13ifvqc7g","pricing_plan_id":"cebpf4jnsgd1na2vs0mg"},{"bike_id":"ecdd027a-1c95-4ed8-b610-b01102ef2204","system_id":"levelo_inurba_marseille","lat":43.299724,"lon":5.371829,"is_reserved":false,"is_disabled":false,"rental_uris":{"android":"levelo://app?vid=ecdd027a-1c95-4ed8-b610-b01102ef2204","ios":"levelo://app?vid=ecdd027a-1c95-4ed8-b610-b01102ef2204"},"vehicle_type_id":"4","last_reported":1710781648,"current_range_meters":14400,"station_id":"ce4bgr92rcd13ifvqc7g","pricing_plan_id":"cebpf4jnsgd1na2vs0mg"},{"bike_id":"c0f1acdd-1240-4814-b621-d561caa4d3e5","system_id":"levelo_inurba_marseille","lat":43.299724,"lon":5.371829,"is_reserved":false,"is_disabled":false,"rental_uris":{"android":"levelo://app?vid=c0f1acdd-1240-4814-b621-d561caa4d3e5","ios":"levelo://app?vid=c0f1acdd-1240-4814-b621-d561caa4d3e5"},"vehicle_type_id":"4","last_reported":1710781648,"current_range_meters":19600,"station_id":"ce4bgr92rcd13ifvqc7g","pricing_plan_id":"cebpf4jnsgd1na2vs0mg"},{"bike_id":"d2a701ef-f738-4e4a-bb2f-9205d93cdc45","system_id":"levelo_inurba_marseille","lat":43.299724,"lon":5.371829,"is_reserved":false,"is_disabled":false,"rental_uris":{"android":"levelo://app?vid=d2a701ef-f738-4e4a-bb2f-9205d93cdc45","ios":"levelo://app?vid=d2a701ef-f738-4e4a-bb2f-9205d93cdc45"},"vehicle_type_id":"4","last_reported":1710781648,"current_range_meters":0,"station_id":"ce4bgr92rcd13ifvqc7g","pricing_plan_id":"cebpf4jnsgd1na2vs0mg"},{"bike_id":"f91f65e7-583a-4a22-a07a-eeeee317dca2","system_id":"levelo_inurba_marseille","lat":43.305364,"lon":5.384119,"is_reserved":false,"is_disabled":false,"rental_uris":{"android":"levelo://app?vid=f91f65e7-583a-4a22-a07a-eeeee317dca2","ios":"levelo://app?vid=f91f65e7-583a-4a22-a07a-eeeee317dca2"},"vehicle_type_id":"4","last_reported":1710781648,"current_range_meters":22000,"station_id":"ce4bgg92rcd13ifvqb30","pricing_plan_id":"cebpf4jnsgd1na2vs0mg"},{"bike_id":"dd1d01d2-1e12-4957-9f98-17365adb732b","system_id":"levelo_inurba_marseille","lat":43.29845,"lon":5.36281,"is_reserved":false,"is_disabled":false,"rental_uris":{"android":"levelo://app?vid=dd1d01d2-1e12-4957-9f98-17365adb732b","ios":"levelo://app?vid=dd1d01d2-1e12-4957-9f98-17365adb732b"},"vehicle_type_id":"4","last_reported":1710781648,"current_range_meters":0,"station_id":"ce4bgpp2rcd13ifvqc3g","pricing_plan_id":"cebpf4jnsgd1na2vs0mg"},{"bike_id":"99e6aefa-7741-47af-be9d-e740b6f2455b","system_id":"levelo_inurba_marseille","lat":43.29916,"lon":5.37465,"is_reserved":false,"is_disabled":false,"rental_uris":{"android":"levelo://app?vid=99e6aefa-7741-47af-be9d-e740b6f2455b","ios":"levelo://app?vid=99e6aefa-7741-47af-be9d-e740b6f2455b"},"vehicle_type_id":"4","last_reported":1710781648,"current_range_meters":6400,"station_id":"","pricing_plan_id":"cebpf4jnsgd1na2vs0mg"},{"bike_id":"3b18d193-f1c9-4a7c-b2bd-ee7a16993a52","system_id":"levelo_inurba_marseille","lat":43.299243,"lon":5.374807,"is_reserved":false,"is_disabled":false,"rental_uris":{"android":"levelo://app?vid=3b18d193-f1c9-4a7c-b2bd-ee7a16993a52","ios":"levelo://app?vid=3b18d193-f1c9-4a7c-b2bd-ee7a16993a52"},"vehicle_type_id":"4","last_reported":1710781648,"current_range_meters":31200,"station_id":"ce4bgjh2rcd13ifvqbg0","pricing_plan_id":"cebpf4jnsgd1na2vs0mg"},{"bike_id":"7d7df337-0cdb-45a0-b459-a99bf599aab2","system_id":"levelo_inurba_marseille","lat":43.311722,"lon":5.387247,"is_reserved":false,"is_disabled":false,"rental_uris":{"android":"levelo://app?vid=7d7df337-0cdb-45a0-b459-a99bf599aab2","ios":"levelo://app?vid=7d7df337-0cdb-45a0-b459-a99bf599aab2"},"vehicle_type_id":"4","last_reported":1710781648,"current_range_meters":13200,"station_id":"ce4bgv12rcd13ifvqcp0","pricing_plan_id":"cebpf4jnsgd1na2vs0mg"},{"bike_id":"4162eb51-f701-40e2-aa6e-f84fccb5d9b1","system_id":"levelo_inurba_marseille","lat":43.311722,"lon":5.387247,"is_reserved":false,"is_disabled":false,"rental_uris":{"android":"levelo://app?vid=4162eb51-f701-40e2-aa6e-f84fccb5d9b1","ios":"levelo://app?vid=4162eb51-f701-40e2-aa6e-f84fccb5d9b1"},"vehicle_type_id":"4","last_reported":1710781648,"current_range_meters":12000,"station_id":"ce4bgv12rcd13ifvqcp0","pricing_plan_id":"cebpf4jnsgd1na2vs0mg"},{"bike_id":"d93e48b4-69e3-41f3-b53e-cc9964345e28","system_id":"levelo_inurba_marseille","lat":43.301429,"lon":5.380704,"is_reserved":false,"is_disabled":false,"rental_uris":{"android":"levelo://app?vid=d93e48b4-69e3-41f3-b53e-cc9964345e28","ios":"levelo://app?vid=d93e48b4-69e3-41f3-b53e-cc9964345e28"},"vehicle_type_id":"4","last_reported":1710781648,"current_range_meters":2000,"station_id":"","pricing_plan_id":"cebpf4jnsgd1na2vs0mg"},{"bike_id":"9b2e8165-7f33-4b46-ad25-4e2671cc19d9","system_id":"levelo_inurba_marseille","lat":43.297794,"lon":5.370888,"is_reserved":false,"is_disabled":false,"rental_uris":{"android":"levelo://app?vid=9b2e8165-7f33-4b46-ad25-4e2671cc19d9","ios":"levelo://app?vid=9b2e8165-7f33-4b46-ad25-4e2671cc19d9"},"vehicle_type_id":"4","last_reported":1710781648,"current_range_meters":20800,"station_id":"ce4bgop2rcd13ifvqc1g","pricing_plan_id":"cebpf4jnsgd1na2vs0mg"},{"bike_id":"9ef1bef1-6822-4780-8a62-d6712122d3a8","system_id":"levelo_inurba_marseille","lat":43.297794,"lon":5.370888,"is_reserved":false,"is_disabled":false,"rental_uris":{"android":"levelo://app?vid=9ef1bef1-6822-4780-8a62-d6712122d3a8","ios":"levelo://app?vid=9ef1bef1-6822-4780-8a62-d6712122d3a8"},"vehicle_type_id":"4","last_reported":1710781648,"current_range_meters":4800,"station_id":"ce4bgop2rcd13ifvqc1g","pricing_plan_id":"cebpf4jnsgd1na2vs0mg"},{"bike_id":"2a9146f5-559c-464c-8ede-4996d3f2e7eb","system_id":"levelo_inurba_marseille","lat":43.32289,"lon":5.38253,"is_reserved":false,"is_disabled":false,"rental_uris":{"android":"levelo://app?vid=2a9146f5-559c-464c-8ede-4996d3f2e7eb","ios":"levelo://app?vid=2a9146f5-559c-464c-8ede-4996d3f2e7eb"},"vehicle_type_id":"4","last_reported":1710781648,"current_range_meters":1600,"station_id":"ce4bhr12rcd13ifvqhqg","pricing_plan_id":"cebpf4jnsgd1na2vs0mg"},{"bike_id":"a5c7156d-dd41-4f56-b3fb-f77edf89f90f","system_id":"levelo_inurba_marseille","lat":43.322872,"lon":5.382756,"is_reserved":false,"is_disabled":false,"rental_uris":{"android":"levelo://app?vid=a5c7156d-dd41-4f56-b3fb-f77edf89f90f","ios":"levelo://app?vid=a5c7156d-dd41-4f56-b3fb-f77edf89f90f"},"vehicle_type_id":"4","last_reported":1710781648,"current_range_meters":18000,"station_id":"ce4bhr12rcd13ifvqhqg","pricing_plan_id":"cebpf4jnsgd1na2vs0mg"},{"bike_id":"accb2f69-ca20-4b2f-9b54-89cf5f810bdd","system_id":"levelo_inurba_marseille","lat":43.32291,"lon":5.38258,"is_reserved":false,"is_disabled":false,"rental_uris":{"android":"levelo://app?vid=accb2f69-ca20-4b2f-9b54-89cf5f810bdd","ios":"levelo://app?vid=accb2f69-ca20-4b2f-9b54-89cf5f810bdd"},"vehicle_type_id":"4","last_reported":1710781648,"current_range_meters":28800,"station_id":"ce4bhr12rcd13ifvqhqg","pricing_plan_id":"cebpf4jnsgd1na2vs0mg"},{"bike_id":"4f4a75fa-11e1-4b9c-9fc5-7e2938322638","system_id":"levelo_inurba_marseille","lat":43.32289,"lon":5.38261,"is_reserved":false,"is_disabled":false,"rental_uris":{"android":"levelo://app?vid=4f4a75fa-11e1-4b9c-9fc5-7e2938322638","ios":"levelo://app?vid=4f4a75fa-11e1-4b9c-9fc5-7e2938322638"},"vehicle_type_id":"4","last_reported":1710781648,"current_range_meters":31200,"station_id":"ce4bhr12rcd13ifvqhqg","pricing_plan_id":"cebpf4jnsgd1na2vs0mg"},{"bike_id":"feead7e7-9cee-4c57-94a6-da647512767c","system_id":"levelo_inurba_marseille","lat":43.32286,"lon":5.38266,"is_reserved":false,"is_disabled":false,"rental_uris":{"android":"levelo://app?vid=feead7e7-9cee-4c57-94a6-da647512767c","ios":"levelo://app?vid=feead7e7-9cee-4c57-94a6-da647512767c"},"vehicle_type_id":"4","last_reported":1710781648,"current_range_meters":22000,"station_id":"ce4bhr12rcd13ifvqhqg","pricing_plan_id":"cebpf4jnsgd1na2vs0mg"},{"bike_id":"3ff125a5-dff1-4591-b6cc-449dc2424878","system_id":"levelo_inurba_marseille","lat":43.32286,"lon":5.38267,"is_reserved":false,"is_disabled":false,"rental_uris":{"android":"levelo://app?vid=3ff125a5-dff1-4591-b6cc-449dc2424878","ios":"levelo://app?vid=3ff125a5-dff1-4591-b6cc-449dc2424878"},"vehicle_type_id":"4","last_reported":1710781648,"current_range_meters":22800,"station_id":"ce4bhr12rcd13ifvqhqg","pricing_plan_id":"cebpf4jnsgd1na2vs0mg"},{"bike_id":"36727d06-0af4-4c64-88de-4193d3d2494b","system_id":"levelo_inurba_marseille","lat":43.32286,"lon":5.38267,"is_reserved":false,"is_disabled":false,"rental_uris":{"android":"levelo://app?vid=36727d06-0af4-4c64-88de-4193d3d2494b","ios":"levelo://app?vid=36727d06-0af4-4c64-88de-4193d3d2494b"},"vehicle_type_id":"4","last_reported":1710781648,"current_range_meters":21200,"station_id":"ce4bhr12rcd13ifvqhqg","pricing_plan_id":"cebpf4jnsgd1na2vs0mg"},{"bike_id":"2cee7f84-3c6f-4a6b-8a16-ad9ac9638800","system_id":"levelo_inurba_marseille","lat":43.32287,"lon":5.38266,"is_reserved":false,"is_disabled":false,"rental_uris":{"android":"levelo://app?vid=2cee7f84-3c6f-4a6b-8a16-ad9ac9638800","ios":"levelo://app?vid=2cee7f84-3c6f-4a6b-8a16-ad9ac9638800"},"vehicle_type_id":"4","last_reported":1710781648,"current_range_meters":8400,"station_id":"ce4bhr12rcd13ifvqhqg","pricing_plan_id":"cebpf4jnsgd1na2vs0mg"},{"bike_id":"bbaa44f1-e76b-48bc-a428-cf353df54683","system_id":"levelo_inurba_marseille","lat":43.32289,"lon":5.38265,"is_reserved":false,"is_disabled":false,"rental_uris":{"android":"levelo://app?vid=bbaa44f1-e76b-48bc-a428-cf353df54683","ios":"levelo://app?vid=bbaa44f1-e76b-48bc-a428-cf353df54683"},"vehicle_type_id":"4","last_reported":1710781648,"current_range_meters":0,"station_id":"ce4bhr12rcd13ifvqhqg","pricing_plan_id":"cebpf4jnsgd1na2vs0mg"},{"bike_id":"88a63eaa-7088-4c33-a8a5-44cf5cffa30b","system_id":"levelo_inurba_marseille","lat":43.32286,"lon":5.38269,"is_reserved":false,"is_disabled":false,"rental_uris":{"android":"levelo://app?vid=88a63eaa-7088-4c33-a8a5-44cf5cffa30b","ios":"levelo://app?vid=88a63eaa-7088-4c33-a8a5-44cf5cffa30b"},"vehicle_type_id":"4","last_reported":1710781648,"current_range_meters":0,"station_id":"ce4bhr12rcd13ifvqhqg","pricing_plan_id":"cebpf4jnsgd1na2vs0mg"},{"bike_id":"b0fefcca-ef3a-48e3-84af-e8fc6aac01a7","system_id":"levelo_inurba_marseille","lat":43.297774,"lon":5.370875,"is_reserved":false,"is_disabled":false,"rental_uris":{"android":"levelo://app?vid=b0fefcca-ef3a-48e3-84af-e8fc6aac01a7","ios":"levelo://app?vid=b0fefcca-ef3a-48e3-84af-e8fc6aac01a7"},"vehicle_type_id":"4","last_reported":1710781648,"current_range_meters":6800,"station_id":"ce4bgop2rcd13ifvqc1g","pricing_plan_id":"cebpf4jnsgd1na2vs0mg"},{"bike_id":"91661059-3a23-4a59-a092-324bcd819f8c","system_id":"levelo_inurba_marseille","lat":43.322908,"lon":5.38267,"is_reserved":false,"is_disabled":false,"rental_uris":{"android":"levelo://app?vid=91661059-3a23-4a59-a092-324bcd819f8c","ios":"levelo://app?vid=91661059-3a23-4a59-a092-324bcd819f8c"},"vehicle_type_id":"4","last_reported":1710781648,"current_range_meters":9200,"station_id":"ce4bhr12rcd13ifvqhqg","pricing_plan_id":"cebpf4jnsgd1na2vs0mg"},{"bike_id":"5f8b4803-e4ba-4452-a9f1-55c7a87b5d2b","system_id":"levelo_inurba_marseille","lat":43.32291,"lon":5.38268,"is_reserved":false,"is_disabled":false,"rental_uris":{"android":"levelo://app?vid=5f8b4803-e4ba-4452-a9f1-55c7a87b5d2b","ios":"levelo://app?vid=5f8b4803-e4ba-4452-a9f1-55c7a87b5d2b"},"vehicle_type_id":"4","last_reported":1710781648,"current_range_meters":21600,"station_id":"ce4bhr12rcd13ifvqhqg","pricing_plan_id":"cebpf4jnsgd1na2vs0mg"},{"bike_id":"bd6b6545-b45a-4dc0-b743-d330ab6c2563","system_id":"levelo_inurba_marseille","lat":43.32294,"lon":5.38267,"is_reserved":false,"is_disabled":false,"rental_uris":{"android":"levelo://app?vid=bd6b6545-b45a-4dc0-b743-d330ab6c2563","ios":"levelo://app?vid=bd6b6545-b45a-4dc0-b743-d330ab6c2563"},"vehicle_type_id":"4","last_reported":1710781648,"current_range_meters":31200,"station_id":"ce4bhr12rcd13ifvqhqg","pricing_plan_id":"cebpf4jnsgd1na2vs0mg"},{"bike_id":"885b21cf-6a4d-4308-bd6a-0b91832ea113","system_id":"levelo_inurba_marseille","lat":43.322872,"lon":5.382756,"is_reserved":false,"is_disabled":false,"rental_uris":{"android":"levelo://app?vid=885b21cf-6a4d-4308-bd6a-0b91832ea113","ios":"levelo://app?vid=885b21cf-6a4d-4308-bd6a-0b91832ea113"},"vehicle_type_id":"4","last_reported":1710781648,"current_range_meters":31200,"station_id":"ce4bhr12rcd13ifvqhqg","pricing_plan_id":"cebpf4jnsgd1na2vs0mg"},{"bike_id":"16decc57-ed9a-40d4-8633-e2f1ee463781","system_id":"levelo_inurba_marseille","lat":43.322872,"lon":5.382756,"is_reserved":false,"is_disabled":false,"rental_uris":{"android":"levelo://app?vid=16decc57-ed9a-40d4-8633-e2f1ee463781","ios":"levelo://app?vid=16decc57-ed9a-40d4-8633-e2f1ee463781"},"vehicle_type_id":"4","last_reported":1710781648,"current_range_meters":29200,"station_id":"ce4bhr12rcd13ifvqhqg","pricing_plan_id":"cebpf4jnsgd1na2vs0mg"},{"bike_id":"3c98304c-b1c2-4b8b-9a7e-fad631133dc9","system_id":"levelo_inurba_marseille","lat":43.322872,"lon":5.382756,"is_reserved":false,"is_disabled":false,"rental_uris":{"android":"levelo://app?vid=3c98304c-b1c2-4b8b-9a7e-fad631133dc9","ios":"levelo://app?vid=3c98304c-b1c2-4b8b-9a7e-fad631133dc9"},"vehicle_type_id":"4","last_reported":1710781648,"current_range_meters":5200,"station_id":"ce4bhr12rcd13ifvqhqg","pricing_plan_id":"cebpf4jnsgd1na2vs0mg"},{"bike_id":"eddeac31-d118-4f00-9fae-66dd1f398919","system_id":"levelo_inurba_marseille","lat":43.32298,"lon":5.38282,"is_reserved":false,"is_disabled":false,"rental_uris":{"android":"levelo://app?vid=eddeac31-d118-4f00-9fae-66dd1f398919","ios":"levelo://app?vid=eddeac31-d118-4f00-9fae-66dd1f398919"},"vehicle_type_id":"4","last_reported":1710781648,"current_range_meters":12000,"station_id":"ce4bhr12rcd13ifvqhqg","pricing_plan_id":"cebpf4jnsgd1na2vs0mg"},{"bike_id":"f2f25487-0fbc-4983-9e10-02f96526376a","system_id":"levelo_inurba_marseille","lat":43.297163,"lon":5.365866,"is_reserved":false,"is_disabled":false,"rental_uris":{"android":"levelo://app?vid=f2f25487-0fbc-4983-9e10-02f96526376a","ios":"levelo://app?vid=f2f25487-0fbc-4983-9e10-02f96526376a"},"vehicle_type_id":"4","last_reported":1710781648,"current_range_meters":13600,"station_id":"ce4bgn12rcd13ifvqbt0","pricing_plan_id":"cebpf4jnsgd1na2vs0mg"},{"bike_id":"ab92cb54-a545-4da4-b2d2-bc5b4553ec66","system_id":"levelo_inurba_marseille","lat":43.297163,"lon":5.365866,"is_reserved":false,"is_disabled":false,"rental_uris":{"android":"levelo://app?vid=ab92cb54-a545-4da4-b2d2-bc5b4553ec66","ios":"levelo://app?vid=ab92cb54-a545-4da4-b2d2-bc5b4553ec66"},"vehicle_type_id":"4","last_reported":1710781648,"current_range_meters":16000,"station_id":"ce4bgn12rcd13ifvqbt0","pricing_plan_id":"cebpf4jnsgd1na2vs0mg"},{"bike_id":"834309a9-46b2-45bc-9c78-d11db1bcaa05","system_id":"levelo_inurba_marseille","lat":43.2968,"lon":5.37291,"is_reserved":false,"is_disabled":false,"rental_uris":{"android":"levelo://app?vid=834309a9-46b2-45bc-9c78-d11db1bcaa05","ios":"levelo://app?vid=834309a9-46b2-45bc-9c78-d11db1bcaa05"},"vehicle_type_id":"4","last_reported":1710781648,"current_range_meters":23600,"station_id":"ce4bgk12rcd13ifvqbj0","pricing_plan_id":"cebpf4jnsgd1na2vs0mg"},{"bike_id":"cf7de05f-a01c-47b3-a10a-dacf0fb0e49e","system_id":"levelo_inurba_marseille","lat":43.29604,"lon":5.370006,"is_reserved":false,"is_disabled":false,"rental_uris":{"android":"levelo://app?vid=cf7de05f-a01c-47b3-a10a-dacf0fb0e49e","ios":"levelo://app?vid=cf7de05f-a01c-47b3-a10a-dacf0fb0e49e"},"vehicle_type_id":"4","last_reported":1710781648,"current_range_meters":0,"station_id":"","pricing_plan_id":"cebpf4jnsgd1na2vs0mg"},{"bike_id":"ce139f28-ce60-4b0f-bc67-0a1d66fc9cef","system_id":"levelo_inurba_marseille","lat":43.29573,"lon":5.367355,"is_reserved":false,"is_disabled":false,"rental_uris":{"android":"levelo://app?vid=ce139f28-ce60-4b0f-bc67-0a1d66fc9cef","ios":"levelo://app?vid=ce139f28-ce60-4b0f-bc67-0a1d66fc9cef"},"vehicle_type_id":"4","last_reported":1710781648,"current_range_meters":400,"station_id":"ce4bgph2rcd13ifvqc2g","pricing_plan_id":"cebpf4jnsgd1na2vs0mg"},{"bike_id":"62b91c9a-d2af-403e-9e25-58b3ecd23005","system_id":"levelo_inurba_marseille","lat":43.29573,"lon":5.367355,"is_reserved":false,"is_disabled":false,"rental_uris":{"android":"levelo://app?vid=62b91c9a-d2af-403e-9e25-58b3ecd23005","ios":"levelo://app?vid=62b91c9a-d2af-403e-9e25-58b3ecd23005"},"vehicle_type_id":"4","last_reported":1710781648,"current_range_meters":4400,"station_id":"ce4bgph2rcd13ifvqc2g","pricing_plan_id":"cebpf4jnsgd1na2vs0mg"},{"bike_id":"2946021f-322e-473c-9b65-5f10ebbdb3c8","system_id":"levelo_inurba_marseille","lat":43.29573,"lon":5.367355,"is_reserved":false,"is_disabled":false,"rental_uris":{"android":"levelo://app?vid=2946021f-322e-473c-9b65-5f10ebbdb3c8","ios":"levelo://app?vid=2946021f-322e-473c-9b65-5f10ebbdb3c8"},"vehicle_type_id":"4","last_reported":1710781648,"current_range_meters":0,"station_id":"ce4bgph2rcd13ifvqc2g","pricing_plan_id":"cebpf4jnsgd1na2vs0mg"},{"bike_id":"5d639179-f68d-4069-a3f7-e2952d86404b","system_id":"levelo_inurba_marseille","lat":43.29573,"lon":5.367355,"is_reserved":false,"is_disabled":false,"rental_uris":{"android":"levelo://app?vid=5d639179-f68d-4069-a3f7-e2952d86404b","ios":"levelo://app?vid=5d639179-f68d-4069-a3f7-e2952d86404b"},"vehicle_type_id":"4","last_reported":1710781648,"current_range_meters":28000,"station_id":"ce4bgph2rcd13ifvqc2g","pricing_plan_id":"cebpf4jnsgd1na2vs0mg"},{"bike_id":"b1f65c6e-d987-470c-b47a-ec52e1f41df4","system_id":"levelo_inurba_marseille","lat":43.309589,"lon":5.390258,"is_reserved":false,"is_disabled":false,"rental_uris":{"android":"levelo://app?vid=b1f65c6e-d987-470c-b47a-ec52e1f41df4","ios":"levelo://app?vid=b1f65c6e-d987-470c-b47a-ec52e1f41df4"},"vehicle_type_id":"4","last_reported":1710781648,"current_range_meters":0,"station_id":"ce4bgup2rcd13ifvqco0","pricing_plan_id":"cebpf4jnsgd1na2vs0mg"},{"bike_id":"a19d2863-bfa9-4a20-9831-ac356bbc71c6","system_id":"levelo_inurba_marseille","lat":43.309589,"lon":5.390258,"is_reserved":false,"is_disabled":false,"rental_uris":{"android":"levelo://app?vid=a19d2863-bfa9-4a20-9831-ac356bbc71c6","ios":"levelo://app?vid=a19d2863-bfa9-4a20-9831-ac356bbc71c6"},"vehicle_type_id":"4","last_reported":1710781648,"current_range_meters":24800,"station_id":"ce4bgup2rcd13ifvqco0","pricing_plan_id":"cebpf4jnsgd1na2vs0mg"},{"bike_id":"a293ed55-9953-424a-bb7d-84feab9d7976","system_id":"levelo_inurba_marseille","lat":43.309589,"lon":5.390258,"is_reserved":false,"is_disabled":false,"rental_uris":{"android":"levelo://app?vid=a293ed55-9953-424a-bb7d-84feab9d7976","ios":"levelo://app?vid=a293ed55-9953-424a-bb7d-84feab9d7976"},"vehicle_type_id":"4","last_reported":1710781648,"current_range_meters":1200,"station_id":"ce4bgup2rcd13ifvqco0","pricing_plan_id":"cebpf4jnsgd1na2vs0mg"},{"bike_id":"e4b56cbf-9a91-44a9-9c16-93121b8b288a","system_id":"levelo_inurba_marseille","lat":43.299257,"lon":5.382253,"is_reserved":false,"is_disabled":false,"rental_uris":{"android":"levelo://app?vid=e4b56cbf-9a91-44a9-9c16-93121b8b288a","ios":"levelo://app?vid=e4b56cbf-9a91-44a9-9c16-93121b8b288a"},"vehicle_type_id":"4","last_reported":1710781648,"current_range_meters":0,"station_id":"","pricing_plan_id":"cebpf4jnsgd1na2vs0mg"},{"bike_id":"8c54b02b-f81c-4972-8dd6-4f2224635416","system_id":"levelo_inurba_marseille","lat":43.317557,"lon":5.390173,"is_reserved":false,"is_disabled":false,"rental_uris":{"android":"levelo://app?vid=8c54b02b-f81c-4972-8dd6-4f2224635416","ios":"levelo://app?vid=8c54b02b-f81c-4972-8dd6-4f2224635416"},"vehicle_type_id":"4","last_reported":1710781648,"current_range_meters":23200,"station_id":"ce4bhqp2rcd13ifvqhng","pricing_plan_id":"cebpf4jnsgd1na2vs0mg"},{"bike_id":"d2eed6b0-de73-4d7e-b709-ada308cde675","system_id":"levelo_inurba_marseille","lat":43.31757,"lon":5.39014,"is_reserved":false,"is_disabled":false,"rental_uris":{"android":"levelo://app?vid=d2eed6b0-de73-4d7e-b709-ada308cde675","ios":"levelo://app?vid=d2eed6b0-de73-4d7e-b709-ada308cde675"},"vehicle_type_id":"4","last_reported":1710781648,"current_range_meters":16400,"station_id":"ce4bhqp2rcd13ifvqhng","pricing_plan_id":"cebpf4jnsgd1na2vs0mg"},{"bike_id":"20cff5eb-2208-4446-8d47-edb399b75297","system_id":"levelo_inurba_marseille","lat":43.317557,"lon":5.390173,"is_reserved":false,"is_disabled":false,"rental_uris":{"android":"levelo://app?vid=20cff5eb-2208-4446-8d47-edb399b75297","ios":"levelo://app?vid=20cff5eb-2208-4446-8d47-edb399b75297"},"vehicle_type_id":"4","last_reported":1710781648,"current_range_meters":31600,"station_id":"ce4bhqp2rcd13ifvqhng","pricing_plan_id":"cebpf4jnsgd1na2vs0mg"},{"bike_id":"39ca2e9a-bbde-4829-bd6a-6f533d7a2d9b","system_id":"levelo_inurba_marseille","lat":43.317557,"lon":5.390173,"is_reserved":false,"is_disabled":false,"rental_uris":{"android":"levelo://app?vid=39ca2e9a-bbde-4829-bd6a-6f533d7a2d9b","ios":"levelo://app?vid=39ca2e9a-bbde-4829-bd6a-6f533d7a2d9b"},"vehicle_type_id":"4","last_reported":1710781648,"current_range_meters":25200,"station_id":"ce4bhqp2rcd13ifvqhng","pricing_plan_id":"cebpf4jnsgd1na2vs0mg"},{"bike_id":"bd992c46-e4b6-43a9-9f67-fd5c4ec4756e","system_id":"levelo_inurba_marseille","lat":43.317557,"lon":5.390173,"is_reserved":false,"is_disabled":false,"rental_uris":{"android":"levelo://app?vid=bd992c46-e4b6-43a9-9f67-fd5c4ec4756e","ios":"levelo://app?vid=bd992c46-e4b6-43a9-9f67-fd5c4ec4756e"},"vehicle_type_id":"4","last_reported":1710781648,"current_range_meters":20000,"station_id":"ce4bhqp2rcd13ifvqhng","pricing_plan_id":"cebpf4jnsgd1na2vs0mg"},{"bike_id":"4c1c4806-ceb3-4412-a3b1-42cda738f23e","system_id":"levelo_inurba_marseille","lat":43.31759,"lon":5.39017,"is_reserved":false,"is_disabled":false,"rental_uris":{"android":"levelo://app?vid=4c1c4806-ceb3-4412-a3b1-42cda738f23e","ios":"levelo://app?vid=4c1c4806-ceb3-4412-a3b1-42cda738f23e"},"vehicle_type_id":"4","last_reported":1710781648,"current_range_meters":16400,"station_id":"ce4bhqp2rcd13ifvqhng","pricing_plan_id":"cebpf4jnsgd1na2vs0mg"},{"bike_id":"97dc5621-0125-4f99-9fc3-7b824027f68c","system_id":"levelo_inurba_marseille","lat":43.317557,"lon":5.390173,"is_reserved":false,"is_disabled":false,"rental_uris":{"android":"levelo://app?vid=97dc5621-0125-4f99-9fc3-7b824027f68c","ios":"levelo://app?vid=97dc5621-0125-4f99-9fc3-7b824027f68c"},"vehicle_type_id":"4","last_reported":1710781648,"current_range_meters":21200,"station_id":"ce4bhqp2rcd13ifvqhng","pricing_plan_id":"cebpf4jnsgd1na2vs0mg"},{"bike_id":"b9585748-59ed-4215-a39d-36ba1614c135","system_id":"levelo_inurba_marseille","lat":43.31757,"lon":5.39024,"is_reserved":false,"is_disabled":false,"rental_uris":{"android":"levelo://app?vid=b9585748-59ed-4215-a39d-36ba1614c135","ios":"levelo://app?vid=b9585748-59ed-4215-a39d-36ba1614c135"},"vehicle_type_id":"4","last_reported":1710781648,"current_range_meters":15200,"station_id":"ce4bhqp2rcd13ifvqhng","pricing_plan_id":"cebpf4jnsgd1na2vs0mg"},{"bike_id":"0ce18a90-f248-45c1-8c27-dc2538378c81","system_id":"levelo_inurba_marseille","lat":43.295748,"lon":5.37522,"is_reserved":false,"is_disabled":false,"rental_uris":{"android":"levelo://app?vid=0ce18a90-f248-45c1-8c27-dc2538378c81","ios":"levelo://app?vid=0ce18a90-f248-45c1-8c27-dc2538378c81"},"vehicle_type_id":"4","last_reported":1710781648,"current_range_meters":31200,"station_id":"ce4bgh92rcd13ifvqb50","pricing_plan_id":"cebpf4jnsgd1na2vs0mg"},{"bike_id":"a354e034-0e41-48d5-b4f5-9c3a48780550","system_id":"levelo_inurba_marseille","lat":43.304274,"lon":5.388873,"is_reserved":false,"is_disabled":false,"rental_uris":{"android":"levelo://app?vid=a354e034-0e41-48d5-b4f5-9c3a48780550","ios":"levelo://app?vid=a354e034-0e41-48d5-b4f5-9c3a48780550"},"vehicle_type_id":"4","last_reported":1710781648,"current_range_meters":1600,"station_id":"ce4bgk12rcd13ifvqbi0","pricing_plan_id":"cebpf4jnsgd1na2vs0mg"},{"bike_id":"9dd940c9-093f-4967-ace9-6ebd1dae695c","system_id":"levelo_inurba_marseille","lat":43.304345,"lon":5.388835,"is_reserved":false,"is_disabled":false,"rental_uris":{"android":"levelo://app?vid=9dd940c9-093f-4967-ace9-6ebd1dae695c","ios":"levelo://app?vid=9dd940c9-093f-4967-ace9-6ebd1dae695c"},"vehicle_type_id":"4","last_reported":1710781648,"current_range_meters":0,"station_id":"","pricing_plan_id":"cebpf4jnsgd1na2vs0mg"},{"bike_id":"91078479-574d-4b46-be94-a6cf38fc671b","system_id":"levelo_inurba_marseille","lat":43.29788,"lon":5.381,"is_reserved":false,"is_disabled":false,"rental_uris":{"android":"levelo://app?vid=91078479-574d-4b46-be94-a6cf38fc671b","ios":"levelo://app?vid=91078479-574d-4b46-be94-a6cf38fc671b"},"vehicle_type_id":"4","last_reported":1710781648,"current_range_meters":0,"station_id":"ce4bgip2rcd13ifvqbb0","pricing_plan_id":"cebpf4jnsgd1na2vs0mg"},{"bike_id":"9c71bda9-7b70-4548-bcf8-402184db6c68","system_id":"levelo_inurba_marseille","lat":43.304278,"lon":5.388868,"is_reserved":false,"is_disabled":false,"rental_uris":{"android":"levelo://app?vid=9c71bda9-7b70-4548-bcf8-402184db6c68","ios":"levelo://app?vid=9c71bda9-7b70-4548-bcf8-402184db6c68"},"vehicle_type_id":"4","last_reported":1710781648,"current_range_meters":22400,"station_id":"ce4bgk12rcd13ifvqbi0","pricing_plan_id":"cebpf4jnsgd1na2vs0mg"},{"bike_id":"63284951-6faa-45ff-9fd8-ba0a7df09cbc","system_id":"levelo_inurba_marseille","lat":43.304274,"lon":5.388873,"is_reserved":false,"is_disabled":false,"rental_uris":{"android":"levelo://app?vid=63284951-6faa-45ff-9fd8-ba0a7df09cbc","ios":"levelo://app?vid=63284951-6faa-45ff-9fd8-ba0a7df09cbc"},"vehicle_type_id":"4","last_reported":1710781648,"current_range_meters":3200,"station_id":"ce4bgk12rcd13ifvqbi0","pricing_plan_id":"cebpf4jnsgd1na2vs0mg"},{"bike_id":"808cc814-742e-4f54-92c0-d611a29566fc","system_id":"levelo_inurba_marseille","lat":43.30433,"lon":5.38895,"is_reserved":false,"is_disabled":false,"rental_uris":{"android":"levelo://app?vid=808cc814-742e-4f54-92c0-d611a29566fc","ios":"levelo://app?vid=808cc814-742e-4f54-92c0-d611a29566fc"},"vehicle_type_id":"4","last_reported":1710781648,"current_range_meters":16800,"station_id":"","pricing_plan_id":"cebpf4jnsgd1na2vs0mg"},{"bike_id":"02de2141-a663-4755-adaf-c062b3ac9b48","system_id":"levelo_inurba_marseille","lat":43.30422,"lon":5.38889,"is_reserved":false,"is_disabled":false,"rental_uris":{"android":"levelo://app?vid=02de2141-a663-4755-adaf-c062b3ac9b48","ios":"levelo://app?vid=02de2141-a663-4755-adaf-c062b3ac9b48"},"vehicle_type_id":"4","last_reported":1710781648,"current_range_meters":2400,"station_id":"ce4bgk12rcd13ifvqbi0","pricing_plan_id":"cebpf4jnsgd1na2vs0mg"},{"bike_id":"efa5c393-f73e-41ed-a785-71c5d35953ee","system_id":"levelo_inurba_marseille","lat":43.30429,"lon":5.38901,"is_reserved":false,"is_disabled":false,"rental_uris":{"android":"levelo://app?vid=efa5c393-f73e-41ed-a785-71c5d35953ee","ios":"levelo://app?vid=efa5c393-f73e-41ed-a785-71c5d35953ee"},"vehicle_type_id":"4","last_reported":1710781648,"current_range_meters":22800,"station_id":"ce4bgk12rcd13ifvqbi0","pricing_plan_id":"cebpf4jnsgd1na2vs0mg"},{"bike_id":"96457c31-58d7-44f3-a226-f6efeeaabccc","system_id":"levelo_inurba_marseille","lat":43.295279,"lon":5.375048,"is_reserved":false,"is_disabled":false,"rental_uris":{"android":"levelo://app?vid=96457c31-58d7-44f3-a226-f6efeeaabccc","ios":"levelo://app?vid=96457c31-58d7-44f3-a226-f6efeeaabccc"},"vehicle_type_id":"4","last_reported":1710781648,"current_range_meters":11200,"station_id":"ce4bgkp2rcd13ifvqbmg","pricing_plan_id":"cebpf4jnsgd1na2vs0mg"},{"bike_id":"5ad7f0b9-d0ba-4777-b885-1187557cbf20","system_id":"levelo_inurba_marseille","lat":43.299761,"lon":5.384899,"is_reserved":false,"is_disabled":false,"rental_uris":{"android":"levelo://app?vid=5ad7f0b9-d0ba-4777-b885-1187557cbf20","ios":"levelo://app?vid=5ad7f0b9-d0ba-4777-b885-1187557cbf20"},"vehicle_type_id":"4","last_reported":1710781648,"current_range_meters":0,"station_id":"ce4bgip2rcd13ifvqbb0","pricing_plan_id":"cebpf4jnsgd1na2vs0mg"},{"bike_id":"a186949b-b481-4fa2-b5b4-840f6bc4f3a5","system_id":"levelo_inurba_marseille","lat":43.295279,"lon":5.375048,"is_reserved":false,"is_disabled":false,"rental_uris":{"android":"levelo://app?vid=a186949b-b481-4fa2-b5b4-840f6bc4f3a5","ios":"levelo://app?vid=a186949b-b481-4fa2-b5b4-840f6bc4f3a5"},"vehicle_type_id":"4","last_reported":1710781648,"current_range_meters":29200,"station_id":"ce4bgkp2rcd13ifvqbmg","pricing_plan_id":"cebpf4jnsgd1na2vs0mg"},{"bike_id":"baf8232b-e0b5-4257-8ac0-8735e2959bec","system_id":"levelo_inurba_marseille","lat":43.32367,"lon":5.388836,"is_reserved":false,"is_disabled":false,"rental_uris":{"android":"levelo://app?vid=baf8232b-e0b5-4257-8ac0-8735e2959bec","ios":"levelo://app?vid=baf8232b-e0b5-4257-8ac0-8735e2959bec"},"vehicle_type_id":"4","last_reported":1710781648,"current_range_meters":18400,"station_id":"ce4bhqp2rcd13ifvqhog","pricing_plan_id":"cebpf4jnsgd1na2vs0mg"},{"bike_id":"def1dd5b-894d-4bea-b9bc-582e51435642","system_id":"levelo_inurba_marseille","lat":43.323675,"lon":5.388816,"is_reserved":false,"is_disabled":false,"rental_uris":{"android":"levelo://app?vid=def1dd5b-894d-4bea-b9bc-582e51435642","ios":"levelo://app?vid=def1dd5b-894d-4bea-b9bc-582e51435642"},"vehicle_type_id":"4","last_reported":1710781648,"current_range_meters":18000,"station_id":"ce4bhqp2rcd13ifvqhog","pricing_plan_id":"cebpf4jnsgd1na2vs0mg"},{"bike_id":"9b43ae9f-97c3-4da0-938b-50afec46d2a5","system_id":"levelo_inurba_marseille","lat":43.32367,"lon":5.388836,"is_reserved":false,"is_disabled":false,"rental_uris":{"android":"levelo://app?vid=9b43ae9f-97c3-4da0-938b-50afec46d2a5","ios":"levelo://app?vid=9b43ae9f-97c3-4da0-938b-50afec46d2a5"},"vehicle_type_id":"4","last_reported":1710781648,"current_range_meters":21600,"station_id":"ce4bhqp2rcd13ifvqhog","pricing_plan_id":"cebpf4jnsgd1na2vs0mg"},{"bike_id":"4bfd14d0-5343-477d-b9ee-5c0686f22a7d","system_id":"levelo_inurba_marseille","lat":43.32366,"lon":5.38886,"is_reserved":false,"is_disabled":false,"rental_uris":{"android":"levelo://app?vid=4bfd14d0-5343-477d-b9ee-5c0686f22a7d","ios":"levelo://app?vid=4bfd14d0-5343-477d-b9ee-5c0686f22a7d"},"vehicle_type_id":"4","last_reported":1710781648,"current_range_meters":14800,"station_id":"ce4bhqp2rcd13ifvqhog","pricing_plan_id":"cebpf4jnsgd1na2vs0mg"},{"bike_id":"41128f1f-2f01-4d9d-b223-5480079df37b","system_id":"levelo_inurba_marseille","lat":43.32368,"lon":5.38885,"is_reserved":false,"is_disabled":false,"rental_uris":{"android":"levelo://app?vid=41128f1f-2f01-4d9d-b223-5480079df37b","ios":"levelo://app?vid=41128f1f-2f01-4d9d-b223-5480079df37b"},"vehicle_type_id":"4","last_reported":1710781648,"current_range_meters":8800,"station_id":"ce4bhqp2rcd13ifvqhog","pricing_plan_id":"cebpf4jnsgd1na2vs0mg"},{"bike_id":"d1c473ef-8f57-4a45-a518-f2821a73640e","system_id":"levelo_inurba_marseille","lat":43.32368,"lon":5.38887,"is_reserved":false,"is_disabled":false,"rental_uris":{"android":"levelo://app?vid=d1c473ef-8f57-4a45-a518-f2821a73640e","ios":"levelo://app?vid=d1c473ef-8f57-4a45-a518-f2821a73640e"},"vehicle_type_id":"4","last_reported":1710781648,"current_range_meters":19200,"station_id":"ce4bhqp2rcd13ifvqhog","pricing_plan_id":"cebpf4jnsgd1na2vs0mg"},{"bike_id":"b2e38440-d9ce-4f95-9da7-79ff5c2c1ed5","system_id":"levelo_inurba_marseille","lat":43.32367,"lon":5.388836,"is_reserved":false,"is_disabled":false,"rental_uris":{"android":"levelo://app?vid=b2e38440-d9ce-4f95-9da7-79ff5c2c1ed5","ios":"levelo://app?vid=b2e38440-d9ce-4f95-9da7-79ff5c2c1ed5"},"vehicle_type_id":"4","last_reported":1710781648,"current_range_meters":15600,"station_id":"ce4bhqp2rcd13ifvqhog","pricing_plan_id":"cebpf4jnsgd1na2vs0mg"},{"bike_id":"76c53434-4cc0-46d1-8c33-87ae671b68f2","system_id":"levelo_inurba_marseille","lat":43.296371,"lon":5.3812,"is_reserved":false,"is_disabled":false,"rental_uris":{"android":"levelo://app?vid=76c53434-4cc0-46d1-8c33-87ae671b68f2","ios":"levelo://app?vid=76c53434-4cc0-46d1-8c33-87ae671b68f2"},"vehicle_type_id":"4","last_reported":1710781648,"current_range_meters":0,"station_id":"ce4bgl12rcd13ifvqbo0","pricing_plan_id":"cebpf4jnsgd1na2vs0mg"},{"bike_id":"88c09819-0132-49e1-a848-b83c3e55111a","system_id":"levelo_inurba_marseille","lat":43.32367,"lon":5.388836,"is_reserved":false,"is_disabled":false,"rental_uris":{"android":"levelo://app?vid=88c09819-0132-49e1-a848-b83c3e55111a","ios":"levelo://app?vid=88c09819-0132-49e1-a848-b83c3e55111a"},"vehicle_type_id":"4","last_reported":1710781648,"current_range_meters":24800,"station_id":"ce4bhqp2rcd13ifvqhog","pricing_plan_id":"cebpf4jnsgd1na2vs0mg"},{"bike_id":"bc149946-4553-424d-a87c-7dea59884772","system_id":"levelo_inurba_marseille","lat":43.32367,"lon":5.388836,"is_reserved":false,"is_disabled":false,"rental_uris":{"android":"levelo://app?vid=bc149946-4553-424d-a87c-7dea59884772","ios":"levelo://app?vid=bc149946-4553-424d-a87c-7dea59884772"},"vehicle_type_id":"4","last_reported":1710781648,"current_range_meters":8400,"station_id":"ce4bhqp2rcd13ifvqhog","pricing_plan_id":"cebpf4jnsgd1na2vs0mg"},{"bike_id":"f19a425e-2e36-4fa8-83c3-0fe07e567d65","system_id":"levelo_inurba_marseille","lat":43.29597,"lon":5.38092,"is_reserved":false,"is_disabled":false,"rental_uris":{"android":"levelo://app?vid=f19a425e-2e36-4fa8-83c3-0fe07e567d65","ios":"levelo://app?vid=f19a425e-2e36-4fa8-83c3-0fe07e567d65"},"vehicle_type_id":"4","last_reported":1710781648,"current_range_meters":0,"station_id":"ce4bgl12rcd13ifvqbo0","pricing_plan_id":"cebpf4jnsgd1na2vs0mg"},{"bike_id":"53227ef3-dca0-41bf-a744-2c2e55d6e25f","system_id":"levelo_inurba_marseille","lat":43.29601,"lon":5.381084,"is_reserved":false,"is_disabled":false,"rental_uris":{"android":"levelo://app?vid=53227ef3-dca0-41bf-a744-2c2e55d6e25f","ios":"levelo://app?vid=53227ef3-dca0-41bf-a744-2c2e55d6e25f"},"vehicle_type_id":"4","last_reported":1710781648,"current_range_meters":0,"station_id":"ce4bgl12rcd13ifvqbo0","pricing_plan_id":"cebpf4jnsgd1na2vs0mg"},{"bike_id":"9ee8e6cb-95a8-46be-8c1b-d099e1826a15","system_id":"levelo_inurba_marseille","lat":43.29334,"lon":5.37154,"is_reserved":false,"is_disabled":false,"rental_uris":{"android":"levelo://app?vid=9ee8e6cb-95a8-46be-8c1b-d099e1826a15","ios":"levelo://app?vid=9ee8e6cb-95a8-46be-8c1b-d099e1826a15"},"vehicle_type_id":"4","last_reported":1710781648,"current_range_meters":18000,"station_id":"ce4bgh92rcd13ifvqb40","pricing_plan_id":"cebpf4jnsgd1na2vs0mg"},{"bike_id":"de9e6a5e-2b70-4b49-9fa3-17686801fff0","system_id":"levelo_inurba_marseille","lat":43.293249,"lon":5.371578,"is_reserved":false,"is_disabled":false,"rental_uris":{"android":"levelo://app?vid=de9e6a5e-2b70-4b49-9fa3-17686801fff0","ios":"levelo://app?vid=de9e6a5e-2b70-4b49-9fa3-17686801fff0"},"vehicle_type_id":"4","last_reported":1710781648,"current_range_meters":19600,"station_id":"ce4bgh92rcd13ifvqb40","pricing_plan_id":"cebpf4jnsgd1na2vs0mg"},{"bike_id":"cfc73f27-1ab9-44c1-b50f-91303adf9f64","system_id":"levelo_inurba_marseille","lat":43.29277,"lon":5.36836,"is_reserved":false,"is_disabled":false,"rental_uris":{"android":"levelo://app?vid=cfc73f27-1ab9-44c1-b50f-91303adf9f64","ios":"levelo://app?vid=cfc73f27-1ab9-44c1-b50f-91303adf9f64"},"vehicle_type_id":"4","last_reported":1710781648,"current_range_meters":28400,"station_id":"ce4bhbp2rcd13ifvqesg","pricing_plan_id":"cebpf4jnsgd1na2vs0mg"},{"bike_id":"490d2782-93f1-4094-8adb-e49b1f2de7d4","system_id":"levelo_inurba_marseille","lat":43.292749,"lon":5.368402,"is_reserved":false,"is_disabled":false,"rental_uris":{"android":"levelo://app?vid=490d2782-93f1-4094-8adb-e49b1f2de7d4","ios":"levelo://app?vid=490d2782-93f1-4094-8adb-e49b1f2de7d4"},"vehicle_type_id":"4","last_reported":1710781648,"current_range_meters":0,"station_id":"ce4bhbp2rcd13ifvqesg","pricing_plan_id":"cebpf4jnsgd1na2vs0mg"},{"bike_id":"266c3fb6-14f0-40b7-b9d6-d48d5de7bfc1","system_id":"levelo_inurba_marseille","lat":43.29276,"lon":5.36841,"is_reserved":false,"is_disabled":false,"rental_uris":{"android":"levelo://app?vid=266c3fb6-14f0-40b7-b9d6-d48d5de7bfc1","ios":"levelo://app?vid=266c3fb6-14f0-40b7-b9d6-d48d5de7bfc1"},"vehicle_type_id":"4","last_reported":1710781648,"current_range_meters":27200,"station_id":"ce4bhbp2rcd13ifvqesg","pricing_plan_id":"cebpf4jnsgd1na2vs0mg"},{"bike_id":"17d8bca4-93f1-4f20-8d1b-f1c7d21b6fbf","system_id":"levelo_inurba_marseille","lat":43.292749,"lon":5.368402,"is_reserved":false,"is_disabled":false,"rental_uris":{"android":"levelo://app?vid=17d8bca4-93f1-4f20-8d1b-f1c7d21b6fbf","ios":"levelo://app?vid=17d8bca4-93f1-4f20-8d1b-f1c7d21b6fbf"},"vehicle_type_id":"4","last_reported":1710781648,"current_range_meters":20800,"station_id":"ce4bhbp2rcd13ifvqesg","pricing_plan_id":"cebpf4jnsgd1na2vs0mg"},{"bike_id":"70bfcc0c-744e-416c-933f-cf2263f4d8f2","system_id":"levelo_inurba_marseille","lat":43.29275,"lon":5.36847,"is_reserved":false,"is_disabled":false,"rental_uris":{"android":"levelo://app?vid=70bfcc0c-744e-416c-933f-cf2263f4d8f2","ios":"levelo://app?vid=70bfcc0c-744e-416c-933f-cf2263f4d8f2"},"vehicle_type_id":"4","last_reported":1710781648,"current_range_meters":25200,"station_id":"ce4bhbp2rcd13ifvqesg","pricing_plan_id":"cebpf4jnsgd1na2vs0mg"},{"bike_id":"cae9bdf7-729c-44a9-8ef9-3df660b63134","system_id":"levelo_inurba_marseille","lat":43.292749,"lon":5.368402,"is_reserved":false,"is_disabled":false,"rental_uris":{"android":"levelo://app?vid=cae9bdf7-729c-44a9-8ef9-3df660b63134","ios":"levelo://app?vid=cae9bdf7-729c-44a9-8ef9-3df660b63134"},"vehicle_type_id":"4","last_reported":1710781648,"current_range_meters":22000,"station_id":"ce4bhbp2rcd13ifvqesg","pricing_plan_id":"cebpf4jnsgd1na2vs0mg"},{"bike_id":"a11f5980-3081-487d-8d1c-982e71c41164","system_id":"levelo_inurba_marseille","lat":43.29271,"lon":5.36839,"is_reserved":false,"is_disabled":false,"rental_uris":{"android":"levelo://app?vid=a11f5980-3081-487d-8d1c-982e71c41164","ios":"levelo://app?vid=a11f5980-3081-487d-8d1c-982e71c41164"},"vehicle_type_id":"4","last_reported":1710781648,"current_range_meters":20800,"station_id":"ce4bhbp2rcd13ifvqesg","pricing_plan_id":"cebpf4jnsgd1na2vs0mg"},{"bike_id":"f7df1fbb-ba7b-4cfc-b410-bf01f9cedcb4","system_id":"levelo_inurba_marseille","lat":43.29271,"lon":5.36841,"is_reserved":false,"is_disabled":false,"rental_uris":{"android":"levelo://app?vid=f7df1fbb-ba7b-4cfc-b410-bf01f9cedcb4","ios":"levelo://app?vid=f7df1fbb-ba7b-4cfc-b410-bf01f9cedcb4"},"vehicle_type_id":"4","last_reported":1710781648,"current_range_meters":13600,"station_id":"ce4bhbp2rcd13ifvqesg","pricing_plan_id":"cebpf4jnsgd1na2vs0mg"},{"bike_id":"46eafc49-b4f1-4776-b5e1-b6613c202593","system_id":"levelo_inurba_marseille","lat":43.2927,"lon":5.36839,"is_reserved":false,"is_disabled":false,"rental_uris":{"android":"levelo://app?vid=46eafc49-b4f1-4776-b5e1-b6613c202593","ios":"levelo://app?vid=46eafc49-b4f1-4776-b5e1-b6613c202593"},"vehicle_type_id":"4","last_reported":1710781648,"current_range_meters":0,"station_id":"ce4bhbp2rcd13ifvqesg","pricing_plan_id":"cebpf4jnsgd1na2vs0mg"},{"bike_id":"2f3d54b6-2609-4e47-9d7f-66027cf0053b","system_id":"levelo_inurba_marseille","lat":43.293112,"lon":5.374607,"is_reserved":false,"is_disabled":false,"rental_uris":{"android":"levelo://app?vid=2f3d54b6-2609-4e47-9d7f-66027cf0053b","ios":"levelo://app?vid=2f3d54b6-2609-4e47-9d7f-66027cf0053b"},"vehicle_type_id":"4","last_reported":1710781648,"current_range_meters":20800,"station_id":"ce4bgi12rcd13ifvqb70","pricing_plan_id":"cebpf4jnsgd1na2vs0mg"},{"bike_id":"c7c2d877-e44d-4e06-a4a1-2ad0a4c571f8","system_id":"levelo_inurba_marseille","lat":43.293,"lon":5.37443,"is_reserved":false,"is_disabled":false,"rental_uris":{"android":"levelo://app?vid=c7c2d877-e44d-4e06-a4a1-2ad0a4c571f8","ios":"levelo://app?vid=c7c2d877-e44d-4e06-a4a1-2ad0a4c571f8"},"vehicle_type_id":"4","last_reported":1710781648,"current_range_meters":0,"station_id":"ce4bgi12rcd13ifvqb70","pricing_plan_id":"cebpf4jnsgd1na2vs0mg"},{"bike_id":"ac5c9232-8f84-424e-8f82-dea6289ce909","system_id":"levelo_inurba_marseille","lat":43.29302,"lon":5.37492,"is_reserved":false,"is_disabled":false,"rental_uris":{"android":"levelo://app?vid=ac5c9232-8f84-424e-8f82-dea6289ce909","ios":"levelo://app?vid=ac5c9232-8f84-424e-8f82-dea6289ce909"},"vehicle_type_id":"4","last_reported":1710781648,"current_range_meters":21600,"station_id":"","pricing_plan_id":"cebpf4jnsgd1na2vs0mg"},{"bike_id":"b1a748f0-a1b6-4fdd-95a0-4839936baa9a","system_id":"levelo_inurba_marseille","lat":43.2936,"lon":5.37835,"is_reserved":false,"is_disabled":false,"rental_uris":{"android":"levelo://app?vid=b1a748f0-a1b6-4fdd-95a0-4839936baa9a","ios":"levelo://app?vid=b1a748f0-a1b6-4fdd-95a0-4839936baa9a"},"vehicle_type_id":"4","last_reported":1710781648,"current_range_meters":15600,"station_id":"ce4bgjh2rcd13ifvqbf0","pricing_plan_id":"cebpf4jnsgd1na2vs0mg"},{"bike_id":"df562d27-b0be-4f9d-a7a1-72cb18ae5184","system_id":"levelo_inurba_marseille","lat":43.298905,"lon":5.388541,"is_reserved":false,"is_disabled":false,"rental_uris":{"android":"levelo://app?vid=df562d27-b0be-4f9d-a7a1-72cb18ae5184","ios":"levelo://app?vid=df562d27-b0be-4f9d-a7a1-72cb18ae5184"},"vehicle_type_id":"4","last_reported":1710781648,"current_range_meters":25200,"station_id":"ce4bh392rcd13ifvqdl0","pricing_plan_id":"cebpf4jnsgd1na2vs0mg"},{"bike_id":"eebab1d1-546d-41d7-ac28-84bf68daafcd","system_id":"levelo_inurba_marseille","lat":43.2936,"lon":5.37835,"is_reserved":false,"is_disabled":false,"rental_uris":{"android":"levelo://app?vid=eebab1d1-546d-41d7-ac28-84bf68daafcd","ios":"levelo://app?vid=eebab1d1-546d-41d7-ac28-84bf68daafcd"},"vehicle_type_id":"4","last_reported":1710781648,"current_range_meters":11200,"station_id":"ce4bgjh2rcd13ifvqbf0","pricing_plan_id":"cebpf4jnsgd1na2vs0mg"},{"bike_id":"e5dbabdb-286d-4a55-b8f3-23ea7306a746","system_id":"levelo_inurba_marseille","lat":43.292311,"lon":5.360731,"is_reserved":false,"is_disabled":false,"rental_uris":{"android":"levelo://app?vid=e5dbabdb-286d-4a55-b8f3-23ea7306a746","ios":"levelo://app?vid=e5dbabdb-286d-4a55-b8f3-23ea7306a746"},"vehicle_type_id":"4","last_reported":1710781648,"current_range_meters":14400,"station_id":"ce4bhbh2rcd13ifvqeqg","pricing_plan_id":"cebpf4jnsgd1na2vs0mg"},{"bike_id":"3759d250-a8ba-4ee9-8b67-6f4abba1b04e","system_id":"levelo_inurba_marseille","lat":43.30085,"lon":5.390856,"is_reserved":false,"is_disabled":false,"rental_uris":{"android":"levelo://app?vid=3759d250-a8ba-4ee9-8b67-6f4abba1b04e","ios":"levelo://app?vid=3759d250-a8ba-4ee9-8b67-6f4abba1b04e"},"vehicle_type_id":"4","last_reported":1710781648,"current_range_meters":8400,"station_id":"ce4bh192rcd13ifvqdb0","pricing_plan_id":"cebpf4jnsgd1na2vs0mg"},{"bike_id":"339686d6-7f3a-4bd7-9420-72ed8eac7abf","system_id":"levelo_inurba_marseille","lat":43.292311,"lon":5.360731,"is_reserved":false,"is_disabled":false,"rental_uris":{"android":"levelo://app?vid=339686d6-7f3a-4bd7-9420-72ed8eac7abf","ios":"levelo://app?vid=339686d6-7f3a-4bd7-9420-72ed8eac7abf"},"vehicle_type_id":"4","last_reported":1710781648,"current_range_meters":9200,"station_id":"ce4bhbh2rcd13ifvqeqg","pricing_plan_id":"cebpf4jnsgd1na2vs0mg"},{"bike_id":"d5a6959b-4448-4a6d-8e7b-d1aae3cc9d80","system_id":"levelo_inurba_marseille","lat":43.292311,"lon":5.360731,"is_reserved":false,"is_disabled":false,"rental_uris":{"android":"levelo://app?vid=d5a6959b-4448-4a6d-8e7b-d1aae3cc9d80","ios":"levelo://app?vid=d5a6959b-4448-4a6d-8e7b-d1aae3cc9d80"},"vehicle_type_id":"4","last_reported":1710781648,"current_range_meters":19600,"station_id":"ce4bhbh2rcd13ifvqeqg","pricing_plan_id":"cebpf4jnsgd1na2vs0mg"},{"bike_id":"c9d19970-6f49-4a8c-9518-8bcef39939a6","system_id":"levelo_inurba_marseille","lat":43.292311,"lon":5.360731,"is_reserved":false,"is_disabled":false,"rental_uris":{"android":"levelo://app?vid=c9d19970-6f49-4a8c-9518-8bcef39939a6","ios":"levelo://app?vid=c9d19970-6f49-4a8c-9518-8bcef39939a6"},"vehicle_type_id":"4","last_reported":1710781648,"current_range_meters":12000,"station_id":"ce4bhbh2rcd13ifvqeqg","pricing_plan_id":"cebpf4jnsgd1na2vs0mg"},{"bike_id":"b8c7e9da-0c61-4136-8536-e53d665a7751","system_id":"levelo_inurba_marseille","lat":43.292311,"lon":5.360731,"is_reserved":false,"is_disabled":false,"rental_uris":{"android":"levelo://app?vid=b8c7e9da-0c61-4136-8536-e53d665a7751","ios":"levelo://app?vid=b8c7e9da-0c61-4136-8536-e53d665a7751"},"vehicle_type_id":"4","last_reported":1710781648,"current_range_meters":28000,"station_id":"ce4bhbh2rcd13ifvqeqg","pricing_plan_id":"cebpf4jnsgd1na2vs0mg"},{"bike_id":"82814b85-6fc4-4158-9949-7cdab0b9e065","system_id":"levelo_inurba_marseille","lat":43.292311,"lon":5.360731,"is_reserved":false,"is_disabled":false,"rental_uris":{"android":"levelo://app?vid=82814b85-6fc4-4158-9949-7cdab0b9e065","ios":"levelo://app?vid=82814b85-6fc4-4158-9949-7cdab0b9e065"},"vehicle_type_id":"4","last_reported":1710781648,"current_range_meters":23600,"station_id":"ce4bhbh2rcd13ifvqeqg","pricing_plan_id":"cebpf4jnsgd1na2vs0mg"},{"bike_id":"2d425ed6-f11c-4fc9-a21f-116f76af28cf","system_id":"levelo_inurba_marseille","lat":43.291675,"lon":5.371583,"is_reserved":false,"is_disabled":false,"rental_uris":{"android":"levelo://app?vid=2d425ed6-f11c-4fc9-a21f-116f76af28cf","ios":"levelo://app?vid=2d425ed6-f11c-4fc9-a21f-116f76af28cf"},"vehicle_type_id":"4","last_reported":1710781648,"current_range_meters":0,"station_id":"ce4bha92rcd13ifvqeh0","pricing_plan_id":"cebpf4jnsgd1na2vs0mg"},{"bike_id":"a246ce22-f766-4953-95bc-c12f4031ce73","system_id":"levelo_inurba_marseille","lat":43.291675,"lon":5.371583,"is_reserved":false,"is_disabled":false,"rental_uris":{"android":"levelo://app?vid=a246ce22-f766-4953-95bc-c12f4031ce73","ios":"levelo://app?vid=a246ce22-f766-4953-95bc-c12f4031ce73"},"vehicle_type_id":"4","last_reported":1710781648,"current_range_meters":0,"station_id":"ce4bha92rcd13ifvqeh0","pricing_plan_id":"cebpf4jnsgd1na2vs0mg"},{"bike_id":"4d31567b-75ef-48a8-acb0-a9810298479d","system_id":"levelo_inurba_marseille","lat":43.291675,"lon":5.371583,"is_reserved":false,"is_disabled":false,"rental_uris":{"android":"levelo://app?vid=4d31567b-75ef-48a8-acb0-a9810298479d","ios":"levelo://app?vid=4d31567b-75ef-48a8-acb0-a9810298479d"},"vehicle_type_id":"4","last_reported":1710781648,"current_range_meters":5200,"station_id":"ce4bha92rcd13ifvqeh0","pricing_plan_id":"cebpf4jnsgd1na2vs0mg"},{"bike_id":"3f5c7832-b95a-45bc-b6a5-f5a80dd27c98","system_id":"levelo_inurba_marseille","lat":43.291994,"lon":5.357886,"is_reserved":false,"is_disabled":false,"rental_uris":{"android":"levelo://app?vid=3f5c7832-b95a-45bc-b6a5-f5a80dd27c98","ios":"levelo://app?vid=3f5c7832-b95a-45bc-b6a5-f5a80dd27c98"},"vehicle_type_id":"4","last_reported":1710781648,"current_range_meters":0,"station_id":"ce4bhb12rcd13ifvqel0","pricing_plan_id":"cebpf4jnsgd1na2vs0mg"},{"bike_id":"4112e78b-a83b-4144-bf4b-846372bc7b46","system_id":"levelo_inurba_marseille","lat":43.29198,"lon":5.35805,"is_reserved":false,"is_disabled":false,"rental_uris":{"android":"levelo://app?vid=4112e78b-a83b-4144-bf4b-846372bc7b46","ios":"levelo://app?vid=4112e78b-a83b-4144-bf4b-846372bc7b46"},"vehicle_type_id":"4","last_reported":1710781648,"current_range_meters":0,"station_id":"ce4bhb12rcd13ifvqel0","pricing_plan_id":"cebpf4jnsgd1na2vs0mg"},{"bike_id":"c836026a-0b98-4aee-a594-9632934bc08d","system_id":"levelo_inurba_marseille","lat":43.291994,"lon":5.357886,"is_reserved":false,"is_disabled":false,"rental_uris":{"android":"levelo://app?vid=c836026a-0b98-4aee-a594-9632934bc08d","ios":"levelo://app?vid=c836026a-0b98-4aee-a594-9632934bc08d"},"vehicle_type_id":"4","last_reported":1710781648,"current_range_meters":1600,"station_id":"ce4bhb12rcd13ifvqel0","pricing_plan_id":"cebpf4jnsgd1na2vs0mg"},{"bike_id":"2f9a01dc-dd02-422f-81af-c1b6e1a7530d","system_id":"levelo_inurba_marseille","lat":43.291994,"lon":5.357886,"is_reserved":false,"is_disabled":false,"rental_uris":{"android":"levelo://app?vid=2f9a01dc-dd02-422f-81af-c1b6e1a7530d","ios":"levelo://app?vid=2f9a01dc-dd02-422f-81af-c1b6e1a7530d"},"vehicle_type_id":"4","last_reported":1710781648,"current_range_meters":25600,"station_id":"ce4bhb12rcd13ifvqel0","pricing_plan_id":"cebpf4jnsgd1na2vs0mg"},{"bike_id":"2b1f32aa-db72-4932-8311-3b3b7fee4003","system_id":"levelo_inurba_marseille","lat":43.29196,"lon":5.35803,"is_reserved":false,"is_disabled":false,"rental_uris":{"android":"levelo://app?vid=2b1f32aa-db72-4932-8311-3b3b7fee4003","ios":"levelo://app?vid=2b1f32aa-db72-4932-8311-3b3b7fee4003"},"vehicle_type_id":"4","last_reported":1710781648,"current_range_meters":19600,"station_id":"ce4bhb12rcd13ifvqel0","pricing_plan_id":"cebpf4jnsgd1na2vs0mg"},{"bike_id":"66a3a767-34bd-4a17-b384-69d17513dc35","system_id":"levelo_inurba_marseille","lat":43.30886,"lon":5.39637,"is_reserved":false,"is_disabled":false,"rental_uris":{"android":"levelo://app?vid=66a3a767-34bd-4a17-b384-69d17513dc35","ios":"levelo://app?vid=66a3a767-34bd-4a17-b384-69d17513dc35"},"vehicle_type_id":"4","last_reported":1710781648,"current_range_meters":22400,"station_id":"ce4bh012rcd13ifvqcv0","pricing_plan_id":"cebpf4jnsgd1na2vs0mg"},{"bike_id":"1a2dfd49-ed2d-42f1-ab06-bb1364c4bcc1","system_id":"levelo_inurba_marseille","lat":43.291941,"lon":5.358037,"is_reserved":false,"is_disabled":false,"rental_uris":{"android":"levelo://app?vid=1a2dfd49-ed2d-42f1-ab06-bb1364c4bcc1","ios":"levelo://app?vid=1a2dfd49-ed2d-42f1-ab06-bb1364c4bcc1"},"vehicle_type_id":"4","last_reported":1710781648,"current_range_meters":7600,"station_id":"","pricing_plan_id":"cebpf4jnsgd1na2vs0mg"},{"bike_id":"7c876872-d3e6-47a9-ad33-255387e8675b","system_id":"levelo_inurba_marseille","lat":43.29198,"lon":5.35785,"is_reserved":false,"is_disabled":false,"rental_uris":{"android":"levelo://app?vid=7c876872-d3e6-47a9-ad33-255387e8675b","ios":"levelo://app?vid=7c876872-d3e6-47a9-ad33-255387e8675b"},"vehicle_type_id":"4","last_reported":1710781648,"current_range_meters":21200,"station_id":"ce4bhb12rcd13ifvqel0","pricing_plan_id":"cebpf4jnsgd1na2vs0mg"},{"bike_id":"26d924f0-8e0f-4225-a12a-507395dcbefe","system_id":"levelo_inurba_marseille","lat":43.29196,"lon":5.35791,"is_reserved":false,"is_disabled":false,"rental_uris":{"android":"levelo://app?vid=26d924f0-8e0f-4225-a12a-507395dcbefe","ios":"levelo://app?vid=26d924f0-8e0f-4225-a12a-507395dcbefe"},"vehicle_type_id":"4","last_reported":1710781648,"current_range_meters":24400,"station_id":"ce4bhb12rcd13ifvqel0","pricing_plan_id":"cebpf4jnsgd1na2vs0mg"},{"bike_id":"617b0e6f-676e-40f0-bbaf-c9395e5b4dcd","system_id":"levelo_inurba_marseille","lat":43.313291,"lon":5.396838,"is_reserved":false,"is_disabled":false,"rental_uris":{"android":"levelo://app?vid=617b0e6f-676e-40f0-bbaf-c9395e5b4dcd","ios":"levelo://app?vid=617b0e6f-676e-40f0-bbaf-c9395e5b4dcd"},"vehicle_type_id":"4","last_reported":1710781648,"current_range_meters":28400,"station_id":"ce4bgvp2rcd13ifvqcu0","pricing_plan_id":"cebpf4jnsgd1na2vs0mg"},{"bike_id":"fb7e8533-f83c-4c37-a8dc-ced3670aaa92","system_id":"levelo_inurba_marseille","lat":43.3089,"lon":5.39643,"is_reserved":false,"is_disabled":false,"rental_uris":{"android":"levelo://app?vid=fb7e8533-f83c-4c37-a8dc-ced3670aaa92","ios":"levelo://app?vid=fb7e8533-f83c-4c37-a8dc-ced3670aaa92"},"vehicle_type_id":"4","last_reported":1710781648,"current_range_meters":25200,"station_id":"ce4bh012rcd13ifvqcv0","pricing_plan_id":"cebpf4jnsgd1na2vs0mg"},{"bike_id":"e387f748-8d07-4467-9c18-092d593de14a","system_id":"levelo_inurba_marseille","lat":43.313291,"lon":5.396838,"is_reserved":false,"is_disabled":false,"rental_uris":{"android":"levelo://app?vid=e387f748-8d07-4467-9c18-092d593de14a","ios":"levelo://app?vid=e387f748-8d07-4467-9c18-092d593de14a"},"vehicle_type_id":"4","last_reported":1710781648,"current_range_meters":30400,"station_id":"ce4bgvp2rcd13ifvqcu0","pricing_plan_id":"cebpf4jnsgd1na2vs0mg"},{"bike_id":"8d4993f6-f789-4205-b463-568640c700a4","system_id":"levelo_inurba_marseille","lat":43.291994,"lon":5.357886,"is_reserved":false,"is_disabled":false,"rental_uris":{"android":"levelo://app?vid=8d4993f6-f789-4205-b463-568640c700a4","ios":"levelo://app?vid=8d4993f6-f789-4205-b463-568640c700a4"},"vehicle_type_id":"4","last_reported":1710781648,"current_range_meters":23200,"station_id":"ce4bhb12rcd13ifvqel0","pricing_plan_id":"cebpf4jnsgd1na2vs0mg"},{"bike_id":"b0fd7457-162a-4f59-bc93-7818c2aa5c43","system_id":"levelo_inurba_marseille","lat":43.313291,"lon":5.396838,"is_reserved":false,"is_disabled":false,"rental_uris":{"android":"levelo://app?vid=b0fd7457-162a-4f59-bc93-7818c2aa5c43","ios":"levelo://app?vid=b0fd7457-162a-4f59-bc93-7818c2aa5c43"},"vehicle_type_id":"4","last_reported":1710781648,"current_range_meters":19200,"station_id":"ce4bgvp2rcd13ifvqcu0","pricing_plan_id":"cebpf4jnsgd1na2vs0mg"},{"bike_id":"aadf9756-2172-4fa9-b5f9-044cad6fc6e1","system_id":"levelo_inurba_marseille","lat":43.313291,"lon":5.396838,"is_reserved":false,"is_disabled":false,"rental_uris":{"android":"levelo://app?vid=aadf9756-2172-4fa9-b5f9-044cad6fc6e1","ios":"levelo://app?vid=aadf9756-2172-4fa9-b5f9-044cad6fc6e1"},"vehicle_type_id":"4","last_reported":1710781648,"current_range_meters":400,"station_id":"ce4bgvp2rcd13ifvqcu0","pricing_plan_id":"cebpf4jnsgd1na2vs0mg"},{"bike_id":"baf70c3a-b47d-4608-b1b1-50ad62d22bff","system_id":"levelo_inurba_marseille","lat":43.313291,"lon":5.396838,"is_reserved":false,"is_disabled":false,"rental_uris":{"android":"levelo://app?vid=baf70c3a-b47d-4608-b1b1-50ad62d22bff","ios":"levelo://app?vid=baf70c3a-b47d-4608-b1b1-50ad62d22bff"},"vehicle_type_id":"4","last_reported":1710781648,"current_range_meters":31200,"station_id":"ce4bgvp2rcd13ifvqcu0","pricing_plan_id":"cebpf4jnsgd1na2vs0mg"},{"bike_id":"d458832d-30a0-421f-9a7c-1d244c400f80","system_id":"levelo_inurba_marseille","lat":43.309038,"lon":5.396546,"is_reserved":false,"is_disabled":false,"rental_uris":{"android":"levelo://app?vid=d458832d-30a0-421f-9a7c-1d244c400f80","ios":"levelo://app?vid=d458832d-30a0-421f-9a7c-1d244c400f80"},"vehicle_type_id":"4","last_reported":1710781648,"current_range_meters":28400,"station_id":"ce4bh012rcd13ifvqcv0","pricing_plan_id":"cebpf4jnsgd1na2vs0mg"},{"bike_id":"4e82e8b3-e400-45e2-9bff-fe38ba01a722","system_id":"levelo_inurba_marseille","lat":43.313291,"lon":5.396838,"is_reserved":false,"is_disabled":false,"rental_uris":{"android":"levelo://app?vid=4e82e8b3-e400-45e2-9bff-fe38ba01a722","ios":"levelo://app?vid=4e82e8b3-e400-45e2-9bff-fe38ba01a722"},"vehicle_type_id":"4","last_reported":1710781648,"current_range_meters":25200,"station_id":"ce4bgvp2rcd13ifvqcu0","pricing_plan_id":"cebpf4jnsgd1na2vs0mg"},{"bike_id":"fd327592-bcf3-43bf-9594-86c819354f99","system_id":"levelo_inurba_marseille","lat":43.313291,"lon":5.396838,"is_reserved":false,"is_disabled":false,"rental_uris":{"android":"levelo://app?vid=fd327592-bcf3-43bf-9594-86c819354f99","ios":"levelo://app?vid=fd327592-bcf3-43bf-9594-86c819354f99"},"vehicle_type_id":"4","last_reported":1710781648,"current_range_meters":30000,"station_id":"ce4bgvp2rcd13ifvqcu0","pricing_plan_id":"cebpf4jnsgd1na2vs0mg"},{"bike_id":"88f8c006-3663-43ee-a7c3-5ec8a5d44b37","system_id":"levelo_inurba_marseille","lat":43.313291,"lon":5.396838,"is_reserved":false,"is_disabled":false,"rental_uris":{"android":"levelo://app?vid=88f8c006-3663-43ee-a7c3-5ec8a5d44b37","ios":"levelo://app?vid=88f8c006-3663-43ee-a7c3-5ec8a5d44b37"},"vehicle_type_id":"4","last_reported":1710781648,"current_range_meters":16800,"station_id":"ce4bgvp2rcd13ifvqcu0","pricing_plan_id":"cebpf4jnsgd1na2vs0mg"},{"bike_id":"e0071a95-9b08-4f3b-a175-c864d504e093","system_id":"levelo_inurba_marseille","lat":43.291994,"lon":5.357886,"is_reserved":false,"is_disabled":false,"rental_uris":{"android":"levelo://app?vid=e0071a95-9b08-4f3b-a175-c864d504e093","ios":"levelo://app?vid=e0071a95-9b08-4f3b-a175-c864d504e093"},"vehicle_type_id":"4","last_reported":1710781648,"current_range_meters":2000,"station_id":"ce4bhb12rcd13ifvqel0","pricing_plan_id":"cebpf4jnsgd1na2vs0mg"},{"bike_id":"011853d6-7f70-47d5-b663-52cb0e351ae4","system_id":"levelo_inurba_marseille","lat":43.313291,"lon":5.396838,"is_reserved":false,"is_disabled":false,"rental_uris":{"android":"levelo://app?vid=011853d6-7f70-47d5-b663-52cb0e351ae4","ios":"levelo://app?vid=011853d6-7f70-47d5-b663-52cb0e351ae4"},"vehicle_type_id":"4","last_reported":1710781648,"current_range_meters":28800,"station_id":"ce4bgvp2rcd13ifvqcu0","pricing_plan_id":"cebpf4jnsgd1na2vs0mg"},{"bike_id":"68f4ec78-6cea-485c-a7f0-f742113abab5","system_id":"levelo_inurba_marseille","lat":43.313291,"lon":5.396838,"is_reserved":false,"is_disabled":false,"rental_uris":{"android":"levelo://app?vid=68f4ec78-6cea-485c-a7f0-f742113abab5","ios":"levelo://app?vid=68f4ec78-6cea-485c-a7f0-f742113abab5"},"vehicle_type_id":"4","last_reported":1710781648,"current_range_meters":32000,"station_id":"ce4bgvp2rcd13ifvqcu0","pricing_plan_id":"cebpf4jnsgd1na2vs0mg"},{"bike_id":"3496769f-6e41-4e83-b016-de33cbcfbf92","system_id":"levelo_inurba_marseille","lat":43.29189,"lon":5.35792,"is_reserved":false,"is_disabled":false,"rental_uris":{"android":"levelo://app?vid=3496769f-6e41-4e83-b016-de33cbcfbf92","ios":"levelo://app?vid=3496769f-6e41-4e83-b016-de33cbcfbf92"},"vehicle_type_id":"4","last_reported":1710781648,"current_range_meters":4800,"station_id":"ce4bhb12rcd13ifvqel0","pricing_plan_id":"cebpf4jnsgd1na2vs0mg"},{"bike_id":"5e84aace-d6e2-4b8e-a64a-6d2f2b35a36c","system_id":"levelo_inurba_marseille","lat":43.313291,"lon":5.396838,"is_reserved":false,"is_disabled":false,"rental_uris":{"android":"levelo://app?vid=5e84aace-d6e2-4b8e-a64a-6d2f2b35a36c","ios":"levelo://app?vid=5e84aace-d6e2-4b8e-a64a-6d2f2b35a36c"},"vehicle_type_id":"4","last_reported":1710781648,"current_range_meters":21600,"station_id":"ce4bgvp2rcd13ifvqcu0","pricing_plan_id":"cebpf4jnsgd1na2vs0mg"},{"bike_id":"9ec8d88c-f7d2-49ab-a3b9-3802e86b818a","system_id":"levelo_inurba_marseille","lat":43.29188,"lon":5.35793,"is_reserved":false,"is_disabled":false,"rental_uris":{"android":"levelo://app?vid=9ec8d88c-f7d2-49ab-a3b9-3802e86b818a","ios":"levelo://app?vid=9ec8d88c-f7d2-49ab-a3b9-3802e86b818a"},"vehicle_type_id":"4","last_reported":1710781648,"current_range_meters":24400,"station_id":"ce4bhb12rcd13ifvqel0","pricing_plan_id":"cebpf4jnsgd1na2vs0mg"},{"bike_id":"c21906cf-8902-4488-b758-83636e90fcf5","system_id":"levelo_inurba_marseille","lat":43.291887,"lon":5.3579,"is_reserved":false,"is_disabled":false,"rental_uris":{"android":"levelo://app?vid=c21906cf-8902-4488-b758-83636e90fcf5","ios":"levelo://app?vid=c21906cf-8902-4488-b758-83636e90fcf5"},"vehicle_type_id":"4","last_reported":1710781648,"current_range_meters":18800,"station_id":"ce4bhb12rcd13ifvqel0","pricing_plan_id":"cebpf4jnsgd1na2vs0mg"},{"bike_id":"6099a66f-a244-4289-9215-0481464c4177","system_id":"levelo_inurba_marseille","lat":43.309038,"lon":5.396546,"is_reserved":false,"is_disabled":false,"rental_uris":{"android":"levelo://app?vid=6099a66f-a244-4289-9215-0481464c4177","ios":"levelo://app?vid=6099a66f-a244-4289-9215-0481464c4177"},"vehicle_type_id":"4","last_reported":1710781648,"current_range_meters":8400,"station_id":"ce4bh012rcd13ifvqcv0","pricing_plan_id":"cebpf4jnsgd1na2vs0mg"},{"bike_id":"de0ab206-4093-43e4-8831-dce363afb90d","system_id":"levelo_inurba_marseille","lat":43.309038,"lon":5.396546,"is_reserved":false,"is_disabled":false,"rental_uris":{"android":"levelo://app?vid=de0ab206-4093-43e4-8831-dce363afb90d","ios":"levelo://app?vid=de0ab206-4093-43e4-8831-dce363afb90d"},"vehicle_type_id":"4","last_reported":1710781648,"current_range_meters":18800,"station_id":"ce4bh012rcd13ifvqcv0","pricing_plan_id":"cebpf4jnsgd1na2vs0mg"},{"bike_id":"e9cfe8a9-df39-4c1b-bba7-57d17ef7ac37","system_id":"levelo_inurba_marseille","lat":43.291855,"lon":5.358005,"is_reserved":false,"is_disabled":false,"rental_uris":{"android":"levelo://app?vid=e9cfe8a9-df39-4c1b-bba7-57d17ef7ac37","ios":"levelo://app?vid=e9cfe8a9-df39-4c1b-bba7-57d17ef7ac37"},"vehicle_type_id":"4","last_reported":1710781648,"current_range_meters":16400,"station_id":"ce4bhb12rcd13ifvqel0","pricing_plan_id":"cebpf4jnsgd1na2vs0mg"},{"bike_id":"79e42e1d-9acd-4d4e-ba1c-7bfd8c3cdfa8","system_id":"levelo_inurba_marseille","lat":43.313291,"lon":5.396838,"is_reserved":false,"is_disabled":false,"rental_uris":{"android":"levelo://app?vid=79e42e1d-9acd-4d4e-ba1c-7bfd8c3cdfa8","ios":"levelo://app?vid=79e42e1d-9acd-4d4e-ba1c-7bfd8c3cdfa8"},"vehicle_type_id":"4","last_reported":1710781648,"current_range_meters":11600,"station_id":"ce4bgvp2rcd13ifvqcu0","pricing_plan_id":"cebpf4jnsgd1na2vs0mg"},{"bike_id":"e514d082-f1fa-4ffb-bcc5-2cbfd6006902","system_id":"levelo_inurba_marseille","lat":43.291994,"lon":5.357886,"is_reserved":false,"is_disabled":false,"rental_uris":{"android":"levelo://app?vid=e514d082-f1fa-4ffb-bcc5-2cbfd6006902","ios":"levelo://app?vid=e514d082-f1fa-4ffb-bcc5-2cbfd6006902"},"vehicle_type_id":"4","last_reported":1710781648,"current_range_meters":800,"station_id":"ce4bhb12rcd13ifvqel0","pricing_plan_id":"cebpf4jnsgd1na2vs0mg"},{"bike_id":"7cc1d042-4f28-4062-a8f9-6372809f45e8","system_id":"levelo_inurba_marseille","lat":43.309038,"lon":5.396546,"is_reserved":false,"is_disabled":false,"rental_uris":{"android":"levelo://app?vid=7cc1d042-4f28-4062-a8f9-6372809f45e8","ios":"levelo://app?vid=7cc1d042-4f28-4062-a8f9-6372809f45e8"},"vehicle_type_id":"4","last_reported":1710781648,"current_range_meters":0,"station_id":"ce4bh012rcd13ifvqcv0","pricing_plan_id":"cebpf4jnsgd1na2vs0mg"},{"bike_id":"5b390528-7f47-4c0f-afa0-f39bfee62fd6","system_id":"levelo_inurba_marseille","lat":43.3088,"lon":5.39651,"is_reserved":false,"is_disabled":false,"rental_uris":{"android":"levelo://app?vid=5b390528-7f47-4c0f-afa0-f39bfee62fd6","ios":"levelo://app?vid=5b390528-7f47-4c0f-afa0-f39bfee62fd6"},"vehicle_type_id":"4","last_reported":1710781648,"current_range_meters":7200,"station_id":"ce4bh012rcd13ifvqcv0","pricing_plan_id":"cebpf4jnsgd1na2vs0mg"},{"bike_id":"432ad8e0-4cdf-4dc1-9b98-2a981022aa28","system_id":"levelo_inurba_marseille","lat":43.29187,"lon":5.35787,"is_reserved":false,"is_disabled":false,"rental_uris":{"android":"levelo://app?vid=432ad8e0-4cdf-4dc1-9b98-2a981022aa28","ios":"levelo://app?vid=432ad8e0-4cdf-4dc1-9b98-2a981022aa28"},"vehicle_type_id":"4","last_reported":1710781648,"current_range_meters":24000,"station_id":"ce4bhb12rcd13ifvqel0","pricing_plan_id":"cebpf4jnsgd1na2vs0mg"},{"bike_id":"7a0e5d91-b7b3-4da4-8242-bf07992520f8","system_id":"levelo_inurba_marseille","lat":43.30888,"lon":5.39654,"is_reserved":false,"is_disabled":false,"rental_uris":{"android":"levelo://app?vid=7a0e5d91-b7b3-4da4-8242-bf07992520f8","ios":"levelo://app?vid=7a0e5d91-b7b3-4da4-8242-bf07992520f8"},"vehicle_type_id":"4","last_reported":1710781648,"current_range_meters":18800,"station_id":"ce4bh012rcd13ifvqcv0","pricing_plan_id":"cebpf4jnsgd1na2vs0mg"},{"bike_id":"55605c64-12d8-4f41-ac97-1ea64e3af0cf","system_id":"levelo_inurba_marseille","lat":43.309038,"lon":5.396546,"is_reserved":false,"is_disabled":false,"rental_uris":{"android":"levelo://app?vid=55605c64-12d8-4f41-ac97-1ea64e3af0cf","ios":"levelo://app?vid=55605c64-12d8-4f41-ac97-1ea64e3af0cf"},"vehicle_type_id":"4","last_reported":1710781648,"current_range_meters":16800,"station_id":"ce4bh012rcd13ifvqcv0","pricing_plan_id":"cebpf4jnsgd1na2vs0mg"},{"bike_id":"9154f80e-e813-4231-8568-c60e450860ee","system_id":"levelo_inurba_marseille","lat":43.30817,"lon":5.39639,"is_reserved":false,"is_disabled":false,"rental_uris":{"android":"levelo://app?vid=9154f80e-e813-4231-8568-c60e450860ee","ios":"levelo://app?vid=9154f80e-e813-4231-8568-c60e450860ee"},"vehicle_type_id":"4","last_reported":1710781648,"current_range_meters":6000,"station_id":"ce4bh012rcd13ifvqcv0","pricing_plan_id":"cebpf4jnsgd1na2vs0mg"},{"bike_id":"1a32f8da-993c-410f-a2cf-5a87569f04eb","system_id":"levelo_inurba_marseille","lat":43.29534,"lon":5.38547,"is_reserved":false,"is_disabled":false,"rental_uris":{"android":"levelo://app?vid=1a32f8da-993c-410f-a2cf-5a87569f04eb","ios":"levelo://app?vid=1a32f8da-993c-410f-a2cf-5a87569f04eb"},"vehicle_type_id":"4","last_reported":1710781648,"current_range_meters":400,"station_id":"ce4bgih2rcd13ifvqba0","pricing_plan_id":"cebpf4jnsgd1na2vs0mg"},{"bike_id":"81cf7ca7-1f5a-4b6b-8ca7-93426b8873c6","system_id":"levelo_inurba_marseille","lat":43.295373,"lon":5.38553,"is_reserved":false,"is_disabled":false,"rental_uris":{"android":"levelo://app?vid=81cf7ca7-1f5a-4b6b-8ca7-93426b8873c6","ios":"levelo://app?vid=81cf7ca7-1f5a-4b6b-8ca7-93426b8873c6"},"vehicle_type_id":"4","last_reported":1710781648,"current_range_meters":7200,"station_id":"ce4bgih2rcd13ifvqba0","pricing_plan_id":"cebpf4jnsgd1na2vs0mg"},{"bike_id":"25949510-e785-4c2a-973d-03105ef12109","system_id":"levelo_inurba_marseille","lat":43.29529,"lon":5.385581,"is_reserved":false,"is_disabled":false,"rental_uris":{"android":"levelo://app?vid=25949510-e785-4c2a-973d-03105ef12109","ios":"levelo://app?vid=25949510-e785-4c2a-973d-03105ef12109"},"vehicle_type_id":"4","last_reported":1710781648,"current_range_meters":6800,"station_id":"ce4bgih2rcd13ifvqba0","pricing_plan_id":"cebpf4jnsgd1na2vs0mg"},{"bike_id":"55793d3d-1a78-4277-9cdf-dcd01651422d","system_id":"levelo_inurba_marseille","lat":43.290779,"lon":5.371482,"is_reserved":false,"is_disabled":false,"rental_uris":{"android":"levelo://app?vid=55793d3d-1a78-4277-9cdf-dcd01651422d","ios":"levelo://app?vid=55793d3d-1a78-4277-9cdf-dcd01651422d"},"vehicle_type_id":"4","last_reported":1710781648,"current_range_meters":18800,"station_id":"ce4bh5p2rcd13ifvqe4g","pricing_plan_id":"cebpf4jnsgd1na2vs0mg"},{"bike_id":"1ebe28d8-30dd-41b6-87f7-489ac6d98883","system_id":"levelo_inurba_marseille","lat":43.291419,"lon":5.355984,"is_reserved":false,"is_disabled":false,"rental_uris":{"android":"levelo://app?vid=1ebe28d8-30dd-41b6-87f7-489ac6d98883","ios":"levelo://app?vid=1ebe28d8-30dd-41b6-87f7-489ac6d98883"},"vehicle_type_id":"4","last_reported":1710781648,"current_range_meters":24400,"station_id":"","pricing_plan_id":"cebpf4jnsgd1na2vs0mg"},{"bike_id":"d4e426d8-67ff-4e79-b69a-aadd75db6c63","system_id":"levelo_inurba_marseille","lat":43.290624,"lon":5.359245,"is_reserved":false,"is_disabled":false,"rental_uris":{"android":"levelo://app?vid=d4e426d8-67ff-4e79-b69a-aadd75db6c63","ios":"levelo://app?vid=d4e426d8-67ff-4e79-b69a-aadd75db6c63"},"vehicle_type_id":"4","last_reported":1710781648,"current_range_meters":14800,"station_id":"ce4bha92rcd13ifvqeg0","pricing_plan_id":"cebpf4jnsgd1na2vs0mg"},{"bike_id":"2ce69395-2420-47b5-a732-8733cce92ace","system_id":"levelo_inurba_marseille","lat":43.29,"lon":5.37134,"is_reserved":false,"is_disabled":false,"rental_uris":{"android":"levelo://app?vid=2ce69395-2420-47b5-a732-8733cce92ace","ios":"levelo://app?vid=2ce69395-2420-47b5-a732-8733cce92ace"},"vehicle_type_id":"4","last_reported":1710781648,"current_range_meters":0,"station_id":"","pricing_plan_id":"cebpf4jnsgd1na2vs0mg"},{"bike_id":"36d05eb1-d4a2-4485-a809-182a7936ea56","system_id":"levelo_inurba_marseille","lat":43.290624,"lon":5.359245,"is_reserved":false,"is_disabled":false,"rental_uris":{"android":"levelo://app?vid=36d05eb1-d4a2-4485-a809-182a7936ea56","ios":"levelo://app?vid=36d05eb1-d4a2-4485-a809-182a7936ea56"},"vehicle_type_id":"4","last_reported":1710781648,"current_range_meters":27600,"station_id":"ce4bha92rcd13ifvqeg0","pricing_plan_id":"cebpf4jnsgd1na2vs0mg"},{"bike_id":"2a2b2bf6-d501-44e9-9b83-20bf5b0213c2","system_id":"levelo_inurba_marseille","lat":43.29033,"lon":5.359332,"is_reserved":false,"is_disabled":false,"rental_uris":{"android":"levelo://app?vid=2a2b2bf6-d501-44e9-9b83-20bf5b0213c2","ios":"levelo://app?vid=2a2b2bf6-d501-44e9-9b83-20bf5b0213c2"},"vehicle_type_id":"4","last_reported":1710781648,"current_range_meters":7200,"station_id":"ce4bha92rcd13ifvqeg0","pricing_plan_id":"cebpf4jnsgd1na2vs0mg"},{"bike_id":"6f667aea-0d53-49b7-bf1a-b2474604cc82","system_id":"levelo_inurba_marseille","lat":43.294153,"lon":5.386305,"is_reserved":false,"is_disabled":false,"rental_uris":{"android":"levelo://app?vid=6f667aea-0d53-49b7-bf1a-b2474604cc82","ios":"levelo://app?vid=6f667aea-0d53-49b7-bf1a-b2474604cc82"},"vehicle_type_id":"4","last_reported":1710781648,"current_range_meters":0,"station_id":"ce4bh2h2rcd13ifvqdh0","pricing_plan_id":"cebpf4jnsgd1na2vs0mg"},{"bike_id":"0c173bbf-cbeb-4dd6-8ff8-dedde1127937","system_id":"levelo_inurba_marseille","lat":43.294153,"lon":5.386305,"is_reserved":false,"is_disabled":false,"rental_uris":{"android":"levelo://app?vid=0c173bbf-cbeb-4dd6-8ff8-dedde1127937","ios":"levelo://app?vid=0c173bbf-cbeb-4dd6-8ff8-dedde1127937"},"vehicle_type_id":"4","last_reported":1710781648,"current_range_meters":22400,"station_id":"ce4bh2h2rcd13ifvqdh0","pricing_plan_id":"cebpf4jnsgd1na2vs0mg"},{"bike_id":"26c1699d-ce5e-4eca-94e0-b209a63d1a87","system_id":"levelo_inurba_marseille","lat":43.294153,"lon":5.386305,"is_reserved":false,"is_disabled":false,"rental_uris":{"android":"levelo://app?vid=26c1699d-ce5e-4eca-94e0-b209a63d1a87","ios":"levelo://app?vid=26c1699d-ce5e-4eca-94e0-b209a63d1a87"},"vehicle_type_id":"4","last_reported":1710781648,"current_range_meters":14400,"station_id":"ce4bh2h2rcd13ifvqdh0","pricing_plan_id":"cebpf4jnsgd1na2vs0mg"},{"bike_id":"2f83bacb-8fc1-484e-8395-d61217018928","system_id":"levelo_inurba_marseille","lat":43.294153,"lon":5.386305,"is_reserved":false,"is_disabled":false,"rental_uris":{"android":"levelo://app?vid=2f83bacb-8fc1-484e-8395-d61217018928","ios":"levelo://app?vid=2f83bacb-8fc1-484e-8395-d61217018928"},"vehicle_type_id":"4","last_reported":1710781648,"current_range_meters":800,"station_id":"ce4bh2h2rcd13ifvqdh0","pricing_plan_id":"cebpf4jnsgd1na2vs0mg"},{"bike_id":"04629a3b-8cb8-43d3-9186-4f7fe37b9122","system_id":"levelo_inurba_marseille","lat":43.294153,"lon":5.386305,"is_reserved":false,"is_disabled":false,"rental_uris":{"android":"levelo://app?vid=04629a3b-8cb8-43d3-9186-4f7fe37b9122","ios":"levelo://app?vid=04629a3b-8cb8-43d3-9186-4f7fe37b9122"},"vehicle_type_id":"4","last_reported":1710781648,"current_range_meters":9200,"station_id":"ce4bh2h2rcd13ifvqdh0","pricing_plan_id":"cebpf4jnsgd1na2vs0mg"},{"bike_id":"395333df-2e83-438f-acc4-524e56cbe421","system_id":"levelo_inurba_marseille","lat":43.294162,"lon":5.386292,"is_reserved":false,"is_disabled":false,"rental_uris":{"android":"levelo://app?vid=395333df-2e83-438f-acc4-524e56cbe421","ios":"levelo://app?vid=395333df-2e83-438f-acc4-524e56cbe421"},"vehicle_type_id":"4","last_reported":1710781648,"current_range_meters":800,"station_id":"ce4bh2h2rcd13ifvqdh0","pricing_plan_id":"cebpf4jnsgd1na2vs0mg"},{"bike_id":"6f6b115b-d3df-497e-8549-3a9d4c5e7694","system_id":"levelo_inurba_marseille","lat":43.294153,"lon":5.386305,"is_reserved":false,"is_disabled":false,"rental_uris":{"android":"levelo://app?vid=6f6b115b-d3df-497e-8549-3a9d4c5e7694","ios":"levelo://app?vid=6f6b115b-d3df-497e-8549-3a9d4c5e7694"},"vehicle_type_id":"4","last_reported":1710781648,"current_range_meters":0,"station_id":"ce4bh2h2rcd13ifvqdh0","pricing_plan_id":"cebpf4jnsgd1na2vs0mg"},{"bike_id":"04681f0d-d430-4146-ba97-7237dc697f3d","system_id":"levelo_inurba_marseille","lat":43.289184,"lon":5.366408,"is_reserved":false,"is_disabled":false,"rental_uris":{"android":"levelo://app?vid=04681f0d-d430-4146-ba97-7237dc697f3d","ios":"levelo://app?vid=04681f0d-d430-4146-ba97-7237dc697f3d"},"vehicle_type_id":"4","last_reported":1710781648,"current_range_meters":22400,"station_id":"ce4bhap2rcd13ifvqek0","pricing_plan_id":"cebpf4jnsgd1na2vs0mg"},{"bike_id":"9b574f48-16a3-4d09-84e5-1cd4bc5f7c42","system_id":"levelo_inurba_marseille","lat":43.294153,"lon":5.386305,"is_reserved":false,"is_disabled":false,"rental_uris":{"android":"levelo://app?vid=9b574f48-16a3-4d09-84e5-1cd4bc5f7c42","ios":"levelo://app?vid=9b574f48-16a3-4d09-84e5-1cd4bc5f7c42"},"vehicle_type_id":"4","last_reported":1710781648,"current_range_meters":16800,"station_id":"ce4bh2h2rcd13ifvqdh0","pricing_plan_id":"cebpf4jnsgd1na2vs0mg"},{"bike_id":"2856136e-bd48-4aaf-b6f5-07736a46b537","system_id":"levelo_inurba_marseille","lat":43.294152,"lon":5.386386,"is_reserved":false,"is_disabled":false,"rental_uris":{"android":"levelo://app?vid=2856136e-bd48-4aaf-b6f5-07736a46b537","ios":"levelo://app?vid=2856136e-bd48-4aaf-b6f5-07736a46b537"},"vehicle_type_id":"4","last_reported":1710781648,"current_range_meters":2400,"station_id":"ce4bh2h2rcd13ifvqdh0","pricing_plan_id":"cebpf4jnsgd1na2vs0mg"},{"bike_id":"6171cb72-b35a-4aec-9b09-ade078565b1a","system_id":"levelo_inurba_marseille","lat":43.289468,"lon":5.363719,"is_reserved":false,"is_disabled":false,"rental_uris":{"android":"levelo://app?vid=6171cb72-b35a-4aec-9b09-ade078565b1a","ios":"levelo://app?vid=6171cb72-b35a-4aec-9b09-ade078565b1a"},"vehicle_type_id":"4","last_reported":1710781648,"current_range_meters":22400,"station_id":"ce4bhc92rcd13ifvqetg","pricing_plan_id":"cebpf4jnsgd1na2vs0mg"},