{"last_updated":1740236877,"ttl":60,"version":"2.2","data":{"bikes":[{"bike_id":"20485787-7c2d-47e6-a680-7059f0a20ecf","system_id":"levelo_inurba_marseille","lat":43.24172,"lon":5.39704,"is_reserved":false,"is_disabled":false,"rental_uris":{"android":"levelo://app?vid=20485787-7c2d-47e6-a680-7059f0a20ecf","ios":"levelo://app?vid=20485787-7c2d-47e6-a680-7059f0a20ecf"},"vehicle_type_id":"4","last_reported":1740236877,"current_range_meters":2800,"station_id":"ce4bhn12rcd13ifvqgpg","pricing_plan_id":"cebpf4jnsgd1na2vs0mg"},{"bike_id":"2d203d3b-b9be-4543-95f1-da2e41576b3b","system_id":"levelo_inurba_marseille","lat":43.29517,"lon":5.37502,"is_reserved":false,"is_disabled":false,"rental_uris":{"android":"levelo://app?vid=2d203d3b-b9be-4543-95f1-da2e41576b3b","ios":"levelo://app?vid=2d203d3b-b9be-4543-95f1-da2e41576b3b"},"vehicle_type_id":"4","last_reported":1740236877,"current_range_meters":2800,"station_id":"ce4bgkp2rcd13ifvqbmg","pricing_plan_id":"cebpf4jnsgd1na2vs0mg"},{"bike_id":"9c46b776-3bd9-4b3e-a0c2-edf59506265e","system_id":"levelo_inurba_marseille","lat":43.299103,"lon":5.38141,"is_reserved":false,"is_disabled":false,"rental_uris":{"android":"levelo://app?vid=9c46b776-3bd9-4b3e-a0c2-edf59506265e","ios":"levelo://app?vid=9c46b776-3bd9-4b3e-a0c2-edf59506265e"},"vehicle_type_id":"4","last_reported":1740236877,"current_range_meters":2800,"station_id":"ce4bh2h2rcd13ifvqdh0","pricing_plan_id":"cebpf4jnsgd1na2vs0mg"},{"bike_id":"88ee9b70-2b45-48e1-ac4f-b1b43153d2b0","system_id":"levelo_inurba_marseille","lat":43.22928,"lon":5.35387,"is_reserved":false,"is_disabled":false,"rental_uris":{"android":"levelo://app?vid=88ee9b70-2b45-48e1-ac4f-b1b43153d2b0","ios":"levelo://app?vid=88ee9b70-2b45-48e1-ac4f-b1b43153d2b0"},"vehicle_type_id":"4","last_reported":1740236877,"current_range_meters":2800,"station_id":"cpo3532slgdg3j2ikp40","pricing_plan_id":"cebpf4jnsgd1na2vs0mg"},{"bike_id":"638dd975-5266-451d-b7e5-6ebd9b2adbd3","system_id":"levelo_inurba_marseille","lat":43.246825,"lon":5.381508,"is_reserved":false,"is_disabled":false,"rental_uris":{"android":"levelo://app?vid=638dd975-5266-451d-b7e5-6ebd9b2adbd3","ios":"levelo://app?vid=638dd975-5266-451d-b7e5-6ebd9b2adbd3"},"vehicle_type_id":"4","last_reported":1740236877,"current_range_meters":2800,"station_id":"ce4bhih2rcd13ifvqfr0","pricing_plan_id":"cebpf4jnsgd1na2vs0mg"},{"bike_id":"513f78a3-4ee7-428d-808a-f642ca1307d9","system_id":"levelo_inurba_marseille","lat":43.27227,"lon":5.39178,"is_reserved":false,"is_disabled":false,"rental_uris":{"android":"levelo://app?vid=513f78a3-4ee7-428d-808a-f642ca1307d9","ios":"levelo://app?vid=513f78a3-4ee7-428d-808a-f642ca1307d9"},"vehicle_type_id":"4","last_reported":1740236877,"current_range_meters":2000,"station_id":"ce4bhhp2rcd13ifvqfm0","pricing_plan_id":"cebpf4jnsgd1na2vs0mg"},{"bike_id":"20a65c62-e969-474b-a8ec-b1054e5420cf","system_id":"levelo_inurba_marseille","lat":43.27369,"lon":5.36259,"is_reserved":false,"is_disabled":true,"rental_uris":{"android":"levelo://app?vid=20a65c62-e969-474b-a8ec-b1054e5420cf","ios":"levelo://app?vid=20a65c62-e969-474b-a8ec-b1054e5420cf"},"vehicle_type_id":"4","last_reported":1740236877,"current_range_meters":3200,"station_id":"ce4bhbh2rcd13ifvqeo0","pricing_plan_id":"cebpf4jnsgd1na2vs0mg"},{"bike_id":"4bf16397-bfc1-43cf-b49f-0aa7d17557c4","system_id":"levelo_inurba_marseille","lat":43.29262,"lon":5.38445,"is_reserved":false,"is_disabled":false,"rental_uris":{"android":"levelo://app?vid=4bf16397-bfc1-43cf-b49f-0aa7d17557c4","ios":"levelo://app?vid=4bf16397-bfc1-43cf-b49f-0aa7d17557c4"},"vehicle_type_id":"4","last_reported":1740236877,"current_range_meters":3200,"station_id":"ce4bh692rcd13ifvqea0","pricing_plan_id":"cebpf4jnsgd1na2vs0mg"},{"bike_id":"99a48ba7-9b0a-435c-acd7-f8b93bf4e266","system_id":"levelo_inurba_marseille","lat":43.231958,"lon":5.355483,"is_reserved":false,"is_disabled":false,"rental_uris":{"android":"levelo://app?vid=99a48ba7-9b0a-435c-acd7-f8b93bf4e266","ios":"levelo://app?vid=99a48ba7-9b0a-435c-acd7-f8b93bf4e266"},"vehicle_type_id":"4","last_reported":1740236877,"current_range_meters":3200,"station_id":"ce4bhu92rcd13ifvqi70","pricing_plan_id":"cebpf4jnsgd1na2vs0mg"},{"bike_id":"63638c47-25d8-40bd-958d-dd4e3c5fffde","system_id":"levelo_inurba_marseille","lat":43.288487,"lon":5.393157,"is_reserved":false,"is_disabled":false,"rental_uris":{"android":"levelo://app?vid=63638c47-25d8-40bd-958d-dd4e3c5fffde","ios":"levelo://app?vid=63638c47-25d8-40bd-958d-dd4e3c5fffde"},"vehicle_type_id":"4","last_reported":1740236877,"current_range_meters":3600,"station_id":"ce4bh2p2rcd13ifvqdi0","pricing_plan_id":"cebpf4jnsgd1na2vs0mg"},{"bike_id":"42c6e3f0-4313-4686-9de2-28f9847f17d4","system_id":"levelo_inurba_marseille","lat":43.29579,"lon":5.37519,"is_reserved":false,"is_disabled":false,"rental_uris":{"android":"levelo://app?vid=42c6e3f0-4313-4686-9de2-28f9847f17d4","ios":"levelo://app?vid=42c6e3f0-4313-4686-9de2-28f9847f17d4"},"vehicle_type_id":"4","last_reported":1740236877,"current_range_meters":3600,"station_id":"ce4bgh92rcd13ifvqb50","pricing_plan_id":"cebpf4jnsgd1na2vs0mg"},{"bike_id":"7c8f3d05-5401-4545-847e-9fcee9ea83d5","system_id":"levelo_inurba_marseille","lat":43.26566,"lon":5.39871,"is_reserved":false,"is_disabled":false,"rental_uris":{"android":"levelo://app?vid=7c8f3d05-5401-4545-847e-9fcee9ea83d5","ios":"levelo://app?vid=7c8f3d05-5401-4545-847e-9fcee9ea83d5"},"vehicle_type_id":"4","last_reported":1740236877,"current_range_meters":4000,"station_id":"","pricing_plan_id":"cebpf4jnsgd1na2vs0mg"},{"bike_id":"5144bca7-24f8-4e48-8ad0-ff7c79816740","system_id":"levelo_inurba_marseille","lat":43.30152,"lon":5.37432,"is_reserved":false,"is_disabled":false,"rental_uris":{"android":"levelo://app?vid=5144bca7-24f8-4e48-8ad0-ff7c79816740","ios":"levelo://app?vid=5144bca7-24f8-4e48-8ad0-ff7c79816740"},"vehicle_type_id":"4","last_reported":1740236877,"current_range_meters":4000,"station_id":"ce4bgs92rcd13ifvqcc0","pricing_plan_id":"cebpf4jnsgd1na2vs0mg"},{"bike_id":"c35c4bc2-9913-42bd-b12f-8c9c5960caf3","system_id":"levelo_inurba_marseille","lat":43.30428,"lon":5.39749,"is_reserved":false,"is_disabled":false,"rental_uris":{"android":"levelo://app?vid=c35c4bc2-9913-42bd-b12f-8c9c5960caf3","ios":"levelo://app?vid=c35c4bc2-9913-42bd-b12f-8c9c5960caf3"},"vehicle_type_id":"4","last_reported":1740236877,"current_range_meters":4000,"station_id":"ce4bh092rcd13ifvqd20","pricing_plan_id":"cebpf4jnsgd1na2vs0mg"},{"bike_id":"9b32ae55-91d8-4197-a389-d6fe565de541","system_id":"levelo_inurba_marseille","lat":43.30951,"lon":5.39031,"is_reserved":false,"is_disabled":false,"rental_uris":{"android":"levelo://app?vid=9b32ae55-91d8-4197-a389-d6fe565de541","ios":"levelo://app?vid=9b32ae55-91d8-4197-a389-d6fe565de541"},"vehicle_type_id":"4","last_reported":1740236877,"current_range_meters":4000,"station_id":"ce4bgup2rcd13ifvqco0","pricing_plan_id":"cebpf4jnsgd1na2vs0mg"},{"bike_id":"c6a33ac1-a62f-47f6-86dd-f4b18bfd1b02","system_id":"levelo_inurba_marseille","lat":43.30424,"lon":5.41281,"is_reserved":false,"is_disabled":false,"rental_uris":{"android":"levelo://app?vid=c6a33ac1-a62f-47f6-86dd-f4b18bfd1b02","ios":"levelo://app?vid=c6a33ac1-a62f-47f6-86dd-f4b18bfd1b02"},"vehicle_type_id":"4","last_reported":1740236877,"current_range_meters":4400,"station_id":"ce4bhop2rcd13ifvqh8g","pricing_plan_id":"cebpf4jnsgd1na2vs0mg"},{"bike_id":"df646634-e77f-4eb5-8957-73cfe8b312b9","system_id":"levelo_inurba_marseille","lat":43.28278,"lon":5.35074,"is_reserved":false,"is_disabled":false,"rental_uris":{"android":"levelo://app?vid=df646634-e77f-4eb5-8957-73cfe8b312b9","ios":"levelo://app?vid=df646634-e77f-4eb5-8957-73cfe8b312b9"},"vehicle_type_id":"4","last_reported":1740236877,"current_range_meters":4400,"station_id":"ce4bhbp2rcd13ifvqerg","pricing_plan_id":"cebpf4jnsgd1na2vs0mg"},{"bike_id":"dcbb297c-be15-466f-8bf3-f469cc5cab8c","system_id":"levelo_inurba_marseille","lat":43.30541,"lon":5.36561,"is_reserved":false,"is_disabled":false,"rental_uris":{"android":"levelo://app?vid=dcbb297c-be15-466f-8bf3-f469cc5cab8c","ios":"levelo://app?vid=dcbb297c-be15-466f-8bf3-f469cc5cab8c"},"vehicle_type_id":"4","last_reported":1740236877,"current_range_meters":5600,"station_id":"ce4bgs12rcd13ifvqcag","pricing_plan_id":"cebpf4jnsgd1na2vs0mg"},{"bike_id":"58979938-c72a-43c7-ad57-d716ec868360","system_id":"levelo_inurba_marseille","lat":43.295822,"lon":5.375185,"is_reserved":false,"is_disabled":false,"rental_uris":{"android":"levelo://app?vid=58979938-c72a-43c7-ad57-d716ec868360","ios":"levelo://app?vid=58979938-c72a-43c7-ad57-d716ec868360"},"vehicle_type_id":"4","last_reported":1740236877,"current_range_meters":5600,"station_id":"ce4bgv92rcd13ifvqcq0","pricing_plan_id":"cebpf4jnsgd1na2vs0mg"},{"bike_id":"4b2dd582-9a04-481e-91e7-44afaf28e181","system_id":"levelo_inurba_marseille","lat":43.30532,"lon":5.36727,"is_reserved":false,"is_disabled":false,"rental_uris":{"android":"levelo://app?vid=4b2dd582-9a04-481e-91e7-44afaf28e181","ios":"levelo://app?vid=4b2dd582-9a04-481e-91e7-44afaf28e181"},"vehicle_type_id":"4","last_reported":1740236877,"current_range_meters":5600,"station_id":"ce4bgrp2rcd13ifvqc9g","pricing_plan_id":"cebpf4jnsgd1na2vs0mg"},{"bike_id":"13570e5a-63ce-4c27-a8cc-1fc13b24ac5a","system_id":"levelo_inurba_marseille","lat":43.2315,"lon":5.43713,"is_reserved":false,"is_disabled":false,"rental_uris":{"android":"levelo://app?vid=13570e5a-63ce-4c27-a8cc-1fc13b24ac5a","ios":"levelo://app?vid=13570e5a-63ce-4c27-a8cc-1fc13b24ac5a"},"vehicle_type_id":"4","last_reported":1740236877,"current_range_meters":5600,"station_id":"ce4bhmp2rcd13ifvqgog","pricing_plan_id":"cebpf4jnsgd1na2vs0mg"},{"bike_id":"0730d4df-9a33-4d61-84ef-18307f140881","system_id":"levelo_inurba_marseille","lat":43.292633,"lon":5.40903,"is_reserved":false,"is_disabled":false,"rental_uris":{"android":"levelo://app?vid=0730d4df-9a33-4d61-84ef-18307f140881","ios":"levelo://app?vid=0730d4df-9a33-4d61-84ef-18307f140881"},"vehicle_type_id":"4","last_reported":1740236877,"current_range_meters":5600,"station_id":"ce4bh192rcd13ifvqdc0","pricing_plan_id":"cebpf4jnsgd1na2vs0mg"},{"bike_id":"e758311a-697a-4932-a77b-02486394e77e","system_id":"levelo_inurba_marseille","lat":43.28371,"lon":5.38638,"is_reserved":false,"is_disabled":false,"rental_uris":{"android":"levelo://app?vid=e758311a-697a-4932-a77b-02486394e77e","ios":"levelo://app?vid=e758311a-697a-4932-a77b-02486394e77e"},"vehicle_type_id":"4","last_reported":1740236877,"current_range_meters":5600,"station_id":"ce4bh492rcd13ifvqdvg","pricing_plan_id":"cebpf4jnsgd1na2vs0mg"},{"bike_id":"a9789c13-d266-44dd-8a63-bcb6d2ffcf4b","system_id":"levelo_inurba_marseille","lat":43.29172,"lon":5.37165,"is_reserved":false,"is_disabled":false,"rental_uris":{"android":"levelo://app?vid=a9789c13-d266-44dd-8a63-bcb6d2ffcf4b","ios":"levelo://app?vid=a9789c13-d266-44dd-8a63-bcb6d2ffcf4b"},"vehicle_type_id":"4","last_reported":1740236877,"current_range_meters":5600,"station_id":"ce4bha92rcd13ifvqeh0","pricing_plan_id":"cebpf4jnsgd1na2vs0mg"},{"bike_id":"f76fcb22-6f84-445b-ab72-1f006335d28f","system_id":"levelo_inurba_marseille","lat":43.33967,"lon":5.37321,"is_reserved":false,"is_disabled":false,"rental_uris":{"android":"levelo://app?vid=f76fcb22-6f84-445b-ab72-1f006335d28f","ios":"levelo://app?vid=f76fcb22-6f84-445b-ab72-1f006335d28f"},"vehicle_type_id":"4","last_reported":1740236877,"current_range_meters":6000,"station_id":"","pricing_plan_id":"cebpf4jnsgd1na2vs0mg"},{"bike_id":"c428a377-df4a-4d69-8d27-1884b3e34b58","system_id":"levelo_inurba_marseille","lat":43.23164,"lon":5.43702,"is_reserved":false,"is_disabled":false,"rental_uris":{"android":"levelo://app?vid=c428a377-df4a-4d69-8d27-1884b3e34b58","ios":"levelo://app?vid=c428a377-df4a-4d69-8d27-1884b3e34b58"},"vehicle_type_id":"4","last_reported":1740236877,"current_range_meters":6000,"station_id":"ce4bhmp2rcd13ifvqgog","pricing_plan_id":"cebpf4jnsgd1na2vs0mg"},{"bike_id":"c44ddf46-cc0a-4d58-9b39-7655004a4b36","system_id":"levelo_inurba_marseille","lat":43.28472,"lon":5.35903,"is_reserved":false,"is_disabled":false,"rental_uris":{"android":"levelo://app?vid=c44ddf46-cc0a-4d58-9b39-7655004a4b36","ios":"levelo://app?vid=c44ddf46-cc0a-4d58-9b39-7655004a4b36"},"vehicle_type_id":"4","last_reported":1740236877,"current_range_meters":6000,"station_id":"ce4bhah2rcd13ifvqei0","pricing_plan_id":"cebpf4jnsgd1na2vs0mg"},{"bike_id":"b40a0d83-dd70-46fb-ab73-042dd5d14474","system_id":"levelo_inurba_marseille","lat":43.28614,"lon":5.37045,"is_reserved":false,"is_disabled":false,"rental_uris":{"android":"levelo://app?vid=b40a0d83-dd70-46fb-ab73-042dd5d14474","ios":"levelo://app?vid=b40a0d83-dd70-46fb-ab73-042dd5d14474"},"vehicle_type_id":"4","last_reported":1740236877,"current_range_meters":6800,"station_id":"ce4bht12rcd13ifvqi60","pricing_plan_id":"cebpf4jnsgd1na2vs0mg"},{"bike_id":"646b5cae-2afa-416c-8287-2abe42f0a681","system_id":"levelo_inurba_marseille","lat":43.30413,"lon":5.41291,"is_reserved":false,"is_disabled":false,"rental_uris":{"android":"levelo://app?vid=646b5cae-2afa-416c-8287-2abe42f0a681","ios":"levelo://app?vid=646b5cae-2afa-416c-8287-2abe42f0a681"},"vehicle_type_id":"4","last_reported":1740236877,"current_range_meters":6800,"station_id":"ce4bhop2rcd13ifvqh8g","pricing_plan_id":"cebpf4jnsgd1na2vs0mg"},{"bike_id":"d0109f8e-c695-44b8-83b5-050518c2c6c9","system_id":"levelo_inurba_marseille","lat":43.23063,"lon":5.35498,"is_reserved":false,"is_disabled":false,"rental_uris":{"android":"levelo://app?vid=d0109f8e-c695-44b8-83b5-050518c2c6c9","ios":"levelo://app?vid=d0109f8e-c695-44b8-83b5-050518c2c6c9"},"vehicle_type_id":"4","last_reported":1740236877,"current_range_meters":6800,"station_id":"cpo3342slgdg3j2ifvpg","pricing_plan_id":"cebpf4jnsgd1na2vs0mg"},{"bike_id":"def726d5-4740-459b-8a4d-4b3858095065","system_id":"levelo_inurba_marseille","lat":43.24806,"lon":5.37466,"is_reserved":false,"is_disabled":false,"rental_uris":{"android":"levelo://app?vid=def726d5-4740-459b-8a4d-4b3858095065","ios":"levelo://app?vid=def726d5-4740-459b-8a4d-4b3858095065"},"vehicle_type_id":"4","last_reported":1740236877,"current_range_meters":6800,"station_id":"ce4bhgh2rcd13ifvqfb0","pricing_plan_id":"cebpf4jnsgd1na2vs0mg"},{"bike_id":"0637c342-f42c-4b10-b5d5-381512fdd811","system_id":"levelo_inurba_marseille","lat":43.2957,"lon":5.37519,"is_reserved":false,"is_disabled":false,"rental_uris":{"android":"levelo://app?vid=0637c342-f42c-4b10-b5d5-381512fdd811","ios":"levelo://app?vid=0637c342-f42c-4b10-b5d5-381512fdd811"},"vehicle_type_id":"4","last_reported":1740236877,"current_range_meters":6800,"station_id":"ce4bgh92rcd13ifvqb50","pricing_plan_id":"cebpf4jnsgd1na2vs0mg"},{"bike_id":"a796ac80-1911-4214-a458-24bc9f421151","system_id":"levelo_inurba_marseille","lat":43.31318,"lon":5.37349,"is_reserved":false,"is_disabled":false,"rental_uris":{"android":"levelo://app?vid=a796ac80-1911-4214-a458-24bc9f421151","ios":"levelo://app?vid=a796ac80-1911-4214-a458-24bc9f421151"},"vehicle_type_id":"4","last_reported":1740236877,"current_range_meters":6800,"station_id":"","pricing_plan_id":"cebpf4jnsgd1na2vs0mg"},{"bike_id":"3ce46cd5-a627-4100-9045-03f31187d742","system_id":"levelo_inurba_marseille","lat":43.3133,"lon":5.39682,"is_reserved":false,"is_disabled":false,"rental_uris":{"android":"levelo://app?vid=3ce46cd5-a627-4100-9045-03f31187d742","ios":"levelo://app?vid=3ce46cd5-a627-4100-9045-03f31187d742"},"vehicle_type_id":"4","last_reported":1740236877,"current_range_meters":6800,"station_id":"ce4bgvp2rcd13ifvqcu0","pricing_plan_id":"cebpf4jnsgd1na2vs0mg"},{"bike_id":"f3feea2e-5bf7-41f6-a6d2-c494ec11d6a2","system_id":"levelo_inurba_marseille","lat":43.230658,"lon":5.354909,"is_reserved":false,"is_disabled":false,"rental_uris":{"android":"levelo://app?vid=f3feea2e-5bf7-41f6-a6d2-c494ec11d6a2","ios":"levelo://app?vid=f3feea2e-5bf7-41f6-a6d2-c494ec11d6a2"},"vehicle_type_id":"4","last_reported":1740236877,"current_range_meters":6800,"station_id":"cpo3342slgdg3j2ifvpg","pricing_plan_id":"cebpf4jnsgd1na2vs0mg"},{"bike_id":"6a59736f-af99-4a37-9432-a7544eac55c7","system_id":"levelo_inurba_marseille","lat":43.29705,"lon":5.37671,"is_reserved":false,"is_disabled":false,"rental_uris":{"android":"levelo://app?vid=6a59736f-af99-4a37-9432-a7544eac55c7","ios":"levelo://app?vid=6a59736f-af99-4a37-9432-a7544eac55c7"},"vehicle_type_id":"4","last_reported":1740236877,"current_range_meters":6800,"station_id":"ce4bgkh2rcd13ifvqbl0","pricing_plan_id":"cebpf4jnsgd1na2vs0mg"},{"bike_id":"95b2d066-cb0b-463f-b7c4-3c12bdd74d4d","system_id":"levelo_inurba_marseille","lat":43.23966,"lon":5.3663,"is_reserved":false,"is_disabled":false,"rental_uris":{"android":"levelo://app?vid=95b2d066-cb0b-463f-b7c4-3c12bdd74d4d","ios":"levelo://app?vid=95b2d066-cb0b-463f-b7c4-3c12bdd74d4d"},"vehicle_type_id":"4","last_reported":1740236877,"current_range_meters":7200,"station_id":"ce4bhi12rcd13ifvqfp0","pricing_plan_id":"cebpf4jnsgd1na2vs0mg"},{"bike_id":"6a4cd183-067e-4d15-b1a0-84810908b56c","system_id":"levelo_inurba_marseille","lat":43.2481,"lon":5.37463,"is_reserved":false,"is_disabled":false,"rental_uris":{"android":"levelo://app?vid=6a4cd183-067e-4d15-b1a0-84810908b56c","ios":"levelo://app?vid=6a4cd183-067e-4d15-b1a0-84810908b56c"},"vehicle_type_id":"4","last_reported":1740236877,"current_range_meters":7200,"station_id":"ce4bhgh2rcd13ifvqfb0","pricing_plan_id":"cebpf4jnsgd1na2vs0mg"},{"bike_id":"1e63d9ab-d1fb-4617-9ee0-edc946d6cfa4","system_id":"levelo_inurba_marseille","lat":43.24181,"lon":5.39736,"is_reserved":false,"is_disabled":false,"rental_uris":{"android":"levelo://app?vid=1e63d9ab-d1fb-4617-9ee0-edc946d6cfa4","ios":"levelo://app?vid=1e63d9ab-d1fb-4617-9ee0-edc946d6cfa4"},"vehicle_type_id":"4","last_reported":1740236877,"current_range_meters":7200,"station_id":"ce4bhn12rcd13ifvqgpg","pricing_plan_id":"cebpf4jnsgd1na2vs0mg"},{"bike_id":"edd8c9ee-a9d8-455e-b437-190be10f5489","system_id":"levelo_inurba_marseille","lat":43.2922,"lon":5.36073,"is_reserved":false,"is_disabled":false,"rental_uris":{"android":"levelo://app?vid=edd8c9ee-a9d8-455e-b437-190be10f5489","ios":"levelo://app?vid=edd8c9ee-a9d8-455e-b437-190be10f5489"},"vehicle_type_id":"4","last_reported":1740236877,"current_range_meters":7200,"station_id":"ce4bhbh2rcd13ifvqeqg","pricing_plan_id":"cebpf4jnsgd1na2vs0mg"},{"bike_id":"82ffbf90-9861-46af-99ba-b790f42ff486","system_id":"levelo_inurba_marseille","lat":43.28409,"lon":5.37519,"is_reserved":false,"is_disabled":false,"rental_uris":{"android":"levelo://app?vid=82ffbf90-9861-46af-99ba-b790f42ff486","ios":"levelo://app?vid=82ffbf90-9861-46af-99ba-b790f42ff486"},"vehicle_type_id":"4","last_reported":1740236877,"current_range_meters":7200,"station_id":"ce4bh412rcd13ifvqds0","pricing_plan_id":"cebpf4jnsgd1na2vs0mg"},{"bike_id":"2c5430a7-3583-4ae1-abd7-31976bb7717c","system_id":"levelo_inurba_marseille","lat":43.30368,"lon":5.41894,"is_reserved":false,"is_disabled":false,"rental_uris":{"android":"levelo://app?vid=2c5430a7-3583-4ae1-abd7-31976bb7717c","ios":"levelo://app?vid=2c5430a7-3583-4ae1-abd7-31976bb7717c"},"vehicle_type_id":"4","last_reported":1740236877,"current_range_meters":7200,"station_id":"ce4bhop2rcd13ifvqh7g","pricing_plan_id":"cebpf4jnsgd1na2vs0mg"},{"bike_id":"d414c500-f227-4efb-aabd-f7246cca81bc","system_id":"levelo_inurba_marseille","lat":43.23063,"lon":5.35496,"is_reserved":false,"is_disabled":false,"rental_uris":{"android":"levelo://app?vid=d414c500-f227-4efb-aabd-f7246cca81bc","ios":"levelo://app?vid=d414c500-f227-4efb-aabd-f7246cca81bc"},"vehicle_type_id":"4","last_reported":1740236877,"current_range_meters":7200,"station_id":"cpo3342slgdg3j2ifvpg","pricing_plan_id":"cebpf4jnsgd1na2vs0mg"},{"bike_id":"b52833fc-8155-44e0-9189-3d77ebd89f56","system_id":"levelo_inurba_marseille","lat":43.28469,"lon":5.35895,"is_reserved":false,"is_disabled":false,"rental_uris":{"android":"levelo://app?vid=b52833fc-8155-44e0-9189-3d77ebd89f56","ios":"levelo://app?vid=b52833fc-8155-44e0-9189-3d77ebd89f56"},"vehicle_type_id":"4","last_reported":1740236877,"current_range_meters":7200,"station_id":"ce4bhah2rcd13ifvqei0","pricing_plan_id":"cebpf4jnsgd1na2vs0mg"},{"bike_id":"6aafab1c-b1fd-4bbd-a318-89366250d32c","system_id":"levelo_inurba_marseille","lat":43.30359,"lon":5.41866,"is_reserved":false,"is_disabled":false,"rental_uris":{"android":"levelo://app?vid=6aafab1c-b1fd-4bbd-a318-89366250d32c","ios":"levelo://app?vid=6aafab1c-b1fd-4bbd-a318-89366250d32c"},"vehicle_type_id":"4","last_reported":1740236877,"current_range_meters":8000,"station_id":"ce4bhop2rcd13ifvqh7g","pricing_plan_id":"cebpf4jnsgd1na2vs0mg"},{"bike_id":"346e6c8f-f646-4b44-83d8-4d7fe04d8a45","system_id":"levelo_inurba_marseille","lat":43.23066,"lon":5.35496,"is_reserved":false,"is_disabled":false,"rental_uris":{"android":"levelo://app?vid=346e6c8f-f646-4b44-83d8-4d7fe04d8a45","ios":"levelo://app?vid=346e6c8f-f646-4b44-83d8-4d7fe04d8a45"},"vehicle_type_id":"4","last_reported":1740236877,"current_range_meters":8000,"station_id":"cpo3342slgdg3j2ifvpg","pricing_plan_id":"cebpf4jnsgd1na2vs0mg"},{"bike_id":"b5546f18-156c-46fb-acdb-07358c9cf08b","system_id":"levelo_inurba_marseille","lat":43.31491,"lon":5.37323,"is_reserved":false,"is_disabled":false,"rental_uris":{"android":"levelo://app?vid=b5546f18-156c-46fb-acdb-07358c9cf08b","ios":"levelo://app?vid=b5546f18-156c-46fb-acdb-07358c9cf08b"},"vehicle_type_id":"4","last_reported":1740236877,"current_range_meters":7200,"station_id":"ce4bgt12rcd13ifvqcd0","pricing_plan_id":"cebpf4jnsgd1na2vs0mg"},{"bike_id":"ae5eb557-21ba-455f-a8a6-0aac932fbbcc","system_id":"levelo_inurba_marseille","lat":43.26678,"lon":5.38266,"is_reserved":false,"is_disabled":false,"rental_uris":{"android":"levelo://app?vid=ae5eb557-21ba-455f-a8a6-0aac932fbbcc","ios":"levelo://app?vid=ae5eb557-21ba-455f-a8a6-0aac932fbbcc"},"vehicle_type_id":"4","last_reported":1740236877,"current_range_meters":8000,"station_id":"ce4bhg92rcd13ifvqf90","pricing_plan_id":"cebpf4jnsgd1na2vs0mg"},{"bike_id":"a47e4dba-f706-4b1f-9179-082fd77b9418","system_id":"levelo_inurba_marseille","lat":43.27226,"lon":5.3922,"is_reserved":false,"is_disabled":false,"rental_uris":{"android":"levelo://app?vid=a47e4dba-f706-4b1f-9179-082fd77b9418","ios":"levelo://app?vid=a47e4dba-f706-4b1f-9179-082fd77b9418"},"vehicle_type_id":"4","last_reported":1740236877,"current_range_meters":8000,"station_id":"ce4bhhp2rcd13ifvqfm0","pricing_plan_id":"cebpf4jnsgd1na2vs0mg"},{"bike_id":"97e60459-cc06-4bc4-9745-231d5e38914b","system_id":"levelo_inurba_marseille","lat":43.27944,"lon":5.41047,"is_reserved":false,"is_disabled":false,"rental_uris":{"android":"levelo://app?vid=97e60459-cc06-4bc4-9745-231d5e38914b","ios":"levelo://app?vid=97e60459-cc06-4bc4-9745-231d5e38914b"},"vehicle_type_id":"4","last_reported":1740236877,"current_range_meters":8000,"station_id":"ce4bhnp2rcd13ifvqh0g","pricing_plan_id":"cebpf4jnsgd1na2vs0mg"},{"bike_id":"7df5b016-3748-470a-a9b6-ed18f20748f9","system_id":"levelo_inurba_marseille","lat":43.22937,"lon":5.35374,"is_reserved":false,"is_disabled":false,"rental_uris":{"android":"levelo://app?vid=7df5b016-3748-470a-a9b6-ed18f20748f9","ios":"levelo://app?vid=7df5b016-3748-470a-a9b6-ed18f20748f9"},"vehicle_type_id":"4","last_reported":1740236877,"current_range_meters":8000,"station_id":"cpo3532slgdg3j2ikp40","pricing_plan_id":"cebpf4jnsgd1na2vs0mg"},{"bike_id":"2b8d73ad-5137-4320-bf7a-9fcaea6cd84f","system_id":"levelo_inurba_marseille","lat":43.28011,"lon":5.39997,"is_reserved":false,"is_disabled":false,"rental_uris":{"android":"levelo://app?vid=2b8d73ad-5137-4320-bf7a-9fcaea6cd84f","ios":"levelo://app?vid=2b8d73ad-5137-4320-bf7a-9fcaea6cd84f"},"vehicle_type_id":"4","last_reported":1740236877,"current_range_meters":8000,"station_id":"ce4bho92rcd13ifvqh4g","pricing_plan_id":"cebpf4jnsgd1na2vs0mg"},{"bike_id":"943382b3-3ac2-40b7-baae-7ca1aec3b930","system_id":"levelo_inurba_marseille","lat":43.281628,"lon":5.426455,"is_reserved":false,"is_disabled":false,"rental_uris":{"android":"levelo://app?vid=943382b3-3ac2-40b7-baae-7ca1aec3b930","ios":"levelo://app?vid=943382b3-3ac2-40b7-baae-7ca1aec3b930"},"vehicle_type_id":"4","last_reported":1740236877,"current_range_meters":8000,"station_id":"ce4bhnh2rcd13ifvqgug","pricing_plan_id":"cebpf4jnsgd1na2vs0mg"},{"bike_id":"e501be99-a171-4e91-9e5b-ac547e4c06f2","system_id":"levelo_inurba_marseille","lat":43.23186,"lon":5.35556,"is_reserved":false,"is_disabled":false,"rental_uris":{"android":"levelo://app?vid=e501be99-a171-4e91-9e5b-ac547e4c06f2","ios":"levelo://app?vid=e501be99-a171-4e91-9e5b-ac547e4c06f2"},"vehicle_type_id":"4","last_reported":1740236877,"current_range_meters":8000,"station_id":"ce4bhu92rcd13ifvqi70","pricing_plan_id":"cebpf4jnsgd1na2vs0mg"},{"bike_id":"df1db48a-1398-45e7-b182-2264485216fa","system_id":"levelo_inurba_marseille","lat":43.24553,"lon":5.39533,"is_reserved":false,"is_disabled":false,"rental_uris":{"android":"levelo://app?vid=df1db48a-1398-45e7-b182-2264485216fa","ios":"levelo://app?vid=df1db48a-1398-45e7-b182-2264485216fa"},"vehicle_type_id":"4","last_reported":1740236877,"current_range_meters":8000,"station_id":"ce4bhlp2rcd13ifvqgjg","pricing_plan_id":"cebpf4jnsgd1na2vs0mg"},{"bike_id":"35700690-ccd3-438b-8dec-89a1ece1d462","system_id":"levelo_inurba_marseille","lat":43.2316,"lon":5.43724,"is_reserved":false,"is_disabled":false,"rental_uris":{"android":"levelo://app?vid=35700690-ccd3-438b-8dec-89a1ece1d462","ios":"levelo://app?vid=35700690-ccd3-438b-8dec-89a1ece1d462"},"vehicle_type_id":"4","last_reported":1740236877,"current_range_meters":8400,"station_id":"ce4bhmp2rcd13ifvqgog","pricing_plan_id":"cebpf4jnsgd1na2vs0mg"},{"bike_id":"9d553981-b22f-4e6c-bba5-6626932ac931","system_id":"levelo_inurba_marseille","lat":43.29923,"lon":5.37477,"is_reserved":false,"is_disabled":false,"rental_uris":{"android":"levelo://app?vid=9d553981-b22f-4e6c-bba5-6626932ac931","ios":"levelo://app?vid=9d553981-b22f-4e6c-bba5-6626932ac931"},"vehicle_type_id":"4","last_reported":1740236877,"current_range_meters":8400,"station_id":"ce4bgjh2rcd13ifvqbg0","pricing_plan_id":"cebpf4jnsgd1na2vs0mg"},{"bike_id":"ce0042bc-0158-45a5-b488-6d8e95acbba9","system_id":"levelo_inurba_marseille","lat":43.26222,"lon":5.40445,"is_reserved":false,"is_disabled":false,"rental_uris":{"android":"levelo://app?vid=ce0042bc-0158-45a5-b488-6d8e95acbba9","ios":"levelo://app?vid=ce0042bc-0158-45a5-b488-6d8e95acbba9"},"vehicle_type_id":"4","last_reported":1740236877,"current_range_meters":8400,"station_id":"ce4bhmh2rcd13ifvqgmg","pricing_plan_id":"cebpf4jnsgd1na2vs0mg"},{"bike_id":"c35f9f33-56c8-4454-bdb6-93552c4c7dbc","system_id":"levelo_inurba_marseille","lat":43.30575,"lon":5.36527,"is_reserved":false,"is_disabled":false,"rental_uris":{"android":"levelo://app?vid=c35f9f33-56c8-4454-bdb6-93552c4c7dbc","ios":"levelo://app?vid=c35f9f33-56c8-4454-bdb6-93552c4c7dbc"},"vehicle_type_id":"4","last_reported":1740236877,"current_range_meters":8400,"station_id":"ce4bgs12rcd13ifvqcag","pricing_plan_id":"cebpf4jnsgd1na2vs0mg"},{"bike_id":"ed1a49fc-1760-4b40-be87-ac822fe6ffcc","system_id":"levelo_inurba_marseille","lat":43.2707,"lon":5.40246,"is_reserved":false,"is_disabled":false,"rental_uris":{"android":"levelo://app?vid=ed1a49fc-1760-4b40-be87-ac822fe6ffcc","ios":"levelo://app?vid=ed1a49fc-1760-4b40-be87-ac822fe6ffcc"},"vehicle_type_id":"4","last_reported":1740236877,"current_range_meters":8400,"station_id":"ce4bhih2rcd13ifvqfs0","pricing_plan_id":"cebpf4jnsgd1na2vs0mg"},{"bike_id":"5ba675c3-ba3a-4d32-a550-c9ecd4fb4cd0","system_id":"levelo_inurba_marseille","lat":43.308,"lon":5.38164,"is_reserved":false,"is_disabled":false,"rental_uris":{"android":"levelo://app?vid=5ba675c3-ba3a-4d32-a550-c9ecd4fb4cd0","ios":"levelo://app?vid=5ba675c3-ba3a-4d32-a550-c9ecd4fb4cd0"},"vehicle_type_id":"4","last_reported":1740236877,"current_range_meters":11600,"station_id":"ce4bgt12rcd13ifvqce0","pricing_plan_id":"cebpf4jnsgd1na2vs0mg"},{"bike_id":"e476bd43-af33-41e1-9538-aafb8788c66c","system_id":"levelo_inurba_marseille","lat":43.27204,"lon":5.39151,"is_reserved":false,"is_disabled":false,"rental_uris":{"android":"levelo://app?vid=e476bd43-af33-41e1-9538-aafb8788c66c","ios":"levelo://app?vid=e476bd43-af33-41e1-9538-aafb8788c66c"},"vehicle_type_id":"4","last_reported":1740236877,"current_range_meters":8400,"station_id":"ce4bhhp2rcd13ifvqfm0","pricing_plan_id":"cebpf4jnsgd1na2vs0mg"},{"bike_id":"ab46b189-6bae-4129-a7fd-10b3ccd5a48e","system_id":"levelo_inurba_marseille","lat":43.27204,"lon":5.40014,"is_reserved":false,"is_disabled":false,"rental_uris":{"android":"levelo://app?vid=ab46b189-6bae-4129-a7fd-10b3ccd5a48e","ios":"levelo://app?vid=ab46b189-6bae-4129-a7fd-10b3ccd5a48e"},"vehicle_type_id":"4","last_reported":1740236877,"current_range_meters":8400,"station_id":"","pricing_plan_id":"cebpf4jnsgd1na2vs0mg"},{"bike_id":"1f4b0440-8018-45b2-adc7-9facf8506758","system_id":"levelo_inurba_marseille","lat":43.28612,"lon":5.37058,"is_reserved":false,"is_disabled":false,"rental_uris":{"android":"levelo://app?vid=1f4b0440-8018-45b2-adc7-9facf8506758","ios":"levelo://app?vid=1f4b0440-8018-45b2-adc7-9facf8506758"},"vehicle_type_id":"4","last_reported":1740236877,"current_range_meters":8000,"station_id":"ce4bht12rcd13ifvqi60","pricing_plan_id":"cebpf4jnsgd1na2vs0mg"},{"bike_id":"89563a26-7881-4a62-8f9e-a7769f24651b","system_id":"levelo_inurba_marseille","lat":43.23145,"lon":5.43708,"is_reserved":false,"is_disabled":false,"rental_uris":{"android":"levelo://app?vid=89563a26-7881-4a62-8f9e-a7769f24651b","ios":"levelo://app?vid=89563a26-7881-4a62-8f9e-a7769f24651b"},"vehicle_type_id":"4","last_reported":1740236877,"current_range_meters":8400,"station_id":"ce4bhmp2rcd13ifvqgog","pricing_plan_id":"cebpf4jnsgd1na2vs0mg"},{"bike_id":"25b3cb0a-16d3-400f-b56e-73a2cc69f3db","system_id":"levelo_inurba_marseille","lat":43.27316,"lon":5.39075,"is_reserved":false,"is_disabled":false,"rental_uris":{"android":"levelo://app?vid=25b3cb0a-16d3-400f-b56e-73a2cc69f3db","ios":"levelo://app?vid=25b3cb0a-16d3-400f-b56e-73a2cc69f3db"},"vehicle_type_id":"4","last_reported":1740236877,"current_range_meters":8400,"station_id":"ce4bhgp2rcd13ifvqfe0","pricing_plan_id":"cebpf4jnsgd1na2vs0mg"},{"bike_id":"827ec7e5-1ae5-45b8-890e-b6822ea9bc11","system_id":"levelo_inurba_marseille","lat":43.23961,"lon":5.36622,"is_reserved":false,"is_disabled":false,"rental_uris":{"android":"levelo://app?vid=827ec7e5-1ae5-45b8-890e-b6822ea9bc11","ios":"levelo://app?vid=827ec7e5-1ae5-45b8-890e-b6822ea9bc11"},"vehicle_type_id":"4","last_reported":1740236877,"current_range_meters":8400,"station_id":"ce4bhi12rcd13ifvqfp0","pricing_plan_id":"cebpf4jnsgd1na2vs0mg"},{"bike_id":"14588a26-3e98-4348-ab76-8c83277b6837","system_id":"levelo_inurba_marseille","lat":43.29022,"lon":5.38639,"is_reserved":false,"is_disabled":false,"rental_uris":{"android":"levelo://app?vid=14588a26-3e98-4348-ab76-8c83277b6837","ios":"levelo://app?vid=14588a26-3e98-4348-ab76-8c83277b6837"},"vehicle_type_id":"4","last_reported":1740236877,"current_range_meters":8400,"station_id":"ce4bh4p2rcd13ifvqe0g","pricing_plan_id":"cebpf4jnsgd1na2vs0mg"},{"bike_id":"78b97302-9c59-42d1-a13f-5e8c85841d45","system_id":"levelo_inurba_marseille","lat":43.2656,"lon":5.39028,"is_reserved":false,"is_disabled":false,"rental_uris":{"android":"levelo://app?vid=78b97302-9c59-42d1-a13f-5e8c85841d45","ios":"levelo://app?vid=78b97302-9c59-42d1-a13f-5e8c85841d45"},"vehicle_type_id":"4","last_reported":1740236877,"current_range_meters":8400,"station_id":"ce4bhe12rcd13ifvqf30","pricing_plan_id":"cebpf4jnsgd1na2vs0mg"},{"bike_id":"408743c5-00c9-4e73-b4c5-d37f35395ef6","system_id":"levelo_inurba_marseille","lat":43.26036,"lon":5.37549,"is_reserved":false,"is_disabled":false,"rental_uris":{"android":"levelo://app?vid=408743c5-00c9-4e73-b4c5-d37f35395ef6","ios":"levelo://app?vid=408743c5-00c9-4e73-b4c5-d37f35395ef6"},"vehicle_type_id":"4","last_reported":1740236877,"current_range_meters":8800,"station_id":"ce4bhgh2rcd13ifvqfa0","pricing_plan_id":"cebpf4jnsgd1na2vs0mg"},{"bike_id":"478d20b4-89cf-410d-826c-9d2f01f8aec2","system_id":"levelo_inurba_marseille","lat":43.30139,"lon":5.38059,"is_reserved":false,"is_disabled":false,"rental_uris":{"android":"levelo://app?vid=478d20b4-89cf-410d-826c-9d2f01f8aec2","ios":"levelo://app?vid=478d20b4-89cf-410d-826c-9d2f01f8aec2"},"vehicle_type_id":"4","last_reported":1740236877,"current_range_meters":8800,"station_id":"ce4bgjp2rcd13ifvqbh0","pricing_plan_id":"cebpf4jnsgd1na2vs0mg"},{"bike_id":"a404738f-d592-4923-bb7f-8cad6bf8fec4","system_id":"levelo_inurba_marseille","lat":43.27944,"lon":5.38514,"is_reserved":false,"is_disabled":false,"rental_uris":{"android":"levelo://app?vid=a404738f-d592-4923-bb7f-8cad6bf8fec4","ios":"levelo://app?vid=a404738f-d592-4923-bb7f-8cad6bf8fec4"},"vehicle_type_id":"4","last_reported":1740236877,"current_range_meters":8800,"station_id":"","pricing_plan_id":"cebpf4jnsgd1na2vs0mg"},{"bike_id":"572fc808-08cc-41c5-8972-d2365310925e","system_id":"levelo_inurba_marseille","lat":43.2805,"lon":5.3695,"is_reserved":false,"is_disabled":false,"rental_uris":{"android":"levelo://app?vid=572fc808-08cc-41c5-8972-d2365310925e","ios":"levelo://app?vid=572fc808-08cc-41c5-8972-d2365310925e"},"vehicle_type_id":"4","last_reported":1740236877,"current_range_meters":8800,"station_id":"ce4bha12rcd13ifvqef0","pricing_plan_id":"cebpf4jnsgd1na2vs0mg"},{"bike_id":"70a9f6cd-6f8f-45e9-b247-00a9aec8526a","system_id":"levelo_inurba_marseille","lat":43.26791,"lon":5.39425,"is_reserved":false,"is_disabled":false,"rental_uris":{"android":"levelo://app?vid=70a9f6cd-6f8f-45e9-b247-00a9aec8526a","ios":"levelo://app?vid=70a9f6cd-6f8f-45e9-b247-00a9aec8526a"},"vehicle_type_id":"4","last_reported":1740236877,"current_range_meters":8800,"station_id":"ce4bhh12rcd13ifvqfg0","pricing_plan_id":"cebpf4jnsgd1na2vs0mg"},{"bike_id":"af1107fa-d68e-4f88-b9a9-b5e22ec9744f","system_id":"levelo_inurba_marseille","lat":43.23035,"lon":5.35572,"is_reserved":false,"is_disabled":false,"rental_uris":{"android":"levelo://app?vid=af1107fa-d68e-4f88-b9a9-b5e22ec9744f","ios":"levelo://app?vid=af1107fa-d68e-4f88-b9a9-b5e22ec9744f"},"vehicle_type_id":"4","last_reported":1740236877,"current_range_meters":8800,"station_id":"cpo3342slgdg3j2ifvpg","pricing_plan_id":"cebpf4jnsgd1na2vs0mg"},{"bike_id":"32cb548e-3f9c-45c3-8ca4-71e2dff11160","system_id":"levelo_inurba_marseille","lat":43.26567,"lon":5.39029,"is_reserved":false,"is_disabled":false,"rental_uris":{"android":"levelo://app?vid=32cb548e-3f9c-45c3-8ca4-71e2dff11160","ios":"levelo://app?vid=32cb548e-3f9c-45c3-8ca4-71e2dff11160"},"vehicle_type_id":"4","last_reported":1740236877,"current_range_meters":8800,"station_id":"ce4bhe12rcd13ifvqf30","pricing_plan_id":"cebpf4jnsgd1na2vs0mg"},{"bike_id":"f32fe46d-1120-4c2c-97c5-cdbf2de4ccec","system_id":"levelo_inurba_marseille","lat":43.25916,"lon":5.40912,"is_reserved":false,"is_disabled":false,"rental_uris":{"android":"levelo://app?vid=f32fe46d-1120-4c2c-97c5-cdbf2de4ccec","ios":"levelo://app?vid=f32fe46d-1120-4c2c-97c5-cdbf2de4ccec"},"vehicle_type_id":"4","last_reported":1740236877,"current_range_meters":9200,"station_id":"ce4bhm92rcd13ifvqglg","pricing_plan_id":"cebpf4jnsgd1na2vs0mg"},{"bike_id":"e80076ff-693b-44fb-99c3-92930c7ce9cf","system_id":"levelo_inurba_marseille","lat":43.30532,"lon":5.36737,"is_reserved":false,"is_disabled":false,"rental_uris":{"android":"levelo://app?vid=e80076ff-693b-44fb-99c3-92930c7ce9cf","ios":"levelo://app?vid=e80076ff-693b-44fb-99c3-92930c7ce9cf"},"vehicle_type_id":"4","last_reported":1740236877,"current_range_meters":9200,"station_id":"ce4bgrp2rcd13ifvqc9g","pricing_plan_id":"cebpf4jnsgd1na2vs0mg"},{"bike_id":"b950d610-3d59-4fd2-b72e-fb52a924e79d","system_id":"levelo_inurba_marseille","lat":43.2307,"lon":5.35482,"is_reserved":false,"is_disabled":false,"rental_uris":{"android":"levelo://app?vid=b950d610-3d59-4fd2-b72e-fb52a924e79d","ios":"levelo://app?vid=b950d610-3d59-4fd2-b72e-fb52a924e79d"},"vehicle_type_id":"4","last_reported":1740236877,"current_range_meters":9200,"station_id":"cpo3342slgdg3j2ifvpg","pricing_plan_id":"cebpf4jnsgd1na2vs0mg"},{"bike_id":"6d48938c-9b80-49b7-89e5-950ba7a6ce63","system_id":"levelo_inurba_marseille","lat":43.25929,"lon":5.40908,"is_reserved":false,"is_disabled":false,"rental_uris":{"android":"levelo://app?vid=6d48938c-9b80-49b7-89e5-950ba7a6ce63","ios":"levelo://app?vid=6d48938c-9b80-49b7-89e5-950ba7a6ce63"},"vehicle_type_id":"4","last_reported":1740236877,"current_range_meters":9200,"station_id":"ce4bhm92rcd13ifvqglg","pricing_plan_id":"cebpf4jnsgd1na2vs0mg"},{"bike_id":"d1401c07-4858-4456-a551-89693aec6bf5","system_id":"levelo_inurba_marseille","lat":43.27068,"lon":5.40248,"is_reserved":false,"is_disabled":false,"rental_uris":{"android":"levelo://app?vid=d1401c07-4858-4456-a551-89693aec6bf5","ios":"levelo://app?vid=d1401c07-4858-4456-a551-89693aec6bf5"},"vehicle_type_id":"4","last_reported":1740236877,"current_range_meters":9200,"station_id":"ce4bhk92rcd13ifvqgc0","pricing_plan_id":"cebpf4jnsgd1na2vs0mg"},{"bike_id":"54392dcf-9098-4ade-a5f9-07d42853ec29","system_id":"levelo_inurba_marseille","lat":43.23966,"lon":5.3663,"is_reserved":false,"is_disabled":false,"rental_uris":{"android":"levelo://app?vid=54392dcf-9098-4ade-a5f9-07d42853ec29","ios":"levelo://app?vid=54392dcf-9098-4ade-a5f9-07d42853ec29"},"vehicle_type_id":"4","last_reported":1740236877,"current_range_meters":9200,"station_id":"ce4bhi12rcd13ifvqfp0","pricing_plan_id":"cebpf4jnsgd1na2vs0mg"},{"bike_id":"36405e8a-bb99-4498-a8c2-5cfa31059438","system_id":"levelo_inurba_marseille","lat":43.23071,"lon":5.35485,"is_reserved":false,"is_disabled":false,"rental_uris":{"android":"levelo://app?vid=36405e8a-bb99-4498-a8c2-5cfa31059438","ios":"levelo://app?vid=36405e8a-bb99-4498-a8c2-5cfa31059438"},"vehicle_type_id":"4","last_reported":1740236877,"current_range_meters":9200,"station_id":"cpo3342slgdg3j2ifvpg","pricing_plan_id":"cebpf4jnsgd1na2vs0mg"},{"bike_id":"0a1ff220-1567-478f-8a1f-36ccb8c618e9","system_id":"levelo_inurba_marseille","lat":43.23147,"lon":5.43712,"is_reserved":false,"is_disabled":false,"rental_uris":{"android":"levelo://app?vid=0a1ff220-1567-478f-8a1f-36ccb8c618e9","ios":"levelo://app?vid=0a1ff220-1567-478f-8a1f-36ccb8c618e9"},"vehicle_type_id":"4","last_reported":1740236877,"current_range_meters":9600,"station_id":"ce4bhmp2rcd13ifvqgog","pricing_plan_id":"cebpf4jnsgd1na2vs0mg"},{"bike_id":"812f52e5-c611-4ad3-9e33-9d66033c735c","system_id":"levelo_inurba_marseille","lat":43.23148,"lon":5.43725,"is_reserved":false,"is_disabled":false,"rental_uris":{"android":"levelo://app?vid=812f52e5-c611-4ad3-9e33-9d66033c735c","ios":"levelo://app?vid=812f52e5-c611-4ad3-9e33-9d66033c735c"},"vehicle_type_id":"4","last_reported":1740236877,"current_range_meters":9600,"station_id":"ce4bhmp2rcd13ifvqgog","pricing_plan_id":"cebpf4jnsgd1na2vs0mg"},{"bike_id":"e38ef3da-d99a-484f-b96f-781cc295fc4c","system_id":"levelo_inurba_marseille","lat":43.25507,"lon":5.37651,"is_reserved":false,"is_disabled":false,"rental_uris":{"android":"levelo://app?vid=e38ef3da-d99a-484f-b96f-781cc295fc4c","ios":"levelo://app?vid=e38ef3da-d99a-484f-b96f-781cc295fc4c"},"vehicle_type_id":"4","last_reported":1740236877,"current_range_meters":9600,"station_id":"ce4bhh12rcd13ifvqff0","pricing_plan_id":"cebpf4jnsgd1na2vs0mg"},{"bike_id":"51a75bc3-e675-43df-9ae8-1a467c5a99c2","system_id":"levelo_inurba_marseille","lat":43.29635,"lon":5.37742,"is_reserved":false,"is_disabled":false,"rental_uris":{"android":"levelo://app?vid=51a75bc3-e675-43df-9ae8-1a467c5a99c2","ios":"levelo://app?vid=51a75bc3-e675-43df-9ae8-1a467c5a99c2"},"vehicle_type_id":"4","last_reported":1740236877,"current_range_meters":9600,"station_id":"ce4bgi92rcd13ifvqb90","pricing_plan_id":"cebpf4jnsgd1na2vs0mg"},{"bike_id":"e0a27bbe-1017-4673-a93c-ffab63167e8c","system_id":"levelo_inurba_marseille","lat":43.24546,"lon":5.395227,"is_reserved":false,"is_disabled":false,"rental_uris":{"android":"levelo://app?vid=e0a27bbe-1017-4673-a93c-ffab63167e8c","ios":"levelo://app?vid=e0a27bbe-1017-4673-a93c-ffab63167e8c"},"vehicle_type_id":"4","last_reported":1740236877,"current_range_meters":9600,"station_id":"ce4bhlp2rcd13ifvqgjg","pricing_plan_id":"cebpf4jnsgd1na2vs0mg"},{"bike_id":"35331f57-b06c-41f1-8224-4eb3668702eb","system_id":"levelo_inurba_marseille","lat":43.23055,"lon":5.35497,"is_reserved":false,"is_disabled":false,"rental_uris":{"android":"levelo://app?vid=35331f57-b06c-41f1-8224-4eb3668702eb","ios":"levelo://app?vid=35331f57-b06c-41f1-8224-4eb3668702eb"},"vehicle_type_id":"4","last_reported":1740236877,"current_range_meters":9600,"station_id":"cpo3342slgdg3j2ifvpg","pricing_plan_id":"cebpf4jnsgd1na2vs0mg"},{"bike_id":"b985ad1f-1942-453b-b5eb-7462cafd1e31","system_id":"levelo_inurba_marseille","lat":43.231868,"lon":5.355539,"is_reserved":false,"is_disabled":false,"rental_uris":{"android":"levelo://app?vid=b985ad1f-1942-453b-b5eb-7462cafd1e31","ios":"levelo://app?vid=b985ad1f-1942-453b-b5eb-7462cafd1e31"},"vehicle_type_id":"4","last_reported":1740236877,"current_range_meters":9600,"station_id":"ce4bhu92rcd13ifvqi70","pricing_plan_id":"cebpf4jnsgd1na2vs0mg"},{"bike_id":"d312ce1d-aae9-4c62-a1e8-38c15d95735a","system_id":"levelo_inurba_marseille","lat":43.22946,"lon":5.35405,"is_reserved":false,"is_disabled":false,"rental_uris":{"android":"levelo://app?vid=d312ce1d-aae9-4c62-a1e8-38c15d95735a","ios":"levelo://app?vid=d312ce1d-aae9-4c62-a1e8-38c15d95735a"},"vehicle_type_id":"4","last_reported":1740236877,"current_range_meters":10000,"station_id":"cpo3532slgdg3j2ikp40","pricing_plan_id":"cebpf4jnsgd1na2vs0mg"},{"bike_id":"e6b35d9c-224a-4d55-9ef9-8958a0ad7c99","system_id":"levelo_inurba_marseille","lat":43.27913,"lon":5.38016,"is_reserved":false,"is_disabled":false,"rental_uris":{"android":"levelo://app?vid=e6b35d9c-224a-4d55-9ef9-8958a0ad7c99","ios":"levelo://app?vid=e6b35d9c-224a-4d55-9ef9-8958a0ad7c99"},"vehicle_type_id":"4","last_reported":1740236877,"current_range_meters":10000,"station_id":"ce4bhf92rcd13ifvqf50","pricing_plan_id":"cebpf4jnsgd1na2vs0mg"},{"bike_id":"78ccc1b5-e05d-4c30-bc5b-473f9d97e2cd","system_id":"levelo_inurba_marseille","lat":43.3013,"lon":5.37811,"is_reserved":false,"is_disabled":false,"rental_uris":{"android":"levelo://app?vid=78ccc1b5-e05d-4c30-bc5b-473f9d97e2cd","ios":"levelo://app?vid=78ccc1b5-e05d-4c30-bc5b-473f9d97e2cd"},"vehicle_type_id":"4","last_reported":1740236877,"current_range_meters":10000,"station_id":"","pricing_plan_id":"cebpf4jnsgd1na2vs0mg"},{"bike_id":"92bf6f01-5b37-48c2-bd71-2d4f9fc3465f","system_id":"levelo_inurba_marseille","lat":43.28468,"lon":5.38424,"is_reserved":false,"is_disabled":false,"rental_uris":{"android":"levelo://app?vid=92bf6f01-5b37-48c2-bd71-2d4f9fc3465f","ios":"levelo://app?vid=92bf6f01-5b37-48c2-bd71-2d4f9fc3465f"},"vehicle_type_id":"4","last_reported":1740236877,"current_range_meters":10000,"station_id":"ce4bh512rcd13ifvqe3g","pricing_plan_id":"cebpf4jnsgd1na2vs0mg"},{"bike_id":"1a3ceab6-ed06-46e5-8f3c-bc79a5dfc649","system_id":"levelo_inurba_marseille","lat":43.2606,"lon":5.39377,"is_reserved":false,"is_disabled":false,"rental_uris":{"android":"levelo://app?vid=1a3ceab6-ed06-46e5-8f3c-bc79a5dfc649","ios":"levelo://app?vid=1a3ceab6-ed06-46e5-8f3c-bc79a5dfc649"},"vehicle_type_id":"4","last_reported":1740236877,"current_range_meters":10000,"station_id":"ce4bhh92rcd13ifvqfj0","pricing_plan_id":"cebpf4jnsgd1na2vs0mg"},{"bike_id":"6c2ab6e6-2d04-4225-b04d-1f709ec68055","system_id":"levelo_inurba_marseille","lat":43.22947,"lon":5.35373,"is_reserved":false,"is_disabled":false,"rental_uris":{"android":"levelo://app?vid=6c2ab6e6-2d04-4225-b04d-1f709ec68055","ios":"levelo://app?vid=6c2ab6e6-2d04-4225-b04d-1f709ec68055"},"vehicle_type_id":"4","last_reported":1740236877,"current_range_meters":10000,"station_id":"cpo3532slgdg3j2ikp40","pricing_plan_id":"cebpf4jnsgd1na2vs0mg"},{"bike_id":"124d69e0-b635-4d55-8af6-0b7eab6e5506","system_id":"levelo_inurba_marseille","lat":43.26216,"lon":5.37444,"is_reserved":false,"is_disabled":false,"rental_uris":{"android":"levelo://app?vid=124d69e0-b635-4d55-8af6-0b7eab6e5506","ios":"levelo://app?vid=124d69e0-b635-4d55-8af6-0b7eab6e5506"},"vehicle_type_id":"4","last_reported":1740236877,"current_range_meters":10000,"station_id":"ce4bhgp2rcd13ifvqfc0","pricing_plan_id":"cebpf4jnsgd1na2vs0mg"},{"bike_id":"a88b4534-cc43-4486-95b9-13918131b4b3","system_id":"levelo_inurba_marseille","lat":43.31756,"lon":5.39019,"is_reserved":false,"is_disabled":false,"rental_uris":{"android":"levelo://app?vid=a88b4534-cc43-4486-95b9-13918131b4b3","ios":"levelo://app?vid=a88b4534-cc43-4486-95b9-13918131b4b3"},"vehicle_type_id":"4","last_reported":1740236877,"current_range_meters":10000,"station_id":"ce4bhqp2rcd13ifvqhng","pricing_plan_id":"cebpf4jnsgd1na2vs0mg"},{"bike_id":"3c232bab-88ac-4592-9031-c21395fd8a78","system_id":"levelo_inurba_marseille","lat":43.3237,"lon":5.3676,"is_reserved":false,"is_disabled":false,"rental_uris":{"android":"levelo://app?vid=3c232bab-88ac-4592-9031-c21395fd8a78","ios":"levelo://app?vid=3c232bab-88ac-4592-9031-c21395fd8a78"},"vehicle_type_id":"4","last_reported":1740236877,"current_range_meters":10800,"station_id":"ce4bhsh2rcd13ifvqi2g","pricing_plan_id":"cebpf4jnsgd1na2vs0mg"},{"bike_id":"67910906-52c2-4294-a940-fcd5a074b0f0","system_id":"levelo_inurba_marseille","lat":43.30637,"lon":5.40066,"is_reserved":false,"is_disabled":false,"rental_uris":{"android":"levelo://app?vid=67910906-52c2-4294-a940-fcd5a074b0f0","ios":"levelo://app?vid=67910906-52c2-4294-a940-fcd5a074b0f0"},"vehicle_type_id":"4","last_reported":1740236877,"current_range_meters":10800,"station_id":"ce4bh112rcd13ifvqda0","pricing_plan_id":"cebpf4jnsgd1na2vs0mg"},{"bike_id":"2daaa357-b1f8-4ac6-8535-c23191ec0e26","system_id":"levelo_inurba_marseille","lat":43.296387,"lon":5.377113,"is_reserved":false,"is_disabled":false,"rental_uris":{"android":"levelo://app?vid=2daaa357-b1f8-4ac6-8535-c23191ec0e26","ios":"levelo://app?vid=2daaa357-b1f8-4ac6-8535-c23191ec0e26"},"vehicle_type_id":"4","last_reported":1740236877,"current_range_meters":9200,"station_id":"ce4bgi92rcd13ifvqb90","pricing_plan_id":"cebpf4jnsgd1na2vs0mg"},{"bike_id":"76cea171-ec19-425b-983b-2be0ce7d2daf","system_id":"levelo_inurba_marseille","lat":43.29842,"lon":5.36276,"is_reserved":false,"is_disabled":false,"rental_uris":{"android":"levelo://app?vid=76cea171-ec19-425b-983b-2be0ce7d2daf","ios":"levelo://app?vid=76cea171-ec19-425b-983b-2be0ce7d2daf"},"vehicle_type_id":"4","last_reported":1740236877,"current_range_meters":10800,"station_id":"ce4bgpp2rcd13ifvqc3g","pricing_plan_id":"cebpf4jnsgd1na2vs0mg"},{"bike_id":"7c68efac-9e9d-4ee6-879e-5a8ec94660bc","system_id":"levelo_inurba_marseille","lat":43.29582,"lon":5.36744,"is_reserved":false,"is_disabled":false,"rental_uris":{"android":"levelo://app?vid=7c68efac-9e9d-4ee6-879e-5a8ec94660bc","ios":"levelo://app?vid=7c68efac-9e9d-4ee6-879e-5a8ec94660bc"},"vehicle_type_id":"4","last_reported":1740236877,"current_range_meters":10800,"station_id":"ce4bgph2rcd13ifvqc2g","pricing_plan_id":"cebpf4jnsgd1na2vs0mg"},{"bike_id":"4f542e78-da3d-4f99-b268-bd72b36f5f31","system_id":"levelo_inurba_marseille","lat":43.29579,"lon":5.39975,"is_reserved":false,"is_disabled":true,"rental_uris":{"android":"levelo://app?vid=4f542e78-da3d-4f99-b268-bd72b36f5f31","ios":"levelo://app?vid=4f542e78-da3d-4f99-b268-bd72b36f5f31"},"vehicle_type_id":"4","last_reported":1740236877,"current_range_meters":10800,"station_id":"ce4bh312rcd13ifvqdj0","pricing_plan_id":"cebpf4jnsgd1na2vs0mg"},{"bike_id":"ba113183-374c-4d98-80f0-8303ec95b01f","system_id":"levelo_inurba_marseille","lat":43.26062,"lon":5.39393,"is_reserved":false,"is_disabled":false,"rental_uris":{"android":"levelo://app?vid=ba113183-374c-4d98-80f0-8303ec95b01f","ios":"levelo://app?vid=ba113183-374c-4d98-80f0-8303ec95b01f"},"vehicle_type_id":"4","last_reported":1740236877,"current_range_meters":11200,"station_id":"ce4bhh92rcd13ifvqfj0","pricing_plan_id":"cebpf4jnsgd1na2vs0mg"},{"bike_id":"c12c7329-4bc0-4a0d-ae5b-521f86813584","system_id":"levelo_inurba_marseille","lat":43.24808,"lon":5.37456,"is_reserved":false,"is_disabled":false,"rental_uris":{"android":"levelo://app?vid=c12c7329-4bc0-4a0d-ae5b-521f86813584","ios":"levelo://app?vid=c12c7329-4bc0-4a0d-ae5b-521f86813584"},"vehicle_type_id":"4","last_reported":1740236877,"current_range_meters":11200,"station_id":"ce4bhgh2rcd13ifvqfb0","pricing_plan_id":"cebpf4jnsgd1na2vs0mg"},{"bike_id":"9e34ff94-4206-4d85-a9da-dab3dd759910","system_id":"levelo_inurba_marseille","lat":43.30414,"lon":5.41286,"is_reserved":false,"is_disabled":false,"rental_uris":{"android":"levelo://app?vid=9e34ff94-4206-4d85-a9da-dab3dd759910","ios":"levelo://app?vid=9e34ff94-4206-4d85-a9da-dab3dd759910"},"vehicle_type_id":"4","last_reported":1740236877,"current_range_meters":11200,"station_id":"ce4bhop2rcd13ifvqh8g","pricing_plan_id":"cebpf4jnsgd1na2vs0mg"},{"bike_id":"873d7307-5fd2-4b42-8bb7-bf3e836dbd74","system_id":"levelo_inurba_marseille","lat":43.3042,"lon":5.412802,"is_reserved":false,"is_disabled":false,"rental_uris":{"android":"levelo://app?vid=873d7307-5fd2-4b42-8bb7-bf3e836dbd74","ios":"levelo://app?vid=873d7307-5fd2-4b42-8bb7-bf3e836dbd74"},"vehicle_type_id":"4","last_reported":1740236877,"current_range_meters":11200,"station_id":"ce4bhop2rcd13ifvqh8g","pricing_plan_id":"cebpf4jnsgd1na2vs0mg"},{"bike_id":"b5a09a64-6944-4618-b5cf-0b1ffd9fce9d","system_id":"levelo_inurba_marseille","lat":43.27374,"lon":5.36259,"is_reserved":false,"is_disabled":false,"rental_uris":{"android":"levelo://app?vid=b5a09a64-6944-4618-b5cf-0b1ffd9fce9d","ios":"levelo://app?vid=b5a09a64-6944-4618-b5cf-0b1ffd9fce9d"},"vehicle_type_id":"4","last_reported":1740236877,"current_range_meters":11200,"station_id":"ce4bhbh2rcd13ifvqeo0","pricing_plan_id":"cebpf4jnsgd1na2vs0mg"},{"bike_id":"a60d901c-b275-4584-9f52-24f8eea07af6","system_id":"levelo_inurba_marseille","lat":43.29418,"lon":5.38624,"is_reserved":false,"is_disabled":false,"rental_uris":{"android":"levelo://app?vid=a60d901c-b275-4584-9f52-24f8eea07af6","ios":"levelo://app?vid=a60d901c-b275-4584-9f52-24f8eea07af6"},"vehicle_type_id":"4","last_reported":1740236877,"current_range_meters":11200,"station_id":"ce4bh2h2rcd13ifvqdh0","pricing_plan_id":"cebpf4jnsgd1na2vs0mg"},{"bike_id":"e8aa9107-fad9-4a62-b20f-9589c0228e4a","system_id":"levelo_inurba_marseille","lat":43.28662,"lon":5.36336,"is_reserved":false,"is_disabled":false,"rental_uris":{"android":"levelo://app?vid=e8aa9107-fad9-4a62-b20f-9589c0228e4a","ios":"levelo://app?vid=e8aa9107-fad9-4a62-b20f-9589c0228e4a"},"vehicle_type_id":"4","last_reported":1740236877,"current_range_meters":11600,"station_id":"ce4bhah2rcd13ifvqej0","pricing_plan_id":"cebpf4jnsgd1na2vs0mg"},{"bike_id":"9c4f6937-2b4d-4605-9b98-27232e029050","system_id":"levelo_inurba_marseille","lat":43.32363,"lon":5.38887,"is_reserved":false,"is_disabled":false,"rental_uris":{"android":"levelo://app?vid=9c4f6937-2b4d-4605-9b98-27232e029050","ios":"levelo://app?vid=9c4f6937-2b4d-4605-9b98-27232e029050"},"vehicle_type_id":"4","last_reported":1740236877,"current_range_meters":11600,"station_id":"ce4bhqp2rcd13ifvqhog","pricing_plan_id":"cebpf4jnsgd1na2vs0mg"},{"bike_id":"92fe0940-77ac-40fe-832a-c8afa1258e9b","system_id":"levelo_inurba_marseille","lat":43.24813,"lon":5.3747,"is_reserved":false,"is_disabled":false,"rental_uris":{"android":"levelo://app?vid=92fe0940-77ac-40fe-832a-c8afa1258e9b","ios":"levelo://app?vid=92fe0940-77ac-40fe-832a-c8afa1258e9b"},"vehicle_type_id":"4","last_reported":1740236877,"current_range_meters":11600,"station_id":"ce4bhgh2rcd13ifvqfb0","pricing_plan_id":"cebpf4jnsgd1na2vs0mg"},{"bike_id":"fc719a48-4f02-4ff0-a0b0-5867ff99caf1","system_id":"levelo_inurba_marseille","lat":43.30416,"lon":5.41296,"is_reserved":false,"is_disabled":false,"rental_uris":{"android":"levelo://app?vid=fc719a48-4f02-4ff0-a0b0-5867ff99caf1","ios":"levelo://app?vid=fc719a48-4f02-4ff0-a0b0-5867ff99caf1"},"vehicle_type_id":"4","last_reported":1740236877,"current_range_meters":12000,"station_id":"ce4bhop2rcd13ifvqh8g","pricing_plan_id":"cebpf4jnsgd1na2vs0mg"},{"bike_id":"38a42f48-d423-4782-8b10-aa9cff2d2409","system_id":"levelo_inurba_marseille","lat":43.2737,"lon":5.36254,"is_reserved":false,"is_disabled":false,"rental_uris":{"android":"levelo://app?vid=38a42f48-d423-4782-8b10-aa9cff2d2409","ios":"levelo://app?vid=38a42f48-d423-4782-8b10-aa9cff2d2409"},"vehicle_type_id":"4","last_reported":1740236877,"current_range_meters":12000,"station_id":"ce4bhbh2rcd13ifvqeo0","pricing_plan_id":"cebpf4jnsgd1na2vs0mg"},{"bike_id":"1951b280-e8ac-4fa5-a3ef-806580107c2a","system_id":"levelo_inurba_marseille","lat":43.28156,"lon":5.4265,"is_reserved":false,"is_disabled":false,"rental_uris":{"android":"levelo://app?vid=1951b280-e8ac-4fa5-a3ef-806580107c2a","ios":"levelo://app?vid=1951b280-e8ac-4fa5-a3ef-806580107c2a"},"vehicle_type_id":"4","last_reported":1740236877,"current_range_meters":12400,"station_id":"ce4bhnh2rcd13ifvqgug","pricing_plan_id":"cebpf4jnsgd1na2vs0mg"},{"bike_id":"519c0d90-c598-4074-9c80-d5e1565ff705","system_id":"levelo_inurba_marseille","lat":43.2308,"lon":5.35477,"is_reserved":false,"is_disabled":false,"rental_uris":{"android":"levelo://app?vid=519c0d90-c598-4074-9c80-d5e1565ff705","ios":"levelo://app?vid=519c0d90-c598-4074-9c80-d5e1565ff705"},"vehicle_type_id":"4","last_reported":1740236877,"current_range_meters":12400,"station_id":"cpo3342slgdg3j2ifvpg","pricing_plan_id":"cebpf4jnsgd1na2vs0mg"},{"bike_id":"0b35ef10-1d1d-4e8a-949e-c3122c5e3874","system_id":"levelo_inurba_marseille","lat":43.23956,"lon":5.36635,"is_reserved":false,"is_disabled":false,"rental_uris":{"android":"levelo://app?vid=0b35ef10-1d1d-4e8a-949e-c3122c5e3874","ios":"levelo://app?vid=0b35ef10-1d1d-4e8a-949e-c3122c5e3874"},"vehicle_type_id":"4","last_reported":1740236877,"current_range_meters":12400,"station_id":"ce4bhi12rcd13ifvqfp0","pricing_plan_id":"cebpf4jnsgd1na2vs0mg"},{"bike_id":"f3e53501-98a3-41eb-aebf-eea5d54d149b","system_id":"levelo_inurba_marseille","lat":43.30964,"lon":5.38002,"is_reserved":false,"is_disabled":false,"rental_uris":{"android":"levelo://app?vid=f3e53501-98a3-41eb-aebf-eea5d54d149b","ios":"levelo://app?vid=f3e53501-98a3-41eb-aebf-eea5d54d149b"},"vehicle_type_id":"4","last_reported":1740236877,"current_range_meters":12400,"station_id":"","pricing_plan_id":"cebpf4jnsgd1na2vs0mg"},{"bike_id":"357165df-d9bc-497c-a8ab-29851633502f","system_id":"levelo_inurba_marseille","lat":43.295911,"lon":5.380924,"is_reserved":false,"is_disabled":false,"rental_uris":{"android":"levelo://app?vid=357165df-d9bc-497c-a8ab-29851633502f","ios":"levelo://app?vid=357165df-d9bc-497c-a8ab-29851633502f"},"vehicle_type_id":"4","last_reported":1740236877,"current_range_meters":12800,"station_id":"ce4bgl12rcd13ifvqbo0","pricing_plan_id":"cebpf4jnsgd1na2vs0mg"},{"bike_id":"17cb2da1-6381-4c19-aa67-406968c3567c","system_id":"levelo_inurba_marseille","lat":43.29583,"lon":5.37503,"is_reserved":false,"is_disabled":false,"rental_uris":{"android":"levelo://app?vid=17cb2da1-6381-4c19-aa67-406968c3567c","ios":"levelo://app?vid=17cb2da1-6381-4c19-aa67-406968c3567c"},"vehicle_type_id":"4","last_reported":1740236877,"current_range_meters":12800,"station_id":"ce4bgh92rcd13ifvqb50","pricing_plan_id":"cebpf4jnsgd1na2vs0mg"},{"bike_id":"6bb44f71-e2a4-4da1-9a53-fbfa8fde2d17","system_id":"levelo_inurba_marseille","lat":43.28376,"lon":5.38658,"is_reserved":false,"is_disabled":false,"rental_uris":{"android":"levelo://app?vid=6bb44f71-e2a4-4da1-9a53-fbfa8fde2d17","ios":"levelo://app?vid=6bb44f71-e2a4-4da1-9a53-fbfa8fde2d17"},"vehicle_type_id":"4","last_reported":1740236877,"current_range_meters":13600,"station_id":"ce4bh492rcd13ifvqdvg","pricing_plan_id":"cebpf4jnsgd1na2vs0mg"},{"bike_id":"ccdefed6-13d5-4f99-a8e0-201599b40ebb","system_id":"levelo_inurba_marseille","lat":43.22928,"lon":5.35375,"is_reserved":false,"is_disabled":false,"rental_uris":{"android":"levelo://app?vid=ccdefed6-13d5-4f99-a8e0-201599b40ebb","ios":"levelo://app?vid=ccdefed6-13d5-4f99-a8e0-201599b40ebb"},"vehicle_type_id":"4","last_reported":1740236877,"current_range_meters":13600,"station_id":"cpo3532slgdg3j2ikp40","pricing_plan_id":"cebpf4jnsgd1na2vs0mg"},{"bike_id":"d88699b9-7a50-415c-9cdb-a35fdc00ed80","system_id":"levelo_inurba_marseille","lat":43.29934,"lon":5.37193,"is_reserved":false,"is_disabled":false,"rental_uris":{"android":"levelo://app?vid=d88699b9-7a50-415c-9cdb-a35fdc00ed80","ios":"levelo://app?vid=d88699b9-7a50-415c-9cdb-a35fdc00ed80"},"vehicle_type_id":"4","last_reported":1740236877,"current_range_meters":13600,"station_id":"","pricing_plan_id":"cebpf4jnsgd1na2vs0mg"},{"bike_id":"1b5b87c8-f96f-4740-8b60-bcc62c6e3f59","system_id":"levelo_inurba_marseille","lat":43.31392,"lon":5.38448,"is_reserved":false,"is_disabled":false,"rental_uris":{"android":"levelo://app?vid=1b5b87c8-f96f-4740-8b60-bcc62c6e3f59","ios":"levelo://app?vid=1b5b87c8-f96f-4740-8b60-bcc62c6e3f59"},"vehicle_type_id":"4","last_reported":1740236877,"current_range_meters":13600,"station_id":"ce4bgt92rcd13ifvqcf0","pricing_plan_id":"cebpf4jnsgd1na2vs0mg"},{"bike_id":"c3c1d469-a1b4-4abb-9974-701b7d97ca20","system_id":"levelo_inurba_marseille","lat":43.25581,"lon":5.38235,"is_reserved":false,"is_disabled":false,"rental_uris":{"android":"levelo://app?vid=c3c1d469-a1b4-4abb-9974-701b7d97ca20","ios":"levelo://app?vid=c3c1d469-a1b4-4abb-9974-701b7d97ca20"},"vehicle_type_id":"4","last_reported":1740236877,"current_range_meters":13600,"station_id":"ce4bhih2rcd13ifvqfs0","pricing_plan_id":"cebpf4jnsgd1na2vs0mg"},{"bike_id":"1b0d6542-f74d-4dd5-b78b-1cd1115ff80b","system_id":"levelo_inurba_marseille","lat":43.30625,"lon":5.37341,"is_reserved":false,"is_disabled":false,"rental_uris":{"android":"levelo://app?vid=1b0d6542-f74d-4dd5-b78b-1cd1115ff80b","ios":"levelo://app?vid=1b0d6542-f74d-4dd5-b78b-1cd1115ff80b"},"vehicle_type_id":"4","last_reported":1740236877,"current_range_meters":14000,"station_id":"","pricing_plan_id":"cebpf4jnsgd1na2vs0mg"},{"bike_id":"ecb792ba-e590-4d62-97cc-1e9b429064df","system_id":"levelo_inurba_marseille","lat":43.25015,"lon":5.38914,"is_reserved":false,"is_disabled":false,"rental_uris":{"android":"levelo://app?vid=ecb792ba-e590-4d62-97cc-1e9b429064df","ios":"levelo://app?vid=ecb792ba-e590-4d62-97cc-1e9b429064df"},"vehicle_type_id":"4","last_reported":1740236877,"current_range_meters":14000,"station_id":"ce4bhgp2rcd13ifvqfd0","pricing_plan_id":"cebpf4jnsgd1na2vs0mg"},{"bike_id":"6ca7b833-79a9-4fbe-a558-4430f489d7f7","system_id":"levelo_inurba_marseille","lat":43.29534,"lon":5.38545,"is_reserved":false,"is_disabled":false,"rental_uris":{"android":"levelo://app?vid=6ca7b833-79a9-4fbe-a558-4430f489d7f7","ios":"levelo://app?vid=6ca7b833-79a9-4fbe-a558-4430f489d7f7"},"vehicle_type_id":"4","last_reported":1740236877,"current_range_meters":14000,"station_id":"","pricing_plan_id":"cebpf4jnsgd1na2vs0mg"},{"bike_id":"90793232-5b54-4053-8d8d-d552c3bd69e3","system_id":"levelo_inurba_marseille","lat":43.29268,"lon":5.3844,"is_reserved":false,"is_disabled":false,"rental_uris":{"android":"levelo://app?vid=90793232-5b54-4053-8d8d-d552c3bd69e3","ios":"levelo://app?vid=90793232-5b54-4053-8d8d-d552c3bd69e3"},"vehicle_type_id":"4","last_reported":1740236877,"current_range_meters":14000,"station_id":"ce4bh692rcd13ifvqea0","pricing_plan_id":"cebpf4jnsgd1na2vs0mg"},{"bike_id":"0dc10df1-2422-4347-8406-45044f046857","system_id":"levelo_inurba_marseille","lat":43.27375,"lon":5.36252,"is_reserved":false,"is_disabled":false,"rental_uris":{"android":"levelo://app?vid=0dc10df1-2422-4347-8406-45044f046857","ios":"levelo://app?vid=0dc10df1-2422-4347-8406-45044f046857"},"vehicle_type_id":"4","last_reported":1740236877,"current_range_meters":14000,"station_id":"ce4bhbh2rcd13ifvqeo0","pricing_plan_id":"cebpf4jnsgd1na2vs0mg"},{"bike_id":"5cac0311-be5c-4d3f-afef-3e4ca9e4eb3e","system_id":"levelo_inurba_marseille","lat":43.28079,"lon":5.42801,"is_reserved":false,"is_disabled":false,"rental_uris":{"android":"levelo://app?vid=5cac0311-be5c-4d3f-afef-3e4ca9e4eb3e","ios":"levelo://app?vid=5cac0311-be5c-4d3f-afef-3e4ca9e4eb3e"},"vehicle_type_id":"4","last_reported":1740236877,"current_range_meters":14000,"station_id":"ce4bhnh2rcd13ifvqgug","pricing_plan_id":"cebpf4jnsgd1na2vs0mg"},{"bike_id":"1f7411cd-9379-4bab-a8bc-411b928d8602","system_id":"levelo_inurba_marseille","lat":43.274944,"lon":5.424696,"is_reserved":false,"is_disabled":false,"rental_uris":{"android":"levelo://app?vid=1f7411cd-9379-4bab-a8bc-411b928d8602","ios":"levelo://app?vid=1f7411cd-9379-4bab-a8bc-411b928d8602"},"vehicle_type_id":"4","last_reported":1740236877,"current_range_meters":14400,"station_id":"ce4bhn92rcd13ifvqgrg","pricing_plan_id":"cebpf4jnsgd1na2vs0mg"},{"bike_id":"ab8e4fa1-a748-4b68-9f46-2fdc2afb052f","system_id":"levelo_inurba_marseille","lat":43.25839,"lon":5.39418,"is_reserved":false,"is_disabled":false,"rental_uris":{"android":"levelo://app?vid=ab8e4fa1-a748-4b68-9f46-2fdc2afb052f","ios":"levelo://app?vid=ab8e4fa1-a748-4b68-9f46-2fdc2afb052f"},"vehicle_type_id":"4","last_reported":1740236877,"current_range_meters":14400,"station_id":"ce4bhip2rcd13ifvqft0","pricing_plan_id":"cebpf4jnsgd1na2vs0mg"},{"bike_id":"2c207df8-2ef8-401e-a733-f12e4fc4360e","system_id":"levelo_inurba_marseille","lat":43.28372,"lon":5.38636,"is_reserved":false,"is_disabled":false,"rental_uris":{"android":"levelo://app?vid=2c207df8-2ef8-401e-a733-f12e4fc4360e","ios":"levelo://app?vid=2c207df8-2ef8-401e-a733-f12e4fc4360e"},"vehicle_type_id":"4","last_reported":1740236877,"current_range_meters":14400,"station_id":"ce4bh492rcd13ifvqdvg","pricing_plan_id":"cebpf4jnsgd1na2vs0mg"},{"bike_id":"7c193bb3-e9c9-4ac3-ad76-4b10a61daf94","system_id":"levelo_inurba_marseille","lat":43.23064,"lon":5.35492,"is_reserved":false,"is_disabled":false,"rental_uris":{"android":"levelo://app?vid=7c193bb3-e9c9-4ac3-ad76-4b10a61daf94","ios":"levelo://app?vid=7c193bb3-e9c9-4ac3-ad76-4b10a61daf94"},"vehicle_type_id":"4","last_reported":1740236877,"current_range_meters":14400,"station_id":"cpo3342slgdg3j2ifvpg","pricing_plan_id":"cebpf4jnsgd1na2vs0mg"},{"bike_id":"029edfd1-00eb-4ff7-8e59-974c8fe45f33","system_id":"levelo_inurba_marseille","lat":43.26595,"lon":5.39036,"is_reserved":false,"is_disabled":false,"rental_uris":{"android":"levelo://app?vid=029edfd1-00eb-4ff7-8e59-974c8fe45f33","ios":"levelo://app?vid=029edfd1-00eb-4ff7-8e59-974c8fe45f33"},"vehicle_type_id":"4","last_reported":1740236877,"current_range_meters":14400,"station_id":"ce4bhe12rcd13ifvqf30","pricing_plan_id":"cebpf4jnsgd1na2vs0mg"},{"bike_id":"3fb04120-5744-4fbd-b987-3043fd6d47e7","system_id":"levelo_inurba_marseille","lat":43.30894,"lon":5.37189,"is_reserved":false,"is_disabled":false,"rental_uris":{"android":"levelo://app?vid=3fb04120-5744-4fbd-b987-3043fd6d47e7","ios":"levelo://app?vid=3fb04120-5744-4fbd-b987-3043fd6d47e7"},"vehicle_type_id":"4","last_reported":1740236877,"current_range_meters":14400,"station_id":"ce4bguh2rcd13ifvqckg","pricing_plan_id":"cebpf4jnsgd1na2vs0mg"},{"bike_id":"09e9427c-b1d0-4f71-9797-19cf3bdb3a6d","system_id":"levelo_inurba_marseille","lat":43.2953,"lon":5.39054,"is_reserved":false,"is_disabled":false,"rental_uris":{"android":"levelo://app?vid=09e9427c-b1d0-4f71-9797-19cf3bdb3a6d","ios":"levelo://app?vid=09e9427c-b1d0-4f71-9797-19cf3bdb3a6d"},"vehicle_type_id":"4","last_reported":1740236877,"current_range_meters":14800,"station_id":"ce4bh3p2rcd13ifvqdp0","pricing_plan_id":"cebpf4jnsgd1na2vs0mg"},{"bike_id":"f75b7c43-b1e9-419b-9e88-97af31d30220","system_id":"levelo_inurba_marseille","lat":43.23954,"lon":5.3665,"is_reserved":false,"is_disabled":false,"rental_uris":{"android":"levelo://app?vid=f75b7c43-b1e9-419b-9e88-97af31d30220","ios":"levelo://app?vid=f75b7c43-b1e9-419b-9e88-97af31d30220"},"vehicle_type_id":"4","last_reported":1740236877,"current_range_meters":14800,"station_id":"ce4bhi12rcd13ifvqfp0","pricing_plan_id":"cebpf4jnsgd1na2vs0mg"},{"bike_id":"f0ab2854-f0de-4a3f-aa2f-18e93090ea0e","system_id":"levelo_inurba_marseille","lat":43.295951,"lon":5.381044,"is_reserved":false,"is_disabled":false,"rental_uris":{"android":"levelo://app?vid=f0ab2854-f0de-4a3f-aa2f-18e93090ea0e","ios":"levelo://app?vid=f0ab2854-f0de-4a3f-aa2f-18e93090ea0e"},"vehicle_type_id":"4","last_reported":1740236877,"current_range_meters":14800,"station_id":"ce4bhbp2rcd13ifvqerg","pricing_plan_id":"cebpf4jnsgd1na2vs0mg"},{"bike_id":"be887009-0262-4a7d-8f4a-f0783cb795d7","system_id":"levelo_inurba_marseille","lat":43.31361,"lon":5.38494,"is_reserved":false,"is_disabled":false,"rental_uris":{"android":"levelo://app?vid=be887009-0262-4a7d-8f4a-f0783cb795d7","ios":"levelo://app?vid=be887009-0262-4a7d-8f4a-f0783cb795d7"},"vehicle_type_id":"4","last_reported":1740236877,"current_range_meters":15200,"station_id":"ce4bgt92rcd13ifvqcf0","pricing_plan_id":"cebpf4jnsgd1na2vs0mg"},{"bike_id":"4c378cb2-0c0e-4eec-92a8-9ad20f087a8a","system_id":"levelo_inurba_marseille","lat":43.23196,"lon":5.35553,"is_reserved":false,"is_disabled":false,"rental_uris":{"android":"levelo://app?vid=4c378cb2-0c0e-4eec-92a8-9ad20f087a8a","ios":"levelo://app?vid=4c378cb2-0c0e-4eec-92a8-9ad20f087a8a"},"vehicle_type_id":"4","last_reported":1740236877,"current_range_meters":14800,"station_id":"ce4bhu92rcd13ifvqi70","pricing_plan_id":"cebpf4jnsgd1na2vs0mg"},{"bike_id":"44b358f6-3bd7-4963-b458-9b5b797c07ec","system_id":"levelo_inurba_marseille","lat":43.29264,"lon":5.38466,"is_reserved":false,"is_disabled":false,"rental_uris":{"android":"levelo://app?vid=44b358f6-3bd7-4963-b458-9b5b797c07ec","ios":"levelo://app?vid=44b358f6-3bd7-4963-b458-9b5b797c07ec"},"vehicle_type_id":"4","last_reported":1740236877,"current_range_meters":15200,"station_id":"ce4bh692rcd13ifvqea0","pricing_plan_id":"cebpf4jnsgd1na2vs0mg"},{"bike_id":"9249fd12-3296-4ccb-a73f-7d64a28ead2a","system_id":"levelo_inurba_marseille","lat":43.28273,"lon":5.35076,"is_reserved":false,"is_disabled":false,"rental_uris":{"android":"levelo://app?vid=9249fd12-3296-4ccb-a73f-7d64a28ead2a","ios":"levelo://app?vid=9249fd12-3296-4ccb-a73f-7d64a28ead2a"},"vehicle_type_id":"4","last_reported":1740236877,"current_range_meters":15200,"station_id":"ce4bhbp2rcd13ifvqerg","pricing_plan_id":"cebpf4jnsgd1na2vs0mg"},{"bike_id":"78657cfc-3fe2-4fff-bb47-b1efa7880148","system_id":"levelo_inurba_marseille","lat":43.29423,"lon":5.38624,"is_reserved":false,"is_disabled":false,"rental_uris":{"android":"levelo://app?vid=78657cfc-3fe2-4fff-bb47-b1efa7880148","ios":"levelo://app?vid=78657cfc-3fe2-4fff-bb47-b1efa7880148"},"vehicle_type_id":"4","last_reported":1740236877,"current_range_meters":15200,"station_id":"ce4bh2h2rcd13ifvqdh0","pricing_plan_id":"cebpf4jnsgd1na2vs0mg"},{"bike_id":"38e59165-2a39-4093-8489-0be21f64e372","system_id":"levelo_inurba_marseille","lat":43.272057,"lon":5.391603,"is_reserved":false,"is_disabled":false,"rental_uris":{"android":"levelo://app?vid=38e59165-2a39-4093-8489-0be21f64e372","ios":"levelo://app?vid=38e59165-2a39-4093-8489-0be21f64e372"},"vehicle_type_id":"4","last_reported":1740236877,"current_range_meters":14800,"station_id":"ce4bhnp2rcd13ifvqgvg","pricing_plan_id":"cebpf4jnsgd1na2vs0mg"},{"bike_id":"b5290351-b7f6-496c-8d19-e2a5f9e67dd3","system_id":"levelo_inurba_marseille","lat":43.29606,"lon":5.37728,"is_reserved":false,"is_disabled":false,"rental_uris":{"android":"levelo://app?vid=b5290351-b7f6-496c-8d19-e2a5f9e67dd3","ios":"levelo://app?vid=b5290351-b7f6-496c-8d19-e2a5f9e67dd3"},"vehicle_type_id":"4","last_reported":1740236877,"current_range_meters":15200,"station_id":"ce4bgi92rcd13ifvqb90","pricing_plan_id":"cebpf4jnsgd1na2vs0mg"},{"bike_id":"ad5d970e-426b-4f89-94bd-e7196f45d370","system_id":"levelo_inurba_marseille","lat":43.32106,"lon":5.36778,"is_reserved":false,"is_disabled":false,"rental_uris":{"android":"levelo://app?vid=ad5d970e-426b-4f89-94bd-e7196f45d370","ios":"levelo://app?vid=ad5d970e-426b-4f89-94bd-e7196f45d370"},"vehicle_type_id":"4","last_reported":1740236877,"current_range_meters":15200,"station_id":"ce4bhrh2rcd13ifvqhug","pricing_plan_id":"cebpf4jnsgd1na2vs0mg"},{"bike_id":"1f9a8922-3629-4c79-85f8-11693d60b072","system_id":"levelo_inurba_marseille","lat":43.26215,"lon":5.37441,"is_reserved":false,"is_disabled":false,"rental_uris":{"android":"levelo://app?vid=1f9a8922-3629-4c79-85f8-11693d60b072","ios":"levelo://app?vid=1f9a8922-3629-4c79-85f8-11693d60b072"},"vehicle_type_id":"4","last_reported":1740236877,"current_range_meters":15200,"station_id":"ce4bhgp2rcd13ifvqfc0","pricing_plan_id":"cebpf4jnsgd1na2vs0mg"},{"bike_id":"3fd2a98c-7939-498c-8625-9658300a849b","system_id":"levelo_inurba_marseille","lat":43.25908,"lon":5.40893,"is_reserved":false,"is_disabled":false,"rental_uris":{"android":"levelo://app?vid=3fd2a98c-7939-498c-8625-9658300a849b","ios":"levelo://app?vid=3fd2a98c-7939-498c-8625-9658300a849b"},"vehicle_type_id":"4","last_reported":1740236877,"current_range_meters":16000,"station_id":"ce4bhm92rcd13ifvqglg","pricing_plan_id":"cebpf4jnsgd1na2vs0mg"},{"bike_id":"dc98c6bf-2f77-4e8c-8fbf-c68674039da9","system_id":"levelo_inurba_marseille","lat":43.2857,"lon":5.39492,"is_reserved":false,"is_disabled":false,"rental_uris":{"android":"levelo://app?vid=dc98c6bf-2f77-4e8c-8fbf-c68674039da9","ios":"levelo://app?vid=dc98c6bf-2f77-4e8c-8fbf-c68674039da9"},"vehicle_type_id":"4","last_reported":1740236877,"current_range_meters":16000,"station_id":"ce4bh292rcd13ifvqdg0","pricing_plan_id":"cebpf4jnsgd1na2vs0mg"},{"bike_id":"001c0b93-fad1-491d-a2b3-afffa502635e","system_id":"levelo_inurba_marseille","lat":43.29798,"lon":5.40408,"is_reserved":false,"is_disabled":false,"rental_uris":{"android":"levelo://app?vid=001c0b93-fad1-491d-a2b3-afffa502635e","ios":"levelo://app?vid=001c0b93-fad1-491d-a2b3-afffa502635e"},"vehicle_type_id":"4","last_reported":1740236877,"current_range_meters":16000,"station_id":"ce4bh112rcd13ifvqd90","pricing_plan_id":"cebpf4jnsgd1na2vs0mg"},{"bike_id":"825d5e35-54ba-4c25-9cfc-c2e0ce07f1c7","system_id":"levelo_inurba_marseille","lat":43.28613,"lon":5.37069,"is_reserved":false,"is_disabled":false,"rental_uris":{"android":"levelo://app?vid=825d5e35-54ba-4c25-9cfc-c2e0ce07f1c7","ios":"levelo://app?vid=825d5e35-54ba-4c25-9cfc-c2e0ce07f1c7"},"vehicle_type_id":"4","last_reported":1740236877,"current_range_meters":16000,"station_id":"ce4bht12rcd13ifvqi60","pricing_plan_id":"cebpf4jnsgd1na2vs0mg"},{"bike_id":"c0a5df7f-7c89-4da8-8c59-116ae6bfd29f","system_id":"levelo_inurba_marseille","lat":43.30558,"lon":5.36537,"is_reserved":false,"is_disabled":false,"rental_uris":{"android":"levelo://app?vid=c0a5df7f-7c89-4da8-8c59-116ae6bfd29f","ios":"levelo://app?vid=c0a5df7f-7c89-4da8-8c59-116ae6bfd29f"},"vehicle_type_id":"4","last_reported":1740236877,"current_range_meters":16000,"station_id":"ce4bgs12rcd13ifvqcag","pricing_plan_id":"cebpf4jnsgd1na2vs0mg"},{"bike_id":"8e403f8a-b998-4fb1-bb90-54bf70e024a5","system_id":"levelo_inurba_marseille","lat":43.26935,"lon":5.389166,"is_reserved":false,"is_disabled":false,"rental_uris":{"android":"levelo://app?vid=8e403f8a-b998-4fb1-bb90-54bf70e024a5","ios":"levelo://app?vid=8e403f8a-b998-4fb1-bb90-54bf70e024a5"},"vehicle_type_id":"4","last_reported":1740236877,"current_range_meters":16000,"station_id":"ce4bhhh2rcd13ifvqfl0","pricing_plan_id":"cebpf4jnsgd1na2vs0mg"},{"bike_id":"025e813a-671a-4ec8-9fc4-a9ae492304f7","system_id":"levelo_inurba_marseille","lat":43.31987,"lon":5.38171,"is_reserved":false,"is_disabled":false,"rental_uris":{"android":"levelo://app?vid=025e813a-671a-4ec8-9fc4-a9ae492304f7","ios":"levelo://app?vid=025e813a-671a-4ec8-9fc4-a9ae492304f7"},"vehicle_type_id":"4","last_reported":1740236877,"current_range_meters":16400,"station_id":"ce4bhr12rcd13ifvqhpg","pricing_plan_id":"cebpf4jnsgd1na2vs0mg"},{"bike_id":"7d01ed45-064b-418b-a80f-60a44c6d11ba","system_id":"levelo_inurba_marseille","lat":43.23061,"lon":5.35493,"is_reserved":false,"is_disabled":false,"rental_uris":{"android":"levelo://app?vid=7d01ed45-064b-418b-a80f-60a44c6d11ba","ios":"levelo://app?vid=7d01ed45-064b-418b-a80f-60a44c6d11ba"},"vehicle_type_id":"4","last_reported":1740236877,"current_range_meters":16400,"station_id":"cpo3342slgdg3j2ifvpg","pricing_plan_id":"cebpf4jnsgd1na2vs0mg"},{"bike_id":"1389bd09-045a-4e4b-88e2-2ff918e3a10e","system_id":"levelo_inurba_marseille","lat":43.28462,"lon":5.35884,"is_reserved":false,"is_disabled":false,"rental_uris":{"android":"levelo://app?vid=1389bd09-045a-4e4b-88e2-2ff918e3a10e","ios":"levelo://app?vid=1389bd09-045a-4e4b-88e2-2ff918e3a10e"},"vehicle_type_id":"4","last_reported":1740236877,"current_range_meters":16400,"station_id":"ce4bhah2rcd13ifvqei0","pricing_plan_id":"cebpf4jnsgd1na2vs0mg"},{"bike_id":"19d1a5ab-670e-4386-875b-41b8b46ee488","system_id":"levelo_inurba_marseille","lat":43.23979,"lon":5.36615,"is_reserved":false,"is_disabled":false,"rental_uris":{"android":"levelo://app?vid=19d1a5ab-670e-4386-875b-41b8b46ee488","ios":"levelo://app?vid=19d1a5ab-670e-4386-875b-41b8b46ee488"},"vehicle_type_id":"4","last_reported":1740236877,"current_range_meters":16400,"station_id":"ce4bhi12rcd13ifvqfp0","pricing_plan_id":"cebpf4jnsgd1na2vs0mg"},{"bike_id":"4e743088-d059-4805-ab8b-cba4d3ce97fb","system_id":"levelo_inurba_marseille","lat":43.27963,"lon":5.38733,"is_reserved":false,"is_disabled":false,"rental_uris":{"android":"levelo://app?vid=4e743088-d059-4805-ab8b-cba4d3ce97fb","ios":"levelo://app?vid=4e743088-d059-4805-ab8b-cba4d3ce97fb"},"vehicle_type_id":"4","last_reported":1740236877,"current_range_meters":16000,"station_id":"ce4bhg12rcd13ifvqf80","pricing_plan_id":"cebpf4jnsgd1na2vs0mg"},{"bike_id":"d0bb6e41-80c1-4c43-b652-1b70203c66ac","system_id":"levelo_inurba_marseille","lat":43.29904,"lon":5.43638,"is_reserved":false,"is_disabled":false,"rental_uris":{"android":"levelo://app?vid=d0bb6e41-80c1-4c43-b652-1b70203c66ac","ios":"levelo://app?vid=d0bb6e41-80c1-4c43-b652-1b70203c66ac"},"vehicle_type_id":"4","last_reported":1740236877,"current_range_meters":16400,"station_id":"ce4bhpp2rcd13ifvqhfg","pricing_plan_id":"cebpf4jnsgd1na2vs0mg"},{"bike_id":"534ba312-d8a6-479e-bcad-e18c2599c710","system_id":"levelo_inurba_marseille","lat":43.29424,"lon":5.38626,"is_reserved":false,"is_disabled":false,"rental_uris":{"android":"levelo://app?vid=534ba312-d8a6-479e-bcad-e18c2599c710","ios":"levelo://app?vid=534ba312-d8a6-479e-bcad-e18c2599c710"},"vehicle_type_id":"4","last_reported":1740236877,"current_range_meters":16400,"station_id":"ce4bh2h2rcd13ifvqdh0","pricing_plan_id":"cebpf4jnsgd1na2vs0mg"},{"bike_id":"d2f33b30-6530-45af-8231-95f9098e2df5","system_id":"levelo_inurba_marseille","lat":43.24655,"lon":5.38904,"is_reserved":false,"is_disabled":false,"rental_uris":{"android":"levelo://app?vid=d2f33b30-6530-45af-8231-95f9098e2df5","ios":"levelo://app?vid=d2f33b30-6530-45af-8231-95f9098e2df5"},"vehicle_type_id":"4","last_reported":1740236877,"current_range_meters":15200,"station_id":"ce4bhg12rcd13ifvqf60","pricing_plan_id":"cebpf4jnsgd1na2vs0mg"},{"bike_id":"db327688-520d-41ec-ab25-8793a41e67eb","system_id":"levelo_inurba_marseille","lat":43.30543,"lon":5.36734,"is_reserved":false,"is_disabled":false,"rental_uris":{"android":"levelo://app?vid=db327688-520d-41ec-ab25-8793a41e67eb","ios":"levelo://app?vid=db327688-520d-41ec-ab25-8793a41e67eb"},"vehicle_type_id":"4","last_reported":1740236877,"current_range_meters":16400,"station_id":"ce4bgrp2rcd13ifvqc9g","pricing_plan_id":"cebpf4jnsgd1na2vs0mg"},{"bike_id":"bade71f7-727b-4a50-87ce-c44d2b3a273d","system_id":"levelo_inurba_marseille","lat":43.29606,"lon":5.38105,"is_reserved":false,"is_disabled":false,"rental_uris":{"android":"levelo://app?vid=bade71f7-727b-4a50-87ce-c44d2b3a273d","ios":"levelo://app?vid=bade71f7-727b-4a50-87ce-c44d2b3a273d"},"vehicle_type_id":"4","last_reported":1740236877,"current_range_meters":16800,"station_id":"ce4bgl12rcd13ifvqbo0","pricing_plan_id":"cebpf4jnsgd1na2vs0mg"},{"bike_id":"038e5de4-8307-49a1-848f-5085f26a9822","system_id":"levelo_inurba_marseille","lat":43.24389,"lon":5.37059,"is_reserved":false,"is_disabled":false,"rental_uris":{"android":"levelo://app?vid=038e5de4-8307-49a1-848f-5085f26a9822","ios":"levelo://app?vid=038e5de4-8307-49a1-848f-5085f26a9822"},"vehicle_type_id":"4","last_reported":1740236877,"current_range_meters":16400,"station_id":"ce4bhhh2rcd13ifvqfk0","pricing_plan_id":"cebpf4jnsgd1na2vs0mg"},{"bike_id":"4262437a-7f00-4b16-8724-a70cfff4e6b1","system_id":"levelo_inurba_marseille","lat":43.29627,"lon":5.37705,"is_reserved":false,"is_disabled":false,"rental_uris":{"android":"levelo://app?vid=4262437a-7f00-4b16-8724-a70cfff4e6b1","ios":"levelo://app?vid=4262437a-7f00-4b16-8724-a70cfff4e6b1"},"vehicle_type_id":"4","last_reported":1740236877,"current_range_meters":16800,"station_id":"ce4bgi92rcd13ifvqb90","pricing_plan_id":"cebpf4jnsgd1na2vs0mg"},{"bike_id":"33cc0fcb-f6e1-44bc-9328-d3f75a5791c5","system_id":"levelo_inurba_marseille","lat":43.23198,"lon":5.35553,"is_reserved":false,"is_disabled":false,"rental_uris":{"android":"levelo://app?vid=33cc0fcb-f6e1-44bc-9328-d3f75a5791c5","ios":"levelo://app?vid=33cc0fcb-f6e1-44bc-9328-d3f75a5791c5"},"vehicle_type_id":"4","last_reported":1740236877,"current_range_meters":16800,"station_id":"ce4bhu92rcd13ifvqi70","pricing_plan_id":"cebpf4jnsgd1na2vs0mg"},{"bike_id":"9de7bc96-f5c6-48ae-86b6-887443faf6de","system_id":"levelo_inurba_marseille","lat":43.27317,"lon":5.3908,"is_reserved":false,"is_disabled":false,"rental_uris":{"android":"levelo://app?vid=9de7bc96-f5c6-48ae-86b6-887443faf6de","ios":"levelo://app?vid=9de7bc96-f5c6-48ae-86b6-887443faf6de"},"vehicle_type_id":"4","last_reported":1740236877,"current_range_meters":16800,"station_id":"ce4bhgp2rcd13ifvqfe0","pricing_plan_id":"cebpf4jnsgd1na2vs0mg"},{"bike_id":"c00853d1-5327-4d51-b7d0-83f1735a77df","system_id":"levelo_inurba_marseille","lat":43.29636,"lon":5.405957,"is_reserved":false,"is_disabled":false,"rental_uris":{"android":"levelo://app?vid=c00853d1-5327-4d51-b7d0-83f1735a77df","ios":"levelo://app?vid=c00853d1-5327-4d51-b7d0-83f1735a77df"},"vehicle_type_id":"4","last_reported":1740236877,"current_range_meters":16800,"station_id":"ce4bh0h2rcd13ifvqd60","pricing_plan_id":"cebpf4jnsgd1na2vs0mg"},{"bike_id":"299ff637-8f42-4bc6-8403-f99119dc6441","system_id":"levelo_inurba_marseille","lat":43.27387,"lon":5.36238,"is_reserved":false,"is_disabled":false,"rental_uris":{"android":"levelo://app?vid=299ff637-8f42-4bc6-8403-f99119dc6441","ios":"levelo://app?vid=299ff637-8f42-4bc6-8403-f99119dc6441"},"vehicle_type_id":"4","last_reported":1740236877,"current_range_meters":16800,"station_id":"ce4bhbh2rcd13ifvqeo0","pricing_plan_id":"cebpf4jnsgd1na2vs0mg"},{"bike_id":"525833dd-f732-4080-980f-8525a6320985","system_id":"levelo_inurba_marseille","lat":43.29612,"lon":5.37718,"is_reserved":false,"is_disabled":false,"rental_uris":{"android":"levelo://app?vid=525833dd-f732-4080-980f-8525a6320985","ios":"levelo://app?vid=525833dd-f732-4080-980f-8525a6320985"},"vehicle_type_id":"4","last_reported":1740236877,"current_range_meters":17200,"station_id":"ce4bgi92rcd13ifvqb90","pricing_plan_id":"cebpf4jnsgd1na2vs0mg"},{"bike_id":"d5ca0da4-96b6-4faa-b7e5-62f1a540ec9d","system_id":"levelo_inurba_marseille","lat":43.24818,"lon":5.37449,"is_reserved":false,"is_disabled":false,"rental_uris":{"android":"levelo://app?vid=d5ca0da4-96b6-4faa-b7e5-62f1a540ec9d","ios":"levelo://app?vid=d5ca0da4-96b6-4faa-b7e5-62f1a540ec9d"},"vehicle_type_id":"4","last_reported":1740236877,"current_range_meters":17200,"station_id":"ce4bhgh2rcd13ifvqfb0","pricing_plan_id":"cebpf4jnsgd1na2vs0mg"},{"bike_id":"5889e203-1d84-438e-8972-0ec6d1b5a87a","system_id":"levelo_inurba_marseille","lat":43.29267,"lon":5.38444,"is_reserved":false,"is_disabled":false,"rental_uris":{"android":"levelo://app?vid=5889e203-1d84-438e-8972-0ec6d1b5a87a","ios":"levelo://app?vid=5889e203-1d84-438e-8972-0ec6d1b5a87a"},"vehicle_type_id":"4","last_reported":1740236877,"current_range_meters":17200,"station_id":"ce4bh692rcd13ifvqea0","pricing_plan_id":"cebpf4jnsgd1na2vs0mg"},{"bike_id":"5e2bf6ba-aebc-4cb7-87e1-c8de6d900a74","system_id":"levelo_inurba_marseille","lat":43.27496,"lon":5.42456,"is_reserved":false,"is_disabled":false,"rental_uris":{"android":"levelo://app?vid=5e2bf6ba-aebc-4cb7-87e1-c8de6d900a74","ios":"levelo://app?vid=5e2bf6ba-aebc-4cb7-87e1-c8de6d900a74"},"vehicle_type_id":"4","last_reported":1740236877,"current_range_meters":17200,"station_id":"ce4bhn92rcd13ifvqgrg","pricing_plan_id":"cebpf4jnsgd1na2vs0mg"},{"bike_id":"f73839ed-1cdf-4b0b-bb43-0aab7379b1df","system_id":"levelo_inurba_marseille","lat":43.28669,"lon":5.36341,"is_reserved":false,"is_disabled":false,"rental_uris":{"android":"levelo://app?vid=f73839ed-1cdf-4b0b-bb43-0aab7379b1df","ios":"levelo://app?vid=f73839ed-1cdf-4b0b-bb43-0aab7379b1df"},"vehicle_type_id":"4","last_reported":1740236877,"current_range_meters":17200,"station_id":"ce4bhah2rcd13ifvqej0","pricing_plan_id":"cebpf4jnsgd1na2vs0mg"},{"bike_id":"7a06dce7-a232-4325-8e51-2ef04d0e5a31","system_id":"levelo_inurba_marseille","lat":43.30094,"lon":5.39072,"is_reserved":false,"is_disabled":false,"rental_uris":{"android":"levelo://app?vid=7a06dce7-a232-4325-8e51-2ef04d0e5a31","ios":"levelo://app?vid=7a06dce7-a232-4325-8e51-2ef04d0e5a31"},"vehicle_type_id":"4","last_reported":1740236877,"current_range_meters":17200,"station_id":"ce4bh192rcd13ifvqdb0","pricing_plan_id":"cebpf4jnsgd1na2vs0mg"},{"bike_id":"513384eb-ee7e-45f6-96a1-826e0ca60a86","system_id":"levelo_inurba_marseille","lat":43.23192,"lon":5.39995,"is_reserved":false,"is_disabled":false,"rental_uris":{"android":"levelo://app?vid=513384eb-ee7e-45f6-96a1-826e0ca60a86","ios":"levelo://app?vid=513384eb-ee7e-45f6-96a1-826e0ca60a86"},"vehicle_type_id":"4","last_reported":1740236877,"current_range_meters":17200,"station_id":"ce4bhn12rcd13ifvqgqg","pricing_plan_id":"cebpf4jnsgd1na2vs0mg"},{"bike_id":"e114ce83-08ec-4256-8ea3-9926c87ba10a","system_id":"levelo_inurba_marseille","lat":43.29973,"lon":5.41331,"is_reserved":false,"is_disabled":false,"rental_uris":{"android":"levelo://app?vid=e114ce83-08ec-4256-8ea3-9926c87ba10a","ios":"levelo://app?vid=e114ce83-08ec-4256-8ea3-9926c87ba10a"},"vehicle_type_id":"4","last_reported":1740236877,"current_range_meters":17600,"station_id":"ce4bhp12rcd13ifvqh9g","pricing_plan_id":"cebpf4jnsgd1na2vs0mg"},{"bike_id":"ab9478d6-34e8-4949-bb7d-79caf311332f","system_id":"levelo_inurba_marseille","lat":43.23189,"lon":5.39981,"is_reserved":false,"is_disabled":false,"rental_uris":{"android":"levelo://app?vid=ab9478d6-34e8-4949-bb7d-79caf311332f","ios":"levelo://app?vid=ab9478d6-34e8-4949-bb7d-79caf311332f"},"vehicle_type_id":"4","last_reported":1740236877,"current_range_meters":17600,"station_id":"ce4bhn12rcd13ifvqgqg","pricing_plan_id":"cebpf4jnsgd1na2vs0mg"},{"bike_id":"422fa75f-2412-4832-89fe-75d4c80d1941","system_id":"levelo_inurba_marseille","lat":43.29805,"lon":5.38102,"is_reserved":false,"is_disabled":false,"rental_uris":{"android":"levelo://app?vid=422fa75f-2412-4832-89fe-75d4c80d1941","ios":"levelo://app?vid=422fa75f-2412-4832-89fe-75d4c80d1941"},"vehicle_type_id":"4","last_reported":1740236877,"current_range_meters":17600,"station_id":"ce4bgip2rcd13ifvqbb0","pricing_plan_id":"cebpf4jnsgd1na2vs0mg"},{"bike_id":"e636832d-d31d-492b-9bcd-b899a106503d","system_id":"levelo_inurba_marseille","lat":43.2417,"lon":5.3639,"is_reserved":false,"is_disabled":false,"rental_uris":{"android":"levelo://app?vid=e636832d-d31d-492b-9bcd-b899a106503d","ios":"levelo://app?vid=e636832d-d31d-492b-9bcd-b899a106503d"},"vehicle_type_id":"4","last_reported":1740236877,"current_range_meters":17600,"station_id":"cpo36qri1sfpv3e86is0","pricing_plan_id":"cebpf4jnsgd1na2vs0mg"},{"bike_id":"13882975-2ea0-4b5c-b22e-4e8ffdceb8b2","system_id":"levelo_inurba_marseille","lat":43.29908,"lon":5.38142,"is_reserved":false,"is_disabled":false,"rental_uris":{"android":"levelo://app?vid=13882975-2ea0-4b5c-b22e-4e8ffdceb8b2","ios":"levelo://app?vid=13882975-2ea0-4b5c-b22e-4e8ffdceb8b2"},"vehicle_type_id":"4","last_reported":1740236877,"current_range_meters":17600,"station_id":"ce4bgj12rcd13ifvqbc0","pricing_plan_id":"cebpf4jnsgd1na2vs0mg"},{"bike_id":"7d4b257a-c60d-48e8-85d7-7dc3f985241e","system_id":"levelo_inurba_marseille","lat":43.29629,"lon":5.38562,"is_reserved":false,"is_disabled":false,"rental_uris":{"android":"levelo://app?vid=7d4b257a-c60d-48e8-85d7-7dc3f985241e","ios":"levelo://app?vid=7d4b257a-c60d-48e8-85d7-7dc3f985241e"},"vehicle_type_id":"4","last_reported":1740236877,"current_range_meters":17600,"station_id":"","pricing_plan_id":"cebpf4jnsgd1na2vs0mg"},{"bike_id":"32fa3d90-5c3b-41f1-9e6d-619f7704d141","system_id":"levelo_inurba_marseille","lat":43.30641,"lon":5.40077,"is_reserved":false,"is_disabled":false,"rental_uris":{"android":"levelo://app?vid=32fa3d90-5c3b-41f1-9e6d-619f7704d141","ios":"levelo://app?vid=32fa3d90-5c3b-41f1-9e6d-619f7704d141"},"vehicle_type_id":"4","last_reported":1740236877,"current_range_meters":17600,"station_id":"ce4bh112rcd13ifvqda0","pricing_plan_id":"cebpf4jnsgd1na2vs0mg"},{"bike_id":"a3610751-bbe4-4d3e-a717-1a0eebd2fb2a","system_id":"levelo_inurba_marseille","lat":43.30697,"lon":5.37523,"is_reserved":false,"is_disabled":false,"rental_uris":{"android":"levelo://app?vid=a3610751-bbe4-4d3e-a717-1a0eebd2fb2a","ios":"levelo://app?vid=a3610751-bbe4-4d3e-a717-1a0eebd2fb2a"},"vehicle_type_id":"4","last_reported":1740236877,"current_range_meters":17600,"station_id":"","pricing_plan_id":"cebpf4jnsgd1na2vs0mg"},{"bike_id":"4caf490d-10e5-4073-8dae-a68a285775aa","system_id":"levelo_inurba_marseille","lat":43.24394,"lon":5.37059,"is_reserved":false,"is_disabled":false,"rental_uris":{"android":"levelo://app?vid=4caf490d-10e5-4073-8dae-a68a285775aa","ios":"levelo://app?vid=4caf490d-10e5-4073-8dae-a68a285775aa"},"vehicle_type_id":"4","last_reported":1740236877,"current_range_meters":18000,"station_id":"ce4bhhh2rcd13ifvqfk0","pricing_plan_id":"cebpf4jnsgd1na2vs0mg"},{"bike_id":"2b5bd5b0-9c76-44c4-b7c6-e5a46b44435a","system_id":"levelo_inurba_marseille","lat":43.24399,"lon":5.37078,"is_reserved":false,"is_disabled":false,"rental_uris":{"android":"levelo://app?vid=2b5bd5b0-9c76-44c4-b7c6-e5a46b44435a","ios":"levelo://app?vid=2b5bd5b0-9c76-44c4-b7c6-e5a46b44435a"},"vehicle_type_id":"4","last_reported":1740236877,"current_range_meters":18000,"station_id":"ce4bhhh2rcd13ifvqfk0","pricing_plan_id":"cebpf4jnsgd1na2vs0mg"},{"bike_id":"63a3343c-910e-4904-b1a7-a75ac1dcabd3","system_id":"levelo_inurba_marseille","lat":43.23149,"lon":5.43713,"is_reserved":false,"is_disabled":false,"rental_uris":{"android":"levelo://app?vid=63a3343c-910e-4904-b1a7-a75ac1dcabd3","ios":"levelo://app?vid=63a3343c-910e-4904-b1a7-a75ac1dcabd3"},"vehicle_type_id":"4","last_reported":1740236877,"current_range_meters":18000,"station_id":"ce4bhmp2rcd13ifvqgog","pricing_plan_id":"cebpf4jnsgd1na2vs0mg"},{"bike_id":"e9881abb-8c73-43fb-958c-c9a14669644d","system_id":"levelo_inurba_marseille","lat":43.26945,"lon":5.40304,"is_reserved":false,"is_disabled":false,"rental_uris":{"android":"levelo://app?vid=e9881abb-8c73-43fb-958c-c9a14669644d","ios":"levelo://app?vid=e9881abb-8c73-43fb-958c-c9a14669644d"},"vehicle_type_id":"4","last_reported":1740236877,"current_range_meters":18000,"station_id":"cjm6bp8fraef2m0cb0m0","pricing_plan_id":"cebpf4jnsgd1na2vs0mg"},{"bike_id":"17d2a171-06a4-473c-888e-813d5ffff4b7","system_id":"levelo_inurba_marseille","lat":43.28457,"lon":5.35894,"is_reserved":false,"is_disabled":false,"rental_uris":{"android":"levelo://app?vid=17d2a171-06a4-473c-888e-813d5ffff4b7","ios":"levelo://app?vid=17d2a171-06a4-473c-888e-813d5ffff4b7"},"vehicle_type_id":"4","last_reported":1740236877,"current_range_meters":17600,"station_id":"ce4bhah2rcd13ifvqei0","pricing_plan_id":"cebpf4jnsgd1na2vs0mg"},{"bike_id":"c4a3f5dd-b8d8-4d73-8a8f-ea8b0e26e290","system_id":"levelo_inurba_marseille","lat":43.29976,"lon":5.41317,"is_reserved":false,"is_disabled":false,"rental_uris":{"android":"levelo://app?vid=c4a3f5dd-b8d8-4d73-8a8f-ea8b0e26e290","ios":"levelo://app?vid=c4a3f5dd-b8d8-4d73-8a8f-ea8b0e26e290"},"vehicle_type_id":"4","last_reported":1740236877,"current_range_meters":18000,"station_id":"ce4bhp12rcd13ifvqh9g","pricing_plan_id":"cebpf4jnsgd1na2vs0mg"},{"bike_id":"79309bab-0a45-4f63-8de8-8a96415815fd","system_id":"levelo_inurba_marseille","lat":43.28421,"lon":5.34993,"is_reserved":false,"is_disabled":false,"rental_uris":{"android":"levelo://app?vid=79309bab-0a45-4f63-8de8-8a96415815fd","ios":"levelo://app?vid=79309bab-0a45-4f63-8de8-8a96415815fd"},"vehicle_type_id":"4","last_reported":1740236877,"current_range_meters":18000,"station_id":"ce4bhbh2rcd13ifvqepg","pricing_plan_id":"cebpf4jnsgd1na2vs0mg"},{"bike_id":"2d48a8bd-17d9-4555-911e-74366fcea1d7","system_id":"levelo_inurba_marseille","lat":43.272069,"lon":5.391755,"is_reserved":false,"is_disabled":false,"rental_uris":{"android":"levelo://app?vid=2d48a8bd-17d9-4555-911e-74366fcea1d7","ios":"levelo://app?vid=2d48a8bd-17d9-4555-911e-74366fcea1d7"},"vehicle_type_id":"4","last_reported":1740236877,"current_range_meters":18000,"station_id":"ce4bhhp2rcd13ifvqfm0","pricing_plan_id":"cebpf4jnsgd1na2vs0mg"},{"bike_id":"642b29a4-1602-4f35-af27-0a8cfd201d1a","system_id":"levelo_inurba_marseille","lat":43.29051,"lon":5.35903,"is_reserved":false,"is_disabled":false,"rental_uris":{"android":"levelo://app?vid=642b29a4-1602-4f35-af27-0a8cfd201d1a","ios":"levelo://app?vid=642b29a4-1602-4f35-af27-0a8cfd201d1a"},"vehicle_type_id":"4","last_reported":1740236877,"current_range_meters":17600,"station_id":"ce4bha92rcd13ifvqeg0","pricing_plan_id":"cebpf4jnsgd1na2vs0mg"},{"bike_id":"80e30e07-59ff-4807-b06b-c6dc1a9e08e2","system_id":"levelo_inurba_marseille","lat":43.33622,"lon":5.40978,"is_reserved":false,"is_disabled":true,"rental_uris":{"android":"levelo://app?vid=80e30e07-59ff-4807-b06b-c6dc1a9e08e2","ios":"levelo://app?vid=80e30e07-59ff-4807-b06b-c6dc1a9e08e2"},"vehicle_type_id":"4","last_reported":1740236877,"current_range_meters":18800,"station_id":"ce4bhqh2rcd13ifvqhmg","pricing_plan_id":"cebpf4jnsgd1na2vs0mg"},{"bike_id":"b2e0a5e0-09c9-4cb0-8f53-932b21613182","system_id":"levelo_inurba_marseille","lat":43.28612,"lon":5.37052,"is_reserved":false,"is_disabled":false,"rental_uris":{"android":"levelo://app?vid=b2e0a5e0-09c9-4cb0-8f53-932b21613182","ios":"levelo://app?vid=b2e0a5e0-09c9-4cb0-8f53-932b21613182"},"vehicle_type_id":"4","last_reported":1740236877,"current_range_meters":18800,"station_id":"ce4bht12rcd13ifvqi60","pricing_plan_id":"cebpf4jnsgd1na2vs0mg"},{"bike_id":"7edad6f1-bb02-4747-8467-5494540e990b","system_id":"levelo_inurba_marseille","lat":43.25014,"lon":5.38914,"is_reserved":false,"is_disabled":false,"rental_uris":{"android":"levelo://app?vid=7edad6f1-bb02-4747-8467-5494540e990b","ios":"levelo://app?vid=7edad6f1-bb02-4747-8467-5494540e990b"},"vehicle_type_id":"4","last_reported":1740236877,"current_range_meters":18800,"station_id":"ce4bhgp2rcd13ifvqfd0","pricing_plan_id":"cebpf4jnsgd1na2vs0mg"},{"bike_id":"8793469c-19b8-4f8d-bd1e-af76e54be51a","system_id":"levelo_inurba_marseille","lat":43.30097,"lon":5.39071,"is_reserved":false,"is_disabled":false,"rental_uris":{"android":"levelo://app?vid=8793469c-19b8-4f8d-bd1e-af76e54be51a","ios":"levelo://app?vid=8793469c-19b8-4f8d-bd1e-af76e54be51a"},"vehicle_type_id":"4","last_reported":1740236877,"current_range_meters":18800,"station_id":"ce4bh192rcd13ifvqdb0","pricing_plan_id":"cebpf4jnsgd1na2vs0mg"},{"bike_id":"47c58b1f-0f04-4a95-ba73-4d794abee5f2","system_id":"levelo_inurba_marseille","lat":43.3045,"lon":5.38885,"is_reserved":false,"is_disabled":true,"rental_uris":{"android":"levelo://app?vid=47c58b1f-0f04-4a95-ba73-4d794abee5f2","ios":"levelo://app?vid=47c58b1f-0f04-4a95-ba73-4d794abee5f2"},"vehicle_type_id":"4","last_reported":1740236877,"current_range_meters":19200,"station_id":"ce4bgk12rcd13ifvqbi0","pricing_plan_id":"cebpf4jnsgd1na2vs0mg"},{"bike_id":"2f157bad-7a82-4662-b1d4-0678928e75a0","system_id":"levelo_inurba_marseille","lat":43.26212,"lon":5.37445,"is_reserved":false,"is_disabled":false,"rental_uris":{"android":"levelo://app?vid=2f157bad-7a82-4662-b1d4-0678928e75a0","ios":"levelo://app?vid=2f157bad-7a82-4662-b1d4-0678928e75a0"},"vehicle_type_id":"4","last_reported":1740236877,"current_range_meters":19200,"station_id":"ce4bhgp2rcd13ifvqfc0","pricing_plan_id":"cebpf4jnsgd1na2vs0mg"},{"bike_id":"de81591b-6e66-45cd-ac7e-e72f16bc7a0f","system_id":"levelo_inurba_marseille","lat":43.295862,"lon":5.377355,"is_reserved":false,"is_disabled":false,"rental_uris":{"android":"levelo://app?vid=de81591b-6e66-45cd-ac7e-e72f16bc7a0f","ios":"levelo://app?vid=de81591b-6e66-45cd-ac7e-e72f16bc7a0f"},"vehicle_type_id":"4","last_reported":1740236877,"current_range_meters":19200,"station_id":"","pricing_plan_id":"cebpf4jnsgd1na2vs0mg"},{"bike_id":"8b6a98b1-b494-4060-b000-20a7e9c0b8cf","system_id":"levelo_inurba_marseille","lat":43.22954,"lon":5.35363,"is_reserved":false,"is_disabled":false,"rental_uris":{"android":"levelo://app?vid=8b6a98b1-b494-4060-b000-20a7e9c0b8cf","ios":"levelo://app?vid=8b6a98b1-b494-4060-b000-20a7e9c0b8cf"},"vehicle_type_id":"4","last_reported":1740236877,"current_range_meters":19200,"station_id":"cpo3532slgdg3j2ikp40","pricing_plan_id":"cebpf4jnsgd1na2vs0mg"},{"bike_id":"5f3ad566-26d1-4334-81ba-4059509dd5cb","system_id":"levelo_inurba_marseille","lat":43.27943,"lon":5.41051,"is_reserved":false,"is_disabled":false,"rental_uris":{"android":"levelo://app?vid=5f3ad566-26d1-4334-81ba-4059509dd5cb","ios":"levelo://app?vid=5f3ad566-26d1-4334-81ba-4059509dd5cb"},"vehicle_type_id":"4","last_reported":1740236877,"current_range_meters":19200,"station_id":"ce4bhnp2rcd13ifvqh0g","pricing_plan_id":"cebpf4jnsgd1na2vs0mg"},{"bike_id":"9faf844a-413f-419f-bdea-64830f7f2bfb","system_id":"levelo_inurba_marseille","lat":43.298992,"lon":5.37912,"is_reserved":false,"is_disabled":false,"rental_uris":{"android":"levelo://app?vid=9faf844a-413f-419f-bdea-64830f7f2bfb","ios":"levelo://app?vid=9faf844a-413f-419f-bdea-64830f7f2bfb"},"vehicle_type_id":"4","last_reported":1740236877,"current_range_meters":19200,"station_id":"","pricing_plan_id":"cebpf4jnsgd1na2vs0mg"},{"bike_id":"ea2936c9-d750-4c5c-8fd4-6eb12ecb1954","system_id":"levelo_inurba_marseille","lat":43.2959,"lon":5.36729,"is_reserved":false,"is_disabled":false,"rental_uris":{"android":"levelo://app?vid=ea2936c9-d750-4c5c-8fd4-6eb12ecb1954","ios":"levelo://app?vid=ea2936c9-d750-4c5c-8fd4-6eb12ecb1954"},"vehicle_type_id":"4","last_reported":1740236877,"current_range_meters":19200,"station_id":"ce4bgph2rcd13ifvqc2g","pricing_plan_id":"cebpf4jnsgd1na2vs0mg"},{"bike_id":"f286271b-6d85-4631-970d-4e33869d99f0","system_id":"levelo_inurba_marseille","lat":43.23154,"lon":5.43701,"is_reserved":false,"is_disabled":false,"rental_uris":{"android":"levelo://app?vid=f286271b-6d85-4631-970d-4e33869d99f0","ios":"levelo://app?vid=f286271b-6d85-4631-970d-4e33869d99f0"},"vehicle_type_id":"4","last_reported":1740236877,"current_range_meters":19200,"station_id":"ce4bhmp2rcd13ifvqgog","pricing_plan_id":"cebpf4jnsgd1na2vs0mg"},{"bike_id":"8814187a-467f-4d17-9736-fc6d62a15fc6","system_id":"levelo_inurba_marseille","lat":43.29186,"lon":5.39304,"is_reserved":false,"is_disabled":false,"rental_uris":{"android":"levelo://app?vid=8814187a-467f-4d17-9736-fc6d62a15fc6","ios":"levelo://app?vid=8814187a-467f-4d17-9736-fc6d62a15fc6"},"vehicle_type_id":"4","last_reported":1740236877,"current_range_meters":19600,"station_id":"ce4bh192rcd13ifvqdd0","pricing_plan_id":"cebpf4jnsgd1na2vs0mg"},{"bike_id":"1580afec-ebca-41ca-a520-3082749a5f7d","system_id":"levelo_inurba_marseille","lat":43.29903,"lon":5.38129,"is_reserved":false,"is_disabled":false,"rental_uris":{"android":"levelo://app?vid=1580afec-ebca-41ca-a520-3082749a5f7d","ios":"levelo://app?vid=1580afec-ebca-41ca-a520-3082749a5f7d"},"vehicle_type_id":"4","last_reported":1740236877,"current_range_meters":19600,"station_id":"ce4bgj12rcd13ifvqbc0","pricing_plan_id":"cebpf4jnsgd1na2vs0mg"},{"bike_id":"3240e6da-8201-43c8-9b78-6ff6c823be9b","system_id":"levelo_inurba_marseille","lat":43.275,"lon":5.4245,"is_reserved":false,"is_disabled":false,"rental_uris":{"android":"levelo://app?vid=3240e6da-8201-43c8-9b78-6ff6c823be9b","ios":"levelo://app?vid=3240e6da-8201-43c8-9b78-6ff6c823be9b"},"vehicle_type_id":"4","last_reported":1740236877,"current_range_meters":19600,"station_id":"ce4bhn92rcd13ifvqgrg","pricing_plan_id":"cebpf4jnsgd1na2vs0mg"},{"bike_id":"70df238e-2623-41c1-ab9f-8a5cc0883a82","system_id":"levelo_inurba_marseille","lat":43.24392,"lon":5.37051,"is_reserved":false,"is_disabled":false,"rental_uris":{"android":"levelo://app?vid=70df238e-2623-41c1-ab9f-8a5cc0883a82","ios":"levelo://app?vid=70df238e-2623-41c1-ab9f-8a5cc0883a82"},"vehicle_type_id":"4","last_reported":1740236877,"current_range_meters":19600,"station_id":"ce4bhhh2rcd13ifvqfk0","pricing_plan_id":"cebpf4jnsgd1na2vs0mg"},{"bike_id":"e18c8233-fb42-42f1-ab53-905025252d8a","system_id":"levelo_inurba_marseille","lat":43.28612,"lon":5.35108,"is_reserved":false,"is_disabled":false,"rental_uris":{"android":"levelo://app?vid=e18c8233-fb42-42f1-ab53-905025252d8a","ios":"levelo://app?vid=e18c8233-fb42-42f1-ab53-905025252d8a"},"vehicle_type_id":"4","last_reported":1740236877,"current_range_meters":19600,"station_id":"ce4bhch2rcd13ifvqeug","pricing_plan_id":"cebpf4jnsgd1na2vs0mg"},{"bike_id":"144ab3ca-3075-4ccc-8d52-95a2e5c3dd27","system_id":"levelo_inurba_marseille","lat":43.2803,"lon":5.36925,"is_reserved":false,"is_disabled":false,"rental_uris":{"android":"levelo://app?vid=144ab3ca-3075-4ccc-8d52-95a2e5c3dd27","ios":"levelo://app?vid=144ab3ca-3075-4ccc-8d52-95a2e5c3dd27"},"vehicle_type_id":"4","last_reported":1740236877,"current_range_meters":19600,"station_id":"ce4bha12rcd13ifvqef0","pricing_plan_id":"cebpf4jnsgd1na2vs0mg"},{"bike_id":"ceadee61-f043-4a2d-8be0-14c8d26fe957","system_id":"levelo_inurba_marseille","lat":43.2737,"lon":5.36257,"is_reserved":false,"is_disabled":false,"rental_uris":{"android":"levelo://app?vid=ceadee61-f043-4a2d-8be0-14c8d26fe957","ios":"levelo://app?vid=ceadee61-f043-4a2d-8be0-14c8d26fe957"},"vehicle_type_id":"4","last_reported":1740236877,"current_range_meters":19600,"station_id":"ce4bhbh2rcd13ifvqeo0","pricing_plan_id":"cebpf4jnsgd1na2vs0mg"},{"bike_id":"70218825-e7c7-4fd9-b72c-ffc35aedd0f4","system_id":"levelo_inurba_marseille","lat":43.25586,"lon":5.38253,"is_reserved":false,"is_disabled":false,"rental_uris":{"android":"levelo://app?vid=70218825-e7c7-4fd9-b72c-ffc35aedd0f4","ios":"levelo://app?vid=70218825-e7c7-4fd9-b72c-ffc35aedd0f4"},"vehicle_type_id":"4","last_reported":1740236877,"current_range_meters":19600,"station_id":"ce4bhih2rcd13ifvqfs0","pricing_plan_id":"cebpf4jnsgd1na2vs0mg"},{"bike_id":"0900b9d7-fcd7-4d9d-9f28-ba583a56952e","system_id":"levelo_inurba_marseille","lat":43.23167,"lon":5.43698,"is_reserved":false,"is_disabled":false,"rental_uris":{"android":"levelo://app?vid=0900b9d7-fcd7-4d9d-9f28-ba583a56952e","ios":"levelo://app?vid=0900b9d7-fcd7-4d9d-9f28-ba583a56952e"},"vehicle_type_id":"4","last_reported":1740236877,"current_range_meters":19600,"station_id":"ce4bhmp2rcd13ifvqgog","pricing_plan_id":"cebpf4jnsgd1na2vs0mg"},{"bike_id":"a0c4f69f-70ef-42bd-b80b-a7978c40e5c8","system_id":"levelo_inurba_marseille","lat":43.23077,"lon":5.3548,"is_reserved":false,"is_disabled":false,"rental_uris":{"android":"levelo://app?vid=a0c4f69f-70ef-42bd-b80b-a7978c40e5c8","ios":"levelo://app?vid=a0c4f69f-70ef-42bd-b80b-a7978c40e5c8"},"vehicle_type_id":"4","last_reported":1740236877,"current_range_meters":19600,"station_id":"cpo3342slgdg3j2ifvpg","pricing_plan_id":"cebpf4jnsgd1na2vs0mg"},{"bike_id":"ee7d6ef0-9764-422a-a563-788d0a770b26","system_id":"levelo_inurba_marseille","lat":43.27372,"lon":5.36262,"is_reserved":false,"is_disabled":false,"rental_uris":{"android":"levelo://app?vid=ee7d6ef0-9764-422a-a563-788d0a770b26","ios":"levelo://app?vid=ee7d6ef0-9764-422a-a563-788d0a770b26"},"vehicle_type_id":"4","last_reported":1740236877,"current_range_meters":20000,"station_id":"ce4bhbh2rcd13ifvqeo0","pricing_plan_id":"cebpf4jnsgd1na2vs0mg"},