{"last_updated":1740683218,"ttl":60,"version":"2.2","data":{"bikes":[{"bike_id":"8d106a55-62e0-4c11-8627-92ac9349a131","system_id":"levelo_inurba_marseille","lat":43.32733,"lon":5.39245,"is_reserved":false,"is_disabled":false,"rental_uris":{"android":"levelo://app?vid=8d106a55-62e0-4c11-8627-92ac9349a131","ios":"levelo://app?vid=8d106a55-62e0-4c11-8627-92ac9349a131"},"vehicle_type_id":"4","last_reported":1740683218,"current_range_meters":3200,"station_id":"","pricing_plan_id":"cebpf4jnsgd1na2vs0mg"},{"bike_id":"f76f8253-e110-4515-8f9a-ef2e540353d2","system_id":"levelo_inurba_marseille","lat":43.30468,"lon":5.37907,"is_reserved":false,"is_disabled":false,"rental_uris":{"android":"levelo://app?vid=f76f8253-e110-4515-8f9a-ef2e540353d2","ios":"levelo://app?vid=f76f8253-e110-4515-8f9a-ef2e540353d2"},"vehicle_type_id":"4","last_reported":1740683218,"current_range_meters":2000,"station_id":"ce4bgup2rcd13ifvqcn0","pricing_plan_id":"cebpf4jnsgd1na2vs0mg"},{"bike_id":"b5368874-e19e-4e33-8e44-b3ac25e43af6","system_id":"levelo_inurba_marseille","lat":43.31314,"lon":5.37082,"is_reserved":false,"is_disabled":false,"rental_uris":{"android":"levelo://app?vid=b5368874-e19e-4e33-8e44-b3ac25e43af6","ios":"levelo://app?vid=b5368874-e19e-4e33-8e44-b3ac25e43af6"},"vehicle_type_id":"4","last_reported":1740683218,"current_range_meters":2800,"station_id":"","pricing_plan_id":"cebpf4jnsgd1na2vs0mg"},{"bike_id":"54a1e4d7-2d3f-4de5-9e08-5877e291184d","system_id":"levelo_inurba_marseille","lat":43.2926,"lon":5.3843,"is_reserved":false,"is_disabled":false,"rental_uris":{"android":"levelo://app?vid=54a1e4d7-2d3f-4de5-9e08-5877e291184d","ios":"levelo://app?vid=54a1e4d7-2d3f-4de5-9e08-5877e291184d"},"vehicle_type_id":"4","last_reported":1740683218,"current_range_meters":4800,"station_id":"ce4bh692rcd13ifvqea0","pricing_plan_id":"cebpf4jnsgd1na2vs0mg"},{"bike_id":"66d939ee-1658-4fca-acc7-9fbed0597bcc","system_id":"levelo_inurba_marseille","lat":43.29199,"lon":5.3581,"is_reserved":false,"is_disabled":false,"rental_uris":{"android":"levelo://app?vid=66d939ee-1658-4fca-acc7-9fbed0597bcc","ios":"levelo://app?vid=66d939ee-1658-4fca-acc7-9fbed0597bcc"},"vehicle_type_id":"4","last_reported":1740683218,"current_range_meters":2800,"station_id":"ce4bhb12rcd13ifvqel0","pricing_plan_id":"cebpf4jnsgd1na2vs0mg"},{"bike_id":"22787286-013f-4744-8851-cec714166505","system_id":"levelo_inurba_marseille","lat":43.28481,"lon":5.38576,"is_reserved":false,"is_disabled":false,"rental_uris":{"android":"levelo://app?vid=22787286-013f-4744-8851-cec714166505","ios":"levelo://app?vid=22787286-013f-4744-8851-cec714166505"},"vehicle_type_id":"4","last_reported":1740683218,"current_range_meters":3200,"station_id":"ce4bh8p2rcd13ifvqeb0","pricing_plan_id":"cebpf4jnsgd1na2vs0mg"},{"bike_id":"78f82992-06a0-42d2-a600-a62f6a13c390","system_id":"levelo_inurba_marseille","lat":43.25584,"lon":5.38231,"is_reserved":false,"is_disabled":false,"rental_uris":{"android":"levelo://app?vid=78f82992-06a0-42d2-a600-a62f6a13c390","ios":"levelo://app?vid=78f82992-06a0-42d2-a600-a62f6a13c390"},"vehicle_type_id":"4","last_reported":1740683218,"current_range_meters":3200,"station_id":"ce4bhih2rcd13ifvqfs0","pricing_plan_id":"cebpf4jnsgd1na2vs0mg"},{"bike_id":"433641fd-723f-41fc-80b5-1db658a857f1","system_id":"levelo_inurba_marseille","lat":43.28706,"lon":5.38641,"is_reserved":false,"is_disabled":false,"rental_uris":{"android":"levelo://app?vid=433641fd-723f-41fc-80b5-1db658a857f1","ios":"levelo://app?vid=433641fd-723f-41fc-80b5-1db658a857f1"},"vehicle_type_id":"4","last_reported":1740683218,"current_range_meters":3200,"station_id":"ce4bh492rcd13ifvqdug","pricing_plan_id":"cebpf4jnsgd1na2vs0mg"},{"bike_id":"36180cba-4a2b-4d9b-bfbc-b38fdf401b58","system_id":"levelo_inurba_marseille","lat":43.29895,"lon":5.43667,"is_reserved":false,"is_disabled":false,"rental_uris":{"android":"levelo://app?vid=36180cba-4a2b-4d9b-bfbc-b38fdf401b58","ios":"levelo://app?vid=36180cba-4a2b-4d9b-bfbc-b38fdf401b58"},"vehicle_type_id":"4","last_reported":1740683218,"current_range_meters":3600,"station_id":"ce4bhpp2rcd13ifvqhfg","pricing_plan_id":"cebpf4jnsgd1na2vs0mg"},{"bike_id":"885e08f2-2a45-4b37-8e7a-5efe31e05bd4","system_id":"levelo_inurba_marseille","lat":43.30295,"lon":5.39185,"is_reserved":false,"is_disabled":false,"rental_uris":{"android":"levelo://app?vid=885e08f2-2a45-4b37-8e7a-5efe31e05bd4","ios":"levelo://app?vid=885e08f2-2a45-4b37-8e7a-5efe31e05bd4"},"vehicle_type_id":"4","last_reported":1740683218,"current_range_meters":3200,"station_id":"ce4bgkh2rcd13ifvqbk0","pricing_plan_id":"cebpf4jnsgd1na2vs0mg"},{"bike_id":"9dcc9010-af29-4293-9763-ae4b69600ec7","system_id":"levelo_inurba_marseille","lat":43.30954,"lon":5.39032,"is_reserved":false,"is_disabled":false,"rental_uris":{"android":"levelo://app?vid=9dcc9010-af29-4293-9763-ae4b69600ec7","ios":"levelo://app?vid=9dcc9010-af29-4293-9763-ae4b69600ec7"},"vehicle_type_id":"4","last_reported":1740683218,"current_range_meters":3200,"station_id":"ce4bgup2rcd13ifvqco0","pricing_plan_id":"cebpf4jnsgd1na2vs0mg"},{"bike_id":"5cba5966-5c3b-429a-a1f4-bbd75942070d","system_id":"levelo_inurba_marseille","lat":43.29532,"lon":5.38542,"is_reserved":false,"is_disabled":false,"rental_uris":{"android":"levelo://app?vid=5cba5966-5c3b-429a-a1f4-bbd75942070d","ios":"levelo://app?vid=5cba5966-5c3b-429a-a1f4-bbd75942070d"},"vehicle_type_id":"4","last_reported":1740683218,"current_range_meters":0,"station_id":"ce4bgih2rcd13ifvqba0","pricing_plan_id":"cebpf4jnsgd1na2vs0mg"},{"bike_id":"a821e09e-1a6f-447a-878e-7332384bcc14","system_id":"levelo_inurba_marseille","lat":43.31703,"lon":5.42394,"is_reserved":false,"is_disabled":false,"rental_uris":{"android":"levelo://app?vid=a821e09e-1a6f-447a-878e-7332384bcc14","ios":"levelo://app?vid=a821e09e-1a6f-447a-878e-7332384bcc14"},"vehicle_type_id":"4","last_reported":1740683218,"current_range_meters":3600,"station_id":"ce4bhp92rcd13ifvqhbg","pricing_plan_id":"cebpf4jnsgd1na2vs0mg"},{"bike_id":"d19fb45b-52d9-410f-aed3-00b10125c17f","system_id":"levelo_inurba_marseille","lat":43.29311,"lon":5.3716,"is_reserved":false,"is_disabled":false,"rental_uris":{"android":"levelo://app?vid=d19fb45b-52d9-410f-aed3-00b10125c17f","ios":"levelo://app?vid=d19fb45b-52d9-410f-aed3-00b10125c17f"},"vehicle_type_id":"4","last_reported":1740683218,"current_range_meters":3200,"station_id":"ce4bgh92rcd13ifvqb40","pricing_plan_id":"cebpf4jnsgd1na2vs0mg"},{"bike_id":"b0698015-d212-4a89-a51a-0158bc2cc45e","system_id":"levelo_inurba_marseille","lat":43.29066,"lon":5.37138,"is_reserved":false,"is_disabled":false,"rental_uris":{"android":"levelo://app?vid=b0698015-d212-4a89-a51a-0158bc2cc45e","ios":"levelo://app?vid=b0698015-d212-4a89-a51a-0158bc2cc45e"},"vehicle_type_id":"4","last_reported":1740683218,"current_range_meters":2800,"station_id":"ce4bh5p2rcd13ifvqe4g","pricing_plan_id":"cebpf4jnsgd1na2vs0mg"},{"bike_id":"41132851-d511-4c72-9149-9c15f641bc7b","system_id":"levelo_inurba_marseille","lat":43.29311,"lon":5.37113,"is_reserved":false,"is_disabled":false,"rental_uris":{"android":"levelo://app?vid=41132851-d511-4c72-9149-9c15f641bc7b","ios":"levelo://app?vid=41132851-d511-4c72-9149-9c15f641bc7b"},"vehicle_type_id":"4","last_reported":1740683218,"current_range_meters":3600,"station_id":"","pricing_plan_id":"cebpf4jnsgd1na2vs0mg"},{"bike_id":"1a38be76-5185-43d4-bb50-e29f5849a81a","system_id":"levelo_inurba_marseille","lat":43.3241,"lon":5.39327,"is_reserved":false,"is_disabled":false,"rental_uris":{"android":"levelo://app?vid=1a38be76-5185-43d4-bb50-e29f5849a81a","ios":"levelo://app?vid=1a38be76-5185-43d4-bb50-e29f5849a81a"},"vehicle_type_id":"4","last_reported":1740683218,"current_range_meters":3600,"station_id":"","pricing_plan_id":"cebpf4jnsgd1na2vs0mg"},{"bike_id":"b2844162-6786-42fc-99b1-57690bfea805","system_id":"levelo_inurba_marseille","lat":43.30249,"lon":5.40069,"is_reserved":false,"is_disabled":false,"rental_uris":{"android":"levelo://app?vid=b2844162-6786-42fc-99b1-57690bfea805","ios":"levelo://app?vid=b2844162-6786-42fc-99b1-57690bfea805"},"vehicle_type_id":"4","last_reported":1740683218,"current_range_meters":3600,"station_id":"ce4bgvh2rcd13ifvqcs0","pricing_plan_id":"cebpf4jnsgd1na2vs0mg"},{"bike_id":"f8729ff8-e714-4afc-9121-272f5471a32d","system_id":"levelo_inurba_marseille","lat":43.22926,"lon":5.35384,"is_reserved":false,"is_disabled":false,"rental_uris":{"android":"levelo://app?vid=f8729ff8-e714-4afc-9121-272f5471a32d","ios":"levelo://app?vid=f8729ff8-e714-4afc-9121-272f5471a32d"},"vehicle_type_id":"4","last_reported":1740683218,"current_range_meters":3600,"station_id":"cpo3532slgdg3j2ikp40","pricing_plan_id":"cebpf4jnsgd1na2vs0mg"},{"bike_id":"2b3617e9-2c8e-40c4-96c6-2a2f92e2a4ef","system_id":"levelo_inurba_marseille","lat":43.29002,"lon":5.35606,"is_reserved":false,"is_disabled":false,"rental_uris":{"android":"levelo://app?vid=2b3617e9-2c8e-40c4-96c6-2a2f92e2a4ef","ios":"levelo://app?vid=2b3617e9-2c8e-40c4-96c6-2a2f92e2a4ef"},"vehicle_type_id":"4","last_reported":1740683218,"current_range_meters":1600,"station_id":"ce4bhb92rcd13ifvqen0","pricing_plan_id":"cebpf4jnsgd1na2vs0mg"},{"bike_id":"c7424894-b88e-4bfe-ac2e-992ef4cc8873","system_id":"levelo_inurba_marseille","lat":43.297838,"lon":5.393491,"is_reserved":false,"is_disabled":false,"rental_uris":{"android":"levelo://app?vid=c7424894-b88e-4bfe-ac2e-992ef4cc8873","ios":"levelo://app?vid=c7424894-b88e-4bfe-ac2e-992ef4cc8873"},"vehicle_type_id":"4","last_reported":1740683218,"current_range_meters":400,"station_id":"chh1huq6cuj3fo74tm60","pricing_plan_id":"cebpf4jnsgd1na2vs0mg"},{"bike_id":"3a64c9ef-d04c-4f8f-8b2e-aa7b3ee7032a","system_id":"levelo_inurba_marseille","lat":43.28973,"lon":5.37842,"is_reserved":false,"is_disabled":false,"rental_uris":{"android":"levelo://app?vid=3a64c9ef-d04c-4f8f-8b2e-aa7b3ee7032a","ios":"levelo://app?vid=3a64c9ef-d04c-4f8f-8b2e-aa7b3ee7032a"},"vehicle_type_id":"4","last_reported":1740683218,"current_range_meters":4000,"station_id":"ce4bh9p2rcd13ifvqed0","pricing_plan_id":"cebpf4jnsgd1na2vs0mg"},{"bike_id":"a2c85ab7-1e06-4246-89e2-5126635f3241","system_id":"levelo_inurba_marseille","lat":43.25581,"lon":5.38247,"is_reserved":false,"is_disabled":false,"rental_uris":{"android":"levelo://app?vid=a2c85ab7-1e06-4246-89e2-5126635f3241","ios":"levelo://app?vid=a2c85ab7-1e06-4246-89e2-5126635f3241"},"vehicle_type_id":"4","last_reported":1740683218,"current_range_meters":4000,"station_id":"ce4bhih2rcd13ifvqfs0","pricing_plan_id":"cebpf4jnsgd1na2vs0mg"},{"bike_id":"ef5e42e5-56f8-46ea-89ed-a14ff0564c46","system_id":"levelo_inurba_marseille","lat":43.30306,"lon":5.40459,"is_reserved":false,"is_disabled":false,"rental_uris":{"android":"levelo://app?vid=ef5e42e5-56f8-46ea-89ed-a14ff0564c46","ios":"levelo://app?vid=ef5e42e5-56f8-46ea-89ed-a14ff0564c46"},"vehicle_type_id":"4","last_reported":1740683218,"current_range_meters":4000,"station_id":"ce4bh012rcd13ifvqd10","pricing_plan_id":"cebpf4jnsgd1na2vs0mg"},{"bike_id":"983055ff-bc71-4f16-b4f9-602a665c6612","system_id":"levelo_inurba_marseille","lat":43.28154,"lon":5.4263,"is_reserved":false,"is_disabled":true,"rental_uris":{"android":"levelo://app?vid=983055ff-bc71-4f16-b4f9-602a665c6612","ios":"levelo://app?vid=983055ff-bc71-4f16-b4f9-602a665c6612"},"vehicle_type_id":"4","last_reported":1740683218,"current_range_meters":4400,"station_id":"ce4bhnh2rcd13ifvqgug","pricing_plan_id":"cebpf4jnsgd1na2vs0mg"},{"bike_id":"1dd9f2c8-4e21-43c9-9e67-2ede70f5c3a1","system_id":"levelo_inurba_marseille","lat":43.27904,"lon":5.3801,"is_reserved":false,"is_disabled":false,"rental_uris":{"android":"levelo://app?vid=1dd9f2c8-4e21-43c9-9e67-2ede70f5c3a1","ios":"levelo://app?vid=1dd9f2c8-4e21-43c9-9e67-2ede70f5c3a1"},"vehicle_type_id":"4","last_reported":1740683218,"current_range_meters":4800,"station_id":"ce4bhf92rcd13ifvqf50","pricing_plan_id":"cebpf4jnsgd1na2vs0mg"},{"bike_id":"1520222d-8b2f-44d4-a24c-8b780b477618","system_id":"levelo_inurba_marseille","lat":43.29278,"lon":5.36847,"is_reserved":false,"is_disabled":false,"rental_uris":{"android":"levelo://app?vid=1520222d-8b2f-44d4-a24c-8b780b477618","ios":"levelo://app?vid=1520222d-8b2f-44d4-a24c-8b780b477618"},"vehicle_type_id":"4","last_reported":1740683218,"current_range_meters":4800,"station_id":"ce4bhbp2rcd13ifvqesg","pricing_plan_id":"cebpf4jnsgd1na2vs0mg"},{"bike_id":"54d46a8b-8314-471a-98f9-6d86686fc605","system_id":"levelo_inurba_marseille","lat":43.25825,"lon":5.39434,"is_reserved":false,"is_disabled":false,"rental_uris":{"android":"levelo://app?vid=54d46a8b-8314-471a-98f9-6d86686fc605","ios":"levelo://app?vid=54d46a8b-8314-471a-98f9-6d86686fc605"},"vehicle_type_id":"4","last_reported":1740683218,"current_range_meters":4800,"station_id":"ce4bhip2rcd13ifvqft0","pricing_plan_id":"cebpf4jnsgd1na2vs0mg"},{"bike_id":"091b0b9e-cdfb-4d37-8a7d-9adbe217249c","system_id":"levelo_inurba_marseille","lat":43.297852,"lon":5.380784,"is_reserved":false,"is_disabled":false,"rental_uris":{"android":"levelo://app?vid=091b0b9e-cdfb-4d37-8a7d-9adbe217249c","ios":"levelo://app?vid=091b0b9e-cdfb-4d37-8a7d-9adbe217249c"},"vehicle_type_id":"4","last_reported":1740683218,"current_range_meters":4800,"station_id":"ce4bguh2rcd13ifvqckg","pricing_plan_id":"cebpf4jnsgd1na2vs0mg"},{"bike_id":"ae23d63f-1813-4ce3-9f00-de91edb6a690","system_id":"levelo_inurba_marseille","lat":43.29223,"lon":5.36059,"is_reserved":false,"is_disabled":false,"rental_uris":{"android":"levelo://app?vid=ae23d63f-1813-4ce3-9f00-de91edb6a690","ios":"levelo://app?vid=ae23d63f-1813-4ce3-9f00-de91edb6a690"},"vehicle_type_id":"4","last_reported":1740683218,"current_range_meters":5600,"station_id":"ce4bhbh2rcd13ifvqeqg","pricing_plan_id":"cebpf4jnsgd1na2vs0mg"},{"bike_id":"14e186aa-bf8c-49ce-b055-14b34d86e044","system_id":"levelo_inurba_marseille","lat":43.303775,"lon":5.386715,"is_reserved":false,"is_disabled":false,"rental_uris":{"android":"levelo://app?vid=14e186aa-bf8c-49ce-b055-14b34d86e044","ios":"levelo://app?vid=14e186aa-bf8c-49ce-b055-14b34d86e044"},"vehicle_type_id":"4","last_reported":1740683218,"current_range_meters":6400,"station_id":"ce4bgk12rcd13ifvqbi0","pricing_plan_id":"cebpf4jnsgd1na2vs0mg"},{"bike_id":"1617b8e8-97ea-412a-8cce-6e995751ad2d","system_id":"levelo_inurba_marseille","lat":43.26063,"lon":5.39394,"is_reserved":false,"is_disabled":false,"rental_uris":{"android":"levelo://app?vid=1617b8e8-97ea-412a-8cce-6e995751ad2d","ios":"levelo://app?vid=1617b8e8-97ea-412a-8cce-6e995751ad2d"},"vehicle_type_id":"4","last_reported":1740683218,"current_range_meters":5600,"station_id":"ce4bhh92rcd13ifvqfj0","pricing_plan_id":"cebpf4jnsgd1na2vs0mg"},{"bike_id":"6f6f7dc9-201b-4a41-bee2-5ce4342e7e71","system_id":"levelo_inurba_marseille","lat":43.2795,"lon":5.38693,"is_reserved":false,"is_disabled":false,"rental_uris":{"android":"levelo://app?vid=6f6f7dc9-201b-4a41-bee2-5ce4342e7e71","ios":"levelo://app?vid=6f6f7dc9-201b-4a41-bee2-5ce4342e7e71"},"vehicle_type_id":"4","last_reported":1740683218,"current_range_meters":5600,"station_id":"ce4bhg12rcd13ifvqf80","pricing_plan_id":"cebpf4jnsgd1na2vs0mg"},{"bike_id":"3b22c3f8-2c3d-4300-9f35-ccdad93bcfff","system_id":"levelo_inurba_marseille","lat":43.29365,"lon":5.37856,"is_reserved":false,"is_disabled":false,"rental_uris":{"android":"levelo://app?vid=3b22c3f8-2c3d-4300-9f35-ccdad93bcfff","ios":"levelo://app?vid=3b22c3f8-2c3d-4300-9f35-ccdad93bcfff"},"vehicle_type_id":"4","last_reported":1740683218,"current_range_meters":6000,"station_id":"ce4bgjh2rcd13ifvqbf0","pricing_plan_id":"cebpf4jnsgd1na2vs0mg"},{"bike_id":"b0e62398-de67-45a0-b9ea-2c80bfb5a691","system_id":"levelo_inurba_marseille","lat":43.27999,"lon":5.4166,"is_reserved":false,"is_disabled":false,"rental_uris":{"android":"levelo://app?vid=b0e62398-de67-45a0-b9ea-2c80bfb5a691","ios":"levelo://app?vid=b0e62398-de67-45a0-b9ea-2c80bfb5a691"},"vehicle_type_id":"4","last_reported":1740683218,"current_range_meters":6000,"station_id":"ce4bho12rcd13ifvqh1g","pricing_plan_id":"cebpf4jnsgd1na2vs0mg"},{"bike_id":"5c3558b3-cf6d-4e8e-ad6d-a1a53b904ba9","system_id":"levelo_inurba_marseille","lat":43.276174,"lon":5.361039,"is_reserved":false,"is_disabled":false,"rental_uris":{"android":"levelo://app?vid=5c3558b3-cf6d-4e8e-ad6d-a1a53b904ba9","ios":"levelo://app?vid=5c3558b3-cf6d-4e8e-ad6d-a1a53b904ba9"},"vehicle_type_id":"4","last_reported":1740683218,"current_range_meters":5600,"station_id":"ce4bhbp2rcd13ifvqerg","pricing_plan_id":"cebpf4jnsgd1na2vs0mg"},{"bike_id":"c661deaa-d0da-492a-b3e7-bfd3eaf15892","system_id":"levelo_inurba_marseille","lat":43.29278,"lon":5.36835,"is_reserved":false,"is_disabled":false,"rental_uris":{"android":"levelo://app?vid=c661deaa-d0da-492a-b3e7-bfd3eaf15892","ios":"levelo://app?vid=c661deaa-d0da-492a-b3e7-bfd3eaf15892"},"vehicle_type_id":"4","last_reported":1740683218,"current_range_meters":6000,"station_id":"ce4bhbp2rcd13ifvqesg","pricing_plan_id":"cebpf4jnsgd1na2vs0mg"},{"bike_id":"30547c64-d96a-4fe1-8d75-5327b72b699a","system_id":"levelo_inurba_marseille","lat":43.31707,"lon":5.40455,"is_reserved":false,"is_disabled":false,"rental_uris":{"android":"levelo://app?vid=30547c64-d96a-4fe1-8d75-5327b72b699a","ios":"levelo://app?vid=30547c64-d96a-4fe1-8d75-5327b72b699a"},"vehicle_type_id":"4","last_reported":1740683218,"current_range_meters":6000,"station_id":"ce4bh012rcd13ifvqd00","pricing_plan_id":"cebpf4jnsgd1na2vs0mg"},{"bike_id":"8912fab6-f22f-49f7-9ef3-0dac0fdbd603","system_id":"levelo_inurba_marseille","lat":43.31327,"lon":5.39687,"is_reserved":false,"is_disabled":false,"rental_uris":{"android":"levelo://app?vid=8912fab6-f22f-49f7-9ef3-0dac0fdbd603","ios":"levelo://app?vid=8912fab6-f22f-49f7-9ef3-0dac0fdbd603"},"vehicle_type_id":"4","last_reported":1740683218,"current_range_meters":6000,"station_id":"ce4bgvp2rcd13ifvqcu0","pricing_plan_id":"cebpf4jnsgd1na2vs0mg"},{"bike_id":"01bfb5d9-6080-452c-b6bf-2a0a33aa1ddb","system_id":"levelo_inurba_marseille","lat":43.25582,"lon":5.38258,"is_reserved":false,"is_disabled":false,"rental_uris":{"android":"levelo://app?vid=01bfb5d9-6080-452c-b6bf-2a0a33aa1ddb","ios":"levelo://app?vid=01bfb5d9-6080-452c-b6bf-2a0a33aa1ddb"},"vehicle_type_id":"4","last_reported":1740683218,"current_range_meters":6400,"station_id":"ce4bhih2rcd13ifvqfs0","pricing_plan_id":"cebpf4jnsgd1na2vs0mg"},{"bike_id":"7560142c-45ea-4aa6-bd5b-a0c4eb95844b","system_id":"levelo_inurba_marseille","lat":43.27034,"lon":5.4023,"is_reserved":false,"is_disabled":true,"rental_uris":{"android":"levelo://app?vid=7560142c-45ea-4aa6-bd5b-a0c4eb95844b","ios":"levelo://app?vid=7560142c-45ea-4aa6-bd5b-a0c4eb95844b"},"vehicle_type_id":"4","last_reported":1740683218,"current_range_meters":6400,"station_id":"ce4bhk92rcd13ifvqgc0","pricing_plan_id":"cebpf4jnsgd1na2vs0mg"},{"bike_id":"5c02b13c-c0df-464a-9d46-e28e12349d4a","system_id":"levelo_inurba_marseille","lat":43.25579,"lon":5.38238,"is_reserved":false,"is_disabled":false,"rental_uris":{"android":"levelo://app?vid=5c02b13c-c0df-464a-9d46-e28e12349d4a","ios":"levelo://app?vid=5c02b13c-c0df-464a-9d46-e28e12349d4a"},"vehicle_type_id":"4","last_reported":1740683218,"current_range_meters":6400,"station_id":"ce4bhih2rcd13ifvqfs0","pricing_plan_id":"cebpf4jnsgd1na2vs0mg"},{"bike_id":"e4e2407e-ea13-4fad-b551-81bfa5e7f924","system_id":"levelo_inurba_marseille","lat":43.32112,"lon":5.36768,"is_reserved":false,"is_disabled":false,"rental_uris":{"android":"levelo://app?vid=e4e2407e-ea13-4fad-b551-81bfa5e7f924","ios":"levelo://app?vid=e4e2407e-ea13-4fad-b551-81bfa5e7f924"},"vehicle_type_id":"4","last_reported":1740683218,"current_range_meters":6400,"station_id":"ce4bhrh2rcd13ifvqhug","pricing_plan_id":"cebpf4jnsgd1na2vs0mg"},{"bike_id":"9e57b985-8782-4028-ae17-1ff3e727ea6e","system_id":"levelo_inurba_marseille","lat":43.29416,"lon":5.38628,"is_reserved":false,"is_disabled":false,"rental_uris":{"android":"levelo://app?vid=9e57b985-8782-4028-ae17-1ff3e727ea6e","ios":"levelo://app?vid=9e57b985-8782-4028-ae17-1ff3e727ea6e"},"vehicle_type_id":"4","last_reported":1740683218,"current_range_meters":5600,"station_id":"ce4bh2h2rcd13ifvqdh0","pricing_plan_id":"cebpf4jnsgd1na2vs0mg"},{"bike_id":"03cfec0c-4d60-4a4e-b554-fe1983bc9882","system_id":"levelo_inurba_marseille","lat":43.30154,"lon":5.39925,"is_reserved":false,"is_disabled":false,"rental_uris":{"android":"levelo://app?vid=03cfec0c-4d60-4a4e-b554-fe1983bc9882","ios":"levelo://app?vid=03cfec0c-4d60-4a4e-b554-fe1983bc9882"},"vehicle_type_id":"4","last_reported":1740683218,"current_range_meters":6800,"station_id":"","pricing_plan_id":"cebpf4jnsgd1na2vs0mg"},{"bike_id":"e4166833-9d8c-4612-acf0-b3753e6ac55a","system_id":"levelo_inurba_marseille","lat":43.29271,"lon":5.3685,"is_reserved":false,"is_disabled":false,"rental_uris":{"android":"levelo://app?vid=e4166833-9d8c-4612-acf0-b3753e6ac55a","ios":"levelo://app?vid=e4166833-9d8c-4612-acf0-b3753e6ac55a"},"vehicle_type_id":"4","last_reported":1740683218,"current_range_meters":6800,"station_id":"ce4bhbp2rcd13ifvqesg","pricing_plan_id":"cebpf4jnsgd1na2vs0mg"},{"bike_id":"7cef3ab8-2b83-421c-82f8-bbc69cfd23e3","system_id":"levelo_inurba_marseille","lat":43.28348,"lon":5.38109,"is_reserved":false,"is_disabled":false,"rental_uris":{"android":"levelo://app?vid=7cef3ab8-2b83-421c-82f8-bbc69cfd23e3","ios":"levelo://app?vid=7cef3ab8-2b83-421c-82f8-bbc69cfd23e3"},"vehicle_type_id":"4","last_reported":1740683218,"current_range_meters":6800,"station_id":"ce4bh412rcd13ifvqdr0","pricing_plan_id":"cebpf4jnsgd1na2vs0mg"},{"bike_id":"ae325eaf-9674-4ff7-b782-cc0190e1afa5","system_id":"levelo_inurba_marseille","lat":43.29032,"lon":5.38145,"is_reserved":false,"is_disabled":false,"rental_uris":{"android":"levelo://app?vid=ae325eaf-9674-4ff7-b782-cc0190e1afa5","ios":"levelo://app?vid=ae325eaf-9674-4ff7-b782-cc0190e1afa5"},"vehicle_type_id":"4","last_reported":1740683218,"current_range_meters":1200,"station_id":"ce4bh4p2rcd13ifvqe1g","pricing_plan_id":"cebpf4jnsgd1na2vs0mg"},{"bike_id":"908f765e-7e5d-4031-9137-0a3a6742176d","system_id":"levelo_inurba_marseille","lat":43.29276,"lon":5.36844,"is_reserved":false,"is_disabled":false,"rental_uris":{"android":"levelo://app?vid=908f765e-7e5d-4031-9137-0a3a6742176d","ios":"levelo://app?vid=908f765e-7e5d-4031-9137-0a3a6742176d"},"vehicle_type_id":"4","last_reported":1740683218,"current_range_meters":6400,"station_id":"ce4bhbp2rcd13ifvqesg","pricing_plan_id":"cebpf4jnsgd1na2vs0mg"},{"bike_id":"9a84ba8d-6006-4d8f-b6f9-44b7d71c42c6","system_id":"levelo_inurba_marseille","lat":43.2868,"lon":5.37391,"is_reserved":false,"is_disabled":true,"rental_uris":{"android":"levelo://app?vid=9a84ba8d-6006-4d8f-b6f9-44b7d71c42c6","ios":"levelo://app?vid=9a84ba8d-6006-4d8f-b6f9-44b7d71c42c6"},"vehicle_type_id":"4","last_reported":1740683218,"current_range_meters":3600,"station_id":"ce4bh3p2rcd13ifvqdq0","pricing_plan_id":"cebpf4jnsgd1na2vs0mg"},{"bike_id":"acf901a5-f1b2-4b14-be8d-312c60ce096d","system_id":"levelo_inurba_marseille","lat":43.31081,"lon":5.4242,"is_reserved":false,"is_disabled":false,"rental_uris":{"android":"levelo://app?vid=acf901a5-f1b2-4b14-be8d-312c60ce096d","ios":"levelo://app?vid=acf901a5-f1b2-4b14-be8d-312c60ce096d"},"vehicle_type_id":"4","last_reported":1740683218,"current_range_meters":6800,"station_id":"ce4bhp92rcd13ifvqhag","pricing_plan_id":"cebpf4jnsgd1na2vs0mg"},{"bike_id":"3aed6401-30fa-417b-b1f4-fed91c185d13","system_id":"levelo_inurba_marseille","lat":43.27942,"lon":5.41028,"is_reserved":false,"is_disabled":false,"rental_uris":{"android":"levelo://app?vid=3aed6401-30fa-417b-b1f4-fed91c185d13","ios":"levelo://app?vid=3aed6401-30fa-417b-b1f4-fed91c185d13"},"vehicle_type_id":"4","last_reported":1740683218,"current_range_meters":6800,"station_id":"ce4bhnp2rcd13ifvqh0g","pricing_plan_id":"cebpf4jnsgd1na2vs0mg"},{"bike_id":"c518dac6-44cb-42e8-b958-bad037d1ceb3","system_id":"levelo_inurba_marseille","lat":43.25583,"lon":5.38214,"is_reserved":false,"is_disabled":false,"rental_uris":{"android":"levelo://app?vid=c518dac6-44cb-42e8-b958-bad037d1ceb3","ios":"levelo://app?vid=c518dac6-44cb-42e8-b958-bad037d1ceb3"},"vehicle_type_id":"4","last_reported":1740683218,"current_range_meters":9600,"station_id":"ce4bhih2rcd13ifvqfs0","pricing_plan_id":"cebpf4jnsgd1na2vs0mg"},{"bike_id":"f0333f81-6f9d-4206-a285-bd6e4b0dbfc4","system_id":"levelo_inurba_marseille","lat":43.32377,"lon":5.38892,"is_reserved":false,"is_disabled":false,"rental_uris":{"android":"levelo://app?vid=f0333f81-6f9d-4206-a285-bd6e4b0dbfc4","ios":"levelo://app?vid=f0333f81-6f9d-4206-a285-bd6e4b0dbfc4"},"vehicle_type_id":"4","last_reported":1740683218,"current_range_meters":7200,"station_id":"ce4bhqp2rcd13ifvqhog","pricing_plan_id":"cebpf4jnsgd1na2vs0mg"},{"bike_id":"6bb0e60e-c2fa-48f4-acf6-3050adaacd87","system_id":"levelo_inurba_marseille","lat":43.2811,"lon":5.37837,"is_reserved":false,"is_disabled":false,"rental_uris":{"android":"levelo://app?vid=6bb0e60e-c2fa-48f4-acf6-3050adaacd87","ios":"levelo://app?vid=6bb0e60e-c2fa-48f4-acf6-3050adaacd87"},"vehicle_type_id":"4","last_reported":1740683218,"current_range_meters":6800,"station_id":"ce4bha12rcd13ifvqee0","pricing_plan_id":"cebpf4jnsgd1na2vs0mg"},{"bike_id":"c15c6035-d64c-4ecc-9959-c6ad27d9d3bd","system_id":"levelo_inurba_marseille","lat":43.29017,"lon":5.37572,"is_reserved":false,"is_disabled":false,"rental_uris":{"android":"levelo://app?vid=c15c6035-d64c-4ecc-9959-c6ad27d9d3bd","ios":"levelo://app?vid=c15c6035-d64c-4ecc-9959-c6ad27d9d3bd"},"vehicle_type_id":"4","last_reported":1740683218,"current_range_meters":7200,"station_id":"ce4bh692rcd13ifvqe90","pricing_plan_id":"cebpf4jnsgd1na2vs0mg"},{"bike_id":"cd5c8d1c-dc14-4e67-96cb-91b5450d347c","system_id":"levelo_inurba_marseille","lat":43.30405,"lon":5.4129,"is_reserved":false,"is_disabled":false,"rental_uris":{"android":"levelo://app?vid=cd5c8d1c-dc14-4e67-96cb-91b5450d347c","ios":"levelo://app?vid=cd5c8d1c-dc14-4e67-96cb-91b5450d347c"},"vehicle_type_id":"4","last_reported":1740683218,"current_range_meters":7200,"station_id":"ce4bhop2rcd13ifvqh8g","pricing_plan_id":"cebpf4jnsgd1na2vs0mg"},{"bike_id":"ad2f0236-dce6-4469-871b-23a450cce7c1","system_id":"levelo_inurba_marseille","lat":43.2693,"lon":5.40262,"is_reserved":false,"is_disabled":false,"rental_uris":{"android":"levelo://app?vid=ad2f0236-dce6-4469-871b-23a450cce7c1","ios":"levelo://app?vid=ad2f0236-dce6-4469-871b-23a450cce7c1"},"vehicle_type_id":"4","last_reported":1740683218,"current_range_meters":6800,"station_id":"cjm6bp8fraef2m0cb0m0","pricing_plan_id":"cebpf4jnsgd1na2vs0mg"},{"bike_id":"63db52bc-c247-4384-8e93-452f228ab2fc","system_id":"levelo_inurba_marseille","lat":43.29573,"lon":5.39979,"is_reserved":false,"is_disabled":false,"rental_uris":{"android":"levelo://app?vid=63db52bc-c247-4384-8e93-452f228ab2fc","ios":"levelo://app?vid=63db52bc-c247-4384-8e93-452f228ab2fc"},"vehicle_type_id":"4","last_reported":1740683218,"current_range_meters":7200,"station_id":"ce4bh312rcd13ifvqdj0","pricing_plan_id":"cebpf4jnsgd1na2vs0mg"},{"bike_id":"325a6320-68b6-4834-adc3-99e680022600","system_id":"levelo_inurba_marseille","lat":43.29418,"lon":5.38619,"is_reserved":false,"is_disabled":false,"rental_uris":{"android":"levelo://app?vid=325a6320-68b6-4834-adc3-99e680022600","ios":"levelo://app?vid=325a6320-68b6-4834-adc3-99e680022600"},"vehicle_type_id":"4","last_reported":1740683218,"current_range_meters":7200,"station_id":"ce4bh2h2rcd13ifvqdh0","pricing_plan_id":"cebpf4jnsgd1na2vs0mg"},{"bike_id":"e2cede1f-926c-4a5b-be97-7f6234266874","system_id":"levelo_inurba_marseille","lat":43.30883,"lon":5.37196,"is_reserved":false,"is_disabled":false,"rental_uris":{"android":"levelo://app?vid=e2cede1f-926c-4a5b-be97-7f6234266874","ios":"levelo://app?vid=e2cede1f-926c-4a5b-be97-7f6234266874"},"vehicle_type_id":"4","last_reported":1740683218,"current_range_meters":7200,"station_id":"ce4bguh2rcd13ifvqckg","pricing_plan_id":"cebpf4jnsgd1na2vs0mg"},{"bike_id":"7950a84b-bc83-460a-b58b-c7f6d7ff0c41","system_id":"levelo_inurba_marseille","lat":43.25863,"lon":5.39904,"is_reserved":false,"is_disabled":false,"rental_uris":{"android":"levelo://app?vid=7950a84b-bc83-460a-b58b-c7f6d7ff0c41","ios":"levelo://app?vid=7950a84b-bc83-460a-b58b-c7f6d7ff0c41"},"vehicle_type_id":"4","last_reported":1740683218,"current_range_meters":7200,"station_id":"ce4bhl92rcd13ifvqghg","pricing_plan_id":"cebpf4jnsgd1na2vs0mg"},{"bike_id":"9778a63b-bf9d-4646-855f-91f7cb2af621","system_id":"levelo_inurba_marseille","lat":43.28942,"lon":5.39627,"is_reserved":false,"is_disabled":false,"rental_uris":{"android":"levelo://app?vid=9778a63b-bf9d-4646-855f-91f7cb2af621","ios":"levelo://app?vid=9778a63b-bf9d-4646-855f-91f7cb2af621"},"vehicle_type_id":"4","last_reported":1740683218,"current_range_meters":8000,"station_id":"ce4bh3h2rcd13ifvqdn0","pricing_plan_id":"cebpf4jnsgd1na2vs0mg"},{"bike_id":"f10f9796-7541-497b-b6e6-805f6c2689ac","system_id":"levelo_inurba_marseille","lat":43.2467,"lon":5.38155,"is_reserved":false,"is_disabled":false,"rental_uris":{"android":"levelo://app?vid=f10f9796-7541-497b-b6e6-805f6c2689ac","ios":"levelo://app?vid=f10f9796-7541-497b-b6e6-805f6c2689ac"},"vehicle_type_id":"4","last_reported":1740683218,"current_range_meters":8000,"station_id":"ce4bhih2rcd13ifvqfr0","pricing_plan_id":"cebpf4jnsgd1na2vs0mg"},{"bike_id":"8b12f042-66ff-4f72-8110-b87f1cf65c0b","system_id":"levelo_inurba_marseille","lat":43.33408,"lon":5.40032,"is_reserved":false,"is_disabled":false,"rental_uris":{"android":"levelo://app?vid=8b12f042-66ff-4f72-8110-b87f1cf65c0b","ios":"levelo://app?vid=8b12f042-66ff-4f72-8110-b87f1cf65c0b"},"vehicle_type_id":"4","last_reported":1740683218,"current_range_meters":8000,"station_id":"","pricing_plan_id":"cebpf4jnsgd1na2vs0mg"},{"bike_id":"63eda945-9ff2-453b-807b-7cd95fc8436e","system_id":"levelo_inurba_marseille","lat":43.29298,"lon":5.37462,"is_reserved":false,"is_disabled":false,"rental_uris":{"android":"levelo://app?vid=63eda945-9ff2-453b-807b-7cd95fc8436e","ios":"levelo://app?vid=63eda945-9ff2-453b-807b-7cd95fc8436e"},"vehicle_type_id":"4","last_reported":1740683218,"current_range_meters":8000,"station_id":"ce4bgi12rcd13ifvqb70","pricing_plan_id":"cebpf4jnsgd1na2vs0mg"},{"bike_id":"7e87147c-0284-4138-8c11-d9b75f832cf6","system_id":"levelo_inurba_marseille","lat":43.25567,"lon":5.38247,"is_reserved":false,"is_disabled":false,"rental_uris":{"android":"levelo://app?vid=7e87147c-0284-4138-8c11-d9b75f832cf6","ios":"levelo://app?vid=7e87147c-0284-4138-8c11-d9b75f832cf6"},"vehicle_type_id":"4","last_reported":1740683218,"current_range_meters":7200,"station_id":"ce4bhih2rcd13ifvqfs0","pricing_plan_id":"cebpf4jnsgd1na2vs0mg"},{"bike_id":"99dc059f-6bdb-4c28-aa36-415973ed63c6","system_id":"levelo_inurba_marseille","lat":43.28352,"lon":5.38094,"is_reserved":false,"is_disabled":false,"rental_uris":{"android":"levelo://app?vid=99dc059f-6bdb-4c28-aa36-415973ed63c6","ios":"levelo://app?vid=99dc059f-6bdb-4c28-aa36-415973ed63c6"},"vehicle_type_id":"4","last_reported":1740683218,"current_range_meters":8000,"station_id":"ce4bh412rcd13ifvqdr0","pricing_plan_id":"cebpf4jnsgd1na2vs0mg"},{"bike_id":"ea8cb564-d405-42e3-911c-0afdd772ee76","system_id":"levelo_inurba_marseille","lat":43.32769,"lon":5.39195,"is_reserved":false,"is_disabled":false,"rental_uris":{"android":"levelo://app?vid=ea8cb564-d405-42e3-911c-0afdd772ee76","ios":"levelo://app?vid=ea8cb564-d405-42e3-911c-0afdd772ee76"},"vehicle_type_id":"4","last_reported":1740683218,"current_range_meters":8400,"station_id":"","pricing_plan_id":"cebpf4jnsgd1na2vs0mg"},{"bike_id":"32512d29-a871-48cc-be36-f6f4d191882e","system_id":"levelo_inurba_marseille","lat":43.28613,"lon":5.35098,"is_reserved":false,"is_disabled":false,"rental_uris":{"android":"levelo://app?vid=32512d29-a871-48cc-be36-f6f4d191882e","ios":"levelo://app?vid=32512d29-a871-48cc-be36-f6f4d191882e"},"vehicle_type_id":"4","last_reported":1740683218,"current_range_meters":8000,"station_id":"ce4bhch2rcd13ifvqeug","pricing_plan_id":"cebpf4jnsgd1na2vs0mg"},{"bike_id":"cede3cd9-b287-4e84-a051-2feb15a3c91a","system_id":"levelo_inurba_marseille","lat":43.30415,"lon":5.41287,"is_reserved":false,"is_disabled":false,"rental_uris":{"android":"levelo://app?vid=cede3cd9-b287-4e84-a051-2feb15a3c91a","ios":"levelo://app?vid=cede3cd9-b287-4e84-a051-2feb15a3c91a"},"vehicle_type_id":"4","last_reported":1740683218,"current_range_meters":8000,"station_id":"ce4bhop2rcd13ifvqh8g","pricing_plan_id":"cebpf4jnsgd1na2vs0mg"},{"bike_id":"8dc35b1c-a9eb-4bac-8f95-b01bae8ea8df","system_id":"levelo_inurba_marseille","lat":43.30805,"lon":5.43526,"is_reserved":false,"is_disabled":false,"rental_uris":{"android":"levelo://app?vid=8dc35b1c-a9eb-4bac-8f95-b01bae8ea8df","ios":"levelo://app?vid=8dc35b1c-a9eb-4bac-8f95-b01bae8ea8df"},"vehicle_type_id":"4","last_reported":1740683218,"current_range_meters":8000,"station_id":"ce4bhph2rcd13ifvqheg","pricing_plan_id":"cebpf4jnsgd1na2vs0mg"},{"bike_id":"1f53eac6-ba10-497e-bc2d-3efb0981732b","system_id":"levelo_inurba_marseille","lat":43.29262,"lon":5.40901,"is_reserved":false,"is_disabled":false,"rental_uris":{"android":"levelo://app?vid=1f53eac6-ba10-497e-bc2d-3efb0981732b","ios":"levelo://app?vid=1f53eac6-ba10-497e-bc2d-3efb0981732b"},"vehicle_type_id":"4","last_reported":1740683218,"current_range_meters":8000,"station_id":"ce4bh192rcd13ifvqdc0","pricing_plan_id":"cebpf4jnsgd1na2vs0mg"},{"bike_id":"39369c67-b6b1-4351-9f37-e16f04ac94c9","system_id":"levelo_inurba_marseille","lat":43.23188,"lon":5.35561,"is_reserved":false,"is_disabled":false,"rental_uris":{"android":"levelo://app?vid=39369c67-b6b1-4351-9f37-e16f04ac94c9","ios":"levelo://app?vid=39369c67-b6b1-4351-9f37-e16f04ac94c9"},"vehicle_type_id":"4","last_reported":1740683218,"current_range_meters":8400,"station_id":"ce4bhu92rcd13ifvqi70","pricing_plan_id":"cebpf4jnsgd1na2vs0mg"},{"bike_id":"d791a742-4738-47cb-9fe6-27aeeea41532","system_id":"levelo_inurba_marseille","lat":43.30671,"lon":5.40062,"is_reserved":false,"is_disabled":false,"rental_uris":{"android":"levelo://app?vid=d791a742-4738-47cb-9fe6-27aeeea41532","ios":"levelo://app?vid=d791a742-4738-47cb-9fe6-27aeeea41532"},"vehicle_type_id":"4","last_reported":1740683218,"current_range_meters":8400,"station_id":"ce4bh112rcd13ifvqda0","pricing_plan_id":"cebpf4jnsgd1na2vs0mg"},{"bike_id":"d70925e2-b08d-440c-97c4-855665399fa2","system_id":"levelo_inurba_marseille","lat":43.29869,"lon":5.38908,"is_reserved":false,"is_disabled":false,"rental_uris":{"android":"levelo://app?vid=d70925e2-b08d-440c-97c4-855665399fa2","ios":"levelo://app?vid=d70925e2-b08d-440c-97c4-855665399fa2"},"vehicle_type_id":"4","last_reported":1740683218,"current_range_meters":8400,"station_id":"ce4bh392rcd13ifvqdl0","pricing_plan_id":"cebpf4jnsgd1na2vs0mg"},{"bike_id":"d9fbfe98-de68-48fc-a6ac-6e6eaeb5062a","system_id":"levelo_inurba_marseille","lat":43.24811,"lon":5.37455,"is_reserved":false,"is_disabled":false,"rental_uris":{"android":"levelo://app?vid=d9fbfe98-de68-48fc-a6ac-6e6eaeb5062a","ios":"levelo://app?vid=d9fbfe98-de68-48fc-a6ac-6e6eaeb5062a"},"vehicle_type_id":"4","last_reported":1740683218,"current_range_meters":8400,"station_id":"ce4bhgh2rcd13ifvqfb0","pricing_plan_id":"cebpf4jnsgd1na2vs0mg"},{"bike_id":"8ba31a41-541a-4339-863e-1d27a2399440","system_id":"levelo_inurba_marseille","lat":43.28724,"lon":5.36093,"is_reserved":false,"is_disabled":false,"rental_uris":{"android":"levelo://app?vid=8ba31a41-541a-4339-863e-1d27a2399440","ios":"levelo://app?vid=8ba31a41-541a-4339-863e-1d27a2399440"},"vehicle_type_id":"4","last_reported":1740683218,"current_range_meters":8400,"station_id":"cki0cbj6b192h4jlfktg","pricing_plan_id":"cebpf4jnsgd1na2vs0mg"},{"bike_id":"9647918c-d815-4482-8c45-927333bd2450","system_id":"levelo_inurba_marseille","lat":43.27827,"lon":5.40687,"is_reserved":false,"is_disabled":false,"rental_uris":{"android":"levelo://app?vid=9647918c-d815-4482-8c45-927333bd2450","ios":"levelo://app?vid=9647918c-d815-4482-8c45-927333bd2450"},"vehicle_type_id":"4","last_reported":1740683218,"current_range_meters":8400,"station_id":"ce4bhnh2rcd13ifvqgtg","pricing_plan_id":"cebpf4jnsgd1na2vs0mg"},{"bike_id":"a154371d-4027-4800-96e4-21c1edbe81a8","system_id":"levelo_inurba_marseille","lat":43.29167,"lon":5.37156,"is_reserved":false,"is_disabled":false,"rental_uris":{"android":"levelo://app?vid=a154371d-4027-4800-96e4-21c1edbe81a8","ios":"levelo://app?vid=a154371d-4027-4800-96e4-21c1edbe81a8"},"vehicle_type_id":"4","last_reported":1740683218,"current_range_meters":8400,"station_id":"ce4bha92rcd13ifvqeh0","pricing_plan_id":"cebpf4jnsgd1na2vs0mg"},{"bike_id":"745c5d38-332d-426b-8e7b-acb525d1c540","system_id":"levelo_inurba_marseille","lat":43.25071,"lon":5.39529,"is_reserved":false,"is_disabled":false,"rental_uris":{"android":"levelo://app?vid=745c5d38-332d-426b-8e7b-acb525d1c540","ios":"levelo://app?vid=745c5d38-332d-426b-8e7b-acb525d1c540"},"vehicle_type_id":"4","last_reported":1740683218,"current_range_meters":8800,"station_id":"ce4bhm12rcd13ifvqgkg","pricing_plan_id":"cebpf4jnsgd1na2vs0mg"},{"bike_id":"e4fbf1d0-0a82-4ae4-95f0-c610456a4662","system_id":"levelo_inurba_marseille","lat":43.24549,"lon":5.39521,"is_reserved":false,"is_disabled":false,"rental_uris":{"android":"levelo://app?vid=e4fbf1d0-0a82-4ae4-95f0-c610456a4662","ios":"levelo://app?vid=e4fbf1d0-0a82-4ae4-95f0-c610456a4662"},"vehicle_type_id":"4","last_reported":1740683218,"current_range_meters":8800,"station_id":"ce4bhlp2rcd13ifvqgjg","pricing_plan_id":"cebpf4jnsgd1na2vs0mg"},{"bike_id":"c887821c-7ed7-472d-ba95-688dc583c8dd","system_id":"levelo_inurba_marseille","lat":43.30245,"lon":5.40039,"is_reserved":false,"is_disabled":false,"rental_uris":{"android":"levelo://app?vid=c887821c-7ed7-472d-ba95-688dc583c8dd","ios":"levelo://app?vid=c887821c-7ed7-472d-ba95-688dc583c8dd"},"vehicle_type_id":"4","last_reported":1740683218,"current_range_meters":3200,"station_id":"ce4bgvh2rcd13ifvqcs0","pricing_plan_id":"cebpf4jnsgd1na2vs0mg"},{"bike_id":"54c459cd-3f3a-4c81-8fdf-fdc5c514f94d","system_id":"levelo_inurba_marseille","lat":43.27832,"lon":5.39214,"is_reserved":false,"is_disabled":false,"rental_uris":{"android":"levelo://app?vid=54c459cd-3f3a-4c81-8fdf-fdc5c514f94d","ios":"levelo://app?vid=54c459cd-3f3a-4c81-8fdf-fdc5c514f94d"},"vehicle_type_id":"4","last_reported":1740683218,"current_range_meters":8400,"station_id":"ce4bhjp2rcd13ifvqga0","pricing_plan_id":"cebpf4jnsgd1na2vs0mg"},{"bike_id":"cff744d4-2517-4d03-914e-a075294d3eac","system_id":"levelo_inurba_marseille","lat":43.30951,"lon":5.39019,"is_reserved":false,"is_disabled":false,"rental_uris":{"android":"levelo://app?vid=cff744d4-2517-4d03-914e-a075294d3eac","ios":"levelo://app?vid=cff744d4-2517-4d03-914e-a075294d3eac"},"vehicle_type_id":"4","last_reported":1740683218,"current_range_meters":8400,"station_id":"ce4bgup2rcd13ifvqco0","pricing_plan_id":"cebpf4jnsgd1na2vs0mg"},{"bike_id":"039ef6be-b708-42df-a6eb-d41656f1ce53","system_id":"levelo_inurba_marseille","lat":43.25103,"lon":5.4034,"is_reserved":false,"is_disabled":false,"rental_uris":{"android":"levelo://app?vid=039ef6be-b708-42df-a6eb-d41656f1ce53","ios":"levelo://app?vid=039ef6be-b708-42df-a6eb-d41656f1ce53"},"vehicle_type_id":"4","last_reported":1740683218,"current_range_meters":8800,"station_id":"ce4bhlh2rcd13ifvqgig","pricing_plan_id":"cebpf4jnsgd1na2vs0mg"},{"bike_id":"e0ad0ce7-19df-4c21-8fa2-d91be2ab5da9","system_id":"levelo_inurba_marseille","lat":43.29807,"lon":5.38098,"is_reserved":false,"is_disabled":false,"rental_uris":{"android":"levelo://app?vid=e0ad0ce7-19df-4c21-8fa2-d91be2ab5da9","ios":"levelo://app?vid=e0ad0ce7-19df-4c21-8fa2-d91be2ab5da9"},"vehicle_type_id":"4","last_reported":1740683218,"current_range_meters":8400,"station_id":"ce4bgip2rcd13ifvqbb0","pricing_plan_id":"cebpf4jnsgd1na2vs0mg"},{"bike_id":"df4c32c0-0206-443a-af1c-484107465aba","system_id":"levelo_inurba_marseille","lat":43.24807,"lon":5.37454,"is_reserved":false,"is_disabled":false,"rental_uris":{"android":"levelo://app?vid=df4c32c0-0206-443a-af1c-484107465aba","ios":"levelo://app?vid=df4c32c0-0206-443a-af1c-484107465aba"},"vehicle_type_id":"4","last_reported":1740683218,"current_range_meters":8800,"station_id":"ce4bhgh2rcd13ifvqfb0","pricing_plan_id":"cebpf4jnsgd1na2vs0mg"},{"bike_id":"8c48f52a-a87f-4b10-9bad-48a387153477","system_id":"levelo_inurba_marseille","lat":43.32357,"lon":5.38882,"is_reserved":false,"is_disabled":false,"rental_uris":{"android":"levelo://app?vid=8c48f52a-a87f-4b10-9bad-48a387153477","ios":"levelo://app?vid=8c48f52a-a87f-4b10-9bad-48a387153477"},"vehicle_type_id":"4","last_reported":1740683218,"current_range_meters":8800,"station_id":"ce4bhqp2rcd13ifvqhog","pricing_plan_id":"cebpf4jnsgd1na2vs0mg"},{"bike_id":"45df513d-4a58-48bd-ae78-1e380a8b69fc","system_id":"levelo_inurba_marseille","lat":43.29569,"lon":5.39966,"is_reserved":false,"is_disabled":false,"rental_uris":{"android":"levelo://app?vid=45df513d-4a58-48bd-ae78-1e380a8b69fc","ios":"levelo://app?vid=45df513d-4a58-48bd-ae78-1e380a8b69fc"},"vehicle_type_id":"4","last_reported":1740683218,"current_range_meters":8800,"station_id":"ce4bh312rcd13ifvqdj0","pricing_plan_id":"cebpf4jnsgd1na2vs0mg"},{"bike_id":"3eb6318b-c22d-4336-9e17-ca033c67b753","system_id":"levelo_inurba_marseille","lat":43.29004,"lon":5.35553,"is_reserved":false,"is_disabled":false,"rental_uris":{"android":"levelo://app?vid=3eb6318b-c22d-4336-9e17-ca033c67b753","ios":"levelo://app?vid=3eb6318b-c22d-4336-9e17-ca033c67b753"},"vehicle_type_id":"4","last_reported":1740683218,"current_range_meters":8800,"station_id":"ce4bhb92rcd13ifvqen0","pricing_plan_id":"cebpf4jnsgd1na2vs0mg"},{"bike_id":"c997b30a-bd84-4943-809c-ccf6d5b32c4f","system_id":"levelo_inurba_marseille","lat":43.27624,"lon":5.36137,"is_reserved":false,"is_disabled":false,"rental_uris":{"android":"levelo://app?vid=c997b30a-bd84-4943-809c-ccf6d5b32c4f","ios":"levelo://app?vid=c997b30a-bd84-4943-809c-ccf6d5b32c4f"},"vehicle_type_id":"4","last_reported":1740683218,"current_range_meters":9200,"station_id":"ce4bgj92rcd13ifvqbe0","pricing_plan_id":"cebpf4jnsgd1na2vs0mg"},{"bike_id":"792148fd-78bb-40e2-99a4-ec365e5bd128","system_id":"levelo_inurba_marseille","lat":43.29005,"lon":5.35614,"is_reserved":false,"is_disabled":false,"rental_uris":{"android":"levelo://app?vid=792148fd-78bb-40e2-99a4-ec365e5bd128","ios":"levelo://app?vid=792148fd-78bb-40e2-99a4-ec365e5bd128"},"vehicle_type_id":"4","last_reported":1740683218,"current_range_meters":8800,"station_id":"ce4bhb92rcd13ifvqen0","pricing_plan_id":"cebpf4jnsgd1na2vs0mg"},{"bike_id":"3f0907b3-da2b-41a5-8662-a0489e1a0f25","system_id":"levelo_inurba_marseille","lat":43.32102,"lon":5.36777,"is_reserved":false,"is_disabled":false,"rental_uris":{"android":"levelo://app?vid=3f0907b3-da2b-41a5-8662-a0489e1a0f25","ios":"levelo://app?vid=3f0907b3-da2b-41a5-8662-a0489e1a0f25"},"vehicle_type_id":"4","last_reported":1740683218,"current_range_meters":8800,"station_id":"ce4bhrh2rcd13ifvqhug","pricing_plan_id":"cebpf4jnsgd1na2vs0mg"},{"bike_id":"31369f20-0828-4757-acf7-cdbba4735842","system_id":"levelo_inurba_marseille","lat":43.29281,"lon":5.36855,"is_reserved":false,"is_disabled":false,"rental_uris":{"android":"levelo://app?vid=31369f20-0828-4757-acf7-cdbba4735842","ios":"levelo://app?vid=31369f20-0828-4757-acf7-cdbba4735842"},"vehicle_type_id":"4","last_reported":1740683218,"current_range_meters":6800,"station_id":"ce4bhbp2rcd13ifvqesg","pricing_plan_id":"cebpf4jnsgd1na2vs0mg"},{"bike_id":"91f909e9-358e-43ed-a45f-822af931a978","system_id":"levelo_inurba_marseille","lat":43.23212,"lon":5.40367,"is_reserved":false,"is_disabled":false,"rental_uris":{"android":"levelo://app?vid=91f909e9-358e-43ed-a45f-822af931a978","ios":"levelo://app?vid=91f909e9-358e-43ed-a45f-822af931a978"},"vehicle_type_id":"4","last_reported":1740683218,"current_range_meters":9200,"station_id":"","pricing_plan_id":"cebpf4jnsgd1na2vs0mg"},{"bike_id":"afd98e29-9e65-49b1-96e9-da6c0e62de76","system_id":"levelo_inurba_marseille","lat":43.2925,"lon":5.38195,"is_reserved":false,"is_disabled":false,"rental_uris":{"android":"levelo://app?vid=afd98e29-9e65-49b1-96e9-da6c0e62de76","ios":"levelo://app?vid=afd98e29-9e65-49b1-96e9-da6c0e62de76"},"vehicle_type_id":"4","last_reported":1740683218,"current_range_meters":9200,"station_id":"","pricing_plan_id":"cebpf4jnsgd1na2vs0mg"},{"bike_id":"dca58a4c-c2cf-4daa-b828-1721a4c479bd","system_id":"levelo_inurba_marseille","lat":43.2997,"lon":5.37168,"is_reserved":false,"is_disabled":false,"rental_uris":{"android":"levelo://app?vid=dca58a4c-c2cf-4daa-b828-1721a4c479bd","ios":"levelo://app?vid=dca58a4c-c2cf-4daa-b828-1721a4c479bd"},"vehicle_type_id":"4","last_reported":1740683218,"current_range_meters":8800,"station_id":"ce4bgr92rcd13ifvqc7g","pricing_plan_id":"cebpf4jnsgd1na2vs0mg"},{"bike_id":"021be2e4-031c-47cd-87d2-fad59fe1dabd","system_id":"levelo_inurba_marseille","lat":43.24661,"lon":5.38166,"is_reserved":false,"is_disabled":false,"rental_uris":{"android":"levelo://app?vid=021be2e4-031c-47cd-87d2-fad59fe1dabd","ios":"levelo://app?vid=021be2e4-031c-47cd-87d2-fad59fe1dabd"},"vehicle_type_id":"4","last_reported":1740683218,"current_range_meters":9200,"station_id":"ce4bhih2rcd13ifvqfr0","pricing_plan_id":"cebpf4jnsgd1na2vs0mg"},{"bike_id":"d0274246-7184-4568-bd95-b2f3da988287","system_id":"levelo_inurba_marseille","lat":43.25815,"lon":5.3943,"is_reserved":false,"is_disabled":false,"rental_uris":{"android":"levelo://app?vid=d0274246-7184-4568-bd95-b2f3da988287","ios":"levelo://app?vid=d0274246-7184-4568-bd95-b2f3da988287"},"vehicle_type_id":"4","last_reported":1740683218,"current_range_meters":12000,"station_id":"ce4bhip2rcd13ifvqft0","pricing_plan_id":"cebpf4jnsgd1na2vs0mg"},{"bike_id":"c6b23046-3dbb-4c24-b439-362e9ad2c23a","system_id":"levelo_inurba_marseille","lat":43.25006,"lon":5.38929,"is_reserved":false,"is_disabled":false,"rental_uris":{"android":"levelo://app?vid=c6b23046-3dbb-4c24-b439-362e9ad2c23a","ios":"levelo://app?vid=c6b23046-3dbb-4c24-b439-362e9ad2c23a"},"vehicle_type_id":"4","last_reported":1740683218,"current_range_meters":9200,"station_id":"ce4bhgp2rcd13ifvqfd0","pricing_plan_id":"cebpf4jnsgd1na2vs0mg"},{"bike_id":"eb8c116f-dc7a-4bec-88bc-99a10062f3a6","system_id":"levelo_inurba_marseille","lat":43.27628,"lon":5.36135,"is_reserved":false,"is_disabled":false,"rental_uris":{"android":"levelo://app?vid=eb8c116f-dc7a-4bec-88bc-99a10062f3a6","ios":"levelo://app?vid=eb8c116f-dc7a-4bec-88bc-99a10062f3a6"},"vehicle_type_id":"4","last_reported":1740683218,"current_range_meters":9200,"station_id":"ce4bgj92rcd13ifvqbe0","pricing_plan_id":"cebpf4jnsgd1na2vs0mg"},{"bike_id":"74d4a88d-ad3a-4128-a926-23a749e3d79b","system_id":"levelo_inurba_marseille","lat":43.23189,"lon":5.35565,"is_reserved":false,"is_disabled":false,"rental_uris":{"android":"levelo://app?vid=74d4a88d-ad3a-4128-a926-23a749e3d79b","ios":"levelo://app?vid=74d4a88d-ad3a-4128-a926-23a749e3d79b"},"vehicle_type_id":"4","last_reported":1740683218,"current_range_meters":9600,"station_id":"ce4bhu92rcd13ifvqi70","pricing_plan_id":"cebpf4jnsgd1na2vs0mg"},{"bike_id":"325735dc-12f6-48c8-9a05-d378991cdb6c","system_id":"levelo_inurba_marseille","lat":43.29259,"lon":5.38433,"is_reserved":false,"is_disabled":false,"rental_uris":{"android":"levelo://app?vid=325735dc-12f6-48c8-9a05-d378991cdb6c","ios":"levelo://app?vid=325735dc-12f6-48c8-9a05-d378991cdb6c"},"vehicle_type_id":"4","last_reported":1740683218,"current_range_meters":9600,"station_id":"ce4bh692rcd13ifvqea0","pricing_plan_id":"cebpf4jnsgd1na2vs0mg"},{"bike_id":"5e0e22b0-e973-48d0-8bed-a771273f721a","system_id":"levelo_inurba_marseille","lat":43.27377,"lon":5.36255,"is_reserved":false,"is_disabled":false,"rental_uris":{"android":"levelo://app?vid=5e0e22b0-e973-48d0-8bed-a771273f721a","ios":"levelo://app?vid=5e0e22b0-e973-48d0-8bed-a771273f721a"},"vehicle_type_id":"4","last_reported":1740683218,"current_range_meters":9600,"station_id":"ce4bhbh2rcd13ifvqeo0","pricing_plan_id":"cebpf4jnsgd1na2vs0mg"},{"bike_id":"c139078c-6f0c-4f2f-bfe4-8ebedc20a7e1","system_id":"levelo_inurba_marseille","lat":43.32481,"lon":5.36551,"is_reserved":false,"is_disabled":false,"rental_uris":{"android":"levelo://app?vid=c139078c-6f0c-4f2f-bfe4-8ebedc20a7e1","ios":"levelo://app?vid=c139078c-6f0c-4f2f-bfe4-8ebedc20a7e1"},"vehicle_type_id":"4","last_reported":1740683218,"current_range_meters":9200,"station_id":"ce4bhs12rcd13ifvqhvg","pricing_plan_id":"cebpf4jnsgd1na2vs0mg"},{"bike_id":"03ecd382-3850-4874-86ef-0467a1a8c988","system_id":"levelo_inurba_marseille","lat":43.24165,"lon":5.39719,"is_reserved":false,"is_disabled":true,"rental_uris":{"android":"levelo://app?vid=03ecd382-3850-4874-86ef-0467a1a8c988","ios":"levelo://app?vid=03ecd382-3850-4874-86ef-0467a1a8c988"},"vehicle_type_id":"4","last_reported":1740683218,"current_range_meters":9600,"station_id":"ce4bhn12rcd13ifvqgpg","pricing_plan_id":"cebpf4jnsgd1na2vs0mg"},{"bike_id":"e4127e72-139a-478c-bc8d-43f39e537533","system_id":"levelo_inurba_marseille","lat":43.29704,"lon":5.3661,"is_reserved":false,"is_disabled":false,"rental_uris":{"android":"levelo://app?vid=e4127e72-139a-478c-bc8d-43f39e537533","ios":"levelo://app?vid=e4127e72-139a-478c-bc8d-43f39e537533"},"vehicle_type_id":"4","last_reported":1740683218,"current_range_meters":9600,"station_id":"ce4bgn12rcd13ifvqbt0","pricing_plan_id":"cebpf4jnsgd1na2vs0mg"},{"bike_id":"882cac04-fa7f-4f03-9238-14946d05ea85","system_id":"levelo_inurba_marseille","lat":43.2902,"lon":5.35603,"is_reserved":false,"is_disabled":false,"rental_uris":{"android":"levelo://app?vid=882cac04-fa7f-4f03-9238-14946d05ea85","ios":"levelo://app?vid=882cac04-fa7f-4f03-9238-14946d05ea85"},"vehicle_type_id":"4","last_reported":1740683218,"current_range_meters":9600,"station_id":"ce4bhb92rcd13ifvqen0","pricing_plan_id":"cebpf4jnsgd1na2vs0mg"},{"bike_id":"b314b2f6-1e4d-4863-9ce0-49841450f422","system_id":"levelo_inurba_marseille","lat":43.23199,"lon":5.35537,"is_reserved":false,"is_disabled":false,"rental_uris":{"android":"levelo://app?vid=b314b2f6-1e4d-4863-9ce0-49841450f422","ios":"levelo://app?vid=b314b2f6-1e4d-4863-9ce0-49841450f422"},"vehicle_type_id":"4","last_reported":1740683218,"current_range_meters":10800,"station_id":"ce4bhu92rcd13ifvqi70","pricing_plan_id":"cebpf4jnsgd1na2vs0mg"},{"bike_id":"9aeb3c4a-a7ed-4b78-aca1-0d13fcf03987","system_id":"levelo_inurba_marseille","lat":43.2924,"lon":5.3845,"is_reserved":false,"is_disabled":false,"rental_uris":{"android":"levelo://app?vid=9aeb3c4a-a7ed-4b78-aca1-0d13fcf03987","ios":"levelo://app?vid=9aeb3c4a-a7ed-4b78-aca1-0d13fcf03987"},"vehicle_type_id":"4","last_reported":1740683218,"current_range_meters":10000,"station_id":"ce4bh692rcd13ifvqea0","pricing_plan_id":"cebpf4jnsgd1na2vs0mg"},{"bike_id":"4d78ba47-3377-44c1-83a0-02486625597d","system_id":"levelo_inurba_marseille","lat":43.26913,"lon":5.40272,"is_reserved":false,"is_disabled":false,"rental_uris":{"android":"levelo://app?vid=4d78ba47-3377-44c1-83a0-02486625597d","ios":"levelo://app?vid=4d78ba47-3377-44c1-83a0-02486625597d"},"vehicle_type_id":"4","last_reported":1740683218,"current_range_meters":10000,"station_id":"cjm6bp8fraef2m0cb0m0","pricing_plan_id":"cebpf4jnsgd1na2vs0mg"},{"bike_id":"4a139258-8348-42d9-8cbf-cf2fadde1eb6","system_id":"levelo_inurba_marseille","lat":43.29539,"lon":5.38543,"is_reserved":false,"is_disabled":false,"rental_uris":{"android":"levelo://app?vid=4a139258-8348-42d9-8cbf-cf2fadde1eb6","ios":"levelo://app?vid=4a139258-8348-42d9-8cbf-cf2fadde1eb6"},"vehicle_type_id":"4","last_reported":1740683218,"current_range_meters":10000,"station_id":"ce4bgih2rcd13ifvqba0","pricing_plan_id":"cebpf4jnsgd1na2vs0mg"},{"bike_id":"1181ce1e-a248-40b0-9ad6-bb150270a904","system_id":"levelo_inurba_marseille","lat":43.31873,"lon":5.3762,"is_reserved":false,"is_disabled":false,"rental_uris":{"android":"levelo://app?vid=1181ce1e-a248-40b0-9ad6-bb150270a904","ios":"levelo://app?vid=1181ce1e-a248-40b0-9ad6-bb150270a904"},"vehicle_type_id":"4","last_reported":1740683218,"current_range_meters":10000,"station_id":"","pricing_plan_id":"cebpf4jnsgd1na2vs0mg"},{"bike_id":"4517841d-f497-4adf-b7bc-cc9acc9fc2a5","system_id":"levelo_inurba_marseille","lat":43.29732,"lon":5.36623,"is_reserved":false,"is_disabled":false,"rental_uris":{"android":"levelo://app?vid=4517841d-f497-4adf-b7bc-cc9acc9fc2a5","ios":"levelo://app?vid=4517841d-f497-4adf-b7bc-cc9acc9fc2a5"},"vehicle_type_id":"4","last_reported":1740683218,"current_range_meters":10000,"station_id":"ce4bgn12rcd13ifvqbt0","pricing_plan_id":"cebpf4jnsgd1na2vs0mg"},{"bike_id":"0684c9b8-68d1-4121-82b2-00c0eebe64db","system_id":"levelo_inurba_marseille","lat":43.27951,"lon":5.41038,"is_reserved":false,"is_disabled":false,"rental_uris":{"android":"levelo://app?vid=0684c9b8-68d1-4121-82b2-00c0eebe64db","ios":"levelo://app?vid=0684c9b8-68d1-4121-82b2-00c0eebe64db"},"vehicle_type_id":"4","last_reported":1740683218,"current_range_meters":10000,"station_id":"ce4bhnp2rcd13ifvqh0g","pricing_plan_id":"cebpf4jnsgd1na2vs0mg"},{"bike_id":"949c0c1f-2d1c-4118-a2ac-4404b09e8263","system_id":"levelo_inurba_marseille","lat":43.30134,"lon":5.38765,"is_reserved":false,"is_disabled":false,"rental_uris":{"android":"levelo://app?vid=949c0c1f-2d1c-4118-a2ac-4404b09e8263","ios":"levelo://app?vid=949c0c1f-2d1c-4118-a2ac-4404b09e8263"},"vehicle_type_id":"4","last_reported":1740683218,"current_range_meters":9600,"station_id":"ce4bghh2rcd13ifvqb60","pricing_plan_id":"cebpf4jnsgd1na2vs0mg"},{"bike_id":"e5c4159e-1b69-403c-900c-f56cee27c4b9","system_id":"levelo_inurba_marseille","lat":43.28996,"lon":5.35605,"is_reserved":false,"is_disabled":false,"rental_uris":{"android":"levelo://app?vid=e5c4159e-1b69-403c-900c-f56cee27c4b9","ios":"levelo://app?vid=e5c4159e-1b69-403c-900c-f56cee27c4b9"},"vehicle_type_id":"4","last_reported":1740683218,"current_range_meters":10000,"station_id":"ce4bhb92rcd13ifvqen0","pricing_plan_id":"cebpf4jnsgd1na2vs0mg"},{"bike_id":"fc408c22-0b5c-47dd-8f37-2f4aead5d1cb","system_id":"levelo_inurba_marseille","lat":43.28728,"lon":5.36086,"is_reserved":false,"is_disabled":false,"rental_uris":{"android":"levelo://app?vid=fc408c22-0b5c-47dd-8f37-2f4aead5d1cb","ios":"levelo://app?vid=fc408c22-0b5c-47dd-8f37-2f4aead5d1cb"},"vehicle_type_id":"4","last_reported":1740683218,"current_range_meters":10800,"station_id":"cki0cbj6b192h4jlfktg","pricing_plan_id":"cebpf4jnsgd1na2vs0mg"},{"bike_id":"2f218cd9-6dc2-4509-acc5-b6e8dd4cef8b","system_id":"levelo_inurba_marseille","lat":43.28456,"lon":5.35885,"is_reserved":false,"is_disabled":false,"rental_uris":{"android":"levelo://app?vid=2f218cd9-6dc2-4509-acc5-b6e8dd4cef8b","ios":"levelo://app?vid=2f218cd9-6dc2-4509-acc5-b6e8dd4cef8b"},"vehicle_type_id":"4","last_reported":1740683218,"current_range_meters":10800,"station_id":"ce4bhah2rcd13ifvqei0","pricing_plan_id":"cebpf4jnsgd1na2vs0mg"},{"bike_id":"17209f80-451e-4586-b620-381cc150687e","system_id":"levelo_inurba_marseille","lat":43.29886,"lon":5.38901,"is_reserved":false,"is_disabled":false,"rental_uris":{"android":"levelo://app?vid=17209f80-451e-4586-b620-381cc150687e","ios":"levelo://app?vid=17209f80-451e-4586-b620-381cc150687e"},"vehicle_type_id":"4","last_reported":1740683218,"current_range_meters":10800,"station_id":"ce4bh392rcd13ifvqdl0","pricing_plan_id":"cebpf4jnsgd1na2vs0mg"},{"bike_id":"6e12d8d7-5bb8-4723-ace6-5d1f6c1c605f","system_id":"levelo_inurba_marseille","lat":43.30416,"lon":5.3974,"is_reserved":false,"is_disabled":false,"rental_uris":{"android":"levelo://app?vid=6e12d8d7-5bb8-4723-ace6-5d1f6c1c605f","ios":"levelo://app?vid=6e12d8d7-5bb8-4723-ace6-5d1f6c1c605f"},"vehicle_type_id":"4","last_reported":1740683218,"current_range_meters":14400,"station_id":"ce4bh092rcd13ifvqd20","pricing_plan_id":"cebpf4jnsgd1na2vs0mg"},{"bike_id":"d8994050-39f7-4aaa-af77-5e87c12121df","system_id":"levelo_inurba_marseille","lat":43.29012,"lon":5.35608,"is_reserved":false,"is_disabled":false,"rental_uris":{"android":"levelo://app?vid=d8994050-39f7-4aaa-af77-5e87c12121df","ios":"levelo://app?vid=d8994050-39f7-4aaa-af77-5e87c12121df"},"vehicle_type_id":"4","last_reported":1740683218,"current_range_meters":10800,"station_id":"ce4bhb92rcd13ifvqen0","pricing_plan_id":"cebpf4jnsgd1na2vs0mg"},{"bike_id":"9c16f73b-d883-4318-9d54-d8eb1fe44c91","system_id":"levelo_inurba_marseille","lat":43.27815,"lon":5.40703,"is_reserved":false,"is_disabled":false,"rental_uris":{"android":"levelo://app?vid=9c16f73b-d883-4318-9d54-d8eb1fe44c91","ios":"levelo://app?vid=9c16f73b-d883-4318-9d54-d8eb1fe44c91"},"vehicle_type_id":"4","last_reported":1740683218,"current_range_meters":10800,"station_id":"ce4bhnh2rcd13ifvqgtg","pricing_plan_id":"cebpf4jnsgd1na2vs0mg"},{"bike_id":"0c853880-bf3b-4f4f-acc8-3b51e98c646a","system_id":"levelo_inurba_marseille","lat":43.30653,"lon":5.40094,"is_reserved":false,"is_disabled":false,"rental_uris":{"android":"levelo://app?vid=0c853880-bf3b-4f4f-acc8-3b51e98c646a","ios":"levelo://app?vid=0c853880-bf3b-4f4f-acc8-3b51e98c646a"},"vehicle_type_id":"4","last_reported":1740683218,"current_range_meters":8400,"station_id":"ce4bh112rcd13ifvqda0","pricing_plan_id":"cebpf4jnsgd1na2vs0mg"},{"bike_id":"cd55dab6-f16f-477a-8396-951702ed9ff6","system_id":"levelo_inurba_marseille","lat":43.29583,"lon":5.36744,"is_reserved":false,"is_disabled":false,"rental_uris":{"android":"levelo://app?vid=cd55dab6-f16f-477a-8396-951702ed9ff6","ios":"levelo://app?vid=cd55dab6-f16f-477a-8396-951702ed9ff6"},"vehicle_type_id":"4","last_reported":1740683218,"current_range_meters":10800,"station_id":"ce4bgph2rcd13ifvqc2g","pricing_plan_id":"cebpf4jnsgd1na2vs0mg"},{"bike_id":"9f589d75-fc27-4706-bb85-31f81240bc08","system_id":"levelo_inurba_marseille","lat":43.28356,"lon":5.38104,"is_reserved":false,"is_disabled":false,"rental_uris":{"android":"levelo://app?vid=9f589d75-fc27-4706-bb85-31f81240bc08","ios":"levelo://app?vid=9f589d75-fc27-4706-bb85-31f81240bc08"},"vehicle_type_id":"4","last_reported":1740683218,"current_range_meters":10800,"station_id":"ce4bh412rcd13ifvqdr0","pricing_plan_id":"cebpf4jnsgd1na2vs0mg"},{"bike_id":"cd1a0bbd-8f89-41bc-a1d1-fe6a513c3cbd","system_id":"levelo_inurba_marseille","lat":43.29418,"lon":5.3863,"is_reserved":false,"is_disabled":false,"rental_uris":{"android":"levelo://app?vid=cd1a0bbd-8f89-41bc-a1d1-fe6a513c3cbd","ios":"levelo://app?vid=cd1a0bbd-8f89-41bc-a1d1-fe6a513c3cbd"},"vehicle_type_id":"4","last_reported":1740683218,"current_range_meters":10800,"station_id":"ce4bh2h2rcd13ifvqdh0","pricing_plan_id":"cebpf4jnsgd1na2vs0mg"},{"bike_id":"52f461a8-850a-4da7-a45d-029244560583","system_id":"levelo_inurba_marseille","lat":43.29417,"lon":5.38625,"is_reserved":false,"is_disabled":false,"rental_uris":{"android":"levelo://app?vid=52f461a8-850a-4da7-a45d-029244560583","ios":"levelo://app?vid=52f461a8-850a-4da7-a45d-029244560583"},"vehicle_type_id":"4","last_reported":1740683218,"current_range_meters":10800,"station_id":"ce4bh2h2rcd13ifvqdh0","pricing_plan_id":"cebpf4jnsgd1na2vs0mg"},{"bike_id":"93867d9f-0990-4096-aa0f-7fdefe38550d","system_id":"levelo_inurba_marseille","lat":43.28671,"lon":5.38666,"is_reserved":false,"is_disabled":false,"rental_uris":{"android":"levelo://app?vid=93867d9f-0990-4096-aa0f-7fdefe38550d","ios":"levelo://app?vid=93867d9f-0990-4096-aa0f-7fdefe38550d"},"vehicle_type_id":"4","last_reported":1740683218,"current_range_meters":10800,"station_id":"ce4bh492rcd13ifvqdug","pricing_plan_id":"cebpf4jnsgd1na2vs0mg"},{"bike_id":"ef07471c-b4e5-4b0b-bac9-6883bc3810fd","system_id":"levelo_inurba_marseille","lat":43.2695,"lon":5.38622,"is_reserved":false,"is_disabled":false,"rental_uris":{"android":"levelo://app?vid=ef07471c-b4e5-4b0b-bac9-6883bc3810fd","ios":"levelo://app?vid=ef07471c-b4e5-4b0b-bac9-6883bc3810fd"},"vehicle_type_id":"4","last_reported":1740683218,"current_range_meters":11200,"station_id":"ce4bhh92rcd13ifvqfh0","pricing_plan_id":"cebpf4jnsgd1na2vs0mg"},{"bike_id":"eea25fa1-2db0-4cb4-901f-2535ea4c664c","system_id":"levelo_inurba_marseille","lat":43.30324,"lon":5.40431,"is_reserved":false,"is_disabled":false,"rental_uris":{"android":"levelo://app?vid=eea25fa1-2db0-4cb4-901f-2535ea4c664c","ios":"levelo://app?vid=eea25fa1-2db0-4cb4-901f-2535ea4c664c"},"vehicle_type_id":"4","last_reported":1740683218,"current_range_meters":11600,"station_id":"ce4bh012rcd13ifvqd10","pricing_plan_id":"cebpf4jnsgd1na2vs0mg"},{"bike_id":"5cdf1157-258e-4dbe-9eac-97f9742be378","system_id":"levelo_inurba_marseille","lat":43.27379,"lon":5.36252,"is_reserved":false,"is_disabled":false,"rental_uris":{"android":"levelo://app?vid=5cdf1157-258e-4dbe-9eac-97f9742be378","ios":"levelo://app?vid=5cdf1157-258e-4dbe-9eac-97f9742be378"},"vehicle_type_id":"4","last_reported":1740683218,"current_range_meters":11200,"station_id":"ce4bhbh2rcd13ifvqeo0","pricing_plan_id":"cebpf4jnsgd1na2vs0mg"},{"bike_id":"04af008c-7cf0-4699-bd56-7e1351039e1c","system_id":"levelo_inurba_marseille","lat":43.27376,"lon":5.36267,"is_reserved":false,"is_disabled":false,"rental_uris":{"android":"levelo://app?vid=04af008c-7cf0-4699-bd56-7e1351039e1c","ios":"levelo://app?vid=04af008c-7cf0-4699-bd56-7e1351039e1c"},"vehicle_type_id":"4","last_reported":1740683218,"current_range_meters":11200,"station_id":"ce4bhbh2rcd13ifvqeo0","pricing_plan_id":"cebpf4jnsgd1na2vs0mg"},{"bike_id":"981e058a-45e0-44d9-8403-8430f0fc8ed0","system_id":"levelo_inurba_marseille","lat":43.28101,"lon":5.37815,"is_reserved":false,"is_disabled":false,"rental_uris":{"android":"levelo://app?vid=981e058a-45e0-44d9-8403-8430f0fc8ed0","ios":"levelo://app?vid=981e058a-45e0-44d9-8403-8430f0fc8ed0"},"vehicle_type_id":"4","last_reported":1740683218,"current_range_meters":11200,"station_id":"ce4bha12rcd13ifvqee0","pricing_plan_id":"cebpf4jnsgd1na2vs0mg"},{"bike_id":"64d5bd85-58b2-4b54-b93c-4a6aef9a8da8","system_id":"levelo_inurba_marseille","lat":43.30541,"lon":5.36517,"is_reserved":false,"is_disabled":true,"rental_uris":{"android":"levelo://app?vid=64d5bd85-58b2-4b54-b93c-4a6aef9a8da8","ios":"levelo://app?vid=64d5bd85-58b2-4b54-b93c-4a6aef9a8da8"},"vehicle_type_id":"4","last_reported":1740683218,"current_range_meters":11600,"station_id":"ce4bgs12rcd13ifvqcag","pricing_plan_id":"cebpf4jnsgd1na2vs0mg"},{"bike_id":"79dd12ea-fee8-4cce-b7f0-42f5f2122985","system_id":"levelo_inurba_marseille","lat":43.29202,"lon":5.38525,"is_reserved":false,"is_disabled":false,"rental_uris":{"android":"levelo://app?vid=79dd12ea-fee8-4cce-b7f0-42f5f2122985","ios":"levelo://app?vid=79dd12ea-fee8-4cce-b7f0-42f5f2122985"},"vehicle_type_id":"4","last_reported":1740683218,"current_range_meters":11200,"station_id":"","pricing_plan_id":"cebpf4jnsgd1na2vs0mg"},{"bike_id":"3f7717c6-4333-4862-bdb7-4b58e2481c84","system_id":"levelo_inurba_marseille","lat":43.29285,"lon":5.37447,"is_reserved":false,"is_disabled":false,"rental_uris":{"android":"levelo://app?vid=3f7717c6-4333-4862-bdb7-4b58e2481c84","ios":"levelo://app?vid=3f7717c6-4333-4862-bdb7-4b58e2481c84"},"vehicle_type_id":"4","last_reported":1740683218,"current_range_meters":9600,"station_id":"ce4bgi12rcd13ifvqb70","pricing_plan_id":"cebpf4jnsgd1na2vs0mg"},{"bike_id":"8aeb7d88-58e7-44d8-949f-e824b368aa5f","system_id":"levelo_inurba_marseille","lat":43.31367,"lon":5.38493,"is_reserved":false,"is_disabled":false,"rental_uris":{"android":"levelo://app?vid=8aeb7d88-58e7-44d8-949f-e824b368aa5f","ios":"levelo://app?vid=8aeb7d88-58e7-44d8-949f-e824b368aa5f"},"vehicle_type_id":"4","last_reported":1740683218,"current_range_meters":11600,"station_id":"ce4bgt92rcd13ifvqcf0","pricing_plan_id":"cebpf4jnsgd1na2vs0mg"},{"bike_id":"31171f8c-3056-4774-acb6-aa3248204fc2","system_id":"levelo_inurba_marseille","lat":43.2587,"lon":5.39901,"is_reserved":false,"is_disabled":false,"rental_uris":{"android":"levelo://app?vid=31171f8c-3056-4774-acb6-aa3248204fc2","ios":"levelo://app?vid=31171f8c-3056-4774-acb6-aa3248204fc2"},"vehicle_type_id":"4","last_reported":1740683218,"current_range_meters":11200,"station_id":"ce4bhl92rcd13ifvqghg","pricing_plan_id":"cebpf4jnsgd1na2vs0mg"},{"bike_id":"85d4e625-bb62-4748-bf71-c215f09598bf","system_id":"levelo_inurba_marseille","lat":43.26958,"lon":5.3863,"is_reserved":false,"is_disabled":false,"rental_uris":{"android":"levelo://app?vid=85d4e625-bb62-4748-bf71-c215f09598bf","ios":"levelo://app?vid=85d4e625-bb62-4748-bf71-c215f09598bf"},"vehicle_type_id":"4","last_reported":1740683218,"current_range_meters":11200,"station_id":"ce4bhh92rcd13ifvqfh0","pricing_plan_id":"cebpf4jnsgd1na2vs0mg"},{"bike_id":"ba122ef8-2121-4107-a958-9fd09a8942f5","system_id":"levelo_inurba_marseille","lat":43.31402,"lon":5.3849,"is_reserved":false,"is_disabled":false,"rental_uris":{"android":"levelo://app?vid=ba122ef8-2121-4107-a958-9fd09a8942f5","ios":"levelo://app?vid=ba122ef8-2121-4107-a958-9fd09a8942f5"},"vehicle_type_id":"4","last_reported":1740683218,"current_range_meters":11200,"station_id":"ce4bgt92rcd13ifvqcf0","pricing_plan_id":"cebpf4jnsgd1na2vs0mg"},{"bike_id":"2d7d4d42-7ecd-49cd-a62f-3f204f180034","system_id":"levelo_inurba_marseille","lat":43.2931,"lon":5.3717,"is_reserved":false,"is_disabled":false,"rental_uris":{"android":"levelo://app?vid=2d7d4d42-7ecd-49cd-a62f-3f204f180034","ios":"levelo://app?vid=2d7d4d42-7ecd-49cd-a62f-3f204f180034"},"vehicle_type_id":"4","last_reported":1740683218,"current_range_meters":10800,"station_id":"ce4bgh92rcd13ifvqb40","pricing_plan_id":"cebpf4jnsgd1na2vs0mg"},{"bike_id":"907b990b-0a8a-4924-acec-37622f347ce1","system_id":"levelo_inurba_marseille","lat":43.28613,"lon":5.35107,"is_reserved":false,"is_disabled":false,"rental_uris":{"android":"levelo://app?vid=907b990b-0a8a-4924-acec-37622f347ce1","ios":"levelo://app?vid=907b990b-0a8a-4924-acec-37622f347ce1"},"vehicle_type_id":"4","last_reported":1740683218,"current_range_meters":11200,"station_id":"ce4bhch2rcd13ifvqeug","pricing_plan_id":"cebpf4jnsgd1na2vs0mg"},{"bike_id":"ab3ae644-bc74-4779-9d00-afaab1721981","system_id":"levelo_inurba_marseille","lat":43.262,"lon":5.37926,"is_reserved":false,"is_disabled":false,"rental_uris":{"android":"levelo://app?vid=ab3ae644-bc74-4779-9d00-afaab1721981","ios":"levelo://app?vid=ab3ae644-bc74-4779-9d00-afaab1721981"},"vehicle_type_id":"4","last_reported":1740683218,"current_range_meters":11200,"station_id":"ce4bhjp2rcd13ifvqg90","pricing_plan_id":"cebpf4jnsgd1na2vs0mg"},{"bike_id":"762127dc-3e23-4298-92a5-8388fd302b31","system_id":"levelo_inurba_marseille","lat":43.30324,"lon":5.4043,"is_reserved":false,"is_disabled":false,"rental_uris":{"android":"levelo://app?vid=762127dc-3e23-4298-92a5-8388fd302b31","ios":"levelo://app?vid=762127dc-3e23-4298-92a5-8388fd302b31"},"vehicle_type_id":"4","last_reported":1740683218,"current_range_meters":12800,"station_id":"ce4bh012rcd13ifvqd10","pricing_plan_id":"cebpf4jnsgd1na2vs0mg"},{"bike_id":"041409e9-6fda-439e-a530-53046fc4070d","system_id":"levelo_inurba_marseille","lat":43.29163,"lon":5.37158,"is_reserved":false,"is_disabled":false,"rental_uris":{"android":"levelo://app?vid=041409e9-6fda-439e-a530-53046fc4070d","ios":"levelo://app?vid=041409e9-6fda-439e-a530-53046fc4070d"},"vehicle_type_id":"4","last_reported":1740683218,"current_range_meters":9200,"station_id":"ce4bha92rcd13ifvqeh0","pricing_plan_id":"cebpf4jnsgd1na2vs0mg"},{"bike_id":"2c0affc2-a2ea-4e24-a659-6e93261f5330","system_id":"levelo_inurba_marseille","lat":43.28843,"lon":5.35848,"is_reserved":false,"is_disabled":false,"rental_uris":{"android":"levelo://app?vid=2c0affc2-a2ea-4e24-a659-6e93261f5330","ios":"levelo://app?vid=2c0affc2-a2ea-4e24-a659-6e93261f5330"},"vehicle_type_id":"4","last_reported":1740683218,"current_range_meters":11600,"station_id":"ce4bhb12rcd13ifvqem0","pricing_plan_id":"cebpf4jnsgd1na2vs0mg"},{"bike_id":"25280302-8ec4-4c21-984e-bcefb3715e41","system_id":"levelo_inurba_marseille","lat":43.29844,"lon":5.36275,"is_reserved":false,"is_disabled":false,"rental_uris":{"android":"levelo://app?vid=25280302-8ec4-4c21-984e-bcefb3715e41","ios":"levelo://app?vid=25280302-8ec4-4c21-984e-bcefb3715e41"},"vehicle_type_id":"4","last_reported":1740683218,"current_range_meters":11600,"station_id":"ce4bgpp2rcd13ifvqc3g","pricing_plan_id":"cebpf4jnsgd1na2vs0mg"},{"bike_id":"b8c4fd10-3ce8-4f31-9326-a655e1e1e6cd","system_id":"levelo_inurba_marseille","lat":43.29049,"lon":5.35915,"is_reserved":false,"is_disabled":false,"rental_uris":{"android":"levelo://app?vid=b8c4fd10-3ce8-4f31-9326-a655e1e1e6cd","ios":"levelo://app?vid=b8c4fd10-3ce8-4f31-9326-a655e1e1e6cd"},"vehicle_type_id":"4","last_reported":1740683218,"current_range_meters":11200,"station_id":"ce4bha92rcd13ifvqeg0","pricing_plan_id":"cebpf4jnsgd1na2vs0mg"},{"bike_id":"443370dd-f8b8-457a-b6f8-389b804ff6fc","system_id":"levelo_inurba_marseille","lat":43.32366,"lon":5.38873,"is_reserved":false,"is_disabled":false,"rental_uris":{"android":"levelo://app?vid=443370dd-f8b8-457a-b6f8-389b804ff6fc","ios":"levelo://app?vid=443370dd-f8b8-457a-b6f8-389b804ff6fc"},"vehicle_type_id":"4","last_reported":1740683218,"current_range_meters":12000,"station_id":"ce4bhqp2rcd13ifvqhog","pricing_plan_id":"cebpf4jnsgd1na2vs0mg"},{"bike_id":"d5795822-79fa-4ce8-9bc3-eaf3fdc6e475","system_id":"levelo_inurba_marseille","lat":43.29522,"lon":5.39407,"is_reserved":false,"is_disabled":false,"rental_uris":{"android":"levelo://app?vid=d5795822-79fa-4ce8-9bc3-eaf3fdc6e475","ios":"levelo://app?vid=d5795822-79fa-4ce8-9bc3-eaf3fdc6e475"},"vehicle_type_id":"4","last_reported":1740683218,"current_range_meters":11600,"station_id":"ce4bh292rcd13ifvqdf0","pricing_plan_id":"cebpf4jnsgd1na2vs0mg"},{"bike_id":"f84d7596-4c47-4c18-a4f9-ba218eafea6d","system_id":"levelo_inurba_marseille","lat":43.28399,"lon":5.37513,"is_reserved":false,"is_disabled":false,"rental_uris":{"android":"levelo://app?vid=f84d7596-4c47-4c18-a4f9-ba218eafea6d","ios":"levelo://app?vid=f84d7596-4c47-4c18-a4f9-ba218eafea6d"},"vehicle_type_id":"4","last_reported":1740683218,"current_range_meters":4000,"station_id":"ce4bh412rcd13ifvqds0","pricing_plan_id":"cebpf4jnsgd1na2vs0mg"},{"bike_id":"4e2e11f8-e9a3-4f3a-9372-23488c564b9c","system_id":"levelo_inurba_marseille","lat":43.28445,"lon":5.35893,"is_reserved":false,"is_disabled":false,"rental_uris":{"android":"levelo://app?vid=4e2e11f8-e9a3-4f3a-9372-23488c564b9c","ios":"levelo://app?vid=4e2e11f8-e9a3-4f3a-9372-23488c564b9c"},"vehicle_type_id":"4","last_reported":1740683218,"current_range_meters":12400,"station_id":"ce4bhah2rcd13ifvqei0","pricing_plan_id":"cebpf4jnsgd1na2vs0mg"},{"bike_id":"7cf7b894-d393-4f1a-903c-6b57f99cdc54","system_id":"levelo_inurba_marseille","lat":43.26384,"lon":5.38422,"is_reserved":false,"is_disabled":false,"rental_uris":{"android":"levelo://app?vid=7cf7b894-d393-4f1a-903c-6b57f99cdc54","ios":"levelo://app?vid=7cf7b894-d393-4f1a-903c-6b57f99cdc54"},"vehicle_type_id":"4","last_reported":1740683218,"current_range_meters":12400,"station_id":"","pricing_plan_id":"cebpf4jnsgd1na2vs0mg"},{"bike_id":"c4ccb655-dd9b-43ab-8f3c-0263f338f6f3","system_id":"levelo_inurba_marseille","lat":43.29918,"lon":5.36546,"is_reserved":false,"is_disabled":false,"rental_uris":{"android":"levelo://app?vid=c4ccb655-dd9b-43ab-8f3c-0263f338f6f3","ios":"levelo://app?vid=c4ccb655-dd9b-43ab-8f3c-0263f338f6f3"},"vehicle_type_id":"4","last_reported":1740683218,"current_range_meters":12400,"station_id":"ce4bgm92rcd13ifvqbr0","pricing_plan_id":"cebpf4jnsgd1na2vs0mg"},{"bike_id":"9a4b2dfd-5521-4d39-89c4-46fa7beb950a","system_id":"levelo_inurba_marseille","lat":43.30933,"lon":5.40139,"is_reserved":false,"is_disabled":false,"rental_uris":{"android":"levelo://app?vid=9a4b2dfd-5521-4d39-89c4-46fa7beb950a","ios":"levelo://app?vid=9a4b2dfd-5521-4d39-89c4-46fa7beb950a"},"vehicle_type_id":"4","last_reported":1740683218,"current_range_meters":12000,"station_id":"ce4bgvp2rcd13ifvqct0","pricing_plan_id":"cebpf4jnsgd1na2vs0mg"},{"bike_id":"e89404bc-b67d-4aa0-b5b9-0d5adc52fc30","system_id":"levelo_inurba_marseille","lat":43.28612,"lon":5.35119,"is_reserved":false,"is_disabled":false,"rental_uris":{"android":"levelo://app?vid=e89404bc-b67d-4aa0-b5b9-0d5adc52fc30","ios":"levelo://app?vid=e89404bc-b67d-4aa0-b5b9-0d5adc52fc30"},"vehicle_type_id":"4","last_reported":1740683218,"current_range_meters":12400,"station_id":"ce4bhch2rcd13ifvqeug","pricing_plan_id":"cebpf4jnsgd1na2vs0mg"},{"bike_id":"3de9aeda-1f9a-4bbc-8b90-e02a49e56ca9","system_id":"levelo_inurba_marseille","lat":43.2319,"lon":5.35555,"is_reserved":false,"is_disabled":false,"rental_uris":{"android":"levelo://app?vid=3de9aeda-1f9a-4bbc-8b90-e02a49e56ca9","ios":"levelo://app?vid=3de9aeda-1f9a-4bbc-8b90-e02a49e56ca9"},"vehicle_type_id":"4","last_reported":1740683218,"current_range_meters":12400,"station_id":"ce4bhu92rcd13ifvqi70","pricing_plan_id":"cebpf4jnsgd1na2vs0mg"},{"bike_id":"24949d68-375b-45f3-af72-df603690b8e5","system_id":"levelo_inurba_marseille","lat":43.28618,"lon":5.351,"is_reserved":false,"is_disabled":false,"rental_uris":{"android":"levelo://app?vid=24949d68-375b-45f3-af72-df603690b8e5","ios":"levelo://app?vid=24949d68-375b-45f3-af72-df603690b8e5"},"vehicle_type_id":"4","last_reported":1740683218,"current_range_meters":12400,"station_id":"ce4bhch2rcd13ifvqeug","pricing_plan_id":"cebpf4jnsgd1na2vs0mg"},{"bike_id":"e6b54db8-68f0-488f-b39c-3c8b1fff8322","system_id":"levelo_inurba_marseille","lat":43.30948,"lon":5.39041,"is_reserved":false,"is_disabled":false,"rental_uris":{"android":"levelo://app?vid=e6b54db8-68f0-488f-b39c-3c8b1fff8322","ios":"levelo://app?vid=e6b54db8-68f0-488f-b39c-3c8b1fff8322"},"vehicle_type_id":"4","last_reported":1740683218,"current_range_meters":12400,"station_id":"ce4bgup2rcd13ifvqco0","pricing_plan_id":"cebpf4jnsgd1na2vs0mg"},{"bike_id":"1393e48a-5096-48c2-8ef4-ef737b7b43ae","system_id":"levelo_inurba_marseille","lat":43.25088,"lon":5.39533,"is_reserved":false,"is_disabled":false,"rental_uris":{"android":"levelo://app?vid=1393e48a-5096-48c2-8ef4-ef737b7b43ae","ios":"levelo://app?vid=1393e48a-5096-48c2-8ef4-ef737b7b43ae"},"vehicle_type_id":"4","last_reported":1740683218,"current_range_meters":13600,"station_id":"ce4bhm12rcd13ifvqgkg","pricing_plan_id":"cebpf4jnsgd1na2vs0mg"},{"bike_id":"199d096e-ca37-47f9-963f-1f0656cac9e4","system_id":"levelo_inurba_marseille","lat":43.25725,"lon":5.39414,"is_reserved":false,"is_disabled":false,"rental_uris":{"android":"levelo://app?vid=199d096e-ca37-47f9-963f-1f0656cac9e4","ios":"levelo://app?vid=199d096e-ca37-47f9-963f-1f0656cac9e4"},"vehicle_type_id":"4","last_reported":1740683218,"current_range_meters":14000,"station_id":"","pricing_plan_id":"cebpf4jnsgd1na2vs0mg"},{"bike_id":"06f46088-86dd-4f85-a76e-b4e1ebe0acc7","system_id":"levelo_inurba_marseille","lat":43.28612,"lon":5.3509,"is_reserved":false,"is_disabled":false,"rental_uris":{"android":"levelo://app?vid=06f46088-86dd-4f85-a76e-b4e1ebe0acc7","ios":"levelo://app?vid=06f46088-86dd-4f85-a76e-b4e1ebe0acc7"},"vehicle_type_id":"4","last_reported":1740683218,"current_range_meters":12800,"station_id":"ce4bhch2rcd13ifvqeug","pricing_plan_id":"cebpf4jnsgd1na2vs0mg"},{"bike_id":"6bf62df5-9f2c-4676-be2e-3425368f3119","system_id":"levelo_inurba_marseille","lat":43.29328,"lon":5.38238,"is_reserved":false,"is_disabled":false,"rental_uris":{"android":"levelo://app?vid=6bf62df5-9f2c-4676-be2e-3425368f3119","ios":"levelo://app?vid=6bf62df5-9f2c-4676-be2e-3425368f3119"},"vehicle_type_id":"4","last_reported":1740683218,"current_range_meters":12800,"station_id":"","pricing_plan_id":"cebpf4jnsgd1na2vs0mg"},{"bike_id":"07a70f40-d064-434b-83aa-228acdf7dd53","system_id":"levelo_inurba_marseille","lat":43.23191,"lon":5.39994,"is_reserved":false,"is_disabled":false,"rental_uris":{"android":"levelo://app?vid=07a70f40-d064-434b-83aa-228acdf7dd53","ios":"levelo://app?vid=07a70f40-d064-434b-83aa-228acdf7dd53"},"vehicle_type_id":"4","last_reported":1740683218,"current_range_meters":13600,"station_id":"ce4bhn12rcd13ifvqgqg","pricing_plan_id":"cebpf4jnsgd1na2vs0mg"},{"bike_id":"428cc8c3-41c4-481d-ad15-0bd46f567261","system_id":"levelo_inurba_marseille","lat":43.28618,"lon":5.3512,"is_reserved":false,"is_disabled":false,"rental_uris":{"android":"levelo://app?vid=428cc8c3-41c4-481d-ad15-0bd46f567261","ios":"levelo://app?vid=428cc8c3-41c4-481d-ad15-0bd46f567261"},"vehicle_type_id":"4","last_reported":1740683218,"current_range_meters":13600,"station_id":"ce4bhch2rcd13ifvqeug","pricing_plan_id":"cebpf4jnsgd1na2vs0mg"},{"bike_id":"f6eed71a-beb2-4b66-8b99-ccfc81a5ec39","system_id":"levelo_inurba_marseille","lat":43.28155,"lon":5.4264,"is_reserved":false,"is_disabled":false,"rental_uris":{"android":"levelo://app?vid=f6eed71a-beb2-4b66-8b99-ccfc81a5ec39","ios":"levelo://app?vid=f6eed71a-beb2-4b66-8b99-ccfc81a5ec39"},"vehicle_type_id":"4","last_reported":1740683218,"current_range_meters":13600,"station_id":"ce4bhnh2rcd13ifvqgug","pricing_plan_id":"cebpf4jnsgd1na2vs0mg"},{"bike_id":"576577ec-e3eb-4409-9937-72761e8d846e","system_id":"levelo_inurba_marseille","lat":43.31172,"lon":5.38711,"is_reserved":false,"is_disabled":false,"rental_uris":{"android":"levelo://app?vid=576577ec-e3eb-4409-9937-72761e8d846e","ios":"levelo://app?vid=576577ec-e3eb-4409-9937-72761e8d846e"},"vehicle_type_id":"4","last_reported":1740683218,"current_range_meters":13600,"station_id":"ce4bgv12rcd13ifvqcp0","pricing_plan_id":"cebpf4jnsgd1na2vs0mg"},{"bike_id":"56094efe-d4e5-4e4e-87a5-ed2d48c579b1","system_id":"levelo_inurba_marseille","lat":43.29781,"lon":5.37114,"is_reserved":false,"is_disabled":false,"rental_uris":{"android":"levelo://app?vid=56094efe-d4e5-4e4e-87a5-ed2d48c579b1","ios":"levelo://app?vid=56094efe-d4e5-4e4e-87a5-ed2d48c579b1"},"vehicle_type_id":"4","last_reported":1740683218,"current_range_meters":12800,"station_id":"ce4bgop2rcd13ifvqc1g","pricing_plan_id":"cebpf4jnsgd1na2vs0mg"},{"bike_id":"6f0b6b23-2c88-4b98-8081-d25ac90a1a8b","system_id":"levelo_inurba_marseille","lat":43.28412,"lon":5.37518,"is_reserved":false,"is_disabled":false,"rental_uris":{"android":"levelo://app?vid=6f0b6b23-2c88-4b98-8081-d25ac90a1a8b","ios":"levelo://app?vid=6f0b6b23-2c88-4b98-8081-d25ac90a1a8b"},"vehicle_type_id":"4","last_reported":1740683218,"current_range_meters":13600,"station_id":"ce4bh412rcd13ifvqds0","pricing_plan_id":"cebpf4jnsgd1na2vs0mg"},{"bike_id":"a88e9d61-7e15-4bbe-ab9c-aba0a66dcc50","system_id":"levelo_inurba_marseille","lat":43.24807,"lon":5.37455,"is_reserved":false,"is_disabled":false,"rental_uris":{"android":"levelo://app?vid=a88e9d61-7e15-4bbe-ab9c-aba0a66dcc50","ios":"levelo://app?vid=a88e9d61-7e15-4bbe-ab9c-aba0a66dcc50"},"vehicle_type_id":"4","last_reported":1740683218,"current_range_meters":13600,"station_id":"ce4bhgh2rcd13ifvqfb0","pricing_plan_id":"cebpf4jnsgd1na2vs0mg"},{"bike_id":"d53fb70a-6708-4ff2-a2f4-4d1115ea53f1","system_id":"levelo_inurba_marseille","lat":43.2971,"lon":5.36608,"is_reserved":false,"is_disabled":false,"rental_uris":{"android":"levelo://app?vid=d53fb70a-6708-4ff2-a2f4-4d1115ea53f1","ios":"levelo://app?vid=d53fb70a-6708-4ff2-a2f4-4d1115ea53f1"},"vehicle_type_id":"4","last_reported":1740683218,"current_range_meters":14000,"station_id":"ce4bgn12rcd13ifvqbt0","pricing_plan_id":"cebpf4jnsgd1na2vs0mg"},{"bike_id":"b72d9718-55c4-4dc3-ac05-f664c47a29b8","system_id":"levelo_inurba_marseille","lat":43.30195,"lon":5.36623,"is_reserved":false,"is_disabled":false,"rental_uris":{"android":"levelo://app?vid=b72d9718-55c4-4dc3-ac05-f664c47a29b8","ios":"levelo://app?vid=b72d9718-55c4-4dc3-ac05-f664c47a29b8"},"vehicle_type_id":"4","last_reported":1740683218,"current_range_meters":14800,"station_id":"ce4bgrh2rcd13ifvqc8g","pricing_plan_id":"cebpf4jnsgd1na2vs0mg"},{"bike_id":"074c2cfc-d4ac-4214-9099-40034921ab92","system_id":"levelo_inurba_marseille","lat":43.29421,"lon":5.38624,"is_reserved":false,"is_disabled":false,"rental_uris":{"android":"levelo://app?vid=074c2cfc-d4ac-4214-9099-40034921ab92","ios":"levelo://app?vid=074c2cfc-d4ac-4214-9099-40034921ab92"},"vehicle_type_id":"4","last_reported":1740683218,"current_range_meters":13600,"station_id":"ce4bh2h2rcd13ifvqdh0","pricing_plan_id":"cebpf4jnsgd1na2vs0mg"},{"bike_id":"519fda19-b519-4b34-9c24-dca65e2996e5","system_id":"levelo_inurba_marseille","lat":43.26938,"lon":5.4025,"is_reserved":false,"is_disabled":false,"rental_uris":{"android":"levelo://app?vid=519fda19-b519-4b34-9c24-dca65e2996e5","ios":"levelo://app?vid=519fda19-b519-4b34-9c24-dca65e2996e5"},"vehicle_type_id":"4","last_reported":1740683218,"current_range_meters":10000,"station_id":"cjm6bp8fraef2m0cb0m0","pricing_plan_id":"cebpf4jnsgd1na2vs0mg"},{"bike_id":"682c1147-6215-48d4-8afa-8e3935faa3e3","system_id":"levelo_inurba_marseille","lat":43.26559,"lon":5.39016,"is_reserved":false,"is_disabled":false,"rental_uris":{"android":"levelo://app?vid=682c1147-6215-48d4-8afa-8e3935faa3e3","ios":"levelo://app?vid=682c1147-6215-48d4-8afa-8e3935faa3e3"},"vehicle_type_id":"4","last_reported":1740683218,"current_range_meters":13600,"station_id":"ce4bhe12rcd13ifvqf30","pricing_plan_id":"cebpf4jnsgd1na2vs0mg"},{"bike_id":"d4918d6a-5525-4be8-b0c4-7af64b54343d","system_id":"levelo_inurba_marseille","lat":43.241671,"lon":5.364012,"is_reserved":false,"is_disabled":false,"rental_uris":{"android":"levelo://app?vid=d4918d6a-5525-4be8-b0c4-7af64b54343d","ios":"levelo://app?vid=d4918d6a-5525-4be8-b0c4-7af64b54343d"},"vehicle_type_id":"4","last_reported":1740683218,"current_range_meters":14000,"station_id":"cpo36qri1sfpv3e86is0","pricing_plan_id":"cebpf4jnsgd1na2vs0mg"},{"bike_id":"10b6c0d0-a3ef-460e-ad30-22fe050ad6b8","system_id":"levelo_inurba_marseille","lat":43.28856,"lon":5.35832,"is_reserved":false,"is_disabled":false,"rental_uris":{"android":"levelo://app?vid=10b6c0d0-a3ef-460e-ad30-22fe050ad6b8","ios":"levelo://app?vid=10b6c0d0-a3ef-460e-ad30-22fe050ad6b8"},"vehicle_type_id":"4","last_reported":1740683218,"current_range_meters":14400,"station_id":"ce4bhb12rcd13ifvqem0","pricing_plan_id":"cebpf4jnsgd1na2vs0mg"},{"bike_id":"dc6bfeb5-8fb0-47d9-a8de-2a883d657c48","system_id":"levelo_inurba_marseille","lat":43.29536,"lon":5.38544,"is_reserved":false,"is_disabled":false,"rental_uris":{"android":"levelo://app?vid=dc6bfeb5-8fb0-47d9-a8de-2a883d657c48","ios":"levelo://app?vid=dc6bfeb5-8fb0-47d9-a8de-2a883d657c48"},"vehicle_type_id":"4","last_reported":1740683218,"current_range_meters":14000,"station_id":"ce4bgih2rcd13ifvqba0","pricing_plan_id":"cebpf4jnsgd1na2vs0mg"},{"bike_id":"f69f090b-eda2-4fb8-86d1-17085bf3fda0","system_id":"levelo_inurba_marseille","lat":43.26547,"lon":5.37294,"is_reserved":false,"is_disabled":false,"rental_uris":{"android":"levelo://app?vid=f69f090b-eda2-4fb8-86d1-17085bf3fda0","ios":"levelo://app?vid=f69f090b-eda2-4fb8-86d1-17085bf3fda0"},"vehicle_type_id":"4","last_reported":1740683218,"current_range_meters":15200,"station_id":"ce4bhg12rcd13ifvqf70","pricing_plan_id":"cebpf4jnsgd1na2vs0mg"},{"bike_id":"20d08730-d04f-482a-9ed2-1d3e29b92784","system_id":"levelo_inurba_marseille","lat":43.32361,"lon":5.38876,"is_reserved":false,"is_disabled":false,"rental_uris":{"android":"levelo://app?vid=20d08730-d04f-482a-9ed2-1d3e29b92784","ios":"levelo://app?vid=20d08730-d04f-482a-9ed2-1d3e29b92784"},"vehicle_type_id":"4","last_reported":1740683218,"current_range_meters":14000,"station_id":"ce4bhqp2rcd13ifvqhog","pricing_plan_id":"cebpf4jnsgd1na2vs0mg"},{"bike_id":"600a74b7-374d-44b1-ad44-49833b1e1ec8","system_id":"levelo_inurba_marseille","lat":43.29891,"lon":5.43708,"is_reserved":false,"is_disabled":false,"rental_uris":{"android":"levelo://app?vid=600a74b7-374d-44b1-ad44-49833b1e1ec8","ios":"levelo://app?vid=600a74b7-374d-44b1-ad44-49833b1e1ec8"},"vehicle_type_id":"4","last_reported":1740683218,"current_range_meters":13600,"station_id":"ce4bhpp2rcd13ifvqhfg","pricing_plan_id":"cebpf4jnsgd1na2vs0mg"},{"bike_id":"ef77bf7f-5b88-41c9-8d3b-c8c9c0447dd9","system_id":"levelo_inurba_marseille","lat":43.28066,"lon":5.35038,"is_reserved":false,"is_disabled":false,"rental_uris":{"android":"levelo://app?vid=ef77bf7f-5b88-41c9-8d3b-c8c9c0447dd9","ios":"levelo://app?vid=ef77bf7f-5b88-41c9-8d3b-c8c9c0447dd9"},"vehicle_type_id":"4","last_reported":1740683218,"current_range_meters":14400,"station_id":"","pricing_plan_id":"cebpf4jnsgd1na2vs0mg"},{"bike_id":"5b28cd77-a409-482f-8702-f764eef9151e","system_id":"levelo_inurba_marseille","lat":43.25932,"lon":5.4091,"is_reserved":false,"is_disabled":true,"rental_uris":{"android":"levelo://app?vid=5b28cd77-a409-482f-8702-f764eef9151e","ios":"levelo://app?vid=5b28cd77-a409-482f-8702-f764eef9151e"},"vehicle_type_id":"4","last_reported":1740683218,"current_range_meters":14000,"station_id":"ce4bhm92rcd13ifvqglg","pricing_plan_id":"cebpf4jnsgd1na2vs0mg"},{"bike_id":"28a48149-abb6-4b4d-941d-62c1e2e5f9fc","system_id":"levelo_inurba_marseille","lat":43.2926,"lon":5.38446,"is_reserved":false,"is_disabled":false,"rental_uris":{"android":"levelo://app?vid=28a48149-abb6-4b4d-941d-62c1e2e5f9fc","ios":"levelo://app?vid=28a48149-abb6-4b4d-941d-62c1e2e5f9fc"},"vehicle_type_id":"4","last_reported":1740683218,"current_range_meters":14000,"station_id":"ce4bh692rcd13ifvqea0","pricing_plan_id":"cebpf4jnsgd1na2vs0mg"},{"bike_id":"4faa25b2-6d20-4258-a63e-5adea7aec14e","system_id":"levelo_inurba_marseille","lat":43.28466,"lon":5.35884,"is_reserved":false,"is_disabled":true,"rental_uris":{"android":"levelo://app?vid=4faa25b2-6d20-4258-a63e-5adea7aec14e","ios":"levelo://app?vid=4faa25b2-6d20-4258-a63e-5adea7aec14e"},"vehicle_type_id":"4","last_reported":1740683218,"current_range_meters":14400,"station_id":"ce4bhah2rcd13ifvqei0","pricing_plan_id":"cebpf4jnsgd1na2vs0mg"},{"bike_id":"0f665076-3e0b-47a6-8189-e37583df5925","system_id":"levelo_inurba_marseille","lat":43.29262,"lon":5.37624,"is_reserved":false,"is_disabled":false,"rental_uris":{"android":"levelo://app?vid=0f665076-3e0b-47a6-8189-e37583df5925","ios":"levelo://app?vid=0f665076-3e0b-47a6-8189-e37583df5925"},"vehicle_type_id":"4","last_reported":1740683218,"current_range_meters":14400,"station_id":"ce4bgi12rcd13ifvqb80","pricing_plan_id":"cebpf4jnsgd1na2vs0mg"},{"bike_id":"ba5ded5f-f6ba-42aa-a608-c55b5a9d2a0e","system_id":"levelo_inurba_marseille","lat":43.27066,"lon":5.42282,"is_reserved":false,"is_disabled":false,"rental_uris":{"android":"levelo://app?vid=ba5ded5f-f6ba-42aa-a608-c55b5a9d2a0e","ios":"levelo://app?vid=ba5ded5f-f6ba-42aa-a608-c55b5a9d2a0e"},"vehicle_type_id":"4","last_reported":1740683218,"current_range_meters":14400,"station_id":"ce4bhk92rcd13ifvqgb0","pricing_plan_id":"cebpf4jnsgd1na2vs0mg"},{"bike_id":"0ebffcee-3697-4987-8cfd-ce56c427abfe","system_id":"levelo_inurba_marseille","lat":43.30542,"lon":5.36558,"is_reserved":false,"is_disabled":false,"rental_uris":{"android":"levelo://app?vid=0ebffcee-3697-4987-8cfd-ce56c427abfe","ios":"levelo://app?vid=0ebffcee-3697-4987-8cfd-ce56c427abfe"},"vehicle_type_id":"4","last_reported":1740683218,"current_range_meters":14400,"station_id":"ce4bgs12rcd13ifvqcag","pricing_plan_id":"cebpf4jnsgd1na2vs0mg"},{"bike_id":"0facce3b-0bc3-4ea7-a266-99cc9e78edc2","system_id":"levelo_inurba_marseille","lat":43.29798,"lon":5.3934,"is_reserved":false,"is_disabled":false,"rental_uris":{"android":"levelo://app?vid=0facce3b-0bc3-4ea7-a266-99cc9e78edc2","ios":"levelo://app?vid=0facce3b-0bc3-4ea7-a266-99cc9e78edc2"},"vehicle_type_id":"4","last_reported":1740683218,"current_range_meters":14400,"station_id":"chh1huq6cuj3fo74tm60","pricing_plan_id":"cebpf4jnsgd1na2vs0mg"},{"bike_id":"87f4694a-7002-40c0-9a0e-2123fd36309b","system_id":"levelo_inurba_marseille","lat":43.29002,"lon":5.356,"is_reserved":false,"is_disabled":false,"rental_uris":{"android":"levelo://app?vid=87f4694a-7002-40c0-9a0e-2123fd36309b","ios":"levelo://app?vid=87f4694a-7002-40c0-9a0e-2123fd36309b"},"vehicle_type_id":"4","last_reported":1740683218,"current_range_meters":14400,"station_id":"ce4bhb92rcd13ifvqen0","pricing_plan_id":"cebpf4jnsgd1na2vs0mg"},{"bike_id":"6f08793c-0e13-4755-8250-eb14e46e9c0b","system_id":"levelo_inurba_marseille","lat":43.23183,"lon":5.3998,"is_reserved":false,"is_disabled":false,"rental_uris":{"android":"levelo://app?vid=6f08793c-0e13-4755-8250-eb14e46e9c0b","ios":"levelo://app?vid=6f08793c-0e13-4755-8250-eb14e46e9c0b"},"vehicle_type_id":"4","last_reported":1740683218,"current_range_meters":14400,"station_id":"ce4bhn12rcd13ifvqgqg","pricing_plan_id":"cebpf4jnsgd1na2vs0mg"},{"bike_id":"735768d9-b3fe-4acf-a682-51ab3d335707","system_id":"levelo_inurba_marseille","lat":43.31687,"lon":5.40471,"is_reserved":false,"is_disabled":false,"rental_uris":{"android":"levelo://app?vid=735768d9-b3fe-4acf-a682-51ab3d335707","ios":"levelo://app?vid=735768d9-b3fe-4acf-a682-51ab3d335707"},"vehicle_type_id":"4","last_reported":1740683218,"current_range_meters":14800,"station_id":"ce4bh012rcd13ifvqd00","pricing_plan_id":"cebpf4jnsgd1na2vs0mg"},{"bike_id":"f2b864f9-40f2-4da6-962b-9c3109683666","system_id":"levelo_inurba_marseille","lat":43.28456,"lon":5.35881,"is_reserved":false,"is_disabled":false,"rental_uris":{"android":"levelo://app?vid=f2b864f9-40f2-4da6-962b-9c3109683666","ios":"levelo://app?vid=f2b864f9-40f2-4da6-962b-9c3109683666"},"vehicle_type_id":"4","last_reported":1740683218,"current_range_meters":15200,"station_id":"ce4bhah2rcd13ifvqei0","pricing_plan_id":"cebpf4jnsgd1na2vs0mg"},{"bike_id":"0771be02-e3e2-47da-b3c9-86df7888c832","system_id":"levelo_inurba_marseille","lat":43.29218,"lon":5.36058,"is_reserved":false,"is_disabled":false,"rental_uris":{"android":"levelo://app?vid=0771be02-e3e2-47da-b3c9-86df7888c832","ios":"levelo://app?vid=0771be02-e3e2-47da-b3c9-86df7888c832"},"vehicle_type_id":"4","last_reported":1740683218,"current_range_meters":14400,"station_id":"ce4bhbh2rcd13ifvqeqg","pricing_plan_id":"cebpf4jnsgd1na2vs0mg"},{"bike_id":"ffc89041-9cbe-43a3-a866-15b173271063","system_id":"levelo_inurba_marseille","lat":43.2932,"lon":5.37172,"is_reserved":false,"is_disabled":false,"rental_uris":{"android":"levelo://app?vid=ffc89041-9cbe-43a3-a866-15b173271063","ios":"levelo://app?vid=ffc89041-9cbe-43a3-a866-15b173271063"},"vehicle_type_id":"4","last_reported":1740683218,"current_range_meters":14800,"station_id":"ce4bgh92rcd13ifvqb40","pricing_plan_id":"cebpf4jnsgd1na2vs0mg"},{"bike_id":"8facbfb5-9464-41a8-955a-62ce88c0de9a","system_id":"levelo_inurba_marseille","lat":43.32286,"lon":5.38277,"is_reserved":false,"is_disabled":false,"rental_uris":{"android":"levelo://app?vid=8facbfb5-9464-41a8-955a-62ce88c0de9a","ios":"levelo://app?vid=8facbfb5-9464-41a8-955a-62ce88c0de9a"},"vehicle_type_id":"4","last_reported":1740683218,"current_range_meters":12800,"station_id":"ce4bhr12rcd13ifvqhqg","pricing_plan_id":"cebpf4jnsgd1na2vs0mg"},{"bike_id":"a4c22857-6480-465b-b474-1cc963b1061a","system_id":"levelo_inurba_marseille","lat":43.2606,"lon":5.39404,"is_reserved":false,"is_disabled":false,"rental_uris":{"android":"levelo://app?vid=a4c22857-6480-465b-b474-1cc963b1061a","ios":"levelo://app?vid=a4c22857-6480-465b-b474-1cc963b1061a"},"vehicle_type_id":"4","last_reported":1740683218,"current_range_meters":14800,"station_id":"ce4bhh92rcd13ifvqfj0","pricing_plan_id":"cebpf4jnsgd1na2vs0mg"},{"bike_id":"d6eac1e4-94c7-4b0a-b122-2daa16ebae64","system_id":"levelo_inurba_marseille","lat":43.32364,"lon":5.38875,"is_reserved":false,"is_disabled":false,"rental_uris":{"android":"levelo://app?vid=d6eac1e4-94c7-4b0a-b122-2daa16ebae64","ios":"levelo://app?vid=d6eac1e4-94c7-4b0a-b122-2daa16ebae64"},"vehicle_type_id":"4","last_reported":1740683218,"current_range_meters":16000,"station_id":"ce4bhqp2rcd13ifvqhog","pricing_plan_id":"cebpf4jnsgd1na2vs0mg"},{"bike_id":"7562303f-eb2b-41bb-be54-db23a576d5e8","system_id":"levelo_inurba_marseille","lat":43.28616,"lon":5.35102,"is_reserved":false,"is_disabled":false,"rental_uris":{"android":"levelo://app?vid=7562303f-eb2b-41bb-be54-db23a576d5e8","ios":"levelo://app?vid=7562303f-eb2b-41bb-be54-db23a576d5e8"},"vehicle_type_id":"4","last_reported":1740683218,"current_range_meters":15200,"station_id":"ce4bhch2rcd13ifvqeug","pricing_plan_id":"cebpf4jnsgd1na2vs0mg"},{"bike_id":"9c7d59aa-effd-4880-8035-529bf583d16e","system_id":"levelo_inurba_marseille","lat":43.26802,"lon":5.40267,"is_reserved":false,"is_disabled":false,"rental_uris":{"android":"levelo://app?vid=9c7d59aa-effd-4880-8035-529bf583d16e","ios":"levelo://app?vid=9c7d59aa-effd-4880-8035-529bf583d16e"},"vehicle_type_id":"4","last_reported":1740683218,"current_range_meters":15200,"station_id":"ce501612rcd8frsf0b60","pricing_plan_id":"cebpf4jnsgd1na2vs0mg"},{"bike_id":"de5c6abf-7a31-46f4-95e0-bfe5b2448cc6","system_id":"levelo_inurba_marseille","lat":43.28457,"lon":5.35888,"is_reserved":false,"is_disabled":false,"rental_uris":{"android":"levelo://app?vid=de5c6abf-7a31-46f4-95e0-bfe5b2448cc6","ios":"levelo://app?vid=de5c6abf-7a31-46f4-95e0-bfe5b2448cc6"},"vehicle_type_id":"4","last_reported":1740683218,"current_range_meters":15200,"station_id":"ce4bhah2rcd13ifvqei0","pricing_plan_id":"cebpf4jnsgd1na2vs0mg"},{"bike_id":"a5593269-e58a-4b51-8b95-327b45d4e7a2","system_id":"levelo_inurba_marseille","lat":43.31358,"lon":5.38493,"is_reserved":false,"is_disabled":false,"rental_uris":{"android":"levelo://app?vid=a5593269-e58a-4b51-8b95-327b45d4e7a2","ios":"levelo://app?vid=a5593269-e58a-4b51-8b95-327b45d4e7a2"},"vehicle_type_id":"4","last_reported":1740683218,"current_range_meters":15200,"station_id":"ce4bgt92rcd13ifvqcf0","pricing_plan_id":"cebpf4jnsgd1na2vs0mg"},{"bike_id":"3f5e4c77-943b-4a46-b257-614bf13afec4","system_id":"levelo_inurba_marseille","lat":43.24162,"lon":5.36403,"is_reserved":false,"is_disabled":false,"rental_uris":{"android":"levelo://app?vid=3f5e4c77-943b-4a46-b257-614bf13afec4","ios":"levelo://app?vid=3f5e4c77-943b-4a46-b257-614bf13afec4"},"vehicle_type_id":"4","last_reported":1740683218,"current_range_meters":16000,"station_id":"cpo36qri1sfpv3e86is0","pricing_plan_id":"cebpf4jnsgd1na2vs0mg"},{"bike_id":"57a6caa5-0a43-4597-afca-be808985f05b","system_id":"levelo_inurba_marseille","lat":43.2927,"lon":5.36843,"is_reserved":false,"is_disabled":false,"rental_uris":{"android":"levelo://app?vid=57a6caa5-0a43-4597-afca-be808985f05b","ios":"levelo://app?vid=57a6caa5-0a43-4597-afca-be808985f05b"},"vehicle_type_id":"4","last_reported":1740683218,"current_range_meters":15200,"station_id":"ce4bhbp2rcd13ifvqesg","pricing_plan_id":"cebpf4jnsgd1na2vs0mg"},{"bike_id":"d8132d83-56d3-42d1-b03b-bd11b257e433","system_id":"levelo_inurba_marseille","lat":43.29711,"lon":5.36619,"is_reserved":false,"is_disabled":false,"rental_uris":{"android":"levelo://app?vid=d8132d83-56d3-42d1-b03b-bd11b257e433","ios":"levelo://app?vid=d8132d83-56d3-42d1-b03b-bd11b257e433"},"vehicle_type_id":"4","last_reported":1740683218,"current_range_meters":16000,"station_id":"ce4bgn12rcd13ifvqbt0","pricing_plan_id":"cebpf4jnsgd1na2vs0mg"},{"bike_id":"7f813861-dc21-44f2-975d-21a8e426f2c4","system_id":"levelo_inurba_marseille","lat":43.29314,"lon":5.37166,"is_reserved":false,"is_disabled":false,"rental_uris":{"android":"levelo://app?vid=7f813861-dc21-44f2-975d-21a8e426f2c4","ios":"levelo://app?vid=7f813861-dc21-44f2-975d-21a8e426f2c4"},"vehicle_type_id":"4","last_reported":1740683218,"current_range_meters":16000,"station_id":"ce4bgh92rcd13ifvqb40","pricing_plan_id":"cebpf4jnsgd1na2vs0mg"},{"bike_id":"b8fc5099-c84b-4ebf-9eb9-1343cdc1259f","system_id":"levelo_inurba_marseille","lat":43.25873,"lon":5.39894,"is_reserved":false,"is_disabled":false,"rental_uris":{"android":"levelo://app?vid=b8fc5099-c84b-4ebf-9eb9-1343cdc1259f","ios":"levelo://app?vid=b8fc5099-c84b-4ebf-9eb9-1343cdc1259f"},"vehicle_type_id":"4","last_reported":1740683218,"current_range_meters":16800,"station_id":"ce4bhl92rcd13ifvqghg","pricing_plan_id":"cebpf4jnsgd1na2vs0mg"},{"bike_id":"861cf7ca-cadf-452b-82fd-cecb6d04c59f","system_id":"levelo_inurba_marseille","lat":43.30205,"lon":5.39458,"is_reserved":false,"is_disabled":false,"rental_uris":{"android":"levelo://app?vid=861cf7ca-cadf-452b-82fd-cecb6d04c59f","ios":"levelo://app?vid=861cf7ca-cadf-452b-82fd-cecb6d04c59f"},"vehicle_type_id":"4","last_reported":1740683218,"current_range_meters":16000,"station_id":"ce4bh0p2rcd13ifvqd70","pricing_plan_id":"cebpf4jnsgd1na2vs0mg"},{"bike_id":"f289344a-7eed-4401-851c-f62438075b36","system_id":"levelo_inurba_marseille","lat":43.288589,"lon":5.358532,"is_reserved":false,"is_disabled":false,"rental_uris":{"android":"levelo://app?vid=f289344a-7eed-4401-851c-f62438075b36","ios":"levelo://app?vid=f289344a-7eed-4401-851c-f62438075b36"},"vehicle_type_id":"4","last_reported":1740683218,"current_range_meters":16000,"station_id":"ce4bgt12rcd13ifvqce0","pricing_plan_id":"cebpf4jnsgd1na2vs0mg"},{"bike_id":"43d6aa6f-20c7-4a1b-bcb8-31b660876567","system_id":"levelo_inurba_marseille","lat":43.26555,"lon":5.37275,"is_reserved":false,"is_disabled":false,"rental_uris":{"android":"levelo://app?vid=43d6aa6f-20c7-4a1b-bcb8-31b660876567","ios":"levelo://app?vid=43d6aa6f-20c7-4a1b-bcb8-31b660876567"},"vehicle_type_id":"4","last_reported":1740683218,"current_range_meters":16000,"station_id":"ce4bhg12rcd13ifvqf70","pricing_plan_id":"cebpf4jnsgd1na2vs0mg"},{"bike_id":"e80aa1eb-b615-40b7-a7d3-1da7585f205b","system_id":"levelo_inurba_marseille","lat":43.29429,"lon":5.39754,"is_reserved":false,"is_disabled":false,"rental_uris":{"android":"levelo://app?vid=e80aa1eb-b615-40b7-a7d3-1da7585f205b","ios":"levelo://app?vid=e80aa1eb-b615-40b7-a7d3-1da7585f205b"},"vehicle_type_id":"4","last_reported":1740683218,"current_range_meters":15200,"station_id":"ce4bh3h2rcd13ifvqdo0","pricing_plan_id":"cebpf4jnsgd1na2vs0mg"},{"bike_id":"a276d870-4476-4068-8974-2939262bbcbf","system_id":"levelo_inurba_marseille","lat":43.29275,"lon":5.36845,"is_reserved":false,"is_disabled":false,"rental_uris":{"android":"levelo://app?vid=a276d870-4476-4068-8974-2939262bbcbf","ios":"levelo://app?vid=a276d870-4476-4068-8974-2939262bbcbf"},"vehicle_type_id":"4","last_reported":1740683218,"current_range_meters":16000,"station_id":"ce4bhbp2rcd13ifvqesg","pricing_plan_id":"cebpf4jnsgd1na2vs0mg"},{"bike_id":"dbf77259-cea8-4d3d-ad58-9390d94eb329","system_id":"levelo_inurba_marseille","lat":43.2872,"lon":5.3609,"is_reserved":false,"is_disabled":false,"rental_uris":{"android":"levelo://app?vid=dbf77259-cea8-4d3d-ad58-9390d94eb329","ios":"levelo://app?vid=dbf77259-cea8-4d3d-ad58-9390d94eb329"},"vehicle_type_id":"4","last_reported":1740683218,"current_range_meters":16000,"station_id":"cki0cbj6b192h4jlfktg","pricing_plan_id":"cebpf4jnsgd1na2vs0mg"},{"bike_id":"2a3d6bbc-68cf-47f8-91ce-266996e4beda","system_id":"levelo_inurba_marseille","lat":43.29526,"lon":5.39406,"is_reserved":false,"is_disabled":false,"rental_uris":{"android":"levelo://app?vid=2a3d6bbc-68cf-47f8-91ce-266996e4beda","ios":"levelo://app?vid=2a3d6bbc-68cf-47f8-91ce-266996e4beda"},"vehicle_type_id":"4","last_reported":1740683218,"current_range_meters":16000,"station_id":"ce4bh292rcd13ifvqdf0","pricing_plan_id":"cebpf4jnsgd1na2vs0mg"},{"bike_id":"84adfca3-75ab-4f2d-8c87-2fe618127183","system_id":"levelo_inurba_marseille","lat":43.29596,"lon":5.38097,"is_reserved":false,"is_disabled":false,"rental_uris":{"android":"levelo://app?vid=84adfca3-75ab-4f2d-8c87-2fe618127183","ios":"levelo://app?vid=84adfca3-75ab-4f2d-8c87-2fe618127183"},"vehicle_type_id":"4","last_reported":1740683218,"current_range_meters":16400,"station_id":"ce4bgl12rcd13ifvqbo0","pricing_plan_id":"cebpf4jnsgd1na2vs0mg"},{"bike_id":"07716cd5-aa06-4ec2-be21-a681b685518f","system_id":"levelo_inurba_marseille","lat":43.26219,"lon":5.42043,"is_reserved":false,"is_disabled":false,"rental_uris":{"android":"levelo://app?vid=07716cd5-aa06-4ec2-be21-a681b685518f","ios":"levelo://app?vid=07716cd5-aa06-4ec2-be21-a681b685518f"},"vehicle_type_id":"4","last_reported":1740683218,"current_range_meters":16800,"station_id":"","pricing_plan_id":"cebpf4jnsgd1na2vs0mg"},{"bike_id":"6d428432-8be2-47ad-b84d-a58bf7f395bd","system_id":"levelo_inurba_marseille","lat":43.2894,"lon":5.36413,"is_reserved":false,"is_disabled":false,"rental_uris":{"android":"levelo://app?vid=6d428432-8be2-47ad-b84d-a58bf7f395bd","ios":"levelo://app?vid=6d428432-8be2-47ad-b84d-a58bf7f395bd"},"vehicle_type_id":"4","last_reported":1740683218,"current_range_meters":16800,"station_id":"ce4bhc92rcd13ifvqetg","pricing_plan_id":"cebpf4jnsgd1na2vs0mg"},{"bike_id":"24e8912b-db02-48e1-a169-23074c80d5cd","system_id":"levelo_inurba_marseille","lat":43.28154,"lon":5.42623,"is_reserved":false,"is_disabled":false,"rental_uris":{"android":"levelo://app?vid=24e8912b-db02-48e1-a169-23074c80d5cd","ios":"levelo://app?vid=24e8912b-db02-48e1-a169-23074c80d5cd"},