{"last_updated":1730467014,"ttl":60,"version":"2.2","data":{"bikes":[{"bike_id":"1508f96c-62ef-40f8-97fb-3903d5ad3700","system_id":"levelo_inurba_marseille","lat":43.29587,"lon":5.3751,"is_reserved":false,"is_disabled":false,"rental_uris":{"android":"levelo://app?vid=1508f96c-62ef-40f8-97fb-3903d5ad3700","ios":"levelo://app?vid=1508f96c-62ef-40f8-97fb-3903d5ad3700"},"vehicle_type_id":"4","last_reported":1730467014,"current_range_meters":38800,"station_id":"ce4bgh92rcd13ifvqb50","pricing_plan_id":"cebpf4jnsgd1na2vs0mg"},{"bike_id":"baa5d8b2-8abc-4f47-aaea-2b6f975fb2b0","system_id":"levelo_inurba_marseille","lat":43.28424,"lon":5.34986,"is_reserved":false,"is_disabled":false,"rental_uris":{"android":"levelo://app?vid=baa5d8b2-8abc-4f47-aaea-2b6f975fb2b0","ios":"levelo://app?vid=baa5d8b2-8abc-4f47-aaea-2b6f975fb2b0"},"vehicle_type_id":"4","last_reported":1730467014,"current_range_meters":38800,"station_id":"ce4bhbh2rcd13ifvqepg","pricing_plan_id":"cebpf4jnsgd1na2vs0mg"},{"bike_id":"5f91fdb1-af44-4e60-814c-d84487ed3693","system_id":"levelo_inurba_marseille","lat":43.24665,"lon":5.3817,"is_reserved":false,"is_disabled":false,"rental_uris":{"android":"levelo://app?vid=5f91fdb1-af44-4e60-814c-d84487ed3693","ios":"levelo://app?vid=5f91fdb1-af44-4e60-814c-d84487ed3693"},"vehicle_type_id":"4","last_reported":1730467014,"current_range_meters":35200,"station_id":"ce4bhih2rcd13ifvqfr0","pricing_plan_id":"cebpf4jnsgd1na2vs0mg"},{"bike_id":"dc015d1f-276c-40fe-8a60-f8e4ce96a4c8","system_id":"levelo_inurba_marseille","lat":43.28418,"lon":5.34984,"is_reserved":false,"is_disabled":false,"rental_uris":{"android":"levelo://app?vid=dc015d1f-276c-40fe-8a60-f8e4ce96a4c8","ios":"levelo://app?vid=dc015d1f-276c-40fe-8a60-f8e4ce96a4c8"},"vehicle_type_id":"4","last_reported":1730467014,"current_range_meters":11600,"station_id":"ce4bhbh2rcd13ifvqepg","pricing_plan_id":"cebpf4jnsgd1na2vs0mg"},{"bike_id":"72aeef7b-29fe-46b8-a95f-dcd59fc8c40f","system_id":"levelo_inurba_marseille","lat":43.27073,"lon":5.4228,"is_reserved":false,"is_disabled":false,"rental_uris":{"android":"levelo://app?vid=72aeef7b-29fe-46b8-a95f-dcd59fc8c40f","ios":"levelo://app?vid=72aeef7b-29fe-46b8-a95f-dcd59fc8c40f"},"vehicle_type_id":"4","last_reported":1730467014,"current_range_meters":24800,"station_id":"ce4bhk92rcd13ifvqgb0","pricing_plan_id":"cebpf4jnsgd1na2vs0mg"},{"bike_id":"a8223920-1aec-4d99-99c7-1d57724d1cd7","system_id":"levelo_inurba_marseille","lat":43.29922,"lon":5.37485,"is_reserved":false,"is_disabled":false,"rental_uris":{"android":"levelo://app?vid=a8223920-1aec-4d99-99c7-1d57724d1cd7","ios":"levelo://app?vid=a8223920-1aec-4d99-99c7-1d57724d1cd7"},"vehicle_type_id":"4","last_reported":1730467014,"current_range_meters":38000,"station_id":"ce4bgjh2rcd13ifvqbg0","pricing_plan_id":"cebpf4jnsgd1na2vs0mg"},{"bike_id":"593c91b5-204c-4da6-be51-88ac8457a9ee","system_id":"levelo_inurba_marseille","lat":43.24171,"lon":5.36393,"is_reserved":false,"is_disabled":false,"rental_uris":{"android":"levelo://app?vid=593c91b5-204c-4da6-be51-88ac8457a9ee","ios":"levelo://app?vid=593c91b5-204c-4da6-be51-88ac8457a9ee"},"vehicle_type_id":"4","last_reported":1730467014,"current_range_meters":33600,"station_id":"cpo36qri1sfpv3e86is0","pricing_plan_id":"cebpf4jnsgd1na2vs0mg"},{"bike_id":"36409c24-1f14-4afa-8a25-992da51cc43d","system_id":"levelo_inurba_marseille","lat":43.24671,"lon":5.38159,"is_reserved":false,"is_disabled":false,"rental_uris":{"android":"levelo://app?vid=36409c24-1f14-4afa-8a25-992da51cc43d","ios":"levelo://app?vid=36409c24-1f14-4afa-8a25-992da51cc43d"},"vehicle_type_id":"4","last_reported":1730467014,"current_range_meters":22400,"station_id":"ce4bhih2rcd13ifvqfr0","pricing_plan_id":"cebpf4jnsgd1na2vs0mg"},{"bike_id":"512c4bd5-3edb-49b7-a54a-bbe327a08aa0","system_id":"levelo_inurba_marseille","lat":43.25727,"lon":5.41108,"is_reserved":false,"is_disabled":false,"rental_uris":{"android":"levelo://app?vid=512c4bd5-3edb-49b7-a54a-bbe327a08aa0","ios":"levelo://app?vid=512c4bd5-3edb-49b7-a54a-bbe327a08aa0"},"vehicle_type_id":"4","last_reported":1730467014,"current_range_meters":17600,"station_id":"ce4bhkp2rcd13ifvqgd0","pricing_plan_id":"cebpf4jnsgd1na2vs0mg"},{"bike_id":"a4627486-a087-47d1-bdea-e9476cd49986","system_id":"levelo_inurba_marseille","lat":43.23198,"lon":5.35549,"is_reserved":false,"is_disabled":false,"rental_uris":{"android":"levelo://app?vid=a4627486-a087-47d1-bdea-e9476cd49986","ios":"levelo://app?vid=a4627486-a087-47d1-bdea-e9476cd49986"},"vehicle_type_id":"4","last_reported":1730467014,"current_range_meters":32000,"station_id":"ce4bhu92rcd13ifvqi70","pricing_plan_id":"cebpf4jnsgd1na2vs0mg"},{"bike_id":"55dab1c5-8299-4ba5-b0e5-ab02ab9376bc","system_id":"levelo_inurba_marseille","lat":43.24175,"lon":5.39737,"is_reserved":false,"is_disabled":false,"rental_uris":{"android":"levelo://app?vid=55dab1c5-8299-4ba5-b0e5-ab02ab9376bc","ios":"levelo://app?vid=55dab1c5-8299-4ba5-b0e5-ab02ab9376bc"},"vehicle_type_id":"4","last_reported":1730467014,"current_range_meters":39200,"station_id":"ce4bhn12rcd13ifvqgpg","pricing_plan_id":"cebpf4jnsgd1na2vs0mg"},{"bike_id":"509a9bdc-ca48-4855-8040-748bb9b3087b","system_id":"levelo_inurba_marseille","lat":43.25942,"lon":5.40902,"is_reserved":false,"is_disabled":false,"rental_uris":{"android":"levelo://app?vid=509a9bdc-ca48-4855-8040-748bb9b3087b","ios":"levelo://app?vid=509a9bdc-ca48-4855-8040-748bb9b3087b"},"vehicle_type_id":"4","last_reported":1730467014,"current_range_meters":27600,"station_id":"ce4bhm92rcd13ifvqglg","pricing_plan_id":"cebpf4jnsgd1na2vs0mg"},{"bike_id":"c6349e91-9caa-4934-a8ae-6e1d497938dd","system_id":"levelo_inurba_marseille","lat":43.28615,"lon":5.35103,"is_reserved":false,"is_disabled":false,"rental_uris":{"android":"levelo://app?vid=c6349e91-9caa-4934-a8ae-6e1d497938dd","ios":"levelo://app?vid=c6349e91-9caa-4934-a8ae-6e1d497938dd"},"vehicle_type_id":"4","last_reported":1730467014,"current_range_meters":38800,"station_id":"ce4bhch2rcd13ifvqeug","pricing_plan_id":"cebpf4jnsgd1na2vs0mg"},{"bike_id":"b58d7959-be24-4558-8014-49895e2f8ed4","system_id":"levelo_inurba_marseille","lat":43.23152,"lon":5.43712,"is_reserved":false,"is_disabled":false,"rental_uris":{"android":"levelo://app?vid=b58d7959-be24-4558-8014-49895e2f8ed4","ios":"levelo://app?vid=b58d7959-be24-4558-8014-49895e2f8ed4"},"vehicle_type_id":"4","last_reported":1730467014,"current_range_meters":20800,"station_id":"ce4bhmp2rcd13ifvqgog","pricing_plan_id":"cebpf4jnsgd1na2vs0mg"},{"bike_id":"a94e6882-7866-435a-83d7-d62cdf2eb55e","system_id":"levelo_inurba_marseille","lat":43.24175,"lon":5.39733,"is_reserved":false,"is_disabled":false,"rental_uris":{"android":"levelo://app?vid=a94e6882-7866-435a-83d7-d62cdf2eb55e","ios":"levelo://app?vid=a94e6882-7866-435a-83d7-d62cdf2eb55e"},"vehicle_type_id":"4","last_reported":1730467014,"current_range_meters":38400,"station_id":"ce4bhn12rcd13ifvqgpg","pricing_plan_id":"cebpf4jnsgd1na2vs0mg"},{"bike_id":"503969ca-01fe-4888-a1e7-fdad2a25a1b9","system_id":"levelo_inurba_marseille","lat":43.28421,"lon":5.3498,"is_reserved":false,"is_disabled":false,"rental_uris":{"android":"levelo://app?vid=503969ca-01fe-4888-a1e7-fdad2a25a1b9","ios":"levelo://app?vid=503969ca-01fe-4888-a1e7-fdad2a25a1b9"},"vehicle_type_id":"4","last_reported":1730467014,"current_range_meters":22400,"station_id":"ce4bhbh2rcd13ifvqepg","pricing_plan_id":"cebpf4jnsgd1na2vs0mg"},{"bike_id":"f90c7233-f112-4411-a745-3ee84b3555db","system_id":"levelo_inurba_marseille","lat":43.27371,"lon":5.36256,"is_reserved":false,"is_disabled":false,"rental_uris":{"android":"levelo://app?vid=f90c7233-f112-4411-a745-3ee84b3555db","ios":"levelo://app?vid=f90c7233-f112-4411-a745-3ee84b3555db"},"vehicle_type_id":"4","last_reported":1730467014,"current_range_meters":38000,"station_id":"ce4bhbh2rcd13ifvqeo0","pricing_plan_id":"cebpf4jnsgd1na2vs0mg"},{"bike_id":"fc2095ca-d28e-46ea-9a51-601b74247bea","system_id":"levelo_inurba_marseille","lat":43.28448,"lon":5.3496,"is_reserved":false,"is_disabled":false,"rental_uris":{"android":"levelo://app?vid=fc2095ca-d28e-46ea-9a51-601b74247bea","ios":"levelo://app?vid=fc2095ca-d28e-46ea-9a51-601b74247bea"},"vehicle_type_id":"4","last_reported":1730467014,"current_range_meters":8400,"station_id":"ce4bhbh2rcd13ifvqepg","pricing_plan_id":"cebpf4jnsgd1na2vs0mg"},{"bike_id":"efbe383f-83c6-4df5-ac1f-ffa8f2e0197b","system_id":"levelo_inurba_marseille","lat":43.31335,"lon":5.39699,"is_reserved":false,"is_disabled":false,"rental_uris":{"android":"levelo://app?vid=efbe383f-83c6-4df5-ac1f-ffa8f2e0197b","ios":"levelo://app?vid=efbe383f-83c6-4df5-ac1f-ffa8f2e0197b"},"vehicle_type_id":"4","last_reported":1730467014,"current_range_meters":9600,"station_id":"ce4bgvp2rcd13ifvqcu0","pricing_plan_id":"cebpf4jnsgd1na2vs0mg"},{"bike_id":"980e7e86-840e-4800-93c7-c5171cc55726","system_id":"levelo_inurba_marseille","lat":43.2306,"lon":5.35488,"is_reserved":false,"is_disabled":false,"rental_uris":{"android":"levelo://app?vid=980e7e86-840e-4800-93c7-c5171cc55726","ios":"levelo://app?vid=980e7e86-840e-4800-93c7-c5171cc55726"},"vehicle_type_id":"4","last_reported":1730467014,"current_range_meters":38800,"station_id":"cpo3342slgdg3j2ifvpg","pricing_plan_id":"cebpf4jnsgd1na2vs0mg"},{"bike_id":"0d1565e7-0d86-4fc5-ac18-ec198a1d79ea","system_id":"levelo_inurba_marseille","lat":43.28718,"lon":5.36089,"is_reserved":false,"is_disabled":false,"rental_uris":{"android":"levelo://app?vid=0d1565e7-0d86-4fc5-ac18-ec198a1d79ea","ios":"levelo://app?vid=0d1565e7-0d86-4fc5-ac18-ec198a1d79ea"},"vehicle_type_id":"4","last_reported":1730467014,"current_range_meters":4800,"station_id":"cki0cbj6b192h4jlfktg","pricing_plan_id":"cebpf4jnsgd1na2vs0mg"},{"bike_id":"7256dd54-7a94-401d-824a-25829f05bd6e","system_id":"levelo_inurba_marseille","lat":43.28619,"lon":5.35101,"is_reserved":false,"is_disabled":false,"rental_uris":{"android":"levelo://app?vid=7256dd54-7a94-401d-824a-25829f05bd6e","ios":"levelo://app?vid=7256dd54-7a94-401d-824a-25829f05bd6e"},"vehicle_type_id":"4","last_reported":1730467014,"current_range_meters":35600,"station_id":"ce4bhch2rcd13ifvqeug","pricing_plan_id":"cebpf4jnsgd1na2vs0mg"},{"bike_id":"70fbb7bf-cb9d-4690-990f-3d79ac96960e","system_id":"levelo_inurba_marseille","lat":43.2306,"lon":5.35485,"is_reserved":false,"is_disabled":false,"rental_uris":{"android":"levelo://app?vid=70fbb7bf-cb9d-4690-990f-3d79ac96960e","ios":"levelo://app?vid=70fbb7bf-cb9d-4690-990f-3d79ac96960e"},"vehicle_type_id":"4","last_reported":1730467014,"current_range_meters":22400,"station_id":"cpo3342slgdg3j2ifvpg","pricing_plan_id":"cebpf4jnsgd1na2vs0mg"},{"bike_id":"6b247946-f162-48a0-be8c-cb90f703a1c2","system_id":"levelo_inurba_marseille","lat":43.31074,"lon":5.38349,"is_reserved":false,"is_disabled":false,"rental_uris":{"android":"levelo://app?vid=6b247946-f162-48a0-be8c-cb90f703a1c2","ios":"levelo://app?vid=6b247946-f162-48a0-be8c-cb90f703a1c2"},"vehicle_type_id":"4","last_reported":1730467014,"current_range_meters":27200,"station_id":"ce4bgv92rcd13ifvqcr0","pricing_plan_id":"cebpf4jnsgd1na2vs0mg"},{"bike_id":"45992d91-221c-4e56-8cf6-678dbef9247e","system_id":"levelo_inurba_marseille","lat":43.27206,"lon":5.39188,"is_reserved":false,"is_disabled":false,"rental_uris":{"android":"levelo://app?vid=45992d91-221c-4e56-8cf6-678dbef9247e","ios":"levelo://app?vid=45992d91-221c-4e56-8cf6-678dbef9247e"},"vehicle_type_id":"4","last_reported":1730467014,"current_range_meters":8000,"station_id":"ce4bhhp2rcd13ifvqfm0","pricing_plan_id":"cebpf4jnsgd1na2vs0mg"},{"bike_id":"cc92b191-40d1-48c4-bfe0-adbc68549158","system_id":"levelo_inurba_marseille","lat":43.29205,"lon":5.35809,"is_reserved":false,"is_disabled":false,"rental_uris":{"android":"levelo://app?vid=cc92b191-40d1-48c4-bfe0-adbc68549158","ios":"levelo://app?vid=cc92b191-40d1-48c4-bfe0-adbc68549158"},"vehicle_type_id":"4","last_reported":1730467014,"current_range_meters":26800,"station_id":"ce4bhb12rcd13ifvqel0","pricing_plan_id":"cebpf4jnsgd1na2vs0mg"},{"bike_id":"276c9587-13b1-4ed9-a5c3-41b5dd9ac5c5","system_id":"levelo_inurba_marseille","lat":43.25826,"lon":5.39426,"is_reserved":false,"is_disabled":false,"rental_uris":{"android":"levelo://app?vid=276c9587-13b1-4ed9-a5c3-41b5dd9ac5c5","ios":"levelo://app?vid=276c9587-13b1-4ed9-a5c3-41b5dd9ac5c5"},"vehicle_type_id":"4","last_reported":1730467014,"current_range_meters":32800,"station_id":"ce4bhip2rcd13ifvqft0","pricing_plan_id":"cebpf4jnsgd1na2vs0mg"},{"bike_id":"902a84d5-56ca-468a-a9e6-146ab5c6eab3","system_id":"levelo_inurba_marseille","lat":43.25091,"lon":5.39517,"is_reserved":false,"is_disabled":false,"rental_uris":{"android":"levelo://app?vid=902a84d5-56ca-468a-a9e6-146ab5c6eab3","ios":"levelo://app?vid=902a84d5-56ca-468a-a9e6-146ab5c6eab3"},"vehicle_type_id":"4","last_reported":1730467014,"current_range_meters":17200,"station_id":"ce4bhm12rcd13ifvqgkg","pricing_plan_id":"cebpf4jnsgd1na2vs0mg"},{"bike_id":"fe2eaa6b-9732-4396-9bd8-22abff2881b0","system_id":"levelo_inurba_marseille","lat":43.32292,"lon":5.38264,"is_reserved":false,"is_disabled":false,"rental_uris":{"android":"levelo://app?vid=fe2eaa6b-9732-4396-9bd8-22abff2881b0","ios":"levelo://app?vid=fe2eaa6b-9732-4396-9bd8-22abff2881b0"},"vehicle_type_id":"4","last_reported":1730467014,"current_range_meters":30400,"station_id":"ce4bhr12rcd13ifvqhqg","pricing_plan_id":"cebpf4jnsgd1na2vs0mg"},{"bike_id":"98e591af-1b37-4791-81f8-0a1125c50536","system_id":"levelo_inurba_marseille","lat":43.262,"lon":5.37921,"is_reserved":false,"is_disabled":false,"rental_uris":{"android":"levelo://app?vid=98e591af-1b37-4791-81f8-0a1125c50536","ios":"levelo://app?vid=98e591af-1b37-4791-81f8-0a1125c50536"},"vehicle_type_id":"4","last_reported":1730467014,"current_range_meters":39200,"station_id":"ce4bhjp2rcd13ifvqg90","pricing_plan_id":"cebpf4jnsgd1na2vs0mg"},{"bike_id":"e8d86fa8-e773-40a8-a14d-9a74561290c9","system_id":"levelo_inurba_marseille","lat":43.25489,"lon":5.37648,"is_reserved":false,"is_disabled":false,"rental_uris":{"android":"levelo://app?vid=e8d86fa8-e773-40a8-a14d-9a74561290c9","ios":"levelo://app?vid=e8d86fa8-e773-40a8-a14d-9a74561290c9"},"vehicle_type_id":"4","last_reported":1730467014,"current_range_meters":30000,"station_id":"ce4bhh12rcd13ifvqff0","pricing_plan_id":"cebpf4jnsgd1na2vs0mg"},{"bike_id":"85afd25d-d86d-4f37-9f25-c69aab1cc07b","system_id":"levelo_inurba_marseille","lat":43.25581,"lon":5.38235,"is_reserved":false,"is_disabled":false,"rental_uris":{"android":"levelo://app?vid=85afd25d-d86d-4f37-9f25-c69aab1cc07b","ios":"levelo://app?vid=85afd25d-d86d-4f37-9f25-c69aab1cc07b"},"vehicle_type_id":"4","last_reported":1730467014,"current_range_meters":39200,"station_id":"ce4bhih2rcd13ifvqfs0","pricing_plan_id":"cebpf4jnsgd1na2vs0mg"},{"bike_id":"1b436f23-8f0b-4583-9175-5da63ed86193","system_id":"levelo_inurba_marseille","lat":43.23959,"lon":5.36637,"is_reserved":false,"is_disabled":false,"rental_uris":{"android":"levelo://app?vid=1b436f23-8f0b-4583-9175-5da63ed86193","ios":"levelo://app?vid=1b436f23-8f0b-4583-9175-5da63ed86193"},"vehicle_type_id":"4","last_reported":1730467014,"current_range_meters":27200,"station_id":"ce4bhi12rcd13ifvqfp0","pricing_plan_id":"cebpf4jnsgd1na2vs0mg"},{"bike_id":"b9a731f6-a414-4b1d-9206-141e723290e3","system_id":"levelo_inurba_marseille","lat":43.279053,"lon":5.412874,"is_reserved":false,"is_disabled":false,"rental_uris":{"android":"levelo://app?vid=b9a731f6-a414-4b1d-9206-141e723290e3","ios":"levelo://app?vid=b9a731f6-a414-4b1d-9206-141e723290e3"},"vehicle_type_id":"4","last_reported":1730467014,"current_range_meters":3200,"station_id":"ce4bhn92rcd13ifvqgrg","pricing_plan_id":"cebpf4jnsgd1na2vs0mg"},{"bike_id":"547ec999-bc88-476b-810c-26a90a13b7af","system_id":"levelo_inurba_marseille","lat":43.2799,"lon":5.40021,"is_reserved":false,"is_disabled":false,"rental_uris":{"android":"levelo://app?vid=547ec999-bc88-476b-810c-26a90a13b7af","ios":"levelo://app?vid=547ec999-bc88-476b-810c-26a90a13b7af"},"vehicle_type_id":"4","last_reported":1730467014,"current_range_meters":28400,"station_id":"ce4bho92rcd13ifvqh4g","pricing_plan_id":"cebpf4jnsgd1na2vs0mg"},{"bike_id":"72feaf02-2739-4ac2-a695-188f23da7347","system_id":"levelo_inurba_marseille","lat":43.30158,"lon":5.38101,"is_reserved":false,"is_disabled":false,"rental_uris":{"android":"levelo://app?vid=72feaf02-2739-4ac2-a695-188f23da7347","ios":"levelo://app?vid=72feaf02-2739-4ac2-a695-188f23da7347"},"vehicle_type_id":"4","last_reported":1730467014,"current_range_meters":36800,"station_id":"ce4bgjp2rcd13ifvqbh0","pricing_plan_id":"cebpf4jnsgd1na2vs0mg"},{"bike_id":"3dbef807-4cde-4b3b-906a-47f34706fc4c","system_id":"levelo_inurba_marseille","lat":43.29633,"lon":5.40598,"is_reserved":false,"is_disabled":false,"rental_uris":{"android":"levelo://app?vid=3dbef807-4cde-4b3b-906a-47f34706fc4c","ios":"levelo://app?vid=3dbef807-4cde-4b3b-906a-47f34706fc4c"},"vehicle_type_id":"4","last_reported":1730467014,"current_range_meters":38000,"station_id":"ce4bh0h2rcd13ifvqd60","pricing_plan_id":"cebpf4jnsgd1na2vs0mg"},{"bike_id":"2cbbd5fb-0d55-43a5-9858-9e639063b33a","system_id":"levelo_inurba_marseille","lat":43.31756,"lon":5.3901,"is_reserved":false,"is_disabled":false,"rental_uris":{"android":"levelo://app?vid=2cbbd5fb-0d55-43a5-9858-9e639063b33a","ios":"levelo://app?vid=2cbbd5fb-0d55-43a5-9858-9e639063b33a"},"vehicle_type_id":"4","last_reported":1730467014,"current_range_meters":39200,"station_id":"ce4bhqp2rcd13ifvqhng","pricing_plan_id":"cebpf4jnsgd1na2vs0mg"},{"bike_id":"328e4742-9293-4811-bae2-d6228dc19180","system_id":"levelo_inurba_marseille","lat":43.25502,"lon":5.37651,"is_reserved":false,"is_disabled":false,"rental_uris":{"android":"levelo://app?vid=328e4742-9293-4811-bae2-d6228dc19180","ios":"levelo://app?vid=328e4742-9293-4811-bae2-d6228dc19180"},"vehicle_type_id":"4","last_reported":1730467014,"current_range_meters":22000,"station_id":"ce4bhh12rcd13ifvqff0","pricing_plan_id":"cebpf4jnsgd1na2vs0mg"},{"bike_id":"e3626448-be19-4cd1-b72c-6e8c9dc35c36","system_id":"levelo_inurba_marseille","lat":43.2762,"lon":5.36108,"is_reserved":false,"is_disabled":false,"rental_uris":{"android":"levelo://app?vid=e3626448-be19-4cd1-b72c-6e8c9dc35c36","ios":"levelo://app?vid=e3626448-be19-4cd1-b72c-6e8c9dc35c36"},"vehicle_type_id":"4","last_reported":1730467014,"current_range_meters":39200,"station_id":"ce4bgj92rcd13ifvqbe0","pricing_plan_id":"cebpf4jnsgd1na2vs0mg"},{"bike_id":"123b9f22-74a3-40f2-bc4d-75a3febfef22","system_id":"levelo_inurba_marseille","lat":43.30513,"lon":5.36724,"is_reserved":false,"is_disabled":false,"rental_uris":{"android":"levelo://app?vid=123b9f22-74a3-40f2-bc4d-75a3febfef22","ios":"levelo://app?vid=123b9f22-74a3-40f2-bc4d-75a3febfef22"},"vehicle_type_id":"4","last_reported":1730467014,"current_range_meters":38800,"station_id":"ce4bgqh2rcd13ifvqc5g","pricing_plan_id":"cebpf4jnsgd1na2vs0mg"},{"bike_id":"76daf9d0-b47b-40d6-9996-9aa3f3f48bc8","system_id":"levelo_inurba_marseille","lat":43.28423,"lon":5.34976,"is_reserved":false,"is_disabled":false,"rental_uris":{"android":"levelo://app?vid=76daf9d0-b47b-40d6-9996-9aa3f3f48bc8","ios":"levelo://app?vid=76daf9d0-b47b-40d6-9996-9aa3f3f48bc8"},"vehicle_type_id":"4","last_reported":1730467014,"current_range_meters":38800,"station_id":"ce4bhbh2rcd13ifvqepg","pricing_plan_id":"cebpf4jnsgd1na2vs0mg"},{"bike_id":"9e546183-b604-48f1-b9ab-93595f19c2eb","system_id":"levelo_inurba_marseille","lat":43.2827,"lon":5.35062,"is_reserved":false,"is_disabled":false,"rental_uris":{"android":"levelo://app?vid=9e546183-b604-48f1-b9ab-93595f19c2eb","ios":"levelo://app?vid=9e546183-b604-48f1-b9ab-93595f19c2eb"},"vehicle_type_id":"4","last_reported":1730467014,"current_range_meters":16800,"station_id":"ce4bhbp2rcd13ifvqerg","pricing_plan_id":"cebpf4jnsgd1na2vs0mg"},{"bike_id":"39853c7f-9f79-4333-9783-d152d826fdb5","system_id":"levelo_inurba_marseille","lat":43.28618,"lon":5.35109,"is_reserved":false,"is_disabled":false,"rental_uris":{"android":"levelo://app?vid=39853c7f-9f79-4333-9783-d152d826fdb5","ios":"levelo://app?vid=39853c7f-9f79-4333-9783-d152d826fdb5"},"vehicle_type_id":"4","last_reported":1730467014,"current_range_meters":34800,"station_id":"ce4bhch2rcd13ifvqeug","pricing_plan_id":"cebpf4jnsgd1na2vs0mg"},{"bike_id":"b8812829-13c4-4cd9-8648-e8f45673a8cb","system_id":"levelo_inurba_marseille","lat":43.30418,"lon":5.4128,"is_reserved":false,"is_disabled":false,"rental_uris":{"android":"levelo://app?vid=b8812829-13c4-4cd9-8648-e8f45673a8cb","ios":"levelo://app?vid=b8812829-13c4-4cd9-8648-e8f45673a8cb"},"vehicle_type_id":"4","last_reported":1730467014,"current_range_meters":28000,"station_id":"ce4bhop2rcd13ifvqh8g","pricing_plan_id":"cebpf4jnsgd1na2vs0mg"},{"bike_id":"f9a1972d-2cfe-427a-ae1e-e38d49b8242a","system_id":"levelo_inurba_marseille","lat":43.27374,"lon":5.3626,"is_reserved":false,"is_disabled":false,"rental_uris":{"android":"levelo://app?vid=f9a1972d-2cfe-427a-ae1e-e38d49b8242a","ios":"levelo://app?vid=f9a1972d-2cfe-427a-ae1e-e38d49b8242a"},"vehicle_type_id":"4","last_reported":1730467014,"current_range_meters":2800,"station_id":"ce4bhbh2rcd13ifvqeo0","pricing_plan_id":"cebpf4jnsgd1na2vs0mg"},{"bike_id":"76e6c502-485e-4241-80ce-347950862050","system_id":"levelo_inurba_marseille","lat":43.27324,"lon":5.39082,"is_reserved":false,"is_disabled":false,"rental_uris":{"android":"levelo://app?vid=76e6c502-485e-4241-80ce-347950862050","ios":"levelo://app?vid=76e6c502-485e-4241-80ce-347950862050"},"vehicle_type_id":"4","last_reported":1730467014,"current_range_meters":28400,"station_id":"ce4bhgp2rcd13ifvqfe0","pricing_plan_id":"cebpf4jnsgd1na2vs0mg"},{"bike_id":"d8d25a3e-cbf6-4275-8121-e65c6b2ff3b0","system_id":"levelo_inurba_marseille","lat":43.24076,"lon":5.37763,"is_reserved":false,"is_disabled":false,"rental_uris":{"android":"levelo://app?vid=d8d25a3e-cbf6-4275-8121-e65c6b2ff3b0","ios":"levelo://app?vid=d8d25a3e-cbf6-4275-8121-e65c6b2ff3b0"},"vehicle_type_id":"4","last_reported":1730467014,"current_range_meters":38000,"station_id":"ce4bhnp2rcd13ifvqgvg","pricing_plan_id":"cebpf4jnsgd1na2vs0mg"},{"bike_id":"bed0c71a-9306-404b-9af5-946d6a383a0f","system_id":"levelo_inurba_marseille","lat":43.28614,"lon":5.35106,"is_reserved":false,"is_disabled":false,"rental_uris":{"android":"levelo://app?vid=bed0c71a-9306-404b-9af5-946d6a383a0f","ios":"levelo://app?vid=bed0c71a-9306-404b-9af5-946d6a383a0f"},"vehicle_type_id":"4","last_reported":1730467014,"current_range_meters":26000,"station_id":"ce4bhch2rcd13ifvqeug","pricing_plan_id":"cebpf4jnsgd1na2vs0mg"},{"bike_id":"a5f99793-7a8a-4381-98de-1b083405e26c","system_id":"levelo_inurba_marseille","lat":43.25498,"lon":5.37645,"is_reserved":false,"is_disabled":false,"rental_uris":{"android":"levelo://app?vid=a5f99793-7a8a-4381-98de-1b083405e26c","ios":"levelo://app?vid=a5f99793-7a8a-4381-98de-1b083405e26c"},"vehicle_type_id":"4","last_reported":1730467014,"current_range_meters":29600,"station_id":"ce4bhh12rcd13ifvqff0","pricing_plan_id":"cebpf4jnsgd1na2vs0mg"},{"bike_id":"9938ebcd-9900-4f33-ae62-087d07b91466","system_id":"levelo_inurba_marseille","lat":43.25726,"lon":5.41109,"is_reserved":false,"is_disabled":false,"rental_uris":{"android":"levelo://app?vid=9938ebcd-9900-4f33-ae62-087d07b91466","ios":"levelo://app?vid=9938ebcd-9900-4f33-ae62-087d07b91466"},"vehicle_type_id":"4","last_reported":1730467014,"current_range_meters":39200,"station_id":"ce4bhkp2rcd13ifvqgd0","pricing_plan_id":"cebpf4jnsgd1na2vs0mg"},{"bike_id":"dd39eb98-83c7-4a55-a2cb-375b485826e6","system_id":"levelo_inurba_marseille","lat":43.28796,"lon":5.38842,"is_reserved":false,"is_disabled":false,"rental_uris":{"android":"levelo://app?vid=dd39eb98-83c7-4a55-a2cb-375b485826e6","ios":"levelo://app?vid=dd39eb98-83c7-4a55-a2cb-375b485826e6"},"vehicle_type_id":"4","last_reported":1730467014,"current_range_meters":24400,"station_id":"","pricing_plan_id":"cebpf4jnsgd1na2vs0mg"},{"bike_id":"5d039939-abf3-42e5-b79a-b48827c3ccb6","system_id":"levelo_inurba_marseille","lat":43.26829,"lon":5.38215,"is_reserved":false,"is_disabled":false,"rental_uris":{"android":"levelo://app?vid=5d039939-abf3-42e5-b79a-b48827c3ccb6","ios":"levelo://app?vid=5d039939-abf3-42e5-b79a-b48827c3ccb6"},"vehicle_type_id":"4","last_reported":1730467014,"current_range_meters":6800,"station_id":"","pricing_plan_id":"cebpf4jnsgd1na2vs0mg"},{"bike_id":"72c091d5-b2b9-4594-b414-7c8b03724881","system_id":"levelo_inurba_marseille","lat":43.3169,"lon":5.40465,"is_reserved":false,"is_disabled":false,"rental_uris":{"android":"levelo://app?vid=72c091d5-b2b9-4594-b414-7c8b03724881","ios":"levelo://app?vid=72c091d5-b2b9-4594-b414-7c8b03724881"},"vehicle_type_id":"4","last_reported":1730467014,"current_range_meters":37600,"station_id":"ce4bh012rcd13ifvqd00","pricing_plan_id":"cebpf4jnsgd1na2vs0mg"},{"bike_id":"dc8fcbb5-8a40-4304-9661-cddb984b12f4","system_id":"levelo_inurba_marseille","lat":43.2293,"lon":5.35375,"is_reserved":false,"is_disabled":false,"rental_uris":{"android":"levelo://app?vid=dc8fcbb5-8a40-4304-9661-cddb984b12f4","ios":"levelo://app?vid=dc8fcbb5-8a40-4304-9661-cddb984b12f4"},"vehicle_type_id":"4","last_reported":1730467014,"current_range_meters":31200,"station_id":"cpo3532slgdg3j2ikp40","pricing_plan_id":"cebpf4jnsgd1na2vs0mg"},{"bike_id":"b54852d0-0f58-4476-b326-7bd8b77a5821","system_id":"levelo_inurba_marseille","lat":43.2846,"lon":5.35894,"is_reserved":false,"is_disabled":false,"rental_uris":{"android":"levelo://app?vid=b54852d0-0f58-4476-b326-7bd8b77a5821","ios":"levelo://app?vid=b54852d0-0f58-4476-b326-7bd8b77a5821"},"vehicle_type_id":"4","last_reported":1730467014,"current_range_meters":22400,"station_id":"ce4bhah2rcd13ifvqei0","pricing_plan_id":"cebpf4jnsgd1na2vs0mg"},{"bike_id":"337aedca-2f90-4d1a-84bd-12a131b00b94","system_id":"levelo_inurba_marseille","lat":43.23975,"lon":5.36611,"is_reserved":false,"is_disabled":false,"rental_uris":{"android":"levelo://app?vid=337aedca-2f90-4d1a-84bd-12a131b00b94","ios":"levelo://app?vid=337aedca-2f90-4d1a-84bd-12a131b00b94"},"vehicle_type_id":"4","last_reported":1730467014,"current_range_meters":24800,"station_id":"ce4bhi12rcd13ifvqfp0","pricing_plan_id":"cebpf4jnsgd1na2vs0mg"},{"bike_id":"51adf9d8-0dd9-481e-b570-fad8bd805644","system_id":"levelo_inurba_marseille","lat":43.32015,"lon":5.38162,"is_reserved":false,"is_disabled":false,"rental_uris":{"android":"levelo://app?vid=51adf9d8-0dd9-481e-b570-fad8bd805644","ios":"levelo://app?vid=51adf9d8-0dd9-481e-b570-fad8bd805644"},"vehicle_type_id":"4","last_reported":1730467014,"current_range_meters":38800,"station_id":"ce4bhr12rcd13ifvqhpg","pricing_plan_id":"cebpf4jnsgd1na2vs0mg"},{"bike_id":"59599f5f-75b7-4d56-bc71-0446ade706fe","system_id":"levelo_inurba_marseille","lat":43.30791,"lon":5.37647,"is_reserved":false,"is_disabled":false,"rental_uris":{"android":"levelo://app?vid=59599f5f-75b7-4d56-bc71-0446ade706fe","ios":"levelo://app?vid=59599f5f-75b7-4d56-bc71-0446ade706fe"},"vehicle_type_id":"4","last_reported":1730467014,"current_range_meters":25600,"station_id":"ce4bgv92rcd13ifvqcq0","pricing_plan_id":"cebpf4jnsgd1na2vs0mg"},{"bike_id":"58a716bf-d694-466f-989e-38efb9c28cd7","system_id":"levelo_inurba_marseille","lat":43.33024,"lon":5.39039,"is_reserved":false,"is_disabled":false,"rental_uris":{"android":"levelo://app?vid=58a716bf-d694-466f-989e-38efb9c28cd7","ios":"levelo://app?vid=58a716bf-d694-466f-989e-38efb9c28cd7"},"vehicle_type_id":"4","last_reported":1730467014,"current_range_meters":36800,"station_id":"ce4bhr92rcd13ifvqhrg","pricing_plan_id":"cebpf4jnsgd1na2vs0mg"},{"bike_id":"f98362a5-3b33-4fdf-8c1a-d5cba9f1b1ae","system_id":"levelo_inurba_marseille","lat":43.23152,"lon":5.43716,"is_reserved":false,"is_disabled":false,"rental_uris":{"android":"levelo://app?vid=f98362a5-3b33-4fdf-8c1a-d5cba9f1b1ae","ios":"levelo://app?vid=f98362a5-3b33-4fdf-8c1a-d5cba9f1b1ae"},"vehicle_type_id":"4","last_reported":1730467014,"current_range_meters":22000,"station_id":"ce4bhmp2rcd13ifvqgog","pricing_plan_id":"cebpf4jnsgd1na2vs0mg"},{"bike_id":"05b66808-27ba-48de-8c25-fa6353c85930","system_id":"levelo_inurba_marseille","lat":43.27109,"lon":5.40404,"is_reserved":false,"is_disabled":false,"rental_uris":{"android":"levelo://app?vid=05b66808-27ba-48de-8c25-fa6353c85930","ios":"levelo://app?vid=05b66808-27ba-48de-8c25-fa6353c85930"},"vehicle_type_id":"4","last_reported":1730467014,"current_range_meters":10000,"station_id":"ce4bhjp2rcd13ifvqga0","pricing_plan_id":"cebpf4jnsgd1na2vs0mg"},{"bike_id":"0bd966fd-877b-4aae-8013-4621694ce072","system_id":"levelo_inurba_marseille","lat":43.32486,"lon":5.36557,"is_reserved":false,"is_disabled":false,"rental_uris":{"android":"levelo://app?vid=0bd966fd-877b-4aae-8013-4621694ce072","ios":"levelo://app?vid=0bd966fd-877b-4aae-8013-4621694ce072"},"vehicle_type_id":"4","last_reported":1730467014,"current_range_meters":30400,"station_id":"ce4bhs12rcd13ifvqhvg","pricing_plan_id":"cebpf4jnsgd1na2vs0mg"},{"bike_id":"8650d5e7-8d59-4d74-af9c-6b832171c700","system_id":"levelo_inurba_marseille","lat":43.23963,"lon":5.36631,"is_reserved":false,"is_disabled":false,"rental_uris":{"android":"levelo://app?vid=8650d5e7-8d59-4d74-af9c-6b832171c700","ios":"levelo://app?vid=8650d5e7-8d59-4d74-af9c-6b832171c700"},"vehicle_type_id":"4","last_reported":1730467014,"current_range_meters":12400,"station_id":"ce4bhi12rcd13ifvqfp0","pricing_plan_id":"cebpf4jnsgd1na2vs0mg"},{"bike_id":"7471bc9b-f984-44e8-a6de-2b1222eeead0","system_id":"levelo_inurba_marseille","lat":43.2417,"lon":5.36401,"is_reserved":false,"is_disabled":false,"rental_uris":{"android":"levelo://app?vid=7471bc9b-f984-44e8-a6de-2b1222eeead0","ios":"levelo://app?vid=7471bc9b-f984-44e8-a6de-2b1222eeead0"},"vehicle_type_id":"4","last_reported":1730467014,"current_range_meters":5600,"station_id":"cpo36qri1sfpv3e86is0","pricing_plan_id":"cebpf4jnsgd1na2vs0mg"},{"bike_id":"328f5edf-749c-4818-8d83-5fdd967b5021","system_id":"levelo_inurba_marseille","lat":43.2936,"lon":5.37829,"is_reserved":false,"is_disabled":false,"rental_uris":{"android":"levelo://app?vid=328f5edf-749c-4818-8d83-5fdd967b5021","ios":"levelo://app?vid=328f5edf-749c-4818-8d83-5fdd967b5021"},"vehicle_type_id":"4","last_reported":1730467014,"current_range_meters":18000,"station_id":"ce4bgjh2rcd13ifvqbf0","pricing_plan_id":"cebpf4jnsgd1na2vs0mg"},{"bike_id":"d321846c-1972-4de6-84d1-acbc45f600cc","system_id":"levelo_inurba_marseille","lat":43.30885,"lon":5.39634,"is_reserved":false,"is_disabled":false,"rental_uris":{"android":"levelo://app?vid=d321846c-1972-4de6-84d1-acbc45f600cc","ios":"levelo://app?vid=d321846c-1972-4de6-84d1-acbc45f600cc"},"vehicle_type_id":"4","last_reported":1730467014,"current_range_meters":36800,"station_id":"ce4bh012rcd13ifvqcv0","pricing_plan_id":"cebpf4jnsgd1na2vs0mg"},{"bike_id":"4d6698a4-a889-4286-b270-671009fbe337","system_id":"levelo_inurba_marseille","lat":43.28446,"lon":5.39199,"is_reserved":false,"is_disabled":false,"rental_uris":{"android":"levelo://app?vid=4d6698a4-a889-4286-b270-671009fbe337","ios":"levelo://app?vid=4d6698a4-a889-4286-b270-671009fbe337"},"vehicle_type_id":"4","last_reported":1730467014,"current_range_meters":38800,"station_id":"ce4bhoh2rcd13ifvqh5g","pricing_plan_id":"cebpf4jnsgd1na2vs0mg"},{"bike_id":"a8594471-923b-4371-82a5-d750e1a3d991","system_id":"levelo_inurba_marseille","lat":43.31531,"lon":5.38024,"is_reserved":false,"is_disabled":false,"rental_uris":{"android":"levelo://app?vid=a8594471-923b-4371-82a5-d750e1a3d991","ios":"levelo://app?vid=a8594471-923b-4371-82a5-d750e1a3d991"},"vehicle_type_id":"4","last_reported":1730467014,"current_range_meters":11600,"station_id":"ce4bhsp2rcd13ifvqi50","pricing_plan_id":"cebpf4jnsgd1na2vs0mg"},{"bike_id":"df1ded04-d8df-477c-a652-9146b074b774","system_id":"levelo_inurba_marseille","lat":43.28619,"lon":5.35103,"is_reserved":false,"is_disabled":false,"rental_uris":{"android":"levelo://app?vid=df1ded04-d8df-477c-a652-9146b074b774","ios":"levelo://app?vid=df1ded04-d8df-477c-a652-9146b074b774"},"vehicle_type_id":"4","last_reported":1730467014,"current_range_meters":19600,"station_id":"ce4bhch2rcd13ifvqeug","pricing_plan_id":"cebpf4jnsgd1na2vs0mg"},{"bike_id":"658dacf4-7ef3-4634-8126-9bbd88e5a6eb","system_id":"levelo_inurba_marseille","lat":43.232,"lon":5.35548,"is_reserved":false,"is_disabled":false,"rental_uris":{"android":"levelo://app?vid=658dacf4-7ef3-4634-8126-9bbd88e5a6eb","ios":"levelo://app?vid=658dacf4-7ef3-4634-8126-9bbd88e5a6eb"},"vehicle_type_id":"4","last_reported":1730467014,"current_range_meters":24000,"station_id":"ce4bhu92rcd13ifvqi70","pricing_plan_id":"cebpf4jnsgd1na2vs0mg"},{"bike_id":"bb57e9c6-5021-49fb-8dd1-4da921f77128","system_id":"levelo_inurba_marseille","lat":43.30542,"lon":5.36552,"is_reserved":false,"is_disabled":false,"rental_uris":{"android":"levelo://app?vid=bb57e9c6-5021-49fb-8dd1-4da921f77128","ios":"levelo://app?vid=bb57e9c6-5021-49fb-8dd1-4da921f77128"},"vehicle_type_id":"4","last_reported":1730467014,"current_range_meters":36000,"station_id":"ce4bgs12rcd13ifvqcag","pricing_plan_id":"cebpf4jnsgd1na2vs0mg"},{"bike_id":"15c3583c-d267-4a1e-b807-0f0dd0489eb1","system_id":"levelo_inurba_marseille","lat":43.32367,"lon":5.38882,"is_reserved":false,"is_disabled":false,"rental_uris":{"android":"levelo://app?vid=15c3583c-d267-4a1e-b807-0f0dd0489eb1","ios":"levelo://app?vid=15c3583c-d267-4a1e-b807-0f0dd0489eb1"},"vehicle_type_id":"4","last_reported":1730467014,"current_range_meters":32800,"station_id":"ce4bhqp2rcd13ifvqhog","pricing_plan_id":"cebpf4jnsgd1na2vs0mg"},{"bike_id":"ad45e49c-fe56-4f09-ac91-370bd1c35adf","system_id":"levelo_inurba_marseille","lat":43.30145,"lon":5.38066,"is_reserved":false,"is_disabled":false,"rental_uris":{"android":"levelo://app?vid=ad45e49c-fe56-4f09-ac91-370bd1c35adf","ios":"levelo://app?vid=ad45e49c-fe56-4f09-ac91-370bd1c35adf"},"vehicle_type_id":"4","last_reported":1730467014,"current_range_meters":36800,"station_id":"ce4bgjp2rcd13ifvqbh0","pricing_plan_id":"cebpf4jnsgd1na2vs0mg"},{"bike_id":"3eccccc1-c19b-44e9-b15b-3d62bb4cb78e","system_id":"levelo_inurba_marseille","lat":43.28848,"lon":5.39313,"is_reserved":false,"is_disabled":false,"rental_uris":{"android":"levelo://app?vid=3eccccc1-c19b-44e9-b15b-3d62bb4cb78e","ios":"levelo://app?vid=3eccccc1-c19b-44e9-b15b-3d62bb4cb78e"},"vehicle_type_id":"4","last_reported":1730467014,"current_range_meters":28000,"station_id":"ce4bh2p2rcd13ifvqdi0","pricing_plan_id":"cebpf4jnsgd1na2vs0mg"},{"bike_id":"31df7d22-7cb1-407c-a8f3-6b19712b9a86","system_id":"levelo_inurba_marseille","lat":43.28443,"lon":5.39193,"is_reserved":false,"is_disabled":false,"rental_uris":{"android":"levelo://app?vid=31df7d22-7cb1-407c-a8f3-6b19712b9a86","ios":"levelo://app?vid=31df7d22-7cb1-407c-a8f3-6b19712b9a86"},"vehicle_type_id":"4","last_reported":1730467014,"current_range_meters":37600,"station_id":"ce4bhoh2rcd13ifvqh5g","pricing_plan_id":"cebpf4jnsgd1na2vs0mg"},{"bike_id":"e9945190-061a-4dd7-b1d1-d2eba02f0de1","system_id":"levelo_inurba_marseille","lat":43.28422,"lon":5.34983,"is_reserved":false,"is_disabled":false,"rental_uris":{"android":"levelo://app?vid=e9945190-061a-4dd7-b1d1-d2eba02f0de1","ios":"levelo://app?vid=e9945190-061a-4dd7-b1d1-d2eba02f0de1"},"vehicle_type_id":"4","last_reported":1730467014,"current_range_meters":24000,"station_id":"ce4bhbh2rcd13ifvqepg","pricing_plan_id":"cebpf4jnsgd1na2vs0mg"},{"bike_id":"84b3858e-724d-4a51-abdd-a1c7708d404b","system_id":"levelo_inurba_marseille","lat":43.2949,"lon":5.3809,"is_reserved":false,"is_disabled":false,"rental_uris":{"android":"levelo://app?vid=84b3858e-724d-4a51-abdd-a1c7708d404b","ios":"levelo://app?vid=84b3858e-724d-4a51-abdd-a1c7708d404b"},"vehicle_type_id":"4","last_reported":1730467014,"current_range_meters":16800,"station_id":"","pricing_plan_id":"cebpf4jnsgd1na2vs0mg"},{"bike_id":"6c9094ad-d030-4b5f-82ac-a39ccf97d855","system_id":"levelo_inurba_marseille","lat":43.29702,"lon":5.36626,"is_reserved":false,"is_disabled":false,"rental_uris":{"android":"levelo://app?vid=6c9094ad-d030-4b5f-82ac-a39ccf97d855","ios":"levelo://app?vid=6c9094ad-d030-4b5f-82ac-a39ccf97d855"},"vehicle_type_id":"4","last_reported":1730467014,"current_range_meters":8800,"station_id":"ce4bgn12rcd13ifvqbt0","pricing_plan_id":"cebpf4jnsgd1na2vs0mg"},{"bike_id":"250d8397-2bff-469d-9944-1549fc8523ea","system_id":"levelo_inurba_marseille","lat":43.2958,"lon":5.37516,"is_reserved":false,"is_disabled":false,"rental_uris":{"android":"levelo://app?vid=250d8397-2bff-469d-9944-1549fc8523ea","ios":"levelo://app?vid=250d8397-2bff-469d-9944-1549fc8523ea"},"vehicle_type_id":"4","last_reported":1730467014,"current_range_meters":38800,"station_id":"ce4bgh92rcd13ifvqb50","pricing_plan_id":"cebpf4jnsgd1na2vs0mg"},{"bike_id":"205d74b9-4188-436c-8520-a69986be2fad","system_id":"levelo_inurba_marseille","lat":43.28429,"lon":5.34986,"is_reserved":false,"is_disabled":false,"rental_uris":{"android":"levelo://app?vid=205d74b9-4188-436c-8520-a69986be2fad","ios":"levelo://app?vid=205d74b9-4188-436c-8520-a69986be2fad"},"vehicle_type_id":"4","last_reported":1730467014,"current_range_meters":37600,"station_id":"ce4bhbh2rcd13ifvqepg","pricing_plan_id":"cebpf4jnsgd1na2vs0mg"},{"bike_id":"421438a7-603f-43c4-8a4c-ce4f972aa0f2","system_id":"levelo_inurba_marseille","lat":43.30141,"lon":5.37423,"is_reserved":false,"is_disabled":false,"rental_uris":{"android":"levelo://app?vid=421438a7-603f-43c4-8a4c-ce4f972aa0f2","ios":"levelo://app?vid=421438a7-603f-43c4-8a4c-ce4f972aa0f2"},"vehicle_type_id":"4","last_reported":1730467014,"current_range_meters":38800,"station_id":"ce4bgs92rcd13ifvqcc0","pricing_plan_id":"cebpf4jnsgd1na2vs0mg"},{"bike_id":"3bae9340-aae2-47c4-82c5-5c0d7349f14b","system_id":"levelo_inurba_marseille","lat":43.308,"lon":5.43523,"is_reserved":false,"is_disabled":false,"rental_uris":{"android":"levelo://app?vid=3bae9340-aae2-47c4-82c5-5c0d7349f14b","ios":"levelo://app?vid=3bae9340-aae2-47c4-82c5-5c0d7349f14b"},"vehicle_type_id":"4","last_reported":1730467014,"current_range_meters":31200,"station_id":"ce4bhph2rcd13ifvqheg","pricing_plan_id":"cebpf4jnsgd1na2vs0mg"},{"bike_id":"5e952f6b-9aee-4257-81cc-27b4ae171e24","system_id":"levelo_inurba_marseille","lat":43.22936,"lon":5.35377,"is_reserved":false,"is_disabled":false,"rental_uris":{"android":"levelo://app?vid=5e952f6b-9aee-4257-81cc-27b4ae171e24","ios":"levelo://app?vid=5e952f6b-9aee-4257-81cc-27b4ae171e24"},"vehicle_type_id":"4","last_reported":1730467014,"current_range_meters":39200,"station_id":"cpo3532slgdg3j2ikp40","pricing_plan_id":"cebpf4jnsgd1na2vs0mg"},{"bike_id":"4ff4596a-9ec8-4fc0-afc4-66453f49832a","system_id":"levelo_inurba_marseille","lat":43.24545,"lon":5.39521,"is_reserved":false,"is_disabled":false,"rental_uris":{"android":"levelo://app?vid=4ff4596a-9ec8-4fc0-afc4-66453f49832a","ios":"levelo://app?vid=4ff4596a-9ec8-4fc0-afc4-66453f49832a"},"vehicle_type_id":"4","last_reported":1730467014,"current_range_meters":14800,"station_id":"ce4bhlp2rcd13ifvqgjg","pricing_plan_id":"cebpf4jnsgd1na2vs0mg"},{"bike_id":"81eaa22b-96f5-47dd-9220-ed8909709108","system_id":"levelo_inurba_marseille","lat":43.28422,"lon":5.34986,"is_reserved":false,"is_disabled":false,"rental_uris":{"android":"levelo://app?vid=81eaa22b-96f5-47dd-9220-ed8909709108","ios":"levelo://app?vid=81eaa22b-96f5-47dd-9220-ed8909709108"},"vehicle_type_id":"4","last_reported":1730467014,"current_range_meters":39200,"station_id":"ce4bhbh2rcd13ifvqepg","pricing_plan_id":"cebpf4jnsgd1na2vs0mg"},{"bike_id":"57c8d37f-c0be-44cb-ad31-f1cd9bd7d9ef","system_id":"levelo_inurba_marseille","lat":43.31117,"lon":5.37763,"is_reserved":false,"is_disabled":false,"rental_uris":{"android":"levelo://app?vid=57c8d37f-c0be-44cb-ad31-f1cd9bd7d9ef","ios":"levelo://app?vid=57c8d37f-c0be-44cb-ad31-f1cd9bd7d9ef"},"vehicle_type_id":"4","last_reported":1730467014,"current_range_meters":38000,"station_id":"ce4bgt92rcd13ifvqcg0","pricing_plan_id":"cebpf4jnsgd1na2vs0mg"},{"bike_id":"cb9909d7-8115-4ed9-aa99-957a673a4dff","system_id":"levelo_inurba_marseille","lat":43.29631,"lon":5.40593,"is_reserved":false,"is_disabled":false,"rental_uris":{"android":"levelo://app?vid=cb9909d7-8115-4ed9-aa99-957a673a4dff","ios":"levelo://app?vid=cb9909d7-8115-4ed9-aa99-957a673a4dff"},"vehicle_type_id":"4","last_reported":1730467014,"current_range_meters":22000,"station_id":"ce4bh0h2rcd13ifvqd60","pricing_plan_id":"cebpf4jnsgd1na2vs0mg"},{"bike_id":"99053024-e408-47d3-ae20-3c6a4df1163c","system_id":"levelo_inurba_marseille","lat":43.27423,"lon":5.39399,"is_reserved":false,"is_disabled":false,"rental_uris":{"android":"levelo://app?vid=99053024-e408-47d3-ae20-3c6a4df1163c","ios":"levelo://app?vid=99053024-e408-47d3-ae20-3c6a4df1163c"},"vehicle_type_id":"4","last_reported":1730467014,"current_range_meters":36000,"station_id":"ce4bhdp2rcd13ifvqf20","pricing_plan_id":"cebpf4jnsgd1na2vs0mg"},{"bike_id":"cd69dab1-f210-4472-94bb-a84dcdbb4d88","system_id":"levelo_inurba_marseille","lat":43.255,"lon":5.37649,"is_reserved":false,"is_disabled":false,"rental_uris":{"android":"levelo://app?vid=cd69dab1-f210-4472-94bb-a84dcdbb4d88","ios":"levelo://app?vid=cd69dab1-f210-4472-94bb-a84dcdbb4d88"},"vehicle_type_id":"4","last_reported":1730467014,"current_range_meters":30000,"station_id":"ce4bhh12rcd13ifvqff0","pricing_plan_id":"cebpf4jnsgd1na2vs0mg"},{"bike_id":"4aaf9177-6ed9-4281-b081-6c2065ca8c1e","system_id":"levelo_inurba_marseille","lat":43.23188,"lon":5.39983,"is_reserved":false,"is_disabled":false,"rental_uris":{"android":"levelo://app?vid=4aaf9177-6ed9-4281-b081-6c2065ca8c1e","ios":"levelo://app?vid=4aaf9177-6ed9-4281-b081-6c2065ca8c1e"},"vehicle_type_id":"4","last_reported":1730467014,"current_range_meters":20800,"station_id":"ce4bhn12rcd13ifvqgqg","pricing_plan_id":"cebpf4jnsgd1na2vs0mg"},{"bike_id":"7f032ca0-2fbc-425c-b9e3-db49dd40b923","system_id":"levelo_inurba_marseille","lat":43.28279,"lon":5.35079,"is_reserved":false,"is_disabled":false,"rental_uris":{"android":"levelo://app?vid=7f032ca0-2fbc-425c-b9e3-db49dd40b923","ios":"levelo://app?vid=7f032ca0-2fbc-425c-b9e3-db49dd40b923"},"vehicle_type_id":"4","last_reported":1730467014,"current_range_meters":38800,"station_id":"ce4bhbp2rcd13ifvqerg","pricing_plan_id":"cebpf4jnsgd1na2vs0mg"},{"bike_id":"bc5fc992-ccf0-49f3-8b45-53a9cfc517fa","system_id":"levelo_inurba_marseille","lat":43.30153,"lon":5.38089,"is_reserved":false,"is_disabled":false,"rental_uris":{"android":"levelo://app?vid=bc5fc992-ccf0-49f3-8b45-53a9cfc517fa","ios":"levelo://app?vid=bc5fc992-ccf0-49f3-8b45-53a9cfc517fa"},"vehicle_type_id":"4","last_reported":1730467014,"current_range_meters":16000,"station_id":"ce4bgjp2rcd13ifvqbh0","pricing_plan_id":"cebpf4jnsgd1na2vs0mg"},{"bike_id":"b647ad8c-5239-4792-a303-51c2978d56fb","system_id":"levelo_inurba_marseille","lat":43.33612,"lon":5.4101,"is_reserved":false,"is_disabled":false,"rental_uris":{"android":"levelo://app?vid=b647ad8c-5239-4792-a303-51c2978d56fb","ios":"levelo://app?vid=b647ad8c-5239-4792-a303-51c2978d56fb"},"vehicle_type_id":"4","last_reported":1730467014,"current_range_meters":38000,"station_id":"ce4bhqh2rcd13ifvqhmg","pricing_plan_id":"cebpf4jnsgd1na2vs0mg"},{"bike_id":"ca4e931c-8ef5-4130-8183-d440a5801a2f","system_id":"levelo_inurba_marseille","lat":43.23189,"lon":5.35554,"is_reserved":false,"is_disabled":false,"rental_uris":{"android":"levelo://app?vid=ca4e931c-8ef5-4130-8183-d440a5801a2f","ios":"levelo://app?vid=ca4e931c-8ef5-4130-8183-d440a5801a2f"},"vehicle_type_id":"4","last_reported":1730467014,"current_range_meters":32000,"station_id":"ce4bhu92rcd13ifvqi70","pricing_plan_id":"cebpf4jnsgd1na2vs0mg"},{"bike_id":"f4add603-76e7-4f44-9ee7-02ceafe9e94d","system_id":"levelo_inurba_marseille","lat":43.23154,"lon":5.43715,"is_reserved":false,"is_disabled":false,"rental_uris":{"android":"levelo://app?vid=f4add603-76e7-4f44-9ee7-02ceafe9e94d","ios":"levelo://app?vid=f4add603-76e7-4f44-9ee7-02ceafe9e94d"},"vehicle_type_id":"4","last_reported":1730467014,"current_range_meters":34000,"station_id":"ce4bhmp2rcd13ifvqgog","pricing_plan_id":"cebpf4jnsgd1na2vs0mg"},{"bike_id":"98cf2b81-3155-4937-b491-fbd2e29b7ce0","system_id":"levelo_inurba_marseille","lat":43.29709,"lon":5.36622,"is_reserved":false,"is_disabled":false,"rental_uris":{"android":"levelo://app?vid=98cf2b81-3155-4937-b491-fbd2e29b7ce0","ios":"levelo://app?vid=98cf2b81-3155-4937-b491-fbd2e29b7ce0"},"vehicle_type_id":"4","last_reported":1730467014,"current_range_meters":39200,"station_id":"ce4bgn12rcd13ifvqbt0","pricing_plan_id":"cebpf4jnsgd1na2vs0mg"},{"bike_id":"2e1b78e5-1809-4f29-99ff-b678cf502fe3","system_id":"levelo_inurba_marseille","lat":43.24668,"lon":5.38158,"is_reserved":false,"is_disabled":false,"rental_uris":{"android":"levelo://app?vid=2e1b78e5-1809-4f29-99ff-b678cf502fe3","ios":"levelo://app?vid=2e1b78e5-1809-4f29-99ff-b678cf502fe3"},"vehicle_type_id":"4","last_reported":1730467014,"current_range_meters":28400,"station_id":"ce4bhih2rcd13ifvqfr0","pricing_plan_id":"cebpf4jnsgd1na2vs0mg"},{"bike_id":"f046d6d2-e88c-4382-8d3d-c7a081ffeb0e","system_id":"levelo_inurba_marseille","lat":43.27813,"lon":5.40707,"is_reserved":false,"is_disabled":false,"rental_uris":{"android":"levelo://app?vid=f046d6d2-e88c-4382-8d3d-c7a081ffeb0e","ios":"levelo://app?vid=f046d6d2-e88c-4382-8d3d-c7a081ffeb0e"},"vehicle_type_id":"4","last_reported":1730467014,"current_range_meters":24400,"station_id":"ce4bhnh2rcd13ifvqgtg","pricing_plan_id":"cebpf4jnsgd1na2vs0mg"},{"bike_id":"ecfff336-404e-4f76-9217-a25607b85b9b","system_id":"levelo_inurba_marseille","lat":43.30138,"lon":5.37418,"is_reserved":false,"is_disabled":false,"rental_uris":{"android":"levelo://app?vid=ecfff336-404e-4f76-9217-a25607b85b9b","ios":"levelo://app?vid=ecfff336-404e-4f76-9217-a25607b85b9b"},"vehicle_type_id":"4","last_reported":1730467014,"current_range_meters":16000,"station_id":"ce4bgs92rcd13ifvqcc0","pricing_plan_id":"cebpf4jnsgd1na2vs0mg"},{"bike_id":"1bddf228-d1ee-4fa0-bc92-046b67bba6e8","system_id":"levelo_inurba_marseille","lat":43.26027,"lon":5.37556,"is_reserved":false,"is_disabled":false,"rental_uris":{"android":"levelo://app?vid=1bddf228-d1ee-4fa0-bc92-046b67bba6e8","ios":"levelo://app?vid=1bddf228-d1ee-4fa0-bc92-046b67bba6e8"},"vehicle_type_id":"4","last_reported":1730467014,"current_range_meters":10000,"station_id":"ce4bhgh2rcd13ifvqfa0","pricing_plan_id":"cebpf4jnsgd1na2vs0mg"},{"bike_id":"ecf8c1a9-bcf9-42d8-9c26-3ce67d4effe4","system_id":"levelo_inurba_marseille","lat":43.30783,"lon":5.37646,"is_reserved":false,"is_disabled":false,"rental_uris":{"android":"levelo://app?vid=ecf8c1a9-bcf9-42d8-9c26-3ce67d4effe4","ios":"levelo://app?vid=ecf8c1a9-bcf9-42d8-9c26-3ce67d4effe4"},"vehicle_type_id":"4","last_reported":1730467014,"current_range_meters":30000,"station_id":"ce4bgv92rcd13ifvqcq0","pricing_plan_id":"cebpf4jnsgd1na2vs0mg"},{"bike_id":"6bbd3b7a-2b46-4088-a0e2-3b18b29f4fbd","system_id":"levelo_inurba_marseille","lat":43.29007,"lon":5.35613,"is_reserved":false,"is_disabled":false,"rental_uris":{"android":"levelo://app?vid=6bbd3b7a-2b46-4088-a0e2-3b18b29f4fbd","ios":"levelo://app?vid=6bbd3b7a-2b46-4088-a0e2-3b18b29f4fbd"},"vehicle_type_id":"4","last_reported":1730467014,"current_range_meters":17600,"station_id":"ce4bhb92rcd13ifvqen0","pricing_plan_id":"cebpf4jnsgd1na2vs0mg"},{"bike_id":"18402065-9e87-476b-95ad-30853de181a0","system_id":"levelo_inurba_marseille","lat":43.32451,"lon":5.45552,"is_reserved":false,"is_disabled":false,"rental_uris":{"android":"levelo://app?vid=18402065-9e87-476b-95ad-30853de181a0","ios":"levelo://app?vid=18402065-9e87-476b-95ad-30853de181a0"},"vehicle_type_id":"4","last_reported":1730467014,"current_range_meters":11600,"station_id":"","pricing_plan_id":"cebpf4jnsgd1na2vs0mg"},{"bike_id":"2907dce3-231e-483f-a10b-b25a933eead3","system_id":"levelo_inurba_marseille","lat":43.28939,"lon":5.36396,"is_reserved":false,"is_disabled":false,"rental_uris":{"android":"levelo://app?vid=2907dce3-231e-483f-a10b-b25a933eead3","ios":"levelo://app?vid=2907dce3-231e-483f-a10b-b25a933eead3"},"vehicle_type_id":"4","last_reported":1730467014,"current_range_meters":24800,"station_id":"ce4bhc92rcd13ifvqetg","pricing_plan_id":"cebpf4jnsgd1na2vs0mg"},{"bike_id":"d3df39e3-e6aa-4de7-8785-5d824aa580be","system_id":"levelo_inurba_marseille","lat":43.30545,"lon":5.36558,"is_reserved":false,"is_disabled":false,"rental_uris":{"android":"levelo://app?vid=d3df39e3-e6aa-4de7-8785-5d824aa580be","ios":"levelo://app?vid=d3df39e3-e6aa-4de7-8785-5d824aa580be"},"vehicle_type_id":"4","last_reported":1730467014,"current_range_meters":22400,"station_id":"ce4bgs12rcd13ifvqcag","pricing_plan_id":"cebpf4jnsgd1na2vs0mg"},{"bike_id":"d7547404-01f3-4bc3-88c4-b601865bf7d0","system_id":"levelo_inurba_marseille","lat":43.28274,"lon":5.35069,"is_reserved":false,"is_disabled":false,"rental_uris":{"android":"levelo://app?vid=d7547404-01f3-4bc3-88c4-b601865bf7d0","ios":"levelo://app?vid=d7547404-01f3-4bc3-88c4-b601865bf7d0"},"vehicle_type_id":"4","last_reported":1730467014,"current_range_meters":38800,"station_id":"ce4bhbp2rcd13ifvqerg","pricing_plan_id":"cebpf4jnsgd1na2vs0mg"},{"bike_id":"a3532e54-c071-4113-98e8-0cbb161aacf5","system_id":"levelo_inurba_marseille","lat":43.3229,"lon":5.38265,"is_reserved":false,"is_disabled":false,"rental_uris":{"android":"levelo://app?vid=a3532e54-c071-4113-98e8-0cbb161aacf5","ios":"levelo://app?vid=a3532e54-c071-4113-98e8-0cbb161aacf5"},"vehicle_type_id":"4","last_reported":1730467014,"current_range_meters":28400,"station_id":"ce4bhr12rcd13ifvqhqg","pricing_plan_id":"cebpf4jnsgd1na2vs0mg"},{"bike_id":"ef8a3dd0-a226-438e-8379-aa279fca8109","system_id":"levelo_inurba_marseille","lat":43.24393,"lon":5.37061,"is_reserved":false,"is_disabled":false,"rental_uris":{"android":"levelo://app?vid=ef8a3dd0-a226-438e-8379-aa279fca8109","ios":"levelo://app?vid=ef8a3dd0-a226-438e-8379-aa279fca8109"},"vehicle_type_id":"4","last_reported":1730467014,"current_range_meters":25600,"station_id":"ce4bhhh2rcd13ifvqfk0","pricing_plan_id":"cebpf4jnsgd1na2vs0mg"},{"bike_id":"4ffafafb-d1f2-42ef-8f04-8f3514b238b1","system_id":"levelo_inurba_marseille","lat":43.25096,"lon":5.39517,"is_reserved":false,"is_disabled":false,"rental_uris":{"android":"levelo://app?vid=4ffafafb-d1f2-42ef-8f04-8f3514b238b1","ios":"levelo://app?vid=4ffafafb-d1f2-42ef-8f04-8f3514b238b1"},"vehicle_type_id":"4","last_reported":1730467014,"current_range_meters":24000,"station_id":"ce4bhm12rcd13ifvqgkg","pricing_plan_id":"cebpf4jnsgd1na2vs0mg"},{"bike_id":"2efe7e28-823c-4683-85cb-193ca511af8b","system_id":"levelo_inurba_marseille","lat":43.30651,"lon":5.40083,"is_reserved":false,"is_disabled":false,"rental_uris":{"android":"levelo://app?vid=2efe7e28-823c-4683-85cb-193ca511af8b","ios":"levelo://app?vid=2efe7e28-823c-4683-85cb-193ca511af8b"},"vehicle_type_id":"4","last_reported":1730467014,"current_range_meters":38800,"station_id":"ce4bh112rcd13ifvqda0","pricing_plan_id":"cebpf4jnsgd1na2vs0mg"},{"bike_id":"8f55f6cc-0b54-4d5f-9029-aa15dfd6d9b0","system_id":"levelo_inurba_marseille","lat":43.31616,"lon":5.39059,"is_reserved":false,"is_disabled":false,"rental_uris":{"android":"levelo://app?vid=8f55f6cc-0b54-4d5f-9029-aa15dfd6d9b0","ios":"levelo://app?vid=8f55f6cc-0b54-4d5f-9029-aa15dfd6d9b0"},"vehicle_type_id":"4","last_reported":1730467014,"current_range_meters":4000,"station_id":"","pricing_plan_id":"cebpf4jnsgd1na2vs0mg"},{"bike_id":"fe198506-445a-4fd4-ad81-1c93c83826aa","system_id":"levelo_inurba_marseille","lat":43.28619,"lon":5.35103,"is_reserved":false,"is_disabled":false,"rental_uris":{"android":"levelo://app?vid=fe198506-445a-4fd4-ad81-1c93c83826aa","ios":"levelo://app?vid=fe198506-445a-4fd4-ad81-1c93c83826aa"},"vehicle_type_id":"4","last_reported":1730467014,"current_range_meters":38800,"station_id":"ce4bhch2rcd13ifvqeug","pricing_plan_id":"cebpf4jnsgd1na2vs0mg"},{"bike_id":"54b1db93-7993-4b47-8da3-8dc269c2f8e9","system_id":"levelo_inurba_marseille","lat":43.262,"lon":5.37928,"is_reserved":false,"is_disabled":false,"rental_uris":{"android":"levelo://app?vid=54b1db93-7993-4b47-8da3-8dc269c2f8e9","ios":"levelo://app?vid=54b1db93-7993-4b47-8da3-8dc269c2f8e9"},"vehicle_type_id":"4","last_reported":1730467014,"current_range_meters":20400,"station_id":"ce4bhjp2rcd13ifvqg90","pricing_plan_id":"cebpf4jnsgd1na2vs0mg"},{"bike_id":"c2228338-550c-4d7b-87ab-d313af2135e7","system_id":"levelo_inurba_marseille","lat":43.30451,"lon":5.37901,"is_reserved":false,"is_disabled":false,"rental_uris":{"android":"levelo://app?vid=c2228338-550c-4d7b-87ab-d313af2135e7","ios":"levelo://app?vid=c2228338-550c-4d7b-87ab-d313af2135e7"},"vehicle_type_id":"4","last_reported":1730467014,"current_range_meters":39200,"station_id":"ce4bgup2rcd13ifvqcn0","pricing_plan_id":"cebpf4jnsgd1na2vs0mg"},{"bike_id":"7af0fdb8-8ea7-4015-b137-29897019fd61","system_id":"levelo_inurba_marseille","lat":43.27591,"lon":5.38933,"is_reserved":false,"is_disabled":false,"rental_uris":{"android":"levelo://app?vid=7af0fdb8-8ea7-4015-b137-29897019fd61","ios":"levelo://app?vid=7af0fdb8-8ea7-4015-b137-29897019fd61"},"vehicle_type_id":"4","last_reported":1730467014,"current_range_meters":6800,"station_id":"ce4bhi12rcd13ifvqfo0","pricing_plan_id":"cebpf4jnsgd1na2vs0mg"},{"bike_id":"e6876be4-9811-43be-8c8d-e920e4087fd7","system_id":"levelo_inurba_marseille","lat":43.23999,"lon":5.36643,"is_reserved":false,"is_disabled":false,"rental_uris":{"android":"levelo://app?vid=e6876be4-9811-43be-8c8d-e920e4087fd7","ios":"levelo://app?vid=e6876be4-9811-43be-8c8d-e920e4087fd7"},"vehicle_type_id":"4","last_reported":1730467014,"current_range_meters":38800,"station_id":"ce4bhi12rcd13ifvqfp0","pricing_plan_id":"cebpf4jnsgd1na2vs0mg"},{"bike_id":"fadda05f-95af-4152-ab41-ce3a2d7a3da6","system_id":"levelo_inurba_marseille","lat":43.27816,"lon":5.4071,"is_reserved":false,"is_disabled":false,"rental_uris":{"android":"levelo://app?vid=fadda05f-95af-4152-ab41-ce3a2d7a3da6","ios":"levelo://app?vid=fadda05f-95af-4152-ab41-ce3a2d7a3da6"},"vehicle_type_id":"4","last_reported":1730467014,"current_range_meters":36000,"station_id":"ce4bhnh2rcd13ifvqgtg","pricing_plan_id":"cebpf4jnsgd1na2vs0mg"},{"bike_id":"c3892579-34c0-4f4d-b3e9-6b40091087e9","system_id":"levelo_inurba_marseille","lat":43.28412,"lon":5.34989,"is_reserved":false,"is_disabled":false,"rental_uris":{"android":"levelo://app?vid=c3892579-34c0-4f4d-b3e9-6b40091087e9","ios":"levelo://app?vid=c3892579-34c0-4f4d-b3e9-6b40091087e9"},"vehicle_type_id":"4","last_reported":1730467014,"current_range_meters":14400,"station_id":"ce4bhbh2rcd13ifvqepg","pricing_plan_id":"cebpf4jnsgd1na2vs0mg"},{"bike_id":"f7cd2e11-9116-45d3-91bc-6140ce51beb9","system_id":"levelo_inurba_marseille","lat":43.28419,"lon":5.34989,"is_reserved":false,"is_disabled":false,"rental_uris":{"android":"levelo://app?vid=f7cd2e11-9116-45d3-91bc-6140ce51beb9","ios":"levelo://app?vid=f7cd2e11-9116-45d3-91bc-6140ce51beb9"},"vehicle_type_id":"4","last_reported":1730467014,"current_range_meters":32800,"station_id":"ce4bhbh2rcd13ifvqepg","pricing_plan_id":"cebpf4jnsgd1na2vs0mg"},{"bike_id":"ca211adf-b79e-4c48-88b9-6f08fbad3c50","system_id":"levelo_inurba_marseille","lat":43.31365,"lon":5.38495,"is_reserved":false,"is_disabled":false,"rental_uris":{"android":"levelo://app?vid=ca211adf-b79e-4c48-88b9-6f08fbad3c50","ios":"levelo://app?vid=ca211adf-b79e-4c48-88b9-6f08fbad3c50"},"vehicle_type_id":"4","last_reported":1730467014,"current_range_meters":39200,"station_id":"ce4bgt92rcd13ifvqcf0","pricing_plan_id":"cebpf4jnsgd1na2vs0mg"},{"bike_id":"9dd2fea2-88ef-4b9f-97a9-f5230097f61d","system_id":"levelo_inurba_marseille","lat":43.29974,"lon":5.37163,"is_reserved":false,"is_disabled":false,"rental_uris":{"android":"levelo://app?vid=9dd2fea2-88ef-4b9f-97a9-f5230097f61d","ios":"levelo://app?vid=9dd2fea2-88ef-4b9f-97a9-f5230097f61d"},"vehicle_type_id":"4","last_reported":1730467014,"current_range_meters":37600,"station_id":"ce4bgr92rcd13ifvqc7g","pricing_plan_id":"cebpf4jnsgd1na2vs0mg"},{"bike_id":"af4e9ea9-0a7b-461e-a196-6a3fb6b64b49","system_id":"levelo_inurba_marseille","lat":43.23196,"lon":5.35552,"is_reserved":false,"is_disabled":false,"rental_uris":{"android":"levelo://app?vid=af4e9ea9-0a7b-461e-a196-6a3fb6b64b49","ios":"levelo://app?vid=af4e9ea9-0a7b-461e-a196-6a3fb6b64b49"},"vehicle_type_id":"4","last_reported":1730467014,"current_range_meters":29600,"station_id":"ce4bhu92rcd13ifvqi70","pricing_plan_id":"cebpf4jnsgd1na2vs0mg"},{"bike_id":"89c34bd5-1deb-41c7-aa71-ca88b8fb379b","system_id":"levelo_inurba_marseille","lat":43.28614,"lon":5.37067,"is_reserved":false,"is_disabled":false,"rental_uris":{"android":"levelo://app?vid=89c34bd5-1deb-41c7-aa71-ca88b8fb379b","ios":"levelo://app?vid=89c34bd5-1deb-41c7-aa71-ca88b8fb379b"},"vehicle_type_id":"4","last_reported":1730467014,"current_range_meters":38400,"station_id":"ce4bht12rcd13ifvqi60","pricing_plan_id":"cebpf4jnsgd1na2vs0mg"},{"bike_id":"24df5884-c5b9-48a0-8fd8-fe6a4145860c","system_id":"levelo_inurba_marseille","lat":43.31367,"lon":5.38496,"is_reserved":false,"is_disabled":false,"rental_uris":{"android":"levelo://app?vid=24df5884-c5b9-48a0-8fd8-fe6a4145860c","ios":"levelo://app?vid=24df5884-c5b9-48a0-8fd8-fe6a4145860c"},"vehicle_type_id":"4","last_reported":1730467014,"current_range_meters":29600,"station_id":"ce4bgt92rcd13ifvqcf0","pricing_plan_id":"cebpf4jnsgd1na2vs0mg"},{"bike_id":"76ff0f0f-932d-42ef-8025-75058f5d06cb","system_id":"levelo_inurba_marseille","lat":43.28419,"lon":5.34976,"is_reserved":false,"is_disabled":false,"rental_uris":{"android":"levelo://app?vid=76ff0f0f-932d-42ef-8025-75058f5d06cb","ios":"levelo://app?vid=76ff0f0f-932d-42ef-8025-75058f5d06cb"},"vehicle_type_id":"4","last_reported":1730467014,"current_range_meters":33200,"station_id":"ce4bhbh2rcd13ifvqepg","pricing_plan_id":"cebpf4jnsgd1na2vs0mg"},{"bike_id":"df4ea9c9-0be9-41f2-9e99-4bbff927d1f5","system_id":"levelo_inurba_marseille","lat":43.28417,"lon":5.3751,"is_reserved":false,"is_disabled":false,"rental_uris":{"android":"levelo://app?vid=df4ea9c9-0be9-41f2-9e99-4bbff927d1f5","ios":"levelo://app?vid=df4ea9c9-0be9-41f2-9e99-4bbff927d1f5"},"vehicle_type_id":"4","last_reported":1730467014,"current_range_meters":28400,"station_id":"ce4bh412rcd13ifvqds0","pricing_plan_id":"cebpf4jnsgd1na2vs0mg"},{"bike_id":"e774631b-ad90-4388-b9e5-795e1ebd992c","system_id":"levelo_inurba_marseille","lat":43.23191,"lon":5.39986,"is_reserved":false,"is_disabled":false,"rental_uris":{"android":"levelo://app?vid=e774631b-ad90-4388-b9e5-795e1ebd992c","ios":"levelo://app?vid=e774631b-ad90-4388-b9e5-795e1ebd992c"},"vehicle_type_id":"4","last_reported":1730467014,"current_range_meters":17200,"station_id":"ce4bhn12rcd13ifvqgqg","pricing_plan_id":"cebpf4jnsgd1na2vs0mg"},{"bike_id":"4a872264-f2d5-4c19-a502-335126a5e276","system_id":"levelo_inurba_marseille","lat":43.25498,"lon":5.37646,"is_reserved":false,"is_disabled":false,"rental_uris":{"android":"levelo://app?vid=4a872264-f2d5-4c19-a502-335126a5e276","ios":"levelo://app?vid=4a872264-f2d5-4c19-a502-335126a5e276"},"vehicle_type_id":"4","last_reported":1730467014,"current_range_meters":25600,"station_id":"ce4bhh12rcd13ifvqff0","pricing_plan_id":"cebpf4jnsgd1na2vs0mg"},{"bike_id":"5b1beb29-08c3-4517-96e1-89c4b727e0c3","system_id":"levelo_inurba_marseille","lat":43.23189,"lon":5.35546,"is_reserved":false,"is_disabled":false,"rental_uris":{"android":"levelo://app?vid=5b1beb29-08c3-4517-96e1-89c4b727e0c3","ios":"levelo://app?vid=5b1beb29-08c3-4517-96e1-89c4b727e0c3"},"vehicle_type_id":"4","last_reported":1730467014,"current_range_meters":29600,"station_id":"ce4bhu92rcd13ifvqi70","pricing_plan_id":"cebpf4jnsgd1na2vs0mg"},{"bike_id":"517dbc6a-e0d8-4067-9bfb-63204016ca02","system_id":"levelo_inurba_marseille","lat":43.31348,"lon":5.36724,"is_reserved":false,"is_disabled":false,"rental_uris":{"android":"levelo://app?vid=517dbc6a-e0d8-4067-9bfb-63204016ca02","ios":"levelo://app?vid=517dbc6a-e0d8-4067-9bfb-63204016ca02"},"vehicle_type_id":"4","last_reported":1730467014,"current_range_meters":12400,"station_id":"ce4bgr92rcd13ifvqc6g","pricing_plan_id":"cebpf4jnsgd1na2vs0mg"},{"bike_id":"68c00515-8a66-4ef6-adbd-b0bb74466dbc","system_id":"levelo_inurba_marseille","lat":43.26034,"lon":5.37549,"is_reserved":false,"is_disabled":false,"rental_uris":{"android":"levelo://app?vid=68c00515-8a66-4ef6-adbd-b0bb74466dbc","ios":"levelo://app?vid=68c00515-8a66-4ef6-adbd-b0bb74466dbc"},"vehicle_type_id":"4","last_reported":1730467014,"current_range_meters":39200,"station_id":"ce4bhgh2rcd13ifvqfa0","pricing_plan_id":"cebpf4jnsgd1na2vs0mg"},{"bike_id":"f99547b6-e0b7-4a86-b4bb-f600f8ca5cb2","system_id":"levelo_inurba_marseille","lat":43.24171,"lon":5.36399,"is_reserved":false,"is_disabled":false,"rental_uris":{"android":"levelo://app?vid=f99547b6-e0b7-4a86-b4bb-f600f8ca5cb2","ios":"levelo://app?vid=f99547b6-e0b7-4a86-b4bb-f600f8ca5cb2"},"vehicle_type_id":"4","last_reported":1730467014,"current_range_meters":6800,"station_id":"cpo36qri1sfpv3e86is0","pricing_plan_id":"cebpf4jnsgd1na2vs0mg"},{"bike_id":"06ba2035-774a-4f77-9b17-1034301a8dc2","system_id":"levelo_inurba_marseille","lat":43.24075,"lon":5.3776,"is_reserved":false,"is_disabled":false,"rental_uris":{"android":"levelo://app?vid=06ba2035-774a-4f77-9b17-1034301a8dc2","ios":"levelo://app?vid=06ba2035-774a-4f77-9b17-1034301a8dc2"},"vehicle_type_id":"4","last_reported":1730467014,"current_range_meters":35200,"station_id":"ce4bhnp2rcd13ifvqgvg","pricing_plan_id":"cebpf4jnsgd1na2vs0mg"},{"bike_id":"e6a6d45a-e190-43cb-8101-dd964c389a88","system_id":"levelo_inurba_marseille","lat":43.2842,"lon":5.34987,"is_reserved":false,"is_disabled":false,"rental_uris":{"android":"levelo://app?vid=e6a6d45a-e190-43cb-8101-dd964c389a88","ios":"levelo://app?vid=e6a6d45a-e190-43cb-8101-dd964c389a88"},"vehicle_type_id":"4","last_reported":1730467014,"current_range_meters":39200,"station_id":"ce4bhbh2rcd13ifvqepg","pricing_plan_id":"cebpf4jnsgd1na2vs0mg"},{"bike_id":"f35cf324-1adf-4bd9-a56a-f0c165fbeeb8","system_id":"levelo_inurba_marseille","lat":43.2842,"lon":5.34978,"is_reserved":false,"is_disabled":false,"rental_uris":{"android":"levelo://app?vid=f35cf324-1adf-4bd9-a56a-f0c165fbeeb8","ios":"levelo://app?vid=f35cf324-1adf-4bd9-a56a-f0c165fbeeb8"},"vehicle_type_id":"4","last_reported":1730467014,"current_range_meters":24400,"station_id":"ce4bhbh2rcd13ifvqepg","pricing_plan_id":"cebpf4jnsgd1na2vs0mg"},{"bike_id":"e1acffe2-b187-4517-a61d-cca9096a20f2","system_id":"levelo_inurba_marseille","lat":43.29529,"lon":5.37506,"is_reserved":false,"is_disabled":false,"rental_uris":{"android":"levelo://app?vid=e1acffe2-b187-4517-a61d-cca9096a20f2","ios":"levelo://app?vid=e1acffe2-b187-4517-a61d-cca9096a20f2"},"vehicle_type_id":"4","last_reported":1730467014,"current_range_meters":22000,"station_id":"ce4bgkp2rcd13ifvqbmg","pricing_plan_id":"cebpf4jnsgd1na2vs0mg"},{"bike_id":"794d23c0-def7-4557-a69a-112ea268f585","system_id":"levelo_inurba_marseille","lat":43.23198,"lon":5.35551,"is_reserved":false,"is_disabled":false,"rental_uris":{"android":"levelo://app?vid=794d23c0-def7-4557-a69a-112ea268f585","ios":"levelo://app?vid=794d23c0-def7-4557-a69a-112ea268f585"},"vehicle_type_id":"4","last_reported":1730467014,"current_range_meters":38800,"station_id":"ce4bhu92rcd13ifvqi70","pricing_plan_id":"cebpf4jnsgd1na2vs0mg"},{"bike_id":"a2de9558-1f75-4775-8d03-af42c97076ed","system_id":"levelo_inurba_marseille","lat":43.296234,"lon":5.371597,"is_reserved":false,"is_disabled":false,"rental_uris":{"android":"levelo://app?vid=a2de9558-1f75-4775-8d03-af42c97076ed","ios":"levelo://app?vid=a2de9558-1f75-4775-8d03-af42c97076ed"},"vehicle_type_id":"4","last_reported":1730467014,"current_range_meters":4800,"station_id":"ce4bgnh2rcd13ifvqc0g","pricing_plan_id":"cebpf4jnsgd1na2vs0mg"},{"bike_id":"014a528d-bfc7-4a06-b291-920e2b31889a","system_id":"levelo_inurba_marseille","lat":43.3047,"lon":5.37907,"is_reserved":false,"is_disabled":false,"rental_uris":{"android":"levelo://app?vid=014a528d-bfc7-4a06-b291-920e2b31889a","ios":"levelo://app?vid=014a528d-bfc7-4a06-b291-920e2b31889a"},"vehicle_type_id":"4","last_reported":1730467014,"current_range_meters":24000,"station_id":"ce4bgup2rcd13ifvqcn0","pricing_plan_id":"cebpf4jnsgd1na2vs0mg"},{"bike_id":"c9fe9305-e5b5-403a-8ac6-ee784523647c","system_id":"levelo_inurba_marseille","lat":43.23434,"lon":5.35946,"is_reserved":false,"is_disabled":false,"rental_uris":{"android":"levelo://app?vid=c9fe9305-e5b5-403a-8ac6-ee784523647c","ios":"levelo://app?vid=c9fe9305-e5b5-403a-8ac6-ee784523647c"},"vehicle_type_id":"4","last_reported":1730467014,"current_range_meters":22800,"station_id":"","pricing_plan_id":"cebpf4jnsgd1na2vs0mg"},{"bike_id":"b0f6666e-1f12-4056-810c-c49aa08973a1","system_id":"levelo_inurba_marseille","lat":43.3028,"lon":5.37701,"is_reserved":false,"is_disabled":false,"rental_uris":{"android":"levelo://app?vid=b0f6666e-1f12-4056-810c-c49aa08973a1","ios":"levelo://app?vid=b0f6666e-1f12-4056-810c-c49aa08973a1"},"vehicle_type_id":"4","last_reported":1730467014,"current_range_meters":24400,"station_id":"ce4bguh2rcd13ifvqcj0","pricing_plan_id":"cebpf4jnsgd1na2vs0mg"},{"bike_id":"cc322afb-c5c9-47bf-9445-73dd0df8e8cb","system_id":"levelo_inurba_marseille","lat":43.30191,"lon":5.36616,"is_reserved":false,"is_disabled":false,"rental_uris":{"android":"levelo://app?vid=cc322afb-c5c9-47bf-9445-73dd0df8e8cb","ios":"levelo://app?vid=cc322afb-c5c9-47bf-9445-73dd0df8e8cb"},"vehicle_type_id":"4","last_reported":1730467014,"current_range_meters":32800,"station_id":"ce4bgrh2rcd13ifvqc8g","pricing_plan_id":"cebpf4jnsgd1na2vs0mg"},{"bike_id":"e52b30a3-4b57-4670-bfc2-001af37ad664","system_id":"levelo_inurba_marseille","lat":43.28418,"lon":5.34977,"is_reserved":false,"is_disabled":false,"rental_uris":{"android":"levelo://app?vid=e52b30a3-4b57-4670-bfc2-001af37ad664","ios":"levelo://app?vid=e52b30a3-4b57-4670-bfc2-001af37ad664"},"vehicle_type_id":"4","last_reported":1730467014,"current_range_meters":28000,"station_id":"ce4bhbh2rcd13ifvqepg","pricing_plan_id":"cebpf4jnsgd1na2vs0mg"},{"bike_id":"2b39b195-4084-42af-b4ae-66cf7f1ef08d","system_id":"levelo_inurba_marseille","lat":43.2866,"lon":5.36359,"is_reserved":false,"is_disabled":false,"rental_uris":{"android":"levelo://app?vid=2b39b195-4084-42af-b4ae-66cf7f1ef08d","ios":"levelo://app?vid=2b39b195-4084-42af-b4ae-66cf7f1ef08d"},"vehicle_type_id":"4","last_reported":1730467014,"current_range_meters":3200,"station_id":"ce4bhah2rcd13ifvqej0","pricing_plan_id":"cebpf4jnsgd1na2vs0mg"},{"bike_id":"9b097327-316a-4944-93b9-9ad4b05c9c23","system_id":"levelo_inurba_marseille","lat":43.30598,"lon":5.37224,"is_reserved":false,"is_disabled":false,"rental_uris":{"android":"levelo://app?vid=9b097327-316a-4944-93b9-9ad4b05c9c23","ios":"levelo://app?vid=9b097327-316a-4944-93b9-9ad4b05c9c23"},"vehicle_type_id":"4","last_reported":1730467014,"current_range_meters":38800,"station_id":"ce4bgqh2rcd13ifvqc4g","pricing_plan_id":"cebpf4jnsgd1na2vs0mg"},{"bike_id":"aee7ddf5-4614-4a8f-8314-8de70c4c74a6","system_id":"levelo_inurba_marseille","lat":43.30596,"lon":5.39362,"is_reserved":false,"is_disabled":false,"rental_uris":{"android":"levelo://app?vid=aee7ddf5-4614-4a8f-8314-8de70c4c74a6","ios":"levelo://app?vid=aee7ddf5-4614-4a8f-8314-8de70c4c74a6"},"vehicle_type_id":"4","last_reported":1730467014,"current_range_meters":39200,"station_id":"ce4bh0p2rcd13ifvqd80","pricing_plan_id":"cebpf4jnsgd1na2vs0mg"},{"bike_id":"68ee9e57-81bc-4ab4-adb1-b44853174ba9","system_id":"levelo_inurba_marseille","lat":43.23959,"lon":5.3664,"is_reserved":false,"is_disabled":false,"rental_uris":{"android":"levelo://app?vid=68ee9e57-81bc-4ab4-adb1-b44853174ba9","ios":"levelo://app?vid=68ee9e57-81bc-4ab4-adb1-b44853174ba9"},"vehicle_type_id":"4","last_reported":1730467014,"current_range_meters":32800,"station_id":"ce4bhi12rcd13ifvqfp0","pricing_plan_id":"cebpf4jnsgd1na2vs0mg"},{"bike_id":"e9d01c7d-d2e3-4be8-bc01-bccb3fdde7de","system_id":"levelo_inurba_marseille","lat":43.30297,"lon":5.36886,"is_reserved":false,"is_disabled":false,"rental_uris":{"android":"levelo://app?vid=e9d01c7d-d2e3-4be8-bc01-bccb3fdde7de","ios":"levelo://app?vid=e9d01c7d-d2e3-4be8-bc01-bccb3fdde7de"},"vehicle_type_id":"4","last_reported":1730467014,"current_range_meters":27600,"station_id":"ce4bgqh2rcd13ifvqc5g","pricing_plan_id":"cebpf4jnsgd1na2vs0mg"},{"bike_id":"2e022dfd-a0a4-4fbe-a9b0-41ca1f665e23","system_id":"levelo_inurba_marseille","lat":43.29196,"lon":5.35802,"is_reserved":false,"is_disabled":false,"rental_uris":{"android":"levelo://app?vid=2e022dfd-a0a4-4fbe-a9b0-41ca1f665e23","ios":"levelo://app?vid=2e022dfd-a0a4-4fbe-a9b0-41ca1f665e23"},"vehicle_type_id":"4","last_reported":1730467014,"current_range_meters":38000,"station_id":"ce4bhb12rcd13ifvqel0","pricing_plan_id":"cebpf4jnsgd1na2vs0mg"},{"bike_id":"4414f15e-02f7-47f5-a315-900346545d90","system_id":"levelo_inurba_marseille","lat":43.27573,"lon":5.38415,"is_reserved":false,"is_disabled":false,"rental_uris":{"android":"levelo://app?vid=4414f15e-02f7-47f5-a315-900346545d90","ios":"levelo://app?vid=4414f15e-02f7-47f5-a315-900346545d90"},"vehicle_type_id":"4","last_reported":1730467014,"current_range_meters":39200,"station_id":"ce4bhh92rcd13ifvqfi0","pricing_plan_id":"cebpf4jnsgd1na2vs0mg"},{"bike_id":"94e5a78a-7095-4be1-a4e8-698f69574a49","system_id":"levelo_inurba_marseille","lat":43.23192,"lon":5.3555,"is_reserved":false,"is_disabled":false,"rental_uris":{"android":"levelo://app?vid=94e5a78a-7095-4be1-a4e8-698f69574a49","ios":"levelo://app?vid=94e5a78a-7095-4be1-a4e8-698f69574a49"},"vehicle_type_id":"4","last_reported":1730467014,"current_range_meters":28800,"station_id":"ce4bhu92rcd13ifvqi70","pricing_plan_id":"cebpf4jnsgd1na2vs0mg"},{"bike_id":"e28f4cf4-aaa0-4089-94fb-a26e49eaf87d","system_id":"levelo_inurba_marseille","lat":43.23183,"lon":5.39993,"is_reserved":false,"is_disabled":false,"rental_uris":{"android":"levelo://app?vid=e28f4cf4-aaa0-4089-94fb-a26e49eaf87d","ios":"levelo://app?vid=e28f4cf4-aaa0-4089-94fb-a26e49eaf87d"},"vehicle_type_id":"4","last_reported":1730467014,"current_range_meters":6400,"station_id":"ce4bhn12rcd13ifvqgqg","pricing_plan_id":"cebpf4jnsgd1na2vs0mg"},{"bike_id":"b82e46bd-dd93-438e-8032-253c0ff00e77","system_id":"levelo_inurba_marseille","lat":43.28616,"lon":5.35107,"is_reserved":false,"is_disabled":false,"rental_uris":{"android":"levelo://app?vid=b82e46bd-dd93-438e-8032-253c0ff00e77","ios":"levelo://app?vid=b82e46bd-dd93-438e-8032-253c0ff00e77"},"vehicle_type_id":"4","last_reported":1730467014,"current_range_meters":33600,"station_id":"ce4bhch2rcd13ifvqeug","pricing_plan_id":"cebpf4jnsgd1na2vs0mg"},{"bike_id":"707604b6-c6b3-46a1-a0b3-4a69400962f8","system_id":"levelo_inurba_marseille","lat":43.27497,"lon":5.42446,"is_reserved":false,"is_disabled":false,"rental_uris":{"android":"levelo://app?vid=707604b6-c6b3-46a1-a0b3-4a69400962f8","ios":"levelo://app?vid=707604b6-c6b3-46a1-a0b3-4a69400962f8"},"vehicle_type_id":"4","last_reported":1730467014,"current_range_meters":32400,"station_id":"ce4bhn92rcd13ifvqgrg","pricing_plan_id":"cebpf4jnsgd1na2vs0mg"},{"bike_id":"7c4bd571-e8a9-4367-a410-7029ce409046","system_id":"levelo_inurba_marseille","lat":43.29578,"lon":5.37516,"is_reserved":false,"is_disabled":false,"rental_uris":{"android":"levelo://app?vid=7c4bd571-e8a9-4367-a410-7029ce409046","ios":"levelo://app?vid=7c4bd571-e8a9-4367-a410-7029ce409046"},"vehicle_type_id":"4","last_reported":1730467014,"current_range_meters":28000,"station_id":"ce4bgh92rcd13ifvqb50","pricing_plan_id":"cebpf4jnsgd1na2vs0mg"},{"bike_id":"b3dfe831-99af-484c-a881-b5ce1dabd545","system_id":"levelo_inurba_marseille","lat":43.27572,"lon":5.38404,"is_reserved":false,"is_disabled":false,"rental_uris":{"android":"levelo://app?vid=b3dfe831-99af-484c-a881-b5ce1dabd545","ios":"levelo://app?vid=b3dfe831-99af-484c-a881-b5ce1dabd545"},"vehicle_type_id":"4","last_reported":1730467014,"current_range_meters":20400,"station_id":"ce4bhh92rcd13ifvqfi0","pricing_plan_id":"cebpf4jnsgd1na2vs0mg"},{"bike_id":"f47423cc-07e3-4a98-9b42-0c55807ac5e3","system_id":"levelo_inurba_marseille","lat":43.28615,"lon":5.35108,"is_reserved":false,"is_disabled":false,"rental_uris":{"android":"levelo://app?vid=f47423cc-07e3-4a98-9b42-0c55807ac5e3","ios":"levelo://app?vid=f47423cc-07e3-4a98-9b42-0c55807ac5e3"},"vehicle_type_id":"4","last_reported":1730467014,"current_range_meters":27600,"station_id":"ce4bhch2rcd13ifvqeug","pricing_plan_id":"cebpf4jnsgd1na2vs0mg"},{"bike_id":"5b56874c-c7a1-46f2-acff-a7978e67ef45","system_id":"levelo_inurba_marseille","lat":43.24394,"lon":5.3707,"is_reserved":false,"is_disabled":false,"rental_uris":{"android":"levelo://app?vid=5b56874c-c7a1-46f2-acff-a7978e67ef45","ios":"levelo://app?vid=5b56874c-c7a1-46f2-acff-a7978e67ef45"},"vehicle_type_id":"4","last_reported":1730467014,"current_range_meters":23200,"station_id":"ce4bhhh2rcd13ifvqfk0","pricing_plan_id":"cebpf4jnsgd1na2vs0mg"},{"bike_id":"58748d2a-dff2-4bfe-ba69-a9beed25e62c","system_id":"levelo_inurba_marseille","lat":43.27112,"lon":5.39449,"is_reserved":false,"is_disabled":false,"rental_uris":{"android":"levelo://app?vid=58748d2a-dff2-4bfe-ba69-a9beed25e62c","ios":"levelo://app?vid=58748d2a-dff2-4bfe-ba69-a9beed25e62c"},"vehicle_type_id":"4","last_reported":1730467014,"current_range_meters":22800,"station_id":"","pricing_plan_id":"cebpf4jnsgd1na2vs0mg"},{"bike_id":"08ed22d7-663d-413b-8e4a-a32596a7792f","system_id":"levelo_inurba_marseille","lat":43.32489,"lon":5.41569,"is_reserved":false,"is_disabled":false,"rental_uris":{"android":"levelo://app?vid=08ed22d7-663d-413b-8e4a-a32596a7792f","ios":"levelo://app?vid=08ed22d7-663d-413b-8e4a-a32596a7792f"},"vehicle_type_id":"4","last_reported":1730467014,"current_range_meters":36800,"station_id":"","pricing_plan_id":"cebpf4jnsgd1na2vs0mg"},{"bike_id":"55db49d4-5a48-49c8-9207-c7b4fb027811","system_id":"levelo_inurba_marseille","lat":43.25007,"lon":5.38939,"is_reserved":false,"is_disabled":false,"rental_uris":{"android":"levelo://app?vid=55db49d4-5a48-49c8-9207-c7b4fb027811","ios":"levelo://app?vid=55db49d4-5a48-49c8-9207-c7b4fb027811"},"vehicle_type_id":"4","last_reported":1730467014,"current_range_meters":27600,"station_id":"ce4bhgp2rcd13ifvqfd0","pricing_plan_id":"cebpf4jnsgd1na2vs0mg"},{"bike_id":"819560b3-07b7-47c9-9936-06dfb2faf181","system_id":"levelo_inurba_marseille","lat":43.23193,"lon":5.35552,"is_reserved":false,"is_disabled":false,"rental_uris":{"android":"levelo://app?vid=819560b3-07b7-47c9-9936-06dfb2faf181","ios":"levelo://app?vid=819560b3-07b7-47c9-9936-06dfb2faf181"},"vehicle_type_id":"4","last_reported":1730467014,"current_range_meters":26000,"station_id":"ce4bhu92rcd13ifvqi70","pricing_plan_id":"cebpf4jnsgd1na2vs0mg"},{"bike_id":"3242408b-6f26-4e0a-9237-4abd43c337bc","system_id":"levelo_inurba_marseille","lat":43.285004,"lon":5.38563,"is_reserved":false,"is_disabled":false,"rental_uris":{"android":"levelo://app?vid=3242408b-6f26-4e0a-9237-4abd43c337bc","ios":"levelo://app?vid=3242408b-6f26-4e0a-9237-4abd43c337bc"},"vehicle_type_id":"4","last_reported":1730467014,"current_range_meters":32800,"station_id":"ce4bh8p2rcd13ifvqeb0","pricing_plan_id":"cebpf4jnsgd1na2vs0mg"},{"bike_id":"7761dfd7-5811-407a-97cf-83e9d6d36c83","system_id":"levelo_inurba_marseille","lat":43.23185,"lon":5.39987,"is_reserved":false,"is_disabled":false,"rental_uris":{"android":"levelo://app?vid=7761dfd7-5811-407a-97cf-83e9d6d36c83","ios":"levelo://app?vid=7761dfd7-5811-407a-97cf-83e9d6d36c83"},"vehicle_type_id":"4","last_reported":1730467014,"current_range_meters":39200,"station_id":"ce4bhn12rcd13ifvqgqg","pricing_plan_id":"cebpf4jnsgd1na2vs0mg"},{"bike_id":"ed239b41-af43-4f0b-bb81-814199b4db42","system_id":"levelo_inurba_marseille","lat":43.28275,"lon":5.35074,"is_reserved":false,"is_disabled":false,"rental_uris":{"android":"levelo://app?vid=ed239b41-af43-4f0b-bb81-814199b4db42","ios":"levelo://app?vid=ed239b41-af43-4f0b-bb81-814199b4db42"},"vehicle_type_id":"4","last_reported":1730467014,"current_range_meters":38800,"station_id":"ce4bhbp2rcd13ifvqerg","pricing_plan_id":"cebpf4jnsgd1na2vs0mg"},{"bike_id":"519ed868-bf2d-403e-82a3-e650632e4ae9","system_id":"levelo_inurba_marseille","lat":43.28616,"lon":5.35109,"is_reserved":false,"is_disabled":false,"rental_uris":{"android":"levelo://app?vid=519ed868-bf2d-403e-82a3-e650632e4ae9","ios":"levelo://app?vid=519ed868-bf2d-403e-82a3-e650632e4ae9"},"vehicle_type_id":"4","last_reported":1730467014,"current_range_meters":24800,"station_id":"ce4bhch2rcd13ifvqeug","pricing_plan_id":"cebpf4jnsgd1na2vs0mg"},{"bike_id":"94279a57-03c0-47b7-abe3-7226e86fd3b0","system_id":"levelo_inurba_marseille","lat":43.27613,"lon":5.36105,"is_reserved":false,"is_disabled":false,"rental_uris":{"android":"levelo://app?vid=94279a57-03c0-47b7-abe3-7226e86fd3b0","ios":"levelo://app?vid=94279a57-03c0-47b7-abe3-7226e86fd3b0"},"vehicle_type_id":"4","last_reported":1730467014,"current_range_meters":25200,"station_id":"ce4bgj92rcd13ifvqbe0","pricing_plan_id":"cebpf4jnsgd1na2vs0mg"},{"bike_id":"8bf5d2a9-3744-40e7-96bc-4d18836c7202","system_id":"levelo_inurba_marseille","lat":43.28726,"lon":5.37933,"is_reserved":false,"is_disabled":false,"rental_uris":{"android":"levelo://app?vid=8bf5d2a9-3744-40e7-96bc-4d18836c7202","ios":"levelo://app?vid=8bf5d2a9-3744-40e7-96bc-4d18836c7202"},"vehicle_type_id":"4","last_reported":1730467014,"current_range_meters":16800,"station_id":"ce4bh9p2rcd13ifvqec0","pricing_plan_id":"cebpf4jnsgd1na2vs0mg"},{"bike_id":"864a552f-87dd-464a-977f-d7ea2d5d0d29","system_id":"levelo_inurba_marseille","lat":43.27621,"lon":5.36107,"is_reserved":false,"is_disabled":false,"rental_uris":{"android":"levelo://app?vid=864a552f-87dd-464a-977f-d7ea2d5d0d29","ios":"levelo://app?vid=864a552f-87dd-464a-977f-d7ea2d5d0d29"},"vehicle_type_id":"4","last_reported":1730467014,"current_range_meters":22000,"station_id":"ce4bgj92rcd13ifvqbe0","pricing_plan_id":"cebpf4jnsgd1na2vs0mg"},{"bike_id":"c97b97e3-8572-413d-a972-8b4265cd9cd0","system_id":"levelo_inurba_marseille","lat":43.28274,"lon":5.35085,"is_reserved":false,"is_disabled":false,"rental_uris":{"android":"levelo://app?vid=c97b97e3-8572-413d-a972-8b4265cd9cd0","ios":"levelo://app?vid=c97b97e3-8572-413d-a972-8b4265cd9cd0"},"vehicle_type_id":"4","last_reported":1730467014,"current_range_meters":38000,"station_id":"ce4bhbp2rcd13ifvqerg","pricing_plan_id":"cebpf4jnsgd1na2vs0mg"},{"bike_id":"a59de3a1-b5ee-4992-95d5-92d91d1b8221","system_id":"levelo_inurba_marseille","lat":43.25868,"lon":5.39903,"is_reserved":false,"is_disabled":false,"rental_uris":{"android":"levelo://app?vid=a59de3a1-b5ee-4992-95d5-92d91d1b8221","ios":"levelo://app?vid=a59de3a1-b5ee-4992-95d5-92d91d1b8221"},"vehicle_type_id":"4","last_reported":1730467014,"current_range_meters":32000,"station_id":"ce4bhl92rcd13ifvqghg","pricing_plan_id":"cebpf4jnsgd1na2vs0mg"},{"bike_id":"1a4dfb36-c358-4aa3-8fb1-28e026a5fd9d","system_id":"levelo_inurba_marseille","lat":43.25585,"lon":5.38227,"is_reserved":false,"is_disabled":false,"rental_uris":{"android":"levelo://app?vid=1a4dfb36-c358-4aa3-8fb1-28e026a5fd9d","ios":"levelo://app?vid=1a4dfb36-c358-4aa3-8fb1-28e026a5fd9d"},"vehicle_type_id":"4","last_reported":1730467014,"current_range_meters":26000,"station_id":"ce4bhih2rcd13ifvqfs0","pricing_plan_id":"cebpf4jnsgd1na2vs0mg"},{"bike_id":"ada63b94-b689-4bad-a564-d3b83c319ef3","system_id":"levelo_inurba_marseille","lat":43.30915,"lon":5.36845,"is_reserved":false,"is_disabled":false,"rental_uris":{"android":"levelo://app?vid=ada63b94-b689-4bad-a564-d3b83c319ef3","ios":"levelo://app?vid=ada63b94-b689-4bad-a564-d3b83c319ef3"},"vehicle_type_id":"4","last_reported":1730467014,"current_range_meters":17600,"station_id":"ce4bgn92rcd13ifvqbvg","pricing_plan_id":"cebpf4jnsgd1na2vs0mg"},{"bike_id":"ce7a9679-1309-4337-a277-05901a838b7d","system_id":"levelo_inurba_marseille","lat":43.29358,"lon":5.43431,"is_reserved":false,"is_disabled":false,"rental_uris":{"android":"levelo://app?vid=ce7a9679-1309-4337-a277-05901a838b7d","ios":"levelo://app?vid=ce7a9679-1309-4337-a277-05901a838b7d"},"vehicle_type_id":"4","last_reported":1730467014,"current_range_meters":17200,"station_id":"","pricing_plan_id":"cebpf4jnsgd1na2vs0mg"},{"bike_id":"16a994cc-3b5c-4ba7-b255-a03c2192e716","system_id":"levelo_inurba_marseille","lat":43.24074,"lon":5.37755,"is_reserved":false,"is_disabled":false,"rental_uris":{"android":"levelo://app?vid=16a994cc-3b5c-4ba7-b255-a03c2192e716","ios":"levelo://app?vid=16a994cc-3b5c-4ba7-b255-a03c2192e716"},"vehicle_type_id":"4","last_reported":1730467014,"current_range_meters":20400,"station_id":"ce4bhnp2rcd13ifvqgvg","pricing_plan_id":"cebpf4jnsgd1na2vs0mg"},{"bike_id":"62cc4766-8c4f-4c68-b806-619b96217818","system_id":"levelo_inurba_marseille","lat":43.25115,"lon":5.40317,"is_reserved":false,"is_disabled":false,"rental_uris":{"android":"levelo://app?vid=62cc4766-8c4f-4c68-b806-619b96217818","ios":"levelo://app?vid=62cc4766-8c4f-4c68-b806-619b96217818"},"vehicle_type_id":"4","last_reported":1730467014,"current_range_meters":9600,"station_id":"ce4bhlh2rcd13ifvqgig","pricing_plan_id":"cebpf4jnsgd1na2vs0mg"},{"bike_id":"1fe219b2-8626-414e-8d61-0586c316f82f","system_id":"levelo_inurba_marseille","lat":43.2549,"lon":5.37646,"is_reserved":false,"is_disabled":false,"rental_uris":{"android":"levelo://app?vid=1fe219b2-8626-414e-8d61-0586c316f82f","ios":"levelo://app?vid=1fe219b2-8626-414e-8d61-0586c316f82f"},"vehicle_type_id":"4","last_reported":1730467014,"current_range_meters":9200,"station_id":"ce4bhh12rcd13ifvqff0","pricing_plan_id":"cebpf4jnsgd1na2vs0mg"},{"bike_id":"dcb8f151-5f72-4ce7-a41b-c8f44dd67b21","system_id":"levelo_inurba_marseille","lat":43.31362,"lon":5.38498,"is_reserved":false,"is_disabled":false,"rental_uris":{"android":"levelo://app?vid=dcb8f151-5f72-4ce7-a41b-c8f44dd67b21","ios":"levelo://app?vid=dcb8f151-5f72-4ce7-a41b-c8f44dd67b21"},"vehicle_type_id":"4","last_reported":1730467014,"current_range_meters":38000,"station_id":"ce4bgt92rcd13ifvqcf0","pricing_plan_id":"cebpf4jnsgd1na2vs0mg"},{"bike_id":"ef71afb4-3f56-43da-a8b3-460d8ef063ad","system_id":"levelo_inurba_marseille","lat":43.28614,"lon":5.35098,"is_reserved":false,"is_disabled":false,"rental_uris":{"android":"levelo://app?vid=ef71afb4-3f56-43da-a8b3-460d8ef063ad","ios":"levelo://app?vid=ef71afb4-3f56-43da-a8b3-460d8ef063ad"},"vehicle_type_id":"4","last_reported":1730467014,"current_range_meters":30000,"station_id":"ce4bhch2rcd13ifvqeug","pricing_plan_id":"cebpf4jnsgd1na2vs0mg"},{"bike_id":"b25e9f1b-8836-499e-a02b-966d09e0f68b","system_id":"levelo_inurba_marseille","lat":43.28661,"lon":5.36349,"is_reserved":false,"is_disabled":false,"rental_uris":{"android":"levelo://app?vid=b25e9f1b-8836-499e-a02b-966d09e0f68b","ios":"levelo://app?vid=b25e9f1b-8836-499e-a02b-966d09e0f68b"},"vehicle_type_id":"4","last_reported":1730467014,"current_range_meters":8800,"station_id":"ce4bhah2rcd13ifvqej0","pricing_plan_id":"cebpf4jnsgd1na2vs0mg"},{"bike_id":"fcaccd5c-23fb-4cc8-8931-ae330b22fb5a","system_id":"levelo_inurba_marseille","lat":43.23186,"lon":5.39998,"is_reserved":false,"is_disabled":false,"rental_uris":{"android":"levelo://app?vid=fcaccd5c-23fb-4cc8-8931-ae330b22fb5a","ios":"levelo://app?vid=fcaccd5c-23fb-4cc8-8931-ae330b22fb5a"},"vehicle_type_id":"4","last_reported":1730467014,"current_range_meters":28000,"station_id":"ce4bhn12rcd13ifvqgqg","pricing_plan_id":"cebpf4jnsgd1na2vs0mg"},{"bike_id":"86008901-30ea-4421-9db2-a092ed66c428","system_id":"levelo_inurba_marseille","lat":43.25729,"lon":5.41109,"is_reserved":false,"is_disabled":false,"rental_uris":{"android":"levelo://app?vid=86008901-30ea-4421-9db2-a092ed66c428","ios":"levelo://app?vid=86008901-30ea-4421-9db2-a092ed66c428"},"vehicle_type_id":"4","last_reported":1730467014,"current_range_meters":26000,"station_id":"ce4bhkp2rcd13ifvqgd0","pricing_plan_id":"cebpf4jnsgd1na2vs0mg"},{"bike_id":"b7a9d8e8-c35d-4971-bd3f-c64a2bbcec4e","system_id":"levelo_inurba_marseille","lat":43.28278,"lon":5.35064,"is_reserved":false,"is_disabled":false,"rental_uris":{"android":"levelo://app?vid=b7a9d8e8-c35d-4971-bd3f-c64a2bbcec4e","ios":"levelo://app?vid=b7a9d8e8-c35d-4971-bd3f-c64a2bbcec4e"},"vehicle_type_id":"4","last_reported":1730467014,"current_range_meters":38800,"station_id":"ce4bhbp2rcd13ifvqerg","pricing_plan_id":"cebpf4jnsgd1na2vs0mg"},{"bike_id":"abada35d-2a86-4ca0-8d29-70ee5eba4bc2","system_id":"levelo_inurba_marseille","lat":43.27991,"lon":5.40018,"is_reserved":false,"is_disabled":false,"rental_uris":{"android":"levelo://app?vid=abada35d-2a86-4ca0-8d29-70ee5eba4bc2","ios":"levelo://app?vid=abada35d-2a86-4ca0-8d29-70ee5eba4bc2"},"vehicle_type_id":"4","last_reported":1730467014,"current_range_meters":39200,"station_id":"ce4bho92rcd13ifvqh4g","pricing_plan_id":"cebpf4jnsgd1na2vs0mg"},{"bike_id":"59cee71b-6321-48c1-98bb-e47da0373653","system_id":"levelo_inurba_marseille","lat":43.24665,"lon":5.38166,"is_reserved":false,"is_disabled":false,"rental_uris":{"android":"levelo://app?vid=59cee71b-6321-48c1-98bb-e47da0373653","ios":"levelo://app?vid=59cee71b-6321-48c1-98bb-e47da0373653"},"vehicle_type_id":"4","last_reported":1730467014,"current_range_meters":16400,"station_id":"ce4bhih2rcd13ifvqfr0","pricing_plan_id":"cebpf4jnsgd1na2vs0mg"},{"bike_id":"80614dc7-516b-4578-9c4b-d6f6e4581608","system_id":"levelo_inurba_marseille","lat":43.29277,"lon":5.40116,"is_reserved":false,"is_disabled":false,"rental_uris":{"android":"levelo://app?vid=80614dc7-516b-4578-9c4b-d6f6e4581608","ios":"levelo://app?vid=80614dc7-516b-4578-9c4b-d6f6e4581608"},"vehicle_type_id":"4","last_reported":1730467014,"current_range_meters":36800,"station_id":"ce4bh312rcd13ifvqdk0","pricing_plan_id":"cebpf4jnsgd1na2vs0mg"},{"bike_id":"6e0e64be-d7b7-4885-8b3b-be27af7118de","system_id":"levelo_inurba_marseille","lat":43.29168,"lon":5.37167,"is_reserved":false,"is_disabled":false,"rental_uris":{"android":"levelo://app?vid=6e0e64be-d7b7-4885-8b3b-be27af7118de","ios":"levelo://app?vid=6e0e64be-d7b7-4885-8b3b-be27af7118de"},"vehicle_type_id":"4","last_reported":1730467014,"current_range_meters":38800,"station_id":"ce4bhb12rcd13ifvqem0","pricing_plan_id":"cebpf4jnsgd1na2vs0mg"},{"bike_id":"1c26a1ca-7eb0-48c2-8ccb-f22a90dac2ea","system_id":"levelo_inurba_marseille","lat":43.33601,"lon":5.41031,"is_reserved":false,"is_disabled":false,"rental_uris":{"android":"levelo://app?vid=1c26a1ca-7eb0-48c2-8ccb-f22a90dac2ea","ios":"levelo://app?vid=1c26a1ca-7eb0-48c2-8ccb-f22a90dac2ea"},"vehicle_type_id":"4","last_reported":1730467014,"current_range_meters":9200,"station_id":"ce4bhqh2rcd13ifvqhmg","pricing_plan_id":"cebpf4jnsgd1na2vs0mg"},{"bike_id":"ffcea463-c3ed-497e-8095-385644b9476c","system_id":"levelo_inurba_marseille","lat":43.28423,"lon":5.3498,"is_reserved":false,"is_disabled":false,"rental_uris":{"android":"levelo://app?vid=ffcea463-c3ed-497e-8095-385644b9476c","ios":"levelo://app?vid=ffcea463-c3ed-497e-8095-385644b9476c"},"vehicle_type_id":"4","last_reported":1730467014,"current_range_meters":39200,"station_id":"ce4bhbh2rcd13ifvqepg","pricing_plan_id":"cebpf4jnsgd1na2vs0mg"},{"bike_id":"77e40691-1f65-4032-9655-8851155c8940","system_id":"levelo_inurba_marseille","lat":43.30547,"lon":5.36557,"is_reserved":false,"is_disabled":false,"rental_uris":{"android":"levelo://app?vid=77e40691-1f65-4032-9655-8851155c8940","ios":"levelo://app?vid=77e40691-1f65-4032-9655-8851155c8940"},"vehicle_type_id":"4","last_reported":1730467014,"current_range_meters":24000,"station_id":"ce4bgs12rcd13ifvqcag","pricing_plan_id":"cebpf4jnsgd1na2vs0mg"},{"bike_id":"ae31f7aa-ec14-4090-9ea9-479b30ff0ee5","system_id":"levelo_inurba_marseille","lat":43.33605,"lon":5.41028,"is_reserved":false,"is_disabled":false,"rental_uris":{"android":"levelo://app?vid=ae31f7aa-ec14-4090-9ea9-479b30ff0ee5","ios":"levelo://app?vid=ae31f7aa-ec14-4090-9ea9-479b30ff0ee5"},"vehicle_type_id":"4","last_reported":1730467014,"current_range_meters":39200,"station_id":"ce4bhqh2rcd13ifvqhmg","pricing_plan_id":"cebpf4jnsgd1na2vs0mg"},{"bike_id":"3f862de1-3221-4cb5-b04f-a32f0115487e","system_id":"levelo_inurba_marseille","lat":43.25585,"lon":5.38227,"is_reserved":false,"is_disabled":false,"rental_uris":{"android":"levelo://app?vid=3f862de1-3221-4cb5-b04f-a32f0115487e","ios":"levelo://app?vid=3f862de1-3221-4cb5-b04f-a32f0115487e"},"vehicle_type_id":"4","last_reported":1730467014,"current_range_meters":23200,"station_id":"ce4bhih2rcd13ifvqfs0","pricing_plan_id":"cebpf4jnsgd1na2vs0mg"},{"bike_id":"39af8be6-ab3d-4139-9758-b6c9438312a8","system_id":"levelo_inurba_marseille","lat":43.30437,"lon":5.38889,"is_reserved":false,"is_disabled":false,"rental_uris":{"android":"levelo://app?vid=39af8be6-ab3d-4139-9758-b6c9438312a8","ios":"levelo://app?vid=39af8be6-ab3d-4139-9758-b6c9438312a8"},"vehicle_type_id":"4","last_reported":1730467014,"current_range_meters":18800,"station_id":"ce4bgk12rcd13ifvqbi0","pricing_plan_id":"cebpf4jnsgd1na2vs0mg"},{"bike_id":"190a282f-07bf-4ada-a670-f773d4ca36ca","system_id":"levelo_inurba_marseille","lat":43.30182,"lon":5.40055,"is_reserved":false,"is_disabled":false,"rental_uris":{"android":"levelo://app?vid=190a282f-07bf-4ada-a670-f773d4ca36ca","ios":"levelo://app?vid=190a282f-07bf-4ada-a670-f773d4ca36ca"},"vehicle_type_id":"4","last_reported":1730467014,"current_range_meters":18800,"station_id":"","pricing_plan_id":"cebpf4jnsgd1na2vs0mg"},{"bike_id":"b85c2746-8362-41aa-989e-9dc5064ea886","system_id":"levelo_inurba_marseille","lat":43.23057,"lon":5.35485,"is_reserved":false,"is_disabled":false,"rental_uris":{"android":"levelo://app?vid=b85c2746-8362-41aa-989e-9dc5064ea886","ios":"levelo://app?vid=b85c2746-8362-41aa-989e-9dc5064ea886"},"vehicle_type_id":"4","last_reported":1730467014,"current_range_meters":16400,"station_id":"cpo3342slgdg3j2ifvpg","pricing_plan_id":"cebpf4jnsgd1na2vs0mg"},{"bike_id":"fdd816e1-ffb8-43ab-a99d-87aee9a789c2","system_id":"levelo_inurba_marseille","lat":43.33606,"lon":5.4103,"is_reserved":false,"is_disabled":false,"rental_uris":{"android":"levelo://app?vid=fdd816e1-ffb8-43ab-a99d-87aee9a789c2","ios":"levelo://app?vid=fdd816e1-ffb8-43ab-a99d-87aee9a789c2"},"vehicle_type_id":"4","last_reported":1730467014,"current_range_meters":37600,"station_id":"ce4bhqh2rcd13ifvqhmg","pricing_plan_id":"cebpf4jnsgd1na2vs0mg"},{"bike_id":"c56fb7db-b929-43b5-abe4-11d72ad186a3","system_id":"levelo_inurba_marseille","lat":43.31487,"lon":5.37306,"is_reserved":false,"is_disabled":false,"rental_uris":{"android":"levelo://app?vid=c56fb7db-b929-43b5-abe4-11d72ad186a3","ios":"levelo://app?vid=c56fb7db-b929-43b5-abe4-11d72ad186a3"},"vehicle_type_id":"4","last_reported":1730467014,"current_range_meters":22800,"station_id":"ce4bgt12rcd13ifvqcd0","pricing_plan_id":"cebpf4jnsgd1na2vs0mg"},{"bike_id":"c657de8a-95e0-43b4-8395-cd234d817153","system_id":"levelo_inurba_marseille","lat":43.30151,"lon":5.37421,"is_reserved":false,"is_disabled":false,"rental_uris":{"android":"levelo://app?vid=c657de8a-95e0-43b4-8395-cd234d817153","ios":"levelo://app?vid=c657de8a-95e0-43b4-8395-cd234d817153"},"vehicle_type_id":"4","last_reported":1730467014,"current_range_meters":35200,"station_id":"ce4bgs92rcd13ifvqcc0","pricing_plan_id":"cebpf4jnsgd1na2vs0mg"},{"bike_id":"01fe1b44-466f-4e14-adde-925fb5deb71e","system_id":"levelo_inurba_marseille","lat":43.29977,"lon":5.37173,"is_reserved":false,"is_disabled":false,"rental_uris":{"android":"levelo://app?vid=01fe1b44-466f-4e14-adde-925fb5deb71e","ios":"levelo://app?vid=01fe1b44-466f-4e14-adde-925fb5deb71e"},"vehicle_type_id":"4","last_reported":1730467014,"current_range_meters":25600,"station_id":"ce4bgr92rcd13ifvqc7g","pricing_plan_id":"cebpf4jnsgd1na2vs0mg"},{"bike_id":"df929ed3-557f-4e11-9511-f0d001c9bb7d","system_id":"levelo_inurba_marseille","lat":43.28421,"lon":5.34988,"is_reserved":false,"is_disabled":false,"rental_uris":{"android":"levelo://app?vid=df929ed3-557f-4e11-9511-f0d001c9bb7d","ios":"levelo://app?vid=df929ed3-557f-4e11-9511-f0d001c9bb7d"},"vehicle_type_id":"4","last_reported":1730467014,"current_range_meters":39200,"station_id":"ce4bhbh2rcd13ifvqepg","pricing_plan_id":"cebpf4jnsgd1na2vs0mg"},{"bike_id":"ff2b8f6d-0356-465d-9dfe-c642ea8d5d32","system_id":"levelo_inurba_marseille","lat":43.24387,"lon":5.37045,"is_reserved":false,"is_disabled":false,"rental_uris":{"android":"levelo://app?vid=ff2b8f6d-0356-465d-9dfe-c642ea8d5d32","ios":"levelo://app?vid=ff2b8f6d-0356-465d-9dfe-c642ea8d5d32"},"vehicle_type_id":"4","last_reported":1730467014,"current_range_meters":38800,"station_id":"ce4bhhh2rcd13ifvqfk0","pricing_plan_id":"cebpf4jnsgd1na2vs0mg"},{"bike_id":"9c0ce7c2-266b-456a-b600-aad012ecaf01","system_id":"levelo_inurba_marseille","lat":43.26198,"lon":5.37924,"is_reserved":false,"is_disabled":false,"rental_uris":{"android":"levelo://app?vid=9c0ce7c2-266b-456a-b600-aad012ecaf01","ios":"levelo://app?vid=9c0ce7c2-266b-456a-b600-aad012ecaf01"},"vehicle_type_id":"4","last_reported":1730467014,"current_range_meters":39200,"station_id":"ce4bhjp2rcd13ifvqg90","pricing_plan_id":"cebpf4jnsgd1na2vs0mg"},{"bike_id":"41d47d69-979b-4480-8fb6-135de4b1e8ff","system_id":"levelo_inurba_marseille","lat":43.2572,"lon":5.41112,"is_reserved":false,"is_disabled":false,"rental_uris":{"android":"levelo://app?vid=41d47d69-979b-4480-8fb6-135de4b1e8ff","ios":"levelo://app?vid=41d47d69-979b-4480-8fb6-135de4b1e8ff"},"vehicle_type_id":"4","last_reported":1730467014,"current_range_meters":39200,"station_id":"ce4bhkp2rcd13ifvqgd0","pricing_plan_id":"cebpf4jnsgd1na2vs0mg"},{"bike_id":"06680b63-9402-4c2d-bd8c-d5881e972d8b","system_id":"levelo_inurba_marseille","lat":43.24392,"lon":5.3706,"is_reserved":false,"is_disabled":false,"rental_uris":{"android":"levelo://app?vid=06680b63-9402-4c2d-bd8c-d5881e972d8b","ios":"levelo://app?vid=06680b63-9402-4c2d-bd8c-d5881e972d8b"},"vehicle_type_id":"4","last_reported":1730467014,"current_range_meters":35600,"station_id":"ce4bhhh2rcd13ifvqfk0","pricing_plan_id":"cebpf4jnsgd1na2vs0mg"},{"bike_id":"8a7ab539-39eb-4eab-80f0-0313e301edf0","system_id":"levelo_inurba_marseille","lat":43.23185,"lon":5.39985,"is_reserved":false,"is_disabled":false,"rental_uris":{"android":"levelo://app?vid=8a7ab539-39eb-4eab-80f0-0313e301edf0","ios":"levelo://app?vid=8a7ab539-39eb-4eab-80f0-0313e301edf0"},"vehicle_type_id":"4","last_reported":1730467014,"current_range_meters":38800,"station_id":"ce4bhn12rcd13ifvqgqg","pricing_plan_id":"cebpf4jnsgd1na2vs0mg"},{"bike_id":"b674deef-f2b2-4940-b14c-78e40c731cec","system_id":"levelo_inurba_marseille","lat":43.29926,"lon":5.38606,"is_reserved":false,"is_disabled":false,"rental_uris":{"android":"levelo://app?vid=b674deef-f2b2-4940-b14c-78e40c731cec","ios":"levelo://app?vid=b674deef-f2b2-4940-b14c-78e40c731cec"},"vehicle_type_id":"4","last_reported":1730467014,"current_range_meters":35600,"station_id":"","pricing_plan_id":"cebpf4jnsgd1na2vs0mg"},{"bike_id":"ccd8082f-4eaa-4ae4-adc5-97eeb13931db","system_id":"levelo_inurba_marseille","lat":43.2928,"lon":5.36838,"is_reserved":false,"is_disabled":false,"rental_uris":{"android":"levelo://app?vid=ccd8082f-4eaa-4ae4-adc5-97eeb13931db","ios":"levelo://app?vid=ccd8082f-4eaa-4ae4-adc5-97eeb13931db"},"vehicle_type_id":"4","last_reported":1730467014,"current_range_meters":31200,"station_id":"ce4bhbp2rcd13ifvqesg","pricing_plan_id":"cebpf4jnsgd1na2vs0mg"},{"bike_id":"2dcf0cbe-b0ad-4133-b0a2-63460d6d9400","system_id":"levelo_inurba_marseille","lat":43.30144,"lon":5.37413,"is_reserved":false,"is_disabled":false,"rental_uris":{"android":"levelo://app?vid=2dcf0cbe-b0ad-4133-b0a2-63460d6d9400","ios":"levelo://app?vid=2dcf0cbe-b0ad-4133-b0a2-63460d6d9400"},"vehicle_type_id":"4","last_reported":1730467014,"current_range_meters":30000,"station_id":"ce4bgs92rcd13ifvqcc0","pricing_plan_id":"cebpf4jnsgd1na2vs0mg"},{"bike_id":"2e679aa2-6222-4666-94d2-8febbbac34cf","system_id":"levelo_inurba_marseille","lat":43.28948,"lon":5.48102,"is_reserved":false,"is_disabled":false,"rental_uris":{"android":"levelo://app?vid=2e679aa2-6222-4666-94d2-8febbbac34cf","ios":"levelo://app?vid=2e679aa2-6222-4666-94d2-8febbbac34cf"},"vehicle_type_id":"4","last_reported":1730467014,"current_range_meters":7200,"station_id":"ce4bgvp2rcd13ifvqct0","pricing_plan_id":"cebpf4jnsgd1na2vs0mg"},{"bike_id":"f37747ca-e9c4-427d-80e3-aee733adf11b","system_id":"levelo_inurba_marseille","lat":43.23065,"lon":5.35493,"is_reserved":false,"is_disabled":false,"rental_uris":{"android":"levelo://app?vid=f37747ca-e9c4-427d-80e3-aee733adf11b","ios":"levelo://app?vid=f37747ca-e9c4-427d-80e3-aee733adf11b"},"vehicle_type_id":"4","last_reported":1730467014,"current_range_meters":9600,"station_id":"cpo3342slgdg3j2ifvpg","pricing_plan_id":"cebpf4jnsgd1na2vs0mg"},{"bike_id":"a2b24b7e-5aba-4c80-bdb5-7c03d8640965","system_id":"levelo_inurba_marseille","lat":43.26024,"lon":5.37548,"is_reserved":false,"is_disabled":false,"rental_uris":{"android":"levelo://app?vid=a2b24b7e-5aba-4c80-bdb5-7c03d8640965","ios":"levelo://app?vid=a2b24b7e-5aba-4c80-bdb5-7c03d8640965"},"vehicle_type_id":"4","last_reported":1730467014,"current_range_meters":34800,"station_id":"ce4bhgh2rcd13ifvqfa0","pricing_plan_id":"cebpf4jnsgd1na2vs0mg"},{"bike_id":"d9c07789-189c-4d2f-895b-61413d238002","system_id":"levelo_inurba_marseille","lat":43.26215,"lon":5.37438,"is_reserved":false,"is_disabled":false,"rental_uris":{"android":"levelo://app?vid=d9c07789-189c-4d2f-895b-61413d238002","ios":"levelo://app?vid=d9c07789-189c-4d2f-895b-61413d238002"},"vehicle_type_id":"4","last_reported":1730467014,"current_range_meters":38800,"station_id":"ce4bhgp2rcd13ifvqfc0","pricing_plan_id":"cebpf4jnsgd1na2vs0mg"},{"bike_id":"a2d61f8a-cc33-408a-be8c-b50db02dd6e4","system_id":"levelo_inurba_marseille","lat":43.3089,"lon":5.39648,"is_reserved":false,"is_disabled":false,"rental_uris":{"android":"levelo://app?vid=a2d61f8a-cc33-408a-be8c-b50db02dd6e4","ios":"levelo://app?vid=a2d61f8a-cc33-408a-be8c-b50db02dd6e4"},"vehicle_type_id":"4","last_reported":1730467014,"current_range_meters":14400,"station_id":"ce4bh012rcd13ifvqcv0","pricing_plan_id":"cebpf4jnsgd1na2vs0mg"},{"bike_id":"1dca45a8-0336-4041-83cb-7a06ca40420d","system_id":"levelo_inurba_marseille","lat":43.23198,"lon":5.35553,"is_reserved":false,"is_disabled":false,"rental_uris":{"android":"levelo://app?vid=1dca45a8-0336-4041-83cb-7a06ca40420d","ios":"levelo://app?vid=1dca45a8-0336-4041-83cb-7a06ca40420d"},"vehicle_type_id":"4","last_reported":1730467014,"current_range_meters":9200,"station_id":"ce4bhu92rcd13ifvqi70","pricing_plan_id":"cebpf4jnsgd1na2vs0mg"},{"bike_id":"ca3482d3-6897-49e3-8105-66f60b9d9d3d","system_id":"levelo_inurba_marseille","lat":43.295624,"lon":5.422944,"is_reserved":false,"is_disabled":false,"rental_uris":{"android":"levelo://app?vid=ca3482d3-6897-49e3-8105-66f60b9d9d3d","ios":"levelo://app?vid=ca3482d3-6897-49e3-8105-66f60b9d9d3d"},"vehicle_type_id":"4","last_reported":1730467014,"current_range_meters":19600,"station_id":"ce4bhg12rcd13ifvqf60","pricing_plan_id":"cebpf4jnsgd1na2vs0mg"},{"bike_id":"116f8d73-d789-4d51-b444-7d3f7a1fc8d1","system_id":"levelo_inurba_marseille","lat":43.25581,"lon":5.38226,"is_reserved":false,"is_disabled":false,"rental_uris":{"android":"levelo://app?vid=116f8d73-d789-4d51-b444-7d3f7a1fc8d1","ios":"levelo://app?vid=116f8d73-d789-4d51-b444-7d3f7a1fc8d1"},"vehicle_type_id":"4","last_reported":1730467014,"current_range_meters":39200,"station_id":"ce4bhih2rcd13ifvqfs0","pricing_plan_id":"cebpf4jnsgd1na2vs0mg"},{"bike_id":"a63d4480-009f-48f6-bec9-f3b1b3d90dd8","system_id":"levelo_inurba_marseille","lat":43.29578,"lon":5.37487,"is_reserved":false,"is_disabled":false,"rental_uris":{"android":"levelo://app?vid=a63d4480-009f-48f6-bec9-f3b1b3d90dd8","ios":"levelo://app?vid=a63d4480-009f-48f6-bec9-f3b1b3d90dd8"},"vehicle_type_id":"4","last_reported":1730467014,"current_range_meters":38800,"station_id":"ce4bgh92rcd13ifvqb50","pricing_plan_id":"cebpf4jnsgd1na2vs0mg"},{"bike_id":"a4d3867e-9221-45b9-8b6b-6567e09269dd","system_id":"levelo_inurba_marseille","lat":43.28419,"lon":5.34988,"is_reserved":false,"is_disabled":false,"rental_uris":{"android":"levelo://app?vid=a4d3867e-9221-45b9-8b6b-6567e09269dd","ios":"levelo://app?vid=a4d3867e-9221-45b9-8b6b-6567e09269dd"},"vehicle_type_id":"4","last_reported":1730467014,"current_range_meters":19600,"station_id":"ce4bhbh2rcd13ifvqepg","pricing_plan_id":"cebpf4jnsgd1na2vs0mg"},