{"last_updated":1749665690,"ttl":60,"version":"2.2","data":{"bikes":[{"bike_id":"2c14f74b-3596-4f9f-a547-c2d93404a993","system_id":"levelo_inurba_marseille","lat":43.2905,"lon":5.39951,"is_reserved":false,"is_disabled":false,"rental_uris":{"android":"levelo://app?vid=2c14f74b-3596-4f9f-a547-c2d93404a993","ios":"levelo://app?vid=2c14f74b-3596-4f9f-a547-c2d93404a993"},"vehicle_type_id":"4","last_reported":1749665691,"current_range_meters":2800,"station_id":"ce4bh392rcd13ifvqdm0","pricing_plan_id":"cebpf4jnsgd1na2vs0mg"},{"bike_id":"b08d493c-d5ff-495b-b5c0-028b6e295e94","system_id":"levelo_inurba_marseille","lat":43.30956,"lon":5.39027,"is_reserved":false,"is_disabled":false,"rental_uris":{"android":"levelo://app?vid=b08d493c-d5ff-495b-b5c0-028b6e295e94","ios":"levelo://app?vid=b08d493c-d5ff-495b-b5c0-028b6e295e94"},"vehicle_type_id":"4","last_reported":1749665691,"current_range_meters":2800,"station_id":"ce4bgup2rcd13ifvqco0","pricing_plan_id":"cebpf4jnsgd1na2vs0mg"},{"bike_id":"9e37a79f-6ecc-46bc-bc97-362b997257cb","system_id":"levelo_inurba_marseille","lat":43.290347,"lon":5.399788,"is_reserved":false,"is_disabled":false,"rental_uris":{"android":"levelo://app?vid=9e37a79f-6ecc-46bc-bc97-362b997257cb","ios":"levelo://app?vid=9e37a79f-6ecc-46bc-bc97-362b997257cb"},"vehicle_type_id":"4","last_reported":1749665691,"current_range_meters":2800,"station_id":"ce4bh392rcd13ifvqdm0","pricing_plan_id":"cebpf4jnsgd1na2vs0mg"},{"bike_id":"eb50201d-23e0-4b5b-b707-ee103bc4ac25","system_id":"levelo_inurba_marseille","lat":43.31218,"lon":5.3686,"is_reserved":false,"is_disabled":false,"rental_uris":{"android":"levelo://app?vid=eb50201d-23e0-4b5b-b707-ee103bc4ac25","ios":"levelo://app?vid=eb50201d-23e0-4b5b-b707-ee103bc4ac25"},"vehicle_type_id":"4","last_reported":1749665691,"current_range_meters":3200,"station_id":"ce4bgl92rcd13ifvqbq0","pricing_plan_id":"cebpf4jnsgd1na2vs0mg"},{"bike_id":"414ccdb3-c445-47a9-bc7b-69bd10c24f75","system_id":"levelo_inurba_marseille","lat":43.29419,"lon":5.38616,"is_reserved":false,"is_disabled":false,"rental_uris":{"android":"levelo://app?vid=414ccdb3-c445-47a9-bc7b-69bd10c24f75","ios":"levelo://app?vid=414ccdb3-c445-47a9-bc7b-69bd10c24f75"},"vehicle_type_id":"4","last_reported":1749665691,"current_range_meters":3200,"station_id":"ce4bh2h2rcd13ifvqdh0","pricing_plan_id":"cebpf4jnsgd1na2vs0mg"},{"bike_id":"3618598b-51c0-4da8-aa04-6c2d1b2ff1e3","system_id":"levelo_inurba_marseille","lat":43.31485,"lon":5.3733,"is_reserved":false,"is_disabled":false,"rental_uris":{"android":"levelo://app?vid=3618598b-51c0-4da8-aa04-6c2d1b2ff1e3","ios":"levelo://app?vid=3618598b-51c0-4da8-aa04-6c2d1b2ff1e3"},"vehicle_type_id":"4","last_reported":1749665691,"current_range_meters":2000,"station_id":"ce4bgt12rcd13ifvqcd0","pricing_plan_id":"cebpf4jnsgd1na2vs0mg"},{"bike_id":"71a6ad24-4e18-4bd8-917d-5666aa0c4d76","system_id":"levelo_inurba_marseille","lat":43.33768,"lon":5.37487,"is_reserved":false,"is_disabled":false,"rental_uris":{"android":"levelo://app?vid=71a6ad24-4e18-4bd8-917d-5666aa0c4d76","ios":"levelo://app?vid=71a6ad24-4e18-4bd8-917d-5666aa0c4d76"},"vehicle_type_id":"4","last_reported":1749665691,"current_range_meters":3200,"station_id":"","pricing_plan_id":"cebpf4jnsgd1na2vs0mg"},{"bike_id":"3d68962e-9253-47fd-9d68-a100a0ceb50c","system_id":"levelo_inurba_marseille","lat":43.2952,"lon":5.39046,"is_reserved":false,"is_disabled":false,"rental_uris":{"android":"levelo://app?vid=3d68962e-9253-47fd-9d68-a100a0ceb50c","ios":"levelo://app?vid=3d68962e-9253-47fd-9d68-a100a0ceb50c"},"vehicle_type_id":"4","last_reported":1749665691,"current_range_meters":3200,"station_id":"ce4bh3p2rcd13ifvqdp0","pricing_plan_id":"cebpf4jnsgd1na2vs0mg"},{"bike_id":"96f2f6a7-b4f2-453b-8d2f-ab7058ebc551","system_id":"levelo_inurba_marseille","lat":43.30935,"lon":5.40147,"is_reserved":false,"is_disabled":false,"rental_uris":{"android":"levelo://app?vid=96f2f6a7-b4f2-453b-8d2f-ab7058ebc551","ios":"levelo://app?vid=96f2f6a7-b4f2-453b-8d2f-ab7058ebc551"},"vehicle_type_id":"4","last_reported":1749665691,"current_range_meters":3200,"station_id":"ce4bgvp2rcd13ifvqct0","pricing_plan_id":"cebpf4jnsgd1na2vs0mg"},{"bike_id":"d15d20d5-cb94-4f3b-9c29-07a8d4ef6d9e","system_id":"levelo_inurba_marseille","lat":43.27211,"lon":5.39178,"is_reserved":false,"is_disabled":false,"rental_uris":{"android":"levelo://app?vid=d15d20d5-cb94-4f3b-9c29-07a8d4ef6d9e","ios":"levelo://app?vid=d15d20d5-cb94-4f3b-9c29-07a8d4ef6d9e"},"vehicle_type_id":"4","last_reported":1749665691,"current_range_meters":3600,"station_id":"ce4bhhp2rcd13ifvqfm0","pricing_plan_id":"cebpf4jnsgd1na2vs0mg"},{"bike_id":"1e0d52b5-284d-40f6-b00d-b4a35e327057","system_id":"levelo_inurba_marseille","lat":43.29008,"lon":5.35619,"is_reserved":false,"is_disabled":false,"rental_uris":{"android":"levelo://app?vid=1e0d52b5-284d-40f6-b00d-b4a35e327057","ios":"levelo://app?vid=1e0d52b5-284d-40f6-b00d-b4a35e327057"},"vehicle_type_id":"4","last_reported":1749665691,"current_range_meters":3600,"station_id":"ce4bhb92rcd13ifvqen0","pricing_plan_id":"cebpf4jnsgd1na2vs0mg"},{"bike_id":"b1aa8cb0-1da4-46e5-9f0c-ca7a315210f6","system_id":"levelo_inurba_marseille","lat":43.27904,"lon":5.38023,"is_reserved":false,"is_disabled":false,"rental_uris":{"android":"levelo://app?vid=b1aa8cb0-1da4-46e5-9f0c-ca7a315210f6","ios":"levelo://app?vid=b1aa8cb0-1da4-46e5-9f0c-ca7a315210f6"},"vehicle_type_id":"4","last_reported":1749665691,"current_range_meters":3600,"station_id":"ce4bhf92rcd13ifvqf50","pricing_plan_id":"cebpf4jnsgd1na2vs0mg"},{"bike_id":"e0a66046-ca17-4078-94a9-92e12a1c9190","system_id":"levelo_inurba_marseille","lat":43.282737,"lon":5.35081,"is_reserved":false,"is_disabled":false,"rental_uris":{"android":"levelo://app?vid=e0a66046-ca17-4078-94a9-92e12a1c9190","ios":"levelo://app?vid=e0a66046-ca17-4078-94a9-92e12a1c9190"},"vehicle_type_id":"4","last_reported":1749665691,"current_range_meters":3600,"station_id":"ce4bhbp2rcd13ifvqerg","pricing_plan_id":"cebpf4jnsgd1na2vs0mg"},{"bike_id":"b824c75c-7eb5-436b-91c5-9bd69bca6411","system_id":"levelo_inurba_marseille","lat":43.323698,"lon":5.36759,"is_reserved":false,"is_disabled":false,"rental_uris":{"android":"levelo://app?vid=b824c75c-7eb5-436b-91c5-9bd69bca6411","ios":"levelo://app?vid=b824c75c-7eb5-436b-91c5-9bd69bca6411"},"vehicle_type_id":"4","last_reported":1749665691,"current_range_meters":3600,"station_id":"ce4bhsh2rcd13ifvqi2g","pricing_plan_id":"cebpf4jnsgd1na2vs0mg"},{"bike_id":"6e0f6f69-7c3f-454a-ba90-02a532b2036e","system_id":"levelo_inurba_marseille","lat":43.30469,"lon":5.38881,"is_reserved":false,"is_disabled":false,"rental_uris":{"android":"levelo://app?vid=6e0f6f69-7c3f-454a-ba90-02a532b2036e","ios":"levelo://app?vid=6e0f6f69-7c3f-454a-ba90-02a532b2036e"},"vehicle_type_id":"4","last_reported":1749665691,"current_range_meters":3600,"station_id":"ce4bgk12rcd13ifvqbi0","pricing_plan_id":"cebpf4jnsgd1na2vs0mg"},{"bike_id":"bccac40b-b7ac-4f44-8632-67f5e895c7b6","system_id":"levelo_inurba_marseille","lat":43.305234,"lon":5.391454,"is_reserved":false,"is_disabled":false,"rental_uris":{"android":"levelo://app?vid=bccac40b-b7ac-4f44-8632-67f5e895c7b6","ios":"levelo://app?vid=bccac40b-b7ac-4f44-8632-67f5e895c7b6"},"vehicle_type_id":"4","last_reported":1749665691,"current_range_meters":4000,"station_id":"ce4bh012rcd13ifvqcv0","pricing_plan_id":"cebpf4jnsgd1na2vs0mg"},{"bike_id":"9d4da415-b681-4691-a4d0-d240548507a9","system_id":"levelo_inurba_marseille","lat":43.29412,"lon":5.3863,"is_reserved":false,"is_disabled":true,"rental_uris":{"android":"levelo://app?vid=9d4da415-b681-4691-a4d0-d240548507a9","ios":"levelo://app?vid=9d4da415-b681-4691-a4d0-d240548507a9"},"vehicle_type_id":"4","last_reported":1749665691,"current_range_meters":4000,"station_id":"ce4bh2h2rcd13ifvqdh0","pricing_plan_id":"cebpf4jnsgd1na2vs0mg"},{"bike_id":"0a2cd4f2-b24c-4afc-88b0-5cb6f6a00646","system_id":"levelo_inurba_marseille","lat":43.24655,"lon":5.43575,"is_reserved":false,"is_disabled":true,"rental_uris":{"android":"levelo://app?vid=0a2cd4f2-b24c-4afc-88b0-5cb6f6a00646","ios":"levelo://app?vid=0a2cd4f2-b24c-4afc-88b0-5cb6f6a00646"},"vehicle_type_id":"4","last_reported":1749665691,"current_range_meters":4000,"station_id":"","pricing_plan_id":"cebpf4jnsgd1na2vs0mg"},{"bike_id":"203ec6e3-a0ef-42ef-979e-9a2d7e038933","system_id":"levelo_inurba_marseille","lat":43.28726,"lon":5.36081,"is_reserved":false,"is_disabled":false,"rental_uris":{"android":"levelo://app?vid=203ec6e3-a0ef-42ef-979e-9a2d7e038933","ios":"levelo://app?vid=203ec6e3-a0ef-42ef-979e-9a2d7e038933"},"vehicle_type_id":"4","last_reported":1749665691,"current_range_meters":4000,"station_id":"cki0cbj6b192h4jlfktg","pricing_plan_id":"cebpf4jnsgd1na2vs0mg"},{"bike_id":"0008a37e-3dbb-4755-a0a7-6a81853a62ed","system_id":"levelo_inurba_marseille","lat":43.30348,"lon":5.41875,"is_reserved":false,"is_disabled":false,"rental_uris":{"android":"levelo://app?vid=0008a37e-3dbb-4755-a0a7-6a81853a62ed","ios":"levelo://app?vid=0008a37e-3dbb-4755-a0a7-6a81853a62ed"},"vehicle_type_id":"4","last_reported":1749665691,"current_range_meters":4000,"station_id":"ce4bhop2rcd13ifvqh7g","pricing_plan_id":"cebpf4jnsgd1na2vs0mg"},{"bike_id":"27c0778d-8b2f-4219-bf28-724a1a58bc50","system_id":"levelo_inurba_marseille","lat":43.29008,"lon":5.35606,"is_reserved":false,"is_disabled":false,"rental_uris":{"android":"levelo://app?vid=27c0778d-8b2f-4219-bf28-724a1a58bc50","ios":"levelo://app?vid=27c0778d-8b2f-4219-bf28-724a1a58bc50"},"vehicle_type_id":"4","last_reported":1749665691,"current_range_meters":4400,"station_id":"ce4bhb92rcd13ifvqen0","pricing_plan_id":"cebpf4jnsgd1na2vs0mg"},{"bike_id":"e6d7b842-5eed-4ef1-bd1e-4e34355d6d84","system_id":"levelo_inurba_marseille","lat":43.26779,"lon":5.39419,"is_reserved":false,"is_disabled":false,"rental_uris":{"android":"levelo://app?vid=e6d7b842-5eed-4ef1-bd1e-4e34355d6d84","ios":"levelo://app?vid=e6d7b842-5eed-4ef1-bd1e-4e34355d6d84"},"vehicle_type_id":"4","last_reported":1749665691,"current_range_meters":4400,"station_id":"ce4bhh12rcd13ifvqfg0","pricing_plan_id":"cebpf4jnsgd1na2vs0mg"},{"bike_id":"d399ea4d-9f9b-4fb4-b31e-ae6cc16a9920","system_id":"levelo_inurba_marseille","lat":43.29032,"lon":5.38636,"is_reserved":false,"is_disabled":false,"rental_uris":{"android":"levelo://app?vid=d399ea4d-9f9b-4fb4-b31e-ae6cc16a9920","ios":"levelo://app?vid=d399ea4d-9f9b-4fb4-b31e-ae6cc16a9920"},"vehicle_type_id":"4","last_reported":1749665691,"current_range_meters":4400,"station_id":"ce4bh4p2rcd13ifvqe0g","pricing_plan_id":"cebpf4jnsgd1na2vs0mg"},{"bike_id":"55d47ef1-6111-4b01-be0c-ef2d5708497a","system_id":"levelo_inurba_marseille","lat":43.29374,"lon":5.378411,"is_reserved":false,"is_disabled":false,"rental_uris":{"android":"levelo://app?vid=55d47ef1-6111-4b01-be0c-ef2d5708497a","ios":"levelo://app?vid=55d47ef1-6111-4b01-be0c-ef2d5708497a"},"vehicle_type_id":"4","last_reported":1749665691,"current_range_meters":4400,"station_id":"ce4bgjh2rcd13ifvqbf0","pricing_plan_id":"cebpf4jnsgd1na2vs0mg"},{"bike_id":"cac3166f-0a3e-4726-b1e1-616223f21628","system_id":"levelo_inurba_marseille","lat":43.28264,"lon":5.35077,"is_reserved":false,"is_disabled":false,"rental_uris":{"android":"levelo://app?vid=cac3166f-0a3e-4726-b1e1-616223f21628","ios":"levelo://app?vid=cac3166f-0a3e-4726-b1e1-616223f21628"},"vehicle_type_id":"4","last_reported":1749665691,"current_range_meters":4400,"station_id":"ce4bhbp2rcd13ifvqerg","pricing_plan_id":"cebpf4jnsgd1na2vs0mg"},{"bike_id":"8a94aa61-887d-4e7d-8279-52c0738af365","system_id":"levelo_inurba_marseille","lat":43.28426,"lon":5.3502,"is_reserved":false,"is_disabled":false,"rental_uris":{"android":"levelo://app?vid=8a94aa61-887d-4e7d-8279-52c0738af365","ios":"levelo://app?vid=8a94aa61-887d-4e7d-8279-52c0738af365"},"vehicle_type_id":"4","last_reported":1749665691,"current_range_meters":4400,"station_id":"ce4bhbh2rcd13ifvqepg","pricing_plan_id":"cebpf4jnsgd1na2vs0mg"},{"bike_id":"f2d2a1db-4803-4e17-93c4-4c9e1ee761f5","system_id":"levelo_inurba_marseille","lat":43.24184,"lon":5.39717,"is_reserved":false,"is_disabled":false,"rental_uris":{"android":"levelo://app?vid=f2d2a1db-4803-4e17-93c4-4c9e1ee761f5","ios":"levelo://app?vid=f2d2a1db-4803-4e17-93c4-4c9e1ee761f5"},"vehicle_type_id":"4","last_reported":1749665691,"current_range_meters":4400,"station_id":"ce4bhn12rcd13ifvqgpg","pricing_plan_id":"cebpf4jnsgd1na2vs0mg"},{"bike_id":"b8200be6-7926-40ea-98d9-8346d57c6ab1","system_id":"levelo_inurba_marseille","lat":43.29783,"lon":5.39332,"is_reserved":false,"is_disabled":false,"rental_uris":{"android":"levelo://app?vid=b8200be6-7926-40ea-98d9-8346d57c6ab1","ios":"levelo://app?vid=b8200be6-7926-40ea-98d9-8346d57c6ab1"},"vehicle_type_id":"4","last_reported":1749665691,"current_range_meters":4400,"station_id":"chh1huq6cuj3fo74tm60","pricing_plan_id":"cebpf4jnsgd1na2vs0mg"},{"bike_id":"f970d417-0092-4e1b-91f0-74f052fef48b","system_id":"levelo_inurba_marseille","lat":43.30649,"lon":5.40101,"is_reserved":false,"is_disabled":false,"rental_uris":{"android":"levelo://app?vid=f970d417-0092-4e1b-91f0-74f052fef48b","ios":"levelo://app?vid=f970d417-0092-4e1b-91f0-74f052fef48b"},"vehicle_type_id":"4","last_reported":1749665691,"current_range_meters":4800,"station_id":"ce4bh112rcd13ifvqda0","pricing_plan_id":"cebpf4jnsgd1na2vs0mg"},{"bike_id":"6f579a53-d51d-40cf-8032-32bfc0a2e0be","system_id":"levelo_inurba_marseille","lat":43.320998,"lon":5.414544,"is_reserved":false,"is_disabled":false,"rental_uris":{"android":"levelo://app?vid=6f579a53-d51d-40cf-8032-32bfc0a2e0be","ios":"levelo://app?vid=6f579a53-d51d-40cf-8032-32bfc0a2e0be"},"vehicle_type_id":"4","last_reported":1749665691,"current_range_meters":4800,"station_id":"","pricing_plan_id":"cebpf4jnsgd1na2vs0mg"},{"bike_id":"b2de22bf-e17e-47e6-be8b-2080eee5dc17","system_id":"levelo_inurba_marseille","lat":43.28618,"lon":5.35111,"is_reserved":false,"is_disabled":false,"rental_uris":{"android":"levelo://app?vid=b2de22bf-e17e-47e6-be8b-2080eee5dc17","ios":"levelo://app?vid=b2de22bf-e17e-47e6-be8b-2080eee5dc17"},"vehicle_type_id":"4","last_reported":1749665691,"current_range_meters":5600,"station_id":"ce4bhch2rcd13ifvqeug","pricing_plan_id":"cebpf4jnsgd1na2vs0mg"},{"bike_id":"97b8acbb-d8af-4491-88a3-57ee4e46be69","system_id":"levelo_inurba_marseille","lat":43.282736,"lon":5.350681,"is_reserved":false,"is_disabled":false,"rental_uris":{"android":"levelo://app?vid=97b8acbb-d8af-4491-88a3-57ee4e46be69","ios":"levelo://app?vid=97b8acbb-d8af-4491-88a3-57ee4e46be69"},"vehicle_type_id":"4","last_reported":1749665691,"current_range_meters":5600,"station_id":"ce4bhbp2rcd13ifvqerg","pricing_plan_id":"cebpf4jnsgd1na2vs0mg"},{"bike_id":"0831ac6e-bdc2-433e-a8fe-4c269ca466ba","system_id":"levelo_inurba_marseille","lat":43.27571,"lon":5.38428,"is_reserved":false,"is_disabled":false,"rental_uris":{"android":"levelo://app?vid=0831ac6e-bdc2-433e-a8fe-4c269ca466ba","ios":"levelo://app?vid=0831ac6e-bdc2-433e-a8fe-4c269ca466ba"},"vehicle_type_id":"4","last_reported":1749665691,"current_range_meters":6000,"station_id":"ce4bhh92rcd13ifvqfi0","pricing_plan_id":"cebpf4jnsgd1na2vs0mg"},{"bike_id":"dedaa547-546f-4547-a4ea-0591f3cf7793","system_id":"levelo_inurba_marseille","lat":43.30441,"lon":5.39749,"is_reserved":false,"is_disabled":true,"rental_uris":{"android":"levelo://app?vid=dedaa547-546f-4547-a4ea-0591f3cf7793","ios":"levelo://app?vid=dedaa547-546f-4547-a4ea-0591f3cf7793"},"vehicle_type_id":"4","last_reported":1749665691,"current_range_meters":6000,"station_id":"ce4bh092rcd13ifvqd20","pricing_plan_id":"cebpf4jnsgd1na2vs0mg"},{"bike_id":"b48f0314-4fb3-4f17-ac63-b671ed1f949f","system_id":"levelo_inurba_marseille","lat":43.3372,"lon":5.39191,"is_reserved":false,"is_disabled":false,"rental_uris":{"android":"levelo://app?vid=b48f0314-4fb3-4f17-ac63-b671ed1f949f","ios":"levelo://app?vid=b48f0314-4fb3-4f17-ac63-b671ed1f949f"},"vehicle_type_id":"4","last_reported":1749665691,"current_range_meters":6400,"station_id":"ce4bhr92rcd13ifvqhsg","pricing_plan_id":"cebpf4jnsgd1na2vs0mg"},{"bike_id":"ebc3e8d2-391f-48d9-90c4-15c17b73c5c5","system_id":"levelo_inurba_marseille","lat":43.28283,"lon":5.35068,"is_reserved":false,"is_disabled":false,"rental_uris":{"android":"levelo://app?vid=ebc3e8d2-391f-48d9-90c4-15c17b73c5c5","ios":"levelo://app?vid=ebc3e8d2-391f-48d9-90c4-15c17b73c5c5"},"vehicle_type_id":"4","last_reported":1749665691,"current_range_meters":6400,"station_id":"ce4bhbp2rcd13ifvqerg","pricing_plan_id":"cebpf4jnsgd1na2vs0mg"},{"bike_id":"a9334c0d-cdfc-464f-8eab-e98192ed3454","system_id":"levelo_inurba_marseille","lat":43.292159,"lon":5.399359,"is_reserved":false,"is_disabled":false,"rental_uris":{"android":"levelo://app?vid=a9334c0d-cdfc-464f-8eab-e98192ed3454","ios":"levelo://app?vid=a9334c0d-cdfc-464f-8eab-e98192ed3454"},"vehicle_type_id":"4","last_reported":1749665691,"current_range_meters":6400,"station_id":"","pricing_plan_id":"cebpf4jnsgd1na2vs0mg"},{"bike_id":"125bd855-10ed-4a56-9707-403f3a8b58a0","system_id":"levelo_inurba_marseille","lat":43.3308,"lon":5.4052,"is_reserved":false,"is_disabled":false,"rental_uris":{"android":"levelo://app?vid=125bd855-10ed-4a56-9707-403f3a8b58a0","ios":"levelo://app?vid=125bd855-10ed-4a56-9707-403f3a8b58a0"},"vehicle_type_id":"4","last_reported":1749665691,"current_range_meters":6400,"station_id":"","pricing_plan_id":"cebpf4jnsgd1na2vs0mg"},{"bike_id":"e54376d2-63d5-419c-8b31-e81332ea7193","system_id":"levelo_inurba_marseille","lat":43.30351,"lon":5.41877,"is_reserved":false,"is_disabled":false,"rental_uris":{"android":"levelo://app?vid=e54376d2-63d5-419c-8b31-e81332ea7193","ios":"levelo://app?vid=e54376d2-63d5-419c-8b31-e81332ea7193"},"vehicle_type_id":"4","last_reported":1749665691,"current_range_meters":6400,"station_id":"ce4bhop2rcd13ifvqh7g","pricing_plan_id":"cebpf4jnsgd1na2vs0mg"},{"bike_id":"e630e1e5-8c93-45fb-9eef-6c479072a116","system_id":"levelo_inurba_marseille","lat":43.30735,"lon":5.42441,"is_reserved":false,"is_disabled":false,"rental_uris":{"android":"levelo://app?vid=e630e1e5-8c93-45fb-9eef-6c479072a116","ios":"levelo://app?vid=e630e1e5-8c93-45fb-9eef-6c479072a116"},"vehicle_type_id":"4","last_reported":1749665691,"current_range_meters":6800,"station_id":"st_cvj6ca6bvosntc0bfgr0","pricing_plan_id":"cebpf4jnsgd1na2vs0mg"},{"bike_id":"1696f659-1ac3-4983-9077-fb120913faaa","system_id":"levelo_inurba_marseille","lat":43.2804,"lon":5.36952,"is_reserved":false,"is_disabled":false,"rental_uris":{"android":"levelo://app?vid=1696f659-1ac3-4983-9077-fb120913faaa","ios":"levelo://app?vid=1696f659-1ac3-4983-9077-fb120913faaa"},"vehicle_type_id":"4","last_reported":1749665691,"current_range_meters":6800,"station_id":"ce4bha12rcd13ifvqef0","pricing_plan_id":"cebpf4jnsgd1na2vs0mg"},{"bike_id":"5bc79a1b-31d2-4fe4-87d0-1ac813b2a1ad","system_id":"levelo_inurba_marseille","lat":43.27951,"lon":5.410883,"is_reserved":false,"is_disabled":false,"rental_uris":{"android":"levelo://app?vid=5bc79a1b-31d2-4fe4-87d0-1ac813b2a1ad","ios":"levelo://app?vid=5bc79a1b-31d2-4fe4-87d0-1ac813b2a1ad"},"vehicle_type_id":"4","last_reported":1749665691,"current_range_meters":6800,"station_id":"ce4bhnh2rcd13ifvqgug","pricing_plan_id":"cebpf4jnsgd1na2vs0mg"},{"bike_id":"7d0b8b1e-9e65-49ca-ab0b-31d1ff0de62b","system_id":"levelo_inurba_marseille","lat":43.29524,"lon":5.39037,"is_reserved":false,"is_disabled":false,"rental_uris":{"android":"levelo://app?vid=7d0b8b1e-9e65-49ca-ab0b-31d1ff0de62b","ios":"levelo://app?vid=7d0b8b1e-9e65-49ca-ab0b-31d1ff0de62b"},"vehicle_type_id":"4","last_reported":1749665691,"current_range_meters":6800,"station_id":"ce4bh3p2rcd13ifvqdp0","pricing_plan_id":"cebpf4jnsgd1na2vs0mg"},{"bike_id":"383b26d2-3945-4ab1-bf61-eb9fbff0630e","system_id":"levelo_inurba_marseille","lat":43.2738,"lon":5.36258,"is_reserved":false,"is_disabled":false,"rental_uris":{"android":"levelo://app?vid=383b26d2-3945-4ab1-bf61-eb9fbff0630e","ios":"levelo://app?vid=383b26d2-3945-4ab1-bf61-eb9fbff0630e"},"vehicle_type_id":"4","last_reported":1749665691,"current_range_meters":6800,"station_id":"ce4bhbh2rcd13ifvqeo0","pricing_plan_id":"cebpf4jnsgd1na2vs0mg"},{"bike_id":"3a82021f-9947-43f0-9e20-6e0ec7b5d9e5","system_id":"levelo_inurba_marseille","lat":43.32481,"lon":5.36565,"is_reserved":false,"is_disabled":false,"rental_uris":{"android":"levelo://app?vid=3a82021f-9947-43f0-9e20-6e0ec7b5d9e5","ios":"levelo://app?vid=3a82021f-9947-43f0-9e20-6e0ec7b5d9e5"},"vehicle_type_id":"4","last_reported":1749665691,"current_range_meters":6800,"station_id":"ce4bhs12rcd13ifvqhvg","pricing_plan_id":"cebpf4jnsgd1na2vs0mg"},{"bike_id":"f4c5090f-1e00-46b2-abb3-aaffd2376778","system_id":"levelo_inurba_marseille","lat":43.2784,"lon":5.39211,"is_reserved":false,"is_disabled":false,"rental_uris":{"android":"levelo://app?vid=f4c5090f-1e00-46b2-abb3-aaffd2376778","ios":"levelo://app?vid=f4c5090f-1e00-46b2-abb3-aaffd2376778"},"vehicle_type_id":"4","last_reported":1749665691,"current_range_meters":7200,"station_id":"ce4bhjp2rcd13ifvqga0","pricing_plan_id":"cebpf4jnsgd1na2vs0mg"},{"bike_id":"7650f292-ce63-480f-a8af-8f6491ae3df3","system_id":"levelo_inurba_marseille","lat":43.284206,"lon":5.349725,"is_reserved":false,"is_disabled":false,"rental_uris":{"android":"levelo://app?vid=7650f292-ce63-480f-a8af-8f6491ae3df3","ios":"levelo://app?vid=7650f292-ce63-480f-a8af-8f6491ae3df3"},"vehicle_type_id":"4","last_reported":1749665691,"current_range_meters":7200,"station_id":"ce4bhbh2rcd13ifvqepg","pricing_plan_id":"cebpf4jnsgd1na2vs0mg"},{"bike_id":"d46dd5a1-84bd-4736-b26a-30ad169d8450","system_id":"levelo_inurba_marseille","lat":43.27429,"lon":5.39418,"is_reserved":false,"is_disabled":false,"rental_uris":{"android":"levelo://app?vid=d46dd5a1-84bd-4736-b26a-30ad169d8450","ios":"levelo://app?vid=d46dd5a1-84bd-4736-b26a-30ad169d8450"},"vehicle_type_id":"4","last_reported":1749665691,"current_range_meters":1600,"station_id":"ce4bhdp2rcd13ifvqf20","pricing_plan_id":"cebpf4jnsgd1na2vs0mg"},{"bike_id":"60fe1a83-66da-4f2c-9f91-8d2414ef896d","system_id":"levelo_inurba_marseille","lat":43.28617,"lon":5.3511,"is_reserved":false,"is_disabled":false,"rental_uris":{"android":"levelo://app?vid=60fe1a83-66da-4f2c-9f91-8d2414ef896d","ios":"levelo://app?vid=60fe1a83-66da-4f2c-9f91-8d2414ef896d"},"vehicle_type_id":"4","last_reported":1749665691,"current_range_meters":7200,"station_id":"ce4bhch2rcd13ifvqeug","pricing_plan_id":"cebpf4jnsgd1na2vs0mg"},{"bike_id":"82d17fbb-3767-4bcc-8048-5a5d680c566a","system_id":"levelo_inurba_marseille","lat":43.30907,"lon":5.36844,"is_reserved":false,"is_disabled":false,"rental_uris":{"android":"levelo://app?vid=82d17fbb-3767-4bcc-8048-5a5d680c566a","ios":"levelo://app?vid=82d17fbb-3767-4bcc-8048-5a5d680c566a"},"vehicle_type_id":"4","last_reported":1749665691,"current_range_meters":7200,"station_id":"ce4bgn92rcd13ifvqbvg","pricing_plan_id":"cebpf4jnsgd1na2vs0mg"},{"bike_id":"18759061-77d6-468f-98a8-b5bab7d472b0","system_id":"levelo_inurba_marseille","lat":43.26535,"lon":5.3895,"is_reserved":false,"is_disabled":true,"rental_uris":{"android":"levelo://app?vid=18759061-77d6-468f-98a8-b5bab7d472b0","ios":"levelo://app?vid=18759061-77d6-468f-98a8-b5bab7d472b0"},"vehicle_type_id":"4","last_reported":1749665691,"current_range_meters":7200,"station_id":"","pricing_plan_id":"cebpf4jnsgd1na2vs0mg"},{"bike_id":"e72a9b0d-4733-4fe0-98ec-36375ff6be0f","system_id":"levelo_inurba_marseille","lat":43.25589,"lon":5.38222,"is_reserved":false,"is_disabled":true,"rental_uris":{"android":"levelo://app?vid=e72a9b0d-4733-4fe0-98ec-36375ff6be0f","ios":"levelo://app?vid=e72a9b0d-4733-4fe0-98ec-36375ff6be0f"},"vehicle_type_id":"4","last_reported":1749665691,"current_range_meters":7200,"station_id":"ce4bhih2rcd13ifvqfs0","pricing_plan_id":"cebpf4jnsgd1na2vs0mg"},{"bike_id":"3aee8af6-678e-4637-9f60-f2029818868b","system_id":"levelo_inurba_marseille","lat":43.29053,"lon":5.35913,"is_reserved":false,"is_disabled":false,"rental_uris":{"android":"levelo://app?vid=3aee8af6-678e-4637-9f60-f2029818868b","ios":"levelo://app?vid=3aee8af6-678e-4637-9f60-f2029818868b"},"vehicle_type_id":"4","last_reported":1749665691,"current_range_meters":7200,"station_id":"ce4bha92rcd13ifvqeg0","pricing_plan_id":"cebpf4jnsgd1na2vs0mg"},{"bike_id":"5bd575da-49ea-4657-a810-fdca2cf6cee5","system_id":"levelo_inurba_marseille","lat":43.28623,"lon":5.35108,"is_reserved":false,"is_disabled":false,"rental_uris":{"android":"levelo://app?vid=5bd575da-49ea-4657-a810-fdca2cf6cee5","ios":"levelo://app?vid=5bd575da-49ea-4657-a810-fdca2cf6cee5"},"vehicle_type_id":"4","last_reported":1749665691,"current_range_meters":8000,"station_id":"ce4bhch2rcd13ifvqeug","pricing_plan_id":"cebpf4jnsgd1na2vs0mg"},{"bike_id":"5077581b-cebb-46fc-ba69-4fa8272d4810","system_id":"levelo_inurba_marseille","lat":43.21363,"lon":5.35538,"is_reserved":false,"is_disabled":false,"rental_uris":{"android":"levelo://app?vid=5077581b-cebb-46fc-ba69-4fa8272d4810","ios":"levelo://app?vid=5077581b-cebb-46fc-ba69-4fa8272d4810"},"vehicle_type_id":"4","last_reported":1749665691,"current_range_meters":8000,"station_id":"","pricing_plan_id":"cebpf4jnsgd1na2vs0mg"},{"bike_id":"0e224892-4e26-4b1e-a75a-4d7448bab119","system_id":"levelo_inurba_marseille","lat":43.31717,"lon":5.43705,"is_reserved":false,"is_disabled":false,"rental_uris":{"android":"levelo://app?vid=0e224892-4e26-4b1e-a75a-4d7448bab119","ios":"levelo://app?vid=0e224892-4e26-4b1e-a75a-4d7448bab119"},"vehicle_type_id":"4","last_reported":1749665691,"current_range_meters":8000,"station_id":"ce4bhp92rcd13ifvqhcg","pricing_plan_id":"cebpf4jnsgd1na2vs0mg"},{"bike_id":"c6fee701-138b-470b-bb03-3231f16ce161","system_id":"levelo_inurba_marseille","lat":43.28616,"lon":5.35108,"is_reserved":false,"is_disabled":false,"rental_uris":{"android":"levelo://app?vid=c6fee701-138b-470b-bb03-3231f16ce161","ios":"levelo://app?vid=c6fee701-138b-470b-bb03-3231f16ce161"},"vehicle_type_id":"4","last_reported":1749665691,"current_range_meters":8000,"station_id":"ce4bhch2rcd13ifvqeug","pricing_plan_id":"cebpf4jnsgd1na2vs0mg"},{"bike_id":"fe4ad75e-76fa-47ca-8457-9430afd36e15","system_id":"levelo_inurba_marseille","lat":43.27375,"lon":5.36258,"is_reserved":false,"is_disabled":false,"rental_uris":{"android":"levelo://app?vid=fe4ad75e-76fa-47ca-8457-9430afd36e15","ios":"levelo://app?vid=fe4ad75e-76fa-47ca-8457-9430afd36e15"},"vehicle_type_id":"4","last_reported":1749665691,"current_range_meters":8000,"station_id":"ce4bhbh2rcd13ifvqeo0","pricing_plan_id":"cebpf4jnsgd1na2vs0mg"},{"bike_id":"164ab9c6-12d5-464d-8c94-6d2e03c87ac9","system_id":"levelo_inurba_marseille","lat":43.28272,"lon":5.3506,"is_reserved":false,"is_disabled":false,"rental_uris":{"android":"levelo://app?vid=164ab9c6-12d5-464d-8c94-6d2e03c87ac9","ios":"levelo://app?vid=164ab9c6-12d5-464d-8c94-6d2e03c87ac9"},"vehicle_type_id":"4","last_reported":1749665691,"current_range_meters":8400,"station_id":"ce4bhbp2rcd13ifvqerg","pricing_plan_id":"cebpf4jnsgd1na2vs0mg"},{"bike_id":"7f24c069-fb34-495d-a0f2-faf694b101c8","system_id":"levelo_inurba_marseille","lat":43.282744,"lon":5.350593,"is_reserved":false,"is_disabled":false,"rental_uris":{"android":"levelo://app?vid=7f24c069-fb34-495d-a0f2-faf694b101c8","ios":"levelo://app?vid=7f24c069-fb34-495d-a0f2-faf694b101c8"},"vehicle_type_id":"4","last_reported":1749665691,"current_range_meters":8400,"station_id":"ce4bhbp2rcd13ifvqerg","pricing_plan_id":"cebpf4jnsgd1na2vs0mg"},{"bike_id":"a8186343-ee15-409e-8fdb-eb116f8b3dab","system_id":"levelo_inurba_marseille","lat":43.27208,"lon":5.3918,"is_reserved":false,"is_disabled":false,"rental_uris":{"android":"levelo://app?vid=a8186343-ee15-409e-8fdb-eb116f8b3dab","ios":"levelo://app?vid=a8186343-ee15-409e-8fdb-eb116f8b3dab"},"vehicle_type_id":"4","last_reported":1749665691,"current_range_meters":8400,"station_id":"ce4bhhp2rcd13ifvqfm0","pricing_plan_id":"cebpf4jnsgd1na2vs0mg"},{"bike_id":"e61c2658-dc7e-4e97-bfc7-0b47c61d7c40","system_id":"levelo_inurba_marseille","lat":43.28413,"lon":5.34986,"is_reserved":false,"is_disabled":false,"rental_uris":{"android":"levelo://app?vid=e61c2658-dc7e-4e97-bfc7-0b47c61d7c40","ios":"levelo://app?vid=e61c2658-dc7e-4e97-bfc7-0b47c61d7c40"},"vehicle_type_id":"4","last_reported":1749665691,"current_range_meters":8400,"station_id":"ce4bhbh2rcd13ifvqepg","pricing_plan_id":"cebpf4jnsgd1na2vs0mg"},{"bike_id":"15890935-4206-46eb-aaf6-abddc419f332","system_id":"levelo_inurba_marseille","lat":43.29971,"lon":5.38491,"is_reserved":false,"is_disabled":true,"rental_uris":{"android":"levelo://app?vid=15890935-4206-46eb-aaf6-abddc419f332","ios":"levelo://app?vid=15890935-4206-46eb-aaf6-abddc419f332"},"vehicle_type_id":"4","last_reported":1749665691,"current_range_meters":8400,"station_id":"ce4bgj92rcd13ifvqbd0","pricing_plan_id":"cebpf4jnsgd1na2vs0mg"},{"bike_id":"6c300130-a97b-4792-a130-444400099a0a","system_id":"levelo_inurba_marseille","lat":43.2122,"lon":5.35062,"is_reserved":false,"is_disabled":false,"rental_uris":{"android":"levelo://app?vid=6c300130-a97b-4792-a130-444400099a0a","ios":"levelo://app?vid=6c300130-a97b-4792-a130-444400099a0a"},"vehicle_type_id":"4","last_reported":1749665691,"current_range_meters":8400,"station_id":"st_cvj6sg6p6f1abm77japg","pricing_plan_id":"cebpf4jnsgd1na2vs0mg"},{"bike_id":"ca27e12a-1f2d-4cf2-be29-12a2b9ff1547","system_id":"levelo_inurba_marseille","lat":43.31726,"lon":5.42383,"is_reserved":false,"is_disabled":false,"rental_uris":{"android":"levelo://app?vid=ca27e12a-1f2d-4cf2-be29-12a2b9ff1547","ios":"levelo://app?vid=ca27e12a-1f2d-4cf2-be29-12a2b9ff1547"},"vehicle_type_id":"4","last_reported":1749665691,"current_range_meters":8400,"station_id":"ce4bhp92rcd13ifvqhbg","pricing_plan_id":"cebpf4jnsgd1na2vs0mg"},{"bike_id":"a9207d78-15a0-4302-af7d-8cec70375fbe","system_id":"levelo_inurba_marseille","lat":43.28649,"lon":5.35075,"is_reserved":false,"is_disabled":false,"rental_uris":{"android":"levelo://app?vid=a9207d78-15a0-4302-af7d-8cec70375fbe","ios":"levelo://app?vid=a9207d78-15a0-4302-af7d-8cec70375fbe"},"vehicle_type_id":"4","last_reported":1749665691,"current_range_meters":8400,"station_id":"ce4bhch2rcd13ifvqeug","pricing_plan_id":"cebpf4jnsgd1na2vs0mg"},{"bike_id":"8eb3d170-3268-41f5-addf-0bc8a6ff1f29","system_id":"levelo_inurba_marseille","lat":43.28988,"lon":5.35592,"is_reserved":false,"is_disabled":true,"rental_uris":{"android":"levelo://app?vid=8eb3d170-3268-41f5-addf-0bc8a6ff1f29","ios":"levelo://app?vid=8eb3d170-3268-41f5-addf-0bc8a6ff1f29"},"vehicle_type_id":"4","last_reported":1749665691,"current_range_meters":8400,"station_id":"ce4bhb92rcd13ifvqen0","pricing_plan_id":"cebpf4jnsgd1na2vs0mg"},{"bike_id":"2d020419-71e3-4c37-a087-c90045331634","system_id":"levelo_inurba_marseille","lat":43.291956,"lon":5.358046,"is_reserved":false,"is_disabled":false,"rental_uris":{"android":"levelo://app?vid=2d020419-71e3-4c37-a087-c90045331634","ios":"levelo://app?vid=2d020419-71e3-4c37-a087-c90045331634"},"vehicle_type_id":"4","last_reported":1749665691,"current_range_meters":8800,"station_id":"ce4bhb12rcd13ifvqel0","pricing_plan_id":"cebpf4jnsgd1na2vs0mg"},{"bike_id":"0e92a489-6bfe-4488-b5ee-b5b5c177afe9","system_id":"levelo_inurba_marseille","lat":43.29074,"lon":5.37869,"is_reserved":false,"is_disabled":false,"rental_uris":{"android":"levelo://app?vid=0e92a489-6bfe-4488-b5ee-b5b5c177afe9","ios":"levelo://app?vid=0e92a489-6bfe-4488-b5ee-b5b5c177afe9"},"vehicle_type_id":"4","last_reported":1749665691,"current_range_meters":8800,"station_id":"","pricing_plan_id":"cebpf4jnsgd1na2vs0mg"},{"bike_id":"54721240-6eb0-41c9-a9e6-b8ddf3685626","system_id":"levelo_inurba_marseille","lat":43.29635,"lon":5.40592,"is_reserved":false,"is_disabled":false,"rental_uris":{"android":"levelo://app?vid=54721240-6eb0-41c9-a9e6-b8ddf3685626","ios":"levelo://app?vid=54721240-6eb0-41c9-a9e6-b8ddf3685626"},"vehicle_type_id":"4","last_reported":1749665691,"current_range_meters":8800,"station_id":"ce4bh0h2rcd13ifvqd60","pricing_plan_id":"cebpf4jnsgd1na2vs0mg"},{"bike_id":"6e47cc50-492f-4cc8-88dd-950c1aca96ac","system_id":"levelo_inurba_marseille","lat":43.29626,"lon":5.40597,"is_reserved":false,"is_disabled":false,"rental_uris":{"android":"levelo://app?vid=6e47cc50-492f-4cc8-88dd-950c1aca96ac","ios":"levelo://app?vid=6e47cc50-492f-4cc8-88dd-950c1aca96ac"},"vehicle_type_id":"4","last_reported":1749665691,"current_range_meters":8800,"station_id":"ce4bh0h2rcd13ifvqd60","pricing_plan_id":"cebpf4jnsgd1na2vs0mg"},{"bike_id":"4755d62c-a31e-44ea-95af-1b84d1ee06d9","system_id":"levelo_inurba_marseille","lat":43.2481,"lon":5.37462,"is_reserved":false,"is_disabled":false,"rental_uris":{"android":"levelo://app?vid=4755d62c-a31e-44ea-95af-1b84d1ee06d9","ios":"levelo://app?vid=4755d62c-a31e-44ea-95af-1b84d1ee06d9"},"vehicle_type_id":"4","last_reported":1749665691,"current_range_meters":8800,"station_id":"ce4bhgh2rcd13ifvqfb0","pricing_plan_id":"cebpf4jnsgd1na2vs0mg"},{"bike_id":"66314ca9-30a7-4c0a-8507-6f89f4c9b4e1","system_id":"levelo_inurba_marseille","lat":43.26247,"lon":5.37109,"is_reserved":false,"is_disabled":false,"rental_uris":{"android":"levelo://app?vid=66314ca9-30a7-4c0a-8507-6f89f4c9b4e1","ios":"levelo://app?vid=66314ca9-30a7-4c0a-8507-6f89f4c9b4e1"},"vehicle_type_id":"4","last_reported":1749665691,"current_range_meters":8800,"station_id":"","pricing_plan_id":"cebpf4jnsgd1na2vs0mg"},{"bike_id":"1e20f032-0f6a-40b2-ad29-e4d2225496fa","system_id":"levelo_inurba_marseille","lat":43.30306,"lon":5.37059,"is_reserved":false,"is_disabled":false,"rental_uris":{"android":"levelo://app?vid=1e20f032-0f6a-40b2-ad29-e4d2225496fa","ios":"levelo://app?vid=1e20f032-0f6a-40b2-ad29-e4d2225496fa"},"vehicle_type_id":"4","last_reported":1749665691,"current_range_meters":8800,"station_id":"","pricing_plan_id":"cebpf4jnsgd1na2vs0mg"},{"bike_id":"e41e1863-4b5e-409d-a47e-30d663df267a","system_id":"levelo_inurba_marseille","lat":43.2864,"lon":5.35088,"is_reserved":false,"is_disabled":false,"rental_uris":{"android":"levelo://app?vid=e41e1863-4b5e-409d-a47e-30d663df267a","ios":"levelo://app?vid=e41e1863-4b5e-409d-a47e-30d663df267a"},"vehicle_type_id":"4","last_reported":1749665691,"current_range_meters":8800,"station_id":"ce4bhch2rcd13ifvqeug","pricing_plan_id":"cebpf4jnsgd1na2vs0mg"},{"bike_id":"0cb8b9bb-39cd-4236-bab1-35d30e08981d","system_id":"levelo_inurba_marseille","lat":43.23151,"lon":5.43722,"is_reserved":false,"is_disabled":false,"rental_uris":{"android":"levelo://app?vid=0cb8b9bb-39cd-4236-bab1-35d30e08981d","ios":"levelo://app?vid=0cb8b9bb-39cd-4236-bab1-35d30e08981d"},"vehicle_type_id":"4","last_reported":1749665691,"current_range_meters":8400,"station_id":"ce4bhmp2rcd13ifvqgog","pricing_plan_id":"cebpf4jnsgd1na2vs0mg"},{"bike_id":"e20fd189-7058-442c-958d-8588a3dfeb1a","system_id":"levelo_inurba_marseille","lat":43.28409,"lon":5.34977,"is_reserved":false,"is_disabled":false,"rental_uris":{"android":"levelo://app?vid=e20fd189-7058-442c-958d-8588a3dfeb1a","ios":"levelo://app?vid=e20fd189-7058-442c-958d-8588a3dfeb1a"},"vehicle_type_id":"4","last_reported":1749665691,"current_range_meters":8800,"station_id":"ce4bhbh2rcd13ifvqepg","pricing_plan_id":"cebpf4jnsgd1na2vs0mg"},{"bike_id":"76bcb7a3-9242-4e37-abaf-5b801c3c9299","system_id":"levelo_inurba_marseille","lat":43.31335,"lon":5.39693,"is_reserved":false,"is_disabled":false,"rental_uris":{"android":"levelo://app?vid=76bcb7a3-9242-4e37-abaf-5b801c3c9299","ios":"levelo://app?vid=76bcb7a3-9242-4e37-abaf-5b801c3c9299"},"vehicle_type_id":"4","last_reported":1749665691,"current_range_meters":8800,"station_id":"ce4bgvp2rcd13ifvqcu0","pricing_plan_id":"cebpf4jnsgd1na2vs0mg"},{"bike_id":"a5d8bf67-e00f-4b3f-8720-d6497651122a","system_id":"levelo_inurba_marseille","lat":43.28429,"lon":5.35011,"is_reserved":false,"is_disabled":false,"rental_uris":{"android":"levelo://app?vid=a5d8bf67-e00f-4b3f-8720-d6497651122a","ios":"levelo://app?vid=a5d8bf67-e00f-4b3f-8720-d6497651122a"},"vehicle_type_id":"4","last_reported":1749665691,"current_range_meters":9200,"station_id":"ce4bhbh2rcd13ifvqepg","pricing_plan_id":"cebpf4jnsgd1na2vs0mg"},{"bike_id":"6e3b6ef0-2a55-4503-8bb5-ea88271787de","system_id":"levelo_inurba_marseille","lat":43.27373,"lon":5.3626,"is_reserved":false,"is_disabled":false,"rental_uris":{"android":"levelo://app?vid=6e3b6ef0-2a55-4503-8bb5-ea88271787de","ios":"levelo://app?vid=6e3b6ef0-2a55-4503-8bb5-ea88271787de"},"vehicle_type_id":"4","last_reported":1749665691,"current_range_meters":9200,"station_id":"ce4bhbh2rcd13ifvqeo0","pricing_plan_id":"cebpf4jnsgd1na2vs0mg"},{"bike_id":"213aea76-e8c2-4d3c-9cd7-417941cfb119","system_id":"levelo_inurba_marseille","lat":43.286199,"lon":5.351093,"is_reserved":false,"is_disabled":false,"rental_uris":{"android":"levelo://app?vid=213aea76-e8c2-4d3c-9cd7-417941cfb119","ios":"levelo://app?vid=213aea76-e8c2-4d3c-9cd7-417941cfb119"},"vehicle_type_id":"4","last_reported":1749665691,"current_range_meters":9200,"station_id":"ce4bhch2rcd13ifvqeug","pricing_plan_id":"cebpf4jnsgd1na2vs0mg"},{"bike_id":"eab5d0de-76e0-4ae0-9d4c-6c0712da5f5b","system_id":"levelo_inurba_marseille","lat":43.29227,"lon":5.36061,"is_reserved":false,"is_disabled":false,"rental_uris":{"android":"levelo://app?vid=eab5d0de-76e0-4ae0-9d4c-6c0712da5f5b","ios":"levelo://app?vid=eab5d0de-76e0-4ae0-9d4c-6c0712da5f5b"},"vehicle_type_id":"4","last_reported":1749665691,"current_range_meters":7200,"station_id":"ce4bhbh2rcd13ifvqeqg","pricing_plan_id":"cebpf4jnsgd1na2vs0mg"},{"bike_id":"dbac5de5-3628-40ec-8946-e2c10d2a63c3","system_id":"levelo_inurba_marseille","lat":43.2841,"lon":5.34994,"is_reserved":false,"is_disabled":false,"rental_uris":{"android":"levelo://app?vid=dbac5de5-3628-40ec-8946-e2c10d2a63c3","ios":"levelo://app?vid=dbac5de5-3628-40ec-8946-e2c10d2a63c3"},"vehicle_type_id":"4","last_reported":1749665691,"current_range_meters":9200,"station_id":"ce4bhbh2rcd13ifvqepg","pricing_plan_id":"cebpf4jnsgd1na2vs0mg"},{"bike_id":"f93ae915-8243-4ccb-ad98-8d56417c927f","system_id":"levelo_inurba_marseille","lat":43.28619,"lon":5.35106,"is_reserved":false,"is_disabled":false,"rental_uris":{"android":"levelo://app?vid=f93ae915-8243-4ccb-ad98-8d56417c927f","ios":"levelo://app?vid=f93ae915-8243-4ccb-ad98-8d56417c927f"},"vehicle_type_id":"4","last_reported":1749665691,"current_range_meters":9200,"station_id":"ce4bhch2rcd13ifvqeug","pricing_plan_id":"cebpf4jnsgd1na2vs0mg"},{"bike_id":"7f38c9e0-11fb-44ce-8190-8840d5a414e8","system_id":"levelo_inurba_marseille","lat":43.29023,"lon":5.35623,"is_reserved":false,"is_disabled":false,"rental_uris":{"android":"levelo://app?vid=7f38c9e0-11fb-44ce-8190-8840d5a414e8","ios":"levelo://app?vid=7f38c9e0-11fb-44ce-8190-8840d5a414e8"},"vehicle_type_id":"4","last_reported":1749665691,"current_range_meters":9600,"station_id":"ce4bhb92rcd13ifvqen0","pricing_plan_id":"cebpf4jnsgd1na2vs0mg"},{"bike_id":"4005c274-b967-4005-810c-42c83ca88050","system_id":"levelo_inurba_marseille","lat":43.291,"lon":5.38155,"is_reserved":false,"is_disabled":true,"rental_uris":{"android":"levelo://app?vid=4005c274-b967-4005-810c-42c83ca88050","ios":"levelo://app?vid=4005c274-b967-4005-810c-42c83ca88050"},"vehicle_type_id":"4","last_reported":1749665691,"current_range_meters":9600,"station_id":"ce4bh512rcd13ifvqe2g","pricing_plan_id":"cebpf4jnsgd1na2vs0mg"},{"bike_id":"f5db53c2-39c8-4781-b30f-b57c98968b37","system_id":"levelo_inurba_marseille","lat":43.2945,"lon":5.38606,"is_reserved":false,"is_disabled":true,"rental_uris":{"android":"levelo://app?vid=f5db53c2-39c8-4781-b30f-b57c98968b37","ios":"levelo://app?vid=f5db53c2-39c8-4781-b30f-b57c98968b37"},"vehicle_type_id":"4","last_reported":1749665691,"current_range_meters":9600,"station_id":"ce4bh2h2rcd13ifvqdh0","pricing_plan_id":"cebpf4jnsgd1na2vs0mg"},{"bike_id":"bad7ed29-d87c-478e-9922-e657d4071ae8","system_id":"levelo_inurba_marseille","lat":43.27624,"lon":5.361,"is_reserved":false,"is_disabled":false,"rental_uris":{"android":"levelo://app?vid=bad7ed29-d87c-478e-9922-e657d4071ae8","ios":"levelo://app?vid=bad7ed29-d87c-478e-9922-e657d4071ae8"},"vehicle_type_id":"4","last_reported":1749665691,"current_range_meters":9600,"station_id":"ce4bgj92rcd13ifvqbe0","pricing_plan_id":"cebpf4jnsgd1na2vs0mg"},{"bike_id":"2d834ed5-5a3a-48ca-b188-1a6c4b2db29c","system_id":"levelo_inurba_marseille","lat":43.30265,"lon":5.40081,"is_reserved":false,"is_disabled":false,"rental_uris":{"android":"levelo://app?vid=2d834ed5-5a3a-48ca-b188-1a6c4b2db29c","ios":"levelo://app?vid=2d834ed5-5a3a-48ca-b188-1a6c4b2db29c"},"vehicle_type_id":"4","last_reported":1749665691,"current_range_meters":9600,"station_id":"ce4bgvh2rcd13ifvqcs0","pricing_plan_id":"cebpf4jnsgd1na2vs0mg"},{"bike_id":"571ce02c-9dc7-4918-a04f-3cd0310805f5","system_id":"levelo_inurba_marseille","lat":43.28639,"lon":5.35093,"is_reserved":false,"is_disabled":false,"rental_uris":{"android":"levelo://app?vid=571ce02c-9dc7-4918-a04f-3cd0310805f5","ios":"levelo://app?vid=571ce02c-9dc7-4918-a04f-3cd0310805f5"},"vehicle_type_id":"4","last_reported":1749665691,"current_range_meters":9600,"station_id":"ce4bhch2rcd13ifvqeug","pricing_plan_id":"cebpf4jnsgd1na2vs0mg"},{"bike_id":"dc5c1841-b51d-4e85-9fdb-a5a7575f2834","system_id":"levelo_inurba_marseille","lat":43.23962,"lon":5.36635,"is_reserved":false,"is_disabled":false,"rental_uris":{"android":"levelo://app?vid=dc5c1841-b51d-4e85-9fdb-a5a7575f2834","ios":"levelo://app?vid=dc5c1841-b51d-4e85-9fdb-a5a7575f2834"},"vehicle_type_id":"4","last_reported":1749665691,"current_range_meters":9600,"station_id":"ce4bhi12rcd13ifvqfp0","pricing_plan_id":"cebpf4jnsgd1na2vs0mg"},{"bike_id":"ac8b5d52-01c0-4e43-9b5b-aac8aa59590f","system_id":"levelo_inurba_marseille","lat":43.27378,"lon":5.36246,"is_reserved":false,"is_disabled":false,"rental_uris":{"android":"levelo://app?vid=ac8b5d52-01c0-4e43-9b5b-aac8aa59590f","ios":"levelo://app?vid=ac8b5d52-01c0-4e43-9b5b-aac8aa59590f"},"vehicle_type_id":"4","last_reported":1749665691,"current_range_meters":9600,"station_id":"ce4bhbh2rcd13ifvqeo0","pricing_plan_id":"cebpf4jnsgd1na2vs0mg"},{"bike_id":"56bb4d32-b204-4959-804a-bc3c5e073f5c","system_id":"levelo_inurba_marseille","lat":43.28613,"lon":5.37066,"is_reserved":false,"is_disabled":false,"rental_uris":{"android":"levelo://app?vid=56bb4d32-b204-4959-804a-bc3c5e073f5c","ios":"levelo://app?vid=56bb4d32-b204-4959-804a-bc3c5e073f5c"},"vehicle_type_id":"4","last_reported":1749665691,"current_range_meters":9600,"station_id":"ce4bht12rcd13ifvqi60","pricing_plan_id":"cebpf4jnsgd1na2vs0mg"},{"bike_id":"c9891edf-e02e-43fe-b35a-9412967a87df","system_id":"levelo_inurba_marseille","lat":43.29013,"lon":5.35614,"is_reserved":false,"is_disabled":false,"rental_uris":{"android":"levelo://app?vid=c9891edf-e02e-43fe-b35a-9412967a87df","ios":"levelo://app?vid=c9891edf-e02e-43fe-b35a-9412967a87df"},"vehicle_type_id":"4","last_reported":1749665691,"current_range_meters":10000,"station_id":"ce4bhb92rcd13ifvqen0","pricing_plan_id":"cebpf4jnsgd1na2vs0mg"},{"bike_id":"e422b217-9d0f-4642-82d8-286030744363","system_id":"levelo_inurba_marseille","lat":43.28642,"lon":5.35106,"is_reserved":false,"is_disabled":false,"rental_uris":{"android":"levelo://app?vid=e422b217-9d0f-4642-82d8-286030744363","ios":"levelo://app?vid=e422b217-9d0f-4642-82d8-286030744363"},"vehicle_type_id":"4","last_reported":1749665691,"current_range_meters":10000,"station_id":"ce4bhch2rcd13ifvqeug","pricing_plan_id":"cebpf4jnsgd1na2vs0mg"},{"bike_id":"bb8d963c-f5c0-4e68-a17d-40f45b2fd1bd","system_id":"levelo_inurba_marseille","lat":43.28609,"lon":5.35101,"is_reserved":false,"is_disabled":false,"rental_uris":{"android":"levelo://app?vid=bb8d963c-f5c0-4e68-a17d-40f45b2fd1bd","ios":"levelo://app?vid=bb8d963c-f5c0-4e68-a17d-40f45b2fd1bd"},"vehicle_type_id":"4","last_reported":1749665691,"current_range_meters":10000,"station_id":"ce4bhch2rcd13ifvqeug","pricing_plan_id":"cebpf4jnsgd1na2vs0mg"},{"bike_id":"29f5772d-d630-4974-8179-537e9a596ca7","system_id":"levelo_inurba_marseille","lat":43.290335,"lon":5.359213,"is_reserved":false,"is_disabled":false,"rental_uris":{"android":"levelo://app?vid=29f5772d-d630-4974-8179-537e9a596ca7","ios":"levelo://app?vid=29f5772d-d630-4974-8179-537e9a596ca7"},"vehicle_type_id":"4","last_reported":1749665691,"current_range_meters":10800,"station_id":"ce4bha92rcd13ifvqeg0","pricing_plan_id":"cebpf4jnsgd1na2vs0mg"},{"bike_id":"1aa28aa0-c182-4276-89fd-0a07601e8cef","system_id":"levelo_inurba_marseille","lat":43.29978,"lon":5.38485,"is_reserved":false,"is_disabled":false,"rental_uris":{"android":"levelo://app?vid=1aa28aa0-c182-4276-89fd-0a07601e8cef","ios":"levelo://app?vid=1aa28aa0-c182-4276-89fd-0a07601e8cef"},"vehicle_type_id":"4","last_reported":1749665691,"current_range_meters":10800,"station_id":"ce4bgj92rcd13ifvqbd0","pricing_plan_id":"cebpf4jnsgd1na2vs0mg"},{"bike_id":"f0efac9f-68cb-46b1-ae63-d592bf2cad02","system_id":"levelo_inurba_marseille","lat":43.28405,"lon":5.34968,"is_reserved":false,"is_disabled":false,"rental_uris":{"android":"levelo://app?vid=f0efac9f-68cb-46b1-ae63-d592bf2cad02","ios":"levelo://app?vid=f0efac9f-68cb-46b1-ae63-d592bf2cad02"},"vehicle_type_id":"4","last_reported":1749665691,"current_range_meters":10800,"station_id":"ce4bhbh2rcd13ifvqepg","pricing_plan_id":"cebpf4jnsgd1na2vs0mg"},{"bike_id":"a6a9aa78-7299-47ac-a784-76282a099506","system_id":"levelo_inurba_marseille","lat":43.301481,"lon":5.380943,"is_reserved":false,"is_disabled":true,"rental_uris":{"android":"levelo://app?vid=a6a9aa78-7299-47ac-a784-76282a099506","ios":"levelo://app?vid=a6a9aa78-7299-47ac-a784-76282a099506"},"vehicle_type_id":"4","last_reported":1749665691,"current_range_meters":10800,"station_id":"ce4bgjp2rcd13ifvqbh0","pricing_plan_id":"cebpf4jnsgd1na2vs0mg"},{"bike_id":"85274a9d-a0fb-46c5-a828-b8a66650baa9","system_id":"levelo_inurba_marseille","lat":43.28384,"lon":5.37536,"is_reserved":false,"is_disabled":false,"rental_uris":{"android":"levelo://app?vid=85274a9d-a0fb-46c5-a828-b8a66650baa9","ios":"levelo://app?vid=85274a9d-a0fb-46c5-a828-b8a66650baa9"},"vehicle_type_id":"4","last_reported":1749665691,"current_range_meters":10800,"station_id":"ce4bh412rcd13ifvqds0","pricing_plan_id":"cebpf4jnsgd1na2vs0mg"},{"bike_id":"7c36ebe9-85e6-45f1-be8c-461a7856f157","system_id":"levelo_inurba_marseille","lat":43.29378,"lon":5.37842,"is_reserved":false,"is_disabled":false,"rental_uris":{"android":"levelo://app?vid=7c36ebe9-85e6-45f1-be8c-461a7856f157","ios":"levelo://app?vid=7c36ebe9-85e6-45f1-be8c-461a7856f157"},"vehicle_type_id":"4","last_reported":1749665691,"current_range_meters":10800,"station_id":"ce4bgjh2rcd13ifvqbf0","pricing_plan_id":"cebpf4jnsgd1na2vs0mg"},{"bike_id":"5ffc5d75-9066-40cf-9730-75b3d557a59f","system_id":"levelo_inurba_marseille","lat":43.29917,"lon":5.37785,"is_reserved":false,"is_disabled":false,"rental_uris":{"android":"levelo://app?vid=5ffc5d75-9066-40cf-9730-75b3d557a59f","ios":"levelo://app?vid=5ffc5d75-9066-40cf-9730-75b3d557a59f"},"vehicle_type_id":"4","last_reported":1749665691,"current_range_meters":10800,"station_id":"","pricing_plan_id":"cebpf4jnsgd1na2vs0mg"},{"bike_id":"84f5a926-1dd6-4535-b647-2764ce0ca103","system_id":"levelo_inurba_marseille","lat":43.32122,"lon":5.36799,"is_reserved":false,"is_disabled":false,"rental_uris":{"android":"levelo://app?vid=84f5a926-1dd6-4535-b647-2764ce0ca103","ios":"levelo://app?vid=84f5a926-1dd6-4535-b647-2764ce0ca103"},"vehicle_type_id":"4","last_reported":1749665691,"current_range_meters":10800,"station_id":"ce4bhrh2rcd13ifvqhug","pricing_plan_id":"cebpf4jnsgd1na2vs0mg"},{"bike_id":"0923e79e-3960-4eec-9027-38089346fe3a","system_id":"levelo_inurba_marseille","lat":43.23184,"lon":5.35577,"is_reserved":false,"is_disabled":true,"rental_uris":{"android":"levelo://app?vid=0923e79e-3960-4eec-9027-38089346fe3a","ios":"levelo://app?vid=0923e79e-3960-4eec-9027-38089346fe3a"},"vehicle_type_id":"4","last_reported":1749665691,"current_range_meters":10800,"station_id":"ce4bhu92rcd13ifvqi70","pricing_plan_id":"cebpf4jnsgd1na2vs0mg"},{"bike_id":"d6c0cb76-e2fc-4e65-99a9-8b2d03bf9f31","system_id":"levelo_inurba_marseille","lat":43.29871,"lon":5.39735,"is_reserved":false,"is_disabled":false,"rental_uris":{"android":"levelo://app?vid=d6c0cb76-e2fc-4e65-99a9-8b2d03bf9f31","ios":"levelo://app?vid=d6c0cb76-e2fc-4e65-99a9-8b2d03bf9f31"},"vehicle_type_id":"4","last_reported":1749665691,"current_range_meters":10800,"station_id":"ce4bh0h2rcd13ifvqd50","pricing_plan_id":"cebpf4jnsgd1na2vs0mg"},{"bike_id":"4220c3f1-dd96-4f3e-a186-336464ef48f9","system_id":"levelo_inurba_marseille","lat":43.28424,"lon":5.34973,"is_reserved":false,"is_disabled":false,"rental_uris":{"android":"levelo://app?vid=4220c3f1-dd96-4f3e-a186-336464ef48f9","ios":"levelo://app?vid=4220c3f1-dd96-4f3e-a186-336464ef48f9"},"vehicle_type_id":"4","last_reported":1749665691,"current_range_meters":10800,"station_id":"ce4bhbh2rcd13ifvqepg","pricing_plan_id":"cebpf4jnsgd1na2vs0mg"},{"bike_id":"7796bd3e-0362-4956-a18a-b546fd82adfe","system_id":"levelo_inurba_marseille","lat":43.28407,"lon":5.34982,"is_reserved":false,"is_disabled":false,"rental_uris":{"android":"levelo://app?vid=7796bd3e-0362-4956-a18a-b546fd82adfe","ios":"levelo://app?vid=7796bd3e-0362-4956-a18a-b546fd82adfe"},"vehicle_type_id":"4","last_reported":1749665691,"current_range_meters":11200,"station_id":"ce4bhbh2rcd13ifvqepg","pricing_plan_id":"cebpf4jnsgd1na2vs0mg"},{"bike_id":"cc29fea0-6a6e-4dc5-afa7-3381a3c23934","system_id":"levelo_inurba_marseille","lat":43.23963,"lon":5.36634,"is_reserved":false,"is_disabled":false,"rental_uris":{"android":"levelo://app?vid=cc29fea0-6a6e-4dc5-afa7-3381a3c23934","ios":"levelo://app?vid=cc29fea0-6a6e-4dc5-afa7-3381a3c23934"},"vehicle_type_id":"4","last_reported":1749665691,"current_range_meters":11200,"station_id":"ce4bhi12rcd13ifvqfp0","pricing_plan_id":"cebpf4jnsgd1na2vs0mg"},{"bike_id":"d7fd175c-f9e3-40c2-a480-2670793a4f25","system_id":"levelo_inurba_marseille","lat":43.29024,"lon":5.35606,"is_reserved":false,"is_disabled":false,"rental_uris":{"android":"levelo://app?vid=d7fd175c-f9e3-40c2-a480-2670793a4f25","ios":"levelo://app?vid=d7fd175c-f9e3-40c2-a480-2670793a4f25"},"vehicle_type_id":"4","last_reported":1749665691,"current_range_meters":11200,"station_id":"ce4bhb92rcd13ifvqen0","pricing_plan_id":"cebpf4jnsgd1na2vs0mg"},{"bike_id":"b3e9fc8f-fbbd-45d5-ad0e-f472a57191fb","system_id":"levelo_inurba_marseille","lat":43.29913,"lon":5.3814,"is_reserved":false,"is_disabled":false,"rental_uris":{"android":"levelo://app?vid=b3e9fc8f-fbbd-45d5-ad0e-f472a57191fb","ios":"levelo://app?vid=b3e9fc8f-fbbd-45d5-ad0e-f472a57191fb"},"vehicle_type_id":"4","last_reported":1749665691,"current_range_meters":10000,"station_id":"ce4bgj12rcd13ifvqbc0","pricing_plan_id":"cebpf4jnsgd1na2vs0mg"},{"bike_id":"d18b49d7-b625-4273-a3a2-f137038601a6","system_id":"levelo_inurba_marseille","lat":43.28925,"lon":5.38407,"is_reserved":false,"is_disabled":false,"rental_uris":{"android":"levelo://app?vid=d18b49d7-b625-4273-a3a2-f137038601a6","ios":"levelo://app?vid=d18b49d7-b625-4273-a3a2-f137038601a6"},"vehicle_type_id":"4","last_reported":1749665691,"current_range_meters":10800,"station_id":"ce4bh612rcd13ifvqe6g","pricing_plan_id":"cebpf4jnsgd1na2vs0mg"},{"bike_id":"49eae1a1-42cf-4380-b061-f62ba47b31e8","system_id":"levelo_inurba_marseille","lat":43.28619,"lon":5.35115,"is_reserved":false,"is_disabled":false,"rental_uris":{"android":"levelo://app?vid=49eae1a1-42cf-4380-b061-f62ba47b31e8","ios":"levelo://app?vid=49eae1a1-42cf-4380-b061-f62ba47b31e8"},"vehicle_type_id":"4","last_reported":1749665691,"current_range_meters":11200,"station_id":"ce4bhch2rcd13ifvqeug","pricing_plan_id":"cebpf4jnsgd1na2vs0mg"},{"bike_id":"f45ecfb6-6d84-4e2a-a549-add3b7ff77b5","system_id":"levelo_inurba_marseille","lat":43.28271,"lon":5.35079,"is_reserved":false,"is_disabled":false,"rental_uris":{"android":"levelo://app?vid=f45ecfb6-6d84-4e2a-a549-add3b7ff77b5","ios":"levelo://app?vid=f45ecfb6-6d84-4e2a-a549-add3b7ff77b5"},"vehicle_type_id":"4","last_reported":1749665691,"current_range_meters":11600,"station_id":"ce4bhbp2rcd13ifvqerg","pricing_plan_id":"cebpf4jnsgd1na2vs0mg"},{"bike_id":"dfa8a562-7c57-4609-9fab-4cc0bd86a23f","system_id":"levelo_inurba_marseille","lat":43.28621,"lon":5.3511,"is_reserved":false,"is_disabled":false,"rental_uris":{"android":"levelo://app?vid=dfa8a562-7c57-4609-9fab-4cc0bd86a23f","ios":"levelo://app?vid=dfa8a562-7c57-4609-9fab-4cc0bd86a23f"},"vehicle_type_id":"4","last_reported":1749665691,"current_range_meters":11600,"station_id":"ce4bhch2rcd13ifvqeug","pricing_plan_id":"cebpf4jnsgd1na2vs0mg"},{"bike_id":"6c404962-26ba-4abb-b4d4-edae6a8cf09c","system_id":"levelo_inurba_marseille","lat":43.29008,"lon":5.35608,"is_reserved":false,"is_disabled":false,"rental_uris":{"android":"levelo://app?vid=6c404962-26ba-4abb-b4d4-edae6a8cf09c","ios":"levelo://app?vid=6c404962-26ba-4abb-b4d4-edae6a8cf09c"},"vehicle_type_id":"4","last_reported":1749665691,"current_range_meters":11600,"station_id":"ce4bhb92rcd13ifvqen0","pricing_plan_id":"cebpf4jnsgd1na2vs0mg"},{"bike_id":"1acb5d21-4c28-40b5-a56a-d357621eb6d0","system_id":"levelo_inurba_marseille","lat":43.29227,"lon":5.36062,"is_reserved":false,"is_disabled":false,"rental_uris":{"android":"levelo://app?vid=1acb5d21-4c28-40b5-a56a-d357621eb6d0","ios":"levelo://app?vid=1acb5d21-4c28-40b5-a56a-d357621eb6d0"},"vehicle_type_id":"4","last_reported":1749665691,"current_range_meters":11600,"station_id":"ce4bhbh2rcd13ifvqeqg","pricing_plan_id":"cebpf4jnsgd1na2vs0mg"},{"bike_id":"eb928ceb-5214-418e-a6d4-76cf6825a693","system_id":"levelo_inurba_marseille","lat":43.29627,"lon":5.38145,"is_reserved":false,"is_disabled":false,"rental_uris":{"android":"levelo://app?vid=eb928ceb-5214-418e-a6d4-76cf6825a693","ios":"levelo://app?vid=eb928ceb-5214-418e-a6d4-76cf6825a693"},"vehicle_type_id":"4","last_reported":1749665691,"current_range_meters":11600,"station_id":"ce4bgl12rcd13ifvqbo0","pricing_plan_id":"cebpf4jnsgd1na2vs0mg"},{"bike_id":"8b0822a7-64c8-4c2e-94e2-d50f00c1ca16","system_id":"levelo_inurba_marseille","lat":43.28418,"lon":5.35003,"is_reserved":false,"is_disabled":false,"rental_uris":{"android":"levelo://app?vid=8b0822a7-64c8-4c2e-94e2-d50f00c1ca16","ios":"levelo://app?vid=8b0822a7-64c8-4c2e-94e2-d50f00c1ca16"},"vehicle_type_id":"4","last_reported":1749665691,"current_range_meters":12000,"station_id":"ce4bhbh2rcd13ifvqepg","pricing_plan_id":"cebpf4jnsgd1na2vs0mg"},{"bike_id":"fa9d6f18-5742-4e33-954d-f2ff55ab8fbe","system_id":"levelo_inurba_marseille","lat":43.2955,"lon":5.42296,"is_reserved":false,"is_disabled":false,"rental_uris":{"android":"levelo://app?vid=fa9d6f18-5742-4e33-954d-f2ff55ab8fbe","ios":"levelo://app?vid=fa9d6f18-5742-4e33-954d-f2ff55ab8fbe"},"vehicle_type_id":"4","last_reported":1749665691,"current_range_meters":12000,"station_id":"ce4bhph2rcd13ifvqhdg","pricing_plan_id":"cebpf4jnsgd1na2vs0mg"},{"bike_id":"71455d28-2646-4598-b7dc-7b6598c787b7","system_id":"levelo_inurba_marseille","lat":43.27367,"lon":5.36259,"is_reserved":false,"is_disabled":false,"rental_uris":{"android":"levelo://app?vid=71455d28-2646-4598-b7dc-7b6598c787b7","ios":"levelo://app?vid=71455d28-2646-4598-b7dc-7b6598c787b7"},"vehicle_type_id":"4","last_reported":1749665691,"current_range_meters":12000,"station_id":"ce4bhbh2rcd13ifvqeo0","pricing_plan_id":"cebpf4jnsgd1na2vs0mg"},{"bike_id":"3eae6340-471a-44d3-9e16-4602cbca9735","system_id":"levelo_inurba_marseille","lat":43.2841,"lon":5.3499,"is_reserved":false,"is_disabled":false,"rental_uris":{"android":"levelo://app?vid=3eae6340-471a-44d3-9e16-4602cbca9735","ios":"levelo://app?vid=3eae6340-471a-44d3-9e16-4602cbca9735"},"vehicle_type_id":"4","last_reported":1749665691,"current_range_meters":12000,"station_id":"ce4bhbh2rcd13ifvqepg","pricing_plan_id":"cebpf4jnsgd1na2vs0mg"},{"bike_id":"1775a59e-9dc0-40f8-9c59-36e8acda4730","system_id":"levelo_inurba_marseille","lat":43.29194,"lon":5.35812,"is_reserved":false,"is_disabled":false,"rental_uris":{"android":"levelo://app?vid=1775a59e-9dc0-40f8-9c59-36e8acda4730","ios":"levelo://app?vid=1775a59e-9dc0-40f8-9c59-36e8acda4730"},"vehicle_type_id":"4","last_reported":1749665691,"current_range_meters":12000,"station_id":"ce4bhb12rcd13ifvqel0","pricing_plan_id":"cebpf4jnsgd1na2vs0mg"},{"bike_id":"3bcb622b-35ab-4fc7-b51b-263165a13d06","system_id":"levelo_inurba_marseille","lat":43.28616,"lon":5.35107,"is_reserved":false,"is_disabled":false,"rental_uris":{"android":"levelo://app?vid=3bcb622b-35ab-4fc7-b51b-263165a13d06","ios":"levelo://app?vid=3bcb622b-35ab-4fc7-b51b-263165a13d06"},"vehicle_type_id":"4","last_reported":1749665691,"current_range_meters":12000,"station_id":"ce4bhch2rcd13ifvqeug","pricing_plan_id":"cebpf4jnsgd1na2vs0mg"},{"bike_id":"e2ab8eba-7083-4745-9245-927a9e9c668c","system_id":"levelo_inurba_marseille","lat":43.28418,"lon":5.34989,"is_reserved":false,"is_disabled":false,"rental_uris":{"android":"levelo://app?vid=e2ab8eba-7083-4745-9245-927a9e9c668c","ios":"levelo://app?vid=e2ab8eba-7083-4745-9245-927a9e9c668c"},"vehicle_type_id":"4","last_reported":1749665691,"current_range_meters":12000,"station_id":"ce4bhbh2rcd13ifvqepg","pricing_plan_id":"cebpf4jnsgd1na2vs0mg"},{"bike_id":"2c7a13aa-9a16-4880-8e65-7cb3af8d8d1b","system_id":"levelo_inurba_marseille","lat":43.289816,"lon":5.378525,"is_reserved":false,"is_disabled":true,"rental_uris":{"android":"levelo://app?vid=2c7a13aa-9a16-4880-8e65-7cb3af8d8d1b","ios":"levelo://app?vid=2c7a13aa-9a16-4880-8e65-7cb3af8d8d1b"},"vehicle_type_id":"4","last_reported":1749665691,"current_range_meters":12000,"station_id":"ce4bh9p2rcd13ifvqed0","pricing_plan_id":"cebpf4jnsgd1na2vs0mg"},{"bike_id":"1acfb620-cad7-48c0-8901-d7a5b74a5b65","system_id":"levelo_inurba_marseille","lat":43.33751,"lon":5.37456,"is_reserved":false,"is_disabled":false,"rental_uris":{"android":"levelo://app?vid=1acfb620-cad7-48c0-8901-d7a5b74a5b65","ios":"levelo://app?vid=1acfb620-cad7-48c0-8901-d7a5b74a5b65"},"vehicle_type_id":"4","last_reported":1749665691,"current_range_meters":12000,"station_id":"","pricing_plan_id":"cebpf4jnsgd1na2vs0mg"},{"bike_id":"e7a8f64d-b944-4b51-b47a-a7702858cf3d","system_id":"levelo_inurba_marseille","lat":43.29207,"lon":5.39323,"is_reserved":false,"is_disabled":false,"rental_uris":{"android":"levelo://app?vid=e7a8f64d-b944-4b51-b47a-a7702858cf3d","ios":"levelo://app?vid=e7a8f64d-b944-4b51-b47a-a7702858cf3d"},"vehicle_type_id":"4","last_reported":1749665691,"current_range_meters":12400,"station_id":"ce4bh192rcd13ifvqdd0","pricing_plan_id":"cebpf4jnsgd1na2vs0mg"},{"bike_id":"c1c85985-2e36-4285-a1f4-8a0d5ed88d74","system_id":"levelo_inurba_marseille","lat":43.30886,"lon":5.37201,"is_reserved":false,"is_disabled":false,"rental_uris":{"android":"levelo://app?vid=c1c85985-2e36-4285-a1f4-8a0d5ed88d74","ios":"levelo://app?vid=c1c85985-2e36-4285-a1f4-8a0d5ed88d74"},"vehicle_type_id":"4","last_reported":1749665691,"current_range_meters":12400,"station_id":"ce4bguh2rcd13ifvqckg","pricing_plan_id":"cebpf4jnsgd1na2vs0mg"},{"bike_id":"bf6646a6-ddb3-4ea7-a6db-767b13129e72","system_id":"levelo_inurba_marseille","lat":43.29815,"lon":5.40396,"is_reserved":false,"is_disabled":false,"rental_uris":{"android":"levelo://app?vid=bf6646a6-ddb3-4ea7-a6db-767b13129e72","ios":"levelo://app?vid=bf6646a6-ddb3-4ea7-a6db-767b13129e72"},"vehicle_type_id":"4","last_reported":1749665691,"current_range_meters":12400,"station_id":"ce4bh112rcd13ifvqd90","pricing_plan_id":"cebpf4jnsgd1na2vs0mg"},{"bike_id":"7ce03003-40bb-4dfa-ae6d-2796634da079","system_id":"levelo_inurba_marseille","lat":43.30207,"lon":5.45393,"is_reserved":false,"is_disabled":false,"rental_uris":{"android":"levelo://app?vid=7ce03003-40bb-4dfa-ae6d-2796634da079","ios":"levelo://app?vid=7ce03003-40bb-4dfa-ae6d-2796634da079"},"vehicle_type_id":"4","last_reported":1749665691,"current_range_meters":12400,"station_id":"","pricing_plan_id":"cebpf4jnsgd1na2vs0mg"},{"bike_id":"463c7151-cf9d-4696-98cc-c6eedbdb6ef6","system_id":"levelo_inurba_marseille","lat":43.30184,"lon":5.36622,"is_reserved":false,"is_disabled":false,"rental_uris":{"android":"levelo://app?vid=463c7151-cf9d-4696-98cc-c6eedbdb6ef6","ios":"levelo://app?vid=463c7151-cf9d-4696-98cc-c6eedbdb6ef6"},"vehicle_type_id":"4","last_reported":1749665691,"current_range_meters":12400,"station_id":"ce4bgrh2rcd13ifvqc8g","pricing_plan_id":"cebpf4jnsgd1na2vs0mg"},{"bike_id":"91252cb4-db98-4cff-ba49-0337a6eacf8f","system_id":"levelo_inurba_marseille","lat":43.319929,"lon":5.387843,"is_reserved":false,"is_disabled":false,"rental_uris":{"android":"levelo://app?vid=91252cb4-db98-4cff-ba49-0337a6eacf8f","ios":"levelo://app?vid=91252cb4-db98-4cff-ba49-0337a6eacf8f"},"vehicle_type_id":"4","last_reported":1749665691,"current_range_meters":12400,"station_id":"","pricing_plan_id":"cebpf4jnsgd1na2vs0mg"},{"bike_id":"4a3a35cd-0d15-4c45-ab32-2eea37174ed6","system_id":"levelo_inurba_marseille","lat":43.290142,"lon":5.356136,"is_reserved":false,"is_disabled":false,"rental_uris":{"android":"levelo://app?vid=4a3a35cd-0d15-4c45-ab32-2eea37174ed6","ios":"levelo://app?vid=4a3a35cd-0d15-4c45-ab32-2eea37174ed6"},"vehicle_type_id":"4","last_reported":1749665691,"current_range_meters":12800,"station_id":"ce4bhb92rcd13ifvqen0","pricing_plan_id":"cebpf4jnsgd1na2vs0mg"},{"bike_id":"26458859-f290-440c-ae9c-21fae7264218","system_id":"levelo_inurba_marseille","lat":43.282698,"lon":5.350593,"is_reserved":false,"is_disabled":false,"rental_uris":{"android":"levelo://app?vid=26458859-f290-440c-ae9c-21fae7264218","ios":"levelo://app?vid=26458859-f290-440c-ae9c-21fae7264218"},"vehicle_type_id":"4","last_reported":1749665691,"current_range_meters":12800,"station_id":"ce4bhbp2rcd13ifvqerg","pricing_plan_id":"cebpf4jnsgd1na2vs0mg"},{"bike_id":"0df04b77-dbee-47c4-afce-4e405067b153","system_id":"levelo_inurba_marseille","lat":43.29192,"lon":5.35805,"is_reserved":false,"is_disabled":false,"rental_uris":{"android":"levelo://app?vid=0df04b77-dbee-47c4-afce-4e405067b153","ios":"levelo://app?vid=0df04b77-dbee-47c4-afce-4e405067b153"},"vehicle_type_id":"4","last_reported":1749665691,"current_range_meters":12800,"station_id":"ce4bhb12rcd13ifvqel0","pricing_plan_id":"cebpf4jnsgd1na2vs0mg"},{"bike_id":"985ff8e8-6bbb-4e31-af69-9db67e1b9929","system_id":"levelo_inurba_marseille","lat":43.27811,"lon":5.40713,"is_reserved":false,"is_disabled":false,"rental_uris":{"android":"levelo://app?vid=985ff8e8-6bbb-4e31-af69-9db67e1b9929","ios":"levelo://app?vid=985ff8e8-6bbb-4e31-af69-9db67e1b9929"},"vehicle_type_id":"4","last_reported":1749665691,"current_range_meters":13600,"station_id":"ce4bhnh2rcd13ifvqgtg","pricing_plan_id":"cebpf4jnsgd1na2vs0mg"},{"bike_id":"fd1fa355-1d26-4fdc-9138-efb1a315960d","system_id":"levelo_inurba_marseille","lat":43.284,"lon":5.3752,"is_reserved":false,"is_disabled":false,"rental_uris":{"android":"levelo://app?vid=fd1fa355-1d26-4fdc-9138-efb1a315960d","ios":"levelo://app?vid=fd1fa355-1d26-4fdc-9138-efb1a315960d"},"vehicle_type_id":"4","last_reported":1749665691,"current_range_meters":13600,"station_id":"ce4bh412rcd13ifvqds0","pricing_plan_id":"cebpf4jnsgd1na2vs0mg"},{"bike_id":"08d78a49-d56a-4007-bfe7-ef80380d51ac","system_id":"levelo_inurba_marseille","lat":43.28282,"lon":5.35087,"is_reserved":false,"is_disabled":false,"rental_uris":{"android":"levelo://app?vid=08d78a49-d56a-4007-bfe7-ef80380d51ac","ios":"levelo://app?vid=08d78a49-d56a-4007-bfe7-ef80380d51ac"},"vehicle_type_id":"4","last_reported":1749665691,"current_range_meters":13600,"station_id":"ce4bhbp2rcd13ifvqerg","pricing_plan_id":"cebpf4jnsgd1na2vs0mg"},{"bike_id":"9d3b06de-f054-4538-ae7c-c3f853d6661a","system_id":"levelo_inurba_marseille","lat":43.296029,"lon":5.378027,"is_reserved":false,"is_disabled":false,"rental_uris":{"android":"levelo://app?vid=9d3b06de-f054-4538-ae7c-c3f853d6661a","ios":"levelo://app?vid=9d3b06de-f054-4538-ae7c-c3f853d6661a"},"vehicle_type_id":"4","last_reported":1749665691,"current_range_meters":13600,"station_id":"ce4bgl12rcd13ifvqbo0","pricing_plan_id":"cebpf4jnsgd1na2vs0mg"},{"bike_id":"f779b611-c10e-4619-9bdb-6b076750df1c","system_id":"levelo_inurba_marseille","lat":43.24076,"lon":5.37765,"is_reserved":false,"is_disabled":false,"rental_uris":{"android":"levelo://app?vid=f779b611-c10e-4619-9bdb-6b076750df1c","ios":"levelo://app?vid=f779b611-c10e-4619-9bdb-6b076750df1c"},"vehicle_type_id":"4","last_reported":1749665691,"current_range_meters":13600,"station_id":"ce4bhnp2rcd13ifvqgvg","pricing_plan_id":"cebpf4jnsgd1na2vs0mg"},{"bike_id":"a2421370-e442-436f-a98a-844d44299694","system_id":"levelo_inurba_marseille","lat":43.32364,"lon":5.36574,"is_reserved":false,"is_disabled":false,"rental_uris":{"android":"levelo://app?vid=a2421370-e442-436f-a98a-844d44299694","ios":"levelo://app?vid=a2421370-e442-436f-a98a-844d44299694"},"vehicle_type_id":"4","last_reported":1749665691,"current_range_meters":14000,"station_id":"","pricing_plan_id":"cebpf4jnsgd1na2vs0mg"},{"bike_id":"9969b261-5380-4df0-848b-44c60f8c928a","system_id":"levelo_inurba_marseille","lat":43.23196,"lon":5.35558,"is_reserved":false,"is_disabled":false,"rental_uris":{"android":"levelo://app?vid=9969b261-5380-4df0-848b-44c60f8c928a","ios":"levelo://app?vid=9969b261-5380-4df0-848b-44c60f8c928a"},"vehicle_type_id":"4","last_reported":1749665691,"current_range_meters":14000,"station_id":"ce4bhu92rcd13ifvqi70","pricing_plan_id":"cebpf4jnsgd1na2vs0mg"},{"bike_id":"415145f1-bb55-4450-bf61-9880d080936e","system_id":"levelo_inurba_marseille","lat":43.27628,"lon":5.36109,"is_reserved":false,"is_disabled":false,"rental_uris":{"android":"levelo://app?vid=415145f1-bb55-4450-bf61-9880d080936e","ios":"levelo://app?vid=415145f1-bb55-4450-bf61-9880d080936e"},"vehicle_type_id":"4","last_reported":1749665691,"current_range_meters":3600,"station_id":"ce4bgj92rcd13ifvqbe0","pricing_plan_id":"cebpf4jnsgd1na2vs0mg"},{"bike_id":"01b53ea9-5963-4456-ac52-b335e6cee31c","system_id":"levelo_inurba_marseille","lat":43.28425,"lon":5.35003,"is_reserved":false,"is_disabled":false,"rental_uris":{"android":"levelo://app?vid=01b53ea9-5963-4456-ac52-b335e6cee31c","ios":"levelo://app?vid=01b53ea9-5963-4456-ac52-b335e6cee31c"},"vehicle_type_id":"4","last_reported":1749665691,"current_range_meters":14000,"station_id":"ce4bhbh2rcd13ifvqepg","pricing_plan_id":"cebpf4jnsgd1na2vs0mg"},{"bike_id":"2158c3fb-d07f-49f6-9c42-0a6d514718bb","system_id":"levelo_inurba_marseille","lat":43.27378,"lon":5.36257,"is_reserved":false,"is_disabled":false,"rental_uris":{"android":"levelo://app?vid=2158c3fb-d07f-49f6-9c42-0a6d514718bb","ios":"levelo://app?vid=2158c3fb-d07f-49f6-9c42-0a6d514718bb"},"vehicle_type_id":"4","last_reported":1749665691,"current_range_meters":14000,"station_id":"ce4bhbh2rcd13ifvqeo0","pricing_plan_id":"cebpf4jnsgd1na2vs0mg"},{"bike_id":"354a1076-00d7-46ec-830b-28e28e2cb143","system_id":"levelo_inurba_marseille","lat":43.29282,"lon":5.36835,"is_reserved":false,"is_disabled":true,"rental_uris":{"android":"levelo://app?vid=354a1076-00d7-46ec-830b-28e28e2cb143","ios":"levelo://app?vid=354a1076-00d7-46ec-830b-28e28e2cb143"},"vehicle_type_id":"4","last_reported":1749665691,"current_range_meters":14000,"station_id":"ce4bhbp2rcd13ifvqesg","pricing_plan_id":"cebpf4jnsgd1na2vs0mg"},{"bike_id":"e5ff82fd-cc37-4e1f-aade-050998fb0f61","system_id":"levelo_inurba_marseille","lat":43.26254,"lon":5.371,"is_reserved":false,"is_disabled":false,"rental_uris":{"android":"levelo://app?vid=e5ff82fd-cc37-4e1f-aade-050998fb0f61","ios":"levelo://app?vid=e5ff82fd-cc37-4e1f-aade-050998fb0f61"},"vehicle_type_id":"4","last_reported":1749665691,"current_range_meters":14400,"station_id":"","pricing_plan_id":"cebpf4jnsgd1na2vs0mg"},{"bike_id":"e82995bb-753b-4b29-ba32-dff9b65905ff","system_id":"levelo_inurba_marseille","lat":43.28419,"lon":5.34988,"is_reserved":false,"is_disabled":false,"rental_uris":{"android":"levelo://app?vid=e82995bb-753b-4b29-ba32-dff9b65905ff","ios":"levelo://app?vid=e82995bb-753b-4b29-ba32-dff9b65905ff"},"vehicle_type_id":"4","last_reported":1749665691,"current_range_meters":14400,"station_id":"","pricing_plan_id":"cebpf4jnsgd1na2vs0mg"},{"bike_id":"29c1d90d-a36a-4064-8e3f-2023734032d4","system_id":"levelo_inurba_marseille","lat":43.248198,"lon":5.374848,"is_reserved":false,"is_disabled":false,"rental_uris":{"android":"levelo://app?vid=29c1d90d-a36a-4064-8e3f-2023734032d4","ios":"levelo://app?vid=29c1d90d-a36a-4064-8e3f-2023734032d4"},"vehicle_type_id":"4","last_reported":1749665691,"current_range_meters":14800,"station_id":"ce4bhgh2rcd13ifvqfb0","pricing_plan_id":"cebpf4jnsgd1na2vs0mg"},{"bike_id":"130585ff-c51f-4ed4-bf85-74c774cd7297","system_id":"levelo_inurba_marseille","lat":43.27965,"lon":5.38697,"is_reserved":false,"is_disabled":true,"rental_uris":{"android":"levelo://app?vid=130585ff-c51f-4ed4-bf85-74c774cd7297","ios":"levelo://app?vid=130585ff-c51f-4ed4-bf85-74c774cd7297"},"vehicle_type_id":"4","last_reported":1749665691,"current_range_meters":14800,"station_id":"ce4bhg12rcd13ifvqf80","pricing_plan_id":"cebpf4jnsgd1na2vs0mg"},{"bike_id":"91630941-59d2-40ba-aed7-a15a6e4323bd","system_id":"levelo_inurba_marseille","lat":43.23964,"lon":5.36632,"is_reserved":false,"is_disabled":false,"rental_uris":{"android":"levelo://app?vid=91630941-59d2-40ba-aed7-a15a6e4323bd","ios":"levelo://app?vid=91630941-59d2-40ba-aed7-a15a6e4323bd"},"vehicle_type_id":"4","last_reported":1749665691,"current_range_meters":14800,"station_id":"ce4bhi12rcd13ifvqfp0","pricing_plan_id":"cebpf4jnsgd1na2vs0mg"},{"bike_id":"585ee337-f61b-440d-8902-c3e41deb4cb0","system_id":"levelo_inurba_marseille","lat":43.28274,"lon":5.35073,"is_reserved":false,"is_disabled":false,"rental_uris":{"android":"levelo://app?vid=585ee337-f61b-440d-8902-c3e41deb4cb0","ios":"levelo://app?vid=585ee337-f61b-440d-8902-c3e41deb4cb0"},"vehicle_type_id":"4","last_reported":1749665691,"current_range_meters":14800,"station_id":"ce4bhbp2rcd13ifvqerg","pricing_plan_id":"cebpf4jnsgd1na2vs0mg"},{"bike_id":"6dfd5595-654e-42ee-8e58-2a5c3df13ff8","system_id":"levelo_inurba_marseille","lat":43.30922,"lon":5.37243,"is_reserved":false,"is_disabled":false,"rental_uris":{"android":"levelo://app?vid=6dfd5595-654e-42ee-8e58-2a5c3df13ff8","ios":"levelo://app?vid=6dfd5595-654e-42ee-8e58-2a5c3df13ff8"},"vehicle_type_id":"4","last_reported":1749665691,"current_range_meters":15200,"station_id":"","pricing_plan_id":"cebpf4jnsgd1na2vs0mg"},{"bike_id":"0c256cbe-200d-49d3-a817-c104486d20f9","system_id":"levelo_inurba_marseille","lat":43.2321,"lon":5.35552,"is_reserved":false,"is_disabled":false,"rental_uris":{"android":"levelo://app?vid=0c256cbe-200d-49d3-a817-c104486d20f9","ios":"levelo://app?vid=0c256cbe-200d-49d3-a817-c104486d20f9"},"vehicle_type_id":"4","last_reported":1749665691,"current_range_meters":15200,"station_id":"ce4bhu92rcd13ifvqi70","pricing_plan_id":"cebpf4jnsgd1na2vs0mg"},{"bike_id":"54265529-c802-41ea-a434-8efe037aed4d","system_id":"levelo_inurba_marseille","lat":43.284173,"lon":5.349977,"is_reserved":false,"is_disabled":false,"rental_uris":{"android":"levelo://app?vid=54265529-c802-41ea-a434-8efe037aed4d","ios":"levelo://app?vid=54265529-c802-41ea-a434-8efe037aed4d"},"vehicle_type_id":"4","last_reported":1749665691,"current_range_meters":15200,"station_id":"ce4bhbh2rcd13ifvqepg","pricing_plan_id":"cebpf4jnsgd1na2vs0mg"},{"bike_id":"e70c17ea-cf15-4cd8-8ca9-87d54374f23f","system_id":"levelo_inurba_marseille","lat":43.286133,"lon":5.350969,"is_reserved":false,"is_disabled":false,"rental_uris":{"android":"levelo://app?vid=e70c17ea-cf15-4cd8-8ca9-87d54374f23f","ios":"levelo://app?vid=e70c17ea-cf15-4cd8-8ca9-87d54374f23f"},"vehicle_type_id":"4","last_reported":1749665691,"current_range_meters":15200,"station_id":"ce4bhch2rcd13ifvqeug","pricing_plan_id":"cebpf4jnsgd1na2vs0mg"},{"bike_id":"6b096574-7a86-431e-adb1-6c86a9fb9dd0","system_id":"levelo_inurba_marseille","lat":43.269352,"lon":5.402713,"is_reserved":false,"is_disabled":true,"rental_uris":{"android":"levelo://app?vid=6b096574-7a86-431e-adb1-6c86a9fb9dd0","ios":"levelo://app?vid=6b096574-7a86-431e-adb1-6c86a9fb9dd0"},"vehicle_type_id":"4","last_reported":1749665691,"current_range_meters":16000,"station_id":"cjm6bp8fraef2m0cb0m0","pricing_plan_id":"cebpf4jnsgd1na2vs0mg"},{"bike_id":"5683b4ef-6691-46ef-ae92-b517d2a25464","system_id":"levelo_inurba_marseille","lat":43.30607,"lon":5.37224,"is_reserved":false,"is_disabled":false,"rental_uris":{"android":"levelo://app?vid=5683b4ef-6691-46ef-ae92-b517d2a25464","ios":"levelo://app?vid=5683b4ef-6691-46ef-ae92-b517d2a25464"},"vehicle_type_id":"4","last_reported":1749665691,"current_range_meters":16000,"station_id":"ce4bgqh2rcd13ifvqc4g","pricing_plan_id":"cebpf4jnsgd1na2vs0mg"},{"bike_id":"7f6c80d6-b015-4145-8e00-338178446921","system_id":"levelo_inurba_marseille","lat":43.25095,"lon":5.39514,"is_reserved":false,"is_disabled":true,"rental_uris":{"android":"levelo://app?vid=7f6c80d6-b015-4145-8e00-338178446921","ios":"levelo://app?vid=7f6c80d6-b015-4145-8e00-338178446921"},"vehicle_type_id":"4","last_reported":1749665691,"current_range_meters":16000,"station_id":"ce4bhm12rcd13ifvqgkg","pricing_plan_id":"cebpf4jnsgd1na2vs0mg"},{"bike_id":"14cfdb12-5c83-46c4-9917-0cabaec1cf6a","system_id":"levelo_inurba_marseille","lat":43.26503,"lon":5.39537,"is_reserved":false,"is_disabled":false,"rental_uris":{"android":"levelo://app?vid=14cfdb12-5c83-46c4-9917-0cabaec1cf6a","ios":"levelo://app?vid=14cfdb12-5c83-46c4-9917-0cabaec1cf6a"},"vehicle_type_id":"4","last_reported":1749665691,"current_range_meters":16000,"station_id":"ce4bhi12rcd13ifvqfq0","pricing_plan_id":"cebpf4jnsgd1na2vs0mg"},{"bike_id":"ce81f804-a274-484f-a641-28706f036e77","system_id":"levelo_inurba_marseille","lat":43.3172,"lon":5.40632,"is_reserved":false,"is_disabled":false,"rental_uris":{"android":"levelo://app?vid=ce81f804-a274-484f-a641-28706f036e77","ios":"levelo://app?vid=ce81f804-a274-484f-a641-28706f036e77"},"vehicle_type_id":"4","last_reported":1749665691,"current_range_meters":16400,"station_id":"","pricing_plan_id":"cebpf4jnsgd1na2vs0mg"},{"bike_id":"501fe5cc-ec9f-4031-8e12-9c9a87dfd25d","system_id":"levelo_inurba_marseille","lat":43.31801,"lon":5.40562,"is_reserved":false,"is_disabled":false,"rental_uris":{"android":"levelo://app?vid=501fe5cc-ec9f-4031-8e12-9c9a87dfd25d","ios":"levelo://app?vid=501fe5cc-ec9f-4031-8e12-9c9a87dfd25d"},"vehicle_type_id":"4","last_reported":1749665691,"current_range_meters":16000,"station_id":"","pricing_plan_id":"cebpf4jnsgd1na2vs0mg"},{"bike_id":"babba853-c036-477c-9b81-4b1d677ba4b2","system_id":"levelo_inurba_marseille","lat":43.28936,"lon":5.38393,"is_reserved":false,"is_disabled":false,"rental_uris":{"android":"levelo://app?vid=babba853-c036-477c-9b81-4b1d677ba4b2","ios":"levelo://app?vid=babba853-c036-477c-9b81-4b1d677ba4b2"},"vehicle_type_id":"4","last_reported":1749665691,"current_range_meters":16000,"station_id":"ce4bh612rcd13ifvqe6g","pricing_plan_id":"cebpf4jnsgd1na2vs0mg"},{"bike_id":"c8acc72b-5ece-4e56-907d-33af210c0702","system_id":"levelo_inurba_marseille","lat":43.26208,"lon":5.37039,"is_reserved":false,"is_disabled":false,"rental_uris":{"android":"levelo://app?vid=c8acc72b-5ece-4e56-907d-33af210c0702","ios":"levelo://app?vid=c8acc72b-5ece-4e56-907d-33af210c0702"},"vehicle_type_id":"4","last_reported":1749665691,"current_range_meters":16000,"station_id":"","pricing_plan_id":"cebpf4jnsgd1na2vs0mg"},{"bike_id":"048f2f2b-8e86-4fe8-80fa-0a30dafb1ed2","system_id":"levelo_inurba_marseille","lat":43.298596,"lon":5.362928,"is_reserved":false,"is_disabled":false,"rental_uris":{"android":"levelo://app?vid=048f2f2b-8e86-4fe8-80fa-0a30dafb1ed2","ios":"levelo://app?vid=048f2f2b-8e86-4fe8-80fa-0a30dafb1ed2"},"vehicle_type_id":"4","last_reported":1749665691,"current_range_meters":16400,"station_id":"","pricing_plan_id":"cebpf4jnsgd1na2vs0mg"},{"bike_id":"4759e9c6-b81b-4566-9492-c8ff0f8a3efb","system_id":"levelo_inurba_marseille","lat":43.24079,"lon":5.37752,"is_reserved":false,"is_disabled":false,"rental_uris":{"android":"levelo://app?vid=4759e9c6-b81b-4566-9492-c8ff0f8a3efb","ios":"levelo://app?vid=4759e9c6-b81b-4566-9492-c8ff0f8a3efb"},"vehicle_type_id":"4","last_reported":1749665691,"current_range_meters":16400,"station_id":"ce4bhnp2rcd13ifvqgvg","pricing_plan_id":"cebpf4jnsgd1na2vs0mg"},{"bike_id":"47726c16-32a7-4fce-8ffe-fee945293b10","system_id":"levelo_inurba_marseille","lat":43.23066,"lon":5.35489,"is_reserved":false,"is_disabled":false,"rental_uris":{"android":"levelo://app?vid=47726c16-32a7-4fce-8ffe-fee945293b10","ios":"levelo://app?vid=47726c16-32a7-4fce-8ffe-fee945293b10"},"vehicle_type_id":"4","last_reported":1749665691,"current_range_meters":16400,"station_id":"cpo3342slgdg3j2ifvpg","pricing_plan_id":"cebpf4jnsgd1na2vs0mg"},{"bike_id":"59808e72-1866-4f4a-8f11-f6d75ee68c9b","system_id":"levelo_inurba_marseille","lat":43.28412,"lon":5.34999,"is_reserved":false,"is_disabled":false,"rental_uris":{"android":"levelo://app?vid=59808e72-1866-4f4a-8f11-f6d75ee68c9b","ios":"levelo://app?vid=59808e72-1866-4f4a-8f11-f6d75ee68c9b"},"vehicle_type_id":"4","last_reported":1749665691,"current_range_meters":16400,"station_id":"ce4bhbh2rcd13ifvqepg","pricing_plan_id":"cebpf4jnsgd1na2vs0mg"},{"bike_id":"743245d4-5457-49b9-9efc-d95c90d69b8e","system_id":"levelo_inurba_marseille","lat":43.314873,"lon":5.373081,"is_reserved":false,"is_disabled":false,"rental_uris":{"android":"levelo://app?vid=743245d4-5457-49b9-9efc-d95c90d69b8e","ios":"levelo://app?vid=743245d4-5457-49b9-9efc-d95c90d69b8e"},"vehicle_type_id":"4","last_reported":1749665691,"current_range_meters":16400,"station_id":"ce4bhip2rcd13ifvqft0","pricing_plan_id":"cebpf4jnsgd1na2vs0mg"},{"bike_id":"9060af61-a315-427c-a12f-6ce10a0e2466","system_id":"levelo_inurba_marseille","lat":43.23964,"lon":5.36631,"is_reserved":false,"is_disabled":false,"rental_uris":{"android":"levelo://app?vid=9060af61-a315-427c-a12f-6ce10a0e2466","ios":"levelo://app?vid=9060af61-a315-427c-a12f-6ce10a0e2466"},"vehicle_type_id":"4","last_reported":1749665691,"current_range_meters":16400,"station_id":"ce4bhi12rcd13ifvqfp0","pricing_plan_id":"cebpf4jnsgd1na2vs0mg"},{"bike_id":"f359f98e-93c9-4118-94ef-1a2f2766aa54","system_id":"levelo_inurba_marseille","lat":43.29188,"lon":5.35807,"is_reserved":false,"is_disabled":false,"rental_uris":{"android":"levelo://app?vid=f359f98e-93c9-4118-94ef-1a2f2766aa54","ios":"levelo://app?vid=f359f98e-93c9-4118-94ef-1a2f2766aa54"},"vehicle_type_id":"4","last_reported":1749665691,"current_range_meters":16400,"station_id":"ce4bhb12rcd13ifvqel0","pricing_plan_id":"cebpf4jnsgd1na2vs0mg"},{"bike_id":"070958b4-8b1f-4e09-b282-6a07ebbf449f","system_id":"levelo_inurba_marseille","lat":43.28613,"lon":5.37056,"is_reserved":false,"is_disabled":false,"rental_uris":{"android":"levelo://app?vid=070958b4-8b1f-4e09-b282-6a07ebbf449f","ios":"levelo://app?vid=070958b4-8b1f-4e09-b282-6a07ebbf449f"},"vehicle_type_id":"4","last_reported":1749665691,"current_range_meters":16400,"station_id":"ce4bht12rcd13ifvqi60","pricing_plan_id":"cebpf4jnsgd1na2vs0mg"},{"bike_id":"165ecccf-321b-45ee-abfd-553d9801aac0","system_id":"levelo_inurba_marseille","lat":43.29046,"lon":5.35589,"is_reserved":false,"is_disabled":false,"rental_uris":{"android":"levelo://app?vid=165ecccf-321b-45ee-abfd-553d9801aac0","ios":"levelo://app?vid=165ecccf-321b-45ee-abfd-553d9801aac0"},"vehicle_type_id":"4","last_reported":1749665691,"current_range_meters":16400,"station_id":"ce4bhb92rcd13ifvqen0","pricing_plan_id":"cebpf4jnsgd1na2vs0mg"},{"bike_id":"90d37cd4-456e-43a2-b8f5-3a3b7fcdd7ef","system_id":"levelo_inurba_marseille","lat":43.28287,"lon":5.35037,"is_reserved":false,"is_disabled":false,"rental_uris":{"android":"levelo://app?vid=90d37cd4-456e-43a2-b8f5-3a3b7fcdd7ef","ios":"levelo://app?vid=90d37cd4-456e-43a2-b8f5-3a3b7fcdd7ef"},"vehicle_type_id":"4","last_reported":1749665691,"current_range_meters":16400,"station_id":"ce4bhbp2rcd13ifvqerg","pricing_plan_id":"cebpf4jnsgd1na2vs0mg"},{"bike_id":"5f31f3ba-2ab5-4885-884b-7d4a5413e800","system_id":"levelo_inurba_marseille","lat":43.29258,"lon":5.3844,"is_reserved":false,"is_disabled":false,"rental_uris":{"android":"levelo://app?vid=5f31f3ba-2ab5-4885-884b-7d4a5413e800","ios":"levelo://app?vid=5f31f3ba-2ab5-4885-884b-7d4a5413e800"},"vehicle_type_id":"4","last_reported":1749665691,"current_range_meters":16400,"station_id":"ce4bh692rcd13ifvqea0","pricing_plan_id":"cebpf4jnsgd1na2vs0mg"},{"bike_id":"92d53ca1-03c3-4309-8325-40b63541cbab","system_id":"levelo_inurba_marseille","lat":43.25088,"lon":5.39509,"is_reserved":false,"is_disabled":true,"rental_uris":{"android":"levelo://app?vid=92d53ca1-03c3-4309-8325-40b63541cbab","ios":"levelo://app?vid=92d53ca1-03c3-4309-8325-40b63541cbab"},"vehicle_type_id":"4","last_reported":1749665691,"current_range_meters":16400,"station_id":"ce4bhm12rcd13ifvqgkg","pricing_plan_id":"cebpf4jnsgd1na2vs0mg"},{"bike_id":"c35a7b72-17b2-4c5a-a8d5-cfcdda674ff9","system_id":"levelo_inurba_marseille","lat":43.32285,"lon":5.3828,"is_reserved":false,"is_disabled":false,"rental_uris":{"android":"levelo://app?vid=c35a7b72-17b2-4c5a-a8d5-cfcdda674ff9","ios":"levelo://app?vid=c35a7b72-17b2-4c5a-a8d5-cfcdda674ff9"},"vehicle_type_id":"4","last_reported":1749665691,"current_range_meters":16800,"station_id":"ce4bhr12rcd13ifvqhqg","pricing_plan_id":"cebpf4jnsgd1na2vs0mg"},{"bike_id":"9698b734-1824-4753-b399-05a152328687","system_id":"levelo_inurba_marseille","lat":43.2862,"lon":5.35114,"is_reserved":false,"is_disabled":false,"rental_uris":{"android":"levelo://app?vid=9698b734-1824-4753-b399-05a152328687","ios":"levelo://app?vid=9698b734-1824-4753-b399-05a152328687"},"vehicle_type_id":"4","last_reported":1749665691,"current_range_meters":16800,"station_id":"ce4bhch2rcd13ifvqeug","pricing_plan_id":"cebpf4jnsgd1na2vs0mg"},{"bike_id":"c490f832-7a80-4feb-ae6f-a0f394b36395","system_id":"levelo_inurba_marseille","lat":43.26533,"lon":5.38911,"is_reserved":false,"is_disabled":false,"rental_uris":{"android":"levelo://app?vid=c490f832-7a80-4feb-ae6f-a0f394b36395","ios":"levelo://app?vid=c490f832-7a80-4feb-ae6f-a0f394b36395"},"vehicle_type_id":"4","last_reported":1749665691,"current_range_meters":17200,"station_id":"","pricing_plan_id":"cebpf4jnsgd1na2vs0mg"},{"bike_id":"fa9d3429-29fd-4632-aeef-d11bdf618f15","system_id":"levelo_inurba_marseille","lat":43.27909,"lon":5.38013,"is_reserved":false,"is_disabled":false,"rental_uris":{"android":"levelo://app?vid=fa9d3429-29fd-4632-aeef-d11bdf618f15","ios":"levelo://app?vid=fa9d3429-29fd-4632-aeef-d11bdf618f15"},"vehicle_type_id":"4","last_reported":1749665691,"current_range_meters":16800,"station_id":"ce4bhf92rcd13ifvqf50","pricing_plan_id":"cebpf4jnsgd1na2vs0mg"},{"bike_id":"c0bd4251-d527-48a7-9378-e4e80c1c274f","system_id":"levelo_inurba_marseille","lat":43.3183,"lon":5.37357,"is_reserved":false,"is_disabled":false,"rental_uris":{"android":"levelo://app?vid=c0bd4251-d527-48a7-9378-e4e80c1c274f","ios":"levelo://app?vid=c0bd4251-d527-48a7-9378-e4e80c1c274f"},"vehicle_type_id":"4","last_reported":1749665691,"current_range_meters":16800,"station_id":"","pricing_plan_id":"cebpf4jnsgd1na2vs0mg"},{"bike_id":"684fc0e7-8176-4ffc-9fc3-8f2442f25315","system_id":"levelo_inurba_marseille","lat":43.27369,"lon":5.36258,"is_reserved":false,"is_disabled":false,"rental_uris":{"android":"levelo://app?vid=684fc0e7-8176-4ffc-9fc3-8f2442f25315","ios":"levelo://app?vid=684fc0e7-8176-4ffc-9fc3-8f2442f25315"},"vehicle_type_id":"4","last_reported":1749665691,"current_range_meters":16800,"station_id":"ce4bhbh2rcd13ifvqeo0","pricing_plan_id":"cebpf4jnsgd1na2vs0mg"},{"bike_id":"c887d6c2-3132-4ba9-94a5-3fd697b52b4f","system_id":"levelo_inurba_marseille","lat":43.27381,"lon":5.36268,"is_reserved":false,"is_disabled":false,"rental_uris":{"android":"levelo://app?vid=c887d6c2-3132-4ba9-94a5-3fd697b52b4f","ios":"levelo://app?vid=c887d6c2-3132-4ba9-94a5-3fd697b52b4f"},"vehicle_type_id":"4","last_reported":1749665691,"current_range_meters":16800,"station_id":"ce4bhbh2rcd13ifvqeo0","pricing_plan_id":"cebpf4jnsgd1na2vs0mg"},{"bike_id":"2199eb55-a2b4-49df-8eef-e1ab11808884","system_id":"levelo_inurba_marseille","lat":43.24664,"lon":5.38151,"is_reserved":false,"is_disabled":false,"rental_uris":{"android":"levelo://app?vid=2199eb55-a2b4-49df-8eef-e1ab11808884","ios":"levelo://app?vid=2199eb55-a2b4-49df-8eef-e1ab11808884"},"vehicle_type_id":"4","last_reported":1749665691,"current_range_meters":16800,"station_id":"ce4bhih2rcd13ifvqfr0","pricing_plan_id":"cebpf4jnsgd1na2vs0mg"},{"bike_id":"8a8da4f9-230b-470b-9402-856b0f3a5ec1","system_id":"levelo_inurba_marseille","lat":43.26557,"lon":5.37287,"is_reserved":false,"is_disabled":false,"rental_uris":{"android":"levelo://app?vid=8a8da4f9-230b-470b-9402-856b0f3a5ec1","ios":"levelo://app?vid=8a8da4f9-230b-470b-9402-856b0f3a5ec1"},"vehicle_type_id":"4","last_reported":1749665691,"current_range_meters":16800,"station_id":"ce4bhg12rcd13ifvqf70","pricing_plan_id":"cebpf4jnsgd1na2vs0mg"},{"bike_id":"3ff25be8-114d-4660-9143-f2d8aa318046","system_id":"levelo_inurba_marseille","lat":43.28929,"lon":5.38399,"is_reserved":false,"is_disabled":false,"rental_uris":{"android":"levelo://app?vid=3ff25be8-114d-4660-9143-f2d8aa318046","ios":"levelo://app?vid=3ff25be8-114d-4660-9143-f2d8aa318046"},"vehicle_type_id":"4","last_reported":1749665691,"current_range_meters":16800,"station_id":"ce4bh612rcd13ifvqe6g","pricing_plan_id":"cebpf4jnsgd1na2vs0mg"},{"bike_id":"51c9c3d1-050f-47d1-8726-c1814cd19d79","system_id":"levelo_inurba_marseille","lat":43.31269,"lon":5.3888,"is_reserved":false,"is_disabled":false,"rental_uris":{"android":"levelo://app?vid=51c9c3d1-050f-47d1-8726-c1814cd19d79","ios":"levelo://app?vid=51c9c3d1-050f-47d1-8726-c1814cd19d79"},"vehicle_type_id":"4","last_reported":1749665691,"current_range_meters":16800,"station_id":"","pricing_plan_id":"cebpf4jnsgd1na2vs0mg"},{"bike_id":"efcc017e-e99a-4213-b934-aee035c5aeea","system_id":"levelo_inurba_marseille","lat":43.31676,"lon":5.40472,"is_reserved":false,"is_disabled":false,"rental_uris":{"android":"levelo://app?vid=efcc017e-e99a-4213-b934-aee035c5aeea","ios":"levelo://app?vid=efcc017e-e99a-4213-b934-aee035c5aeea"},"vehicle_type_id":"4","last_reported":1749665691,"current_range_meters":17200,"station_id":"ce4bh012rcd13ifvqd00","pricing_plan_id":"cebpf4jnsgd1na2vs0mg"},{"bike_id":"39000b67-ab38-448e-b399-576cb3a70398","system_id":"levelo_inurba_marseille","lat":43.27376,"lon":5.36252,"is_reserved":false,"is_disabled":false,"rental_uris":{"android":"levelo://app?vid=39000b67-ab38-448e-b399-576cb3a70398","ios":"levelo://app?vid=39000b67-ab38-448e-b399-576cb3a70398"},"vehicle_type_id":"4","last_reported":1749665691,"current_range_meters":16800,"station_id":"ce4bhbh2rcd13ifvqeo0","pricing_plan_id":"cebpf4jnsgd1na2vs0mg"},{"bike_id":"4f7080a1-3e83-45a2-8473-bcbf4399bace","system_id":"levelo_inurba_marseille","lat":43.28264,"lon":5.3507,"is_reserved":false,"is_disabled":false,"rental_uris":{"android":"levelo://app?vid=4f7080a1-3e83-45a2-8473-bcbf4399bace","ios":"levelo://app?vid=4f7080a1-3e83-45a2-8473-bcbf4399bace"},"vehicle_type_id":"4","last_reported":1749665691,"current_range_meters":16800,"station_id":"ce4bhbp2rcd13ifvqerg","pricing_plan_id":"cebpf4jnsgd1na2vs0mg"},{"bike_id":"4a1415b9-4d3e-4a1f-9a13-ee95f5eccf6a","system_id":"levelo_inurba_marseille","lat":43.3064,"lon":5.40105,"is_reserved":false,"is_disabled":false,"rental_uris":{"android":"levelo://app?vid=4a1415b9-4d3e-4a1f-9a13-ee95f5eccf6a","ios":"levelo://app?vid=4a1415b9-4d3e-4a1f-9a13-ee95f5eccf6a"},"vehicle_type_id":"4","last_reported":1749665691,"current_range_meters":17200,"station_id":"ce4bh112rcd13ifvqda0","pricing_plan_id":"cebpf4jnsgd1na2vs0mg"},{"bike_id":"682b1228-bbf3-47e4-a483-af01518e10f2","system_id":"levelo_inurba_marseille","lat":43.27379,"lon":5.36254,"is_reserved":false,"is_disabled":false,"rental_uris":{"android":"levelo://app?vid=682b1228-bbf3-47e4-a483-af01518e10f2","ios":"levelo://app?vid=682b1228-bbf3-47e4-a483-af01518e10f2"},"vehicle_type_id":"4","last_reported":1749665691,"current_range_meters":17200,"station_id":"ce4bhbh2rcd13ifvqeo0","pricing_plan_id":"cebpf4jnsgd1na2vs0mg"},{"bike_id":"d665cf93-d005-4a69-ade5-22d2ab25dd5a","system_id":"levelo_inurba_marseille","lat":43.25116,"lon":5.40318,"is_reserved":false,"is_disabled":false,"rental_uris":{"android":"levelo://app?vid=d665cf93-d005-4a69-ade5-22d2ab25dd5a","ios":"levelo://app?vid=d665cf93-d005-4a69-ade5-22d2ab25dd5a"},"vehicle_type_id":"4","last_reported":1749665691,"current_range_meters":17200,"station_id":"ce4bhlh2rcd13ifvqgig","pricing_plan_id":"cebpf4jnsgd1na2vs0mg"},{"bike_id":"696f8e6d-9c7c-4206-bc2a-cb97f8a8efe9","system_id":"levelo_inurba_marseille","lat":43.29002,"lon":5.35624,"is_reserved":false,"is_disabled":false,"rental_uris":{"android":"levelo://app?vid=696f8e6d-9c7c-4206-bc2a-cb97f8a8efe9","ios":"levelo://app?vid=696f8e6d-9c7c-4206-bc2a-cb97f8a8efe9"},"vehicle_type_id":"4","last_reported":1749665691,"current_range_meters":17200,"station_id":"ce4bhb92rcd13ifvqen0","pricing_plan_id":"cebpf4jnsgd1na2vs0mg"},{"bike_id":"22d7b8dd-3364-4def-831e-80cb7aa10445","system_id":"levelo_inurba_marseille","lat":43.29305,"lon":5.37464,"is_reserved":false,"is_disabled":false,"rental_uris":{"android":"levelo://app?vid=22d7b8dd-3364-4def-831e-80cb7aa10445","ios":"levelo://app?vid=22d7b8dd-3364-4def-831e-80cb7aa10445"},"vehicle_type_id":"4","last_reported":1749665691,"current_range_meters":15200,"station_id":"ce4bgi12rcd13ifvqb70","pricing_plan_id":"cebpf4jnsgd1na2vs0mg"},{"bike_id":"34d138c7-e3a8-42a0-9cf7-3f3c860a279a","system_id":"levelo_inurba_marseille","lat":43.29199,"lon":5.35802,"is_reserved":false,"is_disabled":false,"rental_uris":{"android":"levelo://app?vid=34d138c7-e3a8-42a0-9cf7-3f3c860a279a","ios":"levelo://app?vid=34d138c7-e3a8-42a0-9cf7-3f3c860a279a"},"vehicle_type_id":"4","last_reported":1749665691,"current_range_meters":17200,"station_id":"ce4bhb12rcd13ifvqel0","pricing_plan_id":"cebpf4jnsgd1na2vs0mg"},{"bike_id":"ba5c58a5-45e4-46f1-b47d-7d585303f993","system_id":"levelo_inurba_marseille","lat":43.286159,"lon":5.350911,"is_reserved":false,"is_disabled":false,"rental_uris":{"android":"levelo://app?vid=ba5c58a5-45e4-46f1-b47d-7d585303f993","ios":"levelo://app?vid=ba5c58a5-45e4-46f1-b47d-7d585303f993"},"vehicle_type_id":"4","last_reported":1749665691,"current_range_meters":17200,"station_id":"ce4bhch2rcd13ifvqeug","pricing_plan_id":"cebpf4jnsgd1na2vs0mg"},{"bike_id":"c8000429-0d59-4b75-ba4d-1f1a91bd35d8","system_id":"levelo_inurba_marseille","lat":43.29225,"lon":5.36067,"is_reserved":false,"is_disabled":false,"rental_uris":{"android":"levelo://app?vid=c8000429-0d59-4b75-ba4d-1f1a91bd35d8","ios":"levelo://app?vid=c8000429-0d59-4b75-ba4d-1f1a91bd35d8"},"vehicle_type_id":"4","last_reported":1749665691,"current_range_meters":17600,"station_id":"ce4bhbh2rcd13ifvqeqg","pricing_plan_id":"cebpf4jnsgd1na2vs0mg"},{"bike_id":"98ad6e74-f4a8-4df1-a8cb-50864beb3a70","system_id":"levelo_inurba_marseille","lat":43.28415,"lon":5.34995,"is_reserved":false,"is_disabled":false,"rental_uris":{"android":"levelo://app?vid=98ad6e74-f4a8-4df1-a8cb-50864beb3a70","ios":"levelo://app?vid=98ad6e74-f4a8-4df1-a8cb-50864beb3a70"},"vehicle_type_id":"4","last_reported":1749665691,"current_range_meters":17600,"station_id":"ce4bhbh2rcd13ifvqepg","pricing_plan_id":"cebpf4jnsgd1na2vs0mg"},{"bike_id":"82c3bb54-5640-439e-8498-29855a60d478","system_id":"levelo_inurba_marseille","lat":43.29304,"lon":5.37465,"is_reserved":false,"is_disabled":false,"rental_uris":{"android":"levelo://app?vid=82c3bb54-5640-439e-8498-29855a60d478","ios":"levelo://app?vid=82c3bb54-5640-439e-8498-29855a60d478"},"vehicle_type_id":"4","last_reported":1749665691,"current_range_meters":17200,"station_id":"ce4bgi12rcd13ifvqb70","pricing_plan_id":"cebpf4jnsgd1na2vs0mg"},{"bike_id":"89952bdf-8423-4dee-a648-f625ccf1e098","system_id":"levelo_inurba_marseille","lat":43.282784,"lon":5.350737,"is_reserved":false,"is_disabled":false,"rental_uris":{"android":"levelo://app?vid=89952bdf-8423-4dee-a648-f625ccf1e098","ios":"levelo://app?vid=89952bdf-8423-4dee-a648-f625ccf1e098"},"vehicle_type_id":"4","last_reported":1749665691,"current_range_meters":17600,"station_id":"ce4bhbp2rcd13ifvqerg","pricing_plan_id":"cebpf4jnsgd1na2vs0mg"},{"bike_id":"f6c6db7e-ada2-4e77-b451-90ac9adf91e7","system_id":"levelo_inurba_marseille","lat":43.29462,"lon":5.35841,"is_reserved":false,"is_disabled":false,"rental_uris":{"android":"levelo://app?vid=f6c6db7e-ada2-4e77-b451-90ac9adf91e7","ios":"levelo://app?vid=f6c6db7e-ada2-4e77-b451-90ac9adf91e7"},"vehicle_type_id":"4","last_reported":1749665691,"current_range_meters":17600,"station_id":"","pricing_plan_id":"cebpf4jnsgd1na2vs0mg"},{"bike_id":"e0249f4b-8d8b-4dc7-a224-9ea697947c37","system_id":"levelo_inurba_marseille","lat":43.31694,"lon":5.42421,"is_reserved":false,"is_disabled":false,"rental_uris":{"android":"levelo://app?vid=e0249f4b-8d8b-4dc7-a224-9ea697947c37","ios":"levelo://app?vid=e0249f4b-8d8b-4dc7-a224-9ea697947c37"},"vehicle_type_id":"4","last_reported":1749665691,"current_range_meters":17600,"station_id":"ce4bhp92rcd13ifvqhbg","pricing_plan_id":"cebpf4jnsgd1na2vs0mg"},{"bike_id":"be41fbd3-4530-44e6-8582-ac832cb5cfc7","system_id":"levelo_inurba_marseille","lat":43.265588,"lon":5.37282,"is_reserved":false,"is_disabled":false,"rental_uris":{"android":"levelo://app?vid=be41fbd3-4530-44e6-8582-ac832cb5cfc7","ios":"levelo://app?vid=be41fbd3-4530-44e6-8582-ac832cb5cfc7"},"vehicle_type_id":"4","last_reported":1749665691,"current_range_meters":17600,"station_id":"ce4bhg12rcd13ifvqf70","pricing_plan_id":"cebpf4jnsgd1na2vs0mg"},{"bike_id":"0ad40ae1-c24a-42a9-9239-4b3edad3f1c1","system_id":"levelo_inurba_marseille","lat":43.28417,"lon":5.34992,"is_reserved":false,"is_disabled":false,"rental_uris":{"android":"levelo://app?vid=0ad40ae1-c24a-42a9-9239-4b3edad3f1c1","ios":"levelo://app?vid=0ad40ae1-c24a-42a9-9239-4b3edad3f1c1"},"vehicle_type_id":"4","last_reported":1749665691,"current_range_meters":17600,"station_id":"ce4bhbh2rcd13ifvqepg","pricing_plan_id":"cebpf4jnsgd1na2vs0mg"},{"bike_id":"e3f33968-165f-4512-9464-a5ea283faaa3","system_id":"levelo_inurba_marseille","lat":43.29009,"lon":5.35618,"is_reserved":false,"is_disabled":false,"rental_uris":{"android":"levelo://app?vid=e3f33968-165f-4512-9464-a5ea283faaa3","ios":"levelo://app?vid=e3f33968-165f-4512-9464-a5ea283faaa3"},"vehicle_type_id":"4","last_reported":1749665691,"current_range_meters":17600,"station_id":"ce4bhb92rcd13ifvqen0","pricing_plan_id":"cebpf4jnsgd1na2vs0mg"},{"bike_id":"99d836df-cb19-4ee9-9b4b-1fa87d358c27","system_id":"levelo_inurba_marseille","lat":43.24821,"lon":5.37462,"is_reserved":false,"is_disabled":false,"rental_uris":{"android":"levelo://app?vid=99d836df-cb19-4ee9-9b4b-1fa87d358c27","ios":"levelo://app?vid=99d836df-cb19-4ee9-9b4b-1fa87d358c27"},"vehicle_type_id":"4","last_reported":1749665691,"current_range_meters":17600,"station_id":"ce4bhgh2rcd13ifvqfb0","pricing_plan_id":"cebpf4jnsgd1na2vs0mg"},{"bike_id":"6ef6a061-02b0-4773-8192-b4053d4977e0","system_id":"levelo_inurba_marseille","lat":43.31883,"lon":5.40732,"is_reserved":false,"is_disabled":false,"rental_uris":{"android":"levelo://app?vid=6ef6a061-02b0-4773-8192-b4053d4977e0","ios":"levelo://app?vid=6ef6a061-02b0-4773-8192-b4053d4977e0"},"vehicle_type_id":"4","last_reported":1749665691,"current_range_meters":17600,"station_id":"ce4bhq12rcd13ifvqhig","pricing_plan_id":"cebpf4jnsgd1na2vs0mg"},{"bike_id":"8ba15619-aca4-4541-bba1-4aecdf870dee","system_id":"levelo_inurba_marseille","lat":43.28429,"lon":5.3498,"is_reserved":false,"is_disabled":false,"rental_uris":{"android":"levelo://app?vid=8ba15619-aca4-4541-bba1-4aecdf870dee","ios":"levelo://app?vid=8ba15619-aca4-4541-bba1-4aecdf870dee"},"vehicle_type_id":"4","last_reported":1749665691,"current_range_meters":17600,"station_id":"ce4bhbh2rcd13ifvqepg","pricing_plan_id":"cebpf4jnsgd1na2vs0mg"},{"bike_id":"61c65c12-2f66-41c4-bb38-dbd56f58e8e9","system_id":"levelo_inurba_marseille","lat":43.28663,"lon":5.35064,"is_reserved":false,"is_disabled":false,"rental_uris":{"android":"levelo://app?vid=61c65c12-2f66-41c4-bb38-dbd56f58e8e9","ios":"levelo://app?vid=61c65c12-2f66-41c4-bb38-dbd56f58e8e9"},"vehicle_type_id":"4","last_reported":1749665691,"current_range_meters":18000,"station_id":"ce4bhch2rcd13ifvqeug","pricing_plan_id":"cebpf4jnsgd1na2vs0mg"},{"bike_id":"cfcdcdd5-56f7-440f-bc47-5a156f9494ce","system_id":"levelo_inurba_marseille","lat":43.28636,"lon":5.35091,"is_reserved":false,"is_disabled":false,"rental_uris":{"android":"levelo://app?vid=cfcdcdd5-56f7-440f-bc47-5a156f9494ce","ios":"levelo://app?vid=cfcdcdd5-56f7-440f-bc47-5a156f9494ce"},"vehicle_type_id":"4","last_reported":1749665691,"current_range_meters":18000,"station_id":"ce4bhch2rcd13ifvqeug","pricing_plan_id":"cebpf4jnsgd1na2vs0mg"},{"bike_id":"0a75dc7d-907a-4fa8-85e2-bb4ecb952a8d","system_id":"levelo_inurba_marseille","lat":43.28932,"lon":5.38407,"is_reserved":false,"is_disabled":false,"rental_uris":{"android":"levelo://app?vid=0a75dc7d-907a-4fa8-85e2-bb4ecb952a8d","ios":"levelo://app?vid=0a75dc7d-907a-4fa8-85e2-bb4ecb952a8d"},"vehicle_type_id":"4","last_reported":1749665691,"current_range_meters":18000,"station_id":"ce4bh612rcd13ifvqe6g","pricing_plan_id":"cebpf4jnsgd1na2vs0mg"},{"bike_id":"9946dc27-0dd5-4a7b-b3e6-3fa45c5b292c","system_id":"levelo_inurba_marseille","lat":43.3237,"lon":5.38875,"is_reserved":false,"is_disabled":false,"rental_uris":{"android":"levelo://app?vid=9946dc27-0dd5-4a7b-b3e6-3fa45c5b292c","ios":"levelo://app?vid=9946dc27-0dd5-4a7b-b3e6-3fa45c5b292c"},"vehicle_type_id":"4","last_reported":1749665691,"current_range_meters":18000,"station_id":"ce4bhqp2rcd13ifvqhog","pricing_plan_id":"cebpf4jnsgd1na2vs0mg"},{"bike_id":"f2e807f1-3257-4d39-9d72-fcf8029242ea","system_id":"levelo_inurba_marseille","lat":43.25106,"lon":5.4032,"is_reserved":false,"is_disabled":false,"rental_uris":{"android":"levelo://app?vid=f2e807f1-3257-4d39-9d72-fcf8029242ea","ios":"levelo://app?vid=f2e807f1-3257-4d39-9d72-fcf8029242ea"},"vehicle_type_id":"4","last_reported":1749665691,"current_range_meters":18000,"station_id":"ce4bhlh2rcd13ifvqgig","pricing_plan_id":"cebpf4jnsgd1na2vs0mg"},{"bike_id":"1a8eae12-3d3f-43e7-a3f2-a67cc36bf51a","system_id":"levelo_inurba_marseille","lat":43.24168,"lon":5.36394,"is_reserved":false,"is_disabled":false,"rental_uris":{"android":"levelo://app?vid=1a8eae12-3d3f-43e7-a3f2-a67cc36bf51a","ios":"levelo://app?vid=1a8eae12-3d3f-43e7-a3f2-a67cc36bf51a"},"vehicle_type_id":"4","last_reported":1749665691,"current_range_meters":18800,"station_id":"cpo36qri1sfpv3e86is0","pricing_plan_id":"cebpf4jnsgd1na2vs0mg"},{"bike_id":"fe1e32b8-83e9-4115-a06f-265f5d02163c","system_id":"levelo_inurba_marseille","lat":43.3042,"lon":5.41282,"is_reserved":false,"is_disabled":false,"rental_uris":{"android":"levelo://app?vid=fe1e32b8-83e9-4115-a06f-265f5d02163c","ios":"levelo://app?vid=fe1e32b8-83e9-4115-a06f-265f5d02163c"},"vehicle_type_id":"4","last_reported":1749665691,"current_range_meters":18000,"station_id":"ce4bhop2rcd13ifvqh8g","pricing_plan_id":"cebpf4jnsgd1na2vs0mg"},{"bike_id":"0b33822a-9a7c-43fc-b0a6-08c1c01b6e6b","system_id":"levelo_inurba_marseille","lat":43.22931,"lon":5.35373,"is_reserved":false,"is_disabled":false,"rental_uris":{"android":"levelo://app?vid=0b33822a-9a7c-43fc-b0a6-08c1c01b6e6b","ios":"levelo://app?vid=0b33822a-9a7c-43fc-b0a6-08c1c01b6e6b"},"vehicle_type_id":"4","last_reported":1749665691,"current_range_meters":18000,"station_id":"cpo3532slgdg3j2ikp40","pricing_plan_id":"cebpf4jnsgd1na2vs0mg"},{"bike_id":"4233a165-29d2-405a-ab27-afef550244c5","system_id":"levelo_inurba_marseille","lat":43.24693,"lon":5.38119,"is_reserved":false,"is_disabled":true,"rental_uris":{"android":"levelo://app?vid=4233a165-29d2-405a-ab27-afef550244c5","ios":"levelo://app?vid=4233a165-29d2-405a-ab27-afef550244c5"},"vehicle_type_id":"4","last_reported":1749665691,"current_range_meters":18000,"station_id":"ce4bhih2rcd13ifvqfr0","pricing_plan_id":"cebpf4jnsgd1na2vs0mg"},{"bike_id":"1aa334d5-afac-4a12-9507-575bce360cf8","system_id":"levelo_inurba_marseille","lat":43.28615,"lon":5.3512,"is_reserved":false,"is_disabled":false,"rental_uris":{"android":"levelo://app?vid=1aa334d5-afac-4a12-9507-575bce360cf8","ios":"levelo://app?vid=1aa334d5-afac-4a12-9507-575bce360cf8"},"vehicle_type_id":"4","last_reported":1749665691,"current_range_meters":18000,"station_id":"ce4bhch2rcd13ifvqeug","pricing_plan_id":"cebpf4jnsgd1na2vs0mg"},