{"last_updated":1753441807,"ttl":60,"version":"2.2","data":{"bikes":[{"bike_id":"f9914526-a1eb-4e2f-afd9-2041d678d30e","system_id":"levelo_inurba_marseille","lat":43.28853,"lon":5.35858,"is_reserved":false,"is_disabled":false,"rental_uris":{"android":"levelo://app?vid=f9914526-a1eb-4e2f-afd9-2041d678d30e","ios":"levelo://app?vid=f9914526-a1eb-4e2f-afd9-2041d678d30e"},"vehicle_type_id":"4","last_reported":1753441808,"current_range_meters":3200,"station_id":"ce4bhb12rcd13ifvqem0","pricing_plan_id":"cebpf4jnsgd1na2vs0mg"},{"bike_id":"2bf6bffe-b207-4557-83a8-5416ffb85e3b","system_id":"levelo_inurba_marseille","lat":43.297752,"lon":5.371104,"is_reserved":false,"is_disabled":false,"rental_uris":{"android":"levelo://app?vid=2bf6bffe-b207-4557-83a8-5416ffb85e3b","ios":"levelo://app?vid=2bf6bffe-b207-4557-83a8-5416ffb85e3b"},"vehicle_type_id":"4","last_reported":1753441808,"current_range_meters":3600,"station_id":"","pricing_plan_id":"cebpf4jnsgd1na2vs0mg"},{"bike_id":"4350cc43-cb63-4955-b38b-b50781445586","system_id":"levelo_inurba_marseille","lat":43.29278,"lon":5.36845,"is_reserved":false,"is_disabled":false,"rental_uris":{"android":"levelo://app?vid=4350cc43-cb63-4955-b38b-b50781445586","ios":"levelo://app?vid=4350cc43-cb63-4955-b38b-b50781445586"},"vehicle_type_id":"4","last_reported":1753441808,"current_range_meters":3600,"station_id":"ce4bhbp2rcd13ifvqesg","pricing_plan_id":"cebpf4jnsgd1na2vs0mg"},{"bike_id":"e54162f4-6885-44bd-8825-fe01fbca37f1","system_id":"levelo_inurba_marseille","lat":43.29528,"lon":5.39026,"is_reserved":false,"is_disabled":false,"rental_uris":{"android":"levelo://app?vid=e54162f4-6885-44bd-8825-fe01fbca37f1","ios":"levelo://app?vid=e54162f4-6885-44bd-8825-fe01fbca37f1"},"vehicle_type_id":"4","last_reported":1753441808,"current_range_meters":4000,"station_id":"ce4bh3p2rcd13ifvqdp0","pricing_plan_id":"cebpf4jnsgd1na2vs0mg"},{"bike_id":"bc60b78d-8abc-4f2b-a19a-e4fa8371e731","system_id":"levelo_inurba_marseille","lat":43.31213,"lon":5.36844,"is_reserved":false,"is_disabled":false,"rental_uris":{"android":"levelo://app?vid=bc60b78d-8abc-4f2b-a19a-e4fa8371e731","ios":"levelo://app?vid=bc60b78d-8abc-4f2b-a19a-e4fa8371e731"},"vehicle_type_id":"4","last_reported":1753441808,"current_range_meters":4400,"station_id":"ce4bgl92rcd13ifvqbq0","pricing_plan_id":"cebpf4jnsgd1na2vs0mg"},{"bike_id":"51c630bd-a0bd-4c33-8d8b-574c765ff60b","system_id":"levelo_inurba_marseille","lat":43.22928,"lon":5.35372,"is_reserved":false,"is_disabled":false,"rental_uris":{"android":"levelo://app?vid=51c630bd-a0bd-4c33-8d8b-574c765ff60b","ios":"levelo://app?vid=51c630bd-a0bd-4c33-8d8b-574c765ff60b"},"vehicle_type_id":"4","last_reported":1753441808,"current_range_meters":4400,"station_id":"cpo3532slgdg3j2ikp40","pricing_plan_id":"cebpf4jnsgd1na2vs0mg"},{"bike_id":"ad58b4ab-8268-4a41-b9ad-3eab7d484388","system_id":"levelo_inurba_marseille","lat":43.27997,"lon":5.41668,"is_reserved":false,"is_disabled":false,"rental_uris":{"android":"levelo://app?vid=ad58b4ab-8268-4a41-b9ad-3eab7d484388","ios":"levelo://app?vid=ad58b4ab-8268-4a41-b9ad-3eab7d484388"},"vehicle_type_id":"4","last_reported":1753441808,"current_range_meters":4800,"station_id":"ce4bho12rcd13ifvqh1g","pricing_plan_id":"cebpf4jnsgd1na2vs0mg"},{"bike_id":"fe65d7d6-638d-40a5-bccf-533e7cf482a6","system_id":"levelo_inurba_marseille","lat":43.283541,"lon":5.432621,"is_reserved":false,"is_disabled":false,"rental_uris":{"android":"levelo://app?vid=fe65d7d6-638d-40a5-bccf-533e7cf482a6","ios":"levelo://app?vid=fe65d7d6-638d-40a5-bccf-533e7cf482a6"},"vehicle_type_id":"4","last_reported":1753441808,"current_range_meters":4800,"station_id":"","pricing_plan_id":"cebpf4jnsgd1na2vs0mg"},{"bike_id":"3bd255cc-1ce5-4943-a9cd-3102d86cb512","system_id":"levelo_inurba_marseille","lat":43.29527,"lon":5.38543,"is_reserved":false,"is_disabled":false,"rental_uris":{"android":"levelo://app?vid=3bd255cc-1ce5-4943-a9cd-3102d86cb512","ios":"levelo://app?vid=3bd255cc-1ce5-4943-a9cd-3102d86cb512"},"vehicle_type_id":"4","last_reported":1753441808,"current_range_meters":4800,"station_id":"ce4bgih2rcd13ifvqba0","pricing_plan_id":"cebpf4jnsgd1na2vs0mg"},{"bike_id":"9e1bfdb2-3095-47ff-8851-514d564528a5","system_id":"levelo_inurba_marseille","lat":43.28723,"lon":5.36085,"is_reserved":false,"is_disabled":false,"rental_uris":{"android":"levelo://app?vid=9e1bfdb2-3095-47ff-8851-514d564528a5","ios":"levelo://app?vid=9e1bfdb2-3095-47ff-8851-514d564528a5"},"vehicle_type_id":"4","last_reported":1753441808,"current_range_meters":5600,"station_id":"cki0cbj6b192h4jlfktg","pricing_plan_id":"cebpf4jnsgd1na2vs0mg"},{"bike_id":"071a5e5d-4559-4712-821d-9a03110aa983","system_id":"levelo_inurba_marseille","lat":43.28573,"lon":5.39497,"is_reserved":false,"is_disabled":false,"rental_uris":{"android":"levelo://app?vid=071a5e5d-4559-4712-821d-9a03110aa983","ios":"levelo://app?vid=071a5e5d-4559-4712-821d-9a03110aa983"},"vehicle_type_id":"4","last_reported":1753441808,"current_range_meters":6000,"station_id":"ce4bh292rcd13ifvqdg0","pricing_plan_id":"cebpf4jnsgd1na2vs0mg"},{"bike_id":"51f000ed-2061-44c0-b4bd-d3b168720b47","system_id":"levelo_inurba_marseille","lat":43.297095,"lon":5.366102,"is_reserved":false,"is_disabled":false,"rental_uris":{"android":"levelo://app?vid=51f000ed-2061-44c0-b4bd-d3b168720b47","ios":"levelo://app?vid=51f000ed-2061-44c0-b4bd-d3b168720b47"},"vehicle_type_id":"4","last_reported":1753441808,"current_range_meters":6400,"station_id":"ce4bgn12rcd13ifvqbt0","pricing_plan_id":"cebpf4jnsgd1na2vs0mg"},{"bike_id":"3d2c477c-5d5a-462a-bca4-9ef7e700b608","system_id":"levelo_inurba_marseille","lat":43.28278,"lon":5.35081,"is_reserved":false,"is_disabled":false,"rental_uris":{"android":"levelo://app?vid=3d2c477c-5d5a-462a-bca4-9ef7e700b608","ios":"levelo://app?vid=3d2c477c-5d5a-462a-bca4-9ef7e700b608"},"vehicle_type_id":"4","last_reported":1753441808,"current_range_meters":6400,"station_id":"ce4bhbp2rcd13ifvqerg","pricing_plan_id":"cebpf4jnsgd1na2vs0mg"},{"bike_id":"498811e0-d4f2-4b18-bcf7-e8a8f6afe8fe","system_id":"levelo_inurba_marseille","lat":43.28082,"lon":5.3966,"is_reserved":false,"is_disabled":false,"rental_uris":{"android":"levelo://app?vid=498811e0-d4f2-4b18-bcf7-e8a8f6afe8fe","ios":"levelo://app?vid=498811e0-d4f2-4b18-bcf7-e8a8f6afe8fe"},"vehicle_type_id":"4","last_reported":1753441808,"current_range_meters":6000,"station_id":"ce4bho12rcd13ifvqh2g","pricing_plan_id":"cebpf4jnsgd1na2vs0mg"},{"bike_id":"6d050b87-7860-415d-9eab-06f83df41665","system_id":"levelo_inurba_marseille","lat":43.29625,"lon":5.37176,"is_reserved":false,"is_disabled":false,"rental_uris":{"android":"levelo://app?vid=6d050b87-7860-415d-9eab-06f83df41665","ios":"levelo://app?vid=6d050b87-7860-415d-9eab-06f83df41665"},"vehicle_type_id":"4","last_reported":1753441808,"current_range_meters":6400,"station_id":"ce4bgnh2rcd13ifvqc0g","pricing_plan_id":"cebpf4jnsgd1na2vs0mg"},{"bike_id":"85b1ffd2-5fc3-4703-bf38-c866c7677b84","system_id":"levelo_inurba_marseille","lat":43.27958,"lon":5.39044,"is_reserved":false,"is_disabled":false,"rental_uris":{"android":"levelo://app?vid=85b1ffd2-5fc3-4703-bf38-c866c7677b84","ios":"levelo://app?vid=85b1ffd2-5fc3-4703-bf38-c866c7677b84"},"vehicle_type_id":"4","last_reported":1753441808,"current_range_meters":6800,"station_id":"ce4bhbh2rcd13ifvqepg","pricing_plan_id":"cebpf4jnsgd1na2vs0mg"},{"bike_id":"d62fa972-cf10-438d-898e-a03e121f6ffa","system_id":"levelo_inurba_marseille","lat":43.291721,"lon":5.408198,"is_reserved":false,"is_disabled":false,"rental_uris":{"android":"levelo://app?vid=d62fa972-cf10-438d-898e-a03e121f6ffa","ios":"levelo://app?vid=d62fa972-cf10-438d-898e-a03e121f6ffa"},"vehicle_type_id":"4","last_reported":1753441808,"current_range_meters":6800,"station_id":"","pricing_plan_id":"cebpf4jnsgd1na2vs0mg"},{"bike_id":"b965f139-7d9a-4ba2-8043-df518b2aa464","system_id":"levelo_inurba_marseille","lat":43.3064,"lon":5.40099,"is_reserved":false,"is_disabled":false,"rental_uris":{"android":"levelo://app?vid=b965f139-7d9a-4ba2-8043-df518b2aa464","ios":"levelo://app?vid=b965f139-7d9a-4ba2-8043-df518b2aa464"},"vehicle_type_id":"4","last_reported":1753441808,"current_range_meters":6800,"station_id":"ce4bh112rcd13ifvqda0","pricing_plan_id":"cebpf4jnsgd1na2vs0mg"},{"bike_id":"c50991e6-8cf4-4824-9083-a498082ec089","system_id":"levelo_inurba_marseille","lat":43.312382,"lon":5.368752,"is_reserved":false,"is_disabled":false,"rental_uris":{"android":"levelo://app?vid=c50991e6-8cf4-4824-9083-a498082ec089","ios":"levelo://app?vid=c50991e6-8cf4-4824-9083-a498082ec089"},"vehicle_type_id":"4","last_reported":1753441808,"current_range_meters":6400,"station_id":"ce4bgl92rcd13ifvqbq0","pricing_plan_id":"cebpf4jnsgd1na2vs0mg"},{"bike_id":"6d9876ee-8c88-44e9-b467-5399947068a5","system_id":"levelo_inurba_marseille","lat":43.32477,"lon":5.36606,"is_reserved":false,"is_disabled":false,"rental_uris":{"android":"levelo://app?vid=6d9876ee-8c88-44e9-b467-5399947068a5","ios":"levelo://app?vid=6d9876ee-8c88-44e9-b467-5399947068a5"},"vehicle_type_id":"4","last_reported":1753441808,"current_range_meters":6800,"station_id":"ce4bhs12rcd13ifvqhvg","pricing_plan_id":"cebpf4jnsgd1na2vs0mg"},{"bike_id":"620a6051-2e72-4b92-80e4-e5d1b042fe07","system_id":"levelo_inurba_marseille","lat":43.27667,"lon":5.38884,"is_reserved":false,"is_disabled":false,"rental_uris":{"android":"levelo://app?vid=620a6051-2e72-4b92-80e4-e5d1b042fe07","ios":"levelo://app?vid=620a6051-2e72-4b92-80e4-e5d1b042fe07"},"vehicle_type_id":"4","last_reported":1753441808,"current_range_meters":6800,"station_id":"ce4bhi12rcd13ifvqfo0","pricing_plan_id":"cebpf4jnsgd1na2vs0mg"},{"bike_id":"4e5a4822-2f02-4c2b-9d17-2debc17b05a9","system_id":"levelo_inurba_marseille","lat":43.30292,"lon":5.39222,"is_reserved":false,"is_disabled":false,"rental_uris":{"android":"levelo://app?vid=4e5a4822-2f02-4c2b-9d17-2debc17b05a9","ios":"levelo://app?vid=4e5a4822-2f02-4c2b-9d17-2debc17b05a9"},"vehicle_type_id":"4","last_reported":1753441808,"current_range_meters":6800,"station_id":"ce4bgkh2rcd13ifvqbk0","pricing_plan_id":"cebpf4jnsgd1na2vs0mg"},{"bike_id":"2937f6cf-27e3-444b-80a2-fa5fde1689d0","system_id":"levelo_inurba_marseille","lat":43.28741,"lon":5.38504,"is_reserved":false,"is_disabled":false,"rental_uris":{"android":"levelo://app?vid=2937f6cf-27e3-444b-80a2-fa5fde1689d0","ios":"levelo://app?vid=2937f6cf-27e3-444b-80a2-fa5fde1689d0"},"vehicle_type_id":"4","last_reported":1753441808,"current_range_meters":7200,"station_id":"","pricing_plan_id":"cebpf4jnsgd1na2vs0mg"},{"bike_id":"e19cd9bd-8f1f-4909-a624-5af678243303","system_id":"levelo_inurba_marseille","lat":43.29045,"lon":5.39909,"is_reserved":false,"is_disabled":false,"rental_uris":{"android":"levelo://app?vid=e19cd9bd-8f1f-4909-a624-5af678243303","ios":"levelo://app?vid=e19cd9bd-8f1f-4909-a624-5af678243303"},"vehicle_type_id":"4","last_reported":1753441808,"current_range_meters":8000,"station_id":"ce4bh392rcd13ifvqdm0","pricing_plan_id":"cebpf4jnsgd1na2vs0mg"},{"bike_id":"d87b56f9-aec8-4c18-8340-d7aba9319bde","system_id":"levelo_inurba_marseille","lat":43.27513,"lon":5.39653,"is_reserved":false,"is_disabled":false,"rental_uris":{"android":"levelo://app?vid=d87b56f9-aec8-4c18-8340-d7aba9319bde","ios":"levelo://app?vid=d87b56f9-aec8-4c18-8340-d7aba9319bde"},"vehicle_type_id":"4","last_reported":1753441808,"current_range_meters":8000,"station_id":"","pricing_plan_id":"cebpf4jnsgd1na2vs0mg"},{"bike_id":"abecaf0c-e031-4a9b-a6b6-69d67d74c125","system_id":"levelo_inurba_marseille","lat":43.28562,"lon":5.37788,"is_reserved":false,"is_disabled":false,"rental_uris":{"android":"levelo://app?vid=abecaf0c-e031-4a9b-a6b6-69d67d74c125","ios":"levelo://app?vid=abecaf0c-e031-4a9b-a6b6-69d67d74c125"},"vehicle_type_id":"4","last_reported":1753441808,"current_range_meters":8000,"station_id":"","pricing_plan_id":"cebpf4jnsgd1na2vs0mg"},{"bike_id":"30f9b0d2-2449-4b10-b700-247e48d9e2fd","system_id":"levelo_inurba_marseille","lat":43.3248,"lon":5.3658,"is_reserved":false,"is_disabled":false,"rental_uris":{"android":"levelo://app?vid=30f9b0d2-2449-4b10-b700-247e48d9e2fd","ios":"levelo://app?vid=30f9b0d2-2449-4b10-b700-247e48d9e2fd"},"vehicle_type_id":"4","last_reported":1753441808,"current_range_meters":8400,"station_id":"ce4bhs12rcd13ifvqhvg","pricing_plan_id":"cebpf4jnsgd1na2vs0mg"},{"bike_id":"3514c8da-4498-4c8c-8658-74f481402920","system_id":"levelo_inurba_marseille","lat":43.28371,"lon":5.38652,"is_reserved":false,"is_disabled":false,"rental_uris":{"android":"levelo://app?vid=3514c8da-4498-4c8c-8658-74f481402920","ios":"levelo://app?vid=3514c8da-4498-4c8c-8658-74f481402920"},"vehicle_type_id":"4","last_reported":1753441808,"current_range_meters":8000,"station_id":"ce4bh492rcd13ifvqdvg","pricing_plan_id":"cebpf4jnsgd1na2vs0mg"},{"bike_id":"3843a00f-81d8-45fd-a52a-64868b9c8532","system_id":"levelo_inurba_marseille","lat":43.29785,"lon":5.37727,"is_reserved":false,"is_disabled":true,"rental_uris":{"android":"levelo://app?vid=3843a00f-81d8-45fd-a52a-64868b9c8532","ios":"levelo://app?vid=3843a00f-81d8-45fd-a52a-64868b9c8532"},"vehicle_type_id":"4","last_reported":1753441808,"current_range_meters":8400,"station_id":"","pricing_plan_id":"cebpf4jnsgd1na2vs0mg"},{"bike_id":"fd4ba70a-7bfa-434e-8564-04bf25cc9f63","system_id":"levelo_inurba_marseille","lat":43.28111,"lon":5.44113,"is_reserved":false,"is_disabled":false,"rental_uris":{"android":"levelo://app?vid=fd4ba70a-7bfa-434e-8564-04bf25cc9f63","ios":"levelo://app?vid=fd4ba70a-7bfa-434e-8564-04bf25cc9f63"},"vehicle_type_id":"4","last_reported":1753441808,"current_range_meters":8400,"station_id":"","pricing_plan_id":"cebpf4jnsgd1na2vs0mg"},{"bike_id":"b577cc42-568d-4f68-9c34-cc2b74c7ff07","system_id":"levelo_inurba_marseille","lat":43.29599,"lon":5.381,"is_reserved":false,"is_disabled":false,"rental_uris":{"android":"levelo://app?vid=b577cc42-568d-4f68-9c34-cc2b74c7ff07","ios":"levelo://app?vid=b577cc42-568d-4f68-9c34-cc2b74c7ff07"},"vehicle_type_id":"4","last_reported":1753441808,"current_range_meters":8800,"station_id":"ce4bgl12rcd13ifvqbo0","pricing_plan_id":"cebpf4jnsgd1na2vs0mg"},{"bike_id":"2e8e7fa4-47bc-4567-b903-96abfb4fdf66","system_id":"levelo_inurba_marseille","lat":43.29255,"lon":5.44594,"is_reserved":false,"is_disabled":false,"rental_uris":{"android":"levelo://app?vid=2e8e7fa4-47bc-4567-b903-96abfb4fdf66","ios":"levelo://app?vid=2e8e7fa4-47bc-4567-b903-96abfb4fdf66"},"vehicle_type_id":"4","last_reported":1753441808,"current_range_meters":8800,"station_id":"","pricing_plan_id":"cebpf4jnsgd1na2vs0mg"},{"bike_id":"d6b834d9-5f4f-445c-9a8d-5ea38c349287","system_id":"levelo_inurba_marseille","lat":43.22513,"lon":5.34772,"is_reserved":false,"is_disabled":false,"rental_uris":{"android":"levelo://app?vid=d6b834d9-5f4f-445c-9a8d-5ea38c349287","ios":"levelo://app?vid=d6b834d9-5f4f-445c-9a8d-5ea38c349287"},"vehicle_type_id":"4","last_reported":1753441808,"current_range_meters":8800,"station_id":"st_cvj5dfep6f1abm77gieg","pricing_plan_id":"cebpf4jnsgd1na2vs0mg"},{"bike_id":"bcfeb788-eed8-4a22-9566-78b3af0fa09b","system_id":"levelo_inurba_marseille","lat":43.29909,"lon":5.37578,"is_reserved":false,"is_disabled":false,"rental_uris":{"android":"levelo://app?vid=bcfeb788-eed8-4a22-9566-78b3af0fa09b","ios":"levelo://app?vid=bcfeb788-eed8-4a22-9566-78b3af0fa09b"},"vehicle_type_id":"4","last_reported":1753441808,"current_range_meters":8800,"station_id":"","pricing_plan_id":"cebpf4jnsgd1na2vs0mg"},{"bike_id":"b93c0803-f824-4cb7-a4ed-57da1403b68e","system_id":"levelo_inurba_marseille","lat":43.325583,"lon":5.379059,"is_reserved":false,"is_disabled":false,"rental_uris":{"android":"levelo://app?vid=b93c0803-f824-4cb7-a4ed-57da1403b68e","ios":"levelo://app?vid=b93c0803-f824-4cb7-a4ed-57da1403b68e"},"vehicle_type_id":"4","last_reported":1753441808,"current_range_meters":8800,"station_id":"","pricing_plan_id":"cebpf4jnsgd1na2vs0mg"},{"bike_id":"a453f505-44d4-4522-b6b8-527c0ce84e16","system_id":"levelo_inurba_marseille","lat":43.29976,"lon":5.37186,"is_reserved":false,"is_disabled":false,"rental_uris":{"android":"levelo://app?vid=a453f505-44d4-4522-b6b8-527c0ce84e16","ios":"levelo://app?vid=a453f505-44d4-4522-b6b8-527c0ce84e16"},"vehicle_type_id":"4","last_reported":1753441808,"current_range_meters":8400,"station_id":"ce4bgr92rcd13ifvqc7g","pricing_plan_id":"cebpf4jnsgd1na2vs0mg"},{"bike_id":"bf4be75e-38d8-46de-89ec-8a7c4f824f09","system_id":"levelo_inurba_marseille","lat":43.33254,"lon":5.41984,"is_reserved":false,"is_disabled":false,"rental_uris":{"android":"levelo://app?vid=bf4be75e-38d8-46de-89ec-8a7c4f824f09","ios":"levelo://app?vid=bf4be75e-38d8-46de-89ec-8a7c4f824f09"},"vehicle_type_id":"4","last_reported":1753441808,"current_range_meters":9200,"station_id":"","pricing_plan_id":"cebpf4jnsgd1na2vs0mg"},{"bike_id":"eb8e0d21-c80f-4f67-9958-59003144b387","system_id":"levelo_inurba_marseille","lat":43.30891,"lon":5.37195,"is_reserved":false,"is_disabled":false,"rental_uris":{"android":"levelo://app?vid=eb8e0d21-c80f-4f67-9958-59003144b387","ios":"levelo://app?vid=eb8e0d21-c80f-4f67-9958-59003144b387"},"vehicle_type_id":"4","last_reported":1753441808,"current_range_meters":8800,"station_id":"ce4bguh2rcd13ifvqckg","pricing_plan_id":"cebpf4jnsgd1na2vs0mg"},{"bike_id":"11608c42-4fe5-4f9c-81ba-a4c92922d5e4","system_id":"levelo_inurba_marseille","lat":43.248038,"lon":5.374557,"is_reserved":false,"is_disabled":false,"rental_uris":{"android":"levelo://app?vid=11608c42-4fe5-4f9c-81ba-a4c92922d5e4","ios":"levelo://app?vid=11608c42-4fe5-4f9c-81ba-a4c92922d5e4"},"vehicle_type_id":"4","last_reported":1753441808,"current_range_meters":9200,"station_id":"ce4bhgh2rcd13ifvqfb0","pricing_plan_id":"cebpf4jnsgd1na2vs0mg"},{"bike_id":"f28d2bb9-4217-4196-a573-ba6f4c172497","system_id":"levelo_inurba_marseille","lat":43.281571,"lon":5.361077,"is_reserved":false,"is_disabled":false,"rental_uris":{"android":"levelo://app?vid=f28d2bb9-4217-4196-a573-ba6f4c172497","ios":"levelo://app?vid=f28d2bb9-4217-4196-a573-ba6f4c172497"},"vehicle_type_id":"4","last_reported":1753441808,"current_range_meters":9200,"station_id":"","pricing_plan_id":"cebpf4jnsgd1na2vs0mg"},{"bike_id":"79079a9a-8322-4f6c-a9e6-9aba90ee17ba","system_id":"levelo_inurba_marseille","lat":43.33762,"lon":5.37439,"is_reserved":false,"is_disabled":false,"rental_uris":{"android":"levelo://app?vid=79079a9a-8322-4f6c-a9e6-9aba90ee17ba","ios":"levelo://app?vid=79079a9a-8322-4f6c-a9e6-9aba90ee17ba"},"vehicle_type_id":"4","last_reported":1753441808,"current_range_meters":9600,"station_id":"","pricing_plan_id":"cebpf4jnsgd1na2vs0mg"},{"bike_id":"8b4754c4-27b2-481d-9716-bece0d90a431","system_id":"levelo_inurba_marseille","lat":43.32347,"lon":5.40622,"is_reserved":false,"is_disabled":false,"rental_uris":{"android":"levelo://app?vid=8b4754c4-27b2-481d-9716-bece0d90a431","ios":"levelo://app?vid=8b4754c4-27b2-481d-9716-bece0d90a431"},"vehicle_type_id":"4","last_reported":1753441808,"current_range_meters":10000,"station_id":"ce4bhq92rcd13ifvqhjg","pricing_plan_id":"cebpf4jnsgd1na2vs0mg"},{"bike_id":"d0c215a6-c5cf-4e8d-aad6-14a066581ee4","system_id":"levelo_inurba_marseille","lat":43.2969,"lon":5.36603,"is_reserved":false,"is_disabled":false,"rental_uris":{"android":"levelo://app?vid=d0c215a6-c5cf-4e8d-aad6-14a066581ee4","ios":"levelo://app?vid=d0c215a6-c5cf-4e8d-aad6-14a066581ee4"},"vehicle_type_id":"4","last_reported":1753441808,"current_range_meters":10800,"station_id":"ce4bgn12rcd13ifvqbt0","pricing_plan_id":"cebpf4jnsgd1na2vs0mg"},{"bike_id":"e26a1de4-262f-438a-af34-d58d6346d215","system_id":"levelo_inurba_marseille","lat":43.29588,"lon":5.36739,"is_reserved":false,"is_disabled":false,"rental_uris":{"android":"levelo://app?vid=e26a1de4-262f-438a-af34-d58d6346d215","ios":"levelo://app?vid=e26a1de4-262f-438a-af34-d58d6346d215"},"vehicle_type_id":"4","last_reported":1753441808,"current_range_meters":10800,"station_id":"ce4bgph2rcd13ifvqc2g","pricing_plan_id":"cebpf4jnsgd1na2vs0mg"},{"bike_id":"a1676a90-aeae-4e28-8472-3e88e730a66f","system_id":"levelo_inurba_marseille","lat":43.290228,"lon":5.439933,"is_reserved":false,"is_disabled":false,"rental_uris":{"android":"levelo://app?vid=a1676a90-aeae-4e28-8472-3e88e730a66f","ios":"levelo://app?vid=a1676a90-aeae-4e28-8472-3e88e730a66f"},"vehicle_type_id":"4","last_reported":1753441808,"current_range_meters":11200,"station_id":"","pricing_plan_id":"cebpf4jnsgd1na2vs0mg"},{"bike_id":"5b94eff9-2e0f-4c0e-b3f6-ab7ca2eca31a","system_id":"levelo_inurba_marseille","lat":43.2736,"lon":5.3622,"is_reserved":false,"is_disabled":false,"rental_uris":{"android":"levelo://app?vid=5b94eff9-2e0f-4c0e-b3f6-ab7ca2eca31a","ios":"levelo://app?vid=5b94eff9-2e0f-4c0e-b3f6-ab7ca2eca31a"},"vehicle_type_id":"4","last_reported":1753441808,"current_range_meters":11200,"station_id":"ce4bhbh2rcd13ifvqeo0","pricing_plan_id":"cebpf4jnsgd1na2vs0mg"},{"bike_id":"d42d8b5b-e139-453e-aac6-97f7225697c9","system_id":"levelo_inurba_marseille","lat":43.24805,"lon":5.37459,"is_reserved":false,"is_disabled":false,"rental_uris":{"android":"levelo://app?vid=d42d8b5b-e139-453e-aac6-97f7225697c9","ios":"levelo://app?vid=d42d8b5b-e139-453e-aac6-97f7225697c9"},"vehicle_type_id":"4","last_reported":1753441808,"current_range_meters":11200,"station_id":"ce4bhgh2rcd13ifvqfb0","pricing_plan_id":"cebpf4jnsgd1na2vs0mg"},{"bike_id":"53521519-960a-4120-9bec-9c4bf61f9a0e","system_id":"levelo_inurba_marseille","lat":43.279505,"lon":5.410535,"is_reserved":false,"is_disabled":false,"rental_uris":{"android":"levelo://app?vid=53521519-960a-4120-9bec-9c4bf61f9a0e","ios":"levelo://app?vid=53521519-960a-4120-9bec-9c4bf61f9a0e"},"vehicle_type_id":"4","last_reported":1753441808,"current_range_meters":11200,"station_id":"ce4bhnp2rcd13ifvqh0g","pricing_plan_id":"cebpf4jnsgd1na2vs0mg"},{"bike_id":"806cf976-4109-494e-87f9-ea7dd7958790","system_id":"levelo_inurba_marseille","lat":43.28427,"lon":5.35008,"is_reserved":false,"is_disabled":false,"rental_uris":{"android":"levelo://app?vid=806cf976-4109-494e-87f9-ea7dd7958790","ios":"levelo://app?vid=806cf976-4109-494e-87f9-ea7dd7958790"},"vehicle_type_id":"4","last_reported":1753441808,"current_range_meters":11600,"station_id":"ce4bhbh2rcd13ifvqepg","pricing_plan_id":"cebpf4jnsgd1na2vs0mg"},{"bike_id":"740d1c13-3c05-480d-921d-94096a061796","system_id":"levelo_inurba_marseille","lat":43.30379,"lon":5.4249,"is_reserved":false,"is_disabled":false,"rental_uris":{"android":"levelo://app?vid=740d1c13-3c05-480d-921d-94096a061796","ios":"levelo://app?vid=740d1c13-3c05-480d-921d-94096a061796"},"vehicle_type_id":"4","last_reported":1753441808,"current_range_meters":11600,"station_id":"ce4bhoh2rcd13ifvqh6g","pricing_plan_id":"cebpf4jnsgd1na2vs0mg"},{"bike_id":"6dd68c4d-6a0d-4209-a3af-a888e6b87c99","system_id":"levelo_inurba_marseille","lat":43.297916,"lon":5.381026,"is_reserved":false,"is_disabled":false,"rental_uris":{"android":"levelo://app?vid=6dd68c4d-6a0d-4209-a3af-a888e6b87c99","ios":"levelo://app?vid=6dd68c4d-6a0d-4209-a3af-a888e6b87c99"},"vehicle_type_id":"4","last_reported":1753441808,"current_range_meters":11600,"station_id":"","pricing_plan_id":"cebpf4jnsgd1na2vs0mg"},{"bike_id":"bc630041-2272-4cc0-87a3-743462585624","system_id":"levelo_inurba_marseille","lat":43.3054,"lon":5.36705,"is_reserved":false,"is_disabled":false,"rental_uris":{"android":"levelo://app?vid=bc630041-2272-4cc0-87a3-743462585624","ios":"levelo://app?vid=bc630041-2272-4cc0-87a3-743462585624"},"vehicle_type_id":"4","last_reported":1753441808,"current_range_meters":11600,"station_id":"ce4bgrp2rcd13ifvqc9g","pricing_plan_id":"cebpf4jnsgd1na2vs0mg"},{"bike_id":"ff30a5ee-0e9d-4bfa-a593-c7beaf9df463","system_id":"levelo_inurba_marseille","lat":43.3354,"lon":5.36207,"is_reserved":false,"is_disabled":false,"rental_uris":{"android":"levelo://app?vid=ff30a5ee-0e9d-4bfa-a593-c7beaf9df463","ios":"levelo://app?vid=ff30a5ee-0e9d-4bfa-a593-c7beaf9df463"},"vehicle_type_id":"4","last_reported":1753441808,"current_range_meters":11600,"station_id":"","pricing_plan_id":"cebpf4jnsgd1na2vs0mg"},{"bike_id":"5e98dca7-aeb8-4574-ba58-12813657959c","system_id":"levelo_inurba_marseille","lat":43.31686,"lon":5.40497,"is_reserved":false,"is_disabled":false,"rental_uris":{"android":"levelo://app?vid=5e98dca7-aeb8-4574-ba58-12813657959c","ios":"levelo://app?vid=5e98dca7-aeb8-4574-ba58-12813657959c"},"vehicle_type_id":"4","last_reported":1753441808,"current_range_meters":11600,"station_id":"ce4bh012rcd13ifvqd00","pricing_plan_id":"cebpf4jnsgd1na2vs0mg"},{"bike_id":"554f3a30-25c7-4007-a3d5-e4f3c49c7beb","system_id":"levelo_inurba_marseille","lat":43.32348,"lon":5.36758,"is_reserved":false,"is_disabled":false,"rental_uris":{"android":"levelo://app?vid=554f3a30-25c7-4007-a3d5-e4f3c49c7beb","ios":"levelo://app?vid=554f3a30-25c7-4007-a3d5-e4f3c49c7beb"},"vehicle_type_id":"4","last_reported":1753441808,"current_range_meters":12000,"station_id":"ce4bhsh2rcd13ifvqi2g","pricing_plan_id":"cebpf4jnsgd1na2vs0mg"},{"bike_id":"f7623b57-5f88-4ef7-8535-1d8b44f90d27","system_id":"levelo_inurba_marseille","lat":43.22497,"lon":5.34801,"is_reserved":false,"is_disabled":false,"rental_uris":{"android":"levelo://app?vid=f7623b57-5f88-4ef7-8535-1d8b44f90d27","ios":"levelo://app?vid=f7623b57-5f88-4ef7-8535-1d8b44f90d27"},"vehicle_type_id":"4","last_reported":1753441808,"current_range_meters":12000,"station_id":"","pricing_plan_id":"cebpf4jnsgd1na2vs0mg"},{"bike_id":"ac7f3c2f-452c-4620-beb4-96f9c8da3434","system_id":"levelo_inurba_marseille","lat":43.306118,"lon":5.385215,"is_reserved":false,"is_disabled":false,"rental_uris":{"android":"levelo://app?vid=ac7f3c2f-452c-4620-beb4-96f9c8da3434","ios":"levelo://app?vid=ac7f3c2f-452c-4620-beb4-96f9c8da3434"},"vehicle_type_id":"4","last_reported":1753441808,"current_range_meters":12000,"station_id":"","pricing_plan_id":"cebpf4jnsgd1na2vs0mg"},{"bike_id":"88d4e32b-e96c-4cf8-bd89-690d9888fdd1","system_id":"levelo_inurba_marseille","lat":43.231789,"lon":5.399888,"is_reserved":false,"is_disabled":false,"rental_uris":{"android":"levelo://app?vid=88d4e32b-e96c-4cf8-bd89-690d9888fdd1","ios":"levelo://app?vid=88d4e32b-e96c-4cf8-bd89-690d9888fdd1"},"vehicle_type_id":"4","last_reported":1753441808,"current_range_meters":12000,"station_id":"ce4bhn12rcd13ifvqgqg","pricing_plan_id":"cebpf4jnsgd1na2vs0mg"},{"bike_id":"b0642f06-95ff-41f6-9f4a-0722c8309d1c","system_id":"levelo_inurba_marseille","lat":43.26886,"lon":5.36871,"is_reserved":false,"is_disabled":false,"rental_uris":{"android":"levelo://app?vid=b0642f06-95ff-41f6-9f4a-0722c8309d1c","ios":"levelo://app?vid=b0642f06-95ff-41f6-9f4a-0722c8309d1c"},"vehicle_type_id":"4","last_reported":1753441808,"current_range_meters":12400,"station_id":"","pricing_plan_id":"cebpf4jnsgd1na2vs0mg"},{"bike_id":"2fe871f2-92ed-44ca-9ba1-33133eb9f0fd","system_id":"levelo_inurba_marseille","lat":43.29687,"lon":5.37303,"is_reserved":false,"is_disabled":false,"rental_uris":{"android":"levelo://app?vid=2fe871f2-92ed-44ca-9ba1-33133eb9f0fd","ios":"levelo://app?vid=2fe871f2-92ed-44ca-9ba1-33133eb9f0fd"},"vehicle_type_id":"4","last_reported":1753441808,"current_range_meters":12400,"station_id":"ce4bgk12rcd13ifvqbj0","pricing_plan_id":"cebpf4jnsgd1na2vs0mg"},{"bike_id":"1c31f24b-2b9e-48c3-b103-bffd32b92420","system_id":"levelo_inurba_marseille","lat":43.33492,"lon":5.40718,"is_reserved":false,"is_disabled":false,"rental_uris":{"android":"levelo://app?vid=1c31f24b-2b9e-48c3-b103-bffd32b92420","ios":"levelo://app?vid=1c31f24b-2b9e-48c3-b103-bffd32b92420"},"vehicle_type_id":"4","last_reported":1753441808,"current_range_meters":12400,"station_id":"","pricing_plan_id":"cebpf4jnsgd1na2vs0mg"},{"bike_id":"6f025ee8-3ce4-48ff-afbb-05d349b1be40","system_id":"levelo_inurba_marseille","lat":43.3136,"lon":5.36732,"is_reserved":false,"is_disabled":false,"rental_uris":{"android":"levelo://app?vid=6f025ee8-3ce4-48ff-afbb-05d349b1be40","ios":"levelo://app?vid=6f025ee8-3ce4-48ff-afbb-05d349b1be40"},"vehicle_type_id":"4","last_reported":1753441808,"current_range_meters":12400,"station_id":"ce4bgr92rcd13ifvqc6g","pricing_plan_id":"cebpf4jnsgd1na2vs0mg"},{"bike_id":"35ee41ab-1155-4c5d-a3ff-d1e05b86be8c","system_id":"levelo_inurba_marseille","lat":43.313129,"lon":5.431069,"is_reserved":false,"is_disabled":false,"rental_uris":{"android":"levelo://app?vid=35ee41ab-1155-4c5d-a3ff-d1e05b86be8c","ios":"levelo://app?vid=35ee41ab-1155-4c5d-a3ff-d1e05b86be8c"},"vehicle_type_id":"4","last_reported":1753441808,"current_range_meters":12400,"station_id":"","pricing_plan_id":"cebpf4jnsgd1na2vs0mg"},{"bike_id":"b1d8c509-6ee2-4a4a-856d-9764d08383ad","system_id":"levelo_inurba_marseille","lat":43.272118,"lon":5.391776,"is_reserved":false,"is_disabled":false,"rental_uris":{"android":"levelo://app?vid=b1d8c509-6ee2-4a4a-856d-9764d08383ad","ios":"levelo://app?vid=b1d8c509-6ee2-4a4a-856d-9764d08383ad"},"vehicle_type_id":"4","last_reported":1753441808,"current_range_meters":12800,"station_id":"ce4bhe12rcd13ifvqf30","pricing_plan_id":"cebpf4jnsgd1na2vs0mg"},{"bike_id":"6b2b813f-24e0-475c-a13c-46f58144a110","system_id":"levelo_inurba_marseille","lat":43.30927,"lon":5.40141,"is_reserved":false,"is_disabled":false,"rental_uris":{"android":"levelo://app?vid=6b2b813f-24e0-475c-a13c-46f58144a110","ios":"levelo://app?vid=6b2b813f-24e0-475c-a13c-46f58144a110"},"vehicle_type_id":"4","last_reported":1753441808,"current_range_meters":9200,"station_id":"ce4bgvp2rcd13ifvqct0","pricing_plan_id":"cebpf4jnsgd1na2vs0mg"},{"bike_id":"a12459fb-772e-4b74-9514-784297907c96","system_id":"levelo_inurba_marseille","lat":43.27078,"lon":5.42281,"is_reserved":false,"is_disabled":false,"rental_uris":{"android":"levelo://app?vid=a12459fb-772e-4b74-9514-784297907c96","ios":"levelo://app?vid=a12459fb-772e-4b74-9514-784297907c96"},"vehicle_type_id":"4","last_reported":1753441808,"current_range_meters":12800,"station_id":"ce4bhk92rcd13ifvqgb0","pricing_plan_id":"cebpf4jnsgd1na2vs0mg"},{"bike_id":"d667cff6-eed2-4472-81a1-11f6c9312b75","system_id":"levelo_inurba_marseille","lat":43.29619,"lon":5.37738,"is_reserved":false,"is_disabled":false,"rental_uris":{"android":"levelo://app?vid=d667cff6-eed2-4472-81a1-11f6c9312b75","ios":"levelo://app?vid=d667cff6-eed2-4472-81a1-11f6c9312b75"},"vehicle_type_id":"4","last_reported":1753441808,"current_range_meters":12800,"station_id":"ce4bgi92rcd13ifvqb90","pricing_plan_id":"cebpf4jnsgd1na2vs0mg"},{"bike_id":"100e6b24-15a8-4ad4-a637-d890c5cd0e4e","system_id":"levelo_inurba_marseille","lat":43.23963,"lon":5.36637,"is_reserved":false,"is_disabled":false,"rental_uris":{"android":"levelo://app?vid=100e6b24-15a8-4ad4-a637-d890c5cd0e4e","ios":"levelo://app?vid=100e6b24-15a8-4ad4-a637-d890c5cd0e4e"},"vehicle_type_id":"4","last_reported":1753441808,"current_range_meters":13600,"station_id":"ce4bhi12rcd13ifvqfp0","pricing_plan_id":"cebpf4jnsgd1na2vs0mg"},{"bike_id":"164fb11f-f8ab-4251-b08e-72732a3970db","system_id":"levelo_inurba_marseille","lat":43.30144,"lon":5.38116,"is_reserved":false,"is_disabled":false,"rental_uris":{"android":"levelo://app?vid=164fb11f-f8ab-4251-b08e-72732a3970db","ios":"levelo://app?vid=164fb11f-f8ab-4251-b08e-72732a3970db"},"vehicle_type_id":"4","last_reported":1753441808,"current_range_meters":13600,"station_id":"ce4bgjp2rcd13ifvqbh0","pricing_plan_id":"cebpf4jnsgd1na2vs0mg"},{"bike_id":"f1d34c25-10b7-44ab-b2bd-215bc629571e","system_id":"levelo_inurba_marseille","lat":43.22492,"lon":5.34784,"is_reserved":false,"is_disabled":false,"rental_uris":{"android":"levelo://app?vid=f1d34c25-10b7-44ab-b2bd-215bc629571e","ios":"levelo://app?vid=f1d34c25-10b7-44ab-b2bd-215bc629571e"},"vehicle_type_id":"4","last_reported":1753441808,"current_range_meters":13600,"station_id":"st_cvj5dfep6f1abm77gieg","pricing_plan_id":"cebpf4jnsgd1na2vs0mg"},{"bike_id":"fd49b862-7002-4cf2-87c4-05e8a9b51427","system_id":"levelo_inurba_marseille","lat":43.24167,"lon":5.36396,"is_reserved":false,"is_disabled":false,"rental_uris":{"android":"levelo://app?vid=fd49b862-7002-4cf2-87c4-05e8a9b51427","ios":"levelo://app?vid=fd49b862-7002-4cf2-87c4-05e8a9b51427"},"vehicle_type_id":"4","last_reported":1753441808,"current_range_meters":13600,"station_id":"cpo36qri1sfpv3e86is0","pricing_plan_id":"cebpf4jnsgd1na2vs0mg"},{"bike_id":"c7c85d55-4608-45bc-afb8-19b0ccb8f1e0","system_id":"levelo_inurba_marseille","lat":43.26782,"lon":5.39419,"is_reserved":false,"is_disabled":false,"rental_uris":{"android":"levelo://app?vid=c7c85d55-4608-45bc-afb8-19b0ccb8f1e0","ios":"levelo://app?vid=c7c85d55-4608-45bc-afb8-19b0ccb8f1e0"},"vehicle_type_id":"4","last_reported":1753441808,"current_range_meters":13600,"station_id":"ce4bhh12rcd13ifvqfg0","pricing_plan_id":"cebpf4jnsgd1na2vs0mg"},{"bike_id":"c4c822ad-8e0e-4d74-9ddf-179aadcf0cbd","system_id":"levelo_inurba_marseille","lat":43.28409,"lon":5.34994,"is_reserved":false,"is_disabled":false,"rental_uris":{"android":"levelo://app?vid=c4c822ad-8e0e-4d74-9ddf-179aadcf0cbd","ios":"levelo://app?vid=c4c822ad-8e0e-4d74-9ddf-179aadcf0cbd"},"vehicle_type_id":"4","last_reported":1753441808,"current_range_meters":13600,"station_id":"ce4bhbh2rcd13ifvqepg","pricing_plan_id":"cebpf4jnsgd1na2vs0mg"},{"bike_id":"f7bcb0ac-303d-42d2-bd9d-f5517fd37b0d","system_id":"levelo_inurba_marseille","lat":43.29568,"lon":5.39989,"is_reserved":false,"is_disabled":false,"rental_uris":{"android":"levelo://app?vid=f7bcb0ac-303d-42d2-bd9d-f5517fd37b0d","ios":"levelo://app?vid=f7bcb0ac-303d-42d2-bd9d-f5517fd37b0d"},"vehicle_type_id":"4","last_reported":1753441808,"current_range_meters":12800,"station_id":"ce4bh312rcd13ifvqdj0","pricing_plan_id":"cebpf4jnsgd1na2vs0mg"},{"bike_id":"d546a976-e559-4001-8b76-0cf6cd3e518d","system_id":"levelo_inurba_marseille","lat":43.305501,"lon":5.367404,"is_reserved":false,"is_disabled":false,"rental_uris":{"android":"levelo://app?vid=d546a976-e559-4001-8b76-0cf6cd3e518d","ios":"levelo://app?vid=d546a976-e559-4001-8b76-0cf6cd3e518d"},"vehicle_type_id":"4","last_reported":1753441808,"current_range_meters":14000,"station_id":"ce4bgrp2rcd13ifvqc9g","pricing_plan_id":"cebpf4jnsgd1na2vs0mg"},{"bike_id":"9336e282-45bf-4f89-a862-1bac5d7accf2","system_id":"levelo_inurba_marseille","lat":43.297024,"lon":5.36578,"is_reserved":false,"is_disabled":false,"rental_uris":{"android":"levelo://app?vid=9336e282-45bf-4f89-a862-1bac5d7accf2","ios":"levelo://app?vid=9336e282-45bf-4f89-a862-1bac5d7accf2"},"vehicle_type_id":"4","last_reported":1753441808,"current_range_meters":13600,"station_id":"ce4bgn12rcd13ifvqbt0","pricing_plan_id":"cebpf4jnsgd1na2vs0mg"},{"bike_id":"71258c65-3dee-4a65-a037-dcda1783505a","system_id":"levelo_inurba_marseille","lat":43.31491,"lon":5.36946,"is_reserved":false,"is_disabled":false,"rental_uris":{"android":"levelo://app?vid=71258c65-3dee-4a65-a037-dcda1783505a","ios":"levelo://app?vid=71258c65-3dee-4a65-a037-dcda1783505a"},"vehicle_type_id":"4","last_reported":1753441808,"current_range_meters":14000,"station_id":"","pricing_plan_id":"cebpf4jnsgd1na2vs0mg"},{"bike_id":"00635749-65df-46f0-a6bd-c1ea9f227918","system_id":"levelo_inurba_marseille","lat":43.31688,"lon":5.40471,"is_reserved":false,"is_disabled":false,"rental_uris":{"android":"levelo://app?vid=00635749-65df-46f0-a6bd-c1ea9f227918","ios":"levelo://app?vid=00635749-65df-46f0-a6bd-c1ea9f227918"},"vehicle_type_id":"4","last_reported":1753441808,"current_range_meters":14000,"station_id":"ce4bh012rcd13ifvqd00","pricing_plan_id":"cebpf4jnsgd1na2vs0mg"},{"bike_id":"c017b4de-074c-46ed-bc0a-5b7912813135","system_id":"levelo_inurba_marseille","lat":43.26092,"lon":5.37295,"is_reserved":false,"is_disabled":false,"rental_uris":{"android":"levelo://app?vid=c017b4de-074c-46ed-bc0a-5b7912813135","ios":"levelo://app?vid=c017b4de-074c-46ed-bc0a-5b7912813135"},"vehicle_type_id":"4","last_reported":1753441808,"current_range_meters":14000,"station_id":"","pricing_plan_id":"cebpf4jnsgd1na2vs0mg"},{"bike_id":"078febbd-6d49-4abf-8b46-d33f87f8da46","system_id":"levelo_inurba_marseille","lat":43.25458,"lon":5.38017,"is_reserved":false,"is_disabled":false,"rental_uris":{"android":"levelo://app?vid=078febbd-6d49-4abf-8b46-d33f87f8da46","ios":"levelo://app?vid=078febbd-6d49-4abf-8b46-d33f87f8da46"},"vehicle_type_id":"4","last_reported":1753441808,"current_range_meters":14400,"station_id":"","pricing_plan_id":"cebpf4jnsgd1na2vs0mg"},{"bike_id":"1714a35f-68d5-4d98-9411-56197bf74a48","system_id":"levelo_inurba_marseille","lat":43.3043,"lon":5.38901,"is_reserved":false,"is_disabled":false,"rental_uris":{"android":"levelo://app?vid=1714a35f-68d5-4d98-9411-56197bf74a48","ios":"levelo://app?vid=1714a35f-68d5-4d98-9411-56197bf74a48"},"vehicle_type_id":"4","last_reported":1753441808,"current_range_meters":14000,"station_id":"ce4bgk12rcd13ifvqbi0","pricing_plan_id":"cebpf4jnsgd1na2vs0mg"},{"bike_id":"3185ef6d-2ce7-45e8-9b8b-b88f53239af4","system_id":"levelo_inurba_marseille","lat":43.30906,"lon":5.36836,"is_reserved":false,"is_disabled":false,"rental_uris":{"android":"levelo://app?vid=3185ef6d-2ce7-45e8-9b8b-b88f53239af4","ios":"levelo://app?vid=3185ef6d-2ce7-45e8-9b8b-b88f53239af4"},"vehicle_type_id":"4","last_reported":1753441808,"current_range_meters":14400,"station_id":"ce4bgn92rcd13ifvqbvg","pricing_plan_id":"cebpf4jnsgd1na2vs0mg"},{"bike_id":"12f1ccbe-caad-447a-81e6-68f78b4f48b3","system_id":"levelo_inurba_marseille","lat":43.28631,"lon":5.3508,"is_reserved":false,"is_disabled":false,"rental_uris":{"android":"levelo://app?vid=12f1ccbe-caad-447a-81e6-68f78b4f48b3","ios":"levelo://app?vid=12f1ccbe-caad-447a-81e6-68f78b4f48b3"},"vehicle_type_id":"4","last_reported":1753441808,"current_range_meters":14800,"station_id":"ce4bhch2rcd13ifvqeug","pricing_plan_id":"cebpf4jnsgd1na2vs0mg"},{"bike_id":"3905a451-3ca5-4c8d-992c-e76d7da42101","system_id":"levelo_inurba_marseille","lat":43.2826,"lon":5.35068,"is_reserved":false,"is_disabled":false,"rental_uris":{"android":"levelo://app?vid=3905a451-3ca5-4c8d-992c-e76d7da42101","ios":"levelo://app?vid=3905a451-3ca5-4c8d-992c-e76d7da42101"},"vehicle_type_id":"4","last_reported":1753441808,"current_range_meters":14800,"station_id":"ce4bhbp2rcd13ifvqerg","pricing_plan_id":"cebpf4jnsgd1na2vs0mg"},{"bike_id":"36abd050-8e58-4a15-8275-bcebc937ea28","system_id":"levelo_inurba_marseille","lat":43.32336,"lon":5.40619,"is_reserved":false,"is_disabled":false,"rental_uris":{"android":"levelo://app?vid=36abd050-8e58-4a15-8275-bcebc937ea28","ios":"levelo://app?vid=36abd050-8e58-4a15-8275-bcebc937ea28"},"vehicle_type_id":"4","last_reported":1753441808,"current_range_meters":14800,"station_id":"ce4bhq92rcd13ifvqhjg","pricing_plan_id":"cebpf4jnsgd1na2vs0mg"},{"bike_id":"b72b24fe-ead5-4578-adac-0e69be415586","system_id":"levelo_inurba_marseille","lat":43.33726,"lon":5.39182,"is_reserved":false,"is_disabled":false,"rental_uris":{"android":"levelo://app?vid=b72b24fe-ead5-4578-adac-0e69be415586","ios":"levelo://app?vid=b72b24fe-ead5-4578-adac-0e69be415586"},"vehicle_type_id":"4","last_reported":1753441808,"current_range_meters":14800,"station_id":"ce4bhr92rcd13ifvqhsg","pricing_plan_id":"cebpf4jnsgd1na2vs0mg"},{"bike_id":"591fb768-7e78-4b54-88b5-e73a5af76b19","system_id":"levelo_inurba_marseille","lat":43.22916,"lon":5.35382,"is_reserved":false,"is_disabled":false,"rental_uris":{"android":"levelo://app?vid=591fb768-7e78-4b54-88b5-e73a5af76b19","ios":"levelo://app?vid=591fb768-7e78-4b54-88b5-e73a5af76b19"},"vehicle_type_id":"4","last_reported":1753441808,"current_range_meters":14800,"station_id":"cpo3532slgdg3j2ikp40","pricing_plan_id":"cebpf4jnsgd1na2vs0mg"},{"bike_id":"dd4669b8-7a1e-455c-921c-cef6ea4213f0","system_id":"levelo_inurba_marseille","lat":43.29741,"lon":5.37632,"is_reserved":false,"is_disabled":false,"rental_uris":{"android":"levelo://app?vid=dd4669b8-7a1e-455c-921c-cef6ea4213f0","ios":"levelo://app?vid=dd4669b8-7a1e-455c-921c-cef6ea4213f0"},"vehicle_type_id":"4","last_reported":1753441808,"current_range_meters":14800,"station_id":"","pricing_plan_id":"cebpf4jnsgd1na2vs0mg"},{"bike_id":"8829ac2b-9de6-4d6b-b6fb-f7e54fb72dfa","system_id":"levelo_inurba_marseille","lat":43.28268,"lon":5.35061,"is_reserved":false,"is_disabled":false,"rental_uris":{"android":"levelo://app?vid=8829ac2b-9de6-4d6b-b6fb-f7e54fb72dfa","ios":"levelo://app?vid=8829ac2b-9de6-4d6b-b6fb-f7e54fb72dfa"},"vehicle_type_id":"4","last_reported":1753441808,"current_range_meters":15200,"station_id":"ce4bhbp2rcd13ifvqerg","pricing_plan_id":"cebpf4jnsgd1na2vs0mg"},{"bike_id":"0de1d9ca-a505-4b5c-996b-817d55e52206","system_id":"levelo_inurba_marseille","lat":43.29984,"lon":5.37188,"is_reserved":false,"is_disabled":false,"rental_uris":{"android":"levelo://app?vid=0de1d9ca-a505-4b5c-996b-817d55e52206","ios":"levelo://app?vid=0de1d9ca-a505-4b5c-996b-817d55e52206"},"vehicle_type_id":"4","last_reported":1753441808,"current_range_meters":15200,"station_id":"ce4bgr92rcd13ifvqc7g","pricing_plan_id":"cebpf4jnsgd1na2vs0mg"},{"bike_id":"a38a7f45-5504-40be-bfdb-7c30fd9bffce","system_id":"levelo_inurba_marseille","lat":43.28487,"lon":5.38421,"is_reserved":false,"is_disabled":false,"rental_uris":{"android":"levelo://app?vid=a38a7f45-5504-40be-bfdb-7c30fd9bffce","ios":"levelo://app?vid=a38a7f45-5504-40be-bfdb-7c30fd9bffce"},"vehicle_type_id":"4","last_reported":1753441808,"current_range_meters":15200,"station_id":"ce4bh512rcd13ifvqe3g","pricing_plan_id":"cebpf4jnsgd1na2vs0mg"},{"bike_id":"ccca3042-9358-40fc-ac03-e327e01c225f","system_id":"levelo_inurba_marseille","lat":43.232868,"lon":5.361154,"is_reserved":false,"is_disabled":false,"rental_uris":{"android":"levelo://app?vid=ccca3042-9358-40fc-ac03-e327e01c225f","ios":"levelo://app?vid=ccca3042-9358-40fc-ac03-e327e01c225f"},"vehicle_type_id":"4","last_reported":1753441808,"current_range_meters":15200,"station_id":"","pricing_plan_id":"cebpf4jnsgd1na2vs0mg"},{"bike_id":"9782e30c-e460-4f78-93f4-4cfcfb3abe31","system_id":"levelo_inurba_marseille","lat":43.30554,"lon":5.36554,"is_reserved":false,"is_disabled":false,"rental_uris":{"android":"levelo://app?vid=9782e30c-e460-4f78-93f4-4cfcfb3abe31","ios":"levelo://app?vid=9782e30c-e460-4f78-93f4-4cfcfb3abe31"},"vehicle_type_id":"4","last_reported":1753441808,"current_range_meters":16000,"station_id":"ce4bgs12rcd13ifvqcag","pricing_plan_id":"cebpf4jnsgd1na2vs0mg"},{"bike_id":"22abd279-ac3d-4b7c-8221-b68bbacaab0e","system_id":"levelo_inurba_marseille","lat":43.26215,"lon":5.37454,"is_reserved":false,"is_disabled":false,"rental_uris":{"android":"levelo://app?vid=22abd279-ac3d-4b7c-8221-b68bbacaab0e","ios":"levelo://app?vid=22abd279-ac3d-4b7c-8221-b68bbacaab0e"},"vehicle_type_id":"4","last_reported":1753441808,"current_range_meters":16000,"station_id":"ce4bhgp2rcd13ifvqfc0","pricing_plan_id":"cebpf4jnsgd1na2vs0mg"},{"bike_id":"4017a3bf-e508-4cf8-965e-cd5963c3660d","system_id":"levelo_inurba_marseille","lat":43.28466,"lon":5.384245,"is_reserved":false,"is_disabled":false,"rental_uris":{"android":"levelo://app?vid=4017a3bf-e508-4cf8-965e-cd5963c3660d","ios":"levelo://app?vid=4017a3bf-e508-4cf8-965e-cd5963c3660d"},"vehicle_type_id":"4","last_reported":1753441808,"current_range_meters":16000,"station_id":"ce4bh512rcd13ifvqe3g","pricing_plan_id":"cebpf4jnsgd1na2vs0mg"},{"bike_id":"7036cfbc-be50-466d-a32e-99f207c70a57","system_id":"levelo_inurba_marseille","lat":43.30596,"lon":5.37222,"is_reserved":false,"is_disabled":false,"rental_uris":{"android":"levelo://app?vid=7036cfbc-be50-466d-a32e-99f207c70a57","ios":"levelo://app?vid=7036cfbc-be50-466d-a32e-99f207c70a57"},"vehicle_type_id":"4","last_reported":1753441808,"current_range_meters":16000,"station_id":"ce4bgqh2rcd13ifvqc4g","pricing_plan_id":"cebpf4jnsgd1na2vs0mg"},{"bike_id":"998111db-eeca-4c77-9e0c-e081b470aa34","system_id":"levelo_inurba_marseille","lat":43.27803,"lon":5.40729,"is_reserved":false,"is_disabled":false,"rental_uris":{"android":"levelo://app?vid=998111db-eeca-4c77-9e0c-e081b470aa34","ios":"levelo://app?vid=998111db-eeca-4c77-9e0c-e081b470aa34"},"vehicle_type_id":"4","last_reported":1753441808,"current_range_meters":16000,"station_id":"ce4bhnh2rcd13ifvqgtg","pricing_plan_id":"cebpf4jnsgd1na2vs0mg"},{"bike_id":"447521c3-7c1c-4338-b020-ad71ae8e3da4","system_id":"levelo_inurba_marseille","lat":43.28,"lon":5.41663,"is_reserved":false,"is_disabled":false,"rental_uris":{"android":"levelo://app?vid=447521c3-7c1c-4338-b020-ad71ae8e3da4","ios":"levelo://app?vid=447521c3-7c1c-4338-b020-ad71ae8e3da4"},"vehicle_type_id":"4","last_reported":1753441808,"current_range_meters":16000,"station_id":"ce4bho12rcd13ifvqh1g","pricing_plan_id":"cebpf4jnsgd1na2vs0mg"},{"bike_id":"3eca17e3-dd0e-41cc-9faa-99da2d2049e3","system_id":"levelo_inurba_marseille","lat":43.33617,"lon":5.41008,"is_reserved":false,"is_disabled":false,"rental_uris":{"android":"levelo://app?vid=3eca17e3-dd0e-41cc-9faa-99da2d2049e3","ios":"levelo://app?vid=3eca17e3-dd0e-41cc-9faa-99da2d2049e3"},"vehicle_type_id":"4","last_reported":1753441808,"current_range_meters":16000,"station_id":"ce4bhqh2rcd13ifvqhmg","pricing_plan_id":"cebpf4jnsgd1na2vs0mg"},{"bike_id":"fb7e1105-0a1d-4aaf-b5e6-7f8ead08f8d1","system_id":"levelo_inurba_marseille","lat":43.2844,"lon":5.39197,"is_reserved":false,"is_disabled":false,"rental_uris":{"android":"levelo://app?vid=fb7e1105-0a1d-4aaf-b5e6-7f8ead08f8d1","ios":"levelo://app?vid=fb7e1105-0a1d-4aaf-b5e6-7f8ead08f8d1"},"vehicle_type_id":"4","last_reported":1753441808,"current_range_meters":16000,"station_id":"ce4bhoh2rcd13ifvqh5g","pricing_plan_id":"cebpf4jnsgd1na2vs0mg"},{"bike_id":"a30f446b-65e2-4e7a-b7c4-4e677539b87f","system_id":"levelo_inurba_marseille","lat":43.28996,"lon":5.35618,"is_reserved":false,"is_disabled":false,"rental_uris":{"android":"levelo://app?vid=a30f446b-65e2-4e7a-b7c4-4e677539b87f","ios":"levelo://app?vid=a30f446b-65e2-4e7a-b7c4-4e677539b87f"},"vehicle_type_id":"4","last_reported":1753441808,"current_range_meters":13600,"station_id":"ce4bhb92rcd13ifvqen0","pricing_plan_id":"cebpf4jnsgd1na2vs0mg"},{"bike_id":"f3874552-67ae-42b2-8118-9593cfbe8355","system_id":"levelo_inurba_marseille","lat":43.24159,"lon":5.36435,"is_reserved":false,"is_disabled":false,"rental_uris":{"android":"levelo://app?vid=f3874552-67ae-42b2-8118-9593cfbe8355","ios":"levelo://app?vid=f3874552-67ae-42b2-8118-9593cfbe8355"},"vehicle_type_id":"4","last_reported":1753441808,"current_range_meters":16400,"station_id":"cpo36qri1sfpv3e86is0","pricing_plan_id":"cebpf4jnsgd1na2vs0mg"},{"bike_id":"9575837e-b363-4708-9b96-c153c5fc2eb1","system_id":"levelo_inurba_marseille","lat":43.32357,"lon":5.36762,"is_reserved":false,"is_disabled":false,"rental_uris":{"android":"levelo://app?vid=9575837e-b363-4708-9b96-c153c5fc2eb1","ios":"levelo://app?vid=9575837e-b363-4708-9b96-c153c5fc2eb1"},"vehicle_type_id":"4","last_reported":1753441808,"current_range_meters":16400,"station_id":"ce4bhsh2rcd13ifvqi2g","pricing_plan_id":"cebpf4jnsgd1na2vs0mg"},{"bike_id":"07571287-8e8a-405f-bee5-7c0da5960a98","system_id":"levelo_inurba_marseille","lat":43.28417,"lon":5.37508,"is_reserved":false,"is_disabled":false,"rental_uris":{"android":"levelo://app?vid=07571287-8e8a-405f-bee5-7c0da5960a98","ios":"levelo://app?vid=07571287-8e8a-405f-bee5-7c0da5960a98"},"vehicle_type_id":"4","last_reported":1753441808,"current_range_meters":16400,"station_id":"ce4bh412rcd13ifvqds0","pricing_plan_id":"cebpf4jnsgd1na2vs0mg"},{"bike_id":"3c2bc25c-1aae-4e90-8d9d-51b12483c1dc","system_id":"levelo_inurba_marseille","lat":43.29299,"lon":5.37466,"is_reserved":false,"is_disabled":false,"rental_uris":{"android":"levelo://app?vid=3c2bc25c-1aae-4e90-8d9d-51b12483c1dc","ios":"levelo://app?vid=3c2bc25c-1aae-4e90-8d9d-51b12483c1dc"},"vehicle_type_id":"4","last_reported":1753441808,"current_range_meters":16400,"station_id":"ce4bgi12rcd13ifvqb70","pricing_plan_id":"cebpf4jnsgd1na2vs0mg"},{"bike_id":"7a9246f0-c362-4255-9647-87d86ce87126","system_id":"levelo_inurba_marseille","lat":43.279972,"lon":5.400056,"is_reserved":false,"is_disabled":false,"rental_uris":{"android":"levelo://app?vid=7a9246f0-c362-4255-9647-87d86ce87126","ios":"levelo://app?vid=7a9246f0-c362-4255-9647-87d86ce87126"},"vehicle_type_id":"4","last_reported":1753441808,"current_range_meters":16400,"station_id":"ce4bho92rcd13ifvqh4g","pricing_plan_id":"cebpf4jnsgd1na2vs0mg"},{"bike_id":"e4dbeadf-3753-46d1-8f03-d27dbdb2b615","system_id":"levelo_inurba_marseille","lat":43.24164,"lon":5.36393,"is_reserved":false,"is_disabled":false,"rental_uris":{"android":"levelo://app?vid=e4dbeadf-3753-46d1-8f03-d27dbdb2b615","ios":"levelo://app?vid=e4dbeadf-3753-46d1-8f03-d27dbdb2b615"},"vehicle_type_id":"4","last_reported":1753441808,"current_range_meters":16400,"station_id":"cpo36qri1sfpv3e86is0","pricing_plan_id":"cebpf4jnsgd1na2vs0mg"},{"bike_id":"d39d7c87-2c1c-4506-8ef8-197f46b62412","system_id":"levelo_inurba_marseille","lat":43.3248,"lon":5.36588,"is_reserved":false,"is_disabled":false,"rental_uris":{"android":"levelo://app?vid=d39d7c87-2c1c-4506-8ef8-197f46b62412","ios":"levelo://app?vid=d39d7c87-2c1c-4506-8ef8-197f46b62412"},"vehicle_type_id":"4","last_reported":1753441808,"current_range_meters":16400,"station_id":"ce4bhs12rcd13ifvqhvg","pricing_plan_id":"cebpf4jnsgd1na2vs0mg"},{"bike_id":"4d72a855-a15c-4b80-87db-d5d3b8786584","system_id":"levelo_inurba_marseille","lat":43.2863,"lon":5.35101,"is_reserved":false,"is_disabled":false,"rental_uris":{"android":"levelo://app?vid=4d72a855-a15c-4b80-87db-d5d3b8786584","ios":"levelo://app?vid=4d72a855-a15c-4b80-87db-d5d3b8786584"},"vehicle_type_id":"4","last_reported":1753441808,"current_range_meters":16800,"station_id":"ce4bhch2rcd13ifvqeug","pricing_plan_id":"cebpf4jnsgd1na2vs0mg"},{"bike_id":"8ee9d1b7-0b6b-4fa5-8ab2-94a2288a0ec9","system_id":"levelo_inurba_marseille","lat":43.22512,"lon":5.34794,"is_reserved":false,"is_disabled":false,"rental_uris":{"android":"levelo://app?vid=8ee9d1b7-0b6b-4fa5-8ab2-94a2288a0ec9","ios":"levelo://app?vid=8ee9d1b7-0b6b-4fa5-8ab2-94a2288a0ec9"},"vehicle_type_id":"4","last_reported":1753441808,"current_range_meters":16800,"station_id":"st_cvj5dfep6f1abm77gieg","pricing_plan_id":"cebpf4jnsgd1na2vs0mg"},{"bike_id":"22dca147-1260-44d8-822d-d9d1d50cce31","system_id":"levelo_inurba_marseille","lat":43.27473,"lon":5.396,"is_reserved":false,"is_disabled":false,"rental_uris":{"android":"levelo://app?vid=22dca147-1260-44d8-822d-d9d1d50cce31","ios":"levelo://app?vid=22dca147-1260-44d8-822d-d9d1d50cce31"},"vehicle_type_id":"4","last_reported":1753441808,"current_range_meters":16800,"station_id":"","pricing_plan_id":"cebpf4jnsgd1na2vs0mg"},{"bike_id":"44b406b4-2cb6-4c28-bd48-185bd835f4e2","system_id":"levelo_inurba_marseille","lat":43.22498,"lon":5.34771,"is_reserved":false,"is_disabled":false,"rental_uris":{"android":"levelo://app?vid=44b406b4-2cb6-4c28-bd48-185bd835f4e2","ios":"levelo://app?vid=44b406b4-2cb6-4c28-bd48-185bd835f4e2"},"vehicle_type_id":"4","last_reported":1753441808,"current_range_meters":16800,"station_id":"","pricing_plan_id":"cebpf4jnsgd1na2vs0mg"},{"bike_id":"21a22bc7-65fe-4b97-a005-517b211a0b98","system_id":"levelo_inurba_marseille","lat":43.230529,"lon":5.354949,"is_reserved":false,"is_disabled":false,"rental_uris":{"android":"levelo://app?vid=21a22bc7-65fe-4b97-a005-517b211a0b98","ios":"levelo://app?vid=21a22bc7-65fe-4b97-a005-517b211a0b98"},"vehicle_type_id":"4","last_reported":1753441808,"current_range_meters":16800,"station_id":"cpo3342slgdg3j2ifvpg","pricing_plan_id":"cebpf4jnsgd1na2vs0mg"},{"bike_id":"6ed02b13-8cda-4507-b8d9-e2393156eb69","system_id":"levelo_inurba_marseille","lat":43.300779,"lon":5.387107,"is_reserved":false,"is_disabled":false,"rental_uris":{"android":"levelo://app?vid=6ed02b13-8cda-4507-b8d9-e2393156eb69","ios":"levelo://app?vid=6ed02b13-8cda-4507-b8d9-e2393156eb69"},"vehicle_type_id":"4","last_reported":1753441808,"current_range_meters":16800,"station_id":"","pricing_plan_id":"cebpf4jnsgd1na2vs0mg"},{"bike_id":"1c4457e0-289b-4b82-98e8-a4faf12188c5","system_id":"levelo_inurba_marseille","lat":43.32543,"lon":5.41439,"is_reserved":false,"is_disabled":false,"rental_uris":{"android":"levelo://app?vid=1c4457e0-289b-4b82-98e8-a4faf12188c5","ios":"levelo://app?vid=1c4457e0-289b-4b82-98e8-a4faf12188c5"},"vehicle_type_id":"4","last_reported":1753441808,"current_range_meters":16400,"station_id":"ce4bhq12rcd13ifvqhhg","pricing_plan_id":"cebpf4jnsgd1na2vs0mg"},{"bike_id":"605a26a7-be30-47d9-81e5-e981767b1778","system_id":"levelo_inurba_marseille","lat":43.26947,"lon":5.38656,"is_reserved":false,"is_disabled":false,"rental_uris":{"android":"levelo://app?vid=605a26a7-be30-47d9-81e5-e981767b1778","ios":"levelo://app?vid=605a26a7-be30-47d9-81e5-e981767b1778"},"vehicle_type_id":"4","last_reported":1753441808,"current_range_meters":16800,"station_id":"ce4bhh92rcd13ifvqfh0","pricing_plan_id":"cebpf4jnsgd1na2vs0mg"},{"bike_id":"36f324cb-a9ad-46b7-afb0-26f814934e1f","system_id":"levelo_inurba_marseille","lat":43.26213,"lon":5.37452,"is_reserved":false,"is_disabled":false,"rental_uris":{"android":"levelo://app?vid=36f324cb-a9ad-46b7-afb0-26f814934e1f","ios":"levelo://app?vid=36f324cb-a9ad-46b7-afb0-26f814934e1f"},"vehicle_type_id":"4","last_reported":1753441808,"current_range_meters":16800,"station_id":"ce4bhgp2rcd13ifvqfc0","pricing_plan_id":"cebpf4jnsgd1na2vs0mg"},{"bike_id":"15a37b36-0f7e-4016-a712-ce75229af081","system_id":"levelo_inurba_marseille","lat":43.26571,"lon":5.39014,"is_reserved":false,"is_disabled":false,"rental_uris":{"android":"levelo://app?vid=15a37b36-0f7e-4016-a712-ce75229af081","ios":"levelo://app?vid=15a37b36-0f7e-4016-a712-ce75229af081"},"vehicle_type_id":"4","last_reported":1753441808,"current_range_meters":16800,"station_id":"ce4bhe12rcd13ifvqf30","pricing_plan_id":"cebpf4jnsgd1na2vs0mg"},{"bike_id":"2f7aa8ee-b17f-447e-ac1c-06bff5e89da8","system_id":"levelo_inurba_marseille","lat":43.29896,"lon":5.43668,"is_reserved":false,"is_disabled":false,"rental_uris":{"android":"levelo://app?vid=2f7aa8ee-b17f-447e-ac1c-06bff5e89da8","ios":"levelo://app?vid=2f7aa8ee-b17f-447e-ac1c-06bff5e89da8"},"vehicle_type_id":"4","last_reported":1753441808,"current_range_meters":16800,"station_id":"ce4bhpp2rcd13ifvqhfg","pricing_plan_id":"cebpf4jnsgd1na2vs0mg"},{"bike_id":"4150f367-c77b-49d6-9460-8034f7438f5c","system_id":"levelo_inurba_marseille","lat":43.262054,"lon":5.374491,"is_reserved":false,"is_disabled":false,"rental_uris":{"android":"levelo://app?vid=4150f367-c77b-49d6-9460-8034f7438f5c","ios":"levelo://app?vid=4150f367-c77b-49d6-9460-8034f7438f5c"},"vehicle_type_id":"4","last_reported":1753441808,"current_range_meters":16800,"station_id":"","pricing_plan_id":"cebpf4jnsgd1na2vs0mg"},{"bike_id":"38920943-2edb-41fb-a3f1-146f61bd9f4e","system_id":"levelo_inurba_marseille","lat":43.21748,"lon":5.34618,"is_reserved":false,"is_disabled":false,"rental_uris":{"android":"levelo://app?vid=38920943-2edb-41fb-a3f1-146f61bd9f4e","ios":"levelo://app?vid=38920943-2edb-41fb-a3f1-146f61bd9f4e"},"vehicle_type_id":"4","last_reported":1753441808,"current_range_meters":17200,"station_id":"st_cvj6r9ubvosntc0bgbag","pricing_plan_id":"cebpf4jnsgd1na2vs0mg"},{"bike_id":"351557f1-0566-4a9d-ac25-ad86ec7490b5","system_id":"levelo_inurba_marseille","lat":43.337597,"lon":5.374419,"is_reserved":false,"is_disabled":false,"rental_uris":{"android":"levelo://app?vid=351557f1-0566-4a9d-ac25-ad86ec7490b5","ios":"levelo://app?vid=351557f1-0566-4a9d-ac25-ad86ec7490b5"},"vehicle_type_id":"4","last_reported":1753441808,"current_range_meters":17200,"station_id":"","pricing_plan_id":"cebpf4jnsgd1na2vs0mg"},{"bike_id":"de99b14c-9afd-4bdd-bc56-50354c110c3d","system_id":"levelo_inurba_marseille","lat":43.25467,"lon":5.37687,"is_reserved":false,"is_disabled":false,"rental_uris":{"android":"levelo://app?vid=de99b14c-9afd-4bdd-bc56-50354c110c3d","ios":"levelo://app?vid=de99b14c-9afd-4bdd-bc56-50354c110c3d"},"vehicle_type_id":"4","last_reported":1753441808,"current_range_meters":17200,"station_id":"","pricing_plan_id":"cebpf4jnsgd1na2vs0mg"},{"bike_id":"d42fd1d9-8599-4423-8a25-1889aaf7e28d","system_id":"levelo_inurba_marseille","lat":43.229298,"lon":5.353821,"is_reserved":false,"is_disabled":false,"rental_uris":{"android":"levelo://app?vid=d42fd1d9-8599-4423-8a25-1889aaf7e28d","ios":"levelo://app?vid=d42fd1d9-8599-4423-8a25-1889aaf7e28d"},"vehicle_type_id":"4","last_reported":1753441808,"current_range_meters":17200,"station_id":"cpo3532slgdg3j2ikp40","pricing_plan_id":"cebpf4jnsgd1na2vs0mg"},{"bike_id":"6223ba8e-7225-4161-9fd1-067630284087","system_id":"levelo_inurba_marseille","lat":43.29009,"lon":5.35613,"is_reserved":false,"is_disabled":false,"rental_uris":{"android":"levelo://app?vid=6223ba8e-7225-4161-9fd1-067630284087","ios":"levelo://app?vid=6223ba8e-7225-4161-9fd1-067630284087"},"vehicle_type_id":"4","last_reported":1753441808,"current_range_meters":17200,"station_id":"ce4bhb92rcd13ifvqen0","pricing_plan_id":"cebpf4jnsgd1na2vs0mg"},{"bike_id":"57755280-973c-4ff3-9c25-8f15e2c5b510","system_id":"levelo_inurba_marseille","lat":43.31872,"lon":5.37373,"is_reserved":false,"is_disabled":false,"rental_uris":{"android":"levelo://app?vid=57755280-973c-4ff3-9c25-8f15e2c5b510","ios":"levelo://app?vid=57755280-973c-4ff3-9c25-8f15e2c5b510"},"vehicle_type_id":"4","last_reported":1753441808,"current_range_meters":17200,"station_id":"","pricing_plan_id":"cebpf4jnsgd1na2vs0mg"},{"bike_id":"36e72d7a-306d-4d7d-83d8-b68354b31865","system_id":"levelo_inurba_marseille","lat":43.27368,"lon":5.36239,"is_reserved":false,"is_disabled":false,"rental_uris":{"android":"levelo://app?vid=36e72d7a-306d-4d7d-83d8-b68354b31865","ios":"levelo://app?vid=36e72d7a-306d-4d7d-83d8-b68354b31865"},"vehicle_type_id":"4","last_reported":1753441808,"current_range_meters":17600,"station_id":"ce4bhbh2rcd13ifvqeo0","pricing_plan_id":"cebpf4jnsgd1na2vs0mg"},{"bike_id":"09b7f600-cb1e-4ea0-adc2-9c3dcb778794","system_id":"levelo_inurba_marseille","lat":43.22495,"lon":5.34802,"is_reserved":false,"is_disabled":false,"rental_uris":{"android":"levelo://app?vid=09b7f600-cb1e-4ea0-adc2-9c3dcb778794","ios":"levelo://app?vid=09b7f600-cb1e-4ea0-adc2-9c3dcb778794"},"vehicle_type_id":"4","last_reported":1753441808,"current_range_meters":17600,"station_id":"st_cvj5dfep6f1abm77gieg","pricing_plan_id":"cebpf4jnsgd1na2vs0mg"},{"bike_id":"7f7a4770-cb44-4cbe-afee-f7531a238fa9","system_id":"levelo_inurba_marseille","lat":43.22505,"lon":5.34782,"is_reserved":false,"is_disabled":false,"rental_uris":{"android":"levelo://app?vid=7f7a4770-cb44-4cbe-afee-f7531a238fa9","ios":"levelo://app?vid=7f7a4770-cb44-4cbe-afee-f7531a238fa9"},"vehicle_type_id":"4","last_reported":1753441808,"current_range_meters":17600,"station_id":"st_cvj5dfep6f1abm77gieg","pricing_plan_id":"cebpf4jnsgd1na2vs0mg"},{"bike_id":"45853bd8-d558-46af-8dc3-f85dc9b49606","system_id":"levelo_inurba_marseille","lat":43.33759,"lon":5.37447,"is_reserved":false,"is_disabled":false,"rental_uris":{"android":"levelo://app?vid=45853bd8-d558-46af-8dc3-f85dc9b49606","ios":"levelo://app?vid=45853bd8-d558-46af-8dc3-f85dc9b49606"},"vehicle_type_id":"4","last_reported":1753441808,"current_range_meters":17600,"station_id":"","pricing_plan_id":"cebpf4jnsgd1na2vs0mg"},{"bike_id":"4123581e-19e4-43ac-973d-75cce0a8d779","system_id":"levelo_inurba_marseille","lat":43.30155,"lon":5.37422,"is_reserved":false,"is_disabled":false,"rental_uris":{"android":"levelo://app?vid=4123581e-19e4-43ac-973d-75cce0a8d779","ios":"levelo://app?vid=4123581e-19e4-43ac-973d-75cce0a8d779"},"vehicle_type_id":"4","last_reported":1753441808,"current_range_meters":17200,"station_id":"ce4bgs92rcd13ifvqcc0","pricing_plan_id":"cebpf4jnsgd1na2vs0mg"},{"bike_id":"7feafc41-6c5d-4367-babc-a558082ade0d","system_id":"levelo_inurba_marseille","lat":43.30931,"lon":5.4015,"is_reserved":false,"is_disabled":false,"rental_uris":{"android":"levelo://app?vid=7feafc41-6c5d-4367-babc-a558082ade0d","ios":"levelo://app?vid=7feafc41-6c5d-4367-babc-a558082ade0d"},"vehicle_type_id":"4","last_reported":1753441808,"current_range_meters":17600,"station_id":"ce4bgvp2rcd13ifvqct0","pricing_plan_id":"cebpf4jnsgd1na2vs0mg"},{"bike_id":"7528e0ee-3254-4380-8007-ffef61e356ca","system_id":"levelo_inurba_marseille","lat":43.265576,"lon":5.372971,"is_reserved":false,"is_disabled":false,"rental_uris":{"android":"levelo://app?vid=7528e0ee-3254-4380-8007-ffef61e356ca","ios":"levelo://app?vid=7528e0ee-3254-4380-8007-ffef61e356ca"},"vehicle_type_id":"4","last_reported":1753441808,"current_range_meters":17600,"station_id":"ce4bhg12rcd13ifvqf70","pricing_plan_id":"cebpf4jnsgd1na2vs0mg"},{"bike_id":"830ac2da-3449-4c4f-88c4-7edd782ac2a3","system_id":"levelo_inurba_marseille","lat":43.229329,"lon":5.353775,"is_reserved":false,"is_disabled":false,"rental_uris":{"android":"levelo://app?vid=830ac2da-3449-4c4f-88c4-7edd782ac2a3","ios":"levelo://app?vid=830ac2da-3449-4c4f-88c4-7edd782ac2a3"},"vehicle_type_id":"4","last_reported":1753441808,"current_range_meters":17600,"station_id":"cpo3532slgdg3j2ikp40","pricing_plan_id":"cebpf4jnsgd1na2vs0mg"},{"bike_id":"8c5a504e-ddf6-48cf-bf9c-408184b8bb29","system_id":"levelo_inurba_marseille","lat":43.2847,"lon":5.38416,"is_reserved":false,"is_disabled":false,"rental_uris":{"android":"levelo://app?vid=8c5a504e-ddf6-48cf-bf9c-408184b8bb29","ios":"levelo://app?vid=8c5a504e-ddf6-48cf-bf9c-408184b8bb29"},"vehicle_type_id":"4","last_reported":1753441808,"current_range_meters":17600,"station_id":"ce4bh512rcd13ifvqe3g","pricing_plan_id":"cebpf4jnsgd1na2vs0mg"},{"bike_id":"22f5d820-fabb-476a-a172-df18d212b0a4","system_id":"levelo_inurba_marseille","lat":43.30527,"lon":5.38434,"is_reserved":false,"is_disabled":false,"rental_uris":{"android":"levelo://app?vid=22f5d820-fabb-476a-a172-df18d212b0a4","ios":"levelo://app?vid=22f5d820-fabb-476a-a172-df18d212b0a4"},"vehicle_type_id":"4","last_reported":1753441808,"current_range_meters":17200,"station_id":"ce4bgg92rcd13ifvqb30","pricing_plan_id":"cebpf4jnsgd1na2vs0mg"},{"bike_id":"5ec0c64f-b3b2-4d4f-bba1-8753a83f96a8","system_id":"levelo_inurba_marseille","lat":43.21753,"lon":5.34608,"is_reserved":false,"is_disabled":false,"rental_uris":{"android":"levelo://app?vid=5ec0c64f-b3b2-4d4f-bba1-8753a83f96a8","ios":"levelo://app?vid=5ec0c64f-b3b2-4d4f-bba1-8753a83f96a8"},"vehicle_type_id":"4","last_reported":1753441808,"current_range_meters":18000,"station_id":"","pricing_plan_id":"cebpf4jnsgd1na2vs0mg"},{"bike_id":"c5f59a60-a028-46b6-88f7-96f1fe08a3e8","system_id":"levelo_inurba_marseille","lat":43.29931,"lon":5.3652,"is_reserved":false,"is_disabled":false,"rental_uris":{"android":"levelo://app?vid=c5f59a60-a028-46b6-88f7-96f1fe08a3e8","ios":"levelo://app?vid=c5f59a60-a028-46b6-88f7-96f1fe08a3e8"},"vehicle_type_id":"4","last_reported":1753441808,"current_range_meters":18000,"station_id":"ce4bgm92rcd13ifvqbr0","pricing_plan_id":"cebpf4jnsgd1na2vs0mg"},{"bike_id":"f8a5258a-c32a-4c32-9d50-8d119f529a04","system_id":"levelo_inurba_marseille","lat":43.22914,"lon":5.35363,"is_reserved":false,"is_disabled":false,"rental_uris":{"android":"levelo://app?vid=f8a5258a-c32a-4c32-9d50-8d119f529a04","ios":"levelo://app?vid=f8a5258a-c32a-4c32-9d50-8d119f529a04"},"vehicle_type_id":"4","last_reported":1753441808,"current_range_meters":18000,"station_id":"cpo3532slgdg3j2ikp40","pricing_plan_id":"cebpf4jnsgd1na2vs0mg"},{"bike_id":"801a46e1-b7d5-4e78-8be9-08d0266948fd","system_id":"levelo_inurba_marseille","lat":43.32658,"lon":5.40985,"is_reserved":false,"is_disabled":false,"rental_uris":{"android":"levelo://app?vid=801a46e1-b7d5-4e78-8be9-08d0266948fd","ios":"levelo://app?vid=801a46e1-b7d5-4e78-8be9-08d0266948fd"},"vehicle_type_id":"4","last_reported":1753441808,"current_range_meters":18000,"station_id":"ce4bhpp2rcd13ifvqhgg","pricing_plan_id":"cebpf4jnsgd1na2vs0mg"},{"bike_id":"329c8f00-9fb0-47d7-84ef-1bc64e291f9c","system_id":"levelo_inurba_marseille","lat":43.292789,"lon":5.36837,"is_reserved":false,"is_disabled":false,"rental_uris":{"android":"levelo://app?vid=329c8f00-9fb0-47d7-84ef-1bc64e291f9c","ios":"levelo://app?vid=329c8f00-9fb0-47d7-84ef-1bc64e291f9c"},"vehicle_type_id":"4","last_reported":1753441808,"current_range_meters":18000,"station_id":"","pricing_plan_id":"cebpf4jnsgd1na2vs0mg"},{"bike_id":"16971f4c-ccac-4993-ad28-795396f2377f","system_id":"levelo_inurba_marseille","lat":43.24169,"lon":5.364,"is_reserved":false,"is_disabled":false,"rental_uris":{"android":"levelo://app?vid=16971f4c-ccac-4993-ad28-795396f2377f","ios":"levelo://app?vid=16971f4c-ccac-4993-ad28-795396f2377f"},"vehicle_type_id":"4","last_reported":1753441808,"current_range_meters":16800,"station_id":"cpo36qri1sfpv3e86is0","pricing_plan_id":"cebpf4jnsgd1na2vs0mg"},{"bike_id":"6ced7cf5-1105-4778-b8b7-ba28bdc42a27","system_id":"levelo_inurba_marseille","lat":43.3089,"lon":5.37193,"is_reserved":false,"is_disabled":false,"rental_uris":{"android":"levelo://app?vid=6ced7cf5-1105-4778-b8b7-ba28bdc42a27","ios":"levelo://app?vid=6ced7cf5-1105-4778-b8b7-ba28bdc42a27"},"vehicle_type_id":"4","last_reported":1753441808,"current_range_meters":17200,"station_id":"ce4bguh2rcd13ifvqckg","pricing_plan_id":"cebpf4jnsgd1na2vs0mg"},{"bike_id":"cb25e5ff-5c57-4566-a2f6-a586517a5850","system_id":"levelo_inurba_marseille","lat":43.30159,"lon":5.38085,"is_reserved":false,"is_disabled":false,"rental_uris":{"android":"levelo://app?vid=cb25e5ff-5c57-4566-a2f6-a586517a5850","ios":"levelo://app?vid=cb25e5ff-5c57-4566-a2f6-a586517a5850"},"vehicle_type_id":"4","last_reported":1753441808,"current_range_meters":18800,"station_id":"ce4bgjp2rcd13ifvqbh0","pricing_plan_id":"cebpf4jnsgd1na2vs0mg"},{"bike_id":"c54c7470-7323-445b-86e5-5b5ce2f05a24","system_id":"levelo_inurba_marseille","lat":43.21728,"lon":5.346,"is_reserved":false,"is_disabled":false,"rental_uris":{"android":"levelo://app?vid=c54c7470-7323-445b-86e5-5b5ce2f05a24","ios":"levelo://app?vid=c54c7470-7323-445b-86e5-5b5ce2f05a24"},"vehicle_type_id":"4","last_reported":1753441808,"current_range_meters":18800,"station_id":"","pricing_plan_id":"cebpf4jnsgd1na2vs0mg"},{"bike_id":"152247a2-6f09-485f-acf9-4f6bd27a046c","system_id":"levelo_inurba_marseille","lat":43.28137,"lon":5.42669,"is_reserved":false,"is_disabled":false,"rental_uris":{"android":"levelo://app?vid=152247a2-6f09-485f-acf9-4f6bd27a046c","ios":"levelo://app?vid=152247a2-6f09-485f-acf9-4f6bd27a046c"},"vehicle_type_id":"4","last_reported":1753441808,"current_range_meters":18800,"station_id":"ce4bhnh2rcd13ifvqgug","pricing_plan_id":"cebpf4jnsgd1na2vs0mg"},{"bike_id":"638c7b1b-9a74-4d8f-9598-431a4d4886f9","system_id":"levelo_inurba_marseille","lat":43.28483,"lon":5.38427,"is_reserved":false,"is_disabled":false,"rental_uris":{"android":"levelo://app?vid=638c7b1b-9a74-4d8f-9598-431a4d4886f9","ios":"levelo://app?vid=638c7b1b-9a74-4d8f-9598-431a4d4886f9"},"vehicle_type_id":"4","last_reported":1753441808,"current_range_meters":18800,"station_id":"ce4bh512rcd13ifvqe3g","pricing_plan_id":"cebpf4jnsgd1na2vs0mg"},{"bike_id":"ec74f06a-40dc-4c39-a0cb-57d6f568a4e5","system_id":"levelo_inurba_marseille","lat":43.22936,"lon":5.35394,"is_reserved":false,"is_disabled":false,"rental_uris":{"android":"levelo://app?vid=ec74f06a-40dc-4c39-a0cb-57d6f568a4e5","ios":"levelo://app?vid=ec74f06a-40dc-4c39-a0cb-57d6f568a4e5"},"vehicle_type_id":"4","last_reported":1753441808,"current_range_meters":18800,"station_id":"cpo3532slgdg3j2ikp40","pricing_plan_id":"cebpf4jnsgd1na2vs0mg"},{"bike_id":"9c30680c-6533-45b4-84e2-7f707b18c61a","system_id":"levelo_inurba_marseille","lat":43.29568,"lon":5.37511,"is_reserved":false,"is_disabled":false,"rental_uris":{"android":"levelo://app?vid=9c30680c-6533-45b4-84e2-7f707b18c61a","ios":"levelo://app?vid=9c30680c-6533-45b4-84e2-7f707b18c61a"},"vehicle_type_id":"4","last_reported":1753441808,"current_range_meters":18800,"station_id":"ce4bgh92rcd13ifvqb50","pricing_plan_id":"cebpf4jnsgd1na2vs0mg"},{"bike_id":"2de6df84-4a65-421c-a610-eefd67edb8aa","system_id":"levelo_inurba_marseille","lat":43.32465,"lon":5.366,"is_reserved":false,"is_disabled":false,"rental_uris":{"android":"levelo://app?vid=2de6df84-4a65-421c-a610-eefd67edb8aa","ios":"levelo://app?vid=2de6df84-4a65-421c-a610-eefd67edb8aa"},"vehicle_type_id":"4","last_reported":1753441808,"current_range_meters":18800,"station_id":"ce4bhs12rcd13ifvqhvg","pricing_plan_id":"cebpf4jnsgd1na2vs0mg"},{"bike_id":"173c7979-3321-47ea-8a86-a6cd190511a5","system_id":"levelo_inurba_marseille","lat":43.23961,"lon":5.36643,"is_reserved":false,"is_disabled":false,"rental_uris":{"android":"levelo://app?vid=173c7979-3321-47ea-8a86-a6cd190511a5","ios":"levelo://app?vid=173c7979-3321-47ea-8a86-a6cd190511a5"},"vehicle_type_id":"4","last_reported":1753441808,"current_range_meters":18800,"station_id":"ce4bhi12rcd13ifvqfp0","pricing_plan_id":"cebpf4jnsgd1na2vs0mg"},{"bike_id":"80acebb2-0350-48ac-b0aa-274664838171","system_id":"levelo_inurba_marseille","lat":43.241653,"lon":5.36404,"is_reserved":false,"is_disabled":false,"rental_uris":{"android":"levelo://app?vid=80acebb2-0350-48ac-b0aa-274664838171","ios":"levelo://app?vid=80acebb2-0350-48ac-b0aa-274664838171"},"vehicle_type_id":"4","last_reported":1753441808,"current_range_meters":18800,"station_id":"cpo36qri1sfpv3e86is0","pricing_plan_id":"cebpf4jnsgd1na2vs0mg"},{"bike_id":"7e9b3b95-76f8-4691-8980-81cf369ca562","system_id":"levelo_inurba_marseille","lat":43.22929,"lon":5.35375,"is_reserved":false,"is_disabled":false,"rental_uris":{"android":"levelo://app?vid=7e9b3b95-76f8-4691-8980-81cf369ca562","ios":"levelo://app?vid=7e9b3b95-76f8-4691-8980-81cf369ca562"},"vehicle_type_id":"4","last_reported":1753441808,"current_range_meters":18800,"station_id":"cpo3532slgdg3j2ikp40","pricing_plan_id":"cebpf4jnsgd1na2vs0mg"},{"bike_id":"8f4ca69e-9621-4ffd-91af-41f939f5f71e","system_id":"levelo_inurba_marseille","lat":43.23962,"lon":5.36644,"is_reserved":false,"is_disabled":false,"rental_uris":{"android":"levelo://app?vid=8f4ca69e-9621-4ffd-91af-41f939f5f71e","ios":"levelo://app?vid=8f4ca69e-9621-4ffd-91af-41f939f5f71e"},"vehicle_type_id":"4","last_reported":1753441808,"current_range_meters":19200,"station_id":"ce4bhi12rcd13ifvqfp0","pricing_plan_id":"cebpf4jnsgd1na2vs0mg"},{"bike_id":"c3c2652b-f2d7-4ed4-89ec-9559feb01451","system_id":"levelo_inurba_marseille","lat":43.292236,"lon":5.360521,"is_reserved":false,"is_disabled":true,"rental_uris":{"android":"levelo://app?vid=c3c2652b-f2d7-4ed4-89ec-9559feb01451","ios":"levelo://app?vid=c3c2652b-f2d7-4ed4-89ec-9559feb01451"},"vehicle_type_id":"4","last_reported":1753441808,"current_range_meters":19200,"station_id":"ce4bhbh2rcd13ifvqeqg","pricing_plan_id":"cebpf4jnsgd1na2vs0mg"},{"bike_id":"2f762bd5-2373-416e-87fa-b6a645009b60","system_id":"levelo_inurba_marseille","lat":43.26555,"lon":5.37284,"is_reserved":false,"is_disabled":false,"rental_uris":{"android":"levelo://app?vid=2f762bd5-2373-416e-87fa-b6a645009b60","ios":"levelo://app?vid=2f762bd5-2373-416e-87fa-b6a645009b60"},"vehicle_type_id":"4","last_reported":1753441808,"current_range_meters":19200,"station_id":"ce4bhg12rcd13ifvqf70","pricing_plan_id":"cebpf4jnsgd1na2vs0mg"},{"bike_id":"46a8d155-db76-49c9-bf88-f5890fb73ae0","system_id":"levelo_inurba_marseille","lat":43.25017,"lon":5.40478,"is_reserved":false,"is_disabled":false,"rental_uris":{"android":"levelo://app?vid=46a8d155-db76-49c9-bf88-f5890fb73ae0","ios":"levelo://app?vid=46a8d155-db76-49c9-bf88-f5890fb73ae0"},"vehicle_type_id":"4","last_reported":1753441808,"current_range_meters":19200,"station_id":"","pricing_plan_id":"cebpf4jnsgd1na2vs0mg"},{"bike_id":"a1d5115b-997f-44a5-8b4b-21cb29757407","system_id":"levelo_inurba_marseille","lat":43.312136,"lon":5.373251,"is_reserved":false,"is_disabled":false,"rental_uris":{"android":"levelo://app?vid=a1d5115b-997f-44a5-8b4b-21cb29757407","ios":"levelo://app?vid=a1d5115b-997f-44a5-8b4b-21cb29757407"},"vehicle_type_id":"4","last_reported":1753441808,"current_range_meters":19200,"station_id":"","pricing_plan_id":"cebpf4jnsgd1na2vs0mg"},{"bike_id":"a329c077-8985-4709-980a-fa89c162d339","system_id":"levelo_inurba_marseille","lat":43.25005,"lon":5.38982,"is_reserved":false,"is_disabled":false,"rental_uris":{"android":"levelo://app?vid=a329c077-8985-4709-980a-fa89c162d339","ios":"levelo://app?vid=a329c077-8985-4709-980a-fa89c162d339"},"vehicle_type_id":"4","last_reported":1753441808,"current_range_meters":19200,"station_id":"","pricing_plan_id":"cebpf4jnsgd1na2vs0mg"},{"bike_id":"ac8ce396-3dab-4f02-af68-0ee9b6d1d3cb","system_id":"levelo_inurba_marseille","lat":43.312179,"lon":5.368917,"is_reserved":false,"is_disabled":false,"rental_uris":{"android":"levelo://app?vid=ac8ce396-3dab-4f02-af68-0ee9b6d1d3cb","ios":"levelo://app?vid=ac8ce396-3dab-4f02-af68-0ee9b6d1d3cb"},"vehicle_type_id":"4","last_reported":1753441808,"current_range_meters":19200,"station_id":"ce4bgl92rcd13ifvqbq0","pricing_plan_id":"cebpf4jnsgd1na2vs0mg"},{"bike_id":"6ab0b13c-2ff1-417a-acfd-489d6800d4c9","system_id":"levelo_inurba_marseille","lat":43.27374,"lon":5.36245,"is_reserved":false,"is_disabled":false,"rental_uris":{"android":"levelo://app?vid=6ab0b13c-2ff1-417a-acfd-489d6800d4c9","ios":"levelo://app?vid=6ab0b13c-2ff1-417a-acfd-489d6800d4c9"},"vehicle_type_id":"4","last_reported":1753441808,"current_range_meters":19200,"station_id":"ce4bhbh2rcd13ifvqeo0","pricing_plan_id":"cebpf4jnsgd1na2vs0mg"},{"bike_id":"0c2895fc-7d47-473f-97b9-7b04e0277972","system_id":"levelo_inurba_marseille","lat":43.28456,"lon":5.38428,"is_reserved":false,"is_disabled":false,"rental_uris":{"android":"levelo://app?vid=0c2895fc-7d47-473f-97b9-7b04e0277972","ios":"levelo://app?vid=0c2895fc-7d47-473f-97b9-7b04e0277972"},"vehicle_type_id":"4","last_reported":1753441808,"current_range_meters":19600,"station_id":"ce4bh512rcd13ifvqe3g","pricing_plan_id":"cebpf4jnsgd1na2vs0mg"},{"bike_id":"0f1087d3-5460-4f03-ad89-6648b9cef8a3","system_id":"levelo_inurba_marseille","lat":43.28603,"lon":5.37068,"is_reserved":false,"is_disabled":false,"rental_uris":{"android":"levelo://app?vid=0f1087d3-5460-4f03-ad89-6648b9cef8a3","ios":"levelo://app?vid=0f1087d3-5460-4f03-ad89-6648b9cef8a3"},"vehicle_type_id":"4","last_reported":1753441808,"current_range_meters":19600,"station_id":"ce4bht12rcd13ifvqi60","pricing_plan_id":"cebpf4jnsgd1na2vs0mg"},{"bike_id":"517adac8-0bc6-4bf4-8b5a-ef37b0176ee1","system_id":"levelo_inurba_marseille","lat":43.2927,"lon":5.38472,"is_reserved":false,"is_disabled":false,"rental_uris":{"android":"levelo://app?vid=517adac8-0bc6-4bf4-8b5a-ef37b0176ee1","ios":"levelo://app?vid=517adac8-0bc6-4bf4-8b5a-ef37b0176ee1"},"vehicle_type_id":"4","last_reported":1753441808,"current_range_meters":19600,"station_id":"ce4bh692rcd13ifvqea0","pricing_plan_id":"cebpf4jnsgd1na2vs0mg"},{"bike_id":"b0ab26ed-6d98-4d8d-9fc2-b57924d0bcb8","system_id":"levelo_inurba_marseille","lat":43.21751,"lon":5.3461,"is_reserved":false,"is_disabled":false,"rental_uris":{"android":"levelo://app?vid=b0ab26ed-6d98-4d8d-9fc2-b57924d0bcb8","ios":"levelo://app?vid=b0ab26ed-6d98-4d8d-9fc2-b57924d0bcb8"},"vehicle_type_id":"4","last_reported":1753441808,"current_range_meters":19600,"station_id":"","pricing_plan_id":"cebpf4jnsgd1na2vs0mg"},{"bike_id":"f772a45d-02b5-45f4-b97d-2e9324a02bec","system_id":"levelo_inurba_marseille","lat":43.21191,"lon":5.35075,"is_reserved":false,"is_disabled":false,"rental_uris":{"android":"levelo://app?vid=f772a45d-02b5-45f4-b97d-2e9324a02bec","ios":"levelo://app?vid=f772a45d-02b5-45f4-b97d-2e9324a02bec"},"vehicle_type_id":"4","last_reported":1753441808,"current_range_meters":19600,"station_id":"st_cvj6sg6p6f1abm77japg","pricing_plan_id":"cebpf4jnsgd1na2vs0mg"},{"bike_id":"b039c01b-a91f-41a3-b31f-4a9bf28dfccd","system_id":"levelo_inurba_marseille","lat":43.25116,"lon":5.40323,"is_reserved":false,"is_disabled":false,"rental_uris":{"android":"levelo://app?vid=b039c01b-a91f-41a3-b31f-4a9bf28dfccd","ios":"levelo://app?vid=b039c01b-a91f-41a3-b31f-4a9bf28dfccd"},"vehicle_type_id":"4","last_reported":1753441808,"current_range_meters":19600,"station_id":"ce4bhlh2rcd13ifvqgig","pricing_plan_id":"cebpf4jnsgd1na2vs0mg"},{"bike_id":"04b33d6a-df63-4cb3-bdf6-ed8ab48ade1c","system_id":"levelo_inurba_marseille","lat":43.31276,"lon":5.40183,"is_reserved":false,"is_disabled":false,"rental_uris":{"android":"levelo://app?vid=04b33d6a-df63-4cb3-bdf6-ed8ab48ade1c","ios":"levelo://app?vid=04b33d6a-df63-4cb3-bdf6-ed8ab48ade1c"},"vehicle_type_id":"4","last_reported":1753441808,"current_range_meters":19600,"station_id":"ce4bh092rcd13ifvqd30","pricing_plan_id":"cebpf4jnsgd1na2vs0mg"},{"bike_id":"e7652c6c-2402-49f7-a93f-025650a12a4e","system_id":"levelo_inurba_marseille","lat":43.28602,"lon":5.35098,"is_reserved":false,"is_disabled":true,"rental_uris":{"android":"levelo://app?vid=e7652c6c-2402-49f7-a93f-025650a12a4e","ios":"levelo://app?vid=e7652c6c-2402-49f7-a93f-025650a12a4e"},"vehicle_type_id":"4","last_reported":1753441808,"current_range_meters":19600,"station_id":"ce4bhch2rcd13ifvqeug","pricing_plan_id":"cebpf4jnsgd1na2vs0mg"},{"bike_id":"0554f829-fff1-43ff-b6e0-826df53f8314","system_id":"levelo_inurba_marseille","lat":43.29897,"lon":5.43651,"is_reserved":false,"is_disabled":false,"rental_uris":{"android":"levelo://app?vid=0554f829-fff1-43ff-b6e0-826df53f8314","ios":"levelo://app?vid=0554f829-fff1-43ff-b6e0-826df53f8314"},"vehicle_type_id":"4","last_reported":1753441808,"current_range_meters":19600,"station_id":"ce4bhpp2rcd13ifvqhfg","pricing_plan_id":"cebpf4jnsgd1na2vs0mg"},{"bike_id":"d1118ba2-7ab0-47ff-a120-ca2f2f1b3dfe","system_id":"levelo_inurba_marseille","lat":43.28621,"lon":5.35108,"is_reserved":false,"is_disabled":false,"rental_uris":{"android":"levelo://app?vid=d1118ba2-7ab0-47ff-a120-ca2f2f1b3dfe","ios":"levelo://app?vid=d1118ba2-7ab0-47ff-a120-ca2f2f1b3dfe"},"vehicle_type_id":"4","last_reported":1753441808,"current_range_meters":19600,"station_id":"ce4bhch2rcd13ifvqeug","pricing_plan_id":"cebpf4jnsgd1na2vs0mg"},{"bike_id":"1e5c96a6-9d0f-4d5f-85ef-5a5f8ac0317a","system_id":"levelo_inurba_marseille","lat":43.33488,"lon":5.39166,"is_reserved":false,"is_disabled":false,"rental_uris":{"android":"levelo://app?vid=1e5c96a6-9d0f-4d5f-85ef-5a5f8ac0317a","ios":"levelo://app?vid=1e5c96a6-9d0f-4d5f-85ef-5a5f8ac0317a"},"vehicle_type_id":"4","last_reported":1753441808,"current_range_meters":19600,"station_id":"","pricing_plan_id":"cebpf4jnsgd1na2vs0mg"},{"bike_id":"7254aad9-4b7a-44b4-89bb-4f6b7cb10520","system_id":"levelo_inurba_marseille","lat":43.26064,"lon":5.39393,"is_reserved":false,"is_disabled":false,"rental_uris":{"android":"levelo://app?vid=7254aad9-4b7a-44b4-89bb-4f6b7cb10520","ios":"levelo://app?vid=7254aad9-4b7a-44b4-89bb-4f6b7cb10520"},"vehicle_type_id":"4","last_reported":1753441808,"current_range_meters":19600,"station_id":"ce4bhh92rcd13ifvqfj0","pricing_plan_id":"cebpf4jnsgd1na2vs0mg"},{"bike_id":"29254e36-1aef-4592-8a96-6fabe4d06371","system_id":"levelo_inurba_marseille","lat":43.30593,"lon":5.37235,"is_reserved":false,"is_disabled":false,"rental_uris":{"android":"levelo://app?vid=29254e36-1aef-4592-8a96-6fabe4d06371","ios":"levelo://app?vid=29254e36-1aef-4592-8a96-6fabe4d06371"},"vehicle_type_id":"4","last_reported":1753441808,"current_range_meters":19600,"station_id":"ce4bgqh2rcd13ifvqc4g","pricing_plan_id":"cebpf4jnsgd1na2vs0mg"},{"bike_id":"65b1b8f6-ea2a-4432-8c65-805174925d4f","system_id":"levelo_inurba_marseille","lat":43.29289,"lon":5.37438,"is_reserved":false,"is_disabled":false,"rental_uris":{"android":"levelo://app?vid=65b1b8f6-ea2a-4432-8c65-805174925d4f","ios":"levelo://app?vid=65b1b8f6-ea2a-4432-8c65-805174925d4f"},"vehicle_type_id":"4","last_reported":1753441808,"current_range_meters":19600,"station_id":"ce4bgi12rcd13ifvqb70","pricing_plan_id":"cebpf4jnsgd1na2vs0mg"},{"bike_id":"2bd1f7ba-8a8a-4759-8802-644f7d5d4377","system_id":"levelo_inurba_marseille","lat":43.31695,"lon":5.37739,"is_reserved":false,"is_disabled":false,"rental_uris":{"android":"levelo://app?vid=2bd1f7ba-8a8a-4759-8802-644f7d5d4377","ios":"levelo://app?vid=2bd1f7ba-8a8a-4759-8802-644f7d5d4377"},"vehicle_type_id":"4","last_reported":1753441808,"current_range_meters":19600,"station_id":"ce4bgth2rcd13ifvqch0","pricing_plan_id":"cebpf4jnsgd1na2vs0mg"},{"bike_id":"f4fd8122-3542-41c9-a204-ae963e556aa2","system_id":"levelo_inurba_marseille","lat":43.23065,"lon":5.3551,"is_reserved":false,"is_disabled":false,"rental_uris":{"android":"levelo://app?vid=f4fd8122-3542-41c9-a204-ae963e556aa2","ios":"levelo://app?vid=f4fd8122-3542-41c9-a204-ae963e556aa2"},"vehicle_type_id":"4","last_reported":1753441808,"current_range_meters":20000,"station_id":"cpo3342slgdg3j2ifvpg","pricing_plan_id":"cebpf4jnsgd1na2vs0mg"},{"bike_id":"051ddadb-1b27-482e-9afd-0bc30ac6d75e","system_id":"levelo_inurba_marseille","lat":43.2903,"lon":5.38634,"is_reserved":false,"is_disabled":false,"rental_uris":{"android":"levelo://app?vid=051ddadb-1b27-482e-9afd-0bc30ac6d75e","ios":"levelo://app?vid=051ddadb-1b27-482e-9afd-0bc30ac6d75e"},"vehicle_type_id":"4","last_reported":1753441808,"current_range_meters":20000,"station_id":"ce4bh4p2rcd13ifvqe0g","pricing_plan_id":"cebpf4jnsgd1na2vs0mg"},{"bike_id":"88c8821a-6a7e-4d6a-88bc-ea9f3678f039","system_id":"levelo_inurba_marseille","lat":43.27974,"lon":5.38735,"is_reserved":false,"is_disabled":false,"rental_uris":{"android":"levelo://app?vid=88c8821a-6a7e-4d6a-88bc-ea9f3678f039","ios":"levelo://app?vid=88c8821a-6a7e-4d6a-88bc-ea9f3678f039"},"vehicle_type_id":"4","last_reported":1753441808,"current_range_meters":19600,"station_id":"ce4bhg12rcd13ifvqf80","pricing_plan_id":"cebpf4jnsgd1na2vs0mg"},{"bike_id":"96f77023-ea53-45cb-bdfa-60a5716a4f92","system_id":"levelo_inurba_marseille","lat":43.26689,"lon":5.38279,"is_reserved":false,"is_disabled":false,"rental_uris":{"android":"levelo://app?vid=96f77023-ea53-45cb-bdfa-60a5716a4f92","ios":"levelo://app?vid=96f77023-ea53-45cb-bdfa-60a5716a4f92"},"vehicle_type_id":"4","last_reported":1753441808,"current_range_meters":19600,"station_id":"ce4bhg92rcd13ifvqf90","pricing_plan_id":"cebpf4jnsgd1na2vs0mg"},{"bike_id":"52c24918-9d65-42b9-94d9-69a0622d7db3","system_id":"levelo_inurba_marseille","lat":43.321114,"lon":5.367784,"is_reserved":false,"is_disabled":false,"rental_uris":{"android":"levelo://app?vid=52c24918-9d65-42b9-94d9-69a0622d7db3","ios":"levelo://app?vid=52c24918-9d65-42b9-94d9-69a0622d7db3"},"vehicle_type_id":"4","last_reported":1753441808,"current_range_meters":20000,"station_id":"ce4bhrh2rcd13ifvqhug","pricing_plan_id":"cebpf4jnsgd1na2vs0mg"},{"bike_id":"a188ded9-95b9-4d06-88df-d11f98cccfce","system_id":"levelo_inurba_marseille","lat":43.30145,"lon":5.38075,"is_reserved":false,"is_disabled":false,"rental_uris":{"android":"levelo://app?vid=a188ded9-95b9-4d06-88df-d11f98cccfce","ios":"levelo://app?vid=a188ded9-95b9-4d06-88df-d11f98cccfce"},"vehicle_type_id":"4","last_reported":1753441808,"current_range_meters":20000,"station_id":"ce4bgjp2rcd13ifvqbh0","pricing_plan_id":"cebpf4jnsgd1na2vs0mg"},{"bike_id":"85333a3b-9be8-4a22-af2c-50f33eb8750c","system_id":"levelo_inurba_marseille","lat":43.24163,"lon":5.36411,"is_reserved":false,"is_disabled":false,"rental_uris":{"android":"levelo://app?vid=85333a3b-9be8-4a22-af2c-50f33eb8750c","ios":"levelo://app?vid=85333a3b-9be8-4a22-af2c-50f33eb8750c"},"vehicle_type_id":"4","last_reported":1753441808,"current_range_meters":20000,"station_id":"cpo36qri1sfpv3e86is0","pricing_plan_id":"cebpf4jnsgd1na2vs0mg"},{"bike_id":"4301aced-4843-46c7-a687-5376be6def77","system_id":"levelo_inurba_marseille","lat":43.280011,"lon":5.400106,"is_reserved":false,"is_disabled":false,"rental_uris":{"android":"levelo://app?vid=4301aced-4843-46c7-a687-5376be6def77","ios":"levelo://app?vid=4301aced-4843-46c7-a687-5376be6def77"},"vehicle_type_id":"4","last_reported":1753441808,"current_range_meters":20000,"station_id":"ce4bho92rcd13ifvqh4g","pricing_plan_id":"cebpf4jnsgd1na2vs0mg"},{"bike_id":"14ad13d4-ed69-4a97-ad55-e700de529f42","system_id":"levelo_inurba_marseille","lat":43.32548,"lon":5.4143,"is_reserved":false,"is_disabled":false,"rental_uris":{"android":"levelo://app?vid=14ad13d4-ed69-4a97-ad55-e700de529f42","ios":"levelo://app?vid=14ad13d4-ed69-4a97-ad55-e700de529f42"},"vehicle_type_id":"4","last_reported":1753441808,"current_range_meters":20400,"station_id":"ce4bhq12rcd13ifvqhhg","pricing_plan_id":"cebpf4jnsgd1na2vs0mg"},{"bike_id":"afe24484-b08c-4c06-8180-990f38c661e0","system_id":"levelo_inurba_marseille","lat":43.2827,"lon":5.35058,"is_reserved":false,"is_disabled":false,"rental_uris":{"android":"levelo://app?vid=afe24484-b08c-4c06-8180-990f38c661e0","ios":"levelo://app?vid=afe24484-b08c-4c06-8180-990f38c661e0"},"vehicle_type_id":"4","last_reported":1753441808,"current_range_meters":20000,"station_id":"ce4bhbp2rcd13ifvqerg","pricing_plan_id":"cebpf4jnsgd1na2vs0mg"},{"bike_id":"43dbc09e-d0e4-4ddb-bafe-4f55874d23a9","system_id":"levelo_inurba_marseille","lat":43.30229,"lon":5.38221,"is_reserved":false,"is_disabled":false,"rental_uris":{"android":"levelo://app?vid=43dbc09e-d0e4-4ddb-bafe-4f55874d23a9","ios":"levelo://app?vid=43dbc09e-d0e4-4ddb-bafe-4f55874d23a9"},"vehicle_type_id":"4","last_reported":1753441808,"current_range_meters":20000,"station_id":"","pricing_plan_id":"cebpf4jnsgd1na2vs0mg"},{"bike_id":"84b6fd4d-887d-4b56-aa05-df89706df60e","system_id":"levelo_inurba_marseille","lat":43.28406,"lon":5.3501,"is_reserved":false,"is_disabled":false,"rental_uris":{"android":"levelo://app?vid=84b6fd4d-887d-4b56-aa05-df89706df60e","ios":"levelo://app?vid=84b6fd4d-887d-4b56-aa05-df89706df60e"},"vehicle_type_id":"4","last_reported":1753441808,"current_range_meters":20400,"station_id":"ce4bhbh2rcd13ifvqepg","pricing_plan_id":"cebpf4jnsgd1na2vs0mg"},{"bike_id":"c0ef0be2-380e-4cc4-9b78-2732ac9c178b","system_id":"levelo_inurba_marseille","lat":43.27211,"lon":5.39182,"is_reserved":false,"is_disabled":false,"rental_uris":{"android":"levelo://app?vid=c0ef0be2-380e-4cc4-9b78-2732ac9c178b","ios":"levelo://app?vid=c0ef0be2-380e-4cc4-9b78-2732ac9c178b"},"vehicle_type_id":"4","last_reported":1753441808,"current_range_meters":20000,"station_id":"ce4bhhp2rcd13ifvqfm0","pricing_plan_id":"cebpf4jnsgd1na2vs0mg"},{"bike_id":"cd2b193e-b625-4ec0-ae7d-395c13b12641","system_id":"levelo_inurba_marseille","lat":43.30311,"lon":5.39212,"is_reserved":false,"is_disabled":false,"rental_uris":{"android":"levelo://app?vid=cd2b193e-b625-4ec0-ae7d-395c13b12641","ios":"levelo://app?vid=cd2b193e-b625-4ec0-ae7d-395c13b12641"},"vehicle_type_id":"4","last_reported":1753441808,"current_range_meters":20000,"station_id":"ce4bgkh2rcd13ifvqbk0","pricing_plan_id":"cebpf4jnsgd1na2vs0mg"},{"bike_id":"725317c6-351b-43e5-b68d-45c3db010ac3","system_id":"levelo_inurba_marseille","lat":43.28139,"lon":5.42665,"is_reserved":false,"is_disabled":false,"rental_uris":{"android":"levelo://app?vid=725317c6-351b-43e5-b68d-45c3db010ac3","ios":"levelo://app?vid=725317c6-351b-43e5-b68d-45c3db010ac3"},"vehicle_type_id":"4","last_reported":1753441808,"current_range_meters":20400,"station_id":"ce4bhnh2rcd13ifvqgug","pricing_plan_id":"cebpf4jnsgd1na2vs0mg"},{"bike_id":"0b2d4509-0713-467f-8cfd-9323ebd7c6a2","system_id":"levelo_inurba_marseille","lat":43.301735,"lon":5.38076,"is_reserved":false,"is_disabled":false,"rental_uris":{"android":"levelo://app?vid=0b2d4509-0713-467f-8cfd-9323ebd7c6a2","ios":"levelo://app?vid=0b2d4509-0713-467f-8cfd-9323ebd7c6a2"},"vehicle_type_id":"4","last_reported":1753441808,"current_range_meters":20400,"station_id":"ce4bgjp2rcd13ifvqbh0","pricing_plan_id":"cebpf4jnsgd1na2vs0mg"},{"bike_id":"9e6fe47b-2e6d-46a4-90ff-c1a782ea7806","system_id":"levelo_inurba_marseille","lat":43.29233,"lon":5.36991,"is_reserved":false,"is_disabled":false,"rental_uris":{"android":"levelo://app?vid=9e6fe47b-2e6d-46a4-90ff-c1a782ea7806","ios":"levelo://app?vid=9e6fe47b-2e6d-46a4-90ff-c1a782ea7806"},"vehicle_type_id":"4","last_reported":1753441808,"current_range_meters":20400,"station_id":"","pricing_plan_id":"cebpf4jnsgd1na2vs0mg"},{"bike_id":"2703e0a4-7218-4353-b33c-9609c06a5516","system_id":"levelo_inurba_marseille","lat":43.27501,"lon":5.42438,"is_reserved":false,"is_disabled":false,"rental_uris":{"android":"levelo://app?vid=2703e0a4-7218-4353-b33c-9609c06a5516","ios":"levelo://app?vid=2703e0a4-7218-4353-b33c-9609c06a5516"},"vehicle_type_id":"4","last_reported":1753441808,"current_range_meters":20400,"station_id":"ce4bhn92rcd13ifvqgrg","pricing_plan_id":"cebpf4jnsgd1na2vs0mg"},{"bike_id":"41b2d392-b114-4fda-b052-3ba00d6285ba","system_id":"levelo_inurba_marseille","lat":43.30191,"lon":5.38082,"is_reserved":false,"is_disabled":false,"rental_uris":{"android":"levelo://app?vid=41b2d392-b114-4fda-b052-3ba00d6285ba","ios":"levelo://app?vid=41b2d392-b114-4fda-b052-3ba00d6285ba"},"vehicle_type_id":"4","last_reported":1753441808,"current_range_meters":20400,"station_id":"ce4bgjp2rcd13ifvqbh0","pricing_plan_id":"cebpf4jnsgd1na2vs0mg"},{"bike_id":"a05343f6-5345-451e-92c9-8d14b4ec04eb","system_id":"levelo_inurba_marseille","lat":43.314919,"lon":5.373082,"is_reserved":false,"is_disabled":false,"rental_uris":{"android":"levelo://app?vid=a05343f6-5345-451e-92c9-8d14b4ec04eb","ios":"levelo://app?vid=a05343f6-5345-451e-92c9-8d14b4ec04eb"},"vehicle_type_id":"4","last_reported":1753441808,"current_range_meters":20400,"station_id":"","pricing_plan_id":"cebpf4jnsgd1na2vs0mg"},{"bike_id":"febfb0dd-62aa-4333-8aa6-5a2dfd2c5e17","system_id":"levelo_inurba_marseille","lat":43.33156,"lon":5.35975,"is_reserved":false,"is_disabled":false,"rental_uris":{"android":"levelo://app?vid=febfb0dd-62aa-4333-8aa6-5a2dfd2c5e17","ios":"levelo://app?vid=febfb0dd-62aa-4333-8aa6-5a2dfd2c5e17"},"vehicle_type_id":"4","last_reported":1753441808,"current_range_meters":20400,"station_id":"","pricing_plan_id":"cebpf4jnsgd1na2vs0mg"},{"bike_id":"6d48d269-db6f-4a16-9577-2d81522225c2","system_id":"levelo_inurba_marseille","lat":43.27617,"lon":5.36109,"is_reserved":false,"is_disabled":false,"rental_uris":{"android":"levelo://app?vid=6d48d269-db6f-4a16-9577-2d81522225c2","ios":"levelo://app?vid=6d48d269-db6f-4a16-9577-2d81522225c2"},"vehicle_type_id":"4","last_reported":1753441808,"current_range_meters":20400,"station_id":"ce4bgj92rcd13ifvqbe0","pricing_plan_id":"cebpf4jnsgd1na2vs0mg"},{"bike_id":"f0e0dd88-3459-4024-89b2-e73511524ab5","system_id":"levelo_inurba_marseille","lat":43.287184,"lon":5.37952,"is_reserved":false,"is_disabled":false,"rental_uris":{"android":"levelo://app?vid=f0e0dd88-3459-4024-89b2-e73511524ab5","ios":"levelo://app?vid=f0e0dd88-3459-4024-89b2-e73511524ab5"},"vehicle_type_id":"4","last_reported":1753441808,"current_range_meters":20400,"station_id":"ce4bh9p2rcd13ifvqec0","pricing_plan_id":"cebpf4jnsgd1na2vs0mg"},{"bike_id":"61cd7fe3-237f-4708-afc7-dd8a81b4454c","system_id":"levelo_inurba_marseille","lat":43.22925,"lon":5.35381,"is_reserved":false,"is_disabled":false,"rental_uris":{"android":"levelo://app?vid=61cd7fe3-237f-4708-afc7-dd8a81b4454c","ios":"levelo://app?vid=61cd7fe3-237f-4708-afc7-dd8a81b4454c"},"vehicle_type_id":"4","last_reported":1753441808,"current_range_meters":20400,"station_id":"cpo3532slgdg3j2ikp40","pricing_plan_id":"cebpf4jnsgd1na2vs0mg"},{"bike_id":"29ea9d86-1ddf-4fee-8d7c-1ee547d1260a","system_id":"levelo_inurba_marseille","lat":43.28853,"lon":5.35856,"is_reserved":false,"is_disabled":false,"rental_uris":{"android":"levelo://app?vid=29ea9d86-1ddf-4fee-8d7c-1ee547d1260a","ios":"levelo://app?vid=29ea9d86-1ddf-4fee-8d7c-1ee547d1260a"},"vehicle_type_id":"4","last_reported":1753441808,"current_range_meters":20400,"station_id":"ce4bhb12rcd13ifvqem0","pricing_plan_id":"cebpf4jnsgd1na2vs0mg"},{"bike_id":"09e1932f-ab2c-4eb0-a5f9-4b72e2ad0abf","system_id":"levelo_inurba_marseille","lat":43.29517,"lon":5.394,"is_reserved":false,"is_disabled":false,"rental_uris":{"android":"levelo://app?vid=09e1932f-ab2c-4eb0-a5f9-4b72e2ad0abf","ios":"levelo://app?vid=09e1932f-ab2c-4eb0-a5f9-4b72e2ad0abf"},"vehicle_type_id":"4","last_reported":1753441808,"current_range_meters":20000,"station_id":"ce4bh292rcd13ifvqdf0","pricing_plan_id":"cebpf4jnsgd1na2vs0mg"},{"bike_id":"90194df4-0dd8-4419-870e-02694312b506","system_id":"levelo_inurba_marseille","lat":43.25013,"lon":5.38934,"is_reserved":false,"is_disabled":false,"rental_uris":{"android":"levelo://app?vid=90194df4-0dd8-4419-870e-02694312b506","ios":"levelo://app?vid=90194df4-0dd8-4419-870e-02694312b506"},"vehicle_type_id":"4","last_reported":1753441808,"current_range_meters":20400,"station_id":"ce4bhgp2rcd13ifvqfd0","pricing_plan_id":"cebpf4jnsgd1na2vs0mg"},{"bike_id":"a8e8b714-3d7c-4c63-9cb4-66c56334bb95","system_id":"levelo_inurba_marseille","lat":43.30603,"lon":5.37233,"is_reserved":false,"is_disabled":false,"rental_uris":{"android":"levelo://app?vid=a8e8b714-3d7c-4c63-9cb4-66c56334bb95","ios":"levelo://app?vid=a8e8b714-3d7c-4c63-9cb4-66c56334bb95"},"vehicle_type_id":"4","last_reported":1753441808,"current_range_meters":20800,"station_id":"ce4bgqh2rcd13ifvqc4g","pricing_plan_id":"cebpf4jnsgd1na2vs0mg"},{"bike_id":"7e65c5ea-0429-45f5-a396-bd32e67f0744","system_id":"levelo_inurba_marseille","lat":43.33461,"lon":5.40048,"is_reserved":false,"is_disabled":false,"rental_uris":{"android":"levelo://app?vid=7e65c5ea-0429-45f5-a396-bd32e67f0744","ios":"levelo://app?vid=7e65c5ea-0429-45f5-a396-bd32e67f0744"},"vehicle_type_id":"4","last_reported":1753441808,"current_range_meters":20400,"station_id":"","pricing_plan_id":"cebpf4jnsgd1na2vs0mg"},{"bike_id":"3c5c829d-f8d2-4754-8adb-4f267933a19e","system_id":"levelo_inurba_marseille","lat":43.25502,"lon":5.37651,"is_reserved":false,"is_disabled":false,"rental_uris":{"android":"levelo://app?vid=3c5c829d-f8d2-4754-8adb-4f267933a19e","ios":"levelo://app?vid=3c5c829d-f8d2-4754-8adb-4f267933a19e"},"vehicle_type_id":"4","last_reported":1753441808,"current_range_meters":20800,"station_id":"ce4bhh12rcd13ifvqff0","pricing_plan_id":"cebpf4jnsgd1na2vs0mg"},{"bike_id":"93065409-89f0-4afa-80c8-b4dc9fb712c3","system_id":"levelo_inurba_marseille","lat":43.262001,"lon":5.374465,"is_reserved":false,"is_disabled":true,"rental_uris":{"android":"levelo://app?vid=93065409-89f0-4afa-80c8-b4dc9fb712c3","ios":"levelo://app?vid=93065409-89f0-4afa-80c8-b4dc9fb712c3"},"vehicle_type_id":"4","last_reported":1753441808,"current_range_meters":20800,"station_id":"ce4bhgp2rcd13ifvqfc0","pricing_plan_id":"cebpf4jnsgd1na2vs0mg"},{"bike_id":"8d638062-b729-4ab6-a2cd-3ffb748369e4","system_id":"levelo_inurba_marseille","lat":43.30605,"lon":5.37035,"is_reserved":false,"is_disabled":false,"rental_uris":{"android":"levelo://app?vid=8d638062-b729-4ab6-a2cd-3ffb748369e4","ios":"levelo://app?vid=8d638062-b729-4ab6-a2cd-3ffb748369e4"},"vehicle_type_id":"4","last_reported":1753441808,"current_range_meters":20800,"station_id":"","pricing_plan_id":"cebpf4jnsgd1na2vs0mg"},{"bike_id":"bda0b2eb-447d-412f-9eee-0f3855d61c9c","system_id":"levelo_inurba_marseille","lat":43.30986,"lon":5.37964,"is_reserved":false,"is_disabled":false,"rental_uris":{"android":"levelo://app?vid=bda0b2eb-447d-412f-9eee-0f3855d61c9c","ios":"levelo://app?vid=bda0b2eb-447d-412f-9eee-0f3855d61c9c"},"vehicle_type_id":"4","last_reported":1753441808,"current_range_meters":20800,"station_id":"","pricing_plan_id":"cebpf4jnsgd1na2vs0mg"},{"bike_id":"c17e4757-42da-4b8f-b827-7be9515e73ac","system_id":"levelo_inurba_marseille","lat":43.29261,"lon":5.37625,"is_reserved":false,"is_disabled":false,"rental_uris":{"android":"levelo://app?vid=c17e4757-42da-4b8f-b827-7be9515e73ac","ios":"levelo://app?vid=c17e4757-42da-4b8f-b827-7be9515e73ac"},"vehicle_type_id":"4","last_reported":1753441808,"current_range_meters":20800,"station_id":"ce4bgi12rcd13ifvqb80","pricing_plan_id":"cebpf4jnsgd1na2vs0mg"},{"bike_id":"bbf16581-e9a6-4a02-b3eb-5e9ccf496312","system_id":"levelo_inurba_marseille","lat":43.30594,"lon":5.39354,"is_reserved":false,"is_disabled":false,"rental_uris":{"android":"levelo://app?vid=bbf16581-e9a6-4a02-b3eb-5e9ccf496312","ios":"levelo://app?vid=bbf16581-e9a6-4a02-b3eb-5e9ccf496312"},"vehicle_type_id":"4","last_reported":1753441808,"current_range_meters":20800,"station_id":"ce4bh0p2rcd13ifvqd80","pricing_plan_id":"cebpf4jnsgd1na2vs0mg"},{"bike_id":"6308591e-a1f1-45fe-9435-f1e81b4a1b4e","system_id":"levelo_inurba_marseille","lat":43.312929,"lon":5.371591,"is_reserved":false,"is_disabled":false,"rental_uris":{"android":"levelo://app?vid=6308591e-a1f1-45fe-9435-f1e81b4a1b4e","ios":"levelo://app?vid=6308591e-a1f1-45fe-9435-f1e81b4a1b4e"},"vehicle_type_id":"4","last_reported":1753441808,"current_range_meters":20800,"station_id":"","pricing_plan_id":"cebpf4jnsgd1na2vs0mg"},{"bike_id":"4822ec2c-2455-43af-ba5f-254ca606f36d","system_id":"levelo_inurba_marseille","lat":43.26777,"lon":5.3942,"is_reserved":false,"is_disabled":false,"rental_uris":{"android":"levelo://app?vid=4822ec2c-2455-43af-ba5f-254ca606f36d","ios":"levelo://app?vid=4822ec2c-2455-43af-ba5f-254ca606f36d"},"vehicle_type_id":"4","last_reported":1753441808,"current_range_meters":20800,"station_id":"ce4bhh12rcd13ifvqfg0","pricing_plan_id":"cebpf4jnsgd1na2vs0mg"},{"bike_id":"4762a130-5803-422b-abf3-7ad8509cb155","system_id":"levelo_inurba_marseille","lat":43.30107,"lon":5.39107,"is_reserved":false,"is_disabled":false,"rental_uris":{"android":"levelo://app?vid=4762a130-5803-422b-abf3-7ad8509cb155","ios":"levelo://app?vid=4762a130-5803-422b-abf3-7ad8509cb155"},"vehicle_type_id":"4","last_reported":1753441808,"current_range_meters":21600,"station_id":"ce4bh192rcd13ifvqdb0","pricing_plan_id":"cebpf4jnsgd1na2vs0mg"},{"bike_id":"f5409548-7e7f-44af-a2ab-8ae27999e786","system_id":"levelo_inurba_marseille","lat":43.27809,"lon":5.40714,"is_reserved":false,"is_disabled":false,"rental_uris":{"android":"levelo://app?vid=f5409548-7e7f-44af-a2ab-8ae27999e786","ios":"levelo://app?vid=f5409548-7e7f-44af-a2ab-8ae27999e786"},"vehicle_type_id":"4","last_reported":1753441808,"current_range_meters":21600,"station_id":"ce4bhnh2rcd13ifvqgtg","pricing_plan_id":"cebpf4jnsgd1na2vs0mg"},{"bike_id":"b3a145e4-1edf-4ef8-bc2f-13d5c8def0dc","system_id":"levelo_inurba_marseille","lat":43.29759,"lon":5.38068,"is_reserved":false,"is_disabled":false,"rental_uris":{"android":"levelo://app?vid=b3a145e4-1edf-4ef8-bc2f-13d5c8def0dc","ios":"levelo://app?vid=b3a145e4-1edf-4ef8-bc2f-13d5c8def0dc"},"vehicle_type_id":"4","last_reported":1753441808,"current_range_meters":21600,"station_id":"","pricing_plan_id":"cebpf4jnsgd1na2vs0mg"},{"bike_id":"4f70786a-b30f-4433-a51e-067deda4f384","system_id":"levelo_inurba_marseille","lat":43.255,"lon":5.37653,"is_reserved":false,"is_disabled":false,"rental_uris":{"android":"levelo://app?vid=4f70786a-b30f-4433-a51e-067deda4f384","ios":"levelo://app?vid=4f70786a-b30f-4433-a51e-067deda4f384"},"vehicle_type_id":"4","last_reported":1753441808,"current_range_meters":21600,"station_id":"ce4bhh12rcd13ifvqff0","pricing_plan_id":"cebpf4jnsgd1na2vs0mg"},{"bike_id":"2f6d0671-5e79-4570-80c7-7004a3e56a16","system_id":"levelo_inurba_marseille","lat":43.23188,"lon":5.39987,"is_reserved":false,"is_disabled":false,"rental_uris":{"android":"levelo://app?vid=2f6d0671-5e79-4570-80c7-7004a3e56a16","ios":"levelo://app?vid=2f6d0671-5e79-4570-80c7-7004a3e56a16"},"vehicle_type_id":"4","last_reported":1753441808,"current_range_meters":21600,"station_id":"ce4bhn12rcd13ifvqgqg","pricing_plan_id":"cebpf4jnsgd1na2vs0mg"},{"bike_id":"32a674f4-9e24-4034-b442-aab45a81c890","system_id":"levelo_inurba_marseille","lat":43.25491,"lon":5.37658,"is_reserved":false,"is_disabled":false,"rental_uris":{"android":"levelo://app?vid=32a674f4-9e24-4034-b442-aab45a81c890","ios":"levelo://app?vid=32a674f4-9e24-4034-b442-aab45a81c890"},"vehicle_type_id":"4","last_reported":1753441808,"current_range_meters":21600,"station_id":"ce4bhh12rcd13ifvqff0","pricing_plan_id":"cebpf4jnsgd1na2vs0mg"},{"bike_id":"ca6e4571-4a00-41cd-9c03-53df929b98f6","system_id":"levelo_inurba_marseille","lat":43.295626,"lon":5.375275,"is_reserved":false,"is_disabled":false,"rental_uris":{"android":"levelo://app?vid=ca6e4571-4a00-41cd-9c03-53df929b98f6","ios":"levelo://app?vid=ca6e4571-4a00-41cd-9c03-53df929b98f6"},"vehicle_type_id":"4","last_reported":1753441808,"current_range_meters":21600,"station_id":"ce4bgh92rcd13ifvqb50","pricing_plan_id":"cebpf4jnsgd1na2vs0mg"},{"bike_id":"cd3fae2d-50dd-44b0-89ab-287ee33855dc","system_id":"levelo_inurba_marseille","lat":43.28571,"lon":5.39501,"is_reserved":false,"is_disabled":false,"rental_uris":{"android":"levelo://app?vid=cd3fae2d-50dd-44b0-89ab-287ee33855dc","ios":"levelo://app?vid=cd3fae2d-50dd-44b0-89ab-287ee33855dc"},