{"last_updated":1731182936,"ttl":60,"version":"2.2","data":{"bikes":[{"bike_id":"dcd8b508-2c18-4839-ab68-7b52cc2d3fb7","system_id":"levelo_inurba_marseille","lat":43.27076,"lon":5.42282,"is_reserved":false,"is_disabled":false,"rental_uris":{"android":"levelo://app?vid=dcd8b508-2c18-4839-ab68-7b52cc2d3fb7","ios":"levelo://app?vid=dcd8b508-2c18-4839-ab68-7b52cc2d3fb7"},"vehicle_type_id":"4","last_reported":1731182936,"current_range_meters":34000,"station_id":"ce4bhk92rcd13ifvqgb0","pricing_plan_id":"cebpf4jnsgd1na2vs0mg"},{"bike_id":"e94e2327-9eaf-4d26-bd7f-903afa708be6","system_id":"levelo_inurba_marseille","lat":43.33728,"lon":5.39189,"is_reserved":false,"is_disabled":false,"rental_uris":{"android":"levelo://app?vid=e94e2327-9eaf-4d26-bd7f-903afa708be6","ios":"levelo://app?vid=e94e2327-9eaf-4d26-bd7f-903afa708be6"},"vehicle_type_id":"4","last_reported":1731182936,"current_range_meters":17600,"station_id":"ce4bhr92rcd13ifvqhsg","pricing_plan_id":"cebpf4jnsgd1na2vs0mg"},{"bike_id":"b0f42332-bc18-4d94-9a5f-fb485178dd42","system_id":"levelo_inurba_marseille","lat":43.3176,"lon":5.39022,"is_reserved":false,"is_disabled":false,"rental_uris":{"android":"levelo://app?vid=b0f42332-bc18-4d94-9a5f-fb485178dd42","ios":"levelo://app?vid=b0f42332-bc18-4d94-9a5f-fb485178dd42"},"vehicle_type_id":"4","last_reported":1731182936,"current_range_meters":27600,"station_id":"ce4bhqp2rcd13ifvqhng","pricing_plan_id":"cebpf4jnsgd1na2vs0mg"},{"bike_id":"12fad21f-ab5a-4d1d-b045-64f7706ff318","system_id":"levelo_inurba_marseille","lat":43.29975,"lon":5.38498,"is_reserved":false,"is_disabled":false,"rental_uris":{"android":"levelo://app?vid=12fad21f-ab5a-4d1d-b045-64f7706ff318","ios":"levelo://app?vid=12fad21f-ab5a-4d1d-b045-64f7706ff318"},"vehicle_type_id":"4","last_reported":1731182936,"current_range_meters":38000,"station_id":"ce4bgj92rcd13ifvqbd0","pricing_plan_id":"cebpf4jnsgd1na2vs0mg"},{"bike_id":"ebc2dd38-00f9-4425-8b8d-2f7cbcea7677","system_id":"levelo_inurba_marseille","lat":43.28006,"lon":5.40017,"is_reserved":false,"is_disabled":false,"rental_uris":{"android":"levelo://app?vid=ebc2dd38-00f9-4425-8b8d-2f7cbcea7677","ios":"levelo://app?vid=ebc2dd38-00f9-4425-8b8d-2f7cbcea7677"},"vehicle_type_id":"4","last_reported":1731182936,"current_range_meters":38400,"station_id":"ce4bho92rcd13ifvqh4g","pricing_plan_id":"cebpf4jnsgd1na2vs0mg"},{"bike_id":"8d618ad3-e42f-4b7f-961b-1ad00e2aa17c","system_id":"levelo_inurba_marseille","lat":43.25005,"lon":5.38923,"is_reserved":false,"is_disabled":false,"rental_uris":{"android":"levelo://app?vid=8d618ad3-e42f-4b7f-961b-1ad00e2aa17c","ios":"levelo://app?vid=8d618ad3-e42f-4b7f-961b-1ad00e2aa17c"},"vehicle_type_id":"4","last_reported":1731182936,"current_range_meters":38800,"station_id":"ce4bhgp2rcd13ifvqfd0","pricing_plan_id":"cebpf4jnsgd1na2vs0mg"},{"bike_id":"68bb9078-c705-4e4c-81de-7ae7c7d86c43","system_id":"levelo_inurba_marseille","lat":43.31685,"lon":5.37748,"is_reserved":false,"is_disabled":false,"rental_uris":{"android":"levelo://app?vid=68bb9078-c705-4e4c-81de-7ae7c7d86c43","ios":"levelo://app?vid=68bb9078-c705-4e4c-81de-7ae7c7d86c43"},"vehicle_type_id":"4","last_reported":1731182936,"current_range_meters":27200,"station_id":"ce4bgth2rcd13ifvqch0","pricing_plan_id":"cebpf4jnsgd1na2vs0mg"},{"bike_id":"b1b45304-85de-47be-a140-b98549ece647","system_id":"levelo_inurba_marseille","lat":43.29787,"lon":5.38107,"is_reserved":false,"is_disabled":false,"rental_uris":{"android":"levelo://app?vid=b1b45304-85de-47be-a140-b98549ece647","ios":"levelo://app?vid=b1b45304-85de-47be-a140-b98549ece647"},"vehicle_type_id":"4","last_reported":1731182936,"current_range_meters":31200,"station_id":"ce4bgip2rcd13ifvqbb0","pricing_plan_id":"cebpf4jnsgd1na2vs0mg"},{"bike_id":"db24e85c-0936-4611-aa24-e7280f607250","system_id":"levelo_inurba_marseille","lat":43.29422,"lon":5.38628,"is_reserved":false,"is_disabled":false,"rental_uris":{"android":"levelo://app?vid=db24e85c-0936-4611-aa24-e7280f607250","ios":"levelo://app?vid=db24e85c-0936-4611-aa24-e7280f607250"},"vehicle_type_id":"4","last_reported":1731182936,"current_range_meters":32400,"station_id":"ce4bh2h2rcd13ifvqdh0","pricing_plan_id":"cebpf4jnsgd1na2vs0mg"},{"bike_id":"5daf7e81-adca-4c69-ac49-7439dac41928","system_id":"levelo_inurba_marseille","lat":43.29562,"lon":5.42274,"is_reserved":false,"is_disabled":false,"rental_uris":{"android":"levelo://app?vid=5daf7e81-adca-4c69-ac49-7439dac41928","ios":"levelo://app?vid=5daf7e81-adca-4c69-ac49-7439dac41928"},"vehicle_type_id":"4","last_reported":1731182936,"current_range_meters":38800,"station_id":"ce4bhph2rcd13ifvqhdg","pricing_plan_id":"cebpf4jnsgd1na2vs0mg"},{"bike_id":"82a562e7-25b4-427a-a92a-995c79ee4884","system_id":"levelo_inurba_marseille","lat":43.2942,"lon":5.38618,"is_reserved":false,"is_disabled":false,"rental_uris":{"android":"levelo://app?vid=82a562e7-25b4-427a-a92a-995c79ee4884","ios":"levelo://app?vid=82a562e7-25b4-427a-a92a-995c79ee4884"},"vehicle_type_id":"4","last_reported":1731182936,"current_range_meters":18800,"station_id":"ce4bh2h2rcd13ifvqdh0","pricing_plan_id":"cebpf4jnsgd1na2vs0mg"},{"bike_id":"bab7e8bf-3dd9-4ba8-ae9e-1d78dcf614a2","system_id":"levelo_inurba_marseille","lat":43.251043,"lon":5.395311,"is_reserved":false,"is_disabled":false,"rental_uris":{"android":"levelo://app?vid=bab7e8bf-3dd9-4ba8-ae9e-1d78dcf614a2","ios":"levelo://app?vid=bab7e8bf-3dd9-4ba8-ae9e-1d78dcf614a2"},"vehicle_type_id":"4","last_reported":1731182936,"current_range_meters":38800,"station_id":"ce4bhm12rcd13ifvqgkg","pricing_plan_id":"cebpf4jnsgd1na2vs0mg"},{"bike_id":"f335dae8-9093-45c6-9a46-e6e5d9a6730a","system_id":"levelo_inurba_marseille","lat":43.288247,"lon":5.392423,"is_reserved":false,"is_disabled":false,"rental_uris":{"android":"levelo://app?vid=f335dae8-9093-45c6-9a46-e6e5d9a6730a","ios":"levelo://app?vid=f335dae8-9093-45c6-9a46-e6e5d9a6730a"},"vehicle_type_id":"4","last_reported":1731182936,"current_range_meters":16400,"station_id":"ce4bh3p2rcd13ifvqdq0","pricing_plan_id":"cebpf4jnsgd1na2vs0mg"},{"bike_id":"9ad00dfb-bcf1-41d1-90a5-07e9fb6500c9","system_id":"levelo_inurba_marseille","lat":43.27621,"lon":5.36112,"is_reserved":false,"is_disabled":false,"rental_uris":{"android":"levelo://app?vid=9ad00dfb-bcf1-41d1-90a5-07e9fb6500c9","ios":"levelo://app?vid=9ad00dfb-bcf1-41d1-90a5-07e9fb6500c9"},"vehicle_type_id":"4","last_reported":1731182936,"current_range_meters":2800,"station_id":"ce4bgj92rcd13ifvqbe0","pricing_plan_id":"cebpf4jnsgd1na2vs0mg"},{"bike_id":"627dfa44-7782-41fe-87a6-76cedca71182","system_id":"levelo_inurba_marseille","lat":43.30431,"lon":5.389,"is_reserved":false,"is_disabled":false,"rental_uris":{"android":"levelo://app?vid=627dfa44-7782-41fe-87a6-76cedca71182","ios":"levelo://app?vid=627dfa44-7782-41fe-87a6-76cedca71182"},"vehicle_type_id":"4","last_reported":1731182936,"current_range_meters":10800,"station_id":"ce4bgk12rcd13ifvqbi0","pricing_plan_id":"cebpf4jnsgd1na2vs0mg"},{"bike_id":"e9c4c9bd-ebfd-4d35-8e61-d085faf2a90b","system_id":"levelo_inurba_marseille","lat":43.29627,"lon":5.37717,"is_reserved":false,"is_disabled":false,"rental_uris":{"android":"levelo://app?vid=e9c4c9bd-ebfd-4d35-8e61-d085faf2a90b","ios":"levelo://app?vid=e9c4c9bd-ebfd-4d35-8e61-d085faf2a90b"},"vehicle_type_id":"4","last_reported":1731182936,"current_range_meters":38800,"station_id":"ce4bgi92rcd13ifvqb90","pricing_plan_id":"cebpf4jnsgd1na2vs0mg"},{"bike_id":"25a016db-5934-4bcc-b160-867ba2a800ae","system_id":"levelo_inurba_marseille","lat":43.29421,"lon":5.38625,"is_reserved":false,"is_disabled":false,"rental_uris":{"android":"levelo://app?vid=25a016db-5934-4bcc-b160-867ba2a800ae","ios":"levelo://app?vid=25a016db-5934-4bcc-b160-867ba2a800ae"},"vehicle_type_id":"4","last_reported":1731182936,"current_range_meters":25600,"station_id":"ce4bh2h2rcd13ifvqdh0","pricing_plan_id":"cebpf4jnsgd1na2vs0mg"},{"bike_id":"aab8270f-5474-4930-96b3-36dbaf0663ca","system_id":"levelo_inurba_marseille","lat":43.28564,"lon":5.3949,"is_reserved":false,"is_disabled":false,"rental_uris":{"android":"levelo://app?vid=aab8270f-5474-4930-96b3-36dbaf0663ca","ios":"levelo://app?vid=aab8270f-5474-4930-96b3-36dbaf0663ca"},"vehicle_type_id":"4","last_reported":1731182936,"current_range_meters":39200,"station_id":"ce4bh292rcd13ifvqdg0","pricing_plan_id":"cebpf4jnsgd1na2vs0mg"},{"bike_id":"8546af56-b9a2-4430-8501-d5e6c23004bc","system_id":"levelo_inurba_marseille","lat":43.25497,"lon":5.37649,"is_reserved":false,"is_disabled":false,"rental_uris":{"android":"levelo://app?vid=8546af56-b9a2-4430-8501-d5e6c23004bc","ios":"levelo://app?vid=8546af56-b9a2-4430-8501-d5e6c23004bc"},"vehicle_type_id":"4","last_reported":1731182936,"current_range_meters":38400,"station_id":"ce4bhh12rcd13ifvqff0","pricing_plan_id":"cebpf4jnsgd1na2vs0mg"},{"bike_id":"491d95ca-8e36-4d6b-9fea-f282c8ce07a9","system_id":"levelo_inurba_marseille","lat":43.29794,"lon":5.38113,"is_reserved":false,"is_disabled":false,"rental_uris":{"android":"levelo://app?vid=491d95ca-8e36-4d6b-9fea-f282c8ce07a9","ios":"levelo://app?vid=491d95ca-8e36-4d6b-9fea-f282c8ce07a9"},"vehicle_type_id":"4","last_reported":1731182936,"current_range_meters":36800,"station_id":"ce4bgip2rcd13ifvqbb0","pricing_plan_id":"cebpf4jnsgd1na2vs0mg"},{"bike_id":"32c0183c-8b25-46b8-b9cc-394a397eee10","system_id":"levelo_inurba_marseille","lat":43.29022,"lon":5.381283,"is_reserved":false,"is_disabled":false,"rental_uris":{"android":"levelo://app?vid=32c0183c-8b25-46b8-b9cc-394a397eee10","ios":"levelo://app?vid=32c0183c-8b25-46b8-b9cc-394a397eee10"},"vehicle_type_id":"4","last_reported":1731182936,"current_range_meters":38800,"station_id":"ce4bh4p2rcd13ifvqe1g","pricing_plan_id":"cebpf4jnsgd1na2vs0mg"},{"bike_id":"e4741e83-8d7f-4eba-a939-6b9a195f55bd","system_id":"levelo_inurba_marseille","lat":43.30361,"lon":5.38584,"is_reserved":false,"is_disabled":false,"rental_uris":{"android":"levelo://app?vid=e4741e83-8d7f-4eba-a939-6b9a195f55bd","ios":"levelo://app?vid=e4741e83-8d7f-4eba-a939-6b9a195f55bd"},"vehicle_type_id":"4","last_reported":1731182936,"current_range_meters":24400,"station_id":"","pricing_plan_id":"cebpf4jnsgd1na2vs0mg"},{"bike_id":"7c754c60-bfe5-4b6d-a774-f60ff7c9b94a","system_id":"levelo_inurba_marseille","lat":43.24801,"lon":5.37448,"is_reserved":false,"is_disabled":false,"rental_uris":{"android":"levelo://app?vid=7c754c60-bfe5-4b6d-a774-f60ff7c9b94a","ios":"levelo://app?vid=7c754c60-bfe5-4b6d-a774-f60ff7c9b94a"},"vehicle_type_id":"4","last_reported":1731182936,"current_range_meters":8400,"station_id":"ce4bhjp2rcd13ifvqg90","pricing_plan_id":"cebpf4jnsgd1na2vs0mg"},{"bike_id":"b3e47c63-7f80-4237-b227-50e17af583df","system_id":"levelo_inurba_marseille","lat":43.30297,"lon":5.39203,"is_reserved":false,"is_disabled":false,"rental_uris":{"android":"levelo://app?vid=b3e47c63-7f80-4237-b227-50e17af583df","ios":"levelo://app?vid=b3e47c63-7f80-4237-b227-50e17af583df"},"vehicle_type_id":"4","last_reported":1731182936,"current_range_meters":38800,"station_id":"ce4bgkh2rcd13ifvqbk0","pricing_plan_id":"cebpf4jnsgd1na2vs0mg"},{"bike_id":"c21bbdd4-e4f5-4997-95ba-d9b5aa294fac","system_id":"levelo_inurba_marseille","lat":43.27808,"lon":5.40713,"is_reserved":false,"is_disabled":false,"rental_uris":{"android":"levelo://app?vid=c21bbdd4-e4f5-4997-95ba-d9b5aa294fac","ios":"levelo://app?vid=c21bbdd4-e4f5-4997-95ba-d9b5aa294fac"},"vehicle_type_id":"4","last_reported":1731182936,"current_range_meters":4000,"station_id":"ce4bhnh2rcd13ifvqgtg","pricing_plan_id":"cebpf4jnsgd1na2vs0mg"},{"bike_id":"b9059161-bc2a-4853-8231-de961bd5f1e7","system_id":"levelo_inurba_marseille","lat":43.33721,"lon":5.39184,"is_reserved":false,"is_disabled":false,"rental_uris":{"android":"levelo://app?vid=b9059161-bc2a-4853-8231-de961bd5f1e7","ios":"levelo://app?vid=b9059161-bc2a-4853-8231-de961bd5f1e7"},"vehicle_type_id":"4","last_reported":1731182936,"current_range_meters":21600,"station_id":"ce4bhr92rcd13ifvqhsg","pricing_plan_id":"cebpf4jnsgd1na2vs0mg"},{"bike_id":"7ac36c98-5f7b-4304-a286-ea6f9baa0e94","system_id":"levelo_inurba_marseille","lat":43.24673,"lon":5.38169,"is_reserved":false,"is_disabled":false,"rental_uris":{"android":"levelo://app?vid=7ac36c98-5f7b-4304-a286-ea6f9baa0e94","ios":"levelo://app?vid=7ac36c98-5f7b-4304-a286-ea6f9baa0e94"},"vehicle_type_id":"4","last_reported":1731182936,"current_range_meters":38800,"station_id":"ce4bhih2rcd13ifvqfr0","pricing_plan_id":"cebpf4jnsgd1na2vs0mg"},{"bike_id":"842b65f8-a3af-443b-8d42-37ce5a79ba02","system_id":"levelo_inurba_marseille","lat":43.23969,"lon":5.36623,"is_reserved":false,"is_disabled":false,"rental_uris":{"android":"levelo://app?vid=842b65f8-a3af-443b-8d42-37ce5a79ba02","ios":"levelo://app?vid=842b65f8-a3af-443b-8d42-37ce5a79ba02"},"vehicle_type_id":"4","last_reported":1731182936,"current_range_meters":5600,"station_id":"ce4bhi12rcd13ifvqfp0","pricing_plan_id":"cebpf4jnsgd1na2vs0mg"},{"bike_id":"9e00ae8d-b3a9-4d4b-a691-62debbf0e14c","system_id":"levelo_inurba_marseille","lat":43.23187,"lon":5.39991,"is_reserved":false,"is_disabled":false,"rental_uris":{"android":"levelo://app?vid=9e00ae8d-b3a9-4d4b-a691-62debbf0e14c","ios":"levelo://app?vid=9e00ae8d-b3a9-4d4b-a691-62debbf0e14c"},"vehicle_type_id":"4","last_reported":1731182936,"current_range_meters":38800,"station_id":"ce4bhn12rcd13ifvqgqg","pricing_plan_id":"cebpf4jnsgd1na2vs0mg"},{"bike_id":"3e09356d-842a-4c31-9cc1-46c2d49b70cc","system_id":"levelo_inurba_marseille","lat":43.32363,"lon":5.38883,"is_reserved":false,"is_disabled":false,"rental_uris":{"android":"levelo://app?vid=3e09356d-842a-4c31-9cc1-46c2d49b70cc","ios":"levelo://app?vid=3e09356d-842a-4c31-9cc1-46c2d49b70cc"},"vehicle_type_id":"4","last_reported":1731182936,"current_range_meters":3600,"station_id":"ce4bhqp2rcd13ifvqhog","pricing_plan_id":"cebpf4jnsgd1na2vs0mg"},{"bike_id":"9d060b47-c978-4432-b622-c8056cdba2bd","system_id":"levelo_inurba_marseille","lat":43.27071,"lon":5.42275,"is_reserved":false,"is_disabled":false,"rental_uris":{"android":"levelo://app?vid=9d060b47-c978-4432-b622-c8056cdba2bd","ios":"levelo://app?vid=9d060b47-c978-4432-b622-c8056cdba2bd"},"vehicle_type_id":"4","last_reported":1731182936,"current_range_meters":15200,"station_id":"ce4bhk92rcd13ifvqgb0","pricing_plan_id":"cebpf4jnsgd1na2vs0mg"},{"bike_id":"0c840890-4ab7-41f8-8e64-cf28adac14a2","system_id":"levelo_inurba_marseille","lat":43.24996,"lon":5.38933,"is_reserved":false,"is_disabled":false,"rental_uris":{"android":"levelo://app?vid=0c840890-4ab7-41f8-8e64-cf28adac14a2","ios":"levelo://app?vid=0c840890-4ab7-41f8-8e64-cf28adac14a2"},"vehicle_type_id":"4","last_reported":1731182936,"current_range_meters":32000,"station_id":"ce4bhgp2rcd13ifvqfd0","pricing_plan_id":"cebpf4jnsgd1na2vs0mg"},{"bike_id":"7f6039b9-3968-4840-8062-3d5a572ce874","system_id":"levelo_inurba_marseille","lat":43.29624,"lon":5.38786,"is_reserved":false,"is_disabled":false,"rental_uris":{"android":"levelo://app?vid=7f6039b9-3968-4840-8062-3d5a572ce874","ios":"levelo://app?vid=7f6039b9-3968-4840-8062-3d5a572ce874"},"vehicle_type_id":"4","last_reported":1731182936,"current_range_meters":36400,"station_id":"","pricing_plan_id":"cebpf4jnsgd1na2vs0mg"},{"bike_id":"0895aa40-b5f1-4923-b742-567b31932882","system_id":"levelo_inurba_marseille","lat":43.29031,"lon":5.38643,"is_reserved":false,"is_disabled":false,"rental_uris":{"android":"levelo://app?vid=0895aa40-b5f1-4923-b742-567b31932882","ios":"levelo://app?vid=0895aa40-b5f1-4923-b742-567b31932882"},"vehicle_type_id":"4","last_reported":1731182936,"current_range_meters":10000,"station_id":"ce4bh4p2rcd13ifvqe0g","pricing_plan_id":"cebpf4jnsgd1na2vs0mg"},{"bike_id":"d2b69f2e-daf8-4233-be65-2d8ca4c447e9","system_id":"levelo_inurba_marseille","lat":43.25819,"lon":5.39434,"is_reserved":false,"is_disabled":false,"rental_uris":{"android":"levelo://app?vid=d2b69f2e-daf8-4233-be65-2d8ca4c447e9","ios":"levelo://app?vid=d2b69f2e-daf8-4233-be65-2d8ca4c447e9"},"vehicle_type_id":"4","last_reported":1731182936,"current_range_meters":36000,"station_id":"ce4bhip2rcd13ifvqft0","pricing_plan_id":"cebpf4jnsgd1na2vs0mg"},{"bike_id":"22c1039a-3f92-4394-9c5d-93bfb30a65e0","system_id":"levelo_inurba_marseille","lat":43.255,"lon":5.37651,"is_reserved":false,"is_disabled":false,"rental_uris":{"android":"levelo://app?vid=22c1039a-3f92-4394-9c5d-93bfb30a65e0","ios":"levelo://app?vid=22c1039a-3f92-4394-9c5d-93bfb30a65e0"},"vehicle_type_id":"4","last_reported":1731182936,"current_range_meters":19600,"station_id":"ce4bhh12rcd13ifvqff0","pricing_plan_id":"cebpf4jnsgd1na2vs0mg"},{"bike_id":"022a6c3f-2c40-4cbf-9753-f6fa44b0f843","system_id":"levelo_inurba_marseille","lat":43.31288,"lon":5.40167,"is_reserved":false,"is_disabled":false,"rental_uris":{"android":"levelo://app?vid=022a6c3f-2c40-4cbf-9753-f6fa44b0f843","ios":"levelo://app?vid=022a6c3f-2c40-4cbf-9753-f6fa44b0f843"},"vehicle_type_id":"4","last_reported":1731182936,"current_range_meters":38000,"station_id":"ce4bh092rcd13ifvqd30","pricing_plan_id":"cebpf4jnsgd1na2vs0mg"},{"bike_id":"f558ea4f-d047-481c-9fbf-d3b1e5bd4e51","system_id":"levelo_inurba_marseille","lat":43.29912,"lon":5.38134,"is_reserved":false,"is_disabled":false,"rental_uris":{"android":"levelo://app?vid=f558ea4f-d047-481c-9fbf-d3b1e5bd4e51","ios":"levelo://app?vid=f558ea4f-d047-481c-9fbf-d3b1e5bd4e51"},"vehicle_type_id":"4","last_reported":1731182936,"current_range_meters":38000,"station_id":"ce4bgj12rcd13ifvqbc0","pricing_plan_id":"cebpf4jnsgd1na2vs0mg"},{"bike_id":"bc3a48a9-7194-48b5-ad77-f491458d95e1","system_id":"levelo_inurba_marseille","lat":43.31283,"lon":5.40166,"is_reserved":false,"is_disabled":false,"rental_uris":{"android":"levelo://app?vid=bc3a48a9-7194-48b5-ad77-f491458d95e1","ios":"levelo://app?vid=bc3a48a9-7194-48b5-ad77-f491458d95e1"},"vehicle_type_id":"4","last_reported":1731182936,"current_range_meters":28000,"station_id":"ce4bh092rcd13ifvqd30","pricing_plan_id":"cebpf4jnsgd1na2vs0mg"},{"bike_id":"0b1003f5-9f7a-4ce6-832d-c86bfa2fc9d2","system_id":"levelo_inurba_marseille","lat":43.29519,"lon":5.39043,"is_reserved":false,"is_disabled":false,"rental_uris":{"android":"levelo://app?vid=0b1003f5-9f7a-4ce6-832d-c86bfa2fc9d2","ios":"levelo://app?vid=0b1003f5-9f7a-4ce6-832d-c86bfa2fc9d2"},"vehicle_type_id":"4","last_reported":1731182936,"current_range_meters":23200,"station_id":"ce4bh3p2rcd13ifvqdp0","pricing_plan_id":"cebpf4jnsgd1na2vs0mg"},{"bike_id":"fd6353c9-68a7-40ee-9ddb-2bb01f7b5217","system_id":"levelo_inurba_marseille","lat":43.26208,"lon":5.37441,"is_reserved":false,"is_disabled":false,"rental_uris":{"android":"levelo://app?vid=fd6353c9-68a7-40ee-9ddb-2bb01f7b5217","ios":"levelo://app?vid=fd6353c9-68a7-40ee-9ddb-2bb01f7b5217"},"vehicle_type_id":"4","last_reported":1731182936,"current_range_meters":24800,"station_id":"ce4bhgp2rcd13ifvqfc0","pricing_plan_id":"cebpf4jnsgd1na2vs0mg"},{"bike_id":"24379765-2365-4292-a764-63d757b8cdf7","system_id":"levelo_inurba_marseille","lat":43.29991,"lon":5.38481,"is_reserved":false,"is_disabled":false,"rental_uris":{"android":"levelo://app?vid=24379765-2365-4292-a764-63d757b8cdf7","ios":"levelo://app?vid=24379765-2365-4292-a764-63d757b8cdf7"},"vehicle_type_id":"4","last_reported":1731182936,"current_range_meters":24000,"station_id":"ce4bgj92rcd13ifvqbd0","pricing_plan_id":"cebpf4jnsgd1na2vs0mg"},{"bike_id":"f02d1200-952c-40e4-9f6c-736ac33cf164","system_id":"levelo_inurba_marseille","lat":43.24078,"lon":5.3775,"is_reserved":false,"is_disabled":false,"rental_uris":{"android":"levelo://app?vid=f02d1200-952c-40e4-9f6c-736ac33cf164","ios":"levelo://app?vid=f02d1200-952c-40e4-9f6c-736ac33cf164"},"vehicle_type_id":"4","last_reported":1731182936,"current_range_meters":27600,"station_id":"ce4bhnp2rcd13ifvqgvg","pricing_plan_id":"cebpf4jnsgd1na2vs0mg"},{"bike_id":"eec9916a-0b6a-4049-a49b-a53fd50f0e4c","system_id":"levelo_inurba_marseille","lat":43.29963,"lon":5.38502,"is_reserved":false,"is_disabled":false,"rental_uris":{"android":"levelo://app?vid=eec9916a-0b6a-4049-a49b-a53fd50f0e4c","ios":"levelo://app?vid=eec9916a-0b6a-4049-a49b-a53fd50f0e4c"},"vehicle_type_id":"4","last_reported":1731182936,"current_range_meters":17600,"station_id":"ce4bgj92rcd13ifvqbd0","pricing_plan_id":"cebpf4jnsgd1na2vs0mg"},{"bike_id":"b1ecee2f-b8b4-4cb1-b1d1-c31d65983a4e","system_id":"levelo_inurba_marseille","lat":43.29616,"lon":5.37715,"is_reserved":false,"is_disabled":false,"rental_uris":{"android":"levelo://app?vid=b1ecee2f-b8b4-4cb1-b1d1-c31d65983a4e","ios":"levelo://app?vid=b1ecee2f-b8b4-4cb1-b1d1-c31d65983a4e"},"vehicle_type_id":"4","last_reported":1731182936,"current_range_meters":33200,"station_id":"ce4bgi92rcd13ifvqb90","pricing_plan_id":"cebpf4jnsgd1na2vs0mg"},{"bike_id":"4e167b6a-95ea-4c5a-b48a-967acf7cdae4","system_id":"levelo_inurba_marseille","lat":43.29423,"lon":5.38624,"is_reserved":false,"is_disabled":false,"rental_uris":{"android":"levelo://app?vid=4e167b6a-95ea-4c5a-b48a-967acf7cdae4","ios":"levelo://app?vid=4e167b6a-95ea-4c5a-b48a-967acf7cdae4"},"vehicle_type_id":"4","last_reported":1731182936,"current_range_meters":38800,"station_id":"ce4bh2h2rcd13ifvqdh0","pricing_plan_id":"cebpf4jnsgd1na2vs0mg"},{"bike_id":"e931dbea-a637-4f2a-b715-63e0aded4802","system_id":"levelo_inurba_marseille","lat":43.311733,"lon":5.38709,"is_reserved":false,"is_disabled":false,"rental_uris":{"android":"levelo://app?vid=e931dbea-a637-4f2a-b715-63e0aded4802","ios":"levelo://app?vid=e931dbea-a637-4f2a-b715-63e0aded4802"},"vehicle_type_id":"4","last_reported":1731182936,"current_range_meters":39200,"station_id":"ce4bgv12rcd13ifvqcp0","pricing_plan_id":"cebpf4jnsgd1na2vs0mg"},{"bike_id":"c2e7ed3a-f62d-4fe5-9088-bf07ba717243","system_id":"levelo_inurba_marseille","lat":43.26686,"lon":5.3827,"is_reserved":false,"is_disabled":false,"rental_uris":{"android":"levelo://app?vid=c2e7ed3a-f62d-4fe5-9088-bf07ba717243","ios":"levelo://app?vid=c2e7ed3a-f62d-4fe5-9088-bf07ba717243"},"vehicle_type_id":"4","last_reported":1731182936,"current_range_meters":4400,"station_id":"ce4bhg92rcd13ifvqf90","pricing_plan_id":"cebpf4jnsgd1na2vs0mg"},{"bike_id":"71bb50a1-6cdb-4a6f-b24c-1cbd7c603ad3","system_id":"levelo_inurba_marseille","lat":43.31438,"lon":5.3741,"is_reserved":false,"is_disabled":false,"rental_uris":{"android":"levelo://app?vid=71bb50a1-6cdb-4a6f-b24c-1cbd7c603ad3","ios":"levelo://app?vid=71bb50a1-6cdb-4a6f-b24c-1cbd7c603ad3"},"vehicle_type_id":"4","last_reported":1731182936,"current_range_meters":26000,"station_id":"","pricing_plan_id":"cebpf4jnsgd1na2vs0mg"},{"bike_id":"c94909dd-e782-4a49-bf66-6d27f36ac2ee","system_id":"levelo_inurba_marseille","lat":43.29642,"lon":5.38081,"is_reserved":false,"is_disabled":false,"rental_uris":{"android":"levelo://app?vid=c94909dd-e782-4a49-bf66-6d27f36ac2ee","ios":"levelo://app?vid=c94909dd-e782-4a49-bf66-6d27f36ac2ee"},"vehicle_type_id":"4","last_reported":1731182936,"current_range_meters":33200,"station_id":"","pricing_plan_id":"cebpf4jnsgd1na2vs0mg"},{"bike_id":"c221efe7-efcb-49b8-a1b0-1dd8d171a453","system_id":"levelo_inurba_marseille","lat":43.33739,"lon":5.39178,"is_reserved":false,"is_disabled":false,"rental_uris":{"android":"levelo://app?vid=c221efe7-efcb-49b8-a1b0-1dd8d171a453","ios":"levelo://app?vid=c221efe7-efcb-49b8-a1b0-1dd8d171a453"},"vehicle_type_id":"4","last_reported":1731182936,"current_range_meters":37600,"station_id":"ce4bhr92rcd13ifvqhsg","pricing_plan_id":"cebpf4jnsgd1na2vs0mg"},{"bike_id":"b8fdd341-0697-41ca-82c9-e4253415f4e6","system_id":"levelo_inurba_marseille","lat":43.23062,"lon":5.35493,"is_reserved":false,"is_disabled":false,"rental_uris":{"android":"levelo://app?vid=b8fdd341-0697-41ca-82c9-e4253415f4e6","ios":"levelo://app?vid=b8fdd341-0697-41ca-82c9-e4253415f4e6"},"vehicle_type_id":"4","last_reported":1731182936,"current_range_meters":30800,"station_id":"cpo3342slgdg3j2ifvpg","pricing_plan_id":"cebpf4jnsgd1na2vs0mg"},{"bike_id":"cf9daf46-3bd1-47e7-80ac-0de06577c598","system_id":"levelo_inurba_marseille","lat":43.24386,"lon":5.37054,"is_reserved":false,"is_disabled":false,"rental_uris":{"android":"levelo://app?vid=cf9daf46-3bd1-47e7-80ac-0de06577c598","ios":"levelo://app?vid=cf9daf46-3bd1-47e7-80ac-0de06577c598"},"vehicle_type_id":"4","last_reported":1731182936,"current_range_meters":4400,"station_id":"ce4bhhh2rcd13ifvqfk0","pricing_plan_id":"cebpf4jnsgd1na2vs0mg"},{"bike_id":"682c62c4-efad-4143-9619-7a2e52a2302e","system_id":"levelo_inurba_marseille","lat":43.29419,"lon":5.38624,"is_reserved":false,"is_disabled":false,"rental_uris":{"android":"levelo://app?vid=682c62c4-efad-4143-9619-7a2e52a2302e","ios":"levelo://app?vid=682c62c4-efad-4143-9619-7a2e52a2302e"},"vehicle_type_id":"4","last_reported":1731182936,"current_range_meters":16400,"station_id":"ce4bh2h2rcd13ifvqdh0","pricing_plan_id":"cebpf4jnsgd1na2vs0mg"},{"bike_id":"293483d6-6326-4561-ab3e-ed615f5625f1","system_id":"levelo_inurba_marseille","lat":43.30444,"lon":5.38882,"is_reserved":false,"is_disabled":false,"rental_uris":{"android":"levelo://app?vid=293483d6-6326-4561-ab3e-ed615f5625f1","ios":"levelo://app?vid=293483d6-6326-4561-ab3e-ed615f5625f1"},"vehicle_type_id":"4","last_reported":1731182936,"current_range_meters":26000,"station_id":"ce4bgk12rcd13ifvqbi0","pricing_plan_id":"cebpf4jnsgd1na2vs0mg"},{"bike_id":"5522894e-f5c1-432c-9c12-0e95590ee043","system_id":"levelo_inurba_marseille","lat":43.28041,"lon":5.36949,"is_reserved":false,"is_disabled":false,"rental_uris":{"android":"levelo://app?vid=5522894e-f5c1-432c-9c12-0e95590ee043","ios":"levelo://app?vid=5522894e-f5c1-432c-9c12-0e95590ee043"},"vehicle_type_id":"4","last_reported":1731182936,"current_range_meters":22800,"station_id":"ce4bha12rcd13ifvqef0","pricing_plan_id":"cebpf4jnsgd1na2vs0mg"},{"bike_id":"9273fa3f-8051-4693-b481-186e59c04091","system_id":"levelo_inurba_marseille","lat":43.29423,"lon":5.3862,"is_reserved":false,"is_disabled":false,"rental_uris":{"android":"levelo://app?vid=9273fa3f-8051-4693-b481-186e59c04091","ios":"levelo://app?vid=9273fa3f-8051-4693-b481-186e59c04091"},"vehicle_type_id":"4","last_reported":1731182936,"current_range_meters":18000,"station_id":"ce4bh2h2rcd13ifvqdh0","pricing_plan_id":"cebpf4jnsgd1na2vs0mg"},{"bike_id":"9f03247c-8b27-4aa4-bebe-2b5e05ea31d4","system_id":"levelo_inurba_marseille","lat":43.29304,"lon":5.37447,"is_reserved":false,"is_disabled":false,"rental_uris":{"android":"levelo://app?vid=9f03247c-8b27-4aa4-bebe-2b5e05ea31d4","ios":"levelo://app?vid=9f03247c-8b27-4aa4-bebe-2b5e05ea31d4"},"vehicle_type_id":"4","last_reported":1731182936,"current_range_meters":38000,"station_id":"ce4bgi12rcd13ifvqb70","pricing_plan_id":"cebpf4jnsgd1na2vs0mg"},{"bike_id":"3203bb65-5251-43ad-a068-2657685d0a3c","system_id":"levelo_inurba_marseille","lat":43.25092,"lon":5.39522,"is_reserved":false,"is_disabled":false,"rental_uris":{"android":"levelo://app?vid=3203bb65-5251-43ad-a068-2657685d0a3c","ios":"levelo://app?vid=3203bb65-5251-43ad-a068-2657685d0a3c"},"vehicle_type_id":"4","last_reported":1731182936,"current_range_meters":38400,"station_id":"ce4bhm12rcd13ifvqgkg","pricing_plan_id":"cebpf4jnsgd1na2vs0mg"},{"bike_id":"17865758-ce74-473a-8a77-e9f2f25c0736","system_id":"levelo_inurba_marseille","lat":43.26558,"lon":5.37284,"is_reserved":false,"is_disabled":false,"rental_uris":{"android":"levelo://app?vid=17865758-ce74-473a-8a77-e9f2f25c0736","ios":"levelo://app?vid=17865758-ce74-473a-8a77-e9f2f25c0736"},"vehicle_type_id":"4","last_reported":1731182936,"current_range_meters":28800,"station_id":"ce4bhg12rcd13ifvqf70","pricing_plan_id":"cebpf4jnsgd1na2vs0mg"},{"bike_id":"45da62df-7f80-44a3-ba8e-1acd781a5f69","system_id":"levelo_inurba_marseille","lat":43.29555,"lon":5.42281,"is_reserved":false,"is_disabled":false,"rental_uris":{"android":"levelo://app?vid=45da62df-7f80-44a3-ba8e-1acd781a5f69","ios":"levelo://app?vid=45da62df-7f80-44a3-ba8e-1acd781a5f69"},"vehicle_type_id":"4","last_reported":1731182936,"current_range_meters":28000,"station_id":"ce4bhph2rcd13ifvqhdg","pricing_plan_id":"cebpf4jnsgd1na2vs0mg"},{"bike_id":"db1a2310-5803-448b-acbe-53edc83ead70","system_id":"levelo_inurba_marseille","lat":43.30636,"lon":5.40087,"is_reserved":false,"is_disabled":false,"rental_uris":{"android":"levelo://app?vid=db1a2310-5803-448b-acbe-53edc83ead70","ios":"levelo://app?vid=db1a2310-5803-448b-acbe-53edc83ead70"},"vehicle_type_id":"4","last_reported":1731182936,"current_range_meters":36000,"station_id":"ce4bh112rcd13ifvqda0","pricing_plan_id":"cebpf4jnsgd1na2vs0mg"},{"bike_id":"2972f759-c98e-4fe7-9758-85d215895273","system_id":"levelo_inurba_marseille","lat":43.23964,"lon":5.36627,"is_reserved":false,"is_disabled":false,"rental_uris":{"android":"levelo://app?vid=2972f759-c98e-4fe7-9758-85d215895273","ios":"levelo://app?vid=2972f759-c98e-4fe7-9758-85d215895273"},"vehicle_type_id":"4","last_reported":1731182936,"current_range_meters":38800,"station_id":"ce4bhi12rcd13ifvqfp0","pricing_plan_id":"cebpf4jnsgd1na2vs0mg"},{"bike_id":"010d3bc6-1da9-4e2e-9558-6436a5780c21","system_id":"levelo_inurba_marseille","lat":43.23204,"lon":5.35548,"is_reserved":false,"is_disabled":false,"rental_uris":{"android":"levelo://app?vid=010d3bc6-1da9-4e2e-9558-6436a5780c21","ios":"levelo://app?vid=010d3bc6-1da9-4e2e-9558-6436a5780c21"},"vehicle_type_id":"4","last_reported":1731182936,"current_range_meters":38800,"station_id":"ce4bhu92rcd13ifvqi70","pricing_plan_id":"cebpf4jnsgd1na2vs0mg"},{"bike_id":"197c105a-f7c0-4383-adea-686cdf323f28","system_id":"levelo_inurba_marseille","lat":43.31727,"lon":5.43712,"is_reserved":false,"is_disabled":false,"rental_uris":{"android":"levelo://app?vid=197c105a-f7c0-4383-adea-686cdf323f28","ios":"levelo://app?vid=197c105a-f7c0-4383-adea-686cdf323f28"},"vehicle_type_id":"4","last_reported":1731182936,"current_range_meters":28000,"station_id":"ce4bhp92rcd13ifvqhcg","pricing_plan_id":"cebpf4jnsgd1na2vs0mg"},{"bike_id":"720179be-536c-414c-b19d-c298d2a8d0ec","system_id":"levelo_inurba_marseille","lat":43.29554,"lon":5.4229,"is_reserved":false,"is_disabled":false,"rental_uris":{"android":"levelo://app?vid=720179be-536c-414c-b19d-c298d2a8d0ec","ios":"levelo://app?vid=720179be-536c-414c-b19d-c298d2a8d0ec"},"vehicle_type_id":"4","last_reported":1731182936,"current_range_meters":3600,"station_id":"ce4bhph2rcd13ifvqhdg","pricing_plan_id":"cebpf4jnsgd1na2vs0mg"},{"bike_id":"091a95f2-fbba-49b3-a29a-ec1683eff292","system_id":"levelo_inurba_marseille","lat":43.25119,"lon":5.40314,"is_reserved":false,"is_disabled":false,"rental_uris":{"android":"levelo://app?vid=091a95f2-fbba-49b3-a29a-ec1683eff292","ios":"levelo://app?vid=091a95f2-fbba-49b3-a29a-ec1683eff292"},"vehicle_type_id":"4","last_reported":1731182936,"current_range_meters":9200,"station_id":"ce4bhlh2rcd13ifvqgig","pricing_plan_id":"cebpf4jnsgd1na2vs0mg"},{"bike_id":"d347d0fd-cd9c-442c-bc3b-21bed1f5c461","system_id":"levelo_inurba_marseille","lat":43.31118,"lon":5.37763,"is_reserved":false,"is_disabled":false,"rental_uris":{"android":"levelo://app?vid=d347d0fd-cd9c-442c-bc3b-21bed1f5c461","ios":"levelo://app?vid=d347d0fd-cd9c-442c-bc3b-21bed1f5c461"},"vehicle_type_id":"4","last_reported":1731182936,"current_range_meters":38800,"station_id":"ce4bgt92rcd13ifvqcg0","pricing_plan_id":"cebpf4jnsgd1na2vs0mg"},{"bike_id":"b484e10f-5530-499a-9266-a7d441c35196","system_id":"levelo_inurba_marseille","lat":43.29271,"lon":5.38444,"is_reserved":false,"is_disabled":false,"rental_uris":{"android":"levelo://app?vid=b484e10f-5530-499a-9266-a7d441c35196","ios":"levelo://app?vid=b484e10f-5530-499a-9266-a7d441c35196"},"vehicle_type_id":"4","last_reported":1731182936,"current_range_meters":22800,"station_id":"ce4bh692rcd13ifvqea0","pricing_plan_id":"cebpf4jnsgd1na2vs0mg"},{"bike_id":"018a3589-77d8-4b19-83ac-f9642172d886","system_id":"levelo_inurba_marseille","lat":43.2811,"lon":5.37835,"is_reserved":false,"is_disabled":false,"rental_uris":{"android":"levelo://app?vid=018a3589-77d8-4b19-83ac-f9642172d886","ios":"levelo://app?vid=018a3589-77d8-4b19-83ac-f9642172d886"},"vehicle_type_id":"4","last_reported":1731182936,"current_range_meters":24400,"station_id":"ce4bha12rcd13ifvqee0","pricing_plan_id":"cebpf4jnsgd1na2vs0mg"},{"bike_id":"b7bc27a0-904c-44a5-9e17-cf8702d28d10","system_id":"levelo_inurba_marseille","lat":43.27498,"lon":5.42447,"is_reserved":false,"is_disabled":false,"rental_uris":{"android":"levelo://app?vid=b7bc27a0-904c-44a5-9e17-cf8702d28d10","ios":"levelo://app?vid=b7bc27a0-904c-44a5-9e17-cf8702d28d10"},"vehicle_type_id":"4","last_reported":1731182936,"current_range_meters":28800,"station_id":"ce4bhn92rcd13ifvqgrg","pricing_plan_id":"cebpf4jnsgd1na2vs0mg"},{"bike_id":"7412918f-e852-4734-ac8b-c4b5d62b6217","system_id":"levelo_inurba_marseille","lat":43.3137,"lon":5.38503,"is_reserved":false,"is_disabled":false,"rental_uris":{"android":"levelo://app?vid=7412918f-e852-4734-ac8b-c4b5d62b6217","ios":"levelo://app?vid=7412918f-e852-4734-ac8b-c4b5d62b6217"},"vehicle_type_id":"4","last_reported":1731182936,"current_range_meters":19200,"station_id":"ce4bgt92rcd13ifvqcf0","pricing_plan_id":"cebpf4jnsgd1na2vs0mg"},{"bike_id":"2ad361b6-540e-4873-9e5b-6b5de9b52523","system_id":"levelo_inurba_marseille","lat":43.23963,"lon":5.36622,"is_reserved":false,"is_disabled":false,"rental_uris":{"android":"levelo://app?vid=2ad361b6-540e-4873-9e5b-6b5de9b52523","ios":"levelo://app?vid=2ad361b6-540e-4873-9e5b-6b5de9b52523"},"vehicle_type_id":"4","last_reported":1731182936,"current_range_meters":6400,"station_id":"ce4bhi12rcd13ifvqfp0","pricing_plan_id":"cebpf4jnsgd1na2vs0mg"},{"bike_id":"2dd3642c-3383-41e6-ad25-833a8bc678a1","system_id":"levelo_inurba_marseille","lat":43.27671,"lon":5.38889,"is_reserved":false,"is_disabled":false,"rental_uris":{"android":"levelo://app?vid=2dd3642c-3383-41e6-ad25-833a8bc678a1","ios":"levelo://app?vid=2dd3642c-3383-41e6-ad25-833a8bc678a1"},"vehicle_type_id":"4","last_reported":1731182936,"current_range_meters":13600,"station_id":"ce4bhi12rcd13ifvqfo0","pricing_plan_id":"cebpf4jnsgd1na2vs0mg"},{"bike_id":"cb9b0141-af3c-4068-925c-38c2867ded80","system_id":"levelo_inurba_marseille","lat":43.27375,"lon":5.36249,"is_reserved":false,"is_disabled":false,"rental_uris":{"android":"levelo://app?vid=cb9b0141-af3c-4068-925c-38c2867ded80","ios":"levelo://app?vid=cb9b0141-af3c-4068-925c-38c2867ded80"},"vehicle_type_id":"4","last_reported":1731182936,"current_range_meters":11600,"station_id":"ce4bhbh2rcd13ifvqeo0","pricing_plan_id":"cebpf4jnsgd1na2vs0mg"},{"bike_id":"39f17349-ada4-4402-b2d4-f4683db56d2d","system_id":"levelo_inurba_marseille","lat":43.27497,"lon":5.4245,"is_reserved":false,"is_disabled":false,"rental_uris":{"android":"levelo://app?vid=39f17349-ada4-4402-b2d4-f4683db56d2d","ios":"levelo://app?vid=39f17349-ada4-4402-b2d4-f4683db56d2d"},"vehicle_type_id":"4","last_reported":1731182936,"current_range_meters":38400,"station_id":"ce4bhn92rcd13ifvqgrg","pricing_plan_id":"cebpf4jnsgd1na2vs0mg"},{"bike_id":"b9478b1d-79e3-44c9-ae60-496dd5151f62","system_id":"levelo_inurba_marseille","lat":43.29175,"lon":5.37147,"is_reserved":false,"is_disabled":false,"rental_uris":{"android":"levelo://app?vid=b9478b1d-79e3-44c9-ae60-496dd5151f62","ios":"levelo://app?vid=b9478b1d-79e3-44c9-ae60-496dd5151f62"},"vehicle_type_id":"4","last_reported":1731182936,"current_range_meters":35600,"station_id":"ce4bha92rcd13ifvqeh0","pricing_plan_id":"cebpf4jnsgd1na2vs0mg"},{"bike_id":"b0ddf9b4-5e10-4df8-a49e-eaf62a5f5034","system_id":"levelo_inurba_marseille","lat":43.30162,"lon":5.38084,"is_reserved":false,"is_disabled":false,"rental_uris":{"android":"levelo://app?vid=b0ddf9b4-5e10-4df8-a49e-eaf62a5f5034","ios":"levelo://app?vid=b0ddf9b4-5e10-4df8-a49e-eaf62a5f5034"},"vehicle_type_id":"4","last_reported":1731182936,"current_range_meters":28400,"station_id":"ce4bgjp2rcd13ifvqbh0","pricing_plan_id":"cebpf4jnsgd1na2vs0mg"},{"bike_id":"4204c697-9142-4d6f-a64b-20f319f8c9a7","system_id":"levelo_inurba_marseille","lat":43.2707,"lon":5.42273,"is_reserved":false,"is_disabled":false,"rental_uris":{"android":"levelo://app?vid=4204c697-9142-4d6f-a64b-20f319f8c9a7","ios":"levelo://app?vid=4204c697-9142-4d6f-a64b-20f319f8c9a7"},"vehicle_type_id":"4","last_reported":1731182936,"current_range_meters":12000,"station_id":"ce4bhk92rcd13ifvqgb0","pricing_plan_id":"cebpf4jnsgd1na2vs0mg"},{"bike_id":"be64923b-9a6b-4619-89ba-5854a132c672","system_id":"levelo_inurba_marseille","lat":43.26806,"lon":5.40269,"is_reserved":false,"is_disabled":false,"rental_uris":{"android":"levelo://app?vid=be64923b-9a6b-4619-89ba-5854a132c672","ios":"levelo://app?vid=be64923b-9a6b-4619-89ba-5854a132c672"},"vehicle_type_id":"4","last_reported":1731182936,"current_range_meters":10800,"station_id":"ce501612rcd8frsf0b60","pricing_plan_id":"cebpf4jnsgd1na2vs0mg"},{"bike_id":"de15f00a-25b1-4b9b-a102-3b4e4c3a83ba","system_id":"levelo_inurba_marseille","lat":43.3017,"lon":5.38084,"is_reserved":false,"is_disabled":false,"rental_uris":{"android":"levelo://app?vid=de15f00a-25b1-4b9b-a102-3b4e4c3a83ba","ios":"levelo://app?vid=de15f00a-25b1-4b9b-a102-3b4e4c3a83ba"},"vehicle_type_id":"4","last_reported":1731182936,"current_range_meters":28800,"station_id":"ce4bgjp2rcd13ifvqbh0","pricing_plan_id":"cebpf4jnsgd1na2vs0mg"},{"bike_id":"3a118f73-4a27-43eb-90d2-9a235b7e31e8","system_id":"levelo_inurba_marseille","lat":43.298,"lon":5.38087,"is_reserved":false,"is_disabled":false,"rental_uris":{"android":"levelo://app?vid=3a118f73-4a27-43eb-90d2-9a235b7e31e8","ios":"levelo://app?vid=3a118f73-4a27-43eb-90d2-9a235b7e31e8"},"vehicle_type_id":"4","last_reported":1731182936,"current_range_meters":37600,"station_id":"ce4bgip2rcd13ifvqbb0","pricing_plan_id":"cebpf4jnsgd1na2vs0mg"},{"bike_id":"4f8f3d05-77a1-4608-a529-e5ae940296cc","system_id":"levelo_inurba_marseille","lat":43.28938,"lon":5.36634,"is_reserved":false,"is_disabled":false,"rental_uris":{"android":"levelo://app?vid=4f8f3d05-77a1-4608-a529-e5ae940296cc","ios":"levelo://app?vid=4f8f3d05-77a1-4608-a529-e5ae940296cc"},"vehicle_type_id":"4","last_reported":1731182936,"current_range_meters":34800,"station_id":"ce4bhap2rcd13ifvqek0","pricing_plan_id":"cebpf4jnsgd1na2vs0mg"},{"bike_id":"eacf22f6-5577-470e-8fee-00969aaa2765","system_id":"levelo_inurba_marseille","lat":43.31687,"lon":5.40477,"is_reserved":false,"is_disabled":false,"rental_uris":{"android":"levelo://app?vid=eacf22f6-5577-470e-8fee-00969aaa2765","ios":"levelo://app?vid=eacf22f6-5577-470e-8fee-00969aaa2765"},"vehicle_type_id":"4","last_reported":1731182936,"current_range_meters":14000,"station_id":"ce4bh012rcd13ifvqd00","pricing_plan_id":"cebpf4jnsgd1na2vs0mg"},{"bike_id":"5bf22cbb-f31b-471c-8d5f-6aeecda0ccf8","system_id":"levelo_inurba_marseille","lat":43.29081,"lon":5.37155,"is_reserved":false,"is_disabled":false,"rental_uris":{"android":"levelo://app?vid=5bf22cbb-f31b-471c-8d5f-6aeecda0ccf8","ios":"levelo://app?vid=5bf22cbb-f31b-471c-8d5f-6aeecda0ccf8"},"vehicle_type_id":"4","last_reported":1731182936,"current_range_meters":17200,"station_id":"ce4bh5p2rcd13ifvqe4g","pricing_plan_id":"cebpf4jnsgd1na2vs0mg"},{"bike_id":"804d2fde-04b0-40eb-88dc-2871e13c434d","system_id":"levelo_inurba_marseille","lat":43.29566,"lon":5.37509,"is_reserved":false,"is_disabled":false,"rental_uris":{"android":"levelo://app?vid=804d2fde-04b0-40eb-88dc-2871e13c434d","ios":"levelo://app?vid=804d2fde-04b0-40eb-88dc-2871e13c434d"},"vehicle_type_id":"4","last_reported":1731182936,"current_range_meters":38000,"station_id":"ce4bgh92rcd13ifvqb50","pricing_plan_id":"cebpf4jnsgd1na2vs0mg"},{"bike_id":"9a23734e-d78f-4570-ac93-276040298589","system_id":"levelo_inurba_marseille","lat":43.25117,"lon":5.40319,"is_reserved":false,"is_disabled":false,"rental_uris":{"android":"levelo://app?vid=9a23734e-d78f-4570-ac93-276040298589","ios":"levelo://app?vid=9a23734e-d78f-4570-ac93-276040298589"},"vehicle_type_id":"4","last_reported":1731182936,"current_range_meters":38800,"station_id":"ce4bhlh2rcd13ifvqgig","pricing_plan_id":"cebpf4jnsgd1na2vs0mg"},{"bike_id":"9c2120df-2235-4930-94e8-53b17691e145","system_id":"levelo_inurba_marseille","lat":43.282654,"lon":5.350578,"is_reserved":false,"is_disabled":false,"rental_uris":{"android":"levelo://app?vid=9c2120df-2235-4930-94e8-53b17691e145","ios":"levelo://app?vid=9c2120df-2235-4930-94e8-53b17691e145"},"vehicle_type_id":"4","last_reported":1731182936,"current_range_meters":21600,"station_id":"ce4bhbp2rcd13ifvqerg","pricing_plan_id":"cebpf4jnsgd1na2vs0mg"},{"bike_id":"e6dc57cf-44da-4102-9d69-7c7b35161e11","system_id":"levelo_inurba_marseille","lat":43.24166,"lon":5.36395,"is_reserved":false,"is_disabled":false,"rental_uris":{"android":"levelo://app?vid=e6dc57cf-44da-4102-9d69-7c7b35161e11","ios":"levelo://app?vid=e6dc57cf-44da-4102-9d69-7c7b35161e11"},"vehicle_type_id":"4","last_reported":1731182936,"current_range_meters":38800,"station_id":"cpo36qri1sfpv3e86is0","pricing_plan_id":"cebpf4jnsgd1na2vs0mg"},{"bike_id":"ef288286-229d-4b9a-a189-8d61840dcffb","system_id":"levelo_inurba_marseille","lat":43.23198,"lon":5.35549,"is_reserved":false,"is_disabled":false,"rental_uris":{"android":"levelo://app?vid=ef288286-229d-4b9a-a189-8d61840dcffb","ios":"levelo://app?vid=ef288286-229d-4b9a-a189-8d61840dcffb"},"vehicle_type_id":"4","last_reported":1731182936,"current_range_meters":32000,"station_id":"ce4bhu92rcd13ifvqi70","pricing_plan_id":"cebpf4jnsgd1na2vs0mg"},{"bike_id":"89ea51fd-e137-4511-a82c-5e2fe2edbcd7","system_id":"levelo_inurba_marseille","lat":43.29261,"lon":5.38433,"is_reserved":false,"is_disabled":false,"rental_uris":{"android":"levelo://app?vid=89ea51fd-e137-4511-a82c-5e2fe2edbcd7","ios":"levelo://app?vid=89ea51fd-e137-4511-a82c-5e2fe2edbcd7"},"vehicle_type_id":"4","last_reported":1731182936,"current_range_meters":22000,"station_id":"ce4bh692rcd13ifvqea0","pricing_plan_id":"cebpf4jnsgd1na2vs0mg"},{"bike_id":"29831e44-80f6-4b23-93d4-fc8b0d9e5081","system_id":"levelo_inurba_marseille","lat":43.32655,"lon":5.40994,"is_reserved":false,"is_disabled":false,"rental_uris":{"android":"levelo://app?vid=29831e44-80f6-4b23-93d4-fc8b0d9e5081","ios":"levelo://app?vid=29831e44-80f6-4b23-93d4-fc8b0d9e5081"},"vehicle_type_id":"4","last_reported":1731182936,"current_range_meters":38800,"station_id":"ce4bhpp2rcd13ifvqhgg","pricing_plan_id":"cebpf4jnsgd1na2vs0mg"},{"bike_id":"66996a9f-b0d6-4321-b58b-f77b066950c5","system_id":"levelo_inurba_marseille","lat":43.29517,"lon":5.39043,"is_reserved":false,"is_disabled":false,"rental_uris":{"android":"levelo://app?vid=66996a9f-b0d6-4321-b58b-f77b066950c5","ios":"levelo://app?vid=66996a9f-b0d6-4321-b58b-f77b066950c5"},"vehicle_type_id":"4","last_reported":1731182936,"current_range_meters":37600,"station_id":"ce4bh3p2rcd13ifvqdp0","pricing_plan_id":"cebpf4jnsgd1na2vs0mg"},{"bike_id":"7f0b151f-707d-4e17-92a8-e86a0b1a1933","system_id":"levelo_inurba_marseille","lat":43.27255,"lon":5.3918,"is_reserved":false,"is_disabled":false,"rental_uris":{"android":"levelo://app?vid=7f0b151f-707d-4e17-92a8-e86a0b1a1933","ios":"levelo://app?vid=7f0b151f-707d-4e17-92a8-e86a0b1a1933"},"vehicle_type_id":"4","last_reported":1731182936,"current_range_meters":36000,"station_id":"ce4bhhp2rcd13ifvqfm0","pricing_plan_id":"cebpf4jnsgd1na2vs0mg"},{"bike_id":"b209aea8-010f-4804-9829-2e3b3a19832b","system_id":"levelo_inurba_marseille","lat":43.29973,"lon":5.37177,"is_reserved":false,"is_disabled":false,"rental_uris":{"android":"levelo://app?vid=b209aea8-010f-4804-9829-2e3b3a19832b","ios":"levelo://app?vid=b209aea8-010f-4804-9829-2e3b3a19832b"},"vehicle_type_id":"4","last_reported":1731182936,"current_range_meters":28400,"station_id":"ce4bgr92rcd13ifvqc7g","pricing_plan_id":"cebpf4jnsgd1na2vs0mg"},{"bike_id":"6f6e3ebe-ece3-404f-b0f4-90bf6918c822","system_id":"levelo_inurba_marseille","lat":43.2996,"lon":5.41312,"is_reserved":false,"is_disabled":false,"rental_uris":{"android":"levelo://app?vid=6f6e3ebe-ece3-404f-b0f4-90bf6918c822","ios":"levelo://app?vid=6f6e3ebe-ece3-404f-b0f4-90bf6918c822"},"vehicle_type_id":"4","last_reported":1731182936,"current_range_meters":36800,"station_id":"ce4bhp12rcd13ifvqh9g","pricing_plan_id":"cebpf4jnsgd1na2vs0mg"},{"bike_id":"a2fa04e3-6643-42d6-935c-150fa80d7020","system_id":"levelo_inurba_marseille","lat":43.29592,"lon":5.381,"is_reserved":false,"is_disabled":false,"rental_uris":{"android":"levelo://app?vid=a2fa04e3-6643-42d6-935c-150fa80d7020","ios":"levelo://app?vid=a2fa04e3-6643-42d6-935c-150fa80d7020"},"vehicle_type_id":"4","last_reported":1731182936,"current_range_meters":38800,"station_id":"ce4bgl12rcd13ifvqbo0","pricing_plan_id":"cebpf4jnsgd1na2vs0mg"},{"bike_id":"50dbf5a8-127a-4b83-8559-ce30ebb77bae","system_id":"levelo_inurba_marseille","lat":43.25088,"lon":5.39526,"is_reserved":false,"is_disabled":false,"rental_uris":{"android":"levelo://app?vid=50dbf5a8-127a-4b83-8559-ce30ebb77bae","ios":"levelo://app?vid=50dbf5a8-127a-4b83-8559-ce30ebb77bae"},"vehicle_type_id":"4","last_reported":1731182936,"current_range_meters":38800,"station_id":"ce4bhm12rcd13ifvqgkg","pricing_plan_id":"cebpf4jnsgd1na2vs0mg"},{"bike_id":"81d75b94-235f-4d66-95b8-a1c86584fb9a","system_id":"levelo_inurba_marseille","lat":43.29911,"lon":5.38067,"is_reserved":false,"is_disabled":false,"rental_uris":{"android":"levelo://app?vid=81d75b94-235f-4d66-95b8-a1c86584fb9a","ios":"levelo://app?vid=81d75b94-235f-4d66-95b8-a1c86584fb9a"},"vehicle_type_id":"4","last_reported":1731182936,"current_range_meters":8000,"station_id":"","pricing_plan_id":"cebpf4jnsgd1na2vs0mg"},{"bike_id":"3e386fa3-7a39-4d19-9935-e1f3cbb67acf","system_id":"levelo_inurba_marseille","lat":43.28008,"lon":5.40021,"is_reserved":false,"is_disabled":false,"rental_uris":{"android":"levelo://app?vid=3e386fa3-7a39-4d19-9935-e1f3cbb67acf","ios":"levelo://app?vid=3e386fa3-7a39-4d19-9935-e1f3cbb67acf"},"vehicle_type_id":"4","last_reported":1731182936,"current_range_meters":37600,"station_id":"ce4bho92rcd13ifvqh4g","pricing_plan_id":"cebpf4jnsgd1na2vs0mg"},{"bike_id":"eb1def67-f0ff-4658-a1e2-9a4802d2f119","system_id":"levelo_inurba_marseille","lat":43.29626,"lon":5.3772,"is_reserved":false,"is_disabled":false,"rental_uris":{"android":"levelo://app?vid=eb1def67-f0ff-4658-a1e2-9a4802d2f119","ios":"levelo://app?vid=eb1def67-f0ff-4658-a1e2-9a4802d2f119"},"vehicle_type_id":"4","last_reported":1731182936,"current_range_meters":17600,"station_id":"ce4bgi92rcd13ifvqb90","pricing_plan_id":"cebpf4jnsgd1na2vs0mg"},{"bike_id":"f0730e13-11c4-4020-956a-ca204d2dd6c0","system_id":"levelo_inurba_marseille","lat":43.29564,"lon":5.42294,"is_reserved":false,"is_disabled":false,"rental_uris":{"android":"levelo://app?vid=f0730e13-11c4-4020-956a-ca204d2dd6c0","ios":"levelo://app?vid=f0730e13-11c4-4020-956a-ca204d2dd6c0"},"vehicle_type_id":"4","last_reported":1731182936,"current_range_meters":8400,"station_id":"ce4bhph2rcd13ifvqhdg","pricing_plan_id":"cebpf4jnsgd1na2vs0mg"},{"bike_id":"b4ae073f-443a-4b39-b711-9f256a9870a7","system_id":"levelo_inurba_marseille","lat":43.28663,"lon":5.36353,"is_reserved":false,"is_disabled":false,"rental_uris":{"android":"levelo://app?vid=b4ae073f-443a-4b39-b711-9f256a9870a7","ios":"levelo://app?vid=b4ae073f-443a-4b39-b711-9f256a9870a7"},"vehicle_type_id":"4","last_reported":1731182936,"current_range_meters":20800,"station_id":"ce4bhah2rcd13ifvqej0","pricing_plan_id":"cebpf4jnsgd1na2vs0mg"},{"bike_id":"b66b1d6b-71a0-477f-a8e4-5c83ce8687f4","system_id":"levelo_inurba_marseille","lat":43.29538,"lon":5.38543,"is_reserved":false,"is_disabled":false,"rental_uris":{"android":"levelo://app?vid=b66b1d6b-71a0-477f-a8e4-5c83ce8687f4","ios":"levelo://app?vid=b66b1d6b-71a0-477f-a8e4-5c83ce8687f4"},"vehicle_type_id":"4","last_reported":1731182936,"current_range_meters":30000,"station_id":"ce4bgih2rcd13ifvqba0","pricing_plan_id":"cebpf4jnsgd1na2vs0mg"},{"bike_id":"acfc4c88-f0d5-497e-86c1-c566b23c1747","system_id":"levelo_inurba_marseille","lat":43.24817,"lon":5.37456,"is_reserved":false,"is_disabled":false,"rental_uris":{"android":"levelo://app?vid=acfc4c88-f0d5-497e-86c1-c566b23c1747","ios":"levelo://app?vid=acfc4c88-f0d5-497e-86c1-c566b23c1747"},"vehicle_type_id":"4","last_reported":1731182936,"current_range_meters":6800,"station_id":"ce4bhgh2rcd13ifvqfb0","pricing_plan_id":"cebpf4jnsgd1na2vs0mg"},{"bike_id":"d8b069df-29e1-4273-99b0-c9104446d9c3","system_id":"levelo_inurba_marseille","lat":43.232,"lon":5.35556,"is_reserved":false,"is_disabled":false,"rental_uris":{"android":"levelo://app?vid=d8b069df-29e1-4273-99b0-c9104446d9c3","ios":"levelo://app?vid=d8b069df-29e1-4273-99b0-c9104446d9c3"},"vehicle_type_id":"4","last_reported":1731182936,"current_range_meters":8800,"station_id":"ce4bhu92rcd13ifvqi70","pricing_plan_id":"cebpf4jnsgd1na2vs0mg"},{"bike_id":"966fc991-e46d-41cf-85eb-7c6d5f74e195","system_id":"levelo_inurba_marseille","lat":43.3055,"lon":5.36694,"is_reserved":false,"is_disabled":false,"rental_uris":{"android":"levelo://app?vid=966fc991-e46d-41cf-85eb-7c6d5f74e195","ios":"levelo://app?vid=966fc991-e46d-41cf-85eb-7c6d5f74e195"},"vehicle_type_id":"4","last_reported":1731182936,"current_range_meters":24000,"station_id":"ce4bgrp2rcd13ifvqc9g","pricing_plan_id":"cebpf4jnsgd1na2vs0mg"},{"bike_id":"fbbe362b-7b29-4c8f-b506-484f07761f02","system_id":"levelo_inurba_marseille","lat":43.29915,"lon":5.37461,"is_reserved":false,"is_disabled":false,"rental_uris":{"android":"levelo://app?vid=fbbe362b-7b29-4c8f-b506-484f07761f02","ios":"levelo://app?vid=fbbe362b-7b29-4c8f-b506-484f07761f02"},"vehicle_type_id":"4","last_reported":1731182936,"current_range_meters":37600,"station_id":"ce4bgjh2rcd13ifvqbg0","pricing_plan_id":"cebpf4jnsgd1na2vs0mg"},{"bike_id":"018a5969-48d6-493e-abbb-cd5d32841d3f","system_id":"levelo_inurba_marseille","lat":43.28273,"lon":5.35062,"is_reserved":false,"is_disabled":false,"rental_uris":{"android":"levelo://app?vid=018a5969-48d6-493e-abbb-cd5d32841d3f","ios":"levelo://app?vid=018a5969-48d6-493e-abbb-cd5d32841d3f"},"vehicle_type_id":"4","last_reported":1731182936,"current_range_meters":38800,"station_id":"ce4bhbp2rcd13ifvqerg","pricing_plan_id":"cebpf4jnsgd1na2vs0mg"},{"bike_id":"1c063d1c-ea96-4685-b38a-eb20f60cb5bc","system_id":"levelo_inurba_marseille","lat":43.29273,"lon":5.36832,"is_reserved":false,"is_disabled":false,"rental_uris":{"android":"levelo://app?vid=1c063d1c-ea96-4685-b38a-eb20f60cb5bc","ios":"levelo://app?vid=1c063d1c-ea96-4685-b38a-eb20f60cb5bc"},"vehicle_type_id":"4","last_reported":1731182936,"current_range_meters":7200,"station_id":"ce4bhbp2rcd13ifvqesg","pricing_plan_id":"cebpf4jnsgd1na2vs0mg"},{"bike_id":"adf249f3-c6dc-4c86-9f00-09ccfb73ab9d","system_id":"levelo_inurba_marseille","lat":43.29171,"lon":5.37169,"is_reserved":false,"is_disabled":false,"rental_uris":{"android":"levelo://app?vid=adf249f3-c6dc-4c86-9f00-09ccfb73ab9d","ios":"levelo://app?vid=adf249f3-c6dc-4c86-9f00-09ccfb73ab9d"},"vehicle_type_id":"4","last_reported":1731182936,"current_range_meters":10800,"station_id":"ce4bha92rcd13ifvqeh0","pricing_plan_id":"cebpf4jnsgd1na2vs0mg"},{"bike_id":"f9aeacdd-bf01-432f-bf4e-03e65cef4bbd","system_id":"levelo_inurba_marseille","lat":43.29555,"lon":5.42284,"is_reserved":false,"is_disabled":false,"rental_uris":{"android":"levelo://app?vid=f9aeacdd-bf01-432f-bf4e-03e65cef4bbd","ios":"levelo://app?vid=f9aeacdd-bf01-432f-bf4e-03e65cef4bbd"},"vehicle_type_id":"4","last_reported":1731182936,"current_range_meters":26800,"station_id":"ce4bhph2rcd13ifvqhdg","pricing_plan_id":"cebpf4jnsgd1na2vs0mg"},{"bike_id":"1ffd2086-adf5-43ef-bb6f-2ff5d7421d90","system_id":"levelo_inurba_marseille","lat":43.25001,"lon":5.3893,"is_reserved":false,"is_disabled":false,"rental_uris":{"android":"levelo://app?vid=1ffd2086-adf5-43ef-bb6f-2ff5d7421d90","ios":"levelo://app?vid=1ffd2086-adf5-43ef-bb6f-2ff5d7421d90"},"vehicle_type_id":"4","last_reported":1731182936,"current_range_meters":8000,"station_id":"ce4bhgp2rcd13ifvqfd0","pricing_plan_id":"cebpf4jnsgd1na2vs0mg"},{"bike_id":"55e11d84-fa0d-4830-bee7-4fdc39457ba5","system_id":"levelo_inurba_marseille","lat":43.31277,"lon":5.40166,"is_reserved":false,"is_disabled":false,"rental_uris":{"android":"levelo://app?vid=55e11d84-fa0d-4830-bee7-4fdc39457ba5","ios":"levelo://app?vid=55e11d84-fa0d-4830-bee7-4fdc39457ba5"},"vehicle_type_id":"4","last_reported":1731182936,"current_range_meters":38800,"station_id":"ce4bh092rcd13ifvqd30","pricing_plan_id":"cebpf4jnsgd1na2vs0mg"},{"bike_id":"f2c90260-39d1-49c1-a47f-744796bacb21","system_id":"levelo_inurba_marseille","lat":43.30492,"lon":5.37909,"is_reserved":false,"is_disabled":false,"rental_uris":{"android":"levelo://app?vid=f2c90260-39d1-49c1-a47f-744796bacb21","ios":"levelo://app?vid=f2c90260-39d1-49c1-a47f-744796bacb21"},"vehicle_type_id":"4","last_reported":1731182936,"current_range_meters":38800,"station_id":"ce4bgup2rcd13ifvqcn0","pricing_plan_id":"cebpf4jnsgd1na2vs0mg"},{"bike_id":"a5f98780-2c09-42a3-93a4-6aa36acfb2a8","system_id":"levelo_inurba_marseille","lat":43.27495,"lon":5.42452,"is_reserved":false,"is_disabled":false,"rental_uris":{"android":"levelo://app?vid=a5f98780-2c09-42a3-93a4-6aa36acfb2a8","ios":"levelo://app?vid=a5f98780-2c09-42a3-93a4-6aa36acfb2a8"},"vehicle_type_id":"4","last_reported":1731182936,"current_range_meters":27600,"station_id":"ce4bhn92rcd13ifvqgrg","pricing_plan_id":"cebpf4jnsgd1na2vs0mg"},{"bike_id":"137831ca-d038-4d93-8a71-38ac8211ab7a","system_id":"levelo_inurba_marseille","lat":43.29417,"lon":5.38621,"is_reserved":false,"is_disabled":false,"rental_uris":{"android":"levelo://app?vid=137831ca-d038-4d93-8a71-38ac8211ab7a","ios":"levelo://app?vid=137831ca-d038-4d93-8a71-38ac8211ab7a"},"vehicle_type_id":"4","last_reported":1731182936,"current_range_meters":17200,"station_id":"ce4bh2h2rcd13ifvqdh0","pricing_plan_id":"cebpf4jnsgd1na2vs0mg"},{"bike_id":"ef86cab5-f16b-4a24-b6d4-e587627d88fb","system_id":"levelo_inurba_marseille","lat":43.29245,"lon":5.371501,"is_reserved":false,"is_disabled":false,"rental_uris":{"android":"levelo://app?vid=ef86cab5-f16b-4a24-b6d4-e587627d88fb","ios":"levelo://app?vid=ef86cab5-f16b-4a24-b6d4-e587627d88fb"},"vehicle_type_id":"4","last_reported":1731182936,"current_range_meters":38400,"station_id":"ce4bgn12rcd13ifvqbt0","pricing_plan_id":"cebpf4jnsgd1na2vs0mg"},{"bike_id":"0e0927fd-6870-4f0d-95d2-a322362844a9","system_id":"levelo_inurba_marseille","lat":43.23155,"lon":5.43717,"is_reserved":false,"is_disabled":false,"rental_uris":{"android":"levelo://app?vid=0e0927fd-6870-4f0d-95d2-a322362844a9","ios":"levelo://app?vid=0e0927fd-6870-4f0d-95d2-a322362844a9"},"vehicle_type_id":"4","last_reported":1731182936,"current_range_meters":38800,"station_id":"ce4bhmp2rcd13ifvqgog","pricing_plan_id":"cebpf4jnsgd1na2vs0mg"},{"bike_id":"30a878ff-eb9d-436f-bfff-7d2ca1ce4c25","system_id":"levelo_inurba_marseille","lat":43.30919,"lon":5.36845,"is_reserved":false,"is_disabled":false,"rental_uris":{"android":"levelo://app?vid=30a878ff-eb9d-436f-bfff-7d2ca1ce4c25","ios":"levelo://app?vid=30a878ff-eb9d-436f-bfff-7d2ca1ce4c25"},"vehicle_type_id":"4","last_reported":1731182936,"current_range_meters":38800,"station_id":"ce4bgn92rcd13ifvqbvg","pricing_plan_id":"cebpf4jnsgd1na2vs0mg"},{"bike_id":"ae6ee6df-5779-49bd-a122-e5a8ebd03b7d","system_id":"levelo_inurba_marseille","lat":43.29313,"lon":5.37175,"is_reserved":false,"is_disabled":false,"rental_uris":{"android":"levelo://app?vid=ae6ee6df-5779-49bd-a122-e5a8ebd03b7d","ios":"levelo://app?vid=ae6ee6df-5779-49bd-a122-e5a8ebd03b7d"},"vehicle_type_id":"4","last_reported":1731182936,"current_range_meters":38800,"station_id":"ce4bgh92rcd13ifvqb40","pricing_plan_id":"cebpf4jnsgd1na2vs0mg"},{"bike_id":"af04419d-cb5a-461f-8472-2fe2c0c525d4","system_id":"levelo_inurba_marseille","lat":43.29598,"lon":5.38094,"is_reserved":false,"is_disabled":false,"rental_uris":{"android":"levelo://app?vid=af04419d-cb5a-461f-8472-2fe2c0c525d4","ios":"levelo://app?vid=af04419d-cb5a-461f-8472-2fe2c0c525d4"},"vehicle_type_id":"4","last_reported":1731182936,"current_range_meters":27600,"station_id":"ce4bgl12rcd13ifvqbo0","pricing_plan_id":"cebpf4jnsgd1na2vs0mg"},{"bike_id":"56520eb4-9818-402a-9c77-9b9ed2a210ce","system_id":"levelo_inurba_marseille","lat":43.32541,"lon":5.41424,"is_reserved":false,"is_disabled":false,"rental_uris":{"android":"levelo://app?vid=56520eb4-9818-402a-9c77-9b9ed2a210ce","ios":"levelo://app?vid=56520eb4-9818-402a-9c77-9b9ed2a210ce"},"vehicle_type_id":"4","last_reported":1731182936,"current_range_meters":16800,"station_id":"ce4bhq12rcd13ifvqhhg","pricing_plan_id":"cebpf4jnsgd1na2vs0mg"},{"bike_id":"49978485-393b-4e39-8478-42a03caafaca","system_id":"levelo_inurba_marseille","lat":43.29257,"lon":5.40908,"is_reserved":false,"is_disabled":false,"rental_uris":{"android":"levelo://app?vid=49978485-393b-4e39-8478-42a03caafaca","ios":"levelo://app?vid=49978485-393b-4e39-8478-42a03caafaca"},"vehicle_type_id":"4","last_reported":1731182936,"current_range_meters":35200,"station_id":"ce4bh192rcd13ifvqdc0","pricing_plan_id":"cebpf4jnsgd1na2vs0mg"},{"bike_id":"297f033e-87da-4632-8152-550bc3bd6546","system_id":"levelo_inurba_marseille","lat":43.248,"lon":5.3744,"is_reserved":false,"is_disabled":false,"rental_uris":{"android":"levelo://app?vid=297f033e-87da-4632-8152-550bc3bd6546","ios":"levelo://app?vid=297f033e-87da-4632-8152-550bc3bd6546"},"vehicle_type_id":"4","last_reported":1731182936,"current_range_meters":2800,"station_id":"ce4bhgh2rcd13ifvqfb0","pricing_plan_id":"cebpf4jnsgd1na2vs0mg"},{"bike_id":"99a89a04-e7de-473e-a01d-582a49ffa666","system_id":"levelo_inurba_marseille","lat":43.29308,"lon":5.37457,"is_reserved":false,"is_disabled":false,"rental_uris":{"android":"levelo://app?vid=99a89a04-e7de-473e-a01d-582a49ffa666","ios":"levelo://app?vid=99a89a04-e7de-473e-a01d-582a49ffa666"},"vehicle_type_id":"4","last_reported":1731182936,"current_range_meters":8800,"station_id":"ce4bgi12rcd13ifvqb70","pricing_plan_id":"cebpf4jnsgd1na2vs0mg"},{"bike_id":"f2448cf2-c872-46d8-8aee-0426615722bd","system_id":"levelo_inurba_marseille","lat":43.26032,"lon":5.37548,"is_reserved":false,"is_disabled":false,"rental_uris":{"android":"levelo://app?vid=f2448cf2-c872-46d8-8aee-0426615722bd","ios":"levelo://app?vid=f2448cf2-c872-46d8-8aee-0426615722bd"},"vehicle_type_id":"4","last_reported":1731182936,"current_range_meters":14400,"station_id":"ce4bhgh2rcd13ifvqfa0","pricing_plan_id":"cebpf4jnsgd1na2vs0mg"},{"bike_id":"0da1157f-9ca7-4542-b791-d6f75903fc62","system_id":"levelo_inurba_marseille","lat":43.28572,"lon":5.39496,"is_reserved":false,"is_disabled":false,"rental_uris":{"android":"levelo://app?vid=0da1157f-9ca7-4542-b791-d6f75903fc62","ios":"levelo://app?vid=0da1157f-9ca7-4542-b791-d6f75903fc62"},"vehicle_type_id":"4","last_reported":1731182936,"current_range_meters":8000,"station_id":"ce4bh292rcd13ifvqdg0","pricing_plan_id":"cebpf4jnsgd1na2vs0mg"},{"bike_id":"15a9703c-7f0a-451e-96f0-ec324de84b5e","system_id":"levelo_inurba_marseille","lat":43.28575,"lon":5.39493,"is_reserved":false,"is_disabled":false,"rental_uris":{"android":"levelo://app?vid=15a9703c-7f0a-451e-96f0-ec324de84b5e","ios":"levelo://app?vid=15a9703c-7f0a-451e-96f0-ec324de84b5e"},"vehicle_type_id":"4","last_reported":1731182936,"current_range_meters":8000,"station_id":"ce4bh292rcd13ifvqdg0","pricing_plan_id":"cebpf4jnsgd1na2vs0mg"},{"bike_id":"9279a5e9-9c29-4f9a-b692-a7f762aa6dee","system_id":"levelo_inurba_marseille","lat":43.24996,"lon":5.38915,"is_reserved":false,"is_disabled":false,"rental_uris":{"android":"levelo://app?vid=9279a5e9-9c29-4f9a-b692-a7f762aa6dee","ios":"levelo://app?vid=9279a5e9-9c29-4f9a-b692-a7f762aa6dee"},"vehicle_type_id":"4","last_reported":1731182936,"current_range_meters":11200,"station_id":"ce4bhgp2rcd13ifvqfd0","pricing_plan_id":"cebpf4jnsgd1na2vs0mg"},{"bike_id":"1364bcd0-75b8-4b5d-ac18-a0974b04fcce","system_id":"levelo_inurba_marseille","lat":43.2937,"lon":5.37838,"is_reserved":false,"is_disabled":false,"rental_uris":{"android":"levelo://app?vid=1364bcd0-75b8-4b5d-ac18-a0974b04fcce","ios":"levelo://app?vid=1364bcd0-75b8-4b5d-ac18-a0974b04fcce"},"vehicle_type_id":"4","last_reported":1731182936,"current_range_meters":38800,"station_id":"ce4bgjh2rcd13ifvqbf0","pricing_plan_id":"cebpf4jnsgd1na2vs0mg"},{"bike_id":"96aef8c1-f007-442e-b872-036e6f6c58ad","system_id":"levelo_inurba_marseille","lat":43.31762,"lon":5.39015,"is_reserved":false,"is_disabled":false,"rental_uris":{"android":"levelo://app?vid=96aef8c1-f007-442e-b872-036e6f6c58ad","ios":"levelo://app?vid=96aef8c1-f007-442e-b872-036e6f6c58ad"},"vehicle_type_id":"4","last_reported":1731182936,"current_range_meters":39200,"station_id":"ce4bhqp2rcd13ifvqhng","pricing_plan_id":"cebpf4jnsgd1na2vs0mg"},{"bike_id":"48b5ac08-9e0c-42d5-b37f-57e0c8fe2cd4","system_id":"levelo_inurba_marseille","lat":43.29418,"lon":5.38629,"is_reserved":false,"is_disabled":false,"rental_uris":{"android":"levelo://app?vid=48b5ac08-9e0c-42d5-b37f-57e0c8fe2cd4","ios":"levelo://app?vid=48b5ac08-9e0c-42d5-b37f-57e0c8fe2cd4"},"vehicle_type_id":"4","last_reported":1731182936,"current_range_meters":24400,"station_id":"ce4bh2h2rcd13ifvqdh0","pricing_plan_id":"cebpf4jnsgd1na2vs0mg"},{"bike_id":"134ce1ce-579d-4d82-bde6-b146c0c11c11","system_id":"levelo_inurba_marseille","lat":43.29893,"lon":5.43663,"is_reserved":false,"is_disabled":false,"rental_uris":{"android":"levelo://app?vid=134ce1ce-579d-4d82-bde6-b146c0c11c11","ios":"levelo://app?vid=134ce1ce-579d-4d82-bde6-b146c0c11c11"},"vehicle_type_id":"4","last_reported":1731182936,"current_range_meters":6800,"station_id":"ce4bhpp2rcd13ifvqhfg","pricing_plan_id":"cebpf4jnsgd1na2vs0mg"},{"bike_id":"b04f0335-198c-4d3a-babf-6fd0becf8412","system_id":"levelo_inurba_marseille","lat":43.27917,"lon":5.39581,"is_reserved":false,"is_disabled":false,"rental_uris":{"android":"levelo://app?vid=b04f0335-198c-4d3a-babf-6fd0becf8412","ios":"levelo://app?vid=b04f0335-198c-4d3a-babf-6fd0becf8412"},"vehicle_type_id":"4","last_reported":1731182936,"current_range_meters":8800,"station_id":"ce4bhf92rcd13ifvqf40","pricing_plan_id":"cebpf4jnsgd1na2vs0mg"},{"bike_id":"f53d3078-7b2c-4405-b85a-d4f7a620ebc2","system_id":"levelo_inurba_marseille","lat":43.2757,"lon":5.38427,"is_reserved":false,"is_disabled":false,"rental_uris":{"android":"levelo://app?vid=f53d3078-7b2c-4405-b85a-d4f7a620ebc2","ios":"levelo://app?vid=f53d3078-7b2c-4405-b85a-d4f7a620ebc2"},"vehicle_type_id":"4","last_reported":1731182936,"current_range_meters":4800,"station_id":"ce4bhh92rcd13ifvqfi0","pricing_plan_id":"cebpf4jnsgd1na2vs0mg"},{"bike_id":"f536995d-9e9d-483d-919b-de11993b1fcb","system_id":"levelo_inurba_marseille","lat":43.29263,"lon":5.38446,"is_reserved":false,"is_disabled":false,"rental_uris":{"android":"levelo://app?vid=f536995d-9e9d-483d-919b-de11993b1fcb","ios":"levelo://app?vid=f536995d-9e9d-483d-919b-de11993b1fcb"},"vehicle_type_id":"4","last_reported":1731182936,"current_range_meters":30000,"station_id":"ce4bh692rcd13ifvqea0","pricing_plan_id":"cebpf4jnsgd1na2vs0mg"},{"bike_id":"f43eeab5-361f-4d76-bb77-54a1ab6d430f","system_id":"levelo_inurba_marseille","lat":43.33022,"lon":5.39042,"is_reserved":false,"is_disabled":false,"rental_uris":{"android":"levelo://app?vid=f43eeab5-361f-4d76-bb77-54a1ab6d430f","ios":"levelo://app?vid=f43eeab5-361f-4d76-bb77-54a1ab6d430f"},"vehicle_type_id":"4","last_reported":1731182936,"current_range_meters":22800,"station_id":"ce4bhr92rcd13ifvqhrg","pricing_plan_id":"cebpf4jnsgd1na2vs0mg"},{"bike_id":"181fa628-fd06-4339-88f4-5d411c857699","system_id":"levelo_inurba_marseille","lat":43.27074,"lon":5.42276,"is_reserved":false,"is_disabled":false,"rental_uris":{"android":"levelo://app?vid=181fa628-fd06-4339-88f4-5d411c857699","ios":"levelo://app?vid=181fa628-fd06-4339-88f4-5d411c857699"},"vehicle_type_id":"4","last_reported":1731182936,"current_range_meters":12400,"station_id":"ce4bhk92rcd13ifvqgb0","pricing_plan_id":"cebpf4jnsgd1na2vs0mg"},{"bike_id":"f6797815-af74-4740-88bd-bac91aed4205","system_id":"levelo_inurba_marseille","lat":43.30892,"lon":5.37187,"is_reserved":false,"is_disabled":false,"rental_uris":{"android":"levelo://app?vid=f6797815-af74-4740-88bd-bac91aed4205","ios":"levelo://app?vid=f6797815-af74-4740-88bd-bac91aed4205"},"vehicle_type_id":"4","last_reported":1731182936,"current_range_meters":38000,"station_id":"ce4bguh2rcd13ifvqckg","pricing_plan_id":"cebpf4jnsgd1na2vs0mg"},{"bike_id":"fe48f452-9500-41a3-83e9-7c76cb35e219","system_id":"levelo_inurba_marseille","lat":43.31284,"lon":5.40173,"is_reserved":false,"is_disabled":false,"rental_uris":{"android":"levelo://app?vid=fe48f452-9500-41a3-83e9-7c76cb35e219","ios":"levelo://app?vid=fe48f452-9500-41a3-83e9-7c76cb35e219"},"vehicle_type_id":"4","last_reported":1731182936,"current_range_meters":8400,"station_id":"ce4bh092rcd13ifvqd30","pricing_plan_id":"cebpf4jnsgd1na2vs0mg"},{"bike_id":"7904d9be-2130-44a8-9530-e32316c9b56e","system_id":"levelo_inurba_marseille","lat":43.29523,"lon":5.37497,"is_reserved":false,"is_disabled":false,"rental_uris":{"android":"levelo://app?vid=7904d9be-2130-44a8-9530-e32316c9b56e","ios":"levelo://app?vid=7904d9be-2130-44a8-9530-e32316c9b56e"},"vehicle_type_id":"4","last_reported":1731182936,"current_range_meters":38400,"station_id":"ce4bgkp2rcd13ifvqbmg","pricing_plan_id":"cebpf4jnsgd1na2vs0mg"},{"bike_id":"750f60c0-cbc4-492c-8cec-1b99360aadde","system_id":"levelo_inurba_marseille","lat":43.28005,"lon":5.40013,"is_reserved":false,"is_disabled":false,"rental_uris":{"android":"levelo://app?vid=750f60c0-cbc4-492c-8cec-1b99360aadde","ios":"levelo://app?vid=750f60c0-cbc4-492c-8cec-1b99360aadde"},"vehicle_type_id":"4","last_reported":1731182936,"current_range_meters":34000,"station_id":"ce4bho92rcd13ifvqh4g","pricing_plan_id":"cebpf4jnsgd1na2vs0mg"},{"bike_id":"e662ba77-e6b8-4482-8937-6e11fab5b336","system_id":"levelo_inurba_marseille","lat":43.33033,"lon":5.39048,"is_reserved":false,"is_disabled":false,"rental_uris":{"android":"levelo://app?vid=e662ba77-e6b8-4482-8937-6e11fab5b336","ios":"levelo://app?vid=e662ba77-e6b8-4482-8937-6e11fab5b336"},"vehicle_type_id":"4","last_reported":1731182936,"current_range_meters":9600,"station_id":"ce4bhr92rcd13ifvqhrg","pricing_plan_id":"cebpf4jnsgd1na2vs0mg"},{"bike_id":"27e15419-d9b0-4647-890e-e21a7149b1cd","system_id":"levelo_inurba_marseille","lat":43.2707,"lon":5.42273,"is_reserved":false,"is_disabled":false,"rental_uris":{"android":"levelo://app?vid=27e15419-d9b0-4647-890e-e21a7149b1cd","ios":"levelo://app?vid=27e15419-d9b0-4647-890e-e21a7149b1cd"},"vehicle_type_id":"4","last_reported":1731182936,"current_range_meters":10800,"station_id":"ce4bhk92rcd13ifvqgb0","pricing_plan_id":"cebpf4jnsgd1na2vs0mg"},{"bike_id":"55f47cbb-4cd2-4214-9965-9e0698b16e2e","system_id":"levelo_inurba_marseille","lat":43.32369,"lon":5.36757,"is_reserved":false,"is_disabled":false,"rental_uris":{"android":"levelo://app?vid=55f47cbb-4cd2-4214-9965-9e0698b16e2e","ios":"levelo://app?vid=55f47cbb-4cd2-4214-9965-9e0698b16e2e"},"vehicle_type_id":"4","last_reported":1731182936,"current_range_meters":38800,"station_id":"ce4bhsh2rcd13ifvqi2g","pricing_plan_id":"cebpf4jnsgd1na2vs0mg"},{"bike_id":"35528235-ab34-490d-808a-51162f465215","system_id":"levelo_inurba_marseille","lat":43.29378,"lon":5.37845,"is_reserved":false,"is_disabled":false,"rental_uris":{"android":"levelo://app?vid=35528235-ab34-490d-808a-51162f465215","ios":"levelo://app?vid=35528235-ab34-490d-808a-51162f465215"},"vehicle_type_id":"4","last_reported":1731182936,"current_range_meters":37600,"station_id":"ce4bgjh2rcd13ifvqbf0","pricing_plan_id":"cebpf4jnsgd1na2vs0mg"},{"bike_id":"d4d2039d-7616-4c0c-910c-0f5355caf5da","system_id":"levelo_inurba_marseille","lat":43.30155,"lon":5.38091,"is_reserved":false,"is_disabled":false,"rental_uris":{"android":"levelo://app?vid=d4d2039d-7616-4c0c-910c-0f5355caf5da","ios":"levelo://app?vid=d4d2039d-7616-4c0c-910c-0f5355caf5da"},"vehicle_type_id":"4","last_reported":1731182936,"current_range_meters":38400,"station_id":"ce4bgjp2rcd13ifvqbh0","pricing_plan_id":"cebpf4jnsgd1na2vs0mg"},{"bike_id":"6a946d15-adf0-4608-ae4f-abbbb8657273","system_id":"levelo_inurba_marseille","lat":43.28934,"lon":5.36629,"is_reserved":false,"is_disabled":false,"rental_uris":{"android":"levelo://app?vid=6a946d15-adf0-4608-ae4f-abbbb8657273","ios":"levelo://app?vid=6a946d15-adf0-4608-ae4f-abbbb8657273"},"vehicle_type_id":"4","last_reported":1731182936,"current_range_meters":6800,"station_id":"ce4bhap2rcd13ifvqek0","pricing_plan_id":"cebpf4jnsgd1na2vs0mg"},{"bike_id":"0d93b31b-854a-4c31-b287-70df5cbe7d07","system_id":"levelo_inurba_marseille","lat":43.2408,"lon":5.37728,"is_reserved":false,"is_disabled":false,"rental_uris":{"android":"levelo://app?vid=0d93b31b-854a-4c31-b287-70df5cbe7d07","ios":"levelo://app?vid=0d93b31b-854a-4c31-b287-70df5cbe7d07"},"vehicle_type_id":"4","last_reported":1731182936,"current_range_meters":14800,"station_id":"ce4bhnp2rcd13ifvqgvg","pricing_plan_id":"cebpf4jnsgd1na2vs0mg"},{"bike_id":"a3dadc18-f112-48c1-9d3b-d158c56e8b17","system_id":"levelo_inurba_marseille","lat":43.24187,"lon":5.39725,"is_reserved":false,"is_disabled":false,"rental_uris":{"android":"levelo://app?vid=a3dadc18-f112-48c1-9d3b-d158c56e8b17","ios":"levelo://app?vid=a3dadc18-f112-48c1-9d3b-d158c56e8b17"},"vehicle_type_id":"4","last_reported":1731182936,"current_range_meters":27600,"station_id":"ce4bhn12rcd13ifvqgpg","pricing_plan_id":"cebpf4jnsgd1na2vs0mg"},{"bike_id":"56372106-f101-4e4e-ad73-a819ecafcccb","system_id":"levelo_inurba_marseille","lat":43.29303,"lon":5.37176,"is_reserved":false,"is_disabled":false,"rental_uris":{"android":"levelo://app?vid=56372106-f101-4e4e-ad73-a819ecafcccb","ios":"levelo://app?vid=56372106-f101-4e4e-ad73-a819ecafcccb"},"vehicle_type_id":"4","last_reported":1731182936,"current_range_meters":36400,"station_id":"ce4bgh92rcd13ifvqb40","pricing_plan_id":"cebpf4jnsgd1na2vs0mg"},{"bike_id":"e2abec00-3ef2-41a5-b9f5-46bbbaa02e60","system_id":"levelo_inurba_marseille","lat":43.25505,"lon":5.37649,"is_reserved":false,"is_disabled":false,"rental_uris":{"android":"levelo://app?vid=e2abec00-3ef2-41a5-b9f5-46bbbaa02e60","ios":"levelo://app?vid=e2abec00-3ef2-41a5-b9f5-46bbbaa02e60"},"vehicle_type_id":"4","last_reported":1731182936,"current_range_meters":6000,"station_id":"ce4bhh12rcd13ifvqff0","pricing_plan_id":"cebpf4jnsgd1na2vs0mg"},{"bike_id":"09fd6b48-5b17-42a1-a15e-dce7aa293b94","system_id":"levelo_inurba_marseille","lat":43.28354,"lon":5.38122,"is_reserved":false,"is_disabled":false,"rental_uris":{"android":"levelo://app?vid=09fd6b48-5b17-42a1-a15e-dce7aa293b94","ios":"levelo://app?vid=09fd6b48-5b17-42a1-a15e-dce7aa293b94"},"vehicle_type_id":"4","last_reported":1731182936,"current_range_meters":10800,"station_id":"ce4bh412rcd13ifvqdr0","pricing_plan_id":"cebpf4jnsgd1na2vs0mg"},{"bike_id":"66afb7f5-4d84-403d-a244-5efb1d992fbd","system_id":"levelo_inurba_marseille","lat":43.254926,"lon":5.376432,"is_reserved":false,"is_disabled":false,"rental_uris":{"android":"levelo://app?vid=66afb7f5-4d84-403d-a244-5efb1d992fbd","ios":"levelo://app?vid=66afb7f5-4d84-403d-a244-5efb1d992fbd"},"vehicle_type_id":"4","last_reported":1731182936,"current_range_meters":0,"station_id":"ce4bhh12rcd13ifvqff0","pricing_plan_id":"cebpf4jnsgd1na2vs0mg"},{"bike_id":"ecc6106f-7289-4ba6-bf80-58c5d9ed0acf","system_id":"levelo_inurba_marseille","lat":43.29308,"lon":5.37581,"is_reserved":false,"is_disabled":false,"rental_uris":{"android":"levelo://app?vid=ecc6106f-7289-4ba6-bf80-58c5d9ed0acf","ios":"levelo://app?vid=ecc6106f-7289-4ba6-bf80-58c5d9ed0acf"},"vehicle_type_id":"4","last_reported":1731182936,"current_range_meters":6800,"station_id":"","pricing_plan_id":"cebpf4jnsgd1na2vs0mg"},{"bike_id":"c7057ba6-697b-4814-876e-11ed214bec97","system_id":"levelo_inurba_marseille","lat":43.30261,"lon":5.377,"is_reserved":false,"is_disabled":false,"rental_uris":{"android":"levelo://app?vid=c7057ba6-697b-4814-876e-11ed214bec97","ios":"levelo://app?vid=c7057ba6-697b-4814-876e-11ed214bec97"},"vehicle_type_id":"4","last_reported":1731182936,"current_range_meters":38800,"station_id":"ce4bguh2rcd13ifvqcj0","pricing_plan_id":"cebpf4jnsgd1na2vs0mg"},{"bike_id":"c6ae65bf-8d5e-4ea9-a3a9-adc79d0ebafe","system_id":"levelo_inurba_marseille","lat":43.24396,"lon":5.37055,"is_reserved":false,"is_disabled":false,"rental_uris":{"android":"levelo://app?vid=c6ae65bf-8d5e-4ea9-a3a9-adc79d0ebafe","ios":"levelo://app?vid=c6ae65bf-8d5e-4ea9-a3a9-adc79d0ebafe"},"vehicle_type_id":"4","last_reported":1731182936,"current_range_meters":25600,"station_id":"ce4bhhh2rcd13ifvqfk0","pricing_plan_id":"cebpf4jnsgd1na2vs0mg"},{"bike_id":"99ee7c5d-6e65-4a9b-a86a-ad54643ebf7a","system_id":"levelo_inurba_marseille","lat":43.31372,"lon":5.38477,"is_reserved":false,"is_disabled":false,"rental_uris":{"android":"levelo://app?vid=99ee7c5d-6e65-4a9b-a86a-ad54643ebf7a","ios":"levelo://app?vid=99ee7c5d-6e65-4a9b-a86a-ad54643ebf7a"},"vehicle_type_id":"4","last_reported":1731182936,"current_range_meters":38800,"station_id":"ce4bgt92rcd13ifvqcf0","pricing_plan_id":"cebpf4jnsgd1na2vs0mg"},{"bike_id":"cb0207d1-a359-4257-9c1b-bdbf3d283b94","system_id":"levelo_inurba_marseille","lat":43.31279,"lon":5.40165,"is_reserved":false,"is_disabled":false,"rental_uris":{"android":"levelo://app?vid=cb0207d1-a359-4257-9c1b-bdbf3d283b94","ios":"levelo://app?vid=cb0207d1-a359-4257-9c1b-bdbf3d283b94"},"vehicle_type_id":"4","last_reported":1731182936,"current_range_meters":38800,"station_id":"ce4bh092rcd13ifvqd30","pricing_plan_id":"cebpf4jnsgd1na2vs0mg"},{"bike_id":"1b641421-2e55-46f2-aa52-a5bd61345632","system_id":"levelo_inurba_marseille","lat":43.2417,"lon":5.36396,"is_reserved":false,"is_disabled":false,"rental_uris":{"android":"levelo://app?vid=1b641421-2e55-46f2-aa52-a5bd61345632","ios":"levelo://app?vid=1b641421-2e55-46f2-aa52-a5bd61345632"},"vehicle_type_id":"4","last_reported":1731182936,"current_range_meters":16000,"station_id":"cpo36qri1sfpv3e86is0","pricing_plan_id":"cebpf4jnsgd1na2vs0mg"},{"bike_id":"97c77c5a-9912-4df3-94ae-4f62cb4ab513","system_id":"levelo_inurba_marseille","lat":43.2998,"lon":5.38481,"is_reserved":false,"is_disabled":false,"rental_uris":{"android":"levelo://app?vid=97c77c5a-9912-4df3-94ae-4f62cb4ab513","ios":"levelo://app?vid=97c77c5a-9912-4df3-94ae-4f62cb4ab513"},"vehicle_type_id":"4","last_reported":1731182936,"current_range_meters":26000,"station_id":"ce4bgj92rcd13ifvqbd0","pricing_plan_id":"cebpf4jnsgd1na2vs0mg"},{"bike_id":"0977e77d-e820-44f3-97e9-717906dea1a6","system_id":"levelo_inurba_marseille","lat":43.32377,"lon":5.38877,"is_reserved":false,"is_disabled":false,"rental_uris":{"android":"levelo://app?vid=0977e77d-e820-44f3-97e9-717906dea1a6","ios":"levelo://app?vid=0977e77d-e820-44f3-97e9-717906dea1a6"},"vehicle_type_id":"4","last_reported":1731182936,"current_range_meters":3600,"station_id":"ce4bhqp2rcd13ifvqhog","pricing_plan_id":"cebpf4jnsgd1na2vs0mg"},{"bike_id":"53ff1c1f-69e7-477d-93fc-7881364ae389","system_id":"levelo_inurba_marseille","lat":43.32333,"lon":5.40619,"is_reserved":false,"is_disabled":false,"rental_uris":{"android":"levelo://app?vid=53ff1c1f-69e7-477d-93fc-7881364ae389","ios":"levelo://app?vid=53ff1c1f-69e7-477d-93fc-7881364ae389"},"vehicle_type_id":"4","last_reported":1731182936,"current_range_meters":38800,"station_id":"ce4bhq92rcd13ifvqhjg","pricing_plan_id":"cebpf4jnsgd1na2vs0mg"},{"bike_id":"0d0ef880-2434-4d1b-be5b-12320ed92e83","system_id":"levelo_inurba_marseille","lat":43.25738,"lon":5.41108,"is_reserved":false,"is_disabled":false,"rental_uris":{"android":"levelo://app?vid=0d0ef880-2434-4d1b-be5b-12320ed92e83","ios":"levelo://app?vid=0d0ef880-2434-4d1b-be5b-12320ed92e83"},"vehicle_type_id":"4","last_reported":1731182936,"current_range_meters":28000,"station_id":"ce4bhkp2rcd13ifvqgd0","pricing_plan_id":"cebpf4jnsgd1na2vs0mg"},{"bike_id":"07704a86-dbed-425a-854d-11b1a4e3d84c","system_id":"levelo_inurba_marseille","lat":43.33742,"lon":5.37452,"is_reserved":false,"is_disabled":false,"rental_uris":{"android":"levelo://app?vid=07704a86-dbed-425a-854d-11b1a4e3d84c","ios":"levelo://app?vid=07704a86-dbed-425a-854d-11b1a4e3d84c"},"vehicle_type_id":"4","last_reported":1731182936,"current_range_meters":35600,"station_id":"","pricing_plan_id":"cebpf4jnsgd1na2vs0mg"},{"bike_id":"79b39923-b687-4420-a58b-1f85feafef16","system_id":"levelo_inurba_marseille","lat":43.29984,"lon":5.3742,"is_reserved":false,"is_disabled":false,"rental_uris":{"android":"levelo://app?vid=79b39923-b687-4420-a58b-1f85feafef16","ios":"levelo://app?vid=79b39923-b687-4420-a58b-1f85feafef16"},"vehicle_type_id":"4","last_reported":1731182936,"current_range_meters":38800,"station_id":"","pricing_plan_id":"cebpf4jnsgd1na2vs0mg"},{"bike_id":"e88ed4b9-c019-43b2-958e-6095c76050de","system_id":"levelo_inurba_marseille","lat":43.29512,"lon":5.375,"is_reserved":false,"is_disabled":false,"rental_uris":{"android":"levelo://app?vid=e88ed4b9-c019-43b2-958e-6095c76050de","ios":"levelo://app?vid=e88ed4b9-c019-43b2-958e-6095c76050de"},"vehicle_type_id":"4","last_reported":1731182936,"current_range_meters":30000,"station_id":"ce4bgkp2rcd13ifvqbmg","pricing_plan_id":"cebpf4jnsgd1na2vs0mg"},{"bike_id":"81abc5b8-f7c3-49f1-865e-3d42da567318","system_id":"levelo_inurba_marseille","lat":43.2954,"lon":5.38537,"is_reserved":false,"is_disabled":false,"rental_uris":{"android":"levelo://app?vid=81abc5b8-f7c3-49f1-865e-3d42da567318","ios":"levelo://app?vid=81abc5b8-f7c3-49f1-865e-3d42da567318"},"vehicle_type_id":"4","last_reported":1731182936,"current_range_meters":24800,"station_id":"ce4bgih2rcd13ifvqba0","pricing_plan_id":"cebpf4jnsgd1na2vs0mg"},{"bike_id":"39e0fb1d-6066-4204-83e9-c454b4b8332c","system_id":"levelo_inurba_marseille","lat":43.27823,"lon":5.39201,"is_reserved":false,"is_disabled":false,"rental_uris":{"android":"levelo://app?vid=39e0fb1d-6066-4204-83e9-c454b4b8332c","ios":"levelo://app?vid=39e0fb1d-6066-4204-83e9-c454b4b8332c"},"vehicle_type_id":"4","last_reported":1731182936,"current_range_meters":16400,"station_id":"ce4bhjp2rcd13ifvqga0","pricing_plan_id":"cebpf4jnsgd1na2vs0mg"},{"bike_id":"0b74ce83-e6b1-4485-8ca6-3897f29a426e","system_id":"levelo_inurba_marseille","lat":43.2396,"lon":5.36622,"is_reserved":false,"is_disabled":false,"rental_uris":{"android":"levelo://app?vid=0b74ce83-e6b1-4485-8ca6-3897f29a426e","ios":"levelo://app?vid=0b74ce83-e6b1-4485-8ca6-3897f29a426e"},"vehicle_type_id":"4","last_reported":1731182936,"current_range_meters":14000,"station_id":"ce4bhi12rcd13ifvqfp0","pricing_plan_id":"cebpf4jnsgd1na2vs0mg"},{"bike_id":"9da9e159-3651-44ff-8b7a-fa6109d979b5","system_id":"levelo_inurba_marseille","lat":43.29533,"lon":5.38537,"is_reserved":false,"is_disabled":false,"rental_uris":{"android":"levelo://app?vid=9da9e159-3651-44ff-8b7a-fa6109d979b5","ios":"levelo://app?vid=9da9e159-3651-44ff-8b7a-fa6109d979b5"},"vehicle_type_id":"4","last_reported":1731182936,"current_range_meters":38000,"station_id":"ce4bgih2rcd13ifvqba0","pricing_plan_id":"cebpf4jnsgd1na2vs0mg"},{"bike_id":"2c342691-4553-4cce-b007-e89e690aafbe","system_id":"levelo_inurba_marseille","lat":43.28273,"lon":5.3507,"is_reserved":false,"is_disabled":false,"rental_uris":{"android":"levelo://app?vid=2c342691-4553-4cce-b007-e89e690aafbe","ios":"levelo://app?vid=2c342691-4553-4cce-b007-e89e690aafbe"},"vehicle_type_id":"4","last_reported":1731182936,"current_range_meters":30800,"station_id":"ce4bhbp2rcd13ifvqerg","pricing_plan_id":"cebpf4jnsgd1na2vs0mg"},{"bike_id":"1add7650-f6ba-41c6-81c9-93682329aded","system_id":"levelo_inurba_marseille","lat":43.29971,"lon":5.38497,"is_reserved":false,"is_disabled":false,"rental_uris":{"android":"levelo://app?vid=1add7650-f6ba-41c6-81c9-93682329aded","ios":"levelo://app?vid=1add7650-f6ba-41c6-81c9-93682329aded"},"vehicle_type_id":"4","last_reported":1731182936,"current_range_meters":38800,"station_id":"ce4bgj92rcd13ifvqbd0","pricing_plan_id":"cebpf4jnsgd1na2vs0mg"},{"bike_id":"fe120cd6-564f-4a90-9c6f-ed2e5f711ac7","system_id":"levelo_inurba_marseille","lat":43.24074,"lon":5.37756,"is_reserved":false,"is_disabled":false,"rental_uris":{"android":"levelo://app?vid=fe120cd6-564f-4a90-9c6f-ed2e5f711ac7","ios":"levelo://app?vid=fe120cd6-564f-4a90-9c6f-ed2e5f711ac7"},"vehicle_type_id":"4","last_reported":1731182936,"current_range_meters":16800,"station_id":"ce4bhnp2rcd13ifvqgvg","pricing_plan_id":"cebpf4jnsgd1na2vs0mg"},{"bike_id":"94597d2e-8ac6-4849-ad8e-16f0a3be79ca","system_id":"levelo_inurba_marseille","lat":43.30935,"lon":5.40144,"is_reserved":false,"is_disabled":false,"rental_uris":{"android":"levelo://app?vid=94597d2e-8ac6-4849-ad8e-16f0a3be79ca","ios":"levelo://app?vid=94597d2e-8ac6-4849-ad8e-16f0a3be79ca"},"vehicle_type_id":"4","last_reported":1731182936,"current_range_meters":9200,"station_id":"ce4bgvp2rcd13ifvqct0","pricing_plan_id":"cebpf4jnsgd1na2vs0mg"},{"bike_id":"ac372f8b-3d73-47d2-9535-412eae3a43f1","system_id":"levelo_inurba_marseille","lat":43.31604,"lon":5.40397,"is_reserved":false,"is_disabled":false,"rental_uris":{"android":"levelo://app?vid=ac372f8b-3d73-47d2-9535-412eae3a43f1","ios":"levelo://app?vid=ac372f8b-3d73-47d2-9535-412eae3a43f1"},"vehicle_type_id":"4","last_reported":1731182936,"current_range_meters":11600,"station_id":"ce4bhpp2rcd13ifvqhgg","pricing_plan_id":"cebpf4jnsgd1na2vs0mg"},{"bike_id":"af9cd3eb-6786-4eb5-818d-938dc019f111","system_id":"levelo_inurba_marseille","lat":43.31171,"lon":5.38707,"is_reserved":false,"is_disabled":false,"rental_uris":{"android":"levelo://app?vid=af9cd3eb-6786-4eb5-818d-938dc019f111","ios":"levelo://app?vid=af9cd3eb-6786-4eb5-818d-938dc019f111"},"vehicle_type_id":"4","last_reported":1731182936,"current_range_meters":22000,"station_id":"ce4bgv12rcd13ifvqcp0","pricing_plan_id":"cebpf4jnsgd1na2vs0mg"},{"bike_id":"896a2ba9-5285-4686-975d-79ddd9cd99a3","system_id":"levelo_inurba_marseille","lat":43.25834,"lon":5.39442,"is_reserved":false,"is_disabled":false,"rental_uris":{"android":"levelo://app?vid=896a2ba9-5285-4686-975d-79ddd9cd99a3","ios":"levelo://app?vid=896a2ba9-5285-4686-975d-79ddd9cd99a3"},"vehicle_type_id":"4","last_reported":1731182936,"current_range_meters":36800,"station_id":"ce4bhip2rcd13ifvqft0","pricing_plan_id":"cebpf4jnsgd1na2vs0mg"},{"bike_id":"c149e98a-7f58-4d4a-8975-84f08edbd80b","system_id":"levelo_inurba_marseille","lat":43.2872,"lon":5.37939,"is_reserved":false,"is_disabled":false,"rental_uris":{"android":"levelo://app?vid=c149e98a-7f58-4d4a-8975-84f08edbd80b","ios":"levelo://app?vid=c149e98a-7f58-4d4a-8975-84f08edbd80b"},"vehicle_type_id":"4","last_reported":1731182936,"current_range_meters":17200,"station_id":"ce4bh9p2rcd13ifvqec0","pricing_plan_id":"cebpf4jnsgd1na2vs0mg"},{"bike_id":"e43b2f78-e342-473e-a003-aec67c3f3905","system_id":"levelo_inurba_marseille","lat":43.32656,"lon":5.40994,"is_reserved":false,"is_disabled":false,"rental_uris":{"android":"levelo://app?vid=e43b2f78-e342-473e-a003-aec67c3f3905","ios":"levelo://app?vid=e43b2f78-e342-473e-a003-aec67c3f3905"},"vehicle_type_id":"4","last_reported":1731182936,"current_range_meters":30000,"station_id":"ce4bhpp2rcd13ifvqhgg","pricing_plan_id":"cebpf4jnsgd1na2vs0mg"},{"bike_id":"baac3be3-010c-4ab7-b814-2af962c842f8","system_id":"levelo_inurba_marseille","lat":43.28366,"lon":5.37524,"is_reserved":false,"is_disabled":false,"rental_uris":{"android":"levelo://app?vid=baac3be3-010c-4ab7-b814-2af962c842f8","ios":"levelo://app?vid=baac3be3-010c-4ab7-b814-2af962c842f8"},"vehicle_type_id":"4","last_reported":1731182936,"current_range_meters":29600,"station_id":"ce4bh412rcd13ifvqds0","pricing_plan_id":"cebpf4jnsgd1na2vs0mg"},{"bike_id":"153b7ff0-4860-49f2-baf2-71c24452214b","system_id":"levelo_inurba_marseille","lat":43.29796,"lon":5.38108,"is_reserved":false,"is_disabled":false,"rental_uris":{"android":"levelo://app?vid=153b7ff0-4860-49f2-baf2-71c24452214b","ios":"levelo://app?vid=153b7ff0-4860-49f2-baf2-71c24452214b"},"vehicle_type_id":"4","last_reported":1731182936,"current_range_meters":18800,"station_id":"ce4bgip2rcd13ifvqbb0","pricing_plan_id":"cebpf4jnsgd1na2vs0mg"},{"bike_id":"ad18a2b6-22a3-42a4-9dfa-6146a2345f4e","system_id":"levelo_inurba_marseille","lat":43.30648,"lon":5.40082,"is_reserved":false,"is_disabled":false,"rental_uris":{"android":"levelo://app?vid=ad18a2b6-22a3-42a4-9dfa-6146a2345f4e","ios":"levelo://app?vid=ad18a2b6-22a3-42a4-9dfa-6146a2345f4e"},"vehicle_type_id":"4","last_reported":1731182936,"current_range_meters":18800,"station_id":"ce4bh112rcd13ifvqda0","pricing_plan_id":"cebpf4jnsgd1na2vs0mg"},{"bike_id":"651525a9-9541-42c5-a26d-932929a74330","system_id":"levelo_inurba_marseille","lat":43.27493,"lon":5.42456,"is_reserved":false,"is_disabled":false,"rental_uris":{"android":"levelo://app?vid=651525a9-9541-42c5-a26d-932929a74330","ios":"levelo://app?vid=651525a9-9541-42c5-a26d-932929a74330"},"vehicle_type_id":"4","last_reported":1731182936,"current_range_meters":27200,"station_id":"ce4bhn92rcd13ifvqgrg","pricing_plan_id":"cebpf4jnsgd1na2vs0mg"},{"bike_id":"50cabf2d-3261-49a0-ae68-331762c3a058","system_id":"levelo_inurba_marseille","lat":43.290741,"lon":5.371617,"is_reserved":false,"is_disabled":false,"rental_uris":{"android":"levelo://app?vid=50cabf2d-3261-49a0-ae68-331762c3a058","ios":"levelo://app?vid=50cabf2d-3261-49a0-ae68-331762c3a058"},"vehicle_type_id":"4","last_reported":1731182936,"current_range_meters":28400,"station_id":"ce4bh5p2rcd13ifvqe4g","pricing_plan_id":"cebpf4jnsgd1na2vs0mg"},{"bike_id":"c48eca37-84d8-445e-b66f-c452247de6b7","system_id":"levelo_inurba_marseille","lat":43.25501,"lon":5.37655,"is_reserved":false,"is_disabled":false,"rental_uris":{"android":"levelo://app?vid=c48eca37-84d8-445e-b66f-c452247de6b7","ios":"levelo://app?vid=c48eca37-84d8-445e-b66f-c452247de6b7"},"vehicle_type_id":"4","last_reported":1731182936,"current_range_meters":7200,"station_id":"ce4bhh12rcd13ifvqff0","pricing_plan_id":"cebpf4jnsgd1na2vs0mg"},{"bike_id":"40f593b1-c6b4-4056-9082-85c23863896b","system_id":"levelo_inurba_marseille","lat":43.25486,"lon":5.37648,"is_reserved":false,"is_disabled":false,"rental_uris":{"android":"levelo://app?vid=40f593b1-c6b4-4056-9082-85c23863896b","ios":"levelo://app?vid=40f593b1-c6b4-4056-9082-85c23863896b"},"vehicle_type_id":"4","last_reported":1731182936,"current_range_meters":38800,"station_id":"ce4bhh12rcd13ifvqff0","pricing_plan_id":"cebpf4jnsgd1na2vs0mg"},{"bike_id":"5e6225c0-2d39-469c-8147-59151b03250f","system_id":"levelo_inurba_marseille","lat":43.31701,"lon":5.40471,"is_reserved":false,"is_disabled":false,"rental_uris":{"android":"levelo://app?vid=5e6225c0-2d39-469c-8147-59151b03250f","ios":"levelo://app?vid=5e6225c0-2d39-469c-8147-59151b03250f"},"vehicle_type_id":"4","last_reported":1731182936,"current_range_meters":38800,"station_id":"ce4bh012rcd13ifvqd00","pricing_plan_id":"cebpf4jnsgd1na2vs0mg"},{"bike_id":"ff004e9c-58b8-4d86-821a-c2d965e2baac","system_id":"levelo_inurba_marseille","lat":43.30927,"lon":5.40144,"is_reserved":false,"is_disabled":false,"rental_uris":{"android":"levelo://app?vid=ff004e9c-58b8-4d86-821a-c2d965e2baac","ios":"levelo://app?vid=ff004e9c-58b8-4d86-821a-c2d965e2baac"},"vehicle_type_id":"4","last_reported":1731182936,"current_range_meters":2000,"station_id":"ce4bgvp2rcd13ifvqct0","pricing_plan_id":"cebpf4jnsgd1na2vs0mg"},{"bike_id":"c570186d-f928-464d-b1f7-47e1fae4f5ab","system_id":"levelo_inurba_marseille","lat":43.28619,"lon":5.351,"is_reserved":false,"is_disabled":false,"rental_uris":{"android":"levelo://app?vid=c570186d-f928-464d-b1f7-47e1fae4f5ab","ios":"levelo://app?vid=c570186d-f928-464d-b1f7-47e1fae4f5ab"},"vehicle_type_id":"4","last_reported":1731182936,"current_range_meters":36400,"station_id":"ce4bhch2rcd13ifvqeug","pricing_plan_id":"cebpf4jnsgd1na2vs0mg"},{"bike_id":"25845ab9-1181-480c-b25b-a96b7f2023da","system_id":"levelo_inurba_marseille","lat":43.29908,"lon":5.37459,"is_reserved":false,"is_disabled":false,"rental_uris":{"android":"levelo://app?vid=25845ab9-1181-480c-b25b-a96b7f2023da","ios":"levelo://app?vid=25845ab9-1181-480c-b25b-a96b7f2023da"},"vehicle_type_id":"4","last_reported":1731182936,"current_range_meters":32400,"station_id":"ce4bgjh2rcd13ifvqbg0","pricing_plan_id":"cebpf4jnsgd1na2vs0mg"},{"bike_id":"b4eb30bc-dd09-4cbf-8ece-3b8ada662aaf","system_id":"levelo_inurba_marseille","lat":43.25005,"lon":5.38916,"is_reserved":false,"is_disabled":false,"rental_uris":{"android":"levelo://app?vid=b4eb30bc-dd09-4cbf-8ece-3b8ada662aaf","ios":"levelo://app?vid=b4eb30bc-dd09-4cbf-8ece-3b8ada662aaf"},"vehicle_type_id":"4","last_reported":1731182936,"current_range_meters":18000,"station_id":"ce4bhgp2rcd13ifvqfd0","pricing_plan_id":"cebpf4jnsgd1na2vs0mg"},{"bike_id":"76b83856-087c-4d16-915b-4c09513c417e","system_id":"levelo_inurba_marseille","lat":43.28658,"lon":5.36344,"is_reserved":false,"is_disabled":false,"rental_uris":{"android":"levelo://app?vid=76b83856-087c-4d16-915b-4c09513c417e","ios":"levelo://app?vid=76b83856-087c-4d16-915b-4c09513c417e"},"vehicle_type_id":"4","last_reported":1731182936,"current_range_meters":33600,"station_id":"ce4bhah2rcd13ifvqej0","pricing_plan_id":"cebpf4jnsgd1na2vs0mg"},{"bike_id":"d19d38e7-34df-44f8-bbe6-4862f8fbaa71","system_id":"levelo_inurba_marseille","lat":43.24075,"lon":5.37751,"is_reserved":false,"is_disabled":false,"rental_uris":{"android":"levelo://app?vid=d19d38e7-34df-44f8-bbe6-4862f8fbaa71","ios":"levelo://app?vid=d19d38e7-34df-44f8-bbe6-4862f8fbaa71"},"vehicle_type_id":"4","last_reported":1731182936,"current_range_meters":26000,"station_id":"ce4bhnp2rcd13ifvqgvg","pricing_plan_id":"cebpf4jnsgd1na2vs0mg"},{"bike_id":"be94c940-c56d-4132-af66-fedb762b3e0f","system_id":"levelo_inurba_marseille","lat":43.232,"lon":5.35547,"is_reserved":false,"is_disabled":false,"rental_uris":{"android":"levelo://app?vid=be94c940-c56d-4132-af66-fedb762b3e0f","ios":"levelo://app?vid=be94c940-c56d-4132-af66-fedb762b3e0f"},"vehicle_type_id":"4","last_reported":1731182936,"current_range_meters":36400,"station_id":"ce4bhu92rcd13ifvqi70","pricing_plan_id":"cebpf4jnsgd1na2vs0mg"},{"bike_id":"3373608d-e449-4279-9933-445e50f8eba6","system_id":"levelo_inurba_marseille","lat":43.25113,"lon":5.40318,"is_reserved":false,"is_disabled":false,"rental_uris":{"android":"levelo://app?vid=3373608d-e449-4279-9933-445e50f8eba6","ios":"levelo://app?vid=3373608d-e449-4279-9933-445e50f8eba6"},"vehicle_type_id":"4","last_reported":1731182936,"current_range_meters":3600,"station_id":"ce4bhlh2rcd13ifvqgig","pricing_plan_id":"cebpf4jnsgd1na2vs0mg"},{"bike_id":"6a8f90cf-dd6b-4336-809c-cc3deb3a9c75","system_id":"levelo_inurba_marseille","lat":43.27939,"lon":5.41034,"is_reserved":false,"is_disabled":false,"rental_uris":{"android":"levelo://app?vid=6a8f90cf-dd6b-4336-809c-cc3deb3a9c75","ios":"levelo://app?vid=6a8f90cf-dd6b-4336-809c-cc3deb3a9c75"},"vehicle_type_id":"4","last_reported":1731182936,"current_range_meters":33200,"station_id":"ce4bhnp2rcd13ifvqh0g","pricing_plan_id":"cebpf4jnsgd1na2vs0mg"},{"bike_id":"108223e1-ac2e-40d4-87c8-1af7a1b3a6ea","system_id":"levelo_inurba_marseille","lat":43.29976,"lon":5.38489,"is_reserved":false,"is_disabled":false,"rental_uris":{"android":"levelo://app?vid=108223e1-ac2e-40d4-87c8-1af7a1b3a6ea","ios":"levelo://app?vid=108223e1-ac2e-40d4-87c8-1af7a1b3a6ea"},"vehicle_type_id":"4","last_reported":1731182936,"current_range_meters":2800,"station_id":"ce4bgj92rcd13ifvqbd0","pricing_plan_id":"cebpf4jnsgd1na2vs0mg"},{"bike_id":"82ac9e6e-af6d-463e-ab8b-7319ee23ee98","system_id":"levelo_inurba_marseille","lat":43.26501,"lon":5.39538,"is_reserved":false,"is_disabled":false,"rental_uris":{"android":"levelo://app?vid=82ac9e6e-af6d-463e-ab8b-7319ee23ee98","ios":"levelo://app?vid=82ac9e6e-af6d-463e-ab8b-7319ee23ee98"},"vehicle_type_id":"4","last_reported":1731182936,"current_range_meters":9200,"station_id":"ce4bhi12rcd13ifvqfq0","pricing_plan_id":"cebpf4jnsgd1na2vs0mg"},{"bike_id":"799051fd-d983-438d-b1a6-f94aa3428752","system_id":"levelo_inurba_marseille","lat":43.29555,"lon":5.42276,"is_reserved":false,"is_disabled":false,"rental_uris":{"android":"levelo://app?vid=799051fd-d983-438d-b1a6-f94aa3428752","ios":"levelo://app?vid=799051fd-d983-438d-b1a6-f94aa3428752"},"vehicle_type_id":"4","last_reported":1731182936,"current_range_meters":38800,"station_id":"ce4bhph2rcd13ifvqhdg","pricing_plan_id":"cebpf4jnsgd1na2vs0mg"},{"bike_id":"443edaf9-4879-45be-bbbd-633fcbcc02e2","system_id":"levelo_inurba_marseille","lat":43.306092,"lon":5.37222,"is_reserved":false,"is_disabled":false,"rental_uris":{"android":"levelo://app?vid=443edaf9-4879-45be-bbbd-633fcbcc02e2","ios":"levelo://app?vid=443edaf9-4879-45be-bbbd-633fcbcc02e2"},"vehicle_type_id":"4","last_reported":1731182936,"current_range_meters":32400,"station_id":"ce4bgqh2rcd13ifvqc4g","pricing_plan_id":"cebpf4jnsgd1na2vs0mg"},{"bike_id":"6aca5df1-34cc-42de-a7d8-c856d695a14f","system_id":"levelo_inurba_marseille","lat":43.3107,"lon":5.38347,"is_reserved":false,"is_disabled":false,"rental_uris":{"android":"levelo://app?vid=6aca5df1-34cc-42de-a7d8-c856d695a14f","ios":"levelo://app?vid=6aca5df1-34cc-42de-a7d8-c856d695a14f"},"vehicle_type_id":"4","last_reported":1731182936,"current_range_meters":4400,"station_id":"ce4bgv92rcd13ifvqcr0","pricing_plan_id":"cebpf4jnsgd1na2vs0mg"},{"bike_id":"a0fd0a73-1a0f-46ba-947f-1d3ab6681d6d","system_id":"levelo_inurba_marseille","lat":43.30328,"lon":5.40433,"is_reserved":false,"is_disabled":false,"rental_uris":{"android":"levelo://app?vid=a0fd0a73-1a0f-46ba-947f-1d3ab6681d6d","ios":"levelo://app?vid=a0fd0a73-1a0f-46ba-947f-1d3ab6681d6d"},"vehicle_type_id":"4","last_reported":1731182936,"current_range_meters":26800,"station_id":"ce4bh012rcd13ifvqd10","pricing_plan_id":"cebpf4jnsgd1na2vs0mg"},{"bike_id":"70d9933d-741e-4429-84fb-de4809e21853","system_id":"levelo_inurba_marseille","lat":43.29262,"lon":5.38436,"is_reserved":false,"is_disabled":false,"rental_uris":{"android":"levelo://app?vid=70d9933d-741e-4429-84fb-de4809e21853","ios":"levelo://app?vid=70d9933d-741e-4429-84fb-de4809e21853"},"vehicle_type_id":"4","last_reported":1731182936,"current_range_meters":8400,"station_id":"ce4bh692rcd13ifvqea0","pricing_plan_id":"cebpf4jnsgd1na2vs0mg"},{"bike_id":"3739563e-819d-4892-9847-4a000c006fab","system_id":"levelo_inurba_marseille","lat":43.29292,"lon":5.4012,"is_reserved":false,"is_disabled":false,"rental_uris":{"android":"levelo://app?vid=3739563e-819d-4892-9847-4a000c006fab","ios":"levelo://app?vid=3739563e-819d-4892-9847-4a000c006fab"},"vehicle_type_id":"4","last_reported":1731182936,"current_range_meters":16400,"station_id":"ce4bh312rcd13ifvqdk0","pricing_plan_id":"cebpf4jnsgd1na2vs0mg"},{"bike_id":"ca099a63-58db-459f-9794-39ddb376dcdf","system_id":"levelo_inurba_marseille","lat":43.29169,"lon":5.37165,"is_reserved":false,"is_disabled":false,"rental_uris":{"android":"levelo://app?vid=ca099a63-58db-459f-9794-39ddb376dcdf","ios":"levelo://app?vid=ca099a63-58db-459f-9794-39ddb376dcdf"},"vehicle_type_id":"4","last_reported":1731182936,"current_range_meters":8400,"station_id":"ce4bha92rcd13ifvqeh0","pricing_plan_id":"cebpf4jnsgd1na2vs0mg"},{"bike_id":"e88390ed-9b8a-46d8-8c93-37fd4498fc79","system_id":"levelo_inurba_marseille","lat":43.30803,"lon":5.4352,"is_reserved":false,"is_disabled":false,"rental_uris":{"android":"levelo://app?vid=e88390ed-9b8a-46d8-8c93-37fd4498fc79","ios":"levelo://app?vid=e88390ed-9b8a-46d8-8c93-37fd4498fc79"},"vehicle_type_id":"4","last_reported":1731182936,"current_range_meters":38800,"station_id":"ce4bhph2rcd13ifvqheg","pricing_plan_id":"cebpf4jnsgd1na2vs0mg"},{"bike_id":"2a2b6bd4-7604-497d-9ca3-0e5e501b0d20","system_id":"levelo_inurba_marseille","lat":43.31174,"lon":5.38715,"is_reserved":false,"is_disabled":false,"rental_uris":{"android":"levelo://app?vid=2a2b6bd4-7604-497d-9ca3-0e5e501b0d20","ios":"levelo://app?vid=2a2b6bd4-7604-497d-9ca3-0e5e501b0d20"},"vehicle_type_id":"4","last_reported":1731182936,"current_range_meters":38800,"station_id":"ce4bgv12rcd13ifvqcp0","pricing_plan_id":"cebpf4jnsgd1na2vs0mg"},{"bike_id":"6366a0a2-434c-449e-8ae3-0585efb08dbc","system_id":"levelo_inurba_marseille","lat":43.24998,"lon":5.38923,"is_reserved":false,"is_disabled":false,"rental_uris":{"android":"levelo://app?vid=6366a0a2-434c-449e-8ae3-0585efb08dbc","ios":"levelo://app?vid=6366a0a2-434c-449e-8ae3-0585efb08dbc"},"vehicle_type_id":"4","last_reported":1731182936,"current_range_meters":38800,"station_id":"ce4bhgp2rcd13ifvqfd0","pricing_plan_id":"cebpf4jnsgd1na2vs0mg"},{"bike_id":"3ab4b425-5996-4c7a-92d8-b00a0f4ea76b","system_id":"levelo_inurba_marseille","lat":43.29426,"lon":5.38622,"is_reserved":false,"is_disabled":false,"rental_uris":{"android":"levelo://app?vid=3ab4b425-5996-4c7a-92d8-b00a0f4ea76b","ios":"levelo://app?vid=3ab4b425-5996-4c7a-92d8-b00a0f4ea76b"},"vehicle_type_id":"4","last_reported":1731182936,"current_range_meters":38800,"station_id":"ce4bh2h2rcd13ifvqdh0","pricing_plan_id":"cebpf4jnsgd1na2vs0mg"},{"bike_id":"7da198ef-90f5-488f-87fe-2b76e2625198","system_id":"levelo_inurba_marseille","lat":43.31481,"lon":5.37309,"is_reserved":false,"is_disabled":false,"rental_uris":{"android":"levelo://app?vid=7da198ef-90f5-488f-87fe-2b76e2625198","ios":"levelo://app?vid=7da198ef-90f5-488f-87fe-2b76e2625198"},"vehicle_type_id":"4","last_reported":1731182936,"current_range_meters":24000,"station_id":"ce4bgt12rcd13ifvqcd0","pricing_plan_id":"cebpf4jnsgd1na2vs0mg"},{"bike_id":"1078f1f5-2860-4e77-9c4d-a123ca5bad8d","system_id":"levelo_inurba_marseille","lat":43.25603,"lon":5.38206,"is_reserved":false,"is_disabled":false,"rental_uris":{"android":"levelo://app?vid=1078f1f5-2860-4e77-9c4d-a123ca5bad8d","ios":"levelo://app?vid=1078f1f5-2860-4e77-9c4d-a123ca5bad8d"},"vehicle_type_id":"4","last_reported":1731182936,"current_range_meters":11200,"station_id":"ce4bhih2rcd13ifvqfs0","pricing_plan_id":"cebpf4jnsgd1na2vs0mg"},{"bike_id":"02d7efef-9cf4-49a9-85a1-3b3c3042290c","system_id":"levelo_inurba_marseille","lat":43.29312,"lon":5.37178,"is_reserved":false,"is_disabled":false,"rental_uris":{"android":"levelo://app?vid=02d7efef-9cf4-49a9-85a1-3b3c3042290c","ios":"levelo://app?vid=02d7efef-9cf4-49a9-85a1-3b3c3042290c"},"vehicle_type_id":"4","last_reported":1731182936,"current_range_meters":16000,"station_id":"ce4bgh92rcd13ifvqb40","pricing_plan_id":"cebpf4jnsgd1na2vs0mg"},{"bike_id":"2494770c-0559-417d-854a-214f4180f50b","system_id":"levelo_inurba_marseille","lat":43.28584,"lon":5.39492,"is_reserved":false,"is_disabled":false,"rental_uris":{"android":"levelo://app?vid=2494770c-0559-417d-854a-214f4180f50b","ios":"levelo://app?vid=2494770c-0559-417d-854a-214f4180f50b"},"vehicle_type_id":"4","last_reported":1731182936,"current_range_meters":27600,"station_id":"ce4bh292rcd13ifvqdg0","pricing_plan_id":"cebpf4jnsgd1na2vs0mg"},{"bike_id":"fcbc32ef-3cda-4a62-ac40-5f86b52758bc","system_id":"levelo_inurba_marseille","lat":43.26231,"lon":5.39325,"is_reserved":false,"is_disabled":false,"rental_uris":{"android":"levelo://app?vid=fcbc32ef-3cda-4a62-ac40-5f86b52758bc","ios":"levelo://app?vid=fcbc32ef-3cda-4a62-ac40-5f86b52758bc"},"vehicle_type_id":"4","last_reported":1731182936,"current_range_meters":32000,"station_id":"ce4bha12rcd13ifvqef0","pricing_plan_id":"cebpf4jnsgd1na2vs0mg"},{"bike_id":"b6778b5b-579b-419a-8491-6086cf783779","system_id":"levelo_inurba_marseille","lat":43.29792,"lon":5.39331,"is_reserved":false,"is_disabled":false,"rental_uris":{"android":"levelo://app?vid=b6778b5b-579b-419a-8491-6086cf783779","ios":"levelo://app?vid=b6778b5b-579b-419a-8491-6086cf783779"},"vehicle_type_id":"4","last_reported":1731182936,"current_range_meters":38800,"station_id":"chh1huq6cuj3fo74tm60","pricing_plan_id":"cebpf4jnsgd1na2vs0mg"},{"bike_id":"7e7be88e-2387-4ac1-8672-4e3f2accb589","system_id":"levelo_inurba_marseille","lat":43.231955,"lon":5.355595,"is_reserved":false,"is_disabled":false,"rental_uris":{"android":"levelo://app?vid=7e7be88e-2387-4ac1-8672-4e3f2accb589","ios":"levelo://app?vid=7e7be88e-2387-4ac1-8672-4e3f2accb589"},"vehicle_type_id":"4","last_reported":1731182936,"current_range_meters":12800,"station_id":"ce4bhu92rcd13ifvqi70","pricing_plan_id":"cebpf4jnsgd1na2vs0mg"},{"bike_id":"2f5ec672-53e8-4fce-9297-1013c0fa36a1","system_id":"levelo_inurba_marseille","lat":43.26938,"lon":5.38922,"is_reserved":false,"is_disabled":false,"rental_uris":{"android":"levelo://app?vid=2f5ec672-53e8-4fce-9297-1013c0fa36a1","ios":"levelo://app?vid=2f5ec672-53e8-4fce-9297-1013c0fa36a1"},"vehicle_type_id":"4","last_reported":1731182936,"current_range_meters":30000,"station_id":"ce4bhhh2rcd13ifvqfl0","pricing_plan_id":"cebpf4jnsgd1na2vs0mg"},