{"last_updated":1743484270,"ttl":60,"version":"2.2","data":{"bikes":[{"bike_id":"76d4ed16-8625-4a14-a5f1-d28ac2574c13","system_id":"levelo_inurba_marseille","lat":43.24539,"lon":5.39542,"is_reserved":false,"is_disabled":false,"rental_uris":{"android":"levelo://app?vid=76d4ed16-8625-4a14-a5f1-d28ac2574c13","ios":"levelo://app?vid=76d4ed16-8625-4a14-a5f1-d28ac2574c13"},"vehicle_type_id":"4","last_reported":1743484270,"current_range_meters":2800,"station_id":"ce4bhlp2rcd13ifvqgjg","pricing_plan_id":"cebpf4jnsgd1na2vs0mg"},{"bike_id":"75d56f98-6c75-4a8c-a312-88f4710b478a","system_id":"levelo_inurba_marseille","lat":43.292683,"lon":5.376125,"is_reserved":false,"is_disabled":true,"rental_uris":{"android":"levelo://app?vid=75d56f98-6c75-4a8c-a312-88f4710b478a","ios":"levelo://app?vid=75d56f98-6c75-4a8c-a312-88f4710b478a"},"vehicle_type_id":"4","last_reported":1743484270,"current_range_meters":2800,"station_id":"ce4bgi12rcd13ifvqb80","pricing_plan_id":"cebpf4jnsgd1na2vs0mg"},{"bike_id":"d1379a4b-7d1c-4a20-9b6a-00a7778584be","system_id":"levelo_inurba_marseille","lat":43.260682,"lon":5.394138,"is_reserved":false,"is_disabled":false,"rental_uris":{"android":"levelo://app?vid=d1379a4b-7d1c-4a20-9b6a-00a7778584be","ios":"levelo://app?vid=d1379a4b-7d1c-4a20-9b6a-00a7778584be"},"vehicle_type_id":"4","last_reported":1743484270,"current_range_meters":2800,"station_id":"ce4bhh92rcd13ifvqfj0","pricing_plan_id":"cebpf4jnsgd1na2vs0mg"},{"bike_id":"a38ba8ba-3bed-4c88-9957-2c802ee7027f","system_id":"levelo_inurba_marseille","lat":43.26217,"lon":5.40478,"is_reserved":false,"is_disabled":false,"rental_uris":{"android":"levelo://app?vid=a38ba8ba-3bed-4c88-9957-2c802ee7027f","ios":"levelo://app?vid=a38ba8ba-3bed-4c88-9957-2c802ee7027f"},"vehicle_type_id":"4","last_reported":1743484270,"current_range_meters":2800,"station_id":"ce4bhmh2rcd13ifvqgmg","pricing_plan_id":"cebpf4jnsgd1na2vs0mg"},{"bike_id":"82d8e203-da64-466b-9b1d-e9f0a9bfebfe","system_id":"levelo_inurba_marseille","lat":43.32536,"lon":5.41452,"is_reserved":false,"is_disabled":true,"rental_uris":{"android":"levelo://app?vid=82d8e203-da64-466b-9b1d-e9f0a9bfebfe","ios":"levelo://app?vid=82d8e203-da64-466b-9b1d-e9f0a9bfebfe"},"vehicle_type_id":"4","last_reported":1743484270,"current_range_meters":3200,"station_id":"ce4bhq12rcd13ifvqhhg","pricing_plan_id":"cebpf4jnsgd1na2vs0mg"},{"bike_id":"e1c2e27d-9122-4c19-8269-7d0af48e0063","system_id":"levelo_inurba_marseille","lat":43.30415,"lon":5.39759,"is_reserved":false,"is_disabled":false,"rental_uris":{"android":"levelo://app?vid=e1c2e27d-9122-4c19-8269-7d0af48e0063","ios":"levelo://app?vid=e1c2e27d-9122-4c19-8269-7d0af48e0063"},"vehicle_type_id":"4","last_reported":1743484270,"current_range_meters":3200,"station_id":"ce4bh092rcd13ifvqd20","pricing_plan_id":"cebpf4jnsgd1na2vs0mg"},{"bike_id":"0ce29fe3-4a0d-4ccf-858a-3574f2c7d9b8","system_id":"levelo_inurba_marseille","lat":43.28927,"lon":5.39632,"is_reserved":false,"is_disabled":false,"rental_uris":{"android":"levelo://app?vid=0ce29fe3-4a0d-4ccf-858a-3574f2c7d9b8","ios":"levelo://app?vid=0ce29fe3-4a0d-4ccf-858a-3574f2c7d9b8"},"vehicle_type_id":"4","last_reported":1743484270,"current_range_meters":3200,"station_id":"ce4bh3h2rcd13ifvqdn0","pricing_plan_id":"cebpf4jnsgd1na2vs0mg"},{"bike_id":"a6a86f9a-9594-4071-b32a-a0d60f0f96bc","system_id":"levelo_inurba_marseille","lat":43.28937,"lon":5.39637,"is_reserved":false,"is_disabled":false,"rental_uris":{"android":"levelo://app?vid=a6a86f9a-9594-4071-b32a-a0d60f0f96bc","ios":"levelo://app?vid=a6a86f9a-9594-4071-b32a-a0d60f0f96bc"},"vehicle_type_id":"4","last_reported":1743484270,"current_range_meters":3600,"station_id":"ce4bh3h2rcd13ifvqdn0","pricing_plan_id":"cebpf4jnsgd1na2vs0mg"},{"bike_id":"0909e6e7-119a-43a8-b285-33eb860b8051","system_id":"levelo_inurba_marseille","lat":43.30258,"lon":5.40079,"is_reserved":false,"is_disabled":false,"rental_uris":{"android":"levelo://app?vid=0909e6e7-119a-43a8-b285-33eb860b8051","ios":"levelo://app?vid=0909e6e7-119a-43a8-b285-33eb860b8051"},"vehicle_type_id":"4","last_reported":1743484270,"current_range_meters":3600,"station_id":"ce4bgvh2rcd13ifvqcs0","pricing_plan_id":"cebpf4jnsgd1na2vs0mg"},{"bike_id":"56539414-9d2e-42ce-8f9a-64675f5255e9","system_id":"levelo_inurba_marseille","lat":43.29266,"lon":5.40165,"is_reserved":false,"is_disabled":false,"rental_uris":{"android":"levelo://app?vid=56539414-9d2e-42ce-8f9a-64675f5255e9","ios":"levelo://app?vid=56539414-9d2e-42ce-8f9a-64675f5255e9"},"vehicle_type_id":"4","last_reported":1743484270,"current_range_meters":3600,"station_id":"ce4bh312rcd13ifvqdk0","pricing_plan_id":"cebpf4jnsgd1na2vs0mg"},{"bike_id":"a5af0df7-c937-4d92-9955-0586f5f8d3ee","system_id":"levelo_inurba_marseille","lat":43.27945,"lon":5.41061,"is_reserved":false,"is_disabled":false,"rental_uris":{"android":"levelo://app?vid=a5af0df7-c937-4d92-9955-0586f5f8d3ee","ios":"levelo://app?vid=a5af0df7-c937-4d92-9955-0586f5f8d3ee"},"vehicle_type_id":"4","last_reported":1743484270,"current_range_meters":4000,"station_id":"ce4bhnp2rcd13ifvqh0g","pricing_plan_id":"cebpf4jnsgd1na2vs0mg"},{"bike_id":"248029c6-2454-473a-9b69-0f66c750cc08","system_id":"levelo_inurba_marseille","lat":43.2508,"lon":5.39531,"is_reserved":false,"is_disabled":false,"rental_uris":{"android":"levelo://app?vid=248029c6-2454-473a-9b69-0f66c750cc08","ios":"levelo://app?vid=248029c6-2454-473a-9b69-0f66c750cc08"},"vehicle_type_id":"4","last_reported":1743484270,"current_range_meters":4000,"station_id":"ce4bhm12rcd13ifvqgkg","pricing_plan_id":"cebpf4jnsgd1na2vs0mg"},{"bike_id":"33c55660-0541-469b-a476-383fff04337f","system_id":"levelo_inurba_marseille","lat":43.22933,"lon":5.35374,"is_reserved":false,"is_disabled":false,"rental_uris":{"android":"levelo://app?vid=33c55660-0541-469b-a476-383fff04337f","ios":"levelo://app?vid=33c55660-0541-469b-a476-383fff04337f"},"vehicle_type_id":"4","last_reported":1743484270,"current_range_meters":4000,"station_id":"cpo3532slgdg3j2ikp40","pricing_plan_id":"cebpf4jnsgd1na2vs0mg"},{"bike_id":"85fad29d-07fa-4834-92ea-a24165516ebf","system_id":"levelo_inurba_marseille","lat":43.23068,"lon":5.35498,"is_reserved":false,"is_disabled":false,"rental_uris":{"android":"levelo://app?vid=85fad29d-07fa-4834-92ea-a24165516ebf","ios":"levelo://app?vid=85fad29d-07fa-4834-92ea-a24165516ebf"},"vehicle_type_id":"4","last_reported":1743484270,"current_range_meters":4400,"station_id":"cpo3342slgdg3j2ifvpg","pricing_plan_id":"cebpf4jnsgd1na2vs0mg"},{"bike_id":"1da808a6-36fb-434e-b2cb-2df77d77936e","system_id":"levelo_inurba_marseille","lat":43.27359,"lon":5.36244,"is_reserved":false,"is_disabled":false,"rental_uris":{"android":"levelo://app?vid=1da808a6-36fb-434e-b2cb-2df77d77936e","ios":"levelo://app?vid=1da808a6-36fb-434e-b2cb-2df77d77936e"},"vehicle_type_id":"4","last_reported":1743484270,"current_range_meters":4400,"station_id":"ce4bhbh2rcd13ifvqeo0","pricing_plan_id":"cebpf4jnsgd1na2vs0mg"},{"bike_id":"deb3d6fe-ad0a-4a2c-8dad-a1a3b606d3f1","system_id":"levelo_inurba_marseille","lat":43.270636,"lon":5.40259,"is_reserved":false,"is_disabled":false,"rental_uris":{"android":"levelo://app?vid=deb3d6fe-ad0a-4a2c-8dad-a1a3b606d3f1","ios":"levelo://app?vid=deb3d6fe-ad0a-4a2c-8dad-a1a3b606d3f1"},"vehicle_type_id":"4","last_reported":1743484270,"current_range_meters":4400,"station_id":"ce4bhk92rcd13ifvqgc0","pricing_plan_id":"cebpf4jnsgd1na2vs0mg"},{"bike_id":"7bf19f0f-ccb7-4e2d-8151-5b3b43d672b1","system_id":"levelo_inurba_marseille","lat":43.260214,"lon":5.417448,"is_reserved":false,"is_disabled":false,"rental_uris":{"android":"levelo://app?vid=7bf19f0f-ccb7-4e2d-8151-5b3b43d672b1","ios":"levelo://app?vid=7bf19f0f-ccb7-4e2d-8151-5b3b43d672b1"},"vehicle_type_id":"4","last_reported":1743484270,"current_range_meters":4800,"station_id":"","pricing_plan_id":"cebpf4jnsgd1na2vs0mg"},{"bike_id":"00d61976-17e0-440b-8586-301c5d1b91c1","system_id":"levelo_inurba_marseille","lat":43.29248,"lon":5.38443,"is_reserved":false,"is_disabled":true,"rental_uris":{"android":"levelo://app?vid=00d61976-17e0-440b-8586-301c5d1b91c1","ios":"levelo://app?vid=00d61976-17e0-440b-8586-301c5d1b91c1"},"vehicle_type_id":"4","last_reported":1743484270,"current_range_meters":5600,"station_id":"ce4bh692rcd13ifvqea0","pricing_plan_id":"cebpf4jnsgd1na2vs0mg"},{"bike_id":"cc5a488e-1cef-4316-8c1b-1e738400aef3","system_id":"levelo_inurba_marseille","lat":43.30465,"lon":5.37905,"is_reserved":false,"is_disabled":false,"rental_uris":{"android":"levelo://app?vid=cc5a488e-1cef-4316-8c1b-1e738400aef3","ios":"levelo://app?vid=cc5a488e-1cef-4316-8c1b-1e738400aef3"},"vehicle_type_id":"4","last_reported":1743484270,"current_range_meters":5600,"station_id":"ce4bgup2rcd13ifvqcn0","pricing_plan_id":"cebpf4jnsgd1na2vs0mg"},{"bike_id":"5194817e-e68d-400d-9e3c-99501829c1ca","system_id":"levelo_inurba_marseille","lat":43.30577,"lon":5.39341,"is_reserved":false,"is_disabled":false,"rental_uris":{"android":"levelo://app?vid=5194817e-e68d-400d-9e3c-99501829c1ca","ios":"levelo://app?vid=5194817e-e68d-400d-9e3c-99501829c1ca"},"vehicle_type_id":"4","last_reported":1743484270,"current_range_meters":5600,"station_id":"ce4bh0p2rcd13ifvqd80","pricing_plan_id":"cebpf4jnsgd1na2vs0mg"},{"bike_id":"a04aca5b-0988-449d-a9cf-43ccbda2f34b","system_id":"levelo_inurba_marseille","lat":43.32024,"lon":5.38131,"is_reserved":false,"is_disabled":true,"rental_uris":{"android":"levelo://app?vid=a04aca5b-0988-449d-a9cf-43ccbda2f34b","ios":"levelo://app?vid=a04aca5b-0988-449d-a9cf-43ccbda2f34b"},"vehicle_type_id":"4","last_reported":1743484270,"current_range_meters":5600,"station_id":"ce4bhr12rcd13ifvqhpg","pricing_plan_id":"cebpf4jnsgd1na2vs0mg"},{"bike_id":"9ee253b4-992a-4a0a-9de3-f97c58301027","system_id":"levelo_inurba_marseille","lat":43.28696,"lon":5.40002,"is_reserved":false,"is_disabled":false,"rental_uris":{"android":"levelo://app?vid=9ee253b4-992a-4a0a-9de3-f97c58301027","ios":"levelo://app?vid=9ee253b4-992a-4a0a-9de3-f97c58301027"},"vehicle_type_id":"4","last_reported":1743484270,"current_range_meters":6000,"station_id":"ce4bho92rcd13ifvqh3g","pricing_plan_id":"cebpf4jnsgd1na2vs0mg"},{"bike_id":"1115aca5-6e9e-4faf-b9a7-ceadf7eb4ba5","system_id":"levelo_inurba_marseille","lat":43.287231,"lon":5.379384,"is_reserved":false,"is_disabled":false,"rental_uris":{"android":"levelo://app?vid=1115aca5-6e9e-4faf-b9a7-ceadf7eb4ba5","ios":"levelo://app?vid=1115aca5-6e9e-4faf-b9a7-ceadf7eb4ba5"},"vehicle_type_id":"4","last_reported":1743484270,"current_range_meters":6000,"station_id":"ce4bh9p2rcd13ifvqec0","pricing_plan_id":"cebpf4jnsgd1na2vs0mg"},{"bike_id":"6165c5e1-15f4-4779-ba2f-91df8ba3f8c0","system_id":"levelo_inurba_marseille","lat":43.28906,"lon":5.42986,"is_reserved":false,"is_disabled":false,"rental_uris":{"android":"levelo://app?vid=6165c5e1-15f4-4779-ba2f-91df8ba3f8c0","ios":"levelo://app?vid=6165c5e1-15f4-4779-ba2f-91df8ba3f8c0"},"vehicle_type_id":"4","last_reported":1743484270,"current_range_meters":6000,"station_id":"","pricing_plan_id":"cebpf4jnsgd1na2vs0mg"},{"bike_id":"79c6151d-3dc0-4d08-8451-c5a6fdc09cd0","system_id":"levelo_inurba_marseille","lat":43.27985,"lon":5.40036,"is_reserved":false,"is_disabled":false,"rental_uris":{"android":"levelo://app?vid=79c6151d-3dc0-4d08-8451-c5a6fdc09cd0","ios":"levelo://app?vid=79c6151d-3dc0-4d08-8451-c5a6fdc09cd0"},"vehicle_type_id":"4","last_reported":1743484270,"current_range_meters":6000,"station_id":"ce4bho92rcd13ifvqh4g","pricing_plan_id":"cebpf4jnsgd1na2vs0mg"},{"bike_id":"9a2af466-2aa8-49f7-bfd5-fc815a2aa07c","system_id":"levelo_inurba_marseille","lat":43.306589,"lon":5.400896,"is_reserved":false,"is_disabled":true,"rental_uris":{"android":"levelo://app?vid=9a2af466-2aa8-49f7-bfd5-fc815a2aa07c","ios":"levelo://app?vid=9a2af466-2aa8-49f7-bfd5-fc815a2aa07c"},"vehicle_type_id":"4","last_reported":1743484270,"current_range_meters":6000,"station_id":"ce4bh112rcd13ifvqda0","pricing_plan_id":"cebpf4jnsgd1na2vs0mg"},{"bike_id":"970d4a28-2e4b-453e-912d-59e6f284b811","system_id":"levelo_inurba_marseille","lat":43.323673,"lon":5.388933,"is_reserved":false,"is_disabled":true,"rental_uris":{"android":"levelo://app?vid=970d4a28-2e4b-453e-912d-59e6f284b811","ios":"levelo://app?vid=970d4a28-2e4b-453e-912d-59e6f284b811"},"vehicle_type_id":"4","last_reported":1743484270,"current_range_meters":6400,"station_id":"ce4bhqp2rcd13ifvqhog","pricing_plan_id":"cebpf4jnsgd1na2vs0mg"},{"bike_id":"54833be9-c622-47eb-a9cd-ad534be28963","system_id":"levelo_inurba_marseille","lat":43.278134,"lon":5.40714,"is_reserved":false,"is_disabled":false,"rental_uris":{"android":"levelo://app?vid=54833be9-c622-47eb-a9cd-ad534be28963","ios":"levelo://app?vid=54833be9-c622-47eb-a9cd-ad534be28963"},"vehicle_type_id":"4","last_reported":1743484270,"current_range_meters":6400,"station_id":"ce4bhnh2rcd13ifvqgtg","pricing_plan_id":"cebpf4jnsgd1na2vs0mg"},{"bike_id":"b104286b-ad75-4d03-8a4d-319e0d6523a6","system_id":"levelo_inurba_marseille","lat":43.28406,"lon":5.37522,"is_reserved":false,"is_disabled":false,"rental_uris":{"android":"levelo://app?vid=b104286b-ad75-4d03-8a4d-319e0d6523a6","ios":"levelo://app?vid=b104286b-ad75-4d03-8a4d-319e0d6523a6"},"vehicle_type_id":"4","last_reported":1743484270,"current_range_meters":6400,"station_id":"ce4bh412rcd13ifvqds0","pricing_plan_id":"cebpf4jnsgd1na2vs0mg"},{"bike_id":"688e6748-9269-4b95-9b40-7ca08fd40822","system_id":"levelo_inurba_marseille","lat":43.3029,"lon":5.39227,"is_reserved":false,"is_disabled":false,"rental_uris":{"android":"levelo://app?vid=688e6748-9269-4b95-9b40-7ca08fd40822","ios":"levelo://app?vid=688e6748-9269-4b95-9b40-7ca08fd40822"},"vehicle_type_id":"4","last_reported":1743484270,"current_range_meters":6400,"station_id":"ce4bgkh2rcd13ifvqbk0","pricing_plan_id":"cebpf4jnsgd1na2vs0mg"},{"bike_id":"3e6f399e-ea99-4bee-bf19-68240615b5e1","system_id":"levelo_inurba_marseille","lat":43.2903,"lon":5.38649,"is_reserved":false,"is_disabled":true,"rental_uris":{"android":"levelo://app?vid=3e6f399e-ea99-4bee-bf19-68240615b5e1","ios":"levelo://app?vid=3e6f399e-ea99-4bee-bf19-68240615b5e1"},"vehicle_type_id":"4","last_reported":1743484270,"current_range_meters":6400,"station_id":"ce4bh4p2rcd13ifvqe0g","pricing_plan_id":"cebpf4jnsgd1na2vs0mg"},{"bike_id":"2bf31f9f-c5c0-434c-ab3b-b017d7dc966d","system_id":"levelo_inurba_marseille","lat":43.23054,"lon":5.35491,"is_reserved":false,"is_disabled":false,"rental_uris":{"android":"levelo://app?vid=2bf31f9f-c5c0-434c-ab3b-b017d7dc966d","ios":"levelo://app?vid=2bf31f9f-c5c0-434c-ab3b-b017d7dc966d"},"vehicle_type_id":"4","last_reported":1743484270,"current_range_meters":6400,"station_id":"cpo3342slgdg3j2ifvpg","pricing_plan_id":"cebpf4jnsgd1na2vs0mg"},{"bike_id":"d78f4182-89a3-4c8c-8d77-5ef713c7dd04","system_id":"levelo_inurba_marseille","lat":43.30869,"lon":5.37787,"is_reserved":false,"is_disabled":false,"rental_uris":{"android":"levelo://app?vid=d78f4182-89a3-4c8c-8d77-5ef713c7dd04","ios":"levelo://app?vid=d78f4182-89a3-4c8c-8d77-5ef713c7dd04"},"vehicle_type_id":"4","last_reported":1743484270,"current_range_meters":6400,"station_id":"","pricing_plan_id":"cebpf4jnsgd1na2vs0mg"},{"bike_id":"2daa20a0-09bc-4cf9-9cd1-272ead10dc55","system_id":"levelo_inurba_marseille","lat":43.30002,"lon":5.381128,"is_reserved":false,"is_disabled":false,"rental_uris":{"android":"levelo://app?vid=2daa20a0-09bc-4cf9-9cd1-272ead10dc55","ios":"levelo://app?vid=2daa20a0-09bc-4cf9-9cd1-272ead10dc55"},"vehicle_type_id":"4","last_reported":1743484270,"current_range_meters":6400,"station_id":"ce4bgjp2rcd13ifvqbh0","pricing_plan_id":"cebpf4jnsgd1na2vs0mg"},{"bike_id":"318d6f0c-86ac-457d-b7f6-de8d209b70bd","system_id":"levelo_inurba_marseille","lat":43.291965,"lon":5.393169,"is_reserved":false,"is_disabled":false,"rental_uris":{"android":"levelo://app?vid=318d6f0c-86ac-457d-b7f6-de8d209b70bd","ios":"levelo://app?vid=318d6f0c-86ac-457d-b7f6-de8d209b70bd"},"vehicle_type_id":"4","last_reported":1743484270,"current_range_meters":6800,"station_id":"ce4bh192rcd13ifvqdd0","pricing_plan_id":"cebpf4jnsgd1na2vs0mg"},{"bike_id":"fde0fc64-e9e3-4076-aa0c-a6ed9097029a","system_id":"levelo_inurba_marseille","lat":43.32318,"lon":5.40616,"is_reserved":false,"is_disabled":false,"rental_uris":{"android":"levelo://app?vid=fde0fc64-e9e3-4076-aa0c-a6ed9097029a","ios":"levelo://app?vid=fde0fc64-e9e3-4076-aa0c-a6ed9097029a"},"vehicle_type_id":"4","last_reported":1743484270,"current_range_meters":6800,"station_id":"ce4bhq92rcd13ifvqhjg","pricing_plan_id":"cebpf4jnsgd1na2vs0mg"},{"bike_id":"c9833ca0-4063-46bb-bc7f-ee03b697e422","system_id":"levelo_inurba_marseille","lat":43.29928,"lon":5.36529,"is_reserved":false,"is_disabled":false,"rental_uris":{"android":"levelo://app?vid=c9833ca0-4063-46bb-bc7f-ee03b697e422","ios":"levelo://app?vid=c9833ca0-4063-46bb-bc7f-ee03b697e422"},"vehicle_type_id":"4","last_reported":1743484270,"current_range_meters":6800,"station_id":"ce4bgm92rcd13ifvqbr0","pricing_plan_id":"cebpf4jnsgd1na2vs0mg"},{"bike_id":"fe1afd43-ba0d-4cfa-be08-1e14b89f64ab","system_id":"levelo_inurba_marseille","lat":43.30435,"lon":5.39748,"is_reserved":false,"is_disabled":false,"rental_uris":{"android":"levelo://app?vid=fe1afd43-ba0d-4cfa-be08-1e14b89f64ab","ios":"levelo://app?vid=fe1afd43-ba0d-4cfa-be08-1e14b89f64ab"},"vehicle_type_id":"4","last_reported":1743484270,"current_range_meters":6800,"station_id":"ce4bh092rcd13ifvqd20","pricing_plan_id":"cebpf4jnsgd1na2vs0mg"},{"bike_id":"99d055d7-9012-4bd5-ad15-1482d25b2f4d","system_id":"levelo_inurba_marseille","lat":43.30233,"lon":5.40036,"is_reserved":false,"is_disabled":false,"rental_uris":{"android":"levelo://app?vid=99d055d7-9012-4bd5-ad15-1482d25b2f4d","ios":"levelo://app?vid=99d055d7-9012-4bd5-ad15-1482d25b2f4d"},"vehicle_type_id":"4","last_reported":1743484270,"current_range_meters":6800,"station_id":"ce4bgvh2rcd13ifvqcs0","pricing_plan_id":"cebpf4jnsgd1na2vs0mg"},{"bike_id":"12514587-c98e-4063-aac8-25cd351ba7fd","system_id":"levelo_inurba_marseille","lat":43.302513,"lon":5.400637,"is_reserved":false,"is_disabled":false,"rental_uris":{"android":"levelo://app?vid=12514587-c98e-4063-aac8-25cd351ba7fd","ios":"levelo://app?vid=12514587-c98e-4063-aac8-25cd351ba7fd"},"vehicle_type_id":"4","last_reported":1743484270,"current_range_meters":6800,"station_id":"ce4bgvh2rcd13ifvqcs0","pricing_plan_id":"cebpf4jnsgd1na2vs0mg"},{"bike_id":"45af4554-ab6c-474c-b01a-dc6c7c1cd8fa","system_id":"levelo_inurba_marseille","lat":43.309294,"lon":5.401591,"is_reserved":false,"is_disabled":false,"rental_uris":{"android":"levelo://app?vid=45af4554-ab6c-474c-b01a-dc6c7c1cd8fa","ios":"levelo://app?vid=45af4554-ab6c-474c-b01a-dc6c7c1cd8fa"},"vehicle_type_id":"4","last_reported":1743484270,"current_range_meters":6800,"station_id":"ce4bgvp2rcd13ifvqct0","pricing_plan_id":"cebpf4jnsgd1na2vs0mg"},{"bike_id":"121010d1-d0ea-475b-97a6-f9054736109c","system_id":"levelo_inurba_marseille","lat":43.23178,"lon":5.39985,"is_reserved":false,"is_disabled":false,"rental_uris":{"android":"levelo://app?vid=121010d1-d0ea-475b-97a6-f9054736109c","ios":"levelo://app?vid=121010d1-d0ea-475b-97a6-f9054736109c"},"vehicle_type_id":"4","last_reported":1743484270,"current_range_meters":7200,"station_id":"ce4bhn12rcd13ifvqgqg","pricing_plan_id":"cebpf4jnsgd1na2vs0mg"},{"bike_id":"49810080-90c1-49b4-921f-dc96b27343ff","system_id":"levelo_inurba_marseille","lat":43.26112,"lon":5.41473,"is_reserved":false,"is_disabled":false,"rental_uris":{"android":"levelo://app?vid=49810080-90c1-49b4-921f-dc96b27343ff","ios":"levelo://app?vid=49810080-90c1-49b4-921f-dc96b27343ff"},"vehicle_type_id":"4","last_reported":1743484270,"current_range_meters":7200,"station_id":"","pricing_plan_id":"cebpf4jnsgd1na2vs0mg"},{"bike_id":"6b7f2b11-03ac-4a0c-9fb1-71dc0bbdd506","system_id":"levelo_inurba_marseille","lat":43.3198,"lon":5.38173,"is_reserved":false,"is_disabled":false,"rental_uris":{"android":"levelo://app?vid=6b7f2b11-03ac-4a0c-9fb1-71dc0bbdd506","ios":"levelo://app?vid=6b7f2b11-03ac-4a0c-9fb1-71dc0bbdd506"},"vehicle_type_id":"4","last_reported":1743484270,"current_range_meters":7200,"station_id":"ce4bhr12rcd13ifvqhpg","pricing_plan_id":"cebpf4jnsgd1na2vs0mg"},{"bike_id":"59b3e666-7fa2-48e6-bfd8-15740fad04fc","system_id":"levelo_inurba_marseille","lat":43.30956,"lon":5.39049,"is_reserved":false,"is_disabled":false,"rental_uris":{"android":"levelo://app?vid=59b3e666-7fa2-48e6-bfd8-15740fad04fc","ios":"levelo://app?vid=59b3e666-7fa2-48e6-bfd8-15740fad04fc"},"vehicle_type_id":"4","last_reported":1743484270,"current_range_meters":7200,"station_id":"ce4bgup2rcd13ifvqco0","pricing_plan_id":"cebpf4jnsgd1na2vs0mg"},{"bike_id":"3f0d1461-cfe6-40a2-8957-3d56ad6b3a3f","system_id":"levelo_inurba_marseille","lat":43.27053,"lon":5.40261,"is_reserved":false,"is_disabled":false,"rental_uris":{"android":"levelo://app?vid=3f0d1461-cfe6-40a2-8957-3d56ad6b3a3f","ios":"levelo://app?vid=3f0d1461-cfe6-40a2-8957-3d56ad6b3a3f"},"vehicle_type_id":"4","last_reported":1743484270,"current_range_meters":7200,"station_id":"ce4bhk92rcd13ifvqgc0","pricing_plan_id":"cebpf4jnsgd1na2vs0mg"},{"bike_id":"2ab291c1-611f-4988-96ad-ec1d6d205608","system_id":"levelo_inurba_marseille","lat":43.32654,"lon":5.41,"is_reserved":false,"is_disabled":false,"rental_uris":{"android":"levelo://app?vid=2ab291c1-611f-4988-96ad-ec1d6d205608","ios":"levelo://app?vid=2ab291c1-611f-4988-96ad-ec1d6d205608"},"vehicle_type_id":"4","last_reported":1743484270,"current_range_meters":7200,"station_id":"ce4bhpp2rcd13ifvqhgg","pricing_plan_id":"cebpf4jnsgd1na2vs0mg"},{"bike_id":"20f5d5b6-da1b-4ad8-8de5-42887a69d068","system_id":"levelo_inurba_marseille","lat":43.289982,"lon":5.35618,"is_reserved":false,"is_disabled":true,"rental_uris":{"android":"levelo://app?vid=20f5d5b6-da1b-4ad8-8de5-42887a69d068","ios":"levelo://app?vid=20f5d5b6-da1b-4ad8-8de5-42887a69d068"},"vehicle_type_id":"4","last_reported":1743484270,"current_range_meters":7200,"station_id":"ce4bhb92rcd13ifvqen0","pricing_plan_id":"cebpf4jnsgd1na2vs0mg"},{"bike_id":"8d79ddc6-bb5a-48c1-97dc-ddda0b0b6831","system_id":"levelo_inurba_marseille","lat":43.298059,"lon":5.404022,"is_reserved":false,"is_disabled":false,"rental_uris":{"android":"levelo://app?vid=8d79ddc6-bb5a-48c1-97dc-ddda0b0b6831","ios":"levelo://app?vid=8d79ddc6-bb5a-48c1-97dc-ddda0b0b6831"},"vehicle_type_id":"4","last_reported":1743484270,"current_range_meters":7200,"station_id":"ce4bh112rcd13ifvqd90","pricing_plan_id":"cebpf4jnsgd1na2vs0mg"},{"bike_id":"aca0b16f-b8c7-4211-8f8e-a779668b706f","system_id":"levelo_inurba_marseille","lat":43.28392,"lon":5.3752,"is_reserved":false,"is_disabled":false,"rental_uris":{"android":"levelo://app?vid=aca0b16f-b8c7-4211-8f8e-a779668b706f","ios":"levelo://app?vid=aca0b16f-b8c7-4211-8f8e-a779668b706f"},"vehicle_type_id":"4","last_reported":1743484270,"current_range_meters":7200,"station_id":"ce4bh412rcd13ifvqds0","pricing_plan_id":"cebpf4jnsgd1na2vs0mg"},{"bike_id":"254cf3a8-60b2-4ed4-a216-d337b7fda730","system_id":"levelo_inurba_marseille","lat":43.32325,"lon":5.40626,"is_reserved":false,"is_disabled":false,"rental_uris":{"android":"levelo://app?vid=254cf3a8-60b2-4ed4-a216-d337b7fda730","ios":"levelo://app?vid=254cf3a8-60b2-4ed4-a216-d337b7fda730"},"vehicle_type_id":"4","last_reported":1743484270,"current_range_meters":7200,"station_id":"ce4bhq92rcd13ifvqhjg","pricing_plan_id":"cebpf4jnsgd1na2vs0mg"},{"bike_id":"d8f70170-4924-47d8-bca2-902eeb07f843","system_id":"levelo_inurba_marseille","lat":43.30947,"lon":5.39059,"is_reserved":false,"is_disabled":false,"rental_uris":{"android":"levelo://app?vid=d8f70170-4924-47d8-bca2-902eeb07f843","ios":"levelo://app?vid=d8f70170-4924-47d8-bca2-902eeb07f843"},"vehicle_type_id":"4","last_reported":1743484270,"current_range_meters":7200,"station_id":"ce4bgup2rcd13ifvqco0","pricing_plan_id":"cebpf4jnsgd1na2vs0mg"},{"bike_id":"2d3ddf82-fb7a-4286-b25a-457905416bb5","system_id":"levelo_inurba_marseille","lat":43.27826,"lon":5.39213,"is_reserved":false,"is_disabled":false,"rental_uris":{"android":"levelo://app?vid=2d3ddf82-fb7a-4286-b25a-457905416bb5","ios":"levelo://app?vid=2d3ddf82-fb7a-4286-b25a-457905416bb5"},"vehicle_type_id":"4","last_reported":1743484270,"current_range_meters":7200,"station_id":"ce4bhjp2rcd13ifvqga0","pricing_plan_id":"cebpf4jnsgd1na2vs0mg"},{"bike_id":"0f8f638f-6c59-4dfb-ab4f-882d40e453aa","system_id":"levelo_inurba_marseille","lat":43.29274,"lon":5.42789,"is_reserved":false,"is_disabled":false,"rental_uris":{"android":"levelo://app?vid=0f8f638f-6c59-4dfb-ab4f-882d40e453aa","ios":"levelo://app?vid=0f8f638f-6c59-4dfb-ab4f-882d40e453aa"},"vehicle_type_id":"4","last_reported":1743484270,"current_range_meters":7200,"station_id":"","pricing_plan_id":"cebpf4jnsgd1na2vs0mg"},{"bike_id":"f50dd1be-9ee4-480d-920f-0721f0997798","system_id":"levelo_inurba_marseille","lat":43.23205,"lon":5.39917,"is_reserved":false,"is_disabled":false,"rental_uris":{"android":"levelo://app?vid=f50dd1be-9ee4-480d-920f-0721f0997798","ios":"levelo://app?vid=f50dd1be-9ee4-480d-920f-0721f0997798"},"vehicle_type_id":"4","last_reported":1743484270,"current_range_meters":7200,"station_id":"","pricing_plan_id":"cebpf4jnsgd1na2vs0mg"},{"bike_id":"3ab15c66-4d42-48a5-a0c6-9f7dd042b421","system_id":"levelo_inurba_marseille","lat":43.31715,"lon":5.42443,"is_reserved":false,"is_disabled":false,"rental_uris":{"android":"levelo://app?vid=3ab15c66-4d42-48a5-a0c6-9f7dd042b421","ios":"levelo://app?vid=3ab15c66-4d42-48a5-a0c6-9f7dd042b421"},"vehicle_type_id":"4","last_reported":1743484270,"current_range_meters":7200,"station_id":"ce4bhp92rcd13ifvqhbg","pricing_plan_id":"cebpf4jnsgd1na2vs0mg"},{"bike_id":"672d4500-3325-45a5-9b08-ac625495a4fb","system_id":"levelo_inurba_marseille","lat":43.28333,"lon":5.38113,"is_reserved":false,"is_disabled":true,"rental_uris":{"android":"levelo://app?vid=672d4500-3325-45a5-9b08-ac625495a4fb","ios":"levelo://app?vid=672d4500-3325-45a5-9b08-ac625495a4fb"},"vehicle_type_id":"4","last_reported":1743484270,"current_range_meters":7200,"station_id":"ce4bh412rcd13ifvqdr0","pricing_plan_id":"cebpf4jnsgd1na2vs0mg"},{"bike_id":"d2f2ddd5-8dd4-436f-ba30-fd70dfe59da3","system_id":"levelo_inurba_marseille","lat":43.32121,"lon":5.3676,"is_reserved":false,"is_disabled":false,"rental_uris":{"android":"levelo://app?vid=d2f2ddd5-8dd4-436f-ba30-fd70dfe59da3","ios":"levelo://app?vid=d2f2ddd5-8dd4-436f-ba30-fd70dfe59da3"},"vehicle_type_id":"4","last_reported":1743484270,"current_range_meters":8000,"station_id":"ce4bhrh2rcd13ifvqhug","pricing_plan_id":"cebpf4jnsgd1na2vs0mg"},{"bike_id":"243a212c-eb68-4aeb-bbe3-6f41328fcc23","system_id":"levelo_inurba_marseille","lat":43.33735,"lon":5.37403,"is_reserved":false,"is_disabled":false,"rental_uris":{"android":"levelo://app?vid=243a212c-eb68-4aeb-bbe3-6f41328fcc23","ios":"levelo://app?vid=243a212c-eb68-4aeb-bbe3-6f41328fcc23"},"vehicle_type_id":"4","last_reported":1743484270,"current_range_meters":8000,"station_id":"","pricing_plan_id":"cebpf4jnsgd1na2vs0mg"},{"bike_id":"23a2997f-acca-44d1-a72c-cccdd94a796c","system_id":"levelo_inurba_marseille","lat":43.30918,"lon":5.40165,"is_reserved":false,"is_disabled":true,"rental_uris":{"android":"levelo://app?vid=23a2997f-acca-44d1-a72c-cccdd94a796c","ios":"levelo://app?vid=23a2997f-acca-44d1-a72c-cccdd94a796c"},"vehicle_type_id":"4","last_reported":1743484270,"current_range_meters":8000,"station_id":"ce4bgvp2rcd13ifvqct0","pricing_plan_id":"cebpf4jnsgd1na2vs0mg"},{"bike_id":"5203ccbe-ce3c-4351-a8e9-f9ee5ad38a9c","system_id":"levelo_inurba_marseille","lat":43.2317,"lon":5.39985,"is_reserved":false,"is_disabled":false,"rental_uris":{"android":"levelo://app?vid=5203ccbe-ce3c-4351-a8e9-f9ee5ad38a9c","ios":"levelo://app?vid=5203ccbe-ce3c-4351-a8e9-f9ee5ad38a9c"},"vehicle_type_id":"4","last_reported":1743484270,"current_range_meters":8000,"station_id":"ce4bhn12rcd13ifvqgqg","pricing_plan_id":"cebpf4jnsgd1na2vs0mg"},{"bike_id":"24266bfd-b99e-4535-a99b-f33256eac950","system_id":"levelo_inurba_marseille","lat":43.29571,"lon":5.39989,"is_reserved":false,"is_disabled":false,"rental_uris":{"android":"levelo://app?vid=24266bfd-b99e-4535-a99b-f33256eac950","ios":"levelo://app?vid=24266bfd-b99e-4535-a99b-f33256eac950"},"vehicle_type_id":"4","last_reported":1743484270,"current_range_meters":8000,"station_id":"ce4bh312rcd13ifvqdj0","pricing_plan_id":"cebpf4jnsgd1na2vs0mg"},{"bike_id":"5aec9c6d-5a51-41a0-a4bf-50707d0bd2f1","system_id":"levelo_inurba_marseille","lat":43.28916,"lon":5.384,"is_reserved":false,"is_disabled":false,"rental_uris":{"android":"levelo://app?vid=5aec9c6d-5a51-41a0-a4bf-50707d0bd2f1","ios":"levelo://app?vid=5aec9c6d-5a51-41a0-a4bf-50707d0bd2f1"},"vehicle_type_id":"4","last_reported":1743484270,"current_range_meters":8000,"station_id":"ce4bh612rcd13ifvqe6g","pricing_plan_id":"cebpf4jnsgd1na2vs0mg"},{"bike_id":"81dd399d-4106-41b7-ba18-371b943d676e","system_id":"levelo_inurba_marseille","lat":43.25134,"lon":5.4031,"is_reserved":false,"is_disabled":false,"rental_uris":{"android":"levelo://app?vid=81dd399d-4106-41b7-ba18-371b943d676e","ios":"levelo://app?vid=81dd399d-4106-41b7-ba18-371b943d676e"},"vehicle_type_id":"4","last_reported":1743484270,"current_range_meters":8000,"station_id":"ce4bhlh2rcd13ifvqgig","pricing_plan_id":"cebpf4jnsgd1na2vs0mg"},{"bike_id":"f437e893-a7c7-4c79-8679-c1725cb93bc4","system_id":"levelo_inurba_marseille","lat":43.30473,"lon":5.37904,"is_reserved":false,"is_disabled":false,"rental_uris":{"android":"levelo://app?vid=f437e893-a7c7-4c79-8679-c1725cb93bc4","ios":"levelo://app?vid=f437e893-a7c7-4c79-8679-c1725cb93bc4"},"vehicle_type_id":"4","last_reported":1743484270,"current_range_meters":8400,"station_id":"ce4bgup2rcd13ifvqcn0","pricing_plan_id":"cebpf4jnsgd1na2vs0mg"},{"bike_id":"2b2b6bf6-5208-4052-816b-cbb36c66fee8","system_id":"levelo_inurba_marseille","lat":43.289238,"lon":5.384054,"is_reserved":false,"is_disabled":false,"rental_uris":{"android":"levelo://app?vid=2b2b6bf6-5208-4052-816b-cbb36c66fee8","ios":"levelo://app?vid=2b2b6bf6-5208-4052-816b-cbb36c66fee8"},"vehicle_type_id":"4","last_reported":1743484270,"current_range_meters":8400,"station_id":"ce4bh612rcd13ifvqe6g","pricing_plan_id":"cebpf4jnsgd1na2vs0mg"},{"bike_id":"e1892c40-ae37-45d4-bf2c-99665a9e5e63","system_id":"levelo_inurba_marseille","lat":43.22927,"lon":5.35398,"is_reserved":false,"is_disabled":false,"rental_uris":{"android":"levelo://app?vid=e1892c40-ae37-45d4-bf2c-99665a9e5e63","ios":"levelo://app?vid=e1892c40-ae37-45d4-bf2c-99665a9e5e63"},"vehicle_type_id":"4","last_reported":1743484270,"current_range_meters":8400,"station_id":"cpo3532slgdg3j2ikp40","pricing_plan_id":"cebpf4jnsgd1na2vs0mg"},{"bike_id":"2de1050b-8808-4018-94c2-5f9d98630754","system_id":"levelo_inurba_marseille","lat":43.306555,"lon":5.400696,"is_reserved":false,"is_disabled":false,"rental_uris":{"android":"levelo://app?vid=2de1050b-8808-4018-94c2-5f9d98630754","ios":"levelo://app?vid=2de1050b-8808-4018-94c2-5f9d98630754"},"vehicle_type_id":"4","last_reported":1743484270,"current_range_meters":8400,"station_id":"ce4bh112rcd13ifvqda0","pricing_plan_id":"cebpf4jnsgd1na2vs0mg"},{"bike_id":"06c1997b-eaba-48c9-948f-a62092a8f3b5","system_id":"levelo_inurba_marseille","lat":43.28707,"lon":5.39972,"is_reserved":false,"is_disabled":false,"rental_uris":{"android":"levelo://app?vid=06c1997b-eaba-48c9-948f-a62092a8f3b5","ios":"levelo://app?vid=06c1997b-eaba-48c9-948f-a62092a8f3b5"},"vehicle_type_id":"4","last_reported":1743484270,"current_range_meters":8400,"station_id":"ce4bho92rcd13ifvqh3g","pricing_plan_id":"cebpf4jnsgd1na2vs0mg"},{"bike_id":"2d44d096-1d5d-4978-91de-46d1316493e8","system_id":"levelo_inurba_marseille","lat":43.28692,"lon":5.40011,"is_reserved":false,"is_disabled":false,"rental_uris":{"android":"levelo://app?vid=2d44d096-1d5d-4978-91de-46d1316493e8","ios":"levelo://app?vid=2d44d096-1d5d-4978-91de-46d1316493e8"},"vehicle_type_id":"4","last_reported":1743484270,"current_range_meters":8400,"station_id":"ce4bho92rcd13ifvqh3g","pricing_plan_id":"cebpf4jnsgd1na2vs0mg"},{"bike_id":"f40d69cc-6f50-4ceb-9b4f-f381c9b49e25","system_id":"levelo_inurba_marseille","lat":43.309316,"lon":5.401482,"is_reserved":false,"is_disabled":false,"rental_uris":{"android":"levelo://app?vid=f40d69cc-6f50-4ceb-9b4f-f381c9b49e25","ios":"levelo://app?vid=f40d69cc-6f50-4ceb-9b4f-f381c9b49e25"},"vehicle_type_id":"4","last_reported":1743484270,"current_range_meters":8400,"station_id":"ce4bgvp2rcd13ifvqct0","pricing_plan_id":"cebpf4jnsgd1na2vs0mg"},{"bike_id":"dc2ebcaf-070a-47ba-9fbc-c5c2215094b3","system_id":"levelo_inurba_marseille","lat":43.28711,"lon":5.37937,"is_reserved":false,"is_disabled":false,"rental_uris":{"android":"levelo://app?vid=dc2ebcaf-070a-47ba-9fbc-c5c2215094b3","ios":"levelo://app?vid=dc2ebcaf-070a-47ba-9fbc-c5c2215094b3"},"vehicle_type_id":"4","last_reported":1743484270,"current_range_meters":8400,"station_id":"ce4bh9p2rcd13ifvqec0","pricing_plan_id":"cebpf4jnsgd1na2vs0mg"},{"bike_id":"6c84c3e7-fc86-43f1-a8df-a175a71021b5","system_id":"levelo_inurba_marseille","lat":43.303197,"lon":5.404403,"is_reserved":false,"is_disabled":false,"rental_uris":{"android":"levelo://app?vid=6c84c3e7-fc86-43f1-a8df-a175a71021b5","ios":"levelo://app?vid=6c84c3e7-fc86-43f1-a8df-a175a71021b5"},"vehicle_type_id":"4","last_reported":1743484270,"current_range_meters":8800,"station_id":"ce4bh012rcd13ifvqd10","pricing_plan_id":"cebpf4jnsgd1na2vs0mg"},{"bike_id":"668c01cb-7bea-48c9-8f15-6bcc0c19c832","system_id":"levelo_inurba_marseille","lat":43.262048,"lon":5.379293,"is_reserved":false,"is_disabled":true,"rental_uris":{"android":"levelo://app?vid=668c01cb-7bea-48c9-8f15-6bcc0c19c832","ios":"levelo://app?vid=668c01cb-7bea-48c9-8f15-6bcc0c19c832"},"vehicle_type_id":"4","last_reported":1743484270,"current_range_meters":8800,"station_id":"ce4bhjp2rcd13ifvqg90","pricing_plan_id":"cebpf4jnsgd1na2vs0mg"},{"bike_id":"de103d50-bc8d-4d45-9b12-9997f6b9381f","system_id":"levelo_inurba_marseille","lat":43.30631,"lon":5.40122,"is_reserved":false,"is_disabled":false,"rental_uris":{"android":"levelo://app?vid=de103d50-bc8d-4d45-9b12-9997f6b9381f","ios":"levelo://app?vid=de103d50-bc8d-4d45-9b12-9997f6b9381f"},"vehicle_type_id":"4","last_reported":1743484270,"current_range_meters":8800,"station_id":"ce4bh112rcd13ifvqda0","pricing_plan_id":"cebpf4jnsgd1na2vs0mg"},{"bike_id":"0e5cf204-cc2e-4385-8d19-42195cfe1d22","system_id":"levelo_inurba_marseille","lat":43.306423,"lon":5.400718,"is_reserved":false,"is_disabled":false,"rental_uris":{"android":"levelo://app?vid=0e5cf204-cc2e-4385-8d19-42195cfe1d22","ios":"levelo://app?vid=0e5cf204-cc2e-4385-8d19-42195cfe1d22"},"vehicle_type_id":"4","last_reported":1743484270,"current_range_meters":8800,"station_id":"ce4bh112rcd13ifvqda0","pricing_plan_id":"cebpf4jnsgd1na2vs0mg"},{"bike_id":"f7249966-2e0f-4bcd-abc8-0c337d0533fb","system_id":"levelo_inurba_marseille","lat":43.290293,"lon":5.386518,"is_reserved":false,"is_disabled":false,"rental_uris":{"android":"levelo://app?vid=f7249966-2e0f-4bcd-abc8-0c337d0533fb","ios":"levelo://app?vid=f7249966-2e0f-4bcd-abc8-0c337d0533fb"},"vehicle_type_id":"4","last_reported":1743484270,"current_range_meters":8800,"station_id":"ce4bh4p2rcd13ifvqe0g","pricing_plan_id":"cebpf4jnsgd1na2vs0mg"},{"bike_id":"31e0dca4-6817-4d10-bbf9-bc0b60767326","system_id":"levelo_inurba_marseille","lat":43.27162,"lon":5.41006,"is_reserved":false,"is_disabled":false,"rental_uris":{"android":"levelo://app?vid=31e0dca4-6817-4d10-bbf9-bc0b60767326","ios":"levelo://app?vid=31e0dca4-6817-4d10-bbf9-bc0b60767326"},"vehicle_type_id":"4","last_reported":1743484270,"current_range_meters":8800,"station_id":"ce4bhl12rcd13ifvqgf0","pricing_plan_id":"cebpf4jnsgd1na2vs0mg"},{"bike_id":"397156ba-a229-438d-859c-42be5a8ad922","system_id":"levelo_inurba_marseille","lat":43.24627,"lon":5.38184,"is_reserved":false,"is_disabled":false,"rental_uris":{"android":"levelo://app?vid=397156ba-a229-438d-859c-42be5a8ad922","ios":"levelo://app?vid=397156ba-a229-438d-859c-42be5a8ad922"},"vehicle_type_id":"4","last_reported":1743484270,"current_range_meters":8800,"station_id":"ce4bhih2rcd13ifvqfr0","pricing_plan_id":"cebpf4jnsgd1na2vs0mg"},{"bike_id":"bc2731c5-d1f1-4f43-bf16-ed3324b6f121","system_id":"levelo_inurba_marseille","lat":43.27957,"lon":5.41038,"is_reserved":false,"is_disabled":true,"rental_uris":{"android":"levelo://app?vid=bc2731c5-d1f1-4f43-bf16-ed3324b6f121","ios":"levelo://app?vid=bc2731c5-d1f1-4f43-bf16-ed3324b6f121"},"vehicle_type_id":"4","last_reported":1743484270,"current_range_meters":8800,"station_id":"ce4bhnp2rcd13ifvqh0g","pricing_plan_id":"cebpf4jnsgd1na2vs0mg"},{"bike_id":"722b18b3-c8a7-4fa7-88f6-bead613f090f","system_id":"levelo_inurba_marseille","lat":43.32288,"lon":5.38289,"is_reserved":false,"is_disabled":false,"rental_uris":{"android":"levelo://app?vid=722b18b3-c8a7-4fa7-88f6-bead613f090f","ios":"levelo://app?vid=722b18b3-c8a7-4fa7-88f6-bead613f090f"},"vehicle_type_id":"4","last_reported":1743484270,"current_range_meters":8800,"station_id":"ce4bhr12rcd13ifvqhqg","pricing_plan_id":"cebpf4jnsgd1na2vs0mg"},{"bike_id":"98116208-f0d9-448e-914d-e1f5219f8c07","system_id":"levelo_inurba_marseille","lat":43.30943,"lon":5.39073,"is_reserved":false,"is_disabled":false,"rental_uris":{"android":"levelo://app?vid=98116208-f0d9-448e-914d-e1f5219f8c07","ios":"levelo://app?vid=98116208-f0d9-448e-914d-e1f5219f8c07"},"vehicle_type_id":"4","last_reported":1743484270,"current_range_meters":8800,"station_id":"ce4bgup2rcd13ifvqco0","pricing_plan_id":"cebpf4jnsgd1na2vs0mg"},{"bike_id":"70b1412a-5466-45ee-b0f6-f4bf77f2d89c","system_id":"levelo_inurba_marseille","lat":43.31966,"lon":5.38221,"is_reserved":false,"is_disabled":false,"rental_uris":{"android":"levelo://app?vid=70b1412a-5466-45ee-b0f6-f4bf77f2d89c","ios":"levelo://app?vid=70b1412a-5466-45ee-b0f6-f4bf77f2d89c"},"vehicle_type_id":"4","last_reported":1743484270,"current_range_meters":8800,"station_id":"ce4bhr12rcd13ifvqhpg","pricing_plan_id":"cebpf4jnsgd1na2vs0mg"},{"bike_id":"fe1bccc7-3458-42e9-a74c-85dbbae754c6","system_id":"levelo_inurba_marseille","lat":43.271712,"lon":5.410012,"is_reserved":false,"is_disabled":false,"rental_uris":{"android":"levelo://app?vid=fe1bccc7-3458-42e9-a74c-85dbbae754c6","ios":"levelo://app?vid=fe1bccc7-3458-42e9-a74c-85dbbae754c6"},"vehicle_type_id":"4","last_reported":1743484270,"current_range_meters":8800,"station_id":"ce4bhl12rcd13ifvqgf0","pricing_plan_id":"cebpf4jnsgd1na2vs0mg"},{"bike_id":"63c65619-9d19-4821-af6e-c6107244ae19","system_id":"levelo_inurba_marseille","lat":43.31992,"lon":5.38166,"is_reserved":false,"is_disabled":false,"rental_uris":{"android":"levelo://app?vid=63c65619-9d19-4821-af6e-c6107244ae19","ios":"levelo://app?vid=63c65619-9d19-4821-af6e-c6107244ae19"},"vehicle_type_id":"4","last_reported":1743484270,"current_range_meters":8800,"station_id":"ce4bhr12rcd13ifvqhpg","pricing_plan_id":"cebpf4jnsgd1na2vs0mg"},{"bike_id":"60f3c81c-d1a3-4b58-98c9-504f8a0ffc50","system_id":"levelo_inurba_marseille","lat":43.29792,"lon":5.39346,"is_reserved":false,"is_disabled":false,"rental_uris":{"android":"levelo://app?vid=60f3c81c-d1a3-4b58-98c9-504f8a0ffc50","ios":"levelo://app?vid=60f3c81c-d1a3-4b58-98c9-504f8a0ffc50"},"vehicle_type_id":"4","last_reported":1743484270,"current_range_meters":8800,"station_id":"chh1huq6cuj3fo74tm60","pricing_plan_id":"cebpf4jnsgd1na2vs0mg"},{"bike_id":"241d62a7-84d0-4eb8-ab17-fd67306a391c","system_id":"levelo_inurba_marseille","lat":43.30956,"lon":5.39029,"is_reserved":false,"is_disabled":false,"rental_uris":{"android":"levelo://app?vid=241d62a7-84d0-4eb8-ab17-fd67306a391c","ios":"levelo://app?vid=241d62a7-84d0-4eb8-ab17-fd67306a391c"},"vehicle_type_id":"4","last_reported":1743484270,"current_range_meters":9200,"station_id":"ce4bgup2rcd13ifvqco0","pricing_plan_id":"cebpf4jnsgd1na2vs0mg"},{"bike_id":"39be2342-3983-4300-b28a-a950a9e9bba3","system_id":"levelo_inurba_marseille","lat":43.29962,"lon":5.38555,"is_reserved":false,"is_disabled":false,"rental_uris":{"android":"levelo://app?vid=39be2342-3983-4300-b28a-a950a9e9bba3","ios":"levelo://app?vid=39be2342-3983-4300-b28a-a950a9e9bba3"},"vehicle_type_id":"4","last_reported":1743484270,"current_range_meters":9200,"station_id":"ce4bgj92rcd13ifvqbd0","pricing_plan_id":"cebpf4jnsgd1na2vs0mg"},{"bike_id":"3f1fe141-9337-41c0-9139-0555bfd1ba33","system_id":"levelo_inurba_marseille","lat":43.27061,"lon":5.40273,"is_reserved":false,"is_disabled":false,"rental_uris":{"android":"levelo://app?vid=3f1fe141-9337-41c0-9139-0555bfd1ba33","ios":"levelo://app?vid=3f1fe141-9337-41c0-9139-0555bfd1ba33"},"vehicle_type_id":"4","last_reported":1743484270,"current_range_meters":9200,"station_id":"ce4bhk92rcd13ifvqgc0","pricing_plan_id":"cebpf4jnsgd1na2vs0mg"},{"bike_id":"e05eadd8-8b4e-4e63-87fd-b6c49a0a374a","system_id":"levelo_inurba_marseille","lat":43.30634,"lon":5.40109,"is_reserved":false,"is_disabled":false,"rental_uris":{"android":"levelo://app?vid=e05eadd8-8b4e-4e63-87fd-b6c49a0a374a","ios":"levelo://app?vid=e05eadd8-8b4e-4e63-87fd-b6c49a0a374a"},"vehicle_type_id":"4","last_reported":1743484270,"current_range_meters":9200,"station_id":"ce4bh112rcd13ifvqda0","pricing_plan_id":"cebpf4jnsgd1na2vs0mg"},{"bike_id":"2227419a-4f7a-442a-9677-bd5546eb4d0a","system_id":"levelo_inurba_marseille","lat":43.30147,"lon":5.38082,"is_reserved":false,"is_disabled":false,"rental_uris":{"android":"levelo://app?vid=2227419a-4f7a-442a-9677-bd5546eb4d0a","ios":"levelo://app?vid=2227419a-4f7a-442a-9677-bd5546eb4d0a"},"vehicle_type_id":"4","last_reported":1743484270,"current_range_meters":9200,"station_id":"ce4bgjp2rcd13ifvqbh0","pricing_plan_id":"cebpf4jnsgd1na2vs0mg"},{"bike_id":"384b6dc4-816b-4240-a4a9-53e77134aeab","system_id":"levelo_inurba_marseille","lat":43.31331,"lon":5.39693,"is_reserved":false,"is_disabled":false,"rental_uris":{"android":"levelo://app?vid=384b6dc4-816b-4240-a4a9-53e77134aeab","ios":"levelo://app?vid=384b6dc4-816b-4240-a4a9-53e77134aeab"},"vehicle_type_id":"4","last_reported":1743484270,"current_range_meters":9200,"station_id":"ce4bgvp2rcd13ifvqcu0","pricing_plan_id":"cebpf4jnsgd1na2vs0mg"},{"bike_id":"6a39c09e-727f-470e-a3f3-1703ebd7cbd2","system_id":"levelo_inurba_marseille","lat":43.31153,"lon":5.38721,"is_reserved":false,"is_disabled":false,"rental_uris":{"android":"levelo://app?vid=6a39c09e-727f-470e-a3f3-1703ebd7cbd2","ios":"levelo://app?vid=6a39c09e-727f-470e-a3f3-1703ebd7cbd2"},"vehicle_type_id":"4","last_reported":1743484270,"current_range_meters":9200,"station_id":"ce4bgv12rcd13ifvqcp0","pricing_plan_id":"cebpf4jnsgd1na2vs0mg"},{"bike_id":"a52886ef-e99c-46a0-bac7-a6dde5da8cba","system_id":"levelo_inurba_marseille","lat":43.30821,"lon":5.37274,"is_reserved":false,"is_disabled":false,"rental_uris":{"android":"levelo://app?vid=a52886ef-e99c-46a0-bac7-a6dde5da8cba","ios":"levelo://app?vid=a52886ef-e99c-46a0-bac7-a6dde5da8cba"},"vehicle_type_id":"4","last_reported":1743484270,"current_range_meters":9200,"station_id":"","pricing_plan_id":"cebpf4jnsgd1na2vs0mg"},{"bike_id":"32786654-e0a5-4ead-8bb5-f56016b6a3a0","system_id":"levelo_inurba_marseille","lat":43.26055,"lon":5.3939,"is_reserved":false,"is_disabled":false,"rental_uris":{"android":"levelo://app?vid=32786654-e0a5-4ead-8bb5-f56016b6a3a0","ios":"levelo://app?vid=32786654-e0a5-4ead-8bb5-f56016b6a3a0"},"vehicle_type_id":"4","last_reported":1743484270,"current_range_meters":9200,"station_id":"ce4bhh92rcd13ifvqfj0","pricing_plan_id":"cebpf4jnsgd1na2vs0mg"},{"bike_id":"5e3e154d-81f7-454f-823c-b78370a0c23d","system_id":"levelo_inurba_marseille","lat":43.288446,"lon":5.393391,"is_reserved":false,"is_disabled":false,"rental_uris":{"android":"levelo://app?vid=5e3e154d-81f7-454f-823c-b78370a0c23d","ios":"levelo://app?vid=5e3e154d-81f7-454f-823c-b78370a0c23d"},"vehicle_type_id":"4","last_reported":1743484270,"current_range_meters":9200,"station_id":"ce4bh2p2rcd13ifvqdi0","pricing_plan_id":"cebpf4jnsgd1na2vs0mg"},{"bike_id":"0eedd675-5af9-4630-8877-5979ecfb0422","system_id":"levelo_inurba_marseille","lat":43.30527,"lon":5.36718,"is_reserved":false,"is_disabled":false,"rental_uris":{"android":"levelo://app?vid=0eedd675-5af9-4630-8877-5979ecfb0422","ios":"levelo://app?vid=0eedd675-5af9-4630-8877-5979ecfb0422"},"vehicle_type_id":"4","last_reported":1743484270,"current_range_meters":8800,"station_id":"ce4bgrp2rcd13ifvqc9g","pricing_plan_id":"cebpf4jnsgd1na2vs0mg"},{"bike_id":"86e7c5d2-239a-43b2-919b-3596cc9c3410","system_id":"levelo_inurba_marseille","lat":43.306534,"lon":5.400953,"is_reserved":false,"is_disabled":false,"rental_uris":{"android":"levelo://app?vid=86e7c5d2-239a-43b2-919b-3596cc9c3410","ios":"levelo://app?vid=86e7c5d2-239a-43b2-919b-3596cc9c3410"},"vehicle_type_id":"4","last_reported":1743484270,"current_range_meters":9200,"station_id":"ce4bh112rcd13ifvqda0","pricing_plan_id":"cebpf4jnsgd1na2vs0mg"},{"bike_id":"27b37e08-22ae-4043-9a13-a7f5dbc7b6a4","system_id":"levelo_inurba_marseille","lat":43.28716,"lon":5.37939,"is_reserved":false,"is_disabled":false,"rental_uris":{"android":"levelo://app?vid=27b37e08-22ae-4043-9a13-a7f5dbc7b6a4","ios":"levelo://app?vid=27b37e08-22ae-4043-9a13-a7f5dbc7b6a4"},"vehicle_type_id":"4","last_reported":1743484270,"current_range_meters":9200,"station_id":"ce4bh9p2rcd13ifvqec0","pricing_plan_id":"cebpf4jnsgd1na2vs0mg"},{"bike_id":"42f1f9f3-ea4c-491b-8788-c0c28b0e842b","system_id":"levelo_inurba_marseille","lat":43.28335,"lon":5.38116,"is_reserved":false,"is_disabled":false,"rental_uris":{"android":"levelo://app?vid=42f1f9f3-ea4c-491b-8788-c0c28b0e842b","ios":"levelo://app?vid=42f1f9f3-ea4c-491b-8788-c0c28b0e842b"},"vehicle_type_id":"4","last_reported":1743484270,"current_range_meters":9200,"station_id":"ce4bh412rcd13ifvqdr0","pricing_plan_id":"cebpf4jnsgd1na2vs0mg"},{"bike_id":"cc9b5a02-77fc-499d-bc95-813b5b79dd90","system_id":"levelo_inurba_marseille","lat":43.30161,"lon":5.38084,"is_reserved":false,"is_disabled":false,"rental_uris":{"android":"levelo://app?vid=cc9b5a02-77fc-499d-bc95-813b5b79dd90","ios":"levelo://app?vid=cc9b5a02-77fc-499d-bc95-813b5b79dd90"},"vehicle_type_id":"4","last_reported":1743484270,"current_range_meters":9600,"station_id":"ce4bgjp2rcd13ifvqbh0","pricing_plan_id":"cebpf4jnsgd1na2vs0mg"},{"bike_id":"ab44caac-d617-4c4f-baa7-23d68173bc1b","system_id":"levelo_inurba_marseille","lat":43.24155,"lon":5.39703,"is_reserved":false,"is_disabled":false,"rental_uris":{"android":"levelo://app?vid=ab44caac-d617-4c4f-baa7-23d68173bc1b","ios":"levelo://app?vid=ab44caac-d617-4c4f-baa7-23d68173bc1b"},"vehicle_type_id":"4","last_reported":1743484270,"current_range_meters":9600,"station_id":"ce4bhn12rcd13ifvqgpg","pricing_plan_id":"cebpf4jnsgd1na2vs0mg"},{"bike_id":"737a212c-a001-4149-9302-90fc94e69abc","system_id":"levelo_inurba_marseille","lat":43.28507,"lon":5.38557,"is_reserved":false,"is_disabled":false,"rental_uris":{"android":"levelo://app?vid=737a212c-a001-4149-9302-90fc94e69abc","ios":"levelo://app?vid=737a212c-a001-4149-9302-90fc94e69abc"},"vehicle_type_id":"4","last_reported":1743484270,"current_range_meters":9600,"station_id":"ce4bh8p2rcd13ifvqeb0","pricing_plan_id":"cebpf4jnsgd1na2vs0mg"},{"bike_id":"09500f20-ee1d-4932-abbf-188a230c5b27","system_id":"levelo_inurba_marseille","lat":43.25111,"lon":5.40329,"is_reserved":false,"is_disabled":false,"rental_uris":{"android":"levelo://app?vid=09500f20-ee1d-4932-abbf-188a230c5b27","ios":"levelo://app?vid=09500f20-ee1d-4932-abbf-188a230c5b27"},"vehicle_type_id":"4","last_reported":1743484270,"current_range_meters":9600,"station_id":"ce4bhlh2rcd13ifvqgig","pricing_plan_id":"cebpf4jnsgd1na2vs0mg"},{"bike_id":"89f14a2e-f909-46bf-89b6-d2ed50054f92","system_id":"levelo_inurba_marseille","lat":43.3089,"lon":5.39613,"is_reserved":false,"is_disabled":false,"rental_uris":{"android":"levelo://app?vid=89f14a2e-f909-46bf-89b6-d2ed50054f92","ios":"levelo://app?vid=89f14a2e-f909-46bf-89b6-d2ed50054f92"},"vehicle_type_id":"4","last_reported":1743484270,"current_range_meters":9600,"station_id":"ce4bh012rcd13ifvqcv0","pricing_plan_id":"cebpf4jnsgd1na2vs0mg"},{"bike_id":"92965aee-9710-4f32-a1eb-71f668b078b0","system_id":"levelo_inurba_marseille","lat":43.28091,"lon":5.39663,"is_reserved":false,"is_disabled":false,"rental_uris":{"android":"levelo://app?vid=92965aee-9710-4f32-a1eb-71f668b078b0","ios":"levelo://app?vid=92965aee-9710-4f32-a1eb-71f668b078b0"},"vehicle_type_id":"4","last_reported":1743484270,"current_range_meters":9600,"station_id":"ce4bho12rcd13ifvqh2g","pricing_plan_id":"cebpf4jnsgd1na2vs0mg"},{"bike_id":"4394cdad-73c9-45b2-923e-58fddaaf05b7","system_id":"levelo_inurba_marseille","lat":43.28432,"lon":5.3919,"is_reserved":false,"is_disabled":false,"rental_uris":{"android":"levelo://app?vid=4394cdad-73c9-45b2-923e-58fddaaf05b7","ios":"levelo://app?vid=4394cdad-73c9-45b2-923e-58fddaaf05b7"},"vehicle_type_id":"4","last_reported":1743484270,"current_range_meters":9600,"station_id":"ce4bhoh2rcd13ifvqh5g","pricing_plan_id":"cebpf4jnsgd1na2vs0mg"},{"bike_id":"8c8d3d0e-ed82-4216-8b97-0a440989315a","system_id":"levelo_inurba_marseille","lat":43.25117,"lon":5.40339,"is_reserved":false,"is_disabled":false,"rental_uris":{"android":"levelo://app?vid=8c8d3d0e-ed82-4216-8b97-0a440989315a","ios":"levelo://app?vid=8c8d3d0e-ed82-4216-8b97-0a440989315a"},"vehicle_type_id":"4","last_reported":1743484270,"current_range_meters":9600,"station_id":"ce4bhlh2rcd13ifvqgig","pricing_plan_id":"cebpf4jnsgd1na2vs0mg"},{"bike_id":"815910d3-cdb3-46ab-98fc-2d2728e873cd","system_id":"levelo_inurba_marseille","lat":43.28695,"lon":5.40016,"is_reserved":false,"is_disabled":false,"rental_uris":{"android":"levelo://app?vid=815910d3-cdb3-46ab-98fc-2d2728e873cd","ios":"levelo://app?vid=815910d3-cdb3-46ab-98fc-2d2728e873cd"},"vehicle_type_id":"4","last_reported":1743484270,"current_range_meters":9600,"station_id":"ce4bho92rcd13ifvqh3g","pricing_plan_id":"cebpf4jnsgd1na2vs0mg"},{"bike_id":"7a894edd-a4a4-40de-8b70-ca9fb3d5e3fd","system_id":"levelo_inurba_marseille","lat":43.310891,"lon":5.424429,"is_reserved":false,"is_disabled":false,"rental_uris":{"android":"levelo://app?vid=7a894edd-a4a4-40de-8b70-ca9fb3d5e3fd","ios":"levelo://app?vid=7a894edd-a4a4-40de-8b70-ca9fb3d5e3fd"},"vehicle_type_id":"4","last_reported":1743484270,"current_range_meters":10000,"station_id":"ce4bhp92rcd13ifvqhag","pricing_plan_id":"cebpf4jnsgd1na2vs0mg"},{"bike_id":"2286499e-afb3-42f0-be29-239621d5e7b7","system_id":"levelo_inurba_marseille","lat":43.241763,"lon":5.397281,"is_reserved":false,"is_disabled":false,"rental_uris":{"android":"levelo://app?vid=2286499e-afb3-42f0-be29-239621d5e7b7","ios":"levelo://app?vid=2286499e-afb3-42f0-be29-239621d5e7b7"},"vehicle_type_id":"4","last_reported":1743484270,"current_range_meters":10000,"station_id":"ce4bhn12rcd13ifvqgpg","pricing_plan_id":"cebpf4jnsgd1na2vs0mg"},{"bike_id":"99d86cd7-48d6-44e2-aeb6-7e4526af1ce0","system_id":"levelo_inurba_marseille","lat":43.246624,"lon":5.381622,"is_reserved":false,"is_disabled":false,"rental_uris":{"android":"levelo://app?vid=99d86cd7-48d6-44e2-aeb6-7e4526af1ce0","ios":"levelo://app?vid=99d86cd7-48d6-44e2-aeb6-7e4526af1ce0"},"vehicle_type_id":"4","last_reported":1743484270,"current_range_meters":10000,"station_id":"ce4bhih2rcd13ifvqfr0","pricing_plan_id":"cebpf4jnsgd1na2vs0mg"},{"bike_id":"5cc440f5-ef99-4d00-a21f-c27a02158329","system_id":"levelo_inurba_marseille","lat":43.27877,"lon":5.38058,"is_reserved":false,"is_disabled":false,"rental_uris":{"android":"levelo://app?vid=5cc440f5-ef99-4d00-a21f-c27a02158329","ios":"levelo://app?vid=5cc440f5-ef99-4d00-a21f-c27a02158329"},"vehicle_type_id":"4","last_reported":1743484270,"current_range_meters":10000,"station_id":"ce4bhf92rcd13ifvqf50","pricing_plan_id":"cebpf4jnsgd1na2vs0mg"},{"bike_id":"c5f908d3-4610-4cae-8aeb-e89ca0e64cc1","system_id":"levelo_inurba_marseille","lat":43.3361,"lon":5.41007,"is_reserved":false,"is_disabled":false,"rental_uris":{"android":"levelo://app?vid=c5f908d3-4610-4cae-8aeb-e89ca0e64cc1","ios":"levelo://app?vid=c5f908d3-4610-4cae-8aeb-e89ca0e64cc1"},"vehicle_type_id":"4","last_reported":1743484270,"current_range_meters":10000,"station_id":"ce4bhqh2rcd13ifvqhmg","pricing_plan_id":"cebpf4jnsgd1na2vs0mg"},{"bike_id":"af85c2a4-0c98-452d-aad1-94c6ca70939c","system_id":"levelo_inurba_marseille","lat":43.28861,"lon":5.39327,"is_reserved":false,"is_disabled":false,"rental_uris":{"android":"levelo://app?vid=af85c2a4-0c98-452d-aad1-94c6ca70939c","ios":"levelo://app?vid=af85c2a4-0c98-452d-aad1-94c6ca70939c"},"vehicle_type_id":"4","last_reported":1743484270,"current_range_meters":10000,"station_id":"ce4bh2p2rcd13ifvqdi0","pricing_plan_id":"cebpf4jnsgd1na2vs0mg"},{"bike_id":"87304c8a-53f6-45f9-98cc-415e4d7a95a5","system_id":"levelo_inurba_marseille","lat":43.23203,"lon":5.39983,"is_reserved":false,"is_disabled":false,"rental_uris":{"android":"levelo://app?vid=87304c8a-53f6-45f9-98cc-415e4d7a95a5","ios":"levelo://app?vid=87304c8a-53f6-45f9-98cc-415e4d7a95a5"},"vehicle_type_id":"4","last_reported":1743484270,"current_range_meters":10000,"station_id":"ce4bhn12rcd13ifvqgqg","pricing_plan_id":"cebpf4jnsgd1na2vs0mg"},{"bike_id":"e8a75bd9-f259-49f6-979a-26dd47f7e629","system_id":"levelo_inurba_marseille","lat":43.30125,"lon":5.3991,"is_reserved":false,"is_disabled":false,"rental_uris":{"android":"levelo://app?vid=e8a75bd9-f259-49f6-979a-26dd47f7e629","ios":"levelo://app?vid=e8a75bd9-f259-49f6-979a-26dd47f7e629"},"vehicle_type_id":"4","last_reported":1743484270,"current_range_meters":10800,"station_id":"ce4bh0h2rcd13ifvqd40","pricing_plan_id":"cebpf4jnsgd1na2vs0mg"},{"bike_id":"c2d4e0b5-ceb1-4ab0-a7d9-4352ad8ca6db","system_id":"levelo_inurba_marseille","lat":43.29027,"lon":5.38661,"is_reserved":false,"is_disabled":false,"rental_uris":{"android":"levelo://app?vid=c2d4e0b5-ceb1-4ab0-a7d9-4352ad8ca6db","ios":"levelo://app?vid=c2d4e0b5-ceb1-4ab0-a7d9-4352ad8ca6db"},"vehicle_type_id":"4","last_reported":1743484270,"current_range_meters":10800,"station_id":"ce4bh4p2rcd13ifvqe0g","pricing_plan_id":"cebpf4jnsgd1na2vs0mg"},{"bike_id":"3ef7ec7b-5e60-4a41-8f8a-c82f3f4749ff","system_id":"levelo_inurba_marseille","lat":43.31991,"lon":5.3816,"is_reserved":false,"is_disabled":false,"rental_uris":{"android":"levelo://app?vid=3ef7ec7b-5e60-4a41-8f8a-c82f3f4749ff","ios":"levelo://app?vid=3ef7ec7b-5e60-4a41-8f8a-c82f3f4749ff"},"vehicle_type_id":"4","last_reported":1743484270,"current_range_meters":11200,"station_id":"ce4bhr12rcd13ifvqhpg","pricing_plan_id":"cebpf4jnsgd1na2vs0mg"},{"bike_id":"19788dd2-c382-40d7-b181-509f4b4d313c","system_id":"levelo_inurba_marseille","lat":43.27934,"lon":5.41067,"is_reserved":false,"is_disabled":false,"rental_uris":{"android":"levelo://app?vid=19788dd2-c382-40d7-b181-509f4b4d313c","ios":"levelo://app?vid=19788dd2-c382-40d7-b181-509f4b4d313c"},"vehicle_type_id":"4","last_reported":1743484270,"current_range_meters":11200,"station_id":"ce4bhnp2rcd13ifvqh0g","pricing_plan_id":"cebpf4jnsgd1na2vs0mg"},{"bike_id":"cdb2e7a3-c999-497e-a9de-b43472b97dae","system_id":"levelo_inurba_marseille","lat":43.28707,"lon":5.379492,"is_reserved":false,"is_disabled":false,"rental_uris":{"android":"levelo://app?vid=cdb2e7a3-c999-497e-a9de-b43472b97dae","ios":"levelo://app?vid=cdb2e7a3-c999-497e-a9de-b43472b97dae"},"vehicle_type_id":"4","last_reported":1743484270,"current_range_meters":11200,"station_id":"ce4bh9p2rcd13ifvqec0","pricing_plan_id":"cebpf4jnsgd1na2vs0mg"},{"bike_id":"19d31a38-0140-4912-a979-4764caac8f22","system_id":"levelo_inurba_marseille","lat":43.309288,"lon":5.401539,"is_reserved":false,"is_disabled":false,"rental_uris":{"android":"levelo://app?vid=19d31a38-0140-4912-a979-4764caac8f22","ios":"levelo://app?vid=19d31a38-0140-4912-a979-4764caac8f22"},"vehicle_type_id":"4","last_reported":1743484270,"current_range_meters":11200,"station_id":"ce4bgvp2rcd13ifvqct0","pricing_plan_id":"cebpf4jnsgd1na2vs0mg"},{"bike_id":"649b5ad5-62ac-4bfd-a6cd-60fc43d8fef1","system_id":"levelo_inurba_marseille","lat":43.292449,"lon":5.398277,"is_reserved":false,"is_disabled":false,"rental_uris":{"android":"levelo://app?vid=649b5ad5-62ac-4bfd-a6cd-60fc43d8fef1","ios":"levelo://app?vid=649b5ad5-62ac-4bfd-a6cd-60fc43d8fef1"},"vehicle_type_id":"4","last_reported":1743484270,"current_range_meters":11200,"station_id":"","pricing_plan_id":"cebpf4jnsgd1na2vs0mg"},{"bike_id":"ed14a198-8d50-4dc1-8082-24e54833312b","system_id":"levelo_inurba_marseille","lat":43.30937,"lon":5.40163,"is_reserved":false,"is_disabled":false,"rental_uris":{"android":"levelo://app?vid=ed14a198-8d50-4dc1-8082-24e54833312b","ios":"levelo://app?vid=ed14a198-8d50-4dc1-8082-24e54833312b"},"vehicle_type_id":"4","last_reported":1743484270,"current_range_meters":11600,"station_id":"ce4bgvp2rcd13ifvqct0","pricing_plan_id":"cebpf4jnsgd1na2vs0mg"},{"bike_id":"cf5d5c80-0d8e-4da6-baa3-65a22ff79e2f","system_id":"levelo_inurba_marseille","lat":43.30883,"lon":5.39626,"is_reserved":false,"is_disabled":false,"rental_uris":{"android":"levelo://app?vid=cf5d5c80-0d8e-4da6-baa3-65a22ff79e2f","ios":"levelo://app?vid=cf5d5c80-0d8e-4da6-baa3-65a22ff79e2f"},"vehicle_type_id":"4","last_reported":1743484270,"current_range_meters":11600,"station_id":"ce4bh012rcd13ifvqcv0","pricing_plan_id":"cebpf4jnsgd1na2vs0mg"},{"bike_id":"4d1ef574-507a-4fec-a6d9-b5b49b8c445e","system_id":"levelo_inurba_marseille","lat":43.292733,"lon":5.368405,"is_reserved":false,"is_disabled":true,"rental_uris":{"android":"levelo://app?vid=4d1ef574-507a-4fec-a6d9-b5b49b8c445e","ios":"levelo://app?vid=4d1ef574-507a-4fec-a6d9-b5b49b8c445e"},"vehicle_type_id":"4","last_reported":1743484270,"current_range_meters":11600,"station_id":"ce4bhbp2rcd13ifvqesg","pricing_plan_id":"cebpf4jnsgd1na2vs0mg"},{"bike_id":"1bf7d99d-3eed-478d-8e7a-6aba633e08bc","system_id":"levelo_inurba_marseille","lat":43.268047,"lon":5.402675,"is_reserved":false,"is_disabled":false,"rental_uris":{"android":"levelo://app?vid=1bf7d99d-3eed-478d-8e7a-6aba633e08bc","ios":"levelo://app?vid=1bf7d99d-3eed-478d-8e7a-6aba633e08bc"},"vehicle_type_id":"4","last_reported":1743484270,"current_range_meters":11600,"station_id":"ce501612rcd8frsf0b60","pricing_plan_id":"cebpf4jnsgd1na2vs0mg"},{"bike_id":"a61d69b6-c682-4e51-b65c-90e9332cb9b6","system_id":"levelo_inurba_marseille","lat":43.292635,"lon":5.376194,"is_reserved":false,"is_disabled":false,"rental_uris":{"android":"levelo://app?vid=a61d69b6-c682-4e51-b65c-90e9332cb9b6","ios":"levelo://app?vid=a61d69b6-c682-4e51-b65c-90e9332cb9b6"},"vehicle_type_id":"4","last_reported":1743484270,"current_range_meters":11600,"station_id":"ce4bgi12rcd13ifvqb80","pricing_plan_id":"cebpf4jnsgd1na2vs0mg"},{"bike_id":"6b83c631-a8ab-4fa5-8872-ee254e4941ef","system_id":"levelo_inurba_marseille","lat":43.28602,"lon":5.37063,"is_reserved":false,"is_disabled":false,"rental_uris":{"android":"levelo://app?vid=6b83c631-a8ab-4fa5-8872-ee254e4941ef","ios":"levelo://app?vid=6b83c631-a8ab-4fa5-8872-ee254e4941ef"},"vehicle_type_id":"4","last_reported":1743484270,"current_range_meters":11600,"station_id":"ce4bht12rcd13ifvqi60","pricing_plan_id":"cebpf4jnsgd1na2vs0mg"},{"bike_id":"1d17d90d-ce41-495b-863f-6cd7e7c96566","system_id":"levelo_inurba_marseille","lat":43.30134,"lon":5.38783,"is_reserved":false,"is_disabled":false,"rental_uris":{"android":"levelo://app?vid=1d17d90d-ce41-495b-863f-6cd7e7c96566","ios":"levelo://app?vid=1d17d90d-ce41-495b-863f-6cd7e7c96566"},"vehicle_type_id":"4","last_reported":1743484270,"current_range_meters":11600,"station_id":"ce4bghh2rcd13ifvqb60","pricing_plan_id":"cebpf4jnsgd1na2vs0mg"},{"bike_id":"113ede65-b1f6-4626-b25b-286b34c111c2","system_id":"levelo_inurba_marseille","lat":43.28919,"lon":5.36738,"is_reserved":false,"is_disabled":true,"rental_uris":{"android":"levelo://app?vid=113ede65-b1f6-4626-b25b-286b34c111c2","ios":"levelo://app?vid=113ede65-b1f6-4626-b25b-286b34c111c2"},"vehicle_type_id":"4","last_reported":1743484270,"current_range_meters":11600,"station_id":"","pricing_plan_id":"cebpf4jnsgd1na2vs0mg"},{"bike_id":"c76670c3-fac5-4fb2-adb2-85618d2a6a50","system_id":"levelo_inurba_marseille","lat":43.30208,"lon":5.39464,"is_reserved":false,"is_disabled":false,"rental_uris":{"android":"levelo://app?vid=c76670c3-fac5-4fb2-adb2-85618d2a6a50","ios":"levelo://app?vid=c76670c3-fac5-4fb2-adb2-85618d2a6a50"},"vehicle_type_id":"4","last_reported":1743484270,"current_range_meters":11600,"station_id":"ce4bh0p2rcd13ifvqd70","pricing_plan_id":"cebpf4jnsgd1na2vs0mg"},{"bike_id":"e5d8a459-b4e3-4a2c-9460-970df4580143","system_id":"levelo_inurba_marseille","lat":43.284518,"lon":5.358965,"is_reserved":false,"is_disabled":false,"rental_uris":{"android":"levelo://app?vid=e5d8a459-b4e3-4a2c-9460-970df4580143","ios":"levelo://app?vid=e5d8a459-b4e3-4a2c-9460-970df4580143"},"vehicle_type_id":"4","last_reported":1743484270,"current_range_meters":11600,"station_id":"ce4bhah2rcd13ifvqei0","pricing_plan_id":"cebpf4jnsgd1na2vs0mg"},{"bike_id":"14c6f955-5601-4536-bf1a-199a9389832d","system_id":"levelo_inurba_marseille","lat":43.28453,"lon":5.358874,"is_reserved":false,"is_disabled":false,"rental_uris":{"android":"levelo://app?vid=14c6f955-5601-4536-bf1a-199a9389832d","ios":"levelo://app?vid=14c6f955-5601-4536-bf1a-199a9389832d"},"vehicle_type_id":"4","last_reported":1743484270,"current_range_meters":12000,"station_id":"ce4bhah2rcd13ifvqei0","pricing_plan_id":"cebpf4jnsgd1na2vs0mg"},{"bike_id":"c7f99555-9bb9-46de-b35d-237f01680bb5","system_id":"levelo_inurba_marseille","lat":43.31735,"lon":5.39044,"is_reserved":false,"is_disabled":false,"rental_uris":{"android":"levelo://app?vid=c7f99555-9bb9-46de-b35d-237f01680bb5","ios":"levelo://app?vid=c7f99555-9bb9-46de-b35d-237f01680bb5"},"vehicle_type_id":"4","last_reported":1743484270,"current_range_meters":12000,"station_id":"ce4bhqp2rcd13ifvqhng","pricing_plan_id":"cebpf4jnsgd1na2vs0mg"},{"bike_id":"be4caf2a-3445-406d-981b-0c866302569e","system_id":"levelo_inurba_marseille","lat":43.317201,"lon":5.424034,"is_reserved":false,"is_disabled":false,"rental_uris":{"android":"levelo://app?vid=be4caf2a-3445-406d-981b-0c866302569e","ios":"levelo://app?vid=be4caf2a-3445-406d-981b-0c866302569e"},"vehicle_type_id":"4","last_reported":1743484270,"current_range_meters":12000,"station_id":"ce4bhp92rcd13ifvqhbg","pricing_plan_id":"cebpf4jnsgd1na2vs0mg"},{"bike_id":"e47bc61d-df2d-41b3-b26b-dd94e6e5e301","system_id":"levelo_inurba_marseille","lat":43.26241,"lon":5.421259,"is_reserved":false,"is_disabled":false,"rental_uris":{"android":"levelo://app?vid=e47bc61d-df2d-41b3-b26b-dd94e6e5e301","ios":"levelo://app?vid=e47bc61d-df2d-41b3-b26b-dd94e6e5e301"},"vehicle_type_id":"4","last_reported":1743484270,"current_range_meters":12000,"station_id":"","pricing_plan_id":"cebpf4jnsgd1na2vs0mg"},{"bike_id":"c4309e96-2b99-44ab-8879-0256a8334749","system_id":"levelo_inurba_marseille","lat":43.30208,"lon":5.3949,"is_reserved":false,"is_disabled":false,"rental_uris":{"android":"levelo://app?vid=c4309e96-2b99-44ab-8879-0256a8334749","ios":"levelo://app?vid=c4309e96-2b99-44ab-8879-0256a8334749"},"vehicle_type_id":"4","last_reported":1743484270,"current_range_meters":12000,"station_id":"ce4bh0p2rcd13ifvqd70","pricing_plan_id":"cebpf4jnsgd1na2vs0mg"},{"bike_id":"df33755e-e7b0-4787-9419-f21bf60b0e85","system_id":"levelo_inurba_marseille","lat":43.302881,"lon":5.377142,"is_reserved":false,"is_disabled":false,"rental_uris":{"android":"levelo://app?vid=df33755e-e7b0-4787-9419-f21bf60b0e85","ios":"levelo://app?vid=df33755e-e7b0-4787-9419-f21bf60b0e85"},"vehicle_type_id":"4","last_reported":1743484270,"current_range_meters":12000,"station_id":"ce4bguh2rcd13ifvqcj0","pricing_plan_id":"cebpf4jnsgd1na2vs0mg"},{"bike_id":"2c567be4-626d-4614-8796-6c92d09d2fa1","system_id":"levelo_inurba_marseille","lat":43.28907,"lon":5.37121,"is_reserved":false,"is_disabled":false,"rental_uris":{"android":"levelo://app?vid=2c567be4-626d-4614-8796-6c92d09d2fa1","ios":"levelo://app?vid=2c567be4-626d-4614-8796-6c92d09d2fa1"},"vehicle_type_id":"4","last_reported":1743484270,"current_range_meters":12400,"station_id":"","pricing_plan_id":"cebpf4jnsgd1na2vs0mg"},{"bike_id":"7deb499c-11ac-4a5b-bc88-ec43d75e191d","system_id":"levelo_inurba_marseille","lat":43.26544,"lon":5.37319,"is_reserved":false,"is_disabled":false,"rental_uris":{"android":"levelo://app?vid=7deb499c-11ac-4a5b-bc88-ec43d75e191d","ios":"levelo://app?vid=7deb499c-11ac-4a5b-bc88-ec43d75e191d"},"vehicle_type_id":"4","last_reported":1743484270,"current_range_meters":12400,"station_id":"ce4bhg12rcd13ifvqf70","pricing_plan_id":"cebpf4jnsgd1na2vs0mg"},{"bike_id":"281591db-90b3-4721-b1fe-ac6c6c7e611c","system_id":"levelo_inurba_marseille","lat":43.29295,"lon":5.40172,"is_reserved":false,"is_disabled":false,"rental_uris":{"android":"levelo://app?vid=281591db-90b3-4721-b1fe-ac6c6c7e611c","ios":"levelo://app?vid=281591db-90b3-4721-b1fe-ac6c6c7e611c"},"vehicle_type_id":"4","last_reported":1743484270,"current_range_meters":12400,"station_id":"","pricing_plan_id":"cebpf4jnsgd1na2vs0mg"},{"bike_id":"3d86ad96-3521-40eb-981c-8a33e7f58498","system_id":"levelo_inurba_marseille","lat":43.29998,"lon":5.37379,"is_reserved":false,"is_disabled":false,"rental_uris":{"android":"levelo://app?vid=3d86ad96-3521-40eb-981c-8a33e7f58498","ios":"levelo://app?vid=3d86ad96-3521-40eb-981c-8a33e7f58498"},"vehicle_type_id":"4","last_reported":1743484270,"current_range_meters":12400,"station_id":"","pricing_plan_id":"cebpf4jnsgd1na2vs0mg"},{"bike_id":"08b0071e-1463-4449-89b6-94f7cf804781","system_id":"levelo_inurba_marseille","lat":43.31231,"lon":5.36843,"is_reserved":false,"is_disabled":true,"rental_uris":{"android":"levelo://app?vid=08b0071e-1463-4449-89b6-94f7cf804781","ios":"levelo://app?vid=08b0071e-1463-4449-89b6-94f7cf804781"},"vehicle_type_id":"4","last_reported":1743484270,"current_range_meters":12400,"station_id":"ce4bgl92rcd13ifvqbq0","pricing_plan_id":"cebpf4jnsgd1na2vs0mg"},{"bike_id":"ba1b02a3-4ffa-4852-86d1-1aedd00fb6ea","system_id":"levelo_inurba_marseille","lat":43.28705,"lon":5.36085,"is_reserved":false,"is_disabled":false,"rental_uris":{"android":"levelo://app?vid=ba1b02a3-4ffa-4852-86d1-1aedd00fb6ea","ios":"levelo://app?vid=ba1b02a3-4ffa-4852-86d1-1aedd00fb6ea"},"vehicle_type_id":"4","last_reported":1743484270,"current_range_meters":12400,"station_id":"cki0cbj6b192h4jlfktg","pricing_plan_id":"cebpf4jnsgd1na2vs0mg"},{"bike_id":"27773214-4312-4127-aa54-e74cba3d6d07","system_id":"levelo_inurba_marseille","lat":43.27801,"lon":5.4071,"is_reserved":false,"is_disabled":false,"rental_uris":{"android":"levelo://app?vid=27773214-4312-4127-aa54-e74cba3d6d07","ios":"levelo://app?vid=27773214-4312-4127-aa54-e74cba3d6d07"},"vehicle_type_id":"4","last_reported":1743484270,"current_range_meters":12400,"station_id":"ce4bhnh2rcd13ifvqgtg","pricing_plan_id":"cebpf4jnsgd1na2vs0mg"},{"bike_id":"4b8e5d31-3809-462d-88d7-526ab452e4a6","system_id":"levelo_inurba_marseille","lat":43.28475,"lon":5.35844,"is_reserved":false,"is_disabled":false,"rental_uris":{"android":"levelo://app?vid=4b8e5d31-3809-462d-88d7-526ab452e4a6","ios":"levelo://app?vid=4b8e5d31-3809-462d-88d7-526ab452e4a6"},"vehicle_type_id":"4","last_reported":1743484270,"current_range_meters":12400,"station_id":"ce4bhah2rcd13ifvqei0","pricing_plan_id":"cebpf4jnsgd1na2vs0mg"},{"bike_id":"ab789467-5397-4859-aede-1a452b069c78","system_id":"levelo_inurba_marseille","lat":43.23189,"lon":5.399848,"is_reserved":false,"is_disabled":false,"rental_uris":{"android":"levelo://app?vid=ab789467-5397-4859-aede-1a452b069c78","ios":"levelo://app?vid=ab789467-5397-4859-aede-1a452b069c78"},"vehicle_type_id":"4","last_reported":1743484270,"current_range_meters":12400,"station_id":"ce4bhn12rcd13ifvqgqg","pricing_plan_id":"cebpf4jnsgd1na2vs0mg"},{"bike_id":"7fd0bb1f-c1e0-43c4-9968-70acce305c52","system_id":"levelo_inurba_marseille","lat":43.28936,"lon":5.3664,"is_reserved":false,"is_disabled":false,"rental_uris":{"android":"levelo://app?vid=7fd0bb1f-c1e0-43c4-9968-70acce305c52","ios":"levelo://app?vid=7fd0bb1f-c1e0-43c4-9968-70acce305c52"},"vehicle_type_id":"4","last_reported":1743484270,"current_range_meters":12400,"station_id":"ce4bhap2rcd13ifvqek0","pricing_plan_id":"cebpf4jnsgd1na2vs0mg"},{"bike_id":"322edcf0-bdae-4a36-be2b-be51670e28ce","system_id":"levelo_inurba_marseille","lat":43.30919,"lon":5.40195,"is_reserved":false,"is_disabled":false,"rental_uris":{"android":"levelo://app?vid=322edcf0-bdae-4a36-be2b-be51670e28ce","ios":"levelo://app?vid=322edcf0-bdae-4a36-be2b-be51670e28ce"},"vehicle_type_id":"4","last_reported":1743484270,"current_range_meters":12800,"station_id":"ce4bgvp2rcd13ifvqct0","pricing_plan_id":"cebpf4jnsgd1na2vs0mg"},{"bike_id":"243a7f39-cdb9-4572-b41f-6c914b169e37","system_id":"levelo_inurba_marseille","lat":43.28398,"lon":5.37529,"is_reserved":false,"is_disabled":false,"rental_uris":{"android":"levelo://app?vid=243a7f39-cdb9-4572-b41f-6c914b169e37","ios":"levelo://app?vid=243a7f39-cdb9-4572-b41f-6c914b169e37"},"vehicle_type_id":"4","last_reported":1743484270,"current_range_meters":12800,"station_id":"ce4bh412rcd13ifvqds0","pricing_plan_id":"cebpf4jnsgd1na2vs0mg"},{"bike_id":"de194f33-8e71-473c-835b-7af21b97267c","system_id":"levelo_inurba_marseille","lat":43.2464,"lon":5.38923,"is_reserved":false,"is_disabled":false,"rental_uris":{"android":"levelo://app?vid=de194f33-8e71-473c-835b-7af21b97267c","ios":"levelo://app?vid=de194f33-8e71-473c-835b-7af21b97267c"},"vehicle_type_id":"4","last_reported":1743484270,"current_range_meters":12800,"station_id":"ce4bhg12rcd13ifvqf60","pricing_plan_id":"cebpf4jnsgd1na2vs0mg"},{"bike_id":"06357cc9-b5a2-4479-a20a-541038310ad8","system_id":"levelo_inurba_marseille","lat":43.26805,"lon":5.40273,"is_reserved":false,"is_disabled":true,"rental_uris":{"android":"levelo://app?vid=06357cc9-b5a2-4479-a20a-541038310ad8","ios":"levelo://app?vid=06357cc9-b5a2-4479-a20a-541038310ad8"},"vehicle_type_id":"4","last_reported":1743484270,"current_range_meters":12800,"station_id":"ce501612rcd8frsf0b60","pricing_plan_id":"cebpf4jnsgd1na2vs0mg"},{"bike_id":"1b63ccb2-1298-4d96-b7f3-6ad6cace00e9","system_id":"levelo_inurba_marseille","lat":43.26119,"lon":5.40102,"is_reserved":false,"is_disabled":false,"rental_uris":{"android":"levelo://app?vid=1b63ccb2-1298-4d96-b7f3-6ad6cace00e9","ios":"levelo://app?vid=1b63ccb2-1298-4d96-b7f3-6ad6cace00e9"},"vehicle_type_id":"4","last_reported":1743484270,"current_range_meters":12800,"station_id":"","pricing_plan_id":"cebpf4jnsgd1na2vs0mg"},{"bike_id":"9ef34a2b-2324-476e-957c-d915473487fe","system_id":"levelo_inurba_marseille","lat":43.28861,"lon":5.39315,"is_reserved":false,"is_disabled":false,"rental_uris":{"android":"levelo://app?vid=9ef34a2b-2324-476e-957c-d915473487fe","ios":"levelo://app?vid=9ef34a2b-2324-476e-957c-d915473487fe"},"vehicle_type_id":"4","last_reported":1743484270,"current_range_meters":12800,"station_id":"ce4bh2p2rcd13ifvqdi0","pricing_plan_id":"cebpf4jnsgd1na2vs0mg"},{"bike_id":"3aca6e3a-05ff-4ee1-a18c-210479e8ce1c","system_id":"levelo_inurba_marseille","lat":43.28457,"lon":5.35883,"is_reserved":false,"is_disabled":false,"rental_uris":{"android":"levelo://app?vid=3aca6e3a-05ff-4ee1-a18c-210479e8ce1c","ios":"levelo://app?vid=3aca6e3a-05ff-4ee1-a18c-210479e8ce1c"},"vehicle_type_id":"4","last_reported":1743484270,"current_range_meters":12800,"station_id":"ce4bhah2rcd13ifvqei0","pricing_plan_id":"cebpf4jnsgd1na2vs0mg"},{"bike_id":"4d2f5fe4-3b25-4e13-a779-6112f195a428","system_id":"levelo_inurba_marseille","lat":43.27903,"lon":5.37989,"is_reserved":false,"is_disabled":false,"rental_uris":{"android":"levelo://app?vid=4d2f5fe4-3b25-4e13-a779-6112f195a428","ios":"levelo://app?vid=4d2f5fe4-3b25-4e13-a779-6112f195a428"},"vehicle_type_id":"4","last_reported":1743484270,"current_range_meters":13600,"station_id":"ce4bhf92rcd13ifvqf50","pricing_plan_id":"cebpf4jnsgd1na2vs0mg"},{"bike_id":"3df6eeaa-d5c4-45c9-ab50-3ad98a619e68","system_id":"levelo_inurba_marseille","lat":43.30317,"lon":5.4045,"is_reserved":false,"is_disabled":false,"rental_uris":{"android":"levelo://app?vid=3df6eeaa-d5c4-45c9-ab50-3ad98a619e68","ios":"levelo://app?vid=3df6eeaa-d5c4-45c9-ab50-3ad98a619e68"},"vehicle_type_id":"4","last_reported":1743484270,"current_range_meters":13600,"station_id":"ce4bh012rcd13ifvqd10","pricing_plan_id":"cebpf4jnsgd1na2vs0mg"},{"bike_id":"9803795d-6b5b-4b7d-a8c2-32fcbe1605b1","system_id":"levelo_inurba_marseille","lat":43.302981,"lon":5.392111,"is_reserved":false,"is_disabled":false,"rental_uris":{"android":"levelo://app?vid=9803795d-6b5b-4b7d-a8c2-32fcbe1605b1","ios":"levelo://app?vid=9803795d-6b5b-4b7d-a8c2-32fcbe1605b1"},"vehicle_type_id":"4","last_reported":1743484270,"current_range_meters":13600,"station_id":"ce4bgkh2rcd13ifvqbk0","pricing_plan_id":"cebpf4jnsgd1na2vs0mg"},{"bike_id":"59a6c261-a019-4353-bad2-fa201fdd48b8","system_id":"levelo_inurba_marseille","lat":43.30406,"lon":5.39776,"is_reserved":false,"is_disabled":false,"rental_uris":{"android":"levelo://app?vid=59a6c261-a019-4353-bad2-fa201fdd48b8","ios":"levelo://app?vid=59a6c261-a019-4353-bad2-fa201fdd48b8"},"vehicle_type_id":"4","last_reported":1743484270,"current_range_meters":13600,"station_id":"ce4bh092rcd13ifvqd20","pricing_plan_id":"cebpf4jnsgd1na2vs0mg"},{"bike_id":"9d8b51bf-fd65-426c-9799-839498b24ee9","system_id":"levelo_inurba_marseille","lat":43.30667,"lon":5.36625,"is_reserved":false,"is_disabled":true,"rental_uris":{"android":"levelo://app?vid=9d8b51bf-fd65-426c-9799-839498b24ee9","ios":"levelo://app?vid=9d8b51bf-fd65-426c-9799-839498b24ee9"},"vehicle_type_id":"4","last_reported":1743484270,"current_range_meters":13600,"station_id":"","pricing_plan_id":"cebpf4jnsgd1na2vs0mg"},{"bike_id":"16dd592e-7732-47c3-a664-305413913b8b","system_id":"levelo_inurba_marseille","lat":43.284591,"lon":5.35889,"is_reserved":false,"is_disabled":true,"rental_uris":{"android":"levelo://app?vid=16dd592e-7732-47c3-a664-305413913b8b","ios":"levelo://app?vid=16dd592e-7732-47c3-a664-305413913b8b"},"vehicle_type_id":"4","last_reported":1743484270,"current_range_meters":13600,"station_id":"ce4bhah2rcd13ifvqei0","pricing_plan_id":"cebpf4jnsgd1na2vs0mg"},{"bike_id":"57e6fa07-fefa-483c-a064-ec27c42d9afd","system_id":"levelo_inurba_marseille","lat":43.288549,"lon":5.393242,"is_reserved":false,"is_disabled":true,"rental_uris":{"android":"levelo://app?vid=57e6fa07-fefa-483c-a064-ec27c42d9afd","ios":"levelo://app?vid=57e6fa07-fefa-483c-a064-ec27c42d9afd"},"vehicle_type_id":"4","last_reported":1743484270,"current_range_meters":13600,"station_id":"ce4bh2p2rcd13ifvqdi0","pricing_plan_id":"cebpf4jnsgd1na2vs0mg"},{"bike_id":"a32f7781-a1b5-44a3-aa6b-479ac097cd80","system_id":"levelo_inurba_marseille","lat":43.266896,"lon":5.38276,"is_reserved":false,"is_disabled":true,"rental_uris":{"android":"levelo://app?vid=a32f7781-a1b5-44a3-aa6b-479ac097cd80","ios":"levelo://app?vid=a32f7781-a1b5-44a3-aa6b-479ac097cd80"},"vehicle_type_id":"4","last_reported":1743484270,"current_range_meters":13600,"station_id":"ce4bhg92rcd13ifvqf90","pricing_plan_id":"cebpf4jnsgd1na2vs0mg"},{"bike_id":"27832434-6d21-4d70-ae5e-4b04a84e0b7c","system_id":"levelo_inurba_marseille","lat":43.27185,"lon":5.41009,"is_reserved":false,"is_disabled":false,"rental_uris":{"android":"levelo://app?vid=27832434-6d21-4d70-ae5e-4b04a84e0b7c","ios":"levelo://app?vid=27832434-6d21-4d70-ae5e-4b04a84e0b7c"},"vehicle_type_id":"4","last_reported":1743484270,"current_range_meters":13600,"station_id":"ce4bhl12rcd13ifvqgf0","pricing_plan_id":"cebpf4jnsgd1na2vs0mg"},{"bike_id":"7d24f7f3-5a91-46ae-971d-a7a715309919","system_id":"levelo_inurba_marseille","lat":43.23176,"lon":5.40008,"is_reserved":false,"is_disabled":false,"rental_uris":{"android":"levelo://app?vid=7d24f7f3-5a91-46ae-971d-a7a715309919","ios":"levelo://app?vid=7d24f7f3-5a91-46ae-971d-a7a715309919"},"vehicle_type_id":"4","last_reported":1743484270,"current_range_meters":13600,"station_id":"ce4bhn12rcd13ifvqgqg","pricing_plan_id":"cebpf4jnsgd1na2vs0mg"},{"bike_id":"b18d61be-1314-4787-bdc3-677619cdb9f9","system_id":"levelo_inurba_marseille","lat":43.299278,"lon":5.370417,"is_reserved":false,"is_disabled":false,"rental_uris":{"android":"levelo://app?vid=b18d61be-1314-4787-bdc3-677619cdb9f9","ios":"levelo://app?vid=b18d61be-1314-4787-bdc3-677619cdb9f9"},"vehicle_type_id":"4","last_reported":1743484270,"current_range_meters":13600,"station_id":"","pricing_plan_id":"cebpf4jnsgd1na2vs0mg"},{"bike_id":"ef6842a3-ab60-40ed-bdec-ef20aefd6b19","system_id":"levelo_inurba_marseille","lat":43.27899,"lon":5.42391,"is_reserved":false,"is_disabled":false,"rental_uris":{"android":"levelo://app?vid=ef6842a3-ab60-40ed-bdec-ef20aefd6b19","ios":"levelo://app?vid=ef6842a3-ab60-40ed-bdec-ef20aefd6b19"},"vehicle_type_id":"4","last_reported":1743484270,"current_range_meters":13600,"station_id":"","pricing_plan_id":"cebpf4jnsgd1na2vs0mg"},{"bike_id":"02fe0b0c-34ee-4340-86d4-6f1ea259fc6f","system_id":"levelo_inurba_marseille","lat":43.29722,"lon":5.37716,"is_reserved":false,"is_disabled":false,"rental_uris":{"android":"levelo://app?vid=02fe0b0c-34ee-4340-86d4-6f1ea259fc6f","ios":"levelo://app?vid=02fe0b0c-34ee-4340-86d4-6f1ea259fc6f"},"vehicle_type_id":"4","last_reported":1743484270,"current_range_meters":13600,"station_id":"ce4bgkh2rcd13ifvqbl0","pricing_plan_id":"cebpf4jnsgd1na2vs0mg"},{"bike_id":"cc9f2f22-428d-43f4-88fa-84d844928722","system_id":"levelo_inurba_marseille","lat":43.28398,"lon":5.37523,"is_reserved":false,"is_disabled":false,"rental_uris":{"android":"levelo://app?vid=cc9f2f22-428d-43f4-88fa-84d844928722","ios":"levelo://app?vid=cc9f2f22-428d-43f4-88fa-84d844928722"},"vehicle_type_id":"4","last_reported":1743484270,"current_range_meters":14000,"station_id":"ce4bh412rcd13ifvqds0","pricing_plan_id":"cebpf4jnsgd1na2vs0mg"},{"bike_id":"4220d26d-272d-4b23-9cec-a79c1d919b49","system_id":"levelo_inurba_marseille","lat":43.30588,"lon":5.37102,"is_reserved":false,"is_disabled":false,"rental_uris":{"android":"levelo://app?vid=4220d26d-272d-4b23-9cec-a79c1d919b49","ios":"levelo://app?vid=4220d26d-272d-4b23-9cec-a79c1d919b49"},"vehicle_type_id":"4","last_reported":1743484270,"current_range_meters":14000,"station_id":"","pricing_plan_id":"cebpf4jnsgd1na2vs0mg"},{"bike_id":"c7485cb9-acb3-4ac8-a00d-865050d40519","system_id":"levelo_inurba_marseille","lat":43.284569,"lon":5.35884,"is_reserved":false,"is_disabled":false,"rental_uris":{"android":"levelo://app?vid=c7485cb9-acb3-4ac8-a00d-865050d40519","ios":"levelo://app?vid=c7485cb9-acb3-4ac8-a00d-865050d40519"},"vehicle_type_id":"4","last_reported":1743484270,"current_range_meters":14000,"station_id":"ce4bhah2rcd13ifvqei0","pricing_plan_id":"cebpf4jnsgd1na2vs0mg"},{"bike_id":"e90190bf-3342-43b0-b16e-594c3a332304","system_id":"levelo_inurba_marseille","lat":43.30936,"lon":5.40135,"is_reserved":false,"is_disabled":false,"rental_uris":{"android":"levelo://app?vid=e90190bf-3342-43b0-b16e-594c3a332304","ios":"levelo://app?vid=e90190bf-3342-43b0-b16e-594c3a332304"},"vehicle_type_id":"4","last_reported":1743484270,"current_range_meters":14000,"station_id":"ce4bgvp2rcd13ifvqct0","pricing_plan_id":"cebpf4jnsgd1na2vs0mg"},{"bike_id":"b51b2d91-8eaf-4c8d-a102-b285f29f7fa3","system_id":"levelo_inurba_marseille","lat":43.27205,"lon":5.39191,"is_reserved":false,"is_disabled":false,"rental_uris":{"android":"levelo://app?vid=b51b2d91-8eaf-4c8d-a102-b285f29f7fa3","ios":"levelo://app?vid=b51b2d91-8eaf-4c8d-a102-b285f29f7fa3"},"vehicle_type_id":"4","last_reported":1743484270,"current_range_meters":14000,"station_id":"ce4bhhp2rcd13ifvqfm0","pricing_plan_id":"cebpf4jnsgd1na2vs0mg"},{"bike_id":"1f100e9f-9c83-4ddd-ac5d-fcedbcc7d654","system_id":"levelo_inurba_marseille","lat":43.306375,"lon":5.400649,"is_reserved":false,"is_disabled":false,"rental_uris":{"android":"levelo://app?vid=1f100e9f-9c83-4ddd-ac5d-fcedbcc7d654","ios":"levelo://app?vid=1f100e9f-9c83-4ddd-ac5d-fcedbcc7d654"},"vehicle_type_id":"4","last_reported":1743484270,"current_range_meters":14000,"station_id":"ce4bh112rcd13ifvqda0","pricing_plan_id":"cebpf4jnsgd1na2vs0mg"},{"bike_id":"637a7291-0b62-41ab-a1d1-aad7651093db","system_id":"levelo_inurba_marseille","lat":43.27818,"lon":5.4074,"is_reserved":false,"is_disabled":true,"rental_uris":{"android":"levelo://app?vid=637a7291-0b62-41ab-a1d1-aad7651093db","ios":"levelo://app?vid=637a7291-0b62-41ab-a1d1-aad7651093db"},"vehicle_type_id":"4","last_reported":1743484270,"current_range_meters":14000,"station_id":"ce4bhnh2rcd13ifvqgtg","pricing_plan_id":"cebpf4jnsgd1na2vs0mg"},{"bike_id":"6787ecf4-646d-4ce9-9d33-0a3fddc1b395","system_id":"levelo_inurba_marseille","lat":43.28335,"lon":5.38107,"is_reserved":false,"is_disabled":false,"rental_uris":{"android":"levelo://app?vid=6787ecf4-646d-4ce9-9d33-0a3fddc1b395","ios":"levelo://app?vid=6787ecf4-646d-4ce9-9d33-0a3fddc1b395"},"vehicle_type_id":"4","last_reported":1743484270,"current_range_meters":14400,"station_id":"ce4bh412rcd13ifvqdr0","pricing_plan_id":"cebpf4jnsgd1na2vs0mg"},{"bike_id":"9797f779-9da6-466d-b017-1a020ce2563b","system_id":"levelo_inurba_marseille","lat":43.30595,"lon":5.39339,"is_reserved":false,"is_disabled":false,"rental_uris":{"android":"levelo://app?vid=9797f779-9da6-466d-b017-1a020ce2563b","ios":"levelo://app?vid=9797f779-9da6-466d-b017-1a020ce2563b"},"vehicle_type_id":"4","last_reported":1743484270,"current_range_meters":14400,"station_id":"ce4bh0p2rcd13ifvqd80","pricing_plan_id":"cebpf4jnsgd1na2vs0mg"},{"bike_id":"7fea0c13-4dba-40d8-a6fc-3d6e31ad9361","system_id":"levelo_inurba_marseille","lat":43.30682,"lon":5.40078,"is_reserved":false,"is_disabled":false,"rental_uris":{"android":"levelo://app?vid=7fea0c13-4dba-40d8-a6fc-3d6e31ad9361","ios":"levelo://app?vid=7fea0c13-4dba-40d8-a6fc-3d6e31ad9361"},"vehicle_type_id":"4","last_reported":1743484270,"current_range_meters":14800,"station_id":"ce4bh112rcd13ifvqda0","pricing_plan_id":"cebpf4jnsgd1na2vs0mg"},{"bike_id":"5875958e-0ed8-48b4-82cc-93073df15019","system_id":"levelo_inurba_marseille","lat":43.28708,"lon":5.37971,"is_reserved":false,"is_disabled":false,"rental_uris":{"android":"levelo://app?vid=5875958e-0ed8-48b4-82cc-93073df15019","ios":"levelo://app?vid=5875958e-0ed8-48b4-82cc-93073df15019"},"vehicle_type_id":"4","last_reported":1743484270,"current_range_meters":14800,"station_id":"ce4bh9p2rcd13ifvqec0","pricing_plan_id":"cebpf4jnsgd1na2vs0mg"},{"bike_id":"6e6a66e5-58ca-4db1-9695-b46ed5c28827","system_id":"levelo_inurba_marseille","lat":43.3181,"lon":5.36828,"is_reserved":false,"is_disabled":false,"rental_uris":{"android":"levelo://app?vid=6e6a66e5-58ca-4db1-9695-b46ed5c28827","ios":"levelo://app?vid=6e6a66e5-58ca-4db1-9695-b46ed5c28827"},"vehicle_type_id":"4","last_reported":1743484270,"current_range_meters":14800,"station_id":"","pricing_plan_id":"cebpf4jnsgd1na2vs0mg"},{"bike_id":"15b222ba-7758-4135-9ab2-7767423c6d21","system_id":"levelo_inurba_marseille","lat":43.29026,"lon":5.3865,"is_reserved":false,"is_disabled":true,"rental_uris":{"android":"levelo://app?vid=15b222ba-7758-4135-9ab2-7767423c6d21","ios":"levelo://app?vid=15b222ba-7758-4135-9ab2-7767423c6d21"},"vehicle_type_id":"4","last_reported":1743484270,"current_range_meters":14800,"station_id":"ce4bh4p2rcd13ifvqe0g","pricing_plan_id":"cebpf4jnsgd1na2vs0mg"},{"bike_id":"3a037307-6ce7-4167-84a6-c4a971a4ef7e","system_id":"levelo_inurba_marseille","lat":43.241756,"lon":5.397154,"is_reserved":false,"is_disabled":true,"rental_uris":{"android":"levelo://app?vid=3a037307-6ce7-4167-84a6-c4a971a4ef7e","ios":"levelo://app?vid=3a037307-6ce7-4167-84a6-c4a971a4ef7e"},"vehicle_type_id":"4","last_reported":1743484270,"current_range_meters":15200,"station_id":"ce4bhn12rcd13ifvqgpg","pricing_plan_id":"cebpf4jnsgd1na2vs0mg"},{"bike_id":"4474f66b-3eb6-4aea-af7b-d43fdaacf384","system_id":"levelo_inurba_marseille","lat":43.28044,"lon":5.40575,"is_reserved":false,"is_disabled":false,"rental_uris":{"android":"levelo://app?vid=4474f66b-3eb6-4aea-af7b-d43fdaacf384","ios":"levelo://app?vid=4474f66b-3eb6-4aea-af7b-d43fdaacf384"},"vehicle_type_id":"4","last_reported":1743484270,"current_range_meters":15200,"station_id":"","pricing_plan_id":"cebpf4jnsgd1na2vs0mg"},{"bike_id":"2cb550fe-bcc7-41c8-baa7-ad6cc18a3f10","system_id":"levelo_inurba_marseille","lat":43.2938,"lon":5.378608,"is_reserved":false,"is_disabled":true,"rental_uris":{"android":"levelo://app?vid=2cb550fe-bcc7-41c8-baa7-ad6cc18a3f10","ios":"levelo://app?vid=2cb550fe-bcc7-41c8-baa7-ad6cc18a3f10"},"vehicle_type_id":"4","last_reported":1743484270,"current_range_meters":15200,"station_id":"ce4bgjh2rcd13ifvqbf0","pricing_plan_id":"cebpf4jnsgd1na2vs0mg"},{"bike_id":"222db1c2-2b2a-41e4-8dc3-70c81dba6d58","system_id":"levelo_inurba_marseille","lat":43.29419,"lon":5.386064,"is_reserved":false,"is_disabled":false,"rental_uris":{"android":"levelo://app?vid=222db1c2-2b2a-41e4-8dc3-70c81dba6d58","ios":"levelo://app?vid=222db1c2-2b2a-41e4-8dc3-70c81dba6d58"},"vehicle_type_id":"4","last_reported":1743484270,"current_range_meters":16000,"station_id":"ce4bh2h2rcd13ifvqdh0","pricing_plan_id":"cebpf4jnsgd1na2vs0mg"},{"bike_id":"c8ba430e-6ba3-4349-b46d-1c2a92843fb8","system_id":"levelo_inurba_marseille","lat":43.306054,"lon":5.372196,"is_reserved":false,"is_disabled":false,"rental_uris":{"android":"levelo://app?vid=c8ba430e-6ba3-4349-b46d-1c2a92843fb8","ios":"levelo://app?vid=c8ba430e-6ba3-4349-b46d-1c2a92843fb8"},"vehicle_type_id":"4","last_reported":1743484270,"current_range_meters":16000,"station_id":"ce4bgqh2rcd13ifvqc4g","pricing_plan_id":"cebpf4jnsgd1na2vs0mg"},{"bike_id":"ba9895d7-228c-4468-b2a3-7e61f625cb0b","system_id":"levelo_inurba_marseille","lat":43.31725,"lon":5.424,"is_reserved":false,"is_disabled":false,"rental_uris":{"android":"levelo://app?vid=ba9895d7-228c-4468-b2a3-7e61f625cb0b","ios":"levelo://app?vid=ba9895d7-228c-4468-b2a3-7e61f625cb0b"},"vehicle_type_id":"4","last_reported":1743484270,"current_range_meters":16000,"station_id":"ce4bhp92rcd13ifvqhbg","pricing_plan_id":"cebpf4jnsgd1na2vs0mg"},{"bike_id":"8407e5a8-588e-40ab-8fd4-ddc2a144d615","system_id":"levelo_inurba_marseille","lat":43.27815,"lon":5.4072,"is_reserved":false,"is_disabled":false,"rental_uris":{"android":"levelo://app?vid=8407e5a8-588e-40ab-8fd4-ddc2a144d615","ios":"levelo://app?vid=8407e5a8-588e-40ab-8fd4-ddc2a144d615"},"vehicle_type_id":"4","last_reported":1743484270,"current_range_meters":16000,"station_id":"ce4bhnh2rcd13ifvqgtg","pricing_plan_id":"cebpf4jnsgd1na2vs0mg"},{"bike_id":"333ff9cd-7b1d-4bcc-8c33-2285623131bf","system_id":"levelo_inurba_marseille","lat":43.230471,"lon":5.354988,"is_reserved":false,"is_disabled":false,"rental_uris":{"android":"levelo://app?vid=333ff9cd-7b1d-4bcc-8c33-2285623131bf","ios":"levelo://app?vid=333ff9cd-7b1d-4bcc-8c33-2285623131bf"},"vehicle_type_id":"4","last_reported":1743484270,"current_range_meters":16000,"station_id":"cpo3342slgdg3j2ifvpg","pricing_plan_id":"cebpf4jnsgd1na2vs0mg"},{"bike_id":"8a654a85-a99c-4c6e-a379-a2e4f0243ef8","system_id":"levelo_inurba_marseille","lat":43.25133,"lon":5.40341,"is_reserved":false,"is_disabled":false,"rental_uris":{"android":"levelo://app?vid=8a654a85-a99c-4c6e-a379-a2e4f0243ef8","ios":"levelo://app?vid=8a654a85-a99c-4c6e-a379-a2e4f0243ef8"},"vehicle_type_id":"4","last_reported":1743484270,"current_range_meters":16000,"station_id":"ce4bhlh2rcd13ifvqgig","pricing_plan_id":"cebpf4jnsgd1na2vs0mg"},{"bike_id":"a8a5aa10-7306-4a06-927f-ea09f7cbcb7f","system_id":"levelo_inurba_marseille","lat":43.28005,"lon":5.36964,"is_reserved":false,"is_disabled":false,"rental_uris":{"android":"levelo://app?vid=a8a5aa10-7306-4a06-927f-ea09f7cbcb7f","ios":"levelo://app?vid=a8a5aa10-7306-4a06-927f-ea09f7cbcb7f"},"vehicle_type_id":"4","last_reported":1743484270,"current_range_meters":16000,"station_id":"ce4bha12rcd13ifvqef0","pricing_plan_id":"cebpf4jnsgd1na2vs0mg"},{"bike_id":"289bee59-a708-47b7-b68e-434e25d195a9","system_id":"levelo_inurba_marseille","lat":43.24802,"lon":5.37456,"is_reserved":false,"is_disabled":false,"rental_uris":{"android":"levelo://app?vid=289bee59-a708-47b7-b68e-434e25d195a9","ios":"levelo://app?vid=289bee59-a708-47b7-b68e-434e25d195a9"},"vehicle_type_id":"4","last_reported":1743484270,"current_range_meters":16000,"station_id":"ce4bhgh2rcd13ifvqfb0","pricing_plan_id":"cebpf4jnsgd1na2vs0mg"},{"bike_id":"76a07897-e3d3-49e9-ab1f-020126c5b0be","system_id":"levelo_inurba_marseille","lat":43.308818,"lon":5.396424,"is_reserved":false,"is_disabled":false,"rental_uris":{"android":"levelo://app?vid=76a07897-e3d3-49e9-ab1f-020126c5b0be","ios":"levelo://app?vid=76a07897-e3d3-49e9-ab1f-020126c5b0be"},"vehicle_type_id":"4","last_reported":1743484270,"current_range_meters":16000,"station_id":"ce4bh012rcd13ifvqcv0","pricing_plan_id":"cebpf4jnsgd1na2vs0mg"},{"bike_id":"6e1c62b8-2b83-4d5d-99e3-20ba50368cbb","system_id":"levelo_inurba_marseille","lat":43.302136,"lon":5.394688,"is_reserved":false,"is_disabled":false,"rental_uris":{"android":"levelo://app?vid=6e1c62b8-2b83-4d5d-99e3-20ba50368cbb","ios":"levelo://app?vid=6e1c62b8-2b83-4d5d-99e3-20ba50368cbb"},"vehicle_type_id":"4","last_reported":1743484270,"current_range_meters":16000,"station_id":"ce4bh0p2rcd13ifvqd70","pricing_plan_id":"cebpf4jnsgd1na2vs0mg"},{"bike_id":"4c564b34-6817-415a-8489-26db1ea03ff9","system_id":"levelo_inurba_marseille","lat":43.23146,"lon":5.43699,"is_reserved":false,"is_disabled":false,"rental_uris":{"android":"levelo://app?vid=4c564b34-6817-415a-8489-26db1ea03ff9","ios":"levelo://app?vid=4c564b34-6817-415a-8489-26db1ea03ff9"},"vehicle_type_id":"4","last_reported":1743484270,"current_range_meters":16000,"station_id":"ce4bhmp2rcd13ifvqgog","pricing_plan_id":"cebpf4jnsgd1na2vs0mg"},{"bike_id":"17011927-5eb5-4a38-a132-35a6858ea1fb","system_id":"levelo_inurba_marseille","lat":43.30311,"lon":5.39207,"is_reserved":false,"is_disabled":true,"rental_uris":{"android":"levelo://app?vid=17011927-5eb5-4a38-a132-35a6858ea1fb","ios":"levelo://app?vid=17011927-5eb5-4a38-a132-35a6858ea1fb"},"vehicle_type_id":"4","last_reported":1743484270,"current_range_meters":16000,"station_id":"ce4bgkh2rcd13ifvqbk0","pricing_plan_id":"cebpf4jnsgd1na2vs0mg"},{"bike_id":"139a2273-50c9-47a3-a1a9-4ac08405f10a","system_id":"levelo_inurba_marseille","lat":43.30241,"lon":5.40072,"is_reserved":false,"is_disabled":false,"rental_uris":{"android":"levelo://app?vid=139a2273-50c9-47a3-a1a9-4ac08405f10a","ios":"levelo://app?vid=139a2273-50c9-47a3-a1a9-4ac08405f10a"},"vehicle_type_id":"4","last_reported":1743484270,"current_range_meters":16400,"station_id":"ce4bgvh2rcd13ifvqcs0","pricing_plan_id":"cebpf4jnsgd1na2vs0mg"},{"bike_id":"971c92cb-66df-438d-9a85-e63af939e6ff","system_id":"levelo_inurba_marseille","lat":43.28609,"lon":5.351,"is_reserved":false,"is_disabled":true,"rental_uris":{"android":"levelo://app?vid=971c92cb-66df-438d-9a85-e63af939e6ff","ios":"levelo://app?vid=971c92cb-66df-438d-9a85-e63af939e6ff"},"vehicle_type_id":"4","last_reported":1743484270,"current_range_meters":16400,"station_id":"ce4bhch2rcd13ifvqeug","pricing_plan_id":"cebpf4jnsgd1na2vs0mg"},{"bike_id":"e04b1cbf-578e-43dd-82ec-ed8a072256c2","system_id":"levelo_inurba_marseille","lat":43.28703,"lon":5.37959,"is_reserved":false,"is_disabled":false,"rental_uris":{"android":"levelo://app?vid=e04b1cbf-578e-43dd-82ec-ed8a072256c2","ios":"levelo://app?vid=e04b1cbf-578e-43dd-82ec-ed8a072256c2"},"vehicle_type_id":"4","last_reported":1743484270,"current_range_meters":16400,"station_id":"ce4bh9p2rcd13ifvqec0","pricing_plan_id":"cebpf4jnsgd1na2vs0mg"},{"bike_id":"dd3db03f-0f43-4986-9ec8-2a76818fb28c","system_id":"levelo_inurba_marseille","lat":43.23198,"lon":5.355519,"is_reserved":false,"is_disabled":false,"rental_uris":{"android":"levelo://app?vid=dd3db03f-0f43-4986-9ec8-2a76818fb28c","ios":"levelo://app?vid=dd3db03f-0f43-4986-9ec8-2a76818fb28c"},"vehicle_type_id":"4","last_reported":1743484270,"current_range_meters":16400,"station_id":"ce4bhu92rcd13ifvqi70","pricing_plan_id":"cebpf4jnsgd1na2vs0mg"},{"bike_id":"9b83ba40-4d1d-456d-a7f4-bb615499448c","system_id":"levelo_inurba_marseille","lat":43.29259,"lon":5.40169,"is_reserved":false,"is_disabled":false,"rental_uris":{"android":"levelo://app?vid=9b83ba40-4d1d-456d-a7f4-bb615499448c","ios":"levelo://app?vid=9b83ba40-4d1d-456d-a7f4-bb615499448c"},"vehicle_type_id":"4","last_reported":1743484270,"current_range_meters":16400,"station_id":"ce4bh312rcd13ifvqdk0","pricing_plan_id":"cebpf4jnsgd1na2vs0mg"},{"bike_id":"7bc1f4d3-4172-4def-9c7f-b65d6dfa6459","system_id":"levelo_inurba_marseille","lat":43.27795,"lon":5.40744,"is_reserved":false,"is_disabled":false,"rental_uris":{"android":"levelo://app?vid=7bc1f4d3-4172-4def-9c7f-b65d6dfa6459","ios":"levelo://app?vid=7bc1f4d3-4172-4def-9c7f-b65d6dfa6459"},"vehicle_type_id":"4","last_reported":1743484270,"current_range_meters":16400,"station_id":"ce4bhnh2rcd13ifvqgtg","pricing_plan_id":"cebpf4jnsgd1na2vs0mg"},{"bike_id":"fa868129-2f9e-4924-8ec8-3b1bc2aa10dc","system_id":"levelo_inurba_marseille","lat":43.32986,"lon":5.43877,"is_reserved":false,"is_disabled":false,"rental_uris":{"android":"levelo://app?vid=fa868129-2f9e-4924-8ec8-3b1bc2aa10dc","ios":"levelo://app?vid=fa868129-2f9e-4924-8ec8-3b1bc2aa10dc"},"vehicle_type_id":"4","last_reported":1743484270,"current_range_meters":16400,"station_id":"","pricing_plan_id":"cebpf4jnsgd1na2vs0mg"},{"bike_id":"d6073d5e-eb42-4845-b426-b0410622b2db","system_id":"levelo_inurba_marseille","lat":43.27838,"lon":5.39209,"is_reserved":false,"is_disabled":false,"rental_uris":{"android":"levelo://app?vid=d6073d5e-eb42-4845-b426-b0410622b2db","ios":"levelo://app?vid=d6073d5e-eb42-4845-b426-b0410622b2db"},"vehicle_type_id":"4","last_reported":1743484270,"current_range_meters":16400,"station_id":"ce4bhjp2rcd13ifvqga0","pricing_plan_id":"cebpf4jnsgd1na2vs0mg"},{"bike_id":"67b0dca2-631a-498e-9a98-55627078357f","system_id":"levelo_inurba_marseille","lat":43.29625,"lon":5.40601,"is_reserved":false,"is_disabled":false,"rental_uris":{"android":"levelo://app?vid=67b0dca2-631a-498e-9a98-55627078357f","ios":"levelo://app?vid=67b0dca2-631a-498e-9a98-55627078357f"},"vehicle_type_id":"4","last_reported":1743484270,"current_range_meters":16400,"station_id":"ce4bh0h2rcd13ifvqd60","pricing_plan_id":"cebpf4jnsgd1na2vs0mg"},{"bike_id":"852c2766-0185-4034-8e83-e7b43f1429e1","system_id":"levelo_inurba_marseille","lat":43.2508,"lon":5.39512,"is_reserved":false,"is_disabled":false,"rental_uris":{"android":"levelo://app?vid=852c2766-0185-4034-8e83-e7b43f1429e1","ios":"levelo://app?vid=852c2766-0185-4034-8e83-e7b43f1429e1"},"vehicle_type_id":"4","last_reported":1743484270,"current_range_meters":16400,"station_id":"ce4bhm12rcd13ifvqgkg","pricing_plan_id":"cebpf4jnsgd1na2vs0mg"},{"bike_id":"aa220af0-6661-47a5-9388-b3584f78f70a","system_id":"levelo_inurba_marseille","lat":43.323427,"lon":5.40615,"is_reserved":false,"is_disabled":false,"rental_uris":{"android":"levelo://app?vid=aa220af0-6661-47a5-9388-b3584f78f70a","ios":"levelo://app?vid=aa220af0-6661-47a5-9388-b3584f78f70a"},"vehicle_type_id":"4","last_reported":1743484270,"current_range_meters":16800,"station_id":"ce4bhq92rcd13ifvqhjg","pricing_plan_id":"cebpf4jnsgd1na2vs0mg"},{"bike_id":"bcff4569-fa8d-43bb-af31-b1b23b84c973","system_id":"levelo_inurba_marseille","lat":43.30416,"lon":5.38884,"is_reserved":false,"is_disabled":false,"rental_uris":{"android":"levelo://app?vid=bcff4569-fa8d-43bb-af31-b1b23b84c973","ios":"levelo://app?vid=bcff4569-fa8d-43bb-af31-b1b23b84c973"},"vehicle_type_id":"4","last_reported":1743484270,"current_range_meters":16800,"station_id":"ce4bgk12rcd13ifvqbi0","pricing_plan_id":"cebpf4jnsgd1na2vs0mg"},{"bike_id":"b80ee275-2592-4659-b2e9-175feb839700","system_id":"levelo_inurba_marseille","lat":43.23201,"lon":5.35545,"is_reserved":false,"is_disabled":false,"rental_uris":{"android":"levelo://app?vid=b80ee275-2592-4659-b2e9-175feb839700","ios":"levelo://app?vid=b80ee275-2592-4659-b2e9-175feb839700"},"vehicle_type_id":"4","last_reported":1743484270,"current_range_meters":16800,"station_id":"ce4bhu92rcd13ifvqi70","pricing_plan_id":"cebpf4jnsgd1na2vs0mg"},{"bike_id":"777d6882-b541-4523-836e-0f0bfba7618c","system_id":"levelo_inurba_marseille","lat":43.29961,"lon":5.3852,"is_reserved":false,"is_disabled":false,"rental_uris":{"android":"levelo://app?vid=777d6882-b541-4523-836e-0f0bfba7618c","ios":"levelo://app?vid=777d6882-b541-4523-836e-0f0bfba7618c"},"vehicle_type_id":"4","last_reported":1743484270,"current_range_meters":16800,"station_id":"ce4bgj92rcd13ifvqbd0","pricing_plan_id":"cebpf4jnsgd1na2vs0mg"},{"bike_id":"088ea0e0-d5c5-4968-ac4f-a7e7202289c5","system_id":"levelo_inurba_marseille","lat":43.28917,"lon":5.38421,"is_reserved":false,"is_disabled":false,"rental_uris":{"android":"levelo://app?vid=088ea0e0-d5c5-4968-ac4f-a7e7202289c5","ios":"levelo://app?vid=088ea0e0-d5c5-4968-ac4f-a7e7202289c5"},"vehicle_type_id":"4","last_reported":1743484270,"current_range_meters":16800,"station_id":"ce4bh612rcd13ifvqe6g","pricing_plan_id":"cebpf4jnsgd1na2vs0mg"},{"bike_id":"81dd1e4d-3bb2-4b4e-9a5c-a7b8f1242471","system_id":"levelo_inurba_marseille","lat":43.27811,"lon":5.40712,"is_reserved":false,"is_disabled":false,"rental_uris":{"android":"levelo://app?vid=81dd1e4d-3bb2-4b4e-9a5c-a7b8f1242471","ios":"levelo://app?vid=81dd1e4d-3bb2-4b4e-9a5c-a7b8f1242471"},"vehicle_type_id":"4","last_reported":1743484270,"current_range_meters":16800,"station_id":"ce4bhnh2rcd13ifvqgtg","pricing_plan_id":"cebpf4jnsgd1na2vs0mg"},{"bike_id":"775a1770-28c5-4b0c-8c41-5cfd6f9c9c06","system_id":"levelo_inurba_marseille","lat":43.2791,"lon":5.39564,"is_reserved":false,"is_disabled":false,"rental_uris":{"android":"levelo://app?vid=775a1770-28c5-4b0c-8c41-5cfd6f9c9c06","ios":"levelo://app?vid=775a1770-28c5-4b0c-8c41-5cfd6f9c9c06"},"vehicle_type_id":"4","last_reported":1743484270,"current_range_meters":16800,"station_id":"ce4bhf92rcd13ifvqf40","pricing_plan_id":"cebpf4jnsgd1na2vs0mg"},{"bike_id":"6f80dc4d-b5be-4520-9b52-62bf73693754","system_id":"levelo_inurba_marseille","lat":43.29199,"lon":5.35797,"is_reserved":false,"is_disabled":true,"rental_uris":{"android":"levelo://app?vid=6f80dc4d-b5be-4520-9b52-62bf73693754","ios":"levelo://app?vid=6f80dc4d-b5be-4520-9b52-62bf73693754"},"vehicle_type_id":"4","last_reported":1743484270,"current_range_meters":16800,"station_id":"ce4bhb12rcd13ifvqel0","pricing_plan_id":"cebpf4jnsgd1na2vs0mg"},{"bike_id":"017ee0f7-ce54-4660-994e-d461da44da75","system_id":"levelo_inurba_marseille","lat":43.284614,"lon":5.358906,"is_reserved":false,"is_disabled":false,"rental_uris":{"android":"levelo://app?vid=017ee0f7-ce54-4660-994e-d461da44da75","ios":"levelo://app?vid=017ee0f7-ce54-4660-994e-d461da44da75"},"vehicle_type_id":"4","last_reported":1743484270,"current_range_meters":16800,"station_id":"ce4bhah2rcd13ifvqei0","pricing_plan_id":"cebpf4jnsgd1na2vs0mg"},{"bike_id":"87d6585d-8f8a-4c64-8d91-ba6af919c33b","system_id":"levelo_inurba_marseille","lat":43.32289,"lon":5.38284,"is_reserved":false,"is_disabled":false,"rental_uris":{"android":"levelo://app?vid=87d6585d-8f8a-4c64-8d91-ba6af919c33b","ios":"levelo://app?vid=87d6585d-8f8a-4c64-8d91-ba6af919c33b"},"vehicle_type_id":"4","last_reported":1743484270,"current_range_meters":16800,"station_id":"ce4bhr12rcd13ifvqhqg","pricing_plan_id":"cebpf4jnsgd1na2vs0mg"},{"bike_id":"977536d9-ed77-4008-bda0-3f560c78983a","system_id":"levelo_inurba_marseille","lat":43.23173,"lon":5.40007,"is_reserved":false,"is_disabled":false,"rental_uris":{"android":"levelo://app?vid=977536d9-ed77-4008-bda0-3f560c78983a","ios":"levelo://app?vid=977536d9-ed77-4008-bda0-3f560c78983a"},"vehicle_type_id":"4","last_reported":1743484270,"current_range_meters":16800,"station_id":"ce4bhn12rcd13ifvqgqg","pricing_plan_id":"cebpf4jnsgd1na2vs0mg"},{"bike_id":"75dae32f-059a-4b5b-a5e8-963c6eda2f66","system_id":"levelo_inurba_marseille","lat":43.27505,"lon":5.41074,"is_reserved":false,"is_disabled":false,"rental_uris":{"android":"levelo://app?vid=75dae32f-059a-4b5b-a5e8-963c6eda2f66","ios":"levelo://app?vid=75dae32f-059a-4b5b-a5e8-963c6eda2f66"},"vehicle_type_id":"4","last_reported":1743484270,"current_range_meters":16800,"station_id":"","pricing_plan_id":"cebpf4jnsgd1na2vs0mg"},{"bike_id":"a8792e1b-edbc-4e6f-8922-346fb49180f0","system_id":"levelo_inurba_marseille","lat":43.28927,"lon":5.3665,"is_reserved":false,"is_disabled":false,"rental_uris":{"android":"levelo://app?vid=a8792e1b-edbc-4e6f-8922-346fb49180f0","ios":"levelo://app?vid=a8792e1b-edbc-4e6f-8922-346fb49180f0"},