{"last_updated":1691431666,"ttl":30,"version":"2.2","data":{"bikes":[{"bike_id":"cdccfa5d-3a59-4189-bc6a-aa99e57eca7c","system_id":"levelo_inurba_marseille","lat":43.31221,"lon":5.36858,"is_reserved":false,"is_disabled":false,"rental_uris":{"android":"levelo://app?vid=cdccfa5d-3a59-4189-bc6a-aa99e57eca7c","ios":"levelo://app?vid=cdccfa5d-3a59-4189-bc6a-aa99e57eca7c"},"vehicle_type_id":"4","last_reported":1691431666,"current_range_meters":1200,"station_id":"ce4bgl92rcd13ifvqbq0","pricing_plan_id":"free"},{"bike_id":"5ac3f4c0-bdfb-431c-8dd7-1da05b3bc34e","system_id":"levelo_inurba_marseille","lat":43.30887,"lon":5.37193,"is_reserved":false,"is_disabled":false,"rental_uris":{"android":"levelo://app?vid=5ac3f4c0-bdfb-431c-8dd7-1da05b3bc34e","ios":"levelo://app?vid=5ac3f4c0-bdfb-431c-8dd7-1da05b3bc34e"},"vehicle_type_id":"4","last_reported":1691431666,"current_range_meters":10800,"station_id":"ce4bguh2rcd13ifvqckg","pricing_plan_id":"free"},{"bike_id":"f20ea888-8740-440b-bfeb-8eb2a7c1f652","system_id":"levelo_inurba_marseille","lat":43.30617,"lon":5.37227,"is_reserved":false,"is_disabled":false,"rental_uris":{"android":"levelo://app?vid=f20ea888-8740-440b-bfeb-8eb2a7c1f652","ios":"levelo://app?vid=f20ea888-8740-440b-bfeb-8eb2a7c1f652"},"vehicle_type_id":"4","last_reported":1691431666,"current_range_meters":31200,"station_id":"ce4bgqh2rcd13ifvqc4g","pricing_plan_id":"free"},{"bike_id":"a13edf66-7368-487c-8d9e-5a4fd8047c0a","system_id":"levelo_inurba_marseille","lat":43.305989,"lon":5.37225,"is_reserved":false,"is_disabled":false,"rental_uris":{"android":"levelo://app?vid=a13edf66-7368-487c-8d9e-5a4fd8047c0a","ios":"levelo://app?vid=a13edf66-7368-487c-8d9e-5a4fd8047c0a"},"vehicle_type_id":"4","last_reported":1691431666,"current_range_meters":20400,"station_id":"ce4bgqh2rcd13ifvqc4g","pricing_plan_id":"free"},{"bike_id":"27b8a7bc-aea5-421d-b70d-4a08e1a2e946","system_id":"levelo_inurba_marseille","lat":43.305989,"lon":5.37225,"is_reserved":false,"is_disabled":false,"rental_uris":{"android":"levelo://app?vid=27b8a7bc-aea5-421d-b70d-4a08e1a2e946","ios":"levelo://app?vid=27b8a7bc-aea5-421d-b70d-4a08e1a2e946"},"vehicle_type_id":"4","last_reported":1691431666,"current_range_meters":1600,"station_id":"ce4bgqh2rcd13ifvqc4g","pricing_plan_id":"free"},{"bike_id":"a8e08286-e9a6-473b-8fd8-a1975fedb575","system_id":"levelo_inurba_marseille","lat":43.317075,"lon":5.377367,"is_reserved":false,"is_disabled":false,"rental_uris":{"android":"levelo://app?vid=a8e08286-e9a6-473b-8fd8-a1975fedb575","ios":"levelo://app?vid=a8e08286-e9a6-473b-8fd8-a1975fedb575"},"vehicle_type_id":"4","last_reported":1691431666,"current_range_meters":23600,"station_id":"ce4bgth2rcd13ifvqch0","pricing_plan_id":"free"},{"bike_id":"36ea8287-97db-4eee-ac55-8ca09c6322ac","system_id":"levelo_inurba_marseille","lat":43.317075,"lon":5.377367,"is_reserved":false,"is_disabled":false,"rental_uris":{"android":"levelo://app?vid=36ea8287-97db-4eee-ac55-8ca09c6322ac","ios":"levelo://app?vid=36ea8287-97db-4eee-ac55-8ca09c6322ac"},"vehicle_type_id":"4","last_reported":1691431666,"current_range_meters":31600,"station_id":"ce4bgth2rcd13ifvqch0","pricing_plan_id":"free"},{"bike_id":"f49eae80-64b6-414d-9fd3-d297bfb2c072","system_id":"levelo_inurba_marseille","lat":43.31542,"lon":5.38018,"is_reserved":false,"is_disabled":false,"rental_uris":{"android":"levelo://app?vid=f49eae80-64b6-414d-9fd3-d297bfb2c072","ios":"levelo://app?vid=f49eae80-64b6-414d-9fd3-d297bfb2c072"},"vehicle_type_id":"4","last_reported":1691431666,"current_range_meters":10800,"station_id":"ce4bhsp2rcd13ifvqi50","pricing_plan_id":"free"},{"bike_id":"cad49ac2-8286-4441-b02f-a0d143979ad2","system_id":"levelo_inurba_marseille","lat":43.304606,"lon":5.379026,"is_reserved":false,"is_disabled":false,"rental_uris":{"android":"levelo://app?vid=cad49ac2-8286-4441-b02f-a0d143979ad2","ios":"levelo://app?vid=cad49ac2-8286-4441-b02f-a0d143979ad2"},"vehicle_type_id":"4","last_reported":1691431666,"current_range_meters":16400,"station_id":"ce4bgup2rcd13ifvqcn0","pricing_plan_id":"free"},{"bike_id":"5f428b52-5794-4306-9043-cde77f9a4ec3","system_id":"levelo_inurba_marseille","lat":43.304606,"lon":5.379026,"is_reserved":false,"is_disabled":false,"rental_uris":{"android":"levelo://app?vid=5f428b52-5794-4306-9043-cde77f9a4ec3","ios":"levelo://app?vid=5f428b52-5794-4306-9043-cde77f9a4ec3"},"vehicle_type_id":"4","last_reported":1691431666,"current_range_meters":23600,"station_id":"ce4bgup2rcd13ifvqcn0","pricing_plan_id":"free"},{"bike_id":"476a2b08-de9e-49d0-983e-1fcf3440c49e","system_id":"levelo_inurba_marseille","lat":43.304606,"lon":5.379026,"is_reserved":false,"is_disabled":false,"rental_uris":{"android":"levelo://app?vid=476a2b08-de9e-49d0-983e-1fcf3440c49e","ios":"levelo://app?vid=476a2b08-de9e-49d0-983e-1fcf3440c49e"},"vehicle_type_id":"4","last_reported":1691431666,"current_range_meters":31600,"station_id":"ce4bgup2rcd13ifvqcn0","pricing_plan_id":"free"},{"bike_id":"c43ba353-0a2f-44b9-8014-86f2733dfe2b","system_id":"levelo_inurba_marseille","lat":43.304606,"lon":5.379026,"is_reserved":false,"is_disabled":false,"rental_uris":{"android":"levelo://app?vid=c43ba353-0a2f-44b9-8014-86f2733dfe2b","ios":"levelo://app?vid=c43ba353-0a2f-44b9-8014-86f2733dfe2b"},"vehicle_type_id":"4","last_reported":1691431666,"current_range_meters":31600,"station_id":"ce4bgup2rcd13ifvqcn0","pricing_plan_id":"free"},{"bike_id":"bdae925e-31b8-4638-8bc9-6a9c17916dd2","system_id":"levelo_inurba_marseille","lat":43.304606,"lon":5.379026,"is_reserved":false,"is_disabled":false,"rental_uris":{"android":"levelo://app?vid=bdae925e-31b8-4638-8bc9-6a9c17916dd2","ios":"levelo://app?vid=bdae925e-31b8-4638-8bc9-6a9c17916dd2"},"vehicle_type_id":"4","last_reported":1691431666,"current_range_meters":23200,"station_id":"ce4bgup2rcd13ifvqcn0","pricing_plan_id":"free"},{"bike_id":"36154bae-f137-496c-bc0b-65d485d0eaf5","system_id":"levelo_inurba_marseille","lat":43.304606,"lon":5.379026,"is_reserved":false,"is_disabled":false,"rental_uris":{"android":"levelo://app?vid=36154bae-f137-496c-bc0b-65d485d0eaf5","ios":"levelo://app?vid=36154bae-f137-496c-bc0b-65d485d0eaf5"},"vehicle_type_id":"4","last_reported":1691431666,"current_range_meters":29200,"station_id":"ce4bgup2rcd13ifvqcn0","pricing_plan_id":"free"},{"bike_id":"740d06a7-d638-4596-86b9-60d6f99ed13f","system_id":"levelo_inurba_marseille","lat":43.304606,"lon":5.379026,"is_reserved":false,"is_disabled":false,"rental_uris":{"android":"levelo://app?vid=740d06a7-d638-4596-86b9-60d6f99ed13f","ios":"levelo://app?vid=740d06a7-d638-4596-86b9-60d6f99ed13f"},"vehicle_type_id":"4","last_reported":1691431666,"current_range_meters":30400,"station_id":"ce4bgup2rcd13ifvqcn0","pricing_plan_id":"free"},{"bike_id":"991fa0e7-370d-442b-8b6f-219a7eeb3d1d","system_id":"levelo_inurba_marseille","lat":43.304583,"lon":5.379026,"is_reserved":false,"is_disabled":false,"rental_uris":{"android":"levelo://app?vid=991fa0e7-370d-442b-8b6f-219a7eeb3d1d","ios":"levelo://app?vid=991fa0e7-370d-442b-8b6f-219a7eeb3d1d"},"vehicle_type_id":"4","last_reported":1691431666,"current_range_meters":0,"station_id":"ce4bgup2rcd13ifvqcn0","pricing_plan_id":"free"},{"bike_id":"2c93cb81-50b7-4ca1-a6d1-c1da391afbe5","system_id":"levelo_inurba_marseille","lat":43.304606,"lon":5.379026,"is_reserved":false,"is_disabled":false,"rental_uris":{"android":"levelo://app?vid=2c93cb81-50b7-4ca1-a6d1-c1da391afbe5","ios":"levelo://app?vid=2c93cb81-50b7-4ca1-a6d1-c1da391afbe5"},"vehicle_type_id":"4","last_reported":1691431666,"current_range_meters":12800,"station_id":"ce4bgup2rcd13ifvqcn0","pricing_plan_id":"free"},{"bike_id":"7695d789-2b5e-4381-9232-2c60561813df","system_id":"levelo_inurba_marseille","lat":43.304606,"lon":5.379026,"is_reserved":false,"is_disabled":false,"rental_uris":{"android":"levelo://app?vid=7695d789-2b5e-4381-9232-2c60561813df","ios":"levelo://app?vid=7695d789-2b5e-4381-9232-2c60561813df"},"vehicle_type_id":"4","last_reported":1691431666,"current_range_meters":31600,"station_id":"ce4bgup2rcd13ifvqcn0","pricing_plan_id":"free"},{"bike_id":"d419f294-51dd-45f4-aa58-c75d5a384cbe","system_id":"levelo_inurba_marseille","lat":43.304606,"lon":5.379026,"is_reserved":false,"is_disabled":false,"rental_uris":{"android":"levelo://app?vid=d419f294-51dd-45f4-aa58-c75d5a384cbe","ios":"levelo://app?vid=d419f294-51dd-45f4-aa58-c75d5a384cbe"},"vehicle_type_id":"4","last_reported":1691431666,"current_range_meters":31600,"station_id":"ce4bgup2rcd13ifvqcn0","pricing_plan_id":"free"},{"bike_id":"6099e017-02a5-43a9-b4e0-3688526986e2","system_id":"levelo_inurba_marseille","lat":43.32,"lon":5.38153,"is_reserved":false,"is_disabled":false,"rental_uris":{"android":"levelo://app?vid=6099e017-02a5-43a9-b4e0-3688526986e2","ios":"levelo://app?vid=6099e017-02a5-43a9-b4e0-3688526986e2"},"vehicle_type_id":"4","last_reported":1691431666,"current_range_meters":5600,"station_id":"ce4bhr12rcd13ifvqhpg","pricing_plan_id":"free"},{"bike_id":"7edfdc88-0848-42d5-986d-6e09a8bba759","system_id":"levelo_inurba_marseille","lat":43.313571,"lon":5.384829,"is_reserved":false,"is_disabled":false,"rental_uris":{"android":"levelo://app?vid=7edfdc88-0848-42d5-986d-6e09a8bba759","ios":"levelo://app?vid=7edfdc88-0848-42d5-986d-6e09a8bba759"},"vehicle_type_id":"4","last_reported":1691431666,"current_range_meters":14800,"station_id":"ce4bgt92rcd13ifvqcf0","pricing_plan_id":"free"},{"bike_id":"dbe73d29-6306-4ae6-be68-1ea7a9c8d327","system_id":"levelo_inurba_marseille","lat":43.313571,"lon":5.384829,"is_reserved":false,"is_disabled":false,"rental_uris":{"android":"levelo://app?vid=dbe73d29-6306-4ae6-be68-1ea7a9c8d327","ios":"levelo://app?vid=dbe73d29-6306-4ae6-be68-1ea7a9c8d327"},"vehicle_type_id":"4","last_reported":1691431666,"current_range_meters":4000,"station_id":"ce4bgt92rcd13ifvqcf0","pricing_plan_id":"free"},{"bike_id":"c9ad1520-0eb1-418b-b127-93596450068c","system_id":"levelo_inurba_marseille","lat":43.313571,"lon":5.384829,"is_reserved":false,"is_disabled":false,"rental_uris":{"android":"levelo://app?vid=c9ad1520-0eb1-418b-b127-93596450068c","ios":"levelo://app?vid=c9ad1520-0eb1-418b-b127-93596450068c"},"vehicle_type_id":"4","last_reported":1691431666,"current_range_meters":31600,"station_id":"ce4bgt92rcd13ifvqcf0","pricing_plan_id":"free"},{"bike_id":"46bdd1a7-2413-4278-917e-65e5a5fffd7f","system_id":"levelo_inurba_marseille","lat":43.313571,"lon":5.384829,"is_reserved":false,"is_disabled":false,"rental_uris":{"android":"levelo://app?vid=46bdd1a7-2413-4278-917e-65e5a5fffd7f","ios":"levelo://app?vid=46bdd1a7-2413-4278-917e-65e5a5fffd7f"},"vehicle_type_id":"4","last_reported":1691431666,"current_range_meters":0,"station_id":"ce4bgt92rcd13ifvqcf0","pricing_plan_id":"free"},{"bike_id":"fe0980aa-83b8-49c9-b85d-dd3c5adea62b","system_id":"levelo_inurba_marseille","lat":43.29982,"lon":5.37171,"is_reserved":false,"is_disabled":false,"rental_uris":{"android":"levelo://app?vid=fe0980aa-83b8-49c9-b85d-dd3c5adea62b","ios":"levelo://app?vid=fe0980aa-83b8-49c9-b85d-dd3c5adea62b"},"vehicle_type_id":"4","last_reported":1691431666,"current_range_meters":13200,"station_id":"ce4bgr92rcd13ifvqc7g","pricing_plan_id":"free"},{"bike_id":"e00abdfc-a679-4ddb-bc3f-cd4f3e374279","system_id":"levelo_inurba_marseille","lat":43.299222,"lon":5.365554,"is_reserved":false,"is_disabled":false,"rental_uris":{"android":"levelo://app?vid=e00abdfc-a679-4ddb-bc3f-cd4f3e374279","ios":"levelo://app?vid=e00abdfc-a679-4ddb-bc3f-cd4f3e374279"},"vehicle_type_id":"4","last_reported":1691431666,"current_range_meters":16400,"station_id":"ce4bgm92rcd13ifvqbr0","pricing_plan_id":"free"},{"bike_id":"33515a59-87b1-4feb-81f6-37bd8f204b14","system_id":"levelo_inurba_marseille","lat":43.305364,"lon":5.384119,"is_reserved":false,"is_disabled":false,"rental_uris":{"android":"levelo://app?vid=33515a59-87b1-4feb-81f6-37bd8f204b14","ios":"levelo://app?vid=33515a59-87b1-4feb-81f6-37bd8f204b14"},"vehicle_type_id":"4","last_reported":1691431666,"current_range_meters":0,"station_id":"ce4bgg92rcd13ifvqb30","pricing_plan_id":"free"},{"bike_id":"9c5ba8dd-4c93-4ac5-a3bf-d5d43d7d0386","system_id":"levelo_inurba_marseille","lat":43.30543,"lon":5.38419,"is_reserved":false,"is_disabled":false,"rental_uris":{"android":"levelo://app?vid=9c5ba8dd-4c93-4ac5-a3bf-d5d43d7d0386","ios":"levelo://app?vid=9c5ba8dd-4c93-4ac5-a3bf-d5d43d7d0386"},"vehicle_type_id":"4","last_reported":1691431666,"current_range_meters":2800,"station_id":"ce4bgg92rcd13ifvqb30","pricing_plan_id":"free"},{"bike_id":"30537d43-af02-4a10-b928-7b9b8cf633d2","system_id":"levelo_inurba_marseille","lat":43.305349,"lon":5.384196,"is_reserved":false,"is_disabled":false,"rental_uris":{"android":"levelo://app?vid=30537d43-af02-4a10-b928-7b9b8cf633d2","ios":"levelo://app?vid=30537d43-af02-4a10-b928-7b9b8cf633d2"},"vehicle_type_id":"4","last_reported":1691431666,"current_range_meters":26800,"station_id":"ce4bgg92rcd13ifvqb30","pricing_plan_id":"free"},{"bike_id":"409b9cfc-5051-4113-b27f-b8ea8cf97788","system_id":"levelo_inurba_marseille","lat":43.299243,"lon":5.37481,"is_reserved":false,"is_disabled":false,"rental_uris":{"android":"levelo://app?vid=409b9cfc-5051-4113-b27f-b8ea8cf97788","ios":"levelo://app?vid=409b9cfc-5051-4113-b27f-b8ea8cf97788"},"vehicle_type_id":"4","last_reported":1691431666,"current_range_meters":400,"station_id":"ce4bgjh2rcd13ifvqbg0","pricing_plan_id":"free"},{"bike_id":"b441a352-ea26-492c-9fcb-9e0505e7eaae","system_id":"levelo_inurba_marseille","lat":43.32298,"lon":5.38254,"is_reserved":false,"is_disabled":false,"rental_uris":{"android":"levelo://app?vid=b441a352-ea26-492c-9fcb-9e0505e7eaae","ios":"levelo://app?vid=b441a352-ea26-492c-9fcb-9e0505e7eaae"},"vehicle_type_id":"4","last_reported":1691431666,"current_range_meters":22000,"station_id":"ce4bhr12rcd13ifvqhqg","pricing_plan_id":"free"},{"bike_id":"15b2f289-e8da-4c30-a721-2cf15799ace1","system_id":"levelo_inurba_marseille","lat":43.32291,"lon":5.38268,"is_reserved":false,"is_disabled":false,"rental_uris":{"android":"levelo://app?vid=15b2f289-e8da-4c30-a721-2cf15799ace1","ios":"levelo://app?vid=15b2f289-e8da-4c30-a721-2cf15799ace1"},"vehicle_type_id":"4","last_reported":1691431666,"current_range_meters":14000,"station_id":"ce4bhr12rcd13ifvqhqg","pricing_plan_id":"free"},{"bike_id":"bf4a0016-24b8-4a88-b88f-1624c511c71a","system_id":"levelo_inurba_marseille","lat":43.32823,"lon":5.36679,"is_reserved":false,"is_disabled":false,"rental_uris":{"android":"levelo://app?vid=bf4a0016-24b8-4a88-b88f-1624c511c71a","ios":"levelo://app?vid=bf4a0016-24b8-4a88-b88f-1624c511c71a"},"vehicle_type_id":"4","last_reported":1691431666,"current_range_meters":29600,"station_id":"ce4bhs92rcd13ifvqi0g","pricing_plan_id":"free"},{"bike_id":"b903a53c-959d-44ad-9c03-1aaac919aac3","system_id":"levelo_inurba_marseille","lat":43.32824,"lon":5.36673,"is_reserved":false,"is_disabled":false,"rental_uris":{"android":"levelo://app?vid=b903a53c-959d-44ad-9c03-1aaac919aac3","ios":"levelo://app?vid=b903a53c-959d-44ad-9c03-1aaac919aac3"},"vehicle_type_id":"4","last_reported":1691431666,"current_range_meters":0,"station_id":"ce4bhs92rcd13ifvqi0g","pricing_plan_id":"free"},{"bike_id":"6f6eeb13-8534-45e9-90bb-5ce321a043c4","system_id":"levelo_inurba_marseille","lat":43.32826,"lon":5.36681,"is_reserved":false,"is_disabled":false,"rental_uris":{"android":"levelo://app?vid=6f6eeb13-8534-45e9-90bb-5ce321a043c4","ios":"levelo://app?vid=6f6eeb13-8534-45e9-90bb-5ce321a043c4"},"vehicle_type_id":"4","last_reported":1691431666,"current_range_meters":11600,"station_id":"ce4bhs92rcd13ifvqi0g","pricing_plan_id":"free"},{"bike_id":"3e3043fe-1efc-4718-9387-26e53aa31ec5","system_id":"levelo_inurba_marseille","lat":43.328371,"lon":5.366909,"is_reserved":false,"is_disabled":false,"rental_uris":{"android":"levelo://app?vid=3e3043fe-1efc-4718-9387-26e53aa31ec5","ios":"levelo://app?vid=3e3043fe-1efc-4718-9387-26e53aa31ec5"},"vehicle_type_id":"4","last_reported":1691431666,"current_range_meters":0,"station_id":"ce4bhs92rcd13ifvqi0g","pricing_plan_id":"free"},{"bike_id":"662f058c-a03f-4220-9182-f974f75d5bf8","system_id":"levelo_inurba_marseille","lat":43.328371,"lon":5.366909,"is_reserved":false,"is_disabled":false,"rental_uris":{"android":"levelo://app?vid=662f058c-a03f-4220-9182-f974f75d5bf8","ios":"levelo://app?vid=662f058c-a03f-4220-9182-f974f75d5bf8"},"vehicle_type_id":"4","last_reported":1691431666,"current_range_meters":24400,"station_id":"ce4bhs92rcd13ifvqi0g","pricing_plan_id":"free"},{"bike_id":"5836a1e4-4588-49af-9855-adde616cd7f7","system_id":"levelo_inurba_marseille","lat":43.32828,"lon":5.36671,"is_reserved":false,"is_disabled":false,"rental_uris":{"android":"levelo://app?vid=5836a1e4-4588-49af-9855-adde616cd7f7","ios":"levelo://app?vid=5836a1e4-4588-49af-9855-adde616cd7f7"},"vehicle_type_id":"4","last_reported":1691431666,"current_range_meters":14000,"station_id":"ce4bhs92rcd13ifvqi0g","pricing_plan_id":"free"},{"bike_id":"5598ba69-7d08-42d1-9376-d503db4ba6c0","system_id":"levelo_inurba_marseille","lat":43.328371,"lon":5.366909,"is_reserved":false,"is_disabled":false,"rental_uris":{"android":"levelo://app?vid=5598ba69-7d08-42d1-9376-d503db4ba6c0","ios":"levelo://app?vid=5598ba69-7d08-42d1-9376-d503db4ba6c0"},"vehicle_type_id":"4","last_reported":1691431666,"current_range_meters":28800,"station_id":"ce4bhs92rcd13ifvqi0g","pricing_plan_id":"free"},{"bike_id":"1dfb0f28-fb21-43e0-9b30-d5e6195e19ba","system_id":"levelo_inurba_marseille","lat":43.3283,"lon":5.36675,"is_reserved":false,"is_disabled":false,"rental_uris":{"android":"levelo://app?vid=1dfb0f28-fb21-43e0-9b30-d5e6195e19ba","ios":"levelo://app?vid=1dfb0f28-fb21-43e0-9b30-d5e6195e19ba"},"vehicle_type_id":"4","last_reported":1691431666,"current_range_meters":28400,"station_id":"ce4bhs92rcd13ifvqi0g","pricing_plan_id":"free"},{"bike_id":"9fd7bfd1-6f30-484a-93d7-e323269d32c7","system_id":"levelo_inurba_marseille","lat":43.32831,"lon":5.36681,"is_reserved":false,"is_disabled":false,"rental_uris":{"android":"levelo://app?vid=9fd7bfd1-6f30-484a-93d7-e323269d32c7","ios":"levelo://app?vid=9fd7bfd1-6f30-484a-93d7-e323269d32c7"},"vehicle_type_id":"4","last_reported":1691431666,"current_range_meters":23600,"station_id":"ce4bhs92rcd13ifvqi0g","pricing_plan_id":"free"},{"bike_id":"6db96096-8210-4643-934d-652f7d4c4496","system_id":"levelo_inurba_marseille","lat":43.328371,"lon":5.366909,"is_reserved":false,"is_disabled":false,"rental_uris":{"android":"levelo://app?vid=6db96096-8210-4643-934d-652f7d4c4496","ios":"levelo://app?vid=6db96096-8210-4643-934d-652f7d4c4496"},"vehicle_type_id":"4","last_reported":1691431666,"current_range_meters":2000,"station_id":"ce4bhs92rcd13ifvqi0g","pricing_plan_id":"free"},{"bike_id":"115e02c6-baf4-4327-a86a-c548165fd295","system_id":"levelo_inurba_marseille","lat":43.29712,"lon":5.36615,"is_reserved":false,"is_disabled":false,"rental_uris":{"android":"levelo://app?vid=115e02c6-baf4-4327-a86a-c548165fd295","ios":"levelo://app?vid=115e02c6-baf4-4327-a86a-c548165fd295"},"vehicle_type_id":"4","last_reported":1691431666,"current_range_meters":19200,"station_id":"ce4bgn12rcd13ifvqbt0","pricing_plan_id":"free"},{"bike_id":"5415d2b5-df8c-4278-adae-2df113142cd7","system_id":"levelo_inurba_marseille","lat":43.297106,"lon":5.366102,"is_reserved":false,"is_disabled":false,"rental_uris":{"android":"levelo://app?vid=5415d2b5-df8c-4278-adae-2df113142cd7","ios":"levelo://app?vid=5415d2b5-df8c-4278-adae-2df113142cd7"},"vehicle_type_id":"4","last_reported":1691431666,"current_range_meters":12800,"station_id":"ce4bgn12rcd13ifvqbt0","pricing_plan_id":"free"},{"bike_id":"326a9671-932c-4abb-b567-e5cbeeb4cd20","system_id":"levelo_inurba_marseille","lat":43.2971,"lon":5.36624,"is_reserved":false,"is_disabled":false,"rental_uris":{"android":"levelo://app?vid=326a9671-932c-4abb-b567-e5cbeeb4cd20","ios":"levelo://app?vid=326a9671-932c-4abb-b567-e5cbeeb4cd20"},"vehicle_type_id":"4","last_reported":1691431666,"current_range_meters":31600,"station_id":"ce4bgn12rcd13ifvqbt0","pricing_plan_id":"free"},{"bike_id":"dd789220-e7b5-42c1-b9dc-dc4243148021","system_id":"levelo_inurba_marseille","lat":43.29709,"lon":5.36611,"is_reserved":false,"is_disabled":false,"rental_uris":{"android":"levelo://app?vid=dd789220-e7b5-42c1-b9dc-dc4243148021","ios":"levelo://app?vid=dd789220-e7b5-42c1-b9dc-dc4243148021"},"vehicle_type_id":"4","last_reported":1691431666,"current_range_meters":31600,"station_id":"ce4bgn12rcd13ifvqbt0","pricing_plan_id":"free"},{"bike_id":"554137c4-0192-4746-87d4-2a6557af55d2","system_id":"levelo_inurba_marseille","lat":43.29573,"lon":5.367355,"is_reserved":false,"is_disabled":false,"rental_uris":{"android":"levelo://app?vid=554137c4-0192-4746-87d4-2a6557af55d2","ios":"levelo://app?vid=554137c4-0192-4746-87d4-2a6557af55d2"},"vehicle_type_id":"4","last_reported":1691431666,"current_range_meters":29600,"station_id":"ce4bgph2rcd13ifvqc2g","pricing_plan_id":"free"},{"bike_id":"4e1278de-b2d3-43b1-b21b-086f110c1b6c","system_id":"levelo_inurba_marseille","lat":43.29573,"lon":5.367355,"is_reserved":false,"is_disabled":false,"rental_uris":{"android":"levelo://app?vid=4e1278de-b2d3-43b1-b21b-086f110c1b6c","ios":"levelo://app?vid=4e1278de-b2d3-43b1-b21b-086f110c1b6c"},"vehicle_type_id":"4","last_reported":1691431666,"current_range_meters":8000,"station_id":"ce4bgph2rcd13ifvqc2g","pricing_plan_id":"free"},{"bike_id":"a8096f55-a54f-4cdb-8aa0-ef10e2c8d466","system_id":"levelo_inurba_marseille","lat":43.299028,"lon":5.381509,"is_reserved":false,"is_disabled":false,"rental_uris":{"android":"levelo://app?vid=a8096f55-a54f-4cdb-8aa0-ef10e2c8d466","ios":"levelo://app?vid=a8096f55-a54f-4cdb-8aa0-ef10e2c8d466"},"vehicle_type_id":"4","last_reported":1691431666,"current_range_meters":3200,"station_id":"ce4bgj12rcd13ifvqbc0","pricing_plan_id":"free"},{"bike_id":"a76e823f-9024-4be6-835c-30a284d10f19","system_id":"levelo_inurba_marseille","lat":43.317557,"lon":5.390173,"is_reserved":false,"is_disabled":false,"rental_uris":{"android":"levelo://app?vid=a76e823f-9024-4be6-835c-30a284d10f19","ios":"levelo://app?vid=a76e823f-9024-4be6-835c-30a284d10f19"},"vehicle_type_id":"4","last_reported":1691431666,"current_range_meters":24400,"station_id":"ce4bhqp2rcd13ifvqhng","pricing_plan_id":"free"},{"bike_id":"1d78fee2-178f-4b65-93d9-26c2b2b8eb26","system_id":"levelo_inurba_marseille","lat":43.298037,"lon":5.381066,"is_reserved":false,"is_disabled":false,"rental_uris":{"android":"levelo://app?vid=1d78fee2-178f-4b65-93d9-26c2b2b8eb26","ios":"levelo://app?vid=1d78fee2-178f-4b65-93d9-26c2b2b8eb26"},"vehicle_type_id":"4","last_reported":1691431666,"current_range_meters":21600,"station_id":"ce4bgip2rcd13ifvqbb0","pricing_plan_id":"free"},{"bike_id":"884e136d-51e3-4665-b1ac-f6631a7ac0ff","system_id":"levelo_inurba_marseille","lat":43.298037,"lon":5.381066,"is_reserved":false,"is_disabled":false,"rental_uris":{"android":"levelo://app?vid=884e136d-51e3-4665-b1ac-f6631a7ac0ff","ios":"levelo://app?vid=884e136d-51e3-4665-b1ac-f6631a7ac0ff"},"vehicle_type_id":"4","last_reported":1691431666,"current_range_meters":18400,"station_id":"ce4bgip2rcd13ifvqbb0","pricing_plan_id":"free"},{"bike_id":"fed3738c-3f01-4f23-85b3-43fb2ee24356","system_id":"levelo_inurba_marseille","lat":43.298037,"lon":5.381066,"is_reserved":false,"is_disabled":false,"rental_uris":{"android":"levelo://app?vid=fed3738c-3f01-4f23-85b3-43fb2ee24356","ios":"levelo://app?vid=fed3738c-3f01-4f23-85b3-43fb2ee24356"},"vehicle_type_id":"4","last_reported":1691431666,"current_range_meters":22800,"station_id":"ce4bgip2rcd13ifvqbb0","pricing_plan_id":"free"},{"bike_id":"a4df99ce-0488-49dd-a888-94686f562e88","system_id":"levelo_inurba_marseille","lat":43.29575,"lon":5.37496,"is_reserved":false,"is_disabled":false,"rental_uris":{"android":"levelo://app?vid=a4df99ce-0488-49dd-a888-94686f562e88","ios":"levelo://app?vid=a4df99ce-0488-49dd-a888-94686f562e88"},"vehicle_type_id":"4","last_reported":1691431666,"current_range_meters":31200,"station_id":"ce4bgh92rcd13ifvqb50","pricing_plan_id":"free"},{"bike_id":"b3ea59e0-8a45-41fb-aaea-09c09d81c2be","system_id":"levelo_inurba_marseille","lat":43.295748,"lon":5.37522,"is_reserved":false,"is_disabled":false,"rental_uris":{"android":"levelo://app?vid=b3ea59e0-8a45-41fb-aaea-09c09d81c2be","ios":"levelo://app?vid=b3ea59e0-8a45-41fb-aaea-09c09d81c2be"},"vehicle_type_id":"4","last_reported":1691431666,"current_range_meters":15600,"station_id":"ce4bgh92rcd13ifvqb50","pricing_plan_id":"free"},{"bike_id":"cc272670-d69f-46df-9bc1-603a8c7d6754","system_id":"levelo_inurba_marseille","lat":43.296277,"lon":5.377108,"is_reserved":false,"is_disabled":false,"rental_uris":{"android":"levelo://app?vid=cc272670-d69f-46df-9bc1-603a8c7d6754","ios":"levelo://app?vid=cc272670-d69f-46df-9bc1-603a8c7d6754"},"vehicle_type_id":"4","last_reported":1691431666,"current_range_meters":26000,"station_id":"ce4bgi92rcd13ifvqb90","pricing_plan_id":"free"},{"bike_id":"74598c16-b5bc-40ca-a49f-10ed89e2d441","system_id":"levelo_inurba_marseille","lat":43.29556,"lon":5.37503,"is_reserved":false,"is_disabled":false,"rental_uris":{"android":"levelo://app?vid=74598c16-b5bc-40ca-a49f-10ed89e2d441","ios":"levelo://app?vid=74598c16-b5bc-40ca-a49f-10ed89e2d441"},"vehicle_type_id":"4","last_reported":1691431666,"current_range_meters":4800,"station_id":"","pricing_plan_id":"free"},{"bike_id":"e8cd7298-61f6-40df-84c4-7940840499e0","system_id":"levelo_inurba_marseille","lat":43.299707,"lon":5.384859,"is_reserved":false,"is_disabled":false,"rental_uris":{"android":"levelo://app?vid=e8cd7298-61f6-40df-84c4-7940840499e0","ios":"levelo://app?vid=e8cd7298-61f6-40df-84c4-7940840499e0"},"vehicle_type_id":"4","last_reported":1691431666,"current_range_meters":23200,"station_id":"ce4bgj92rcd13ifvqbd0","pricing_plan_id":"free"},{"bike_id":"69dc8200-e423-42dd-8d17-8750c318aedc","system_id":"levelo_inurba_marseille","lat":43.295279,"lon":5.375048,"is_reserved":false,"is_disabled":false,"rental_uris":{"android":"levelo://app?vid=69dc8200-e423-42dd-8d17-8750c318aedc","ios":"levelo://app?vid=69dc8200-e423-42dd-8d17-8750c318aedc"},"vehicle_type_id":"4","last_reported":1691431666,"current_range_meters":13200,"station_id":"ce4bgkp2rcd13ifvqbmg","pricing_plan_id":"free"},{"bike_id":"9c95561b-9a72-4fae-a5e3-3edc3e8d3b26","system_id":"levelo_inurba_marseille","lat":43.295279,"lon":5.375048,"is_reserved":false,"is_disabled":false,"rental_uris":{"android":"levelo://app?vid=9c95561b-9a72-4fae-a5e3-3edc3e8d3b26","ios":"levelo://app?vid=9c95561b-9a72-4fae-a5e3-3edc3e8d3b26"},"vehicle_type_id":"4","last_reported":1691431666,"current_range_meters":8400,"station_id":"ce4bgkp2rcd13ifvqbmg","pricing_plan_id":"free"},{"bike_id":"960f284f-228a-4e6d-80f9-01677b111f36","system_id":"levelo_inurba_marseille","lat":43.295279,"lon":5.375048,"is_reserved":false,"is_disabled":false,"rental_uris":{"android":"levelo://app?vid=960f284f-228a-4e6d-80f9-01677b111f36","ios":"levelo://app?vid=960f284f-228a-4e6d-80f9-01677b111f36"},"vehicle_type_id":"4","last_reported":1691431666,"current_range_meters":22000,"station_id":"ce4bgkp2rcd13ifvqbmg","pricing_plan_id":"free"},{"bike_id":"9a789f6b-e2e9-463f-a56d-f856b62c7a50","system_id":"levelo_inurba_marseille","lat":43.295279,"lon":5.375048,"is_reserved":false,"is_disabled":false,"rental_uris":{"android":"levelo://app?vid=9a789f6b-e2e9-463f-a56d-f856b62c7a50","ios":"levelo://app?vid=9a789f6b-e2e9-463f-a56d-f856b62c7a50"},"vehicle_type_id":"4","last_reported":1691431666,"current_range_meters":0,"station_id":"ce4bgkp2rcd13ifvqbmg","pricing_plan_id":"free"},{"bike_id":"c075b882-9087-4faa-9754-b6047ec5ba58","system_id":"levelo_inurba_marseille","lat":43.32362,"lon":5.38879,"is_reserved":false,"is_disabled":false,"rental_uris":{"android":"levelo://app?vid=c075b882-9087-4faa-9754-b6047ec5ba58","ios":"levelo://app?vid=c075b882-9087-4faa-9754-b6047ec5ba58"},"vehicle_type_id":"4","last_reported":1691431666,"current_range_meters":27600,"station_id":"ce4bhqp2rcd13ifvqhog","pricing_plan_id":"free"},{"bike_id":"0385959f-e4a4-4b53-a83f-b81824876402","system_id":"levelo_inurba_marseille","lat":43.32369,"lon":5.3888,"is_reserved":false,"is_disabled":false,"rental_uris":{"android":"levelo://app?vid=0385959f-e4a4-4b53-a83f-b81824876402","ios":"levelo://app?vid=0385959f-e4a4-4b53-a83f-b81824876402"},"vehicle_type_id":"4","last_reported":1691431666,"current_range_meters":29600,"station_id":"ce4bhqp2rcd13ifvqhog","pricing_plan_id":"free"},{"bike_id":"fb2f99da-6a0f-4a13-8a6e-b45d8292be21","system_id":"levelo_inurba_marseille","lat":43.32365,"lon":5.38884,"is_reserved":false,"is_disabled":false,"rental_uris":{"android":"levelo://app?vid=fb2f99da-6a0f-4a13-8a6e-b45d8292be21","ios":"levelo://app?vid=fb2f99da-6a0f-4a13-8a6e-b45d8292be21"},"vehicle_type_id":"4","last_reported":1691431666,"current_range_meters":1200,"station_id":"ce4bhqp2rcd13ifvqhog","pricing_plan_id":"free"},{"bike_id":"955758e2-f83f-4c5d-9130-cc769a75e33c","system_id":"levelo_inurba_marseille","lat":43.292749,"lon":5.368398,"is_reserved":false,"is_disabled":false,"rental_uris":{"android":"levelo://app?vid=955758e2-f83f-4c5d-9130-cc769a75e33c","ios":"levelo://app?vid=955758e2-f83f-4c5d-9130-cc769a75e33c"},"vehicle_type_id":"4","last_reported":1691431666,"current_range_meters":23600,"station_id":"ce4bhbp2rcd13ifvqesg","pricing_plan_id":"free"},{"bike_id":"dbe406a0-e31d-4174-932b-0d8d584d17c2","system_id":"levelo_inurba_marseille","lat":43.292749,"lon":5.368398,"is_reserved":false,"is_disabled":false,"rental_uris":{"android":"levelo://app?vid=dbe406a0-e31d-4174-932b-0d8d584d17c2","ios":"levelo://app?vid=dbe406a0-e31d-4174-932b-0d8d584d17c2"},"vehicle_type_id":"4","last_reported":1691431666,"current_range_meters":31600,"station_id":"ce4bhbp2rcd13ifvqesg","pricing_plan_id":"free"},{"bike_id":"512b03a8-4c08-4b85-bac5-6bc8e7f846c6","system_id":"levelo_inurba_marseille","lat":43.305994,"lon":5.393687,"is_reserved":false,"is_disabled":false,"rental_uris":{"android":"levelo://app?vid=512b03a8-4c08-4b85-bac5-6bc8e7f846c6","ios":"levelo://app?vid=512b03a8-4c08-4b85-bac5-6bc8e7f846c6"},"vehicle_type_id":"4","last_reported":1691431666,"current_range_meters":14400,"station_id":"ce4bh0p2rcd13ifvqd80","pricing_plan_id":"free"},{"bike_id":"5b158f78-3b39-4ec8-916d-4010f2a95396","system_id":"levelo_inurba_marseille","lat":43.302992,"lon":5.392136,"is_reserved":false,"is_disabled":false,"rental_uris":{"android":"levelo://app?vid=5b158f78-3b39-4ec8-916d-4010f2a95396","ios":"levelo://app?vid=5b158f78-3b39-4ec8-916d-4010f2a95396"},"vehicle_type_id":"4","last_reported":1691431666,"current_range_meters":4400,"station_id":"ce4bgkh2rcd13ifvqbk0","pricing_plan_id":"free"},{"bike_id":"617d7f02-1876-4161-8523-0099de0e4f62","system_id":"levelo_inurba_marseille","lat":43.2936,"lon":5.37835,"is_reserved":false,"is_disabled":false,"rental_uris":{"android":"levelo://app?vid=617d7f02-1876-4161-8523-0099de0e4f62","ios":"levelo://app?vid=617d7f02-1876-4161-8523-0099de0e4f62"},"vehicle_type_id":"4","last_reported":1691431666,"current_range_meters":18800,"station_id":"ce4bgjh2rcd13ifvqbf0","pricing_plan_id":"free"},{"bike_id":"fada27c7-bbec-4e54-b608-95bc93bdfc88","system_id":"levelo_inurba_marseille","lat":43.30085,"lon":5.390856,"is_reserved":false,"is_disabled":false,"rental_uris":{"android":"levelo://app?vid=fada27c7-bbec-4e54-b608-95bc93bdfc88","ios":"levelo://app?vid=fada27c7-bbec-4e54-b608-95bc93bdfc88"},"vehicle_type_id":"4","last_reported":1691431666,"current_range_meters":19200,"station_id":"ce4bh192rcd13ifvqdb0","pricing_plan_id":"free"},{"bike_id":"4b7c8003-a6a1-4363-8504-fa8038df0ed6","system_id":"levelo_inurba_marseille","lat":43.30085,"lon":5.390856,"is_reserved":false,"is_disabled":false,"rental_uris":{"android":"levelo://app?vid=4b7c8003-a6a1-4363-8504-fa8038df0ed6","ios":"levelo://app?vid=4b7c8003-a6a1-4363-8504-fa8038df0ed6"},"vehicle_type_id":"4","last_reported":1691431666,"current_range_meters":24800,"station_id":"ce4bh192rcd13ifvqdb0","pricing_plan_id":"free"},{"bike_id":"6e4bbc64-ee8b-41ff-8515-883c1395b5eb","system_id":"levelo_inurba_marseille","lat":43.29884,"lon":5.38898,"is_reserved":false,"is_disabled":false,"rental_uris":{"android":"levelo://app?vid=6e4bbc64-ee8b-41ff-8515-883c1395b5eb","ios":"levelo://app?vid=6e4bbc64-ee8b-41ff-8515-883c1395b5eb"},"vehicle_type_id":"4","last_reported":1691431666,"current_range_meters":16800,"station_id":"ce4bh392rcd13ifvqdl0","pricing_plan_id":"free"},{"bike_id":"d8b9f13e-f35e-43ca-98c0-71a7a53bee3a","system_id":"levelo_inurba_marseille","lat":43.298764,"lon":5.388973,"is_reserved":false,"is_disabled":false,"rental_uris":{"android":"levelo://app?vid=d8b9f13e-f35e-43ca-98c0-71a7a53bee3a","ios":"levelo://app?vid=d8b9f13e-f35e-43ca-98c0-71a7a53bee3a"},"vehicle_type_id":"4","last_reported":1691431666,"current_range_meters":3600,"station_id":"ce4bh392rcd13ifvqdl0","pricing_plan_id":"free"},{"bike_id":"a8f4e0b7-8893-414f-8ee7-c1268bf88253","system_id":"levelo_inurba_marseille","lat":43.298764,"lon":5.388973,"is_reserved":false,"is_disabled":false,"rental_uris":{"android":"levelo://app?vid=a8f4e0b7-8893-414f-8ee7-c1268bf88253","ios":"levelo://app?vid=a8f4e0b7-8893-414f-8ee7-c1268bf88253"},"vehicle_type_id":"4","last_reported":1691431666,"current_range_meters":0,"station_id":"ce4bh392rcd13ifvqdl0","pricing_plan_id":"free"},{"bike_id":"e2fc2d3c-1302-4d5b-8f43-598bed24fa16","system_id":"levelo_inurba_marseille","lat":43.298764,"lon":5.388973,"is_reserved":false,"is_disabled":false,"rental_uris":{"android":"levelo://app?vid=e2fc2d3c-1302-4d5b-8f43-598bed24fa16","ios":"levelo://app?vid=e2fc2d3c-1302-4d5b-8f43-598bed24fa16"},"vehicle_type_id":"4","last_reported":1691431666,"current_range_meters":19600,"station_id":"ce4bh392rcd13ifvqdl0","pricing_plan_id":"free"},{"bike_id":"82339cc8-eece-42db-8cff-4969f4497cd7","system_id":"levelo_inurba_marseille","lat":43.298764,"lon":5.388973,"is_reserved":false,"is_disabled":false,"rental_uris":{"android":"levelo://app?vid=82339cc8-eece-42db-8cff-4969f4497cd7","ios":"levelo://app?vid=82339cc8-eece-42db-8cff-4969f4497cd7"},"vehicle_type_id":"4","last_reported":1691431666,"current_range_meters":19600,"station_id":"ce4bh392rcd13ifvqdl0","pricing_plan_id":"free"},{"bike_id":"1eb9e1eb-c3d1-4fe6-9cea-26917fc07ba1","system_id":"levelo_inurba_marseille","lat":43.290779,"lon":5.371482,"is_reserved":false,"is_disabled":false,"rental_uris":{"android":"levelo://app?vid=1eb9e1eb-c3d1-4fe6-9cea-26917fc07ba1","ios":"levelo://app?vid=1eb9e1eb-c3d1-4fe6-9cea-26917fc07ba1"},"vehicle_type_id":"4","last_reported":1691431666,"current_range_meters":29600,"station_id":"ce4bh5p2rcd13ifvqe4g","pricing_plan_id":"free"},{"bike_id":"57ff3957-7d41-4e54-8ce0-26fdc4900ce4","system_id":"levelo_inurba_marseille","lat":43.29076,"lon":5.37163,"is_reserved":false,"is_disabled":false,"rental_uris":{"android":"levelo://app?vid=57ff3957-7d41-4e54-8ce0-26fdc4900ce4","ios":"levelo://app?vid=57ff3957-7d41-4e54-8ce0-26fdc4900ce4"},"vehicle_type_id":"4","last_reported":1691431666,"current_range_meters":0,"station_id":"ce4bh5p2rcd13ifvqe4g","pricing_plan_id":"free"},{"bike_id":"ae40872f-8ff6-4ff3-ad60-e2180dbbcc30","system_id":"levelo_inurba_marseille","lat":43.290624,"lon":5.359245,"is_reserved":false,"is_disabled":false,"rental_uris":{"android":"levelo://app?vid=ae40872f-8ff6-4ff3-ad60-e2180dbbcc30","ios":"levelo://app?vid=ae40872f-8ff6-4ff3-ad60-e2180dbbcc30"},"vehicle_type_id":"4","last_reported":1691431666,"current_range_meters":26000,"station_id":"ce4bha92rcd13ifvqeg0","pricing_plan_id":"free"},{"bike_id":"c958f863-9d12-4615-84eb-3b83023f5ec4","system_id":"levelo_inurba_marseille","lat":43.290631,"lon":5.359244,"is_reserved":false,"is_disabled":false,"rental_uris":{"android":"levelo://app?vid=c958f863-9d12-4615-84eb-3b83023f5ec4","ios":"levelo://app?vid=c958f863-9d12-4615-84eb-3b83023f5ec4"},"vehicle_type_id":"4","last_reported":1691431666,"current_range_meters":2400,"station_id":"ce4bha92rcd13ifvqeg0","pricing_plan_id":"free"},{"bike_id":"668d5f5f-b62c-4310-bf1c-961852acea5a","system_id":"levelo_inurba_marseille","lat":43.294153,"lon":5.386305,"is_reserved":false,"is_disabled":false,"rental_uris":{"android":"levelo://app?vid=668d5f5f-b62c-4310-bf1c-961852acea5a","ios":"levelo://app?vid=668d5f5f-b62c-4310-bf1c-961852acea5a"},"vehicle_type_id":"4","last_reported":1691431666,"current_range_meters":10000,"station_id":"ce4bh2h2rcd13ifvqdh0","pricing_plan_id":"free"},{"bike_id":"49dbbbc3-3613-4ea9-bc6c-0d71e9f79bc4","system_id":"levelo_inurba_marseille","lat":43.294153,"lon":5.386305,"is_reserved":false,"is_disabled":false,"rental_uris":{"android":"levelo://app?vid=49dbbbc3-3613-4ea9-bc6c-0d71e9f79bc4","ios":"levelo://app?vid=49dbbbc3-3613-4ea9-bc6c-0d71e9f79bc4"},"vehicle_type_id":"4","last_reported":1691431666,"current_range_meters":21600,"station_id":"ce4bh2h2rcd13ifvqdh0","pricing_plan_id":"free"},{"bike_id":"5df25b16-6300-4532-bc6f-5c17e26e4623","system_id":"levelo_inurba_marseille","lat":43.294153,"lon":5.386305,"is_reserved":false,"is_disabled":false,"rental_uris":{"android":"levelo://app?vid=5df25b16-6300-4532-bc6f-5c17e26e4623","ios":"levelo://app?vid=5df25b16-6300-4532-bc6f-5c17e26e4623"},"vehicle_type_id":"4","last_reported":1691431666,"current_range_meters":6000,"station_id":"ce4bh2h2rcd13ifvqdh0","pricing_plan_id":"free"},{"bike_id":"a0ca6234-ca0e-4206-94af-df6b5f918a23","system_id":"levelo_inurba_marseille","lat":43.294162,"lon":5.386292,"is_reserved":false,"is_disabled":false,"rental_uris":{"android":"levelo://app?vid=a0ca6234-ca0e-4206-94af-df6b5f918a23","ios":"levelo://app?vid=a0ca6234-ca0e-4206-94af-df6b5f918a23"},"vehicle_type_id":"4","last_reported":1691431666,"current_range_meters":4800,"station_id":"ce4bh2h2rcd13ifvqdh0","pricing_plan_id":"free"},{"bike_id":"82fa6cc4-015a-4dee-8731-a4229c63a0e7","system_id":"levelo_inurba_marseille","lat":43.29418,"lon":5.38619,"is_reserved":false,"is_disabled":false,"rental_uris":{"android":"levelo://app?vid=82fa6cc4-015a-4dee-8731-a4229c63a0e7","ios":"levelo://app?vid=82fa6cc4-015a-4dee-8731-a4229c63a0e7"},"vehicle_type_id":"4","last_reported":1691431666,"current_range_meters":19600,"station_id":"","pricing_plan_id":"free"},{"bike_id":"0e65905f-eeed-48b5-8948-e322de417493","system_id":"levelo_inurba_marseille","lat":43.294162,"lon":5.386292,"is_reserved":false,"is_disabled":false,"rental_uris":{"android":"levelo://app?vid=0e65905f-eeed-48b5-8948-e322de417493","ios":"levelo://app?vid=0e65905f-eeed-48b5-8948-e322de417493"},"vehicle_type_id":"4","last_reported":1691431666,"current_range_meters":14000,"station_id":"ce4bh2h2rcd13ifvqdh0","pricing_plan_id":"free"},{"bike_id":"a6c41e19-a95e-492f-9024-ca8d330c0d8f","system_id":"levelo_inurba_marseille","lat":43.294153,"lon":5.386305,"is_reserved":false,"is_disabled":false,"rental_uris":{"android":"levelo://app?vid=a6c41e19-a95e-492f-9024-ca8d330c0d8f","ios":"levelo://app?vid=a6c41e19-a95e-492f-9024-ca8d330c0d8f"},"vehicle_type_id":"4","last_reported":1691431666,"current_range_meters":5600,"station_id":"ce4bh2h2rcd13ifvqdh0","pricing_plan_id":"free"},{"bike_id":"33eae8a5-a6ed-4ab2-9264-039eccc9a1a7","system_id":"levelo_inurba_marseille","lat":43.294162,"lon":5.386292,"is_reserved":false,"is_disabled":false,"rental_uris":{"android":"levelo://app?vid=33eae8a5-a6ed-4ab2-9264-039eccc9a1a7","ios":"levelo://app?vid=33eae8a5-a6ed-4ab2-9264-039eccc9a1a7"},"vehicle_type_id":"4","last_reported":1691431666,"current_range_meters":26400,"station_id":"ce4bh2h2rcd13ifvqdh0","pricing_plan_id":"free"},{"bike_id":"dc49a558-9b23-4f60-8df3-284a862f6c74","system_id":"levelo_inurba_marseille","lat":43.294162,"lon":5.386292,"is_reserved":false,"is_disabled":false,"rental_uris":{"android":"levelo://app?vid=dc49a558-9b23-4f60-8df3-284a862f6c74","ios":"levelo://app?vid=dc49a558-9b23-4f60-8df3-284a862f6c74"},"vehicle_type_id":"4","last_reported":1691431666,"current_range_meters":30800,"station_id":"ce4bh2h2rcd13ifvqdh0","pricing_plan_id":"free"},{"bike_id":"b79d5c6c-5f97-4cc3-a854-c701ec6b65b0","system_id":"levelo_inurba_marseille","lat":43.294162,"lon":5.386292,"is_reserved":false,"is_disabled":false,"rental_uris":{"android":"levelo://app?vid=b79d5c6c-5f97-4cc3-a854-c701ec6b65b0","ios":"levelo://app?vid=b79d5c6c-5f97-4cc3-a854-c701ec6b65b0"},"vehicle_type_id":"4","last_reported":1691431666,"current_range_meters":26000,"station_id":"ce4bh2h2rcd13ifvqdh0","pricing_plan_id":"free"},{"bike_id":"67dbe35b-32c1-403e-9576-8ff353f16670","system_id":"levelo_inurba_marseille","lat":43.28942,"lon":5.36637,"is_reserved":false,"is_disabled":false,"rental_uris":{"android":"levelo://app?vid=67dbe35b-32c1-403e-9576-8ff353f16670","ios":"levelo://app?vid=67dbe35b-32c1-403e-9576-8ff353f16670"},"vehicle_type_id":"4","last_reported":1691431666,"current_range_meters":24400,"station_id":"ce4bhap2rcd13ifvqek0","pricing_plan_id":"free"},{"bike_id":"0c4da44f-3cc5-4006-aef2-a149d0cd951b","system_id":"levelo_inurba_marseille","lat":43.28941,"lon":5.36633,"is_reserved":false,"is_disabled":false,"rental_uris":{"android":"levelo://app?vid=0c4da44f-3cc5-4006-aef2-a149d0cd951b","ios":"levelo://app?vid=0c4da44f-3cc5-4006-aef2-a149d0cd951b"},"vehicle_type_id":"4","last_reported":1691431666,"current_range_meters":16800,"station_id":"ce4bhap2rcd13ifvqek0","pricing_plan_id":"free"},{"bike_id":"8d234de9-2eab-45f0-a902-882018784dc6","system_id":"levelo_inurba_marseille","lat":43.28937,"lon":5.36634,"is_reserved":false,"is_disabled":false,"rental_uris":{"android":"levelo://app?vid=8d234de9-2eab-45f0-a902-882018784dc6","ios":"levelo://app?vid=8d234de9-2eab-45f0-a902-882018784dc6"},"vehicle_type_id":"4","last_reported":1691431666,"current_range_meters":26400,"station_id":"ce4bhap2rcd13ifvqek0","pricing_plan_id":"free"},{"bike_id":"5edc510a-078b-41f7-8249-905386e59180","system_id":"levelo_inurba_marseille","lat":43.289184,"lon":5.366408,"is_reserved":false,"is_disabled":false,"rental_uris":{"android":"levelo://app?vid=5edc510a-078b-41f7-8249-905386e59180","ios":"levelo://app?vid=5edc510a-078b-41f7-8249-905386e59180"},"vehicle_type_id":"4","last_reported":1691431666,"current_range_meters":400,"station_id":"ce4bhap2rcd13ifvqek0","pricing_plan_id":"free"},{"bike_id":"d7fa5628-b1ee-4c9d-89bd-9c3b09a1d027","system_id":"levelo_inurba_marseille","lat":43.292644,"lon":5.384257,"is_reserved":false,"is_disabled":false,"rental_uris":{"android":"levelo://app?vid=d7fa5628-b1ee-4c9d-89bd-9c3b09a1d027","ios":"levelo://app?vid=d7fa5628-b1ee-4c9d-89bd-9c3b09a1d027"},"vehicle_type_id":"4","last_reported":1691431666,"current_range_meters":8800,"station_id":"ce4bh692rcd13ifvqea0","pricing_plan_id":"free"},{"bike_id":"86955e39-16a7-4e9a-a6d3-9c211880e3b7","system_id":"levelo_inurba_marseille","lat":43.292642,"lon":5.384254,"is_reserved":false,"is_disabled":false,"rental_uris":{"android":"levelo://app?vid=86955e39-16a7-4e9a-a6d3-9c211880e3b7","ios":"levelo://app?vid=86955e39-16a7-4e9a-a6d3-9c211880e3b7"},"vehicle_type_id":"4","last_reported":1691431666,"current_range_meters":8000,"station_id":"ce4bh692rcd13ifvqea0","pricing_plan_id":"free"},{"bike_id":"bb2b4476-b34f-4e7c-ac31-efceced1691a","system_id":"levelo_inurba_marseille","lat":43.292644,"lon":5.384257,"is_reserved":false,"is_disabled":false,"rental_uris":{"android":"levelo://app?vid=bb2b4476-b34f-4e7c-ac31-efceced1691a","ios":"levelo://app?vid=bb2b4476-b34f-4e7c-ac31-efceced1691a"},"vehicle_type_id":"4","last_reported":1691431666,"current_range_meters":4000,"station_id":"ce4bh692rcd13ifvqea0","pricing_plan_id":"free"},{"bike_id":"39db1771-6a11-4b34-ad7c-7599fbc796bc","system_id":"levelo_inurba_marseille","lat":43.292644,"lon":5.384257,"is_reserved":false,"is_disabled":false,"rental_uris":{"android":"levelo://app?vid=39db1771-6a11-4b34-ad7c-7599fbc796bc","ios":"levelo://app?vid=39db1771-6a11-4b34-ad7c-7599fbc796bc"},"vehicle_type_id":"4","last_reported":1691431666,"current_range_meters":20800,"station_id":"ce4bh692rcd13ifvqea0","pricing_plan_id":"free"},{"bike_id":"464a1a94-7e89-4544-9db0-c5a813a402c0","system_id":"levelo_inurba_marseille","lat":43.292644,"lon":5.384257,"is_reserved":false,"is_disabled":false,"rental_uris":{"android":"levelo://app?vid=464a1a94-7e89-4544-9db0-c5a813a402c0","ios":"levelo://app?vid=464a1a94-7e89-4544-9db0-c5a813a402c0"},"vehicle_type_id":"4","last_reported":1691431666,"current_range_meters":16800,"station_id":"ce4bh692rcd13ifvqea0","pricing_plan_id":"free"},{"bike_id":"d1aad9eb-68c6-4588-bdb3-993ecf89bccf","system_id":"levelo_inurba_marseille","lat":43.292642,"lon":5.384254,"is_reserved":false,"is_disabled":false,"rental_uris":{"android":"levelo://app?vid=d1aad9eb-68c6-4588-bdb3-993ecf89bccf","ios":"levelo://app?vid=d1aad9eb-68c6-4588-bdb3-993ecf89bccf"},"vehicle_type_id":"4","last_reported":1691431666,"current_range_meters":28000,"station_id":"ce4bh692rcd13ifvqea0","pricing_plan_id":"free"},{"bike_id":"1b8f4f48-36ed-4447-901a-1560f65b091f","system_id":"levelo_inurba_marseille","lat":43.29261,"lon":5.38436,"is_reserved":false,"is_disabled":false,"rental_uris":{"android":"levelo://app?vid=1b8f4f48-36ed-4447-901a-1560f65b091f","ios":"levelo://app?vid=1b8f4f48-36ed-4447-901a-1560f65b091f"},"vehicle_type_id":"4","last_reported":1691431666,"current_range_meters":13200,"station_id":"","pricing_plan_id":"free"},{"bike_id":"0fd04a7e-90fd-4435-bcbd-a673abcca040","system_id":"levelo_inurba_marseille","lat":43.292644,"lon":5.384257,"is_reserved":false,"is_disabled":false,"rental_uris":{"android":"levelo://app?vid=0fd04a7e-90fd-4435-bcbd-a673abcca040","ios":"levelo://app?vid=0fd04a7e-90fd-4435-bcbd-a673abcca040"},"vehicle_type_id":"4","last_reported":1691431666,"current_range_meters":1200,"station_id":"ce4bh692rcd13ifvqea0","pricing_plan_id":"free"},{"bike_id":"88c74dd6-f665-421f-b953-67c68871aa2f","system_id":"levelo_inurba_marseille","lat":43.292644,"lon":5.384257,"is_reserved":false,"is_disabled":false,"rental_uris":{"android":"levelo://app?vid=88c74dd6-f665-421f-b953-67c68871aa2f","ios":"levelo://app?vid=88c74dd6-f665-421f-b953-67c68871aa2f"},"vehicle_type_id":"4","last_reported":1691431666,"current_range_meters":22000,"station_id":"ce4bh692rcd13ifvqea0","pricing_plan_id":"free"},{"bike_id":"a22dde8f-9d05-4e32-9bf5-c5831c4c3767","system_id":"levelo_inurba_marseille","lat":43.292644,"lon":5.384257,"is_reserved":false,"is_disabled":false,"rental_uris":{"android":"levelo://app?vid=a22dde8f-9d05-4e32-9bf5-c5831c4c3767","ios":"levelo://app?vid=a22dde8f-9d05-4e32-9bf5-c5831c4c3767"},"vehicle_type_id":"4","last_reported":1691431666,"current_range_meters":9200,"station_id":"ce4bh692rcd13ifvqea0","pricing_plan_id":"free"},{"bike_id":"8889722f-f92d-493c-9607-d9a5050d407a","system_id":"levelo_inurba_marseille","lat":43.29007,"lon":5.35622,"is_reserved":false,"is_disabled":false,"rental_uris":{"android":"levelo://app?vid=8889722f-f92d-493c-9607-d9a5050d407a","ios":"levelo://app?vid=8889722f-f92d-493c-9607-d9a5050d407a"},"vehicle_type_id":"4","last_reported":1691431666,"current_range_meters":24800,"station_id":"ce4bhb92rcd13ifvqen0","pricing_plan_id":"free"},{"bike_id":"c8a65f85-8e7d-4d37-ae6c-42965d3e32a9","system_id":"levelo_inurba_marseille","lat":43.330442,"lon":5.389148,"is_reserved":false,"is_disabled":false,"rental_uris":{"android":"levelo://app?vid=c8a65f85-8e7d-4d37-ae6c-42965d3e32a9","ios":"levelo://app?vid=c8a65f85-8e7d-4d37-ae6c-42965d3e32a9"},"vehicle_type_id":"4","last_reported":1691431666,"current_range_meters":18000,"station_id":"ce4bhr92rcd13ifvqhrg","pricing_plan_id":"free"},{"bike_id":"fedc45f1-018e-48c9-a84b-db9a2710b1a1","system_id":"levelo_inurba_marseille","lat":43.290104,"lon":5.356111,"is_reserved":false,"is_disabled":false,"rental_uris":{"android":"levelo://app?vid=fedc45f1-018e-48c9-a84b-db9a2710b1a1","ios":"levelo://app?vid=fedc45f1-018e-48c9-a84b-db9a2710b1a1"},"vehicle_type_id":"4","last_reported":1691431666,"current_range_meters":10800,"station_id":"ce4bhb92rcd13ifvqen0","pricing_plan_id":"free"},{"bike_id":"a615aedd-aa8f-4a1f-bbbe-c7c9e9062e0d","system_id":"levelo_inurba_marseille","lat":43.290104,"lon":5.356111,"is_reserved":false,"is_disabled":false,"rental_uris":{"android":"levelo://app?vid=a615aedd-aa8f-4a1f-bbbe-c7c9e9062e0d","ios":"levelo://app?vid=a615aedd-aa8f-4a1f-bbbe-c7c9e9062e0d"},"vehicle_type_id":"4","last_reported":1691431666,"current_range_meters":2800,"station_id":"ce4bhb92rcd13ifvqen0","pricing_plan_id":"free"},{"bike_id":"d92191b5-3897-428d-989c-4b986c7a7e64","system_id":"levelo_inurba_marseille","lat":43.29006,"lon":5.35606,"is_reserved":false,"is_disabled":false,"rental_uris":{"android":"levelo://app?vid=d92191b5-3897-428d-989c-4b986c7a7e64","ios":"levelo://app?vid=d92191b5-3897-428d-989c-4b986c7a7e64"},"vehicle_type_id":"4","last_reported":1691431666,"current_range_meters":14000,"station_id":"ce4bhb92rcd13ifvqen0","pricing_plan_id":"free"},{"bike_id":"5a6d34bf-04bd-4908-bc72-9dd513443a93","system_id":"levelo_inurba_marseille","lat":43.29004,"lon":5.35611,"is_reserved":false,"is_disabled":false,"rental_uris":{"android":"levelo://app?vid=5a6d34bf-04bd-4908-bc72-9dd513443a93","ios":"levelo://app?vid=5a6d34bf-04bd-4908-bc72-9dd513443a93"},"vehicle_type_id":"4","last_reported":1691431666,"current_range_meters":11600,"station_id":"ce4bhb92rcd13ifvqen0","pricing_plan_id":"free"},{"bike_id":"333ed88a-f31d-4953-86c1-c365ca2209e4","system_id":"levelo_inurba_marseille","lat":43.290104,"lon":5.356111,"is_reserved":false,"is_disabled":false,"rental_uris":{"android":"levelo://app?vid=333ed88a-f31d-4953-86c1-c365ca2209e4","ios":"levelo://app?vid=333ed88a-f31d-4953-86c1-c365ca2209e4"},"vehicle_type_id":"4","last_reported":1691431666,"current_range_meters":12000,"station_id":"ce4bhb92rcd13ifvqen0","pricing_plan_id":"free"},{"bike_id":"d9844ac8-cf4d-4146-bcee-4a4669854d57","system_id":"levelo_inurba_marseille","lat":43.290103,"lon":5.356114,"is_reserved":false,"is_disabled":false,"rental_uris":{"android":"levelo://app?vid=d9844ac8-cf4d-4146-bcee-4a4669854d57","ios":"levelo://app?vid=d9844ac8-cf4d-4146-bcee-4a4669854d57"},"vehicle_type_id":"4","last_reported":1691431666,"current_range_meters":2000,"station_id":"ce4bhb92rcd13ifvqen0","pricing_plan_id":"free"},{"bike_id":"78a1a5bb-1590-410b-a41c-786e430d786c","system_id":"levelo_inurba_marseille","lat":43.297815,"lon":5.393548,"is_reserved":false,"is_disabled":false,"rental_uris":{"android":"levelo://app?vid=78a1a5bb-1590-410b-a41c-786e430d786c","ios":"levelo://app?vid=78a1a5bb-1590-410b-a41c-786e430d786c"},"vehicle_type_id":"4","last_reported":1691431666,"current_range_meters":0,"station_id":"chh1huq6cuj3fo74tm60","pricing_plan_id":"free"},{"bike_id":"3644c668-425c-4672-9b36-33a5b1a9ce23","system_id":"levelo_inurba_marseille","lat":43.273613,"lon":5.362705,"is_reserved":false,"is_disabled":false,"rental_uris":{"android":"levelo://app?vid=3644c668-425c-4672-9b36-33a5b1a9ce23","ios":"levelo://app?vid=3644c668-425c-4672-9b36-33a5b1a9ce23"},"vehicle_type_id":"4","last_reported":1691431666,"current_range_meters":12000,"station_id":"ce4bhbh2rcd13ifvqeo0","pricing_plan_id":"free"},{"bike_id":"e1ea1ad6-5e9b-4bfb-9771-2e53844d5a73","system_id":"levelo_inurba_marseille","lat":43.29785,"lon":5.39338,"is_reserved":false,"is_disabled":false,"rental_uris":{"android":"levelo://app?vid=e1ea1ad6-5e9b-4bfb-9771-2e53844d5a73","ios":"levelo://app?vid=e1ea1ad6-5e9b-4bfb-9771-2e53844d5a73"},"vehicle_type_id":"4","last_reported":1691431666,"current_range_meters":7200,"station_id":"chh1huq6cuj3fo74tm60","pricing_plan_id":"free"},{"bike_id":"ac9d03cb-53c8-4f53-9ce9-6a00eeb1d170","system_id":"levelo_inurba_marseille","lat":43.295169,"lon":5.390426,"is_reserved":false,"is_disabled":false,"rental_uris":{"android":"levelo://app?vid=ac9d03cb-53c8-4f53-9ce9-6a00eeb1d170","ios":"levelo://app?vid=ac9d03cb-53c8-4f53-9ce9-6a00eeb1d170"},"vehicle_type_id":"4","last_reported":1691431666,"current_range_meters":5200,"station_id":"ce4bh3p2rcd13ifvqdp0","pricing_plan_id":"free"},{"bike_id":"0dd65405-b449-4ccf-8aa4-56aebe411d8b","system_id":"levelo_inurba_marseille","lat":43.29788,"lon":5.39343,"is_reserved":false,"is_disabled":false,"rental_uris":{"android":"levelo://app?vid=0dd65405-b449-4ccf-8aa4-56aebe411d8b","ios":"levelo://app?vid=0dd65405-b449-4ccf-8aa4-56aebe411d8b"},"vehicle_type_id":"4","last_reported":1691431666,"current_range_meters":7600,"station_id":"chh1huq6cuj3fo74tm60","pricing_plan_id":"free"},{"bike_id":"373ed71b-beb2-4b25-a682-28c5c7fa9b0a","system_id":"levelo_inurba_marseille","lat":43.297815,"lon":5.393548,"is_reserved":false,"is_disabled":false,"rental_uris":{"android":"levelo://app?vid=373ed71b-beb2-4b25-a682-28c5c7fa9b0a","ios":"levelo://app?vid=373ed71b-beb2-4b25-a682-28c5c7fa9b0a"},"vehicle_type_id":"4","last_reported":1691431666,"current_range_meters":14000,"station_id":"chh1huq6cuj3fo74tm60","pricing_plan_id":"free"},{"bike_id":"5486b30c-5b5c-41c2-ac9b-e0b220454332","system_id":"levelo_inurba_marseille","lat":43.295169,"lon":5.390426,"is_reserved":false,"is_disabled":false,"rental_uris":{"android":"levelo://app?vid=5486b30c-5b5c-41c2-ac9b-e0b220454332","ios":"levelo://app?vid=5486b30c-5b5c-41c2-ac9b-e0b220454332"},"vehicle_type_id":"4","last_reported":1691431666,"current_range_meters":15200,"station_id":"ce4bh3p2rcd13ifvqdp0","pricing_plan_id":"free"},{"bike_id":"86d660eb-b405-4e43-adc6-c29c586a1eb9","system_id":"levelo_inurba_marseille","lat":43.289741,"lon":5.378306,"is_reserved":false,"is_disabled":false,"rental_uris":{"android":"levelo://app?vid=86d660eb-b405-4e43-adc6-c29c586a1eb9","ios":"levelo://app?vid=86d660eb-b405-4e43-adc6-c29c586a1eb9"},"vehicle_type_id":"4","last_reported":1691431666,"current_range_meters":5600,"station_id":"ce4bh9p2rcd13ifvqed0","pricing_plan_id":"free"},{"bike_id":"96d6e23d-ecf8-41e3-88ab-b57d11f4b7c7","system_id":"levelo_inurba_marseille","lat":43.29012,"lon":5.38141,"is_reserved":false,"is_disabled":false,"rental_uris":{"android":"levelo://app?vid=96d6e23d-ecf8-41e3-88ab-b57d11f4b7c7","ios":"levelo://app?vid=96d6e23d-ecf8-41e3-88ab-b57d11f4b7c7"},"vehicle_type_id":"4","last_reported":1691431666,"current_range_meters":8400,"station_id":"ce4bh4p2rcd13ifvqe1g","pricing_plan_id":"free"},{"bike_id":"78331bc9-bd8b-476c-87dd-a4e57c40dc57","system_id":"levelo_inurba_marseille","lat":43.28855,"lon":5.35845,"is_reserved":false,"is_disabled":false,"rental_uris":{"android":"levelo://app?vid=78331bc9-bd8b-476c-87dd-a4e57c40dc57","ios":"levelo://app?vid=78331bc9-bd8b-476c-87dd-a4e57c40dc57"},"vehicle_type_id":"4","last_reported":1691431666,"current_range_meters":2800,"station_id":"ce4bhb12rcd13ifvqem0","pricing_plan_id":"free"},{"bike_id":"ceab0e6c-16aa-433c-85df-bea3479c39b4","system_id":"levelo_inurba_marseille","lat":43.28851,"lon":5.35842,"is_reserved":false,"is_disabled":false,"rental_uris":{"android":"levelo://app?vid=ceab0e6c-16aa-433c-85df-bea3479c39b4","ios":"levelo://app?vid=ceab0e6c-16aa-433c-85df-bea3479c39b4"},"vehicle_type_id":"4","last_reported":1691431666,"current_range_meters":22000,"station_id":"ce4bhb12rcd13ifvqem0","pricing_plan_id":"free"},{"bike_id":"faa05b54-80ff-40f9-beb3-64085fddf76b","system_id":"levelo_inurba_marseille","lat":43.33751,"lon":5.37421,"is_reserved":false,"is_disabled":false,"rental_uris":{"android":"levelo://app?vid=faa05b54-80ff-40f9-beb3-64085fddf76b","ios":"levelo://app?vid=faa05b54-80ff-40f9-beb3-64085fddf76b"},"vehicle_type_id":"4","last_reported":1691431666,"current_range_meters":19200,"station_id":"","pricing_plan_id":"free"},{"bike_id":"d11690cf-97bf-42c0-a29b-105cdbceeb52","system_id":"levelo_inurba_marseille","lat":43.30928,"lon":5.40145,"is_reserved":false,"is_disabled":false,"rental_uris":{"android":"levelo://app?vid=d11690cf-97bf-42c0-a29b-105cdbceeb52","ios":"levelo://app?vid=d11690cf-97bf-42c0-a29b-105cdbceeb52"},"vehicle_type_id":"4","last_reported":1691431666,"current_range_meters":4400,"station_id":"ce4bgvp2rcd13ifvqct0","pricing_plan_id":"free"},{"bike_id":"8ab71692-c22f-4337-b204-6b1b44cad865","system_id":"levelo_inurba_marseille","lat":43.33774,"lon":5.37427,"is_reserved":false,"is_disabled":false,"rental_uris":{"android":"levelo://app?vid=8ab71692-c22f-4337-b204-6b1b44cad865","ios":"levelo://app?vid=8ab71692-c22f-4337-b204-6b1b44cad865"},"vehicle_type_id":"4","last_reported":1691431666,"current_range_meters":28800,"station_id":"","pricing_plan_id":"free"},{"bike_id":"c98f39a4-0d2a-464e-b8ed-4972f4babb31","system_id":"levelo_inurba_marseille","lat":43.30643,"lon":5.40107,"is_reserved":false,"is_disabled":false,"rental_uris":{"android":"levelo://app?vid=c98f39a4-0d2a-464e-b8ed-4972f4babb31","ios":"levelo://app?vid=c98f39a4-0d2a-464e-b8ed-4972f4babb31"},"vehicle_type_id":"4","last_reported":1691431666,"current_range_meters":0,"station_id":"ce4bh112rcd13ifvqda0","pricing_plan_id":"free"},{"bike_id":"dbecfd06-9d26-4502-95d9-14a3875b760f","system_id":"levelo_inurba_marseille","lat":43.301117,"lon":5.398795,"is_reserved":false,"is_disabled":false,"rental_uris":{"android":"levelo://app?vid=dbecfd06-9d26-4502-95d9-14a3875b760f","ios":"levelo://app?vid=dbecfd06-9d26-4502-95d9-14a3875b760f"},"vehicle_type_id":"4","last_reported":1691431666,"current_range_meters":0,"station_id":"ce4bh0h2rcd13ifvqd40","pricing_plan_id":"free"},{"bike_id":"e6882515-bbbe-4ab9-b64b-c5218ae9de51","system_id":"levelo_inurba_marseille","lat":43.298681,"lon":5.397225,"is_reserved":false,"is_disabled":false,"rental_uris":{"android":"levelo://app?vid=e6882515-bbbe-4ab9-b64b-c5218ae9de51","ios":"levelo://app?vid=e6882515-bbbe-4ab9-b64b-c5218ae9de51"},"vehicle_type_id":"4","last_reported":1691431666,"current_range_meters":30800,"station_id":"ce4bh0h2rcd13ifvqd50","pricing_plan_id":"free"},{"bike_id":"a6bd8bc9-a96e-4a7b-8b9d-3cf7b2fee1bc","system_id":"levelo_inurba_marseille","lat":43.286961,"lon":5.373785,"is_reserved":false,"is_disabled":false,"rental_uris":{"android":"levelo://app?vid=a6bd8bc9-a96e-4a7b-8b9d-3cf7b2fee1bc","ios":"levelo://app?vid=a6bd8bc9-a96e-4a7b-8b9d-3cf7b2fee1bc"},"vehicle_type_id":"4","last_reported":1691431666,"current_range_meters":15600,"station_id":"ce4bh3p2rcd13ifvqdq0","pricing_plan_id":"free"},{"bike_id":"8fc37957-c58e-4d9f-818d-22d3086d7d89","system_id":"levelo_inurba_marseille","lat":43.29421,"lon":5.39245,"is_reserved":false,"is_disabled":false,"rental_uris":{"android":"levelo://app?vid=8fc37957-c58e-4d9f-818d-22d3086d7d89","ios":"levelo://app?vid=8fc37957-c58e-4d9f-818d-22d3086d7d89"},"vehicle_type_id":"4","last_reported":1691431666,"current_range_meters":17600,"station_id":"","pricing_plan_id":"free"},{"bike_id":"75199276-b705-4ad7-b6a9-49aeaa84628a","system_id":"levelo_inurba_marseille","lat":43.286591,"lon":5.363346,"is_reserved":false,"is_disabled":false,"rental_uris":{"android":"levelo://app?vid=75199276-b705-4ad7-b6a9-49aeaa84628a","ios":"levelo://app?vid=75199276-b705-4ad7-b6a9-49aeaa84628a"},"vehicle_type_id":"4","last_reported":1691431666,"current_range_meters":31600,"station_id":"ce4bhah2rcd13ifvqej0","pricing_plan_id":"free"},{"bike_id":"1b194da9-7a12-4957-87f2-32d674db1de7","system_id":"levelo_inurba_marseille","lat":43.295196,"lon":5.39397,"is_reserved":false,"is_disabled":false,"rental_uris":{"android":"levelo://app?vid=1b194da9-7a12-4957-87f2-32d674db1de7","ios":"levelo://app?vid=1b194da9-7a12-4957-87f2-32d674db1de7"},"vehicle_type_id":"4","last_reported":1691431666,"current_range_meters":16400,"station_id":"ce4bh292rcd13ifvqdf0","pricing_plan_id":"free"},{"bike_id":"a181611a-c21c-4fc9-aacc-25bf51ef9b08","system_id":"levelo_inurba_marseille","lat":43.286961,"lon":5.373785,"is_reserved":false,"is_disabled":false,"rental_uris":{"android":"levelo://app?vid=a181611a-c21c-4fc9-aacc-25bf51ef9b08","ios":"levelo://app?vid=a181611a-c21c-4fc9-aacc-25bf51ef9b08"},"vehicle_type_id":"4","last_reported":1691431666,"current_range_meters":24000,"station_id":"ce4bh3p2rcd13ifvqdq0","pricing_plan_id":"free"},{"bike_id":"a041aafa-e05c-4e13-bdb0-6ddefd2a9aee","system_id":"levelo_inurba_marseille","lat":43.286961,"lon":5.373785,"is_reserved":false,"is_disabled":false,"rental_uris":{"android":"levelo://app?vid=a041aafa-e05c-4e13-bdb0-6ddefd2a9aee","ios":"levelo://app?vid=a041aafa-e05c-4e13-bdb0-6ddefd2a9aee"},"vehicle_type_id":"4","last_reported":1691431666,"current_range_meters":30800,"station_id":"ce4bh3p2rcd13ifvqdq0","pricing_plan_id":"free"},{"bike_id":"db43f128-e3e9-440c-a6ce-f7a99af5f1f3","system_id":"levelo_inurba_marseille","lat":43.295194,"lon":5.39397,"is_reserved":false,"is_disabled":false,"rental_uris":{"android":"levelo://app?vid=db43f128-e3e9-440c-a6ce-f7a99af5f1f3","ios":"levelo://app?vid=db43f128-e3e9-440c-a6ce-f7a99af5f1f3"},"vehicle_type_id":"4","last_reported":1691431666,"current_range_meters":4400,"station_id":"ce4bh292rcd13ifvqdf0","pricing_plan_id":"free"},{"bike_id":"ab1d49f1-8fe4-426f-a4f3-034ea5727c35","system_id":"levelo_inurba_marseille","lat":43.295194,"lon":5.39397,"is_reserved":false,"is_disabled":false,"rental_uris":{"android":"levelo://app?vid=ab1d49f1-8fe4-426f-a4f3-034ea5727c35","ios":"levelo://app?vid=ab1d49f1-8fe4-426f-a4f3-034ea5727c35"},"vehicle_type_id":"4","last_reported":1691431666,"current_range_meters":19200,"station_id":"ce4bh292rcd13ifvqdf0","pricing_plan_id":"free"},{"bike_id":"7b9e2d57-7c2f-4652-8ec0-ee4d147afe24","system_id":"levelo_inurba_marseille","lat":43.302548,"lon":5.400568,"is_reserved":false,"is_disabled":false,"rental_uris":{"android":"levelo://app?vid=7b9e2d57-7c2f-4652-8ec0-ee4d147afe24","ios":"levelo://app?vid=7b9e2d57-7c2f-4652-8ec0-ee4d147afe24"},"vehicle_type_id":"4","last_reported":1691431666,"current_range_meters":2400,"station_id":"","pricing_plan_id":"free"},{"bike_id":"2eb0fd59-977e-444a-a75a-7e4fbdde2280","system_id":"levelo_inurba_marseille","lat":43.290345,"lon":5.38646,"is_reserved":false,"is_disabled":false,"rental_uris":{"android":"levelo://app?vid=2eb0fd59-977e-444a-a75a-7e4fbdde2280","ios":"levelo://app?vid=2eb0fd59-977e-444a-a75a-7e4fbdde2280"},"vehicle_type_id":"4","last_reported":1691431666,"current_range_meters":20800,"station_id":"ce4bh4p2rcd13ifvqe0g","pricing_plan_id":"free"},{"bike_id":"863f9863-cfe6-42f7-8204-06d78d0b4fa7","system_id":"levelo_inurba_marseille","lat":43.286039,"lon":5.370679,"is_reserved":false,"is_disabled":false,"rental_uris":{"android":"levelo://app?vid=863f9863-cfe6-42f7-8204-06d78d0b4fa7","ios":"levelo://app?vid=863f9863-cfe6-42f7-8204-06d78d0b4fa7"},"vehicle_type_id":"4","last_reported":1691431666,"current_range_meters":27200,"station_id":"ce4bht12rcd13ifvqi60","pricing_plan_id":"free"},{"bike_id":"9f7195ce-f428-44cd-949b-568dddc7847e","system_id":"levelo_inurba_marseille","lat":43.286039,"lon":5.370679,"is_reserved":false,"is_disabled":false,"rental_uris":{"android":"levelo://app?vid=9f7195ce-f428-44cd-949b-568dddc7847e","ios":"levelo://app?vid=9f7195ce-f428-44cd-949b-568dddc7847e"},"vehicle_type_id":"4","last_reported":1691431666,"current_range_meters":29200,"station_id":"ce4bht12rcd13ifvqi60","pricing_plan_id":"free"},{"bike_id":"878b0671-ded1-4b86-81d0-e438155804ca","system_id":"levelo_inurba_marseille","lat":43.286039,"lon":5.370681,"is_reserved":false,"is_disabled":false,"rental_uris":{"android":"levelo://app?vid=878b0671-ded1-4b86-81d0-e438155804ca","ios":"levelo://app?vid=878b0671-ded1-4b86-81d0-e438155804ca"},"vehicle_type_id":"4","last_reported":1691431666,"current_range_meters":24000,"station_id":"ce4bht12rcd13ifvqi60","pricing_plan_id":"free"},{"bike_id":"1a474f1a-e2e8-4fe1-9ee7-85b9f5376d66","system_id":"levelo_inurba_marseille","lat":43.286039,"lon":5.370679,"is_reserved":false,"is_disabled":false,"rental_uris":{"android":"levelo://app?vid=1a474f1a-e2e8-4fe1-9ee7-85b9f5376d66","ios":"levelo://app?vid=1a474f1a-e2e8-4fe1-9ee7-85b9f5376d66"},"vehicle_type_id":"4","last_reported":1691431666,"current_range_meters":31600,"station_id":"ce4bht12rcd13ifvqi60","pricing_plan_id":"free"},{"bike_id":"cef63723-767f-402d-837c-01ef27578578","system_id":"levelo_inurba_marseille","lat":43.287184,"lon":5.37937,"is_reserved":false,"is_disabled":false,"rental_uris":{"android":"levelo://app?vid=cef63723-767f-402d-837c-01ef27578578","ios":"levelo://app?vid=cef63723-767f-402d-837c-01ef27578578"},"vehicle_type_id":"4","last_reported":1691431666,"current_range_meters":16000,"station_id":"ce4bh9p2rcd13ifvqec0","pricing_plan_id":"free"},{"bike_id":"12a26d8e-285f-4a3b-b447-3229cf77c984","system_id":"levelo_inurba_marseille","lat":43.31641,"lon":5.40427,"is_reserved":false,"is_disabled":false,"rental_uris":{"android":"levelo://app?vid=12a26d8e-285f-4a3b-b447-3229cf77c984","ios":"levelo://app?vid=12a26d8e-285f-4a3b-b447-3229cf77c984"},"vehicle_type_id":"4","last_reported":1691431666,"current_range_meters":27200,"station_id":"ce4bh012rcd13ifvqd00","pricing_plan_id":"free"},{"bike_id":"31682d5c-fb13-465b-9f7f-1afd8203d238","system_id":"levelo_inurba_marseille","lat":43.31649,"lon":5.40429,"is_reserved":false,"is_disabled":false,"rental_uris":{"android":"levelo://app?vid=31682d5c-fb13-465b-9f7f-1afd8203d238","ios":"levelo://app?vid=31682d5c-fb13-465b-9f7f-1afd8203d238"},"vehicle_type_id":"4","last_reported":1691431666,"current_range_meters":30400,"station_id":"ce4bh012rcd13ifvqd00","pricing_plan_id":"free"},{"bike_id":"eaec028b-b109-43f3-8ca2-d39725d5601a","system_id":"levelo_inurba_marseille","lat":43.31649,"lon":5.40429,"is_reserved":false,"is_disabled":false,"rental_uris":{"android":"levelo://app?vid=eaec028b-b109-43f3-8ca2-d39725d5601a","ios":"levelo://app?vid=eaec028b-b109-43f3-8ca2-d39725d5601a"},"vehicle_type_id":"4","last_reported":1691431666,"current_range_meters":18400,"station_id":"ce4bh012rcd13ifvqd00","pricing_plan_id":"free"},{"bike_id":"64cc1f04-2ec6-4a5f-8638-d30525d3f4a8","system_id":"levelo_inurba_marseille","lat":43.316517,"lon":5.404375,"is_reserved":false,"is_disabled":false,"rental_uris":{"android":"levelo://app?vid=64cc1f04-2ec6-4a5f-8638-d30525d3f4a8","ios":"levelo://app?vid=64cc1f04-2ec6-4a5f-8638-d30525d3f4a8"},"vehicle_type_id":"4","last_reported":1691431666,"current_range_meters":30400,"station_id":"ce4bh012rcd13ifvqd00","pricing_plan_id":"free"},{"bike_id":"0238288f-0a11-4978-83ca-aa8bcde3e3f6","system_id":"levelo_inurba_marseille","lat":43.31645,"lon":5.40432,"is_reserved":false,"is_disabled":false,"rental_uris":{"android":"levelo://app?vid=0238288f-0a11-4978-83ca-aa8bcde3e3f6","ios":"levelo://app?vid=0238288f-0a11-4978-83ca-aa8bcde3e3f6"},"vehicle_type_id":"4","last_reported":1691431666,"current_range_meters":27600,"station_id":"ce4bh012rcd13ifvqd00","pricing_plan_id":"free"},{"bike_id":"c7e983fb-690a-471b-b033-292c7e7289c8","system_id":"levelo_inurba_marseille","lat":43.316517,"lon":5.404375,"is_reserved":false,"is_disabled":false,"rental_uris":{"android":"levelo://app?vid=c7e983fb-690a-471b-b033-292c7e7289c8","ios":"levelo://app?vid=c7e983fb-690a-471b-b033-292c7e7289c8"},"vehicle_type_id":"4","last_reported":1691431666,"current_range_meters":17600,"station_id":"ce4bh012rcd13ifvqd00","pricing_plan_id":"free"},{"bike_id":"b219f7ef-924a-4dd3-b5b3-b068652ff2c2","system_id":"levelo_inurba_marseille","lat":43.3165,"lon":5.40432,"is_reserved":false,"is_disabled":false,"rental_uris":{"android":"levelo://app?vid=b219f7ef-924a-4dd3-b5b3-b068652ff2c2","ios":"levelo://app?vid=b219f7ef-924a-4dd3-b5b3-b068652ff2c2"},"vehicle_type_id":"4","last_reported":1691431666,"current_range_meters":2000,"station_id":"ce4bh012rcd13ifvqd00","pricing_plan_id":"free"},{"bike_id":"db6c8fbd-431c-4cfc-a31f-9f1f15fe3b31","system_id":"levelo_inurba_marseille","lat":43.316517,"lon":5.404375,"is_reserved":false,"is_disabled":false,"rental_uris":{"android":"levelo://app?vid=db6c8fbd-431c-4cfc-a31f-9f1f15fe3b31","ios":"levelo://app?vid=db6c8fbd-431c-4cfc-a31f-9f1f15fe3b31"},"vehicle_type_id":"4","last_reported":1691431666,"current_range_meters":30800,"station_id":"ce4bh012rcd13ifvqd00","pricing_plan_id":"free"},{"bike_id":"89696661-9fc5-4e30-b38b-ce2ab61d936f","system_id":"levelo_inurba_marseille","lat":43.316517,"lon":5.404375,"is_reserved":false,"is_disabled":false,"rental_uris":{"android":"levelo://app?vid=89696661-9fc5-4e30-b38b-ce2ab61d936f","ios":"levelo://app?vid=89696661-9fc5-4e30-b38b-ce2ab61d936f"},"vehicle_type_id":"4","last_reported":1691431666,"current_range_meters":31200,"station_id":"ce4bh012rcd13ifvqd00","pricing_plan_id":"free"},{"bike_id":"11327d1c-8937-422b-b963-0f9ddf721f1b","system_id":"levelo_inurba_marseille","lat":43.31645,"lon":5.40435,"is_reserved":false,"is_disabled":false,"rental_uris":{"android":"levelo://app?vid=11327d1c-8937-422b-b963-0f9ddf721f1b","ios":"levelo://app?vid=11327d1c-8937-422b-b963-0f9ddf721f1b"},"vehicle_type_id":"4","last_reported":1691431666,"current_range_meters":28800,"station_id":"ce4bh012rcd13ifvqd00","pricing_plan_id":"free"},{"bike_id":"bba81357-e5cd-4a06-9bea-3e5b69789465","system_id":"levelo_inurba_marseille","lat":43.316517,"lon":5.404375,"is_reserved":false,"is_disabled":false,"rental_uris":{"android":"levelo://app?vid=bba81357-e5cd-4a06-9bea-3e5b69789465","ios":"levelo://app?vid=bba81357-e5cd-4a06-9bea-3e5b69789465"},"vehicle_type_id":"4","last_reported":1691431666,"current_range_meters":28400,"station_id":"ce4bh012rcd13ifvqd00","pricing_plan_id":"free"},{"bike_id":"93c542a7-0a44-4c60-9997-7ce8c089f8cd","system_id":"levelo_inurba_marseille","lat":43.3165,"lon":5.40435,"is_reserved":false,"is_disabled":false,"rental_uris":{"android":"levelo://app?vid=93c542a7-0a44-4c60-9997-7ce8c089f8cd","ios":"levelo://app?vid=93c542a7-0a44-4c60-9997-7ce8c089f8cd"},"vehicle_type_id":"4","last_reported":1691431666,"current_range_meters":24800,"station_id":"ce4bh012rcd13ifvqd00","pricing_plan_id":"free"},{"bike_id":"a2c32661-2c8b-4ac3-9625-e2734fe83214","system_id":"levelo_inurba_marseille","lat":43.316517,"lon":5.404375,"is_reserved":false,"is_disabled":false,"rental_uris":{"android":"levelo://app?vid=a2c32661-2c8b-4ac3-9625-e2734fe83214","ios":"levelo://app?vid=a2c32661-2c8b-4ac3-9625-e2734fe83214"},"vehicle_type_id":"4","last_reported":1691431666,"current_range_meters":29600,"station_id":"ce4bh012rcd13ifvqd00","pricing_plan_id":"free"},{"bike_id":"bc358dd4-0e4f-4588-a58b-3e155cfb12ad","system_id":"levelo_inurba_marseille","lat":43.31649,"lon":5.40436,"is_reserved":false,"is_disabled":false,"rental_uris":{"android":"levelo://app?vid=bc358dd4-0e4f-4588-a58b-3e155cfb12ad","ios":"levelo://app?vid=bc358dd4-0e4f-4588-a58b-3e155cfb12ad"},"vehicle_type_id":"4","last_reported":1691431666,"current_range_meters":0,"station_id":"ce4bh012rcd13ifvqd00","pricing_plan_id":"free"},{"bike_id":"18da9808-bd65-47c0-9b20-682656c752bd","system_id":"levelo_inurba_marseille","lat":43.31649,"lon":5.40436,"is_reserved":false,"is_disabled":false,"rental_uris":{"android":"levelo://app?vid=18da9808-bd65-47c0-9b20-682656c752bd","ios":"levelo://app?vid=18da9808-bd65-47c0-9b20-682656c752bd"},"vehicle_type_id":"4","last_reported":1691431666,"current_range_meters":30800,"station_id":"ce4bh012rcd13ifvqd00","pricing_plan_id":"free"},{"bike_id":"39aa1114-e07d-4b76-bda8-591777b9c48a","system_id":"levelo_inurba_marseille","lat":43.316517,"lon":5.404375,"is_reserved":false,"is_disabled":false,"rental_uris":{"android":"levelo://app?vid=39aa1114-e07d-4b76-bda8-591777b9c48a","ios":"levelo://app?vid=39aa1114-e07d-4b76-bda8-591777b9c48a"},"vehicle_type_id":"4","last_reported":1691431666,"current_range_meters":26400,"station_id":"ce4bh012rcd13ifvqd00","pricing_plan_id":"free"},{"bike_id":"5309e508-058f-48dd-9af5-7c09a9e1c711","system_id":"levelo_inurba_marseille","lat":43.291994,"lon":5.392907,"is_reserved":false,"is_disabled":false,"rental_uris":{"android":"levelo://app?vid=5309e508-058f-48dd-9af5-7c09a9e1c711","ios":"levelo://app?vid=5309e508-058f-48dd-9af5-7c09a9e1c711"},"vehicle_type_id":"4","last_reported":1691431666,"current_range_meters":11200,"station_id":"ce4bh192rcd13ifvqdd0","pricing_plan_id":"free"},{"bike_id":"dc6ef6b1-8a17-4583-b58e-768dc1bb19dc","system_id":"levelo_inurba_marseille","lat":43.291994,"lon":5.392907,"is_reserved":false,"is_disabled":false,"rental_uris":{"android":"levelo://app?vid=dc6ef6b1-8a17-4583-b58e-768dc1bb19dc","ios":"levelo://app?vid=dc6ef6b1-8a17-4583-b58e-768dc1bb19dc"},"vehicle_type_id":"4","last_reported":1691431666,"current_range_meters":31600,"station_id":"ce4bh192rcd13ifvqdd0","pricing_plan_id":"free"},{"bike_id":"c1c0e7fd-aac8-4975-ad9e-10417149bb04","system_id":"levelo_inurba_marseille","lat":43.291994,"lon":5.392907,"is_reserved":false,"is_disabled":false,"rental_uris":{"android":"levelo://app?vid=c1c0e7fd-aac8-4975-ad9e-10417149bb04","ios":"levelo://app?vid=c1c0e7fd-aac8-4975-ad9e-10417149bb04"},"vehicle_type_id":"4","last_reported":1691431666,"current_range_meters":17600,"station_id":"ce4bh192rcd13ifvqdd0","pricing_plan_id":"free"},{"bike_id":"1942cdaa-ea5c-4782-99c5-93b4e1817f69","system_id":"levelo_inurba_marseille","lat":43.291994,"lon":5.392907,"is_reserved":false,"is_disabled":false,"rental_uris":{"android":"levelo://app?vid=1942cdaa-ea5c-4782-99c5-93b4e1817f69","ios":"levelo://app?vid=1942cdaa-ea5c-4782-99c5-93b4e1817f69"},"vehicle_type_id":"4","last_reported":1691431666,"current_range_meters":11600,"station_id":"ce4bh192rcd13ifvqdd0","pricing_plan_id":"free"},{"bike_id":"2a07ef3b-22e3-43af-8af5-369dbce2cf45","system_id":"levelo_inurba_marseille","lat":43.291994,"lon":5.392907,"is_reserved":false,"is_disabled":false,"rental_uris":{"android":"levelo://app?vid=2a07ef3b-22e3-43af-8af5-369dbce2cf45","ios":"levelo://app?vid=2a07ef3b-22e3-43af-8af5-369dbce2cf45"},"vehicle_type_id":"4","last_reported":1691431666,"current_range_meters":31600,"station_id":"ce4bh192rcd13ifvqdd0","pricing_plan_id":"free"},{"bike_id":"dc5ad6a6-8610-4b53-9b1d-5e032df23211","system_id":"levelo_inurba_marseille","lat":43.284538,"lon":5.358657,"is_reserved":false,"is_disabled":false,"rental_uris":{"android":"levelo://app?vid=dc5ad6a6-8610-4b53-9b1d-5e032df23211","ios":"levelo://app?vid=dc5ad6a6-8610-4b53-9b1d-5e032df23211"},"vehicle_type_id":"4","last_reported":1691431666,"current_range_meters":4800,"station_id":"ce4bhah2rcd13ifvqei0","pricing_plan_id":"free"},{"bike_id":"8ad77042-a07b-4dd0-ab2a-b4f26a849585","system_id":"levelo_inurba_marseille","lat":43.284538,"lon":5.358657,"is_reserved":false,"is_disabled":false,"rental_uris":{"android":"levelo://app?vid=8ad77042-a07b-4dd0-ab2a-b4f26a849585","ios":"levelo://app?vid=8ad77042-a07b-4dd0-ab2a-b4f26a849585"},"vehicle_type_id":"4","last_reported":1691431666,"current_range_meters":15600,"station_id":"ce4bhah2rcd13ifvqei0","pricing_plan_id":"free"},{"bike_id":"1f20bec9-dba9-4577-8e96-c68e51cc8b87","system_id":"levelo_inurba_marseille","lat":43.284538,"lon":5.358657,"is_reserved":false,"is_disabled":false,"rental_uris":{"android":"levelo://app?vid=1f20bec9-dba9-4577-8e96-c68e51cc8b87","ios":"levelo://app?vid=1f20bec9-dba9-4577-8e96-c68e51cc8b87"},"vehicle_type_id":"4","last_reported":1691431666,"current_range_meters":25200,"station_id":"ce4bhah2rcd13ifvqei0","pricing_plan_id":"free"},{"bike_id":"7e779372-b108-46aa-9875-6f8cd660f231","system_id":"levelo_inurba_marseille","lat":43.284538,"lon":5.358657,"is_reserved":false,"is_disabled":false,"rental_uris":{"android":"levelo://app?vid=7e779372-b108-46aa-9875-6f8cd660f231","ios":"levelo://app?vid=7e779372-b108-46aa-9875-6f8cd660f231"},"vehicle_type_id":"4","last_reported":1691431666,"current_range_meters":9200,"station_id":"ce4bhah2rcd13ifvqei0","pricing_plan_id":"free"},{"bike_id":"5ca23fd0-4791-4091-a018-88c0cba48dbe","system_id":"levelo_inurba_marseille","lat":43.284538,"lon":5.358657,"is_reserved":false,"is_disabled":false,"rental_uris":{"android":"levelo://app?vid=5ca23fd0-4791-4091-a018-88c0cba48dbe","ios":"levelo://app?vid=5ca23fd0-4791-4091-a018-88c0cba48dbe"},"vehicle_type_id":"4","last_reported":1691431666,"current_range_meters":15200,"station_id":"ce4bhah2rcd13ifvqei0","pricing_plan_id":"free"},{"bike_id":"7b78d55e-e99c-4fa7-968a-c672d6912f00","system_id":"levelo_inurba_marseille","lat":43.28458,"lon":5.35896,"is_reserved":false,"is_disabled":false,"rental_uris":{"android":"levelo://app?vid=7b78d55e-e99c-4fa7-968a-c672d6912f00","ios":"levelo://app?vid=7b78d55e-e99c-4fa7-968a-c672d6912f00"},"vehicle_type_id":"4","last_reported":1691431666,"current_range_meters":31200,"station_id":"ce4bhah2rcd13ifvqei0","pricing_plan_id":"free"},{"bike_id":"01535868-c7b1-4ebd-9133-8c3889bc92f2","system_id":"levelo_inurba_marseille","lat":43.32896,"lon":5.39956,"is_reserved":false,"is_disabled":false,"rental_uris":{"android":"levelo://app?vid=01535868-c7b1-4ebd-9133-8c3889bc92f2","ios":"levelo://app?vid=01535868-c7b1-4ebd-9133-8c3889bc92f2"},"vehicle_type_id":"4","last_reported":1691431666,"current_range_meters":6400,"station_id":"","pricing_plan_id":"free"},{"bike_id":"4f9b566b-8a6a-4aa4-89dc-f1ca3c3928da","system_id":"levelo_inurba_marseille","lat":43.294314,"lon":5.397498,"is_reserved":false,"is_disabled":false,"rental_uris":{"android":"levelo://app?vid=4f9b566b-8a6a-4aa4-89dc-f1ca3c3928da","ios":"levelo://app?vid=4f9b566b-8a6a-4aa4-89dc-f1ca3c3928da"},"vehicle_type_id":"4","last_reported":1691431666,"current_range_meters":10800,"station_id":"ce4bh3h2rcd13ifvqdo0","pricing_plan_id":"free"},{"bike_id":"c9f1e28e-16b4-4791-801e-1b0184290911","system_id":"levelo_inurba_marseille","lat":43.285856,"lon":5.350771,"is_reserved":false,"is_disabled":false,"rental_uris":{"android":"levelo://app?vid=c9f1e28e-16b4-4791-801e-1b0184290911","ios":"levelo://app?vid=c9f1e28e-16b4-4791-801e-1b0184290911"},"vehicle_type_id":"4","last_reported":1691431666,"current_range_meters":6000,"station_id":"ce4bhch2rcd13ifvqeug","pricing_plan_id":"free"},{"bike_id":"11e766a7-e9b9-4a64-b91b-a3ed7e320a24","system_id":"levelo_inurba_marseille","lat":43.285856,"lon":5.350771,"is_reserved":false,"is_disabled":false,"rental_uris":{"android":"levelo://app?vid=11e766a7-e9b9-4a64-b91b-a3ed7e320a24","ios":"levelo://app?vid=11e766a7-e9b9-4a64-b91b-a3ed7e320a24"},"vehicle_type_id":"4","last_reported":1691431666,"current_range_meters":20000,"station_id":"ce4bhch2rcd13ifvqeug","pricing_plan_id":"free"},{"bike_id":"e8c25350-7cd5-4915-8a19-15c6e25dce76","system_id":"levelo_inurba_marseille","lat":43.285856,"lon":5.350771,"is_reserved":false,"is_disabled":false,"rental_uris":{"android":"levelo://app?vid=e8c25350-7cd5-4915-8a19-15c6e25dce76","ios":"levelo://app?vid=e8c25350-7cd5-4915-8a19-15c6e25dce76"},"vehicle_type_id":"4","last_reported":1691431666,"current_range_meters":7600,"station_id":"ce4bhch2rcd13ifvqeug","pricing_plan_id":"free"},{"bike_id":"ae0ae41e-3ec0-478c-af9f-bd5e0e625fe7","system_id":"levelo_inurba_marseille","lat":43.28414,"lon":5.37516,"is_reserved":false,"is_disabled":false,"rental_uris":{"android":"levelo://app?vid=ae0ae41e-3ec0-478c-af9f-bd5e0e625fe7","ios":"levelo://app?vid=ae0ae41e-3ec0-478c-af9f-bd5e0e625fe7"},"vehicle_type_id":"4","last_reported":1691431666,"current_range_meters":16000,"station_id":"ce4bh412rcd13ifvqds0","pricing_plan_id":"free"},{"bike_id":"845e398f-ee11-4b03-88fa-02f376c07dcb","system_id":"levelo_inurba_marseille","lat":43.28413,"lon":5.37521,"is_reserved":false,"is_disabled":false,"rental_uris":{"android":"levelo://app?vid=845e398f-ee11-4b03-88fa-02f376c07dcb","ios":"levelo://app?vid=845e398f-ee11-4b03-88fa-02f376c07dcb"},"vehicle_type_id":"4","last_reported":1691431666,"current_range_meters":24400,"station_id":"ce4bh412rcd13ifvqds0","pricing_plan_id":"free"},{"bike_id":"2f1b9dd7-d1ef-4eb2-a46b-00f372a965ff","system_id":"levelo_inurba_marseille","lat":43.283998,"lon":5.375062,"is_reserved":false,"is_disabled":false,"rental_uris":{"android":"levelo://app?vid=2f1b9dd7-d1ef-4eb2-a46b-00f372a965ff","ios":"levelo://app?vid=2f1b9dd7-d1ef-4eb2-a46b-00f372a965ff"},"vehicle_type_id":"4","last_reported":1691431666,"current_range_meters":5600,"station_id":"ce4bh412rcd13ifvqds0","pricing_plan_id":"free"},{"bike_id":"0d562108-24f2-470d-9b60-f45e0edee1d6","system_id":"levelo_inurba_marseille","lat":43.28406,"lon":5.37508,"is_reserved":false,"is_disabled":false,"rental_uris":{"android":"levelo://app?vid=0d562108-24f2-470d-9b60-f45e0edee1d6","ios":"levelo://app?vid=0d562108-24f2-470d-9b60-f45e0edee1d6"},"vehicle_type_id":"4","last_reported":1691431666,"current_range_meters":15200,"station_id":"ce4bh412rcd13ifvqds0","pricing_plan_id":"free"},{"bike_id":"b278d6f3-843b-4886-9c0c-be68d3106c52","system_id":"levelo_inurba_marseille","lat":43.28404,"lon":5.3752,"is_reserved":false,"is_disabled":false,"rental_uris":{"android":"levelo://app?vid=b278d6f3-843b-4886-9c0c-be68d3106c52","ios":"levelo://app?vid=b278d6f3-843b-4886-9c0c-be68d3106c52"},"vehicle_type_id":"4","last_reported":1691431666,"current_range_meters":11600,"station_id":"ce4bh412rcd13ifvqds0","pricing_plan_id":"free"},{"bike_id":"7f070500-2937-40f9-a480-923ff5ff3e33","system_id":"levelo_inurba_marseille","lat":43.31888,"lon":5.40731,"is_reserved":false,"is_disabled":false,"rental_uris":{"android":"levelo://app?vid=7f070500-2937-40f9-a480-923ff5ff3e33","ios":"levelo://app?vid=7f070500-2937-40f9-a480-923ff5ff3e33"},"vehicle_type_id":"4","last_reported":1691431666,"current_range_meters":14800,"station_id":"ce4bhq12rcd13ifvqhig","pricing_plan_id":"free"},{"bike_id":"77c3ed22-05a7-47f6-aa25-db3329f72ae1","system_id":"levelo_inurba_marseille","lat":43.31886,"lon":5.40739,"is_reserved":false,"is_disabled":false,"rental_uris":{"android":"levelo://app?vid=77c3ed22-05a7-47f6-aa25-db3329f72ae1","ios":"levelo://app?vid=77c3ed22-05a7-47f6-aa25-db3329f72ae1"},"vehicle_type_id":"4","last_reported":1691431666,"current_range_meters":18800,"station_id":"ce4bhq12rcd13ifvqhig","pricing_plan_id":"free"},{"bike_id":"e6718a1b-850e-4ed7-ae2a-64fcbafe5f04","system_id":"levelo_inurba_marseille","lat":43.33717,"lon":5.391857,"is_reserved":false,"is_disabled":false,"rental_uris":{"android":"levelo://app?vid=e6718a1b-850e-4ed7-ae2a-64fcbafe5f04","ios":"levelo://app?vid=e6718a1b-850e-4ed7-ae2a-64fcbafe5f04"},"vehicle_type_id":"4","last_reported":1691431666,"current_range_meters":11200,"station_id":"ce4bhr92rcd13ifvqhsg","pricing_plan_id":"free"},{"bike_id":"9d8dc018-8295-487e-aae9-79ce0f469cdf","system_id":"levelo_inurba_marseille","lat":43.33717,"lon":5.391857,"is_reserved":false,"is_disabled":false,"rental_uris":{"android":"levelo://app?vid=9d8dc018-8295-487e-aae9-79ce0f469cdf","ios":"levelo://app?vid=9d8dc018-8295-487e-aae9-79ce0f469cdf"},"vehicle_type_id":"4","last_reported":1691431666,"current_range_meters":30400,"station_id":"ce4bhr92rcd13ifvqhsg","pricing_plan_id":"free"},{"bike_id":"5013fe25-eb39-4f38-9843-492a7ac53ac8","system_id":"levelo_inurba_marseille","lat":43.3372,"lon":5.39191,"is_reserved":false,"is_disabled":false,"rental_uris":{"android":"levelo://app?vid=5013fe25-eb39-4f38-9843-492a7ac53ac8","ios":"levelo://app?vid=5013fe25-eb39-4f38-9843-492a7ac53ac8"},"vehicle_type_id":"4","last_reported":1691431666,"current_range_meters":23200,"station_id":"ce4bhr92rcd13ifvqhsg","pricing_plan_id":"free"},{"bike_id":"65e7209e-43de-4472-85bf-edccad84c81f","system_id":"levelo_inurba_marseille","lat":43.33728,"lon":5.39183,"is_reserved":false,"is_disabled":false,"rental_uris":{"android":"levelo://app?vid=65e7209e-43de-4472-85bf-edccad84c81f","ios":"levelo://app?vid=65e7209e-43de-4472-85bf-edccad84c81f"},"vehicle_type_id":"4","last_reported":1691431666,"current_range_meters":11200,"station_id":"ce4bhr92rcd13ifvqhsg","pricing_plan_id":"free"},{"bike_id":"5221f333-a5db-4967-89ab-86a0b2977f0a","system_id":"levelo_inurba_marseille","lat":43.323464,"lon":5.406297,"is_reserved":false,"is_disabled":false,"rental_uris":{"android":"levelo://app?vid=5221f333-a5db-4967-89ab-86a0b2977f0a","ios":"levelo://app?vid=5221f333-a5db-4967-89ab-86a0b2977f0a"},"vehicle_type_id":"4","last_reported":1691431666,"current_range_meters":9600,"station_id":"ce4bhq92rcd13ifvqhjg","pricing_plan_id":"free"},{"bike_id":"4fc08d5c-571f-4389-8ba6-2a6dcac58d61","system_id":"levelo_inurba_marseille","lat":43.33727,"lon":5.39193,"is_reserved":false,"is_disabled":false,"rental_uris":{"android":"levelo://app?vid=4fc08d5c-571f-4389-8ba6-2a6dcac58d61","ios":"levelo://app?vid=4fc08d5c-571f-4389-8ba6-2a6dcac58d61"},"vehicle_type_id":"4","last_reported":1691431666,"current_range_meters":16400,"station_id":"ce4bhr92rcd13ifvqhsg","pricing_plan_id":"free"},{"bike_id":"d63f208b-d50e-4f0c-9d5a-13a0d5a91e22","system_id":"levelo_inurba_marseille","lat":43.288501,"lon":5.393087,"is_reserved":false,"is_disabled":false,"rental_uris":{"android":"levelo://app?vid=d63f208b-d50e-4f0c-9d5a-13a0d5a91e22","ios":"levelo://app?vid=d63f208b-d50e-4f0c-9d5a-13a0d5a91e22"},"vehicle_type_id":"4","last_reported":1691431666,"current_range_meters":24800,"station_id":"ce4bh2p2rcd13ifvqdi0","pricing_plan_id":"free"},{"bike_id":"594e2a6c-e2cc-4e96-919e-9a5feb30d8ed","system_id":"levelo_inurba_marseille","lat":43.288497,"lon":5.393089,"is_reserved":false,"is_disabled":false,"rental_uris":{"android":"levelo://app?vid=594e2a6c-e2cc-4e96-919e-9a5feb30d8ed","ios":"levelo://app?vid=594e2a6c-e2cc-4e96-919e-9a5feb30d8ed"},"vehicle_type_id":"4","last_reported":1691431666,"current_range_meters":4000,"station_id":"ce4bh2p2rcd13ifvqdi0","pricing_plan_id":"free"},{"bike_id":"ffeb22be-1a84-476a-a303-5e65760a199a","system_id":"levelo_inurba_marseille","lat":43.288501,"lon":5.393087,"is_reserved":false,"is_disabled":false,"rental_uris":{"android":"levelo://app?vid=ffeb22be-1a84-476a-a303-5e65760a199a","ios":"levelo://app?vid=ffeb22be-1a84-476a-a303-5e65760a199a"},"vehicle_type_id":"4","last_reported":1691431666,"current_range_meters":22000,"station_id":"ce4bh2p2rcd13ifvqdi0","pricing_plan_id":"free"},{"bike_id":"83c092ac-9506-4c19-a3d3-1e0e2f8f01d8","system_id":"levelo_inurba_marseille","lat":43.28864,"lon":5.39322,"is_reserved":false,"is_disabled":false,"rental_uris":{"android":"levelo://app?vid=83c092ac-9506-4c19-a3d3-1e0e2f8f01d8","ios":"levelo://app?vid=83c092ac-9506-4c19-a3d3-1e0e2f8f01d8"},"vehicle_type_id":"4","last_reported":1691431666,"current_range_meters":31200,"station_id":"ce4bh2p2rcd13ifvqdi0","pricing_plan_id":"free"},{"bike_id":"04a842af-c6d4-47ef-ad8e-7205e2e40697","system_id":"levelo_inurba_marseille","lat":43.288497,"lon":5.393089,"is_reserved":false,"is_disabled":false,"rental_uris":{"android":"levelo://app?vid=04a842af-c6d4-47ef-ad8e-7205e2e40697","ios":"levelo://app?vid=04a842af-c6d4-47ef-ad8e-7205e2e40697"},"vehicle_type_id":"4","last_reported":1691431666,"current_range_meters":27200,"station_id":"ce4bh2p2rcd13ifvqdi0","pricing_plan_id":"free"},{"bike_id":"4060430a-97b4-4f84-b1a5-3d46fdd7706e","system_id":"levelo_inurba_marseille","lat":43.288501,"lon":5.393087,"is_reserved":false,"is_disabled":false,"rental_uris":{"android":"levelo://app?vid=4060430a-97b4-4f84-b1a5-3d46fdd7706e","ios":"levelo://app?vid=4060430a-97b4-4f84-b1a5-3d46fdd7706e"},"vehicle_type_id":"4","last_reported":1691431666,"current_range_meters":16000,"station_id":"ce4bh2p2rcd13ifvqdi0","pricing_plan_id":"free"},{"bike_id":"774bea69-f611-4dc0-80c6-b637703d7ca3","system_id":"levelo_inurba_marseille","lat":43.28352,"lon":5.38103,"is_reserved":false,"is_disabled":false,"rental_uris":{"android":"levelo://app?vid=774bea69-f611-4dc0-80c6-b637703d7ca3","ios":"levelo://app?vid=774bea69-f611-4dc0-80c6-b637703d7ca3"},"vehicle_type_id":"4","last_reported":1691431666,"current_range_meters":18000,"station_id":"","pricing_plan_id":"free"},{"bike_id":"f3657a77-0ec8-4a5a-aa18-3b3f2d1ac9c3","system_id":"levelo_inurba_marseille","lat":43.283498,"lon":5.380948,"is_reserved":false,"is_disabled":false,"rental_uris":{"android":"levelo://app?vid=f3657a77-0ec8-4a5a-aa18-3b3f2d1ac9c3","ios":"levelo://app?vid=f3657a77-0ec8-4a5a-aa18-3b3f2d1ac9c3"},"vehicle_type_id":"4","last_reported":1691431666,"current_range_meters":15200,"station_id":"ce4bh412rcd13ifvqdr0","pricing_plan_id":"free"},{"bike_id":"a1ce092a-c9bd-41f6-bdd6-1e149148f3e8","system_id":"levelo_inurba_marseille","lat":43.284219,"lon":5.3497,"is_reserved":false,"is_disabled":false,"rental_uris":{"android":"levelo://app?vid=a1ce092a-c9bd-41f6-bdd6-1e149148f3e8","ios":"levelo://app?vid=a1ce092a-c9bd-41f6-bdd6-1e149148f3e8"},"vehicle_type_id":"4","last_reported":1691431666,"current_range_meters":31600,"station_id":"ce4bhbh2rcd13ifvqepg","pricing_plan_id":"free"},{"bike_id":"ae5d6b05-fbee-4503-8e40-caf0ede1e822","system_id":"levelo_inurba_marseille","lat":43.284219,"lon":5.3497,"is_reserved":false,"is_disabled":false,"rental_uris":{"android":"levelo://app?vid=ae5d6b05-fbee-4503-8e40-caf0ede1e822","ios":"levelo://app?vid=ae5d6b05-fbee-4503-8e40-caf0ede1e822"},"vehicle_type_id":"4","last_reported":1691431666,"current_range_meters":30800,"station_id":"ce4bhbh2rcd13ifvqepg","pricing_plan_id":"free"},{"bike_id":"5ee7afa3-8c2a-4135-8cb1-39d6dd74e32f","system_id":"levelo_inurba_marseille","lat":43.28423,"lon":5.34985,"is_reserved":false,"is_disabled":false,"rental_uris":{"android":"levelo://app?vid=5ee7afa3-8c2a-4135-8cb1-39d6dd74e32f","ios":"levelo://app?vid=5ee7afa3-8c2a-4135-8cb1-39d6dd74e32f"},"vehicle_type_id":"4","last_reported":1691431666,"current_range_meters":18400,"station_id":"ce4bhbh2rcd13ifvqepg","pricing_plan_id":"free"},{"bike_id":"fddbdfb9-1f47-4639-865b-51f74d709a9a","system_id":"levelo_inurba_marseille","lat":43.289363,"lon":5.396322,"is_reserved":false,"is_disabled":false,"rental_uris":{"android":"levelo://app?vid=fddbdfb9-1f47-4639-865b-51f74d709a9a","ios":"levelo://app?vid=fddbdfb9-1f47-4639-865b-51f74d709a9a"},"vehicle_type_id":"4","last_reported":1691431666,"current_range_meters":19600,"station_id":"ce4bh3h2rcd13ifvqdn0","pricing_plan_id":"free"},{"bike_id":"20243632-1565-4497-8f08-99d34fe08141","system_id":"levelo_inurba_marseille","lat":43.29279,"lon":5.40117,"is_reserved":false,"is_disabled":false,"rental_uris":{"android":"levelo://app?vid=20243632-1565-4497-8f08-99d34fe08141","ios":"levelo://app?vid=20243632-1565-4497-8f08-99d34fe08141"},"vehicle_type_id":"4","last_reported":1691431666,"current_range_meters":0,"station_id":"","pricing_plan_id":"free"},{"bike_id":"b4267e20-9073-47e3-990e-7c7f0831b71e","system_id":"levelo_inurba_marseille","lat":43.28285,"lon":5.35068,"is_reserved":false,"is_disabled":false,"rental_uris":{"android":"levelo://app?vid=b4267e20-9073-47e3-990e-7c7f0831b71e","ios":"levelo://app?vid=b4267e20-9073-47e3-990e-7c7f0831b71e"},"vehicle_type_id":"4","last_reported":1691431666,"current_range_meters":30400,"station_id":"ce4bhbp2rcd13ifvqerg","pricing_plan_id":"free"},{"bike_id":"88940920-727e-47f8-bee6-24feedff1167","system_id":"levelo_inurba_marseille","lat":43.282744,"lon":5.350533,"is_reserved":false,"is_disabled":false,"rental_uris":{"android":"levelo://app?vid=88940920-727e-47f8-bee6-24feedff1167","ios":"levelo://app?vid=88940920-727e-47f8-bee6-24feedff1167"},"vehicle_type_id":"4","last_reported":1691431666,"current_range_meters":31600,"station_id":"ce4bhbp2rcd13ifvqerg","pricing_plan_id":"free"},{"bike_id":"d80af6c2-c6e3-49b9-9c7c-2463ab2e4331","system_id":"levelo_inurba_marseille","lat":43.28039,"lon":5.369297,"is_reserved":false,"is_disabled":false,"rental_uris":{"android":"levelo://app?vid=d80af6c2-c6e3-49b9-9c7c-2463ab2e4331","ios":"levelo://app?vid=d80af6c2-c6e3-49b9-9c7c-2463ab2e4331"},"vehicle_type_id":"4","last_reported":1691431666,"current_range_meters":400,"station_id":"ce4bha12rcd13ifvqef0","pricing_plan_id":"free"},{"bike_id":"ca30fc9f-1db2-4aed-b718-02e9091c002d","system_id":"levelo_inurba_marseille","lat":43.282754,"lon":5.350519,"is_reserved":false,"is_disabled":false,"rental_uris":{"android":"levelo://app?vid=ca30fc9f-1db2-4aed-b718-02e9091c002d","ios":"levelo://app?vid=ca30fc9f-1db2-4aed-b718-02e9091c002d"},"vehicle_type_id":"4","last_reported":1691431666,"current_range_meters":19600,"station_id":"ce4bhbp2rcd13ifvqerg","pricing_plan_id":"free"},{"bike_id":"ff6d9799-2bb1-4d6d-ad6e-23b10095f884","system_id":"levelo_inurba_marseille","lat":43.282754,"lon":5.350519,"is_reserved":false,"is_disabled":false,"rental_uris":{"android":"levelo://app?vid=ff6d9799-2bb1-4d6d-ad6e-23b10095f884","ios":"levelo://app?vid=ff6d9799-2bb1-4d6d-ad6e-23b10095f884"},"vehicle_type_id":"4","last_reported":1691431666,"current_range_meters":15200,"station_id":"ce4bhbp2rcd13ifvqerg","pricing_plan_id":"free"},{"bike_id":"f3452046-9a05-4cc7-8af7-d602314ceb2f","system_id":"levelo_inurba_marseille","lat":43.282685,"lon":5.350579,"is_reserved":false,"is_disabled":false,"rental_uris":{"android":"levelo://app?vid=f3452046-9a05-4cc7-8af7-d602314ceb2f","ios":"levelo://app?vid=f3452046-9a05-4cc7-8af7-d602314ceb2f"},"vehicle_type_id":"4","last_reported":1691431666,"current_range_meters":5200,"station_id":"ce4bhbp2rcd13ifvqerg","pricing_plan_id":"free"},{"bike_id":"56a534a4-654b-41a8-b0d6-ea6d4eaa8909","system_id":"levelo_inurba_marseille","lat":43.282744,"lon":5.350533,"is_reserved":false,"is_disabled":false,"rental_uris":{"android":"levelo://app?vid=56a534a4-654b-41a8-b0d6-ea6d4eaa8909","ios":"levelo://app?vid=56a534a4-654b-41a8-b0d6-ea6d4eaa8909"},"vehicle_type_id":"4","last_reported":1691431666,"current_range_meters":800,"station_id":"ce4bhbp2rcd13ifvqerg","pricing_plan_id":"free"},{"bike_id":"239bd376-1a50-4e6a-ba23-6c9c2bff92e1","system_id":"levelo_inurba_marseille","lat":43.28041,"lon":5.36935,"is_reserved":false,"is_disabled":false,"rental_uris":{"android":"levelo://app?vid=239bd376-1a50-4e6a-ba23-6c9c2bff92e1","ios":"levelo://app?vid=239bd376-1a50-4e6a-ba23-6c9c2bff92e1"},"vehicle_type_id":"4","last_reported":1691431666,"current_range_meters":23200,"station_id":"ce4bha12rcd13ifvqef0","pricing_plan_id":"free"},{"bike_id":"2838de6f-dc77-4b75-b7be-e3a7856eaed4","system_id":"levelo_inurba_marseille","lat":43.280385,"lon":5.369444,"is_reserved":false,"is_disabled":false,"rental_uris":{"android":"levelo://app?vid=2838de6f-dc77-4b75-b7be-e3a7856eaed4","ios":"levelo://app?vid=2838de6f-dc77-4b75-b7be-e3a7856eaed4"},"vehicle_type_id":"4","last_reported":1691431666,"current_range_meters":18000,"station_id":"","pricing_plan_id":"free"},{"bike_id":"57268649-0f2e-4949-8a73-c8872d0e49f3","system_id":"levelo_inurba_marseille","lat":43.28035,"lon":5.36944,"is_reserved":false,"is_disabled":false,"rental_uris":{"android":"levelo://app?vid=57268649-0f2e-4949-8a73-c8872d0e49f3","ios":"levelo://app?vid=57268649-0f2e-4949-8a73-c8872d0e49f3"},"vehicle_type_id":"4","last_reported":1691431666,"current_range_meters":18400,"station_id":"","pricing_plan_id":"free"},{"bike_id":"9d9a7449-1382-43c0-be53-4ad61c1d3fd4","system_id":"levelo_inurba_marseille","lat":43.28031,"lon":5.36939,"is_reserved":false,"is_disabled":false,"rental_uris":{"android":"levelo://app?vid=9d9a7449-1382-43c0-be53-4ad61c1d3fd4","ios":"levelo://app?vid=9d9a7449-1382-43c0-be53-4ad61c1d3fd4"},"vehicle_type_id":"4","last_reported":1691431666,"current_range_meters":0,"station_id":"ce4bha12rcd13ifvqef0","pricing_plan_id":"free"},{"bike_id":"b2d03303-d257-4e2b-b76b-9e58fccd9b4d","system_id":"levelo_inurba_marseille","lat":43.32632,"lon":5.40936,"is_reserved":false,"is_disabled":false,"rental_uris":{"android":"levelo://app?vid=b2d03303-d257-4e2b-b76b-9e58fccd9b4d","ios":"levelo://app?vid=b2d03303-d257-4e2b-b76b-9e58fccd9b4d"},"vehicle_type_id":"4","last_reported":1691431666,"current_range_meters":9600,"station_id":"","pricing_plan_id":"free"},{"bike_id":"ee8b8edb-a2c6-4981-903a-2c0192dd624f","system_id":"levelo_inurba_marseille","lat":43.28573,"lon":5.394992,"is_reserved":false,"is_disabled":false,"rental_uris":{"android":"levelo://app?vid=ee8b8edb-a2c6-4981-903a-2c0192dd624f","ios":"levelo://app?vid=ee8b8edb-a2c6-4981-903a-2c0192dd624f"},"vehicle_type_id":"4","last_reported":1691431666,"current_range_meters":8000,"station_id":"ce4bh292rcd13ifvqdg0","pricing_plan_id":"free"},{"bike_id":"053bfea4-5a64-4f65-a055-11aba80907f5","system_id":"levelo_inurba_marseille","lat":43.28573,"lon":5.394992,"is_reserved":false,"is_disabled":false,"rental_uris":{"android":"levelo://app?vid=053bfea4-5a64-4f65-a055-11aba80907f5","ios":"levelo://app?vid=053bfea4-5a64-4f65-a055-11aba80907f5"},"vehicle_type_id":"4","last_reported":1691431666,"current_range_meters":2400,"station_id":"ce4bh292rcd13ifvqdg0","pricing_plan_id":"free"},{"bike_id":"cd2d9d37-64c0-4480-a6bc-42916a91a40c","system_id":"levelo_inurba_marseille","lat":43.285742,"lon":5.395004,"is_reserved":false,"is_disabled":false,"rental_uris":{"android":"levelo://app?vid=cd2d9d37-64c0-4480-a6bc-42916a91a40c","ios":"levelo://app?vid=cd2d9d37-64c0-4480-a6bc-42916a91a40c"},"vehicle_type_id":"4","last_reported":1691431666,"current_range_meters":17200,"station_id":"ce4bh292rcd13ifvqdg0","pricing_plan_id":"free"},{"bike_id":"9d0e6b81-e234-47cd-9e0c-95c7b791dc7c","system_id":"levelo_inurba_marseille","lat":43.285742,"lon":5.395004,"is_reserved":false,"is_disabled":false,"rental_uris":{"android":"levelo://app?vid=9d0e6b81-e234-47cd-9e0c-95c7b791dc7c","ios":"levelo://app?vid=9d0e6b81-e234-47cd-9e0c-95c7b791dc7c"},"vehicle_type_id":"4","last_reported":1691431666,"current_range_meters":22000,"station_id":"ce4bh292rcd13ifvqdg0","pricing_plan_id":"free"},{"bike_id":"8a72f798-3b61-4365-bdf5-62c42611d638","system_id":"levelo_inurba_marseille","lat":43.32656,"lon":5.40987,"is_reserved":false,"is_disabled":false,"rental_uris":{"android":"levelo://app?vid=8a72f798-3b61-4365-bdf5-62c42611d638","ios":"levelo://app?vid=8a72f798-3b61-4365-bdf5-62c42611d638"},"vehicle_type_id":"4","last_reported":1691431666,"current_range_meters":9600,"station_id":"ce4bhpp2rcd13ifvqhgg","pricing_plan_id":"free"},{"bike_id":"5b50e5c5-ae00-4f68-94a4-936d254f4b02","system_id":"levelo_inurba_marseille","lat":43.32655,"lon":5.40991,"is_reserved":false,"is_disabled":false,"rental_uris":{"android":"levelo://app?vid=5b50e5c5-ae00-4f68-94a4-936d254f4b02","ios":"levelo://app?vid=5b50e5c5-ae00-4f68-94a4-936d254f4b02"},"vehicle_type_id":"4","last_reported":1691431666,"current_range_meters":28000,"station_id":"ce4bhpp2rcd13ifvqhgg","pricing_plan_id":"free"},{"bike_id":"bf8fdc47-8b76-4a2e-9be6-4788e5f55516","system_id":"levelo_inurba_marseille","lat":43.3266,"lon":5.40989,"is_reserved":false,"is_disabled":false,"rental_uris":{"android":"levelo://app?vid=bf8fdc47-8b76-4a2e-9be6-4788e5f55516","ios":"levelo://app?vid=bf8fdc47-8b76-4a2e-9be6-4788e5f55516"},"vehicle_type_id":"4","last_reported":1691431666,"current_range_meters":3600,"station_id":"ce4bhpp2rcd13ifvqhgg","pricing_plan_id":"free"},{"bike_id":"4a96e61d-724e-451b-9fa9-b7dfd4ee6a16","system_id":"levelo_inurba_marseille","lat":43.32662,"lon":5.40988,"is_reserved":false,"is_disabled":false,"rental_uris":{"android":"levelo://app?vid=4a96e61d-724e-451b-9fa9-b7dfd4ee6a16","ios":"levelo://app?vid=4a96e61d-724e-451b-9fa9-b7dfd4ee6a16"},"vehicle_type_id":"4","last_reported":1691431666,"current_range_meters":1200,"station_id":"ce4bhpp2rcd13ifvqhgg","pricing_plan_id":"free"},{"bike_id":"045bfddd-6cf9-400c-b2ae-f1238b992e27","system_id":"levelo_inurba_marseille","lat":43.326605,"lon":5.409903,"is_reserved":false,"is_disabled":false,"rental_uris":{"android":"levelo://app?vid=045bfddd-6cf9-400c-b2ae-f1238b992e27","ios":"levelo://app?vid=045bfddd-6cf9-400c-b2ae-f1238b992e27"},"vehicle_type_id":"4","last_reported":1691431666,"current_range_meters":29600,"station_id":"ce4bhpp2rcd13ifvqhgg","pricing_plan_id":"free"},{"bike_id":"14710d1e-aabe-4ea7-8004-5aa31b3cae3e","system_id":"levelo_inurba_marseille","lat":43.32661,"lon":5.40989,"is_reserved":false,"is_disabled":false,"rental_uris":{"android":"levelo://app?vid=14710d1e-aabe-4ea7-8004-5aa31b3cae3e","ios":"levelo://app?vid=14710d1e-aabe-4ea7-8004-5aa31b3cae3e"},"vehicle_type_id":"4","last_reported":1691431666,"current_range_meters":24000,"station_id":"ce4bhpp2rcd13ifvqhgg","pricing_plan_id":"free"},{"bike_id":"13547f79-1ac5-4372-973b-db19f9ea1a0e","system_id":"levelo_inurba_marseille","lat":43.32658,"lon":5.40991,"is_reserved":false,"is_disabled":false,"rental_uris":{"android":"levelo://app?vid=13547f79-1ac5-4372-973b-db19f9ea1a0e","ios":"levelo://app?vid=13547f79-1ac5-4372-973b-db19f9ea1a0e"},"vehicle_type_id":"4","last_reported":1691431666,"current_range_meters":27200,"station_id":"ce4bhpp2rcd13ifvqhgg","pricing_plan_id":"free"},{"bike_id":"d00ad131-ca64-46e7-88c1-1534b04c0814","system_id":"levelo_inurba_marseille","lat":43.326605,"lon":5.409903,"is_reserved":false,"is_disabled":false,"rental_uris":{"android":"levelo://app?vid=d00ad131-ca64-46e7-88c1-1534b04c0814","ios":"levelo://app?vid=d00ad131-ca64-46e7-88c1-1534b04c0814"},