{"last_updated":1744996089,"ttl":60,"version":"2.2","data":{"bikes":[{"bike_id":"614d8394-cbdf-4d60-980b-61b21269ac02","system_id":"levelo_inurba_marseille","lat":43.30785,"lon":5.3764,"is_reserved":false,"is_disabled":false,"rental_uris":{"android":"levelo://app?vid=614d8394-cbdf-4d60-980b-61b21269ac02","ios":"levelo://app?vid=614d8394-cbdf-4d60-980b-61b21269ac02"},"vehicle_type_id":"4","last_reported":1744996089,"current_range_meters":2800,"station_id":"ce4bgv92rcd13ifvqcq0","pricing_plan_id":"cebpf4jnsgd1na2vs0mg"},{"bike_id":"577a4664-744e-4c18-8ab8-ba7b3dc00892","system_id":"levelo_inurba_marseille","lat":43.295287,"lon":5.385447,"is_reserved":false,"is_disabled":false,"rental_uris":{"android":"levelo://app?vid=577a4664-744e-4c18-8ab8-ba7b3dc00892","ios":"levelo://app?vid=577a4664-744e-4c18-8ab8-ba7b3dc00892"},"vehicle_type_id":"4","last_reported":1744996089,"current_range_meters":2800,"station_id":"ce4bgih2rcd13ifvqba0","pricing_plan_id":"cebpf4jnsgd1na2vs0mg"},{"bike_id":"f460776e-6743-4208-93f7-32fb054acf1b","system_id":"levelo_inurba_marseille","lat":43.28107,"lon":5.39673,"is_reserved":false,"is_disabled":false,"rental_uris":{"android":"levelo://app?vid=f460776e-6743-4208-93f7-32fb054acf1b","ios":"levelo://app?vid=f460776e-6743-4208-93f7-32fb054acf1b"},"vehicle_type_id":"4","last_reported":1744996089,"current_range_meters":2800,"station_id":"ce4bho12rcd13ifvqh2g","pricing_plan_id":"cebpf4jnsgd1na2vs0mg"},{"bike_id":"0f0040b2-34e7-47e8-8898-d71c827e5dfe","system_id":"levelo_inurba_marseille","lat":43.29522,"lon":5.38369,"is_reserved":false,"is_disabled":false,"rental_uris":{"android":"levelo://app?vid=0f0040b2-34e7-47e8-8898-d71c827e5dfe","ios":"levelo://app?vid=0f0040b2-34e7-47e8-8898-d71c827e5dfe"},"vehicle_type_id":"4","last_reported":1744996089,"current_range_meters":2800,"station_id":"","pricing_plan_id":"cebpf4jnsgd1na2vs0mg"},{"bike_id":"4992d484-a546-455f-8433-2cde287c477e","system_id":"levelo_inurba_marseille","lat":43.30318,"lon":5.4045,"is_reserved":false,"is_disabled":true,"rental_uris":{"android":"levelo://app?vid=4992d484-a546-455f-8433-2cde287c477e","ios":"levelo://app?vid=4992d484-a546-455f-8433-2cde287c477e"},"vehicle_type_id":"4","last_reported":1744996089,"current_range_meters":2800,"station_id":"ce4bh012rcd13ifvqd10","pricing_plan_id":"cebpf4jnsgd1na2vs0mg"},{"bike_id":"a569fcf3-2ca0-44fb-84bc-6ce291b8b922","system_id":"levelo_inurba_marseille","lat":43.29032,"lon":5.38652,"is_reserved":false,"is_disabled":false,"rental_uris":{"android":"levelo://app?vid=a569fcf3-2ca0-44fb-84bc-6ce291b8b922","ios":"levelo://app?vid=a569fcf3-2ca0-44fb-84bc-6ce291b8b922"},"vehicle_type_id":"4","last_reported":1744996089,"current_range_meters":2800,"station_id":"ce4bh4p2rcd13ifvqe0g","pricing_plan_id":"cebpf4jnsgd1na2vs0mg"},{"bike_id":"75acd8f3-9fd1-47db-b540-3eeed5795c25","system_id":"levelo_inurba_marseille","lat":43.27568,"lon":5.38418,"is_reserved":false,"is_disabled":false,"rental_uris":{"android":"levelo://app?vid=75acd8f3-9fd1-47db-b540-3eeed5795c25","ios":"levelo://app?vid=75acd8f3-9fd1-47db-b540-3eeed5795c25"},"vehicle_type_id":"4","last_reported":1744996089,"current_range_meters":2800,"station_id":"ce4bhh92rcd13ifvqfi0","pricing_plan_id":"cebpf4jnsgd1na2vs0mg"},{"bike_id":"fcf74b45-7c8a-43f2-94b1-c8b37c591bb6","system_id":"levelo_inurba_marseille","lat":43.28827,"lon":5.38457,"is_reserved":false,"is_disabled":false,"rental_uris":{"android":"levelo://app?vid=fcf74b45-7c8a-43f2-94b1-c8b37c591bb6","ios":"levelo://app?vid=fcf74b45-7c8a-43f2-94b1-c8b37c591bb6"},"vehicle_type_id":"4","last_reported":1744996089,"current_range_meters":2800,"station_id":"","pricing_plan_id":"cebpf4jnsgd1na2vs0mg"},{"bike_id":"54d13c3b-c831-4200-a15f-142304ca4bf9","system_id":"levelo_inurba_marseille","lat":43.27999,"lon":5.40019,"is_reserved":false,"is_disabled":false,"rental_uris":{"android":"levelo://app?vid=54d13c3b-c831-4200-a15f-142304ca4bf9","ios":"levelo://app?vid=54d13c3b-c831-4200-a15f-142304ca4bf9"},"vehicle_type_id":"4","last_reported":1744996089,"current_range_meters":2800,"station_id":"ce4bho92rcd13ifvqh4g","pricing_plan_id":"cebpf4jnsgd1na2vs0mg"},{"bike_id":"a1e206ee-627e-4958-94bc-6ca9a1ae130e","system_id":"levelo_inurba_marseille","lat":43.29621,"lon":5.37166,"is_reserved":false,"is_disabled":false,"rental_uris":{"android":"levelo://app?vid=a1e206ee-627e-4958-94bc-6ca9a1ae130e","ios":"levelo://app?vid=a1e206ee-627e-4958-94bc-6ca9a1ae130e"},"vehicle_type_id":"4","last_reported":1744996089,"current_range_meters":3200,"station_id":"ce4bgnh2rcd13ifvqc0g","pricing_plan_id":"cebpf4jnsgd1na2vs0mg"},{"bike_id":"5b7f6d17-41fd-4871-8e93-5f60162d0560","system_id":"levelo_inurba_marseille","lat":43.28992,"lon":5.35592,"is_reserved":false,"is_disabled":true,"rental_uris":{"android":"levelo://app?vid=5b7f6d17-41fd-4871-8e93-5f60162d0560","ios":"levelo://app?vid=5b7f6d17-41fd-4871-8e93-5f60162d0560"},"vehicle_type_id":"4","last_reported":1744996089,"current_range_meters":3200,"station_id":"ce4bhb92rcd13ifvqen0","pricing_plan_id":"cebpf4jnsgd1na2vs0mg"},{"bike_id":"a2f0521d-3e0e-4973-8415-b87c6b6addf2","system_id":"levelo_inurba_marseille","lat":43.29546,"lon":5.38551,"is_reserved":false,"is_disabled":false,"rental_uris":{"android":"levelo://app?vid=a2f0521d-3e0e-4973-8415-b87c6b6addf2","ios":"levelo://app?vid=a2f0521d-3e0e-4973-8415-b87c6b6addf2"},"vehicle_type_id":"4","last_reported":1744996089,"current_range_meters":3200,"station_id":"ce4bgih2rcd13ifvqba0","pricing_plan_id":"cebpf4jnsgd1na2vs0mg"},{"bike_id":"541241eb-4977-49d8-a687-fae6de7b8b64","system_id":"levelo_inurba_marseille","lat":43.2942,"lon":5.38608,"is_reserved":false,"is_disabled":false,"rental_uris":{"android":"levelo://app?vid=541241eb-4977-49d8-a687-fae6de7b8b64","ios":"levelo://app?vid=541241eb-4977-49d8-a687-fae6de7b8b64"},"vehicle_type_id":"4","last_reported":1744996089,"current_range_meters":3200,"station_id":"ce4bh2h2rcd13ifvqdh0","pricing_plan_id":"cebpf4jnsgd1na2vs0mg"},{"bike_id":"7efc82d8-80d5-4dca-afad-46ec89cac93d","system_id":"levelo_inurba_marseille","lat":43.2738,"lon":5.36275,"is_reserved":false,"is_disabled":false,"rental_uris":{"android":"levelo://app?vid=7efc82d8-80d5-4dca-afad-46ec89cac93d","ios":"levelo://app?vid=7efc82d8-80d5-4dca-afad-46ec89cac93d"},"vehicle_type_id":"4","last_reported":1744996089,"current_range_meters":3200,"station_id":"ce4bhbh2rcd13ifvqeo0","pricing_plan_id":"cebpf4jnsgd1na2vs0mg"},{"bike_id":"db006960-6cf7-436d-86ad-1942b7c99454","system_id":"levelo_inurba_marseille","lat":43.32043,"lon":5.41549,"is_reserved":false,"is_disabled":false,"rental_uris":{"android":"levelo://app?vid=db006960-6cf7-436d-86ad-1942b7c99454","ios":"levelo://app?vid=db006960-6cf7-436d-86ad-1942b7c99454"},"vehicle_type_id":"4","last_reported":1744996089,"current_range_meters":3200,"station_id":"ce4bhq92rcd13ifvqhkg","pricing_plan_id":"cebpf4jnsgd1na2vs0mg"},{"bike_id":"fa957e01-d8a5-47d8-93d5-90af0d64b5a1","system_id":"levelo_inurba_marseille","lat":43.23193,"lon":5.35555,"is_reserved":false,"is_disabled":false,"rental_uris":{"android":"levelo://app?vid=fa957e01-d8a5-47d8-93d5-90af0d64b5a1","ios":"levelo://app?vid=fa957e01-d8a5-47d8-93d5-90af0d64b5a1"},"vehicle_type_id":"4","last_reported":1744996089,"current_range_meters":3200,"station_id":"ce4bhu92rcd13ifvqi70","pricing_plan_id":"cebpf4jnsgd1na2vs0mg"},{"bike_id":"845abc23-e78d-4af3-ba00-b5a1c2cde1c1","system_id":"levelo_inurba_marseille","lat":43.296051,"lon":5.381092,"is_reserved":false,"is_disabled":false,"rental_uris":{"android":"levelo://app?vid=845abc23-e78d-4af3-ba00-b5a1c2cde1c1","ios":"levelo://app?vid=845abc23-e78d-4af3-ba00-b5a1c2cde1c1"},"vehicle_type_id":"4","last_reported":1744996089,"current_range_meters":3600,"station_id":"ce4bgl12rcd13ifvqbo0","pricing_plan_id":"cebpf4jnsgd1na2vs0mg"},{"bike_id":"206e6eed-90ee-4177-ab5a-4bcb1810ce02","system_id":"levelo_inurba_marseille","lat":43.32349,"lon":5.3674,"is_reserved":false,"is_disabled":false,"rental_uris":{"android":"levelo://app?vid=206e6eed-90ee-4177-ab5a-4bcb1810ce02","ios":"levelo://app?vid=206e6eed-90ee-4177-ab5a-4bcb1810ce02"},"vehicle_type_id":"4","last_reported":1744996089,"current_range_meters":3600,"station_id":"ce4bhsh2rcd13ifvqi2g","pricing_plan_id":"cebpf4jnsgd1na2vs0mg"},{"bike_id":"32997cb1-218b-403f-8d29-bd95c2830978","system_id":"levelo_inurba_marseille","lat":43.24399,"lon":5.37051,"is_reserved":false,"is_disabled":false,"rental_uris":{"android":"levelo://app?vid=32997cb1-218b-403f-8d29-bd95c2830978","ios":"levelo://app?vid=32997cb1-218b-403f-8d29-bd95c2830978"},"vehicle_type_id":"4","last_reported":1744996089,"current_range_meters":3600,"station_id":"ce4bhhh2rcd13ifvqfk0","pricing_plan_id":"cebpf4jnsgd1na2vs0mg"},{"bike_id":"f72c1cf4-929a-4423-8a23-d8ef6491f1ef","system_id":"levelo_inurba_marseille","lat":43.277663,"lon":5.387944,"is_reserved":false,"is_disabled":false,"rental_uris":{"android":"levelo://app?vid=f72c1cf4-929a-4423-8a23-d8ef6491f1ef","ios":"levelo://app?vid=f72c1cf4-929a-4423-8a23-d8ef6491f1ef"},"vehicle_type_id":"4","last_reported":1744996089,"current_range_meters":3200,"station_id":"ce4bhi12rcd13ifvqfo0","pricing_plan_id":"cebpf4jnsgd1na2vs0mg"},{"bike_id":"be47d5da-f4f4-48a4-825f-87e57d46a5e2","system_id":"levelo_inurba_marseille","lat":43.31075,"lon":5.38363,"is_reserved":false,"is_disabled":false,"rental_uris":{"android":"levelo://app?vid=be47d5da-f4f4-48a4-825f-87e57d46a5e2","ios":"levelo://app?vid=be47d5da-f4f4-48a4-825f-87e57d46a5e2"},"vehicle_type_id":"4","last_reported":1744996089,"current_range_meters":4000,"station_id":"ce4bgv92rcd13ifvqcr0","pricing_plan_id":"cebpf4jnsgd1na2vs0mg"},{"bike_id":"e2e94226-322a-40b4-88e2-6fc5f142e612","system_id":"levelo_inurba_marseille","lat":43.248064,"lon":5.374573,"is_reserved":false,"is_disabled":false,"rental_uris":{"android":"levelo://app?vid=e2e94226-322a-40b4-88e2-6fc5f142e612","ios":"levelo://app?vid=e2e94226-322a-40b4-88e2-6fc5f142e612"},"vehicle_type_id":"4","last_reported":1744996089,"current_range_meters":3600,"station_id":"ce4bhgh2rcd13ifvqfb0","pricing_plan_id":"cebpf4jnsgd1na2vs0mg"},{"bike_id":"a47a762e-0312-460c-9358-7c4b9d5585cb","system_id":"levelo_inurba_marseille","lat":43.27073,"lon":5.42273,"is_reserved":false,"is_disabled":false,"rental_uris":{"android":"levelo://app?vid=a47a762e-0312-460c-9358-7c4b9d5585cb","ios":"levelo://app?vid=a47a762e-0312-460c-9358-7c4b9d5585cb"},"vehicle_type_id":"4","last_reported":1744996089,"current_range_meters":3600,"station_id":"ce4bhk92rcd13ifvqgb0","pricing_plan_id":"cebpf4jnsgd1na2vs0mg"},{"bike_id":"08116449-96e6-4db4-8397-2f6f351a72c0","system_id":"levelo_inurba_marseille","lat":43.26781,"lon":5.3942,"is_reserved":false,"is_disabled":false,"rental_uris":{"android":"levelo://app?vid=08116449-96e6-4db4-8397-2f6f351a72c0","ios":"levelo://app?vid=08116449-96e6-4db4-8397-2f6f351a72c0"},"vehicle_type_id":"4","last_reported":1744996089,"current_range_meters":3200,"station_id":"ce4bhh12rcd13ifvqfg0","pricing_plan_id":"cebpf4jnsgd1na2vs0mg"},{"bike_id":"5073f962-d36a-4dd3-ab85-b44d75c559d0","system_id":"levelo_inurba_marseille","lat":43.27209,"lon":5.39179,"is_reserved":false,"is_disabled":false,"rental_uris":{"android":"levelo://app?vid=5073f962-d36a-4dd3-ab85-b44d75c559d0","ios":"levelo://app?vid=5073f962-d36a-4dd3-ab85-b44d75c559d0"},"vehicle_type_id":"4","last_reported":1744996089,"current_range_meters":3600,"station_id":"ce4bhhp2rcd13ifvqfm0","pricing_plan_id":"cebpf4jnsgd1na2vs0mg"},{"bike_id":"9618300d-dc10-495d-add5-d47ee7e5db9f","system_id":"levelo_inurba_marseille","lat":43.23215,"lon":5.35543,"is_reserved":false,"is_disabled":false,"rental_uris":{"android":"levelo://app?vid=9618300d-dc10-495d-add5-d47ee7e5db9f","ios":"levelo://app?vid=9618300d-dc10-495d-add5-d47ee7e5db9f"},"vehicle_type_id":"4","last_reported":1744996089,"current_range_meters":3600,"station_id":"ce4bhu92rcd13ifvqi70","pricing_plan_id":"cebpf4jnsgd1na2vs0mg"},{"bike_id":"5c88a33a-158a-406e-9f6b-f7bdb6d0a5ae","system_id":"levelo_inurba_marseille","lat":43.26193,"lon":5.37449,"is_reserved":false,"is_disabled":false,"rental_uris":{"android":"levelo://app?vid=5c88a33a-158a-406e-9f6b-f7bdb6d0a5ae","ios":"levelo://app?vid=5c88a33a-158a-406e-9f6b-f7bdb6d0a5ae"},"vehicle_type_id":"4","last_reported":1744996089,"current_range_meters":4000,"station_id":"ce4bhgp2rcd13ifvqfc0","pricing_plan_id":"cebpf4jnsgd1na2vs0mg"},{"bike_id":"4e22e6db-a3d5-4e01-9e1a-034d336903a2","system_id":"levelo_inurba_marseille","lat":43.24812,"lon":5.37457,"is_reserved":false,"is_disabled":false,"rental_uris":{"android":"levelo://app?vid=4e22e6db-a3d5-4e01-9e1a-034d336903a2","ios":"levelo://app?vid=4e22e6db-a3d5-4e01-9e1a-034d336903a2"},"vehicle_type_id":"4","last_reported":1744996089,"current_range_meters":4000,"station_id":"ce4bhgh2rcd13ifvqfb0","pricing_plan_id":"cebpf4jnsgd1na2vs0mg"},{"bike_id":"cb238137-e1ea-4650-b9b8-7d0addb8be8c","system_id":"levelo_inurba_marseille","lat":43.30928,"lon":5.40146,"is_reserved":false,"is_disabled":false,"rental_uris":{"android":"levelo://app?vid=cb238137-e1ea-4650-b9b8-7d0addb8be8c","ios":"levelo://app?vid=cb238137-e1ea-4650-b9b8-7d0addb8be8c"},"vehicle_type_id":"4","last_reported":1744996089,"current_range_meters":4000,"station_id":"ce4bgvp2rcd13ifvqct0","pricing_plan_id":"cebpf4jnsgd1na2vs0mg"},{"bike_id":"7b054ac5-4cf2-41a7-b2ef-d7cbcaecd922","system_id":"levelo_inurba_marseille","lat":43.28661,"lon":5.36358,"is_reserved":false,"is_disabled":false,"rental_uris":{"android":"levelo://app?vid=7b054ac5-4cf2-41a7-b2ef-d7cbcaecd922","ios":"levelo://app?vid=7b054ac5-4cf2-41a7-b2ef-d7cbcaecd922"},"vehicle_type_id":"4","last_reported":1744996089,"current_range_meters":4000,"station_id":"ce4bhah2rcd13ifvqej0","pricing_plan_id":"cebpf4jnsgd1na2vs0mg"},{"bike_id":"5174dc7b-2617-4b28-a506-3ab78ec18669","system_id":"levelo_inurba_marseille","lat":43.29968,"lon":5.3849,"is_reserved":false,"is_disabled":false,"rental_uris":{"android":"levelo://app?vid=5174dc7b-2617-4b28-a506-3ab78ec18669","ios":"levelo://app?vid=5174dc7b-2617-4b28-a506-3ab78ec18669"},"vehicle_type_id":"4","last_reported":1744996089,"current_range_meters":4400,"station_id":"ce4bgj92rcd13ifvqbd0","pricing_plan_id":"cebpf4jnsgd1na2vs0mg"},{"bike_id":"05f518fb-a8a5-43f9-8a4f-33490a74482e","system_id":"levelo_inurba_marseille","lat":43.28685,"lon":5.38675,"is_reserved":false,"is_disabled":false,"rental_uris":{"android":"levelo://app?vid=05f518fb-a8a5-43f9-8a4f-33490a74482e","ios":"levelo://app?vid=05f518fb-a8a5-43f9-8a4f-33490a74482e"},"vehicle_type_id":"4","last_reported":1744996089,"current_range_meters":4400,"station_id":"ce4bh492rcd13ifvqdug","pricing_plan_id":"cebpf4jnsgd1na2vs0mg"},{"bike_id":"0cd7448c-170a-48be-bc79-f10bcaf69806","system_id":"levelo_inurba_marseille","lat":43.23052,"lon":5.35498,"is_reserved":false,"is_disabled":true,"rental_uris":{"android":"levelo://app?vid=0cd7448c-170a-48be-bc79-f10bcaf69806","ios":"levelo://app?vid=0cd7448c-170a-48be-bc79-f10bcaf69806"},"vehicle_type_id":"4","last_reported":1744996089,"current_range_meters":4400,"station_id":"cpo3342slgdg3j2ifvpg","pricing_plan_id":"cebpf4jnsgd1na2vs0mg"},{"bike_id":"393eaa89-9f28-4058-a360-223ff3800ecb","system_id":"levelo_inurba_marseille","lat":43.28938,"lon":5.36387,"is_reserved":false,"is_disabled":false,"rental_uris":{"android":"levelo://app?vid=393eaa89-9f28-4058-a360-223ff3800ecb","ios":"levelo://app?vid=393eaa89-9f28-4058-a360-223ff3800ecb"},"vehicle_type_id":"4","last_reported":1744996089,"current_range_meters":4400,"station_id":"ce4bhc92rcd13ifvqetg","pricing_plan_id":"cebpf4jnsgd1na2vs0mg"},{"bike_id":"3466cc08-ac97-4717-9859-1e2e2fb83c2b","system_id":"levelo_inurba_marseille","lat":43.27433,"lon":5.39412,"is_reserved":false,"is_disabled":false,"rental_uris":{"android":"levelo://app?vid=3466cc08-ac97-4717-9859-1e2e2fb83c2b","ios":"levelo://app?vid=3466cc08-ac97-4717-9859-1e2e2fb83c2b"},"vehicle_type_id":"4","last_reported":1744996089,"current_range_meters":4400,"station_id":"ce4bhdp2rcd13ifvqf20","pricing_plan_id":"cebpf4jnsgd1na2vs0mg"},{"bike_id":"937da1ec-0e53-474f-98ca-052d450c698e","system_id":"levelo_inurba_marseille","lat":43.31709,"lon":5.43706,"is_reserved":false,"is_disabled":false,"rental_uris":{"android":"levelo://app?vid=937da1ec-0e53-474f-98ca-052d450c698e","ios":"levelo://app?vid=937da1ec-0e53-474f-98ca-052d450c698e"},"vehicle_type_id":"4","last_reported":1744996089,"current_range_meters":4400,"station_id":"ce4bhp92rcd13ifvqhcg","pricing_plan_id":"cebpf4jnsgd1na2vs0mg"},{"bike_id":"2df22311-bac1-4b8f-abff-11893969de63","system_id":"levelo_inurba_marseille","lat":43.31076,"lon":5.37821,"is_reserved":false,"is_disabled":false,"rental_uris":{"android":"levelo://app?vid=2df22311-bac1-4b8f-abff-11893969de63","ios":"levelo://app?vid=2df22311-bac1-4b8f-abff-11893969de63"},"vehicle_type_id":"4","last_reported":1744996089,"current_range_meters":4800,"station_id":"","pricing_plan_id":"cebpf4jnsgd1na2vs0mg"},{"bike_id":"f0ba7f13-6256-40ad-9daa-20371fe0e35d","system_id":"levelo_inurba_marseille","lat":43.27309,"lon":5.39088,"is_reserved":false,"is_disabled":false,"rental_uris":{"android":"levelo://app?vid=f0ba7f13-6256-40ad-9daa-20371fe0e35d","ios":"levelo://app?vid=f0ba7f13-6256-40ad-9daa-20371fe0e35d"},"vehicle_type_id":"4","last_reported":1744996089,"current_range_meters":4800,"station_id":"ce4bhgp2rcd13ifvqfe0","pricing_plan_id":"cebpf4jnsgd1na2vs0mg"},{"bike_id":"6d786c0c-31e4-4d96-88a6-8b1ec602a9f6","system_id":"levelo_inurba_marseille","lat":43.28271,"lon":5.35077,"is_reserved":false,"is_disabled":false,"rental_uris":{"android":"levelo://app?vid=6d786c0c-31e4-4d96-88a6-8b1ec602a9f6","ios":"levelo://app?vid=6d786c0c-31e4-4d96-88a6-8b1ec602a9f6"},"vehicle_type_id":"4","last_reported":1744996089,"current_range_meters":4800,"station_id":"ce4bhbp2rcd13ifvqerg","pricing_plan_id":"cebpf4jnsgd1na2vs0mg"},{"bike_id":"2a297b53-e6c9-4a44-8832-a1535085da75","system_id":"levelo_inurba_marseille","lat":43.31999,"lon":5.38147,"is_reserved":false,"is_disabled":true,"rental_uris":{"android":"levelo://app?vid=2a297b53-e6c9-4a44-8832-a1535085da75","ios":"levelo://app?vid=2a297b53-e6c9-4a44-8832-a1535085da75"},"vehicle_type_id":"4","last_reported":1744996089,"current_range_meters":5600,"station_id":"ce4bhr12rcd13ifvqhpg","pricing_plan_id":"cebpf4jnsgd1na2vs0mg"},{"bike_id":"4ef3b1f4-3fdb-4d14-b9d1-b8d632f05bc4","system_id":"levelo_inurba_marseille","lat":43.279997,"lon":5.400021,"is_reserved":false,"is_disabled":false,"rental_uris":{"android":"levelo://app?vid=4ef3b1f4-3fdb-4d14-b9d1-b8d632f05bc4","ios":"levelo://app?vid=4ef3b1f4-3fdb-4d14-b9d1-b8d632f05bc4"},"vehicle_type_id":"4","last_reported":1744996089,"current_range_meters":5600,"station_id":"ce4bho92rcd13ifvqh4g","pricing_plan_id":"cebpf4jnsgd1na2vs0mg"},{"bike_id":"5a1504c4-a9cd-4acd-b63f-aaf4cbafae37","system_id":"levelo_inurba_marseille","lat":43.29305,"lon":5.37463,"is_reserved":false,"is_disabled":false,"rental_uris":{"android":"levelo://app?vid=5a1504c4-a9cd-4acd-b63f-aaf4cbafae37","ios":"levelo://app?vid=5a1504c4-a9cd-4acd-b63f-aaf4cbafae37"},"vehicle_type_id":"4","last_reported":1744996089,"current_range_meters":5600,"station_id":"ce4bgi12rcd13ifvqb70","pricing_plan_id":"cebpf4jnsgd1na2vs0mg"},{"bike_id":"683727aa-af5c-4a30-b620-923da0da034b","system_id":"levelo_inurba_marseille","lat":43.2685,"lon":5.40458,"is_reserved":false,"is_disabled":false,"rental_uris":{"android":"levelo://app?vid=683727aa-af5c-4a30-b620-923da0da034b","ios":"levelo://app?vid=683727aa-af5c-4a30-b620-923da0da034b"},"vehicle_type_id":"4","last_reported":1744996089,"current_range_meters":5600,"station_id":"cjm6bp8fraef2m0cb0m0","pricing_plan_id":"cebpf4jnsgd1na2vs0mg"},{"bike_id":"7f766c31-5b53-491d-a9b0-b59aef1673f9","system_id":"levelo_inurba_marseille","lat":43.29973,"lon":5.38502,"is_reserved":false,"is_disabled":false,"rental_uris":{"android":"levelo://app?vid=7f766c31-5b53-491d-a9b0-b59aef1673f9","ios":"levelo://app?vid=7f766c31-5b53-491d-a9b0-b59aef1673f9"},"vehicle_type_id":"4","last_reported":1744996089,"current_range_meters":6000,"station_id":"ce4bgj92rcd13ifvqbd0","pricing_plan_id":"cebpf4jnsgd1na2vs0mg"},{"bike_id":"920b8d10-7323-4f47-bf7d-15259fb6f3b5","system_id":"levelo_inurba_marseille","lat":43.28106,"lon":5.37843,"is_reserved":false,"is_disabled":false,"rental_uris":{"android":"levelo://app?vid=920b8d10-7323-4f47-bf7d-15259fb6f3b5","ios":"levelo://app?vid=920b8d10-7323-4f47-bf7d-15259fb6f3b5"},"vehicle_type_id":"4","last_reported":1744996089,"current_range_meters":6000,"station_id":"ce4bha12rcd13ifvqee0","pricing_plan_id":"cebpf4jnsgd1na2vs0mg"},{"bike_id":"b2fc4ece-e320-41b1-af34-88da2d150f8f","system_id":"levelo_inurba_marseille","lat":43.28266,"lon":5.35052,"is_reserved":false,"is_disabled":false,"rental_uris":{"android":"levelo://app?vid=b2fc4ece-e320-41b1-af34-88da2d150f8f","ios":"levelo://app?vid=b2fc4ece-e320-41b1-af34-88da2d150f8f"},"vehicle_type_id":"4","last_reported":1744996089,"current_range_meters":6000,"station_id":"ce4bhbp2rcd13ifvqerg","pricing_plan_id":"cebpf4jnsgd1na2vs0mg"},{"bike_id":"8c77d2e8-c9f3-4b6b-b564-fbd11b010612","system_id":"levelo_inurba_marseille","lat":43.290002,"lon":5.356152,"is_reserved":false,"is_disabled":false,"rental_uris":{"android":"levelo://app?vid=8c77d2e8-c9f3-4b6b-b564-fbd11b010612","ios":"levelo://app?vid=8c77d2e8-c9f3-4b6b-b564-fbd11b010612"},"vehicle_type_id":"4","last_reported":1744996089,"current_range_meters":6000,"station_id":"ce4bhb92rcd13ifvqen0","pricing_plan_id":"cebpf4jnsgd1na2vs0mg"},{"bike_id":"32b2bea6-36c7-414f-b66a-f1ce7fbc3869","system_id":"levelo_inurba_marseille","lat":43.23194,"lon":5.35555,"is_reserved":false,"is_disabled":false,"rental_uris":{"android":"levelo://app?vid=32b2bea6-36c7-414f-b66a-f1ce7fbc3869","ios":"levelo://app?vid=32b2bea6-36c7-414f-b66a-f1ce7fbc3869"},"vehicle_type_id":"4","last_reported":1744996089,"current_range_meters":6000,"station_id":"ce4bhu92rcd13ifvqi70","pricing_plan_id":"cebpf4jnsgd1na2vs0mg"},{"bike_id":"328e79db-d8f9-46d3-95ef-9b27479ae7a3","system_id":"levelo_inurba_marseille","lat":43.284589,"lon":5.358834,"is_reserved":false,"is_disabled":false,"rental_uris":{"android":"levelo://app?vid=328e79db-d8f9-46d3-95ef-9b27479ae7a3","ios":"levelo://app?vid=328e79db-d8f9-46d3-95ef-9b27479ae7a3"},"vehicle_type_id":"4","last_reported":1744996089,"current_range_meters":6000,"station_id":"ce4bhah2rcd13ifvqei0","pricing_plan_id":"cebpf4jnsgd1na2vs0mg"},{"bike_id":"f02e5810-785a-4e3e-a159-04c613b5e660","system_id":"levelo_inurba_marseille","lat":43.269359,"lon":5.389192,"is_reserved":false,"is_disabled":false,"rental_uris":{"android":"levelo://app?vid=f02e5810-785a-4e3e-a159-04c613b5e660","ios":"levelo://app?vid=f02e5810-785a-4e3e-a159-04c613b5e660"},"vehicle_type_id":"4","last_reported":1744996089,"current_range_meters":5600,"station_id":"ce4bhhh2rcd13ifvqfl0","pricing_plan_id":"cebpf4jnsgd1na2vs0mg"},{"bike_id":"d63eb847-3810-4a2e-aa46-9be62b06b6a5","system_id":"levelo_inurba_marseille","lat":43.29316,"lon":5.37485,"is_reserved":false,"is_disabled":true,"rental_uris":{"android":"levelo://app?vid=d63eb847-3810-4a2e-aa46-9be62b06b6a5","ios":"levelo://app?vid=d63eb847-3810-4a2e-aa46-9be62b06b6a5"},"vehicle_type_id":"4","last_reported":1744996089,"current_range_meters":6000,"station_id":"ce4bgi12rcd13ifvqb70","pricing_plan_id":"cebpf4jnsgd1na2vs0mg"},{"bike_id":"225d7ee7-62f4-4385-ac49-aa0f32f8b0db","system_id":"levelo_inurba_marseille","lat":43.29515,"lon":5.39407,"is_reserved":false,"is_disabled":false,"rental_uris":{"android":"levelo://app?vid=225d7ee7-62f4-4385-ac49-aa0f32f8b0db","ios":"levelo://app?vid=225d7ee7-62f4-4385-ac49-aa0f32f8b0db"},"vehicle_type_id":"4","last_reported":1744996089,"current_range_meters":6400,"station_id":"ce4bh292rcd13ifvqdf0","pricing_plan_id":"cebpf4jnsgd1na2vs0mg"},{"bike_id":"b710fbb1-b765-492e-8cff-58a86822a607","system_id":"levelo_inurba_marseille","lat":43.2317,"lon":5.35446,"is_reserved":false,"is_disabled":true,"rental_uris":{"android":"levelo://app?vid=b710fbb1-b765-492e-8cff-58a86822a607","ios":"levelo://app?vid=b710fbb1-b765-492e-8cff-58a86822a607"},"vehicle_type_id":"4","last_reported":1744996089,"current_range_meters":6400,"station_id":"","pricing_plan_id":"cebpf4jnsgd1na2vs0mg"},{"bike_id":"ebba7850-34be-49b7-b8ce-ffa8c9c18c28","system_id":"levelo_inurba_marseille","lat":43.23959,"lon":5.36665,"is_reserved":false,"is_disabled":false,"rental_uris":{"android":"levelo://app?vid=ebba7850-34be-49b7-b8ce-ffa8c9c18c28","ios":"levelo://app?vid=ebba7850-34be-49b7-b8ce-ffa8c9c18c28"},"vehicle_type_id":"4","last_reported":1744996089,"current_range_meters":6400,"station_id":"ce4bhi12rcd13ifvqfp0","pricing_plan_id":"cebpf4jnsgd1na2vs0mg"},{"bike_id":"db683e79-1939-434e-b081-b9990fd856fe","system_id":"levelo_inurba_marseille","lat":43.22932,"lon":5.35376,"is_reserved":false,"is_disabled":false,"rental_uris":{"android":"levelo://app?vid=db683e79-1939-434e-b081-b9990fd856fe","ios":"levelo://app?vid=db683e79-1939-434e-b081-b9990fd856fe"},"vehicle_type_id":"4","last_reported":1744996089,"current_range_meters":6400,"station_id":"cpo3532slgdg3j2ikp40","pricing_plan_id":"cebpf4jnsgd1na2vs0mg"},{"bike_id":"f88a0323-ca30-4f83-ad11-a1dc0239a7cb","system_id":"levelo_inurba_marseille","lat":43.27946,"lon":5.41041,"is_reserved":false,"is_disabled":false,"rental_uris":{"android":"levelo://app?vid=f88a0323-ca30-4f83-ad11-a1dc0239a7cb","ios":"levelo://app?vid=f88a0323-ca30-4f83-ad11-a1dc0239a7cb"},"vehicle_type_id":"4","last_reported":1744996089,"current_range_meters":6400,"station_id":"ce4bhnp2rcd13ifvqh0g","pricing_plan_id":"cebpf4jnsgd1na2vs0mg"},{"bike_id":"68557376-8cb3-4f59-b6bf-437ed7d4b738","system_id":"levelo_inurba_marseille","lat":43.28656,"lon":5.363282,"is_reserved":false,"is_disabled":false,"rental_uris":{"android":"levelo://app?vid=68557376-8cb3-4f59-b6bf-437ed7d4b738","ios":"levelo://app?vid=68557376-8cb3-4f59-b6bf-437ed7d4b738"},"vehicle_type_id":"4","last_reported":1744996089,"current_range_meters":6000,"station_id":"ce4bhah2rcd13ifvqej0","pricing_plan_id":"cebpf4jnsgd1na2vs0mg"},{"bike_id":"eb8f9341-483f-40f8-945a-fa18a2f3e847","system_id":"levelo_inurba_marseille","lat":43.290444,"lon":5.399762,"is_reserved":false,"is_disabled":false,"rental_uris":{"android":"levelo://app?vid=eb8f9341-483f-40f8-945a-fa18a2f3e847","ios":"levelo://app?vid=eb8f9341-483f-40f8-945a-fa18a2f3e847"},"vehicle_type_id":"4","last_reported":1744996089,"current_range_meters":6400,"station_id":"ce4bh392rcd13ifvqdm0","pricing_plan_id":"cebpf4jnsgd1na2vs0mg"},{"bike_id":"e9c5ee9f-77a7-4de0-8179-93882aa10d6e","system_id":"levelo_inurba_marseille","lat":43.24812,"lon":5.37455,"is_reserved":false,"is_disabled":false,"rental_uris":{"android":"levelo://app?vid=e9c5ee9f-77a7-4de0-8179-93882aa10d6e","ios":"levelo://app?vid=e9c5ee9f-77a7-4de0-8179-93882aa10d6e"},"vehicle_type_id":"4","last_reported":1744996089,"current_range_meters":6800,"station_id":"ce4bhgh2rcd13ifvqfb0","pricing_plan_id":"cebpf4jnsgd1na2vs0mg"},{"bike_id":"2ca4ca5b-b0c4-4bd4-8b70-8acdf517de44","system_id":"levelo_inurba_marseille","lat":43.25087,"lon":5.39511,"is_reserved":false,"is_disabled":false,"rental_uris":{"android":"levelo://app?vid=2ca4ca5b-b0c4-4bd4-8b70-8acdf517de44","ios":"levelo://app?vid=2ca4ca5b-b0c4-4bd4-8b70-8acdf517de44"},"vehicle_type_id":"4","last_reported":1744996089,"current_range_meters":6800,"station_id":"ce4bhm12rcd13ifvqgkg","pricing_plan_id":"cebpf4jnsgd1na2vs0mg"},{"bike_id":"7888021b-9c87-4e6e-9a1f-5c20ff461fa0","system_id":"levelo_inurba_marseille","lat":43.28868,"lon":5.35862,"is_reserved":false,"is_disabled":false,"rental_uris":{"android":"levelo://app?vid=7888021b-9c87-4e6e-9a1f-5c20ff461fa0","ios":"levelo://app?vid=7888021b-9c87-4e6e-9a1f-5c20ff461fa0"},"vehicle_type_id":"4","last_reported":1744996089,"current_range_meters":6800,"station_id":"ce4bhb12rcd13ifvqem0","pricing_plan_id":"cebpf4jnsgd1na2vs0mg"},{"bike_id":"379b9b9f-9b2a-404d-9560-57e35a0b3fee","system_id":"levelo_inurba_marseille","lat":43.29602,"lon":5.38102,"is_reserved":false,"is_disabled":false,"rental_uris":{"android":"levelo://app?vid=379b9b9f-9b2a-404d-9560-57e35a0b3fee","ios":"levelo://app?vid=379b9b9f-9b2a-404d-9560-57e35a0b3fee"},"vehicle_type_id":"4","last_reported":1744996089,"current_range_meters":6800,"station_id":"ce4bgl12rcd13ifvqbo0","pricing_plan_id":"cebpf4jnsgd1na2vs0mg"},{"bike_id":"5916c32c-64ac-4b7a-9497-ec28d11f36b9","system_id":"levelo_inurba_marseille","lat":43.27367,"lon":5.36245,"is_reserved":false,"is_disabled":false,"rental_uris":{"android":"levelo://app?vid=5916c32c-64ac-4b7a-9497-ec28d11f36b9","ios":"levelo://app?vid=5916c32c-64ac-4b7a-9497-ec28d11f36b9"},"vehicle_type_id":"4","last_reported":1744996089,"current_range_meters":6800,"station_id":"ce4bhbh2rcd13ifvqeo0","pricing_plan_id":"cebpf4jnsgd1na2vs0mg"},{"bike_id":"6d784a48-e4fa-4b18-9f7b-4c20bd153221","system_id":"levelo_inurba_marseille","lat":43.29974,"lon":5.38492,"is_reserved":false,"is_disabled":true,"rental_uris":{"android":"levelo://app?vid=6d784a48-e4fa-4b18-9f7b-4c20bd153221","ios":"levelo://app?vid=6d784a48-e4fa-4b18-9f7b-4c20bd153221"},"vehicle_type_id":"4","last_reported":1744996089,"current_range_meters":6800,"station_id":"ce4bgj92rcd13ifvqbd0","pricing_plan_id":"cebpf4jnsgd1na2vs0mg"},{"bike_id":"d680d86d-58c9-47bf-a794-3d667aa046bc","system_id":"levelo_inurba_marseille","lat":43.28678,"lon":5.38677,"is_reserved":false,"is_disabled":false,"rental_uris":{"android":"levelo://app?vid=d680d86d-58c9-47bf-a794-3d667aa046bc","ios":"levelo://app?vid=d680d86d-58c9-47bf-a794-3d667aa046bc"},"vehicle_type_id":"4","last_reported":1744996089,"current_range_meters":7200,"station_id":"ce4bh492rcd13ifvqdug","pricing_plan_id":"cebpf4jnsgd1na2vs0mg"},{"bike_id":"8596df4e-6400-4f36-aad3-769842a5fd42","system_id":"levelo_inurba_marseille","lat":43.28474,"lon":5.3588,"is_reserved":false,"is_disabled":false,"rental_uris":{"android":"levelo://app?vid=8596df4e-6400-4f36-aad3-769842a5fd42","ios":"levelo://app?vid=8596df4e-6400-4f36-aad3-769842a5fd42"},"vehicle_type_id":"4","last_reported":1744996089,"current_range_meters":7200,"station_id":"ce4bhah2rcd13ifvqei0","pricing_plan_id":"cebpf4jnsgd1na2vs0mg"},{"bike_id":"fafbc126-9ff2-4d92-b0d8-a131448d3834","system_id":"levelo_inurba_marseille","lat":43.32371,"lon":5.38891,"is_reserved":false,"is_disabled":false,"rental_uris":{"android":"levelo://app?vid=fafbc126-9ff2-4d92-b0d8-a131448d3834","ios":"levelo://app?vid=fafbc126-9ff2-4d92-b0d8-a131448d3834"},"vehicle_type_id":"4","last_reported":1744996089,"current_range_meters":7200,"station_id":"ce4bhqp2rcd13ifvqhog","pricing_plan_id":"cebpf4jnsgd1na2vs0mg"},{"bike_id":"aee50bad-d357-4cc6-a41c-9b9606bc64b6","system_id":"levelo_inurba_marseille","lat":43.29183,"lon":5.3583,"is_reserved":false,"is_disabled":false,"rental_uris":{"android":"levelo://app?vid=aee50bad-d357-4cc6-a41c-9b9606bc64b6","ios":"levelo://app?vid=aee50bad-d357-4cc6-a41c-9b9606bc64b6"},"vehicle_type_id":"4","last_reported":1744996089,"current_range_meters":7200,"station_id":"ce4bhb12rcd13ifvqel0","pricing_plan_id":"cebpf4jnsgd1na2vs0mg"},{"bike_id":"948eb56c-3bde-45d2-9021-fd4bfb01952d","system_id":"levelo_inurba_marseille","lat":43.29188,"lon":5.358,"is_reserved":false,"is_disabled":false,"rental_uris":{"android":"levelo://app?vid=948eb56c-3bde-45d2-9021-fd4bfb01952d","ios":"levelo://app?vid=948eb56c-3bde-45d2-9021-fd4bfb01952d"},"vehicle_type_id":"4","last_reported":1744996089,"current_range_meters":7200,"station_id":"ce4bhb12rcd13ifvqel0","pricing_plan_id":"cebpf4jnsgd1na2vs0mg"},{"bike_id":"2f644562-fa45-4d40-b204-ed2c2a84f1b2","system_id":"levelo_inurba_marseille","lat":43.29535,"lon":5.38552,"is_reserved":false,"is_disabled":false,"rental_uris":{"android":"levelo://app?vid=2f644562-fa45-4d40-b204-ed2c2a84f1b2","ios":"levelo://app?vid=2f644562-fa45-4d40-b204-ed2c2a84f1b2"},"vehicle_type_id":"4","last_reported":1744996089,"current_range_meters":4000,"station_id":"ce4bgih2rcd13ifvqba0","pricing_plan_id":"cebpf4jnsgd1na2vs0mg"},{"bike_id":"930c2cde-cdf3-4c1f-ae9e-2ea933addb99","system_id":"levelo_inurba_marseille","lat":43.29544,"lon":5.39044,"is_reserved":false,"is_disabled":false,"rental_uris":{"android":"levelo://app?vid=930c2cde-cdf3-4c1f-ae9e-2ea933addb99","ios":"levelo://app?vid=930c2cde-cdf3-4c1f-ae9e-2ea933addb99"},"vehicle_type_id":"4","last_reported":1744996089,"current_range_meters":7200,"station_id":"ce4bh3p2rcd13ifvqdp0","pricing_plan_id":"cebpf4jnsgd1na2vs0mg"},{"bike_id":"8994fb40-68ee-4f29-8c90-eb016921c098","system_id":"levelo_inurba_marseille","lat":43.30459,"lon":5.379,"is_reserved":false,"is_disabled":false,"rental_uris":{"android":"levelo://app?vid=8994fb40-68ee-4f29-8c90-eb016921c098","ios":"levelo://app?vid=8994fb40-68ee-4f29-8c90-eb016921c098"},"vehicle_type_id":"4","last_reported":1744996089,"current_range_meters":7200,"station_id":"ce4bgup2rcd13ifvqcn0","pricing_plan_id":"cebpf4jnsgd1na2vs0mg"},{"bike_id":"976353ca-c495-45b9-b308-045fc41151d6","system_id":"levelo_inurba_marseille","lat":43.30281,"lon":5.39663,"is_reserved":false,"is_disabled":false,"rental_uris":{"android":"levelo://app?vid=976353ca-c495-45b9-b308-045fc41151d6","ios":"levelo://app?vid=976353ca-c495-45b9-b308-045fc41151d6"},"vehicle_type_id":"4","last_reported":1744996089,"current_range_meters":8000,"station_id":"ce4bh092rcd13ifvqd30","pricing_plan_id":"cebpf4jnsgd1na2vs0mg"},{"bike_id":"e560c3a0-1ced-4d3e-b112-c2b48086f1aa","system_id":"levelo_inurba_marseille","lat":43.30311,"lon":5.36893,"is_reserved":false,"is_disabled":false,"rental_uris":{"android":"levelo://app?vid=e560c3a0-1ced-4d3e-b112-c2b48086f1aa","ios":"levelo://app?vid=e560c3a0-1ced-4d3e-b112-c2b48086f1aa"},"vehicle_type_id":"4","last_reported":1744996089,"current_range_meters":7200,"station_id":"ce4bgqh2rcd13ifvqc5g","pricing_plan_id":"cebpf4jnsgd1na2vs0mg"},{"bike_id":"54c50f40-495f-440b-97a0-2d3551035ebb","system_id":"levelo_inurba_marseille","lat":43.29424,"lon":5.38652,"is_reserved":false,"is_disabled":false,"rental_uris":{"android":"levelo://app?vid=54c50f40-495f-440b-97a0-2d3551035ebb","ios":"levelo://app?vid=54c50f40-495f-440b-97a0-2d3551035ebb"},"vehicle_type_id":"4","last_reported":1744996089,"current_range_meters":8000,"station_id":"ce4bh2h2rcd13ifvqdh0","pricing_plan_id":"cebpf4jnsgd1na2vs0mg"},{"bike_id":"b9626ad0-a480-41c5-8947-c1618ff0c520","system_id":"levelo_inurba_marseille","lat":43.30795,"lon":5.43523,"is_reserved":false,"is_disabled":false,"rental_uris":{"android":"levelo://app?vid=b9626ad0-a480-41c5-8947-c1618ff0c520","ios":"levelo://app?vid=b9626ad0-a480-41c5-8947-c1618ff0c520"},"vehicle_type_id":"4","last_reported":1744996089,"current_range_meters":8000,"station_id":"ce4bhph2rcd13ifvqheg","pricing_plan_id":"cebpf4jnsgd1na2vs0mg"},{"bike_id":"d2de3b4d-d3f8-4216-83ef-66ea9165bc67","system_id":"levelo_inurba_marseille","lat":43.27826,"lon":5.39218,"is_reserved":false,"is_disabled":false,"rental_uris":{"android":"levelo://app?vid=d2de3b4d-d3f8-4216-83ef-66ea9165bc67","ios":"levelo://app?vid=d2de3b4d-d3f8-4216-83ef-66ea9165bc67"},"vehicle_type_id":"4","last_reported":1744996089,"current_range_meters":8000,"station_id":"ce4bhjp2rcd13ifvqga0","pricing_plan_id":"cebpf4jnsgd1na2vs0mg"},{"bike_id":"c8b84327-8292-4d4d-a329-5fbddf7a154a","system_id":"levelo_inurba_marseille","lat":43.3043,"lon":5.38888,"is_reserved":false,"is_disabled":false,"rental_uris":{"android":"levelo://app?vid=c8b84327-8292-4d4d-a329-5fbddf7a154a","ios":"levelo://app?vid=c8b84327-8292-4d4d-a329-5fbddf7a154a"},"vehicle_type_id":"4","last_reported":1744996089,"current_range_meters":8000,"station_id":"ce4bgk12rcd13ifvqbi0","pricing_plan_id":"cebpf4jnsgd1na2vs0mg"},{"bike_id":"0a71022d-98ed-4b5a-a5a1-8a6623b3bcca","system_id":"levelo_inurba_marseille","lat":43.28848,"lon":5.39338,"is_reserved":false,"is_disabled":false,"rental_uris":{"android":"levelo://app?vid=0a71022d-98ed-4b5a-a5a1-8a6623b3bcca","ios":"levelo://app?vid=0a71022d-98ed-4b5a-a5a1-8a6623b3bcca"},"vehicle_type_id":"4","last_reported":1744996089,"current_range_meters":8000,"station_id":"ce4bh2p2rcd13ifvqdi0","pricing_plan_id":"cebpf4jnsgd1na2vs0mg"},{"bike_id":"1b871466-8e67-456e-a3a1-196a777d957c","system_id":"levelo_inurba_marseille","lat":43.27997,"lon":5.40011,"is_reserved":false,"is_disabled":false,"rental_uris":{"android":"levelo://app?vid=1b871466-8e67-456e-a3a1-196a777d957c","ios":"levelo://app?vid=1b871466-8e67-456e-a3a1-196a777d957c"},"vehicle_type_id":"4","last_reported":1744996089,"current_range_meters":8000,"station_id":"ce4bho92rcd13ifvqh4g","pricing_plan_id":"cebpf4jnsgd1na2vs0mg"},{"bike_id":"36edb3fd-3796-4ba1-a4a5-e5f81c52e929","system_id":"levelo_inurba_marseille","lat":43.29905,"lon":5.43674,"is_reserved":false,"is_disabled":false,"rental_uris":{"android":"levelo://app?vid=36edb3fd-3796-4ba1-a4a5-e5f81c52e929","ios":"levelo://app?vid=36edb3fd-3796-4ba1-a4a5-e5f81c52e929"},"vehicle_type_id":"4","last_reported":1744996089,"current_range_meters":8000,"station_id":"ce4bhpp2rcd13ifvqhfg","pricing_plan_id":"cebpf4jnsgd1na2vs0mg"},{"bike_id":"a642ff43-2c2e-497f-882a-7e5eaa732066","system_id":"levelo_inurba_marseille","lat":43.29568,"lon":5.38575,"is_reserved":false,"is_disabled":false,"rental_uris":{"android":"levelo://app?vid=a642ff43-2c2e-497f-882a-7e5eaa732066","ios":"levelo://app?vid=a642ff43-2c2e-497f-882a-7e5eaa732066"},"vehicle_type_id":"4","last_reported":1744996089,"current_range_meters":8000,"station_id":"ce4bgih2rcd13ifvqba0","pricing_plan_id":"cebpf4jnsgd1na2vs0mg"},{"bike_id":"97b02656-af00-47e6-89d7-e8f4651abf53","system_id":"levelo_inurba_marseille","lat":43.260223,"lon":5.375594,"is_reserved":false,"is_disabled":false,"rental_uris":{"android":"levelo://app?vid=97b02656-af00-47e6-89d7-e8f4651abf53","ios":"levelo://app?vid=97b02656-af00-47e6-89d7-e8f4651abf53"},"vehicle_type_id":"4","last_reported":1744996089,"current_range_meters":7200,"station_id":"ce4bhgh2rcd13ifvqfa0","pricing_plan_id":"cebpf4jnsgd1na2vs0mg"},{"bike_id":"5583a1cb-ef8e-4930-b38d-8d47fac1b289","system_id":"levelo_inurba_marseille","lat":43.2781,"lon":5.4071,"is_reserved":false,"is_disabled":true,"rental_uris":{"android":"levelo://app?vid=5583a1cb-ef8e-4930-b38d-8d47fac1b289","ios":"levelo://app?vid=5583a1cb-ef8e-4930-b38d-8d47fac1b289"},"vehicle_type_id":"4","last_reported":1744996089,"current_range_meters":8000,"station_id":"ce4bhnh2rcd13ifvqgtg","pricing_plan_id":"cebpf4jnsgd1na2vs0mg"},{"bike_id":"f72c6aad-73fb-4f36-832b-632c268587b5","system_id":"levelo_inurba_marseille","lat":43.28701,"lon":5.39991,"is_reserved":false,"is_disabled":false,"rental_uris":{"android":"levelo://app?vid=f72c6aad-73fb-4f36-832b-632c268587b5","ios":"levelo://app?vid=f72c6aad-73fb-4f36-832b-632c268587b5"},"vehicle_type_id":"4","last_reported":1744996089,"current_range_meters":8400,"station_id":"ce4bho92rcd13ifvqh3g","pricing_plan_id":"cebpf4jnsgd1na2vs0mg"},{"bike_id":"8bdfaa69-328d-48d4-ae15-cb1f9de7d1b3","system_id":"levelo_inurba_marseille","lat":43.2623,"lon":5.40456,"is_reserved":false,"is_disabled":false,"rental_uris":{"android":"levelo://app?vid=8bdfaa69-328d-48d4-ae15-cb1f9de7d1b3","ios":"levelo://app?vid=8bdfaa69-328d-48d4-ae15-cb1f9de7d1b3"},"vehicle_type_id":"4","last_reported":1744996089,"current_range_meters":8400,"station_id":"ce4bhmh2rcd13ifvqgmg","pricing_plan_id":"cebpf4jnsgd1na2vs0mg"},{"bike_id":"2adc63fd-f304-44b8-8143-5a0fa8b3bb60","system_id":"levelo_inurba_marseille","lat":43.29402,"lon":5.38599,"is_reserved":false,"is_disabled":false,"rental_uris":{"android":"levelo://app?vid=2adc63fd-f304-44b8-8143-5a0fa8b3bb60","ios":"levelo://app?vid=2adc63fd-f304-44b8-8143-5a0fa8b3bb60"},"vehicle_type_id":"4","last_reported":1744996089,"current_range_meters":8400,"station_id":"ce4bh2h2rcd13ifvqdh0","pricing_plan_id":"cebpf4jnsgd1na2vs0mg"},{"bike_id":"a52f1337-c25e-41bd-a94b-4bf82ff78fd0","system_id":"levelo_inurba_marseille","lat":43.30438,"lon":5.38889,"is_reserved":false,"is_disabled":false,"rental_uris":{"android":"levelo://app?vid=a52f1337-c25e-41bd-a94b-4bf82ff78fd0","ios":"levelo://app?vid=a52f1337-c25e-41bd-a94b-4bf82ff78fd0"},"vehicle_type_id":"4","last_reported":1744996089,"current_range_meters":8400,"station_id":"ce4bgk12rcd13ifvqbi0","pricing_plan_id":"cebpf4jnsgd1na2vs0mg"},{"bike_id":"c04edf20-204d-47bd-9535-c95a09b2317b","system_id":"levelo_inurba_marseille","lat":43.2794,"lon":5.41044,"is_reserved":false,"is_disabled":false,"rental_uris":{"android":"levelo://app?vid=c04edf20-204d-47bd-9535-c95a09b2317b","ios":"levelo://app?vid=c04edf20-204d-47bd-9535-c95a09b2317b"},"vehicle_type_id":"4","last_reported":1744996089,"current_range_meters":8400,"station_id":"ce4bhnp2rcd13ifvqh0g","pricing_plan_id":"cebpf4jnsgd1na2vs0mg"},{"bike_id":"a3fa0de6-6c82-4edd-8a2d-3c38e70594d9","system_id":"levelo_inurba_marseille","lat":43.30303,"lon":5.39141,"is_reserved":false,"is_disabled":false,"rental_uris":{"android":"levelo://app?vid=a3fa0de6-6c82-4edd-8a2d-3c38e70594d9","ios":"levelo://app?vid=a3fa0de6-6c82-4edd-8a2d-3c38e70594d9"},"vehicle_type_id":"4","last_reported":1744996089,"current_range_meters":8400,"station_id":"","pricing_plan_id":"cebpf4jnsgd1na2vs0mg"},{"bike_id":"026998ee-2fc5-4abb-8898-81f2af563a8f","system_id":"levelo_inurba_marseille","lat":43.297217,"lon":5.376977,"is_reserved":false,"is_disabled":true,"rental_uris":{"android":"levelo://app?vid=026998ee-2fc5-4abb-8898-81f2af563a8f","ios":"levelo://app?vid=026998ee-2fc5-4abb-8898-81f2af563a8f"},"vehicle_type_id":"4","last_reported":1744996089,"current_range_meters":8400,"station_id":"ce4bgkh2rcd13ifvqbl0","pricing_plan_id":"cebpf4jnsgd1na2vs0mg"},{"bike_id":"dc1da4a0-2f82-42ab-91fb-a57769deb1bb","system_id":"levelo_inurba_marseille","lat":43.24804,"lon":5.37454,"is_reserved":false,"is_disabled":false,"rental_uris":{"android":"levelo://app?vid=dc1da4a0-2f82-42ab-91fb-a57769deb1bb","ios":"levelo://app?vid=dc1da4a0-2f82-42ab-91fb-a57769deb1bb"},"vehicle_type_id":"4","last_reported":1744996089,"current_range_meters":8400,"station_id":"ce4bhgh2rcd13ifvqfb0","pricing_plan_id":"cebpf4jnsgd1na2vs0mg"},{"bike_id":"36028acb-1986-4460-84fe-b2aca491647c","system_id":"levelo_inurba_marseille","lat":43.26776,"lon":5.39413,"is_reserved":false,"is_disabled":true,"rental_uris":{"android":"levelo://app?vid=36028acb-1986-4460-84fe-b2aca491647c","ios":"levelo://app?vid=36028acb-1986-4460-84fe-b2aca491647c"},"vehicle_type_id":"4","last_reported":1744996089,"current_range_meters":8800,"station_id":"ce4bhh12rcd13ifvqfg0","pricing_plan_id":"cebpf4jnsgd1na2vs0mg"},{"bike_id":"d480d0a4-2614-490a-b65d-a17b031a157f","system_id":"levelo_inurba_marseille","lat":43.29561,"lon":5.38531,"is_reserved":false,"is_disabled":false,"rental_uris":{"android":"levelo://app?vid=d480d0a4-2614-490a-b65d-a17b031a157f","ios":"levelo://app?vid=d480d0a4-2614-490a-b65d-a17b031a157f"},"vehicle_type_id":"4","last_reported":1744996089,"current_range_meters":8400,"station_id":"ce4bgih2rcd13ifvqba0","pricing_plan_id":"cebpf4jnsgd1na2vs0mg"},{"bike_id":"22209dda-afa5-4a31-9c25-a5d94a331926","system_id":"levelo_inurba_marseille","lat":43.24069,"lon":5.3771,"is_reserved":false,"is_disabled":true,"rental_uris":{"android":"levelo://app?vid=22209dda-afa5-4a31-9c25-a5d94a331926","ios":"levelo://app?vid=22209dda-afa5-4a31-9c25-a5d94a331926"},"vehicle_type_id":"4","last_reported":1744996089,"current_range_meters":8800,"station_id":"ce4bhnp2rcd13ifvqgvg","pricing_plan_id":"cebpf4jnsgd1na2vs0mg"},{"bike_id":"7dfd96be-61f6-4c61-bb48-ab8405edfbd4","system_id":"levelo_inurba_marseille","lat":43.240719,"lon":5.377689,"is_reserved":false,"is_disabled":false,"rental_uris":{"android":"levelo://app?vid=7dfd96be-61f6-4c61-bb48-ab8405edfbd4","ios":"levelo://app?vid=7dfd96be-61f6-4c61-bb48-ab8405edfbd4"},"vehicle_type_id":"4","last_reported":1744996089,"current_range_meters":8800,"station_id":"ce4bhnp2rcd13ifvqgvg","pricing_plan_id":"cebpf4jnsgd1na2vs0mg"},{"bike_id":"c1591330-6aa5-4c8a-991a-ca6a29ff1ae4","system_id":"levelo_inurba_marseille","lat":43.24804,"lon":5.3745,"is_reserved":false,"is_disabled":false,"rental_uris":{"android":"levelo://app?vid=c1591330-6aa5-4c8a-991a-ca6a29ff1ae4","ios":"levelo://app?vid=c1591330-6aa5-4c8a-991a-ca6a29ff1ae4"},"vehicle_type_id":"4","last_reported":1744996089,"current_range_meters":8800,"station_id":"ce4bhgh2rcd13ifvqfb0","pricing_plan_id":"cebpf4jnsgd1na2vs0mg"},{"bike_id":"1d5a29a1-b998-42fa-918a-d98d41fd02bd","system_id":"levelo_inurba_marseille","lat":43.28977,"lon":5.35612,"is_reserved":false,"is_disabled":false,"rental_uris":{"android":"levelo://app?vid=1d5a29a1-b998-42fa-918a-d98d41fd02bd","ios":"levelo://app?vid=1d5a29a1-b998-42fa-918a-d98d41fd02bd"},"vehicle_type_id":"4","last_reported":1744996089,"current_range_meters":8800,"station_id":"ce4bhb92rcd13ifvqen0","pricing_plan_id":"cebpf4jnsgd1na2vs0mg"},{"bike_id":"376e1387-0a1b-404a-abd5-0671da6d23fb","system_id":"levelo_inurba_marseille","lat":43.25497,"lon":5.37654,"is_reserved":false,"is_disabled":false,"rental_uris":{"android":"levelo://app?vid=376e1387-0a1b-404a-abd5-0671da6d23fb","ios":"levelo://app?vid=376e1387-0a1b-404a-abd5-0671da6d23fb"},"vehicle_type_id":"4","last_reported":1744996089,"current_range_meters":8800,"station_id":"ce4bhh12rcd13ifvqff0","pricing_plan_id":"cebpf4jnsgd1na2vs0mg"},{"bike_id":"e3378e94-fc89-4bab-8b90-054e04eebb12","system_id":"levelo_inurba_marseille","lat":43.278137,"lon":5.407095,"is_reserved":false,"is_disabled":false,"rental_uris":{"android":"levelo://app?vid=e3378e94-fc89-4bab-8b90-054e04eebb12","ios":"levelo://app?vid=e3378e94-fc89-4bab-8b90-054e04eebb12"},"vehicle_type_id":"4","last_reported":1744996089,"current_range_meters":8400,"station_id":"ce4bhnh2rcd13ifvqgtg","pricing_plan_id":"cebpf4jnsgd1na2vs0mg"},{"bike_id":"ec8c9ac7-1e95-4171-97f3-226ce1e3c951","system_id":"levelo_inurba_marseille","lat":43.32116,"lon":5.3679,"is_reserved":false,"is_disabled":false,"rental_uris":{"android":"levelo://app?vid=ec8c9ac7-1e95-4171-97f3-226ce1e3c951","ios":"levelo://app?vid=ec8c9ac7-1e95-4171-97f3-226ce1e3c951"},"vehicle_type_id":"4","last_reported":1744996089,"current_range_meters":9200,"station_id":"ce4bhrh2rcd13ifvqhug","pricing_plan_id":"cebpf4jnsgd1na2vs0mg"},{"bike_id":"3ce64f40-e036-4661-9567-aa9d22413899","system_id":"levelo_inurba_marseille","lat":43.30608,"lon":5.37232,"is_reserved":false,"is_disabled":false,"rental_uris":{"android":"levelo://app?vid=3ce64f40-e036-4661-9567-aa9d22413899","ios":"levelo://app?vid=3ce64f40-e036-4661-9567-aa9d22413899"},"vehicle_type_id":"4","last_reported":1744996089,"current_range_meters":9200,"station_id":"ce4bgqh2rcd13ifvqc4g","pricing_plan_id":"cebpf4jnsgd1na2vs0mg"},{"bike_id":"7e5de594-f4e8-4ae5-8d4c-a3076910649f","system_id":"levelo_inurba_marseille","lat":43.27988,"lon":5.40026,"is_reserved":false,"is_disabled":false,"rental_uris":{"android":"levelo://app?vid=7e5de594-f4e8-4ae5-8d4c-a3076910649f","ios":"levelo://app?vid=7e5de594-f4e8-4ae5-8d4c-a3076910649f"},"vehicle_type_id":"4","last_reported":1744996089,"current_range_meters":9200,"station_id":"ce4bho92rcd13ifvqh4g","pricing_plan_id":"cebpf4jnsgd1na2vs0mg"},{"bike_id":"bbb4006a-4c19-4acd-a96b-afae8acd250f","system_id":"levelo_inurba_marseille","lat":43.2908,"lon":5.37158,"is_reserved":false,"is_disabled":false,"rental_uris":{"android":"levelo://app?vid=bbb4006a-4c19-4acd-a96b-afae8acd250f","ios":"levelo://app?vid=bbb4006a-4c19-4acd-a96b-afae8acd250f"},"vehicle_type_id":"4","last_reported":1744996089,"current_range_meters":9200,"station_id":"ce4bh5p2rcd13ifvqe4g","pricing_plan_id":"cebpf4jnsgd1na2vs0mg"},{"bike_id":"70b6b133-6705-4dfd-b4a7-6e88067904e8","system_id":"levelo_inurba_marseille","lat":43.24185,"lon":5.36437,"is_reserved":false,"is_disabled":false,"rental_uris":{"android":"levelo://app?vid=70b6b133-6705-4dfd-b4a7-6e88067904e8","ios":"levelo://app?vid=70b6b133-6705-4dfd-b4a7-6e88067904e8"},"vehicle_type_id":"4","last_reported":1744996089,"current_range_meters":9200,"station_id":"cpo36qri1sfpv3e86is0","pricing_plan_id":"cebpf4jnsgd1na2vs0mg"},{"bike_id":"b8d0953b-d600-49f8-948b-5ced4449d021","system_id":"levelo_inurba_marseille","lat":43.29186,"lon":5.35801,"is_reserved":false,"is_disabled":false,"rental_uris":{"android":"levelo://app?vid=b8d0953b-d600-49f8-948b-5ced4449d021","ios":"levelo://app?vid=b8d0953b-d600-49f8-948b-5ced4449d021"},"vehicle_type_id":"4","last_reported":1744996089,"current_range_meters":9200,"station_id":"ce4bhb12rcd13ifvqel0","pricing_plan_id":"cebpf4jnsgd1na2vs0mg"},{"bike_id":"d32d6979-2a65-4cb5-b09f-dd1cdf783b41","system_id":"levelo_inurba_marseille","lat":43.2407,"lon":5.37765,"is_reserved":false,"is_disabled":false,"rental_uris":{"android":"levelo://app?vid=d32d6979-2a65-4cb5-b09f-dd1cdf783b41","ios":"levelo://app?vid=d32d6979-2a65-4cb5-b09f-dd1cdf783b41"},"vehicle_type_id":"4","last_reported":1744996089,"current_range_meters":9200,"station_id":"ce4bhnp2rcd13ifvqgvg","pricing_plan_id":"cebpf4jnsgd1na2vs0mg"},{"bike_id":"cff69856-04ff-4a2b-8ae9-354d32591735","system_id":"levelo_inurba_marseille","lat":43.29415,"lon":5.38625,"is_reserved":false,"is_disabled":false,"rental_uris":{"android":"levelo://app?vid=cff69856-04ff-4a2b-8ae9-354d32591735","ios":"levelo://app?vid=cff69856-04ff-4a2b-8ae9-354d32591735"},"vehicle_type_id":"4","last_reported":1744996089,"current_range_meters":9200,"station_id":"ce4bh2h2rcd13ifvqdh0","pricing_plan_id":"cebpf4jnsgd1na2vs0mg"},{"bike_id":"38d71541-39fa-44bc-b9fa-dad7cbdc7434","system_id":"levelo_inurba_marseille","lat":43.28757,"lon":5.38653,"is_reserved":false,"is_disabled":false,"rental_uris":{"android":"levelo://app?vid=38d71541-39fa-44bc-b9fa-dad7cbdc7434","ios":"levelo://app?vid=38d71541-39fa-44bc-b9fa-dad7cbdc7434"},"vehicle_type_id":"4","last_reported":1744996089,"current_range_meters":9200,"station_id":"","pricing_plan_id":"cebpf4jnsgd1na2vs0mg"},{"bike_id":"18ed57d5-981f-4953-acb3-90f081c4b44e","system_id":"levelo_inurba_marseille","lat":43.26225,"lon":5.40449,"is_reserved":false,"is_disabled":false,"rental_uris":{"android":"levelo://app?vid=18ed57d5-981f-4953-acb3-90f081c4b44e","ios":"levelo://app?vid=18ed57d5-981f-4953-acb3-90f081c4b44e"},"vehicle_type_id":"4","last_reported":1744996089,"current_range_meters":9200,"station_id":"ce4bhmh2rcd13ifvqgmg","pricing_plan_id":"cebpf4jnsgd1na2vs0mg"},{"bike_id":"280bd998-8270-4a0a-962a-a82bd6bb4132","system_id":"levelo_inurba_marseille","lat":43.292606,"lon":5.384441,"is_reserved":false,"is_disabled":false,"rental_uris":{"android":"levelo://app?vid=280bd998-8270-4a0a-962a-a82bd6bb4132","ios":"levelo://app?vid=280bd998-8270-4a0a-962a-a82bd6bb4132"},"vehicle_type_id":"4","last_reported":1744996089,"current_range_meters":9200,"station_id":"ce4bh692rcd13ifvqea0","pricing_plan_id":"cebpf4jnsgd1na2vs0mg"},{"bike_id":"271c8c79-7ca6-4367-80fb-8a0efc84181c","system_id":"levelo_inurba_marseille","lat":43.23215,"lon":5.35524,"is_reserved":false,"is_disabled":false,"rental_uris":{"android":"levelo://app?vid=271c8c79-7ca6-4367-80fb-8a0efc84181c","ios":"levelo://app?vid=271c8c79-7ca6-4367-80fb-8a0efc84181c"},"vehicle_type_id":"4","last_reported":1744996089,"current_range_meters":9200,"station_id":"ce4bhu92rcd13ifvqi70","pricing_plan_id":"cebpf4jnsgd1na2vs0mg"},{"bike_id":"7be52c82-68c8-44fe-9ad9-b686e356e364","system_id":"levelo_inurba_marseille","lat":43.29979,"lon":5.38497,"is_reserved":false,"is_disabled":false,"rental_uris":{"android":"levelo://app?vid=7be52c82-68c8-44fe-9ad9-b686e356e364","ios":"levelo://app?vid=7be52c82-68c8-44fe-9ad9-b686e356e364"},"vehicle_type_id":"4","last_reported":1744996089,"current_range_meters":9600,"station_id":"ce4bgj92rcd13ifvqbd0","pricing_plan_id":"cebpf4jnsgd1na2vs0mg"},{"bike_id":"f2d09a49-02ca-41b9-870e-fdff640473d6","system_id":"levelo_inurba_marseille","lat":43.24173,"lon":5.36398,"is_reserved":false,"is_disabled":false,"rental_uris":{"android":"levelo://app?vid=f2d09a49-02ca-41b9-870e-fdff640473d6","ios":"levelo://app?vid=f2d09a49-02ca-41b9-870e-fdff640473d6"},"vehicle_type_id":"4","last_reported":1744996089,"current_range_meters":9600,"station_id":"cpo36qri1sfpv3e86is0","pricing_plan_id":"cebpf4jnsgd1na2vs0mg"},{"bike_id":"069372f2-74f7-429b-b015-2c86897cd688","system_id":"levelo_inurba_marseille","lat":43.2998,"lon":5.38492,"is_reserved":false,"is_disabled":false,"rental_uris":{"android":"levelo://app?vid=069372f2-74f7-429b-b015-2c86897cd688","ios":"levelo://app?vid=069372f2-74f7-429b-b015-2c86897cd688"},"vehicle_type_id":"4","last_reported":1744996089,"current_range_meters":9600,"station_id":"ce4bgj92rcd13ifvqbd0","pricing_plan_id":"cebpf4jnsgd1na2vs0mg"},{"bike_id":"d0693017-3219-4f2c-9252-be27486404d3","system_id":"levelo_inurba_marseille","lat":43.24662,"lon":5.38161,"is_reserved":false,"is_disabled":false,"rental_uris":{"android":"levelo://app?vid=d0693017-3219-4f2c-9252-be27486404d3","ios":"levelo://app?vid=d0693017-3219-4f2c-9252-be27486404d3"},"vehicle_type_id":"4","last_reported":1744996089,"current_range_meters":9600,"station_id":"ce4bhih2rcd13ifvqfr0","pricing_plan_id":"cebpf4jnsgd1na2vs0mg"},{"bike_id":"a9379aca-3751-40fb-9d44-ca159a97fff4","system_id":"levelo_inurba_marseille","lat":43.286071,"lon":5.370669,"is_reserved":false,"is_disabled":false,"rental_uris":{"android":"levelo://app?vid=a9379aca-3751-40fb-9d44-ca159a97fff4","ios":"levelo://app?vid=a9379aca-3751-40fb-9d44-ca159a97fff4"},"vehicle_type_id":"4","last_reported":1744996089,"current_range_meters":9600,"station_id":"","pricing_plan_id":"cebpf4jnsgd1na2vs0mg"},{"bike_id":"cf4db056-d3f7-4001-aa54-c43d57090a49","system_id":"levelo_inurba_marseille","lat":43.23193,"lon":5.35556,"is_reserved":false,"is_disabled":false,"rental_uris":{"android":"levelo://app?vid=cf4db056-d3f7-4001-aa54-c43d57090a49","ios":"levelo://app?vid=cf4db056-d3f7-4001-aa54-c43d57090a49"},"vehicle_type_id":"4","last_reported":1744996089,"current_range_meters":9600,"station_id":"ce4bhu92rcd13ifvqi70","pricing_plan_id":"cebpf4jnsgd1na2vs0mg"},{"bike_id":"0f0c2c9d-c11a-480f-8137-c5315e4ded3a","system_id":"levelo_inurba_marseille","lat":43.23202,"lon":5.35571,"is_reserved":false,"is_disabled":false,"rental_uris":{"android":"levelo://app?vid=0f0c2c9d-c11a-480f-8137-c5315e4ded3a","ios":"levelo://app?vid=0f0c2c9d-c11a-480f-8137-c5315e4ded3a"},"vehicle_type_id":"4","last_reported":1744996089,"current_range_meters":9600,"station_id":"ce4bhu92rcd13ifvqi70","pricing_plan_id":"cebpf4jnsgd1na2vs0mg"},{"bike_id":"50dc23ed-5e19-46ee-92cf-f2ca4c445852","system_id":"levelo_inurba_marseille","lat":43.33757,"lon":5.39164,"is_reserved":false,"is_disabled":false,"rental_uris":{"android":"levelo://app?vid=50dc23ed-5e19-46ee-92cf-f2ca4c445852","ios":"levelo://app?vid=50dc23ed-5e19-46ee-92cf-f2ca4c445852"},"vehicle_type_id":"4","last_reported":1744996089,"current_range_meters":9600,"station_id":"ce4bhr92rcd13ifvqhsg","pricing_plan_id":"cebpf4jnsgd1na2vs0mg"},{"bike_id":"6edae6e8-68d1-447b-bc9a-f33f449be267","system_id":"levelo_inurba_marseille","lat":43.23962,"lon":5.36631,"is_reserved":false,"is_disabled":false,"rental_uris":{"android":"levelo://app?vid=6edae6e8-68d1-447b-bc9a-f33f449be267","ios":"levelo://app?vid=6edae6e8-68d1-447b-bc9a-f33f449be267"},"vehicle_type_id":"4","last_reported":1744996089,"current_range_meters":9600,"station_id":"ce4bhi12rcd13ifvqfp0","pricing_plan_id":"cebpf4jnsgd1na2vs0mg"},{"bike_id":"92471103-43a8-42cb-b636-e56d503e4a87","system_id":"levelo_inurba_marseille","lat":43.29002,"lon":5.35614,"is_reserved":false,"is_disabled":false,"rental_uris":{"android":"levelo://app?vid=92471103-43a8-42cb-b636-e56d503e4a87","ios":"levelo://app?vid=92471103-43a8-42cb-b636-e56d503e4a87"},"vehicle_type_id":"4","last_reported":1744996089,"current_range_meters":10000,"station_id":"ce4bhb92rcd13ifvqen0","pricing_plan_id":"cebpf4jnsgd1na2vs0mg"},{"bike_id":"1210dc72-37b8-49f7-b249-6faa54daba28","system_id":"levelo_inurba_marseille","lat":43.32383,"lon":5.3678,"is_reserved":false,"is_disabled":false,"rental_uris":{"android":"levelo://app?vid=1210dc72-37b8-49f7-b249-6faa54daba28","ios":"levelo://app?vid=1210dc72-37b8-49f7-b249-6faa54daba28"},"vehicle_type_id":"4","last_reported":1744996089,"current_range_meters":10000,"station_id":"ce4bhsh2rcd13ifvqi2g","pricing_plan_id":"cebpf4jnsgd1na2vs0mg"},{"bike_id":"6941b90b-7907-44ac-a207-2906242afa3d","system_id":"levelo_inurba_marseille","lat":43.29948,"lon":5.36536,"is_reserved":false,"is_disabled":false,"rental_uris":{"android":"levelo://app?vid=6941b90b-7907-44ac-a207-2906242afa3d","ios":"levelo://app?vid=6941b90b-7907-44ac-a207-2906242afa3d"},"vehicle_type_id":"4","last_reported":1744996089,"current_range_meters":10000,"station_id":"ce4bgm92rcd13ifvqbr0","pricing_plan_id":"cebpf4jnsgd1na2vs0mg"},{"bike_id":"3ac0ef56-dd1f-451c-97f2-b2506da73437","system_id":"levelo_inurba_marseille","lat":43.28448,"lon":5.39189,"is_reserved":false,"is_disabled":false,"rental_uris":{"android":"levelo://app?vid=3ac0ef56-dd1f-451c-97f2-b2506da73437","ios":"levelo://app?vid=3ac0ef56-dd1f-451c-97f2-b2506da73437"},"vehicle_type_id":"4","last_reported":1744996089,"current_range_meters":10000,"station_id":"ce4bhoh2rcd13ifvqh5g","pricing_plan_id":"cebpf4jnsgd1na2vs0mg"},{"bike_id":"618b1ab2-8e16-456a-b2f4-569f04634ba2","system_id":"levelo_inurba_marseille","lat":43.27812,"lon":5.40715,"is_reserved":false,"is_disabled":false,"rental_uris":{"android":"levelo://app?vid=618b1ab2-8e16-456a-b2f4-569f04634ba2","ios":"levelo://app?vid=618b1ab2-8e16-456a-b2f4-569f04634ba2"},"vehicle_type_id":"4","last_reported":1744996089,"current_range_meters":10000,"station_id":"ce4bhnh2rcd13ifvqgtg","pricing_plan_id":"cebpf4jnsgd1na2vs0mg"},{"bike_id":"dd1cd76f-32eb-4908-b403-a6c2b6b2765f","system_id":"levelo_inurba_marseille","lat":43.27812,"lon":5.40712,"is_reserved":false,"is_disabled":false,"rental_uris":{"android":"levelo://app?vid=dd1cd76f-32eb-4908-b403-a6c2b6b2765f","ios":"levelo://app?vid=dd1cd76f-32eb-4908-b403-a6c2b6b2765f"},"vehicle_type_id":"4","last_reported":1744996089,"current_range_meters":10000,"station_id":"ce4bhnh2rcd13ifvqgtg","pricing_plan_id":"cebpf4jnsgd1na2vs0mg"},{"bike_id":"f41bb5cf-abb3-4d60-9eb2-ab63b94646a3","system_id":"levelo_inurba_marseille","lat":43.28417,"lon":5.37515,"is_reserved":false,"is_disabled":false,"rental_uris":{"android":"levelo://app?vid=f41bb5cf-abb3-4d60-9eb2-ab63b94646a3","ios":"levelo://app?vid=f41bb5cf-abb3-4d60-9eb2-ab63b94646a3"},"vehicle_type_id":"4","last_reported":1744996089,"current_range_meters":10800,"station_id":"ce4bh412rcd13ifvqds0","pricing_plan_id":"cebpf4jnsgd1na2vs0mg"},{"bike_id":"91b0f96d-1a6e-4e28-98b9-2c86f2485aee","system_id":"levelo_inurba_marseille","lat":43.32416,"lon":5.39048,"is_reserved":false,"is_disabled":false,"rental_uris":{"android":"levelo://app?vid=91b0f96d-1a6e-4e28-98b9-2c86f2485aee","ios":"levelo://app?vid=91b0f96d-1a6e-4e28-98b9-2c86f2485aee"},"vehicle_type_id":"4","last_reported":1744996089,"current_range_meters":10800,"station_id":"","pricing_plan_id":"cebpf4jnsgd1na2vs0mg"},{"bike_id":"7ed91d22-3d5b-4254-83bf-64eb2a7d5481","system_id":"levelo_inurba_marseille","lat":43.22499,"lon":5.34781,"is_reserved":false,"is_disabled":false,"rental_uris":{"android":"levelo://app?vid=7ed91d22-3d5b-4254-83bf-64eb2a7d5481","ios":"levelo://app?vid=7ed91d22-3d5b-4254-83bf-64eb2a7d5481"},"vehicle_type_id":"4","last_reported":1744996089,"current_range_meters":10800,"station_id":"","pricing_plan_id":"cebpf4jnsgd1na2vs0mg"},{"bike_id":"dd5f3050-1761-4850-a602-a9ca5fdb6a5a","system_id":"levelo_inurba_marseille","lat":43.28044,"lon":5.36937,"is_reserved":false,"is_disabled":false,"rental_uris":{"android":"levelo://app?vid=dd5f3050-1761-4850-a602-a9ca5fdb6a5a","ios":"levelo://app?vid=dd5f3050-1761-4850-a602-a9ca5fdb6a5a"},"vehicle_type_id":"4","last_reported":1744996089,"current_range_meters":10800,"station_id":"ce4bha12rcd13ifvqef0","pricing_plan_id":"cebpf4jnsgd1na2vs0mg"},{"bike_id":"397aa98a-9e95-44d5-b872-9acc43faf340","system_id":"levelo_inurba_marseille","lat":43.28615,"lon":5.35108,"is_reserved":false,"is_disabled":false,"rental_uris":{"android":"levelo://app?vid=397aa98a-9e95-44d5-b872-9acc43faf340","ios":"levelo://app?vid=397aa98a-9e95-44d5-b872-9acc43faf340"},"vehicle_type_id":"4","last_reported":1744996089,"current_range_meters":10800,"station_id":"ce4bhch2rcd13ifvqeug","pricing_plan_id":"cebpf4jnsgd1na2vs0mg"},{"bike_id":"29483b9d-c8c6-4f2e-8fb4-a4664a04fb53","system_id":"levelo_inurba_marseille","lat":43.28728,"lon":5.36096,"is_reserved":false,"is_disabled":false,"rental_uris":{"android":"levelo://app?vid=29483b9d-c8c6-4f2e-8fb4-a4664a04fb53","ios":"levelo://app?vid=29483b9d-c8c6-4f2e-8fb4-a4664a04fb53"},"vehicle_type_id":"4","last_reported":1744996089,"current_range_meters":10800,"station_id":"cki0cbj6b192h4jlfktg","pricing_plan_id":"cebpf4jnsgd1na2vs0mg"},{"bike_id":"3c895d49-5c8d-4d6f-9fc5-750cefdbbcc5","system_id":"levelo_inurba_marseille","lat":43.29193,"lon":5.35801,"is_reserved":false,"is_disabled":false,"rental_uris":{"android":"levelo://app?vid=3c895d49-5c8d-4d6f-9fc5-750cefdbbcc5","ios":"levelo://app?vid=3c895d49-5c8d-4d6f-9fc5-750cefdbbcc5"},"vehicle_type_id":"4","last_reported":1744996089,"current_range_meters":11200,"station_id":"ce4bhb12rcd13ifvqel0","pricing_plan_id":"cebpf4jnsgd1na2vs0mg"},{"bike_id":"cd41acb4-12d5-43d4-823b-0f343102715f","system_id":"levelo_inurba_marseille","lat":43.28864,"lon":5.35858,"is_reserved":false,"is_disabled":false,"rental_uris":{"android":"levelo://app?vid=cd41acb4-12d5-43d4-823b-0f343102715f","ios":"levelo://app?vid=cd41acb4-12d5-43d4-823b-0f343102715f"},"vehicle_type_id":"4","last_reported":1744996089,"current_range_meters":11600,"station_id":"ce4bhb12rcd13ifvqem0","pricing_plan_id":"cebpf4jnsgd1na2vs0mg"},{"bike_id":"7a8bd0f9-6a42-46d8-b54c-5a4314fcde4e","system_id":"levelo_inurba_marseille","lat":43.30925,"lon":5.40142,"is_reserved":false,"is_disabled":false,"rental_uris":{"android":"levelo://app?vid=7a8bd0f9-6a42-46d8-b54c-5a4314fcde4e","ios":"levelo://app?vid=7a8bd0f9-6a42-46d8-b54c-5a4314fcde4e"},"vehicle_type_id":"4","last_reported":1744996089,"current_range_meters":11200,"station_id":"ce4bgvp2rcd13ifvqct0","pricing_plan_id":"cebpf4jnsgd1na2vs0mg"},{"bike_id":"0804121b-4319-4579-80c1-e9db1d8100e8","system_id":"levelo_inurba_marseille","lat":43.30151,"lon":5.38029,"is_reserved":false,"is_disabled":false,"rental_uris":{"android":"levelo://app?vid=0804121b-4319-4579-80c1-e9db1d8100e8","ios":"levelo://app?vid=0804121b-4319-4579-80c1-e9db1d8100e8"},"vehicle_type_id":"4","last_reported":1744996089,"current_range_meters":10800,"station_id":"ce4bgjp2rcd13ifvqbh0","pricing_plan_id":"cebpf4jnsgd1na2vs0mg"},{"bike_id":"55a18c47-e1ca-4f31-bca9-f04841f24b04","system_id":"levelo_inurba_marseille","lat":43.25494,"lon":5.37647,"is_reserved":false,"is_disabled":false,"rental_uris":{"android":"levelo://app?vid=55a18c47-e1ca-4f31-bca9-f04841f24b04","ios":"levelo://app?vid=55a18c47-e1ca-4f31-bca9-f04841f24b04"},"vehicle_type_id":"4","last_reported":1744996089,"current_range_meters":11200,"station_id":"ce4bhh12rcd13ifvqff0","pricing_plan_id":"cebpf4jnsgd1na2vs0mg"},{"bike_id":"4bcaca61-be58-49cf-89c9-274b98e3c699","system_id":"levelo_inurba_marseille","lat":43.32003,"lon":5.38145,"is_reserved":false,"is_disabled":true,"rental_uris":{"android":"levelo://app?vid=4bcaca61-be58-49cf-89c9-274b98e3c699","ios":"levelo://app?vid=4bcaca61-be58-49cf-89c9-274b98e3c699"},"vehicle_type_id":"4","last_reported":1744996089,"current_range_meters":11600,"station_id":"ce4bhr12rcd13ifvqhpg","pricing_plan_id":"cebpf4jnsgd1na2vs0mg"},{"bike_id":"2521a350-ef67-406e-97dd-8e229ac28a69","system_id":"levelo_inurba_marseille","lat":43.289342,"lon":5.366297,"is_reserved":false,"is_disabled":false,"rental_uris":{"android":"levelo://app?vid=2521a350-ef67-406e-97dd-8e229ac28a69","ios":"levelo://app?vid=2521a350-ef67-406e-97dd-8e229ac28a69"},"vehicle_type_id":"4","last_reported":1744996089,"current_range_meters":11600,"station_id":"ce4bhap2rcd13ifvqek0","pricing_plan_id":"cebpf4jnsgd1na2vs0mg"},{"bike_id":"934a8fc0-98f8-4aaf-a145-d485dee937c7","system_id":"levelo_inurba_marseille","lat":43.32378,"lon":5.36784,"is_reserved":false,"is_disabled":false,"rental_uris":{"android":"levelo://app?vid=934a8fc0-98f8-4aaf-a145-d485dee937c7","ios":"levelo://app?vid=934a8fc0-98f8-4aaf-a145-d485dee937c7"},"vehicle_type_id":"4","last_reported":1744996089,"current_range_meters":12000,"station_id":"ce4bhsh2rcd13ifvqi2g","pricing_plan_id":"cebpf4jnsgd1na2vs0mg"},{"bike_id":"83b2da81-0b59-4a32-9c31-8058eda2e366","system_id":"levelo_inurba_marseille","lat":43.27372,"lon":5.3626,"is_reserved":false,"is_disabled":false,"rental_uris":{"android":"levelo://app?vid=83b2da81-0b59-4a32-9c31-8058eda2e366","ios":"levelo://app?vid=83b2da81-0b59-4a32-9c31-8058eda2e366"},"vehicle_type_id":"4","last_reported":1744996089,"current_range_meters":12000,"station_id":"ce4bhbh2rcd13ifvqeo0","pricing_plan_id":"cebpf4jnsgd1na2vs0mg"},{"bike_id":"dc8e8b08-311f-4123-bdbc-19651a9dc4f8","system_id":"levelo_inurba_marseille","lat":43.24075,"lon":5.37766,"is_reserved":false,"is_disabled":false,"rental_uris":{"android":"levelo://app?vid=dc8e8b08-311f-4123-bdbc-19651a9dc4f8","ios":"levelo://app?vid=dc8e8b08-311f-4123-bdbc-19651a9dc4f8"},"vehicle_type_id":"4","last_reported":1744996089,"current_range_meters":12000,"station_id":"ce4bhnp2rcd13ifvqgvg","pricing_plan_id":"cebpf4jnsgd1na2vs0mg"},{"bike_id":"b590f4c8-2170-4ca6-aa64-c8121ac9e926","system_id":"levelo_inurba_marseille","lat":43.29802,"lon":5.40413,"is_reserved":false,"is_disabled":false,"rental_uris":{"android":"levelo://app?vid=b590f4c8-2170-4ca6-aa64-c8121ac9e926","ios":"levelo://app?vid=b590f4c8-2170-4ca6-aa64-c8121ac9e926"},"vehicle_type_id":"4","last_reported":1744996089,"current_range_meters":12000,"station_id":"ce4bh112rcd13ifvqd90","pricing_plan_id":"cebpf4jnsgd1na2vs0mg"},{"bike_id":"585d5293-ea08-4bb8-b6e0-d2a3f5f362be","system_id":"levelo_inurba_marseille","lat":43.31536,"lon":5.38042,"is_reserved":false,"is_disabled":false,"rental_uris":{"android":"levelo://app?vid=585d5293-ea08-4bb8-b6e0-d2a3f5f362be","ios":"levelo://app?vid=585d5293-ea08-4bb8-b6e0-d2a3f5f362be"},"vehicle_type_id":"4","last_reported":1744996089,"current_range_meters":11600,"station_id":"ce4bhsp2rcd13ifvqi50","pricing_plan_id":"cebpf4jnsgd1na2vs0mg"},{"bike_id":"19cc39d1-4e69-4699-9e45-9abe309fa364","system_id":"levelo_inurba_marseille","lat":43.29789,"lon":5.3811,"is_reserved":false,"is_disabled":false,"rental_uris":{"android":"levelo://app?vid=19cc39d1-4e69-4699-9e45-9abe309fa364","ios":"levelo://app?vid=19cc39d1-4e69-4699-9e45-9abe309fa364"},"vehicle_type_id":"4","last_reported":1744996089,"current_range_meters":11600,"station_id":"ce4bgip2rcd13ifvqbb0","pricing_plan_id":"cebpf4jnsgd1na2vs0mg"},{"bike_id":"ca8ff76f-bb46-45f4-9f42-7b53983cd1aa","system_id":"levelo_inurba_marseille","lat":43.30438,"lon":5.38892,"is_reserved":false,"is_disabled":false,"rental_uris":{"android":"levelo://app?vid=ca8ff76f-bb46-45f4-9f42-7b53983cd1aa","ios":"levelo://app?vid=ca8ff76f-bb46-45f4-9f42-7b53983cd1aa"},"vehicle_type_id":"4","last_reported":1744996089,"current_range_meters":12000,"station_id":"ce4bgk12rcd13ifvqbi0","pricing_plan_id":"cebpf4jnsgd1na2vs0mg"},{"bike_id":"a0ddb0a5-f7f0-4281-aa27-9e82747cc573","system_id":"levelo_inurba_marseille","lat":43.33754,"lon":5.37491,"is_reserved":false,"is_disabled":false,"rental_uris":{"android":"levelo://app?vid=a0ddb0a5-f7f0-4281-aa27-9e82747cc573","ios":"levelo://app?vid=a0ddb0a5-f7f0-4281-aa27-9e82747cc573"},"vehicle_type_id":"4","last_reported":1744996089,"current_range_meters":12000,"station_id":"","pricing_plan_id":"cebpf4jnsgd1na2vs0mg"},{"bike_id":"e4e3b38d-6a05-4651-9b02-52c7201e11e2","system_id":"levelo_inurba_marseille","lat":43.2738,"lon":5.36252,"is_reserved":false,"is_disabled":false,"rental_uris":{"android":"levelo://app?vid=e4e3b38d-6a05-4651-9b02-52c7201e11e2","ios":"levelo://app?vid=e4e3b38d-6a05-4651-9b02-52c7201e11e2"},"vehicle_type_id":"4","last_reported":1744996089,"current_range_meters":12000,"station_id":"ce4bhbh2rcd13ifvqeo0","pricing_plan_id":"cebpf4jnsgd1na2vs0mg"},{"bike_id":"10750f8d-2c15-4e4e-bad5-e3acf86b7303","system_id":"levelo_inurba_marseille","lat":43.29427,"lon":5.38627,"is_reserved":false,"is_disabled":false,"rental_uris":{"android":"levelo://app?vid=10750f8d-2c15-4e4e-bad5-e3acf86b7303","ios":"levelo://app?vid=10750f8d-2c15-4e4e-bad5-e3acf86b7303"},"vehicle_type_id":"4","last_reported":1744996089,"current_range_meters":12400,"station_id":"ce4bh2h2rcd13ifvqdh0","pricing_plan_id":"cebpf4jnsgd1na2vs0mg"},{"bike_id":"c09b1ff6-1e1f-4cd6-9ee9-4e1b23955bbc","system_id":"levelo_inurba_marseille","lat":43.231965,"lon":5.355517,"is_reserved":false,"is_disabled":true,"rental_uris":{"android":"levelo://app?vid=c09b1ff6-1e1f-4cd6-9ee9-4e1b23955bbc","ios":"levelo://app?vid=c09b1ff6-1e1f-4cd6-9ee9-4e1b23955bbc"},"vehicle_type_id":"4","last_reported":1744996089,"current_range_meters":12400,"station_id":"ce4bhu92rcd13ifvqi70","pricing_plan_id":"cebpf4jnsgd1na2vs0mg"},{"bike_id":"6b49d109-8247-4e47-9f84-17cb2ae3a17d","system_id":"levelo_inurba_marseille","lat":43.295972,"lon":5.380975,"is_reserved":false,"is_disabled":false,"rental_uris":{"android":"levelo://app?vid=6b49d109-8247-4e47-9f84-17cb2ae3a17d","ios":"levelo://app?vid=6b49d109-8247-4e47-9f84-17cb2ae3a17d"},"vehicle_type_id":"4","last_reported":1744996089,"current_range_meters":12400,"station_id":"ce4bh9p2rcd13ifvqec0","pricing_plan_id":"cebpf4jnsgd1na2vs0mg"},{"bike_id":"3aad2429-4e30-4571-9971-f4f5e8c73ee2","system_id":"levelo_inurba_marseille","lat":43.31729,"lon":5.42261,"is_reserved":false,"is_disabled":false,"rental_uris":{"android":"levelo://app?vid=3aad2429-4e30-4571-9971-f4f5e8c73ee2","ios":"levelo://app?vid=3aad2429-4e30-4571-9971-f4f5e8c73ee2"},"vehicle_type_id":"4","last_reported":1744996089,"current_range_meters":12400,"station_id":"ce4bhp92rcd13ifvqhbg","pricing_plan_id":"cebpf4jnsgd1na2vs0mg"},{"bike_id":"d86c6dc1-f9f2-4c7c-a699-695bafc411e1","system_id":"levelo_inurba_marseille","lat":43.268921,"lon":5.403102,"is_reserved":false,"is_disabled":false,"rental_uris":{"android":"levelo://app?vid=d86c6dc1-f9f2-4c7c-a699-695bafc411e1","ios":"levelo://app?vid=d86c6dc1-f9f2-4c7c-a699-695bafc411e1"},"vehicle_type_id":"4","last_reported":1744996089,"current_range_meters":12400,"station_id":"","pricing_plan_id":"cebpf4jnsgd1na2vs0mg"},{"bike_id":"0412a1ca-4def-4ac7-bfaa-effc8cbb5510","system_id":"levelo_inurba_marseille","lat":43.22954,"lon":5.35384,"is_reserved":false,"is_disabled":false,"rental_uris":{"android":"levelo://app?vid=0412a1ca-4def-4ac7-bfaa-effc8cbb5510","ios":"levelo://app?vid=0412a1ca-4def-4ac7-bfaa-effc8cbb5510"},"vehicle_type_id":"4","last_reported":1744996089,"current_range_meters":12400,"station_id":"cpo3532slgdg3j2ikp40","pricing_plan_id":"cebpf4jnsgd1na2vs0mg"},{"bike_id":"91c0b12a-a33a-4583-91d6-c4efc551fd6f","system_id":"levelo_inurba_marseille","lat":43.29977,"lon":5.37189,"is_reserved":false,"is_disabled":false,"rental_uris":{"android":"levelo://app?vid=91c0b12a-a33a-4583-91d6-c4efc551fd6f","ios":"levelo://app?vid=91c0b12a-a33a-4583-91d6-c4efc551fd6f"},"vehicle_type_id":"4","last_reported":1744996089,"current_range_meters":12400,"station_id":"ce4bgr92rcd13ifvqc7g","pricing_plan_id":"cebpf4jnsgd1na2vs0mg"},{"bike_id":"a28a3f8c-38fc-4308-b382-75c9a725c27e","system_id":"levelo_inurba_marseille","lat":43.29425,"lon":5.38622,"is_reserved":false,"is_disabled":false,"rental_uris":{"android":"levelo://app?vid=a28a3f8c-38fc-4308-b382-75c9a725c27e","ios":"levelo://app?vid=a28a3f8c-38fc-4308-b382-75c9a725c27e"},"vehicle_type_id":"4","last_reported":1744996089,"current_range_meters":12400,"station_id":"ce4bh2h2rcd13ifvqdh0","pricing_plan_id":"cebpf4jnsgd1na2vs0mg"},{"bike_id":"b548ebe5-1c23-4158-a043-5345beee3847","system_id":"levelo_inurba_marseille","lat":43.29423,"lon":5.3861,"is_reserved":false,"is_disabled":false,"rental_uris":{"android":"levelo://app?vid=b548ebe5-1c23-4158-a043-5345beee3847","ios":"levelo://app?vid=b548ebe5-1c23-4158-a043-5345beee3847"},"vehicle_type_id":"4","last_reported":1744996089,"current_range_meters":12800,"station_id":"ce4bh2h2rcd13ifvqdh0","pricing_plan_id":"cebpf4jnsgd1na2vs0mg"},{"bike_id":"3d08894a-e4c9-4a1d-a2c2-0f1c8e3b2568","system_id":"levelo_inurba_marseille","lat":43.30535,"lon":5.36725,"is_reserved":false,"is_disabled":false,"rental_uris":{"android":"levelo://app?vid=3d08894a-e4c9-4a1d-a2c2-0f1c8e3b2568","ios":"levelo://app?vid=3d08894a-e4c9-4a1d-a2c2-0f1c8e3b2568"},"vehicle_type_id":"4","last_reported":1744996089,"current_range_meters":12800,"station_id":"ce4bgrp2rcd13ifvqc9g","pricing_plan_id":"cebpf4jnsgd1na2vs0mg"},{"bike_id":"33efbe4e-e642-4271-be29-4926b421ca5b","system_id":"levelo_inurba_marseille","lat":43.24165,"lon":5.36429,"is_reserved":false,"is_disabled":false,"rental_uris":{"android":"levelo://app?vid=33efbe4e-e642-4271-be29-4926b421ca5b","ios":"levelo://app?vid=33efbe4e-e642-4271-be29-4926b421ca5b"},"vehicle_type_id":"4","last_reported":1744996089,"current_range_meters":13600,"station_id":"cpo36qri1sfpv3e86is0","pricing_plan_id":"cebpf4jnsgd1na2vs0mg"},{"bike_id":"f9793b2b-4f2a-495d-9ce0-45ce672fa496","system_id":"levelo_inurba_marseille","lat":43.27904,"lon":5.38023,"is_reserved":false,"is_disabled":false,"rental_uris":{"android":"levelo://app?vid=f9793b2b-4f2a-495d-9ce0-45ce672fa496","ios":"levelo://app?vid=f9793b2b-4f2a-495d-9ce0-45ce672fa496"},"vehicle_type_id":"4","last_reported":1744996089,"current_range_meters":13600,"station_id":"ce4bhf92rcd13ifvqf50","pricing_plan_id":"cebpf4jnsgd1na2vs0mg"},{"bike_id":"26db3318-a249-4028-abde-8e1e0e7b3518","system_id":"levelo_inurba_marseille","lat":43.298,"lon":5.4041,"is_reserved":false,"is_disabled":false,"rental_uris":{"android":"levelo://app?vid=26db3318-a249-4028-abde-8e1e0e7b3518","ios":"levelo://app?vid=26db3318-a249-4028-abde-8e1e0e7b3518"},"vehicle_type_id":"4","last_reported":1744996089,"current_range_meters":13600,"station_id":"ce4bh112rcd13ifvqd90","pricing_plan_id":"cebpf4jnsgd1na2vs0mg"},{"bike_id":"bca5d512-70ee-4e5a-b5d5-d3d3743af020","system_id":"levelo_inurba_marseille","lat":43.25495,"lon":5.37646,"is_reserved":false,"is_disabled":false,"rental_uris":{"android":"levelo://app?vid=bca5d512-70ee-4e5a-b5d5-d3d3743af020","ios":"levelo://app?vid=bca5d512-70ee-4e5a-b5d5-d3d3743af020"},"vehicle_type_id":"4","last_reported":1744996089,"current_range_meters":13600,"station_id":"ce4bhh12rcd13ifvqff0","pricing_plan_id":"cebpf4jnsgd1na2vs0mg"},{"bike_id":"e5e95889-517f-4ad3-96f1-4500e0ea80bd","system_id":"levelo_inurba_marseille","lat":43.26029,"lon":5.41738,"is_reserved":false,"is_disabled":false,"rental_uris":{"android":"levelo://app?vid=e5e95889-517f-4ad3-96f1-4500e0ea80bd","ios":"levelo://app?vid=e5e95889-517f-4ad3-96f1-4500e0ea80bd"},"vehicle_type_id":"4","last_reported":1744996089,"current_range_meters":13600,"station_id":"","pricing_plan_id":"cebpf4jnsgd1na2vs0mg"},{"bike_id":"ef6e9c6f-8f69-4fcf-9727-b556a001e5bc","system_id":"levelo_inurba_marseille","lat":43.29558,"lon":5.4229,"is_reserved":false,"is_disabled":false,"rental_uris":{"android":"levelo://app?vid=ef6e9c6f-8f69-4fcf-9727-b556a001e5bc","ios":"levelo://app?vid=ef6e9c6f-8f69-4fcf-9727-b556a001e5bc"},"vehicle_type_id":"4","last_reported":1744996089,"current_range_meters":13600,"station_id":"ce4bhph2rcd13ifvqhdg","pricing_plan_id":"cebpf4jnsgd1na2vs0mg"},{"bike_id":"83e0c188-9148-42ad-9d82-1fcd3b17fd00","system_id":"levelo_inurba_marseille","lat":43.29074,"lon":5.3718,"is_reserved":false,"is_disabled":false,"rental_uris":{"android":"levelo://app?vid=83e0c188-9148-42ad-9d82-1fcd3b17fd00","ios":"levelo://app?vid=83e0c188-9148-42ad-9d82-1fcd3b17fd00"},"vehicle_type_id":"4","last_reported":1744996089,"current_range_meters":13600,"station_id":"ce4bh5p2rcd13ifvqe4g","pricing_plan_id":"cebpf4jnsgd1na2vs0mg"},{"bike_id":"68342d9f-f0b6-47e7-b690-b27078e67a77","system_id":"levelo_inurba_marseille","lat":43.2416,"lon":5.36418,"is_reserved":false,"is_disabled":false,"rental_uris":{"android":"levelo://app?vid=68342d9f-f0b6-47e7-b690-b27078e67a77","ios":"levelo://app?vid=68342d9f-f0b6-47e7-b690-b27078e67a77"},"vehicle_type_id":"4","last_reported":1744996089,"current_range_meters":14000,"station_id":"cpo36qri1sfpv3e86is0","pricing_plan_id":"cebpf4jnsgd1na2vs0mg"},{"bike_id":"a84c6798-87cc-40f6-ac43-3a8c436bfb21","system_id":"levelo_inurba_marseille","lat":43.2846,"lon":5.359,"is_reserved":false,"is_disabled":false,"rental_uris":{"android":"levelo://app?vid=a84c6798-87cc-40f6-ac43-3a8c436bfb21","ios":"levelo://app?vid=a84c6798-87cc-40f6-ac43-3a8c436bfb21"},"vehicle_type_id":"4","last_reported":1744996089,"current_range_meters":14000,"station_id":"ce4bhah2rcd13ifvqei0","pricing_plan_id":"cebpf4jnsgd1na2vs0mg"},{"bike_id":"942a15f6-93c9-4a32-8445-d7ec86497fba","system_id":"levelo_inurba_marseille","lat":43.27945,"lon":5.4104,"is_reserved":false,"is_disabled":false,"rental_uris":{"android":"levelo://app?vid=942a15f6-93c9-4a32-8445-d7ec86497fba","ios":"levelo://app?vid=942a15f6-93c9-4a32-8445-d7ec86497fba"},"vehicle_type_id":"4","last_reported":1744996089,"current_range_meters":14000,"station_id":"ce4bhnp2rcd13ifvqh0g","pricing_plan_id":"cebpf4jnsgd1na2vs0mg"},{"bike_id":"a79ec029-25f8-4b18-8a74-eff1fe966ea9","system_id":"levelo_inurba_marseille","lat":43.25115,"lon":5.40321,"is_reserved":false,"is_disabled":false,"rental_uris":{"android":"levelo://app?vid=a79ec029-25f8-4b18-8a74-eff1fe966ea9","ios":"levelo://app?vid=a79ec029-25f8-4b18-8a74-eff1fe966ea9"},"vehicle_type_id":"4","last_reported":1744996089,"current_range_meters":14000,"station_id":"ce4bhlh2rcd13ifvqgig","pricing_plan_id":"cebpf4jnsgd1na2vs0mg"},{"bike_id":"d2ff8b22-ea3c-4a5f-bcd4-1a5a4e6222e5","system_id":"levelo_inurba_marseille","lat":43.29368,"lon":5.37829,"is_reserved":false,"is_disabled":false,"rental_uris":{"android":"levelo://app?vid=d2ff8b22-ea3c-4a5f-bcd4-1a5a4e6222e5","ios":"levelo://app?vid=d2ff8b22-ea3c-4a5f-bcd4-1a5a4e6222e5"},"vehicle_type_id":"4","last_reported":1744996089,"current_range_meters":14000,"station_id":"ce4bgjh2rcd13ifvqbf0","pricing_plan_id":"cebpf4jnsgd1na2vs0mg"},{"bike_id":"6f523da1-5f60-475c-93df-7a5b709bcac9","system_id":"levelo_inurba_marseille","lat":43.231979,"lon":5.355494,"is_reserved":false,"is_disabled":false,"rental_uris":{"android":"levelo://app?vid=6f523da1-5f60-475c-93df-7a5b709bcac9","ios":"levelo://app?vid=6f523da1-5f60-475c-93df-7a5b709bcac9"},"vehicle_type_id":"4","last_reported":1744996089,"current_range_meters":14000,"station_id":"ce4bhu92rcd13ifvqi70","pricing_plan_id":"cebpf4jnsgd1na2vs0mg"},{"bike_id":"be18bc92-65ab-4495-ad39-facef6d4ca04","system_id":"levelo_inurba_marseille","lat":43.29981,"lon":5.38501,"is_reserved":false,"is_disabled":false,"rental_uris":{"android":"levelo://app?vid=be18bc92-65ab-4495-ad39-facef6d4ca04","ios":"levelo://app?vid=be18bc92-65ab-4495-ad39-facef6d4ca04"},"vehicle_type_id":"4","last_reported":1744996089,"current_range_meters":13600,"station_id":"ce4bgj92rcd13ifvqbd0","pricing_plan_id":"cebpf4jnsgd1na2vs0mg"},{"bike_id":"97ca894a-8ccb-431d-805d-1589e057a68f","system_id":"levelo_inurba_marseille","lat":43.28931,"lon":5.36397,"is_reserved":false,"is_disabled":false,"rental_uris":{"android":"levelo://app?vid=97ca894a-8ccb-431d-805d-1589e057a68f","ios":"levelo://app?vid=97ca894a-8ccb-431d-805d-1589e057a68f"},"vehicle_type_id":"4","last_reported":1744996089,"current_range_meters":14000,"station_id":"ce4bhc92rcd13ifvqetg","pricing_plan_id":"cebpf4jnsgd1na2vs0mg"},{"bike_id":"7eb8853e-3665-40f5-8308-1299f0674652","system_id":"levelo_inurba_marseille","lat":43.30378,"lon":5.42495,"is_reserved":false,"is_disabled":false,"rental_uris":{"android":"levelo://app?vid=7eb8853e-3665-40f5-8308-1299f0674652","ios":"levelo://app?vid=7eb8853e-3665-40f5-8308-1299f0674652"},"vehicle_type_id":"4","last_reported":1744996089,"current_range_meters":14000,"station_id":"ce4bhoh2rcd13ifvqh6g","pricing_plan_id":"cebpf4jnsgd1na2vs0mg"},{"bike_id":"875d7fa9-3305-42cc-b53e-f80354f06029","system_id":"levelo_inurba_marseille","lat":43.27064,"lon":5.40274,"is_reserved":false,"is_disabled":false,"rental_uris":{"android":"levelo://app?vid=875d7fa9-3305-42cc-b53e-f80354f06029","ios":"levelo://app?vid=875d7fa9-3305-42cc-b53e-f80354f06029"},"vehicle_type_id":"4","last_reported":1744996089,"current_range_meters":14000,"station_id":"ce4bhk92rcd13ifvqgc0","pricing_plan_id":"cebpf4jnsgd1na2vs0mg"},{"bike_id":"45d3a127-db90-42a8-ae04-34a544c52a79","system_id":"levelo_inurba_marseille","lat":43.22959,"lon":5.35393,"is_reserved":false,"is_disabled":false,"rental_uris":{"android":"levelo://app?vid=45d3a127-db90-42a8-ae04-34a544c52a79","ios":"levelo://app?vid=45d3a127-db90-42a8-ae04-34a544c52a79"},"vehicle_type_id":"4","last_reported":1744996089,"current_range_meters":14000,"station_id":"cpo3532slgdg3j2ikp40","pricing_plan_id":"cebpf4jnsgd1na2vs0mg"},{"bike_id":"ef871c8e-2013-4622-a683-0ab17a74d870","system_id":"levelo_inurba_marseille","lat":43.23198,"lon":5.35615,"is_reserved":false,"is_disabled":true,"rental_uris":{"android":"levelo://app?vid=ef871c8e-2013-4622-a683-0ab17a74d870","ios":"levelo://app?vid=ef871c8e-2013-4622-a683-0ab17a74d870"},"vehicle_type_id":"4","last_reported":1744996089,"current_range_meters":14400,"station_id":"ce4bhu92rcd13ifvqi70","pricing_plan_id":"cebpf4jnsgd1na2vs0mg"},{"bike_id":"9ee0130d-01ab-462f-99ef-5df7dcdfdf0f","system_id":"levelo_inurba_marseille","lat":43.30785,"lon":5.37644,"is_reserved":false,"is_disabled":false,"rental_uris":{"android":"levelo://app?vid=9ee0130d-01ab-462f-99ef-5df7dcdfdf0f","ios":"levelo://app?vid=9ee0130d-01ab-462f-99ef-5df7dcdfdf0f"},"vehicle_type_id":"4","last_reported":1744996089,"current_range_meters":14400,"station_id":"ce4bgv92rcd13ifvqcq0","pricing_plan_id":"cebpf4jnsgd1na2vs0mg"},{"bike_id":"110c4abb-ffb8-4fd0-ba35-0e68e73379e5","system_id":"levelo_inurba_marseille","lat":43.22923,"lon":5.35419,"is_reserved":false,"is_disabled":false,"rental_uris":{"android":"levelo://app?vid=110c4abb-ffb8-4fd0-ba35-0e68e73379e5","ios":"levelo://app?vid=110c4abb-ffb8-4fd0-ba35-0e68e73379e5"},"vehicle_type_id":"4","last_reported":1744996089,"current_range_meters":14400,"station_id":"cpo3532slgdg3j2ikp40","pricing_plan_id":"cebpf4jnsgd1na2vs0mg"},{"bike_id":"9a5e0bcc-4a70-4255-b4f4-96d595f7974f","system_id":"levelo_inurba_marseille","lat":43.27903,"lon":5.38022,"is_reserved":false,"is_disabled":false,"rental_uris":{"android":"levelo://app?vid=9a5e0bcc-4a70-4255-b4f4-96d595f7974f","ios":"levelo://app?vid=9a5e0bcc-4a70-4255-b4f4-96d595f7974f"},"vehicle_type_id":"4","last_reported":1744996089,"current_range_meters":14400,"station_id":"ce4bhf92rcd13ifvqf50","pricing_plan_id":"cebpf4jnsgd1na2vs0mg"},{"bike_id":"04bb0ed7-f2c5-4e55-a679-f59357c21f35","system_id":"levelo_inurba_marseille","lat":43.28724,"lon":5.36096,"is_reserved":false,"is_disabled":false,"rental_uris":{"android":"levelo://app?vid=04bb0ed7-f2c5-4e55-a679-f59357c21f35","ios":"levelo://app?vid=04bb0ed7-f2c5-4e55-a679-f59357c21f35"},"vehicle_type_id":"4","last_reported":1744996089,"current_range_meters":14400,"station_id":"cki0cbj6b192h4jlfktg","pricing_plan_id":"cebpf4jnsgd1na2vs0mg"},{"bike_id":"1eaca8f5-0017-418a-9bfc-52185bf67513","system_id":"levelo_inurba_marseille","lat":43.33745,"lon":5.39176,"is_reserved":false,"is_disabled":false,"rental_uris":{"android":"levelo://app?vid=1eaca8f5-0017-418a-9bfc-52185bf67513","ios":"levelo://app?vid=1eaca8f5-0017-418a-9bfc-52185bf67513"},"vehicle_type_id":"4","last_reported":1744996089,"current_range_meters":14800,"station_id":"ce4bhr92rcd13ifvqhsg","pricing_plan_id":"cebpf4jnsgd1na2vs0mg"},{"bike_id":"4d25b612-d778-4561-9245-42dfc267d98a","system_id":"levelo_inurba_marseille","lat":43.295317,"lon":5.385899,"is_reserved":false,"is_disabled":false,"rental_uris":{"android":"levelo://app?vid=4d25b612-d778-4561-9245-42dfc267d98a","ios":"levelo://app?vid=4d25b612-d778-4561-9245-42dfc267d98a"},"vehicle_type_id":"4","last_reported":1744996089,"current_range_meters":14800,"station_id":"ce4bhbp2rcd13ifvqesg","pricing_plan_id":"cebpf4jnsgd1na2vs0mg"},{"bike_id":"186380b9-3dab-457b-b648-71d123fa0368","system_id":"levelo_inurba_marseille","lat":43.25114,"lon":5.40303,"is_reserved":false,"is_disabled":true,"rental_uris":{"android":"levelo://app?vid=186380b9-3dab-457b-b648-71d123fa0368","ios":"levelo://app?vid=186380b9-3dab-457b-b648-71d123fa0368"},"vehicle_type_id":"4","last_reported":1744996089,"current_range_meters":14800,"station_id":"ce4bhlh2rcd13ifvqgig","pricing_plan_id":"cebpf4jnsgd1na2vs0mg"},{"bike_id":"f6002bac-0b96-42fc-81c3-ccd148d726a2","system_id":"levelo_inurba_marseille","lat":43.290621,"lon":5.38041,"is_reserved":false,"is_disabled":false,"rental_uris":{"android":"levelo://app?vid=f6002bac-0b96-42fc-81c3-ccd148d726a2","ios":"levelo://app?vid=f6002bac-0b96-42fc-81c3-ccd148d726a2"},"vehicle_type_id":"4","last_reported":1744996089,"current_range_meters":15200,"station_id":"ce4bh4p2rcd13ifvqe1g","pricing_plan_id":"cebpf4jnsgd1na2vs0mg"},{"bike_id":"97e50bb0-9a70-481b-b370-e509345e710a","system_id":"levelo_inurba_marseille","lat":43.28037,"lon":5.36942,"is_reserved":false,"is_disabled":true,"rental_uris":{"android":"levelo://app?vid=97e50bb0-9a70-481b-b370-e509345e710a","ios":"levelo://app?vid=97e50bb0-9a70-481b-b370-e509345e710a"},"vehicle_type_id":"4","last_reported":1744996089,"current_range_meters":16000,"station_id":"ce4bha12rcd13ifvqef0","pricing_plan_id":"cebpf4jnsgd1na2vs0mg"},{"bike_id":"8024d0e3-edfe-497e-8842-02fa7fb45c7d","system_id":"levelo_inurba_marseille","lat":43.29036,"lon":5.38658,"is_reserved":false,"is_disabled":false,"rental_uris":{"android":"levelo://app?vid=8024d0e3-edfe-497e-8842-02fa7fb45c7d","ios":"levelo://app?vid=8024d0e3-edfe-497e-8842-02fa7fb45c7d"},"vehicle_type_id":"4","last_reported":1744996089,"current_range_meters":16000,"station_id":"ce4bh4p2rcd13ifvqe0g","pricing_plan_id":"cebpf4jnsgd1na2vs0mg"},{"bike_id":"81d07084-66a1-44dc-ae08-3b708e7b5eb3","system_id":"levelo_inurba_marseille","lat":43.25022,"lon":5.3893,"is_reserved":false,"is_disabled":false,"rental_uris":{"android":"levelo://app?vid=81d07084-66a1-44dc-ae08-3b708e7b5eb3","ios":"levelo://app?vid=81d07084-66a1-44dc-ae08-3b708e7b5eb3"},"vehicle_type_id":"4","last_reported":1744996089,"current_range_meters":16000,"station_id":"ce4bhgp2rcd13ifvqfd0","pricing_plan_id":"cebpf4jnsgd1na2vs0mg"},{"bike_id":"91aa591a-3e56-4092-a295-ecb6aebe69eb","system_id":"levelo_inurba_marseille","lat":43.22498,"lon":5.34806,"is_reserved":false,"is_disabled":false,"rental_uris":{"android":"levelo://app?vid=91aa591a-3e56-4092-a295-ecb6aebe69eb","ios":"levelo://app?vid=91aa591a-3e56-4092-a295-ecb6aebe69eb"},"vehicle_type_id":"4","last_reported":1744996089,"current_range_meters":16000,"station_id":"st_cvj5dfep6f1abm77gieg","pricing_plan_id":"cebpf4jnsgd1na2vs0mg"},{"bike_id":"789c3822-56ca-4769-bcd4-8845bdea2fda","system_id":"levelo_inurba_marseille","lat":43.241638,"lon":5.36398,"is_reserved":false,"is_disabled":false,"rental_uris":{"android":"levelo://app?vid=789c3822-56ca-4769-bcd4-8845bdea2fda","ios":"levelo://app?vid=789c3822-56ca-4769-bcd4-8845bdea2fda"},"vehicle_type_id":"4","last_reported":1744996089,"current_range_meters":16000,"station_id":"cpo36qri1sfpv3e86is0","pricing_plan_id":"cebpf4jnsgd1na2vs0mg"},{"bike_id":"e8725bce-5fb7-461d-9e6e-b13179a8da40","system_id":"levelo_inurba_marseille","lat":43.29261,"lon":5.37617,"is_reserved":false,"is_disabled":false,"rental_uris":{"android":"levelo://app?vid=e8725bce-5fb7-461d-9e6e-b13179a8da40","ios":"levelo://app?vid=e8725bce-5fb7-461d-9e6e-b13179a8da40"},"vehicle_type_id":"4","last_reported":1744996089,"current_range_meters":16000,"station_id":"ce4bgi12rcd13ifvqb80","pricing_plan_id":"cebpf4jnsgd1na2vs0mg"},{"bike_id":"ba19b5cc-9137-40f6-b691-3ee83c376d49","system_id":"levelo_inurba_marseille","lat":43.29526,"lon":5.39043,"is_reserved":false,"is_disabled":false,"rental_uris":{"android":"levelo://app?vid=ba19b5cc-9137-40f6-b691-3ee83c376d49","ios":"levelo://app?vid=ba19b5cc-9137-40f6-b691-3ee83c376d49"},"vehicle_type_id":"4","last_reported":1744996089,"current_range_meters":16000,"station_id":"ce4bh3p2rcd13ifvqdp0","pricing_plan_id":"cebpf4jnsgd1na2vs0mg"},{"bike_id":"2569985f-4f69-453c-bbd0-ccdcf74aee4a","system_id":"levelo_inurba_marseille","lat":43.29174,"lon":5.35776,"is_reserved":false,"is_disabled":false,"rental_uris":{"android":"levelo://app?vid=2569985f-4f69-453c-bbd0-ccdcf74aee4a","ios":"levelo://app?vid=2569985f-4f69-453c-bbd0-ccdcf74aee4a"},"vehicle_type_id":"4","last_reported":1744996089,"current_range_meters":16000,"station_id":"ce4bhb12rcd13ifvqel0","pricing_plan_id":"cebpf4jnsgd1na2vs0mg"},{"bike_id":"26d9de07-cebc-41d7-8211-b48523ee534c","system_id":"levelo_inurba_marseille","lat":43.269466,"lon":5.402493,"is_reserved":false,"is_disabled":false,"rental_uris":{"android":"levelo://app?vid=26d9de07-cebc-41d7-8211-b48523ee534c","ios":"levelo://app?vid=26d9de07-cebc-41d7-8211-b48523ee534c"},"vehicle_type_id":"4","last_reported":1744996089,"current_range_meters":16000,"station_id":"cjm6bp8fraef2m0cb0m0","pricing_plan_id":"cebpf4jnsgd1na2vs0mg"},{"bike_id":"af580dea-c331-481d-9e4d-915588203f48","system_id":"levelo_inurba_marseille","lat":43.30422,"lon":5.4129,"is_reserved":false,"is_disabled":false,"rental_uris":{"android":"levelo://app?vid=af580dea-c331-481d-9e4d-915588203f48","ios":"levelo://app?vid=af580dea-c331-481d-9e4d-915588203f48"},"vehicle_type_id":"4","last_reported":1744996089,"current_range_meters":16000,"station_id":"ce4bhop2rcd13ifvqh8g","pricing_plan_id":"cebpf4jnsgd1na2vs0mg"},{"bike_id":"7382bb1b-cbc7-47a6-a524-2a689a379c91","system_id":"levelo_inurba_marseille","lat":43.29979,"lon":5.38494,"is_reserved":false,"is_disabled":false,"rental_uris":{"android":"levelo://app?vid=7382bb1b-cbc7-47a6-a524-2a689a379c91","ios":"levelo://app?vid=7382bb1b-cbc7-47a6-a524-2a689a379c91"},"vehicle_type_id":"4","last_reported":1744996089,"current_range_meters":16000,"station_id":"ce4bgj92rcd13ifvqbd0","pricing_plan_id":"cebpf4jnsgd1na2vs0mg"},{"bike_id":"d9d4eb31-939a-4204-a7bb-ce63fe71341d","system_id":"levelo_inurba_marseille","lat":43.305947,"lon":5.393554,"is_reserved":false,"is_disabled":false,"rental_uris":{"android":"levelo://app?vid=d9d4eb31-939a-4204-a7bb-ce63fe71341d","ios":"levelo://app?vid=d9d4eb31-939a-4204-a7bb-ce63fe71341d"},"vehicle_type_id":"4","last_reported":1744996089,"current_range_meters":16400,"station_id":"ce4bh0p2rcd13ifvqd80","pricing_plan_id":"cebpf4jnsgd1na2vs0mg"},{"bike_id":"73d349a3-8a77-4d4a-b28b-f340f5d4413e","system_id":"levelo_inurba_marseille","lat":43.33741,"lon":5.39175,"is_reserved":false,"is_disabled":false,"rental_uris":{"android":"levelo://app?vid=73d349a3-8a77-4d4a-b28b-f340f5d4413e","ios":"levelo://app?vid=73d349a3-8a77-4d4a-b28b-f340f5d4413e"},"vehicle_type_id":"4","last_reported":1744996089,"current_range_meters":16400,"station_id":"ce4bhr92rcd13ifvqhsg","pricing_plan_id":"cebpf4jnsgd1na2vs0mg"},{"bike_id":"004f08eb-6151-4531-8c23-12839c75fce1","system_id":"levelo_inurba_marseille","lat":43.28938,"lon":5.3664,"is_reserved":false,"is_disabled":false,"rental_uris":{"android":"levelo://app?vid=004f08eb-6151-4531-8c23-12839c75fce1","ios":"levelo://app?vid=004f08eb-6151-4531-8c23-12839c75fce1"},"vehicle_type_id":"4","last_reported":1744996089,"current_range_meters":16400,"station_id":"ce4bhap2rcd13ifvqek0","pricing_plan_id":"cebpf4jnsgd1na2vs0mg"},{"bike_id":"334c11d7-8984-41da-a16e-f53936a0b766","system_id":"levelo_inurba_marseille","lat":43.29223,"lon":5.36069,"is_reserved":false,"is_disabled":false,"rental_uris":{"android":"levelo://app?vid=334c11d7-8984-41da-a16e-f53936a0b766","ios":"levelo://app?vid=334c11d7-8984-41da-a16e-f53936a0b766"},"vehicle_type_id":"4","last_reported":1744996089,"current_range_meters":16400,"station_id":"ce4bhbh2rcd13ifvqeqg","pricing_plan_id":"cebpf4jnsgd1na2vs0mg"},{"bike_id":"3b4b2fa0-18dd-4f1b-a170-9839751538d5","system_id":"levelo_inurba_marseille","lat":43.27408,"lon":5.36264,"is_reserved":false,"is_disabled":false,"rental_uris":{"android":"levelo://app?vid=3b4b2fa0-18dd-4f1b-a170-9839751538d5","ios":"levelo://app?vid=3b4b2fa0-18dd-4f1b-a170-9839751538d5"},"vehicle_type_id":"4","last_reported":1744996089,"current_range_meters":16400,"station_id":"","pricing_plan_id":"cebpf4jnsgd1na2vs0mg"},{"bike_id":"b6821e5f-2b42-4cde-8784-0fb0fe3fb2be","system_id":"levelo_inurba_marseille","lat":43.24656,"lon":5.38162,"is_reserved":false,"is_disabled":false,"rental_uris":{"android":"levelo://app?vid=b6821e5f-2b42-4cde-8784-0fb0fe3fb2be","ios":"levelo://app?vid=b6821e5f-2b42-4cde-8784-0fb0fe3fb2be"},"vehicle_type_id":"4","last_reported":1744996089,"current_range_meters":16400,"station_id":"ce4bhih2rcd13ifvqfr0","pricing_plan_id":"cebpf4jnsgd1na2vs0mg"},{"bike_id":"32114de9-c526-480f-98c0-6ffe2345af1c","system_id":"levelo_inurba_marseille","lat":43.29004,"lon":5.35628,"is_reserved":false,"is_disabled":false,"rental_uris":{"android":"levelo://app?vid=32114de9-c526-480f-98c0-6ffe2345af1c","ios":"levelo://app?vid=32114de9-c526-480f-98c0-6ffe2345af1c"},"vehicle_type_id":"4","last_reported":1744996089,"current_range_meters":16400,"station_id":"ce4bhb92rcd13ifvqen0","pricing_plan_id":"cebpf4jnsgd1na2vs0mg"},{"bike_id":"1c6b405e-a6e9-4388-9a5d-d49acd0edafe","system_id":"levelo_inurba_marseille","lat":43.28653,"lon":5.35088,"is_reserved":false,"is_disabled":false,"rental_uris":{"android":"levelo://app?vid=1c6b405e-a6e9-4388-9a5d-d49acd0edafe","ios":"levelo://app?vid=1c6b405e-a6e9-4388-9a5d-d49acd0edafe"},"vehicle_type_id":"4","last_reported":1744996089,"current_range_meters":16400,"station_id":"ce4bhch2rcd13ifvqeug","pricing_plan_id":"cebpf4jnsgd1na2vs0mg"},{"bike_id":"25365618-b739-4ecd-b899-abee68f362a1","system_id":"levelo_inurba_marseille","lat":43.3059,"lon":5.39354,"is_reserved":false,"is_disabled":false,"rental_uris":{"android":"levelo://app?vid=25365618-b739-4ecd-b899-abee68f362a1","ios":"levelo://app?vid=25365618-b739-4ecd-b899-abee68f362a1"},"vehicle_type_id":"4","last_reported":1744996089,"current_range_meters":16800,"station_id":"ce4bh0p2rcd13ifvqd80","pricing_plan_id":"cebpf4jnsgd1na2vs0mg"},{"bike_id":"ce3fee90-b321-4105-971f-27349ec005fb","system_id":"levelo_inurba_marseille","lat":43.22931,"lon":5.35378,"is_reserved":false,"is_disabled":false,"rental_uris":{"android":"levelo://app?vid=ce3fee90-b321-4105-971f-27349ec005fb","ios":"levelo://app?vid=ce3fee90-b321-4105-971f-27349ec005fb"},"vehicle_type_id":"4","last_reported":1744996089,"current_range_meters":16800,"station_id":"cpo3532slgdg3j2ikp40","pricing_plan_id":"cebpf4jnsgd1na2vs0mg"},{"bike_id":"b6c3499a-415c-4534-9db3-37550ecba7e2","system_id":"levelo_inurba_marseille","lat":43.24169,"lon":5.36398,"is_reserved":false,"is_disabled":false,"rental_uris":{"android":"levelo://app?vid=b6c3499a-415c-4534-9db3-37550ecba7e2","ios":"levelo://app?vid=b6c3499a-415c-4534-9db3-37550ecba7e2"},"vehicle_type_id":"4","last_reported":1744996089,"current_range_meters":16800,"station_id":"cpo36qri1sfpv3e86is0","pricing_plan_id":"cebpf4jnsgd1na2vs0mg"},{"bike_id":"722b751e-9674-4f4b-977e-a455cca23443","system_id":"levelo_inurba_marseille","lat":43.29534,"lon":5.38536,"is_reserved":false,"is_disabled":false,"rental_uris":{"android":"levelo://app?vid=722b751e-9674-4f4b-977e-a455cca23443","ios":"levelo://app?vid=722b751e-9674-4f4b-977e-a455cca23443"},"vehicle_type_id":"4","last_reported":1744996089,"current_range_meters":16800,"station_id":"ce4bgih2rcd13ifvqba0","pricing_plan_id":"cebpf4jnsgd1na2vs0mg"},{"bike_id":"745eb328-cde3-4e08-9f6c-067dede7c586","system_id":"levelo_inurba_marseille","lat":43.29166,"lon":5.37941,"is_reserved":false,"is_disabled":false,"rental_uris":{"android":"levelo://app?vid=745eb328-cde3-4e08-9f6c-067dede7c586","ios":"levelo://app?vid=745eb328-cde3-4e08-9f6c-067dede7c586"},"vehicle_type_id":"4","last_reported":1744996089,"current_range_meters":16800,"station_id":"","pricing_plan_id":"cebpf4jnsgd1na2vs0mg"},{"bike_id":"7d6540c6-39e9-4497-abd3-eb2a9d7142e0","system_id":"levelo_inurba_marseille","lat":43.264953,"lon":5.395399,"is_reserved":false,"is_disabled":false,"rental_uris":{"android":"levelo://app?vid=7d6540c6-39e9-4497-abd3-eb2a9d7142e0","ios":"levelo://app?vid=7d6540c6-39e9-4497-abd3-eb2a9d7142e0"},"vehicle_type_id":"4","last_reported":1744996089,"current_range_meters":16800,"station_id":"ce4bgv92rcd13ifvqcq0","pricing_plan_id":"cebpf4jnsgd1na2vs0mg"},{"bike_id":"851752f2-916d-4020-8392-5041c6488eb1","system_id":"levelo_inurba_marseille","lat":43.27997,"lon":5.40008,"is_reserved":false,"is_disabled":false,"rental_uris":{"android":"levelo://app?vid=851752f2-916d-4020-8392-5041c6488eb1","ios":"levelo://app?vid=851752f2-916d-4020-8392-5041c6488eb1"},"vehicle_type_id":"4","last_reported":1744996089,"current_range_meters":16800,"station_id":"ce4bho92rcd13ifvqh4g","pricing_plan_id":"cebpf4jnsgd1na2vs0mg"},{"bike_id":"59a3749f-f32e-467f-903e-59fc01831bd8","system_id":"levelo_inurba_marseille","lat":43.290472,"lon":5.359159,"is_reserved":false,"is_disabled":false,"rental_uris":{"android":"levelo://app?vid=59a3749f-f32e-467f-903e-59fc01831bd8","ios":"levelo://app?vid=59a3749f-f32e-467f-903e-59fc01831bd8"},"vehicle_type_id":"4","last_reported":1744996089,"current_range_meters":16800,"station_id":"ce4bha92rcd13ifvqeg0","pricing_plan_id":"cebpf4jnsgd1na2vs0mg"},{"bike_id":"343406d9-08d9-46fe-b35a-6f875b542c07","system_id":"levelo_inurba_marseille","lat":43.23071,"lon":5.35494,"is_reserved":false,"is_disabled":true,"rental_uris":{"android":"levelo://app?vid=343406d9-08d9-46fe-b35a-6f875b542c07","ios":"levelo://app?vid=343406d9-08d9-46fe-b35a-6f875b542c07"},"vehicle_type_id":"4","last_reported":1744996089,"current_range_meters":17200,"station_id":"cpo3342slgdg3j2ifvpg","pricing_plan_id":"cebpf4jnsgd1na2vs0mg"},{"bike_id":"a97627fd-c245-436a-b3b4-2095def46c4b","system_id":"levelo_inurba_marseille","lat":43.27955,"lon":5.41049,"is_reserved":false,"is_disabled":false,"rental_uris":{"android":"levelo://app?vid=a97627fd-c245-436a-b3b4-2095def46c4b","ios":"levelo://app?vid=a97627fd-c245-436a-b3b4-2095def46c4b"},"vehicle_type_id":"4","last_reported":1744996089,"current_range_meters":17200,"station_id":"ce4bhnp2rcd13ifvqh0g","pricing_plan_id":"cebpf4jnsgd1na2vs0mg"},{"bike_id":"1685cdc3-f8e9-4e41-b265-b2bfcf8e25e9","system_id":"levelo_inurba_marseille","lat":43.290466,"lon":5.371688,"is_reserved":false,"is_disabled":false,"rental_uris":{"android":"levelo://app?vid=1685cdc3-f8e9-4e41-b265-b2bfcf8e25e9","ios":"levelo://app?vid=1685cdc3-f8e9-4e41-b265-b2bfcf8e25e9"},"vehicle_type_id":"4","last_reported":1744996089,"current_range_meters":17200,"station_id":"ce4bh5p2rcd13ifvqe4g","pricing_plan_id":"cebpf4jnsgd1na2vs0mg"},{"bike_id":"4d6bfda2-255f-4fbd-a4d0-01729b23cce3","system_id":"levelo_inurba_marseille","lat":43.23189,"lon":5.35555,"is_reserved":false,"is_disabled":false,"rental_uris":{"android":"levelo://app?vid=4d6bfda2-255f-4fbd-a4d0-01729b23cce3","ios":"levelo://app?vid=4d6bfda2-255f-4fbd-a4d0-01729b23cce3"},"vehicle_type_id":"4","last_reported":1744996089,"current_range_meters":17200,"station_id":"ce4bhu92rcd13ifvqi70","pricing_plan_id":"cebpf4jnsgd1na2vs0mg"},{"bike_id":"47ac335a-36e2-49e7-abe4-1428c8083e35","system_id":"levelo_inurba_marseille","lat":43.2294,"lon":5.354,"is_reserved":false,"is_disabled":false,"rental_uris":{"android":"levelo://app?vid=47ac335a-36e2-49e7-abe4-1428c8083e35","ios":"levelo://app?vid=47ac335a-36e2-49e7-abe4-1428c8083e35"},"vehicle_type_id":"4","last_reported":1744996089,"current_range_meters":17200,"station_id":"cpo3532slgdg3j2ikp40","pricing_plan_id":"cebpf4jnsgd1na2vs0mg"},{"bike_id":"bb9cc5b6-0c7a-4871-8383-15ba04455dec","system_id":"levelo_inurba_marseille","lat":43.29919,"lon":5.43665,"is_reserved":false,"is_disabled":false,"rental_uris":{"android":"levelo://app?vid=bb9cc5b6-0c7a-4871-8383-15ba04455dec","ios":"levelo://app?vid=bb9cc5b6-0c7a-4871-8383-15ba04455dec"},"vehicle_type_id":"4","last_reported":1744996089,"current_range_meters":17600,"station_id":"ce4bhpp2rcd13ifvqhfg","pricing_plan_id":"cebpf4jnsgd1na2vs0mg"},