{"last_updated":1739427211,"ttl":60,"version":"2.2","data":{"bikes":[{"bike_id":"9ae4959d-6de9-4c98-bb63-3a430a52595d","system_id":"levelo_inurba_marseille","lat":43.31333,"lon":5.36741,"is_reserved":false,"is_disabled":false,"rental_uris":{"android":"levelo://app?vid=9ae4959d-6de9-4c98-bb63-3a430a52595d","ios":"levelo://app?vid=9ae4959d-6de9-4c98-bb63-3a430a52595d"},"vehicle_type_id":"4","last_reported":1739427211,"current_range_meters":13600,"station_id":"ce4bgr92rcd13ifvqc6g","pricing_plan_id":"cebpf4jnsgd1na2vs0mg"},{"bike_id":"289ba408-0ff9-43d7-b093-e374a42c046c","system_id":"levelo_inurba_marseille","lat":43.28946,"lon":5.3639,"is_reserved":false,"is_disabled":false,"rental_uris":{"android":"levelo://app?vid=289ba408-0ff9-43d7-b093-e374a42c046c","ios":"levelo://app?vid=289ba408-0ff9-43d7-b093-e374a42c046c"},"vehicle_type_id":"4","last_reported":1739427211,"current_range_meters":35200,"station_id":"ce4bhc92rcd13ifvqetg","pricing_plan_id":"cebpf4jnsgd1na2vs0mg"},{"bike_id":"7803dd1a-a242-4883-848b-e4cbfccf197b","system_id":"levelo_inurba_marseille","lat":43.31366,"lon":5.36712,"is_reserved":false,"is_disabled":true,"rental_uris":{"android":"levelo://app?vid=7803dd1a-a242-4883-848b-e4cbfccf197b","ios":"levelo://app?vid=7803dd1a-a242-4883-848b-e4cbfccf197b"},"vehicle_type_id":"4","last_reported":1739427211,"current_range_meters":5600,"station_id":"ce4bgr92rcd13ifvqc6g","pricing_plan_id":"cebpf4jnsgd1na2vs0mg"},{"bike_id":"c9c9a869-bd7d-4ee7-bbff-01e591f7c427","system_id":"levelo_inurba_marseille","lat":43.31702,"lon":5.40455,"is_reserved":false,"is_disabled":false,"rental_uris":{"android":"levelo://app?vid=c9c9a869-bd7d-4ee7-bbff-01e591f7c427","ios":"levelo://app?vid=c9c9a869-bd7d-4ee7-bbff-01e591f7c427"},"vehicle_type_id":"4","last_reported":1739427211,"current_range_meters":38000,"station_id":"ce4bh012rcd13ifvqd00","pricing_plan_id":"cebpf4jnsgd1na2vs0mg"},{"bike_id":"e11340e9-76ba-4ced-a17e-46beb5acb69f","system_id":"levelo_inurba_marseille","lat":43.2694,"lon":5.38645,"is_reserved":false,"is_disabled":false,"rental_uris":{"android":"levelo://app?vid=e11340e9-76ba-4ced-a17e-46beb5acb69f","ios":"levelo://app?vid=e11340e9-76ba-4ced-a17e-46beb5acb69f"},"vehicle_type_id":"4","last_reported":1739427211,"current_range_meters":24800,"station_id":"ce4bhh92rcd13ifvqfh0","pricing_plan_id":"cebpf4jnsgd1na2vs0mg"},{"bike_id":"9c9e6dfa-122e-4154-8057-4016db8e7671","system_id":"levelo_inurba_marseille","lat":43.33723,"lon":5.39185,"is_reserved":false,"is_disabled":false,"rental_uris":{"android":"levelo://app?vid=9c9e6dfa-122e-4154-8057-4016db8e7671","ios":"levelo://app?vid=9c9e6dfa-122e-4154-8057-4016db8e7671"},"vehicle_type_id":"4","last_reported":1739427211,"current_range_meters":38800,"station_id":"ce4bhr92rcd13ifvqhsg","pricing_plan_id":"cebpf4jnsgd1na2vs0mg"},{"bike_id":"35c96b0b-eb3c-4787-a379-c8c27196e8bc","system_id":"levelo_inurba_marseille","lat":43.324784,"lon":5.365751,"is_reserved":false,"is_disabled":false,"rental_uris":{"android":"levelo://app?vid=35c96b0b-eb3c-4787-a379-c8c27196e8bc","ios":"levelo://app?vid=35c96b0b-eb3c-4787-a379-c8c27196e8bc"},"vehicle_type_id":"4","last_reported":1739427211,"current_range_meters":38800,"station_id":"ce4bhs12rcd13ifvqhvg","pricing_plan_id":"cebpf4jnsgd1na2vs0mg"},{"bike_id":"1d4165b9-e8af-42e7-8e88-54a0f84b4f26","system_id":"levelo_inurba_marseille","lat":43.23194,"lon":5.39981,"is_reserved":false,"is_disabled":false,"rental_uris":{"android":"levelo://app?vid=1d4165b9-e8af-42e7-8e88-54a0f84b4f26","ios":"levelo://app?vid=1d4165b9-e8af-42e7-8e88-54a0f84b4f26"},"vehicle_type_id":"4","last_reported":1739427211,"current_range_meters":36400,"station_id":"ce4bhn12rcd13ifvqgqg","pricing_plan_id":"cebpf4jnsgd1na2vs0mg"},{"bike_id":"f6ef4f9a-c914-4d4b-a06e-00485b64285e","system_id":"levelo_inurba_marseille","lat":43.32494,"lon":5.36552,"is_reserved":false,"is_disabled":false,"rental_uris":{"android":"levelo://app?vid=f6ef4f9a-c914-4d4b-a06e-00485b64285e","ios":"levelo://app?vid=f6ef4f9a-c914-4d4b-a06e-00485b64285e"},"vehicle_type_id":"4","last_reported":1739427211,"current_range_meters":38800,"station_id":"ce4bhs12rcd13ifvqhvg","pricing_plan_id":"cebpf4jnsgd1na2vs0mg"},{"bike_id":"8ea73ef8-d9e5-432d-a3a9-b2da33c877eb","system_id":"levelo_inurba_marseille","lat":43.315398,"lon":5.380185,"is_reserved":false,"is_disabled":false,"rental_uris":{"android":"levelo://app?vid=8ea73ef8-d9e5-432d-a3a9-b2da33c877eb","ios":"levelo://app?vid=8ea73ef8-d9e5-432d-a3a9-b2da33c877eb"},"vehicle_type_id":"4","last_reported":1739427211,"current_range_meters":7200,"station_id":"ce4bhsp2rcd13ifvqi50","pricing_plan_id":"cebpf4jnsgd1na2vs0mg"},{"bike_id":"92b0e20b-bdc1-4235-9279-2766910a7620","system_id":"levelo_inurba_marseille","lat":43.30634,"lon":5.4007,"is_reserved":false,"is_disabled":false,"rental_uris":{"android":"levelo://app?vid=92b0e20b-bdc1-4235-9279-2766910a7620","ios":"levelo://app?vid=92b0e20b-bdc1-4235-9279-2766910a7620"},"vehicle_type_id":"4","last_reported":1739427211,"current_range_meters":38800,"station_id":"ce4bh112rcd13ifvqda0","pricing_plan_id":"cebpf4jnsgd1na2vs0mg"},{"bike_id":"9a810e7f-f4d3-4692-9027-c552af7c0f96","system_id":"levelo_inurba_marseille","lat":43.29056,"lon":5.3589,"is_reserved":false,"is_disabled":true,"rental_uris":{"android":"levelo://app?vid=9a810e7f-f4d3-4692-9027-c552af7c0f96","ios":"levelo://app?vid=9a810e7f-f4d3-4692-9027-c552af7c0f96"},"vehicle_type_id":"4","last_reported":1739427211,"current_range_meters":36400,"station_id":"ce4bha92rcd13ifvqeg0","pricing_plan_id":"cebpf4jnsgd1na2vs0mg"},{"bike_id":"4c4891db-fb43-4fcc-aed3-6542b2bf0dbf","system_id":"levelo_inurba_marseille","lat":43.274529,"lon":5.410358,"is_reserved":false,"is_disabled":false,"rental_uris":{"android":"levelo://app?vid=4c4891db-fb43-4fcc-aed3-6542b2bf0dbf","ios":"levelo://app?vid=4c4891db-fb43-4fcc-aed3-6542b2bf0dbf"},"vehicle_type_id":"4","last_reported":1739427211,"current_range_meters":27600,"station_id":"","pricing_plan_id":"cebpf4jnsgd1na2vs0mg"},{"bike_id":"8390feee-0735-4b8f-90c8-f81c741ca7d5","system_id":"levelo_inurba_marseille","lat":43.24812,"lon":5.37464,"is_reserved":false,"is_disabled":false,"rental_uris":{"android":"levelo://app?vid=8390feee-0735-4b8f-90c8-f81c741ca7d5","ios":"levelo://app?vid=8390feee-0735-4b8f-90c8-f81c741ca7d5"},"vehicle_type_id":"4","last_reported":1739427211,"current_range_meters":38800,"station_id":"ce4bhgh2rcd13ifvqfb0","pricing_plan_id":"cebpf4jnsgd1na2vs0mg"},{"bike_id":"0e32f314-de1c-43d6-9735-aad0bdcd1c6f","system_id":"levelo_inurba_marseille","lat":43.286158,"lon":5.350978,"is_reserved":false,"is_disabled":false,"rental_uris":{"android":"levelo://app?vid=0e32f314-de1c-43d6-9735-aad0bdcd1c6f","ios":"levelo://app?vid=0e32f314-de1c-43d6-9735-aad0bdcd1c6f"},"vehicle_type_id":"4","last_reported":1739427211,"current_range_meters":37600,"station_id":"ce4bhch2rcd13ifvqeug","pricing_plan_id":"cebpf4jnsgd1na2vs0mg"},{"bike_id":"9e4564f0-0519-46c9-beea-73f529a3ce6a","system_id":"levelo_inurba_marseille","lat":43.248,"lon":5.37457,"is_reserved":false,"is_disabled":false,"rental_uris":{"android":"levelo://app?vid=9e4564f0-0519-46c9-beea-73f529a3ce6a","ios":"levelo://app?vid=9e4564f0-0519-46c9-beea-73f529a3ce6a"},"vehicle_type_id":"4","last_reported":1739427211,"current_range_meters":25600,"station_id":"ce4bhgh2rcd13ifvqfb0","pricing_plan_id":"cebpf4jnsgd1na2vs0mg"},{"bike_id":"cfd2d3a3-9312-4c23-b021-1df9771ecac5","system_id":"levelo_inurba_marseille","lat":43.30541,"lon":5.38428,"is_reserved":false,"is_disabled":false,"rental_uris":{"android":"levelo://app?vid=cfd2d3a3-9312-4c23-b021-1df9771ecac5","ios":"levelo://app?vid=cfd2d3a3-9312-4c23-b021-1df9771ecac5"},"vehicle_type_id":"4","last_reported":1739427211,"current_range_meters":39200,"station_id":"ce4bgg92rcd13ifvqb30","pricing_plan_id":"cebpf4jnsgd1na2vs0mg"},{"bike_id":"5f72a820-1d02-49bc-8a87-8183592cb3a9","system_id":"levelo_inurba_marseille","lat":43.29781,"lon":5.37106,"is_reserved":false,"is_disabled":false,"rental_uris":{"android":"levelo://app?vid=5f72a820-1d02-49bc-8a87-8183592cb3a9","ios":"levelo://app?vid=5f72a820-1d02-49bc-8a87-8183592cb3a9"},"vehicle_type_id":"4","last_reported":1739427211,"current_range_meters":31200,"station_id":"ce4bgop2rcd13ifvqc1g","pricing_plan_id":"cebpf4jnsgd1na2vs0mg"},{"bike_id":"d61f1a82-a9af-4cb4-b60e-a1bdf8706c13","system_id":"levelo_inurba_marseille","lat":43.27825,"lon":5.4072,"is_reserved":false,"is_disabled":false,"rental_uris":{"android":"levelo://app?vid=d61f1a82-a9af-4cb4-b60e-a1bdf8706c13","ios":"levelo://app?vid=d61f1a82-a9af-4cb4-b60e-a1bdf8706c13"},"vehicle_type_id":"4","last_reported":1739427211,"current_range_meters":38800,"station_id":"ce4bhnh2rcd13ifvqgtg","pricing_plan_id":"cebpf4jnsgd1na2vs0mg"},{"bike_id":"057acc83-0111-41ae-8c3c-f9f226239225","system_id":"levelo_inurba_marseille","lat":43.30155,"lon":5.38093,"is_reserved":false,"is_disabled":false,"rental_uris":{"android":"levelo://app?vid=057acc83-0111-41ae-8c3c-f9f226239225","ios":"levelo://app?vid=057acc83-0111-41ae-8c3c-f9f226239225"},"vehicle_type_id":"4","last_reported":1739427211,"current_range_meters":29600,"station_id":"ce4bgjp2rcd13ifvqbh0","pricing_plan_id":"cebpf4jnsgd1na2vs0mg"},{"bike_id":"56bc7c1b-51a3-4197-99ff-21720caa162f","system_id":"levelo_inurba_marseille","lat":43.299126,"lon":5.374808,"is_reserved":false,"is_disabled":false,"rental_uris":{"android":"levelo://app?vid=56bc7c1b-51a3-4197-99ff-21720caa162f","ios":"levelo://app?vid=56bc7c1b-51a3-4197-99ff-21720caa162f"},"vehicle_type_id":"4","last_reported":1739427211,"current_range_meters":38800,"station_id":"ce4bgjh2rcd13ifvqbg0","pricing_plan_id":"cebpf4jnsgd1na2vs0mg"},{"bike_id":"ac2f5c21-615f-4f60-8b2b-9954adc8ad1d","system_id":"levelo_inurba_marseille","lat":43.29851,"lon":5.36284,"is_reserved":false,"is_disabled":false,"rental_uris":{"android":"levelo://app?vid=ac2f5c21-615f-4f60-8b2b-9954adc8ad1d","ios":"levelo://app?vid=ac2f5c21-615f-4f60-8b2b-9954adc8ad1d"},"vehicle_type_id":"4","last_reported":1739427211,"current_range_meters":38000,"station_id":"ce4bgpp2rcd13ifvqc3g","pricing_plan_id":"cebpf4jnsgd1na2vs0mg"},{"bike_id":"84d756ae-dcf1-4466-b646-b54fe664cb50","system_id":"levelo_inurba_marseille","lat":43.27218,"lon":5.3919,"is_reserved":false,"is_disabled":false,"rental_uris":{"android":"levelo://app?vid=84d756ae-dcf1-4466-b646-b54fe664cb50","ios":"levelo://app?vid=84d756ae-dcf1-4466-b646-b54fe664cb50"},"vehicle_type_id":"4","last_reported":1739427211,"current_range_meters":30400,"station_id":"ce4bhhp2rcd13ifvqfm0","pricing_plan_id":"cebpf4jnsgd1na2vs0mg"},{"bike_id":"224dce56-c44e-4b91-bb45-919ca8990be5","system_id":"levelo_inurba_marseille","lat":43.290514,"lon":5.359066,"is_reserved":false,"is_disabled":false,"rental_uris":{"android":"levelo://app?vid=224dce56-c44e-4b91-bb45-919ca8990be5","ios":"levelo://app?vid=224dce56-c44e-4b91-bb45-919ca8990be5"},"vehicle_type_id":"4","last_reported":1739427211,"current_range_meters":38800,"station_id":"ce4bha92rcd13ifvqeg0","pricing_plan_id":"cebpf4jnsgd1na2vs0mg"},{"bike_id":"5f7e6b83-a51b-46d4-afdf-e2a1f0a5a01e","system_id":"levelo_inurba_marseille","lat":43.30638,"lon":5.40082,"is_reserved":false,"is_disabled":false,"rental_uris":{"android":"levelo://app?vid=5f7e6b83-a51b-46d4-afdf-e2a1f0a5a01e","ios":"levelo://app?vid=5f7e6b83-a51b-46d4-afdf-e2a1f0a5a01e"},"vehicle_type_id":"4","last_reported":1739427211,"current_range_meters":35600,"station_id":"ce4bh112rcd13ifvqda0","pricing_plan_id":"cebpf4jnsgd1na2vs0mg"},{"bike_id":"39e55a90-fe76-4904-bf9c-9841fe168f13","system_id":"levelo_inurba_marseille","lat":43.337284,"lon":5.391778,"is_reserved":false,"is_disabled":false,"rental_uris":{"android":"levelo://app?vid=39e55a90-fe76-4904-bf9c-9841fe168f13","ios":"levelo://app?vid=39e55a90-fe76-4904-bf9c-9841fe168f13"},"vehicle_type_id":"4","last_reported":1739427211,"current_range_meters":38800,"station_id":"ce4bhr92rcd13ifvqhsg","pricing_plan_id":"cebpf4jnsgd1na2vs0mg"},{"bike_id":"f183ca70-ec2a-42ee-b090-fa9948a69e9f","system_id":"levelo_inurba_marseille","lat":43.30465,"lon":5.37906,"is_reserved":false,"is_disabled":false,"rental_uris":{"android":"levelo://app?vid=f183ca70-ec2a-42ee-b090-fa9948a69e9f","ios":"levelo://app?vid=f183ca70-ec2a-42ee-b090-fa9948a69e9f"},"vehicle_type_id":"4","last_reported":1739427211,"current_range_meters":25200,"station_id":"ce4bgup2rcd13ifvqcn0","pricing_plan_id":"cebpf4jnsgd1na2vs0mg"},{"bike_id":"e9b1e2c3-4aa6-4f91-a44a-25404004ade1","system_id":"levelo_inurba_marseille","lat":43.30546,"lon":5.38424,"is_reserved":false,"is_disabled":false,"rental_uris":{"android":"levelo://app?vid=e9b1e2c3-4aa6-4f91-a44a-25404004ade1","ios":"levelo://app?vid=e9b1e2c3-4aa6-4f91-a44a-25404004ade1"},"vehicle_type_id":"4","last_reported":1739427211,"current_range_meters":22400,"station_id":"ce4bgg92rcd13ifvqb30","pricing_plan_id":"cebpf4jnsgd1na2vs0mg"},{"bike_id":"2a5c1b07-7008-4f6d-9a02-f1ed29550b44","system_id":"levelo_inurba_marseille","lat":43.324763,"lon":5.365631,"is_reserved":false,"is_disabled":false,"rental_uris":{"android":"levelo://app?vid=2a5c1b07-7008-4f6d-9a02-f1ed29550b44","ios":"levelo://app?vid=2a5c1b07-7008-4f6d-9a02-f1ed29550b44"},"vehicle_type_id":"4","last_reported":1739427211,"current_range_meters":27200,"station_id":"ce4bhs12rcd13ifvqhvg","pricing_plan_id":"cebpf4jnsgd1na2vs0mg"},{"bike_id":"4279d7df-f89f-4c33-941a-daf6189b678c","system_id":"levelo_inurba_marseille","lat":43.30143,"lon":5.38771,"is_reserved":false,"is_disabled":false,"rental_uris":{"android":"levelo://app?vid=4279d7df-f89f-4c33-941a-daf6189b678c","ios":"levelo://app?vid=4279d7df-f89f-4c33-941a-daf6189b678c"},"vehicle_type_id":"4","last_reported":1739427211,"current_range_meters":39200,"station_id":"ce4bhoh2rcd13ifvqh6g","pricing_plan_id":"cebpf4jnsgd1na2vs0mg"},{"bike_id":"b74401c3-60d8-4468-ab29-59994cc16423","system_id":"levelo_inurba_marseille","lat":43.31888,"lon":5.40724,"is_reserved":false,"is_disabled":false,"rental_uris":{"android":"levelo://app?vid=b74401c3-60d8-4468-ab29-59994cc16423","ios":"levelo://app?vid=b74401c3-60d8-4468-ab29-59994cc16423"},"vehicle_type_id":"4","last_reported":1739427211,"current_range_meters":38000,"station_id":"ce4bhq12rcd13ifvqhig","pricing_plan_id":"cebpf4jnsgd1na2vs0mg"},{"bike_id":"b737ae82-c86e-4ede-80b2-31fc6f755e14","system_id":"levelo_inurba_marseille","lat":43.29536,"lon":5.3856,"is_reserved":false,"is_disabled":true,"rental_uris":{"android":"levelo://app?vid=b737ae82-c86e-4ede-80b2-31fc6f755e14","ios":"levelo://app?vid=b737ae82-c86e-4ede-80b2-31fc6f755e14"},"vehicle_type_id":"4","last_reported":1739427211,"current_range_meters":38800,"station_id":"ce4bgih2rcd13ifvqba0","pricing_plan_id":"cebpf4jnsgd1na2vs0mg"},{"bike_id":"25c671e0-0402-4bec-957d-62e6fc533515","system_id":"levelo_inurba_marseille","lat":43.28032,"lon":5.36938,"is_reserved":false,"is_disabled":false,"rental_uris":{"android":"levelo://app?vid=25c671e0-0402-4bec-957d-62e6fc533515","ios":"levelo://app?vid=25c671e0-0402-4bec-957d-62e6fc533515"},"vehicle_type_id":"4","last_reported":1739427211,"current_range_meters":21600,"station_id":"ce4bha12rcd13ifvqef0","pricing_plan_id":"cebpf4jnsgd1na2vs0mg"},{"bike_id":"201cb1d3-cc3f-4781-bf6f-d42eeaa74a67","system_id":"levelo_inurba_marseille","lat":43.29526,"lon":5.39039,"is_reserved":false,"is_disabled":false,"rental_uris":{"android":"levelo://app?vid=201cb1d3-cc3f-4781-bf6f-d42eeaa74a67","ios":"levelo://app?vid=201cb1d3-cc3f-4781-bf6f-d42eeaa74a67"},"vehicle_type_id":"4","last_reported":1739427211,"current_range_meters":35200,"station_id":"ce4bh3p2rcd13ifvqdp0","pricing_plan_id":"cebpf4jnsgd1na2vs0mg"},{"bike_id":"4d31b1f4-e38f-4f3a-b332-0c052385a104","system_id":"levelo_inurba_marseille","lat":43.25876,"lon":5.399,"is_reserved":false,"is_disabled":false,"rental_uris":{"android":"levelo://app?vid=4d31b1f4-e38f-4f3a-b332-0c052385a104","ios":"levelo://app?vid=4d31b1f4-e38f-4f3a-b332-0c052385a104"},"vehicle_type_id":"4","last_reported":1739427211,"current_range_meters":38400,"station_id":"ce4bhl92rcd13ifvqghg","pricing_plan_id":"cebpf4jnsgd1na2vs0mg"},{"bike_id":"55fa0fd1-4793-4372-94cc-c9ee5bd4ca87","system_id":"levelo_inurba_marseille","lat":43.28676,"lon":5.38665,"is_reserved":false,"is_disabled":true,"rental_uris":{"android":"levelo://app?vid=55fa0fd1-4793-4372-94cc-c9ee5bd4ca87","ios":"levelo://app?vid=55fa0fd1-4793-4372-94cc-c9ee5bd4ca87"},"vehicle_type_id":"4","last_reported":1739427211,"current_range_meters":34000,"station_id":"ce4bh492rcd13ifvqdug","pricing_plan_id":"cebpf4jnsgd1na2vs0mg"},{"bike_id":"89ec9a48-e14f-4a12-a3bd-300e2863cfe6","system_id":"levelo_inurba_marseille","lat":43.2744,"lon":5.39418,"is_reserved":false,"is_disabled":false,"rental_uris":{"android":"levelo://app?vid=89ec9a48-e14f-4a12-a3bd-300e2863cfe6","ios":"levelo://app?vid=89ec9a48-e14f-4a12-a3bd-300e2863cfe6"},"vehicle_type_id":"4","last_reported":1739427211,"current_range_meters":38000,"station_id":"ce4bhdp2rcd13ifvqf20","pricing_plan_id":"cebpf4jnsgd1na2vs0mg"},{"bike_id":"379a5608-bae7-4073-bc0d-fd88bf86b5be","system_id":"levelo_inurba_marseille","lat":43.2567,"lon":5.41082,"is_reserved":false,"is_disabled":false,"rental_uris":{"android":"levelo://app?vid=379a5608-bae7-4073-bc0d-fd88bf86b5be","ios":"levelo://app?vid=379a5608-bae7-4073-bc0d-fd88bf86b5be"},"vehicle_type_id":"4","last_reported":1739427211,"current_range_meters":37600,"station_id":"ce4bhkp2rcd13ifvqgd0","pricing_plan_id":"cebpf4jnsgd1na2vs0mg"},{"bike_id":"679b51a7-0864-4c79-a75b-8b937ab8b8fc","system_id":"levelo_inurba_marseille","lat":43.24543,"lon":5.39531,"is_reserved":false,"is_disabled":false,"rental_uris":{"android":"levelo://app?vid=679b51a7-0864-4c79-a75b-8b937ab8b8fc","ios":"levelo://app?vid=679b51a7-0864-4c79-a75b-8b937ab8b8fc"},"vehicle_type_id":"4","last_reported":1739427211,"current_range_meters":32800,"station_id":"ce4bhlp2rcd13ifvqgjg","pricing_plan_id":"cebpf4jnsgd1na2vs0mg"},{"bike_id":"d2090b16-1da9-4170-8973-962616ace04b","system_id":"levelo_inurba_marseille","lat":43.28445,"lon":5.392,"is_reserved":false,"is_disabled":true,"rental_uris":{"android":"levelo://app?vid=d2090b16-1da9-4170-8973-962616ace04b","ios":"levelo://app?vid=d2090b16-1da9-4170-8973-962616ace04b"},"vehicle_type_id":"4","last_reported":1739427211,"current_range_meters":28400,"station_id":"ce4bhoh2rcd13ifvqh5g","pricing_plan_id":"cebpf4jnsgd1na2vs0mg"},{"bike_id":"0731fda6-fef3-4575-b42c-7e80d9a53243","system_id":"levelo_inurba_marseille","lat":43.30148,"lon":5.38783,"is_reserved":false,"is_disabled":false,"rental_uris":{"android":"levelo://app?vid=0731fda6-fef3-4575-b42c-7e80d9a53243","ios":"levelo://app?vid=0731fda6-fef3-4575-b42c-7e80d9a53243"},"vehicle_type_id":"4","last_reported":1739427211,"current_range_meters":11200,"station_id":"ce4bhoh2rcd13ifvqh6g","pricing_plan_id":"cebpf4jnsgd1na2vs0mg"},{"bike_id":"6c956ae1-e540-4fc7-9455-5729ac7f892e","system_id":"levelo_inurba_marseille","lat":43.29834,"lon":5.36277,"is_reserved":false,"is_disabled":false,"rental_uris":{"android":"levelo://app?vid=6c956ae1-e540-4fc7-9455-5729ac7f892e","ios":"levelo://app?vid=6c956ae1-e540-4fc7-9455-5729ac7f892e"},"vehicle_type_id":"4","last_reported":1739427211,"current_range_meters":15200,"station_id":"ce4bgpp2rcd13ifvqc3g","pricing_plan_id":"cebpf4jnsgd1na2vs0mg"},{"bike_id":"3425a89b-f60c-4d0e-aca5-29bd2e04eccc","system_id":"levelo_inurba_marseille","lat":43.289423,"lon":5.366241,"is_reserved":false,"is_disabled":false,"rental_uris":{"android":"levelo://app?vid=3425a89b-f60c-4d0e-aca5-29bd2e04eccc","ios":"levelo://app?vid=3425a89b-f60c-4d0e-aca5-29bd2e04eccc"},"vehicle_type_id":"4","last_reported":1739427211,"current_range_meters":25600,"station_id":"ce4bhap2rcd13ifvqek0","pricing_plan_id":"cebpf4jnsgd1na2vs0mg"},{"bike_id":"afab657c-f010-460e-9dd2-84e36d509c29","system_id":"levelo_inurba_marseille","lat":43.3088,"lon":5.39644,"is_reserved":false,"is_disabled":false,"rental_uris":{"android":"levelo://app?vid=afab657c-f010-460e-9dd2-84e36d509c29","ios":"levelo://app?vid=afab657c-f010-460e-9dd2-84e36d509c29"},"vehicle_type_id":"4","last_reported":1739427211,"current_range_meters":38800,"station_id":"ce4bh012rcd13ifvqcv0","pricing_plan_id":"cebpf4jnsgd1na2vs0mg"},{"bike_id":"83f86852-939d-4ba2-8006-31400717194c","system_id":"levelo_inurba_marseille","lat":43.27789,"lon":5.40714,"is_reserved":false,"is_disabled":false,"rental_uris":{"android":"levelo://app?vid=83f86852-939d-4ba2-8006-31400717194c","ios":"levelo://app?vid=83f86852-939d-4ba2-8006-31400717194c"},"vehicle_type_id":"4","last_reported":1739427211,"current_range_meters":27200,"station_id":"ce4bhnh2rcd13ifvqgtg","pricing_plan_id":"cebpf4jnsgd1na2vs0mg"},{"bike_id":"638858c3-6325-4636-a951-fa113b4b2d40","system_id":"levelo_inurba_marseille","lat":43.30152,"lon":5.38082,"is_reserved":false,"is_disabled":false,"rental_uris":{"android":"levelo://app?vid=638858c3-6325-4636-a951-fa113b4b2d40","ios":"levelo://app?vid=638858c3-6325-4636-a951-fa113b4b2d40"},"vehicle_type_id":"4","last_reported":1739427211,"current_range_meters":16400,"station_id":"ce4bgjp2rcd13ifvqbh0","pricing_plan_id":"cebpf4jnsgd1na2vs0mg"},{"bike_id":"ccdae001-9573-4b87-92dd-6c043d86e6c5","system_id":"levelo_inurba_marseille","lat":43.31277,"lon":5.40161,"is_reserved":false,"is_disabled":false,"rental_uris":{"android":"levelo://app?vid=ccdae001-9573-4b87-92dd-6c043d86e6c5","ios":"levelo://app?vid=ccdae001-9573-4b87-92dd-6c043d86e6c5"},"vehicle_type_id":"4","last_reported":1739427211,"current_range_meters":38800,"station_id":"ce4bh092rcd13ifvqd30","pricing_plan_id":"cebpf4jnsgd1na2vs0mg"},{"bike_id":"704ec19d-e7c0-4858-a423-dcfa560220a5","system_id":"levelo_inurba_marseille","lat":43.23201,"lon":5.39977,"is_reserved":false,"is_disabled":false,"rental_uris":{"android":"levelo://app?vid=704ec19d-e7c0-4858-a423-dcfa560220a5","ios":"levelo://app?vid=704ec19d-e7c0-4858-a423-dcfa560220a5"},"vehicle_type_id":"4","last_reported":1739427211,"current_range_meters":37600,"station_id":"ce4bhn12rcd13ifvqgqg","pricing_plan_id":"cebpf4jnsgd1na2vs0mg"},{"bike_id":"5f734c64-61d0-47bb-aaa9-7e6b6c633022","system_id":"levelo_inurba_marseille","lat":43.26677,"lon":5.38279,"is_reserved":false,"is_disabled":false,"rental_uris":{"android":"levelo://app?vid=5f734c64-61d0-47bb-aaa9-7e6b6c633022","ios":"levelo://app?vid=5f734c64-61d0-47bb-aaa9-7e6b6c633022"},"vehicle_type_id":"4","last_reported":1739427211,"current_range_meters":38800,"station_id":"ce4bhg92rcd13ifvqf90","pricing_plan_id":"cebpf4jnsgd1na2vs0mg"},{"bike_id":"5d9e7b95-19f6-4aaf-a1cd-a73cb46e7992","system_id":"levelo_inurba_marseille","lat":43.320491,"lon":5.415437,"is_reserved":false,"is_disabled":false,"rental_uris":{"android":"levelo://app?vid=5d9e7b95-19f6-4aaf-a1cd-a73cb46e7992","ios":"levelo://app?vid=5d9e7b95-19f6-4aaf-a1cd-a73cb46e7992"},"vehicle_type_id":"4","last_reported":1739427211,"current_range_meters":37600,"station_id":"ce4bhq92rcd13ifvqhkg","pricing_plan_id":"cebpf4jnsgd1na2vs0mg"},{"bike_id":"7f922148-2ec9-4ffb-81da-2699ff8cc00b","system_id":"levelo_inurba_marseille","lat":43.231862,"lon":5.39981,"is_reserved":false,"is_disabled":false,"rental_uris":{"android":"levelo://app?vid=7f922148-2ec9-4ffb-81da-2699ff8cc00b","ios":"levelo://app?vid=7f922148-2ec9-4ffb-81da-2699ff8cc00b"},"vehicle_type_id":"4","last_reported":1739427211,"current_range_meters":9200,"station_id":"ce4bhn12rcd13ifvqgqg","pricing_plan_id":"cebpf4jnsgd1na2vs0mg"},{"bike_id":"8b301010-c1b7-4bf5-be73-26b4bca92fe7","system_id":"levelo_inurba_marseille","lat":43.24808,"lon":5.37452,"is_reserved":false,"is_disabled":false,"rental_uris":{"android":"levelo://app?vid=8b301010-c1b7-4bf5-be73-26b4bca92fe7","ios":"levelo://app?vid=8b301010-c1b7-4bf5-be73-26b4bca92fe7"},"vehicle_type_id":"4","last_reported":1739427211,"current_range_meters":22400,"station_id":"ce4bhgh2rcd13ifvqfb0","pricing_plan_id":"cebpf4jnsgd1na2vs0mg"},{"bike_id":"f5140a58-b137-4968-80ec-951b81687f9e","system_id":"levelo_inurba_marseille","lat":43.28462,"lon":5.39181,"is_reserved":false,"is_disabled":false,"rental_uris":{"android":"levelo://app?vid=f5140a58-b137-4968-80ec-951b81687f9e","ios":"levelo://app?vid=f5140a58-b137-4968-80ec-951b81687f9e"},"vehicle_type_id":"4","last_reported":1739427211,"current_range_meters":38800,"station_id":"ce4bhoh2rcd13ifvqh5g","pricing_plan_id":"cebpf4jnsgd1na2vs0mg"},{"bike_id":"4beae72e-7b08-4d41-bfb2-43df948d2dd7","system_id":"levelo_inurba_marseille","lat":43.27189,"lon":5.40988,"is_reserved":false,"is_disabled":false,"rental_uris":{"android":"levelo://app?vid=4beae72e-7b08-4d41-bfb2-43df948d2dd7","ios":"levelo://app?vid=4beae72e-7b08-4d41-bfb2-43df948d2dd7"},"vehicle_type_id":"4","last_reported":1739427211,"current_range_meters":36800,"station_id":"ce4bhl12rcd13ifvqgf0","pricing_plan_id":"cebpf4jnsgd1na2vs0mg"},{"bike_id":"9cf8e6d9-67b8-441b-8ab4-08ef8560d2b0","system_id":"levelo_inurba_marseille","lat":43.33185,"lon":5.35581,"is_reserved":false,"is_disabled":false,"rental_uris":{"android":"levelo://app?vid=9cf8e6d9-67b8-441b-8ab4-08ef8560d2b0","ios":"levelo://app?vid=9cf8e6d9-67b8-441b-8ab4-08ef8560d2b0"},"vehicle_type_id":"4","last_reported":1739427211,"current_range_meters":7200,"station_id":"","pricing_plan_id":"cebpf4jnsgd1na2vs0mg"},{"bike_id":"f61f0289-db11-4f78-af36-f70fd4404161","system_id":"levelo_inurba_marseille","lat":43.290051,"lon":5.356176,"is_reserved":false,"is_disabled":true,"rental_uris":{"android":"levelo://app?vid=f61f0289-db11-4f78-af36-f70fd4404161","ios":"levelo://app?vid=f61f0289-db11-4f78-af36-f70fd4404161"},"vehicle_type_id":"4","last_reported":1739427211,"current_range_meters":31200,"station_id":"","pricing_plan_id":"cebpf4jnsgd1na2vs0mg"},{"bike_id":"bfc2b557-0872-45dd-81f3-4a5c9642444f","system_id":"levelo_inurba_marseille","lat":43.303,"lon":5.3968,"is_reserved":false,"is_disabled":false,"rental_uris":{"android":"levelo://app?vid=bfc2b557-0872-45dd-81f3-4a5c9642444f","ios":"levelo://app?vid=bfc2b557-0872-45dd-81f3-4a5c9642444f"},"vehicle_type_id":"4","last_reported":1739427211,"current_range_meters":26800,"station_id":"","pricing_plan_id":"cebpf4jnsgd1na2vs0mg"},{"bike_id":"a5c13995-307a-42ad-8d2a-b93e85ee0799","system_id":"levelo_inurba_marseille","lat":43.28364,"lon":5.38615,"is_reserved":false,"is_disabled":false,"rental_uris":{"android":"levelo://app?vid=a5c13995-307a-42ad-8d2a-b93e85ee0799","ios":"levelo://app?vid=a5c13995-307a-42ad-8d2a-b93e85ee0799"},"vehicle_type_id":"4","last_reported":1739427211,"current_range_meters":38000,"station_id":"ce4bh492rcd13ifvqdvg","pricing_plan_id":"cebpf4jnsgd1na2vs0mg"},{"bike_id":"d06fb2b2-c3c2-4116-87f0-f0d5ad8f7bab","system_id":"levelo_inurba_marseille","lat":43.2894,"lon":5.36396,"is_reserved":false,"is_disabled":false,"rental_uris":{"android":"levelo://app?vid=d06fb2b2-c3c2-4116-87f0-f0d5ad8f7bab","ios":"levelo://app?vid=d06fb2b2-c3c2-4116-87f0-f0d5ad8f7bab"},"vehicle_type_id":"4","last_reported":1739427211,"current_range_meters":38800,"station_id":"ce4bhc92rcd13ifvqetg","pricing_plan_id":"cebpf4jnsgd1na2vs0mg"},{"bike_id":"bc235a4c-617d-46ba-8c7a-21502f4b2aaf","system_id":"levelo_inurba_marseille","lat":43.23186,"lon":5.39977,"is_reserved":false,"is_disabled":false,"rental_uris":{"android":"levelo://app?vid=bc235a4c-617d-46ba-8c7a-21502f4b2aaf","ios":"levelo://app?vid=bc235a4c-617d-46ba-8c7a-21502f4b2aaf"},"vehicle_type_id":"4","last_reported":1739427211,"current_range_meters":17600,"station_id":"ce4bhn12rcd13ifvqgqg","pricing_plan_id":"cebpf4jnsgd1na2vs0mg"},{"bike_id":"7e4baaff-43df-45ac-ba99-60d4ee3b5a14","system_id":"levelo_inurba_marseille","lat":43.32487,"lon":5.36569,"is_reserved":false,"is_disabled":false,"rental_uris":{"android":"levelo://app?vid=7e4baaff-43df-45ac-ba99-60d4ee3b5a14","ios":"levelo://app?vid=7e4baaff-43df-45ac-ba99-60d4ee3b5a14"},"vehicle_type_id":"4","last_reported":1739427211,"current_range_meters":38000,"station_id":"ce4bhs12rcd13ifvqhvg","pricing_plan_id":"cebpf4jnsgd1na2vs0mg"},{"bike_id":"9e1feb3a-7196-4a53-a575-a01cb88ca190","system_id":"levelo_inurba_marseille","lat":43.29623,"lon":5.40602,"is_reserved":false,"is_disabled":false,"rental_uris":{"android":"levelo://app?vid=9e1feb3a-7196-4a53-a575-a01cb88ca190","ios":"levelo://app?vid=9e1feb3a-7196-4a53-a575-a01cb88ca190"},"vehicle_type_id":"4","last_reported":1739427211,"current_range_meters":39200,"station_id":"ce4bh0h2rcd13ifvqd60","pricing_plan_id":"cebpf4jnsgd1na2vs0mg"},{"bike_id":"5bf7b31a-f643-4d39-ac8f-028588cb3b5d","system_id":"levelo_inurba_marseille","lat":43.24067,"lon":5.37764,"is_reserved":false,"is_disabled":false,"rental_uris":{"android":"levelo://app?vid=5bf7b31a-f643-4d39-ac8f-028588cb3b5d","ios":"levelo://app?vid=5bf7b31a-f643-4d39-ac8f-028588cb3b5d"},"vehicle_type_id":"4","last_reported":1739427211,"current_range_meters":38400,"station_id":"ce4bhnp2rcd13ifvqgvg","pricing_plan_id":"cebpf4jnsgd1na2vs0mg"},{"bike_id":"b03fd7e9-5604-4ddf-8507-029c6e1eb1c8","system_id":"levelo_inurba_marseille","lat":43.25942,"lon":5.40895,"is_reserved":false,"is_disabled":false,"rental_uris":{"android":"levelo://app?vid=b03fd7e9-5604-4ddf-8507-029c6e1eb1c8","ios":"levelo://app?vid=b03fd7e9-5604-4ddf-8507-029c6e1eb1c8"},"vehicle_type_id":"4","last_reported":1739427211,"current_range_meters":38800,"station_id":"ce4bhm92rcd13ifvqglg","pricing_plan_id":"cebpf4jnsgd1na2vs0mg"},{"bike_id":"51ab7186-5043-4bed-baca-73708608a302","system_id":"levelo_inurba_marseille","lat":43.29584,"lon":5.37026,"is_reserved":false,"is_disabled":true,"rental_uris":{"android":"levelo://app?vid=51ab7186-5043-4bed-baca-73708608a302","ios":"levelo://app?vid=51ab7186-5043-4bed-baca-73708608a302"},"vehicle_type_id":"4","last_reported":1739427211,"current_range_meters":0,"station_id":"","pricing_plan_id":"cebpf4jnsgd1na2vs0mg"},{"bike_id":"601c5491-42f1-4202-a963-fdfe4692ed5e","system_id":"levelo_inurba_marseille","lat":43.30311,"lon":5.39197,"is_reserved":false,"is_disabled":true,"rental_uris":{"android":"levelo://app?vid=601c5491-42f1-4202-a963-fdfe4692ed5e","ios":"levelo://app?vid=601c5491-42f1-4202-a963-fdfe4692ed5e"},"vehicle_type_id":"4","last_reported":1739427211,"current_range_meters":38800,"station_id":"ce4bgkh2rcd13ifvqbk0","pricing_plan_id":"cebpf4jnsgd1na2vs0mg"},{"bike_id":"be3a2991-17b8-4c20-966d-3ace1c24cd5b","system_id":"levelo_inurba_marseille","lat":43.284228,"lon":5.349953,"is_reserved":false,"is_disabled":false,"rental_uris":{"android":"levelo://app?vid=be3a2991-17b8-4c20-966d-3ace1c24cd5b","ios":"levelo://app?vid=be3a2991-17b8-4c20-966d-3ace1c24cd5b"},"vehicle_type_id":"4","last_reported":1739427211,"current_range_meters":33600,"station_id":"ce4bhbh2rcd13ifvqepg","pricing_plan_id":"cebpf4jnsgd1na2vs0mg"},{"bike_id":"d3fc5f7e-9983-4343-a9af-f36df7d45f29","system_id":"levelo_inurba_marseille","lat":43.23193,"lon":5.3998,"is_reserved":false,"is_disabled":false,"rental_uris":{"android":"levelo://app?vid=d3fc5f7e-9983-4343-a9af-f36df7d45f29","ios":"levelo://app?vid=d3fc5f7e-9983-4343-a9af-f36df7d45f29"},"vehicle_type_id":"4","last_reported":1739427211,"current_range_meters":25200,"station_id":"ce4bhn12rcd13ifvqgqg","pricing_plan_id":"cebpf4jnsgd1na2vs0mg"},{"bike_id":"7e2037ba-d8da-4a44-a25b-f35749aa1add","system_id":"levelo_inurba_marseille","lat":43.30651,"lon":5.40085,"is_reserved":false,"is_disabled":false,"rental_uris":{"android":"levelo://app?vid=7e2037ba-d8da-4a44-a25b-f35749aa1add","ios":"levelo://app?vid=7e2037ba-d8da-4a44-a25b-f35749aa1add"},"vehicle_type_id":"4","last_reported":1739427211,"current_range_meters":37600,"station_id":"ce4bh112rcd13ifvqda0","pricing_plan_id":"cebpf4jnsgd1na2vs0mg"},{"bike_id":"cc713c57-2903-47c4-b3c3-50b1ca8a922c","system_id":"levelo_inurba_marseille","lat":43.286618,"lon":5.363564,"is_reserved":false,"is_disabled":false,"rental_uris":{"android":"levelo://app?vid=cc713c57-2903-47c4-b3c3-50b1ca8a922c","ios":"levelo://app?vid=cc713c57-2903-47c4-b3c3-50b1ca8a922c"},"vehicle_type_id":"4","last_reported":1739427211,"current_range_meters":38400,"station_id":"ce4bhah2rcd13ifvqej0","pricing_plan_id":"cebpf4jnsgd1na2vs0mg"},{"bike_id":"93bc2ef8-35ac-46f8-abbf-237b9083a6fd","system_id":"levelo_inurba_marseille","lat":43.30156,"lon":5.38088,"is_reserved":false,"is_disabled":false,"rental_uris":{"android":"levelo://app?vid=93bc2ef8-35ac-46f8-abbf-237b9083a6fd","ios":"levelo://app?vid=93bc2ef8-35ac-46f8-abbf-237b9083a6fd"},"vehicle_type_id":"4","last_reported":1739427211,"current_range_meters":39200,"station_id":"ce4bgjp2rcd13ifvqbh0","pricing_plan_id":"cebpf4jnsgd1na2vs0mg"},{"bike_id":"6bd4f803-1f3e-4190-90ca-5126bf5f811a","system_id":"levelo_inurba_marseille","lat":43.30441,"lon":5.38879,"is_reserved":false,"is_disabled":false,"rental_uris":{"android":"levelo://app?vid=6bd4f803-1f3e-4190-90ca-5126bf5f811a","ios":"levelo://app?vid=6bd4f803-1f3e-4190-90ca-5126bf5f811a"},"vehicle_type_id":"4","last_reported":1739427211,"current_range_meters":25200,"station_id":"ce4bgk12rcd13ifvqbi0","pricing_plan_id":"cebpf4jnsgd1na2vs0mg"},{"bike_id":"7aa515be-8be7-442e-86a0-73cbbced111f","system_id":"levelo_inurba_marseille","lat":43.29445,"lon":5.39753,"is_reserved":false,"is_disabled":false,"rental_uris":{"android":"levelo://app?vid=7aa515be-8be7-442e-86a0-73cbbced111f","ios":"levelo://app?vid=7aa515be-8be7-442e-86a0-73cbbced111f"},"vehicle_type_id":"4","last_reported":1739427211,"current_range_meters":38800,"station_id":"ce4bh3h2rcd13ifvqdo0","pricing_plan_id":"cebpf4jnsgd1na2vs0mg"},{"bike_id":"2086d930-70f1-451b-b9d5-af7dbdc6b4a2","system_id":"levelo_inurba_marseille","lat":43.273227,"lon":5.390655,"is_reserved":false,"is_disabled":false,"rental_uris":{"android":"levelo://app?vid=2086d930-70f1-451b-b9d5-af7dbdc6b4a2","ios":"levelo://app?vid=2086d930-70f1-451b-b9d5-af7dbdc6b4a2"},"vehicle_type_id":"4","last_reported":1739427211,"current_range_meters":24800,"station_id":"ce4bhgp2rcd13ifvqfe0","pricing_plan_id":"cebpf4jnsgd1na2vs0mg"},{"bike_id":"bc0ff9a9-308e-46fc-b95f-d1b75b502cb5","system_id":"levelo_inurba_marseille","lat":43.24675,"lon":5.38166,"is_reserved":false,"is_disabled":false,"rental_uris":{"android":"levelo://app?vid=bc0ff9a9-308e-46fc-b95f-d1b75b502cb5","ios":"levelo://app?vid=bc0ff9a9-308e-46fc-b95f-d1b75b502cb5"},"vehicle_type_id":"4","last_reported":1739427211,"current_range_meters":28000,"station_id":"ce4bhih2rcd13ifvqfr0","pricing_plan_id":"cebpf4jnsgd1na2vs0mg"},{"bike_id":"31f90b97-4de2-4aec-84ff-0a8305902b31","system_id":"levelo_inurba_marseille","lat":43.28733,"lon":5.36086,"is_reserved":false,"is_disabled":false,"rental_uris":{"android":"levelo://app?vid=31f90b97-4de2-4aec-84ff-0a8305902b31","ios":"levelo://app?vid=31f90b97-4de2-4aec-84ff-0a8305902b31"},"vehicle_type_id":"4","last_reported":1739427211,"current_range_meters":36400,"station_id":"cki0cbj6b192h4jlfktg","pricing_plan_id":"cebpf4jnsgd1na2vs0mg"},{"bike_id":"de77abfa-6f74-40e9-8131-b7884eda37eb","system_id":"levelo_inurba_marseille","lat":43.299181,"lon":5.394021,"is_reserved":false,"is_disabled":false,"rental_uris":{"android":"levelo://app?vid=de77abfa-6f74-40e9-8131-b7884eda37eb","ios":"levelo://app?vid=de77abfa-6f74-40e9-8131-b7884eda37eb"},"vehicle_type_id":"4","last_reported":1739427211,"current_range_meters":23200,"station_id":"","pricing_plan_id":"cebpf4jnsgd1na2vs0mg"},{"bike_id":"20647b06-82a2-4cc3-966a-8ee4ecd4082a","system_id":"levelo_inurba_marseille","lat":43.28992,"lon":5.35614,"is_reserved":false,"is_disabled":false,"rental_uris":{"android":"levelo://app?vid=20647b06-82a2-4cc3-966a-8ee4ecd4082a","ios":"levelo://app?vid=20647b06-82a2-4cc3-966a-8ee4ecd4082a"},"vehicle_type_id":"4","last_reported":1739427211,"current_range_meters":39200,"station_id":"ce4bhb92rcd13ifvqen0","pricing_plan_id":"cebpf4jnsgd1na2vs0mg"},{"bike_id":"feec7be1-582c-4c37-9de0-5e113c8741a3","system_id":"levelo_inurba_marseille","lat":43.30336,"lon":5.40424,"is_reserved":false,"is_disabled":false,"rental_uris":{"android":"levelo://app?vid=feec7be1-582c-4c37-9de0-5e113c8741a3","ios":"levelo://app?vid=feec7be1-582c-4c37-9de0-5e113c8741a3"},"vehicle_type_id":"4","last_reported":1739427211,"current_range_meters":38000,"station_id":"ce4bh012rcd13ifvqd10","pricing_plan_id":"cebpf4jnsgd1na2vs0mg"},{"bike_id":"ee079ffa-4416-4a91-bc98-3bd665acea3b","system_id":"levelo_inurba_marseille","lat":43.33708,"lon":5.39177,"is_reserved":false,"is_disabled":false,"rental_uris":{"android":"levelo://app?vid=ee079ffa-4416-4a91-bc98-3bd665acea3b","ios":"levelo://app?vid=ee079ffa-4416-4a91-bc98-3bd665acea3b"},"vehicle_type_id":"4","last_reported":1739427211,"current_range_meters":38000,"station_id":"ce4bhr92rcd13ifvqhsg","pricing_plan_id":"cebpf4jnsgd1na2vs0mg"},{"bike_id":"1fa82dc6-47d4-4356-bbca-393bf4461726","system_id":"levelo_inurba_marseille","lat":43.239589,"lon":5.366262,"is_reserved":false,"is_disabled":false,"rental_uris":{"android":"levelo://app?vid=1fa82dc6-47d4-4356-bbca-393bf4461726","ios":"levelo://app?vid=1fa82dc6-47d4-4356-bbca-393bf4461726"},"vehicle_type_id":"4","last_reported":1739427211,"current_range_meters":9600,"station_id":"ce4bhi12rcd13ifvqfp0","pricing_plan_id":"cebpf4jnsgd1na2vs0mg"},{"bike_id":"2355c6e5-09c3-4950-a7a8-dbebf456e6b5","system_id":"levelo_inurba_marseille","lat":43.307969,"lon":5.36629,"is_reserved":false,"is_disabled":false,"rental_uris":{"android":"levelo://app?vid=2355c6e5-09c3-4950-a7a8-dbebf456e6b5","ios":"levelo://app?vid=2355c6e5-09c3-4950-a7a8-dbebf456e6b5"},"vehicle_type_id":"4","last_reported":1739427211,"current_range_meters":24000,"station_id":"","pricing_plan_id":"cebpf4jnsgd1na2vs0mg"},{"bike_id":"0c236953-fa85-4107-b794-04c5d553375e","system_id":"levelo_inurba_marseille","lat":43.24808,"lon":5.37462,"is_reserved":false,"is_disabled":false,"rental_uris":{"android":"levelo://app?vid=0c236953-fa85-4107-b794-04c5d553375e","ios":"levelo://app?vid=0c236953-fa85-4107-b794-04c5d553375e"},"vehicle_type_id":"4","last_reported":1739427211,"current_range_meters":16000,"station_id":"ce4bhgh2rcd13ifvqfb0","pricing_plan_id":"cebpf4jnsgd1na2vs0mg"},{"bike_id":"3c49c1df-faee-4718-ab8d-b0222f6f1d2f","system_id":"levelo_inurba_marseille","lat":43.31295,"lon":5.40582,"is_reserved":false,"is_disabled":true,"rental_uris":{"android":"levelo://app?vid=3c49c1df-faee-4718-ab8d-b0222f6f1d2f","ios":"levelo://app?vid=3c49c1df-faee-4718-ab8d-b0222f6f1d2f"},"vehicle_type_id":"4","last_reported":1739427211,"current_range_meters":0,"station_id":"","pricing_plan_id":"cebpf4jnsgd1na2vs0mg"},{"bike_id":"7d9757c0-933f-48d2-9445-c4b04ae0089a","system_id":"levelo_inurba_marseille","lat":43.30442,"lon":5.38892,"is_reserved":false,"is_disabled":false,"rental_uris":{"android":"levelo://app?vid=7d9757c0-933f-48d2-9445-c4b04ae0089a","ios":"levelo://app?vid=7d9757c0-933f-48d2-9445-c4b04ae0089a"},"vehicle_type_id":"4","last_reported":1739427211,"current_range_meters":38800,"station_id":"ce4bgk12rcd13ifvqbi0","pricing_plan_id":"cebpf4jnsgd1na2vs0mg"},{"bike_id":"73204b29-ec32-4146-8fea-bcca13682a2a","system_id":"levelo_inurba_marseille","lat":43.24791,"lon":5.37458,"is_reserved":false,"is_disabled":false,"rental_uris":{"android":"levelo://app?vid=73204b29-ec32-4146-8fea-bcca13682a2a","ios":"levelo://app?vid=73204b29-ec32-4146-8fea-bcca13682a2a"},"vehicle_type_id":"4","last_reported":1739427211,"current_range_meters":23200,"station_id":"ce4bhgh2rcd13ifvqfb0","pricing_plan_id":"cebpf4jnsgd1na2vs0mg"},{"bike_id":"3adb6699-f719-4456-92ab-1968693e97fb","system_id":"levelo_inurba_marseille","lat":43.24176,"lon":5.36378,"is_reserved":false,"is_disabled":false,"rental_uris":{"android":"levelo://app?vid=3adb6699-f719-4456-92ab-1968693e97fb","ios":"levelo://app?vid=3adb6699-f719-4456-92ab-1968693e97fb"},"vehicle_type_id":"4","last_reported":1739427211,"current_range_meters":24400,"station_id":"cpo36qri1sfpv3e86is0","pricing_plan_id":"cebpf4jnsgd1na2vs0mg"},{"bike_id":"04e82eae-1243-4f87-97ae-c2b403027eb5","system_id":"levelo_inurba_marseille","lat":43.28166,"lon":5.42655,"is_reserved":false,"is_disabled":true,"rental_uris":{"android":"levelo://app?vid=04e82eae-1243-4f87-97ae-c2b403027eb5","ios":"levelo://app?vid=04e82eae-1243-4f87-97ae-c2b403027eb5"},"vehicle_type_id":"4","last_reported":1739427211,"current_range_meters":0,"station_id":"ce4bhnh2rcd13ifvqgug","pricing_plan_id":"cebpf4jnsgd1na2vs0mg"},{"bike_id":"476efa06-ff76-4710-9c45-8a07585e8d77","system_id":"levelo_inurba_marseille","lat":43.29545,"lon":5.4228,"is_reserved":false,"is_disabled":true,"rental_uris":{"android":"levelo://app?vid=476efa06-ff76-4710-9c45-8a07585e8d77","ios":"levelo://app?vid=476efa06-ff76-4710-9c45-8a07585e8d77"},"vehicle_type_id":"4","last_reported":1739427211,"current_range_meters":26000,"station_id":"ce4bhph2rcd13ifvqhdg","pricing_plan_id":"cebpf4jnsgd1na2vs0mg"},{"bike_id":"b85f089e-bcba-493c-8108-fb98e760e842","system_id":"levelo_inurba_marseille","lat":43.32472,"lon":5.36562,"is_reserved":false,"is_disabled":false,"rental_uris":{"android":"levelo://app?vid=b85f089e-bcba-493c-8108-fb98e760e842","ios":"levelo://app?vid=b85f089e-bcba-493c-8108-fb98e760e842"},"vehicle_type_id":"4","last_reported":1739427211,"current_range_meters":38000,"station_id":"ce4bhs12rcd13ifvqhvg","pricing_plan_id":"cebpf4jnsgd1na2vs0mg"},{"bike_id":"a43b8534-1f7d-4016-b81a-d6ab195d0275","system_id":"levelo_inurba_marseille","lat":43.28417,"lon":5.37511,"is_reserved":false,"is_disabled":false,"rental_uris":{"android":"levelo://app?vid=a43b8534-1f7d-4016-b81a-d6ab195d0275","ios":"levelo://app?vid=a43b8534-1f7d-4016-b81a-d6ab195d0275"},"vehicle_type_id":"4","last_reported":1739427211,"current_range_meters":24800,"station_id":"ce4bh412rcd13ifvqds0","pricing_plan_id":"cebpf4jnsgd1na2vs0mg"},{"bike_id":"41fce667-761b-4607-94ca-d49d64c0bdaa","system_id":"levelo_inurba_marseille","lat":43.27984,"lon":5.40033,"is_reserved":false,"is_disabled":false,"rental_uris":{"android":"levelo://app?vid=41fce667-761b-4607-94ca-d49d64c0bdaa","ios":"levelo://app?vid=41fce667-761b-4607-94ca-d49d64c0bdaa"},"vehicle_type_id":"4","last_reported":1739427211,"current_range_meters":24000,"station_id":"ce4bho92rcd13ifvqh4g","pricing_plan_id":"cebpf4jnsgd1na2vs0mg"},{"bike_id":"c9b96d2c-c7dd-495d-82e8-da1c9e8afb24","system_id":"levelo_inurba_marseille","lat":43.2804,"lon":5.36952,"is_reserved":false,"is_disabled":false,"rental_uris":{"android":"levelo://app?vid=c9b96d2c-c7dd-495d-82e8-da1c9e8afb24","ios":"levelo://app?vid=c9b96d2c-c7dd-495d-82e8-da1c9e8afb24"},"vehicle_type_id":"4","last_reported":1739427211,"current_range_meters":20800,"station_id":"ce4bha12rcd13ifvqef0","pricing_plan_id":"cebpf4jnsgd1na2vs0mg"},{"bike_id":"2dc5facd-f97f-4e83-a544-805c1eb5a6c1","system_id":"levelo_inurba_marseille","lat":43.298435,"lon":5.385333,"is_reserved":false,"is_disabled":false,"rental_uris":{"android":"levelo://app?vid=2dc5facd-f97f-4e83-a544-805c1eb5a6c1","ios":"levelo://app?vid=2dc5facd-f97f-4e83-a544-805c1eb5a6c1"},"vehicle_type_id":"4","last_reported":1739427211,"current_range_meters":28400,"station_id":"ce4bgj92rcd13ifvqbd0","pricing_plan_id":"cebpf4jnsgd1na2vs0mg"},{"bike_id":"d674d394-04ab-4838-a267-bcdd8affd803","system_id":"levelo_inurba_marseille","lat":43.30789,"lon":5.43515,"is_reserved":false,"is_disabled":false,"rental_uris":{"android":"levelo://app?vid=d674d394-04ab-4838-a267-bcdd8affd803","ios":"levelo://app?vid=d674d394-04ab-4838-a267-bcdd8affd803"},"vehicle_type_id":"4","last_reported":1739427211,"current_range_meters":38800,"station_id":"ce4bhph2rcd13ifvqheg","pricing_plan_id":"cebpf4jnsgd1na2vs0mg"},{"bike_id":"913e0512-8d5e-417e-a1c8-28b2a58a5297","system_id":"levelo_inurba_marseille","lat":43.304618,"lon":5.378997,"is_reserved":false,"is_disabled":false,"rental_uris":{"android":"levelo://app?vid=913e0512-8d5e-417e-a1c8-28b2a58a5297","ios":"levelo://app?vid=913e0512-8d5e-417e-a1c8-28b2a58a5297"},"vehicle_type_id":"4","last_reported":1739427211,"current_range_meters":39200,"station_id":"ce4bgup2rcd13ifvqcn0","pricing_plan_id":"cebpf4jnsgd1na2vs0mg"},{"bike_id":"032d1edd-812d-4276-bb8f-bf1b6a339fcf","system_id":"levelo_inurba_marseille","lat":43.23191,"lon":5.35538,"is_reserved":false,"is_disabled":false,"rental_uris":{"android":"levelo://app?vid=032d1edd-812d-4276-bb8f-bf1b6a339fcf","ios":"levelo://app?vid=032d1edd-812d-4276-bb8f-bf1b6a339fcf"},"vehicle_type_id":"4","last_reported":1739427211,"current_range_meters":12800,"station_id":"ce4bhu92rcd13ifvqi70","pricing_plan_id":"cebpf4jnsgd1na2vs0mg"},{"bike_id":"3c972bc6-571f-4946-9dde-c7f43d4c71a0","system_id":"levelo_inurba_marseille","lat":43.32475,"lon":5.36565,"is_reserved":false,"is_disabled":false,"rental_uris":{"android":"levelo://app?vid=3c972bc6-571f-4946-9dde-c7f43d4c71a0","ios":"levelo://app?vid=3c972bc6-571f-4946-9dde-c7f43d4c71a0"},"vehicle_type_id":"4","last_reported":1739427211,"current_range_meters":25600,"station_id":"ce4bhs12rcd13ifvqhvg","pricing_plan_id":"cebpf4jnsgd1na2vs0mg"},{"bike_id":"7140356e-acc1-4683-9f7a-ba5330d14dc0","system_id":"levelo_inurba_marseille","lat":43.30544,"lon":5.36532,"is_reserved":false,"is_disabled":true,"rental_uris":{"android":"levelo://app?vid=7140356e-acc1-4683-9f7a-ba5330d14dc0","ios":"levelo://app?vid=7140356e-acc1-4683-9f7a-ba5330d14dc0"},"vehicle_type_id":"4","last_reported":1739427211,"current_range_meters":29600,"station_id":"ce4bgs12rcd13ifvqcag","pricing_plan_id":"cebpf4jnsgd1na2vs0mg"},{"bike_id":"c07ffd3b-1b45-4f4f-af96-2b31373f9d65","system_id":"levelo_inurba_marseille","lat":43.24162,"lon":5.36399,"is_reserved":false,"is_disabled":false,"rental_uris":{"android":"levelo://app?vid=c07ffd3b-1b45-4f4f-af96-2b31373f9d65","ios":"levelo://app?vid=c07ffd3b-1b45-4f4f-af96-2b31373f9d65"},"vehicle_type_id":"4","last_reported":1739427211,"current_range_meters":25200,"station_id":"cpo36qri1sfpv3e86is0","pricing_plan_id":"cebpf4jnsgd1na2vs0mg"},{"bike_id":"76ed4e97-7fa9-4836-bcd3-e52753ef31b4","system_id":"levelo_inurba_marseille","lat":43.2984,"lon":5.36276,"is_reserved":false,"is_disabled":false,"rental_uris":{"android":"levelo://app?vid=76ed4e97-7fa9-4836-bcd3-e52753ef31b4","ios":"levelo://app?vid=76ed4e97-7fa9-4836-bcd3-e52753ef31b4"},"vehicle_type_id":"4","last_reported":1739427211,"current_range_meters":38000,"station_id":"ce4bgpp2rcd13ifvqc3g","pricing_plan_id":"cebpf4jnsgd1na2vs0mg"},{"bike_id":"08a86ebb-b290-4f14-9520-6a5a716f26bd","system_id":"levelo_inurba_marseille","lat":43.23957,"lon":5.36591,"is_reserved":false,"is_disabled":false,"rental_uris":{"android":"levelo://app?vid=08a86ebb-b290-4f14-9520-6a5a716f26bd","ios":"levelo://app?vid=08a86ebb-b290-4f14-9520-6a5a716f26bd"},"vehicle_type_id":"4","last_reported":1739427211,"current_range_meters":6000,"station_id":"ce4bhi12rcd13ifvqfp0","pricing_plan_id":"cebpf4jnsgd1na2vs0mg"},{"bike_id":"60a53aa1-c3fc-4d44-9250-2f1552d66749","system_id":"levelo_inurba_marseille","lat":43.3048,"lon":5.37898,"is_reserved":false,"is_disabled":false,"rental_uris":{"android":"levelo://app?vid=60a53aa1-c3fc-4d44-9250-2f1552d66749","ios":"levelo://app?vid=60a53aa1-c3fc-4d44-9250-2f1552d66749"},"vehicle_type_id":"4","last_reported":1739427211,"current_range_meters":39200,"station_id":"ce4bgup2rcd13ifvqcn0","pricing_plan_id":"cebpf4jnsgd1na2vs0mg"},{"bike_id":"d32849cf-4c14-4032-9063-172d06d3f04f","system_id":"levelo_inurba_marseille","lat":43.23182,"lon":5.3556,"is_reserved":false,"is_disabled":false,"rental_uris":{"android":"levelo://app?vid=d32849cf-4c14-4032-9063-172d06d3f04f","ios":"levelo://app?vid=d32849cf-4c14-4032-9063-172d06d3f04f"},"vehicle_type_id":"4","last_reported":1739427211,"current_range_meters":28800,"station_id":"ce4bhu92rcd13ifvqi70","pricing_plan_id":"cebpf4jnsgd1na2vs0mg"},{"bike_id":"2ff86c0c-69fd-4294-8842-114f3593748f","system_id":"levelo_inurba_marseille","lat":43.31436,"lon":5.36645,"is_reserved":false,"is_disabled":false,"rental_uris":{"android":"levelo://app?vid=2ff86c0c-69fd-4294-8842-114f3593748f","ios":"levelo://app?vid=2ff86c0c-69fd-4294-8842-114f3593748f"},"vehicle_type_id":"4","last_reported":1739427211,"current_range_meters":33600,"station_id":"","pricing_plan_id":"cebpf4jnsgd1na2vs0mg"},{"bike_id":"77e60b2f-ce6b-4aae-a0a0-d5666429a96e","system_id":"levelo_inurba_marseille","lat":43.290619,"lon":5.371537,"is_reserved":false,"is_disabled":true,"rental_uris":{"android":"levelo://app?vid=77e60b2f-ce6b-4aae-a0a0-d5666429a96e","ios":"levelo://app?vid=77e60b2f-ce6b-4aae-a0a0-d5666429a96e"},"vehicle_type_id":"4","last_reported":1739427211,"current_range_meters":22000,"station_id":"ce4bh5p2rcd13ifvqe4g","pricing_plan_id":"cebpf4jnsgd1na2vs0mg"},{"bike_id":"f629f9c4-3906-4076-adcd-446a52afc195","system_id":"levelo_inurba_marseille","lat":43.32111,"lon":5.36741,"is_reserved":false,"is_disabled":false,"rental_uris":{"android":"levelo://app?vid=f629f9c4-3906-4076-adcd-446a52afc195","ios":"levelo://app?vid=f629f9c4-3906-4076-adcd-446a52afc195"},"vehicle_type_id":"4","last_reported":1739427211,"current_range_meters":38800,"station_id":"ce4bhrh2rcd13ifvqhug","pricing_plan_id":"cebpf4jnsgd1na2vs0mg"},{"bike_id":"89b847eb-8b72-48a7-8017-2936b33a5c9b","system_id":"levelo_inurba_marseille","lat":43.278116,"lon":5.40707,"is_reserved":false,"is_disabled":false,"rental_uris":{"android":"levelo://app?vid=89b847eb-8b72-48a7-8017-2936b33a5c9b","ios":"levelo://app?vid=89b847eb-8b72-48a7-8017-2936b33a5c9b"},"vehicle_type_id":"4","last_reported":1739427211,"current_range_meters":20800,"station_id":"ce4bhnh2rcd13ifvqgtg","pricing_plan_id":"cebpf4jnsgd1na2vs0mg"},{"bike_id":"829dfc32-0a2d-4e22-85bc-281e51118898","system_id":"levelo_inurba_marseille","lat":43.33012,"lon":5.3905,"is_reserved":false,"is_disabled":false,"rental_uris":{"android":"levelo://app?vid=829dfc32-0a2d-4e22-85bc-281e51118898","ios":"levelo://app?vid=829dfc32-0a2d-4e22-85bc-281e51118898"},"vehicle_type_id":"4","last_reported":1739427211,"current_range_meters":37600,"station_id":"ce4bhr92rcd13ifvqhrg","pricing_plan_id":"cebpf4jnsgd1na2vs0mg"},{"bike_id":"0720224f-bce1-4028-8166-c7cf581646dc","system_id":"levelo_inurba_marseille","lat":43.31358,"lon":5.38497,"is_reserved":false,"is_disabled":false,"rental_uris":{"android":"levelo://app?vid=0720224f-bce1-4028-8166-c7cf581646dc","ios":"levelo://app?vid=0720224f-bce1-4028-8166-c7cf581646dc"},"vehicle_type_id":"4","last_reported":1739427211,"current_range_meters":38400,"station_id":"ce4bgt92rcd13ifvqcf0","pricing_plan_id":"cebpf4jnsgd1na2vs0mg"},{"bike_id":"280a6051-95ab-4183-8c70-acd1a1df3fe5","system_id":"levelo_inurba_marseille","lat":43.24383,"lon":5.37062,"is_reserved":false,"is_disabled":false,"rental_uris":{"android":"levelo://app?vid=280a6051-95ab-4183-8c70-acd1a1df3fe5","ios":"levelo://app?vid=280a6051-95ab-4183-8c70-acd1a1df3fe5"},"vehicle_type_id":"4","last_reported":1739427211,"current_range_meters":36800,"station_id":"ce4bhhh2rcd13ifvqfk0","pricing_plan_id":"cebpf4jnsgd1na2vs0mg"},{"bike_id":"24d2a29b-fa24-4c85-a726-541b11d56bc0","system_id":"levelo_inurba_marseille","lat":43.31362,"lon":5.36694,"is_reserved":false,"is_disabled":false,"rental_uris":{"android":"levelo://app?vid=24d2a29b-fa24-4c85-a726-541b11d56bc0","ios":"levelo://app?vid=24d2a29b-fa24-4c85-a726-541b11d56bc0"},"vehicle_type_id":"4","last_reported":1739427211,"current_range_meters":38800,"station_id":"ce4bgr92rcd13ifvqc6g","pricing_plan_id":"cebpf4jnsgd1na2vs0mg"},{"bike_id":"7aedee12-1549-453d-ac51-f3f4b677e0ec","system_id":"levelo_inurba_marseille","lat":43.32281,"lon":5.38279,"is_reserved":false,"is_disabled":false,"rental_uris":{"android":"levelo://app?vid=7aedee12-1549-453d-ac51-f3f4b677e0ec","ios":"levelo://app?vid=7aedee12-1549-453d-ac51-f3f4b677e0ec"},"vehicle_type_id":"4","last_reported":1739427211,"current_range_meters":33200,"station_id":"ce4bhr12rcd13ifvqhqg","pricing_plan_id":"cebpf4jnsgd1na2vs0mg"},{"bike_id":"14b2070b-6ddc-42e3-b1e8-9c0cbc081f72","system_id":"levelo_inurba_marseille","lat":43.33729,"lon":5.39184,"is_reserved":false,"is_disabled":false,"rental_uris":{"android":"levelo://app?vid=14b2070b-6ddc-42e3-b1e8-9c0cbc081f72","ios":"levelo://app?vid=14b2070b-6ddc-42e3-b1e8-9c0cbc081f72"},"vehicle_type_id":"4","last_reported":1739427211,"current_range_meters":38800,"station_id":"ce4bhr92rcd13ifvqhsg","pricing_plan_id":"cebpf4jnsgd1na2vs0mg"},{"bike_id":"f54959e9-af99-48a6-964a-33208f144f76","system_id":"levelo_inurba_marseille","lat":43.26496,"lon":5.39556,"is_reserved":false,"is_disabled":false,"rental_uris":{"android":"levelo://app?vid=f54959e9-af99-48a6-964a-33208f144f76","ios":"levelo://app?vid=f54959e9-af99-48a6-964a-33208f144f76"},"vehicle_type_id":"4","last_reported":1739427211,"current_range_meters":38000,"station_id":"ce4bhi12rcd13ifvqfq0","pricing_plan_id":"cebpf4jnsgd1na2vs0mg"},{"bike_id":"1c3c5356-feb2-4139-a8f5-3ebd188579ce","system_id":"levelo_inurba_marseille","lat":43.30327,"lon":5.40435,"is_reserved":false,"is_disabled":false,"rental_uris":{"android":"levelo://app?vid=1c3c5356-feb2-4139-a8f5-3ebd188579ce","ios":"levelo://app?vid=1c3c5356-feb2-4139-a8f5-3ebd188579ce"},"vehicle_type_id":"4","last_reported":1739427211,"current_range_meters":37600,"station_id":"ce4bh012rcd13ifvqd10","pricing_plan_id":"cebpf4jnsgd1na2vs0mg"},{"bike_id":"90069231-8d02-46fd-ba3f-d8e7e83900ee","system_id":"levelo_inurba_marseille","lat":43.288419,"lon":5.438139,"is_reserved":false,"is_disabled":true,"rental_uris":{"android":"levelo://app?vid=90069231-8d02-46fd-ba3f-d8e7e83900ee","ios":"levelo://app?vid=90069231-8d02-46fd-ba3f-d8e7e83900ee"},"vehicle_type_id":"4","last_reported":1739427211,"current_range_meters":0,"station_id":"","pricing_plan_id":"cebpf4jnsgd1na2vs0mg"},{"bike_id":"8e9ed610-9dd9-4b96-bcc2-baac9f3b1912","system_id":"levelo_inurba_marseille","lat":43.30963,"lon":5.39086,"is_reserved":false,"is_disabled":false,"rental_uris":{"android":"levelo://app?vid=8e9ed610-9dd9-4b96-bcc2-baac9f3b1912","ios":"levelo://app?vid=8e9ed610-9dd9-4b96-bcc2-baac9f3b1912"},"vehicle_type_id":"4","last_reported":1739427211,"current_range_meters":4000,"station_id":"","pricing_plan_id":"cebpf4jnsgd1na2vs0mg"},{"bike_id":"02d4d811-6e8e-4705-b31c-397c1d3dc54e","system_id":"levelo_inurba_marseille","lat":43.27075,"lon":5.42289,"is_reserved":false,"is_disabled":false,"rental_uris":{"android":"levelo://app?vid=02d4d811-6e8e-4705-b31c-397c1d3dc54e","ios":"levelo://app?vid=02d4d811-6e8e-4705-b31c-397c1d3dc54e"},"vehicle_type_id":"4","last_reported":1739427211,"current_range_meters":38000,"station_id":"ce4bhk92rcd13ifvqgb0","pricing_plan_id":"cebpf4jnsgd1na2vs0mg"},{"bike_id":"258fc117-4144-4c61-8c0e-a530073eec6a","system_id":"levelo_inurba_marseille","lat":43.25725,"lon":5.41104,"is_reserved":false,"is_disabled":false,"rental_uris":{"android":"levelo://app?vid=258fc117-4144-4c61-8c0e-a530073eec6a","ios":"levelo://app?vid=258fc117-4144-4c61-8c0e-a530073eec6a"},"vehicle_type_id":"4","last_reported":1739427211,"current_range_meters":10800,"station_id":"ce4bhkp2rcd13ifvqgd0","pricing_plan_id":"cebpf4jnsgd1na2vs0mg"},{"bike_id":"7f3d4923-dfe9-4502-b696-54c6ec6c6459","system_id":"levelo_inurba_marseille","lat":43.27895,"lon":5.38009,"is_reserved":false,"is_disabled":false,"rental_uris":{"android":"levelo://app?vid=7f3d4923-dfe9-4502-b696-54c6ec6c6459","ios":"levelo://app?vid=7f3d4923-dfe9-4502-b696-54c6ec6c6459"},"vehicle_type_id":"4","last_reported":1739427211,"current_range_meters":38400,"station_id":"ce4bhf92rcd13ifvqf50","pricing_plan_id":"cebpf4jnsgd1na2vs0mg"},{"bike_id":"00053a72-9207-4b4c-b59b-20606453610f","system_id":"levelo_inurba_marseille","lat":43.32493,"lon":5.36574,"is_reserved":false,"is_disabled":false,"rental_uris":{"android":"levelo://app?vid=00053a72-9207-4b4c-b59b-20606453610f","ios":"levelo://app?vid=00053a72-9207-4b4c-b59b-20606453610f"},"vehicle_type_id":"4","last_reported":1739427211,"current_range_meters":32400,"station_id":"ce4bhs12rcd13ifvqhvg","pricing_plan_id":"cebpf4jnsgd1na2vs0mg"},{"bike_id":"8ff427a1-606b-4198-a2f7-57265a0c505e","system_id":"levelo_inurba_marseille","lat":43.27571,"lon":5.38386,"is_reserved":false,"is_disabled":false,"rental_uris":{"android":"levelo://app?vid=8ff427a1-606b-4198-a2f7-57265a0c505e","ios":"levelo://app?vid=8ff427a1-606b-4198-a2f7-57265a0c505e"},"vehicle_type_id":"4","last_reported":1739427211,"current_range_meters":38800,"station_id":"ce4bhh92rcd13ifvqfi0","pricing_plan_id":"cebpf4jnsgd1na2vs0mg"},{"bike_id":"acd088e7-dc82-4cb8-8e19-47754c61567c","system_id":"levelo_inurba_marseille","lat":43.31379,"lon":5.36699,"is_reserved":false,"is_disabled":false,"rental_uris":{"android":"levelo://app?vid=acd088e7-dc82-4cb8-8e19-47754c61567c","ios":"levelo://app?vid=acd088e7-dc82-4cb8-8e19-47754c61567c"},"vehicle_type_id":"4","last_reported":1739427211,"current_range_meters":30800,"station_id":"ce4bgr92rcd13ifvqc6g","pricing_plan_id":"cebpf4jnsgd1na2vs0mg"},{"bike_id":"c829289f-b01a-4105-8680-3c8722f02eb6","system_id":"levelo_inurba_marseille","lat":43.29889,"lon":5.37455,"is_reserved":false,"is_disabled":false,"rental_uris":{"android":"levelo://app?vid=c829289f-b01a-4105-8680-3c8722f02eb6","ios":"levelo://app?vid=c829289f-b01a-4105-8680-3c8722f02eb6"},"vehicle_type_id":"4","last_reported":1739427211,"current_range_meters":37600,"station_id":"ce4bgjh2rcd13ifvqbg0","pricing_plan_id":"cebpf4jnsgd1na2vs0mg"},{"bike_id":"3cf23bae-3059-47fc-afd9-a77520d4d04a","system_id":"levelo_inurba_marseille","lat":43.31423,"lon":5.39382,"is_reserved":false,"is_disabled":false,"rental_uris":{"android":"levelo://app?vid=3cf23bae-3059-47fc-afd9-a77520d4d04a","ios":"levelo://app?vid=3cf23bae-3059-47fc-afd9-a77520d4d04a"},"vehicle_type_id":"4","last_reported":1739427211,"current_range_meters":2800,"station_id":"","pricing_plan_id":"cebpf4jnsgd1na2vs0mg"},{"bike_id":"220e8010-768e-4072-8bac-8a371490dc88","system_id":"levelo_inurba_marseille","lat":43.31115,"lon":5.37768,"is_reserved":false,"is_disabled":false,"rental_uris":{"android":"levelo://app?vid=220e8010-768e-4072-8bac-8a371490dc88","ios":"levelo://app?vid=220e8010-768e-4072-8bac-8a371490dc88"},"vehicle_type_id":"4","last_reported":1739427211,"current_range_meters":38800,"station_id":"ce4bgt92rcd13ifvqcg0","pricing_plan_id":"cebpf4jnsgd1na2vs0mg"},{"bike_id":"70617585-289d-477e-b3bd-01213e273ed0","system_id":"levelo_inurba_marseille","lat":43.24793,"lon":5.37452,"is_reserved":false,"is_disabled":false,"rental_uris":{"android":"levelo://app?vid=70617585-289d-477e-b3bd-01213e273ed0","ios":"levelo://app?vid=70617585-289d-477e-b3bd-01213e273ed0"},"vehicle_type_id":"4","last_reported":1739427211,"current_range_meters":38000,"station_id":"ce4bhgh2rcd13ifvqfb0","pricing_plan_id":"cebpf4jnsgd1na2vs0mg"},{"bike_id":"7b35ec91-75d0-476a-8303-ae83c6d3cb50","system_id":"levelo_inurba_marseille","lat":43.248091,"lon":5.374567,"is_reserved":false,"is_disabled":false,"rental_uris":{"android":"levelo://app?vid=7b35ec91-75d0-476a-8303-ae83c6d3cb50","ios":"levelo://app?vid=7b35ec91-75d0-476a-8303-ae83c6d3cb50"},"vehicle_type_id":"4","last_reported":1739427211,"current_range_meters":4400,"station_id":"ce4bhgh2rcd13ifvqfb0","pricing_plan_id":"cebpf4jnsgd1na2vs0mg"},{"bike_id":"94a1fe7e-a459-4400-9162-bfbba846c26a","system_id":"levelo_inurba_marseille","lat":43.27182,"lon":5.40961,"is_reserved":false,"is_disabled":false,"rental_uris":{"android":"levelo://app?vid=94a1fe7e-a459-4400-9162-bfbba846c26a","ios":"levelo://app?vid=94a1fe7e-a459-4400-9162-bfbba846c26a"},"vehicle_type_id":"4","last_reported":1739427211,"current_range_meters":38800,"station_id":"ce4bhl12rcd13ifvqgf0","pricing_plan_id":"cebpf4jnsgd1na2vs0mg"},{"bike_id":"f79dfbe4-4eb6-47b7-a82e-4ab6b90b5740","system_id":"levelo_inurba_marseille","lat":43.30894,"lon":5.39651,"is_reserved":false,"is_disabled":false,"rental_uris":{"android":"levelo://app?vid=f79dfbe4-4eb6-47b7-a82e-4ab6b90b5740","ios":"levelo://app?vid=f79dfbe4-4eb6-47b7-a82e-4ab6b90b5740"},"vehicle_type_id":"4","last_reported":1739427211,"current_range_meters":38800,"station_id":"ce4bh012rcd13ifvqcv0","pricing_plan_id":"cebpf4jnsgd1na2vs0mg"},{"bike_id":"0bb74977-bdfe-4159-ba67-be7e22ae2761","system_id":"levelo_inurba_marseille","lat":43.29595,"lon":5.38109,"is_reserved":false,"is_disabled":true,"rental_uris":{"android":"levelo://app?vid=0bb74977-bdfe-4159-ba67-be7e22ae2761","ios":"levelo://app?vid=0bb74977-bdfe-4159-ba67-be7e22ae2761"},"vehicle_type_id":"4","last_reported":1739427211,"current_range_meters":37600,"station_id":"ce4bgl12rcd13ifvqbo0","pricing_plan_id":"cebpf4jnsgd1na2vs0mg"},{"bike_id":"b25a9eee-2d73-4b6b-bb0a-7298ae7054df","system_id":"levelo_inurba_marseille","lat":43.30946,"lon":5.39026,"is_reserved":false,"is_disabled":false,"rental_uris":{"android":"levelo://app?vid=b25a9eee-2d73-4b6b-bb0a-7298ae7054df","ios":"levelo://app?vid=b25a9eee-2d73-4b6b-bb0a-7298ae7054df"},"vehicle_type_id":"4","last_reported":1739427211,"current_range_meters":18800,"station_id":"ce4bgup2rcd13ifvqco0","pricing_plan_id":"cebpf4jnsgd1na2vs0mg"},{"bike_id":"746bd82f-b444-4f0e-bbcf-06757cdf85d8","system_id":"levelo_inurba_marseille","lat":43.24683,"lon":5.38134,"is_reserved":false,"is_disabled":false,"rental_uris":{"android":"levelo://app?vid=746bd82f-b444-4f0e-bbcf-06757cdf85d8","ios":"levelo://app?vid=746bd82f-b444-4f0e-bbcf-06757cdf85d8"},"vehicle_type_id":"4","last_reported":1739427211,"current_range_meters":32400,"station_id":"ce4bhih2rcd13ifvqfr0","pricing_plan_id":"cebpf4jnsgd1na2vs0mg"},{"bike_id":"c2250f20-2283-4e17-b7ce-382f2f740aa1","system_id":"levelo_inurba_marseille","lat":43.24812,"lon":5.37456,"is_reserved":false,"is_disabled":false,"rental_uris":{"android":"levelo://app?vid=c2250f20-2283-4e17-b7ce-382f2f740aa1","ios":"levelo://app?vid=c2250f20-2283-4e17-b7ce-382f2f740aa1"},"vehicle_type_id":"4","last_reported":1739427211,"current_range_meters":38800,"station_id":"ce4bhgh2rcd13ifvqfb0","pricing_plan_id":"cebpf4jnsgd1na2vs0mg"},{"bike_id":"cae753ae-2904-4959-a53a-5c8306d07841","system_id":"levelo_inurba_marseille","lat":43.24806,"lon":5.37441,"is_reserved":false,"is_disabled":false,"rental_uris":{"android":"levelo://app?vid=cae753ae-2904-4959-a53a-5c8306d07841","ios":"levelo://app?vid=cae753ae-2904-4959-a53a-5c8306d07841"},"vehicle_type_id":"4","last_reported":1739427211,"current_range_meters":30400,"station_id":"ce4bhgh2rcd13ifvqfb0","pricing_plan_id":"cebpf4jnsgd1na2vs0mg"},{"bike_id":"ac3396d4-e522-44b1-9c27-7049db9ec593","system_id":"levelo_inurba_marseille","lat":43.27813,"lon":5.40708,"is_reserved":false,"is_disabled":false,"rental_uris":{"android":"levelo://app?vid=ac3396d4-e522-44b1-9c27-7049db9ec593","ios":"levelo://app?vid=ac3396d4-e522-44b1-9c27-7049db9ec593"},"vehicle_type_id":"4","last_reported":1739427211,"current_range_meters":20800,"station_id":"ce4bhnh2rcd13ifvqgtg","pricing_plan_id":"cebpf4jnsgd1na2vs0mg"},{"bike_id":"a32f863f-2847-45c8-9bf5-84302eee9bef","system_id":"levelo_inurba_marseille","lat":43.2867,"lon":5.36359,"is_reserved":false,"is_disabled":false,"rental_uris":{"android":"levelo://app?vid=a32f863f-2847-45c8-9bf5-84302eee9bef","ios":"levelo://app?vid=a32f863f-2847-45c8-9bf5-84302eee9bef"},"vehicle_type_id":"4","last_reported":1739427211,"current_range_meters":23200,"station_id":"ce4bhah2rcd13ifvqej0","pricing_plan_id":"cebpf4jnsgd1na2vs0mg"},{"bike_id":"ab7bda7a-118a-4bff-9e36-2e7622b1fe23","system_id":"levelo_inurba_marseille","lat":43.28696,"lon":5.39964,"is_reserved":false,"is_disabled":false,"rental_uris":{"android":"levelo://app?vid=ab7bda7a-118a-4bff-9e36-2e7622b1fe23","ios":"levelo://app?vid=ab7bda7a-118a-4bff-9e36-2e7622b1fe23"},"vehicle_type_id":"4","last_reported":1739427211,"current_range_meters":24800,"station_id":"ce4bho92rcd13ifvqh3g","pricing_plan_id":"cebpf4jnsgd1na2vs0mg"},{"bike_id":"492e558b-0ce5-4984-b6b1-1d33f225a96b","system_id":"levelo_inurba_marseille","lat":43.241628,"lon":5.363961,"is_reserved":false,"is_disabled":false,"rental_uris":{"android":"levelo://app?vid=492e558b-0ce5-4984-b6b1-1d33f225a96b","ios":"levelo://app?vid=492e558b-0ce5-4984-b6b1-1d33f225a96b"},"vehicle_type_id":"4","last_reported":1739427211,"current_range_meters":8400,"station_id":"cpo36qri1sfpv3e86is0","pricing_plan_id":"cebpf4jnsgd1na2vs0mg"},{"bike_id":"4ef1556a-9445-4856-8c3c-4481ce7a30dc","system_id":"levelo_inurba_marseille","lat":43.30805,"lon":5.38134,"is_reserved":false,"is_disabled":false,"rental_uris":{"android":"levelo://app?vid=4ef1556a-9445-4856-8c3c-4481ce7a30dc","ios":"levelo://app?vid=4ef1556a-9445-4856-8c3c-4481ce7a30dc"},"vehicle_type_id":"4","last_reported":1739427211,"current_range_meters":24400,"station_id":"ce4bgt12rcd13ifvqce0","pricing_plan_id":"cebpf4jnsgd1na2vs0mg"},{"bike_id":"c6ab2079-aa0d-4c6d-8608-a1cea0571a2d","system_id":"levelo_inurba_marseille","lat":43.32688,"lon":5.43117,"is_reserved":false,"is_disabled":false,"rental_uris":{"android":"levelo://app?vid=c6ab2079-aa0d-4c6d-8608-a1cea0571a2d","ios":"levelo://app?vid=c6ab2079-aa0d-4c6d-8608-a1cea0571a2d"},"vehicle_type_id":"4","last_reported":1739427211,"current_range_meters":38000,"station_id":"","pricing_plan_id":"cebpf4jnsgd1na2vs0mg"},{"bike_id":"40bc8b89-4b89-4043-9794-12c16f3c0836","system_id":"levelo_inurba_marseille","lat":43.31487,"lon":5.37282,"is_reserved":false,"is_disabled":false,"rental_uris":{"android":"levelo://app?vid=40bc8b89-4b89-4043-9794-12c16f3c0836","ios":"levelo://app?vid=40bc8b89-4b89-4043-9794-12c16f3c0836"},"vehicle_type_id":"4","last_reported":1739427211,"current_range_meters":19600,"station_id":"ce4bgt12rcd13ifvqcd0","pricing_plan_id":"cebpf4jnsgd1na2vs0mg"},{"bike_id":"30b76049-e41b-4adb-862f-755fe2524e05","system_id":"levelo_inurba_marseille","lat":43.288513,"lon":5.393247,"is_reserved":false,"is_disabled":true,"rental_uris":{"android":"levelo://app?vid=30b76049-e41b-4adb-862f-755fe2524e05","ios":"levelo://app?vid=30b76049-e41b-4adb-862f-755fe2524e05"},"vehicle_type_id":"4","last_reported":1739427211,"current_range_meters":32800,"station_id":"","pricing_plan_id":"cebpf4jnsgd1na2vs0mg"},{"bike_id":"837686c6-9ebd-419b-a578-a995281012ca","system_id":"levelo_inurba_marseille","lat":43.27972,"lon":5.36935,"is_reserved":false,"is_disabled":false,"rental_uris":{"android":"levelo://app?vid=837686c6-9ebd-419b-a578-a995281012ca","ios":"levelo://app?vid=837686c6-9ebd-419b-a578-a995281012ca"},"vehicle_type_id":"4","last_reported":1739427211,"current_range_meters":34800,"station_id":"ce4bha12rcd13ifvqef0","pricing_plan_id":"cebpf4jnsgd1na2vs0mg"},{"bike_id":"084550d1-0260-4e97-97a5-5804dceb22a6","system_id":"levelo_inurba_marseille","lat":43.30876,"lon":5.39659,"is_reserved":false,"is_disabled":false,"rental_uris":{"android":"levelo://app?vid=084550d1-0260-4e97-97a5-5804dceb22a6","ios":"levelo://app?vid=084550d1-0260-4e97-97a5-5804dceb22a6"},"vehicle_type_id":"4","last_reported":1739427211,"current_range_meters":39200,"station_id":"ce4bh012rcd13ifvqcv0","pricing_plan_id":"cebpf4jnsgd1na2vs0mg"},{"bike_id":"8529453e-6164-4c2d-9aea-7bc04425d635","system_id":"levelo_inurba_marseille","lat":43.28701,"lon":5.39971,"is_reserved":false,"is_disabled":false,"rental_uris":{"android":"levelo://app?vid=8529453e-6164-4c2d-9aea-7bc04425d635","ios":"levelo://app?vid=8529453e-6164-4c2d-9aea-7bc04425d635"},"vehicle_type_id":"4","last_reported":1739427211,"current_range_meters":12800,"station_id":"ce4bho92rcd13ifvqh3g","pricing_plan_id":"cebpf4jnsgd1na2vs0mg"},{"bike_id":"ebaf1afe-6793-4830-8b43-689bbe41f293","system_id":"levelo_inurba_marseille","lat":43.30433,"lon":5.38886,"is_reserved":false,"is_disabled":false,"rental_uris":{"android":"levelo://app?vid=ebaf1afe-6793-4830-8b43-689bbe41f293","ios":"levelo://app?vid=ebaf1afe-6793-4830-8b43-689bbe41f293"},"vehicle_type_id":"4","last_reported":1739427211,"current_range_meters":38800,"station_id":"ce4bgk12rcd13ifvqbi0","pricing_plan_id":"cebpf4jnsgd1na2vs0mg"},{"bike_id":"2c7e9a1a-f41b-4230-ad31-fa1174cac54e","system_id":"levelo_inurba_marseille","lat":43.32292,"lon":5.39035,"is_reserved":false,"is_disabled":false,"rental_uris":{"android":"levelo://app?vid=2c7e9a1a-f41b-4230-ad31-fa1174cac54e","ios":"levelo://app?vid=2c7e9a1a-f41b-4230-ad31-fa1174cac54e"},"vehicle_type_id":"4","last_reported":1739427211,"current_range_meters":10800,"station_id":"","pricing_plan_id":"cebpf4jnsgd1na2vs0mg"},{"bike_id":"ca3411ed-a02c-4230-a75b-02b01b14999b","system_id":"levelo_inurba_marseille","lat":43.30646,"lon":5.40071,"is_reserved":false,"is_disabled":false,"rental_uris":{"android":"levelo://app?vid=ca3411ed-a02c-4230-a75b-02b01b14999b","ios":"levelo://app?vid=ca3411ed-a02c-4230-a75b-02b01b14999b"},"vehicle_type_id":"4","last_reported":1739427211,"current_range_meters":14000,"station_id":"ce4bh112rcd13ifvqda0","pricing_plan_id":"cebpf4jnsgd1na2vs0mg"},{"bike_id":"786687c7-e4ff-4ff9-8656-9627b4ede65e","system_id":"levelo_inurba_marseille","lat":43.26675,"lon":5.3827,"is_reserved":false,"is_disabled":false,"rental_uris":{"android":"levelo://app?vid=786687c7-e4ff-4ff9-8656-9627b4ede65e","ios":"levelo://app?vid=786687c7-e4ff-4ff9-8656-9627b4ede65e"},"vehicle_type_id":"4","last_reported":1739427211,"current_range_meters":38800,"station_id":"ce4bhg92rcd13ifvqf90","pricing_plan_id":"cebpf4jnsgd1na2vs0mg"},{"bike_id":"6df70e94-8492-4b07-abaf-c3d11f78ac9d","system_id":"levelo_inurba_marseille","lat":43.30471,"lon":5.37909,"is_reserved":false,"is_disabled":false,"rental_uris":{"android":"levelo://app?vid=6df70e94-8492-4b07-abaf-c3d11f78ac9d","ios":"levelo://app?vid=6df70e94-8492-4b07-abaf-c3d11f78ac9d"},"vehicle_type_id":"4","last_reported":1739427211,"current_range_meters":27200,"station_id":"ce4bgup2rcd13ifvqcn0","pricing_plan_id":"cebpf4jnsgd1na2vs0mg"},{"bike_id":"fda20d6d-f273-42bd-8582-617507b5bbc6","system_id":"levelo_inurba_marseille","lat":43.27207,"lon":5.39186,"is_reserved":false,"is_disabled":false,"rental_uris":{"android":"levelo://app?vid=fda20d6d-f273-42bd-8582-617507b5bbc6","ios":"levelo://app?vid=fda20d6d-f273-42bd-8582-617507b5bbc6"},"vehicle_type_id":"4","last_reported":1739427211,"current_range_meters":39200,"station_id":"ce4bhhp2rcd13ifvqfm0","pricing_plan_id":"cebpf4jnsgd1na2vs0mg"},{"bike_id":"bb007639-63f2-4069-ac85-e4fdb7a6d78f","system_id":"levelo_inurba_marseille","lat":43.2796,"lon":5.41014,"is_reserved":false,"is_disabled":false,"rental_uris":{"android":"levelo://app?vid=bb007639-63f2-4069-ac85-e4fdb7a6d78f","ios":"levelo://app?vid=bb007639-63f2-4069-ac85-e4fdb7a6d78f"},"vehicle_type_id":"4","last_reported":1739427211,"current_range_meters":17200,"station_id":"ce4bhnp2rcd13ifvqh0g","pricing_plan_id":"cebpf4jnsgd1na2vs0mg"},{"bike_id":"55780c50-6a84-4e88-bef1-f348e4c19a48","system_id":"levelo_inurba_marseille","lat":43.311791,"lon":5.387203,"is_reserved":false,"is_disabled":true,"rental_uris":{"android":"levelo://app?vid=55780c50-6a84-4e88-bef1-f348e4c19a48","ios":"levelo://app?vid=55780c50-6a84-4e88-bef1-f348e4c19a48"},"vehicle_type_id":"4","last_reported":1739427211,"current_range_meters":34800,"station_id":"ce4bgv12rcd13ifvqcp0","pricing_plan_id":"cebpf4jnsgd1na2vs0mg"},{"bike_id":"7335b564-6dbe-4484-93db-55ac8075f374","system_id":"levelo_inurba_marseille","lat":43.28465,"lon":5.35885,"is_reserved":false,"is_disabled":false,"rental_uris":{"android":"levelo://app?vid=7335b564-6dbe-4484-93db-55ac8075f374","ios":"levelo://app?vid=7335b564-6dbe-4484-93db-55ac8075f374"},"vehicle_type_id":"4","last_reported":1739427211,"current_range_meters":19200,"station_id":"ce4bhah2rcd13ifvqei0","pricing_plan_id":"cebpf4jnsgd1na2vs0mg"},{"bike_id":"e5efd828-eef1-418b-b92d-690982123ea2","system_id":"levelo_inurba_marseille","lat":43.25551,"lon":5.3826,"is_reserved":false,"is_disabled":false,"rental_uris":{"android":"levelo://app?vid=e5efd828-eef1-418b-b92d-690982123ea2","ios":"levelo://app?vid=e5efd828-eef1-418b-b92d-690982123ea2"},"vehicle_type_id":"4","last_reported":1739427211,"current_range_meters":8800,"station_id":"ce4bhih2rcd13ifvqfs0","pricing_plan_id":"cebpf4jnsgd1na2vs0mg"},{"bike_id":"b1b93a49-25bc-4589-b584-866c5f20cedd","system_id":"levelo_inurba_marseille","lat":43.31617,"lon":5.37659,"is_reserved":false,"is_disabled":false,"rental_uris":{"android":"levelo://app?vid=b1b93a49-25bc-4589-b584-866c5f20cedd","ios":"levelo://app?vid=b1b93a49-25bc-4589-b584-866c5f20cedd"},"vehicle_type_id":"4","last_reported":1739427211,"current_range_meters":4800,"station_id":"","pricing_plan_id":"cebpf4jnsgd1na2vs0mg"},{"bike_id":"e72933b5-9c55-4371-b54e-521ef3bd97b6","system_id":"levelo_inurba_marseille","lat":43.29056,"lon":5.35884,"is_reserved":false,"is_disabled":false,"rental_uris":{"android":"levelo://app?vid=e72933b5-9c55-4371-b54e-521ef3bd97b6","ios":"levelo://app?vid=e72933b5-9c55-4371-b54e-521ef3bd97b6"},"vehicle_type_id":"4","last_reported":1739427211,"current_range_meters":32000,"station_id":"ce4bha92rcd13ifvqeg0","pricing_plan_id":"cebpf4jnsgd1na2vs0mg"},{"bike_id":"f1013731-d9d0-43ac-a11d-8c2c06babf9c","system_id":"levelo_inurba_marseille","lat":43.24073,"lon":5.37737,"is_reserved":false,"is_disabled":false,"rental_uris":{"android":"levelo://app?vid=f1013731-d9d0-43ac-a11d-8c2c06babf9c","ios":"levelo://app?vid=f1013731-d9d0-43ac-a11d-8c2c06babf9c"},"vehicle_type_id":"4","last_reported":1739427211,"current_range_meters":37600,"station_id":"ce4bhnp2rcd13ifvqgvg","pricing_plan_id":"cebpf4jnsgd1na2vs0mg"},{"bike_id":"975bd8a5-8f21-44ae-a027-a7bf539ff1a7","system_id":"levelo_inurba_marseille","lat":43.286644,"lon":5.363529,"is_reserved":false,"is_disabled":false,"rental_uris":{"android":"levelo://app?vid=975bd8a5-8f21-44ae-a027-a7bf539ff1a7","ios":"levelo://app?vid=975bd8a5-8f21-44ae-a027-a7bf539ff1a7"},"vehicle_type_id":"4","last_reported":1739427211,"current_range_meters":26000,"station_id":"ce4bhah2rcd13ifvqej0","pricing_plan_id":"cebpf4jnsgd1na2vs0mg"},{"bike_id":"04d4b8ab-1d4d-44ab-9d49-e10f569c0553","system_id":"levelo_inurba_marseille","lat":43.29858,"lon":5.36263,"is_reserved":false,"is_disabled":false,"rental_uris":{"android":"levelo://app?vid=04d4b8ab-1d4d-44ab-9d49-e10f569c0553","ios":"levelo://app?vid=04d4b8ab-1d4d-44ab-9d49-e10f569c0553"},"vehicle_type_id":"4","last_reported":1739427211,"current_range_meters":28400,"station_id":"ce4bgpp2rcd13ifvqc3g","pricing_plan_id":"cebpf4jnsgd1na2vs0mg"},{"bike_id":"1e27a57f-c848-41af-a2d3-5d053a440eb3","system_id":"levelo_inurba_marseille","lat":43.32567,"lon":5.43051,"is_reserved":false,"is_disabled":false,"rental_uris":{"android":"levelo://app?vid=1e27a57f-c848-41af-a2d3-5d053a440eb3","ios":"levelo://app?vid=1e27a57f-c848-41af-a2d3-5d053a440eb3"},"vehicle_type_id":"4","last_reported":1739427211,"current_range_meters":12000,"station_id":"","pricing_plan_id":"cebpf4jnsgd1na2vs0mg"},{"bike_id":"e0e88e32-cb96-4b9b-ae72-a756accf51b3","system_id":"levelo_inurba_marseille","lat":43.2582,"lon":5.39421,"is_reserved":false,"is_disabled":false,"rental_uris":{"android":"levelo://app?vid=e0e88e32-cb96-4b9b-ae72-a756accf51b3","ios":"levelo://app?vid=e0e88e32-cb96-4b9b-ae72-a756accf51b3"},"vehicle_type_id":"4","last_reported":1739427211,"current_range_meters":6400,"station_id":"ce4bhip2rcd13ifvqft0","pricing_plan_id":"cebpf4jnsgd1na2vs0mg"},{"bike_id":"c62b1faa-f28b-40b9-b32d-c145fe962623","system_id":"levelo_inurba_marseille","lat":43.32623,"lon":5.41003,"is_reserved":false,"is_disabled":false,"rental_uris":{"android":"levelo://app?vid=c62b1faa-f28b-40b9-b32d-c145fe962623","ios":"levelo://app?vid=c62b1faa-f28b-40b9-b32d-c145fe962623"},"vehicle_type_id":"4","last_reported":1739427211,"current_range_meters":37600,"station_id":"ce4bhpp2rcd13ifvqhgg","pricing_plan_id":"cebpf4jnsgd1na2vs0mg"},{"bike_id":"60b283a1-229b-4adb-83f1-d1d7d9987d23","system_id":"levelo_inurba_marseille","lat":43.29043,"lon":5.35891,"is_reserved":false,"is_disabled":false,"rental_uris":{"android":"levelo://app?vid=60b283a1-229b-4adb-83f1-d1d7d9987d23","ios":"levelo://app?vid=60b283a1-229b-4adb-83f1-d1d7d9987d23"},"vehicle_type_id":"4","last_reported":1739427211,"current_range_meters":22800,"station_id":"ce4bha92rcd13ifvqeg0","pricing_plan_id":"cebpf4jnsgd1na2vs0mg"},{"bike_id":"c4813b27-4250-43ea-8be5-ccd7321d2af3","system_id":"levelo_inurba_marseille","lat":43.282231,"lon":5.370101,"is_reserved":false,"is_disabled":false,"rental_uris":{"android":"levelo://app?vid=c4813b27-4250-43ea-8be5-ccd7321d2af3","ios":"levelo://app?vid=c4813b27-4250-43ea-8be5-ccd7321d2af3"},"vehicle_type_id":"4","last_reported":1739427211,"current_range_meters":14000,"station_id":"","pricing_plan_id":"cebpf4jnsgd1na2vs0mg"},{"bike_id":"d512d5c3-1e35-400e-b056-e39353266f26","system_id":"levelo_inurba_marseille","lat":43.294408,"lon":5.397454,"is_reserved":false,"is_disabled":false,"rental_uris":{"android":"levelo://app?vid=d512d5c3-1e35-400e-b056-e39353266f26","ios":"levelo://app?vid=d512d5c3-1e35-400e-b056-e39353266f26"},"vehicle_type_id":"4","last_reported":1739427211,"current_range_meters":33600,"station_id":"ce4bh3h2rcd13ifvqdo0","pricing_plan_id":"cebpf4jnsgd1na2vs0mg"},{"bike_id":"bc36e09f-a8a9-425b-943a-324d66098d3d","system_id":"levelo_inurba_marseille","lat":43.28708,"lon":5.37397,"is_reserved":false,"is_disabled":false,"rental_uris":{"android":"levelo://app?vid=bc36e09f-a8a9-425b-943a-324d66098d3d","ios":"levelo://app?vid=bc36e09f-a8a9-425b-943a-324d66098d3d"},"vehicle_type_id":"4","last_reported":1739427211,"current_range_meters":38800,"station_id":"ce4bh3p2rcd13ifvqdq0","pricing_plan_id":"cebpf4jnsgd1na2vs0mg"},{"bike_id":"971f9951-cad8-4d64-aee1-30948583f711","system_id":"levelo_inurba_marseille","lat":43.32471,"lon":5.3655,"is_reserved":false,"is_disabled":false,"rental_uris":{"android":"levelo://app?vid=971f9951-cad8-4d64-aee1-30948583f711","ios":"levelo://app?vid=971f9951-cad8-4d64-aee1-30948583f711"},"vehicle_type_id":"4","last_reported":1739427211,"current_range_meters":38800,"station_id":"ce4bhs12rcd13ifvqhvg","pricing_plan_id":"cebpf4jnsgd1na2vs0mg"},{"bike_id":"59e11627-5bbc-415d-a4d4-28a6bf979ca3","system_id":"levelo_inurba_marseille","lat":43.29565,"lon":5.39949,"is_reserved":false,"is_disabled":false,"rental_uris":{"android":"levelo://app?vid=59e11627-5bbc-415d-a4d4-28a6bf979ca3","ios":"levelo://app?vid=59e11627-5bbc-415d-a4d4-28a6bf979ca3"},"vehicle_type_id":"4","last_reported":1739427211,"current_range_meters":38800,"station_id":"ce4bh312rcd13ifvqdj0","pricing_plan_id":"cebpf4jnsgd1na2vs0mg"},{"bike_id":"821060ad-a93f-40bd-8b2b-865e04f259c9","system_id":"levelo_inurba_marseille","lat":43.30434,"lon":5.38884,"is_reserved":false,"is_disabled":false,"rental_uris":{"android":"levelo://app?vid=821060ad-a93f-40bd-8b2b-865e04f259c9","ios":"levelo://app?vid=821060ad-a93f-40bd-8b2b-865e04f259c9"},"vehicle_type_id":"4","last_reported":1739427211,"current_range_meters":38400,"station_id":"ce4bgk12rcd13ifvqbi0","pricing_plan_id":"cebpf4jnsgd1na2vs0mg"},{"bike_id":"1b458121-6cd7-478a-89b8-458176cc39f8","system_id":"levelo_inurba_marseille","lat":43.29442,"lon":5.39744,"is_reserved":false,"is_disabled":false,"rental_uris":{"android":"levelo://app?vid=1b458121-6cd7-478a-89b8-458176cc39f8","ios":"levelo://app?vid=1b458121-6cd7-478a-89b8-458176cc39f8"},"vehicle_type_id":"4","last_reported":1739427211,"current_range_meters":25200,"station_id":"ce4bh3h2rcd13ifvqdo0","pricing_plan_id":"cebpf4jnsgd1na2vs0mg"},{"bike_id":"897d91d7-9c0a-4119-9ad5-8a9a1cc57b43","system_id":"levelo_inurba_marseille","lat":43.28452,"lon":5.35882,"is_reserved":false,"is_disabled":false,"rental_uris":{"android":"levelo://app?vid=897d91d7-9c0a-4119-9ad5-8a9a1cc57b43","ios":"levelo://app?vid=897d91d7-9c0a-4119-9ad5-8a9a1cc57b43"},"vehicle_type_id":"4","last_reported":1739427211,"current_range_meters":37600,"station_id":"ce4bhah2rcd13ifvqei0","pricing_plan_id":"cebpf4jnsgd1na2vs0mg"},{"bike_id":"994637bb-caf9-4055-9838-7c7f8d59209f","system_id":"levelo_inurba_marseille","lat":43.29556,"lon":5.42274,"is_reserved":false,"is_disabled":false,"rental_uris":{"android":"levelo://app?vid=994637bb-caf9-4055-9838-7c7f8d59209f","ios":"levelo://app?vid=994637bb-caf9-4055-9838-7c7f8d59209f"},"vehicle_type_id":"4","last_reported":1739427211,"current_range_meters":26000,"station_id":"ce4bhph2rcd13ifvqhdg","pricing_plan_id":"cebpf4jnsgd1na2vs0mg"},{"bike_id":"339a67aa-e0bc-44df-8ab9-52d7ee4c3441","system_id":"levelo_inurba_marseille","lat":43.30435,"lon":5.39752,"is_reserved":false,"is_disabled":false,"rental_uris":{"android":"levelo://app?vid=339a67aa-e0bc-44df-8ab9-52d7ee4c3441","ios":"levelo://app?vid=339a67aa-e0bc-44df-8ab9-52d7ee4c3441"},"vehicle_type_id":"4","last_reported":1739427211,"current_range_meters":38800,"station_id":"ce4bh092rcd13ifvqd20","pricing_plan_id":"cebpf4jnsgd1na2vs0mg"},{"bike_id":"eb74081f-8035-495f-a073-abb8444b5eb2","system_id":"levelo_inurba_marseille","lat":43.23948,"lon":5.3664,"is_reserved":false,"is_disabled":false,"rental_uris":{"android":"levelo://app?vid=eb74081f-8035-495f-a073-abb8444b5eb2","ios":"levelo://app?vid=eb74081f-8035-495f-a073-abb8444b5eb2"},"vehicle_type_id":"4","last_reported":1739427211,"current_range_meters":17200,"station_id":"ce4bhi12rcd13ifvqfp0","pricing_plan_id":"cebpf4jnsgd1na2vs0mg"},{"bike_id":"ee5d5274-250a-42e4-8b17-389c8ba80df0","system_id":"levelo_inurba_marseille","lat":43.29523,"lon":5.39431,"is_reserved":false,"is_disabled":false,"rental_uris":{"android":"levelo://app?vid=ee5d5274-250a-42e4-8b17-389c8ba80df0","ios":"levelo://app?vid=ee5d5274-250a-42e4-8b17-389c8ba80df0"},"vehicle_type_id":"4","last_reported":1739427211,"current_range_meters":5600,"station_id":"ce4bh292rcd13ifvqdf0","pricing_plan_id":"cebpf4jnsgd1na2vs0mg"},{"bike_id":"c2efea4b-ec5b-4288-9409-142cf8677638","system_id":"levelo_inurba_marseille","lat":43.24674,"lon":5.38118,"is_reserved":false,"is_disabled":false,"rental_uris":{"android":"levelo://app?vid=c2efea4b-ec5b-4288-9409-142cf8677638","ios":"levelo://app?vid=c2efea4b-ec5b-4288-9409-142cf8677638"},"vehicle_type_id":"4","last_reported":1739427211,"current_range_meters":26800,"station_id":"ce4bhih2rcd13ifvqfr0","pricing_plan_id":"cebpf4jnsgd1na2vs0mg"},{"bike_id":"5a144cb3-a695-4ed6-b4c2-98bf7d7f99fa","system_id":"levelo_inurba_marseille","lat":43.2827,"lon":5.35072,"is_reserved":false,"is_disabled":false,"rental_uris":{"android":"levelo://app?vid=5a144cb3-a695-4ed6-b4c2-98bf7d7f99fa","ios":"levelo://app?vid=5a144cb3-a695-4ed6-b4c2-98bf7d7f99fa"},"vehicle_type_id":"4","last_reported":1739427211,"current_range_meters":38000,"station_id":"ce4bhbp2rcd13ifvqerg","pricing_plan_id":"cebpf4jnsgd1na2vs0mg"},{"bike_id":"a0342144-2bd7-40e3-80bf-df0c5ec04fde","system_id":"levelo_inurba_marseille","lat":43.24801,"lon":5.37459,"is_reserved":false,"is_disabled":false,"rental_uris":{"android":"levelo://app?vid=a0342144-2bd7-40e3-80bf-df0c5ec04fde","ios":"levelo://app?vid=a0342144-2bd7-40e3-80bf-df0c5ec04fde"},"vehicle_type_id":"4","last_reported":1739427211,"current_range_meters":27600,"station_id":"ce4bhgh2rcd13ifvqfb0","pricing_plan_id":"cebpf4jnsgd1na2vs0mg"},{"bike_id":"4ca24f42-da8d-4f4c-b599-4aab66b77cbc","system_id":"levelo_inurba_marseille","lat":43.28732,"lon":5.36068,"is_reserved":false,"is_disabled":false,"rental_uris":{"android":"levelo://app?vid=4ca24f42-da8d-4f4c-b599-4aab66b77cbc","ios":"levelo://app?vid=4ca24f42-da8d-4f4c-b599-4aab66b77cbc"},"vehicle_type_id":"4","last_reported":1739427211,"current_range_meters":36400,"station_id":"cki0cbj6b192h4jlfktg","pricing_plan_id":"cebpf4jnsgd1na2vs0mg"},{"bike_id":"8d2d4012-ff69-4800-927a-45caff6cd054","system_id":"levelo_inurba_marseille","lat":43.23113,"lon":5.43722,"is_reserved":false,"is_disabled":false,"rental_uris":{"android":"levelo://app?vid=8d2d4012-ff69-4800-927a-45caff6cd054","ios":"levelo://app?vid=8d2d4012-ff69-4800-927a-45caff6cd054"},"vehicle_type_id":"4","last_reported":1739427211,"current_range_meters":11200,"station_id":"","pricing_plan_id":"cebpf4jnsgd1na2vs0mg"},{"bike_id":"1ec14052-2d33-4aa1-9ab8-58cc71db74d1","system_id":"levelo_inurba_marseille","lat":43.241634,"lon":5.364048,"is_reserved":false,"is_disabled":false,"rental_uris":{"android":"levelo://app?vid=1ec14052-2d33-4aa1-9ab8-58cc71db74d1","ios":"levelo://app?vid=1ec14052-2d33-4aa1-9ab8-58cc71db74d1"},"vehicle_type_id":"4","last_reported":1739427211,"current_range_meters":7200,"station_id":"cpo36qri1sfpv3e86is0","pricing_plan_id":"cebpf4jnsgd1na2vs0mg"},{"bike_id":"6e58a69c-2a4e-4c49-840d-6e728a603acb","system_id":"levelo_inurba_marseille","lat":43.230688,"lon":5.354915,"is_reserved":false,"is_disabled":false,"rental_uris":{"android":"levelo://app?vid=6e58a69c-2a4e-4c49-840d-6e728a603acb","ios":"levelo://app?vid=6e58a69c-2a4e-4c49-840d-6e728a603acb"},"vehicle_type_id":"4","last_reported":1739427211,"current_range_meters":6800,"station_id":"cpo3342slgdg3j2ifvpg","pricing_plan_id":"cebpf4jnsgd1na2vs0mg"},{"bike_id":"add7e1b7-46d4-4b7f-bf50-34281873e788","system_id":"levelo_inurba_marseille","lat":43.31266,"lon":5.3692,"is_reserved":false,"is_disabled":true,"rental_uris":{"android":"levelo://app?vid=add7e1b7-46d4-4b7f-bf50-34281873e788","ios":"levelo://app?vid=add7e1b7-46d4-4b7f-bf50-34281873e788"},"vehicle_type_id":"4","last_reported":1739427211,"current_range_meters":29600,"station_id":"ce4bgl92rcd13ifvqbq0","pricing_plan_id":"cebpf4jnsgd1na2vs0mg"},{"bike_id":"aaf5d84c-409c-4cea-a87d-9adf5073cc96","system_id":"levelo_inurba_marseille","lat":43.25869,"lon":5.39895,"is_reserved":false,"is_disabled":false,"rental_uris":{"android":"levelo://app?vid=aaf5d84c-409c-4cea-a87d-9adf5073cc96","ios":"levelo://app?vid=aaf5d84c-409c-4cea-a87d-9adf5073cc96"},"vehicle_type_id":"4","last_reported":1739427211,"current_range_meters":18800,"station_id":"ce4bhl92rcd13ifvqghg","pricing_plan_id":"cebpf4jnsgd1na2vs0mg"},{"bike_id":"487b84c5-8809-479a-969a-47f572f8c420","system_id":"levelo_inurba_marseille","lat":43.29186,"lon":5.358,"is_reserved":false,"is_disabled":false,"rental_uris":{"android":"levelo://app?vid=487b84c5-8809-479a-969a-47f572f8c420","ios":"levelo://app?vid=487b84c5-8809-479a-969a-47f572f8c420"},"vehicle_type_id":"4","last_reported":1739427211,"current_range_meters":38800,"station_id":"ce4bhb12rcd13ifvqel0","pricing_plan_id":"cebpf4jnsgd1na2vs0mg"},{"bike_id":"bb8d4545-1dfa-4929-b03f-e7a6dbc7e511","system_id":"levelo_inurba_marseille","lat":43.30442,"lon":5.3882,"is_reserved":false,"is_disabled":false,"rental_uris":{"android":"levelo://app?vid=bb8d4545-1dfa-4929-b03f-e7a6dbc7e511","ios":"levelo://app?vid=bb8d4545-1dfa-4929-b03f-e7a6dbc7e511"},"vehicle_type_id":"4","last_reported":1739427211,"current_range_meters":39200,"station_id":"ce4bgk12rcd13ifvqbi0","pricing_plan_id":"cebpf4jnsgd1na2vs0mg"},{"bike_id":"1b3eb435-3a2a-4540-9213-d8bec842fbee","system_id":"levelo_inurba_marseille","lat":43.28433,"lon":5.37509,"is_reserved":false,"is_disabled":false,"rental_uris":{"android":"levelo://app?vid=1b3eb435-3a2a-4540-9213-d8bec842fbee","ios":"levelo://app?vid=1b3eb435-3a2a-4540-9213-d8bec842fbee"},"vehicle_type_id":"4","last_reported":1739427211,"current_range_meters":16800,"station_id":"ce4bh412rcd13ifvqds0","pricing_plan_id":"cebpf4jnsgd1na2vs0mg"},{"bike_id":"17b8e592-efce-4113-ba0a-d316b99f2a2f","system_id":"levelo_inurba_marseille","lat":43.30129,"lon":5.39883,"is_reserved":false,"is_disabled":true,"rental_uris":{"android":"levelo://app?vid=17b8e592-efce-4113-ba0a-d316b99f2a2f","ios":"levelo://app?vid=17b8e592-efce-4113-ba0a-d316b99f2a2f"},"vehicle_type_id":"4","last_reported":1739427211,"current_range_meters":24400,"station_id":"ce4bh0h2rcd13ifvqd40","pricing_plan_id":"cebpf4jnsgd1na2vs0mg"},{"bike_id":"4450d397-c7c4-4c68-aed9-fa811598c082","system_id":"levelo_inurba_marseille","lat":43.32532,"lon":5.36515,"is_reserved":false,"is_disabled":false,"rental_uris":{"android":"levelo://app?vid=4450d397-c7c4-4c68-aed9-fa811598c082","ios":"levelo://app?vid=4450d397-c7c4-4c68-aed9-fa811598c082"},"vehicle_type_id":"4","last_reported":1739427211,"current_range_meters":38000,"station_id":"","pricing_plan_id":"cebpf4jnsgd1na2vs0mg"},{"bike_id":"09547f9c-45f1-4555-8052-ac255ca0188d","system_id":"levelo_inurba_marseille","lat":43.28375,"lon":5.38616,"is_reserved":false,"is_disabled":false,"rental_uris":{"android":"levelo://app?vid=09547f9c-45f1-4555-8052-ac255ca0188d","ios":"levelo://app?vid=09547f9c-45f1-4555-8052-ac255ca0188d"},"vehicle_type_id":"4","last_reported":1739427211,"current_range_meters":17600,"station_id":"ce4bh492rcd13ifvqdvg","pricing_plan_id":"cebpf4jnsgd1na2vs0mg"},{"bike_id":"06a3d1ba-24d8-4216-a4f0-3953752034fc","system_id":"levelo_inurba_marseille","lat":43.28571,"lon":5.39498,"is_reserved":false,"is_disabled":false,"rental_uris":{"android":"levelo://app?vid=06a3d1ba-24d8-4216-a4f0-3953752034fc","ios":"levelo://app?vid=06a3d1ba-24d8-4216-a4f0-3953752034fc"},"vehicle_type_id":"4","last_reported":1739427211,"current_range_meters":38800,"station_id":"ce4bh292rcd13ifvqdg0","pricing_plan_id":"cebpf4jnsgd1na2vs0mg"},{"bike_id":"e8b28b54-77ac-449d-9db3-e4ebadc63c06","system_id":"levelo_inurba_marseille","lat":43.29509,"lon":5.37508,"is_reserved":false,"is_disabled":false,"rental_uris":{"android":"levelo://app?vid=e8b28b54-77ac-449d-9db3-e4ebadc63c06","ios":"levelo://app?vid=e8b28b54-77ac-449d-9db3-e4ebadc63c06"},"vehicle_type_id":"4","last_reported":1739427211,"current_range_meters":30400,"station_id":"ce4bgkp2rcd13ifvqbmg","pricing_plan_id":"cebpf4jnsgd1na2vs0mg"},{"bike_id":"fe07e58b-49a0-48db-8d2c-b7e870411a4e","system_id":"levelo_inurba_marseille","lat":43.30556,"lon":5.36527,"is_reserved":false,"is_disabled":false,"rental_uris":{"android":"levelo://app?vid=fe07e58b-49a0-48db-8d2c-b7e870411a4e","ios":"levelo://app?vid=fe07e58b-49a0-48db-8d2c-b7e870411a4e"},"vehicle_type_id":"4","last_reported":1739427211,"current_range_meters":38000,"station_id":"ce4bgs12rcd13ifvqcag","pricing_plan_id":"cebpf4jnsgd1na2vs0mg"},{"bike_id":"04e79b02-26b7-408e-8d07-a04361b8a27a","system_id":"levelo_inurba_marseille","lat":43.23188,"lon":5.39985,"is_reserved":false,"is_disabled":false,"rental_uris":{"android":"levelo://app?vid=04e79b02-26b7-408e-8d07-a04361b8a27a","ios":"levelo://app?vid=04e79b02-26b7-408e-8d07-a04361b8a27a"},"vehicle_type_id":"4","last_reported":1739427211,"current_range_meters":38800,"station_id":"ce4bhn12rcd13ifvqgqg","pricing_plan_id":"cebpf4jnsgd1na2vs0mg"},{"bike_id":"02cbc0da-a9a5-4c58-922a-caf9d5ef64ac","system_id":"levelo_inurba_marseille","lat":43.29966,"lon":5.37172,"is_reserved":false,"is_disabled":false,"rental_uris":{"android":"levelo://app?vid=02cbc0da-a9a5-4c58-922a-caf9d5ef64ac","ios":"levelo://app?vid=02cbc0da-a9a5-4c58-922a-caf9d5ef64ac"},"vehicle_type_id":"4","last_reported":1739427211,"current_range_meters":33600,"station_id":"ce4bgr92rcd13ifvqc7g","pricing_plan_id":"cebpf4jnsgd1na2vs0mg"},{"bike_id":"131035c0-e0e9-48c0-bc5c-112eadec296e","system_id":"levelo_inurba_marseille","lat":43.25494,"lon":5.37661,"is_reserved":false,"is_disabled":false,"rental_uris":{"android":"levelo://app?vid=131035c0-e0e9-48c0-bc5c-112eadec296e","ios":"levelo://app?vid=131035c0-e0e9-48c0-bc5c-112eadec296e"},"vehicle_type_id":"4","last_reported":1739427211,"current_range_meters":38800,"station_id":"ce4bhh12rcd13ifvqff0","pricing_plan_id":"cebpf4jnsgd1na2vs0mg"},{"bike_id":"32f04204-a566-4580-80b6-dfcc4e03003b","system_id":"levelo_inurba_marseille","lat":43.29191,"lon":5.35787,"is_reserved":false,"is_disabled":false,"rental_uris":{"android":"levelo://app?vid=32f04204-a566-4580-80b6-dfcc4e03003b","ios":"levelo://app?vid=32f04204-a566-4580-80b6-dfcc4e03003b"},"vehicle_type_id":"4","last_reported":1739427211,"current_range_meters":38800,"station_id":"ce4bhb12rcd13ifvqel0","pricing_plan_id":"cebpf4jnsgd1na2vs0mg"},{"bike_id":"0af6ce70-a73d-4e15-ae66-afdf903dbe27","system_id":"levelo_inurba_marseille","lat":43.24811,"lon":5.374571,"is_reserved":false,"is_disabled":true,"rental_uris":{"android":"levelo://app?vid=0af6ce70-a73d-4e15-ae66-afdf903dbe27","ios":"levelo://app?vid=0af6ce70-a73d-4e15-ae66-afdf903dbe27"},"vehicle_type_id":"4","last_reported":1739427211,"current_range_meters":6000,"station_id":"ce4bhgh2rcd13ifvqfb0","pricing_plan_id":"cebpf4jnsgd1na2vs0mg"},{"bike_id":"d8981250-8625-4c10-aed1-00e88c58cfab","system_id":"levelo_inurba_marseille","lat":43.30458,"lon":5.37896,"is_reserved":false,"is_disabled":false,"rental_uris":{"android":"levelo://app?vid=d8981250-8625-4c10-aed1-00e88c58cfab","ios":"levelo://app?vid=d8981250-8625-4c10-aed1-00e88c58cfab"},"vehicle_type_id":"4","last_reported":1739427211,"current_range_meters":39200,"station_id":"ce4bgup2rcd13ifvqcn0","pricing_plan_id":"cebpf4jnsgd1na2vs0mg"},{"bike_id":"60923f03-cd8c-4bea-9d11-b983eb3ea13e","system_id":"levelo_inurba_marseille","lat":43.28464,"lon":5.35877,"is_reserved":false,"is_disabled":false,"rental_uris":{"android":"levelo://app?vid=60923f03-cd8c-4bea-9d11-b983eb3ea13e","ios":"levelo://app?vid=60923f03-cd8c-4bea-9d11-b983eb3ea13e"},"vehicle_type_id":"4","last_reported":1739427211,"current_range_meters":7200,"station_id":"ce4bhah2rcd13ifvqei0","pricing_plan_id":"cebpf4jnsgd1na2vs0mg"},{"bike_id":"8626de95-6231-4d7a-af5a-b0a2d3ce1819","system_id":"levelo_inurba_marseille","lat":43.264981,"lon":5.395457,"is_reserved":false,"is_disabled":false,"rental_uris":{"android":"levelo://app?vid=8626de95-6231-4d7a-af5a-b0a2d3ce1819","ios":"levelo://app?vid=8626de95-6231-4d7a-af5a-b0a2d3ce1819"},"vehicle_type_id":"4","last_reported":1739427211,"current_range_meters":39200,"station_id":"ce4bhi12rcd13ifvqfq0","pricing_plan_id":"cebpf4jnsgd1na2vs0mg"},{"bike_id":"c7cd5159-81f5-4ce5-b57a-694f486e5871","system_id":"levelo_inurba_marseille","lat":43.31165,"lon":5.38711,"is_reserved":false,"is_disabled":false,"rental_uris":{"android":"levelo://app?vid=c7cd5159-81f5-4ce5-b57a-694f486e5871","ios":"levelo://app?vid=c7cd5159-81f5-4ce5-b57a-694f486e5871"},"vehicle_type_id":"4","last_reported":1739427211,"current_range_meters":38400,"station_id":"ce4bgv12rcd13ifvqcp0","pricing_plan_id":"cebpf4jnsgd1na2vs0mg"},{"bike_id":"95238438-aee1-472d-8c03-6f5da0f062d1","system_id":"levelo_inurba_marseille","lat":43.31353,"lon":5.36741,"is_reserved":false,"is_disabled":false,"rental_uris":{"android":"levelo://app?vid=95238438-aee1-472d-8c03-6f5da0f062d1","ios":"levelo://app?vid=95238438-aee1-472d-8c03-6f5da0f062d1"},"vehicle_type_id":"4","last_reported":1739427211,"current_range_meters":35200,"station_id":"ce4bgr92rcd13ifvqc6g","pricing_plan_id":"cebpf4jnsgd1na2vs0mg"},{"bike_id":"10efc08b-72f2-4be3-b832-44bd8ddd8d9e","system_id":"levelo_inurba_marseille","lat":43.24665,"lon":5.38154,"is_reserved":false,"is_disabled":false,"rental_uris":{"android":"levelo://app?vid=10efc08b-72f2-4be3-b832-44bd8ddd8d9e","ios":"levelo://app?vid=10efc08b-72f2-4be3-b832-44bd8ddd8d9e"},"vehicle_type_id":"4","last_reported":1739427211,"current_range_meters":10800,"station_id":"ce4bhih2rcd13ifvqfr0","pricing_plan_id":"cebpf4jnsgd1na2vs0mg"},{"bike_id":"e8b8ccca-84f8-4c50-900b-fa9a0a2d218e","system_id":"levelo_inurba_marseille","lat":43.27893,"lon":5.38027,"is_reserved":false,"is_disabled":false,"rental_uris":{"android":"levelo://app?vid=e8b8ccca-84f8-4c50-900b-fa9a0a2d218e","ios":"levelo://app?vid=e8b8ccca-84f8-4c50-900b-fa9a0a2d218e"},"vehicle_type_id":"4","last_reported":1739427211,"current_range_meters":38800,"station_id":"ce4bhf92rcd13ifvqf50","pricing_plan_id":"cebpf4jnsgd1na2vs0mg"},{"bike_id":"f2185b37-47f5-4e5a-a34a-6fff3a1d30ec","system_id":"levelo_inurba_marseille","lat":43.23962,"lon":5.36624,"is_reserved":false,"is_disabled":false,"rental_uris":{"android":"levelo://app?vid=f2185b37-47f5-4e5a-a34a-6fff3a1d30ec","ios":"levelo://app?vid=f2185b37-47f5-4e5a-a34a-6fff3a1d30ec"},"vehicle_type_id":"4","last_reported":1739427211,"current_range_meters":32000,"station_id":"ce4bhi12rcd13ifvqfp0","pricing_plan_id":"cebpf4jnsgd1na2vs0mg"},{"bike_id":"7705324e-dd3d-4a92-a560-9ff863a19382","system_id":"levelo_inurba_marseille","lat":43.30156,"lon":5.37441,"is_reserved":false,"is_disabled":false,"rental_uris":{"android":"levelo://app?vid=7705324e-dd3d-4a92-a560-9ff863a19382","ios":"levelo://app?vid=7705324e-dd3d-4a92-a560-9ff863a19382"},"vehicle_type_id":"4","last_reported":1739427211,"current_range_meters":38800,"station_id":"ce4bgs92rcd13ifvqcc0","pricing_plan_id":"cebpf4jnsgd1na2vs0mg"},{"bike_id":"4e3ec424-711f-41cd-a254-773fde6b9d74","system_id":"levelo_inurba_marseille","lat":43.28734,"lon":5.36058,"is_reserved":false,"is_disabled":false,"rental_uris":{"android":"levelo://app?vid=4e3ec424-711f-41cd-a254-773fde6b9d74","ios":"levelo://app?vid=4e3ec424-711f-41cd-a254-773fde6b9d74"},"vehicle_type_id":"4","last_reported":1739427211,"current_range_meters":9600,"station_id":"cki0cbj6b192h4jlfktg","pricing_plan_id":"cebpf4jnsgd1na2vs0mg"},{"bike_id":"52591901-7075-4154-8ec9-0dfca05a1446","system_id":"levelo_inurba_marseille","lat":43.324872,"lon":5.365685,"is_reserved":false,"is_disabled":false,"rental_uris":{"android":"levelo://app?vid=52591901-7075-4154-8ec9-0dfca05a1446","ios":"levelo://app?vid=52591901-7075-4154-8ec9-0dfca05a1446"},"vehicle_type_id":"4","last_reported":1739427211,"current_range_meters":38800,"station_id":"ce4bhs12rcd13ifvqhvg","pricing_plan_id":"cebpf4jnsgd1na2vs0mg"},{"bike_id":"3661bdb9-5fee-450a-923e-1549e8560ef0","system_id":"levelo_inurba_marseille","lat":43.31278,"lon":5.40164,"is_reserved":false,"is_disabled":false,"rental_uris":{"android":"levelo://app?vid=3661bdb9-5fee-450a-923e-1549e8560ef0","ios":"levelo://app?vid=3661bdb9-5fee-450a-923e-1549e8560ef0"},"vehicle_type_id":"4","last_reported":1739427211,"current_range_meters":39200,"station_id":"ce4bh092rcd13ifvqd30","pricing_plan_id":"cebpf4jnsgd1na2vs0mg"},{"bike_id":"ffe72486-5c26-4671-a4b2-3589518be5f5","system_id":"levelo_inurba_marseille","lat":43.30137,"lon":5.37419,"is_reserved":false,"is_disabled":false,"rental_uris":{"android":"levelo://app?vid=ffe72486-5c26-4671-a4b2-3589518be5f5","ios":"levelo://app?vid=ffe72486-5c26-4671-a4b2-3589518be5f5"},"vehicle_type_id":"4","last_reported":1739427211,"current_range_meters":31200,"station_id":"ce4bgs92rcd13ifvqcc0","pricing_plan_id":"cebpf4jnsgd1na2vs0mg"},{"bike_id":"df65cc1f-1e67-490c-89a4-d5f74f10ed95","system_id":"levelo_inurba_marseille","lat":43.2828,"lon":5.35076,"is_reserved":false,"is_disabled":false,"rental_uris":{"android":"levelo://app?vid=df65cc1f-1e67-490c-89a4-d5f74f10ed95","ios":"levelo://app?vid=df65cc1f-1e67-490c-89a4-d5f74f10ed95"},"vehicle_type_id":"4","last_reported":1739427211,"current_range_meters":38800,"station_id":"ce4bhbp2rcd13ifvqerg","pricing_plan_id":"cebpf4jnsgd1na2vs0mg"},{"bike_id":"60c395cf-ed08-4f1c-a8dc-6ea429b57793","system_id":"levelo_inurba_marseille","lat":43.305974,"lon":5.393546,"is_reserved":false,"is_disabled":false,"rental_uris":{"android":"levelo://app?vid=60c395cf-ed08-4f1c-a8dc-6ea429b57793","ios":"levelo://app?vid=60c395cf-ed08-4f1c-a8dc-6ea429b57793"},"vehicle_type_id":"4","last_reported":1739427211,"current_range_meters":30400,"station_id":"ce4bh0p2rcd13ifvqd80","pricing_plan_id":"cebpf4jnsgd1na2vs0mg"},{"bike_id":"68a10961-d3e2-468b-ba97-fb6fdb24a4de","system_id":"levelo_inurba_marseille","lat":43.31373,"lon":5.38487,"is_reserved":false,"is_disabled":false,"rental_uris":{"android":"levelo://app?vid=68a10961-d3e2-468b-ba97-fb6fdb24a4de","ios":"levelo://app?vid=68a10961-d3e2-468b-ba97-fb6fdb24a4de"},"vehicle_type_id":"4","last_reported":1739427211,"current_range_meters":38800,"station_id":"ce4bgt92rcd13ifvqcf0","pricing_plan_id":"cebpf4jnsgd1na2vs0mg"},{"bike_id":"ca60b2af-cce7-4290-adcc-eaec354c2c93","system_id":"levelo_inurba_marseille","lat":43.24997,"lon":5.3892,"is_reserved":false,"is_disabled":false,"rental_uris":{"android":"levelo://app?vid=ca60b2af-cce7-4290-adcc-eaec354c2c93","ios":"levelo://app?vid=ca60b2af-cce7-4290-adcc-eaec354c2c93"},"vehicle_type_id":"4","last_reported":1739427211,"current_range_meters":24400,"station_id":"ce4bhgp2rcd13ifvqfd0","pricing_plan_id":"cebpf4jnsgd1na2vs0mg"},{"bike_id":"3f53f95a-9c5c-4075-a387-a50f84061cec","system_id":"levelo_inurba_marseille","lat":43.25878,"lon":5.39908,"is_reserved":false,"is_disabled":false,"rental_uris":{"android":"levelo://app?vid=3f53f95a-9c5c-4075-a387-a50f84061cec","ios":"levelo://app?vid=3f53f95a-9c5c-4075-a387-a50f84061cec"},"vehicle_type_id":"4","last_reported":1739427211,"current_range_meters":38800,"station_id":"ce4bhl92rcd13ifvqghg","pricing_plan_id":"cebpf4jnsgd1na2vs0mg"},