{"last_updated":1736176161,"ttl":60,"version":"2.2","data":{"bikes":[{"bike_id":"e6a58e35-6e79-4a08-937e-fc3bff7e5349","system_id":"levelo_inurba_marseille","lat":43.2928,"lon":5.4012,"is_reserved":false,"is_disabled":false,"rental_uris":{"android":"levelo://app?vid=e6a58e35-6e79-4a08-937e-fc3bff7e5349","ios":"levelo://app?vid=e6a58e35-6e79-4a08-937e-fc3bff7e5349"},"vehicle_type_id":"4","last_reported":1736176161,"current_range_meters":32000,"station_id":"ce4bh312rcd13ifvqdk0","pricing_plan_id":"cebpf4jnsgd1na2vs0mg"},{"bike_id":"10713e37-afc7-43d1-b51d-2b4416e38ed1","system_id":"levelo_inurba_marseille","lat":43.28742,"lon":5.40071,"is_reserved":false,"is_disabled":true,"rental_uris":{"android":"levelo://app?vid=10713e37-afc7-43d1-b51d-2b4416e38ed1","ios":"levelo://app?vid=10713e37-afc7-43d1-b51d-2b4416e38ed1"},"vehicle_type_id":"4","last_reported":1736176161,"current_range_meters":38000,"station_id":"ce4bho92rcd13ifvqh3g","pricing_plan_id":"cebpf4jnsgd1na2vs0mg"},{"bike_id":"eab8fa68-5664-4786-8ae7-c43d42aa8d90","system_id":"levelo_inurba_marseille","lat":43.28024,"lon":5.36943,"is_reserved":false,"is_disabled":false,"rental_uris":{"android":"levelo://app?vid=eab8fa68-5664-4786-8ae7-c43d42aa8d90","ios":"levelo://app?vid=eab8fa68-5664-4786-8ae7-c43d42aa8d90"},"vehicle_type_id":"4","last_reported":1736176161,"current_range_meters":32400,"station_id":"ce4bha12rcd13ifvqef0","pricing_plan_id":"cebpf4jnsgd1na2vs0mg"},{"bike_id":"b570cc0e-254b-46f8-bac7-42f2486d6d4d","system_id":"levelo_inurba_marseille","lat":43.24652,"lon":5.38893,"is_reserved":false,"is_disabled":true,"rental_uris":{"android":"levelo://app?vid=b570cc0e-254b-46f8-bac7-42f2486d6d4d","ios":"levelo://app?vid=b570cc0e-254b-46f8-bac7-42f2486d6d4d"},"vehicle_type_id":"4","last_reported":1736176161,"current_range_meters":0,"station_id":"ce4bhg12rcd13ifvqf60","pricing_plan_id":"cebpf4jnsgd1na2vs0mg"},{"bike_id":"e6e04223-7392-4eda-8306-7771efe8f77c","system_id":"levelo_inurba_marseille","lat":43.31396,"lon":5.36715,"is_reserved":false,"is_disabled":false,"rental_uris":{"android":"levelo://app?vid=e6e04223-7392-4eda-8306-7771efe8f77c","ios":"levelo://app?vid=e6e04223-7392-4eda-8306-7771efe8f77c"},"vehicle_type_id":"4","last_reported":1736176161,"current_range_meters":38800,"station_id":"ce4bgr92rcd13ifvqc6g","pricing_plan_id":"cebpf4jnsgd1na2vs0mg"},{"bike_id":"0153ae28-9422-4039-87f8-952c80b8c9cc","system_id":"levelo_inurba_marseille","lat":43.27331,"lon":5.3911,"is_reserved":false,"is_disabled":true,"rental_uris":{"android":"levelo://app?vid=0153ae28-9422-4039-87f8-952c80b8c9cc","ios":"levelo://app?vid=0153ae28-9422-4039-87f8-952c80b8c9cc"},"vehicle_type_id":"4","last_reported":1736176161,"current_range_meters":36000,"station_id":"ce4bhgp2rcd13ifvqfe0","pricing_plan_id":"cebpf4jnsgd1na2vs0mg"},{"bike_id":"35fa3510-16ea-4f42-9993-aa370f3a0b60","system_id":"levelo_inurba_marseille","lat":43.2954,"lon":5.3853,"is_reserved":false,"is_disabled":false,"rental_uris":{"android":"levelo://app?vid=35fa3510-16ea-4f42-9993-aa370f3a0b60","ios":"levelo://app?vid=35fa3510-16ea-4f42-9993-aa370f3a0b60"},"vehicle_type_id":"4","last_reported":1736176161,"current_range_meters":15200,"station_id":"ce4bgih2rcd13ifvqba0","pricing_plan_id":"cebpf4jnsgd1na2vs0mg"},{"bike_id":"e8f7458c-cf19-43d7-a972-43547ad9fe30","system_id":"levelo_inurba_marseille","lat":43.2718,"lon":5.40992,"is_reserved":false,"is_disabled":false,"rental_uris":{"android":"levelo://app?vid=e8f7458c-cf19-43d7-a972-43547ad9fe30","ios":"levelo://app?vid=e8f7458c-cf19-43d7-a972-43547ad9fe30"},"vehicle_type_id":"4","last_reported":1736176161,"current_range_meters":7200,"station_id":"ce4bhl12rcd13ifvqgf0","pricing_plan_id":"cebpf4jnsgd1na2vs0mg"},{"bike_id":"714cc707-d11e-4b88-b5b3-701e6cf89997","system_id":"levelo_inurba_marseille","lat":43.29935,"lon":5.36545,"is_reserved":false,"is_disabled":false,"rental_uris":{"android":"levelo://app?vid=714cc707-d11e-4b88-b5b3-701e6cf89997","ios":"levelo://app?vid=714cc707-d11e-4b88-b5b3-701e6cf89997"},"vehicle_type_id":"4","last_reported":1736176161,"current_range_meters":27600,"station_id":"ce4bgm92rcd13ifvqbr0","pricing_plan_id":"cebpf4jnsgd1na2vs0mg"},{"bike_id":"795f0bf4-6cb2-4181-a990-1a76c6d73ea0","system_id":"levelo_inurba_marseille","lat":43.27958,"lon":5.41047,"is_reserved":false,"is_disabled":true,"rental_uris":{"android":"levelo://app?vid=795f0bf4-6cb2-4181-a990-1a76c6d73ea0","ios":"levelo://app?vid=795f0bf4-6cb2-4181-a990-1a76c6d73ea0"},"vehicle_type_id":"4","last_reported":1736176161,"current_range_meters":38800,"station_id":"ce4bhnp2rcd13ifvqh0g","pricing_plan_id":"cebpf4jnsgd1na2vs0mg"},{"bike_id":"730144be-fcee-4065-ac38-325ca1d5cbf7","system_id":"levelo_inurba_marseille","lat":43.25727,"lon":5.41107,"is_reserved":false,"is_disabled":false,"rental_uris":{"android":"levelo://app?vid=730144be-fcee-4065-ac38-325ca1d5cbf7","ios":"levelo://app?vid=730144be-fcee-4065-ac38-325ca1d5cbf7"},"vehicle_type_id":"4","last_reported":1736176161,"current_range_meters":27200,"station_id":"ce4bhkp2rcd13ifvqgd0","pricing_plan_id":"cebpf4jnsgd1na2vs0mg"},{"bike_id":"2e3020fc-739e-484f-aff1-968aa18f2ac1","system_id":"levelo_inurba_marseille","lat":43.27987,"lon":5.41662,"is_reserved":false,"is_disabled":true,"rental_uris":{"android":"levelo://app?vid=2e3020fc-739e-484f-aff1-968aa18f2ac1","ios":"levelo://app?vid=2e3020fc-739e-484f-aff1-968aa18f2ac1"},"vehicle_type_id":"4","last_reported":1736176161,"current_range_meters":38800,"station_id":"ce4bho12rcd13ifvqh1g","pricing_plan_id":"cebpf4jnsgd1na2vs0mg"},{"bike_id":"71dd2f5b-102e-4770-9024-a06bbe2347d6","system_id":"levelo_inurba_marseille","lat":43.29708,"lon":5.36618,"is_reserved":false,"is_disabled":false,"rental_uris":{"android":"levelo://app?vid=71dd2f5b-102e-4770-9024-a06bbe2347d6","ios":"levelo://app?vid=71dd2f5b-102e-4770-9024-a06bbe2347d6"},"vehicle_type_id":"4","last_reported":1736176161,"current_range_meters":25200,"station_id":"ce4bgn12rcd13ifvqbt0","pricing_plan_id":"cebpf4jnsgd1na2vs0mg"},{"bike_id":"dd46f0d3-8a1d-4ce0-bb39-b8b147e85384","system_id":"levelo_inurba_marseille","lat":43.23186,"lon":5.39982,"is_reserved":false,"is_disabled":false,"rental_uris":{"android":"levelo://app?vid=dd46f0d3-8a1d-4ce0-bb39-b8b147e85384","ios":"levelo://app?vid=dd46f0d3-8a1d-4ce0-bb39-b8b147e85384"},"vehicle_type_id":"4","last_reported":1736176161,"current_range_meters":26800,"station_id":"ce4bhn12rcd13ifvqgqg","pricing_plan_id":"cebpf4jnsgd1na2vs0mg"},{"bike_id":"593d8424-f565-422e-8480-e0f50e2c043e","system_id":"levelo_inurba_marseille","lat":43.27966,"lon":5.38697,"is_reserved":false,"is_disabled":false,"rental_uris":{"android":"levelo://app?vid=593d8424-f565-422e-8480-e0f50e2c043e","ios":"levelo://app?vid=593d8424-f565-422e-8480-e0f50e2c043e"},"vehicle_type_id":"4","last_reported":1736176161,"current_range_meters":39200,"station_id":"ce4bhg12rcd13ifvqf80","pricing_plan_id":"cebpf4jnsgd1na2vs0mg"},{"bike_id":"0d899062-2786-468f-8b35-30ea61c24c96","system_id":"levelo_inurba_marseille","lat":43.30957,"lon":5.39043,"is_reserved":false,"is_disabled":false,"rental_uris":{"android":"levelo://app?vid=0d899062-2786-468f-8b35-30ea61c24c96","ios":"levelo://app?vid=0d899062-2786-468f-8b35-30ea61c24c96"},"vehicle_type_id":"4","last_reported":1736176161,"current_range_meters":38000,"station_id":"ce4bgup2rcd13ifvqco0","pricing_plan_id":"cebpf4jnsgd1na2vs0mg"},{"bike_id":"c6c5246a-6c57-426f-a7e1-dc372ef756c9","system_id":"levelo_inurba_marseille","lat":43.2845,"lon":5.35892,"is_reserved":false,"is_disabled":false,"rental_uris":{"android":"levelo://app?vid=c6c5246a-6c57-426f-a7e1-dc372ef756c9","ios":"levelo://app?vid=c6c5246a-6c57-426f-a7e1-dc372ef756c9"},"vehicle_type_id":"4","last_reported":1736176161,"current_range_meters":13600,"station_id":"ce4bhah2rcd13ifvqei0","pricing_plan_id":"cebpf4jnsgd1na2vs0mg"},{"bike_id":"eea7f446-395e-439b-98c4-8ddb4952436d","system_id":"levelo_inurba_marseille","lat":43.29051,"lon":5.39952,"is_reserved":false,"is_disabled":true,"rental_uris":{"android":"levelo://app?vid=eea7f446-395e-439b-98c4-8ddb4952436d","ios":"levelo://app?vid=eea7f446-395e-439b-98c4-8ddb4952436d"},"vehicle_type_id":"4","last_reported":1736176161,"current_range_meters":22000,"station_id":"ce4bh392rcd13ifvqdm0","pricing_plan_id":"cebpf4jnsgd1na2vs0mg"},{"bike_id":"f5171357-5775-441a-bdb3-f3356edf63b1","system_id":"levelo_inurba_marseille","lat":43.28706,"lon":5.38667,"is_reserved":false,"is_disabled":false,"rental_uris":{"android":"levelo://app?vid=f5171357-5775-441a-bdb3-f3356edf63b1","ios":"levelo://app?vid=f5171357-5775-441a-bdb3-f3356edf63b1"},"vehicle_type_id":"4","last_reported":1736176161,"current_range_meters":38800,"station_id":"ce4bh492rcd13ifvqdug","pricing_plan_id":"cebpf4jnsgd1na2vs0mg"},{"bike_id":"7785ab47-fc21-464f-82e3-4fad2439c0ee","system_id":"levelo_inurba_marseille","lat":43.2983,"lon":5.43716,"is_reserved":false,"is_disabled":false,"rental_uris":{"android":"levelo://app?vid=7785ab47-fc21-464f-82e3-4fad2439c0ee","ios":"levelo://app?vid=7785ab47-fc21-464f-82e3-4fad2439c0ee"},"vehicle_type_id":"4","last_reported":1736176161,"current_range_meters":20000,"station_id":"","pricing_plan_id":"cebpf4jnsgd1na2vs0mg"},{"bike_id":"2e9980e6-a34d-4b08-b45d-2eae350b2927","system_id":"levelo_inurba_marseille","lat":43.26214,"lon":5.37441,"is_reserved":false,"is_disabled":false,"rental_uris":{"android":"levelo://app?vid=2e9980e6-a34d-4b08-b45d-2eae350b2927","ios":"levelo://app?vid=2e9980e6-a34d-4b08-b45d-2eae350b2927"},"vehicle_type_id":"4","last_reported":1736176161,"current_range_meters":30000,"station_id":"ce4bhgp2rcd13ifvqfc0","pricing_plan_id":"cebpf4jnsgd1na2vs0mg"},{"bike_id":"dcc4fe27-d317-4341-9f5c-4182603b761f","system_id":"levelo_inurba_marseille","lat":43.29528,"lon":5.38549,"is_reserved":false,"is_disabled":false,"rental_uris":{"android":"levelo://app?vid=dcc4fe27-d317-4341-9f5c-4182603b761f","ios":"levelo://app?vid=dcc4fe27-d317-4341-9f5c-4182603b761f"},"vehicle_type_id":"4","last_reported":1736176161,"current_range_meters":38800,"station_id":"ce4bgih2rcd13ifvqba0","pricing_plan_id":"cebpf4jnsgd1na2vs0mg"},{"bike_id":"f3e7dc9d-7d8c-4a2f-af03-535fe123d124","system_id":"levelo_inurba_marseille","lat":43.28172,"lon":5.42643,"is_reserved":false,"is_disabled":false,"rental_uris":{"android":"levelo://app?vid=f3e7dc9d-7d8c-4a2f-af03-535fe123d124","ios":"levelo://app?vid=f3e7dc9d-7d8c-4a2f-af03-535fe123d124"},"vehicle_type_id":"4","last_reported":1736176161,"current_range_meters":39200,"station_id":"ce4bhnh2rcd13ifvqgug","pricing_plan_id":"cebpf4jnsgd1na2vs0mg"},{"bike_id":"1086992f-4578-4826-8682-31f1dd106d18","system_id":"levelo_inurba_marseille","lat":43.27074,"lon":5.4228,"is_reserved":false,"is_disabled":false,"rental_uris":{"android":"levelo://app?vid=1086992f-4578-4826-8682-31f1dd106d18","ios":"levelo://app?vid=1086992f-4578-4826-8682-31f1dd106d18"},"vehicle_type_id":"4","last_reported":1736176161,"current_range_meters":8800,"station_id":"ce4bhk92rcd13ifvqgb0","pricing_plan_id":"cebpf4jnsgd1na2vs0mg"},{"bike_id":"75539ff0-fe32-4da7-83df-96fa72019050","system_id":"levelo_inurba_marseille","lat":43.31104,"lon":5.42418,"is_reserved":false,"is_disabled":false,"rental_uris":{"android":"levelo://app?vid=75539ff0-fe32-4da7-83df-96fa72019050","ios":"levelo://app?vid=75539ff0-fe32-4da7-83df-96fa72019050"},"vehicle_type_id":"4","last_reported":1736176161,"current_range_meters":38000,"station_id":"ce4bhp92rcd13ifvqhag","pricing_plan_id":"cebpf4jnsgd1na2vs0mg"},{"bike_id":"c023aed8-c4af-47de-bf55-7ec6cfb1c879","system_id":"levelo_inurba_marseille","lat":43.26201,"lon":5.37412,"is_reserved":false,"is_disabled":true,"rental_uris":{"android":"levelo://app?vid=c023aed8-c4af-47de-bf55-7ec6cfb1c879","ios":"levelo://app?vid=c023aed8-c4af-47de-bf55-7ec6cfb1c879"},"vehicle_type_id":"4","last_reported":1736176161,"current_range_meters":30800,"station_id":"ce4bhgp2rcd13ifvqfc0","pricing_plan_id":"cebpf4jnsgd1na2vs0mg"},{"bike_id":"da4e182b-7c44-47b0-b77c-4339bc027c76","system_id":"levelo_inurba_marseille","lat":43.3044,"lon":5.38916,"is_reserved":false,"is_disabled":false,"rental_uris":{"android":"levelo://app?vid=da4e182b-7c44-47b0-b77c-4339bc027c76","ios":"levelo://app?vid=da4e182b-7c44-47b0-b77c-4339bc027c76"},"vehicle_type_id":"4","last_reported":1736176161,"current_range_meters":6800,"station_id":"ce4bgk12rcd13ifvqbi0","pricing_plan_id":"cebpf4jnsgd1na2vs0mg"},{"bike_id":"ebf65e80-1869-4c83-a4e9-e1600f07fee4","system_id":"levelo_inurba_marseille","lat":43.23206,"lon":5.39952,"is_reserved":false,"is_disabled":false,"rental_uris":{"android":"levelo://app?vid=ebf65e80-1869-4c83-a4e9-e1600f07fee4","ios":"levelo://app?vid=ebf65e80-1869-4c83-a4e9-e1600f07fee4"},"vehicle_type_id":"4","last_reported":1736176161,"current_range_meters":39200,"station_id":"ce4bhn12rcd13ifvqgqg","pricing_plan_id":"cebpf4jnsgd1na2vs0mg"},{"bike_id":"ad036647-e9f4-4246-953d-37ee6601db50","system_id":"levelo_inurba_marseille","lat":43.246823,"lon":5.381693,"is_reserved":false,"is_disabled":false,"rental_uris":{"android":"levelo://app?vid=ad036647-e9f4-4246-953d-37ee6601db50","ios":"levelo://app?vid=ad036647-e9f4-4246-953d-37ee6601db50"},"vehicle_type_id":"4","last_reported":1736176161,"current_range_meters":21600,"station_id":"ce4bhih2rcd13ifvqfr0","pricing_plan_id":"cebpf4jnsgd1na2vs0mg"},{"bike_id":"c0224545-f8d7-4908-9052-545a5ab43b28","system_id":"levelo_inurba_marseille","lat":43.29868,"lon":5.36282,"is_reserved":false,"is_disabled":false,"rental_uris":{"android":"levelo://app?vid=c0224545-f8d7-4908-9052-545a5ab43b28","ios":"levelo://app?vid=c0224545-f8d7-4908-9052-545a5ab43b28"},"vehicle_type_id":"4","last_reported":1736176161,"current_range_meters":37600,"station_id":"ce4bgpp2rcd13ifvqc3g","pricing_plan_id":"cebpf4jnsgd1na2vs0mg"},{"bike_id":"4fa82101-8f0f-474a-87e8-9b999b3b1983","system_id":"levelo_inurba_marseille","lat":43.31232,"lon":5.36855,"is_reserved":false,"is_disabled":false,"rental_uris":{"android":"levelo://app?vid=4fa82101-8f0f-474a-87e8-9b999b3b1983","ios":"levelo://app?vid=4fa82101-8f0f-474a-87e8-9b999b3b1983"},"vehicle_type_id":"4","last_reported":1736176161,"current_range_meters":30400,"station_id":"ce4bgl92rcd13ifvqbq0","pricing_plan_id":"cebpf4jnsgd1na2vs0mg"},{"bike_id":"8d1d45c2-4f7f-463d-b590-b188e899fb32","system_id":"levelo_inurba_marseille","lat":43.28417,"lon":5.34985,"is_reserved":false,"is_disabled":false,"rental_uris":{"android":"levelo://app?vid=8d1d45c2-4f7f-463d-b590-b188e899fb32","ios":"levelo://app?vid=8d1d45c2-4f7f-463d-b590-b188e899fb32"},"vehicle_type_id":"4","last_reported":1736176161,"current_range_meters":22400,"station_id":"ce4bhbh2rcd13ifvqepg","pricing_plan_id":"cebpf4jnsgd1na2vs0mg"},{"bike_id":"87e7b60a-6b9d-45cc-ae35-c097b6f4182b","system_id":"levelo_inurba_marseille","lat":43.2606,"lon":5.394,"is_reserved":false,"is_disabled":false,"rental_uris":{"android":"levelo://app?vid=87e7b60a-6b9d-45cc-ae35-c097b6f4182b","ios":"levelo://app?vid=87e7b60a-6b9d-45cc-ae35-c097b6f4182b"},"vehicle_type_id":"4","last_reported":1736176161,"current_range_meters":17600,"station_id":"ce4bhh92rcd13ifvqfj0","pricing_plan_id":"cebpf4jnsgd1na2vs0mg"},{"bike_id":"75d3e57a-b9bf-4f80-9f61-2812f05e5b86","system_id":"levelo_inurba_marseille","lat":43.28173,"lon":5.42652,"is_reserved":false,"is_disabled":false,"rental_uris":{"android":"levelo://app?vid=75d3e57a-b9bf-4f80-9f61-2812f05e5b86","ios":"levelo://app?vid=75d3e57a-b9bf-4f80-9f61-2812f05e5b86"},"vehicle_type_id":"4","last_reported":1736176161,"current_range_meters":15200,"station_id":"ce4bhnh2rcd13ifvqgug","pricing_plan_id":"cebpf4jnsgd1na2vs0mg"},{"bike_id":"6ba4ce7c-1dc8-4564-8042-2968392de3bb","system_id":"levelo_inurba_marseille","lat":43.3032,"lon":5.36906,"is_reserved":false,"is_disabled":false,"rental_uris":{"android":"levelo://app?vid=6ba4ce7c-1dc8-4564-8042-2968392de3bb","ios":"levelo://app?vid=6ba4ce7c-1dc8-4564-8042-2968392de3bb"},"vehicle_type_id":"4","last_reported":1736176161,"current_range_meters":39200,"station_id":"ce4bgqh2rcd13ifvqc5g","pricing_plan_id":"cebpf4jnsgd1na2vs0mg"},{"bike_id":"f950f68e-763d-458f-8358-255933d8bbd3","system_id":"levelo_inurba_marseille","lat":43.27924,"lon":5.37978,"is_reserved":false,"is_disabled":false,"rental_uris":{"android":"levelo://app?vid=f950f68e-763d-458f-8358-255933d8bbd3","ios":"levelo://app?vid=f950f68e-763d-458f-8358-255933d8bbd3"},"vehicle_type_id":"4","last_reported":1736176161,"current_range_meters":39200,"station_id":"ce4bhf92rcd13ifvqf50","pricing_plan_id":"cebpf4jnsgd1na2vs0mg"},{"bike_id":"d1fc2dd2-0c34-4df5-8f03-8f3cc0decdf6","system_id":"levelo_inurba_marseille","lat":43.30096,"lon":5.39076,"is_reserved":false,"is_disabled":false,"rental_uris":{"android":"levelo://app?vid=d1fc2dd2-0c34-4df5-8f03-8f3cc0decdf6","ios":"levelo://app?vid=d1fc2dd2-0c34-4df5-8f03-8f3cc0decdf6"},"vehicle_type_id":"4","last_reported":1736176161,"current_range_meters":20400,"station_id":"ce4bh192rcd13ifvqdb0","pricing_plan_id":"cebpf4jnsgd1na2vs0mg"},{"bike_id":"85a03191-8e93-4953-b6b1-749f7cedd7f5","system_id":"levelo_inurba_marseille","lat":43.24564,"lon":5.39529,"is_reserved":false,"is_disabled":false,"rental_uris":{"android":"levelo://app?vid=85a03191-8e93-4953-b6b1-749f7cedd7f5","ios":"levelo://app?vid=85a03191-8e93-4953-b6b1-749f7cedd7f5"},"vehicle_type_id":"4","last_reported":1736176161,"current_range_meters":38000,"station_id":"ce4bhlp2rcd13ifvqgjg","pricing_plan_id":"cebpf4jnsgd1na2vs0mg"},{"bike_id":"acc1ab7e-0fac-4d85-98c1-a4f278fd4c17","system_id":"levelo_inurba_marseille","lat":43.245512,"lon":5.395281,"is_reserved":false,"is_disabled":false,"rental_uris":{"android":"levelo://app?vid=acc1ab7e-0fac-4d85-98c1-a4f278fd4c17","ios":"levelo://app?vid=acc1ab7e-0fac-4d85-98c1-a4f278fd4c17"},"vehicle_type_id":"4","last_reported":1736176161,"current_range_meters":24400,"station_id":"ce4bhlp2rcd13ifvqgjg","pricing_plan_id":"cebpf4jnsgd1na2vs0mg"},{"bike_id":"bd9a5e69-9375-4681-85c6-f32545f9d273","system_id":"levelo_inurba_marseille","lat":43.2978,"lon":5.37105,"is_reserved":false,"is_disabled":false,"rental_uris":{"android":"levelo://app?vid=bd9a5e69-9375-4681-85c6-f32545f9d273","ios":"levelo://app?vid=bd9a5e69-9375-4681-85c6-f32545f9d273"},"vehicle_type_id":"4","last_reported":1736176161,"current_range_meters":6800,"station_id":"ce4bgop2rcd13ifvqc1g","pricing_plan_id":"cebpf4jnsgd1na2vs0mg"},{"bike_id":"56e4e1b5-9e13-43a2-864c-71b304a89ef7","system_id":"levelo_inurba_marseille","lat":43.302,"lon":5.37313,"is_reserved":false,"is_disabled":false,"rental_uris":{"android":"levelo://app?vid=56e4e1b5-9e13-43a2-864c-71b304a89ef7","ios":"levelo://app?vid=56e4e1b5-9e13-43a2-864c-71b304a89ef7"},"vehicle_type_id":"4","last_reported":1736176161,"current_range_meters":17600,"station_id":"ce4bgs92rcd13ifvqcc0","pricing_plan_id":"cebpf4jnsgd1na2vs0mg"},{"bike_id":"fdd0383d-38ed-4ef5-8052-fa499741b3db","system_id":"levelo_inurba_marseille","lat":43.29557,"lon":5.38531,"is_reserved":false,"is_disabled":false,"rental_uris":{"android":"levelo://app?vid=fdd0383d-38ed-4ef5-8052-fa499741b3db","ios":"levelo://app?vid=fdd0383d-38ed-4ef5-8052-fa499741b3db"},"vehicle_type_id":"4","last_reported":1736176161,"current_range_meters":28800,"station_id":"ce4bgih2rcd13ifvqba0","pricing_plan_id":"cebpf4jnsgd1na2vs0mg"},{"bike_id":"c9d370d6-48bd-4d2f-a3c8-adfebc7f9d13","system_id":"levelo_inurba_marseille","lat":43.29803,"lon":5.38087,"is_reserved":false,"is_disabled":false,"rental_uris":{"android":"levelo://app?vid=c9d370d6-48bd-4d2f-a3c8-adfebc7f9d13","ios":"levelo://app?vid=c9d370d6-48bd-4d2f-a3c8-adfebc7f9d13"},"vehicle_type_id":"4","last_reported":1736176161,"current_range_meters":38800,"station_id":"ce4bgip2rcd13ifvqbb0","pricing_plan_id":"cebpf4jnsgd1na2vs0mg"},{"bike_id":"6df4001c-2cbd-460a-8a1a-91496e0a14d1","system_id":"levelo_inurba_marseille","lat":43.25819,"lon":5.39424,"is_reserved":false,"is_disabled":false,"rental_uris":{"android":"levelo://app?vid=6df4001c-2cbd-460a-8a1a-91496e0a14d1","ios":"levelo://app?vid=6df4001c-2cbd-460a-8a1a-91496e0a14d1"},"vehicle_type_id":"4","last_reported":1736176161,"current_range_meters":28400,"station_id":"ce4bhip2rcd13ifvqft0","pricing_plan_id":"cebpf4jnsgd1na2vs0mg"},{"bike_id":"1c8566e1-e9e5-47b1-84c3-686a41788fcd","system_id":"levelo_inurba_marseille","lat":43.255,"lon":5.37653,"is_reserved":false,"is_disabled":false,"rental_uris":{"android":"levelo://app?vid=1c8566e1-e9e5-47b1-84c3-686a41788fcd","ios":"levelo://app?vid=1c8566e1-e9e5-47b1-84c3-686a41788fcd"},"vehicle_type_id":"4","last_reported":1736176161,"current_range_meters":38800,"station_id":"ce4bhh12rcd13ifvqff0","pricing_plan_id":"cebpf4jnsgd1na2vs0mg"},{"bike_id":"ea1d7a4e-83cd-429a-8beb-763edab76640","system_id":"levelo_inurba_marseille","lat":43.3015,"lon":5.37377,"is_reserved":false,"is_disabled":false,"rental_uris":{"android":"levelo://app?vid=ea1d7a4e-83cd-429a-8beb-763edab76640","ios":"levelo://app?vid=ea1d7a4e-83cd-429a-8beb-763edab76640"},"vehicle_type_id":"4","last_reported":1736176161,"current_range_meters":32000,"station_id":"ce4bgs92rcd13ifvqcc0","pricing_plan_id":"cebpf4jnsgd1na2vs0mg"},{"bike_id":"79f913fa-cbe0-45db-a6c0-57fac64eee03","system_id":"levelo_inurba_marseille","lat":43.29609,"lon":5.38101,"is_reserved":false,"is_disabled":false,"rental_uris":{"android":"levelo://app?vid=79f913fa-cbe0-45db-a6c0-57fac64eee03","ios":"levelo://app?vid=79f913fa-cbe0-45db-a6c0-57fac64eee03"},"vehicle_type_id":"4","last_reported":1736176161,"current_range_meters":32800,"station_id":"ce4bgl12rcd13ifvqbo0","pricing_plan_id":"cebpf4jnsgd1na2vs0mg"},{"bike_id":"4cf124dd-dcf2-4856-bef1-ad42d48f6a5d","system_id":"levelo_inurba_marseille","lat":43.2929,"lon":5.40884,"is_reserved":false,"is_disabled":false,"rental_uris":{"android":"levelo://app?vid=4cf124dd-dcf2-4856-bef1-ad42d48f6a5d","ios":"levelo://app?vid=4cf124dd-dcf2-4856-bef1-ad42d48f6a5d"},"vehicle_type_id":"4","last_reported":1736176161,"current_range_meters":38800,"station_id":"ce4bh192rcd13ifvqdc0","pricing_plan_id":"cebpf4jnsgd1na2vs0mg"},{"bike_id":"6223a8f1-3dcc-454d-b65a-f01b2e31552c","system_id":"levelo_inurba_marseille","lat":43.30951,"lon":5.39029,"is_reserved":false,"is_disabled":false,"rental_uris":{"android":"levelo://app?vid=6223a8f1-3dcc-454d-b65a-f01b2e31552c","ios":"levelo://app?vid=6223a8f1-3dcc-454d-b65a-f01b2e31552c"},"vehicle_type_id":"4","last_reported":1736176161,"current_range_meters":24400,"station_id":"ce4bgup2rcd13ifvqco0","pricing_plan_id":"cebpf4jnsgd1na2vs0mg"},{"bike_id":"72ed66d1-f814-455b-be61-398041c75f38","system_id":"levelo_inurba_marseille","lat":43.29614,"lon":5.38115,"is_reserved":false,"is_disabled":false,"rental_uris":{"android":"levelo://app?vid=72ed66d1-f814-455b-be61-398041c75f38","ios":"levelo://app?vid=72ed66d1-f814-455b-be61-398041c75f38"},"vehicle_type_id":"4","last_reported":1736176161,"current_range_meters":38800,"station_id":"ce4bgl12rcd13ifvqbo0","pricing_plan_id":"cebpf4jnsgd1na2vs0mg"},{"bike_id":"5d68ff9e-b4c1-4eaf-95db-da4a135c7b3b","system_id":"levelo_inurba_marseille","lat":43.2872,"lon":5.379495,"is_reserved":false,"is_disabled":false,"rental_uris":{"android":"levelo://app?vid=5d68ff9e-b4c1-4eaf-95db-da4a135c7b3b","ios":"levelo://app?vid=5d68ff9e-b4c1-4eaf-95db-da4a135c7b3b"},"vehicle_type_id":"4","last_reported":1736176161,"current_range_meters":28400,"station_id":"ce4bh9p2rcd13ifvqec0","pricing_plan_id":"cebpf4jnsgd1na2vs0mg"},{"bike_id":"0db43cd2-0a3b-4d66-a8ee-4d830eaae8c9","system_id":"levelo_inurba_marseille","lat":43.23184,"lon":5.39992,"is_reserved":false,"is_disabled":false,"rental_uris":{"android":"levelo://app?vid=0db43cd2-0a3b-4d66-a8ee-4d830eaae8c9","ios":"levelo://app?vid=0db43cd2-0a3b-4d66-a8ee-4d830eaae8c9"},"vehicle_type_id":"4","last_reported":1736176161,"current_range_meters":28800,"station_id":"ce4bhn12rcd13ifvqgqg","pricing_plan_id":"cebpf4jnsgd1na2vs0mg"},{"bike_id":"01d7b8ab-bdab-4d3e-a695-677750e83b4f","system_id":"levelo_inurba_marseille","lat":43.30889,"lon":5.3963,"is_reserved":false,"is_disabled":false,"rental_uris":{"android":"levelo://app?vid=01d7b8ab-bdab-4d3e-a695-677750e83b4f","ios":"levelo://app?vid=01d7b8ab-bdab-4d3e-a695-677750e83b4f"},"vehicle_type_id":"4","last_reported":1736176161,"current_range_meters":36400,"station_id":"ce4bh012rcd13ifvqcv0","pricing_plan_id":"cebpf4jnsgd1na2vs0mg"},{"bike_id":"dbef11d5-dda6-4aa4-a588-fb01a26de98a","system_id":"levelo_inurba_marseille","lat":43.28423,"lon":5.34977,"is_reserved":false,"is_disabled":false,"rental_uris":{"android":"levelo://app?vid=dbef11d5-dda6-4aa4-a588-fb01a26de98a","ios":"levelo://app?vid=dbef11d5-dda6-4aa4-a588-fb01a26de98a"},"vehicle_type_id":"4","last_reported":1736176161,"current_range_meters":24000,"station_id":"ce4bhbh2rcd13ifvqepg","pricing_plan_id":"cebpf4jnsgd1na2vs0mg"},{"bike_id":"433f2ab8-796b-431b-9340-24e2f053db68","system_id":"levelo_inurba_marseille","lat":43.29043,"lon":5.39945,"is_reserved":false,"is_disabled":false,"rental_uris":{"android":"levelo://app?vid=433f2ab8-796b-431b-9340-24e2f053db68","ios":"levelo://app?vid=433f2ab8-796b-431b-9340-24e2f053db68"},"vehicle_type_id":"4","last_reported":1736176161,"current_range_meters":38800,"station_id":"ce4bh392rcd13ifvqdm0","pricing_plan_id":"cebpf4jnsgd1na2vs0mg"},{"bike_id":"f8142e8a-f886-4c5e-b399-88d8fa1c1d32","system_id":"levelo_inurba_marseille","lat":43.24657,"lon":5.38189,"is_reserved":false,"is_disabled":false,"rental_uris":{"android":"levelo://app?vid=f8142e8a-f886-4c5e-b399-88d8fa1c1d32","ios":"levelo://app?vid=f8142e8a-f886-4c5e-b399-88d8fa1c1d32"},"vehicle_type_id":"4","last_reported":1736176161,"current_range_meters":22400,"station_id":"ce4bhih2rcd13ifvqfr0","pricing_plan_id":"cebpf4jnsgd1na2vs0mg"},{"bike_id":"04284143-2834-49a9-97bf-7ff57a2fbe0d","system_id":"levelo_inurba_marseille","lat":43.31331,"lon":5.397,"is_reserved":false,"is_disabled":false,"rental_uris":{"android":"levelo://app?vid=04284143-2834-49a9-97bf-7ff57a2fbe0d","ios":"levelo://app?vid=04284143-2834-49a9-97bf-7ff57a2fbe0d"},"vehicle_type_id":"4","last_reported":1736176161,"current_range_meters":30400,"station_id":"ce4bgvp2rcd13ifvqcu0","pricing_plan_id":"cebpf4jnsgd1na2vs0mg"},{"bike_id":"38179190-6512-4bd2-be05-40d8db0b403b","system_id":"levelo_inurba_marseille","lat":43.2958,"lon":5.37523,"is_reserved":false,"is_disabled":false,"rental_uris":{"android":"levelo://app?vid=38179190-6512-4bd2-be05-40d8db0b403b","ios":"levelo://app?vid=38179190-6512-4bd2-be05-40d8db0b403b"},"vehicle_type_id":"4","last_reported":1736176161,"current_range_meters":16000,"station_id":"ce4bgh92rcd13ifvqb50","pricing_plan_id":"cebpf4jnsgd1na2vs0mg"},{"bike_id":"0a9c3f6d-1ee4-4242-ab1b-2fc933875b46","system_id":"levelo_inurba_marseille","lat":43.28452,"lon":5.35883,"is_reserved":false,"is_disabled":false,"rental_uris":{"android":"levelo://app?vid=0a9c3f6d-1ee4-4242-ab1b-2fc933875b46","ios":"levelo://app?vid=0a9c3f6d-1ee4-4242-ab1b-2fc933875b46"},"vehicle_type_id":"4","last_reported":1736176161,"current_range_meters":35600,"station_id":"ce4bhah2rcd13ifvqei0","pricing_plan_id":"cebpf4jnsgd1na2vs0mg"},{"bike_id":"70bfb69f-712e-40a7-9a70-88e082c6ca06","system_id":"levelo_inurba_marseille","lat":43.32283,"lon":5.38265,"is_reserved":false,"is_disabled":false,"rental_uris":{"android":"levelo://app?vid=70bfb69f-712e-40a7-9a70-88e082c6ca06","ios":"levelo://app?vid=70bfb69f-712e-40a7-9a70-88e082c6ca06"},"vehicle_type_id":"4","last_reported":1736176161,"current_range_meters":39200,"station_id":"ce4bhr12rcd13ifvqhqg","pricing_plan_id":"cebpf4jnsgd1na2vs0mg"},{"bike_id":"5a231d4e-1469-4389-a9bc-0d65fec09d5f","system_id":"levelo_inurba_marseille","lat":43.28306,"lon":5.43327,"is_reserved":false,"is_disabled":false,"rental_uris":{"android":"levelo://app?vid=5a231d4e-1469-4389-a9bc-0d65fec09d5f","ios":"levelo://app?vid=5a231d4e-1469-4389-a9bc-0d65fec09d5f"},"vehicle_type_id":"4","last_reported":1736176161,"current_range_meters":9200,"station_id":"","pricing_plan_id":"cebpf4jnsgd1na2vs0mg"},{"bike_id":"d3141903-e94b-45e4-9a5e-bb06fa870302","system_id":"levelo_inurba_marseille","lat":43.30257,"lon":5.4004,"is_reserved":false,"is_disabled":false,"rental_uris":{"android":"levelo://app?vid=d3141903-e94b-45e4-9a5e-bb06fa870302","ios":"levelo://app?vid=d3141903-e94b-45e4-9a5e-bb06fa870302"},"vehicle_type_id":"4","last_reported":1736176161,"current_range_meters":4400,"station_id":"ce4bgvh2rcd13ifvqcs0","pricing_plan_id":"cebpf4jnsgd1na2vs0mg"},{"bike_id":"73cc2b51-3c51-4416-9884-dd566065c04d","system_id":"levelo_inurba_marseille","lat":43.29632,"lon":5.40589,"is_reserved":false,"is_disabled":false,"rental_uris":{"android":"levelo://app?vid=73cc2b51-3c51-4416-9884-dd566065c04d","ios":"levelo://app?vid=73cc2b51-3c51-4416-9884-dd566065c04d"},"vehicle_type_id":"4","last_reported":1736176161,"current_range_meters":20000,"station_id":"ce4bh0h2rcd13ifvqd60","pricing_plan_id":"cebpf4jnsgd1na2vs0mg"},{"bike_id":"7b78d5e2-5142-402d-a4f8-0f3037a6c533","system_id":"levelo_inurba_marseille","lat":43.26948,"lon":5.38629,"is_reserved":false,"is_disabled":true,"rental_uris":{"android":"levelo://app?vid=7b78d5e2-5142-402d-a4f8-0f3037a6c533","ios":"levelo://app?vid=7b78d5e2-5142-402d-a4f8-0f3037a6c533"},"vehicle_type_id":"4","last_reported":1736176161,"current_range_meters":36800,"station_id":"ce4bhh92rcd13ifvqfh0","pricing_plan_id":"cebpf4jnsgd1na2vs0mg"},{"bike_id":"7e46465d-6885-4570-aa72-1a895ebe18b8","system_id":"levelo_inurba_marseille","lat":43.30537,"lon":5.3652,"is_reserved":false,"is_disabled":false,"rental_uris":{"android":"levelo://app?vid=7e46465d-6885-4570-aa72-1a895ebe18b8","ios":"levelo://app?vid=7e46465d-6885-4570-aa72-1a895ebe18b8"},"vehicle_type_id":"4","last_reported":1736176161,"current_range_meters":16000,"station_id":"ce4bgs12rcd13ifvqcag","pricing_plan_id":"cebpf4jnsgd1na2vs0mg"},{"bike_id":"8fb05e6a-092d-462e-85a2-61ef07bee838","system_id":"levelo_inurba_marseille","lat":43.28166,"lon":5.42637,"is_reserved":false,"is_disabled":false,"rental_uris":{"android":"levelo://app?vid=8fb05e6a-092d-462e-85a2-61ef07bee838","ios":"levelo://app?vid=8fb05e6a-092d-462e-85a2-61ef07bee838"},"vehicle_type_id":"4","last_reported":1736176161,"current_range_meters":25200,"station_id":"ce4bhnh2rcd13ifvqgug","pricing_plan_id":"cebpf4jnsgd1na2vs0mg"},{"bike_id":"d0d21930-fe1d-478b-8251-bcf89564599d","system_id":"levelo_inurba_marseille","lat":43.29576,"lon":5.42284,"is_reserved":false,"is_disabled":false,"rental_uris":{"android":"levelo://app?vid=d0d21930-fe1d-478b-8251-bcf89564599d","ios":"levelo://app?vid=d0d21930-fe1d-478b-8251-bcf89564599d"},"vehicle_type_id":"4","last_reported":1736176161,"current_range_meters":24000,"station_id":"ce4bhph2rcd13ifvqhdg","pricing_plan_id":"cebpf4jnsgd1na2vs0mg"},{"bike_id":"793e61cf-3f17-4ddb-a802-7a02054d1a95","system_id":"levelo_inurba_marseille","lat":43.23154,"lon":5.43706,"is_reserved":false,"is_disabled":false,"rental_uris":{"android":"levelo://app?vid=793e61cf-3f17-4ddb-a802-7a02054d1a95","ios":"levelo://app?vid=793e61cf-3f17-4ddb-a802-7a02054d1a95"},"vehicle_type_id":"4","last_reported":1736176161,"current_range_meters":38800,"station_id":"ce4bhmp2rcd13ifvqgog","pricing_plan_id":"cebpf4jnsgd1na2vs0mg"},{"bike_id":"ccca37ed-42cb-4ce0-b130-ded03c6d0d90","system_id":"levelo_inurba_marseille","lat":43.31289,"lon":5.36867,"is_reserved":false,"is_disabled":false,"rental_uris":{"android":"levelo://app?vid=ccca37ed-42cb-4ce0-b130-ded03c6d0d90","ios":"levelo://app?vid=ccca37ed-42cb-4ce0-b130-ded03c6d0d90"},"vehicle_type_id":"4","last_reported":1736176161,"current_range_meters":24800,"station_id":"ce4bgl92rcd13ifvqbq0","pricing_plan_id":"cebpf4jnsgd1na2vs0mg"},{"bike_id":"20615201-3f18-468b-92e8-2fb40b3ca64e","system_id":"levelo_inurba_marseille","lat":43.27317,"lon":5.39072,"is_reserved":false,"is_disabled":false,"rental_uris":{"android":"levelo://app?vid=20615201-3f18-468b-92e8-2fb40b3ca64e","ios":"levelo://app?vid=20615201-3f18-468b-92e8-2fb40b3ca64e"},"vehicle_type_id":"4","last_reported":1736176161,"current_range_meters":33600,"station_id":"ce4bhgp2rcd13ifvqfe0","pricing_plan_id":"cebpf4jnsgd1na2vs0mg"},{"bike_id":"eafd231e-19c4-44bd-9970-9d22742fdca6","system_id":"levelo_inurba_marseille","lat":43.27666,"lon":5.38871,"is_reserved":false,"is_disabled":false,"rental_uris":{"android":"levelo://app?vid=eafd231e-19c4-44bd-9970-9d22742fdca6","ios":"levelo://app?vid=eafd231e-19c4-44bd-9970-9d22742fdca6"},"vehicle_type_id":"4","last_reported":1736176161,"current_range_meters":36800,"station_id":"ce4bhi12rcd13ifvqfo0","pricing_plan_id":"cebpf4jnsgd1na2vs0mg"},{"bike_id":"5cad4397-d7fe-427d-9b9c-8acb185fe024","system_id":"levelo_inurba_marseille","lat":43.25102,"lon":5.39539,"is_reserved":false,"is_disabled":false,"rental_uris":{"android":"levelo://app?vid=5cad4397-d7fe-427d-9b9c-8acb185fe024","ios":"levelo://app?vid=5cad4397-d7fe-427d-9b9c-8acb185fe024"},"vehicle_type_id":"4","last_reported":1736176161,"current_range_meters":4800,"station_id":"ce4bhm12rcd13ifvqgkg","pricing_plan_id":"cebpf4jnsgd1na2vs0mg"},{"bike_id":"21253e64-f320-409e-b311-0513ac1cb7e8","system_id":"levelo_inurba_marseille","lat":43.31708,"lon":5.37736,"is_reserved":false,"is_disabled":false,"rental_uris":{"android":"levelo://app?vid=21253e64-f320-409e-b311-0513ac1cb7e8","ios":"levelo://app?vid=21253e64-f320-409e-b311-0513ac1cb7e8"},"vehicle_type_id":"4","last_reported":1736176161,"current_range_meters":32000,"station_id":"ce4bgth2rcd13ifvqch0","pricing_plan_id":"cebpf4jnsgd1na2vs0mg"},{"bike_id":"a5484267-8df2-433f-b0b4-6d17ece69370","system_id":"levelo_inurba_marseille","lat":43.30247,"lon":5.40058,"is_reserved":false,"is_disabled":false,"rental_uris":{"android":"levelo://app?vid=a5484267-8df2-433f-b0b4-6d17ece69370","ios":"levelo://app?vid=a5484267-8df2-433f-b0b4-6d17ece69370"},"vehicle_type_id":"4","last_reported":1736176161,"current_range_meters":8000,"station_id":"ce4bgvh2rcd13ifvqcs0","pricing_plan_id":"cebpf4jnsgd1na2vs0mg"},{"bike_id":"8785ddf2-7225-4c15-a282-1f8baeace2a7","system_id":"levelo_inurba_marseille","lat":43.26071,"lon":5.39399,"is_reserved":false,"is_disabled":false,"rental_uris":{"android":"levelo://app?vid=8785ddf2-7225-4c15-a282-1f8baeace2a7","ios":"levelo://app?vid=8785ddf2-7225-4c15-a282-1f8baeace2a7"},"vehicle_type_id":"4","last_reported":1736176161,"current_range_meters":22000,"station_id":"ce4bhh92rcd13ifvqfj0","pricing_plan_id":"cebpf4jnsgd1na2vs0mg"},{"bike_id":"4d7727df-ac8f-431e-a279-50fc8c6a1628","system_id":"levelo_inurba_marseille","lat":43.31513,"lon":5.37287,"is_reserved":false,"is_disabled":false,"rental_uris":{"android":"levelo://app?vid=4d7727df-ac8f-431e-a279-50fc8c6a1628","ios":"levelo://app?vid=4d7727df-ac8f-431e-a279-50fc8c6a1628"},"vehicle_type_id":"4","last_reported":1736176161,"current_range_meters":38800,"station_id":"ce4bgt12rcd13ifvqcd0","pricing_plan_id":"cebpf4jnsgd1na2vs0mg"},{"bike_id":"747f3461-8cfe-4d75-9871-b676cbfcfa12","system_id":"levelo_inurba_marseille","lat":43.28351,"lon":5.38614,"is_reserved":false,"is_disabled":false,"rental_uris":{"android":"levelo://app?vid=747f3461-8cfe-4d75-9871-b676cbfcfa12","ios":"levelo://app?vid=747f3461-8cfe-4d75-9871-b676cbfcfa12"},"vehicle_type_id":"4","last_reported":1736176161,"current_range_meters":38800,"station_id":"ce4bh492rcd13ifvqdvg","pricing_plan_id":"cebpf4jnsgd1na2vs0mg"},{"bike_id":"66d48838-aeed-49d8-aaa5-edb723e07c6d","system_id":"levelo_inurba_marseille","lat":43.291,"lon":5.38123,"is_reserved":false,"is_disabled":false,"rental_uris":{"android":"levelo://app?vid=66d48838-aeed-49d8-aaa5-edb723e07c6d","ios":"levelo://app?vid=66d48838-aeed-49d8-aaa5-edb723e07c6d"},"vehicle_type_id":"4","last_reported":1736176161,"current_range_meters":36800,"station_id":"ce4bh512rcd13ifvqe2g","pricing_plan_id":"cebpf4jnsgd1na2vs0mg"},{"bike_id":"a464612e-405b-448d-980d-a2e9f7e99460","system_id":"levelo_inurba_marseille","lat":43.302585,"lon":5.400655,"is_reserved":false,"is_disabled":false,"rental_uris":{"android":"levelo://app?vid=a464612e-405b-448d-980d-a2e9f7e99460","ios":"levelo://app?vid=a464612e-405b-448d-980d-a2e9f7e99460"},"vehicle_type_id":"4","last_reported":1736176161,"current_range_meters":38400,"station_id":"ce4bgvh2rcd13ifvqcs0","pricing_plan_id":"cebpf4jnsgd1na2vs0mg"},{"bike_id":"1085a140-86d3-4020-b21d-a6505ada3af2","system_id":"levelo_inurba_marseille","lat":43.30143,"lon":5.39847,"is_reserved":false,"is_disabled":false,"rental_uris":{"android":"levelo://app?vid=1085a140-86d3-4020-b21d-a6505ada3af2","ios":"levelo://app?vid=1085a140-86d3-4020-b21d-a6505ada3af2"},"vehicle_type_id":"4","last_reported":1736176161,"current_range_meters":25600,"station_id":"ce4bh0h2rcd13ifvqd40","pricing_plan_id":"cebpf4jnsgd1na2vs0mg"},{"bike_id":"ab8e6289-e51b-4fb2-bc15-28b673029b14","system_id":"levelo_inurba_marseille","lat":43.30318,"lon":5.40442,"is_reserved":false,"is_disabled":false,"rental_uris":{"android":"levelo://app?vid=ab8e6289-e51b-4fb2-bc15-28b673029b14","ios":"levelo://app?vid=ab8e6289-e51b-4fb2-bc15-28b673029b14"},"vehicle_type_id":"4","last_reported":1736176161,"current_range_meters":33600,"station_id":"ce4bh012rcd13ifvqd10","pricing_plan_id":"cebpf4jnsgd1na2vs0mg"},{"bike_id":"a2fad600-bcdc-4fe2-b5cf-418b8c47104e","system_id":"levelo_inurba_marseille","lat":43.24654,"lon":5.38886,"is_reserved":false,"is_disabled":false,"rental_uris":{"android":"levelo://app?vid=a2fad600-bcdc-4fe2-b5cf-418b8c47104e","ios":"levelo://app?vid=a2fad600-bcdc-4fe2-b5cf-418b8c47104e"},"vehicle_type_id":"4","last_reported":1736176161,"current_range_meters":28000,"station_id":"ce4bhg12rcd13ifvqf60","pricing_plan_id":"cebpf4jnsgd1na2vs0mg"},{"bike_id":"7f5c42ef-0854-4d26-a9b8-a01afee0ce56","system_id":"levelo_inurba_marseille","lat":43.31365,"lon":5.38497,"is_reserved":false,"is_disabled":false,"rental_uris":{"android":"levelo://app?vid=7f5c42ef-0854-4d26-a9b8-a01afee0ce56","ios":"levelo://app?vid=7f5c42ef-0854-4d26-a9b8-a01afee0ce56"},"vehicle_type_id":"4","last_reported":1736176161,"current_range_meters":34000,"station_id":"ce4bgt92rcd13ifvqcf0","pricing_plan_id":"cebpf4jnsgd1na2vs0mg"},{"bike_id":"03e103e3-5075-4dd0-88ff-21ad5a89a520","system_id":"levelo_inurba_marseille","lat":43.25494,"lon":5.37645,"is_reserved":false,"is_disabled":false,"rental_uris":{"android":"levelo://app?vid=03e103e3-5075-4dd0-88ff-21ad5a89a520","ios":"levelo://app?vid=03e103e3-5075-4dd0-88ff-21ad5a89a520"},"vehicle_type_id":"4","last_reported":1736176161,"current_range_meters":13600,"station_id":"ce4bhh12rcd13ifvqff0","pricing_plan_id":"cebpf4jnsgd1na2vs0mg"},{"bike_id":"ef8b07f4-ee76-4b88-b7ec-0f67491fe1ff","system_id":"levelo_inurba_marseille","lat":43.25095,"lon":5.39529,"is_reserved":false,"is_disabled":false,"rental_uris":{"android":"levelo://app?vid=ef8b07f4-ee76-4b88-b7ec-0f67491fe1ff","ios":"levelo://app?vid=ef8b07f4-ee76-4b88-b7ec-0f67491fe1ff"},"vehicle_type_id":"4","last_reported":1736176161,"current_range_meters":4800,"station_id":"ce4bhm12rcd13ifvqgkg","pricing_plan_id":"cebpf4jnsgd1na2vs0mg"},{"bike_id":"e62c8636-914d-4ad5-9d0e-91c6cd24fb6b","system_id":"levelo_inurba_marseille","lat":43.32658,"lon":5.40997,"is_reserved":false,"is_disabled":false,"rental_uris":{"android":"levelo://app?vid=e62c8636-914d-4ad5-9d0e-91c6cd24fb6b","ios":"levelo://app?vid=e62c8636-914d-4ad5-9d0e-91c6cd24fb6b"},"vehicle_type_id":"4","last_reported":1736176161,"current_range_meters":37600,"station_id":"ce4bhpp2rcd13ifvqhgg","pricing_plan_id":"cebpf4jnsgd1na2vs0mg"},{"bike_id":"67374b2c-24fe-4e2e-9912-597551a3e4b6","system_id":"levelo_inurba_marseille","lat":43.30543,"lon":5.36678,"is_reserved":false,"is_disabled":false,"rental_uris":{"android":"levelo://app?vid=67374b2c-24fe-4e2e-9912-597551a3e4b6","ios":"levelo://app?vid=67374b2c-24fe-4e2e-9912-597551a3e4b6"},"vehicle_type_id":"4","last_reported":1736176161,"current_range_meters":24800,"station_id":"ce4bgrp2rcd13ifvqc9g","pricing_plan_id":"cebpf4jnsgd1na2vs0mg"},{"bike_id":"6a595de3-0911-46a9-bdbf-4cca5437105e","system_id":"levelo_inurba_marseille","lat":43.23207,"lon":5.3554,"is_reserved":false,"is_disabled":false,"rental_uris":{"android":"levelo://app?vid=6a595de3-0911-46a9-bdbf-4cca5437105e","ios":"levelo://app?vid=6a595de3-0911-46a9-bdbf-4cca5437105e"},"vehicle_type_id":"4","last_reported":1736176161,"current_range_meters":21600,"station_id":"ce4bhu92rcd13ifvqi70","pricing_plan_id":"cebpf4jnsgd1na2vs0mg"},{"bike_id":"641d8acc-50b2-4173-ab23-c70f2a11d28e","system_id":"levelo_inurba_marseille","lat":43.28146,"lon":5.42624,"is_reserved":false,"is_disabled":true,"rental_uris":{"android":"levelo://app?vid=641d8acc-50b2-4173-ab23-c70f2a11d28e","ios":"levelo://app?vid=641d8acc-50b2-4173-ab23-c70f2a11d28e"},"vehicle_type_id":"4","last_reported":1736176161,"current_range_meters":27600,"station_id":"ce4bhnh2rcd13ifvqgug","pricing_plan_id":"cebpf4jnsgd1na2vs0mg"},{"bike_id":"15e503f5-1d52-42d6-a98f-33a61fd8b554","system_id":"levelo_inurba_marseille","lat":43.28465,"lon":5.35876,"is_reserved":false,"is_disabled":true,"rental_uris":{"android":"levelo://app?vid=15e503f5-1d52-42d6-a98f-33a61fd8b554","ios":"levelo://app?vid=15e503f5-1d52-42d6-a98f-33a61fd8b554"},"vehicle_type_id":"4","last_reported":1736176161,"current_range_meters":22000,"station_id":"ce4bhah2rcd13ifvqei0","pricing_plan_id":"cebpf4jnsgd1na2vs0mg"},{"bike_id":"91311e8a-9196-42b4-a945-bf070bb189b7","system_id":"levelo_inurba_marseille","lat":43.31091,"lon":5.42426,"is_reserved":false,"is_disabled":false,"rental_uris":{"android":"levelo://app?vid=91311e8a-9196-42b4-a945-bf070bb189b7","ios":"levelo://app?vid=91311e8a-9196-42b4-a945-bf070bb189b7"},"vehicle_type_id":"4","last_reported":1736176161,"current_range_meters":20800,"station_id":"ce4bhp92rcd13ifvqhag","pricing_plan_id":"cebpf4jnsgd1na2vs0mg"},{"bike_id":"88fbd2f9-edba-4674-927d-ce8a9c56a0e7","system_id":"levelo_inurba_marseille","lat":43.28156,"lon":5.42652,"is_reserved":false,"is_disabled":false,"rental_uris":{"android":"levelo://app?vid=88fbd2f9-edba-4674-927d-ce8a9c56a0e7","ios":"levelo://app?vid=88fbd2f9-edba-4674-927d-ce8a9c56a0e7"},"vehicle_type_id":"4","last_reported":1736176161,"current_range_meters":27600,"station_id":"ce4bhnh2rcd13ifvqgug","pricing_plan_id":"cebpf4jnsgd1na2vs0mg"},{"bike_id":"61a0e366-59dc-4344-9007-3379e8066fbb","system_id":"levelo_inurba_marseille","lat":43.30416,"lon":5.41292,"is_reserved":false,"is_disabled":false,"rental_uris":{"android":"levelo://app?vid=61a0e366-59dc-4344-9007-3379e8066fbb","ios":"levelo://app?vid=61a0e366-59dc-4344-9007-3379e8066fbb"},"vehicle_type_id":"4","last_reported":1736176161,"current_range_meters":38800,"station_id":"ce4bhop2rcd13ifvqh8g","pricing_plan_id":"cebpf4jnsgd1na2vs0mg"},{"bike_id":"ac9538a9-5bc0-403e-bca4-cf1f4ed5e73d","system_id":"levelo_inurba_marseille","lat":43.290066,"lon":5.356086,"is_reserved":false,"is_disabled":false,"rental_uris":{"android":"levelo://app?vid=ac9538a9-5bc0-403e-bca4-cf1f4ed5e73d","ios":"levelo://app?vid=ac9538a9-5bc0-403e-bca4-cf1f4ed5e73d"},"vehicle_type_id":"4","last_reported":1736176161,"current_range_meters":23200,"station_id":"ce4bhb92rcd13ifvqen0","pricing_plan_id":"cebpf4jnsgd1na2vs0mg"},{"bike_id":"6b13a1fa-5429-4b32-98c4-af44e80e1bed","system_id":"levelo_inurba_marseille","lat":43.28949,"lon":5.36395,"is_reserved":false,"is_disabled":false,"rental_uris":{"android":"levelo://app?vid=6b13a1fa-5429-4b32-98c4-af44e80e1bed","ios":"levelo://app?vid=6b13a1fa-5429-4b32-98c4-af44e80e1bed"},"vehicle_type_id":"4","last_reported":1736176161,"current_range_meters":35200,"station_id":"ce4bhc92rcd13ifvqetg","pricing_plan_id":"cebpf4jnsgd1na2vs0mg"},{"bike_id":"fd158c36-7ef5-445e-8ea6-071dad19ec96","system_id":"levelo_inurba_marseille","lat":43.24806,"lon":5.37456,"is_reserved":false,"is_disabled":false,"rental_uris":{"android":"levelo://app?vid=fd158c36-7ef5-445e-8ea6-071dad19ec96","ios":"levelo://app?vid=fd158c36-7ef5-445e-8ea6-071dad19ec96"},"vehicle_type_id":"4","last_reported":1736176161,"current_range_meters":6000,"station_id":"ce4bhgh2rcd13ifvqfb0","pricing_plan_id":"cebpf4jnsgd1na2vs0mg"},{"bike_id":"98078c68-713a-4a78-873e-a3a8e67f221b","system_id":"levelo_inurba_marseille","lat":43.29598,"lon":5.37689,"is_reserved":false,"is_disabled":false,"rental_uris":{"android":"levelo://app?vid=98078c68-713a-4a78-873e-a3a8e67f221b","ios":"levelo://app?vid=98078c68-713a-4a78-873e-a3a8e67f221b"},"vehicle_type_id":"4","last_reported":1736176161,"current_range_meters":22400,"station_id":"ce4bgi92rcd13ifvqb90","pricing_plan_id":"cebpf4jnsgd1na2vs0mg"},{"bike_id":"e945b5ed-7c2f-49e9-a5ab-87433ef88f1a","system_id":"levelo_inurba_marseille","lat":43.249979,"lon":5.389429,"is_reserved":false,"is_disabled":false,"rental_uris":{"android":"levelo://app?vid=e945b5ed-7c2f-49e9-a5ab-87433ef88f1a","ios":"levelo://app?vid=e945b5ed-7c2f-49e9-a5ab-87433ef88f1a"},"vehicle_type_id":"4","last_reported":1736176161,"current_range_meters":12400,"station_id":"ce4bhgp2rcd13ifvqfd0","pricing_plan_id":"cebpf4jnsgd1na2vs0mg"},{"bike_id":"237eb7a7-7331-4631-9377-6cdbdc6e4e98","system_id":"levelo_inurba_marseille","lat":43.265611,"lon":5.390116,"is_reserved":false,"is_disabled":true,"rental_uris":{"android":"levelo://app?vid=237eb7a7-7331-4631-9377-6cdbdc6e4e98","ios":"levelo://app?vid=237eb7a7-7331-4631-9377-6cdbdc6e4e98"},"vehicle_type_id":"4","last_reported":1736176161,"current_range_meters":35600,"station_id":"ce4bhe12rcd13ifvqf30","pricing_plan_id":"cebpf4jnsgd1na2vs0mg"},{"bike_id":"b52f851c-8fad-4844-9528-86fbf57fe784","system_id":"levelo_inurba_marseille","lat":43.27059,"lon":5.40268,"is_reserved":false,"is_disabled":true,"rental_uris":{"android":"levelo://app?vid=b52f851c-8fad-4844-9528-86fbf57fe784","ios":"levelo://app?vid=b52f851c-8fad-4844-9528-86fbf57fe784"},"vehicle_type_id":"4","last_reported":1736176161,"current_range_meters":1200,"station_id":"ce4bhk92rcd13ifvqgc0","pricing_plan_id":"cebpf4jnsgd1na2vs0mg"},{"bike_id":"f72bc202-65c3-48d4-84be-fd7cacb541fe","system_id":"levelo_inurba_marseille","lat":43.30603,"lon":5.39346,"is_reserved":false,"is_disabled":true,"rental_uris":{"android":"levelo://app?vid=f72bc202-65c3-48d4-84be-fd7cacb541fe","ios":"levelo://app?vid=f72bc202-65c3-48d4-84be-fd7cacb541fe"},"vehicle_type_id":"4","last_reported":1736176161,"current_range_meters":36800,"station_id":"ce4bh0p2rcd13ifvqd80","pricing_plan_id":"cebpf4jnsgd1na2vs0mg"},{"bike_id":"983a939f-0c90-4b41-8e07-1ba37a328643","system_id":"levelo_inurba_marseille","lat":43.24183,"lon":5.3639,"is_reserved":false,"is_disabled":false,"rental_uris":{"android":"levelo://app?vid=983a939f-0c90-4b41-8e07-1ba37a328643","ios":"levelo://app?vid=983a939f-0c90-4b41-8e07-1ba37a328643"},"vehicle_type_id":"4","last_reported":1736176161,"current_range_meters":16000,"station_id":"cpo36qri1sfpv3e86is0","pricing_plan_id":"cebpf4jnsgd1na2vs0mg"},{"bike_id":"22a1423a-ade3-44d3-9c8c-b9b10dba1344","system_id":"levelo_inurba_marseille","lat":43.29666,"lon":5.37514,"is_reserved":false,"is_disabled":false,"rental_uris":{"android":"levelo://app?vid=22a1423a-ade3-44d3-9c8c-b9b10dba1344","ios":"levelo://app?vid=22a1423a-ade3-44d3-9c8c-b9b10dba1344"},"vehicle_type_id":"4","last_reported":1736176161,"current_range_meters":31200,"station_id":"ce4bguh2rcd13ifvqcj0","pricing_plan_id":"cebpf4jnsgd1na2vs0mg"},{"bike_id":"d86cc9ad-2df6-4d4d-960a-e188d55bbd22","system_id":"levelo_inurba_marseille","lat":43.314579,"lon":5.369957,"is_reserved":false,"is_disabled":false,"rental_uris":{"android":"levelo://app?vid=d86cc9ad-2df6-4d4d-960a-e188d55bbd22","ios":"levelo://app?vid=d86cc9ad-2df6-4d4d-960a-e188d55bbd22"},"vehicle_type_id":"4","last_reported":1736176161,"current_range_meters":32000,"station_id":"ce4bgth2rcd13ifvqch0","pricing_plan_id":"cebpf4jnsgd1na2vs0mg"},{"bike_id":"20826b65-5ff0-4d0a-b7cd-bb903e1760ff","system_id":"levelo_inurba_marseille","lat":43.3025,"lon":5.40054,"is_reserved":false,"is_disabled":false,"rental_uris":{"android":"levelo://app?vid=20826b65-5ff0-4d0a-b7cd-bb903e1760ff","ios":"levelo://app?vid=20826b65-5ff0-4d0a-b7cd-bb903e1760ff"},"vehicle_type_id":"4","last_reported":1736176161,"current_range_meters":16800,"station_id":"ce4bgvh2rcd13ifvqcs0","pricing_plan_id":"cebpf4jnsgd1na2vs0mg"},{"bike_id":"dc80a52a-f2fa-4e2a-9e2a-b913aee07db6","system_id":"levelo_inurba_marseille","lat":43.31324,"lon":5.39701,"is_reserved":false,"is_disabled":false,"rental_uris":{"android":"levelo://app?vid=dc80a52a-f2fa-4e2a-9e2a-b913aee07db6","ios":"levelo://app?vid=dc80a52a-f2fa-4e2a-9e2a-b913aee07db6"},"vehicle_type_id":"4","last_reported":1736176161,"current_range_meters":37600,"station_id":"ce4bgvp2rcd13ifvqcu0","pricing_plan_id":"cebpf4jnsgd1na2vs0mg"},{"bike_id":"73881a79-d492-4189-92f3-51eb971610eb","system_id":"levelo_inurba_marseille","lat":43.24684,"lon":5.38169,"is_reserved":false,"is_disabled":false,"rental_uris":{"android":"levelo://app?vid=73881a79-d492-4189-92f3-51eb971610eb","ios":"levelo://app?vid=73881a79-d492-4189-92f3-51eb971610eb"},"vehicle_type_id":"4","last_reported":1736176161,"current_range_meters":20400,"station_id":"ce4bhih2rcd13ifvqfr0","pricing_plan_id":"cebpf4jnsgd1na2vs0mg"},{"bike_id":"cca2f7c7-45e7-4f8a-80d9-cffca2b70c93","system_id":"levelo_inurba_marseille","lat":43.26678,"lon":5.38275,"is_reserved":false,"is_disabled":true,"rental_uris":{"android":"levelo://app?vid=cca2f7c7-45e7-4f8a-80d9-cffca2b70c93","ios":"levelo://app?vid=cca2f7c7-45e7-4f8a-80d9-cffca2b70c93"},"vehicle_type_id":"4","last_reported":1736176161,"current_range_meters":36000,"station_id":"ce4bhg92rcd13ifvqf90","pricing_plan_id":"cebpf4jnsgd1na2vs0mg"},{"bike_id":"945f53b7-acf8-4d2f-95b2-440a0969577c","system_id":"levelo_inurba_marseille","lat":43.27313,"lon":5.39083,"is_reserved":false,"is_disabled":false,"rental_uris":{"android":"levelo://app?vid=945f53b7-acf8-4d2f-95b2-440a0969577c","ios":"levelo://app?vid=945f53b7-acf8-4d2f-95b2-440a0969577c"},"vehicle_type_id":"4","last_reported":1736176161,"current_range_meters":35600,"station_id":"ce4bhgp2rcd13ifvqfe0","pricing_plan_id":"cebpf4jnsgd1na2vs0mg"},{"bike_id":"1743ab96-959d-4291-b001-42800e81e10c","system_id":"levelo_inurba_marseille","lat":43.30143,"lon":5.37418,"is_reserved":false,"is_disabled":false,"rental_uris":{"android":"levelo://app?vid=1743ab96-959d-4291-b001-42800e81e10c","ios":"levelo://app?vid=1743ab96-959d-4291-b001-42800e81e10c"},"vehicle_type_id":"4","last_reported":1736176161,"current_range_meters":36000,"station_id":"ce4bgs92rcd13ifvqcc0","pricing_plan_id":"cebpf4jnsgd1na2vs0mg"},{"bike_id":"51f7ef40-fb4b-4f6b-95b4-c8ac85a80932","system_id":"levelo_inurba_marseille","lat":43.25092,"lon":5.39497,"is_reserved":false,"is_disabled":false,"rental_uris":{"android":"levelo://app?vid=51f7ef40-fb4b-4f6b-95b4-c8ac85a80932","ios":"levelo://app?vid=51f7ef40-fb4b-4f6b-95b4-c8ac85a80932"},"vehicle_type_id":"4","last_reported":1736176161,"current_range_meters":32800,"station_id":"ce4bhm12rcd13ifvqgkg","pricing_plan_id":"cebpf4jnsgd1na2vs0mg"},{"bike_id":"1a8abc6b-e326-4d9a-8e2d-ba482704f16b","system_id":"levelo_inurba_marseille","lat":43.28716,"lon":5.37934,"is_reserved":false,"is_disabled":false,"rental_uris":{"android":"levelo://app?vid=1a8abc6b-e326-4d9a-8e2d-ba482704f16b","ios":"levelo://app?vid=1a8abc6b-e326-4d9a-8e2d-ba482704f16b"},"vehicle_type_id":"4","last_reported":1736176161,"current_range_meters":25200,"station_id":"ce4bh9p2rcd13ifvqec0","pricing_plan_id":"cebpf4jnsgd1na2vs0mg"},{"bike_id":"09641b23-f409-4aef-a937-d53c5cc46347","system_id":"levelo_inurba_marseille","lat":43.25574,"lon":5.38227,"is_reserved":false,"is_disabled":false,"rental_uris":{"android":"levelo://app?vid=09641b23-f409-4aef-a937-d53c5cc46347","ios":"levelo://app?vid=09641b23-f409-4aef-a937-d53c5cc46347"},"vehicle_type_id":"4","last_reported":1736176161,"current_range_meters":36800,"station_id":"ce4bhih2rcd13ifvqfs0","pricing_plan_id":"cebpf4jnsgd1na2vs0mg"},{"bike_id":"182c8827-ad8b-4aa6-9862-5b2da55309dc","system_id":"levelo_inurba_marseille","lat":43.29212,"lon":5.36024,"is_reserved":false,"is_disabled":false,"rental_uris":{"android":"levelo://app?vid=182c8827-ad8b-4aa6-9862-5b2da55309dc","ios":"levelo://app?vid=182c8827-ad8b-4aa6-9862-5b2da55309dc"},"vehicle_type_id":"4","last_reported":1736176161,"current_range_meters":35600,"station_id":"ce4bhbh2rcd13ifvqeqg","pricing_plan_id":"cebpf4jnsgd1na2vs0mg"},{"bike_id":"32e6a7bc-e6d3-4b91-8184-cc5d86c87ae4","system_id":"levelo_inurba_marseille","lat":43.27618,"lon":5.36105,"is_reserved":false,"is_disabled":false,"rental_uris":{"android":"levelo://app?vid=32e6a7bc-e6d3-4b91-8184-cc5d86c87ae4","ios":"levelo://app?vid=32e6a7bc-e6d3-4b91-8184-cc5d86c87ae4"},"vehicle_type_id":"4","last_reported":1736176161,"current_range_meters":31200,"station_id":"ce4bgj92rcd13ifvqbe0","pricing_plan_id":"cebpf4jnsgd1na2vs0mg"},{"bike_id":"a7471de7-084b-4a75-a689-a2ad35fe5bb2","system_id":"levelo_inurba_marseille","lat":43.27567,"lon":5.38401,"is_reserved":false,"is_disabled":false,"rental_uris":{"android":"levelo://app?vid=a7471de7-084b-4a75-a689-a2ad35fe5bb2","ios":"levelo://app?vid=a7471de7-084b-4a75-a689-a2ad35fe5bb2"},"vehicle_type_id":"4","last_reported":1736176161,"current_range_meters":34800,"station_id":"ce4bhh92rcd13ifvqfi0","pricing_plan_id":"cebpf4jnsgd1na2vs0mg"},{"bike_id":"5ae5e8bc-3e5d-44b3-b3b3-d5eaed6a0f9f","system_id":"levelo_inurba_marseille","lat":43.25582,"lon":5.38224,"is_reserved":false,"is_disabled":false,"rental_uris":{"android":"levelo://app?vid=5ae5e8bc-3e5d-44b3-b3b3-d5eaed6a0f9f","ios":"levelo://app?vid=5ae5e8bc-3e5d-44b3-b3b3-d5eaed6a0f9f"},"vehicle_type_id":"4","last_reported":1736176161,"current_range_meters":38800,"station_id":"ce4bhih2rcd13ifvqfs0","pricing_plan_id":"cebpf4jnsgd1na2vs0mg"},{"bike_id":"38bdeb73-87ab-44dd-8f8e-727e5ab269fa","system_id":"levelo_inurba_marseille","lat":43.260614,"lon":5.393922,"is_reserved":false,"is_disabled":false,"rental_uris":{"android":"levelo://app?vid=38bdeb73-87ab-44dd-8f8e-727e5ab269fa","ios":"levelo://app?vid=38bdeb73-87ab-44dd-8f8e-727e5ab269fa"},"vehicle_type_id":"4","last_reported":1736176161,"current_range_meters":6800,"station_id":"ce4bhh92rcd13ifvqfj0","pricing_plan_id":"cebpf4jnsgd1na2vs0mg"},{"bike_id":"69b556b4-bc3d-4ef4-bb4b-65a2e6427433","system_id":"levelo_inurba_marseille","lat":43.28454,"lon":5.35884,"is_reserved":false,"is_disabled":false,"rental_uris":{"android":"levelo://app?vid=69b556b4-bc3d-4ef4-bb4b-65a2e6427433","ios":"levelo://app?vid=69b556b4-bc3d-4ef4-bb4b-65a2e6427433"},"vehicle_type_id":"4","last_reported":1736176161,"current_range_meters":36800,"station_id":"ce4bhah2rcd13ifvqei0","pricing_plan_id":"cebpf4jnsgd1na2vs0mg"},{"bike_id":"041f8815-0a22-448d-9741-71537ad972c7","system_id":"levelo_inurba_marseille","lat":43.26524,"lon":5.3955,"is_reserved":false,"is_disabled":false,"rental_uris":{"android":"levelo://app?vid=041f8815-0a22-448d-9741-71537ad972c7","ios":"levelo://app?vid=041f8815-0a22-448d-9741-71537ad972c7"},"vehicle_type_id":"4","last_reported":1736176161,"current_range_meters":33200,"station_id":"ce4bhi12rcd13ifvqfq0","pricing_plan_id":"cebpf4jnsgd1na2vs0mg"},{"bike_id":"e526f78f-93c1-482e-a929-17dd424d32eb","system_id":"levelo_inurba_marseille","lat":43.28482,"lon":5.38419,"is_reserved":false,"is_disabled":true,"rental_uris":{"android":"levelo://app?vid=e526f78f-93c1-482e-a929-17dd424d32eb","ios":"levelo://app?vid=e526f78f-93c1-482e-a929-17dd424d32eb"},"vehicle_type_id":"4","last_reported":1736176161,"current_range_meters":0,"station_id":"ce4bh512rcd13ifvqe3g","pricing_plan_id":"cebpf4jnsgd1na2vs0mg"},{"bike_id":"31a9384b-c9a0-47cd-9f16-a17aa95f16a5","system_id":"levelo_inurba_marseille","lat":43.26805,"lon":5.40266,"is_reserved":false,"is_disabled":false,"rental_uris":{"android":"levelo://app?vid=31a9384b-c9a0-47cd-9f16-a17aa95f16a5","ios":"levelo://app?vid=31a9384b-c9a0-47cd-9f16-a17aa95f16a5"},"vehicle_type_id":"4","last_reported":1736176161,"current_range_meters":26800,"station_id":"ce501612rcd8frsf0b60","pricing_plan_id":"cebpf4jnsgd1na2vs0mg"},{"bike_id":"583935a9-66ac-4274-8425-07ab27dfb415","system_id":"levelo_inurba_marseille","lat":43.29648,"lon":5.37117,"is_reserved":false,"is_disabled":false,"rental_uris":{"android":"levelo://app?vid=583935a9-66ac-4274-8425-07ab27dfb415","ios":"levelo://app?vid=583935a9-66ac-4274-8425-07ab27dfb415"},"vehicle_type_id":"4","last_reported":1736176161,"current_range_meters":35600,"station_id":"ce4bgnh2rcd13ifvqc0g","pricing_plan_id":"cebpf4jnsgd1na2vs0mg"},{"bike_id":"24bccac7-1e4b-45e8-bc23-0feeff5509f0","system_id":"levelo_inurba_marseille","lat":43.26503,"lon":5.39545,"is_reserved":false,"is_disabled":true,"rental_uris":{"android":"levelo://app?vid=24bccac7-1e4b-45e8-bc23-0feeff5509f0","ios":"levelo://app?vid=24bccac7-1e4b-45e8-bc23-0feeff5509f0"},"vehicle_type_id":"4","last_reported":1736176161,"current_range_meters":0,"station_id":"ce4bhi12rcd13ifvqfq0","pricing_plan_id":"cebpf4jnsgd1na2vs0mg"},{"bike_id":"a1c940b0-2ea5-4f2f-9909-19abc516fbdb","system_id":"levelo_inurba_marseille","lat":43.29794,"lon":5.38098,"is_reserved":false,"is_disabled":false,"rental_uris":{"android":"levelo://app?vid=a1c940b0-2ea5-4f2f-9909-19abc516fbdb","ios":"levelo://app?vid=a1c940b0-2ea5-4f2f-9909-19abc516fbdb"},"vehicle_type_id":"4","last_reported":1736176161,"current_range_meters":33200,"station_id":"ce4bgip2rcd13ifvqbb0","pricing_plan_id":"cebpf4jnsgd1na2vs0mg"},{"bike_id":"7082a147-72ba-427b-b7d0-01f4c79523c2","system_id":"levelo_inurba_marseille","lat":43.33294,"lon":5.3583,"is_reserved":false,"is_disabled":false,"rental_uris":{"android":"levelo://app?vid=7082a147-72ba-427b-b7d0-01f4c79523c2","ios":"levelo://app?vid=7082a147-72ba-427b-b7d0-01f4c79523c2"},"vehicle_type_id":"4","last_reported":1736176161,"current_range_meters":20400,"station_id":"","pricing_plan_id":"cebpf4jnsgd1na2vs0mg"},{"bike_id":"10685bdb-6300-4399-ac4b-f2cd7c6e07b2","system_id":"levelo_inurba_marseille","lat":43.29701,"lon":5.37713,"is_reserved":false,"is_disabled":false,"rental_uris":{"android":"levelo://app?vid=10685bdb-6300-4399-ac4b-f2cd7c6e07b2","ios":"levelo://app?vid=10685bdb-6300-4399-ac4b-f2cd7c6e07b2"},"vehicle_type_id":"4","last_reported":1736176161,"current_range_meters":38800,"station_id":"ce4bgkh2rcd13ifvqbl0","pricing_plan_id":"cebpf4jnsgd1na2vs0mg"},{"bike_id":"09b8d6bc-a551-4040-9d05-0eefd776a831","system_id":"levelo_inurba_marseille","lat":43.29649,"lon":5.37108,"is_reserved":false,"is_disabled":false,"rental_uris":{"android":"levelo://app?vid=09b8d6bc-a551-4040-9d05-0eefd776a831","ios":"levelo://app?vid=09b8d6bc-a551-4040-9d05-0eefd776a831"},"vehicle_type_id":"4","last_reported":1736176161,"current_range_meters":35600,"station_id":"","pricing_plan_id":"cebpf4jnsgd1na2vs0mg"},{"bike_id":"11577b5a-a84e-4228-9a0b-e7255b2e539f","system_id":"levelo_inurba_marseille","lat":43.2316,"lon":5.43705,"is_reserved":false,"is_disabled":false,"rental_uris":{"android":"levelo://app?vid=11577b5a-a84e-4228-9a0b-e7255b2e539f","ios":"levelo://app?vid=11577b5a-a84e-4228-9a0b-e7255b2e539f"},"vehicle_type_id":"4","last_reported":1736176161,"current_range_meters":19200,"station_id":"ce4bhmp2rcd13ifvqgog","pricing_plan_id":"cebpf4jnsgd1na2vs0mg"},{"bike_id":"d45d0089-5e8c-41ac-a04c-9866c8dc94cc","system_id":"levelo_inurba_marseille","lat":43.23206,"lon":5.35544,"is_reserved":false,"is_disabled":false,"rental_uris":{"android":"levelo://app?vid=d45d0089-5e8c-41ac-a04c-9866c8dc94cc","ios":"levelo://app?vid=d45d0089-5e8c-41ac-a04c-9866c8dc94cc"},"vehicle_type_id":"4","last_reported":1736176161,"current_range_meters":7200,"station_id":"ce4bhu92rcd13ifvqi70","pricing_plan_id":"cebpf4jnsgd1na2vs0mg"},{"bike_id":"f3526378-088b-4009-977f-9d1196175369","system_id":"levelo_inurba_marseille","lat":43.28048,"lon":5.36948,"is_reserved":false,"is_disabled":false,"rental_uris":{"android":"levelo://app?vid=f3526378-088b-4009-977f-9d1196175369","ios":"levelo://app?vid=f3526378-088b-4009-977f-9d1196175369"},"vehicle_type_id":"4","last_reported":1736176161,"current_range_meters":38000,"station_id":"ce4bha12rcd13ifvqef0","pricing_plan_id":"cebpf4jnsgd1na2vs0mg"},{"bike_id":"b5de95e0-8f34-41aa-a5fc-c4e76e03a994","system_id":"levelo_inurba_marseille","lat":43.28084,"lon":5.396709,"is_reserved":false,"is_disabled":true,"rental_uris":{"android":"levelo://app?vid=b5de95e0-8f34-41aa-a5fc-c4e76e03a994","ios":"levelo://app?vid=b5de95e0-8f34-41aa-a5fc-c4e76e03a994"},"vehicle_type_id":"4","last_reported":1736176161,"current_range_meters":27600,"station_id":"ce4bho12rcd13ifvqh2g","pricing_plan_id":"cebpf4jnsgd1na2vs0mg"},{"bike_id":"aa33a53e-f806-43a8-ad7e-8e2bd9644426","system_id":"levelo_inurba_marseille","lat":43.32345,"lon":5.40629,"is_reserved":false,"is_disabled":true,"rental_uris":{"android":"levelo://app?vid=aa33a53e-f806-43a8-ad7e-8e2bd9644426","ios":"levelo://app?vid=aa33a53e-f806-43a8-ad7e-8e2bd9644426"},"vehicle_type_id":"4","last_reported":1736176161,"current_range_meters":0,"station_id":"ce4bhq92rcd13ifvqhjg","pricing_plan_id":"cebpf4jnsgd1na2vs0mg"},{"bike_id":"6d1d397b-1776-44d9-95c4-b65da798f285","system_id":"levelo_inurba_marseille","lat":43.3199,"lon":5.38171,"is_reserved":false,"is_disabled":false,"rental_uris":{"android":"levelo://app?vid=6d1d397b-1776-44d9-95c4-b65da798f285","ios":"levelo://app?vid=6d1d397b-1776-44d9-95c4-b65da798f285"},"vehicle_type_id":"4","last_reported":1736176161,"current_range_meters":18000,"station_id":"ce4bhr12rcd13ifvqhpg","pricing_plan_id":"cebpf4jnsgd1na2vs0mg"},{"bike_id":"4757eac0-f467-45d8-94ac-47921562850a","system_id":"levelo_inurba_marseille","lat":43.27433,"lon":5.39413,"is_reserved":false,"is_disabled":false,"rental_uris":{"android":"levelo://app?vid=4757eac0-f467-45d8-94ac-47921562850a","ios":"levelo://app?vid=4757eac0-f467-45d8-94ac-47921562850a"},"vehicle_type_id":"4","last_reported":1736176161,"current_range_meters":35600,"station_id":"ce4bhdp2rcd13ifvqf20","pricing_plan_id":"cebpf4jnsgd1na2vs0mg"},{"bike_id":"a2008c99-6e46-4336-a982-526fc9b1daaf","system_id":"levelo_inurba_marseille","lat":43.29039,"lon":5.38128,"is_reserved":false,"is_disabled":false,"rental_uris":{"android":"levelo://app?vid=a2008c99-6e46-4336-a982-526fc9b1daaf","ios":"levelo://app?vid=a2008c99-6e46-4336-a982-526fc9b1daaf"},"vehicle_type_id":"4","last_reported":1736176161,"current_range_meters":38800,"station_id":"ce4bh4p2rcd13ifvqe1g","pricing_plan_id":"cebpf4jnsgd1na2vs0mg"},{"bike_id":"8df41abf-ed14-4589-9867-b5613d43a037","system_id":"levelo_inurba_marseille","lat":43.324775,"lon":5.365709,"is_reserved":false,"is_disabled":false,"rental_uris":{"android":"levelo://app?vid=8df41abf-ed14-4589-9867-b5613d43a037","ios":"levelo://app?vid=8df41abf-ed14-4589-9867-b5613d43a037"},"vehicle_type_id":"4","last_reported":1736176161,"current_range_meters":37600,"station_id":"ce4bhs12rcd13ifvqhvg","pricing_plan_id":"cebpf4jnsgd1na2vs0mg"},{"bike_id":"72aa27b6-580e-44c5-9bd2-168553fdc64a","system_id":"levelo_inurba_marseille","lat":43.29034,"lon":5.37585,"is_reserved":false,"is_disabled":true,"rental_uris":{"android":"levelo://app?vid=72aa27b6-580e-44c5-9bd2-168553fdc64a","ios":"levelo://app?vid=72aa27b6-580e-44c5-9bd2-168553fdc64a"},"vehicle_type_id":"4","last_reported":1736176161,"current_range_meters":4400,"station_id":"ce4bh692rcd13ifvqe90","pricing_plan_id":"cebpf4jnsgd1na2vs0mg"},{"bike_id":"02f3ce3d-f6da-4d82-b1f8-43aa2ac02285","system_id":"levelo_inurba_marseille","lat":43.30262,"lon":5.40081,"is_reserved":false,"is_disabled":false,"rental_uris":{"android":"levelo://app?vid=02f3ce3d-f6da-4d82-b1f8-43aa2ac02285","ios":"levelo://app?vid=02f3ce3d-f6da-4d82-b1f8-43aa2ac02285"},"vehicle_type_id":"4","last_reported":1736176161,"current_range_meters":25200,"station_id":"ce4bgvh2rcd13ifvqcs0","pricing_plan_id":"cebpf4jnsgd1na2vs0mg"},{"bike_id":"19623ec1-d8cf-461a-ae64-22632a0503a7","system_id":"levelo_inurba_marseille","lat":43.30557,"lon":5.36548,"is_reserved":false,"is_disabled":false,"rental_uris":{"android":"levelo://app?vid=19623ec1-d8cf-461a-ae64-22632a0503a7","ios":"levelo://app?vid=19623ec1-d8cf-461a-ae64-22632a0503a7"},"vehicle_type_id":"4","last_reported":1736176161,"current_range_meters":32400,"station_id":"ce4bgs12rcd13ifvqcag","pricing_plan_id":"cebpf4jnsgd1na2vs0mg"},{"bike_id":"f69dd22e-5df1-4a98-8890-0fe37af2ba69","system_id":"levelo_inurba_marseille","lat":43.28142,"lon":5.42626,"is_reserved":false,"is_disabled":false,"rental_uris":{"android":"levelo://app?vid=f69dd22e-5df1-4a98-8890-0fe37af2ba69","ios":"levelo://app?vid=f69dd22e-5df1-4a98-8890-0fe37af2ba69"},"vehicle_type_id":"4","last_reported":1736176161,"current_range_meters":9200,"station_id":"ce4bhnh2rcd13ifvqgug","pricing_plan_id":"cebpf4jnsgd1na2vs0mg"},{"bike_id":"a38b5223-6379-4cf3-bfa2-6106403e3200","system_id":"levelo_inurba_marseille","lat":43.29209,"lon":5.39323,"is_reserved":false,"is_disabled":false,"rental_uris":{"android":"levelo://app?vid=a38b5223-6379-4cf3-bfa2-6106403e3200","ios":"levelo://app?vid=a38b5223-6379-4cf3-bfa2-6106403e3200"},"vehicle_type_id":"4","last_reported":1736176161,"current_range_meters":39200,"station_id":"ce4bh192rcd13ifvqdd0","pricing_plan_id":"cebpf4jnsgd1na2vs0mg"},{"bike_id":"d0541b38-8e7e-4e1e-8666-5868b43eb4cc","system_id":"levelo_inurba_marseille","lat":43.25118,"lon":5.40334,"is_reserved":false,"is_disabled":false,"rental_uris":{"android":"levelo://app?vid=d0541b38-8e7e-4e1e-8666-5868b43eb4cc","ios":"levelo://app?vid=d0541b38-8e7e-4e1e-8666-5868b43eb4cc"},"vehicle_type_id":"4","last_reported":1736176161,"current_range_meters":38000,"station_id":"ce4bhlh2rcd13ifvqgig","pricing_plan_id":"cebpf4jnsgd1na2vs0mg"},{"bike_id":"e80c4447-7567-4beb-b8f2-9a99e5a9fcea","system_id":"levelo_inurba_marseille","lat":43.24081,"lon":5.37751,"is_reserved":false,"is_disabled":true,"rental_uris":{"android":"levelo://app?vid=e80c4447-7567-4beb-b8f2-9a99e5a9fcea","ios":"levelo://app?vid=e80c4447-7567-4beb-b8f2-9a99e5a9fcea"},"vehicle_type_id":"4","last_reported":1736176161,"current_range_meters":2000,"station_id":"ce4bhnp2rcd13ifvqgvg","pricing_plan_id":"cebpf4jnsgd1na2vs0mg"},{"bike_id":"917451ab-5b15-4801-be49-edcb927a21ff","system_id":"levelo_inurba_marseille","lat":43.29575,"lon":5.37492,"is_reserved":false,"is_disabled":false,"rental_uris":{"android":"levelo://app?vid=917451ab-5b15-4801-be49-edcb927a21ff","ios":"levelo://app?vid=917451ab-5b15-4801-be49-edcb927a21ff"},"vehicle_type_id":"4","last_reported":1736176161,"current_range_meters":28400,"station_id":"ce4bgh92rcd13ifvqb50","pricing_plan_id":"cebpf4jnsgd1na2vs0mg"},{"bike_id":"3c3d1d1f-49dd-4078-8ce3-0d63b7178056","system_id":"levelo_inurba_marseille","lat":43.30923,"lon":5.36862,"is_reserved":false,"is_disabled":false,"rental_uris":{"android":"levelo://app?vid=3c3d1d1f-49dd-4078-8ce3-0d63b7178056","ios":"levelo://app?vid=3c3d1d1f-49dd-4078-8ce3-0d63b7178056"},"vehicle_type_id":"4","last_reported":1736176161,"current_range_meters":38800,"station_id":"ce4bgn92rcd13ifvqbvg","pricing_plan_id":"cebpf4jnsgd1na2vs0mg"},{"bike_id":"1cddd2a0-8960-4e22-b424-19b19988e4f5","system_id":"levelo_inurba_marseille","lat":43.27672,"lon":5.38898,"is_reserved":false,"is_disabled":false,"rental_uris":{"android":"levelo://app?vid=1cddd2a0-8960-4e22-b424-19b19988e4f5","ios":"levelo://app?vid=1cddd2a0-8960-4e22-b424-19b19988e4f5"},"vehicle_type_id":"4","last_reported":1736176161,"current_range_meters":36000,"station_id":"ce4bhi12rcd13ifvqfo0","pricing_plan_id":"cebpf4jnsgd1na2vs0mg"},{"bike_id":"8a474426-cd46-4cf8-9edc-ef843a0ca02e","system_id":"levelo_inurba_marseille","lat":43.26531,"lon":5.39065,"is_reserved":false,"is_disabled":true,"rental_uris":{"android":"levelo://app?vid=8a474426-cd46-4cf8-9edc-ef843a0ca02e","ios":"levelo://app?vid=8a474426-cd46-4cf8-9edc-ef843a0ca02e"},"vehicle_type_id":"4","last_reported":1736176161,"current_range_meters":33600,"station_id":"","pricing_plan_id":"cebpf4jnsgd1na2vs0mg"},{"bike_id":"b8e8befc-076e-4a84-a746-24b09895b81b","system_id":"levelo_inurba_marseille","lat":43.25581,"lon":5.38227,"is_reserved":false,"is_disabled":false,"rental_uris":{"android":"levelo://app?vid=b8e8befc-076e-4a84-a746-24b09895b81b","ios":"levelo://app?vid=b8e8befc-076e-4a84-a746-24b09895b81b"},"vehicle_type_id":"4","last_reported":1736176161,"current_range_meters":33200,"station_id":"ce4bhih2rcd13ifvqfs0","pricing_plan_id":"cebpf4jnsgd1na2vs0mg"},{"bike_id":"bbf998ea-d252-4590-8711-16d78ff4b07c","system_id":"levelo_inurba_marseille","lat":43.24644,"lon":5.38898,"is_reserved":false,"is_disabled":false,"rental_uris":{"android":"levelo://app?vid=bbf998ea-d252-4590-8711-16d78ff4b07c","ios":"levelo://app?vid=bbf998ea-d252-4590-8711-16d78ff4b07c"},"vehicle_type_id":"4","last_reported":1736176161,"current_range_meters":29600,"station_id":"ce4bhg12rcd13ifvqf60","pricing_plan_id":"cebpf4jnsgd1na2vs0mg"},{"bike_id":"e2091bb5-b857-4f7d-bbc2-f6364f3b9078","system_id":"levelo_inurba_marseille","lat":43.29362,"lon":5.3782,"is_reserved":false,"is_disabled":false,"rental_uris":{"android":"levelo://app?vid=e2091bb5-b857-4f7d-bbc2-f6364f3b9078","ios":"levelo://app?vid=e2091bb5-b857-4f7d-bbc2-f6364f3b9078"},"vehicle_type_id":"4","last_reported":1736176161,"current_range_meters":7200,"station_id":"ce4bgjh2rcd13ifvqbf0","pricing_plan_id":"cebpf4jnsgd1na2vs0mg"},{"bike_id":"86931e0c-5dc5-4ead-bea6-174b9910bbee","system_id":"levelo_inurba_marseille","lat":43.31219,"lon":5.36857,"is_reserved":false,"is_disabled":false,"rental_uris":{"android":"levelo://app?vid=86931e0c-5dc5-4ead-bea6-174b9910bbee","ios":"levelo://app?vid=86931e0c-5dc5-4ead-bea6-174b9910bbee"},"vehicle_type_id":"4","last_reported":1736176161,"current_range_meters":5600,"station_id":"ce4bgl92rcd13ifvqbq0","pricing_plan_id":"cebpf4jnsgd1na2vs0mg"},{"bike_id":"f7706f6b-0fe7-40e7-8d90-5aa62381ad7f","system_id":"levelo_inurba_marseille","lat":43.29574,"lon":5.36729,"is_reserved":false,"is_disabled":false,"rental_uris":{"android":"levelo://app?vid=f7706f6b-0fe7-40e7-8d90-5aa62381ad7f","ios":"levelo://app?vid=f7706f6b-0fe7-40e7-8d90-5aa62381ad7f"},"vehicle_type_id":"4","last_reported":1736176161,"current_range_meters":38800,"station_id":"ce4bgph2rcd13ifvqc2g","pricing_plan_id":"cebpf4jnsgd1na2vs0mg"},{"bike_id":"51dbe372-d9e7-4790-b8fc-9c508cc9272b","system_id":"levelo_inurba_marseille","lat":43.32563,"lon":5.41482,"is_reserved":false,"is_disabled":false,"rental_uris":{"android":"levelo://app?vid=51dbe372-d9e7-4790-b8fc-9c508cc9272b","ios":"levelo://app?vid=51dbe372-d9e7-4790-b8fc-9c508cc9272b"},"vehicle_type_id":"4","last_reported":1736176161,"current_range_meters":38800,"station_id":"ce4bhq12rcd13ifvqhhg","pricing_plan_id":"cebpf4jnsgd1na2vs0mg"},{"bike_id":"f5a4a49b-f269-4ec2-b80a-e579bf67a966","system_id":"levelo_inurba_marseille","lat":43.295229,"lon":5.361535,"is_reserved":false,"is_disabled":true,"rental_uris":{"android":"levelo://app?vid=f5a4a49b-f269-4ec2-b80a-e579bf67a966","ios":"levelo://app?vid=f5a4a49b-f269-4ec2-b80a-e579bf67a966"},"vehicle_type_id":"4","last_reported":1736176161,"current_range_meters":30000,"station_id":"","pricing_plan_id":"cebpf4jnsgd1na2vs0mg"},{"bike_id":"664044e6-e824-440a-a874-8e818a3a1b1b","system_id":"levelo_inurba_marseille","lat":43.2856,"lon":5.39468,"is_reserved":false,"is_disabled":true,"rental_uris":{"android":"levelo://app?vid=664044e6-e824-440a-a874-8e818a3a1b1b","ios":"levelo://app?vid=664044e6-e824-440a-a874-8e818a3a1b1b"},"vehicle_type_id":"4","last_reported":1736176161,"current_range_meters":38000,"station_id":"ce4bh292rcd13ifvqdg0","pricing_plan_id":"cebpf4jnsgd1na2vs0mg"},{"bike_id":"6f78dd3b-371a-43cc-b108-6bbc6a567b57","system_id":"levelo_inurba_marseille","lat":43.29631,"lon":5.3716,"is_reserved":false,"is_disabled":false,"rental_uris":{"android":"levelo://app?vid=6f78dd3b-371a-43cc-b108-6bbc6a567b57","ios":"levelo://app?vid=6f78dd3b-371a-43cc-b108-6bbc6a567b57"},"vehicle_type_id":"4","last_reported":1736176161,"current_range_meters":25200,"station_id":"ce4bgnh2rcd13ifvqc0g","pricing_plan_id":"cebpf4jnsgd1na2vs0mg"},{"bike_id":"a083ad0b-ade5-42ff-9b1f-10067cece085","system_id":"levelo_inurba_marseille","lat":43.30423,"lon":5.39757,"is_reserved":false,"is_disabled":false,"rental_uris":{"android":"levelo://app?vid=a083ad0b-ade5-42ff-9b1f-10067cece085","ios":"levelo://app?vid=a083ad0b-ade5-42ff-9b1f-10067cece085"},"vehicle_type_id":"4","last_reported":1736176161,"current_range_meters":35200,"station_id":"ce4bh092rcd13ifvqd20","pricing_plan_id":"cebpf4jnsgd1na2vs0mg"},{"bike_id":"939136fb-bf90-4321-b23c-d528ead51334","system_id":"levelo_inurba_marseille","lat":43.28481,"lon":5.38555,"is_reserved":false,"is_disabled":false,"rental_uris":{"android":"levelo://app?vid=939136fb-bf90-4321-b23c-d528ead51334","ios":"levelo://app?vid=939136fb-bf90-4321-b23c-d528ead51334"},"vehicle_type_id":"4","last_reported":1736176161,"current_range_meters":33600,"station_id":"ce4bh8p2rcd13ifvqeb0","pricing_plan_id":"cebpf4jnsgd1na2vs0mg"},{"bike_id":"1ce0c9eb-449e-4588-a05e-66465251a319","system_id":"levelo_inurba_marseille","lat":43.29847,"lon":5.38094,"is_reserved":false,"is_disabled":false,"rental_uris":{"android":"levelo://app?vid=1ce0c9eb-449e-4588-a05e-66465251a319","ios":"levelo://app?vid=1ce0c9eb-449e-4588-a05e-66465251a319"},"vehicle_type_id":"4","last_reported":1736176161,"current_range_meters":38800,"station_id":"ce4bgip2rcd13ifvqbb0","pricing_plan_id":"cebpf4jnsgd1na2vs0mg"},{"bike_id":"dbc19177-1458-48d6-ab97-9610f8b2b976","system_id":"levelo_inurba_marseille","lat":43.30425,"lon":5.3975,"is_reserved":false,"is_disabled":false,"rental_uris":{"android":"levelo://app?vid=dbc19177-1458-48d6-ab97-9610f8b2b976","ios":"levelo://app?vid=dbc19177-1458-48d6-ab97-9610f8b2b976"},"vehicle_type_id":"4","last_reported":1736176161,"current_range_meters":38800,"station_id":"ce4bh092rcd13ifvqd20","pricing_plan_id":"cebpf4jnsgd1na2vs0mg"},{"bike_id":"0bcfea18-61ca-412d-bded-b63f59943884","system_id":"levelo_inurba_marseille","lat":43.2862,"lon":5.35096,"is_reserved":false,"is_disabled":true,"rental_uris":{"android":"levelo://app?vid=0bcfea18-61ca-412d-bded-b63f59943884","ios":"levelo://app?vid=0bcfea18-61ca-412d-bded-b63f59943884"},"vehicle_type_id":"4","last_reported":1736176161,"current_range_meters":32800,"station_id":"ce4bhch2rcd13ifvqeug","pricing_plan_id":"cebpf4jnsgd1na2vs0mg"},{"bike_id":"5befd006-a601-4f1d-8fbe-6e419c854ac0","system_id":"levelo_inurba_marseille","lat":43.24063,"lon":5.37725,"is_reserved":false,"is_disabled":false,"rental_uris":{"android":"levelo://app?vid=5befd006-a601-4f1d-8fbe-6e419c854ac0","ios":"levelo://app?vid=5befd006-a601-4f1d-8fbe-6e419c854ac0"},"vehicle_type_id":"4","last_reported":1736176161,"current_range_meters":38800,"station_id":"ce4bhnp2rcd13ifvqgvg","pricing_plan_id":"cebpf4jnsgd1na2vs0mg"},{"bike_id":"01844f2c-8e2d-4e7b-84eb-c284d12438cb","system_id":"levelo_inurba_marseille","lat":43.28083,"lon":5.39658,"is_reserved":false,"is_disabled":false,"rental_uris":{"android":"levelo://app?vid=01844f2c-8e2d-4e7b-84eb-c284d12438cb","ios":"levelo://app?vid=01844f2c-8e2d-4e7b-84eb-c284d12438cb"},"vehicle_type_id":"4","last_reported":1736176161,"current_range_meters":38800,"station_id":"ce4bho12rcd13ifvqh2g","pricing_plan_id":"cebpf4jnsgd1na2vs0mg"},{"bike_id":"7562f339-56d8-4118-bdd3-6b172b456992","system_id":"levelo_inurba_marseille","lat":43.2991,"lon":5.37477,"is_reserved":false,"is_disabled":false,"rental_uris":{"android":"levelo://app?vid=7562f339-56d8-4118-bdd3-6b172b456992","ios":"levelo://app?vid=7562f339-56d8-4118-bdd3-6b172b456992"},"vehicle_type_id":"4","last_reported":1736176161,"current_range_meters":22400,"station_id":"ce4bgjh2rcd13ifvqbg0","pricing_plan_id":"cebpf4jnsgd1na2vs0mg"},{"bike_id":"414a0497-0469-49d7-8aa3-79fce197c4bb","system_id":"levelo_inurba_marseille","lat":43.31264,"lon":5.36845,"is_reserved":false,"is_disabled":false,"rental_uris":{"android":"levelo://app?vid=414a0497-0469-49d7-8aa3-79fce197c4bb","ios":"levelo://app?vid=414a0497-0469-49d7-8aa3-79fce197c4bb"},"vehicle_type_id":"4","last_reported":1736176161,"current_range_meters":38800,"station_id":"ce4bgl92rcd13ifvqbq0","pricing_plan_id":"cebpf4jnsgd1na2vs0mg"},{"bike_id":"03630410-cff2-41ca-8ab4-df6ebc45a627","system_id":"levelo_inurba_marseille","lat":43.30162,"lon":5.38122,"is_reserved":false,"is_disabled":true,"rental_uris":{"android":"levelo://app?vid=03630410-cff2-41ca-8ab4-df6ebc45a627","ios":"levelo://app?vid=03630410-cff2-41ca-8ab4-df6ebc45a627"},"vehicle_type_id":"4","last_reported":1736176161,"current_range_meters":36800,"station_id":"ce4bgjp2rcd13ifvqbh0","pricing_plan_id":"cebpf4jnsgd1na2vs0mg"},{"bike_id":"848571f8-713d-43b7-8532-226899c73429","system_id":"levelo_inurba_marseille","lat":43.24178,"lon":5.39722,"is_reserved":false,"is_disabled":false,"rental_uris":{"android":"levelo://app?vid=848571f8-713d-43b7-8532-226899c73429","ios":"levelo://app?vid=848571f8-713d-43b7-8532-226899c73429"},"vehicle_type_id":"4","last_reported":1736176161,"current_range_meters":39200,"station_id":"ce4bhn12rcd13ifvqgpg","pricing_plan_id":"cebpf4jnsgd1na2vs0mg"},{"bike_id":"266d97a0-8b6a-4815-8e1e-a29e516886ab","system_id":"levelo_inurba_marseille","lat":43.32374,"lon":5.36778,"is_reserved":false,"is_disabled":false,"rental_uris":{"android":"levelo://app?vid=266d97a0-8b6a-4815-8e1e-a29e516886ab","ios":"levelo://app?vid=266d97a0-8b6a-4815-8e1e-a29e516886ab"},"vehicle_type_id":"4","last_reported":1736176161,"current_range_meters":27600,"station_id":"ce4bhsh2rcd13ifvqi2g","pricing_plan_id":"cebpf4jnsgd1na2vs0mg"},{"bike_id":"bc5b5855-1cf6-4cdc-af1a-e3906d45046d","system_id":"levelo_inurba_marseille","lat":43.249999,"lon":5.389279,"is_reserved":false,"is_disabled":false,"rental_uris":{"android":"levelo://app?vid=bc5b5855-1cf6-4cdc-af1a-e3906d45046d","ios":"levelo://app?vid=bc5b5855-1cf6-4cdc-af1a-e3906d45046d"},"vehicle_type_id":"4","last_reported":1736176161,"current_range_meters":27600,"station_id":"ce4bhgp2rcd13ifvqfd0","pricing_plan_id":"cebpf4jnsgd1na2vs0mg"},{"bike_id":"dcd963d8-37bd-4f0b-8ac7-ded697aabe09","system_id":"levelo_inurba_marseille","lat":43.26804,"lon":5.40255,"is_reserved":false,"is_disabled":false,"rental_uris":{"android":"levelo://app?vid=dcd963d8-37bd-4f0b-8ac7-ded697aabe09","ios":"levelo://app?vid=dcd963d8-37bd-4f0b-8ac7-ded697aabe09"},"vehicle_type_id":"4","last_reported":1736176161,"current_range_meters":23200,"station_id":"ce501612rcd8frsf0b60","pricing_plan_id":"cebpf4jnsgd1na2vs0mg"},{"bike_id":"d473f3b4-0f35-41e8-a757-cef6a791d6d9","system_id":"levelo_inurba_marseille","lat":43.28942,"lon":5.39636,"is_reserved":false,"is_disabled":false,"rental_uris":{"android":"levelo://app?vid=d473f3b4-0f35-41e8-a757-cef6a791d6d9","ios":"levelo://app?vid=d473f3b4-0f35-41e8-a757-cef6a791d6d9"},"vehicle_type_id":"4","last_reported":1736176161,"current_range_meters":38000,"station_id":"ce4bh3h2rcd13ifvqdn0","pricing_plan_id":"cebpf4jnsgd1na2vs0mg"},{"bike_id":"2937c8f0-6f06-4c7f-8240-41ad44bc55fa","system_id":"levelo_inurba_marseille","lat":43.231889,"lon":5.39998,"is_reserved":false,"is_disabled":false,"rental_uris":{"android":"levelo://app?vid=2937c8f0-6f06-4c7f-8240-41ad44bc55fa","ios":"levelo://app?vid=2937c8f0-6f06-4c7f-8240-41ad44bc55fa"},"vehicle_type_id":"4","last_reported":1736176161,"current_range_meters":16000,"station_id":"ce4bhn12rcd13ifvqgqg","pricing_plan_id":"cebpf4jnsgd1na2vs0mg"},{"bike_id":"b8555c2a-52b3-4fd5-83d9-1546d45ee669","system_id":"levelo_inurba_marseille","lat":43.27209,"lon":5.39177,"is_reserved":false,"is_disabled":false,"rental_uris":{"android":"levelo://app?vid=b8555c2a-52b3-4fd5-83d9-1546d45ee669","ios":"levelo://app?vid=b8555c2a-52b3-4fd5-83d9-1546d45ee669"},"vehicle_type_id":"4","last_reported":1736176161,"current_range_meters":35600,"station_id":"ce4bhhp2rcd13ifvqfm0","pricing_plan_id":"cebpf4jnsgd1na2vs0mg"},{"bike_id":"efaac073-0042-47ef-98ca-9e2ef1fc5fd4","system_id":"levelo_inurba_marseille","lat":43.32331,"lon":5.40623,"is_reserved":false,"is_disabled":false,"rental_uris":{"android":"levelo://app?vid=efaac073-0042-47ef-98ca-9e2ef1fc5fd4","ios":"levelo://app?vid=efaac073-0042-47ef-98ca-9e2ef1fc5fd4"},"vehicle_type_id":"4","last_reported":1736176161,"current_range_meters":28000,"station_id":"ce4bhq92rcd13ifvqhjg","pricing_plan_id":"cebpf4jnsgd1na2vs0mg"},{"bike_id":"a08bb803-2e43-4c2e-835c-80814db6204b","system_id":"levelo_inurba_marseille","lat":43.240811,"lon":5.377355,"is_reserved":false,"is_disabled":false,"rental_uris":{"android":"levelo://app?vid=a08bb803-2e43-4c2e-835c-80814db6204b","ios":"levelo://app?vid=a08bb803-2e43-4c2e-835c-80814db6204b"},"vehicle_type_id":"4","last_reported":1736176161,"current_range_meters":36400,"station_id":"ce4bhnp2rcd13ifvqgvg","pricing_plan_id":"cebpf4jnsgd1na2vs0mg"},{"bike_id":"f49298c6-b208-404d-bb0c-160ccbda2eed","system_id":"levelo_inurba_marseille","lat":43.27991,"lon":5.40047,"is_reserved":false,"is_disabled":true,"rental_uris":{"android":"levelo://app?vid=f49298c6-b208-404d-bb0c-160ccbda2eed","ios":"levelo://app?vid=f49298c6-b208-404d-bb0c-160ccbda2eed"},"vehicle_type_id":"4","last_reported":1736176161,"current_range_meters":35600,"station_id":"ce4bho92rcd13ifvqh4g","pricing_plan_id":"cebpf4jnsgd1na2vs0mg"},{"bike_id":"d014f699-d84d-436b-b3bf-8c059d18ea89","system_id":"levelo_inurba_marseille","lat":43.22919,"lon":5.3538,"is_reserved":false,"is_disabled":false,"rental_uris":{"android":"levelo://app?vid=d014f699-d84d-436b-b3bf-8c059d18ea89","ios":"levelo://app?vid=d014f699-d84d-436b-b3bf-8c059d18ea89"},"vehicle_type_id":"4","last_reported":1736176161,"current_range_meters":11200,"station_id":"cpo3532slgdg3j2ikp40","pricing_plan_id":"cebpf4jnsgd1na2vs0mg"},{"bike_id":"fc6818e2-9c10-4020-916c-666f3cfcff4c","system_id":"levelo_inurba_marseille","lat":43.27308,"lon":5.39086,"is_reserved":false,"is_disabled":false,"rental_uris":{"android":"levelo://app?vid=fc6818e2-9c10-4020-916c-666f3cfcff4c","ios":"levelo://app?vid=fc6818e2-9c10-4020-916c-666f3cfcff4c"},"vehicle_type_id":"4","last_reported":1736176161,"current_range_meters":35600,"station_id":"ce4bhgp2rcd13ifvqfe0","pricing_plan_id":"cebpf4jnsgd1na2vs0mg"},{"bike_id":"955387a8-4a47-4691-946f-78754c88504b","system_id":"levelo_inurba_marseille","lat":43.232,"lon":5.3551,"is_reserved":false,"is_disabled":false,"rental_uris":{"android":"levelo://app?vid=955387a8-4a47-4691-946f-78754c88504b","ios":"levelo://app?vid=955387a8-4a47-4691-946f-78754c88504b"},"vehicle_type_id":"4","last_reported":1736176161,"current_range_meters":38800,"station_id":"ce4bhu92rcd13ifvqi70","pricing_plan_id":"cebpf4jnsgd1na2vs0mg"},{"bike_id":"ef72cdb4-465d-4178-b952-49906f159c48","system_id":"levelo_inurba_marseille","lat":43.28157,"lon":5.42639,"is_reserved":false,"is_disabled":false,"rental_uris":{"android":"levelo://app?vid=ef72cdb4-465d-4178-b952-49906f159c48","ios":"levelo://app?vid=ef72cdb4-465d-4178-b952-49906f159c48"},"vehicle_type_id":"4","last_reported":1736176161,"current_range_meters":38800,"station_id":"ce4bhnh2rcd13ifvqgug","pricing_plan_id":"cebpf4jnsgd1na2vs0mg"},{"bike_id":"0559c789-e5d8-405e-9e71-82dd7b4cbebe","system_id":"levelo_inurba_marseille","lat":43.2958,"lon":5.39971,"is_reserved":false,"is_disabled":false,"rental_uris":{"android":"levelo://app?vid=0559c789-e5d8-405e-9e71-82dd7b4cbebe","ios":"levelo://app?vid=0559c789-e5d8-405e-9e71-82dd7b4cbebe"},"vehicle_type_id":"4","last_reported":1736176161,"current_range_meters":27200,"station_id":"ce4bh312rcd13ifvqdj0","pricing_plan_id":"cebpf4jnsgd1na2vs0mg"},{"bike_id":"f949af9a-2683-4ec9-b4bf-168b31b3bcb2","system_id":"levelo_inurba_marseille","lat":43.246461,"lon":5.389256,"is_reserved":false,"is_disabled":false,"rental_uris":{"android":"levelo://app?vid=f949af9a-2683-4ec9-b4bf-168b31b3bcb2","ios":"levelo://app?vid=f949af9a-2683-4ec9-b4bf-168b31b3bcb2"},"vehicle_type_id":"4","last_reported":1736176161,"current_range_meters":22800,"station_id":"ce4bhg12rcd13ifvqf60","pricing_plan_id":"cebpf4jnsgd1na2vs0mg"},{"bike_id":"5716fd4e-02bd-4a7d-b0ae-b602c555354f","system_id":"levelo_inurba_marseille","lat":43.29093,"lon":5.38163,"is_reserved":false,"is_disabled":true,"rental_uris":{"android":"levelo://app?vid=5716fd4e-02bd-4a7d-b0ae-b602c555354f","ios":"levelo://app?vid=5716fd4e-02bd-4a7d-b0ae-b602c555354f"},"vehicle_type_id":"4","last_reported":1736176161,"current_range_meters":0,"station_id":"ce4bh512rcd13ifvqe2g","pricing_plan_id":"cebpf4jnsgd1na2vs0mg"},{"bike_id":"53411885-b6b6-4d09-8b86-5cd14a10d273","system_id":"levelo_inurba_marseille","lat":43.29581,"lon":5.37517,"is_reserved":false,"is_disabled":false,"rental_uris":{"android":"levelo://app?vid=53411885-b6b6-4d09-8b86-5cd14a10d273","ios":"levelo://app?vid=53411885-b6b6-4d09-8b86-5cd14a10d273"},"vehicle_type_id":"4","last_reported":1736176161,"current_range_meters":38400,"station_id":"ce4bgh92rcd13ifvqb50","pricing_plan_id":"cebpf4jnsgd1na2vs0mg"},{"bike_id":"e7b4e768-5ca8-4bca-a5f2-e9d9e1fef9dd","system_id":"levelo_inurba_marseille","lat":43.29613,"lon":5.37722,"is_reserved":false,"is_disabled":false,"rental_uris":{"android":"levelo://app?vid=e7b4e768-5ca8-4bca-a5f2-e9d9e1fef9dd","ios":"levelo://app?vid=e7b4e768-5ca8-4bca-a5f2-e9d9e1fef9dd"},"vehicle_type_id":"4","last_reported":1736176161,"current_range_meters":36800,"station_id":"ce4bgi92rcd13ifvqb90","pricing_plan_id":"cebpf4jnsgd1na2vs0mg"},{"bike_id":"57a17258-8383-4e09-ab01-03e1aac9564f","system_id":"levelo_inurba_marseille","lat":43.27498,"lon":5.42447,"is_reserved":false,"is_disabled":false,"rental_uris":{"android":"levelo://app?vid=57a17258-8383-4e09-ab01-03e1aac9564f","ios":"levelo://app?vid=57a17258-8383-4e09-ab01-03e1aac9564f"},"vehicle_type_id":"4","last_reported":1736176161,"current_range_meters":16400,"station_id":"ce4bhn92rcd13ifvqgrg","pricing_plan_id":"cebpf4jnsgd1na2vs0mg"},{"bike_id":"a0f52a77-2968-414d-8f71-291812cb835e","system_id":"levelo_inurba_marseille","lat":43.25721,"lon":5.41104,"is_reserved":false,"is_disabled":false,"rental_uris":{"android":"levelo://app?vid=a0f52a77-2968-414d-8f71-291812cb835e","ios":"levelo://app?vid=a0f52a77-2968-414d-8f71-291812cb835e"},"vehicle_type_id":"4","last_reported":1736176161,"current_range_meters":27600,"station_id":"ce4bhkp2rcd13ifvqgd0","pricing_plan_id":"cebpf4jnsgd1na2vs0mg"},{"bike_id":"79a57d82-25d7-4438-9590-ec42c1b5d03b","system_id":"levelo_inurba_marseille","lat":43.29656,"lon":5.37154,"is_reserved":false,"is_disabled":false,"rental_uris":{"android":"levelo://app?vid=79a57d82-25d7-4438-9590-ec42c1b5d03b","ios":"levelo://app?vid=79a57d82-25d7-4438-9590-ec42c1b5d03b"},"vehicle_type_id":"4","last_reported":1736176161,"current_range_meters":38800,"station_id":"ce4bgnh2rcd13ifvqc0g","pricing_plan_id":"cebpf4jnsgd1na2vs0mg"},{"bike_id":"1307f9da-ff9b-48a7-93be-7ab8cbbfc9be","system_id":"levelo_inurba_marseille","lat":43.25084,"lon":5.39507,"is_reserved":false,"is_disabled":false,"rental_uris":{"android":"levelo://app?vid=1307f9da-ff9b-48a7-93be-7ab8cbbfc9be","ios":"levelo://app?vid=1307f9da-ff9b-48a7-93be-7ab8cbbfc9be"},"vehicle_type_id":"4","last_reported":1736176161,"current_range_meters":38800,"station_id":"ce4bhm12rcd13ifvqgkg","pricing_plan_id":"cebpf4jnsgd1na2vs0mg"},{"bike_id":"a9b1f8d4-1482-4857-b213-9fc52c82453f","system_id":"levelo_inurba_marseille","lat":43.30206,"lon":5.39469,"is_reserved":false,"is_disabled":true,"rental_uris":{"android":"levelo://app?vid=a9b1f8d4-1482-4857-b213-9fc52c82453f","ios":"levelo://app?vid=a9b1f8d4-1482-4857-b213-9fc52c82453f"},"vehicle_type_id":"4","last_reported":1736176161,"current_range_meters":1600,"station_id":"ce4bh0p2rcd13ifvqd70","pricing_plan_id":"cebpf4jnsgd1na2vs0mg"},{"bike_id":"1aac9582-8be4-4243-ac4c-ecbacd655c9d","system_id":"levelo_inurba_marseille","lat":43.3054,"lon":5.36558,"is_reserved":false,"is_disabled":false,"rental_uris":{"android":"levelo://app?vid=1aac9582-8be4-4243-ac4c-ecbacd655c9d","ios":"levelo://app?vid=1aac9582-8be4-4243-ac4c-ecbacd655c9d"},"vehicle_type_id":"4","last_reported":1736176161,"current_range_meters":38800,"station_id":"ce4bgs12rcd13ifvqcag","pricing_plan_id":"cebpf4jnsgd1na2vs0mg"},{"bike_id":"e4fb0db6-c070-4f7c-b34e-a54f29d45562","system_id":"levelo_inurba_marseille","lat":43.27982,"lon":5.41668,"is_reserved":false,"is_disabled":false,"rental_uris":{"android":"levelo://app?vid=e4fb0db6-c070-4f7c-b34e-a54f29d45562","ios":"levelo://app?vid=e4fb0db6-c070-4f7c-b34e-a54f29d45562"},"vehicle_type_id":"4","last_reported":1736176161,"current_range_meters":9600,"station_id":"ce4bho12rcd13ifvqh1g","pricing_plan_id":"cebpf4jnsgd1na2vs0mg"},{"bike_id":"5ccd9219-bb74-4866-8ab3-e0b8d4a98a85","system_id":"levelo_inurba_marseille","lat":43.24708,"lon":5.38125,"is_reserved":false,"is_disabled":false,"rental_uris":{"android":"levelo://app?vid=5ccd9219-bb74-4866-8ab3-e0b8d4a98a85","ios":"levelo://app?vid=5ccd9219-bb74-4866-8ab3-e0b8d4a98a85"},"vehicle_type_id":"4","last_reported":1736176161,"current_range_meters":36400,"station_id":"","pricing_plan_id":"cebpf4jnsgd1na2vs0mg"},{"bike_id":"70d1fae7-1346-4be5-88c1-c1dd75c31512","system_id":"levelo_inurba_marseille","lat":43.26065,"lon":5.39411,"is_reserved":false,"is_disabled":false,"rental_uris":{"android":"levelo://app?vid=70d1fae7-1346-4be5-88c1-c1dd75c31512","ios":"levelo://app?vid=70d1fae7-1346-4be5-88c1-c1dd75c31512"},"vehicle_type_id":"4","last_reported":1736176161,"current_range_meters":24800,"station_id":"ce4bhh92rcd13ifvqfj0","pricing_plan_id":"cebpf4jnsgd1na2vs0mg"},{"bike_id":"0ac58852-3b58-46f1-b228-69b9ab9a1823","system_id":"levelo_inurba_marseille","lat":43.26058,"lon":5.39397,"is_reserved":false,"is_disabled":false,"rental_uris":{"android":"levelo://app?vid=0ac58852-3b58-46f1-b228-69b9ab9a1823","ios":"levelo://app?vid=0ac58852-3b58-46f1-b228-69b9ab9a1823"},"vehicle_type_id":"4","last_reported":1736176161,"current_range_meters":33200,"station_id":"ce4bhh92rcd13ifvqfj0","pricing_plan_id":"cebpf4jnsgd1na2vs0mg"},{"bike_id":"ea7bebe3-4aff-4a01-b28d-c9b866182ae3","system_id":"levelo_inurba_marseille","lat":43.30817,"lon":5.39208,"is_reserved":false,"is_disabled":true,"rental_uris":{"android":"levelo://app?vid=ea7bebe3-4aff-4a01-b28d-c9b866182ae3","ios":"levelo://app?vid=ea7bebe3-4aff-4a01-b28d-c9b866182ae3"},"vehicle_type_id":"4","last_reported":1736176161,"current_range_meters":32400,"station_id":"","pricing_plan_id":"cebpf4jnsgd1na2vs0mg"},{"bike_id":"f2e1fa51-fcd8-4866-b986-2f817e0da2ad","system_id":"levelo_inurba_marseille","lat":43.30957,"lon":5.39041,"is_reserved":false,"is_disabled":false,"rental_uris":{"android":"levelo://app?vid=f2e1fa51-fcd8-4866-b986-2f817e0da2ad","ios":"levelo://app?vid=f2e1fa51-fcd8-4866-b986-2f817e0da2ad"},"vehicle_type_id":"4","last_reported":1736176161,"current_range_meters":24400,"station_id":"ce4bgup2rcd13ifvqco0","pricing_plan_id":"cebpf4jnsgd1na2vs0mg"},{"bike_id":"a8304853-007a-4c87-bbb4-ac3c77fb92b1","system_id":"levelo_inurba_marseille","lat":43.28621,"lon":5.35097,"is_reserved":false,"is_disabled":false,"rental_uris":{"android":"levelo://app?vid=a8304853-007a-4c87-bbb4-ac3c77fb92b1","ios":"levelo://app?vid=a8304853-007a-4c87-bbb4-ac3c77fb92b1"},"vehicle_type_id":"4","last_reported":1736176161,"current_range_meters":14800,"station_id":"ce4bhch2rcd13ifvqeug","pricing_plan_id":"cebpf4jnsgd1na2vs0mg"},{"bike_id":"0c19c7d9-f005-4498-be99-e5caf9c11fd3","system_id":"levelo_inurba_marseille","lat":43.24066,"lon":5.37733,"is_reserved":false,"is_disabled":false,"rental_uris":{"android":"levelo://app?vid=0c19c7d9-f005-4498-be99-e5caf9c11fd3","ios":"levelo://app?vid=0c19c7d9-f005-4498-be99-e5caf9c11fd3"},"vehicle_type_id":"4","last_reported":1736176161,"current_range_meters":38800,"station_id":"ce4bhnp2rcd13ifvqgvg","pricing_plan_id":"cebpf4jnsgd1na2vs0mg"},{"bike_id":"1317a7a9-0f27-439f-96c3-f32bde5d695d","system_id":"levelo_inurba_marseille","lat":43.28419,"lon":5.3498,"is_reserved":false,"is_disabled":false,"rental_uris":{"android":"levelo://app?vid=1317a7a9-0f27-439f-96c3-f32bde5d695d","ios":"levelo://app?vid=1317a7a9-0f27-439f-96c3-f32bde5d695d"},"vehicle_type_id":"4","last_reported":1736176161,"current_range_meters":32400,"station_id":"ce4bhbh2rcd13ifvqepg","pricing_plan_id":"cebpf4jnsgd1na2vs0mg"},{"bike_id":"2855533d-45d4-43d3-920d-11b0da9c226b","system_id":"levelo_inurba_marseille","lat":43.30473,"lon":5.37913,"is_reserved":false,"is_disabled":false,"rental_uris":{"android":"levelo://app?vid=2855533d-45d4-43d3-920d-11b0da9c226b","ios":"levelo://app?vid=2855533d-45d4-43d3-920d-11b0da9c226b"},"vehicle_type_id":"4","last_reported":1736176161,"current_range_meters":16800,"station_id":"ce4bgup2rcd13ifvqcn0","pricing_plan_id":"cebpf4jnsgd1na2vs0mg"},{"bike_id":"006f0c7f-dacd-403e-a453-4991fa4a3dcc","system_id":"levelo_inurba_marseille","lat":43.29445,"lon":5.39744,"is_reserved":false,"is_disabled":false,"rental_uris":{"android":"levelo://app?vid=006f0c7f-dacd-403e-a453-4991fa4a3dcc","ios":"levelo://app?vid=006f0c7f-dacd-403e-a453-4991fa4a3dcc"},"vehicle_type_id":"4","last_reported":1736176161,"current_range_meters":28400,"station_id":"ce4bh3h2rcd13ifvqdo0","pricing_plan_id":"cebpf4jnsgd1na2vs0mg"},{"bike_id":"4123aba5-06eb-42a4-9196-c0536401746a","system_id":"levelo_inurba_marseille","lat":43.2892,"lon":5.38389,"is_reserved":false,"is_disabled":false,"rental_uris":{"android":"levelo://app?vid=4123aba5-06eb-42a4-9196-c0536401746a","ios":"levelo://app?vid=4123aba5-06eb-42a4-9196-c0536401746a"},"vehicle_type_id":"4","last_reported":1736176161,"current_range_meters":38800,"station_id":"ce4bh612rcd13ifvqe6g","pricing_plan_id":"cebpf4jnsgd1na2vs0mg"},{"bike_id":"eab4cc49-8deb-4a4a-a3f9-1dc709db20a6","system_id":"levelo_inurba_marseille","lat":43.2937,"lon":5.37853,"is_reserved":false,"is_disabled":false,"rental_uris":{"android":"levelo://app?vid=eab4cc49-8deb-4a4a-a3f9-1dc709db20a6","ios":"levelo://app?vid=eab4cc49-8deb-4a4a-a3f9-1dc709db20a6"},"vehicle_type_id":"4","last_reported":1736176161,"current_range_meters":16400,"station_id":"ce4bgjh2rcd13ifvqbf0","pricing_plan_id":"cebpf4jnsgd1na2vs0mg"},{"bike_id":"959db628-46ca-4a33-8b91-992698db696c","system_id":"levelo_inurba_marseille","lat":43.29174,"lon":5.37155,"is_reserved":false,"is_disabled":false,"rental_uris":{"android":"levelo://app?vid=959db628-46ca-4a33-8b91-992698db696c","ios":"levelo://app?vid=959db628-46ca-4a33-8b91-992698db696c"},"vehicle_type_id":"4","last_reported":1736176161,"current_range_meters":39200,"station_id":"ce4bha92rcd13ifvqeh0","pricing_plan_id":"cebpf4jnsgd1na2vs0mg"},{"bike_id":"68718a12-ff84-4ece-9441-164a64035f89","system_id":"levelo_inurba_marseille","lat":43.24818,"lon":5.37459,"is_reserved":false,"is_disabled":false,"rental_uris":{"android":"levelo://app?vid=68718a12-ff84-4ece-9441-164a64035f89","ios":"levelo://app?vid=68718a12-ff84-4ece-9441-164a64035f89"},"vehicle_type_id":"4","last_reported":1736176161,"current_range_meters":18000,"station_id":"ce4bhgh2rcd13ifvqfb0","pricing_plan_id":"cebpf4jnsgd1na2vs0mg"},{"bike_id":"aad4a535-b699-4598-8dc1-ecd244317ca1","system_id":"levelo_inurba_marseille","lat":43.231881,"lon":5.399891,"is_reserved":false,"is_disabled":false,"rental_uris":{"android":"levelo://app?vid=aad4a535-b699-4598-8dc1-ecd244317ca1","ios":"levelo://app?vid=aad4a535-b699-4598-8dc1-ecd244317ca1"},"vehicle_type_id":"4","last_reported":1736176161,"current_range_meters":14800,"station_id":"ce4bhn12rcd13ifvqgqg","pricing_plan_id":"cebpf4jnsgd1na2vs0mg"},{"bike_id":"502640b0-6cb7-4c6d-90ec-2af993602272","system_id":"levelo_inurba_marseille","lat":43.31267,"lon":5.40161,"is_reserved":false,"is_disabled":false,"rental_uris":{"android":"levelo://app?vid=502640b0-6cb7-4c6d-90ec-2af993602272","ios":"levelo://app?vid=502640b0-6cb7-4c6d-90ec-2af993602272"},"vehicle_type_id":"4","last_reported":1736176161,"current_range_meters":18800,"station_id":"ce4bh092rcd13ifvqd30","pricing_plan_id":"cebpf4jnsgd1na2vs0mg"},{"bike_id":"d8b6ad16-2edf-48ee-aba4-9801c618dedc","system_id":"levelo_inurba_marseille","lat":43.24089,"lon":5.37746,"is_reserved":false,"is_disabled":true,"rental_uris":{"android":"levelo://app?vid=d8b6ad16-2edf-48ee-aba4-9801c618dedc","ios":"levelo://app?vid=d8b6ad16-2edf-48ee-aba4-9801c618dedc"},"vehicle_type_id":"4","last_reported":1736176161,"current_range_meters":37600,"station_id":"ce4bhnp2rcd13ifvqgvg","pricing_plan_id":"cebpf4jnsgd1na2vs0mg"},{"bike_id":"ad6a3624-3479-4903-b62b-8609c0dd2c65","system_id":"levelo_inurba_marseille","lat":43.30419,"lon":5.39753,"is_reserved":false,"is_disabled":false,"rental_uris":{"android":"levelo://app?vid=ad6a3624-3479-4903-b62b-8609c0dd2c65","ios":"levelo://app?vid=ad6a3624-3479-4903-b62b-8609c0dd2c65"},"vehicle_type_id":"4","last_reported":1736176161,"current_range_meters":38800,"station_id":"ce4bh092rcd13ifvqd20","pricing_plan_id":"cebpf4jnsgd1na2vs0mg"},{"bike_id":"e42ce9e2-4827-4399-a604-236e4b9f28b1","system_id":"levelo_inurba_marseille","lat":43.2454,"lon":5.39493,"is_reserved":false,"is_disabled":false,"rental_uris":{"android":"levelo://app?vid=e42ce9e2-4827-4399-a604-236e4b9f28b1","ios":"levelo://app?vid=e42ce9e2-4827-4399-a604-236e4b9f28b1"},"vehicle_type_id":"4","last_reported":1736176161,"current_range_meters":38800,"station_id":"ce4bhlp2rcd13ifvqgjg","pricing_plan_id":"cebpf4jnsgd1na2vs0mg"},{"bike_id":"ea7db1c7-a90b-415c-a265-91f4b751ba54","system_id":"levelo_inurba_marseille","lat":43.24101,"lon":5.37784,"is_reserved":false,"is_disabled":true,"rental_uris":{"android":"levelo://app?vid=ea7db1c7-a90b-415c-a265-91f4b751ba54","ios":"levelo://app?vid=ea7db1c7-a90b-415c-a265-91f4b751ba54"},"vehicle_type_id":"4","last_reported":1736176161,"current_range_meters":38800,"station_id":"ce4bhnp2rcd13ifvqgvg","pricing_plan_id":"cebpf4jnsgd1na2vs0mg"},{"bike_id":"3dd502fd-1792-4ea1-bfe7-8a0fe1e21daf","system_id":"levelo_inurba_marseille","lat":43.30899,"lon":5.396307,"is_reserved":false,"is_disabled":false,"rental_uris":{"android":"levelo://app?vid=3dd502fd-1792-4ea1-bfe7-8a0fe1e21daf","ios":"levelo://app?vid=3dd502fd-1792-4ea1-bfe7-8a0fe1e21daf"},"vehicle_type_id":"4","last_reported":1736176161,"current_range_meters":38800,"station_id":"ce4bh012rcd13ifvqcv0","pricing_plan_id":"cebpf4jnsgd1na2vs0mg"},{"bike_id":"d28ca21f-50a3-436f-8e9e-95c17d961216","system_id":"levelo_inurba_marseille","lat":43.2588,"lon":5.39905,"is_reserved":false,"is_disabled":false,"rental_uris":{"android":"levelo://app?vid=d28ca21f-50a3-436f-8e9e-95c17d961216","ios":"levelo://app?vid=d28ca21f-50a3-436f-8e9e-95c17d961216"},"vehicle_type_id":"4","last_reported":1736176161,"current_range_meters":11200,"station_id":"ce4bhl92rcd13ifvqghg","pricing_plan_id":"cebpf4jnsgd1na2vs0mg"},{"bike_id":"c1450a19-505d-43e7-962b-0b3c73271fd6","system_id":"levelo_inurba_marseille","lat":43.31709,"lon":5.3773,"is_reserved":false,"is_disabled":false,"rental_uris":{"android":"levelo://app?vid=c1450a19-505d-43e7-962b-0b3c73271fd6","ios":"levelo://app?vid=c1450a19-505d-43e7-962b-0b3c73271fd6"},"vehicle_type_id":"4","last_reported":1736176161,"current_range_meters":25200,"station_id":"ce4bgth2rcd13ifvqch0","pricing_plan_id":"cebpf4jnsgd1na2vs0mg"},{"bike_id":"c34186b6-c483-4279-b1ef-8c4ee6feb58d","system_id":"levelo_inurba_marseille","lat":43.24393,"lon":5.3706,"is_reserved":false,"is_disabled":false,"rental_uris":{"android":"levelo://app?vid=c34186b6-c483-4279-b1ef-8c4ee6feb58d","ios":"levelo://app?vid=c34186b6-c483-4279-b1ef-8c4ee6feb58d"},"vehicle_type_id":"4","last_reported":1736176161,"current_range_meters":38800,"station_id":"ce4bhhh2rcd13ifvqfk0","pricing_plan_id":"cebpf4jnsgd1na2vs0mg"},{"bike_id":"5adbf63d-7a34-4e20-995e-d016dc1dab17","system_id":"levelo_inurba_marseille","lat":43.29631,"lon":5.40599,"is_reserved":false,"is_disabled":false,"rental_uris":{"android":"levelo://app?vid=5adbf63d-7a34-4e20-995e-d016dc1dab17","ios":"levelo://app?vid=5adbf63d-7a34-4e20-995e-d016dc1dab17"},"vehicle_type_id":"4","last_reported":1736176161,"current_range_meters":38000,"station_id":"ce4bh0h2rcd13ifvqd60","pricing_plan_id":"cebpf4jnsgd1na2vs0mg"},{"bike_id":"97a064ee-2668-4692-88e6-91bc25808f0e","system_id":"levelo_inurba_marseille","lat":43.28251,"lon":5.35092,"is_reserved":false,"is_disabled":true,"rental_uris":{"android":"levelo://app?vid=97a064ee-2668-4692-88e6-91bc25808f0e","ios":"levelo://app?vid=97a064ee-2668-4692-88e6-91bc25808f0e"},"vehicle_type_id":"4","last_reported":1736176161,"current_range_meters":7200,"station_id":"ce4bhbp2rcd13ifvqerg","pricing_plan_id":"cebpf4jnsgd1na2vs0mg"},