{"last_updated":1701450412,"ttl":30,"version":"2.2","data":{"bikes":[{"bike_id":"84ec9708-7075-49bd-9ec4-b4c31da69540","system_id":"levelo_inurba_marseille","lat":43.313391,"lon":5.36706,"is_reserved":false,"is_disabled":false,"rental_uris":{"android":"levelo://app?vid=84ec9708-7075-49bd-9ec4-b4c31da69540","ios":"levelo://app?vid=84ec9708-7075-49bd-9ec4-b4c31da69540"},"vehicle_type_id":"4","last_reported":1701450412,"current_range_meters":22800,"station_id":"ce4bgr92rcd13ifvqc6g","pricing_plan_id":"free"},{"bike_id":"3b70541b-c94b-40c4-a8af-6d33ea678dc9","system_id":"levelo_inurba_marseille","lat":43.31233,"lon":5.3685,"is_reserved":false,"is_disabled":false,"rental_uris":{"android":"levelo://app?vid=3b70541b-c94b-40c4-a8af-6d33ea678dc9","ios":"levelo://app?vid=3b70541b-c94b-40c4-a8af-6d33ea678dc9"},"vehicle_type_id":"4","last_reported":1701450412,"current_range_meters":0,"station_id":"ce4bgl92rcd13ifvqbq0","pricing_plan_id":"free"},{"bike_id":"53ed9fd4-5e5c-49c2-af04-14c6e43b4885","system_id":"levelo_inurba_marseille","lat":43.312239,"lon":5.368562,"is_reserved":false,"is_disabled":false,"rental_uris":{"android":"levelo://app?vid=53ed9fd4-5e5c-49c2-af04-14c6e43b4885","ios":"levelo://app?vid=53ed9fd4-5e5c-49c2-af04-14c6e43b4885"},"vehicle_type_id":"4","last_reported":1701450412,"current_range_meters":13600,"station_id":"ce4bgl92rcd13ifvqbq0","pricing_plan_id":"free"},{"bike_id":"ae0de818-3425-44c3-aaf5-8d5c5799fe68","system_id":"levelo_inurba_marseille","lat":43.312239,"lon":5.368562,"is_reserved":false,"is_disabled":false,"rental_uris":{"android":"levelo://app?vid=ae0de818-3425-44c3-aaf5-8d5c5799fe68","ios":"levelo://app?vid=ae0de818-3425-44c3-aaf5-8d5c5799fe68"},"vehicle_type_id":"4","last_reported":1701450412,"current_range_meters":8800,"station_id":"ce4bgl92rcd13ifvqbq0","pricing_plan_id":"free"},{"bike_id":"8f355682-a2de-4596-bb86-b2e58eb18a29","system_id":"levelo_inurba_marseille","lat":43.309076,"lon":5.368465,"is_reserved":false,"is_disabled":false,"rental_uris":{"android":"levelo://app?vid=8f355682-a2de-4596-bb86-b2e58eb18a29","ios":"levelo://app?vid=8f355682-a2de-4596-bb86-b2e58eb18a29"},"vehicle_type_id":"4","last_reported":1701450412,"current_range_meters":18800,"station_id":"ce4bgn92rcd13ifvqbvg","pricing_plan_id":"free"},{"bike_id":"1a6f84f2-b33f-4398-878d-c1c5639747df","system_id":"levelo_inurba_marseille","lat":43.309076,"lon":5.368465,"is_reserved":false,"is_disabled":false,"rental_uris":{"android":"levelo://app?vid=1a6f84f2-b33f-4398-878d-c1c5639747df","ios":"levelo://app?vid=1a6f84f2-b33f-4398-878d-c1c5639747df"},"vehicle_type_id":"4","last_reported":1701450412,"current_range_meters":4800,"station_id":"ce4bgn92rcd13ifvqbvg","pricing_plan_id":"free"},{"bike_id":"1f62da95-03e4-420d-a6c3-6cd22d12815e","system_id":"levelo_inurba_marseille","lat":43.314811,"lon":5.373104,"is_reserved":false,"is_disabled":false,"rental_uris":{"android":"levelo://app?vid=1f62da95-03e4-420d-a6c3-6cd22d12815e","ios":"levelo://app?vid=1f62da95-03e4-420d-a6c3-6cd22d12815e"},"vehicle_type_id":"4","last_reported":1701450412,"current_range_meters":0,"station_id":"ce4bgt12rcd13ifvqcd0","pricing_plan_id":"free"},{"bike_id":"2b235e74-5590-4d0c-b694-6a04d88d1c66","system_id":"levelo_inurba_marseille","lat":43.309039,"lon":5.371797,"is_reserved":false,"is_disabled":false,"rental_uris":{"android":"levelo://app?vid=2b235e74-5590-4d0c-b694-6a04d88d1c66","ios":"levelo://app?vid=2b235e74-5590-4d0c-b694-6a04d88d1c66"},"vehicle_type_id":"4","last_reported":1701450412,"current_range_meters":0,"station_id":"ce4bguh2rcd13ifvqckg","pricing_plan_id":"free"},{"bike_id":"0fb48ed9-579b-47ae-bd0d-1a50736c51b8","system_id":"levelo_inurba_marseille","lat":43.305989,"lon":5.37225,"is_reserved":false,"is_disabled":false,"rental_uris":{"android":"levelo://app?vid=0fb48ed9-579b-47ae-bd0d-1a50736c51b8","ios":"levelo://app?vid=0fb48ed9-579b-47ae-bd0d-1a50736c51b8"},"vehicle_type_id":"4","last_reported":1701450412,"current_range_meters":14000,"station_id":"ce4bgqh2rcd13ifvqc4g","pricing_plan_id":"free"},{"bike_id":"7bdbcfe9-924e-49e5-849f-fb7276f261aa","system_id":"levelo_inurba_marseille","lat":43.310567,"lon":5.377483,"is_reserved":false,"is_disabled":false,"rental_uris":{"android":"levelo://app?vid=7bdbcfe9-924e-49e5-849f-fb7276f261aa","ios":"levelo://app?vid=7bdbcfe9-924e-49e5-849f-fb7276f261aa"},"vehicle_type_id":"4","last_reported":1701450412,"current_range_meters":10000,"station_id":"","pricing_plan_id":"free"},{"bike_id":"f3e78d26-def7-4e22-ad54-42ee11372ec6","system_id":"levelo_inurba_marseille","lat":43.30439,"lon":5.36753,"is_reserved":false,"is_disabled":false,"rental_uris":{"android":"levelo://app?vid=f3e78d26-def7-4e22-ad54-42ee11372ec6","ios":"levelo://app?vid=f3e78d26-def7-4e22-ad54-42ee11372ec6"},"vehicle_type_id":"4","last_reported":1701450412,"current_range_meters":27600,"station_id":"","pricing_plan_id":"free"},{"bike_id":"f427a2c3-6e4a-446b-ae2f-9be8aa7f4122","system_id":"levelo_inurba_marseille","lat":43.31719,"lon":5.376813,"is_reserved":false,"is_disabled":false,"rental_uris":{"android":"levelo://app?vid=f427a2c3-6e4a-446b-ae2f-9be8aa7f4122","ios":"levelo://app?vid=f427a2c3-6e4a-446b-ae2f-9be8aa7f4122"},"vehicle_type_id":"4","last_reported":1701450412,"current_range_meters":1200,"station_id":"","pricing_plan_id":"free"},{"bike_id":"e913f328-1e31-4c22-bd87-f809ea246de4","system_id":"levelo_inurba_marseille","lat":43.317168,"lon":5.376883,"is_reserved":false,"is_disabled":false,"rental_uris":{"android":"levelo://app?vid=e913f328-1e31-4c22-bd87-f809ea246de4","ios":"levelo://app?vid=e913f328-1e31-4c22-bd87-f809ea246de4"},"vehicle_type_id":"4","last_reported":1701450412,"current_range_meters":3600,"station_id":"","pricing_plan_id":"free"},{"bike_id":"e1a2e5db-60c6-4654-811e-9ef276ab33ef","system_id":"levelo_inurba_marseille","lat":43.307945,"lon":5.376487,"is_reserved":false,"is_disabled":false,"rental_uris":{"android":"levelo://app?vid=e1a2e5db-60c6-4654-811e-9ef276ab33ef","ios":"levelo://app?vid=e1a2e5db-60c6-4654-811e-9ef276ab33ef"},"vehicle_type_id":"4","last_reported":1701450412,"current_range_meters":22000,"station_id":"ce4bgv92rcd13ifvqcq0","pricing_plan_id":"free"},{"bike_id":"cfd3bb51-5657-4943-be4a-4ca2f802bb01","system_id":"levelo_inurba_marseille","lat":43.30806,"lon":5.37673,"is_reserved":false,"is_disabled":false,"rental_uris":{"android":"levelo://app?vid=cfd3bb51-5657-4943-be4a-4ca2f802bb01","ios":"levelo://app?vid=cfd3bb51-5657-4943-be4a-4ca2f802bb01"},"vehicle_type_id":"4","last_reported":1701450412,"current_range_meters":14400,"station_id":"ce4bgv92rcd13ifvqcq0","pricing_plan_id":"free"},{"bike_id":"4424e131-6fff-435f-9a49-93f46fb125d5","system_id":"levelo_inurba_marseille","lat":43.317075,"lon":5.377367,"is_reserved":false,"is_disabled":false,"rental_uris":{"android":"levelo://app?vid=4424e131-6fff-435f-9a49-93f46fb125d5","ios":"levelo://app?vid=4424e131-6fff-435f-9a49-93f46fb125d5"},"vehicle_type_id":"4","last_reported":1701450412,"current_range_meters":32000,"station_id":"ce4bgth2rcd13ifvqch0","pricing_plan_id":"free"},{"bike_id":"46251b67-ff86-48e9-89cd-2c7682a1ca52","system_id":"levelo_inurba_marseille","lat":43.317075,"lon":5.377367,"is_reserved":false,"is_disabled":false,"rental_uris":{"android":"levelo://app?vid=46251b67-ff86-48e9-89cd-2c7682a1ca52","ios":"levelo://app?vid=46251b67-ff86-48e9-89cd-2c7682a1ca52"},"vehicle_type_id":"4","last_reported":1701450412,"current_range_meters":20000,"station_id":"ce4bgth2rcd13ifvqch0","pricing_plan_id":"free"},{"bike_id":"5d7024a4-644a-4c27-8dd6-c7a6262abe5b","system_id":"levelo_inurba_marseille","lat":43.317075,"lon":5.377367,"is_reserved":false,"is_disabled":false,"rental_uris":{"android":"levelo://app?vid=5d7024a4-644a-4c27-8dd6-c7a6262abe5b","ios":"levelo://app?vid=5d7024a4-644a-4c27-8dd6-c7a6262abe5b"},"vehicle_type_id":"4","last_reported":1701450412,"current_range_meters":27200,"station_id":"ce4bgth2rcd13ifvqch0","pricing_plan_id":"free"},{"bike_id":"fb6fd937-527b-4585-9058-0dfdc6436ac8","system_id":"levelo_inurba_marseille","lat":43.31351,"lon":5.37909,"is_reserved":false,"is_disabled":false,"rental_uris":{"android":"levelo://app?vid=fb6fd937-527b-4585-9058-0dfdc6436ac8","ios":"levelo://app?vid=fb6fd937-527b-4585-9058-0dfdc6436ac8"},"vehicle_type_id":"4","last_reported":1701450412,"current_range_meters":24800,"station_id":"","pricing_plan_id":"free"},{"bike_id":"c8e9aea8-c67e-490b-bfaa-52efc9939d7f","system_id":"levelo_inurba_marseille","lat":43.315293,"lon":5.380349,"is_reserved":false,"is_disabled":false,"rental_uris":{"android":"levelo://app?vid=c8e9aea8-c67e-490b-bfaa-52efc9939d7f","ios":"levelo://app?vid=c8e9aea8-c67e-490b-bfaa-52efc9939d7f"},"vehicle_type_id":"4","last_reported":1701450412,"current_range_meters":24000,"station_id":"ce4bhsp2rcd13ifvqi50","pricing_plan_id":"free"},{"bike_id":"e8686491-2569-4258-ba3d-b6271c53c7ed","system_id":"levelo_inurba_marseille","lat":43.308012,"lon":5.381511,"is_reserved":false,"is_disabled":false,"rental_uris":{"android":"levelo://app?vid=e8686491-2569-4258-ba3d-b6271c53c7ed","ios":"levelo://app?vid=e8686491-2569-4258-ba3d-b6271c53c7ed"},"vehicle_type_id":"4","last_reported":1701450412,"current_range_meters":27600,"station_id":"ce4bgt12rcd13ifvqce0","pricing_plan_id":"free"},{"bike_id":"486c4b30-d080-41e8-9d43-31e3c696ad98","system_id":"levelo_inurba_marseille","lat":43.308012,"lon":5.381511,"is_reserved":false,"is_disabled":false,"rental_uris":{"android":"levelo://app?vid=486c4b30-d080-41e8-9d43-31e3c696ad98","ios":"levelo://app?vid=486c4b30-d080-41e8-9d43-31e3c696ad98"},"vehicle_type_id":"4","last_reported":1701450412,"current_range_meters":26800,"station_id":"ce4bgt12rcd13ifvqce0","pricing_plan_id":"free"},{"bike_id":"d288e603-d274-459d-87ae-7fd09fd8ed9a","system_id":"levelo_inurba_marseille","lat":43.312239,"lon":5.368562,"is_reserved":false,"is_disabled":false,"rental_uris":{"android":"levelo://app?vid=d288e603-d274-459d-87ae-7fd09fd8ed9a","ios":"levelo://app?vid=d288e603-d274-459d-87ae-7fd09fd8ed9a"},"vehicle_type_id":"4","last_reported":1701450412,"current_range_meters":18400,"station_id":"ce4bgl92rcd13ifvqbq0","pricing_plan_id":"free"},{"bike_id":"19dcde97-826d-4c77-b8cf-d90ba7f775b0","system_id":"levelo_inurba_marseille","lat":43.324771,"lon":5.36557,"is_reserved":false,"is_disabled":false,"rental_uris":{"android":"levelo://app?vid=19dcde97-826d-4c77-b8cf-d90ba7f775b0","ios":"levelo://app?vid=19dcde97-826d-4c77-b8cf-d90ba7f775b0"},"vehicle_type_id":"4","last_reported":1701450412,"current_range_meters":18000,"station_id":"ce4bhs12rcd13ifvqhvg","pricing_plan_id":"free"},{"bike_id":"e5e3ef87-b714-46a3-bd2a-d99cc5d04fc3","system_id":"levelo_inurba_marseille","lat":43.30143,"lon":5.37413,"is_reserved":false,"is_disabled":false,"rental_uris":{"android":"levelo://app?vid=e5e3ef87-b714-46a3-bd2a-d99cc5d04fc3","ios":"levelo://app?vid=e5e3ef87-b714-46a3-bd2a-d99cc5d04fc3"},"vehicle_type_id":"4","last_reported":1701450412,"current_range_meters":24000,"station_id":"ce4bgs92rcd13ifvqcc0","pricing_plan_id":"free"},{"bike_id":"29e42e0b-4f67-4117-affa-64206f27a0d1","system_id":"levelo_inurba_marseille","lat":43.31994,"lon":5.38151,"is_reserved":false,"is_disabled":false,"rental_uris":{"android":"levelo://app?vid=29e42e0b-4f67-4117-affa-64206f27a0d1","ios":"levelo://app?vid=29e42e0b-4f67-4117-affa-64206f27a0d1"},"vehicle_type_id":"4","last_reported":1701450412,"current_range_meters":20800,"station_id":"ce4bhr12rcd13ifvqhpg","pricing_plan_id":"free"},{"bike_id":"2275aca5-3158-4c2c-8022-ca5d2714bc86","system_id":"levelo_inurba_marseille","lat":43.319997,"lon":5.381594,"is_reserved":false,"is_disabled":false,"rental_uris":{"android":"levelo://app?vid=2275aca5-3158-4c2c-8022-ca5d2714bc86","ios":"levelo://app?vid=2275aca5-3158-4c2c-8022-ca5d2714bc86"},"vehicle_type_id":"4","last_reported":1701450412,"current_range_meters":18400,"station_id":"ce4bhr12rcd13ifvqhpg","pricing_plan_id":"free"},{"bike_id":"c564ba6b-0dd1-4ae9-abfe-67df573acc10","system_id":"levelo_inurba_marseille","lat":43.313571,"lon":5.384829,"is_reserved":false,"is_disabled":false,"rental_uris":{"android":"levelo://app?vid=c564ba6b-0dd1-4ae9-abfe-67df573acc10","ios":"levelo://app?vid=c564ba6b-0dd1-4ae9-abfe-67df573acc10"},"vehicle_type_id":"4","last_reported":1701450412,"current_range_meters":31200,"station_id":"ce4bgt92rcd13ifvqcf0","pricing_plan_id":"free"},{"bike_id":"748d12ab-8e09-4ecd-b2d2-cbe0ea9624f6","system_id":"levelo_inurba_marseille","lat":43.298467,"lon":5.367613,"is_reserved":false,"is_disabled":false,"rental_uris":{"android":"levelo://app?vid=748d12ab-8e09-4ecd-b2d2-cbe0ea9624f6","ios":"levelo://app?vid=748d12ab-8e09-4ecd-b2d2-cbe0ea9624f6"},"vehicle_type_id":"4","last_reported":1701450412,"current_range_meters":10000,"station_id":"","pricing_plan_id":"free"},{"bike_id":"a61e3252-c1b1-4530-829f-67fc1c8a25ec","system_id":"levelo_inurba_marseille","lat":43.305364,"lon":5.384119,"is_reserved":false,"is_disabled":false,"rental_uris":{"android":"levelo://app?vid=a61e3252-c1b1-4530-829f-67fc1c8a25ec","ios":"levelo://app?vid=a61e3252-c1b1-4530-829f-67fc1c8a25ec"},"vehicle_type_id":"4","last_reported":1701450412,"current_range_meters":12800,"station_id":"ce4bgg92rcd13ifvqb30","pricing_plan_id":"free"},{"bike_id":"10e1a6b7-b432-438b-941a-8796b7d2bb54","system_id":"levelo_inurba_marseille","lat":43.31165,"lon":5.38722,"is_reserved":false,"is_disabled":false,"rental_uris":{"android":"levelo://app?vid=10e1a6b7-b432-438b-941a-8796b7d2bb54","ios":"levelo://app?vid=10e1a6b7-b432-438b-941a-8796b7d2bb54"},"vehicle_type_id":"4","last_reported":1701450412,"current_range_meters":0,"station_id":"ce4bgv12rcd13ifvqcp0","pricing_plan_id":"free"},{"bike_id":"e9c2a1db-09ba-458a-8020-96222a840fa4","system_id":"levelo_inurba_marseille","lat":43.322872,"lon":5.382756,"is_reserved":false,"is_disabled":false,"rental_uris":{"android":"levelo://app?vid=e9c2a1db-09ba-458a-8020-96222a840fa4","ios":"levelo://app?vid=e9c2a1db-09ba-458a-8020-96222a840fa4"},"vehicle_type_id":"4","last_reported":1701450412,"current_range_meters":10400,"station_id":"ce4bhr12rcd13ifvqhqg","pricing_plan_id":"free"},{"bike_id":"65073be3-64d5-4947-9113-fd11101b78dd","system_id":"levelo_inurba_marseille","lat":43.322872,"lon":5.382756,"is_reserved":false,"is_disabled":false,"rental_uris":{"android":"levelo://app?vid=65073be3-64d5-4947-9113-fd11101b78dd","ios":"levelo://app?vid=65073be3-64d5-4947-9113-fd11101b78dd"},"vehicle_type_id":"4","last_reported":1701450412,"current_range_meters":12000,"station_id":"ce4bhr12rcd13ifvqhqg","pricing_plan_id":"free"},{"bike_id":"38b36a3d-7fa0-425f-884d-37f0109ceebf","system_id":"levelo_inurba_marseille","lat":43.32836,"lon":5.36694,"is_reserved":false,"is_disabled":false,"rental_uris":{"android":"levelo://app?vid=38b36a3d-7fa0-425f-884d-37f0109ceebf","ios":"levelo://app?vid=38b36a3d-7fa0-425f-884d-37f0109ceebf"},"vehicle_type_id":"4","last_reported":1701450412,"current_range_meters":16800,"station_id":"ce4bhs92rcd13ifvqi0g","pricing_plan_id":"free"},{"bike_id":"ac060853-7b3e-4732-9d6f-f8741122921c","system_id":"levelo_inurba_marseille","lat":43.297163,"lon":5.365866,"is_reserved":false,"is_disabled":false,"rental_uris":{"android":"levelo://app?vid=ac060853-7b3e-4732-9d6f-f8741122921c","ios":"levelo://app?vid=ac060853-7b3e-4732-9d6f-f8741122921c"},"vehicle_type_id":"4","last_reported":1701450412,"current_range_meters":1200,"station_id":"ce4bgn12rcd13ifvqbt0","pricing_plan_id":"free"},{"bike_id":"5983625d-69f5-485f-a399-daec2999c965","system_id":"levelo_inurba_marseille","lat":43.321495,"lon":5.385704,"is_reserved":false,"is_disabled":false,"rental_uris":{"android":"levelo://app?vid=5983625d-69f5-485f-a399-daec2999c965","ios":"levelo://app?vid=5983625d-69f5-485f-a399-daec2999c965"},"vehicle_type_id":"4","last_reported":1701450412,"current_range_meters":5600,"station_id":"","pricing_plan_id":"free"},{"bike_id":"318bc485-2fda-4ae1-98aa-5503ca3fd788","system_id":"levelo_inurba_marseille","lat":43.2968,"lon":5.37291,"is_reserved":false,"is_disabled":false,"rental_uris":{"android":"levelo://app?vid=318bc485-2fda-4ae1-98aa-5503ca3fd788","ios":"levelo://app?vid=318bc485-2fda-4ae1-98aa-5503ca3fd788"},"vehicle_type_id":"4","last_reported":1701450412,"current_range_meters":20400,"station_id":"ce4bgk12rcd13ifvqbj0","pricing_plan_id":"free"},{"bike_id":"d1b54edb-4179-477c-bd05-036dd4f393fe","system_id":"levelo_inurba_marseille","lat":43.29606,"lon":5.36809,"is_reserved":false,"is_disabled":false,"rental_uris":{"android":"levelo://app?vid=d1b54edb-4179-477c-bd05-036dd4f393fe","ios":"levelo://app?vid=d1b54edb-4179-477c-bd05-036dd4f393fe"},"vehicle_type_id":"4","last_reported":1701450412,"current_range_meters":6000,"station_id":"","pricing_plan_id":"free"},{"bike_id":"e01bb988-3e1d-44e3-b1ae-533461a9db11","system_id":"levelo_inurba_marseille","lat":43.309589,"lon":5.390258,"is_reserved":false,"is_disabled":false,"rental_uris":{"android":"levelo://app?vid=e01bb988-3e1d-44e3-b1ae-533461a9db11","ios":"levelo://app?vid=e01bb988-3e1d-44e3-b1ae-533461a9db11"},"vehicle_type_id":"4","last_reported":1701450412,"current_range_meters":1200,"station_id":"ce4bgup2rcd13ifvqco0","pricing_plan_id":"free"},{"bike_id":"e5760148-b8b8-4d24-ac26-eee022e3df48","system_id":"levelo_inurba_marseille","lat":43.309589,"lon":5.390258,"is_reserved":false,"is_disabled":false,"rental_uris":{"android":"levelo://app?vid=e5760148-b8b8-4d24-ac26-eee022e3df48","ios":"levelo://app?vid=e5760148-b8b8-4d24-ac26-eee022e3df48"},"vehicle_type_id":"4","last_reported":1701450412,"current_range_meters":14000,"station_id":"ce4bgup2rcd13ifvqco0","pricing_plan_id":"free"},{"bike_id":"fb67e293-2a53-4ad8-a571-281d6e511e3c","system_id":"levelo_inurba_marseille","lat":43.309589,"lon":5.390258,"is_reserved":false,"is_disabled":false,"rental_uris":{"android":"levelo://app?vid=fb67e293-2a53-4ad8-a571-281d6e511e3c","ios":"levelo://app?vid=fb67e293-2a53-4ad8-a571-281d6e511e3c"},"vehicle_type_id":"4","last_reported":1701450412,"current_range_meters":24400,"station_id":"ce4bgup2rcd13ifvqco0","pricing_plan_id":"free"},{"bike_id":"a7517300-3e9b-466c-8cfe-412c17ceafd5","system_id":"levelo_inurba_marseille","lat":43.309589,"lon":5.390258,"is_reserved":false,"is_disabled":false,"rental_uris":{"android":"levelo://app?vid=a7517300-3e9b-466c-8cfe-412c17ceafd5","ios":"levelo://app?vid=a7517300-3e9b-466c-8cfe-412c17ceafd5"},"vehicle_type_id":"4","last_reported":1701450412,"current_range_meters":0,"station_id":"ce4bgup2rcd13ifvqco0","pricing_plan_id":"free"},{"bike_id":"99263d35-6055-4dd7-9f57-42166970aeba","system_id":"levelo_inurba_marseille","lat":43.317498,"lon":5.390056,"is_reserved":false,"is_disabled":false,"rental_uris":{"android":"levelo://app?vid=99263d35-6055-4dd7-9f57-42166970aeba","ios":"levelo://app?vid=99263d35-6055-4dd7-9f57-42166970aeba"},"vehicle_type_id":"4","last_reported":1701450412,"current_range_meters":400,"station_id":"","pricing_plan_id":"free"},{"bike_id":"b518acf2-82c7-4da6-881e-26eec680c27a","system_id":"levelo_inurba_marseille","lat":43.317557,"lon":5.390173,"is_reserved":false,"is_disabled":false,"rental_uris":{"android":"levelo://app?vid=b518acf2-82c7-4da6-881e-26eec680c27a","ios":"levelo://app?vid=b518acf2-82c7-4da6-881e-26eec680c27a"},"vehicle_type_id":"4","last_reported":1701450412,"current_range_meters":30400,"station_id":"ce4bhqp2rcd13ifvqhng","pricing_plan_id":"free"},{"bike_id":"924ed6f9-6e16-47ad-b0f3-2c783d56abbe","system_id":"levelo_inurba_marseille","lat":43.317533,"lon":5.390193,"is_reserved":false,"is_disabled":false,"rental_uris":{"android":"levelo://app?vid=924ed6f9-6e16-47ad-b0f3-2c783d56abbe","ios":"levelo://app?vid=924ed6f9-6e16-47ad-b0f3-2c783d56abbe"},"vehicle_type_id":"4","last_reported":1701450412,"current_range_meters":14800,"station_id":"ce4bhqp2rcd13ifvqhng","pricing_plan_id":"free"},{"bike_id":"13ca97e5-82b5-4e06-8d78-e9793b7e594e","system_id":"levelo_inurba_marseille","lat":43.297142,"lon":5.379705,"is_reserved":false,"is_disabled":false,"rental_uris":{"android":"levelo://app?vid=13ca97e5-82b5-4e06-8d78-e9793b7e594e","ios":"levelo://app?vid=13ca97e5-82b5-4e06-8d78-e9793b7e594e"},"vehicle_type_id":"4","last_reported":1701450412,"current_range_meters":22400,"station_id":"","pricing_plan_id":"free"},{"bike_id":"81c81765-686e-4ef8-8ba0-60d7276501a3","system_id":"levelo_inurba_marseille","lat":43.3217,"lon":5.38872,"is_reserved":false,"is_disabled":false,"rental_uris":{"android":"levelo://app?vid=81c81765-686e-4ef8-8ba0-60d7276501a3","ios":"levelo://app?vid=81c81765-686e-4ef8-8ba0-60d7276501a3"},"vehicle_type_id":"4","last_reported":1701450412,"current_range_meters":25600,"station_id":"","pricing_plan_id":"free"},{"bike_id":"1543f747-0cbd-4321-a65f-547a55674136","system_id":"levelo_inurba_marseille","lat":43.32174,"lon":5.3887,"is_reserved":false,"is_disabled":false,"rental_uris":{"android":"levelo://app?vid=1543f747-0cbd-4321-a65f-547a55674136","ios":"levelo://app?vid=1543f747-0cbd-4321-a65f-547a55674136"},"vehicle_type_id":"4","last_reported":1701450412,"current_range_meters":0,"station_id":"","pricing_plan_id":"free"},{"bike_id":"40178997-5018-4edd-a23f-a6afe0a75fd3","system_id":"levelo_inurba_marseille","lat":43.29609,"lon":5.37742,"is_reserved":false,"is_disabled":false,"rental_uris":{"android":"levelo://app?vid=40178997-5018-4edd-a23f-a6afe0a75fd3","ios":"levelo://app?vid=40178997-5018-4edd-a23f-a6afe0a75fd3"},"vehicle_type_id":"4","last_reported":1701450412,"current_range_meters":24000,"station_id":"ce4bgi92rcd13ifvqb90","pricing_plan_id":"free"},{"bike_id":"77eb70d5-38db-4511-adb3-fd99718a85fd","system_id":"levelo_inurba_marseille","lat":43.295506,"lon":5.376668,"is_reserved":false,"is_disabled":false,"rental_uris":{"android":"levelo://app?vid=77eb70d5-38db-4511-adb3-fd99718a85fd","ios":"levelo://app?vid=77eb70d5-38db-4511-adb3-fd99718a85fd"},"vehicle_type_id":"4","last_reported":1701450412,"current_range_meters":12800,"station_id":"ce4bgi92rcd13ifvqb90","pricing_plan_id":"free"},{"bike_id":"4d61b5bd-e108-418a-ac44-53ad562b9ae1","system_id":"levelo_inurba_marseille","lat":43.286961,"lon":5.373785,"is_reserved":false,"is_disabled":false,"rental_uris":{"android":"levelo://app?vid=4d61b5bd-e108-418a-ac44-53ad562b9ae1","ios":"levelo://app?vid=4d61b5bd-e108-418a-ac44-53ad562b9ae1"},"vehicle_type_id":"4","last_reported":1701450412,"current_range_meters":5600,"station_id":"ce4bh3p2rcd13ifvqdq0","pricing_plan_id":"free"},{"bike_id":"1544d9e4-bd4d-406a-97c9-d461caead6fc","system_id":"levelo_inurba_marseille","lat":43.293009,"lon":5.374584,"is_reserved":false,"is_disabled":false,"rental_uris":{"android":"levelo://app?vid=1544d9e4-bd4d-406a-97c9-d461caead6fc","ios":"levelo://app?vid=1544d9e4-bd4d-406a-97c9-d461caead6fc"},"vehicle_type_id":"4","last_reported":1701450412,"current_range_meters":18400,"station_id":"ce4bgi12rcd13ifvqb70","pricing_plan_id":"free"},{"bike_id":"1db4f201-e901-4bb0-86b0-15744c5e7020","system_id":"levelo_inurba_marseille","lat":43.293009,"lon":5.374584,"is_reserved":false,"is_disabled":false,"rental_uris":{"android":"levelo://app?vid=1db4f201-e901-4bb0-86b0-15744c5e7020","ios":"levelo://app?vid=1db4f201-e901-4bb0-86b0-15744c5e7020"},"vehicle_type_id":"4","last_reported":1701450412,"current_range_meters":11200,"station_id":"ce4bgi12rcd13ifvqb70","pricing_plan_id":"free"},{"bike_id":"eaa0e7e7-2390-47fa-909b-7b240952cbef","system_id":"levelo_inurba_marseille","lat":43.325319,"lon":5.389418,"is_reserved":false,"is_disabled":false,"rental_uris":{"android":"levelo://app?vid=eaa0e7e7-2390-47fa-909b-7b240952cbef","ios":"levelo://app?vid=eaa0e7e7-2390-47fa-909b-7b240952cbef"},"vehicle_type_id":"4","last_reported":1701450412,"current_range_meters":18400,"station_id":"","pricing_plan_id":"free"},{"bike_id":"3527b26a-33e5-4c5a-9a3b-78253c9cf186","system_id":"levelo_inurba_marseille","lat":43.2936,"lon":5.37835,"is_reserved":false,"is_disabled":false,"rental_uris":{"android":"levelo://app?vid=3527b26a-33e5-4c5a-9a3b-78253c9cf186","ios":"levelo://app?vid=3527b26a-33e5-4c5a-9a3b-78253c9cf186"},"vehicle_type_id":"4","last_reported":1701450412,"current_range_meters":24000,"station_id":"ce4bgjh2rcd13ifvqbf0","pricing_plan_id":"free"},{"bike_id":"635a75b2-9f71-405f-a3be-ad0ca0a0f27f","system_id":"levelo_inurba_marseille","lat":43.2936,"lon":5.37835,"is_reserved":false,"is_disabled":false,"rental_uris":{"android":"levelo://app?vid=635a75b2-9f71-405f-a3be-ad0ca0a0f27f","ios":"levelo://app?vid=635a75b2-9f71-405f-a3be-ad0ca0a0f27f"},"vehicle_type_id":"4","last_reported":1701450412,"current_range_meters":21200,"station_id":"ce4bgjh2rcd13ifvqbf0","pricing_plan_id":"free"},{"bike_id":"895c6bc5-b764-4bc4-8ab7-602edf611389","system_id":"levelo_inurba_marseille","lat":43.292311,"lon":5.360731,"is_reserved":false,"is_disabled":false,"rental_uris":{"android":"levelo://app?vid=895c6bc5-b764-4bc4-8ab7-602edf611389","ios":"levelo://app?vid=895c6bc5-b764-4bc4-8ab7-602edf611389"},"vehicle_type_id":"4","last_reported":1701450412,"current_range_meters":22800,"station_id":"ce4bhbh2rcd13ifvqeqg","pricing_plan_id":"free"},{"bike_id":"559ff1b5-3975-4eda-989f-69b456d2615d","system_id":"levelo_inurba_marseille","lat":43.298764,"lon":5.388973,"is_reserved":false,"is_disabled":false,"rental_uris":{"android":"levelo://app?vid=559ff1b5-3975-4eda-989f-69b456d2615d","ios":"levelo://app?vid=559ff1b5-3975-4eda-989f-69b456d2615d"},"vehicle_type_id":"4","last_reported":1701450412,"current_range_meters":30800,"station_id":"ce4bh392rcd13ifvqdl0","pricing_plan_id":"free"},{"bike_id":"0b24cbe0-b448-461b-bc84-357b2248fdb6","system_id":"levelo_inurba_marseille","lat":43.298764,"lon":5.388973,"is_reserved":false,"is_disabled":false,"rental_uris":{"android":"levelo://app?vid=0b24cbe0-b448-461b-bc84-357b2248fdb6","ios":"levelo://app?vid=0b24cbe0-b448-461b-bc84-357b2248fdb6"},"vehicle_type_id":"4","last_reported":1701450412,"current_range_meters":12800,"station_id":"ce4bh392rcd13ifvqdl0","pricing_plan_id":"free"},{"bike_id":"4d7962ad-5fc2-4033-b48c-b67f15266a10","system_id":"levelo_inurba_marseille","lat":43.29196,"lon":5.35807,"is_reserved":false,"is_disabled":false,"rental_uris":{"android":"levelo://app?vid=4d7962ad-5fc2-4033-b48c-b67f15266a10","ios":"levelo://app?vid=4d7962ad-5fc2-4033-b48c-b67f15266a10"},"vehicle_type_id":"4","last_reported":1701450412,"current_range_meters":12000,"station_id":"ce4bhb12rcd13ifvqel0","pricing_plan_id":"free"},{"bike_id":"e90bd8aa-2e6d-4927-ac01-1e961cc54033","system_id":"levelo_inurba_marseille","lat":43.31323,"lon":5.39693,"is_reserved":false,"is_disabled":false,"rental_uris":{"android":"levelo://app?vid=e90bd8aa-2e6d-4927-ac01-1e961cc54033","ios":"levelo://app?vid=e90bd8aa-2e6d-4927-ac01-1e961cc54033"},"vehicle_type_id":"4","last_reported":1701450412,"current_range_meters":15200,"station_id":"ce4bgvp2rcd13ifvqcu0","pricing_plan_id":"free"},{"bike_id":"fb9fc0b6-da60-4633-a17c-da4b32f24fec","system_id":"levelo_inurba_marseille","lat":43.313291,"lon":5.396838,"is_reserved":false,"is_disabled":false,"rental_uris":{"android":"levelo://app?vid=fb9fc0b6-da60-4633-a17c-da4b32f24fec","ios":"levelo://app?vid=fb9fc0b6-da60-4633-a17c-da4b32f24fec"},"vehicle_type_id":"4","last_reported":1701450412,"current_range_meters":8000,"station_id":"ce4bgvp2rcd13ifvqcu0","pricing_plan_id":"free"},{"bike_id":"04ce55b5-c992-4a51-990a-c2c9fbf28dd4","system_id":"levelo_inurba_marseille","lat":43.290624,"lon":5.359245,"is_reserved":false,"is_disabled":false,"rental_uris":{"android":"levelo://app?vid=04ce55b5-c992-4a51-990a-c2c9fbf28dd4","ios":"levelo://app?vid=04ce55b5-c992-4a51-990a-c2c9fbf28dd4"},"vehicle_type_id":"4","last_reported":1701450412,"current_range_meters":26800,"station_id":"ce4bha92rcd13ifvqeg0","pricing_plan_id":"free"},{"bike_id":"1760b87b-243c-4b3e-ab60-b50883ca62b3","system_id":"levelo_inurba_marseille","lat":43.289468,"lon":5.363719,"is_reserved":false,"is_disabled":false,"rental_uris":{"android":"levelo://app?vid=1760b87b-243c-4b3e-ab60-b50883ca62b3","ios":"levelo://app?vid=1760b87b-243c-4b3e-ab60-b50883ca62b3"},"vehicle_type_id":"4","last_reported":1701450412,"current_range_meters":26800,"station_id":"ce4bhc92rcd13ifvqetg","pricing_plan_id":"free"},{"bike_id":"c1e40a5d-fbfe-4126-852a-4cd0d0a3ab6a","system_id":"levelo_inurba_marseille","lat":43.292642,"lon":5.384254,"is_reserved":false,"is_disabled":false,"rental_uris":{"android":"levelo://app?vid=c1e40a5d-fbfe-4126-852a-4cd0d0a3ab6a","ios":"levelo://app?vid=c1e40a5d-fbfe-4126-852a-4cd0d0a3ab6a"},"vehicle_type_id":"4","last_reported":1701450412,"current_range_meters":10400,"station_id":"ce4bh692rcd13ifvqea0","pricing_plan_id":"free"},{"bike_id":"38ae9c82-9a41-4ac1-b2d2-5113423a015d","system_id":"levelo_inurba_marseille","lat":43.292642,"lon":5.384254,"is_reserved":false,"is_disabled":false,"rental_uris":{"android":"levelo://app?vid=38ae9c82-9a41-4ac1-b2d2-5113423a015d","ios":"levelo://app?vid=38ae9c82-9a41-4ac1-b2d2-5113423a015d"},"vehicle_type_id":"4","last_reported":1701450412,"current_range_meters":26400,"station_id":"ce4bh692rcd13ifvqea0","pricing_plan_id":"free"},{"bike_id":"cc7a2b08-9058-4ddb-ac68-9c628de198a1","system_id":"levelo_inurba_marseille","lat":43.30423,"lon":5.39747,"is_reserved":false,"is_disabled":false,"rental_uris":{"android":"levelo://app?vid=cc7a2b08-9058-4ddb-ac68-9c628de198a1","ios":"levelo://app?vid=cc7a2b08-9058-4ddb-ac68-9c628de198a1"},"vehicle_type_id":"4","last_reported":1701450412,"current_range_meters":7200,"station_id":"ce4bh092rcd13ifvqd20","pricing_plan_id":"free"},{"bike_id":"3f497728-a186-4d9e-918a-137bae511397","system_id":"levelo_inurba_marseille","lat":43.290104,"lon":5.356111,"is_reserved":false,"is_disabled":false,"rental_uris":{"android":"levelo://app?vid=3f497728-a186-4d9e-918a-137bae511397","ios":"levelo://app?vid=3f497728-a186-4d9e-918a-137bae511397"},"vehicle_type_id":"4","last_reported":1701450412,"current_range_meters":4000,"station_id":"ce4bhb92rcd13ifvqen0","pricing_plan_id":"free"},{"bike_id":"90408da1-0be5-41e7-a5d4-4fb647bb89a6","system_id":"levelo_inurba_marseille","lat":43.3304,"lon":5.38928,"is_reserved":false,"is_disabled":false,"rental_uris":{"android":"levelo://app?vid=90408da1-0be5-41e7-a5d4-4fb647bb89a6","ios":"levelo://app?vid=90408da1-0be5-41e7-a5d4-4fb647bb89a6"},"vehicle_type_id":"4","last_reported":1701450412,"current_range_meters":23200,"station_id":"ce4bhr92rcd13ifvqhrg","pricing_plan_id":"free"},{"bike_id":"52dc0a41-c034-4cb5-a8ca-c7452daff2f9","system_id":"levelo_inurba_marseille","lat":43.33042,"lon":5.389285,"is_reserved":false,"is_disabled":false,"rental_uris":{"android":"levelo://app?vid=52dc0a41-c034-4cb5-a8ca-c7452daff2f9","ios":"levelo://app?vid=52dc0a41-c034-4cb5-a8ca-c7452daff2f9"},"vehicle_type_id":"4","last_reported":1701450412,"current_range_meters":16000,"station_id":"ce4bhr92rcd13ifvqhrg","pricing_plan_id":"free"},{"bike_id":"6ae7adbc-0f0a-4d66-896e-6068a94f4f6f","system_id":"levelo_inurba_marseille","lat":43.290104,"lon":5.356111,"is_reserved":false,"is_disabled":false,"rental_uris":{"android":"levelo://app?vid=6ae7adbc-0f0a-4d66-896e-6068a94f4f6f","ios":"levelo://app?vid=6ae7adbc-0f0a-4d66-896e-6068a94f4f6f"},"vehicle_type_id":"4","last_reported":1701450412,"current_range_meters":16400,"station_id":"ce4bhb92rcd13ifvqen0","pricing_plan_id":"free"},{"bike_id":"7c0d628e-eecc-41a8-bb07-4929ac0d07bc","system_id":"levelo_inurba_marseille","lat":43.289468,"lon":5.363719,"is_reserved":false,"is_disabled":false,"rental_uris":{"android":"levelo://app?vid=7c0d628e-eecc-41a8-bb07-4929ac0d07bc","ios":"levelo://app?vid=7c0d628e-eecc-41a8-bb07-4929ac0d07bc"},"vehicle_type_id":"4","last_reported":1701450412,"current_range_meters":16400,"station_id":"ce4bhc92rcd13ifvqetg","pricing_plan_id":"free"},{"bike_id":"fdc2fc9e-2f29-4c49-bcea-7a560d4446be","system_id":"levelo_inurba_marseille","lat":43.33052,"lon":5.3906,"is_reserved":false,"is_disabled":false,"rental_uris":{"android":"levelo://app?vid=fdc2fc9e-2f29-4c49-bcea-7a560d4446be","ios":"levelo://app?vid=fdc2fc9e-2f29-4c49-bcea-7a560d4446be"},"vehicle_type_id":"4","last_reported":1701450412,"current_range_meters":12400,"station_id":"","pricing_plan_id":"free"},{"bike_id":"f71bec80-1512-44cd-95d2-3d7fdee5df30","system_id":"levelo_inurba_marseille","lat":43.33053,"lon":5.39064,"is_reserved":false,"is_disabled":false,"rental_uris":{"android":"levelo://app?vid=f71bec80-1512-44cd-95d2-3d7fdee5df30","ios":"levelo://app?vid=f71bec80-1512-44cd-95d2-3d7fdee5df30"},"vehicle_type_id":"4","last_reported":1701450412,"current_range_meters":15200,"station_id":"","pricing_plan_id":"free"},{"bike_id":"f66c9213-dd9b-4e84-b7da-8d1f252b7578","system_id":"levelo_inurba_marseille","lat":43.288723,"lon":5.35834,"is_reserved":false,"is_disabled":false,"rental_uris":{"android":"levelo://app?vid=f66c9213-dd9b-4e84-b7da-8d1f252b7578","ios":"levelo://app?vid=f66c9213-dd9b-4e84-b7da-8d1f252b7578"},"vehicle_type_id":"4","last_reported":1701450412,"current_range_meters":0,"station_id":"ce4bhb12rcd13ifvqem0","pricing_plan_id":"free"},{"bike_id":"d6f45f16-dec9-43f2-aa48-6d10bb9b9741","system_id":"levelo_inurba_marseille","lat":43.293321,"lon":5.388665,"is_reserved":false,"is_disabled":false,"rental_uris":{"android":"levelo://app?vid=d6f45f16-dec9-43f2-aa48-6d10bb9b9741","ios":"levelo://app?vid=d6f45f16-dec9-43f2-aa48-6d10bb9b9741"},"vehicle_type_id":"4","last_reported":1701450412,"current_range_meters":0,"station_id":"","pricing_plan_id":"free"},{"bike_id":"d111c337-9cc4-4d41-9830-2429c5998627","system_id":"levelo_inurba_marseille","lat":43.306412,"lon":5.401035,"is_reserved":false,"is_disabled":false,"rental_uris":{"android":"levelo://app?vid=d111c337-9cc4-4d41-9830-2429c5998627","ios":"levelo://app?vid=d111c337-9cc4-4d41-9830-2429c5998627"},"vehicle_type_id":"4","last_reported":1701450412,"current_range_meters":24800,"station_id":"ce4bh112rcd13ifvqda0","pricing_plan_id":"free"},{"bike_id":"920728c3-d140-4eb7-9410-cfa127aa414b","system_id":"levelo_inurba_marseille","lat":43.33743,"lon":5.3746,"is_reserved":false,"is_disabled":false,"rental_uris":{"android":"levelo://app?vid=920728c3-d140-4eb7-9410-cfa127aa414b","ios":"levelo://app?vid=920728c3-d140-4eb7-9410-cfa127aa414b"},"vehicle_type_id":"4","last_reported":1701450412,"current_range_meters":28800,"station_id":"","pricing_plan_id":"free"},{"bike_id":"94907f9a-2d73-4196-93bb-c5df451ea335","system_id":"levelo_inurba_marseille","lat":43.33747,"lon":5.37449,"is_reserved":false,"is_disabled":false,"rental_uris":{"android":"levelo://app?vid=94907f9a-2d73-4196-93bb-c5df451ea335","ios":"levelo://app?vid=94907f9a-2d73-4196-93bb-c5df451ea335"},"vehicle_type_id":"4","last_reported":1701450412,"current_range_meters":23200,"station_id":"","pricing_plan_id":"free"},{"bike_id":"b4c1aa2e-4d41-4d24-b2bb-d7385c0eb780","system_id":"levelo_inurba_marseille","lat":43.30935,"lon":5.40147,"is_reserved":false,"is_disabled":false,"rental_uris":{"android":"levelo://app?vid=b4c1aa2e-4d41-4d24-b2bb-d7385c0eb780","ios":"levelo://app?vid=b4c1aa2e-4d41-4d24-b2bb-d7385c0eb780"},"vehicle_type_id":"4","last_reported":1701450412,"current_range_meters":9200,"station_id":"ce4bgvp2rcd13ifvqct0","pricing_plan_id":"free"},{"bike_id":"4d2a9e0f-ee97-450b-a787-b1f222dcb3fa","system_id":"levelo_inurba_marseille","lat":43.33754,"lon":5.37465,"is_reserved":false,"is_disabled":false,"rental_uris":{"android":"levelo://app?vid=4d2a9e0f-ee97-450b-a787-b1f222dcb3fa","ios":"levelo://app?vid=4d2a9e0f-ee97-450b-a787-b1f222dcb3fa"},"vehicle_type_id":"4","last_reported":1701450412,"current_range_meters":29200,"station_id":"","pricing_plan_id":"free"},{"bike_id":"01bdb905-19d1-43c9-bdb1-9718f69f28c6","system_id":"levelo_inurba_marseille","lat":43.33759,"lon":5.37445,"is_reserved":false,"is_disabled":false,"rental_uris":{"android":"levelo://app?vid=01bdb905-19d1-43c9-bdb1-9718f69f28c6","ios":"levelo://app?vid=01bdb905-19d1-43c9-bdb1-9718f69f28c6"},"vehicle_type_id":"4","last_reported":1701450412,"current_range_meters":15200,"station_id":"","pricing_plan_id":"free"},{"bike_id":"ec129568-4b18-4cd9-a8dd-9b9b9137ae2c","system_id":"levelo_inurba_marseille","lat":43.286591,"lon":5.363346,"is_reserved":false,"is_disabled":false,"rental_uris":{"android":"levelo://app?vid=ec129568-4b18-4cd9-a8dd-9b9b9137ae2c","ios":"levelo://app?vid=ec129568-4b18-4cd9-a8dd-9b9b9137ae2c"},"vehicle_type_id":"4","last_reported":1701450412,"current_range_meters":31200,"station_id":"ce4bhah2rcd13ifvqej0","pricing_plan_id":"free"},{"bike_id":"f5cb98aa-91b2-4aaa-b991-9f1736f6cf24","system_id":"levelo_inurba_marseille","lat":43.286591,"lon":5.363346,"is_reserved":false,"is_disabled":false,"rental_uris":{"android":"levelo://app?vid=f5cb98aa-91b2-4aaa-b991-9f1736f6cf24","ios":"levelo://app?vid=f5cb98aa-91b2-4aaa-b991-9f1736f6cf24"},"vehicle_type_id":"4","last_reported":1701450412,"current_range_meters":29200,"station_id":"ce4bhah2rcd13ifvqej0","pricing_plan_id":"free"},{"bike_id":"9558aabb-77c6-4894-9dad-72f034ef2f95","system_id":"levelo_inurba_marseille","lat":43.286657,"lon":5.363419,"is_reserved":false,"is_disabled":false,"rental_uris":{"android":"levelo://app?vid=9558aabb-77c6-4894-9dad-72f034ef2f95","ios":"levelo://app?vid=9558aabb-77c6-4894-9dad-72f034ef2f95"},"vehicle_type_id":"4","last_reported":1701450412,"current_range_meters":18800,"station_id":"","pricing_plan_id":"free"},{"bike_id":"02320703-7c60-4009-b694-0bd276a92b2b","system_id":"levelo_inurba_marseille","lat":43.298681,"lon":5.397225,"is_reserved":false,"is_disabled":false,"rental_uris":{"android":"levelo://app?vid=02320703-7c60-4009-b694-0bd276a92b2b","ios":"levelo://app?vid=02320703-7c60-4009-b694-0bd276a92b2b"},"vehicle_type_id":"4","last_reported":1701450412,"current_range_meters":18000,"station_id":"ce4bh0h2rcd13ifvqd50","pricing_plan_id":"free"},{"bike_id":"cff66fbd-ee2f-4a8d-bb54-d64ffecac928","system_id":"levelo_inurba_marseille","lat":43.286591,"lon":5.363346,"is_reserved":false,"is_disabled":false,"rental_uris":{"android":"levelo://app?vid=cff66fbd-ee2f-4a8d-bb54-d64ffecac928","ios":"levelo://app?vid=cff66fbd-ee2f-4a8d-bb54-d64ffecac928"},"vehicle_type_id":"4","last_reported":1701450412,"current_range_meters":26000,"station_id":"ce4bhah2rcd13ifvqej0","pricing_plan_id":"free"},{"bike_id":"efd887ad-9cc7-4a10-99a8-58d7b6fd4a09","system_id":"levelo_inurba_marseille","lat":43.286961,"lon":5.373785,"is_reserved":false,"is_disabled":false,"rental_uris":{"android":"levelo://app?vid=efd887ad-9cc7-4a10-99a8-58d7b6fd4a09","ios":"levelo://app?vid=efd887ad-9cc7-4a10-99a8-58d7b6fd4a09"},"vehicle_type_id":"4","last_reported":1701450412,"current_range_meters":5600,"station_id":"ce4bh3p2rcd13ifvqdq0","pricing_plan_id":"free"},{"bike_id":"1a345e56-7cff-4220-8699-d1271cae2dcd","system_id":"levelo_inurba_marseille","lat":43.295196,"lon":5.39397,"is_reserved":false,"is_disabled":false,"rental_uris":{"android":"levelo://app?vid=1a345e56-7cff-4220-8699-d1271cae2dcd","ios":"levelo://app?vid=1a345e56-7cff-4220-8699-d1271cae2dcd"},"vehicle_type_id":"4","last_reported":1701450412,"current_range_meters":24000,"station_id":"ce4bh292rcd13ifvqdf0","pricing_plan_id":"free"},{"bike_id":"888a61e1-0eba-4525-bd7b-3db928d4ca23","system_id":"levelo_inurba_marseille","lat":43.286039,"lon":5.370681,"is_reserved":false,"is_disabled":false,"rental_uris":{"android":"levelo://app?vid=888a61e1-0eba-4525-bd7b-3db928d4ca23","ios":"levelo://app?vid=888a61e1-0eba-4525-bd7b-3db928d4ca23"},"vehicle_type_id":"4","last_reported":1701450412,"current_range_meters":2000,"station_id":"ce4bht12rcd13ifvqi60","pricing_plan_id":"free"},{"bike_id":"51e80092-f709-463a-96a2-8b25587b914d","system_id":"levelo_inurba_marseille","lat":43.286039,"lon":5.370681,"is_reserved":false,"is_disabled":false,"rental_uris":{"android":"levelo://app?vid=51e80092-f709-463a-96a2-8b25587b914d","ios":"levelo://app?vid=51e80092-f709-463a-96a2-8b25587b914d"},"vehicle_type_id":"4","last_reported":1701450412,"current_range_meters":28400,"station_id":"ce4bht12rcd13ifvqi60","pricing_plan_id":"free"},{"bike_id":"6ec219dd-e2f0-43e6-97be-b9ed2327cf64","system_id":"levelo_inurba_marseille","lat":43.286039,"lon":5.370679,"is_reserved":false,"is_disabled":false,"rental_uris":{"android":"levelo://app?vid=6ec219dd-e2f0-43e6-97be-b9ed2327cf64","ios":"levelo://app?vid=6ec219dd-e2f0-43e6-97be-b9ed2327cf64"},"vehicle_type_id":"4","last_reported":1701450412,"current_range_meters":28800,"station_id":"ce4bht12rcd13ifvqi60","pricing_plan_id":"free"},{"bike_id":"33af8a23-341e-4566-90ec-827871733fd3","system_id":"levelo_inurba_marseille","lat":43.287184,"lon":5.37937,"is_reserved":false,"is_disabled":false,"rental_uris":{"android":"levelo://app?vid=33af8a23-341e-4566-90ec-827871733fd3","ios":"levelo://app?vid=33af8a23-341e-4566-90ec-827871733fd3"},"vehicle_type_id":"4","last_reported":1701450412,"current_range_meters":13600,"station_id":"ce4bh9p2rcd13ifvqec0","pricing_plan_id":"free"},{"bike_id":"ab0a5040-9b0b-456e-9bc8-b22c631ba1b2","system_id":"levelo_inurba_marseille","lat":43.28803,"lon":5.35248,"is_reserved":false,"is_disabled":false,"rental_uris":{"android":"levelo://app?vid=ab0a5040-9b0b-456e-9bc8-b22c631ba1b2","ios":"levelo://app?vid=ab0a5040-9b0b-456e-9bc8-b22c631ba1b2"},"vehicle_type_id":"4","last_reported":1701450412,"current_range_meters":0,"station_id":"","pricing_plan_id":"free"},{"bike_id":"1f1bffd6-7178-4f46-857e-dd857408efdb","system_id":"levelo_inurba_marseille","lat":43.316517,"lon":5.404375,"is_reserved":false,"is_disabled":false,"rental_uris":{"android":"levelo://app?vid=1f1bffd6-7178-4f46-857e-dd857408efdb","ios":"levelo://app?vid=1f1bffd6-7178-4f46-857e-dd857408efdb"},"vehicle_type_id":"4","last_reported":1701450412,"current_range_meters":13600,"station_id":"ce4bh012rcd13ifvqd00","pricing_plan_id":"free"},{"bike_id":"0ae73d83-e72b-4d78-acd8-a548fa777e08","system_id":"levelo_inurba_marseille","lat":43.284538,"lon":5.358657,"is_reserved":false,"is_disabled":false,"rental_uris":{"android":"levelo://app?vid=0ae73d83-e72b-4d78-acd8-a548fa777e08","ios":"levelo://app?vid=0ae73d83-e72b-4d78-acd8-a548fa777e08"},"vehicle_type_id":"4","last_reported":1701450412,"current_range_meters":31600,"station_id":"ce4bhah2rcd13ifvqei0","pricing_plan_id":"free"},{"bike_id":"69f98359-31f8-43ef-a714-10c35cf2d340","system_id":"levelo_inurba_marseille","lat":43.283998,"lon":5.375062,"is_reserved":false,"is_disabled":false,"rental_uris":{"android":"levelo://app?vid=69f98359-31f8-43ef-a714-10c35cf2d340","ios":"levelo://app?vid=69f98359-31f8-43ef-a714-10c35cf2d340"},"vehicle_type_id":"4","last_reported":1701450412,"current_range_meters":17200,"station_id":"ce4bh412rcd13ifvqds0","pricing_plan_id":"free"},{"bike_id":"d8b787cc-b20e-482c-9f6f-be33db9014fa","system_id":"levelo_inurba_marseille","lat":43.283998,"lon":5.375062,"is_reserved":false,"is_disabled":false,"rental_uris":{"android":"levelo://app?vid=d8b787cc-b20e-482c-9f6f-be33db9014fa","ios":"levelo://app?vid=d8b787cc-b20e-482c-9f6f-be33db9014fa"},"vehicle_type_id":"4","last_reported":1701450412,"current_range_meters":16400,"station_id":"ce4bh412rcd13ifvqds0","pricing_plan_id":"free"},{"bike_id":"fc5ce046-0fbc-4d62-adb9-1870286c5f57","system_id":"levelo_inurba_marseille","lat":43.283998,"lon":5.375062,"is_reserved":false,"is_disabled":false,"rental_uris":{"android":"levelo://app?vid=fc5ce046-0fbc-4d62-adb9-1870286c5f57","ios":"levelo://app?vid=fc5ce046-0fbc-4d62-adb9-1870286c5f57"},"vehicle_type_id":"4","last_reported":1701450412,"current_range_meters":21200,"station_id":"ce4bh412rcd13ifvqds0","pricing_plan_id":"free"},{"bike_id":"827f2158-e2a6-4cbc-8927-3bf5b42ac66d","system_id":"levelo_inurba_marseille","lat":43.283998,"lon":5.375062,"is_reserved":false,"is_disabled":false,"rental_uris":{"android":"levelo://app?vid=827f2158-e2a6-4cbc-8927-3bf5b42ac66d","ios":"levelo://app?vid=827f2158-e2a6-4cbc-8927-3bf5b42ac66d"},"vehicle_type_id":"4","last_reported":1701450412,"current_range_meters":25600,"station_id":"ce4bh412rcd13ifvqds0","pricing_plan_id":"free"},{"bike_id":"0df2d81f-637a-43f2-9eb0-05307758be03","system_id":"levelo_inurba_marseille","lat":43.28405,"lon":5.37517,"is_reserved":false,"is_disabled":false,"rental_uris":{"android":"levelo://app?vid=0df2d81f-637a-43f2-9eb0-05307758be03","ios":"levelo://app?vid=0df2d81f-637a-43f2-9eb0-05307758be03"},"vehicle_type_id":"4","last_reported":1701450412,"current_range_meters":18800,"station_id":"ce4bh412rcd13ifvqds0","pricing_plan_id":"free"},{"bike_id":"9ae29fa3-864d-401c-bdf8-124a28bf6592","system_id":"levelo_inurba_marseille","lat":43.28403,"lon":5.37525,"is_reserved":false,"is_disabled":false,"rental_uris":{"android":"levelo://app?vid=9ae29fa3-864d-401c-bdf8-124a28bf6592","ios":"levelo://app?vid=9ae29fa3-864d-401c-bdf8-124a28bf6592"},"vehicle_type_id":"4","last_reported":1701450412,"current_range_meters":19600,"station_id":"ce4bh412rcd13ifvqds0","pricing_plan_id":"free"},{"bike_id":"ab836401-733f-48aa-9609-c614d51f91b4","system_id":"levelo_inurba_marseille","lat":43.286595,"lon":5.386795,"is_reserved":false,"is_disabled":false,"rental_uris":{"android":"levelo://app?vid=ab836401-733f-48aa-9609-c614d51f91b4","ios":"levelo://app?vid=ab836401-733f-48aa-9609-c614d51f91b4"},"vehicle_type_id":"4","last_reported":1701450412,"current_range_meters":24000,"station_id":"ce4bh492rcd13ifvqdug","pricing_plan_id":"free"},{"bike_id":"ebfe6af2-2dca-45a8-ae54-01838e3bde04","system_id":"levelo_inurba_marseille","lat":43.286595,"lon":5.386795,"is_reserved":false,"is_disabled":false,"rental_uris":{"android":"levelo://app?vid=ebfe6af2-2dca-45a8-ae54-01838e3bde04","ios":"levelo://app?vid=ebfe6af2-2dca-45a8-ae54-01838e3bde04"},"vehicle_type_id":"4","last_reported":1701450412,"current_range_meters":4000,"station_id":"ce4bh492rcd13ifvqdug","pricing_plan_id":"free"},{"bike_id":"2ac8072c-c6af-4fad-8a3f-12db322535db","system_id":"levelo_inurba_marseille","lat":43.286595,"lon":5.386795,"is_reserved":false,"is_disabled":false,"rental_uris":{"android":"levelo://app?vid=2ac8072c-c6af-4fad-8a3f-12db322535db","ios":"levelo://app?vid=2ac8072c-c6af-4fad-8a3f-12db322535db"},"vehicle_type_id":"4","last_reported":1701450412,"current_range_meters":23200,"station_id":"ce4bh492rcd13ifvqdug","pricing_plan_id":"free"},{"bike_id":"54328ae2-d175-4455-8539-0920784dc633","system_id":"levelo_inurba_marseille","lat":43.319179,"lon":5.407725,"is_reserved":false,"is_disabled":false,"rental_uris":{"android":"levelo://app?vid=54328ae2-d175-4455-8539-0920784dc633","ios":"levelo://app?vid=54328ae2-d175-4455-8539-0920784dc633"},"vehicle_type_id":"4","last_reported":1701450412,"current_range_meters":20400,"station_id":"ce4bhq12rcd13ifvqhig","pricing_plan_id":"free"},{"bike_id":"f99fc4d8-709b-4cee-a32c-2cdd6f1e8b1e","system_id":"levelo_inurba_marseille","lat":43.337168,"lon":5.391825,"is_reserved":false,"is_disabled":false,"rental_uris":{"android":"levelo://app?vid=f99fc4d8-709b-4cee-a32c-2cdd6f1e8b1e","ios":"levelo://app?vid=f99fc4d8-709b-4cee-a32c-2cdd6f1e8b1e"},"vehicle_type_id":"4","last_reported":1701450412,"current_range_meters":26000,"station_id":"ce4bhr92rcd13ifvqhsg","pricing_plan_id":"free"},{"bike_id":"c2b75dd4-fd63-4d46-8cea-6a0332a16694","system_id":"levelo_inurba_marseille","lat":43.284787,"lon":5.384116,"is_reserved":false,"is_disabled":false,"rental_uris":{"android":"levelo://app?vid=c2b75dd4-fd63-4d46-8cea-6a0332a16694","ios":"levelo://app?vid=c2b75dd4-fd63-4d46-8cea-6a0332a16694"},"vehicle_type_id":"4","last_reported":1701450412,"current_range_meters":19600,"station_id":"ce4bh512rcd13ifvqe3g","pricing_plan_id":"free"},{"bike_id":"8bb243cd-e654-40bf-aca3-20dde78b509a","system_id":"levelo_inurba_marseille","lat":43.29795,"lon":5.404086,"is_reserved":false,"is_disabled":false,"rental_uris":{"android":"levelo://app?vid=8bb243cd-e654-40bf-aca3-20dde78b509a","ios":"levelo://app?vid=8bb243cd-e654-40bf-aca3-20dde78b509a"},"vehicle_type_id":"4","last_reported":1701450412,"current_range_meters":17200,"station_id":"ce4bh112rcd13ifvqd90","pricing_plan_id":"free"},{"bike_id":"ca68dffd-1b55-42dd-a36f-67c8d14159fe","system_id":"levelo_inurba_marseille","lat":43.284219,"lon":5.3497,"is_reserved":false,"is_disabled":false,"rental_uris":{"android":"levelo://app?vid=ca68dffd-1b55-42dd-a36f-67c8d14159fe","ios":"levelo://app?vid=ca68dffd-1b55-42dd-a36f-67c8d14159fe"},"vehicle_type_id":"4","last_reported":1701450412,"current_range_meters":23600,"station_id":"ce4bhbh2rcd13ifvqepg","pricing_plan_id":"free"},{"bike_id":"8d7158fe-7b53-43db-9345-63e12ef4194d","system_id":"levelo_inurba_marseille","lat":43.284219,"lon":5.3497,"is_reserved":false,"is_disabled":false,"rental_uris":{"android":"levelo://app?vid=8d7158fe-7b53-43db-9345-63e12ef4194d","ios":"levelo://app?vid=8d7158fe-7b53-43db-9345-63e12ef4194d"},"vehicle_type_id":"4","last_reported":1701450412,"current_range_meters":27200,"station_id":"ce4bhbh2rcd13ifvqepg","pricing_plan_id":"free"},{"bike_id":"faf50001-2cbc-4d9d-8e71-ac0bb8f36179","system_id":"levelo_inurba_marseille","lat":43.284214,"lon":5.349706,"is_reserved":false,"is_disabled":false,"rental_uris":{"android":"levelo://app?vid=faf50001-2cbc-4d9d-8e71-ac0bb8f36179","ios":"levelo://app?vid=faf50001-2cbc-4d9d-8e71-ac0bb8f36179"},"vehicle_type_id":"4","last_reported":1701450412,"current_range_meters":25200,"station_id":"ce4bhbh2rcd13ifvqepg","pricing_plan_id":"free"},{"bike_id":"8e37c7df-9407-4b30-be79-a649ffe0b4ec","system_id":"levelo_inurba_marseille","lat":43.284219,"lon":5.3497,"is_reserved":false,"is_disabled":false,"rental_uris":{"android":"levelo://app?vid=8e37c7df-9407-4b30-be79-a649ffe0b4ec","ios":"levelo://app?vid=8e37c7df-9407-4b30-be79-a649ffe0b4ec"},"vehicle_type_id":"4","last_reported":1701450412,"current_range_meters":28800,"station_id":"ce4bhbh2rcd13ifvqepg","pricing_plan_id":"free"},{"bike_id":"018d4469-82f1-471f-9f67-5056c3d27c36","system_id":"levelo_inurba_marseille","lat":43.28039,"lon":5.369297,"is_reserved":false,"is_disabled":false,"rental_uris":{"android":"levelo://app?vid=018d4469-82f1-471f-9f67-5056c3d27c36","ios":"levelo://app?vid=018d4469-82f1-471f-9f67-5056c3d27c36"},"vehicle_type_id":"4","last_reported":1701450412,"current_range_meters":31200,"station_id":"ce4bha12rcd13ifvqef0","pricing_plan_id":"free"},{"bike_id":"a9e2c13e-c278-44fb-b95d-b7c6c887fd1e","system_id":"levelo_inurba_marseille","lat":43.280382,"lon":5.369291,"is_reserved":false,"is_disabled":false,"rental_uris":{"android":"levelo://app?vid=a9e2c13e-c278-44fb-b95d-b7c6c887fd1e","ios":"levelo://app?vid=a9e2c13e-c278-44fb-b95d-b7c6c887fd1e"},"vehicle_type_id":"4","last_reported":1701450412,"current_range_meters":29200,"station_id":"ce4bha12rcd13ifvqef0","pricing_plan_id":"free"},{"bike_id":"4f817351-34ff-460f-abf0-90708b06d28d","system_id":"levelo_inurba_marseille","lat":43.280382,"lon":5.369291,"is_reserved":false,"is_disabled":false,"rental_uris":{"android":"levelo://app?vid=4f817351-34ff-460f-abf0-90708b06d28d","ios":"levelo://app?vid=4f817351-34ff-460f-abf0-90708b06d28d"},"vehicle_type_id":"4","last_reported":1701450412,"current_range_meters":14400,"station_id":"ce4bha12rcd13ifvqef0","pricing_plan_id":"free"},{"bike_id":"4633f81e-27e2-47ae-a80b-8f0ec98755c1","system_id":"levelo_inurba_marseille","lat":43.296263,"lon":5.40601,"is_reserved":false,"is_disabled":false,"rental_uris":{"android":"levelo://app?vid=4633f81e-27e2-47ae-a80b-8f0ec98755c1","ios":"levelo://app?vid=4633f81e-27e2-47ae-a80b-8f0ec98755c1"},"vehicle_type_id":"4","last_reported":1701450412,"current_range_meters":11200,"station_id":"ce4bh0h2rcd13ifvqd60","pricing_plan_id":"free"},{"bike_id":"f878762a-a833-4130-8212-7bad0cda2f8f","system_id":"levelo_inurba_marseille","lat":43.281044,"lon":5.378308,"is_reserved":false,"is_disabled":false,"rental_uris":{"android":"levelo://app?vid=f878762a-a833-4130-8212-7bad0cda2f8f","ios":"levelo://app?vid=f878762a-a833-4130-8212-7bad0cda2f8f"},"vehicle_type_id":"4","last_reported":1701450412,"current_range_meters":1600,"station_id":"ce4bha12rcd13ifvqee0","pricing_plan_id":"free"},{"bike_id":"9fdb7f97-586d-42d2-befd-15216ba2e422","system_id":"levelo_inurba_marseille","lat":43.284317,"lon":5.391844,"is_reserved":false,"is_disabled":false,"rental_uris":{"android":"levelo://app?vid=9fdb7f97-586d-42d2-befd-15216ba2e422","ios":"levelo://app?vid=9fdb7f97-586d-42d2-befd-15216ba2e422"},"vehicle_type_id":"4","last_reported":1701450412,"current_range_meters":0,"station_id":"ce4bhoh2rcd13ifvqh5g","pricing_plan_id":"free"},{"bike_id":"96496c0a-f1aa-4bd5-b562-e791274ad1b2","system_id":"levelo_inurba_marseille","lat":43.326605,"lon":5.409903,"is_reserved":false,"is_disabled":false,"rental_uris":{"android":"levelo://app?vid=96496c0a-f1aa-4bd5-b562-e791274ad1b2","ios":"levelo://app?vid=96496c0a-f1aa-4bd5-b562-e791274ad1b2"},"vehicle_type_id":"4","last_reported":1701450412,"current_range_meters":9200,"station_id":"ce4bhpp2rcd13ifvqhgg","pricing_plan_id":"free"},{"bike_id":"a50c0429-afba-467a-8379-c3b5803a834a","system_id":"levelo_inurba_marseille","lat":43.304188,"lon":5.412904,"is_reserved":false,"is_disabled":false,"rental_uris":{"android":"levelo://app?vid=a50c0429-afba-467a-8379-c3b5803a834a","ios":"levelo://app?vid=a50c0429-afba-467a-8379-c3b5803a834a"},"vehicle_type_id":"4","last_reported":1701450412,"current_range_meters":26400,"station_id":"ce4bhop2rcd13ifvqh8g","pricing_plan_id":"free"},{"bike_id":"c93b1c9a-c4ae-4c26-bf86-e2b074651c4d","system_id":"levelo_inurba_marseille","lat":43.304188,"lon":5.412904,"is_reserved":false,"is_disabled":false,"rental_uris":{"android":"levelo://app?vid=c93b1c9a-c4ae-4c26-bf86-e2b074651c4d","ios":"levelo://app?vid=c93b1c9a-c4ae-4c26-bf86-e2b074651c4d"},"vehicle_type_id":"4","last_reported":1701450412,"current_range_meters":18400,"station_id":"ce4bhop2rcd13ifvqh8g","pricing_plan_id":"free"},{"bike_id":"15f7305d-d9b1-45ef-a049-1ad67e5bdab8","system_id":"levelo_inurba_marseille","lat":43.304188,"lon":5.412904,"is_reserved":false,"is_disabled":false,"rental_uris":{"android":"levelo://app?vid=15f7305d-d9b1-45ef-a049-1ad67e5bdab8","ios":"levelo://app?vid=15f7305d-d9b1-45ef-a049-1ad67e5bdab8"},"vehicle_type_id":"4","last_reported":1701450412,"current_range_meters":23600,"station_id":"ce4bhop2rcd13ifvqh8g","pricing_plan_id":"free"},{"bike_id":"a4cfe9d4-940a-4101-be2d-f6db0719527c","system_id":"levelo_inurba_marseille","lat":43.279087,"lon":5.380114,"is_reserved":false,"is_disabled":false,"rental_uris":{"android":"levelo://app?vid=a4cfe9d4-940a-4101-be2d-f6db0719527c","ios":"levelo://app?vid=a4cfe9d4-940a-4101-be2d-f6db0719527c"},"vehicle_type_id":"4","last_reported":1701450412,"current_range_meters":11200,"station_id":"ce4bhf92rcd13ifvqf50","pricing_plan_id":"free"},{"bike_id":"c2d38b22-b54f-4098-8e4f-cb83910181e5","system_id":"levelo_inurba_marseille","lat":43.287154,"lon":5.399979,"is_reserved":false,"is_disabled":false,"rental_uris":{"android":"levelo://app?vid=c2d38b22-b54f-4098-8e4f-cb83910181e5","ios":"levelo://app?vid=c2d38b22-b54f-4098-8e4f-cb83910181e5"},"vehicle_type_id":"4","last_reported":1701450412,"current_range_meters":8800,"station_id":"ce4bho92rcd13ifvqh3g","pricing_plan_id":"free"},{"bike_id":"02e62204-0930-45e7-8d3c-e4a485cb7044","system_id":"levelo_inurba_marseille","lat":43.287154,"lon":5.399979,"is_reserved":false,"is_disabled":false,"rental_uris":{"android":"levelo://app?vid=02e62204-0930-45e7-8d3c-e4a485cb7044","ios":"levelo://app?vid=02e62204-0930-45e7-8d3c-e4a485cb7044"},"vehicle_type_id":"4","last_reported":1701450412,"current_range_meters":27600,"station_id":"ce4bho92rcd13ifvqh3g","pricing_plan_id":"free"},{"bike_id":"f76eb47c-1d9f-4089-89a1-a981323ccd59","system_id":"levelo_inurba_marseille","lat":43.320045,"lon":5.415048,"is_reserved":false,"is_disabled":false,"rental_uris":{"android":"levelo://app?vid=f76eb47c-1d9f-4089-89a1-a981323ccd59","ios":"levelo://app?vid=f76eb47c-1d9f-4089-89a1-a981323ccd59"},"vehicle_type_id":"4","last_reported":1701450412,"current_range_meters":25200,"station_id":"ce4bhq92rcd13ifvqhkg","pricing_plan_id":"free"},{"bike_id":"af7ea8e5-169c-4873-9062-efff7542a266","system_id":"levelo_inurba_marseille","lat":43.320045,"lon":5.415046,"is_reserved":false,"is_disabled":false,"rental_uris":{"android":"levelo://app?vid=af7ea8e5-169c-4873-9062-efff7542a266","ios":"levelo://app?vid=af7ea8e5-169c-4873-9062-efff7542a266"},"vehicle_type_id":"4","last_reported":1701450412,"current_range_meters":16800,"station_id":"ce4bhq92rcd13ifvqhkg","pricing_plan_id":"free"},{"bike_id":"4a1a11ab-a759-443b-b4ae-6483e367336c","system_id":"levelo_inurba_marseille","lat":43.279691,"lon":5.387439,"is_reserved":false,"is_disabled":false,"rental_uris":{"android":"levelo://app?vid=4a1a11ab-a759-443b-b4ae-6483e367336c","ios":"levelo://app?vid=4a1a11ab-a759-443b-b4ae-6483e367336c"},"vehicle_type_id":"4","last_reported":1701450412,"current_range_meters":23200,"station_id":"","pricing_plan_id":"free"},{"bike_id":"efd2b5b0-e533-49ae-b810-7827cd438b0e","system_id":"levelo_inurba_marseille","lat":43.2926,"lon":5.40906,"is_reserved":false,"is_disabled":false,"rental_uris":{"android":"levelo://app?vid=efd2b5b0-e533-49ae-b810-7827cd438b0e","ios":"levelo://app?vid=efd2b5b0-e533-49ae-b810-7827cd438b0e"},"vehicle_type_id":"4","last_reported":1701450412,"current_range_meters":0,"station_id":"ce4bh192rcd13ifvqdc0","pricing_plan_id":"free"},{"bike_id":"b7549c3b-08c3-4df0-83ca-99458026418a","system_id":"levelo_inurba_marseille","lat":43.292569,"lon":5.409107,"is_reserved":false,"is_disabled":false,"rental_uris":{"android":"levelo://app?vid=b7549c3b-08c3-4df0-83ca-99458026418a","ios":"levelo://app?vid=b7549c3b-08c3-4df0-83ca-99458026418a"},"vehicle_type_id":"4","last_reported":1701450412,"current_range_meters":19200,"station_id":"ce4bh192rcd13ifvqdc0","pricing_plan_id":"free"},{"bike_id":"ef2d52a6-9e30-4c30-86ce-eab840bb25bd","system_id":"levelo_inurba_marseille","lat":43.276182,"lon":5.361111,"is_reserved":false,"is_disabled":false,"rental_uris":{"android":"levelo://app?vid=ef2d52a6-9e30-4c30-86ce-eab840bb25bd","ios":"levelo://app?vid=ef2d52a6-9e30-4c30-86ce-eab840bb25bd"},"vehicle_type_id":"4","last_reported":1701450412,"current_range_meters":18000,"station_id":"ce4bgj92rcd13ifvqbe0","pricing_plan_id":"free"},{"bike_id":"b1bc44a7-88f9-4b86-9fa4-211a87bae144","system_id":"levelo_inurba_marseille","lat":43.303837,"lon":5.418724,"is_reserved":false,"is_disabled":false,"rental_uris":{"android":"levelo://app?vid=b1bc44a7-88f9-4b86-9fa4-211a87bae144","ios":"levelo://app?vid=b1bc44a7-88f9-4b86-9fa4-211a87bae144"},"vehicle_type_id":"4","last_reported":1701450412,"current_range_meters":14400,"station_id":"ce4bhop2rcd13ifvqh7g","pricing_plan_id":"free"},{"bike_id":"43778551-4f79-47a3-afed-889a031657d3","system_id":"levelo_inurba_marseille","lat":43.303837,"lon":5.418724,"is_reserved":false,"is_disabled":false,"rental_uris":{"android":"levelo://app?vid=43778551-4f79-47a3-afed-889a031657d3","ios":"levelo://app?vid=43778551-4f79-47a3-afed-889a031657d3"},"vehicle_type_id":"4","last_reported":1701450412,"current_range_meters":29200,"station_id":"ce4bhop2rcd13ifvqh7g","pricing_plan_id":"free"},{"bike_id":"ae81a803-fec5-4b93-9ab4-4d8a4c5332eb","system_id":"levelo_inurba_marseille","lat":43.303837,"lon":5.418724,"is_reserved":false,"is_disabled":false,"rental_uris":{"android":"levelo://app?vid=ae81a803-fec5-4b93-9ab4-4d8a4c5332eb","ios":"levelo://app?vid=ae81a803-fec5-4b93-9ab4-4d8a4c5332eb"},"vehicle_type_id":"4","last_reported":1701450412,"current_range_meters":8800,"station_id":"ce4bhop2rcd13ifvqh7g","pricing_plan_id":"free"},{"bike_id":"ae130eb3-69a3-4569-9978-7e5ec544228e","system_id":"levelo_inurba_marseille","lat":43.303837,"lon":5.418724,"is_reserved":false,"is_disabled":false,"rental_uris":{"android":"levelo://app?vid=ae130eb3-69a3-4569-9978-7e5ec544228e","ios":"levelo://app?vid=ae130eb3-69a3-4569-9978-7e5ec544228e"},"vehicle_type_id":"4","last_reported":1701450412,"current_range_meters":13600,"station_id":"ce4bhop2rcd13ifvqh7g","pricing_plan_id":"free"},{"bike_id":"f3118cd8-7b4b-4199-8476-f551be3b3b4e","system_id":"levelo_inurba_marseille","lat":43.278401,"lon":5.392152,"is_reserved":false,"is_disabled":false,"rental_uris":{"android":"levelo://app?vid=f3118cd8-7b4b-4199-8476-f551be3b3b4e","ios":"levelo://app?vid=f3118cd8-7b4b-4199-8476-f551be3b3b4e"},"vehicle_type_id":"4","last_reported":1701450412,"current_range_meters":11600,"station_id":"ce4bhjp2rcd13ifvqga0","pricing_plan_id":"free"},{"bike_id":"e39e14d5-0de2-4b18-a471-b128dc379a61","system_id":"levelo_inurba_marseille","lat":43.278401,"lon":5.392152,"is_reserved":false,"is_disabled":false,"rental_uris":{"android":"levelo://app?vid=e39e14d5-0de2-4b18-a471-b128dc379a61","ios":"levelo://app?vid=e39e14d5-0de2-4b18-a471-b128dc379a61"},"vehicle_type_id":"4","last_reported":1701450412,"current_range_meters":25200,"station_id":"ce4bhjp2rcd13ifvqga0","pricing_plan_id":"free"},{"bike_id":"f51d3fc7-e0cb-4a0e-8bb3-2130dbf70380","system_id":"levelo_inurba_marseille","lat":43.276769,"lon":5.388787,"is_reserved":false,"is_disabled":false,"rental_uris":{"android":"levelo://app?vid=f51d3fc7-e0cb-4a0e-8bb3-2130dbf70380","ios":"levelo://app?vid=f51d3fc7-e0cb-4a0e-8bb3-2130dbf70380"},"vehicle_type_id":"4","last_reported":1701450412,"current_range_meters":8400,"station_id":"ce4bhi12rcd13ifvqfo0","pricing_plan_id":"free"},{"bike_id":"5e23e836-e260-4c24-bef0-ed489ed0d176","system_id":"levelo_inurba_marseille","lat":43.275625,"lon":5.384392,"is_reserved":false,"is_disabled":false,"rental_uris":{"android":"levelo://app?vid=5e23e836-e260-4c24-bef0-ed489ed0d176","ios":"levelo://app?vid=5e23e836-e260-4c24-bef0-ed489ed0d176"},"vehicle_type_id":"4","last_reported":1701450412,"current_range_meters":23200,"station_id":"ce4bhh92rcd13ifvqfi0","pricing_plan_id":"free"},{"bike_id":"16e8b9a8-882d-4585-a8b2-03c973d0a857","system_id":"levelo_inurba_marseille","lat":43.275625,"lon":5.384392,"is_reserved":false,"is_disabled":false,"rental_uris":{"android":"levelo://app?vid=16e8b9a8-882d-4585-a8b2-03c973d0a857","ios":"levelo://app?vid=16e8b9a8-882d-4585-a8b2-03c973d0a857"},"vehicle_type_id":"4","last_reported":1701450412,"current_range_meters":12800,"station_id":"ce4bhh92rcd13ifvqfi0","pricing_plan_id":"free"},{"bike_id":"b85b7731-4dd4-4fd4-96c5-9bf7db2efb0c","system_id":"levelo_inurba_marseille","lat":43.275625,"lon":5.384392,"is_reserved":false,"is_disabled":false,"rental_uris":{"android":"levelo://app?vid=b85b7731-4dd4-4fd4-96c5-9bf7db2efb0c","ios":"levelo://app?vid=b85b7731-4dd4-4fd4-96c5-9bf7db2efb0c"},"vehicle_type_id":"4","last_reported":1701450412,"current_range_meters":24400,"station_id":"ce4bhh92rcd13ifvqfi0","pricing_plan_id":"free"},{"bike_id":"8b95fa19-34cb-496e-ada5-cf4ce57829c5","system_id":"levelo_inurba_marseille","lat":43.279952,"lon":5.400085,"is_reserved":false,"is_disabled":false,"rental_uris":{"android":"levelo://app?vid=8b95fa19-34cb-496e-ada5-cf4ce57829c5","ios":"levelo://app?vid=8b95fa19-34cb-496e-ada5-cf4ce57829c5"},"vehicle_type_id":"4","last_reported":1701450412,"current_range_meters":25600,"station_id":"ce4bho92rcd13ifvqh4g","pricing_plan_id":"free"},{"bike_id":"db7ffdb9-f10e-41dc-9854-cecf34a3d463","system_id":"levelo_inurba_marseille","lat":43.279952,"lon":5.400085,"is_reserved":false,"is_disabled":false,"rental_uris":{"android":"levelo://app?vid=db7ffdb9-f10e-41dc-9854-cecf34a3d463","ios":"levelo://app?vid=db7ffdb9-f10e-41dc-9854-cecf34a3d463"},"vehicle_type_id":"4","last_reported":1701450412,"current_range_meters":31600,"station_id":"ce4bho92rcd13ifvqh4g","pricing_plan_id":"free"},{"bike_id":"b1aa665c-2e5d-4c40-8fd2-4fd96b4e5154","system_id":"levelo_inurba_marseille","lat":43.279952,"lon":5.400085,"is_reserved":false,"is_disabled":false,"rental_uris":{"android":"levelo://app?vid=b1aa665c-2e5d-4c40-8fd2-4fd96b4e5154","ios":"levelo://app?vid=b1aa665c-2e5d-4c40-8fd2-4fd96b4e5154"},"vehicle_type_id":"4","last_reported":1701450412,"current_range_meters":23600,"station_id":"ce4bho92rcd13ifvqh4g","pricing_plan_id":"free"},{"bike_id":"2008ad1c-c3ed-4aab-a90a-ec11e3a4e262","system_id":"levelo_inurba_marseille","lat":43.279952,"lon":5.400085,"is_reserved":false,"is_disabled":false,"rental_uris":{"android":"levelo://app?vid=2008ad1c-c3ed-4aab-a90a-ec11e3a4e262","ios":"levelo://app?vid=2008ad1c-c3ed-4aab-a90a-ec11e3a4e262"},"vehicle_type_id":"4","last_reported":1701450412,"current_range_meters":23600,"station_id":"ce4bho92rcd13ifvqh4g","pricing_plan_id":"free"},{"bike_id":"33918e0d-cdb0-4611-a687-3272d72d60a6","system_id":"levelo_inurba_marseille","lat":43.3253,"lon":5.42129,"is_reserved":false,"is_disabled":false,"rental_uris":{"android":"levelo://app?vid=33918e0d-cdb0-4611-a687-3272d72d60a6","ios":"levelo://app?vid=33918e0d-cdb0-4611-a687-3272d72d60a6"},"vehicle_type_id":"4","last_reported":1701450412,"current_range_meters":27600,"station_id":"","pricing_plan_id":"free"},{"bike_id":"0bf39cc2-12ce-46b3-a06b-31e1c17ddc34","system_id":"levelo_inurba_marseille","lat":43.31721,"lon":5.42399,"is_reserved":false,"is_disabled":false,"rental_uris":{"android":"levelo://app?vid=0bf39cc2-12ce-46b3-a06b-31e1c17ddc34","ios":"levelo://app?vid=0bf39cc2-12ce-46b3-a06b-31e1c17ddc34"},"vehicle_type_id":"4","last_reported":1701450412,"current_range_meters":22400,"station_id":"ce4bhp92rcd13ifvqhbg","pricing_plan_id":"free"},{"bike_id":"894f6494-585b-4b1b-a39f-39b137cf17d0","system_id":"levelo_inurba_marseille","lat":43.310785,"lon":5.424305,"is_reserved":false,"is_disabled":false,"rental_uris":{"android":"levelo://app?vid=894f6494-585b-4b1b-a39f-39b137cf17d0","ios":"levelo://app?vid=894f6494-585b-4b1b-a39f-39b137cf17d0"},"vehicle_type_id":"4","last_reported":1701450412,"current_range_meters":12800,"station_id":"ce4bhp92rcd13ifvqhag","pricing_plan_id":"free"},{"bike_id":"6d583b2d-dd94-484f-bd23-31135b1cc0ef","system_id":"levelo_inurba_marseille","lat":43.30979,"lon":5.42669,"is_reserved":false,"is_disabled":false,"rental_uris":{"android":"levelo://app?vid=6d583b2d-dd94-484f-bd23-31135b1cc0ef","ios":"levelo://app?vid=6d583b2d-dd94-484f-bd23-31135b1cc0ef"},"vehicle_type_id":"4","last_reported":1701450412,"current_range_meters":26400,"station_id":"","pricing_plan_id":"free"},{"bike_id":"dc289d38-b36a-49f0-9af8-c63863eb169d","system_id":"levelo_inurba_marseille","lat":43.295511,"lon":5.422926,"is_reserved":false,"is_disabled":false,"rental_uris":{"android":"levelo://app?vid=dc289d38-b36a-49f0-9af8-c63863eb169d","ios":"levelo://app?vid=dc289d38-b36a-49f0-9af8-c63863eb169d"},"vehicle_type_id":"4","last_reported":1701450412,"current_range_meters":22400,"station_id":"ce4bhph2rcd13ifvqhdg","pricing_plan_id":"free"},{"bike_id":"03057f69-bf70-4e5d-96b3-ffd155c96c7e","system_id":"levelo_inurba_marseille","lat":43.278128,"lon":5.407195,"is_reserved":false,"is_disabled":false,"rental_uris":{"android":"levelo://app?vid=03057f69-bf70-4e5d-96b3-ffd155c96c7e","ios":"levelo://app?vid=03057f69-bf70-4e5d-96b3-ffd155c96c7e"},"vehicle_type_id":"4","last_reported":1701450412,"current_range_meters":14000,"station_id":"ce4bhnh2rcd13ifvqgtg","pricing_plan_id":"free"},{"bike_id":"44fc63b2-7fbc-4bcc-9736-dd98f93353eb","system_id":"levelo_inurba_marseille","lat":43.278128,"lon":5.407195,"is_reserved":false,"is_disabled":false,"rental_uris":{"android":"levelo://app?vid=44fc63b2-7fbc-4bcc-9736-dd98f93353eb","ios":"levelo://app?vid=44fc63b2-7fbc-4bcc-9736-dd98f93353eb"},"vehicle_type_id":"4","last_reported":1701450412,"current_range_meters":6000,"station_id":"ce4bhnh2rcd13ifvqgtg","pricing_plan_id":"free"},{"bike_id":"354d9ba5-c5be-425c-8fe6-4ae98806f5f6","system_id":"levelo_inurba_marseille","lat":43.278128,"lon":5.407195,"is_reserved":false,"is_disabled":false,"rental_uris":{"android":"levelo://app?vid=354d9ba5-c5be-425c-8fe6-4ae98806f5f6","ios":"levelo://app?vid=354d9ba5-c5be-425c-8fe6-4ae98806f5f6"},"vehicle_type_id":"4","last_reported":1701450412,"current_range_meters":22400,"station_id":"ce4bhnh2rcd13ifvqgtg","pricing_plan_id":"free"},{"bike_id":"21f0e8a9-42b9-4676-ad53-9cc9a8b916c5","system_id":"levelo_inurba_marseille","lat":43.2794,"lon":5.41049,"is_reserved":false,"is_disabled":false,"rental_uris":{"android":"levelo://app?vid=21f0e8a9-42b9-4676-ad53-9cc9a8b916c5","ios":"levelo://app?vid=21f0e8a9-42b9-4676-ad53-9cc9a8b916c5"},"vehicle_type_id":"4","last_reported":1701450412,"current_range_meters":23200,"station_id":"ce4bhnp2rcd13ifvqh0g","pricing_plan_id":"free"},{"bike_id":"fa44dd0e-182b-40a0-ab5b-d14d9284c199","system_id":"levelo_inurba_marseille","lat":43.27996,"lon":5.416624,"is_reserved":false,"is_disabled":false,"rental_uris":{"android":"levelo://app?vid=fa44dd0e-182b-40a0-ab5b-d14d9284c199","ios":"levelo://app?vid=fa44dd0e-182b-40a0-ab5b-d14d9284c199"},"vehicle_type_id":"4","last_reported":1701450412,"current_range_meters":27600,"station_id":"ce4bho12rcd13ifvqh1g","pricing_plan_id":"free"},{"bike_id":"9a0fed49-1349-40d3-8b39-9210a4c2230f","system_id":"levelo_inurba_marseille","lat":43.29258,"lon":5.42851,"is_reserved":false,"is_disabled":false,"rental_uris":{"android":"levelo://app?vid=9a0fed49-1349-40d3-8b39-9210a4c2230f","ios":"levelo://app?vid=9a0fed49-1349-40d3-8b39-9210a4c2230f"},"vehicle_type_id":"4","last_reported":1701450412,"current_range_meters":0,"station_id":"","pricing_plan_id":"free"},{"bike_id":"c8cc38bc-78ce-4ffa-811f-9d7aa5611633","system_id":"levelo_inurba_marseille","lat":43.26569,"lon":5.39008,"is_reserved":false,"is_disabled":false,"rental_uris":{"android":"levelo://app?vid=c8cc38bc-78ce-4ffa-811f-9d7aa5611633","ios":"levelo://app?vid=c8cc38bc-78ce-4ffa-811f-9d7aa5611633"},"vehicle_type_id":"4","last_reported":1701450412,"current_range_meters":0,"station_id":"ce4bhe12rcd13ifvqf30","pricing_plan_id":"free"},{"bike_id":"52a2bc89-4f35-4948-a668-3b18b2e760d5","system_id":"levelo_inurba_marseille","lat":43.26949,"lon":5.40262,"is_reserved":false,"is_disabled":false,"rental_uris":{"android":"levelo://app?vid=52a2bc89-4f35-4948-a668-3b18b2e760d5","ios":"levelo://app?vid=52a2bc89-4f35-4948-a668-3b18b2e760d5"},"vehicle_type_id":"4","last_reported":1701450412,"current_range_meters":24800,"station_id":"cjm6bp8fraef2m0cb0m0","pricing_plan_id":"free"},{"bike_id":"96955054-4ce7-4a14-a90a-abe2d6fa5249","system_id":"levelo_inurba_marseille","lat":43.269463,"lon":5.40264,"is_reserved":false,"is_disabled":false,"rental_uris":{"android":"levelo://app?vid=96955054-4ce7-4a14-a90a-abe2d6fa5249","ios":"levelo://app?vid=96955054-4ce7-4a14-a90a-abe2d6fa5249"},"vehicle_type_id":"4","last_reported":1701450412,"current_range_meters":5200,"station_id":"cjm6bp8fraef2m0cb0m0","pricing_plan_id":"free"},{"bike_id":"fe045a06-5b14-4d26-b1db-f7ace0c0b77e","system_id":"levelo_inurba_marseille","lat":43.26949,"lon":5.40262,"is_reserved":false,"is_disabled":false,"rental_uris":{"android":"levelo://app?vid=fe045a06-5b14-4d26-b1db-f7ace0c0b77e","ios":"levelo://app?vid=fe045a06-5b14-4d26-b1db-f7ace0c0b77e"},"vehicle_type_id":"4","last_reported":1701450412,"current_range_meters":0,"station_id":"cjm6bp8fraef2m0cb0m0","pricing_plan_id":"free"},{"bike_id":"6c9805ea-eb6d-491d-97d7-42799725520b","system_id":"levelo_inurba_marseille","lat":43.26949,"lon":5.40262,"is_reserved":false,"is_disabled":false,"rental_uris":{"android":"levelo://app?vid=6c9805ea-eb6d-491d-97d7-42799725520b","ios":"levelo://app?vid=6c9805ea-eb6d-491d-97d7-42799725520b"},"vehicle_type_id":"4","last_reported":1701450412,"current_range_meters":19600,"station_id":"cjm6bp8fraef2m0cb0m0","pricing_plan_id":"free"},{"bike_id":"50b8d1c4-36a5-47a9-b7de-e47cf0c024cd","system_id":"levelo_inurba_marseille","lat":43.26943,"lon":5.40263,"is_reserved":false,"is_disabled":false,"rental_uris":{"android":"levelo://app?vid=50b8d1c4-36a5-47a9-b7de-e47cf0c024cd","ios":"levelo://app?vid=50b8d1c4-36a5-47a9-b7de-e47cf0c024cd"},"vehicle_type_id":"4","last_reported":1701450412,"current_range_meters":25200,"station_id":"cjm6bp8fraef2m0cb0m0","pricing_plan_id":"free"},{"bike_id":"c95ba489-26a7-4049-9b07-22e31485789a","system_id":"levelo_inurba_marseille","lat":43.26935,"lon":5.40265,"is_reserved":false,"is_disabled":false,"rental_uris":{"android":"levelo://app?vid=c95ba489-26a7-4049-9b07-22e31485789a","ios":"levelo://app?vid=c95ba489-26a7-4049-9b07-22e31485789a"},"vehicle_type_id":"4","last_reported":1701450412,"current_range_meters":11600,"station_id":"cjm6bp8fraef2m0cb0m0","pricing_plan_id":"free"},{"bike_id":"74dc6154-c3e5-44ff-b025-87e6c5f06e5c","system_id":"levelo_inurba_marseille","lat":43.262012,"lon":5.379307,"is_reserved":false,"is_disabled":false,"rental_uris":{"android":"levelo://app?vid=74dc6154-c3e5-44ff-b025-87e6c5f06e5c","ios":"levelo://app?vid=74dc6154-c3e5-44ff-b025-87e6c5f06e5c"},"vehicle_type_id":"4","last_reported":1701450412,"current_range_meters":25600,"station_id":"ce4bhjp2rcd13ifvqg90","pricing_plan_id":"free"},{"bike_id":"ee245953-b77e-4df2-a6e6-e8da6e2f3732","system_id":"levelo_inurba_marseille","lat":43.26202,"lon":5.379299,"is_reserved":false,"is_disabled":false,"rental_uris":{"android":"levelo://app?vid=ee245953-b77e-4df2-a6e6-e8da6e2f3732","ios":"levelo://app?vid=ee245953-b77e-4df2-a6e6-e8da6e2f3732"},"vehicle_type_id":"4","last_reported":1701450412,"current_range_meters":2800,"station_id":"ce4bhjp2rcd13ifvqg90","pricing_plan_id":"free"},{"bike_id":"a3ab8531-8fb8-48b1-a4ca-782453478fe1","system_id":"levelo_inurba_marseille","lat":43.298768,"lon":5.43643,"is_reserved":false,"is_disabled":false,"rental_uris":{"android":"levelo://app?vid=a3ab8531-8fb8-48b1-a4ca-782453478fe1","ios":"levelo://app?vid=a3ab8531-8fb8-48b1-a4ca-782453478fe1"},"vehicle_type_id":"4","last_reported":1701450412,"current_range_meters":5600,"station_id":"ce4bhpp2rcd13ifvqhfg","pricing_plan_id":"free"},{"bike_id":"6d5827bb-e379-4067-bb3f-6136611daee9","system_id":"levelo_inurba_marseille","lat":43.298768,"lon":5.43643,"is_reserved":false,"is_disabled":false,"rental_uris":{"android":"levelo://app?vid=6d5827bb-e379-4067-bb3f-6136611daee9","ios":"levelo://app?vid=6d5827bb-e379-4067-bb3f-6136611daee9"},"vehicle_type_id":"4","last_reported":1701450412,"current_range_meters":31600,"station_id":"ce4bhpp2rcd13ifvqhfg","pricing_plan_id":"free"},{"bike_id":"3e4fb47e-33e8-4ee2-bfc1-1bd948cfa529","system_id":"levelo_inurba_marseille","lat":43.281548,"lon":5.42643,"is_reserved":false,"is_disabled":false,"rental_uris":{"android":"levelo://app?vid=3e4fb47e-33e8-4ee2-bfc1-1bd948cfa529","ios":"levelo://app?vid=3e4fb47e-33e8-4ee2-bfc1-1bd948cfa529"},"vehicle_type_id":"4","last_reported":1701450412,"current_range_meters":30400,"station_id":"ce4bhnh2rcd13ifvqgug","pricing_plan_id":"free"},{"bike_id":"d3df04f1-aa36-401c-b9f0-16ea3bba87de","system_id":"levelo_inurba_marseille","lat":43.28152,"lon":5.42644,"is_reserved":false,"is_disabled":false,"rental_uris":{"android":"levelo://app?vid=d3df04f1-aa36-401c-b9f0-16ea3bba87de","ios":"levelo://app?vid=d3df04f1-aa36-401c-b9f0-16ea3bba87de"},"vehicle_type_id":"4","last_reported":1701450412,"current_range_meters":17200,"station_id":"ce4bhnh2rcd13ifvqgug","pricing_plan_id":"free"},{"bike_id":"d68e1b0a-c765-41d6-8d5f-c73a4739479d","system_id":"levelo_inurba_marseille","lat":43.28153,"lon":5.42645,"is_reserved":false,"is_disabled":false,"rental_uris":{"android":"levelo://app?vid=d68e1b0a-c765-41d6-8d5f-c73a4739479d","ios":"levelo://app?vid=d68e1b0a-c765-41d6-8d5f-c73a4739479d"},"vehicle_type_id":"4","last_reported":1701450412,"current_range_meters":2800,"station_id":"ce4bhnh2rcd13ifvqgug","pricing_plan_id":"free"},{"bike_id":"3de40b48-7293-4590-b1e4-a9c54e991d0a","system_id":"levelo_inurba_marseille","lat":43.28158,"lon":5.4265,"is_reserved":false,"is_disabled":false,"rental_uris":{"android":"levelo://app?vid=3de40b48-7293-4590-b1e4-a9c54e991d0a","ios":"levelo://app?vid=3de40b48-7293-4590-b1e4-a9c54e991d0a"},"vehicle_type_id":"4","last_reported":1701450412,"current_range_meters":18800,"station_id":"ce4bhnh2rcd13ifvqgug","pricing_plan_id":"free"},{"bike_id":"a265f57d-2203-4406-8278-bc194922c399","system_id":"levelo_inurba_marseille","lat":43.28151,"lon":5.42644,"is_reserved":false,"is_disabled":false,"rental_uris":{"android":"levelo://app?vid=a265f57d-2203-4406-8278-bc194922c399","ios":"levelo://app?vid=a265f57d-2203-4406-8278-bc194922c399"},"vehicle_type_id":"4","last_reported":1701450412,"current_range_meters":30400,"station_id":"ce4bhnh2rcd13ifvqgug","pricing_plan_id":"free"},{"bike_id":"3532a786-7312-4db1-88be-2e5e8a274941","system_id":"levelo_inurba_marseille","lat":43.28156,"lon":5.42655,"is_reserved":false,"is_disabled":false,"rental_uris":{"android":"levelo://app?vid=3532a786-7312-4db1-88be-2e5e8a274941","ios":"levelo://app?vid=3532a786-7312-4db1-88be-2e5e8a274941"},"vehicle_type_id":"4","last_reported":1701450412,"current_range_meters":27600,"station_id":"ce4bhnh2rcd13ifvqgug","pricing_plan_id":"free"},{"bike_id":"b802834e-51f4-41a4-96cb-c31681473515","system_id":"levelo_inurba_marseille","lat":43.281526,"lon":5.426519,"is_reserved":false,"is_disabled":false,"rental_uris":{"android":"levelo://app?vid=b802834e-51f4-41a4-96cb-c31681473515","ios":"levelo://app?vid=b802834e-51f4-41a4-96cb-c31681473515"},"vehicle_type_id":"4","last_reported":1701450412,"current_range_meters":31200,"station_id":"ce4bhnh2rcd13ifvqgug","pricing_plan_id":"free"},{"bike_id":"a72d745c-144a-4862-b4ec-c8ec0925a1f5","system_id":"levelo_inurba_marseille","lat":43.254947,"lon":5.376454,"is_reserved":false,"is_disabled":false,"rental_uris":{"android":"levelo://app?vid=a72d745c-144a-4862-b4ec-c8ec0925a1f5","ios":"levelo://app?vid=a72d745c-144a-4862-b4ec-c8ec0925a1f5"},"vehicle_type_id":"4","last_reported":1701450412,"current_range_meters":8400,"station_id":"ce4bhh12rcd13ifvqff0","pricing_plan_id":"free"},{"bike_id":"e7bc78a6-4c43-4329-a4fb-97cc910f6eeb","system_id":"levelo_inurba_marseille","lat":43.270721,"lon":5.422764,"is_reserved":false,"is_disabled":false,"rental_uris":{"android":"levelo://app?vid=e7bc78a6-4c43-4329-a4fb-97cc910f6eeb","ios":"levelo://app?vid=e7bc78a6-4c43-4329-a4fb-97cc910f6eeb"},"vehicle_type_id":"4","last_reported":1701450412,"current_range_meters":11200,"station_id":"ce4bhk92rcd13ifvqgb0","pricing_plan_id":"free"},{"bike_id":"d9f68e4a-9cbe-4b00-86c1-3af3a02d5b58","system_id":"levelo_inurba_marseille","lat":43.258658,"lon":5.398935,"is_reserved":false,"is_disabled":false,"rental_uris":{"android":"levelo://app?vid=d9f68e4a-9cbe-4b00-86c1-3af3a02d5b58","ios":"levelo://app?vid=d9f68e4a-9cbe-4b00-86c1-3af3a02d5b58"},"vehicle_type_id":"4","last_reported":1701450412,"current_range_meters":1600,"station_id":"ce4bhl92rcd13ifvqghg","pricing_plan_id":"free"},{"bike_id":"ec368b62-b8de-4185-886d-03c5c8f9869a","system_id":"levelo_inurba_marseille","lat":43.257079,"lon":5.411051,"is_reserved":false,"is_disabled":false,"rental_uris":{"android":"levelo://app?vid=ec368b62-b8de-4185-886d-03c5c8f9869a","ios":"levelo://app?vid=ec368b62-b8de-4185-886d-03c5c8f9869a"},"vehicle_type_id":"4","last_reported":1701450412,"current_range_meters":29200,"station_id":"ce4bhkp2rcd13ifvqgd0","pricing_plan_id":"free"},{"bike_id":"7aa24d96-c95d-4468-a02b-494a7d7dd09e","system_id":"levelo_inurba_marseille","lat":43.25087,"lon":5.39526,"is_reserved":false,"is_disabled":false,"rental_uris":{"android":"levelo://app?vid=7aa24d96-c95d-4468-a02b-494a7d7dd09e","ios":"levelo://app?vid=7aa24d96-c95d-4468-a02b-494a7d7dd09e"},"vehicle_type_id":"4","last_reported":1701450412,"current_range_meters":13600,"station_id":"ce4bhm12rcd13ifvqgkg","pricing_plan_id":"free"},{"bike_id":"1f0f7ada-bad0-469e-8dbc-91b9d5dee8b1","system_id":"levelo_inurba_marseille","lat":43.25086,"lon":5.39532,"is_reserved":false,"is_disabled":false,"rental_uris":{"android":"levelo://app?vid=1f0f7ada-bad0-469e-8dbc-91b9d5dee8b1","ios":"levelo://app?vid=1f0f7ada-bad0-469e-8dbc-91b9d5dee8b1"},"vehicle_type_id":"4","last_reported":1701450412,"current_range_meters":8400,"station_id":"ce4bhm12rcd13ifvqgkg","pricing_plan_id":"free"},{"bike_id":"7b86737e-88b6-402e-953d-d66f821e4367","system_id":"levelo_inurba_marseille","lat":43.250966,"lon":5.395186,"is_reserved":false,"is_disabled":false,"rental_uris":{"android":"levelo://app?vid=7b86737e-88b6-402e-953d-d66f821e4367","ios":"levelo://app?vid=7b86737e-88b6-402e-953d-d66f821e4367"},"vehicle_type_id":"4","last_reported":1701450412,"current_range_meters":31200,"station_id":"ce4bhm12rcd13ifvqgkg","pricing_plan_id":"free"},{"bike_id":"341dc7f6-2849-41d8-b137-d5b7e0acc7c3","system_id":"levelo_inurba_marseille","lat":43.25102,"lon":5.403214,"is_reserved":false,"is_disabled":false,"rental_uris":{"android":"levelo://app?vid=341dc7f6-2849-41d8-b137-d5b7e0acc7c3","ios":"levelo://app?vid=341dc7f6-2849-41d8-b137-d5b7e0acc7c3"},"vehicle_type_id":"4","last_reported":1701450412,"current_range_meters":21600,"station_id":"ce4bhlh2rcd13ifvqgig","pricing_plan_id":"free"},{"bike_id":"1900827e-d02f-4170-a150-2c26836621e5","system_id":"levelo_inurba_marseille","lat":43.25102,"lon":5.403214,"is_reserved":false,"is_disabled":false,"rental_uris":{"android":"levelo://app?vid=1900827e-d02f-4170-a150-2c26836621e5","ios":"levelo://app?vid=1900827e-d02f-4170-a150-2c26836621e5"},"vehicle_type_id":"4","last_reported":1701450412,"current_range_meters":21200,"station_id":"ce4bhlh2rcd13ifvqgig","pricing_plan_id":"free"},{"bike_id":"0c9930e4-efd8-4060-aba1-7840fdd6cfcf","system_id":"levelo_inurba_marseille","lat":43.246461,"lon":5.389014,"is_reserved":false,"is_disabled":false,"rental_uris":{"android":"levelo://app?vid=0c9930e4-efd8-4060-aba1-7840fdd6cfcf","ios":"levelo://app?vid=0c9930e4-efd8-4060-aba1-7840fdd6cfcf"},"vehicle_type_id":"4","last_reported":1701450412,"current_range_meters":0,"station_id":"ce4bhg12rcd13ifvqf60","pricing_plan_id":"free"},{"bike_id":"e7aad632-367b-4496-9cef-bcfeaf0ec9a0","system_id":"levelo_inurba_marseille","lat":43.246461,"lon":5.389014,"is_reserved":false,"is_disabled":false,"rental_uris":{"android":"levelo://app?vid=e7aad632-367b-4496-9cef-bcfeaf0ec9a0","ios":"levelo://app?vid=e7aad632-367b-4496-9cef-bcfeaf0ec9a0"},"vehicle_type_id":"4","last_reported":1701450412,"current_range_meters":31200,"station_id":"ce4bhg12rcd13ifvqf60","pricing_plan_id":"free"},{"bike_id":"8a6d21ee-8178-4f32-b8d1-754b3c0d95f1","system_id":"levelo_inurba_marseille","lat":43.245581,"lon":5.395069,"is_reserved":false,"is_disabled":false,"rental_uris":{"android":"levelo://app?vid=8a6d21ee-8178-4f32-b8d1-754b3c0d95f1","ios":"levelo://app?vid=8a6d21ee-8178-4f32-b8d1-754b3c0d95f1"},"vehicle_type_id":"4","last_reported":1701450412,"current_range_meters":31200,"station_id":"ce4bhlp2rcd13ifvqgjg","pricing_plan_id":"free"},{"bike_id":"8f8a08c5-5ca8-4694-93c6-b968749a30c2","system_id":"levelo_inurba_marseille","lat":43.245581,"lon":5.395069,"is_reserved":false,"is_disabled":false,"rental_uris":{"android":"levelo://app?vid=8f8a08c5-5ca8-4694-93c6-b968749a30c2","ios":"levelo://app?vid=8f8a08c5-5ca8-4694-93c6-b968749a30c2"},"vehicle_type_id":"4","last_reported":1701450412,"current_range_meters":29200,"station_id":"ce4bhlp2rcd13ifvqgjg","pricing_plan_id":"free"},{"bike_id":"f44122c3-b152-40c3-bace-5f58768a5b54","system_id":"levelo_inurba_marseille","lat":43.245581,"lon":5.395069,"is_reserved":false,"is_disabled":false,"rental_uris":{"android":"levelo://app?vid=f44122c3-b152-40c3-bace-5f58768a5b54","ios":"levelo://app?vid=f44122c3-b152-40c3-bace-5f58768a5b54"},"vehicle_type_id":"4","last_reported":1701450412,"current_range_meters":29600,"station_id":"ce4bhlp2rcd13ifvqgjg","pricing_plan_id":"free"},{"bike_id":"6ee6d7fa-4550-416f-b12f-3b27cfa33206","system_id":"levelo_inurba_marseille","lat":43.239588,"lon":5.366238,"is_reserved":false,"is_disabled":false,"rental_uris":{"android":"levelo://app?vid=6ee6d7fa-4550-416f-b12f-3b27cfa33206","ios":"levelo://app?vid=6ee6d7fa-4550-416f-b12f-3b27cfa33206"},"vehicle_type_id":"4","last_reported":1701450412,"current_range_meters":20800,"station_id":"ce4bhi12rcd13ifvqfp0","pricing_plan_id":"free"},{"bike_id":"cd2806e3-7a91-44f5-9e97-e41c2a460e29","system_id":"levelo_inurba_marseille","lat":43.24177,"lon":5.39727,"is_reserved":false,"is_disabled":false,"rental_uris":{"android":"levelo://app?vid=cd2806e3-7a91-44f5-9e97-e41c2a460e29","ios":"levelo://app?vid=cd2806e3-7a91-44f5-9e97-e41c2a460e29"},"vehicle_type_id":"4","last_reported":1701450412,"current_range_meters":3200,"station_id":"ce4bhn12rcd13ifvqgpg","pricing_plan_id":"free"},{"bike_id":"63454ba4-f1a7-4786-8fd7-35753397c18e","system_id":"levelo_inurba_marseille","lat":43.241782,"lon":5.397261,"is_reserved":false,"is_disabled":false,"rental_uris":{"android":"levelo://app?vid=63454ba4-f1a7-4786-8fd7-35753397c18e","ios":"levelo://app?vid=63454ba4-f1a7-4786-8fd7-35753397c18e"},"vehicle_type_id":"4","last_reported":1701450412,"current_range_meters":16800,"station_id":"ce4bhn12rcd13ifvqgpg","pricing_plan_id":"free"},{"bike_id":"a4d1b319-cc80-4d1e-80de-e837b67106b2","system_id":"levelo_inurba_marseille","lat":43.241782,"lon":5.397261,"is_reserved":false,"is_disabled":false,"rental_uris":{"android":"levelo://app?vid=a4d1b319-cc80-4d1e-80de-e837b67106b2","ios":"levelo://app?vid=a4d1b319-cc80-4d1e-80de-e837b67106b2"},"vehicle_type_id":"4","last_reported":1701450412,"current_range_meters":20800,"station_id":"ce4bhn12rcd13ifvqgpg","pricing_plan_id":"free"},{"bike_id":"411b4a86-9e62-4504-b823-0eb9db112faa","system_id":"levelo_inurba_marseille","lat":43.241782,"lon":5.397261,"is_reserved":false,"is_disabled":false,"rental_uris":{"android":"levelo://app?vid=411b4a86-9e62-4504-b823-0eb9db112faa","ios":"levelo://app?vid=411b4a86-9e62-4504-b823-0eb9db112faa"},"vehicle_type_id":"4","last_reported":1701450412,"current_range_meters":31600,"station_id":"ce4bhn12rcd13ifvqgpg","pricing_plan_id":"free"},{"bike_id":"460ff11d-43d6-4fa0-9381-c598ad26d49a","system_id":"levelo_inurba_marseille","lat":43.241782,"lon":5.397261,"is_reserved":false,"is_disabled":false,"rental_uris":{"android":"levelo://app?vid=460ff11d-43d6-4fa0-9381-c598ad26d49a","ios":"levelo://app?vid=460ff11d-43d6-4fa0-9381-c598ad26d49a"},"vehicle_type_id":"4","last_reported":1701450412,"current_range_meters":31600,"station_id":"ce4bhn12rcd13ifvqgpg","pricing_plan_id":"free"},{"bike_id":"6462fbc5-ceb8-47e3-b56d-fc1e69bef19f","system_id":"levelo_inurba_marseille","lat":43.231919,"lon":5.355532,"is_reserved":false,"is_disabled":false,"rental_uris":{"android":"levelo://app?vid=6462fbc5-ceb8-47e3-b56d-fc1e69bef19f","ios":"levelo://app?vid=6462fbc5-ceb8-47e3-b56d-fc1e69bef19f"},"vehicle_type_id":"4","last_reported":1701450412,"current_range_meters":31200,"station_id":"ce4bhu92rcd13ifvqi70","pricing_plan_id":"free"},{"bike_id":"6382809b-45d0-4ad2-8be7-697249f82077","system_id":"levelo_inurba_marseille","lat":43.231919,"lon":5.355532,"is_reserved":false,"is_disabled":false,"rental_uris":{"android":"levelo://app?vid=6382809b-45d0-4ad2-8be7-697249f82077","ios":"levelo://app?vid=6382809b-45d0-4ad2-8be7-697249f82077"},"vehicle_type_id":"4","last_reported":1701450412,"current_range_meters":31600,"station_id":"ce4bhu92rcd13ifvqi70","pricing_plan_id":"free"},{"bike_id":"d919cd84-7675-4a37-b94c-3ba2519b645c","system_id":"levelo_inurba_marseille","lat":43.231919,"lon":5.355532,"is_reserved":false,"is_disabled":false,"rental_uris":{"android":"levelo://app?vid=d919cd84-7675-4a37-b94c-3ba2519b645c","ios":"levelo://app?vid=d919cd84-7675-4a37-b94c-3ba2519b645c"},"vehicle_type_id":"4","last_reported":1701450412,"current_range_meters":28000,"station_id":"ce4bhu92rcd13ifvqi70","pricing_plan_id":"free"},{"bike_id":"cf3102c4-88e0-4a41-86b7-69a76932d3e6","system_id":"levelo_inurba_marseille","lat":43.231925,"lon":5.355569,"is_reserved":false,"is_disabled":false,"rental_uris":{"android":"levelo://app?vid=cf3102c4-88e0-4a41-86b7-69a76932d3e6","ios":"levelo://app?vid=cf3102c4-88e0-4a41-86b7-69a76932d3e6"},"vehicle_type_id":"4","last_reported":1701450412,"current_range_meters":31200,"station_id":"ce4bhu92rcd13ifvqi70","pricing_plan_id":"free"},{"bike_id":"d1703505-b125-4a98-a807-11024241bc04","system_id":"levelo_inurba_marseille","lat":43.23192,"lon":5.35555,"is_reserved":false,"is_disabled":false,"rental_uris":{"android":"levelo://app?vid=d1703505-b125-4a98-a807-11024241bc04","ios":"levelo://app?vid=d1703505-b125-4a98-a807-11024241bc04"},"vehicle_type_id":"4","last_reported":1701450412,"current_range_meters":31200,"station_id":"ce4bhu92rcd13ifvqi70","pricing_plan_id":"free"},{"bike_id":"5aaa36a6-4257-480d-95b7-86aa5f368a64","system_id":"levelo_inurba_marseille","lat":43.231919,"lon":5.355532,"is_reserved":false,"is_disabled":false,"rental_uris":{"android":"levelo://app?vid=5aaa36a6-4257-480d-95b7-86aa5f368a64","ios":"levelo://app?vid=5aaa36a6-4257-480d-95b7-86aa5f368a64"},"vehicle_type_id":"4","last_reported":1701450412,"current_range_meters":21600,"station_id":"ce4bhu92rcd13ifvqi70","pricing_plan_id":"free"},{"bike_id":"179bc0fb-370c-4234-b30f-9121ae3c4192","system_id":"levelo_inurba_marseille","lat":43.231794,"lon":5.400052,"is_reserved":false,"is_disabled":false,"rental_uris":{"android":"levelo://app?vid=179bc0fb-370c-4234-b30f-9121ae3c4192","ios":"levelo://app?vid=179bc0fb-370c-4234-b30f-9121ae3c4192"},"vehicle_type_id":"4","last_reported":1701450412,"current_range_meters":22800,"station_id":"ce4bhn12rcd13ifvqgqg","pricing_plan_id":"free"},{"bike_id":"bfb1ccb5-dfa1-425d-901e-02799fedd445","system_id":"levelo_inurba_marseille","lat":43.23188,"lon":5.39998,"is_reserved":false,"is_disabled":false,"rental_uris":{"android":"levelo://app?vid=bfb1ccb5-dfa1-425d-901e-02799fedd445","ios":"levelo://app?vid=bfb1ccb5-dfa1-425d-901e-02799fedd445"},"vehicle_type_id":"4","last_reported":1701450412,"current_range_meters":13600,"station_id":"ce4bhn12rcd13ifvqgqg","pricing_plan_id":"free"},{"bike_id":"e12f8e11-b84e-42bf-bdb7-555721935514","system_id":"levelo_inurba_marseille","lat":43.231794,"lon":5.400052,"is_reserved":false,"is_disabled":false,"rental_uris":{"android":"levelo://app?vid=e12f8e11-b84e-42bf-bdb7-555721935514","ios":"levelo://app?vid=e12f8e11-b84e-42bf-bdb7-555721935514"},"vehicle_type_id":"4","last_reported":1701450412,"current_range_meters":25600,"station_id":"ce4bhn12rcd13ifvqgqg","pricing_plan_id":"free"},{"bike_id":"22bd98e3-c33f-4c44-ae2b-f96729d36f4f","system_id":"levelo_inurba_marseille","lat":43.23187,"lon":5.39995,"is_reserved":false,"is_disabled":false,"rental_uris":{"android":"levelo://app?vid=22bd98e3-c33f-4c44-ae2b-f96729d36f4f","ios":"levelo://app?vid=22bd98e3-c33f-4c44-ae2b-f96729d36f4f"},"vehicle_type_id":"4","last_reported":1701450412,"current_range_meters":31200,"station_id":"ce4bhn12rcd13ifvqgqg","pricing_plan_id":"free"},{"bike_id":"d0b35396-6769-42d4-8160-8b44cb829902","system_id":"levelo_inurba_marseille","lat":43.231793,"lon":5.400044,"is_reserved":false,"is_disabled":false,"rental_uris":{"android":"levelo://app?vid=d0b35396-6769-42d4-8160-8b44cb829902","ios":"levelo://app?vid=d0b35396-6769-42d4-8160-8b44cb829902"},"vehicle_type_id":"4","last_reported":1701450412,"current_range_meters":31600,"station_id":"ce4bhn12rcd13ifvqgqg","pricing_plan_id":"free"},{"bike_id":"1eeab9a5-d341-4bc8-8d21-ee151ff9d9b2","system_id":"levelo_inurba_marseille","lat":43.231819,"lon":5.399991,"is_reserved":false,"is_disabled":false,"rental_uris":{"android":"levelo://app?vid=1eeab9a5-d341-4bc8-8d21-ee151ff9d9b2","ios":"levelo://app?vid=1eeab9a5-d341-4bc8-8d21-ee151ff9d9b2"},"vehicle_type_id":"4","last_reported":1701450412,"current_range_meters":22000,"station_id":"ce4bhn12rcd13ifvqgqg","pricing_plan_id":"free"},{"bike_id":"457c552c-8af5-4b7b-9f6b-8c901265a623","system_id":"levelo_inurba_marseille","lat":43.231793,"lon":5.400044,"is_reserved":false,"is_disabled":false,"rental_uris":{"android":"levelo://app?vid=457c552c-8af5-4b7b-9f6b-8c901265a623","ios":"levelo://app?vid=457c552c-8af5-4b7b-9f6b-8c901265a623"},"vehicle_type_id":"4","last_reported":1701450412,"current_range_meters":18400,"station_id":"ce4bhn12rcd13ifvqgqg","pricing_plan_id":"free"},{"bike_id":"f00f7629-468e-4d2d-bfc2-c8b4ed4d50cb","system_id":"levelo_inurba_marseille","lat":43.231562,"lon":5.436933,"is_reserved":false,"is_disabled":false,"rental_uris":{"android":"levelo://app?vid=f00f7629-468e-4d2d-bfc2-c8b4ed4d50cb","ios":"levelo://app?vid=f00f7629-468e-4d2d-bfc2-c8b4ed4d50cb"},"vehicle_type_id":"4","last_reported":1701450412,"current_range_meters":23200,"station_id":"ce4bhmp2rcd13ifvqgog","pricing_plan_id":"free"}]}}