{"last_updated":1721751060,"ttl":30,"version":"2.2","data":{"bikes":[{"bike_id":"a2610bec-28cf-4e46-bfa7-b619ea248969","system_id":"levelo_inurba_marseille","lat":43.31257,"lon":5.36767,"is_reserved":false,"is_disabled":false,"rental_uris":{"android":"levelo://app?vid=a2610bec-28cf-4e46-bfa7-b619ea248969","ios":"levelo://app?vid=a2610bec-28cf-4e46-bfa7-b619ea248969"},"vehicle_type_id":"4","last_reported":1721751060,"current_range_meters":6400,"station_id":"","pricing_plan_id":"cebpf4jnsgd1na2vs0mg"},{"bike_id":"709da99c-ad5d-4c00-a445-700352b418bb","system_id":"levelo_inurba_marseille","lat":43.31341,"lon":5.367098,"is_reserved":false,"is_disabled":false,"rental_uris":{"android":"levelo://app?vid=709da99c-ad5d-4c00-a445-700352b418bb","ios":"levelo://app?vid=709da99c-ad5d-4c00-a445-700352b418bb"},"vehicle_type_id":"4","last_reported":1721751060,"current_range_meters":0,"station_id":"ce4bgr92rcd13ifvqc6g","pricing_plan_id":"cebpf4jnsgd1na2vs0mg"},{"bike_id":"7ed6678b-998e-4d0b-8f4c-a5f487d82ac4","system_id":"levelo_inurba_marseille","lat":43.31499,"lon":5.37312,"is_reserved":false,"is_disabled":false,"rental_uris":{"android":"levelo://app?vid=7ed6678b-998e-4d0b-8f4c-a5f487d82ac4","ios":"levelo://app?vid=7ed6678b-998e-4d0b-8f4c-a5f487d82ac4"},"vehicle_type_id":"4","last_reported":1721751060,"current_range_meters":0,"station_id":"ce4bgt12rcd13ifvqcd0","pricing_plan_id":"cebpf4jnsgd1na2vs0mg"},{"bike_id":"f73d9013-8086-419c-a87f-64bd4db78279","system_id":"levelo_inurba_marseille","lat":43.317994,"lon":5.370226,"is_reserved":false,"is_disabled":false,"rental_uris":{"android":"levelo://app?vid=f73d9013-8086-419c-a87f-64bd4db78279","ios":"levelo://app?vid=f73d9013-8086-419c-a87f-64bd4db78279"},"vehicle_type_id":"4","last_reported":1721751060,"current_range_meters":19600,"station_id":"","pricing_plan_id":"cebpf4jnsgd1na2vs0mg"},{"bike_id":"44c7a22b-1011-48ba-9a6b-5b5f2abb10f6","system_id":"levelo_inurba_marseille","lat":43.305045,"lon":5.365588,"is_reserved":false,"is_disabled":false,"rental_uris":{"android":"levelo://app?vid=44c7a22b-1011-48ba-9a6b-5b5f2abb10f6","ios":"levelo://app?vid=44c7a22b-1011-48ba-9a6b-5b5f2abb10f6"},"vehicle_type_id":"4","last_reported":1721751060,"current_range_meters":2800,"station_id":"","pricing_plan_id":"cebpf4jnsgd1na2vs0mg"},{"bike_id":"b6bc5990-40b4-42a1-a0f7-14020efa883d","system_id":"levelo_inurba_marseille","lat":43.311131,"lon":5.377651,"is_reserved":false,"is_disabled":false,"rental_uris":{"android":"levelo://app?vid=b6bc5990-40b4-42a1-a0f7-14020efa883d","ios":"levelo://app?vid=b6bc5990-40b4-42a1-a0f7-14020efa883d"},"vehicle_type_id":"4","last_reported":1721751060,"current_range_meters":20800,"station_id":"ce4bgt92rcd13ifvqcg0","pricing_plan_id":"cebpf4jnsgd1na2vs0mg"},{"bike_id":"b6f81171-5396-46ac-b0a0-d5ff7a4995f3","system_id":"levelo_inurba_marseille","lat":43.311208,"lon":5.378295,"is_reserved":false,"is_disabled":false,"rental_uris":{"android":"levelo://app?vid=b6f81171-5396-46ac-b0a0-d5ff7a4995f3","ios":"levelo://app?vid=b6f81171-5396-46ac-b0a0-d5ff7a4995f3"},"vehicle_type_id":"4","last_reported":1721751060,"current_range_meters":17600,"station_id":"","pricing_plan_id":"cebpf4jnsgd1na2vs0mg"},{"bike_id":"915058ce-bff9-408e-8c6d-73d8717c771b","system_id":"levelo_inurba_marseille","lat":43.315289,"lon":5.380349,"is_reserved":false,"is_disabled":false,"rental_uris":{"android":"levelo://app?vid=915058ce-bff9-408e-8c6d-73d8717c771b","ios":"levelo://app?vid=915058ce-bff9-408e-8c6d-73d8717c771b"},"vehicle_type_id":"4","last_reported":1721751060,"current_range_meters":30400,"station_id":"ce4bhsp2rcd13ifvqi50","pricing_plan_id":"cebpf4jnsgd1na2vs0mg"},{"bike_id":"64a74f85-baf3-4518-bee2-b368a7f3c107","system_id":"levelo_inurba_marseille","lat":43.31899,"lon":5.3782,"is_reserved":false,"is_disabled":false,"rental_uris":{"android":"levelo://app?vid=64a74f85-baf3-4518-bee2-b368a7f3c107","ios":"levelo://app?vid=64a74f85-baf3-4518-bee2-b368a7f3c107"},"vehicle_type_id":"4","last_reported":1721751060,"current_range_meters":18400,"station_id":"","pricing_plan_id":"cebpf4jnsgd1na2vs0mg"},{"bike_id":"9a16e6d4-0b92-4af4-a064-7dee15a10de3","system_id":"levelo_inurba_marseille","lat":43.304606,"lon":5.379026,"is_reserved":false,"is_disabled":false,"rental_uris":{"android":"levelo://app?vid=9a16e6d4-0b92-4af4-a064-7dee15a10de3","ios":"levelo://app?vid=9a16e6d4-0b92-4af4-a064-7dee15a10de3"},"vehicle_type_id":"4","last_reported":1721751060,"current_range_meters":20800,"station_id":"ce4bgup2rcd13ifvqcn0","pricing_plan_id":"cebpf4jnsgd1na2vs0mg"},{"bike_id":"2e7863c2-f142-41c2-a1a2-1eb590c06e27","system_id":"levelo_inurba_marseille","lat":43.304606,"lon":5.379026,"is_reserved":false,"is_disabled":false,"rental_uris":{"android":"levelo://app?vid=2e7863c2-f142-41c2-a1a2-1eb590c06e27","ios":"levelo://app?vid=2e7863c2-f142-41c2-a1a2-1eb590c06e27"},"vehicle_type_id":"4","last_reported":1721751060,"current_range_meters":12400,"station_id":"ce4bgup2rcd13ifvqcn0","pricing_plan_id":"cebpf4jnsgd1na2vs0mg"},{"bike_id":"cc4896f1-3c26-4a39-8546-a07454a3d881","system_id":"levelo_inurba_marseille","lat":43.324771,"lon":5.36557,"is_reserved":false,"is_disabled":false,"rental_uris":{"android":"levelo://app?vid=cc4896f1-3c26-4a39-8546-a07454a3d881","ios":"levelo://app?vid=cc4896f1-3c26-4a39-8546-a07454a3d881"},"vehicle_type_id":"4","last_reported":1721751060,"current_range_meters":26400,"station_id":"ce4bhs12rcd13ifvqhvg","pricing_plan_id":"cebpf4jnsgd1na2vs0mg"},{"bike_id":"03c7e3f3-59ff-4ce0-a0d5-301cae816487","system_id":"levelo_inurba_marseille","lat":43.310804,"lon":5.38359,"is_reserved":false,"is_disabled":false,"rental_uris":{"android":"levelo://app?vid=03c7e3f3-59ff-4ce0-a0d5-301cae816487","ios":"levelo://app?vid=03c7e3f3-59ff-4ce0-a0d5-301cae816487"},"vehicle_type_id":"4","last_reported":1721751060,"current_range_meters":0,"station_id":"ce4bgv92rcd13ifvqcr0","pricing_plan_id":"cebpf4jnsgd1na2vs0mg"},{"bike_id":"48034537-13c4-49eb-8b78-4cd82b8499c4","system_id":"levelo_inurba_marseille","lat":43.302784,"lon":5.377158,"is_reserved":false,"is_disabled":false,"rental_uris":{"android":"levelo://app?vid=48034537-13c4-49eb-8b78-4cd82b8499c4","ios":"levelo://app?vid=48034537-13c4-49eb-8b78-4cd82b8499c4"},"vehicle_type_id":"4","last_reported":1721751060,"current_range_meters":14800,"station_id":"ce4bguh2rcd13ifvqcj0","pricing_plan_id":"cebpf4jnsgd1na2vs0mg"},{"bike_id":"3e88043c-bcf0-4696-875c-0aa5ec5a5b76","system_id":"levelo_inurba_marseille","lat":43.302784,"lon":5.377158,"is_reserved":false,"is_disabled":false,"rental_uris":{"android":"levelo://app?vid=3e88043c-bcf0-4696-875c-0aa5ec5a5b76","ios":"levelo://app?vid=3e88043c-bcf0-4696-875c-0aa5ec5a5b76"},"vehicle_type_id":"4","last_reported":1721751060,"current_range_meters":0,"station_id":"ce4bguh2rcd13ifvqcj0","pricing_plan_id":"cebpf4jnsgd1na2vs0mg"},{"bike_id":"f7f46089-2666-4f98-a6b2-e7379274e68b","system_id":"levelo_inurba_marseille","lat":43.31619,"lon":5.38352,"is_reserved":false,"is_disabled":false,"rental_uris":{"android":"levelo://app?vid=f7f46089-2666-4f98-a6b2-e7379274e68b","ios":"levelo://app?vid=f7f46089-2666-4f98-a6b2-e7379274e68b"},"vehicle_type_id":"4","last_reported":1721751060,"current_range_meters":12800,"station_id":"","pricing_plan_id":"cebpf4jnsgd1na2vs0mg"},{"bike_id":"177b643a-3dcd-44f3-b71f-4fc7c66875d1","system_id":"levelo_inurba_marseille","lat":43.319935,"lon":5.381699,"is_reserved":false,"is_disabled":false,"rental_uris":{"android":"levelo://app?vid=177b643a-3dcd-44f3-b71f-4fc7c66875d1","ios":"levelo://app?vid=177b643a-3dcd-44f3-b71f-4fc7c66875d1"},"vehicle_type_id":"4","last_reported":1721751060,"current_range_meters":24000,"station_id":"ce4bhr12rcd13ifvqhpg","pricing_plan_id":"cebpf4jnsgd1na2vs0mg"},{"bike_id":"a092858c-aca9-4072-b94e-c7452ff90cd2","system_id":"levelo_inurba_marseille","lat":43.30558,"lon":5.38169,"is_reserved":false,"is_disabled":false,"rental_uris":{"android":"levelo://app?vid=a092858c-aca9-4072-b94e-c7452ff90cd2","ios":"levelo://app?vid=a092858c-aca9-4072-b94e-c7452ff90cd2"},"vehicle_type_id":"4","last_reported":1721751060,"current_range_meters":21200,"station_id":"","pricing_plan_id":"cebpf4jnsgd1na2vs0mg"},{"bike_id":"f0e0e132-19d1-45de-ac74-54ee5ee8fe22","system_id":"levelo_inurba_marseille","lat":43.313571,"lon":5.384829,"is_reserved":false,"is_disabled":false,"rental_uris":{"android":"levelo://app?vid=f0e0e132-19d1-45de-ac74-54ee5ee8fe22","ios":"levelo://app?vid=f0e0e132-19d1-45de-ac74-54ee5ee8fe22"},"vehicle_type_id":"4","last_reported":1721751060,"current_range_meters":17200,"station_id":"ce4bgt92rcd13ifvqcf0","pricing_plan_id":"cebpf4jnsgd1na2vs0mg"},{"bike_id":"b3c97d5e-b6ba-43c6-af10-30c8437cef6b","system_id":"levelo_inurba_marseille","lat":43.30981,"lon":5.38628,"is_reserved":false,"is_disabled":false,"rental_uris":{"android":"levelo://app?vid=b3c97d5e-b6ba-43c6-af10-30c8437cef6b","ios":"levelo://app?vid=b3c97d5e-b6ba-43c6-af10-30c8437cef6b"},"vehicle_type_id":"4","last_reported":1721751060,"current_range_meters":6400,"station_id":"","pricing_plan_id":"cebpf4jnsgd1na2vs0mg"},{"bike_id":"89210680-151d-4111-acff-ed71688c3358","system_id":"levelo_inurba_marseille","lat":43.298433,"lon":5.362774,"is_reserved":false,"is_disabled":false,"rental_uris":{"android":"levelo://app?vid=89210680-151d-4111-acff-ed71688c3358","ios":"levelo://app?vid=89210680-151d-4111-acff-ed71688c3358"},"vehicle_type_id":"4","last_reported":1721751060,"current_range_meters":6000,"station_id":"ce4bgpp2rcd13ifvqc3g","pricing_plan_id":"cebpf4jnsgd1na2vs0mg"},{"bike_id":"41eafa5a-4556-4699-850f-dc2dacc97c65","system_id":"levelo_inurba_marseille","lat":43.305364,"lon":5.384119,"is_reserved":false,"is_disabled":false,"rental_uris":{"android":"levelo://app?vid=41eafa5a-4556-4699-850f-dc2dacc97c65","ios":"levelo://app?vid=41eafa5a-4556-4699-850f-dc2dacc97c65"},"vehicle_type_id":"4","last_reported":1721751060,"current_range_meters":25200,"station_id":"ce4bgg92rcd13ifvqb30","pricing_plan_id":"cebpf4jnsgd1na2vs0mg"},{"bike_id":"e3ba1665-7fad-4e7d-8a4f-b9c8a5694929","system_id":"levelo_inurba_marseille","lat":43.31171,"lon":5.38717,"is_reserved":false,"is_disabled":false,"rental_uris":{"android":"levelo://app?vid=e3ba1665-7fad-4e7d-8a4f-b9c8a5694929","ios":"levelo://app?vid=e3ba1665-7fad-4e7d-8a4f-b9c8a5694929"},"vehicle_type_id":"4","last_reported":1721751060,"current_range_meters":22000,"station_id":"ce4bgv12rcd13ifvqcp0","pricing_plan_id":"cebpf4jnsgd1na2vs0mg"},{"bike_id":"ecc6629e-6486-4c9a-a5da-2d7023a1a7a9","system_id":"levelo_inurba_marseille","lat":43.29665,"lon":5.368652,"is_reserved":false,"is_disabled":false,"rental_uris":{"android":"levelo://app?vid=ecc6629e-6486-4c9a-a5da-2d7023a1a7a9","ios":"levelo://app?vid=ecc6629e-6486-4c9a-a5da-2d7023a1a7a9"},"vehicle_type_id":"4","last_reported":1721751060,"current_range_meters":12800,"station_id":"","pricing_plan_id":"cebpf4jnsgd1na2vs0mg"},{"bike_id":"0c0057d2-8eee-4b04-abf0-aff36db991c0","system_id":"levelo_inurba_marseille","lat":43.296131,"lon":5.370791,"is_reserved":false,"is_disabled":false,"rental_uris":{"android":"levelo://app?vid=0c0057d2-8eee-4b04-abf0-aff36db991c0","ios":"levelo://app?vid=0c0057d2-8eee-4b04-abf0-aff36db991c0"},"vehicle_type_id":"4","last_reported":1721751060,"current_range_meters":0,"station_id":"ce4bgnh2rcd13ifvqc0g","pricing_plan_id":"cebpf4jnsgd1na2vs0mg"},{"bike_id":"aca6ff4b-cf49-4355-b206-ecc2d3da5149","system_id":"levelo_inurba_marseille","lat":43.31758,"lon":5.3901,"is_reserved":false,"is_disabled":false,"rental_uris":{"android":"levelo://app?vid=aca6ff4b-cf49-4355-b206-ecc2d3da5149","ios":"levelo://app?vid=aca6ff4b-cf49-4355-b206-ecc2d3da5149"},"vehicle_type_id":"4","last_reported":1721751060,"current_range_meters":4800,"station_id":"ce4bhqp2rcd13ifvqhng","pricing_plan_id":"cebpf4jnsgd1na2vs0mg"},{"bike_id":"9f812e3e-7baa-4f90-bb61-d5544d855ad0","system_id":"levelo_inurba_marseille","lat":43.317557,"lon":5.390173,"is_reserved":false,"is_disabled":false,"rental_uris":{"android":"levelo://app?vid=9f812e3e-7baa-4f90-bb61-d5544d855ad0","ios":"levelo://app?vid=9f812e3e-7baa-4f90-bb61-d5544d855ad0"},"vehicle_type_id":"4","last_reported":1721751060,"current_range_meters":0,"station_id":"ce4bhqp2rcd13ifvqhng","pricing_plan_id":"cebpf4jnsgd1na2vs0mg"},{"bike_id":"a397f1f1-089d-45a5-8605-830e3ecc2f02","system_id":"levelo_inurba_marseille","lat":43.298037,"lon":5.381066,"is_reserved":false,"is_disabled":false,"rental_uris":{"android":"levelo://app?vid=a397f1f1-089d-45a5-8605-830e3ecc2f02","ios":"levelo://app?vid=a397f1f1-089d-45a5-8605-830e3ecc2f02"},"vehicle_type_id":"4","last_reported":1721751060,"current_range_meters":31600,"station_id":"ce4bgip2rcd13ifvqbb0","pricing_plan_id":"cebpf4jnsgd1na2vs0mg"},{"bike_id":"85fc7a5c-c743-4a9c-a557-d2e56fe05c2b","system_id":"levelo_inurba_marseille","lat":43.295748,"lon":5.37522,"is_reserved":false,"is_disabled":false,"rental_uris":{"android":"levelo://app?vid=85fc7a5c-c743-4a9c-a557-d2e56fe05c2b","ios":"levelo://app?vid=85fc7a5c-c743-4a9c-a557-d2e56fe05c2b"},"vehicle_type_id":"4","last_reported":1721751060,"current_range_meters":0,"station_id":"ce4bgh92rcd13ifvqb50","pricing_plan_id":"cebpf4jnsgd1na2vs0mg"},{"bike_id":"09c99099-78e9-4021-b4f1-298b12e476f7","system_id":"levelo_inurba_marseille","lat":43.296323,"lon":5.37709,"is_reserved":false,"is_disabled":false,"rental_uris":{"android":"levelo://app?vid=09c99099-78e9-4021-b4f1-298b12e476f7","ios":"levelo://app?vid=09c99099-78e9-4021-b4f1-298b12e476f7"},"vehicle_type_id":"4","last_reported":1721751060,"current_range_meters":6400,"station_id":"","pricing_plan_id":"cebpf4jnsgd1na2vs0mg"},{"bike_id":"62ea6d01-6ea9-40b5-ab82-501202ecad45","system_id":"levelo_inurba_marseille","lat":43.295748,"lon":5.37522,"is_reserved":false,"is_disabled":false,"rental_uris":{"android":"levelo://app?vid=62ea6d01-6ea9-40b5-ab82-501202ecad45","ios":"levelo://app?vid=62ea6d01-6ea9-40b5-ab82-501202ecad45"},"vehicle_type_id":"4","last_reported":1721751060,"current_range_meters":4400,"station_id":"ce4bgh92rcd13ifvqb50","pricing_plan_id":"cebpf4jnsgd1na2vs0mg"},{"bike_id":"e6af4d7e-4c47-4c55-824b-27748c93c84b","system_id":"levelo_inurba_marseille","lat":43.296263,"lon":5.377094,"is_reserved":false,"is_disabled":false,"rental_uris":{"android":"levelo://app?vid=e6af4d7e-4c47-4c55-824b-27748c93c84b","ios":"levelo://app?vid=e6af4d7e-4c47-4c55-824b-27748c93c84b"},"vehicle_type_id":"4","last_reported":1721751060,"current_range_meters":28800,"station_id":"ce4bgi92rcd13ifvqb90","pricing_plan_id":"cebpf4jnsgd1na2vs0mg"},{"bike_id":"a8ca8440-25fe-45f4-9d1a-6b43bab6e4c2","system_id":"levelo_inurba_marseille","lat":43.296277,"lon":5.377108,"is_reserved":false,"is_disabled":false,"rental_uris":{"android":"levelo://app?vid=a8ca8440-25fe-45f4-9d1a-6b43bab6e4c2","ios":"levelo://app?vid=a8ca8440-25fe-45f4-9d1a-6b43bab6e4c2"},"vehicle_type_id":"4","last_reported":1721751060,"current_range_meters":16800,"station_id":"ce4bgi92rcd13ifvqb90","pricing_plan_id":"cebpf4jnsgd1na2vs0mg"},{"bike_id":"35cb9e92-7777-44ee-a773-3ada89e9dc59","system_id":"levelo_inurba_marseille","lat":43.296263,"lon":5.377094,"is_reserved":false,"is_disabled":false,"rental_uris":{"android":"levelo://app?vid=35cb9e92-7777-44ee-a773-3ada89e9dc59","ios":"levelo://app?vid=35cb9e92-7777-44ee-a773-3ada89e9dc59"},"vehicle_type_id":"4","last_reported":1721751060,"current_range_meters":4800,"station_id":"ce4bgi92rcd13ifvqb90","pricing_plan_id":"cebpf4jnsgd1na2vs0mg"},{"bike_id":"3748e580-4673-47ce-adc0-2e3dccf6ebeb","system_id":"levelo_inurba_marseille","lat":43.32996,"lon":5.37524,"is_reserved":false,"is_disabled":false,"rental_uris":{"android":"levelo://app?vid=3748e580-4673-47ce-adc0-2e3dccf6ebeb","ios":"levelo://app?vid=3748e580-4673-47ce-adc0-2e3dccf6ebeb"},"vehicle_type_id":"4","last_reported":1721751060,"current_range_meters":17200,"station_id":"","pricing_plan_id":"cebpf4jnsgd1na2vs0mg"},{"bike_id":"b30cc528-0917-4612-aba4-3408bfde606a","system_id":"levelo_inurba_marseille","lat":43.295279,"lon":5.375048,"is_reserved":false,"is_disabled":false,"rental_uris":{"android":"levelo://app?vid=b30cc528-0917-4612-aba4-3408bfde606a","ios":"levelo://app?vid=b30cc528-0917-4612-aba4-3408bfde606a"},"vehicle_type_id":"4","last_reported":1721751060,"current_range_meters":6800,"station_id":"ce4bgkp2rcd13ifvqbmg","pricing_plan_id":"cebpf4jnsgd1na2vs0mg"},{"bike_id":"58c048c9-9b74-4002-9ac9-f546a2e30ed6","system_id":"levelo_inurba_marseille","lat":43.299707,"lon":5.384859,"is_reserved":false,"is_disabled":false,"rental_uris":{"android":"levelo://app?vid=58c048c9-9b74-4002-9ac9-f546a2e30ed6","ios":"levelo://app?vid=58c048c9-9b74-4002-9ac9-f546a2e30ed6"},"vehicle_type_id":"4","last_reported":1721751060,"current_range_meters":28800,"station_id":"ce4bgj92rcd13ifvqbd0","pricing_plan_id":"cebpf4jnsgd1na2vs0mg"},{"bike_id":"e9a9623a-55e9-46e5-b03b-97af7013f46c","system_id":"levelo_inurba_marseille","lat":43.299717,"lon":5.384845,"is_reserved":false,"is_disabled":false,"rental_uris":{"android":"levelo://app?vid=e9a9623a-55e9-46e5-b03b-97af7013f46c","ios":"levelo://app?vid=e9a9623a-55e9-46e5-b03b-97af7013f46c"},"vehicle_type_id":"4","last_reported":1721751060,"current_range_meters":31200,"station_id":"ce4bgj92rcd13ifvqbd0","pricing_plan_id":"cebpf4jnsgd1na2vs0mg"},{"bike_id":"ec5fcaeb-5b54-43d0-8345-07843eae01e7","system_id":"levelo_inurba_marseille","lat":43.32367,"lon":5.388836,"is_reserved":false,"is_disabled":false,"rental_uris":{"android":"levelo://app?vid=ec5fcaeb-5b54-43d0-8345-07843eae01e7","ios":"levelo://app?vid=ec5fcaeb-5b54-43d0-8345-07843eae01e7"},"vehicle_type_id":"4","last_reported":1721751060,"current_range_meters":6000,"station_id":"ce4bhqp2rcd13ifvqhog","pricing_plan_id":"cebpf4jnsgd1na2vs0mg"},{"bike_id":"d40891ba-cc64-470c-bcad-830142d61349","system_id":"levelo_inurba_marseille","lat":43.29602,"lon":5.381084,"is_reserved":false,"is_disabled":false,"rental_uris":{"android":"levelo://app?vid=d40891ba-cc64-470c-bcad-830142d61349","ios":"levelo://app?vid=d40891ba-cc64-470c-bcad-830142d61349"},"vehicle_type_id":"4","last_reported":1721751060,"current_range_meters":26000,"station_id":"ce4bgl12rcd13ifvqbo0","pricing_plan_id":"cebpf4jnsgd1na2vs0mg"},{"bike_id":"d5c21c18-4cab-488d-8093-c52d569ee3e6","system_id":"levelo_inurba_marseille","lat":43.29602,"lon":5.381084,"is_reserved":false,"is_disabled":false,"rental_uris":{"android":"levelo://app?vid=d5c21c18-4cab-488d-8093-c52d569ee3e6","ios":"levelo://app?vid=d5c21c18-4cab-488d-8093-c52d569ee3e6"},"vehicle_type_id":"4","last_reported":1721751060,"current_range_meters":8000,"station_id":"ce4bgl12rcd13ifvqbo0","pricing_plan_id":"cebpf4jnsgd1na2vs0mg"},{"bike_id":"bd1b679f-8c86-4d14-a4f0-4c904d8a4f8f","system_id":"levelo_inurba_marseille","lat":43.305994,"lon":5.393687,"is_reserved":false,"is_disabled":false,"rental_uris":{"android":"levelo://app?vid=bd1b679f-8c86-4d14-a4f0-4c904d8a4f8f","ios":"levelo://app?vid=bd1b679f-8c86-4d14-a4f0-4c904d8a4f8f"},"vehicle_type_id":"4","last_reported":1721751060,"current_range_meters":20400,"station_id":"ce4bh0p2rcd13ifvqd80","pricing_plan_id":"cebpf4jnsgd1na2vs0mg"},{"bike_id":"06bba857-094f-4edc-a95f-a7cc6ebe3606","system_id":"levelo_inurba_marseille","lat":43.2936,"lon":5.37835,"is_reserved":false,"is_disabled":false,"rental_uris":{"android":"levelo://app?vid=06bba857-094f-4edc-a95f-a7cc6ebe3606","ios":"levelo://app?vid=06bba857-094f-4edc-a95f-a7cc6ebe3606"},"vehicle_type_id":"4","last_reported":1721751060,"current_range_meters":1600,"station_id":"ce4bgjh2rcd13ifvqbf0","pricing_plan_id":"cebpf4jnsgd1na2vs0mg"},{"bike_id":"7020434c-382f-47a9-b20b-0431d5581e6f","system_id":"levelo_inurba_marseille","lat":43.305994,"lon":5.393687,"is_reserved":false,"is_disabled":false,"rental_uris":{"android":"levelo://app?vid=7020434c-382f-47a9-b20b-0431d5581e6f","ios":"levelo://app?vid=7020434c-382f-47a9-b20b-0431d5581e6f"},"vehicle_type_id":"4","last_reported":1721751060,"current_range_meters":4000,"station_id":"ce4bh0p2rcd13ifvqd80","pricing_plan_id":"cebpf4jnsgd1na2vs0mg"},{"bike_id":"70a093fe-5f5c-4751-a40d-b91a8a37b7fa","system_id":"levelo_inurba_marseille","lat":43.302992,"lon":5.392136,"is_reserved":false,"is_disabled":false,"rental_uris":{"android":"levelo://app?vid=70a093fe-5f5c-4751-a40d-b91a8a37b7fa","ios":"levelo://app?vid=70a093fe-5f5c-4751-a40d-b91a8a37b7fa"},"vehicle_type_id":"4","last_reported":1721751060,"current_range_meters":16800,"station_id":"ce4bgkh2rcd13ifvqbk0","pricing_plan_id":"cebpf4jnsgd1na2vs0mg"},{"bike_id":"0b65ee7a-f860-48d4-9b01-346adb7845b5","system_id":"levelo_inurba_marseille","lat":43.292311,"lon":5.360731,"is_reserved":false,"is_disabled":false,"rental_uris":{"android":"levelo://app?vid=0b65ee7a-f860-48d4-9b01-346adb7845b5","ios":"levelo://app?vid=0b65ee7a-f860-48d4-9b01-346adb7845b5"},"vehicle_type_id":"4","last_reported":1721751060,"current_range_meters":400,"station_id":"ce4bhbh2rcd13ifvqeqg","pricing_plan_id":"cebpf4jnsgd1na2vs0mg"},{"bike_id":"ebfe8135-fbee-43eb-89cb-247b3e66eab7","system_id":"levelo_inurba_marseille","lat":43.30085,"lon":5.390856,"is_reserved":false,"is_disabled":false,"rental_uris":{"android":"levelo://app?vid=ebfe8135-fbee-43eb-89cb-247b3e66eab7","ios":"levelo://app?vid=ebfe8135-fbee-43eb-89cb-247b3e66eab7"},"vehicle_type_id":"4","last_reported":1721751060,"current_range_meters":0,"station_id":"ce4bh192rcd13ifvqdb0","pricing_plan_id":"cebpf4jnsgd1na2vs0mg"},{"bike_id":"a9488150-be62-4f3b-a667-f6fcbec5eb71","system_id":"levelo_inurba_marseille","lat":43.298764,"lon":5.388973,"is_reserved":false,"is_disabled":false,"rental_uris":{"android":"levelo://app?vid=a9488150-be62-4f3b-a667-f6fcbec5eb71","ios":"levelo://app?vid=a9488150-be62-4f3b-a667-f6fcbec5eb71"},"vehicle_type_id":"4","last_reported":1721751060,"current_range_meters":1600,"station_id":"ce4bh392rcd13ifvqdl0","pricing_plan_id":"cebpf4jnsgd1na2vs0mg"},{"bike_id":"8c6c8ee3-dbe6-474c-a021-7fbd919f9d75","system_id":"levelo_inurba_marseille","lat":43.291675,"lon":5.371583,"is_reserved":false,"is_disabled":false,"rental_uris":{"android":"levelo://app?vid=8c6c8ee3-dbe6-474c-a021-7fbd919f9d75","ios":"levelo://app?vid=8c6c8ee3-dbe6-474c-a021-7fbd919f9d75"},"vehicle_type_id":"4","last_reported":1721751060,"current_range_meters":0,"station_id":"ce4bha92rcd13ifvqeh0","pricing_plan_id":"cebpf4jnsgd1na2vs0mg"},{"bike_id":"db867a6a-0fc2-4b50-88ae-7fbb9906b022","system_id":"levelo_inurba_marseille","lat":43.313291,"lon":5.396838,"is_reserved":false,"is_disabled":false,"rental_uris":{"android":"levelo://app?vid=db867a6a-0fc2-4b50-88ae-7fbb9906b022","ios":"levelo://app?vid=db867a6a-0fc2-4b50-88ae-7fbb9906b022"},"vehicle_type_id":"4","last_reported":1721751060,"current_range_meters":25600,"station_id":"ce4bgvp2rcd13ifvqcu0","pricing_plan_id":"cebpf4jnsgd1na2vs0mg"},{"bike_id":"0b029255-95ac-44ee-aee1-75a83ac448b3","system_id":"levelo_inurba_marseille","lat":43.313291,"lon":5.396838,"is_reserved":false,"is_disabled":false,"rental_uris":{"android":"levelo://app?vid=0b029255-95ac-44ee-aee1-75a83ac448b3","ios":"levelo://app?vid=0b029255-95ac-44ee-aee1-75a83ac448b3"},"vehicle_type_id":"4","last_reported":1721751060,"current_range_meters":0,"station_id":"ce4bgvp2rcd13ifvqcu0","pricing_plan_id":"cebpf4jnsgd1na2vs0mg"},{"bike_id":"dbd77acd-c33c-4908-ac37-88725f48a7a1","system_id":"levelo_inurba_marseille","lat":43.313291,"lon":5.396838,"is_reserved":false,"is_disabled":false,"rental_uris":{"android":"levelo://app?vid=dbd77acd-c33c-4908-ac37-88725f48a7a1","ios":"levelo://app?vid=dbd77acd-c33c-4908-ac37-88725f48a7a1"},"vehicle_type_id":"4","last_reported":1721751060,"current_range_meters":2000,"station_id":"ce4bgvp2rcd13ifvqcu0","pricing_plan_id":"cebpf4jnsgd1na2vs0mg"},{"bike_id":"a2e66750-861b-4852-a627-7bfaee1fb2e3","system_id":"levelo_inurba_marseille","lat":43.29529,"lon":5.385581,"is_reserved":false,"is_disabled":false,"rental_uris":{"android":"levelo://app?vid=a2e66750-861b-4852-a627-7bfaee1fb2e3","ios":"levelo://app?vid=a2e66750-861b-4852-a627-7bfaee1fb2e3"},"vehicle_type_id":"4","last_reported":1721751060,"current_range_meters":19200,"station_id":"ce4bgih2rcd13ifvqba0","pricing_plan_id":"cebpf4jnsgd1na2vs0mg"},{"bike_id":"45dc525c-3ab1-419a-bac7-7e69177ddc52","system_id":"levelo_inurba_marseille","lat":43.29529,"lon":5.385581,"is_reserved":false,"is_disabled":false,"rental_uris":{"android":"levelo://app?vid=45dc525c-3ab1-419a-bac7-7e69177ddc52","ios":"levelo://app?vid=45dc525c-3ab1-419a-bac7-7e69177ddc52"},"vehicle_type_id":"4","last_reported":1721751060,"current_range_meters":0,"station_id":"ce4bgih2rcd13ifvqba0","pricing_plan_id":"cebpf4jnsgd1na2vs0mg"},{"bike_id":"c6b01c6e-4199-4dbf-bd8a-505c4e3abbb9","system_id":"levelo_inurba_marseille","lat":43.314474,"lon":5.398305,"is_reserved":false,"is_disabled":false,"rental_uris":{"android":"levelo://app?vid=c6b01c6e-4199-4dbf-bd8a-505c4e3abbb9","ios":"levelo://app?vid=c6b01c6e-4199-4dbf-bd8a-505c4e3abbb9"},"vehicle_type_id":"4","last_reported":1721751060,"current_range_meters":14800,"station_id":"","pricing_plan_id":"cebpf4jnsgd1na2vs0mg"},{"bike_id":"5a192ead-ec48-44d3-a721-d4429fa56942","system_id":"levelo_inurba_marseille","lat":43.294153,"lon":5.386305,"is_reserved":false,"is_disabled":false,"rental_uris":{"android":"levelo://app?vid=5a192ead-ec48-44d3-a721-d4429fa56942","ios":"levelo://app?vid=5a192ead-ec48-44d3-a721-d4429fa56942"},"vehicle_type_id":"4","last_reported":1721751060,"current_range_meters":0,"station_id":"ce4bh2h2rcd13ifvqdh0","pricing_plan_id":"cebpf4jnsgd1na2vs0mg"},{"bike_id":"fbe61587-a244-42c1-a1bb-032428837c2c","system_id":"levelo_inurba_marseille","lat":43.294162,"lon":5.386292,"is_reserved":false,"is_disabled":false,"rental_uris":{"android":"levelo://app?vid=fbe61587-a244-42c1-a1bb-032428837c2c","ios":"levelo://app?vid=fbe61587-a244-42c1-a1bb-032428837c2c"},"vehicle_type_id":"4","last_reported":1721751060,"current_range_meters":21600,"station_id":"ce4bh2h2rcd13ifvqdh0","pricing_plan_id":"cebpf4jnsgd1na2vs0mg"},{"bike_id":"f2cb8597-e81e-484a-bda9-2a698480a8b8","system_id":"levelo_inurba_marseille","lat":43.290327,"lon":5.375711,"is_reserved":false,"is_disabled":false,"rental_uris":{"android":"levelo://app?vid=f2cb8597-e81e-484a-bda9-2a698480a8b8","ios":"levelo://app?vid=f2cb8597-e81e-484a-bda9-2a698480a8b8"},"vehicle_type_id":"4","last_reported":1721751060,"current_range_meters":15200,"station_id":"ce4bh692rcd13ifvqe90","pricing_plan_id":"cebpf4jnsgd1na2vs0mg"},{"bike_id":"2e7e6f83-661b-42a0-9f31-72245fd3850d","system_id":"levelo_inurba_marseille","lat":43.289468,"lon":5.363719,"is_reserved":false,"is_disabled":false,"rental_uris":{"android":"levelo://app?vid=2e7e6f83-661b-42a0-9f31-72245fd3850d","ios":"levelo://app?vid=2e7e6f83-661b-42a0-9f31-72245fd3850d"},"vehicle_type_id":"4","last_reported":1721751060,"current_range_meters":22800,"station_id":"ce4bhc92rcd13ifvqetg","pricing_plan_id":"cebpf4jnsgd1na2vs0mg"},{"bike_id":"c8007707-0a45-4f64-b1d7-de00d244416d","system_id":"levelo_inurba_marseille","lat":43.289184,"lon":5.366408,"is_reserved":false,"is_disabled":false,"rental_uris":{"android":"levelo://app?vid=c8007707-0a45-4f64-b1d7-de00d244416d","ios":"levelo://app?vid=c8007707-0a45-4f64-b1d7-de00d244416d"},"vehicle_type_id":"4","last_reported":1721751060,"current_range_meters":6000,"station_id":"ce4bhap2rcd13ifvqek0","pricing_plan_id":"cebpf4jnsgd1na2vs0mg"},{"bike_id":"f99ffc4f-ba80-476e-91ba-1a02425e5b31","system_id":"levelo_inurba_marseille","lat":43.29066,"lon":5.35587,"is_reserved":false,"is_disabled":false,"rental_uris":{"android":"levelo://app?vid=f99ffc4f-ba80-476e-91ba-1a02425e5b31","ios":"levelo://app?vid=f99ffc4f-ba80-476e-91ba-1a02425e5b31"},"vehicle_type_id":"4","last_reported":1721751060,"current_range_meters":10000,"station_id":"","pricing_plan_id":"cebpf4jnsgd1na2vs0mg"},{"bike_id":"7f81dfeb-6b08-46d3-8aa5-46648dfbdaff","system_id":"levelo_inurba_marseille","lat":43.294162,"lon":5.386292,"is_reserved":false,"is_disabled":false,"rental_uris":{"android":"levelo://app?vid=7f81dfeb-6b08-46d3-8aa5-46648dfbdaff","ios":"levelo://app?vid=7f81dfeb-6b08-46d3-8aa5-46648dfbdaff"},"vehicle_type_id":"4","last_reported":1721751060,"current_range_meters":0,"station_id":"ce4bh2h2rcd13ifvqdh0","pricing_plan_id":"cebpf4jnsgd1na2vs0mg"},{"bike_id":"d0a48ae2-1e1c-4b04-b563-e7f86b78dd57","system_id":"levelo_inurba_marseille","lat":43.304296,"lon":5.397513,"is_reserved":false,"is_disabled":false,"rental_uris":{"android":"levelo://app?vid=d0a48ae2-1e1c-4b04-b563-e7f86b78dd57","ios":"levelo://app?vid=d0a48ae2-1e1c-4b04-b563-e7f86b78dd57"},"vehicle_type_id":"4","last_reported":1721751060,"current_range_meters":0,"station_id":"ce4bh092rcd13ifvqd20","pricing_plan_id":"cebpf4jnsgd1na2vs0mg"},{"bike_id":"6fe3b741-2610-4989-8aac-1159d1431f4c","system_id":"levelo_inurba_marseille","lat":43.28997,"lon":5.35672,"is_reserved":false,"is_disabled":false,"rental_uris":{"android":"levelo://app?vid=6fe3b741-2610-4989-8aac-1159d1431f4c","ios":"levelo://app?vid=6fe3b741-2610-4989-8aac-1159d1431f4c"},"vehicle_type_id":"4","last_reported":1721751060,"current_range_meters":22000,"station_id":"ce4bhbp2rcd13ifvqerg","pricing_plan_id":"cebpf4jnsgd1na2vs0mg"},{"bike_id":"501bc914-1a0b-44ae-b3cc-ce89bb4af869","system_id":"levelo_inurba_marseille","lat":43.290104,"lon":5.356111,"is_reserved":false,"is_disabled":false,"rental_uris":{"android":"levelo://app?vid=501bc914-1a0b-44ae-b3cc-ce89bb4af869","ios":"levelo://app?vid=501bc914-1a0b-44ae-b3cc-ce89bb4af869"},"vehicle_type_id":"4","last_reported":1721751060,"current_range_meters":4800,"station_id":"ce4bhb92rcd13ifvqen0","pricing_plan_id":"cebpf4jnsgd1na2vs0mg"},{"bike_id":"f6af4a27-7522-4463-b5f9-98f3af64f283","system_id":"levelo_inurba_marseille","lat":43.290104,"lon":5.356111,"is_reserved":false,"is_disabled":false,"rental_uris":{"android":"levelo://app?vid=f6af4a27-7522-4463-b5f9-98f3af64f283","ios":"levelo://app?vid=f6af4a27-7522-4463-b5f9-98f3af64f283"},"vehicle_type_id":"4","last_reported":1721751060,"current_range_meters":0,"station_id":"ce4bhb92rcd13ifvqen0","pricing_plan_id":"cebpf4jnsgd1na2vs0mg"},{"bike_id":"ed399b14-a7fe-49cb-82d2-8ff0f066e350","system_id":"levelo_inurba_marseille","lat":43.290104,"lon":5.356111,"is_reserved":false,"is_disabled":false,"rental_uris":{"android":"levelo://app?vid=ed399b14-a7fe-49cb-82d2-8ff0f066e350","ios":"levelo://app?vid=ed399b14-a7fe-49cb-82d2-8ff0f066e350"},"vehicle_type_id":"4","last_reported":1721751060,"current_range_meters":22400,"station_id":"ce4bhb92rcd13ifvqen0","pricing_plan_id":"cebpf4jnsgd1na2vs0mg"},{"bike_id":"4a7e8be2-ed54-447b-aac5-9026001a4bde","system_id":"levelo_inurba_marseille","lat":43.312609,"lon":5.401662,"is_reserved":false,"is_disabled":false,"rental_uris":{"android":"levelo://app?vid=4a7e8be2-ed54-447b-aac5-9026001a4bde","ios":"levelo://app?vid=4a7e8be2-ed54-447b-aac5-9026001a4bde"},"vehicle_type_id":"4","last_reported":1721751060,"current_range_meters":400,"station_id":"ce4bh092rcd13ifvqd30","pricing_plan_id":"cebpf4jnsgd1na2vs0mg"},{"bike_id":"90b0db13-2e00-4587-b579-dbd8076e3512","system_id":"levelo_inurba_marseille","lat":43.29,"lon":5.35608,"is_reserved":false,"is_disabled":false,"rental_uris":{"android":"levelo://app?vid=90b0db13-2e00-4587-b579-dbd8076e3512","ios":"levelo://app?vid=90b0db13-2e00-4587-b579-dbd8076e3512"},"vehicle_type_id":"4","last_reported":1721751060,"current_range_meters":0,"station_id":"ce4bhb92rcd13ifvqen0","pricing_plan_id":"cebpf4jnsgd1na2vs0mg"},{"bike_id":"1c434e30-0b32-42ec-8808-80e4c4ff1b24","system_id":"levelo_inurba_marseille","lat":43.290104,"lon":5.356111,"is_reserved":false,"is_disabled":false,"rental_uris":{"android":"levelo://app?vid=1c434e30-0b32-42ec-8808-80e4c4ff1b24","ios":"levelo://app?vid=1c434e30-0b32-42ec-8808-80e4c4ff1b24"},"vehicle_type_id":"4","last_reported":1721751060,"current_range_meters":0,"station_id":"ce4bhb92rcd13ifvqen0","pricing_plan_id":"cebpf4jnsgd1na2vs0mg"},{"bike_id":"b182030a-901d-44f1-9cba-a21312bf74e2","system_id":"levelo_inurba_marseille","lat":43.290064,"lon":5.355254,"is_reserved":false,"is_disabled":false,"rental_uris":{"android":"levelo://app?vid=b182030a-901d-44f1-9cba-a21312bf74e2","ios":"levelo://app?vid=b182030a-901d-44f1-9cba-a21312bf74e2"},"vehicle_type_id":"4","last_reported":1721751060,"current_range_meters":17200,"station_id":"","pricing_plan_id":"cebpf4jnsgd1na2vs0mg"},{"bike_id":"fc832a90-dbbc-4b8a-8461-11d0b114c9e5","system_id":"levelo_inurba_marseille","lat":43.33043,"lon":5.39005,"is_reserved":false,"is_disabled":false,"rental_uris":{"android":"levelo://app?vid=fc832a90-dbbc-4b8a-8461-11d0b114c9e5","ios":"levelo://app?vid=fc832a90-dbbc-4b8a-8461-11d0b114c9e5"},"vehicle_type_id":"4","last_reported":1721751060,"current_range_meters":10000,"station_id":"ce4bhr92rcd13ifvqhrg","pricing_plan_id":"cebpf4jnsgd1na2vs0mg"},{"bike_id":"ddcf22a3-f534-482f-a971-8f862565c476","system_id":"levelo_inurba_marseille","lat":43.33022,"lon":5.39038,"is_reserved":false,"is_disabled":false,"rental_uris":{"android":"levelo://app?vid=ddcf22a3-f534-482f-a971-8f862565c476","ios":"levelo://app?vid=ddcf22a3-f534-482f-a971-8f862565c476"},"vehicle_type_id":"4","last_reported":1721751060,"current_range_meters":22800,"station_id":"ce4bhr92rcd13ifvqhrg","pricing_plan_id":"cebpf4jnsgd1na2vs0mg"},{"bike_id":"1b4edb48-d43f-48b5-b64a-01846047e25f","system_id":"levelo_inurba_marseille","lat":43.330442,"lon":5.389148,"is_reserved":false,"is_disabled":false,"rental_uris":{"android":"levelo://app?vid=1b4edb48-d43f-48b5-b64a-01846047e25f","ios":"levelo://app?vid=1b4edb48-d43f-48b5-b64a-01846047e25f"},"vehicle_type_id":"4","last_reported":1721751060,"current_range_meters":400,"station_id":"ce4bhr92rcd13ifvqhrg","pricing_plan_id":"cebpf4jnsgd1na2vs0mg"},{"bike_id":"9da23df5-ab34-41fd-a7d9-b0e7dcc6e271","system_id":"levelo_inurba_marseille","lat":43.330442,"lon":5.389148,"is_reserved":false,"is_disabled":false,"rental_uris":{"android":"levelo://app?vid=9da23df5-ab34-41fd-a7d9-b0e7dcc6e271","ios":"levelo://app?vid=9da23df5-ab34-41fd-a7d9-b0e7dcc6e271"},"vehicle_type_id":"4","last_reported":1721751060,"current_range_meters":24800,"station_id":"ce4bhr92rcd13ifvqhrg","pricing_plan_id":"cebpf4jnsgd1na2vs0mg"},{"bike_id":"71d3da65-2fdf-4d51-8f0a-680ce0f03dca","system_id":"levelo_inurba_marseille","lat":43.28874,"lon":5.35889,"is_reserved":false,"is_disabled":false,"rental_uris":{"android":"levelo://app?vid=71d3da65-2fdf-4d51-8f0a-680ce0f03dca","ios":"levelo://app?vid=71d3da65-2fdf-4d51-8f0a-680ce0f03dca"},"vehicle_type_id":"4","last_reported":1721751060,"current_range_meters":8800,"station_id":"ce4bhb12rcd13ifvqem0","pricing_plan_id":"cebpf4jnsgd1na2vs0mg"},{"bike_id":"03cedc4c-1699-4e60-876a-89da5a7aed45","system_id":"levelo_inurba_marseille","lat":43.28856,"lon":5.358371,"is_reserved":false,"is_disabled":false,"rental_uris":{"android":"levelo://app?vid=03cedc4c-1699-4e60-876a-89da5a7aed45","ios":"levelo://app?vid=03cedc4c-1699-4e60-876a-89da5a7aed45"},"vehicle_type_id":"4","last_reported":1721751060,"current_range_meters":15600,"station_id":"ce4bhb12rcd13ifvqem0","pricing_plan_id":"cebpf4jnsgd1na2vs0mg"},{"bike_id":"3808cd32-ab3a-4b4d-bc5c-3b6a811f4cc4","system_id":"levelo_inurba_marseille","lat":43.28856,"lon":5.358371,"is_reserved":false,"is_disabled":false,"rental_uris":{"android":"levelo://app?vid=3808cd32-ab3a-4b4d-bc5c-3b6a811f4cc4","ios":"levelo://app?vid=3808cd32-ab3a-4b4d-bc5c-3b6a811f4cc4"},"vehicle_type_id":"4","last_reported":1721751060,"current_range_meters":0,"station_id":"ce4bhb12rcd13ifvqem0","pricing_plan_id":"cebpf4jnsgd1na2vs0mg"},{"bike_id":"7a0519b4-c5f0-4d03-aa58-176f0457b65e","system_id":"levelo_inurba_marseille","lat":43.309371,"lon":5.401449,"is_reserved":false,"is_disabled":false,"rental_uris":{"android":"levelo://app?vid=7a0519b4-c5f0-4d03-aa58-176f0457b65e","ios":"levelo://app?vid=7a0519b4-c5f0-4d03-aa58-176f0457b65e"},"vehicle_type_id":"4","last_reported":1721751060,"current_range_meters":23200,"station_id":"ce4bgvp2rcd13ifvqct0","pricing_plan_id":"cebpf4jnsgd1na2vs0mg"},{"bike_id":"6bee14db-9f88-4c59-afa5-da083c1ffbe3","system_id":"levelo_inurba_marseille","lat":43.337487,"lon":5.374498,"is_reserved":false,"is_disabled":false,"rental_uris":{"android":"levelo://app?vid=6bee14db-9f88-4c59-afa5-da083c1ffbe3","ios":"levelo://app?vid=6bee14db-9f88-4c59-afa5-da083c1ffbe3"},"vehicle_type_id":"4","last_reported":1721751060,"current_range_meters":22000,"station_id":"","pricing_plan_id":"cebpf4jnsgd1na2vs0mg"},{"bike_id":"386d8ae4-8693-441f-80c4-276029ad1814","system_id":"levelo_inurba_marseille","lat":43.309371,"lon":5.401449,"is_reserved":false,"is_disabled":false,"rental_uris":{"android":"levelo://app?vid=386d8ae4-8693-441f-80c4-276029ad1814","ios":"levelo://app?vid=386d8ae4-8693-441f-80c4-276029ad1814"},"vehicle_type_id":"4","last_reported":1721751060,"current_range_meters":17200,"station_id":"ce4bgvp2rcd13ifvqct0","pricing_plan_id":"cebpf4jnsgd1na2vs0mg"},{"bike_id":"a235c800-3c57-4740-a673-3a0ec502d831","system_id":"levelo_inurba_marseille","lat":43.337553,"lon":5.374413,"is_reserved":false,"is_disabled":false,"rental_uris":{"android":"levelo://app?vid=a235c800-3c57-4740-a673-3a0ec502d831","ios":"levelo://app?vid=a235c800-3c57-4740-a673-3a0ec502d831"},"vehicle_type_id":"4","last_reported":1721751060,"current_range_meters":30800,"station_id":"","pricing_plan_id":"cebpf4jnsgd1na2vs0mg"},{"bike_id":"813878f8-5c09-42fc-a565-9c8b9db28a68","system_id":"levelo_inurba_marseille","lat":43.33763,"lon":5.37426,"is_reserved":false,"is_disabled":false,"rental_uris":{"android":"levelo://app?vid=813878f8-5c09-42fc-a565-9c8b9db28a68","ios":"levelo://app?vid=813878f8-5c09-42fc-a565-9c8b9db28a68"},"vehicle_type_id":"4","last_reported":1721751060,"current_range_meters":27600,"station_id":"","pricing_plan_id":"cebpf4jnsgd1na2vs0mg"},{"bike_id":"56b6a81f-a86e-45db-b3de-8097b698a36d","system_id":"levelo_inurba_marseille","lat":43.337603,"lon":5.37448,"is_reserved":false,"is_disabled":false,"rental_uris":{"android":"levelo://app?vid=56b6a81f-a86e-45db-b3de-8097b698a36d","ios":"levelo://app?vid=56b6a81f-a86e-45db-b3de-8097b698a36d"},"vehicle_type_id":"4","last_reported":1721751060,"current_range_meters":11200,"station_id":"","pricing_plan_id":"cebpf4jnsgd1na2vs0mg"},{"bike_id":"72742065-b9f9-425b-adb6-911ad375ccc0","system_id":"levelo_inurba_marseille","lat":43.33768,"lon":5.37426,"is_reserved":false,"is_disabled":false,"rental_uris":{"android":"levelo://app?vid=72742065-b9f9-425b-adb6-911ad375ccc0","ios":"levelo://app?vid=72742065-b9f9-425b-adb6-911ad375ccc0"},"vehicle_type_id":"4","last_reported":1721751060,"current_range_meters":26800,"station_id":"","pricing_plan_id":"cebpf4jnsgd1na2vs0mg"},{"bike_id":"ec58e937-246a-4137-8cae-9f5bd3b207e0","system_id":"levelo_inurba_marseille","lat":43.306412,"lon":5.401035,"is_reserved":false,"is_disabled":false,"rental_uris":{"android":"levelo://app?vid=ec58e937-246a-4137-8cae-9f5bd3b207e0","ios":"levelo://app?vid=ec58e937-246a-4137-8cae-9f5bd3b207e0"},"vehicle_type_id":"4","last_reported":1721751060,"current_range_meters":19600,"station_id":"ce4bh112rcd13ifvqda0","pricing_plan_id":"cebpf4jnsgd1na2vs0mg"},{"bike_id":"6c35e184-4379-469a-ac8c-fcdeb21ce6cb","system_id":"levelo_inurba_marseille","lat":43.301117,"lon":5.398795,"is_reserved":false,"is_disabled":false,"rental_uris":{"android":"levelo://app?vid=6c35e184-4379-469a-ac8c-fcdeb21ce6cb","ios":"levelo://app?vid=6c35e184-4379-469a-ac8c-fcdeb21ce6cb"},"vehicle_type_id":"4","last_reported":1721751060,"current_range_meters":0,"station_id":"ce4bh0h2rcd13ifvqd40","pricing_plan_id":"cebpf4jnsgd1na2vs0mg"},{"bike_id":"77a66306-ea4c-470f-b576-87cc5ae0b3f4","system_id":"levelo_inurba_marseille","lat":43.33775,"lon":5.37431,"is_reserved":false,"is_disabled":false,"rental_uris":{"android":"levelo://app?vid=77a66306-ea4c-470f-b576-87cc5ae0b3f4","ios":"levelo://app?vid=77a66306-ea4c-470f-b576-87cc5ae0b3f4"},"vehicle_type_id":"4","last_reported":1721751060,"current_range_meters":26400,"station_id":"","pricing_plan_id":"cebpf4jnsgd1na2vs0mg"},{"bike_id":"50b5e63a-0478-4ea4-92a0-2e1091787dc6","system_id":"levelo_inurba_marseille","lat":43.33776,"lon":5.37429,"is_reserved":false,"is_disabled":false,"rental_uris":{"android":"levelo://app?vid=50b5e63a-0478-4ea4-92a0-2e1091787dc6","ios":"levelo://app?vid=50b5e63a-0478-4ea4-92a0-2e1091787dc6"},"vehicle_type_id":"4","last_reported":1721751060,"current_range_meters":1600,"station_id":"","pricing_plan_id":"cebpf4jnsgd1na2vs0mg"},{"bike_id":"22ae297e-6b02-4294-bf03-76719d96aa86","system_id":"levelo_inurba_marseille","lat":43.301117,"lon":5.398795,"is_reserved":false,"is_disabled":false,"rental_uris":{"android":"levelo://app?vid=22ae297e-6b02-4294-bf03-76719d96aa86","ios":"levelo://app?vid=22ae297e-6b02-4294-bf03-76719d96aa86"},"vehicle_type_id":"4","last_reported":1721751060,"current_range_meters":10800,"station_id":"ce4bh0h2rcd13ifvqd40","pricing_plan_id":"cebpf4jnsgd1na2vs0mg"},{"bike_id":"941ea7bf-0c56-4006-89d8-645852bdbb31","system_id":"levelo_inurba_marseille","lat":43.301117,"lon":5.398795,"is_reserved":false,"is_disabled":false,"rental_uris":{"android":"levelo://app?vid=941ea7bf-0c56-4006-89d8-645852bdbb31","ios":"levelo://app?vid=941ea7bf-0c56-4006-89d8-645852bdbb31"},"vehicle_type_id":"4","last_reported":1721751060,"current_range_meters":28000,"station_id":"ce4bh0h2rcd13ifvqd40","pricing_plan_id":"cebpf4jnsgd1na2vs0mg"},{"bike_id":"1a71c3d8-4750-434e-addd-b2e2a8c8ee99","system_id":"levelo_inurba_marseille","lat":43.286591,"lon":5.363346,"is_reserved":false,"is_disabled":false,"rental_uris":{"android":"levelo://app?vid=1a71c3d8-4750-434e-addd-b2e2a8c8ee99","ios":"levelo://app?vid=1a71c3d8-4750-434e-addd-b2e2a8c8ee99"},"vehicle_type_id":"4","last_reported":1721751060,"current_range_meters":0,"station_id":"ce4bhah2rcd13ifvqej0","pricing_plan_id":"cebpf4jnsgd1na2vs0mg"},{"bike_id":"a537c542-7f88-4b78-a9d6-83f2080d9c45","system_id":"levelo_inurba_marseille","lat":43.298681,"lon":5.397225,"is_reserved":false,"is_disabled":false,"rental_uris":{"android":"levelo://app?vid=a537c542-7f88-4b78-a9d6-83f2080d9c45","ios":"levelo://app?vid=a537c542-7f88-4b78-a9d6-83f2080d9c45"},"vehicle_type_id":"4","last_reported":1721751060,"current_range_meters":0,"station_id":"ce4bh0h2rcd13ifvqd50","pricing_plan_id":"cebpf4jnsgd1na2vs0mg"},{"bike_id":"37e40c74-517a-4e6b-bbfb-73d5937a5b61","system_id":"levelo_inurba_marseille","lat":43.286961,"lon":5.373785,"is_reserved":false,"is_disabled":false,"rental_uris":{"android":"levelo://app?vid=37e40c74-517a-4e6b-bbfb-73d5937a5b61","ios":"levelo://app?vid=37e40c74-517a-4e6b-bbfb-73d5937a5b61"},"vehicle_type_id":"4","last_reported":1721751060,"current_range_meters":16800,"station_id":"ce4bh3p2rcd13ifvqdq0","pricing_plan_id":"cebpf4jnsgd1na2vs0mg"},{"bike_id":"50636d23-6f28-416c-b17d-39507fe354e5","system_id":"levelo_inurba_marseille","lat":43.298681,"lon":5.397225,"is_reserved":false,"is_disabled":false,"rental_uris":{"android":"levelo://app?vid=50636d23-6f28-416c-b17d-39507fe354e5","ios":"levelo://app?vid=50636d23-6f28-416c-b17d-39507fe354e5"},"vehicle_type_id":"4","last_reported":1721751060,"current_range_meters":6000,"station_id":"ce4bh0h2rcd13ifvqd50","pricing_plan_id":"cebpf4jnsgd1na2vs0mg"},{"bike_id":"71c61a47-280f-4bac-bd47-4c6938b26832","system_id":"levelo_inurba_marseille","lat":43.2893,"lon":5.38371,"is_reserved":false,"is_disabled":false,"rental_uris":{"android":"levelo://app?vid=71c61a47-280f-4bac-bd47-4c6938b26832","ios":"levelo://app?vid=71c61a47-280f-4bac-bd47-4c6938b26832"},"vehicle_type_id":"4","last_reported":1721751060,"current_range_meters":19200,"station_id":"ce4bh612rcd13ifvqe6g","pricing_plan_id":"cebpf4jnsgd1na2vs0mg"},{"bike_id":"b277aca4-c233-42c8-b00b-94d9c2a47896","system_id":"levelo_inurba_marseille","lat":43.289307,"lon":5.38406,"is_reserved":false,"is_disabled":false,"rental_uris":{"android":"levelo://app?vid=b277aca4-c233-42c8-b00b-94d9c2a47896","ios":"levelo://app?vid=b277aca4-c233-42c8-b00b-94d9c2a47896"},"vehicle_type_id":"4","last_reported":1721751060,"current_range_meters":20800,"station_id":"ce4bh612rcd13ifvqe6g","pricing_plan_id":"cebpf4jnsgd1na2vs0mg"},{"bike_id":"19588d3d-57a5-4d3b-a4e1-6b57835e89f6","system_id":"levelo_inurba_marseille","lat":43.28926,"lon":5.38395,"is_reserved":false,"is_disabled":false,"rental_uris":{"android":"levelo://app?vid=19588d3d-57a5-4d3b-a4e1-6b57835e89f6","ios":"levelo://app?vid=19588d3d-57a5-4d3b-a4e1-6b57835e89f6"},"vehicle_type_id":"4","last_reported":1721751060,"current_range_meters":4000,"station_id":"ce4bh612rcd13ifvqe6g","pricing_plan_id":"cebpf4jnsgd1na2vs0mg"},{"bike_id":"af2a70d6-4540-4805-a68f-26ebe0a37ec4","system_id":"levelo_inurba_marseille","lat":43.290336,"lon":5.386425,"is_reserved":false,"is_disabled":false,"rental_uris":{"android":"levelo://app?vid=af2a70d6-4540-4805-a68f-26ebe0a37ec4","ios":"levelo://app?vid=af2a70d6-4540-4805-a68f-26ebe0a37ec4"},"vehicle_type_id":"4","last_reported":1721751060,"current_range_meters":19600,"station_id":"ce4bh4p2rcd13ifvqe0g","pricing_plan_id":"cebpf4jnsgd1na2vs0mg"},{"bike_id":"ddd598ba-8e9e-4cc5-b313-046cd51b9a87","system_id":"levelo_inurba_marseille","lat":43.290336,"lon":5.386425,"is_reserved":false,"is_disabled":false,"rental_uris":{"android":"levelo://app?vid=ddd598ba-8e9e-4cc5-b313-046cd51b9a87","ios":"levelo://app?vid=ddd598ba-8e9e-4cc5-b313-046cd51b9a87"},"vehicle_type_id":"4","last_reported":1721751060,"current_range_meters":26000,"station_id":"ce4bh4p2rcd13ifvqe0g","pricing_plan_id":"cebpf4jnsgd1na2vs0mg"},{"bike_id":"74b3e369-8cfa-47e8-b1e7-3de53488d5fc","system_id":"levelo_inurba_marseille","lat":43.286039,"lon":5.370679,"is_reserved":false,"is_disabled":false,"rental_uris":{"android":"levelo://app?vid=74b3e369-8cfa-47e8-b1e7-3de53488d5fc","ios":"levelo://app?vid=74b3e369-8cfa-47e8-b1e7-3de53488d5fc"},"vehicle_type_id":"4","last_reported":1721751060,"current_range_meters":18400,"station_id":"ce4bht12rcd13ifvqi60","pricing_plan_id":"cebpf4jnsgd1na2vs0mg"},{"bike_id":"22bc287d-8c66-41c3-bf24-a4ccc1f1ba9b","system_id":"levelo_inurba_marseille","lat":43.286039,"lon":5.370679,"is_reserved":false,"is_disabled":false,"rental_uris":{"android":"levelo://app?vid=22bc287d-8c66-41c3-bf24-a4ccc1f1ba9b","ios":"levelo://app?vid=22bc287d-8c66-41c3-bf24-a4ccc1f1ba9b"},"vehicle_type_id":"4","last_reported":1721751060,"current_range_meters":19600,"station_id":"ce4bht12rcd13ifvqi60","pricing_plan_id":"cebpf4jnsgd1na2vs0mg"},{"bike_id":"100711db-252a-4bd5-853d-74ebdd30f1db","system_id":"levelo_inurba_marseille","lat":43.294314,"lon":5.397498,"is_reserved":false,"is_disabled":false,"rental_uris":{"android":"levelo://app?vid=100711db-252a-4bd5-853d-74ebdd30f1db","ios":"levelo://app?vid=100711db-252a-4bd5-853d-74ebdd30f1db"},"vehicle_type_id":"4","last_reported":1721751060,"current_range_meters":2800,"station_id":"ce4bh3h2rcd13ifvqdo0","pricing_plan_id":"cebpf4jnsgd1na2vs0mg"},{"bike_id":"06f5fba0-025c-45d8-8bdf-5cc8f3ff3076","system_id":"levelo_inurba_marseille","lat":43.284538,"lon":5.358657,"is_reserved":false,"is_disabled":false,"rental_uris":{"android":"levelo://app?vid=06f5fba0-025c-45d8-8bdf-5cc8f3ff3076","ios":"levelo://app?vid=06f5fba0-025c-45d8-8bdf-5cc8f3ff3076"},"vehicle_type_id":"4","last_reported":1721751060,"current_range_meters":13600,"station_id":"ce4bhah2rcd13ifvqei0","pricing_plan_id":"cebpf4jnsgd1na2vs0mg"},{"bike_id":"b1751485-6d77-471d-8f94-f15e14ff27a7","system_id":"levelo_inurba_marseille","lat":43.284538,"lon":5.358657,"is_reserved":false,"is_disabled":false,"rental_uris":{"android":"levelo://app?vid=b1751485-6d77-471d-8f94-f15e14ff27a7","ios":"levelo://app?vid=b1751485-6d77-471d-8f94-f15e14ff27a7"},"vehicle_type_id":"4","last_reported":1721751060,"current_range_meters":19600,"station_id":"ce4bhah2rcd13ifvqei0","pricing_plan_id":"cebpf4jnsgd1na2vs0mg"},{"bike_id":"77a1a841-e81b-45cd-ac4d-ca35f37368e3","system_id":"levelo_inurba_marseille","lat":43.284534,"lon":5.358662,"is_reserved":false,"is_disabled":false,"rental_uris":{"android":"levelo://app?vid=77a1a841-e81b-45cd-ac4d-ca35f37368e3","ios":"levelo://app?vid=77a1a841-e81b-45cd-ac4d-ca35f37368e3"},"vehicle_type_id":"4","last_reported":1721751060,"current_range_meters":7600,"station_id":"ce4bhah2rcd13ifvqei0","pricing_plan_id":"cebpf4jnsgd1na2vs0mg"},{"bike_id":"6c0fd3ea-9bce-4846-8b1e-f2c756759d0c","system_id":"levelo_inurba_marseille","lat":43.294314,"lon":5.397498,"is_reserved":false,"is_disabled":false,"rental_uris":{"android":"levelo://app?vid=6c0fd3ea-9bce-4846-8b1e-f2c756759d0c","ios":"levelo://app?vid=6c0fd3ea-9bce-4846-8b1e-f2c756759d0c"},"vehicle_type_id":"4","last_reported":1721751060,"current_range_meters":2000,"station_id":"ce4bh3h2rcd13ifvqdo0","pricing_plan_id":"cebpf4jnsgd1na2vs0mg"},{"bike_id":"2f5cd74b-a3f8-468a-a602-840ed5a9c0eb","system_id":"levelo_inurba_marseille","lat":43.284534,"lon":5.358662,"is_reserved":false,"is_disabled":false,"rental_uris":{"android":"levelo://app?vid=2f5cd74b-a3f8-468a-a602-840ed5a9c0eb","ios":"levelo://app?vid=2f5cd74b-a3f8-468a-a602-840ed5a9c0eb"},"vehicle_type_id":"4","last_reported":1721751060,"current_range_meters":0,"station_id":"ce4bhah2rcd13ifvqei0","pricing_plan_id":"cebpf4jnsgd1na2vs0mg"},{"bike_id":"bfaae27e-b5a4-450f-9328-cc1410f5cb2c","system_id":"levelo_inurba_marseille","lat":43.286275,"lon":5.351225,"is_reserved":false,"is_disabled":false,"rental_uris":{"android":"levelo://app?vid=bfaae27e-b5a4-450f-9328-cc1410f5cb2c","ios":"levelo://app?vid=bfaae27e-b5a4-450f-9328-cc1410f5cb2c"},"vehicle_type_id":"4","last_reported":1721751060,"current_range_meters":0,"station_id":"","pricing_plan_id":"cebpf4jnsgd1na2vs0mg"},{"bike_id":"e541edb3-0410-4276-8284-8b784ca3f52f","system_id":"levelo_inurba_marseille","lat":43.294314,"lon":5.397498,"is_reserved":false,"is_disabled":false,"rental_uris":{"android":"levelo://app?vid=e541edb3-0410-4276-8284-8b784ca3f52f","ios":"levelo://app?vid=e541edb3-0410-4276-8284-8b784ca3f52f"},"vehicle_type_id":"4","last_reported":1721751060,"current_range_meters":11600,"station_id":"ce4bh3h2rcd13ifvqdo0","pricing_plan_id":"cebpf4jnsgd1na2vs0mg"},{"bike_id":"e60e9a9a-16da-4a83-be06-a51fffb784c2","system_id":"levelo_inurba_marseille","lat":43.294314,"lon":5.397498,"is_reserved":false,"is_disabled":false,"rental_uris":{"android":"levelo://app?vid=e60e9a9a-16da-4a83-be06-a51fffb784c2","ios":"levelo://app?vid=e60e9a9a-16da-4a83-be06-a51fffb784c2"},"vehicle_type_id":"4","last_reported":1721751060,"current_range_meters":20800,"station_id":"ce4bh3h2rcd13ifvqdo0","pricing_plan_id":"cebpf4jnsgd1na2vs0mg"},{"bike_id":"c92709d2-cd8e-4d3b-a099-f684eb121529","system_id":"levelo_inurba_marseille","lat":43.285856,"lon":5.350771,"is_reserved":false,"is_disabled":false,"rental_uris":{"android":"levelo://app?vid=c92709d2-cd8e-4d3b-a099-f684eb121529","ios":"levelo://app?vid=c92709d2-cd8e-4d3b-a099-f684eb121529"},"vehicle_type_id":"4","last_reported":1721751060,"current_range_meters":6400,"station_id":"ce4bhch2rcd13ifvqeug","pricing_plan_id":"cebpf4jnsgd1na2vs0mg"},{"bike_id":"3a7897f2-9210-42f9-a6c8-dfdc3adac680","system_id":"levelo_inurba_marseille","lat":43.285856,"lon":5.350771,"is_reserved":false,"is_disabled":false,"rental_uris":{"android":"levelo://app?vid=3a7897f2-9210-42f9-a6c8-dfdc3adac680","ios":"levelo://app?vid=3a7897f2-9210-42f9-a6c8-dfdc3adac680"},"vehicle_type_id":"4","last_reported":1721751060,"current_range_meters":0,"station_id":"ce4bhch2rcd13ifvqeug","pricing_plan_id":"cebpf4jnsgd1na2vs0mg"},{"bike_id":"772e20bf-9aab-441a-96a8-1e95a4c27054","system_id":"levelo_inurba_marseille","lat":43.285856,"lon":5.350771,"is_reserved":false,"is_disabled":false,"rental_uris":{"android":"levelo://app?vid=772e20bf-9aab-441a-96a8-1e95a4c27054","ios":"levelo://app?vid=772e20bf-9aab-441a-96a8-1e95a4c27054"},"vehicle_type_id":"4","last_reported":1721751060,"current_range_meters":12400,"station_id":"ce4bhch2rcd13ifvqeug","pricing_plan_id":"cebpf4jnsgd1na2vs0mg"},{"bike_id":"f318def8-2f92-453f-ab01-0c79d502cc25","system_id":"levelo_inurba_marseille","lat":43.285856,"lon":5.350771,"is_reserved":false,"is_disabled":false,"rental_uris":{"android":"levelo://app?vid=f318def8-2f92-453f-ab01-0c79d502cc25","ios":"levelo://app?vid=f318def8-2f92-453f-ab01-0c79d502cc25"},"vehicle_type_id":"4","last_reported":1721751060,"current_range_meters":0,"station_id":"ce4bhch2rcd13ifvqeug","pricing_plan_id":"cebpf4jnsgd1na2vs0mg"},{"bike_id":"6289ccdf-1b50-448e-a1f9-b02f3e636e57","system_id":"levelo_inurba_marseille","lat":43.28617,"lon":5.35105,"is_reserved":false,"is_disabled":false,"rental_uris":{"android":"levelo://app?vid=6289ccdf-1b50-448e-a1f9-b02f3e636e57","ios":"levelo://app?vid=6289ccdf-1b50-448e-a1f9-b02f3e636e57"},"vehicle_type_id":"4","last_reported":1721751060,"current_range_meters":21600,"station_id":"ce4bhch2rcd13ifvqeug","pricing_plan_id":"cebpf4jnsgd1na2vs0mg"},{"bike_id":"a64db417-a43f-4545-943e-219c5b7fde97","system_id":"levelo_inurba_marseille","lat":43.28618,"lon":5.35097,"is_reserved":false,"is_disabled":false,"rental_uris":{"android":"levelo://app?vid=a64db417-a43f-4545-943e-219c5b7fde97","ios":"levelo://app?vid=a64db417-a43f-4545-943e-219c5b7fde97"},"vehicle_type_id":"4","last_reported":1721751060,"current_range_meters":3600,"station_id":"ce4bhch2rcd13ifvqeug","pricing_plan_id":"cebpf4jnsgd1na2vs0mg"},{"bike_id":"1231718a-6f7e-4bcf-8e45-88edbd16cf8e","system_id":"levelo_inurba_marseille","lat":43.28616,"lon":5.35102,"is_reserved":false,"is_disabled":false,"rental_uris":{"android":"levelo://app?vid=1231718a-6f7e-4bcf-8e45-88edbd16cf8e","ios":"levelo://app?vid=1231718a-6f7e-4bcf-8e45-88edbd16cf8e"},"vehicle_type_id":"4","last_reported":1721751060,"current_range_meters":0,"station_id":"","pricing_plan_id":"cebpf4jnsgd1na2vs0mg"},{"bike_id":"1d87199f-8926-4c5a-8c8c-de77b63043a3","system_id":"levelo_inurba_marseille","lat":43.28615,"lon":5.35104,"is_reserved":false,"is_disabled":false,"rental_uris":{"android":"levelo://app?vid=1d87199f-8926-4c5a-8c8c-de77b63043a3","ios":"levelo://app?vid=1d87199f-8926-4c5a-8c8c-de77b63043a3"},"vehicle_type_id":"4","last_reported":1721751060,"current_range_meters":0,"station_id":"ce4bhch2rcd13ifvqeug","pricing_plan_id":"cebpf4jnsgd1na2vs0mg"},{"bike_id":"66e377d2-2f63-4725-ac00-f3e608151cda","system_id":"levelo_inurba_marseille","lat":43.286053,"lon":5.351153,"is_reserved":false,"is_disabled":false,"rental_uris":{"android":"levelo://app?vid=66e377d2-2f63-4725-ac00-f3e608151cda","ios":"levelo://app?vid=66e377d2-2f63-4725-ac00-f3e608151cda"},"vehicle_type_id":"4","last_reported":1721751060,"current_range_meters":16000,"station_id":"ce4bhbh2rcd13ifvqepg","pricing_plan_id":"cebpf4jnsgd1na2vs0mg"},{"bike_id":"8639cffd-690f-4944-9e36-9bd393f85968","system_id":"levelo_inurba_marseille","lat":43.29568,"lon":5.39974,"is_reserved":false,"is_disabled":false,"rental_uris":{"android":"levelo://app?vid=8639cffd-690f-4944-9e36-9bd393f85968","ios":"levelo://app?vid=8639cffd-690f-4944-9e36-9bd393f85968"},"vehicle_type_id":"4","last_reported":1721751060,"current_range_meters":0,"station_id":"ce4bh312rcd13ifvqdj0","pricing_plan_id":"cebpf4jnsgd1na2vs0mg"},{"bike_id":"8762bc12-44fa-4782-b993-2c5e63981517","system_id":"levelo_inurba_marseille","lat":43.319179,"lon":5.407725,"is_reserved":false,"is_disabled":false,"rental_uris":{"android":"levelo://app?vid=8762bc12-44fa-4782-b993-2c5e63981517","ios":"levelo://app?vid=8762bc12-44fa-4782-b993-2c5e63981517"},"vehicle_type_id":"4","last_reported":1721751060,"current_range_meters":26800,"station_id":"ce4bhq12rcd13ifvqhig","pricing_plan_id":"cebpf4jnsgd1na2vs0mg"},{"bike_id":"73fe231e-c655-477f-add9-38fc42369806","system_id":"levelo_inurba_marseille","lat":43.337168,"lon":5.391825,"is_reserved":false,"is_disabled":false,"rental_uris":{"android":"levelo://app?vid=73fe231e-c655-477f-add9-38fc42369806","ios":"levelo://app?vid=73fe231e-c655-477f-add9-38fc42369806"},"vehicle_type_id":"4","last_reported":1721751060,"current_range_meters":16400,"station_id":"ce4bhr92rcd13ifvqhsg","pricing_plan_id":"cebpf4jnsgd1na2vs0mg"},{"bike_id":"336b3dcc-02cd-4811-9b1d-a25103b14b19","system_id":"levelo_inurba_marseille","lat":43.33717,"lon":5.391857,"is_reserved":false,"is_disabled":false,"rental_uris":{"android":"levelo://app?vid=336b3dcc-02cd-4811-9b1d-a25103b14b19","ios":"levelo://app?vid=336b3dcc-02cd-4811-9b1d-a25103b14b19"},"vehicle_type_id":"4","last_reported":1721751060,"current_range_meters":32000,"station_id":"ce4bhr92rcd13ifvqhsg","pricing_plan_id":"cebpf4jnsgd1na2vs0mg"},{"bike_id":"c15dc7ed-cd05-434f-836e-b2a864aec6df","system_id":"levelo_inurba_marseille","lat":43.33717,"lon":5.391857,"is_reserved":false,"is_disabled":false,"rental_uris":{"android":"levelo://app?vid=c15dc7ed-cd05-434f-836e-b2a864aec6df","ios":"levelo://app?vid=c15dc7ed-cd05-434f-836e-b2a864aec6df"},"vehicle_type_id":"4","last_reported":1721751060,"current_range_meters":16800,"station_id":"ce4bhr92rcd13ifvqhsg","pricing_plan_id":"cebpf4jnsgd1na2vs0mg"},{"bike_id":"03f5684d-70fa-4182-813d-3ed580295f10","system_id":"levelo_inurba_marseille","lat":43.33717,"lon":5.391857,"is_reserved":false,"is_disabled":false,"rental_uris":{"android":"levelo://app?vid=03f5684d-70fa-4182-813d-3ed580295f10","ios":"levelo://app?vid=03f5684d-70fa-4182-813d-3ed580295f10"},"vehicle_type_id":"4","last_reported":1721751060,"current_range_meters":12400,"station_id":"ce4bhr92rcd13ifvqhsg","pricing_plan_id":"cebpf4jnsgd1na2vs0mg"},{"bike_id":"03ecd0b2-7d3c-4d59-bbb6-a0261dab98de","system_id":"levelo_inurba_marseille","lat":43.337168,"lon":5.391825,"is_reserved":false,"is_disabled":false,"rental_uris":{"android":"levelo://app?vid=03ecd0b2-7d3c-4d59-bbb6-a0261dab98de","ios":"levelo://app?vid=03ecd0b2-7d3c-4d59-bbb6-a0261dab98de"},"vehicle_type_id":"4","last_reported":1721751060,"current_range_meters":30000,"station_id":"ce4bhr92rcd13ifvqhsg","pricing_plan_id":"cebpf4jnsgd1na2vs0mg"},{"bike_id":"eebe5cfb-9b2b-49b9-ba57-3e77acc80b51","system_id":"levelo_inurba_marseille","lat":43.33717,"lon":5.391857,"is_reserved":false,"is_disabled":false,"rental_uris":{"android":"levelo://app?vid=eebe5cfb-9b2b-49b9-ba57-3e77acc80b51","ios":"levelo://app?vid=eebe5cfb-9b2b-49b9-ba57-3e77acc80b51"},"vehicle_type_id":"4","last_reported":1721751060,"current_range_meters":19600,"station_id":"ce4bhr92rcd13ifvqhsg","pricing_plan_id":"cebpf4jnsgd1na2vs0mg"},{"bike_id":"1ce0e84a-ed53-4a0f-b9ca-8f23f352faf4","system_id":"levelo_inurba_marseille","lat":43.337168,"lon":5.391825,"is_reserved":false,"is_disabled":false,"rental_uris":{"android":"levelo://app?vid=1ce0e84a-ed53-4a0f-b9ca-8f23f352faf4","ios":"levelo://app?vid=1ce0e84a-ed53-4a0f-b9ca-8f23f352faf4"},"vehicle_type_id":"4","last_reported":1721751060,"current_range_meters":16400,"station_id":"ce4bhr92rcd13ifvqhsg","pricing_plan_id":"cebpf4jnsgd1na2vs0mg"},{"bike_id":"4e9a15ce-23e7-4c29-8551-d5550a621463","system_id":"levelo_inurba_marseille","lat":43.28492,"lon":5.38415,"is_reserved":false,"is_disabled":false,"rental_uris":{"android":"levelo://app?vid=4e9a15ce-23e7-4c29-8551-d5550a621463","ios":"levelo://app?vid=4e9a15ce-23e7-4c29-8551-d5550a621463"},"vehicle_type_id":"4","last_reported":1721751060,"current_range_meters":0,"station_id":"ce4bh512rcd13ifvqe3g","pricing_plan_id":"cebpf4jnsgd1na2vs0mg"},{"bike_id":"0c664cfb-ed9a-4c8d-b67e-e7244c102076","system_id":"levelo_inurba_marseille","lat":43.284787,"lon":5.384116,"is_reserved":false,"is_disabled":false,"rental_uris":{"android":"levelo://app?vid=0c664cfb-ed9a-4c8d-b67e-e7244c102076","ios":"levelo://app?vid=0c664cfb-ed9a-4c8d-b67e-e7244c102076"},"vehicle_type_id":"4","last_reported":1721751060,"current_range_meters":0,"station_id":"ce4bh512rcd13ifvqe3g","pricing_plan_id":"cebpf4jnsgd1na2vs0mg"},{"bike_id":"10aa69d7-f569-44f6-bb90-5e7f7e75274a","system_id":"levelo_inurba_marseille","lat":43.29795,"lon":5.404086,"is_reserved":false,"is_disabled":false,"rental_uris":{"android":"levelo://app?vid=10aa69d7-f569-44f6-bb90-5e7f7e75274a","ios":"levelo://app?vid=10aa69d7-f569-44f6-bb90-5e7f7e75274a"},"vehicle_type_id":"4","last_reported":1721751060,"current_range_meters":0,"station_id":"ce4bh112rcd13ifvqd90","pricing_plan_id":"cebpf4jnsgd1na2vs0mg"},{"bike_id":"f9f9769d-69e4-4a47-a1f3-c2678bdc584b","system_id":"levelo_inurba_marseille","lat":43.283494,"lon":5.380945,"is_reserved":false,"is_disabled":false,"rental_uris":{"android":"levelo://app?vid=f9f9769d-69e4-4a47-a1f3-c2678bdc584b","ios":"levelo://app?vid=f9f9769d-69e4-4a47-a1f3-c2678bdc584b"},"vehicle_type_id":"4","last_reported":1721751060,"current_range_meters":0,"station_id":"ce4bh412rcd13ifvqdr0","pricing_plan_id":"cebpf4jnsgd1na2vs0mg"},{"bike_id":"3f4e80d4-39b8-4f0a-8a8f-7ff952b2c256","system_id":"levelo_inurba_marseille","lat":43.284214,"lon":5.349706,"is_reserved":false,"is_disabled":false,"rental_uris":{"android":"levelo://app?vid=3f4e80d4-39b8-4f0a-8a8f-7ff952b2c256","ios":"levelo://app?vid=3f4e80d4-39b8-4f0a-8a8f-7ff952b2c256"},"vehicle_type_id":"4","last_reported":1721751060,"current_range_meters":14800,"station_id":"ce4bhbh2rcd13ifvqepg","pricing_plan_id":"cebpf4jnsgd1na2vs0mg"},{"bike_id":"eb2e15bc-011d-4039-8097-6cf01ddfdf0b","system_id":"levelo_inurba_marseille","lat":43.284214,"lon":5.349706,"is_reserved":false,"is_disabled":false,"rental_uris":{"android":"levelo://app?vid=eb2e15bc-011d-4039-8097-6cf01ddfdf0b","ios":"levelo://app?vid=eb2e15bc-011d-4039-8097-6cf01ddfdf0b"},"vehicle_type_id":"4","last_reported":1721751060,"current_range_meters":29600,"station_id":"ce4bhbh2rcd13ifvqepg","pricing_plan_id":"cebpf4jnsgd1na2vs0mg"},{"bike_id":"abd9a76e-5027-4932-932e-5fe4426bdc97","system_id":"levelo_inurba_marseille","lat":43.284221,"lon":5.349961,"is_reserved":false,"is_disabled":false,"rental_uris":{"android":"levelo://app?vid=abd9a76e-5027-4932-932e-5fe4426bdc97","ios":"levelo://app?vid=abd9a76e-5027-4932-932e-5fe4426bdc97"},"vehicle_type_id":"4","last_reported":1721751060,"current_range_meters":8400,"station_id":"ce4bhbh2rcd13ifvqepg","pricing_plan_id":"cebpf4jnsgd1na2vs0mg"},{"bike_id":"22d057ce-67b1-4084-bf1c-f45a4b663ab6","system_id":"levelo_inurba_marseille","lat":43.284214,"lon":5.349706,"is_reserved":false,"is_disabled":false,"rental_uris":{"android":"levelo://app?vid=22d057ce-67b1-4084-bf1c-f45a4b663ab6","ios":"levelo://app?vid=22d057ce-67b1-4084-bf1c-f45a4b663ab6"},"vehicle_type_id":"4","last_reported":1721751060,"current_range_meters":31200,"station_id":"ce4bhbh2rcd13ifvqepg","pricing_plan_id":"cebpf4jnsgd1na2vs0mg"},{"bike_id":"099a2832-d521-46e5-bf03-07bc1f4eaecf","system_id":"levelo_inurba_marseille","lat":43.284244,"lon":5.349866,"is_reserved":false,"is_disabled":false,"rental_uris":{"android":"levelo://app?vid=099a2832-d521-46e5-bf03-07bc1f4eaecf","ios":"levelo://app?vid=099a2832-d521-46e5-bf03-07bc1f4eaecf"},"vehicle_type_id":"4","last_reported":1721751060,"current_range_meters":14000,"station_id":"","pricing_plan_id":"cebpf4jnsgd1na2vs0mg"},{"bike_id":"ce21b6f4-2e7b-4481-80be-e833af7d244c","system_id":"levelo_inurba_marseille","lat":43.284217,"lon":5.349697,"is_reserved":false,"is_disabled":false,"rental_uris":{"android":"levelo://app?vid=ce21b6f4-2e7b-4481-80be-e833af7d244c","ios":"levelo://app?vid=ce21b6f4-2e7b-4481-80be-e833af7d244c"},"vehicle_type_id":"4","last_reported":1721751060,"current_range_meters":27600,"station_id":"ce4bhbh2rcd13ifvqepg","pricing_plan_id":"cebpf4jnsgd1na2vs0mg"},{"bike_id":"91913c80-8e04-4899-b26a-539cbce49d56","system_id":"levelo_inurba_marseille","lat":43.284227,"lon":5.34985,"is_reserved":false,"is_disabled":false,"rental_uris":{"android":"levelo://app?vid=91913c80-8e04-4899-b26a-539cbce49d56","ios":"levelo://app?vid=91913c80-8e04-4899-b26a-539cbce49d56"},"vehicle_type_id":"4","last_reported":1721751060,"current_range_meters":30400,"station_id":"ce4bhbh2rcd13ifvqepg","pricing_plan_id":"cebpf4jnsgd1na2vs0mg"},{"bike_id":"abae9322-ba2a-4606-9ff7-5d84faec23e0","system_id":"levelo_inurba_marseille","lat":43.28421,"lon":5.3499,"is_reserved":false,"is_disabled":false,"rental_uris":{"android":"levelo://app?vid=abae9322-ba2a-4606-9ff7-5d84faec23e0","ios":"levelo://app?vid=abae9322-ba2a-4606-9ff7-5d84faec23e0"},"vehicle_type_id":"4","last_reported":1721751060,"current_range_meters":8000,"station_id":"ce4bhbh2rcd13ifvqepg","pricing_plan_id":"cebpf4jnsgd1na2vs0mg"},{"bike_id":"65b66301-2f90-4249-8063-a569d19683b4","system_id":"levelo_inurba_marseille","lat":43.284203,"lon":5.349904,"is_reserved":false,"is_disabled":false,"rental_uris":{"android":"levelo://app?vid=65b66301-2f90-4249-8063-a569d19683b4","ios":"levelo://app?vid=65b66301-2f90-4249-8063-a569d19683b4"},"vehicle_type_id":"4","last_reported":1721751060,"current_range_meters":10000,"station_id":"ce4bhbh2rcd13ifvqepg","pricing_plan_id":"cebpf4jnsgd1na2vs0mg"},{"bike_id":"3f27bb1d-1870-4ffa-a08e-0212e790b194","system_id":"levelo_inurba_marseille","lat":43.28417,"lon":5.349998,"is_reserved":false,"is_disabled":false,"rental_uris":{"android":"levelo://app?vid=3f27bb1d-1870-4ffa-a08e-0212e790b194","ios":"levelo://app?vid=3f27bb1d-1870-4ffa-a08e-0212e790b194"},"vehicle_type_id":"4","last_reported":1721751060,"current_range_meters":28000,"station_id":"ce4bhbh2rcd13ifvqepg","pricing_plan_id":"cebpf4jnsgd1na2vs0mg"},{"bike_id":"dc7d1e86-33e5-4264-ba9a-03d5068cc1de","system_id":"levelo_inurba_marseille","lat":43.284214,"lon":5.349706,"is_reserved":false,"is_disabled":false,"rental_uris":{"android":"levelo://app?vid=dc7d1e86-33e5-4264-ba9a-03d5068cc1de","ios":"levelo://app?vid=dc7d1e86-33e5-4264-ba9a-03d5068cc1de"},"vehicle_type_id":"4","last_reported":1721751060,"current_range_meters":22000,"station_id":"ce4bhbh2rcd13ifvqepg","pricing_plan_id":"cebpf4jnsgd1na2vs0mg"},{"bike_id":"409fe07e-069b-4b05-8ca5-089114ae2599","system_id":"levelo_inurba_marseille","lat":43.284186,"lon":5.34994,"is_reserved":false,"is_disabled":false,"rental_uris":{"android":"levelo://app?vid=409fe07e-069b-4b05-8ca5-089114ae2599","ios":"levelo://app?vid=409fe07e-069b-4b05-8ca5-089114ae2599"},"vehicle_type_id":"4","last_reported":1721751060,"current_range_meters":20400,"station_id":"ce4bhbh2rcd13ifvqepg","pricing_plan_id":"cebpf4jnsgd1na2vs0mg"},{"bike_id":"59dd212a-e11c-4573-a087-18bc2cdedccc","system_id":"levelo_inurba_marseille","lat":43.28421,"lon":5.349861,"is_reserved":false,"is_disabled":false,"rental_uris":{"android":"levelo://app?vid=59dd212a-e11c-4573-a087-18bc2cdedccc","ios":"levelo://app?vid=59dd212a-e11c-4573-a087-18bc2cdedccc"},"vehicle_type_id":"4","last_reported":1721751060,"current_range_meters":31200,"station_id":"ce4bhbh2rcd13ifvqepg","pricing_plan_id":"cebpf4jnsgd1na2vs0mg"},{"bike_id":"779375c4-7dc5-4e62-815e-785328f4610e","system_id":"levelo_inurba_marseille","lat":43.284178,"lon":5.349961,"is_reserved":false,"is_disabled":false,"rental_uris":{"android":"levelo://app?vid=779375c4-7dc5-4e62-815e-785328f4610e","ios":"levelo://app?vid=779375c4-7dc5-4e62-815e-785328f4610e"},"vehicle_type_id":"4","last_reported":1721751060,"current_range_meters":31200,"station_id":"ce4bhbh2rcd13ifvqepg","pricing_plan_id":"cebpf4jnsgd1na2vs0mg"},{"bike_id":"971c10ce-f70c-4874-a769-0235528d13ab","system_id":"levelo_inurba_marseille","lat":43.28419,"lon":5.34992,"is_reserved":false,"is_disabled":false,"rental_uris":{"android":"levelo://app?vid=971c10ce-f70c-4874-a769-0235528d13ab","ios":"levelo://app?vid=971c10ce-f70c-4874-a769-0235528d13ab"},"vehicle_type_id":"4","last_reported":1721751060,"current_range_meters":22000,"station_id":"ce4bhbh2rcd13ifvqepg","pricing_plan_id":"cebpf4jnsgd1na2vs0mg"},{"bike_id":"b780f1c2-7495-4300-ad55-8347c500fb3e","system_id":"levelo_inurba_marseille","lat":43.284217,"lon":5.349697,"is_reserved":false,"is_disabled":false,"rental_uris":{"android":"levelo://app?vid=b780f1c2-7495-4300-ad55-8347c500fb3e","ios":"levelo://app?vid=b780f1c2-7495-4300-ad55-8347c500fb3e"},"vehicle_type_id":"4","last_reported":1721751060,"current_range_meters":17600,"station_id":"ce4bhbh2rcd13ifvqepg","pricing_plan_id":"cebpf4jnsgd1na2vs0mg"},{"bike_id":"4fa0505e-8db3-492b-9b18-b4cdba3b5f6d","system_id":"levelo_inurba_marseille","lat":43.29454,"lon":5.40166,"is_reserved":false,"is_disabled":false,"rental_uris":{"android":"levelo://app?vid=4fa0505e-8db3-492b-9b18-b4cdba3b5f6d","ios":"levelo://app?vid=4fa0505e-8db3-492b-9b18-b4cdba3b5f6d"},"vehicle_type_id":"4","last_reported":1721751060,"current_range_meters":0,"station_id":"","pricing_plan_id":"cebpf4jnsgd1na2vs0mg"},{"bike_id":"94ead724-32a2-49e5-a0ef-ef0d43c2e125","system_id":"levelo_inurba_marseille","lat":43.28416,"lon":5.34991,"is_reserved":false,"is_disabled":false,"rental_uris":{"android":"levelo://app?vid=94ead724-32a2-49e5-a0ef-ef0d43c2e125","ios":"levelo://app?vid=94ead724-32a2-49e5-a0ef-ef0d43c2e125"},"vehicle_type_id":"4","last_reported":1721751060,"current_range_meters":19200,"station_id":"ce4bhbh2rcd13ifvqepg","pricing_plan_id":"cebpf4jnsgd1na2vs0mg"},{"bike_id":"5fc8e8d7-5cc9-492a-ad24-9606f3b88df0","system_id":"levelo_inurba_marseille","lat":43.284214,"lon":5.349706,"is_reserved":false,"is_disabled":false,"rental_uris":{"android":"levelo://app?vid=5fc8e8d7-5cc9-492a-ad24-9606f3b88df0","ios":"levelo://app?vid=5fc8e8d7-5cc9-492a-ad24-9606f3b88df0"},"vehicle_type_id":"4","last_reported":1721751060,"current_range_meters":24400,"station_id":"ce4bhbh2rcd13ifvqepg","pricing_plan_id":"cebpf4jnsgd1na2vs0mg"},{"bike_id":"17f9d256-76f7-4404-84bb-a44c96c1a0d6","system_id":"levelo_inurba_marseille","lat":43.28418,"lon":5.34983,"is_reserved":false,"is_disabled":false,"rental_uris":{"android":"levelo://app?vid=17f9d256-76f7-4404-84bb-a44c96c1a0d6","ios":"levelo://app?vid=17f9d256-76f7-4404-84bb-a44c96c1a0d6"},"vehicle_type_id":"4","last_reported":1721751060,"current_range_meters":19200,"station_id":"ce4bhbh2rcd13ifvqepg","pricing_plan_id":"cebpf4jnsgd1na2vs0mg"},{"bike_id":"a1a3f8ae-0d77-4d82-b753-0933a6527657","system_id":"levelo_inurba_marseille","lat":43.28421,"lon":5.34973,"is_reserved":false,"is_disabled":false,"rental_uris":{"android":"levelo://app?vid=a1a3f8ae-0d77-4d82-b753-0933a6527657","ios":"levelo://app?vid=a1a3f8ae-0d77-4d82-b753-0933a6527657"},"vehicle_type_id":"4","last_reported":1721751060,"current_range_meters":8800,"station_id":"ce4bhbh2rcd13ifvqepg","pricing_plan_id":"cebpf4jnsgd1na2vs0mg"},{"bike_id":"8e89fbe0-2919-4dcd-a662-7eaa597307ee","system_id":"levelo_inurba_marseille","lat":43.284148,"lon":5.349918,"is_reserved":false,"is_disabled":false,"rental_uris":{"android":"levelo://app?vid=8e89fbe0-2919-4dcd-a662-7eaa597307ee","ios":"levelo://app?vid=8e89fbe0-2919-4dcd-a662-7eaa597307ee"},"vehicle_type_id":"4","last_reported":1721751060,"current_range_meters":31200,"station_id":"ce4bhbh2rcd13ifvqepg","pricing_plan_id":"cebpf4jnsgd1na2vs0mg"},{"bike_id":"aa5a0335-5885-4165-a64c-045957b41fa2","system_id":"levelo_inurba_marseille","lat":43.282744,"lon":5.350533,"is_reserved":false,"is_disabled":false,"rental_uris":{"android":"levelo://app?vid=aa5a0335-5885-4165-a64c-045957b41fa2","ios":"levelo://app?vid=aa5a0335-5885-4165-a64c-045957b41fa2"},"vehicle_type_id":"4","last_reported":1721751060,"current_range_meters":15200,"station_id":"ce4bhbp2rcd13ifvqerg","pricing_plan_id":"cebpf4jnsgd1na2vs0mg"},{"bike_id":"28397485-7eee-457f-be97-a121543889f3","system_id":"levelo_inurba_marseille","lat":43.284217,"lon":5.349697,"is_reserved":false,"is_disabled":false,"rental_uris":{"android":"levelo://app?vid=28397485-7eee-457f-be97-a121543889f3","ios":"levelo://app?vid=28397485-7eee-457f-be97-a121543889f3"},"vehicle_type_id":"4","last_reported":1721751060,"current_range_meters":32000,"station_id":"ce4bhbh2rcd13ifvqepg","pricing_plan_id":"cebpf4jnsgd1na2vs0mg"},{"bike_id":"6f7cf429-a9e7-4e75-a22c-bd922029e564","system_id":"levelo_inurba_marseille","lat":43.284214,"lon":5.349706,"is_reserved":false,"is_disabled":false,"rental_uris":{"android":"levelo://app?vid=6f7cf429-a9e7-4e75-a22c-bd922029e564","ios":"levelo://app?vid=6f7cf429-a9e7-4e75-a22c-bd922029e564"},"vehicle_type_id":"4","last_reported":1721751060,"current_range_meters":28800,"station_id":"ce4bhbh2rcd13ifvqepg","pricing_plan_id":"cebpf4jnsgd1na2vs0mg"},{"bike_id":"347fb177-7a64-4cae-9eb7-adfbd98a8052","system_id":"levelo_inurba_marseille","lat":43.28416,"lon":5.34983,"is_reserved":false,"is_disabled":false,"rental_uris":{"android":"levelo://app?vid=347fb177-7a64-4cae-9eb7-adfbd98a8052","ios":"levelo://app?vid=347fb177-7a64-4cae-9eb7-adfbd98a8052"},"vehicle_type_id":"4","last_reported":1721751060,"current_range_meters":23200,"station_id":"ce4bhbh2rcd13ifvqepg","pricing_plan_id":"cebpf4jnsgd1na2vs0mg"},{"bike_id":"b9e16e00-103b-4ebf-bfa2-19ffa364215c","system_id":"levelo_inurba_marseille","lat":43.284217,"lon":5.349697,"is_reserved":false,"is_disabled":false,"rental_uris":{"android":"levelo://app?vid=b9e16e00-103b-4ebf-bfa2-19ffa364215c","ios":"levelo://app?vid=b9e16e00-103b-4ebf-bfa2-19ffa364215c"},"vehicle_type_id":"4","last_reported":1721751060,"current_range_meters":32000,"station_id":"ce4bhbh2rcd13ifvqepg","pricing_plan_id":"cebpf4jnsgd1na2vs0mg"},{"bike_id":"10d0dd55-690c-4e02-83ff-6dd824c35ff4","system_id":"levelo_inurba_marseille","lat":43.284217,"lon":5.349697,"is_reserved":false,"is_disabled":false,"rental_uris":{"android":"levelo://app?vid=10d0dd55-690c-4e02-83ff-6dd824c35ff4","ios":"levelo://app?vid=10d0dd55-690c-4e02-83ff-6dd824c35ff4"},"vehicle_type_id":"4","last_reported":1721751060,"current_range_meters":30800,"station_id":"ce4bhbh2rcd13ifvqepg","pricing_plan_id":"cebpf4jnsgd1na2vs0mg"},{"bike_id":"5edcbb99-3b8a-4943-a1ad-8ce7223c5299","system_id":"levelo_inurba_marseille","lat":43.28412,"lon":5.34994,"is_reserved":false,"is_disabled":false,"rental_uris":{"android":"levelo://app?vid=5edcbb99-3b8a-4943-a1ad-8ce7223c5299","ios":"levelo://app?vid=5edcbb99-3b8a-4943-a1ad-8ce7223c5299"},"vehicle_type_id":"4","last_reported":1721751060,"current_range_meters":31200,"station_id":"ce4bhbh2rcd13ifvqepg","pricing_plan_id":"cebpf4jnsgd1na2vs0mg"},{"bike_id":"abcb7684-9ccd-4f7d-89f9-6c70874ec239","system_id":"levelo_inurba_marseille","lat":43.284163,"lon":5.3498,"is_reserved":false,"is_disabled":false,"rental_uris":{"android":"levelo://app?vid=abcb7684-9ccd-4f7d-89f9-6c70874ec239","ios":"levelo://app?vid=abcb7684-9ccd-4f7d-89f9-6c70874ec239"},"vehicle_type_id":"4","last_reported":1721751060,"current_range_meters":8800,"station_id":"ce4bhbh2rcd13ifvqepg","pricing_plan_id":"cebpf4jnsgd1na2vs0mg"},{"bike_id":"cadd9e10-9aa8-4f2b-a4c2-7a6778cd9000","system_id":"levelo_inurba_marseille","lat":43.28417,"lon":5.34977,"is_reserved":false,"is_disabled":false,"rental_uris":{"android":"levelo://app?vid=cadd9e10-9aa8-4f2b-a4c2-7a6778cd9000","ios":"levelo://app?vid=cadd9e10-9aa8-4f2b-a4c2-7a6778cd9000"},"vehicle_type_id":"4","last_reported":1721751060,"current_range_meters":12000,"station_id":"ce4bhbh2rcd13ifvqepg","pricing_plan_id":"cebpf4jnsgd1na2vs0mg"},{"bike_id":"a0f37e8c-03c4-4fd8-be74-7a89e3c567f7","system_id":"levelo_inurba_marseille","lat":43.28415,"lon":5.34983,"is_reserved":false,"is_disabled":false,"rental_uris":{"android":"levelo://app?vid=a0f37e8c-03c4-4fd8-be74-7a89e3c567f7","ios":"levelo://app?vid=a0f37e8c-03c4-4fd8-be74-7a89e3c567f7"},"vehicle_type_id":"4","last_reported":1721751060,"current_range_meters":31200,"station_id":"ce4bhbh2rcd13ifvqepg","pricing_plan_id":"cebpf4jnsgd1na2vs0mg"},{"bike_id":"45f6d293-b6ac-4138-9c06-58f4013fe66c","system_id":"levelo_inurba_marseille","lat":43.28415,"lon":5.34982,"is_reserved":false,"is_disabled":false,"rental_uris":{"android":"levelo://app?vid=45f6d293-b6ac-4138-9c06-58f4013fe66c","ios":"levelo://app?vid=45f6d293-b6ac-4138-9c06-58f4013fe66c"},"vehicle_type_id":"4","last_reported":1721751060,"current_range_meters":0,"station_id":"","pricing_plan_id":"cebpf4jnsgd1na2vs0mg"},{"bike_id":"7188cb53-01dc-4ee5-ac77-c89bdfbebd11","system_id":"levelo_inurba_marseille","lat":43.28417,"lon":5.34974,"is_reserved":false,"is_disabled":false,"rental_uris":{"android":"levelo://app?vid=7188cb53-01dc-4ee5-ac77-c89bdfbebd11","ios":"levelo://app?vid=7188cb53-01dc-4ee5-ac77-c89bdfbebd11"},"vehicle_type_id":"4","last_reported":1721751060,"current_range_meters":25600,"station_id":"ce4bhbh2rcd13ifvqepg","pricing_plan_id":"cebpf4jnsgd1na2vs0mg"},{"bike_id":"2555281f-98b8-4a42-ad35-aeb773f4c71b","system_id":"levelo_inurba_marseille","lat":43.284122,"lon":5.349878,"is_reserved":false,"is_disabled":false,"rental_uris":{"android":"levelo://app?vid=2555281f-98b8-4a42-ad35-aeb773f4c71b","ios":"levelo://app?vid=2555281f-98b8-4a42-ad35-aeb773f4c71b"},"vehicle_type_id":"4","last_reported":1721751060,"current_range_meters":30800,"station_id":"ce4bhbh2rcd13ifvqepg","pricing_plan_id":"cebpf4jnsgd1na2vs0mg"},{"bike_id":"d20053df-5b91-43f6-84a0-a93d4fc1420d","system_id":"levelo_inurba_marseille","lat":43.284146,"lon":5.349799,"is_reserved":false,"is_disabled":false,"rental_uris":{"android":"levelo://app?vid=d20053df-5b91-43f6-84a0-a93d4fc1420d","ios":"levelo://app?vid=d20053df-5b91-43f6-84a0-a93d4fc1420d"},"vehicle_type_id":"4","last_reported":1721751060,"current_range_meters":18000,"station_id":"ce4bhbh2rcd13ifvqepg","pricing_plan_id":"cebpf4jnsgd1na2vs0mg"},{"bike_id":"683fab47-8e58-4381-a702-62cc06d56ed9","system_id":"levelo_inurba_marseille","lat":43.28415,"lon":5.34976,"is_reserved":false,"is_disabled":false,"rental_uris":{"android":"levelo://app?vid=683fab47-8e58-4381-a702-62cc06d56ed9","ios":"levelo://app?vid=683fab47-8e58-4381-a702-62cc06d56ed9"},"vehicle_type_id":"4","last_reported":1721751060,"current_range_meters":28000,"station_id":"ce4bhbh2rcd13ifvqepg","pricing_plan_id":"cebpf4jnsgd1na2vs0mg"},{"bike_id":"f9cb55a8-f664-4771-8402-34fe3b700884","system_id":"levelo_inurba_marseille","lat":43.284117,"lon":5.349862,"is_reserved":false,"is_disabled":false,"rental_uris":{"android":"levelo://app?vid=f9cb55a8-f664-4771-8402-34fe3b700884","ios":"levelo://app?vid=f9cb55a8-f664-4771-8402-34fe3b700884"},"vehicle_type_id":"4","last_reported":1721751060,"current_range_meters":31200,"station_id":"ce4bhbh2rcd13ifvqepg","pricing_plan_id":"cebpf4jnsgd1na2vs0mg"},{"bike_id":"965e084c-dc6f-4bca-b916-48e8921c4782","system_id":"levelo_inurba_marseille","lat":43.28413,"lon":5.34981,"is_reserved":false,"is_disabled":false,"rental_uris":{"android":"levelo://app?vid=965e084c-dc6f-4bca-b916-48e8921c4782","ios":"levelo://app?vid=965e084c-dc6f-4bca-b916-48e8921c4782"},"vehicle_type_id":"4","last_reported":1721751060,"current_range_meters":22800,"station_id":"ce4bhbh2rcd13ifvqepg","pricing_plan_id":"cebpf4jnsgd1na2vs0mg"},{"bike_id":"d232ae17-ff4c-4c36-b3c3-01440c56ba66","system_id":"levelo_inurba_marseille","lat":43.28411,"lon":5.349863,"is_reserved":false,"is_disabled":false,"rental_uris":{"android":"levelo://app?vid=d232ae17-ff4c-4c36-b3c3-01440c56ba66","ios":"levelo://app?vid=d232ae17-ff4c-4c36-b3c3-01440c56ba66"},"vehicle_type_id":"4","last_reported":1721751060,"current_range_meters":13600,"station_id":"ce4bhbh2rcd13ifvqepg","pricing_plan_id":"cebpf4jnsgd1na2vs0mg"},{"bike_id":"21f47ab2-e77b-4ddc-b824-aabb409ae46c","system_id":"levelo_inurba_marseille","lat":43.28411,"lon":5.34986,"is_reserved":false,"is_disabled":false,"rental_uris":{"android":"levelo://app?vid=21f47ab2-e77b-4ddc-b824-aabb409ae46c","ios":"levelo://app?vid=21f47ab2-e77b-4ddc-b824-aabb409ae46c"},"vehicle_type_id":"4","last_reported":1721751060,"current_range_meters":14400,"station_id":"ce4bhbh2rcd13ifvqepg","pricing_plan_id":"cebpf4jnsgd1na2vs0mg"},{"bike_id":"00952526-bda1-4b6d-8327-49d9e48c9712","system_id":"levelo_inurba_marseille","lat":43.284217,"lon":5.349697,"is_reserved":false,"is_disabled":false,"rental_uris":{"android":"levelo://app?vid=00952526-bda1-4b6d-8327-49d9e48c9712","ios":"levelo://app?vid=00952526-bda1-4b6d-8327-49d9e48c9712"},"vehicle_type_id":"4","last_reported":1721751060,"current_range_meters":26400,"station_id":"ce4bhbh2rcd13ifvqepg","pricing_plan_id":"cebpf4jnsgd1na2vs0mg"},{"bike_id":"0e46a4d1-5e35-4336-8415-4c403d04c291","system_id":"levelo_inurba_marseille","lat":43.28415,"lon":5.34969,"is_reserved":false,"is_disabled":false,"rental_uris":{"android":"levelo://app?vid=0e46a4d1-5e35-4336-8415-4c403d04c291","ios":"levelo://app?vid=0e46a4d1-5e35-4336-8415-4c403d04c291"},"vehicle_type_id":"4","last_reported":1721751060,"current_range_meters":30000,"station_id":"ce4bhbh2rcd13ifvqepg","pricing_plan_id":"cebpf4jnsgd1na2vs0mg"},{"bike_id":"cab3f92e-0545-4a0b-949c-ba6ec1be0fb1","system_id":"levelo_inurba_marseille","lat":43.28415,"lon":5.34967,"is_reserved":false,"is_disabled":false,"rental_uris":{"android":"levelo://app?vid=cab3f92e-0545-4a0b-949c-ba6ec1be0fb1","ios":"levelo://app?vid=cab3f92e-0545-4a0b-949c-ba6ec1be0fb1"},"vehicle_type_id":"4","last_reported":1721751060,"current_range_meters":27200,"station_id":"ce4bhbh2rcd13ifvqepg","pricing_plan_id":"cebpf4jnsgd1na2vs0mg"},{"bike_id":"4c085929-7dbb-4d9b-ade6-3cd4ff6c9d66","system_id":"levelo_inurba_marseille","lat":43.28413,"lon":5.34972,"is_reserved":false,"is_disabled":false,"rental_uris":{"android":"levelo://app?vid=4c085929-7dbb-4d9b-ade6-3cd4ff6c9d66","ios":"levelo://app?vid=4c085929-7dbb-4d9b-ade6-3cd4ff6c9d66"},"vehicle_type_id":"4","last_reported":1721751060,"current_range_meters":27600,"station_id":"ce4bhbh2rcd13ifvqepg","pricing_plan_id":"cebpf4jnsgd1na2vs0mg"},{"bike_id":"6b514240-b1e1-49b4-8b65-ee79943fe4db","system_id":"levelo_inurba_marseille","lat":43.284214,"lon":5.349706,"is_reserved":false,"is_disabled":false,"rental_uris":{"android":"levelo://app?vid=6b514240-b1e1-49b4-8b65-ee79943fe4db","ios":"levelo://app?vid=6b514240-b1e1-49b4-8b65-ee79943fe4db"},"vehicle_type_id":"4","last_reported":1721751060,"current_range_meters":25200,"station_id":"ce4bhbh2rcd13ifvqepg","pricing_plan_id":"cebpf4jnsgd1na2vs0mg"},{"bike_id":"f2f24881-2dc1-4b35-9905-9ce169dd4c05","system_id":"levelo_inurba_marseille","lat":43.284214,"lon":5.349706,"is_reserved":false,"is_disabled":false,"rental_uris":{"android":"levelo://app?vid=f2f24881-2dc1-4b35-9905-9ce169dd4c05","ios":"levelo://app?vid=f2f24881-2dc1-4b35-9905-9ce169dd4c05"},"vehicle_type_id":"4","last_reported":1721751060,"current_range_meters":32000,"station_id":"ce4bhbh2rcd13ifvqepg","pricing_plan_id":"cebpf4jnsgd1na2vs0mg"},{"bike_id":"49151580-21e7-4309-88d8-43a9e72d3293","system_id":"levelo_inurba_marseille","lat":43.28411,"lon":5.349772,"is_reserved":false,"is_disabled":false,"rental_uris":{"android":"levelo://app?vid=49151580-21e7-4309-88d8-43a9e72d3293","ios":"levelo://app?vid=49151580-21e7-4309-88d8-43a9e72d3293"},"vehicle_type_id":"4","last_reported":1721751060,"current_range_meters":9200,"station_id":"ce4bhbh2rcd13ifvqepg","pricing_plan_id":"cebpf4jnsgd1na2vs0mg"},{"bike_id":"6a745a73-3ec2-4615-aa9b-4ba8560f141d","system_id":"levelo_inurba_marseille","lat":43.28414,"lon":5.34966,"is_reserved":false,"is_disabled":false,"rental_uris":{"android":"levelo://app?vid=6a745a73-3ec2-4615-aa9b-4ba8560f141d","ios":"levelo://app?vid=6a745a73-3ec2-4615-aa9b-4ba8560f141d"},"vehicle_type_id":"4","last_reported":1721751060,"current_range_meters":11200,"station_id":"ce4bhbh2rcd13ifvqepg","pricing_plan_id":"cebpf4jnsgd1na2vs0mg"},{"bike_id":"f90716e3-c70d-4a3c-814c-0d9308dd39d7","system_id":"levelo_inurba_marseille","lat":43.2841,"lon":5.34978,"is_reserved":false,"is_disabled":false,"rental_uris":{"android":"levelo://app?vid=f90716e3-c70d-4a3c-814c-0d9308dd39d7","ios":"levelo://app?vid=f90716e3-c70d-4a3c-814c-0d9308dd39d7"},"vehicle_type_id":"4","last_reported":1721751060,"current_range_meters":14800,"station_id":"ce4bhbh2rcd13ifvqepg","pricing_plan_id":"cebpf4jnsgd1na2vs0mg"},{"bike_id":"ec731714-9b42-4f3f-a903-3b3a81fcec6c","system_id":"levelo_inurba_marseille","lat":43.284214,"lon":5.349706,"is_reserved":false,"is_disabled":false,"rental_uris":{"android":"levelo://app?vid=ec731714-9b42-4f3f-a903-3b3a81fcec6c","ios":"levelo://app?vid=ec731714-9b42-4f3f-a903-3b3a81fcec6c"},"vehicle_type_id":"4","last_reported":1721751060,"current_range_meters":12800,"station_id":"ce4bhbh2rcd13ifvqepg","pricing_plan_id":"cebpf4jnsgd1na2vs0mg"},{"bike_id":"d42dda03-7cbc-44ef-91f1-d4c810bbe8f8","system_id":"levelo_inurba_marseille","lat":43.28411,"lon":5.34971,"is_reserved":false,"is_disabled":false,"rental_uris":{"android":"levelo://app?vid=d42dda03-7cbc-44ef-91f1-d4c810bbe8f8","ios":"levelo://app?vid=d42dda03-7cbc-44ef-91f1-d4c810bbe8f8"},"vehicle_type_id":"4","last_reported":1721751060,"current_range_meters":24800,"station_id":"ce4bhbh2rcd13ifvqepg","pricing_plan_id":"cebpf4jnsgd1na2vs0mg"},{"bike_id":"ae8b71ba-4d95-4d0c-8f36-c83ede478fa8","system_id":"levelo_inurba_marseille","lat":43.284214,"lon":5.349706,"is_reserved":false,"is_disabled":false,"rental_uris":{"android":"levelo://app?vid=ae8b71ba-4d95-4d0c-8f36-c83ede478fa8","ios":"levelo://app?vid=ae8b71ba-4d95-4d0c-8f36-c83ede478fa8"},"vehicle_type_id":"4","last_reported":1721751060,"current_range_meters":26000,"station_id":"ce4bhbh2rcd13ifvqepg","pricing_plan_id":"cebpf4jnsgd1na2vs0mg"},{"bike_id":"8f22f44e-beef-407b-8d55-9074c69fdef9","system_id":"levelo_inurba_marseille","lat":43.284113,"lon":5.349657,"is_reserved":false,"is_disabled":false,"rental_uris":{"android":"levelo://app?vid=8f22f44e-beef-407b-8d55-9074c69fdef9","ios":"levelo://app?vid=8f22f44e-beef-407b-8d55-9074c69fdef9"},"vehicle_type_id":"4","last_reported":1721751060,"current_range_meters":9600,"station_id":"ce4bhbh2rcd13ifvqepg","pricing_plan_id":"cebpf4jnsgd1na2vs0mg"},{"bike_id":"67180f6b-30e8-47de-9927-09c0bc52812f","system_id":"levelo_inurba_marseille","lat":43.284214,"lon":5.349706,"is_reserved":false,"is_disabled":false,"rental_uris":{"android":"levelo://app?vid=67180f6b-30e8-47de-9927-09c0bc52812f","ios":"levelo://app?vid=67180f6b-30e8-47de-9927-09c0bc52812f"},"vehicle_type_id":"4","last_reported":1721751060,"current_range_meters":23200,"station_id":"ce4bhbh2rcd13ifvqepg","pricing_plan_id":"cebpf4jnsgd1na2vs0mg"},{"bike_id":"33f9837b-f2c9-49e8-b620-d26ddf78e927","system_id":"levelo_inurba_marseille","lat":43.28406,"lon":5.34979,"is_reserved":false,"is_disabled":false,"rental_uris":{"android":"levelo://app?vid=33f9837b-f2c9-49e8-b620-d26ddf78e927","ios":"levelo://app?vid=33f9837b-f2c9-49e8-b620-d26ddf78e927"},"vehicle_type_id":"4","last_reported":1721751060,"current_range_meters":20000,"station_id":"ce4bhbh2rcd13ifvqepg","pricing_plan_id":"cebpf4jnsgd1na2vs0mg"},{"bike_id":"89b1ebd1-680e-4d99-874b-32092086805a","system_id":"levelo_inurba_marseille","lat":43.28407,"lon":5.34975,"is_reserved":false,"is_disabled":false,"rental_uris":{"android":"levelo://app?vid=89b1ebd1-680e-4d99-874b-32092086805a","ios":"levelo://app?vid=89b1ebd1-680e-4d99-874b-32092086805a"},"vehicle_type_id":"4","last_reported":1721751060,"current_range_meters":12400,"station_id":"ce4bhbh2rcd13ifvqepg","pricing_plan_id":"cebpf4jnsgd1na2vs0mg"},{"bike_id":"d73c6d8f-96fa-4ac8-8108-148bf4bb7d97","system_id":"levelo_inurba_marseille","lat":43.28407,"lon":5.34972,"is_reserved":false,"is_disabled":false,"rental_uris":{"android":"levelo://app?vid=d73c6d8f-96fa-4ac8-8108-148bf4bb7d97","ios":"levelo://app?vid=d73c6d8f-96fa-4ac8-8108-148bf4bb7d97"},"vehicle_type_id":"4","last_reported":1721751060,"current_range_meters":31200,"station_id":"ce4bhbh2rcd13ifvqepg","pricing_plan_id":"cebpf4jnsgd1na2vs0mg"},{"bike_id":"bcdb5bcc-8823-4160-a233-ed87559d4f80","system_id":"levelo_inurba_marseille","lat":43.28405,"lon":5.34976,"is_reserved":false,"is_disabled":false,"rental_uris":{"android":"levelo://app?vid=bcdb5bcc-8823-4160-a233-ed87559d4f80","ios":"levelo://app?vid=bcdb5bcc-8823-4160-a233-ed87559d4f80"},"vehicle_type_id":"4","last_reported":1721751060,"current_range_meters":9200,"station_id":"ce4bhbh2rcd13ifvqepg","pricing_plan_id":"cebpf4jnsgd1na2vs0mg"},{"bike_id":"edb2f43c-b4b0-4363-81e6-c0d700685f64","system_id":"levelo_inurba_marseille","lat":43.28405,"lon":5.34975,"is_reserved":false,"is_disabled":false,"rental_uris":{"android":"levelo://app?vid=edb2f43c-b4b0-4363-81e6-c0d700685f64","ios":"levelo://app?vid=edb2f43c-b4b0-4363-81e6-c0d700685f64"},"vehicle_type_id":"4","last_reported":1721751060,"current_range_meters":23600,"station_id":"ce4bhbh2rcd13ifvqepg","pricing_plan_id":"cebpf4jnsgd1na2vs0mg"},{"bike_id":"273987ae-2af2-4bcc-8754-f3566fea100d","system_id":"levelo_inurba_marseille","lat":43.28409,"lon":5.34958,"is_reserved":false,"is_disabled":false,"rental_uris":{"android":"levelo://app?vid=273987ae-2af2-4bcc-8754-f3566fea100d","ios":"levelo://app?vid=273987ae-2af2-4bcc-8754-f3566fea100d"},"vehicle_type_id":"4","last_reported":1721751060,"current_range_meters":9600,"station_id":"ce4bhbh2rcd13ifvqepg","pricing_plan_id":"cebpf4jnsgd1na2vs0mg"},{"bike_id":"6c9bef6e-56e4-4326-817e-97a3c2295904","system_id":"levelo_inurba_marseille","lat":43.284083,"lon":5.349593,"is_reserved":false,"is_disabled":false,"rental_uris":{"android":"levelo://app?vid=6c9bef6e-56e4-4326-817e-97a3c2295904","ios":"levelo://app?vid=6c9bef6e-56e4-4326-817e-97a3c2295904"},"vehicle_type_id":"4","last_reported":1721751060,"current_range_meters":22800,"station_id":"ce4bhbh2rcd13ifvqepg","pricing_plan_id":"cebpf4jnsgd1na2vs0mg"},{"bike_id":"a69fa9e2-1ad4-431b-998c-86c6c5128e3a","system_id":"levelo_inurba_marseille","lat":43.28406,"lon":5.34962,"is_reserved":false,"is_disabled":false,"rental_uris":{"android":"levelo://app?vid=a69fa9e2-1ad4-431b-998c-86c6c5128e3a","ios":"levelo://app?vid=a69fa9e2-1ad4-431b-998c-86c6c5128e3a"},"vehicle_type_id":"4","last_reported":1721751060,"current_range_meters":14800,"station_id":"ce4bhbh2rcd13ifvqepg","pricing_plan_id":"cebpf4jnsgd1na2vs0mg"},{"bike_id":"3bf52caf-2ff0-4228-85ef-f67c7933ba6f","system_id":"levelo_inurba_marseille","lat":43.288501,"lon":5.393087,"is_reserved":false,"is_disabled":false,"rental_uris":{"android":"levelo://app?vid=3bf52caf-2ff0-4228-85ef-f67c7933ba6f","ios":"levelo://app?vid=3bf52caf-2ff0-4228-85ef-f67c7933ba6f"},"vehicle_type_id":"4","last_reported":1721751060,"current_range_meters":13600,"station_id":"ce4bh2p2rcd13ifvqdi0","pricing_plan_id":"cebpf4jnsgd1na2vs0mg"},{"bike_id":"1d059918-1d45-40f8-99c5-5699bde9652d","system_id":"levelo_inurba_marseille","lat":43.28411,"lon":5.34937,"is_reserved":false,"is_disabled":false,"rental_uris":{"android":"levelo://app?vid=1d059918-1d45-40f8-99c5-5699bde9652d","ios":"levelo://app?vid=1d059918-1d45-40f8-99c5-5699bde9652d"},"vehicle_type_id":"4","last_reported":1721751060,"current_range_meters":31200,"station_id":"ce4bhbh2rcd13ifvqepg","pricing_plan_id":"cebpf4jnsgd1na2vs0mg"},{"bike_id":"89914cc7-6476-4293-9592-2637eecf8b60","system_id":"levelo_inurba_marseille","lat":43.284023,"lon":5.349627,"is_reserved":false,"is_disabled":false,"rental_uris":{"android":"levelo://app?vid=89914cc7-6476-4293-9592-2637eecf8b60","ios":"levelo://app?vid=89914cc7-6476-4293-9592-2637eecf8b60"},"vehicle_type_id":"4","last_reported":1721751060,"current_range_meters":11600,"station_id":"ce4bhbh2rcd13ifvqepg","pricing_plan_id":"cebpf4jnsgd1na2vs0mg"},{"bike_id":"b30c3843-81b6-4606-8a59-a8abaca90175","system_id":"levelo_inurba_marseille","lat":43.283547,"lon":5.350043,"is_reserved":false,"is_disabled":false,"rental_uris":{"android":"levelo://app?vid=b30c3843-81b6-4606-8a59-a8abaca90175","ios":"levelo://app?vid=b30c3843-81b6-4606-8a59-a8abaca90175"},"vehicle_type_id":"4","last_reported":1721751060,"current_range_meters":800,"station_id":"","pricing_plan_id":"cebpf4jnsgd1na2vs0mg"},{"bike_id":"6b51ee33-a5d5-40c0-871b-5c09e5403aea","system_id":"levelo_inurba_marseille","lat":43.292724,"lon":5.401131,"is_reserved":false,"is_disabled":false,"rental_uris":{"android":"levelo://app?vid=6b51ee33-a5d5-40c0-871b-5c09e5403aea","ios":"levelo://app?vid=6b51ee33-a5d5-40c0-871b-5c09e5403aea"},"vehicle_type_id":"4","last_reported":1721751060,"current_range_meters":0,"station_id":"ce4bh312rcd13ifvqdk0","pricing_plan_id":"cebpf4jnsgd1na2vs0mg"},{"bike_id":"daa1f633-450a-4e72-994c-20a684f29651","system_id":"levelo_inurba_marseille","lat":43.292724,"lon":5.401131,"is_reserved":false,"is_disabled":false,"rental_uris":{"android":"levelo://app?vid=daa1f633-450a-4e72-994c-20a684f29651","ios":"levelo://app?vid=daa1f633-450a-4e72-994c-20a684f29651"},"vehicle_type_id":"4","last_reported":1721751060,"current_range_meters":25600,"station_id":"ce4bh312rcd13ifvqdk0","pricing_plan_id":"cebpf4jnsgd1na2vs0mg"},{"bike_id":"41a7b07e-d9fb-4cb7-8c55-763b6db1fddc","system_id":"levelo_inurba_marseille","lat":43.282744,"lon":5.350533,"is_reserved":false,"is_disabled":false,"rental_uris":{"android":"levelo://app?vid=41a7b07e-d9fb-4cb7-8c55-763b6db1fddc","ios":"levelo://app?vid=41a7b07e-d9fb-4cb7-8c55-763b6db1fddc"},"vehicle_type_id":"4","last_reported":1721751060,"current_range_meters":31600,"station_id":"ce4bhbp2rcd13ifvqerg","pricing_plan_id":"cebpf4jnsgd1na2vs0mg"},{"bike_id":"f22944a7-6175-46d4-91e8-c836b49a10d4","system_id":"levelo_inurba_marseille","lat":43.28274,"lon":5.35066,"is_reserved":false,"is_disabled":false,"rental_uris":{"android":"levelo://app?vid=f22944a7-6175-46d4-91e8-c836b49a10d4","ios":"levelo://app?vid=f22944a7-6175-46d4-91e8-c836b49a10d4"},"vehicle_type_id":"4","last_reported":1721751060,"current_range_meters":31200,"station_id":"ce4bhbp2rcd13ifvqerg","pricing_plan_id":"cebpf4jnsgd1na2vs0mg"},{"bike_id":"cfb1f0bf-03f2-4913-ad56-1ed79036de93","system_id":"levelo_inurba_marseille","lat":43.282747,"lon":5.35062,"is_reserved":false,"is_disabled":false,"rental_uris":{"android":"levelo://app?vid=cfb1f0bf-03f2-4913-ad56-1ed79036de93","ios":"levelo://app?vid=cfb1f0bf-03f2-4913-ad56-1ed79036de93"},"vehicle_type_id":"4","last_reported":1721751060,"current_range_meters":18000,"station_id":"ce4bhbp2rcd13ifvqerg","pricing_plan_id":"cebpf4jnsgd1na2vs0mg"},{"bike_id":"242c6d19-bcf4-4856-b7c5-c46acbe1a863","system_id":"levelo_inurba_marseille","lat":43.28272,"lon":5.35063,"is_reserved":false,"is_disabled":false,"rental_uris":{"android":"levelo://app?vid=242c6d19-bcf4-4856-b7c5-c46acbe1a863","ios":"levelo://app?vid=242c6d19-bcf4-4856-b7c5-c46acbe1a863"},"vehicle_type_id":"4","last_reported":1721751060,"current_range_meters":14400,"station_id":"ce4bhbp2rcd13ifvqerg","pricing_plan_id":"cebpf4jnsgd1na2vs0mg"},{"bike_id":"04863423-eb2b-4c34-b16b-9af305415aac","system_id":"levelo_inurba_marseille","lat":43.282729,"lon":5.350594,"is_reserved":false,"is_disabled":false,"rental_uris":{"android":"levelo://app?vid=04863423-eb2b-4c34-b16b-9af305415aac","ios":"levelo://app?vid=04863423-eb2b-4c34-b16b-9af305415aac"},"vehicle_type_id":"4","last_reported":1721751060,"current_range_meters":30800,"station_id":"ce4bhbp2rcd13ifvqerg","pricing_plan_id":"cebpf4jnsgd1na2vs0mg"},{"bike_id":"323f70e0-8329-446e-a7e2-17faac5b7606","system_id":"levelo_inurba_marseille","lat":43.282754,"lon":5.350519,"is_reserved":false,"is_disabled":false,"rental_uris":{"android":"levelo://app?vid=323f70e0-8329-446e-a7e2-17faac5b7606","ios":"levelo://app?vid=323f70e0-8329-446e-a7e2-17faac5b7606"},"vehicle_type_id":"4","last_reported":1721751060,"current_range_meters":31600,"station_id":"ce4bhbp2rcd13ifvqerg","pricing_plan_id":"cebpf4jnsgd1na2vs0mg"},{"bike_id":"5c00077e-a206-4ce3-b349-7b2834fc2bc0","system_id":"levelo_inurba_marseille","lat":43.28272,"lon":5.35058,"is_reserved":false,"is_disabled":false,"rental_uris":{"android":"levelo://app?vid=5c00077e-a206-4ce3-b349-7b2834fc2bc0","ios":"levelo://app?vid=5c00077e-a206-4ce3-b349-7b2834fc2bc0"},"vehicle_type_id":"4","last_reported":1721751060,"current_range_meters":23200,"station_id":"ce4bhbp2rcd13ifvqerg","pricing_plan_id":"cebpf4jnsgd1na2vs0mg"},{"bike_id":"d8c73d8b-e5eb-447f-9286-3af565d3553b","system_id":"levelo_inurba_marseille","lat":43.28271,"lon":5.35061,"is_reserved":false,"is_disabled":false,"rental_uris":{"android":"levelo://app?vid=d8c73d8b-e5eb-447f-9286-3af565d3553b","ios":"levelo://app?vid=d8c73d8b-e5eb-447f-9286-3af565d3553b"},"vehicle_type_id":"4","last_reported":1721751060,"current_range_meters":31200,"station_id":"ce4bhbp2rcd13ifvqerg","pricing_plan_id":"cebpf4jnsgd1na2vs0mg"},{"bike_id":"b445fddd-3249-403c-8efd-8d1cc4b135f0","system_id":"levelo_inurba_marseille","lat":43.282744,"lon":5.350533,"is_reserved":false,"is_disabled":false,"rental_uris":{"android":"levelo://app?vid=b445fddd-3249-403c-8efd-8d1cc4b135f0","ios":"levelo://app?vid=b445fddd-3249-403c-8efd-8d1cc4b135f0"},"vehicle_type_id":"4","last_reported":1721751060,"current_range_meters":17200,"station_id":"ce4bhbp2rcd13ifvqerg","pricing_plan_id":"cebpf4jnsgd1na2vs0mg"},{"bike_id":"e4b4c0f7-4791-4685-a4a0-e31fb3d7384f","system_id":"levelo_inurba_marseille","lat":43.282744,"lon":5.350533,"is_reserved":false,"is_disabled":false,"rental_uris":{"android":"levelo://app?vid=e4b4c0f7-4791-4685-a4a0-e31fb3d7384f","ios":"levelo://app?vid=e4b4c0f7-4791-4685-a4a0-e31fb3d7384f"},"vehicle_type_id":"4","last_reported":1721751060,"current_range_meters":13600,"station_id":"ce4bhbp2rcd13ifvqerg","pricing_plan_id":"cebpf4jnsgd1na2vs0mg"},{"bike_id":"674f50a4-dcf9-4c26-8074-394f1ad78584","system_id":"levelo_inurba_marseille","lat":43.28272,"lon":5.35054,"is_reserved":false,"is_disabled":false,"rental_uris":{"android":"levelo://app?vid=674f50a4-dcf9-4c26-8074-394f1ad78584","ios":"levelo://app?vid=674f50a4-dcf9-4c26-8074-394f1ad78584"},"vehicle_type_id":"4","last_reported":1721751060,"current_range_meters":11600,"station_id":"ce4bhbp2rcd13ifvqerg","pricing_plan_id":"cebpf4jnsgd1na2vs0mg"},{"bike_id":"a9417fc6-d2d8-403f-a3f1-2f4bfb4b7c2e","system_id":"levelo_inurba_marseille","lat":43.282692,"lon":5.350634,"is_reserved":false,"is_disabled":false,"rental_uris":{"android":"levelo://app?vid=a9417fc6-d2d8-403f-a3f1-2f4bfb4b7c2e","ios":"levelo://app?vid=a9417fc6-d2d8-403f-a3f1-2f4bfb4b7c2e"},"vehicle_type_id":"4","last_reported":1721751060,"current_range_meters":17600,"station_id":"ce4bhbp2rcd13ifvqerg","pricing_plan_id":"cebpf4jnsgd1na2vs0mg"},{"bike_id":"13a7508a-41c2-447e-a6d2-f1f02ce2d6cd","system_id":"levelo_inurba_marseille","lat":43.28268,"lon":5.35067,"is_reserved":false,"is_disabled":false,"rental_uris":{"android":"levelo://app?vid=13a7508a-41c2-447e-a6d2-f1f02ce2d6cd","ios":"levelo://app?vid=13a7508a-41c2-447e-a6d2-f1f02ce2d6cd"},"vehicle_type_id":"4","last_reported":1721751060,"current_range_meters":10800,"station_id":"ce4bhbp2rcd13ifvqerg","pricing_plan_id":"cebpf4jnsgd1na2vs0mg"},{"bike_id":"6797df5a-89d6-4cea-b451-b676e665639f","system_id":"levelo_inurba_marseille","lat":43.2827,"lon":5.35059,"is_reserved":false,"is_disabled":false,"rental_uris":{"android":"levelo://app?vid=6797df5a-89d6-4cea-b451-b676e665639f","ios":"levelo://app?vid=6797df5a-89d6-4cea-b451-b676e665639f"},"vehicle_type_id":"4","last_reported":1721751060,"current_range_meters":15600,"station_id":"ce4bhbp2rcd13ifvqerg","pricing_plan_id":"cebpf4jnsgd1na2vs0mg"},{"bike_id":"7bcb1644-871e-48ef-936d-47069da8c56b","system_id":"levelo_inurba_marseille","lat":43.282688,"lon":5.350628,"is_reserved":false,"is_disabled":false,"rental_uris":{"android":"levelo://app?vid=7bcb1644-871e-48ef-936d-47069da8c56b","ios":"levelo://app?vid=7bcb1644-871e-48ef-936d-47069da8c56b"},"vehicle_type_id":"4","last_reported":1721751060,"current_range_meters":14000,"station_id":"ce4bhbp2rcd13ifvqerg","pricing_plan_id":"cebpf4jnsgd1na2vs0mg"},{"bike_id":"abcdea1c-8691-4c79-8848-441f9747e94f","system_id":"levelo_inurba_marseille","lat":43.282754,"lon":5.350519,"is_reserved":false,"is_disabled":false,"rental_uris":{"android":"levelo://app?vid=abcdea1c-8691-4c79-8848-441f9747e94f","ios":"levelo://app?vid=abcdea1c-8691-4c79-8848-441f9747e94f"},"vehicle_type_id":"4","last_reported":1721751060,"current_range_meters":31600,"station_id":"ce4bhbp2rcd13ifvqerg","pricing_plan_id":"cebpf4jnsgd1na2vs0mg"},{"bike_id":"40a9bba0-275d-4dc9-a93b-00595d6b16af","system_id":"levelo_inurba_marseille","lat":43.28269,"lon":5.3506,"is_reserved":false,"is_disabled":false,"rental_uris":{"android":"levelo://app?vid=40a9bba0-275d-4dc9-a93b-00595d6b16af","ios":"levelo://app?vid=40a9bba0-275d-4dc9-a93b-00595d6b16af"},"vehicle_type_id":"4","last_reported":1721751060,"current_range_meters":30400,"station_id":"ce4bhbp2rcd13ifvqerg","pricing_plan_id":"cebpf4jnsgd1na2vs0mg"},{"bike_id":"dfd2bd44-d975-4148-9ae1-b74046eae49a","system_id":"levelo_inurba_marseille","lat":43.2827,"lon":5.35056,"is_reserved":false,"is_disabled":false,"rental_uris":{"android":"levelo://app?vid=dfd2bd44-d975-4148-9ae1-b74046eae49a","ios":"levelo://app?vid=dfd2bd44-d975-4148-9ae1-b74046eae49a"},